{"last_updated":1687583234,"ttl":30,"version":"2.2","data":{"bikes":[{"bike_id":"1901d9e5-f7f0-4b35-96ce-0cc6aa6f2edf","system_id":"levelo_inurba_marseille","lat":43.31341,"lon":5.367098,"is_reserved":false,"is_disabled":false,"rental_uris":{"android":"levelo://app?vid=1901d9e5-f7f0-4b35-96ce-0cc6aa6f2edf","ios":"levelo://app?vid=1901d9e5-f7f0-4b35-96ce-0cc6aa6f2edf"},"vehicle_type_id":"4","last_reported":1687583235,"current_range_meters":28800,"station_id":"ce4bgr92rcd13ifvqc6g","pricing_plan_id":"free"},{"bike_id":"295cfa0d-4f69-4b89-9c92-b3ea9c9cdb69","system_id":"levelo_inurba_marseille","lat":43.313391,"lon":5.36706,"is_reserved":false,"is_disabled":false,"rental_uris":{"android":"levelo://app?vid=295cfa0d-4f69-4b89-9c92-b3ea9c9cdb69","ios":"levelo://app?vid=295cfa0d-4f69-4b89-9c92-b3ea9c9cdb69"},"vehicle_type_id":"4","last_reported":1687583235,"current_range_meters":31200,"station_id":"ce4bgr92rcd13ifvqc6g","pricing_plan_id":"free"},{"bike_id":"81815ce9-ee06-450c-8cbd-7bc71409b994","system_id":"levelo_inurba_marseille","lat":43.31341,"lon":5.367098,"is_reserved":false,"is_disabled":false,"rental_uris":{"android":"levelo://app?vid=81815ce9-ee06-450c-8cbd-7bc71409b994","ios":"levelo://app?vid=81815ce9-ee06-450c-8cbd-7bc71409b994"},"vehicle_type_id":"4","last_reported":1687583235,"current_range_meters":1600,"station_id":"ce4bgr92rcd13ifvqc6g","pricing_plan_id":"free"},{"bike_id":"b40f6b11-560c-4821-8133-4d618b0eaa38","system_id":"levelo_inurba_marseille","lat":43.31228,"lon":5.36881,"is_reserved":false,"is_disabled":false,"rental_uris":{"android":"levelo://app?vid=b40f6b11-560c-4821-8133-4d618b0eaa38","ios":"levelo://app?vid=b40f6b11-560c-4821-8133-4d618b0eaa38"},"vehicle_type_id":"4","last_reported":1687583235,"current_range_meters":30000,"station_id":"ce4bgl92rcd13ifvqbq0","pricing_plan_id":"free"},{"bike_id":"cf88bf5d-6b4f-432f-a94f-194fca472f10","system_id":"levelo_inurba_marseille","lat":43.309076,"lon":5.368465,"is_reserved":false,"is_disabled":false,"rental_uris":{"android":"levelo://app?vid=cf88bf5d-6b4f-432f-a94f-194fca472f10","ios":"levelo://app?vid=cf88bf5d-6b4f-432f-a94f-194fca472f10"},"vehicle_type_id":"4","last_reported":1687583235,"current_range_meters":27200,"station_id":"ce4bgn92rcd13ifvqbvg","pricing_plan_id":"free"},{"bike_id":"06310f1c-4cc8-49c6-a574-6b33fca387cc","system_id":"levelo_inurba_marseille","lat":43.31313,"lon":5.37252,"is_reserved":false,"is_disabled":false,"rental_uris":{"android":"levelo://app?vid=06310f1c-4cc8-49c6-a574-6b33fca387cc","ios":"levelo://app?vid=06310f1c-4cc8-49c6-a574-6b33fca387cc"},"vehicle_type_id":"4","last_reported":1687583235,"current_range_meters":8400,"station_id":"","pricing_plan_id":"free"},{"bike_id":"62f88e86-17a4-4064-8803-95cf4c7ab1e4","system_id":"levelo_inurba_marseille","lat":43.314811,"lon":5.373103,"is_reserved":false,"is_disabled":false,"rental_uris":{"android":"levelo://app?vid=62f88e86-17a4-4064-8803-95cf4c7ab1e4","ios":"levelo://app?vid=62f88e86-17a4-4064-8803-95cf4c7ab1e4"},"vehicle_type_id":"4","last_reported":1687583235,"current_range_meters":28000,"station_id":"ce4bgt12rcd13ifvqcd0","pricing_plan_id":"free"},{"bike_id":"f600f79a-9522-48a4-8525-31e121f43c34","system_id":"levelo_inurba_marseille","lat":43.314811,"lon":5.373103,"is_reserved":false,"is_disabled":false,"rental_uris":{"android":"levelo://app?vid=f600f79a-9522-48a4-8525-31e121f43c34","ios":"levelo://app?vid=f600f79a-9522-48a4-8525-31e121f43c34"},"vehicle_type_id":"4","last_reported":1687583235,"current_range_meters":29600,"station_id":"ce4bgt12rcd13ifvqcd0","pricing_plan_id":"free"},{"bike_id":"3b8af517-ced9-44b4-828b-179f95914337","system_id":"levelo_inurba_marseille","lat":43.314811,"lon":5.373103,"is_reserved":false,"is_disabled":false,"rental_uris":{"android":"levelo://app?vid=3b8af517-ced9-44b4-828b-179f95914337","ios":"levelo://app?vid=3b8af517-ced9-44b4-828b-179f95914337"},"vehicle_type_id":"4","last_reported":1687583235,"current_range_meters":31200,"station_id":"ce4bgt12rcd13ifvqcd0","pricing_plan_id":"free"},{"bike_id":"aba1bcad-a193-423b-940b-30c12b1a57e0","system_id":"levelo_inurba_marseille","lat":43.314811,"lon":5.373103,"is_reserved":false,"is_disabled":false,"rental_uris":{"android":"levelo://app?vid=aba1bcad-a193-423b-940b-30c12b1a57e0","ios":"levelo://app?vid=aba1bcad-a193-423b-940b-30c12b1a57e0"},"vehicle_type_id":"4","last_reported":1687583235,"current_range_meters":31200,"station_id":"ce4bgt12rcd13ifvqcd0","pricing_plan_id":"free"},{"bike_id":"1134cfe3-873d-4e89-9e26-f9b9b84a8c2c","system_id":"levelo_inurba_marseille","lat":43.314811,"lon":5.373103,"is_reserved":false,"is_disabled":false,"rental_uris":{"android":"levelo://app?vid=1134cfe3-873d-4e89-9e26-f9b9b84a8c2c","ios":"levelo://app?vid=1134cfe3-873d-4e89-9e26-f9b9b84a8c2c"},"vehicle_type_id":"4","last_reported":1687583235,"current_range_meters":0,"station_id":"ce4bgt12rcd13ifvqcd0","pricing_plan_id":"free"},{"bike_id":"756a1899-f24a-4291-b8f2-1ef20da0ad38","system_id":"levelo_inurba_marseille","lat":43.30884,"lon":5.37177,"is_reserved":false,"is_disabled":false,"rental_uris":{"android":"levelo://app?vid=756a1899-f24a-4291-b8f2-1ef20da0ad38","ios":"levelo://app?vid=756a1899-f24a-4291-b8f2-1ef20da0ad38"},"vehicle_type_id":"4","last_reported":1687583235,"current_range_meters":30400,"station_id":"","pricing_plan_id":"free"},{"bike_id":"00bade4f-56c2-4c47-b040-2563fb088b24","system_id":"levelo_inurba_marseille","lat":43.30884,"lon":5.37188,"is_reserved":false,"is_disabled":false,"rental_uris":{"android":"levelo://app?vid=00bade4f-56c2-4c47-b040-2563fb088b24","ios":"levelo://app?vid=00bade4f-56c2-4c47-b040-2563fb088b24"},"vehicle_type_id":"4","last_reported":1687583235,"current_range_meters":0,"station_id":"","pricing_plan_id":"free"},{"bike_id":"719c0130-a4db-43df-be52-28338359eed8","system_id":"levelo_inurba_marseille","lat":43.305714,"lon":5.365633,"is_reserved":false,"is_disabled":false,"rental_uris":{"android":"levelo://app?vid=719c0130-a4db-43df-be52-28338359eed8","ios":"levelo://app?vid=719c0130-a4db-43df-be52-28338359eed8"},"vehicle_type_id":"4","last_reported":1687583235,"current_range_meters":18400,"station_id":"ce4bgs12rcd13ifvqcag","pricing_plan_id":"free"},{"bike_id":"5cdb7b94-40c7-4605-b0a2-f60bf0b9560d","system_id":"levelo_inurba_marseille","lat":43.305714,"lon":5.365633,"is_reserved":false,"is_disabled":false,"rental_uris":{"android":"levelo://app?vid=5cdb7b94-40c7-4605-b0a2-f60bf0b9560d","ios":"levelo://app?vid=5cdb7b94-40c7-4605-b0a2-f60bf0b9560d"},"vehicle_type_id":"4","last_reported":1687583235,"current_range_meters":28800,"station_id":"ce4bgs12rcd13ifvqcag","pricing_plan_id":"free"},{"bike_id":"8c6a7e00-9c68-4254-910e-3bb38fc39131","system_id":"levelo_inurba_marseille","lat":43.305714,"lon":5.365633,"is_reserved":false,"is_disabled":false,"rental_uris":{"android":"levelo://app?vid=8c6a7e00-9c68-4254-910e-3bb38fc39131","ios":"levelo://app?vid=8c6a7e00-9c68-4254-910e-3bb38fc39131"},"vehicle_type_id":"4","last_reported":1687583235,"current_range_meters":31200,"station_id":"ce4bgs12rcd13ifvqcag","pricing_plan_id":"free"},{"bike_id":"a62a0728-8de8-4e94-8958-5c1d77536818","system_id":"levelo_inurba_marseille","lat":43.305714,"lon":5.365633,"is_reserved":false,"is_disabled":false,"rental_uris":{"android":"levelo://app?vid=a62a0728-8de8-4e94-8958-5c1d77536818","ios":"levelo://app?vid=a62a0728-8de8-4e94-8958-5c1d77536818"},"vehicle_type_id":"4","last_reported":1687583235,"current_range_meters":28000,"station_id":"ce4bgs12rcd13ifvqcag","pricing_plan_id":"free"},{"bike_id":"cadb2279-3938-42b3-a73c-32ed68b39ca6","system_id":"levelo_inurba_marseille","lat":43.305714,"lon":5.365633,"is_reserved":false,"is_disabled":false,"rental_uris":{"android":"levelo://app?vid=cadb2279-3938-42b3-a73c-32ed68b39ca6","ios":"levelo://app?vid=cadb2279-3938-42b3-a73c-32ed68b39ca6"},"vehicle_type_id":"4","last_reported":1687583235,"current_range_meters":21200,"station_id":"ce4bgs12rcd13ifvqcag","pricing_plan_id":"free"},{"bike_id":"eb4298f0-4742-45f5-be48-a5050b3db9a2","system_id":"levelo_inurba_marseille","lat":43.30541,"lon":5.36541,"is_reserved":false,"is_disabled":false,"rental_uris":{"android":"levelo://app?vid=eb4298f0-4742-45f5-be48-a5050b3db9a2","ios":"levelo://app?vid=eb4298f0-4742-45f5-be48-a5050b3db9a2"},"vehicle_type_id":"4","last_reported":1687583235,"current_range_meters":12800,"station_id":"ce4bgs12rcd13ifvqcag","pricing_plan_id":"free"},{"bike_id":"6289fccf-70ea-45b8-bb32-7ddedea00214","system_id":"levelo_inurba_marseille","lat":43.305714,"lon":5.365633,"is_reserved":false,"is_disabled":false,"rental_uris":{"android":"levelo://app?vid=6289fccf-70ea-45b8-bb32-7ddedea00214","ios":"levelo://app?vid=6289fccf-70ea-45b8-bb32-7ddedea00214"},"vehicle_type_id":"4","last_reported":1687583235,"current_range_meters":22400,"station_id":"ce4bgs12rcd13ifvqcag","pricing_plan_id":"free"},{"bike_id":"5ea86899-2c79-42b2-a664-f59b713aa0fa","system_id":"levelo_inurba_marseille","lat":43.311131,"lon":5.377651,"is_reserved":false,"is_disabled":false,"rental_uris":{"android":"levelo://app?vid=5ea86899-2c79-42b2-a664-f59b713aa0fa","ios":"levelo://app?vid=5ea86899-2c79-42b2-a664-f59b713aa0fa"},"vehicle_type_id":"4","last_reported":1687583235,"current_range_meters":28800,"station_id":"ce4bgt92rcd13ifvqcg0","pricing_plan_id":"free"},{"bike_id":"255ec70a-2885-40dd-9c05-ebe7135281ee","system_id":"levelo_inurba_marseille","lat":43.311131,"lon":5.377651,"is_reserved":false,"is_disabled":false,"rental_uris":{"android":"levelo://app?vid=255ec70a-2885-40dd-9c05-ebe7135281ee","ios":"levelo://app?vid=255ec70a-2885-40dd-9c05-ebe7135281ee"},"vehicle_type_id":"4","last_reported":1687583235,"current_range_meters":30000,"station_id":"ce4bgt92rcd13ifvqcg0","pricing_plan_id":"free"},{"bike_id":"f78431d8-25fa-4da3-aaf9-8122b0515c6e","system_id":"levelo_inurba_marseille","lat":43.311131,"lon":5.377651,"is_reserved":false,"is_disabled":false,"rental_uris":{"android":"levelo://app?vid=f78431d8-25fa-4da3-aaf9-8122b0515c6e","ios":"levelo://app?vid=f78431d8-25fa-4da3-aaf9-8122b0515c6e"},"vehicle_type_id":"4","last_reported":1687583235,"current_range_meters":31200,"station_id":"ce4bgt92rcd13ifvqcg0","pricing_plan_id":"free"},{"bike_id":"dcf1bce1-e4a6-4518-a021-1690592ba70c","system_id":"levelo_inurba_marseille","lat":43.311131,"lon":5.377651,"is_reserved":false,"is_disabled":false,"rental_uris":{"android":"levelo://app?vid=dcf1bce1-e4a6-4518-a021-1690592ba70c","ios":"levelo://app?vid=dcf1bce1-e4a6-4518-a021-1690592ba70c"},"vehicle_type_id":"4","last_reported":1687583235,"current_range_meters":2800,"station_id":"ce4bgt92rcd13ifvqcg0","pricing_plan_id":"free"},{"bike_id":"f8f84929-36e8-4f4e-9798-493c2b1afb63","system_id":"levelo_inurba_marseille","lat":43.311131,"lon":5.377651,"is_reserved":false,"is_disabled":false,"rental_uris":{"android":"levelo://app?vid=f8f84929-36e8-4f4e-9798-493c2b1afb63","ios":"levelo://app?vid=f8f84929-36e8-4f4e-9798-493c2b1afb63"},"vehicle_type_id":"4","last_reported":1687583235,"current_range_meters":17200,"station_id":"ce4bgt92rcd13ifvqcg0","pricing_plan_id":"free"},{"bike_id":"d2c5ef11-4e0d-4c20-b632-0b08133ee512","system_id":"levelo_inurba_marseille","lat":43.311131,"lon":5.377651,"is_reserved":false,"is_disabled":false,"rental_uris":{"android":"levelo://app?vid=d2c5ef11-4e0d-4c20-b632-0b08133ee512","ios":"levelo://app?vid=d2c5ef11-4e0d-4c20-b632-0b08133ee512"},"vehicle_type_id":"4","last_reported":1687583235,"current_range_meters":22800,"station_id":"ce4bgt92rcd13ifvqcg0","pricing_plan_id":"free"},{"bike_id":"19ba9cc9-413f-4b5b-9b89-3d2099817bb7","system_id":"levelo_inurba_marseille","lat":43.311131,"lon":5.377651,"is_reserved":false,"is_disabled":false,"rental_uris":{"android":"levelo://app?vid=19ba9cc9-413f-4b5b-9b89-3d2099817bb7","ios":"levelo://app?vid=19ba9cc9-413f-4b5b-9b89-3d2099817bb7"},"vehicle_type_id":"4","last_reported":1687583235,"current_range_meters":4800,"station_id":"ce4bgt92rcd13ifvqcg0","pricing_plan_id":"free"},{"bike_id":"343763b0-40e3-4cfe-8c35-295dbbc23d61","system_id":"levelo_inurba_marseille","lat":43.311125,"lon":5.377624,"is_reserved":false,"is_disabled":false,"rental_uris":{"android":"levelo://app?vid=343763b0-40e3-4cfe-8c35-295dbbc23d61","ios":"levelo://app?vid=343763b0-40e3-4cfe-8c35-295dbbc23d61"},"vehicle_type_id":"4","last_reported":1687583235,"current_range_meters":17200,"station_id":"ce4bgt92rcd13ifvqcg0","pricing_plan_id":"free"},{"bike_id":"70a42020-6c12-45b7-b012-57a7a6262b28","system_id":"levelo_inurba_marseille","lat":43.315293,"lon":5.380349,"is_reserved":false,"is_disabled":false,"rental_uris":{"android":"levelo://app?vid=70a42020-6c12-45b7-b012-57a7a6262b28","ios":"levelo://app?vid=70a42020-6c12-45b7-b012-57a7a6262b28"},"vehicle_type_id":"4","last_reported":1687583235,"current_range_meters":4800,"station_id":"ce4bhsp2rcd13ifvqi50","pricing_plan_id":"free"},{"bike_id":"b1a4f746-7ea7-437c-8a53-cec7035ca671","system_id":"levelo_inurba_marseille","lat":43.31532,"lon":5.38023,"is_reserved":false,"is_disabled":false,"rental_uris":{"android":"levelo://app?vid=b1a4f746-7ea7-437c-8a53-cec7035ca671","ios":"levelo://app?vid=b1a4f746-7ea7-437c-8a53-cec7035ca671"},"vehicle_type_id":"4","last_reported":1687583235,"current_range_meters":26000,"station_id":"ce4bhsp2rcd13ifvqi50","pricing_plan_id":"free"},{"bike_id":"b0b44079-8797-4c6e-afe6-ac78f4ed7d70","system_id":"levelo_inurba_marseille","lat":43.31534,"lon":5.38025,"is_reserved":false,"is_disabled":false,"rental_uris":{"android":"levelo://app?vid=b0b44079-8797-4c6e-afe6-ac78f4ed7d70","ios":"levelo://app?vid=b0b44079-8797-4c6e-afe6-ac78f4ed7d70"},"vehicle_type_id":"4","last_reported":1687583235,"current_range_meters":5600,"station_id":"ce4bhsp2rcd13ifvqi50","pricing_plan_id":"free"},{"bike_id":"dd875a85-efff-44b8-8320-89fd32ad6ad2","system_id":"levelo_inurba_marseille","lat":43.31536,"lon":5.38025,"is_reserved":false,"is_disabled":false,"rental_uris":{"android":"levelo://app?vid=dd875a85-efff-44b8-8320-89fd32ad6ad2","ios":"levelo://app?vid=dd875a85-efff-44b8-8320-89fd32ad6ad2"},"vehicle_type_id":"4","last_reported":1687583235,"current_range_meters":31200,"station_id":"ce4bhsp2rcd13ifvqi50","pricing_plan_id":"free"},{"bike_id":"035a85f7-14a9-418b-bec6-494de6378db2","system_id":"levelo_inurba_marseille","lat":43.31533,"lon":5.38027,"is_reserved":false,"is_disabled":false,"rental_uris":{"android":"levelo://app?vid=035a85f7-14a9-418b-bec6-494de6378db2","ios":"levelo://app?vid=035a85f7-14a9-418b-bec6-494de6378db2"},"vehicle_type_id":"4","last_reported":1687583235,"current_range_meters":28400,"station_id":"ce4bhsp2rcd13ifvqi50","pricing_plan_id":"free"},{"bike_id":"3848e9be-5650-4980-a93b-e4cd6d037a9e","system_id":"levelo_inurba_marseille","lat":43.315293,"lon":5.380349,"is_reserved":false,"is_disabled":false,"rental_uris":{"android":"levelo://app?vid=3848e9be-5650-4980-a93b-e4cd6d037a9e","ios":"levelo://app?vid=3848e9be-5650-4980-a93b-e4cd6d037a9e"},"vehicle_type_id":"4","last_reported":1687583235,"current_range_meters":12800,"station_id":"ce4bhsp2rcd13ifvqi50","pricing_plan_id":"free"},{"bike_id":"e5d77ebf-18cb-491e-808a-c55e1b128bd1","system_id":"levelo_inurba_marseille","lat":43.315293,"lon":5.380349,"is_reserved":false,"is_disabled":false,"rental_uris":{"android":"levelo://app?vid=e5d77ebf-18cb-491e-808a-c55e1b128bd1","ios":"levelo://app?vid=e5d77ebf-18cb-491e-808a-c55e1b128bd1"},"vehicle_type_id":"4","last_reported":1687583235,"current_range_meters":31200,"station_id":"ce4bhsp2rcd13ifvqi50","pricing_plan_id":"free"},{"bike_id":"eb7f077e-c7de-417c-95e4-838ee8983da9","system_id":"levelo_inurba_marseille","lat":43.301939,"lon":5.366286,"is_reserved":false,"is_disabled":false,"rental_uris":{"android":"levelo://app?vid=eb7f077e-c7de-417c-95e4-838ee8983da9","ios":"levelo://app?vid=eb7f077e-c7de-417c-95e4-838ee8983da9"},"vehicle_type_id":"4","last_reported":1687583235,"current_range_meters":26800,"station_id":"ce4bgrh2rcd13ifvqc8g","pricing_plan_id":"free"},{"bike_id":"d9fd3347-0e42-4e05-9c73-61c8dea84703","system_id":"levelo_inurba_marseille","lat":43.30804,"lon":5.38147,"is_reserved":false,"is_disabled":false,"rental_uris":{"android":"levelo://app?vid=d9fd3347-0e42-4e05-9c73-61c8dea84703","ios":"levelo://app?vid=d9fd3347-0e42-4e05-9c73-61c8dea84703"},"vehicle_type_id":"4","last_reported":1687583235,"current_range_meters":24000,"station_id":"ce4bgt12rcd13ifvqce0","pricing_plan_id":"free"},{"bike_id":"4c29ac60-8253-432f-bdbe-09614e587477","system_id":"levelo_inurba_marseille","lat":43.308012,"lon":5.381511,"is_reserved":false,"is_disabled":false,"rental_uris":{"android":"levelo://app?vid=4c29ac60-8253-432f-bdbe-09614e587477","ios":"levelo://app?vid=4c29ac60-8253-432f-bdbe-09614e587477"},"vehicle_type_id":"4","last_reported":1687583235,"current_range_meters":18400,"station_id":"ce4bgt12rcd13ifvqce0","pricing_plan_id":"free"},{"bike_id":"1d862478-594b-4732-bd97-d5bc59e13f8e","system_id":"levelo_inurba_marseille","lat":43.308012,"lon":5.381511,"is_reserved":false,"is_disabled":false,"rental_uris":{"android":"levelo://app?vid=1d862478-594b-4732-bd97-d5bc59e13f8e","ios":"levelo://app?vid=1d862478-594b-4732-bd97-d5bc59e13f8e"},"vehicle_type_id":"4","last_reported":1687583235,"current_range_meters":26000,"station_id":"ce4bgt12rcd13ifvqce0","pricing_plan_id":"free"},{"bike_id":"70a44d74-f90d-4652-a6c5-659d4f64745e","system_id":"levelo_inurba_marseille","lat":43.308012,"lon":5.381511,"is_reserved":false,"is_disabled":false,"rental_uris":{"android":"levelo://app?vid=70a44d74-f90d-4652-a6c5-659d4f64745e","ios":"levelo://app?vid=70a44d74-f90d-4652-a6c5-659d4f64745e"},"vehicle_type_id":"4","last_reported":1687583235,"current_range_meters":17600,"station_id":"ce4bgt12rcd13ifvqce0","pricing_plan_id":"free"},{"bike_id":"fcdb9b36-2270-47b7-91df-48c08aabb386","system_id":"levelo_inurba_marseille","lat":43.30803,"lon":5.38161,"is_reserved":false,"is_disabled":false,"rental_uris":{"android":"levelo://app?vid=fcdb9b36-2270-47b7-91df-48c08aabb386","ios":"levelo://app?vid=fcdb9b36-2270-47b7-91df-48c08aabb386"},"vehicle_type_id":"4","last_reported":1687583235,"current_range_meters":31200,"station_id":"ce4bgt12rcd13ifvqce0","pricing_plan_id":"free"},{"bike_id":"fa36cdbe-c8a4-4d7f-8dce-027ee02d9a91","system_id":"levelo_inurba_marseille","lat":43.304606,"lon":5.379026,"is_reserved":false,"is_disabled":false,"rental_uris":{"android":"levelo://app?vid=fa36cdbe-c8a4-4d7f-8dce-027ee02d9a91","ios":"levelo://app?vid=fa36cdbe-c8a4-4d7f-8dce-027ee02d9a91"},"vehicle_type_id":"4","last_reported":1687583235,"current_range_meters":28800,"station_id":"ce4bgup2rcd13ifvqcn0","pricing_plan_id":"free"},{"bike_id":"1f373ac8-a75e-4a2b-8475-f2eb09b6535b","system_id":"levelo_inurba_marseille","lat":43.304606,"lon":5.379026,"is_reserved":false,"is_disabled":false,"rental_uris":{"android":"levelo://app?vid=1f373ac8-a75e-4a2b-8475-f2eb09b6535b","ios":"levelo://app?vid=1f373ac8-a75e-4a2b-8475-f2eb09b6535b"},"vehicle_type_id":"4","last_reported":1687583235,"current_range_meters":29200,"station_id":"ce4bgup2rcd13ifvqcn0","pricing_plan_id":"free"},{"bike_id":"c4910eb7-4135-4884-8b4d-452a64ae54f3","system_id":"levelo_inurba_marseille","lat":43.304606,"lon":5.379026,"is_reserved":false,"is_disabled":false,"rental_uris":{"android":"levelo://app?vid=c4910eb7-4135-4884-8b4d-452a64ae54f3","ios":"levelo://app?vid=c4910eb7-4135-4884-8b4d-452a64ae54f3"},"vehicle_type_id":"4","last_reported":1687583235,"current_range_meters":23200,"station_id":"ce4bgup2rcd13ifvqcn0","pricing_plan_id":"free"},{"bike_id":"aa97296c-60fa-4290-9f33-e6c255f70bed","system_id":"levelo_inurba_marseille","lat":43.304606,"lon":5.379026,"is_reserved":false,"is_disabled":false,"rental_uris":{"android":"levelo://app?vid=aa97296c-60fa-4290-9f33-e6c255f70bed","ios":"levelo://app?vid=aa97296c-60fa-4290-9f33-e6c255f70bed"},"vehicle_type_id":"4","last_reported":1687583235,"current_range_meters":30400,"station_id":"ce4bgup2rcd13ifvqcn0","pricing_plan_id":"free"},{"bike_id":"fd333aa3-c077-4a2d-ba7d-06c3d9f4b919","system_id":"levelo_inurba_marseille","lat":43.304606,"lon":5.379026,"is_reserved":false,"is_disabled":false,"rental_uris":{"android":"levelo://app?vid=fd333aa3-c077-4a2d-ba7d-06c3d9f4b919","ios":"levelo://app?vid=fd333aa3-c077-4a2d-ba7d-06c3d9f4b919"},"vehicle_type_id":"4","last_reported":1687583235,"current_range_meters":21600,"station_id":"ce4bgup2rcd13ifvqcn0","pricing_plan_id":"free"},{"bike_id":"a90ada46-b09e-40c4-8579-9d2dc68c6d22","system_id":"levelo_inurba_marseille","lat":43.304606,"lon":5.379026,"is_reserved":false,"is_disabled":false,"rental_uris":{"android":"levelo://app?vid=a90ada46-b09e-40c4-8579-9d2dc68c6d22","ios":"levelo://app?vid=a90ada46-b09e-40c4-8579-9d2dc68c6d22"},"vehicle_type_id":"4","last_reported":1687583235,"current_range_meters":27600,"station_id":"ce4bgup2rcd13ifvqcn0","pricing_plan_id":"free"},{"bike_id":"df48d0c0-5d5f-48f8-be7b-1345a81ca474","system_id":"levelo_inurba_marseille","lat":43.304606,"lon":5.379026,"is_reserved":false,"is_disabled":false,"rental_uris":{"android":"levelo://app?vid=df48d0c0-5d5f-48f8-be7b-1345a81ca474","ios":"levelo://app?vid=df48d0c0-5d5f-48f8-be7b-1345a81ca474"},"vehicle_type_id":"4","last_reported":1687583235,"current_range_meters":27200,"station_id":"ce4bgup2rcd13ifvqcn0","pricing_plan_id":"free"},{"bike_id":"f4ac11e6-6eaf-420c-b49a-60a15116510c","system_id":"levelo_inurba_marseille","lat":43.304606,"lon":5.379026,"is_reserved":false,"is_disabled":false,"rental_uris":{"android":"levelo://app?vid=f4ac11e6-6eaf-420c-b49a-60a15116510c","ios":"levelo://app?vid=f4ac11e6-6eaf-420c-b49a-60a15116510c"},"vehicle_type_id":"4","last_reported":1687583235,"current_range_meters":29600,"station_id":"ce4bgup2rcd13ifvqcn0","pricing_plan_id":"free"},{"bike_id":"611eeaeb-ff62-454f-8df3-4bb0f324999a","system_id":"levelo_inurba_marseille","lat":43.304606,"lon":5.379026,"is_reserved":false,"is_disabled":false,"rental_uris":{"android":"levelo://app?vid=611eeaeb-ff62-454f-8df3-4bb0f324999a","ios":"levelo://app?vid=611eeaeb-ff62-454f-8df3-4bb0f324999a"},"vehicle_type_id":"4","last_reported":1687583235,"current_range_meters":24800,"station_id":"ce4bgup2rcd13ifvqcn0","pricing_plan_id":"free"},{"bike_id":"4860b231-90cc-4c6f-8b65-964e4f6e1d61","system_id":"levelo_inurba_marseille","lat":43.30456,"lon":5.37903,"is_reserved":false,"is_disabled":false,"rental_uris":{"android":"levelo://app?vid=4860b231-90cc-4c6f-8b65-964e4f6e1d61","ios":"levelo://app?vid=4860b231-90cc-4c6f-8b65-964e4f6e1d61"},"vehicle_type_id":"4","last_reported":1687583235,"current_range_meters":30400,"station_id":"ce4bgup2rcd13ifvqcn0","pricing_plan_id":"free"},{"bike_id":"9fa95b7b-9033-465f-8ec2-adb1e87790d3","system_id":"levelo_inurba_marseille","lat":43.304606,"lon":5.379026,"is_reserved":false,"is_disabled":false,"rental_uris":{"android":"levelo://app?vid=9fa95b7b-9033-465f-8ec2-adb1e87790d3","ios":"levelo://app?vid=9fa95b7b-9033-465f-8ec2-adb1e87790d3"},"vehicle_type_id":"4","last_reported":1687583235,"current_range_meters":4400,"station_id":"ce4bgup2rcd13ifvqcn0","pricing_plan_id":"free"},{"bike_id":"abe2b56e-2c16-4740-bbf9-c902d83586c0","system_id":"levelo_inurba_marseille","lat":43.302784,"lon":5.377158,"is_reserved":false,"is_disabled":false,"rental_uris":{"android":"levelo://app?vid=abe2b56e-2c16-4740-bbf9-c902d83586c0","ios":"levelo://app?vid=abe2b56e-2c16-4740-bbf9-c902d83586c0"},"vehicle_type_id":"4","last_reported":1687583235,"current_range_meters":27600,"station_id":"ce4bguh2rcd13ifvqcj0","pricing_plan_id":"free"},{"bike_id":"4e33f608-2548-45c5-bee4-afca05408d9a","system_id":"levelo_inurba_marseille","lat":43.302784,"lon":5.377158,"is_reserved":false,"is_disabled":false,"rental_uris":{"android":"levelo://app?vid=4e33f608-2548-45c5-bee4-afca05408d9a","ios":"levelo://app?vid=4e33f608-2548-45c5-bee4-afca05408d9a"},"vehicle_type_id":"4","last_reported":1687583235,"current_range_meters":30000,"station_id":"ce4bguh2rcd13ifvqcj0","pricing_plan_id":"free"},{"bike_id":"9da1babc-2449-4e69-b60c-ea66750be84d","system_id":"levelo_inurba_marseille","lat":43.302784,"lon":5.377158,"is_reserved":false,"is_disabled":false,"rental_uris":{"android":"levelo://app?vid=9da1babc-2449-4e69-b60c-ea66750be84d","ios":"levelo://app?vid=9da1babc-2449-4e69-b60c-ea66750be84d"},"vehicle_type_id":"4","last_reported":1687583235,"current_range_meters":31200,"station_id":"ce4bguh2rcd13ifvqcj0","pricing_plan_id":"free"},{"bike_id":"fd2d60b6-5b0b-40b6-9fc6-812245d6488e","system_id":"levelo_inurba_marseille","lat":43.30145,"lon":5.3742,"is_reserved":false,"is_disabled":false,"rental_uris":{"android":"levelo://app?vid=fd2d60b6-5b0b-40b6-9fc6-812245d6488e","ios":"levelo://app?vid=fd2d60b6-5b0b-40b6-9fc6-812245d6488e"},"vehicle_type_id":"4","last_reported":1687583235,"current_range_meters":20800,"station_id":"ce4bgs92rcd13ifvqcc0","pricing_plan_id":"free"},{"bike_id":"388b99fc-8590-48a5-b5e8-4e62559f8827","system_id":"levelo_inurba_marseille","lat":43.31468,"lon":5.38402,"is_reserved":false,"is_disabled":false,"rental_uris":{"android":"levelo://app?vid=388b99fc-8590-48a5-b5e8-4e62559f8827","ios":"levelo://app?vid=388b99fc-8590-48a5-b5e8-4e62559f8827"},"vehicle_type_id":"4","last_reported":1687583235,"current_range_meters":20800,"station_id":"","pricing_plan_id":"free"},{"bike_id":"2464ae05-f82a-45d2-a8b5-97c137453391","system_id":"levelo_inurba_marseille","lat":43.319935,"lon":5.381699,"is_reserved":false,"is_disabled":false,"rental_uris":{"android":"levelo://app?vid=2464ae05-f82a-45d2-a8b5-97c137453391","ios":"levelo://app?vid=2464ae05-f82a-45d2-a8b5-97c137453391"},"vehicle_type_id":"4","last_reported":1687583235,"current_range_meters":4000,"station_id":"ce4bhr12rcd13ifvqhpg","pricing_plan_id":"free"},{"bike_id":"d47be9cf-94bf-48d8-8867-0f68c8c62bf0","system_id":"levelo_inurba_marseille","lat":43.31997,"lon":5.38149,"is_reserved":false,"is_disabled":false,"rental_uris":{"android":"levelo://app?vid=d47be9cf-94bf-48d8-8867-0f68c8c62bf0","ios":"levelo://app?vid=d47be9cf-94bf-48d8-8867-0f68c8c62bf0"},"vehicle_type_id":"4","last_reported":1687583235,"current_range_meters":0,"station_id":"ce4bhr12rcd13ifvqhpg","pricing_plan_id":"free"},{"bike_id":"3f2f1233-2fe6-4768-b8a0-e60f69e07c79","system_id":"levelo_inurba_marseille","lat":43.319935,"lon":5.381699,"is_reserved":false,"is_disabled":false,"rental_uris":{"android":"levelo://app?vid=3f2f1233-2fe6-4768-b8a0-e60f69e07c79","ios":"levelo://app?vid=3f2f1233-2fe6-4768-b8a0-e60f69e07c79"},"vehicle_type_id":"4","last_reported":1687583235,"current_range_meters":0,"station_id":"ce4bhr12rcd13ifvqhpg","pricing_plan_id":"free"},{"bike_id":"9a84abcc-57ec-4e7a-aad7-107e1e12b7c2","system_id":"levelo_inurba_marseille","lat":43.319935,"lon":5.381699,"is_reserved":false,"is_disabled":false,"rental_uris":{"android":"levelo://app?vid=9a84abcc-57ec-4e7a-aad7-107e1e12b7c2","ios":"levelo://app?vid=9a84abcc-57ec-4e7a-aad7-107e1e12b7c2"},"vehicle_type_id":"4","last_reported":1687583235,"current_range_meters":30800,"station_id":"ce4bhr12rcd13ifvqhpg","pricing_plan_id":"free"},{"bike_id":"6eabe30a-b27a-42f9-b61c-675e1ceb5988","system_id":"levelo_inurba_marseille","lat":43.319935,"lon":5.381699,"is_reserved":false,"is_disabled":false,"rental_uris":{"android":"levelo://app?vid=6eabe30a-b27a-42f9-b61c-675e1ceb5988","ios":"levelo://app?vid=6eabe30a-b27a-42f9-b61c-675e1ceb5988"},"vehicle_type_id":"4","last_reported":1687583235,"current_range_meters":14400,"station_id":"ce4bhr12rcd13ifvqhpg","pricing_plan_id":"free"},{"bike_id":"75501b7e-2e73-4c84-99a3-42f88a7c4084","system_id":"levelo_inurba_marseille","lat":43.31392,"lon":5.3848,"is_reserved":false,"is_disabled":false,"rental_uris":{"android":"levelo://app?vid=75501b7e-2e73-4c84-99a3-42f88a7c4084","ios":"levelo://app?vid=75501b7e-2e73-4c84-99a3-42f88a7c4084"},"vehicle_type_id":"4","last_reported":1687583235,"current_range_meters":17200,"station_id":"","pricing_plan_id":"free"},{"bike_id":"020a3ac6-38aa-428f-954f-b4508af34850","system_id":"levelo_inurba_marseille","lat":43.299209,"lon":5.365547,"is_reserved":false,"is_disabled":false,"rental_uris":{"android":"levelo://app?vid=020a3ac6-38aa-428f-954f-b4508af34850","ios":"levelo://app?vid=020a3ac6-38aa-428f-954f-b4508af34850"},"vehicle_type_id":"4","last_reported":1687583235,"current_range_meters":12000,"station_id":"ce4bgm92rcd13ifvqbr0","pricing_plan_id":"free"},{"bike_id":"8d5849da-b03a-42f6-bf2a-5f79afd909eb","system_id":"levelo_inurba_marseille","lat":43.299243,"lon":5.374807,"is_reserved":false,"is_disabled":false,"rental_uris":{"android":"levelo://app?vid=8d5849da-b03a-42f6-bf2a-5f79afd909eb","ios":"levelo://app?vid=8d5849da-b03a-42f6-bf2a-5f79afd909eb"},"vehicle_type_id":"4","last_reported":1687583235,"current_range_meters":28400,"station_id":"ce4bgjh2rcd13ifvqbg0","pricing_plan_id":"free"},{"bike_id":"405c78e4-4ea3-43b6-9e12-d443e41503db","system_id":"levelo_inurba_marseille","lat":43.31167,"lon":5.38713,"is_reserved":false,"is_disabled":false,"rental_uris":{"android":"levelo://app?vid=405c78e4-4ea3-43b6-9e12-d443e41503db","ios":"levelo://app?vid=405c78e4-4ea3-43b6-9e12-d443e41503db"},"vehicle_type_id":"4","last_reported":1687583235,"current_range_meters":0,"station_id":"ce4bgv12rcd13ifvqcp0","pricing_plan_id":"free"},{"bike_id":"1580a472-182f-4d91-8a6c-4c3a23a9c034","system_id":"levelo_inurba_marseille","lat":43.302,"lon":5.3821,"is_reserved":false,"is_disabled":false,"rental_uris":{"android":"levelo://app?vid=1580a472-182f-4d91-8a6c-4c3a23a9c034","ios":"levelo://app?vid=1580a472-182f-4d91-8a6c-4c3a23a9c034"},"vehicle_type_id":"4","last_reported":1687583235,"current_range_meters":18800,"station_id":"","pricing_plan_id":"free"},{"bike_id":"dd41ba81-9716-41ad-bf2f-fd5f1f31dcaa","system_id":"levelo_inurba_marseille","lat":43.328371,"lon":5.366909,"is_reserved":false,"is_disabled":false,"rental_uris":{"android":"levelo://app?vid=dd41ba81-9716-41ad-bf2f-fd5f1f31dcaa","ios":"levelo://app?vid=dd41ba81-9716-41ad-bf2f-fd5f1f31dcaa"},"vehicle_type_id":"4","last_reported":1687583235,"current_range_meters":28800,"station_id":"ce4bhs92rcd13ifvqi0g","pricing_plan_id":"free"},{"bike_id":"fa80e9cd-f31a-45d0-9ce7-3d96d492f473","system_id":"levelo_inurba_marseille","lat":43.328371,"lon":5.366909,"is_reserved":false,"is_disabled":false,"rental_uris":{"android":"levelo://app?vid=fa80e9cd-f31a-45d0-9ce7-3d96d492f473","ios":"levelo://app?vid=fa80e9cd-f31a-45d0-9ce7-3d96d492f473"},"vehicle_type_id":"4","last_reported":1687583235,"current_range_meters":19200,"station_id":"ce4bhs92rcd13ifvqi0g","pricing_plan_id":"free"},{"bike_id":"f0c49d04-749f-4a18-8823-5f643fcb68d5","system_id":"levelo_inurba_marseille","lat":43.328371,"lon":5.366909,"is_reserved":false,"is_disabled":false,"rental_uris":{"android":"levelo://app?vid=f0c49d04-749f-4a18-8823-5f643fcb68d5","ios":"levelo://app?vid=f0c49d04-749f-4a18-8823-5f643fcb68d5"},"vehicle_type_id":"4","last_reported":1687583235,"current_range_meters":30800,"station_id":"ce4bhs92rcd13ifvqi0g","pricing_plan_id":"free"},{"bike_id":"cbdd73a9-8831-4dab-9e8d-2ce4e630f6d2","system_id":"levelo_inurba_marseille","lat":43.328371,"lon":5.366909,"is_reserved":false,"is_disabled":false,"rental_uris":{"android":"levelo://app?vid=cbdd73a9-8831-4dab-9e8d-2ce4e630f6d2","ios":"levelo://app?vid=cbdd73a9-8831-4dab-9e8d-2ce4e630f6d2"},"vehicle_type_id":"4","last_reported":1687583235,"current_range_meters":31200,"station_id":"ce4bhs92rcd13ifvqi0g","pricing_plan_id":"free"},{"bike_id":"decf659d-a0df-4eb3-b361-a95f9835f63d","system_id":"levelo_inurba_marseille","lat":43.328371,"lon":5.366909,"is_reserved":false,"is_disabled":false,"rental_uris":{"android":"levelo://app?vid=decf659d-a0df-4eb3-b361-a95f9835f63d","ios":"levelo://app?vid=decf659d-a0df-4eb3-b361-a95f9835f63d"},"vehicle_type_id":"4","last_reported":1687583235,"current_range_meters":17600,"station_id":"ce4bhs92rcd13ifvqi0g","pricing_plan_id":"free"},{"bike_id":"90b040d2-040e-44af-9e47-0e505483041a","system_id":"levelo_inurba_marseille","lat":43.29714,"lon":5.36612,"is_reserved":false,"is_disabled":false,"rental_uris":{"android":"levelo://app?vid=90b040d2-040e-44af-9e47-0e505483041a","ios":"levelo://app?vid=90b040d2-040e-44af-9e47-0e505483041a"},"vehicle_type_id":"4","last_reported":1687583235,"current_range_meters":25600,"station_id":"ce4bgn12rcd13ifvqbt0","pricing_plan_id":"free"},{"bike_id":"d6aa4b8f-0fbd-492f-a726-f1b64033634e","system_id":"levelo_inurba_marseille","lat":43.29695,"lon":5.36444,"is_reserved":false,"is_disabled":false,"rental_uris":{"android":"levelo://app?vid=d6aa4b8f-0fbd-492f-a726-f1b64033634e","ios":"levelo://app?vid=d6aa4b8f-0fbd-492f-a726-f1b64033634e"},"vehicle_type_id":"4","last_reported":1687583235,"current_range_meters":7600,"station_id":"","pricing_plan_id":"free"},{"bike_id":"0c912d84-8b44-42cc-ae25-1c42976056dd","system_id":"levelo_inurba_marseille","lat":43.29573,"lon":5.367355,"is_reserved":false,"is_disabled":false,"rental_uris":{"android":"levelo://app?vid=0c912d84-8b44-42cc-ae25-1c42976056dd","ios":"levelo://app?vid=0c912d84-8b44-42cc-ae25-1c42976056dd"},"vehicle_type_id":"4","last_reported":1687583235,"current_range_meters":30000,"station_id":"ce4bgph2rcd13ifvqc2g","pricing_plan_id":"free"},{"bike_id":"25aab712-ed99-4599-9fd6-671b239bcd62","system_id":"levelo_inurba_marseille","lat":43.231562,"lon":5.436933,"is_reserved":false,"is_disabled":false,"rental_uris":{"android":"levelo://app?vid=25aab712-ed99-4599-9fd6-671b239bcd62","ios":"levelo://app?vid=25aab712-ed99-4599-9fd6-671b239bcd62"},"vehicle_type_id":"4","last_reported":1687583235,"current_range_meters":6800,"station_id":"ce4bhmp2rcd13ifvqgog","pricing_plan_id":"free"},{"bike_id":"041bc147-ef2f-419b-bb81-deca3bdf89e2","system_id":"levelo_inurba_marseille","lat":43.29611,"lon":5.36046,"is_reserved":false,"is_disabled":false,"rental_uris":{"android":"levelo://app?vid=041bc147-ef2f-419b-bb81-deca3bdf89e2","ios":"levelo://app?vid=041bc147-ef2f-419b-bb81-deca3bdf89e2"},"vehicle_type_id":"4","last_reported":1687583235,"current_range_meters":8000,"station_id":"","pricing_plan_id":"free"},{"bike_id":"62816c88-c366-434e-9ca3-3d8dc212144e","system_id":"levelo_inurba_marseille","lat":43.309589,"lon":5.390258,"is_reserved":false,"is_disabled":false,"rental_uris":{"android":"levelo://app?vid=62816c88-c366-434e-9ca3-3d8dc212144e","ios":"levelo://app?vid=62816c88-c366-434e-9ca3-3d8dc212144e"},"vehicle_type_id":"4","last_reported":1687583235,"current_range_meters":30400,"station_id":"ce4bgup2rcd13ifvqco0","pricing_plan_id":"free"},{"bike_id":"b620228d-37d4-4969-b28b-de0acc7b2432","system_id":"levelo_inurba_marseille","lat":43.317557,"lon":5.390173,"is_reserved":false,"is_disabled":false,"rental_uris":{"android":"levelo://app?vid=b620228d-37d4-4969-b28b-de0acc7b2432","ios":"levelo://app?vid=b620228d-37d4-4969-b28b-de0acc7b2432"},"vehicle_type_id":"4","last_reported":1687583235,"current_range_meters":29200,"station_id":"ce4bhqp2rcd13ifvqhng","pricing_plan_id":"free"},{"bike_id":"9072dece-7774-4a9f-a67d-65a0378358d3","system_id":"levelo_inurba_marseille","lat":43.317557,"lon":5.390173,"is_reserved":false,"is_disabled":false,"rental_uris":{"android":"levelo://app?vid=9072dece-7774-4a9f-a67d-65a0378358d3","ios":"levelo://app?vid=9072dece-7774-4a9f-a67d-65a0378358d3"},"vehicle_type_id":"4","last_reported":1687583235,"current_range_meters":31200,"station_id":"ce4bhqp2rcd13ifvqhng","pricing_plan_id":"free"},{"bike_id":"acc878fe-7071-4cc5-8f59-cb438feb9edd","system_id":"levelo_inurba_marseille","lat":43.317557,"lon":5.390173,"is_reserved":false,"is_disabled":false,"rental_uris":{"android":"levelo://app?vid=acc878fe-7071-4cc5-8f59-cb438feb9edd","ios":"levelo://app?vid=acc878fe-7071-4cc5-8f59-cb438feb9edd"},"vehicle_type_id":"4","last_reported":1687583235,"current_range_meters":31200,"station_id":"ce4bhqp2rcd13ifvqhng","pricing_plan_id":"free"},{"bike_id":"de0e6bed-9d95-43ed-979b-7e24c3ef57ed","system_id":"levelo_inurba_marseille","lat":43.317557,"lon":5.390173,"is_reserved":false,"is_disabled":false,"rental_uris":{"android":"levelo://app?vid=de0e6bed-9d95-43ed-979b-7e24c3ef57ed","ios":"levelo://app?vid=de0e6bed-9d95-43ed-979b-7e24c3ef57ed"},"vehicle_type_id":"4","last_reported":1687583235,"current_range_meters":29200,"station_id":"ce4bhqp2rcd13ifvqhng","pricing_plan_id":"free"},{"bike_id":"ea18e22a-c90e-4b1c-aa1d-7c6217ed013f","system_id":"levelo_inurba_marseille","lat":43.295279,"lon":5.375048,"is_reserved":false,"is_disabled":false,"rental_uris":{"android":"levelo://app?vid=ea18e22a-c90e-4b1c-aa1d-7c6217ed013f","ios":"levelo://app?vid=ea18e22a-c90e-4b1c-aa1d-7c6217ed013f"},"vehicle_type_id":"4","last_reported":1687583235,"current_range_meters":15200,"station_id":"ce4bgkp2rcd13ifvqbmg","pricing_plan_id":"free"},{"bike_id":"e277e342-33ec-4481-8bc4-3477624b2a27","system_id":"levelo_inurba_marseille","lat":43.32367,"lon":5.388836,"is_reserved":false,"is_disabled":false,"rental_uris":{"android":"levelo://app?vid=e277e342-33ec-4481-8bc4-3477624b2a27","ios":"levelo://app?vid=e277e342-33ec-4481-8bc4-3477624b2a27"},"vehicle_type_id":"4","last_reported":1687583235,"current_range_meters":22000,"station_id":"ce4bhqp2rcd13ifvqhog","pricing_plan_id":"free"},{"bike_id":"75573558-8ffa-4035-ad03-398ace633892","system_id":"levelo_inurba_marseille","lat":43.32367,"lon":5.388836,"is_reserved":false,"is_disabled":false,"rental_uris":{"android":"levelo://app?vid=75573558-8ffa-4035-ad03-398ace633892","ios":"levelo://app?vid=75573558-8ffa-4035-ad03-398ace633892"},"vehicle_type_id":"4","last_reported":1687583235,"current_range_meters":2000,"station_id":"ce4bhqp2rcd13ifvqhog","pricing_plan_id":"free"},{"bike_id":"520f0f8c-2924-409d-a08d-f1fb387141b2","system_id":"levelo_inurba_marseille","lat":43.32359,"lon":5.38888,"is_reserved":false,"is_disabled":false,"rental_uris":{"android":"levelo://app?vid=520f0f8c-2924-409d-a08d-f1fb387141b2","ios":"levelo://app?vid=520f0f8c-2924-409d-a08d-f1fb387141b2"},"vehicle_type_id":"4","last_reported":1687583235,"current_range_meters":25200,"station_id":"ce4bhqp2rcd13ifvqhog","pricing_plan_id":"free"},{"bike_id":"6b05f8f0-f4fb-40e7-82c0-a54912f6c06c","system_id":"levelo_inurba_marseille","lat":43.32367,"lon":5.388836,"is_reserved":false,"is_disabled":false,"rental_uris":{"android":"levelo://app?vid=6b05f8f0-f4fb-40e7-82c0-a54912f6c06c","ios":"levelo://app?vid=6b05f8f0-f4fb-40e7-82c0-a54912f6c06c"},"vehicle_type_id":"4","last_reported":1687583235,"current_range_meters":29600,"station_id":"ce4bhqp2rcd13ifvqhog","pricing_plan_id":"free"},{"bike_id":"8236622f-eab0-4c7a-a1db-1bcac87d6cb5","system_id":"levelo_inurba_marseille","lat":43.32365,"lon":5.38886,"is_reserved":false,"is_disabled":false,"rental_uris":{"android":"levelo://app?vid=8236622f-eab0-4c7a-a1db-1bcac87d6cb5","ios":"levelo://app?vid=8236622f-eab0-4c7a-a1db-1bcac87d6cb5"},"vehicle_type_id":"4","last_reported":1687583235,"current_range_meters":6800,"station_id":"ce4bhqp2rcd13ifvqhog","pricing_plan_id":"free"},{"bike_id":"cb4abb44-f52a-45fe-aa4f-b247ad26ddad","system_id":"levelo_inurba_marseille","lat":43.32367,"lon":5.388836,"is_reserved":false,"is_disabled":false,"rental_uris":{"android":"levelo://app?vid=cb4abb44-f52a-45fe-aa4f-b247ad26ddad","ios":"levelo://app?vid=cb4abb44-f52a-45fe-aa4f-b247ad26ddad"},"vehicle_type_id":"4","last_reported":1687583235,"current_range_meters":20800,"station_id":"ce4bhqp2rcd13ifvqhog","pricing_plan_id":"free"},{"bike_id":"51ed23a6-df02-47c8-9e1b-989426c29b96","system_id":"levelo_inurba_marseille","lat":43.32366,"lon":5.38887,"is_reserved":false,"is_disabled":false,"rental_uris":{"android":"levelo://app?vid=51ed23a6-df02-47c8-9e1b-989426c29b96","ios":"levelo://app?vid=51ed23a6-df02-47c8-9e1b-989426c29b96"},"vehicle_type_id":"4","last_reported":1687583235,"current_range_meters":4400,"station_id":"ce4bhqp2rcd13ifvqhog","pricing_plan_id":"free"},{"bike_id":"d03181c3-9091-4063-b5ab-d66c863c51ac","system_id":"levelo_inurba_marseille","lat":43.32363,"lon":5.3889,"is_reserved":false,"is_disabled":false,"rental_uris":{"android":"levelo://app?vid=d03181c3-9091-4063-b5ab-d66c863c51ac","ios":"levelo://app?vid=d03181c3-9091-4063-b5ab-d66c863c51ac"},"vehicle_type_id":"4","last_reported":1687583235,"current_range_meters":3600,"station_id":"ce4bhqp2rcd13ifvqhog","pricing_plan_id":"free"},{"bike_id":"c44184bc-82cd-456a-a40c-7ceb3a1e5737","system_id":"levelo_inurba_marseille","lat":43.29602,"lon":5.381084,"is_reserved":false,"is_disabled":false,"rental_uris":{"android":"levelo://app?vid=c44184bc-82cd-456a-a40c-7ceb3a1e5737","ios":"levelo://app?vid=c44184bc-82cd-456a-a40c-7ceb3a1e5737"},"vehicle_type_id":"4","last_reported":1687583235,"current_range_meters":27200,"station_id":"ce4bgl12rcd13ifvqbo0","pricing_plan_id":"free"},{"bike_id":"515bd9e1-7ba0-4210-92df-8fb20632d389","system_id":"levelo_inurba_marseille","lat":43.305994,"lon":5.393687,"is_reserved":false,"is_disabled":false,"rental_uris":{"android":"levelo://app?vid=515bd9e1-7ba0-4210-92df-8fb20632d389","ios":"levelo://app?vid=515bd9e1-7ba0-4210-92df-8fb20632d389"},"vehicle_type_id":"4","last_reported":1687583235,"current_range_meters":18000,"station_id":"ce4bh0p2rcd13ifvqd80","pricing_plan_id":"free"},{"bike_id":"5e39cb0a-dd31-4547-b159-3d364e96c2e2","system_id":"levelo_inurba_marseille","lat":43.30304,"lon":5.392,"is_reserved":false,"is_disabled":false,"rental_uris":{"android":"levelo://app?vid=5e39cb0a-dd31-4547-b159-3d364e96c2e2","ios":"levelo://app?vid=5e39cb0a-dd31-4547-b159-3d364e96c2e2"},"vehicle_type_id":"4","last_reported":1687583235,"current_range_meters":31200,"station_id":"ce4bgkh2rcd13ifvqbk0","pricing_plan_id":"free"},{"bike_id":"c4e6e6c6-3883-4f1b-9b82-5a7d600cd554","system_id":"levelo_inurba_marseille","lat":43.30294,"lon":5.39199,"is_reserved":false,"is_disabled":false,"rental_uris":{"android":"levelo://app?vid=c4e6e6c6-3883-4f1b-9b82-5a7d600cd554","ios":"levelo://app?vid=c4e6e6c6-3883-4f1b-9b82-5a7d600cd554"},"vehicle_type_id":"4","last_reported":1687583235,"current_range_meters":31200,"station_id":"ce4bgkh2rcd13ifvqbk0","pricing_plan_id":"free"},{"bike_id":"8c7f64b8-2523-4ee7-ab40-0842a19a6fd7","system_id":"levelo_inurba_marseille","lat":43.303015,"lon":5.392158,"is_reserved":false,"is_disabled":false,"rental_uris":{"android":"levelo://app?vid=8c7f64b8-2523-4ee7-ab40-0842a19a6fd7","ios":"levelo://app?vid=8c7f64b8-2523-4ee7-ab40-0842a19a6fd7"},"vehicle_type_id":"4","last_reported":1687583235,"current_range_meters":31200,"station_id":"ce4bgkh2rcd13ifvqbk0","pricing_plan_id":"free"},{"bike_id":"5004d585-0e0a-44bd-970b-9fc18a1940fa","system_id":"levelo_inurba_marseille","lat":43.30085,"lon":5.390856,"is_reserved":false,"is_disabled":false,"rental_uris":{"android":"levelo://app?vid=5004d585-0e0a-44bd-970b-9fc18a1940fa","ios":"levelo://app?vid=5004d585-0e0a-44bd-970b-9fc18a1940fa"},"vehicle_type_id":"4","last_reported":1687583235,"current_range_meters":16800,"station_id":"ce4bh192rcd13ifvqdb0","pricing_plan_id":"free"},{"bike_id":"44351499-6d4b-4705-95da-6db7ed14ba81","system_id":"levelo_inurba_marseille","lat":43.292663,"lon":5.376389,"is_reserved":false,"is_disabled":false,"rental_uris":{"android":"levelo://app?vid=44351499-6d4b-4705-95da-6db7ed14ba81","ios":"levelo://app?vid=44351499-6d4b-4705-95da-6db7ed14ba81"},"vehicle_type_id":"4","last_reported":1687583235,"current_range_meters":30000,"station_id":"ce4bgi12rcd13ifvqb80","pricing_plan_id":"free"},{"bike_id":"54fda2f9-7b1a-4838-9b70-087d4101d0ae","system_id":"levelo_inurba_marseille","lat":43.33246,"lon":5.37934,"is_reserved":false,"is_disabled":false,"rental_uris":{"android":"levelo://app?vid=54fda2f9-7b1a-4838-9b70-087d4101d0ae","ios":"levelo://app?vid=54fda2f9-7b1a-4838-9b70-087d4101d0ae"},"vehicle_type_id":"4","last_reported":1687583235,"current_range_meters":0,"station_id":"","pricing_plan_id":"free"},{"bike_id":"e2234a3f-b44e-4e03-b76f-b6aeadc1c036","system_id":"levelo_inurba_marseille","lat":43.309038,"lon":5.396546,"is_reserved":false,"is_disabled":false,"rental_uris":{"android":"levelo://app?vid=e2234a3f-b44e-4e03-b76f-b6aeadc1c036","ios":"levelo://app?vid=e2234a3f-b44e-4e03-b76f-b6aeadc1c036"},"vehicle_type_id":"4","last_reported":1687583235,"current_range_meters":15600,"station_id":"ce4bh012rcd13ifvqcv0","pricing_plan_id":"free"},{"bike_id":"44f9d61f-6161-4e91-812d-dbbd9267d69e","system_id":"levelo_inurba_marseille","lat":43.30882,"lon":5.39635,"is_reserved":false,"is_disabled":false,"rental_uris":{"android":"levelo://app?vid=44f9d61f-6161-4e91-812d-dbbd9267d69e","ios":"levelo://app?vid=44f9d61f-6161-4e91-812d-dbbd9267d69e"},"vehicle_type_id":"4","last_reported":1687583235,"current_range_meters":20000,"station_id":"ce4bh012rcd13ifvqcv0","pricing_plan_id":"free"},{"bike_id":"e14afa42-64a5-42ba-ba6e-98e4e902b9bc","system_id":"levelo_inurba_marseille","lat":43.309038,"lon":5.396546,"is_reserved":false,"is_disabled":false,"rental_uris":{"android":"levelo://app?vid=e14afa42-64a5-42ba-ba6e-98e4e902b9bc","ios":"levelo://app?vid=e14afa42-64a5-42ba-ba6e-98e4e902b9bc"},"vehicle_type_id":"4","last_reported":1687583235,"current_range_meters":4800,"station_id":"ce4bh012rcd13ifvqcv0","pricing_plan_id":"free"},{"bike_id":"a8392e5f-f50a-461b-9779-10293581e019","system_id":"levelo_inurba_marseille","lat":43.313291,"lon":5.396838,"is_reserved":false,"is_disabled":false,"rental_uris":{"android":"levelo://app?vid=a8392e5f-f50a-461b-9779-10293581e019","ios":"levelo://app?vid=a8392e5f-f50a-461b-9779-10293581e019"},"vehicle_type_id":"4","last_reported":1687583235,"current_range_meters":27600,"station_id":"ce4bgvp2rcd13ifvqcu0","pricing_plan_id":"free"},{"bike_id":"d6940df5-4d41-44cc-94c5-07ef2295f819","system_id":"levelo_inurba_marseille","lat":43.309038,"lon":5.396546,"is_reserved":false,"is_disabled":false,"rental_uris":{"android":"levelo://app?vid=d6940df5-4d41-44cc-94c5-07ef2295f819","ios":"levelo://app?vid=d6940df5-4d41-44cc-94c5-07ef2295f819"},"vehicle_type_id":"4","last_reported":1687583235,"current_range_meters":29600,"station_id":"ce4bh012rcd13ifvqcv0","pricing_plan_id":"free"},{"bike_id":"0b22b7ab-b781-4f9b-913d-6076dac1b56e","system_id":"levelo_inurba_marseille","lat":43.313291,"lon":5.396838,"is_reserved":false,"is_disabled":false,"rental_uris":{"android":"levelo://app?vid=0b22b7ab-b781-4f9b-913d-6076dac1b56e","ios":"levelo://app?vid=0b22b7ab-b781-4f9b-913d-6076dac1b56e"},"vehicle_type_id":"4","last_reported":1687583235,"current_range_meters":30400,"station_id":"ce4bgvp2rcd13ifvqcu0","pricing_plan_id":"free"},{"bike_id":"f781ee37-708d-4e3e-ab1e-972a62f119ad","system_id":"levelo_inurba_marseille","lat":43.309038,"lon":5.396546,"is_reserved":false,"is_disabled":false,"rental_uris":{"android":"levelo://app?vid=f781ee37-708d-4e3e-ab1e-972a62f119ad","ios":"levelo://app?vid=f781ee37-708d-4e3e-ab1e-972a62f119ad"},"vehicle_type_id":"4","last_reported":1687583235,"current_range_meters":21600,"station_id":"ce4bh012rcd13ifvqcv0","pricing_plan_id":"free"},{"bike_id":"9df18c7d-03da-4aa6-bcab-ce990be02c11","system_id":"levelo_inurba_marseille","lat":43.309038,"lon":5.396546,"is_reserved":false,"is_disabled":false,"rental_uris":{"android":"levelo://app?vid=9df18c7d-03da-4aa6-bcab-ce990be02c11","ios":"levelo://app?vid=9df18c7d-03da-4aa6-bcab-ce990be02c11"},"vehicle_type_id":"4","last_reported":1687583235,"current_range_meters":29200,"station_id":"ce4bh012rcd13ifvqcv0","pricing_plan_id":"free"},{"bike_id":"b4fccd6d-13ff-4454-974e-9ea082a08b8a","system_id":"levelo_inurba_marseille","lat":43.313291,"lon":5.396838,"is_reserved":false,"is_disabled":false,"rental_uris":{"android":"levelo://app?vid=b4fccd6d-13ff-4454-974e-9ea082a08b8a","ios":"levelo://app?vid=b4fccd6d-13ff-4454-974e-9ea082a08b8a"},"vehicle_type_id":"4","last_reported":1687583235,"current_range_meters":15200,"station_id":"ce4bgvp2rcd13ifvqcu0","pricing_plan_id":"free"},{"bike_id":"458f5ce3-3373-4280-af41-6054b506e27f","system_id":"levelo_inurba_marseille","lat":43.313291,"lon":5.396838,"is_reserved":false,"is_disabled":false,"rental_uris":{"android":"levelo://app?vid=458f5ce3-3373-4280-af41-6054b506e27f","ios":"levelo://app?vid=458f5ce3-3373-4280-af41-6054b506e27f"},"vehicle_type_id":"4","last_reported":1687583235,"current_range_meters":26000,"station_id":"ce4bgvp2rcd13ifvqcu0","pricing_plan_id":"free"},{"bike_id":"81781672-4154-4551-a332-5c2e393df06f","system_id":"levelo_inurba_marseille","lat":43.313291,"lon":5.396838,"is_reserved":false,"is_disabled":false,"rental_uris":{"android":"levelo://app?vid=81781672-4154-4551-a332-5c2e393df06f","ios":"levelo://app?vid=81781672-4154-4551-a332-5c2e393df06f"},"vehicle_type_id":"4","last_reported":1687583235,"current_range_meters":21200,"station_id":"ce4bgvp2rcd13ifvqcu0","pricing_plan_id":"free"},{"bike_id":"4844fe53-1ac4-44d3-bcbd-f791d8cad96d","system_id":"levelo_inurba_marseille","lat":43.290631,"lon":5.359244,"is_reserved":false,"is_disabled":false,"rental_uris":{"android":"levelo://app?vid=4844fe53-1ac4-44d3-bcbd-f791d8cad96d","ios":"levelo://app?vid=4844fe53-1ac4-44d3-bcbd-f791d8cad96d"},"vehicle_type_id":"4","last_reported":1687583235,"current_range_meters":28800,"station_id":"ce4bha92rcd13ifvqeg0","pricing_plan_id":"free"},{"bike_id":"20b2702a-2cf1-439f-b7da-41f192fa1a0a","system_id":"levelo_inurba_marseille","lat":43.29411,"lon":5.38614,"is_reserved":false,"is_disabled":false,"rental_uris":{"android":"levelo://app?vid=20b2702a-2cf1-439f-b7da-41f192fa1a0a","ios":"levelo://app?vid=20b2702a-2cf1-439f-b7da-41f192fa1a0a"},"vehicle_type_id":"4","last_reported":1687583235,"current_range_meters":20400,"station_id":"","pricing_plan_id":"free"},{"bike_id":"c633bf9a-ee19-4225-aca0-9ff73262aada","system_id":"levelo_inurba_marseille","lat":43.289468,"lon":5.363719,"is_reserved":false,"is_disabled":false,"rental_uris":{"android":"levelo://app?vid=c633bf9a-ee19-4225-aca0-9ff73262aada","ios":"levelo://app?vid=c633bf9a-ee19-4225-aca0-9ff73262aada"},"vehicle_type_id":"4","last_reported":1687583235,"current_range_meters":27200,"station_id":"ce4bhc92rcd13ifvqetg","pricing_plan_id":"free"},{"bike_id":"e36874dc-7135-4ebc-b4cd-8f7cd3793fb7","system_id":"levelo_inurba_marseille","lat":43.3035,"lon":5.39684,"is_reserved":false,"is_disabled":false,"rental_uris":{"android":"levelo://app?vid=e36874dc-7135-4ebc-b4cd-8f7cd3793fb7","ios":"levelo://app?vid=e36874dc-7135-4ebc-b4cd-8f7cd3793fb7"},"vehicle_type_id":"4","last_reported":1687583235,"current_range_meters":23200,"station_id":"","pricing_plan_id":"free"},{"bike_id":"f5a0534b-d88b-443d-9ff7-6472722e7fba","system_id":"levelo_inurba_marseille","lat":43.29262,"lon":5.38441,"is_reserved":false,"is_disabled":false,"rental_uris":{"android":"levelo://app?vid=f5a0534b-d88b-443d-9ff7-6472722e7fba","ios":"levelo://app?vid=f5a0534b-d88b-443d-9ff7-6472722e7fba"},"vehicle_type_id":"4","last_reported":1687583235,"current_range_meters":27200,"station_id":"ce4bh692rcd13ifvqea0","pricing_plan_id":"free"},{"bike_id":"3863a9eb-31bf-4665-884a-064edb2d85f0","system_id":"levelo_inurba_marseille","lat":43.3043,"lon":5.39756,"is_reserved":false,"is_disabled":false,"rental_uris":{"android":"levelo://app?vid=3863a9eb-31bf-4665-884a-064edb2d85f0","ios":"levelo://app?vid=3863a9eb-31bf-4665-884a-064edb2d85f0"},"vehicle_type_id":"4","last_reported":1687583235,"current_range_meters":0,"station_id":"ce4bh092rcd13ifvqd20","pricing_plan_id":"free"},{"bike_id":"8124d2c7-6d62-4f1c-863e-260903640d07","system_id":"levelo_inurba_marseille","lat":43.304274,"lon":5.397513,"is_reserved":false,"is_disabled":false,"rental_uris":{"android":"levelo://app?vid=8124d2c7-6d62-4f1c-863e-260903640d07","ios":"levelo://app?vid=8124d2c7-6d62-4f1c-863e-260903640d07"},"vehicle_type_id":"4","last_reported":1687583235,"current_range_meters":29600,"station_id":"ce4bh092rcd13ifvqd20","pricing_plan_id":"free"},{"bike_id":"2297412e-399d-418e-a9f9-292ec7b9b7de","system_id":"levelo_inurba_marseille","lat":43.304274,"lon":5.397513,"is_reserved":false,"is_disabled":false,"rental_uris":{"android":"levelo://app?vid=2297412e-399d-418e-a9f9-292ec7b9b7de","ios":"levelo://app?vid=2297412e-399d-418e-a9f9-292ec7b9b7de"},"vehicle_type_id":"4","last_reported":1687583235,"current_range_meters":29600,"station_id":"ce4bh092rcd13ifvqd20","pricing_plan_id":"free"},{"bike_id":"7c811762-c0ee-4656-87ba-109acbb8edd1","system_id":"levelo_inurba_marseille","lat":43.3304,"lon":5.38915,"is_reserved":false,"is_disabled":false,"rental_uris":{"android":"levelo://app?vid=7c811762-c0ee-4656-87ba-109acbb8edd1","ios":"levelo://app?vid=7c811762-c0ee-4656-87ba-109acbb8edd1"},"vehicle_type_id":"4","last_reported":1687583235,"current_range_meters":9600,"station_id":"ce4bhr92rcd13ifvqhrg","pricing_plan_id":"free"},{"bike_id":"383564b9-2cae-4808-aee8-d3aefd710421","system_id":"levelo_inurba_marseille","lat":43.33043,"lon":5.3892,"is_reserved":false,"is_disabled":false,"rental_uris":{"android":"levelo://app?vid=383564b9-2cae-4808-aee8-d3aefd710421","ios":"levelo://app?vid=383564b9-2cae-4808-aee8-d3aefd710421"},"vehicle_type_id":"4","last_reported":1687583235,"current_range_meters":0,"station_id":"ce4bhr92rcd13ifvqhrg","pricing_plan_id":"free"},{"bike_id":"3ba65ffa-ebe5-42e2-af61-096809543958","system_id":"levelo_inurba_marseille","lat":43.33043,"lon":5.38923,"is_reserved":false,"is_disabled":false,"rental_uris":{"android":"levelo://app?vid=3ba65ffa-ebe5-42e2-af61-096809543958","ios":"levelo://app?vid=3ba65ffa-ebe5-42e2-af61-096809543958"},"vehicle_type_id":"4","last_reported":1687583235,"current_range_meters":12800,"station_id":"ce4bhr92rcd13ifvqhrg","pricing_plan_id":"free"},{"bike_id":"cdbb9bb2-2cd9-4968-ae43-c193f644e517","system_id":"levelo_inurba_marseille","lat":43.33044,"lon":5.38922,"is_reserved":false,"is_disabled":false,"rental_uris":{"android":"levelo://app?vid=cdbb9bb2-2cd9-4968-ae43-c193f644e517","ios":"levelo://app?vid=cdbb9bb2-2cd9-4968-ae43-c193f644e517"},"vehicle_type_id":"4","last_reported":1687583235,"current_range_meters":0,"station_id":"ce4bhr92rcd13ifvqhrg","pricing_plan_id":"free"},{"bike_id":"e4e06b95-1721-4584-9864-ef74cf24cd0f","system_id":"levelo_inurba_marseille","lat":43.33046,"lon":5.3892,"is_reserved":false,"is_disabled":false,"rental_uris":{"android":"levelo://app?vid=e4e06b95-1721-4584-9864-ef74cf24cd0f","ios":"levelo://app?vid=e4e06b95-1721-4584-9864-ef74cf24cd0f"},"vehicle_type_id":"4","last_reported":1687583235,"current_range_meters":16800,"station_id":"ce4bhr92rcd13ifvqhrg","pricing_plan_id":"free"},{"bike_id":"1a01895d-f344-4f7a-a2e9-47e079e18485","system_id":"levelo_inurba_marseille","lat":43.33045,"lon":5.38922,"is_reserved":false,"is_disabled":false,"rental_uris":{"android":"levelo://app?vid=1a01895d-f344-4f7a-a2e9-47e079e18485","ios":"levelo://app?vid=1a01895d-f344-4f7a-a2e9-47e079e18485"},"vehicle_type_id":"4","last_reported":1687583235,"current_range_meters":26800,"station_id":"ce4bhr92rcd13ifvqhrg","pricing_plan_id":"free"},{"bike_id":"300d5a11-fb57-499b-9f47-cb2b12fbda39","system_id":"levelo_inurba_marseille","lat":43.290995,"lon":5.381361,"is_reserved":false,"is_disabled":false,"rental_uris":{"android":"levelo://app?vid=300d5a11-fb57-499b-9f47-cb2b12fbda39","ios":"levelo://app?vid=300d5a11-fb57-499b-9f47-cb2b12fbda39"},"vehicle_type_id":"4","last_reported":1687583235,"current_range_meters":29200,"station_id":"ce4bh512rcd13ifvqe2g","pricing_plan_id":"free"},{"bike_id":"caa72334-c567-4692-bb46-8f587e614ddc","system_id":"levelo_inurba_marseille","lat":43.29793,"lon":5.39349,"is_reserved":false,"is_disabled":false,"rental_uris":{"android":"levelo://app?vid=caa72334-c567-4692-bb46-8f587e614ddc","ios":"levelo://app?vid=caa72334-c567-4692-bb46-8f587e614ddc"},"vehicle_type_id":"4","last_reported":1687583235,"current_range_meters":30000,"station_id":"chh1huq6cuj3fo74tm60","pricing_plan_id":"free"},{"bike_id":"7477caec-5bcc-45a7-b582-bebee112921b","system_id":"levelo_inurba_marseille","lat":43.2979,"lon":5.39352,"is_reserved":false,"is_disabled":false,"rental_uris":{"android":"levelo://app?vid=7477caec-5bcc-45a7-b582-bebee112921b","ios":"levelo://app?vid=7477caec-5bcc-45a7-b582-bebee112921b"},"vehicle_type_id":"4","last_reported":1687583235,"current_range_meters":18800,"station_id":"chh1huq6cuj3fo74tm60","pricing_plan_id":"free"},{"bike_id":"e69f4057-c17e-40f7-9ed2-6ffe6b6a07ed","system_id":"levelo_inurba_marseille","lat":43.28856,"lon":5.358371,"is_reserved":false,"is_disabled":false,"rental_uris":{"android":"levelo://app?vid=e69f4057-c17e-40f7-9ed2-6ffe6b6a07ed","ios":"levelo://app?vid=e69f4057-c17e-40f7-9ed2-6ffe6b6a07ed"},"vehicle_type_id":"4","last_reported":1687583235,"current_range_meters":31200,"station_id":"ce4bhb12rcd13ifvqem0","pricing_plan_id":"free"},{"bike_id":"4ba6549b-f039-41e8-9968-c27c3f6fe555","system_id":"levelo_inurba_marseille","lat":43.28856,"lon":5.358371,"is_reserved":false,"is_disabled":false,"rental_uris":{"android":"levelo://app?vid=4ba6549b-f039-41e8-9968-c27c3f6fe555","ios":"levelo://app?vid=4ba6549b-f039-41e8-9968-c27c3f6fe555"},"vehicle_type_id":"4","last_reported":1687583235,"current_range_meters":31200,"station_id":"ce4bhb12rcd13ifvqem0","pricing_plan_id":"free"},{"bike_id":"3f8a925a-6a54-4259-a38f-9cf091aab246","system_id":"levelo_inurba_marseille","lat":43.29247,"lon":5.38753,"is_reserved":false,"is_disabled":false,"rental_uris":{"android":"levelo://app?vid=3f8a925a-6a54-4259-a38f-9cf091aab246","ios":"levelo://app?vid=3f8a925a-6a54-4259-a38f-9cf091aab246"},"vehicle_type_id":"4","last_reported":1687583235,"current_range_meters":22400,"station_id":"","pricing_plan_id":"free"},{"bike_id":"1a9c1f2a-5919-4fb8-bfbc-b83e7d44c9a7","system_id":"levelo_inurba_marseille","lat":43.30939,"lon":5.40137,"is_reserved":false,"is_disabled":false,"rental_uris":{"android":"levelo://app?vid=1a9c1f2a-5919-4fb8-bfbc-b83e7d44c9a7","ios":"levelo://app?vid=1a9c1f2a-5919-4fb8-bfbc-b83e7d44c9a7"},"vehicle_type_id":"4","last_reported":1687583235,"current_range_meters":31200,"station_id":"ce4bgvp2rcd13ifvqct0","pricing_plan_id":"free"},{"bike_id":"498fda5c-8fea-472f-ac12-909e3e98f745","system_id":"levelo_inurba_marseille","lat":43.30931,"lon":5.40137,"is_reserved":false,"is_disabled":false,"rental_uris":{"android":"levelo://app?vid=498fda5c-8fea-472f-ac12-909e3e98f745","ios":"levelo://app?vid=498fda5c-8fea-472f-ac12-909e3e98f745"},"vehicle_type_id":"4","last_reported":1687583235,"current_range_meters":11200,"station_id":"ce4bgvp2rcd13ifvqct0","pricing_plan_id":"free"},{"bike_id":"978ed772-ebf1-4c25-91a8-7e7eb8f69930","system_id":"levelo_inurba_marseille","lat":43.3093,"lon":5.40142,"is_reserved":false,"is_disabled":false,"rental_uris":{"android":"levelo://app?vid=978ed772-ebf1-4c25-91a8-7e7eb8f69930","ios":"levelo://app?vid=978ed772-ebf1-4c25-91a8-7e7eb8f69930"},"vehicle_type_id":"4","last_reported":1687583235,"current_range_meters":30000,"station_id":"ce4bgvp2rcd13ifvqct0","pricing_plan_id":"free"},{"bike_id":"66fc1940-e878-40bd-bbce-693e9d89464c","system_id":"levelo_inurba_marseille","lat":43.309371,"lon":5.401449,"is_reserved":false,"is_disabled":false,"rental_uris":{"android":"levelo://app?vid=66fc1940-e878-40bd-bbce-693e9d89464c","ios":"levelo://app?vid=66fc1940-e878-40bd-bbce-693e9d89464c"},"vehicle_type_id":"4","last_reported":1687583235,"current_range_meters":19600,"station_id":"ce4bgvp2rcd13ifvqct0","pricing_plan_id":"free"},{"bike_id":"c180ae38-f769-441f-8a55-5a6e4930e6ad","system_id":"levelo_inurba_marseille","lat":43.3375,"lon":5.37439,"is_reserved":false,"is_disabled":false,"rental_uris":{"android":"levelo://app?vid=c180ae38-f769-441f-8a55-5a6e4930e6ad","ios":"levelo://app?vid=c180ae38-f769-441f-8a55-5a6e4930e6ad"},"vehicle_type_id":"4","last_reported":1687583235,"current_range_meters":26000,"station_id":"","pricing_plan_id":"free"},{"bike_id":"8238c0b9-921a-4301-bb43-df1e88eec915","system_id":"levelo_inurba_marseille","lat":43.309371,"lon":5.401449,"is_reserved":false,"is_disabled":false,"rental_uris":{"android":"levelo://app?vid=8238c0b9-921a-4301-bb43-df1e88eec915","ios":"levelo://app?vid=8238c0b9-921a-4301-bb43-df1e88eec915"},"vehicle_type_id":"4","last_reported":1687583235,"current_range_meters":23200,"station_id":"ce4bgvp2rcd13ifvqct0","pricing_plan_id":"free"},{"bike_id":"3879eb6b-811f-4edd-82af-5ed96f1353e5","system_id":"levelo_inurba_marseille","lat":43.309371,"lon":5.401449,"is_reserved":false,"is_disabled":false,"rental_uris":{"android":"levelo://app?vid=3879eb6b-811f-4edd-82af-5ed96f1353e5","ios":"levelo://app?vid=3879eb6b-811f-4edd-82af-5ed96f1353e5"},"vehicle_type_id":"4","last_reported":1687583235,"current_range_meters":31200,"station_id":"ce4bgvp2rcd13ifvqct0","pricing_plan_id":"free"},{"bike_id":"0f2b8dc7-c427-4e6f-9a62-4f65e1c62518","system_id":"levelo_inurba_marseille","lat":43.309371,"lon":5.401449,"is_reserved":false,"is_disabled":false,"rental_uris":{"android":"levelo://app?vid=0f2b8dc7-c427-4e6f-9a62-4f65e1c62518","ios":"levelo://app?vid=0f2b8dc7-c427-4e6f-9a62-4f65e1c62518"},"vehicle_type_id":"4","last_reported":1687583235,"current_range_meters":31200,"station_id":"ce4bgvp2rcd13ifvqct0","pricing_plan_id":"free"},{"bike_id":"ba298f3a-81db-4774-8714-4a4ef16adb20","system_id":"levelo_inurba_marseille","lat":43.306412,"lon":5.401035,"is_reserved":false,"is_disabled":false,"rental_uris":{"android":"levelo://app?vid=ba298f3a-81db-4774-8714-4a4ef16adb20","ios":"levelo://app?vid=ba298f3a-81db-4774-8714-4a4ef16adb20"},"vehicle_type_id":"4","last_reported":1687583235,"current_range_meters":30800,"station_id":"ce4bh112rcd13ifvqda0","pricing_plan_id":"free"},{"bike_id":"6626ab0c-e2dc-4e26-a046-071aa3695241","system_id":"levelo_inurba_marseille","lat":43.30642,"lon":5.401031,"is_reserved":false,"is_disabled":false,"rental_uris":{"android":"levelo://app?vid=6626ab0c-e2dc-4e26-a046-071aa3695241","ios":"levelo://app?vid=6626ab0c-e2dc-4e26-a046-071aa3695241"},"vehicle_type_id":"4","last_reported":1687583235,"current_range_meters":16800,"station_id":"ce4bh112rcd13ifvqda0","pricing_plan_id":"free"},{"bike_id":"2b12e2e2-6f8a-4a6f-b343-d0bde9a280c9","system_id":"levelo_inurba_marseille","lat":43.30643,"lon":5.4007,"is_reserved":false,"is_disabled":false,"rental_uris":{"android":"levelo://app?vid=2b12e2e2-6f8a-4a6f-b343-d0bde9a280c9","ios":"levelo://app?vid=2b12e2e2-6f8a-4a6f-b343-d0bde9a280c9"},"vehicle_type_id":"4","last_reported":1687583235,"current_range_meters":25200,"station_id":"ce4bh112rcd13ifvqda0","pricing_plan_id":"free"},{"bike_id":"945d6ae9-0954-49d2-ad28-7fd6e48c6ae5","system_id":"levelo_inurba_marseille","lat":43.30645,"lon":5.40072,"is_reserved":false,"is_disabled":false,"rental_uris":{"android":"levelo://app?vid=945d6ae9-0954-49d2-ad28-7fd6e48c6ae5","ios":"levelo://app?vid=945d6ae9-0954-49d2-ad28-7fd6e48c6ae5"},"vehicle_type_id":"4","last_reported":1687583235,"current_range_meters":26000,"station_id":"","pricing_plan_id":"free"},{"bike_id":"c064f2cd-5868-41a7-8b9d-2390cc05a509","system_id":"levelo_inurba_marseille","lat":43.30642,"lon":5.401031,"is_reserved":false,"is_disabled":false,"rental_uris":{"android":"levelo://app?vid=c064f2cd-5868-41a7-8b9d-2390cc05a509","ios":"levelo://app?vid=c064f2cd-5868-41a7-8b9d-2390cc05a509"},"vehicle_type_id":"4","last_reported":1687583235,"current_range_meters":25600,"station_id":"ce4bh112rcd13ifvqda0","pricing_plan_id":"free"},{"bike_id":"2b089184-8519-46ff-b3dc-9fa555580fb3","system_id":"levelo_inurba_marseille","lat":43.30649,"lon":5.40074,"is_reserved":false,"is_disabled":false,"rental_uris":{"android":"levelo://app?vid=2b089184-8519-46ff-b3dc-9fa555580fb3","ios":"levelo://app?vid=2b089184-8519-46ff-b3dc-9fa555580fb3"},"vehicle_type_id":"4","last_reported":1687583235,"current_range_meters":28800,"station_id":"","pricing_plan_id":"free"},{"bike_id":"64c049a7-29d4-4383-9496-3ccf47ad6b2b","system_id":"levelo_inurba_marseille","lat":43.30642,"lon":5.401031,"is_reserved":false,"is_disabled":false,"rental_uris":{"android":"levelo://app?vid=64c049a7-29d4-4383-9496-3ccf47ad6b2b","ios":"levelo://app?vid=64c049a7-29d4-4383-9496-3ccf47ad6b2b"},"vehicle_type_id":"4","last_reported":1687583235,"current_range_meters":23200,"station_id":"ce4bh112rcd13ifvqda0","pricing_plan_id":"free"},{"bike_id":"66d5dbc0-0c90-4db5-abb9-833923d5797d","system_id":"levelo_inurba_marseille","lat":43.30642,"lon":5.401031,"is_reserved":false,"is_disabled":false,"rental_uris":{"android":"levelo://app?vid=66d5dbc0-0c90-4db5-abb9-833923d5797d","ios":"levelo://app?vid=66d5dbc0-0c90-4db5-abb9-833923d5797d"},"vehicle_type_id":"4","last_reported":1687583235,"current_range_meters":14000,"station_id":"ce4bh112rcd13ifvqda0","pricing_plan_id":"free"},{"bike_id":"4743897a-c2f4-4eb7-8e52-a4ffa16275b2","system_id":"levelo_inurba_marseille","lat":43.30642,"lon":5.401031,"is_reserved":false,"is_disabled":false,"rental_uris":{"android":"levelo://app?vid=4743897a-c2f4-4eb7-8e52-a4ffa16275b2","ios":"levelo://app?vid=4743897a-c2f4-4eb7-8e52-a4ffa16275b2"},"vehicle_type_id":"4","last_reported":1687583235,"current_range_meters":13600,"station_id":"ce4bh112rcd13ifvqda0","pricing_plan_id":"free"},{"bike_id":"ade89308-e5a2-4449-8e1f-7ff0d878d179","system_id":"levelo_inurba_marseille","lat":43.30647,"lon":5.40075,"is_reserved":false,"is_disabled":false,"rental_uris":{"android":"levelo://app?vid=ade89308-e5a2-4449-8e1f-7ff0d878d179","ios":"levelo://app?vid=ade89308-e5a2-4449-8e1f-7ff0d878d179"},"vehicle_type_id":"4","last_reported":1687583235,"current_range_meters":24000,"station_id":"ce4bh112rcd13ifvqda0","pricing_plan_id":"free"},{"bike_id":"7eb37f5d-d6ee-4f72-8d5b-ac1eea4e0864","system_id":"levelo_inurba_marseille","lat":43.30642,"lon":5.401031,"is_reserved":false,"is_disabled":false,"rental_uris":{"android":"levelo://app?vid=7eb37f5d-d6ee-4f72-8d5b-ac1eea4e0864","ios":"levelo://app?vid=7eb37f5d-d6ee-4f72-8d5b-ac1eea4e0864"},"vehicle_type_id":"4","last_reported":1687583235,"current_range_meters":17200,"station_id":"ce4bh112rcd13ifvqda0","pricing_plan_id":"free"},{"bike_id":"698a0c42-1f58-43ce-9158-85de813c112c","system_id":"levelo_inurba_marseille","lat":43.306412,"lon":5.401035,"is_reserved":false,"is_disabled":false,"rental_uris":{"android":"levelo://app?vid=698a0c42-1f58-43ce-9158-85de813c112c","ios":"levelo://app?vid=698a0c42-1f58-43ce-9158-85de813c112c"},"vehicle_type_id":"4","last_reported":1687583235,"current_range_meters":18800,"station_id":"ce4bh112rcd13ifvqda0","pricing_plan_id":"free"},{"bike_id":"dcf38555-22f7-4034-b160-6afa14cc0c4d","system_id":"levelo_inurba_marseille","lat":43.306412,"lon":5.401035,"is_reserved":false,"is_disabled":false,"rental_uris":{"android":"levelo://app?vid=dcf38555-22f7-4034-b160-6afa14cc0c4d","ios":"levelo://app?vid=dcf38555-22f7-4034-b160-6afa14cc0c4d"},"vehicle_type_id":"4","last_reported":1687583235,"current_range_meters":8800,"station_id":"ce4bh112rcd13ifvqda0","pricing_plan_id":"free"},{"bike_id":"6d731883-3848-40de-a4c9-90337586cbb2","system_id":"levelo_inurba_marseille","lat":43.30647,"lon":5.40077,"is_reserved":false,"is_disabled":false,"rental_uris":{"android":"levelo://app?vid=6d731883-3848-40de-a4c9-90337586cbb2","ios":"levelo://app?vid=6d731883-3848-40de-a4c9-90337586cbb2"},"vehicle_type_id":"4","last_reported":1687583235,"current_range_meters":14800,"station_id":"ce4bh112rcd13ifvqda0","pricing_plan_id":"free"},{"bike_id":"bd729d3a-e281-4343-8fb5-2fc760f7704d","system_id":"levelo_inurba_marseille","lat":43.30661,"lon":5.40083,"is_reserved":false,"is_disabled":false,"rental_uris":{"android":"levelo://app?vid=bd729d3a-e281-4343-8fb5-2fc760f7704d","ios":"levelo://app?vid=bd729d3a-e281-4343-8fb5-2fc760f7704d"},"vehicle_type_id":"4","last_reported":1687583235,"current_range_meters":26800,"station_id":"","pricing_plan_id":"free"},{"bike_id":"b8651de5-d481-42a8-91c2-a3084ef12c55","system_id":"levelo_inurba_marseille","lat":43.30635,"lon":5.40077,"is_reserved":false,"is_disabled":false,"rental_uris":{"android":"levelo://app?vid=b8651de5-d481-42a8-91c2-a3084ef12c55","ios":"levelo://app?vid=b8651de5-d481-42a8-91c2-a3084ef12c55"},"vehicle_type_id":"4","last_reported":1687583235,"current_range_meters":23200,"station_id":"","pricing_plan_id":"free"},{"bike_id":"1aaafe29-3ece-4a3d-8483-e9ad63f79c78","system_id":"levelo_inurba_marseille","lat":43.33755,"lon":5.3747,"is_reserved":false,"is_disabled":false,"rental_uris":{"android":"levelo://app?vid=1aaafe29-3ece-4a3d-8483-e9ad63f79c78","ios":"levelo://app?vid=1aaafe29-3ece-4a3d-8483-e9ad63f79c78"},"vehicle_type_id":"4","last_reported":1687583235,"current_range_meters":26400,"station_id":"","pricing_plan_id":"free"},{"bike_id":"734380f0-a4b7-465d-9690-8dcc041446f4","system_id":"levelo_inurba_marseille","lat":43.30648,"lon":5.40097,"is_reserved":false,"is_disabled":false,"rental_uris":{"android":"levelo://app?vid=734380f0-a4b7-465d-9690-8dcc041446f4","ios":"levelo://app?vid=734380f0-a4b7-465d-9690-8dcc041446f4"},"vehicle_type_id":"4","last_reported":1687583235,"current_range_meters":29200,"station_id":"ce4bh112rcd13ifvqda0","pricing_plan_id":"free"},{"bike_id":"cf88557c-500a-4c98-91d9-a947496a2237","system_id":"levelo_inurba_marseille","lat":43.301117,"lon":5.398795,"is_reserved":false,"is_disabled":false,"rental_uris":{"android":"levelo://app?vid=cf88557c-500a-4c98-91d9-a947496a2237","ios":"levelo://app?vid=cf88557c-500a-4c98-91d9-a947496a2237"},"vehicle_type_id":"4","last_reported":1687583235,"current_range_meters":20400,"station_id":"ce4bh0h2rcd13ifvqd40","pricing_plan_id":"free"},{"bike_id":"2ff6a4f5-4fa0-4891-8fb3-287114af11fd","system_id":"levelo_inurba_marseille","lat":43.301117,"lon":5.398795,"is_reserved":false,"is_disabled":false,"rental_uris":{"android":"levelo://app?vid=2ff6a4f5-4fa0-4891-8fb3-287114af11fd","ios":"levelo://app?vid=2ff6a4f5-4fa0-4891-8fb3-287114af11fd"},"vehicle_type_id":"4","last_reported":1687583235,"current_range_meters":22000,"station_id":"ce4bh0h2rcd13ifvqd40","pricing_plan_id":"free"},{"bike_id":"2fac761a-4d74-4a17-b7f6-e630b5719a04","system_id":"levelo_inurba_marseille","lat":43.301117,"lon":5.398795,"is_reserved":false,"is_disabled":false,"rental_uris":{"android":"levelo://app?vid=2fac761a-4d74-4a17-b7f6-e630b5719a04","ios":"levelo://app?vid=2fac761a-4d74-4a17-b7f6-e630b5719a04"},"vehicle_type_id":"4","last_reported":1687583235,"current_range_meters":26400,"station_id":"ce4bh0h2rcd13ifvqd40","pricing_plan_id":"free"},{"bike_id":"1be10593-b91d-43d4-92f2-22fced8f257f","system_id":"levelo_inurba_marseille","lat":43.286961,"lon":5.373785,"is_reserved":false,"is_disabled":false,"rental_uris":{"android":"levelo://app?vid=1be10593-b91d-43d4-92f2-22fced8f257f","ios":"levelo://app?vid=1be10593-b91d-43d4-92f2-22fced8f257f"},"vehicle_type_id":"4","last_reported":1687583235,"current_range_meters":31600,"station_id":"ce4bh3p2rcd13ifvqdq0","pricing_plan_id":"free"},{"bike_id":"c0e349f3-8a24-4175-9f4e-6792e6616682","system_id":"levelo_inurba_marseille","lat":43.286961,"lon":5.373785,"is_reserved":false,"is_disabled":false,"rental_uris":{"android":"levelo://app?vid=c0e349f3-8a24-4175-9f4e-6792e6616682","ios":"levelo://app?vid=c0e349f3-8a24-4175-9f4e-6792e6616682"},"vehicle_type_id":"4","last_reported":1687583235,"current_range_meters":31600,"station_id":"ce4bh3p2rcd13ifvqdq0","pricing_plan_id":"free"},{"bike_id":"2047c5ee-5e35-42aa-987a-d2aeb1cdfaf3","system_id":"levelo_inurba_marseille","lat":43.286961,"lon":5.373785,"is_reserved":false,"is_disabled":false,"rental_uris":{"android":"levelo://app?vid=2047c5ee-5e35-42aa-987a-d2aeb1cdfaf3","ios":"levelo://app?vid=2047c5ee-5e35-42aa-987a-d2aeb1cdfaf3"},"vehicle_type_id":"4","last_reported":1687583235,"current_range_meters":10800,"station_id":"ce4bh3p2rcd13ifvqdq0","pricing_plan_id":"free"},{"bike_id":"9c195de4-6a9d-42e3-9a08-1252825da843","system_id":"levelo_inurba_marseille","lat":43.29869,"lon":5.39724,"is_reserved":false,"is_disabled":false,"rental_uris":{"android":"levelo://app?vid=9c195de4-6a9d-42e3-9a08-1252825da843","ios":"levelo://app?vid=9c195de4-6a9d-42e3-9a08-1252825da843"},"vehicle_type_id":"4","last_reported":1687583235,"current_range_meters":0,"station_id":"ce4bh0h2rcd13ifvqd50","pricing_plan_id":"free"},{"bike_id":"03ac73bb-b995-4e0e-8646-5acdfc12a1b7","system_id":"levelo_inurba_marseille","lat":43.298681,"lon":5.397225,"is_reserved":false,"is_disabled":false,"rental_uris":{"android":"levelo://app?vid=03ac73bb-b995-4e0e-8646-5acdfc12a1b7","ios":"levelo://app?vid=03ac73bb-b995-4e0e-8646-5acdfc12a1b7"},"vehicle_type_id":"4","last_reported":1687583235,"current_range_meters":29600,"station_id":"ce4bh0h2rcd13ifvqd50","pricing_plan_id":"free"},{"bike_id":"1b8ed2c6-e563-4673-b306-172c7934e7dc","system_id":"levelo_inurba_marseille","lat":43.29885,"lon":5.39741,"is_reserved":false,"is_disabled":false,"rental_uris":{"android":"levelo://app?vid=1b8ed2c6-e563-4673-b306-172c7934e7dc","ios":"levelo://app?vid=1b8ed2c6-e563-4673-b306-172c7934e7dc"},"vehicle_type_id":"4","last_reported":1687583235,"current_range_meters":800,"station_id":"ce4bh0h2rcd13ifvqd50","pricing_plan_id":"free"},{"bike_id":"d31d192e-da56-4517-a27c-9c1099ca0581","system_id":"levelo_inurba_marseille","lat":43.29875,"lon":5.39737,"is_reserved":false,"is_disabled":false,"rental_uris":{"android":"levelo://app?vid=d31d192e-da56-4517-a27c-9c1099ca0581","ios":"levelo://app?vid=d31d192e-da56-4517-a27c-9c1099ca0581"},"vehicle_type_id":"4","last_reported":1687583235,"current_range_meters":14400,"station_id":"ce4bh0h2rcd13ifvqd50","pricing_plan_id":"free"},{"bike_id":"fe603e49-6043-4933-938b-8f044f555b1b","system_id":"levelo_inurba_marseille","lat":43.29881,"lon":5.39743,"is_reserved":false,"is_disabled":false,"rental_uris":{"android":"levelo://app?vid=fe603e49-6043-4933-938b-8f044f555b1b","ios":"levelo://app?vid=fe603e49-6043-4933-938b-8f044f555b1b"},"vehicle_type_id":"4","last_reported":1687583235,"current_range_meters":11200,"station_id":"ce4bh0h2rcd13ifvqd50","pricing_plan_id":"free"},{"bike_id":"8da838ab-dbf3-4851-8087-ed733943f922","system_id":"levelo_inurba_marseille","lat":43.298681,"lon":5.397225,"is_reserved":false,"is_disabled":false,"rental_uris":{"android":"levelo://app?vid=8da838ab-dbf3-4851-8087-ed733943f922","ios":"levelo://app?vid=8da838ab-dbf3-4851-8087-ed733943f922"},"vehicle_type_id":"4","last_reported":1687583235,"current_range_meters":2000,"station_id":"ce4bh0h2rcd13ifvqd50","pricing_plan_id":"free"},{"bike_id":"66642ab2-250a-41ba-9b91-9159a3a5d9ef","system_id":"levelo_inurba_marseille","lat":43.286961,"lon":5.373785,"is_reserved":false,"is_disabled":false,"rental_uris":{"android":"levelo://app?vid=66642ab2-250a-41ba-9b91-9159a3a5d9ef","ios":"levelo://app?vid=66642ab2-250a-41ba-9b91-9159a3a5d9ef"},"vehicle_type_id":"4","last_reported":1687583235,"current_range_meters":22800,"station_id":"ce4bh3p2rcd13ifvqdq0","pricing_plan_id":"free"},{"bike_id":"2a90bd62-2837-4c8e-acff-bb55e3bd51d0","system_id":"levelo_inurba_marseille","lat":43.287,"lon":5.37384,"is_reserved":false,"is_disabled":false,"rental_uris":{"android":"levelo://app?vid=2a90bd62-2837-4c8e-acff-bb55e3bd51d0","ios":"levelo://app?vid=2a90bd62-2837-4c8e-acff-bb55e3bd51d0"},"vehicle_type_id":"4","last_reported":1687583235,"current_range_meters":14400,"station_id":"ce4bh3p2rcd13ifvqdq0","pricing_plan_id":"free"},{"bike_id":"00c8ca85-640b-4297-9f55-217b7d5a05ed","system_id":"levelo_inurba_marseille","lat":43.286961,"lon":5.373785,"is_reserved":false,"is_disabled":false,"rental_uris":{"android":"levelo://app?vid=00c8ca85-640b-4297-9f55-217b7d5a05ed","ios":"levelo://app?vid=00c8ca85-640b-4297-9f55-217b7d5a05ed"},"vehicle_type_id":"4","last_reported":1687583235,"current_range_meters":28000,"station_id":"ce4bh3p2rcd13ifvqdq0","pricing_plan_id":"free"},{"bike_id":"248468bc-783b-4ff2-ae20-dd245b6803cc","system_id":"levelo_inurba_marseille","lat":43.286593,"lon":5.363346,"is_reserved":false,"is_disabled":false,"rental_uris":{"android":"levelo://app?vid=248468bc-783b-4ff2-ae20-dd245b6803cc","ios":"levelo://app?vid=248468bc-783b-4ff2-ae20-dd245b6803cc"},"vehicle_type_id":"4","last_reported":1687583235,"current_range_meters":5200,"station_id":"ce4bhah2rcd13ifvqej0","pricing_plan_id":"free"},{"bike_id":"dd53cf45-cf6e-4d79-afd0-090f84ac34a9","system_id":"levelo_inurba_marseille","lat":43.298681,"lon":5.397225,"is_reserved":false,"is_disabled":false,"rental_uris":{"android":"levelo://app?vid=dd53cf45-cf6e-4d79-afd0-090f84ac34a9","ios":"levelo://app?vid=dd53cf45-cf6e-4d79-afd0-090f84ac34a9"},"vehicle_type_id":"4","last_reported":1687583235,"current_range_meters":4400,"station_id":"ce4bh0h2rcd13ifvqd50","pricing_plan_id":"free"},{"bike_id":"202dd183-3af8-45db-a265-aa5ba12bcea8","system_id":"levelo_inurba_marseille","lat":43.290345,"lon":5.38646,"is_reserved":false,"is_disabled":false,"rental_uris":{"android":"levelo://app?vid=202dd183-3af8-45db-a265-aa5ba12bcea8","ios":"levelo://app?vid=202dd183-3af8-45db-a265-aa5ba12bcea8"},"vehicle_type_id":"4","last_reported":1687583235,"current_range_meters":30400,"station_id":"ce4bh4p2rcd13ifvqe0g","pricing_plan_id":"free"},{"bike_id":"7c55ca5d-67bd-4158-ad16-bee38a42d125","system_id":"levelo_inurba_marseille","lat":43.302759,"lon":5.400793,"is_reserved":false,"is_disabled":false,"rental_uris":{"android":"levelo://app?vid=7c55ca5d-67bd-4158-ad16-bee38a42d125","ios":"levelo://app?vid=7c55ca5d-67bd-4158-ad16-bee38a42d125"},"vehicle_type_id":"4","last_reported":1687583235,"current_range_meters":400,"station_id":"ce4bgvh2rcd13ifvqcs0","pricing_plan_id":"free"},{"bike_id":"7d0e2908-97cb-48c9-aaf2-c36d1753d5b0","system_id":"levelo_inurba_marseille","lat":43.302759,"lon":5.400793,"is_reserved":false,"is_disabled":false,"rental_uris":{"android":"levelo://app?vid=7d0e2908-97cb-48c9-aaf2-c36d1753d5b0","ios":"levelo://app?vid=7d0e2908-97cb-48c9-aaf2-c36d1753d5b0"},"vehicle_type_id":"4","last_reported":1687583235,"current_range_meters":31600,"station_id":"ce4bgvh2rcd13ifvqcs0","pricing_plan_id":"free"},{"bike_id":"ef038b54-6611-44c0-9971-0a8cb0072f04","system_id":"levelo_inurba_marseille","lat":43.302759,"lon":5.400793,"is_reserved":false,"is_disabled":false,"rental_uris":{"android":"levelo://app?vid=ef038b54-6611-44c0-9971-0a8cb0072f04","ios":"levelo://app?vid=ef038b54-6611-44c0-9971-0a8cb0072f04"},"vehicle_type_id":"4","last_reported":1687583235,"current_range_meters":31600,"station_id":"ce4bgvh2rcd13ifvqcs0","pricing_plan_id":"free"},{"bike_id":"01a3bf08-c6cf-4fb7-a14e-df5882c12d11","system_id":"levelo_inurba_marseille","lat":43.302759,"lon":5.400793,"is_reserved":false,"is_disabled":false,"rental_uris":{"android":"levelo://app?vid=01a3bf08-c6cf-4fb7-a14e-df5882c12d11","ios":"levelo://app?vid=01a3bf08-c6cf-4fb7-a14e-df5882c12d11"},"vehicle_type_id":"4","last_reported":1687583235,"current_range_meters":31600,"station_id":"ce4bgvh2rcd13ifvqcs0","pricing_plan_id":"free"},{"bike_id":"713ac09b-da48-446c-94cd-fcd65e9a175d","system_id":"levelo_inurba_marseille","lat":43.302759,"lon":5.400793,"is_reserved":false,"is_disabled":false,"rental_uris":{"android":"levelo://app?vid=713ac09b-da48-446c-94cd-fcd65e9a175d","ios":"levelo://app?vid=713ac09b-da48-446c-94cd-fcd65e9a175d"},"vehicle_type_id":"4","last_reported":1687583235,"current_range_meters":31200,"station_id":"ce4bgvh2rcd13ifvqcs0","pricing_plan_id":"free"},{"bike_id":"d99f696d-2919-4bd5-8a7a-538cc1628e62","system_id":"levelo_inurba_marseille","lat":43.302759,"lon":5.400793,"is_reserved":false,"is_disabled":false,"rental_uris":{"android":"levelo://app?vid=d99f696d-2919-4bd5-8a7a-538cc1628e62","ios":"levelo://app?vid=d99f696d-2919-4bd5-8a7a-538cc1628e62"},"vehicle_type_id":"4","last_reported":1687583235,"current_range_meters":31200,"station_id":"ce4bgvh2rcd13ifvqcs0","pricing_plan_id":"free"},{"bike_id":"1ed2f9bb-875c-4c62-a867-0362b83b1a84","system_id":"levelo_inurba_marseille","lat":43.286039,"lon":5.370679,"is_reserved":false,"is_disabled":false,"rental_uris":{"android":"levelo://app?vid=1ed2f9bb-875c-4c62-a867-0362b83b1a84","ios":"levelo://app?vid=1ed2f9bb-875c-4c62-a867-0362b83b1a84"},"vehicle_type_id":"4","last_reported":1687583235,"current_range_meters":30000,"station_id":"ce4bht12rcd13ifvqi60","pricing_plan_id":"free"},{"bike_id":"d821c382-c6ed-4b88-9e34-91820b52a21a","system_id":"levelo_inurba_marseille","lat":43.28608,"lon":5.37075,"is_reserved":false,"is_disabled":false,"rental_uris":{"android":"levelo://app?vid=d821c382-c6ed-4b88-9e34-91820b52a21a","ios":"levelo://app?vid=d821c382-c6ed-4b88-9e34-91820b52a21a"},"vehicle_type_id":"4","last_reported":1687583235,"current_range_meters":14800,"station_id":"ce4bht12rcd13ifvqi60","pricing_plan_id":"free"},{"bike_id":"af68bfdd-6858-44d4-ae3e-305c6ec2e4ba","system_id":"levelo_inurba_marseille","lat":43.28607,"lon":5.37063,"is_reserved":false,"is_disabled":false,"rental_uris":{"android":"levelo://app?vid=af68bfdd-6858-44d4-ae3e-305c6ec2e4ba","ios":"levelo://app?vid=af68bfdd-6858-44d4-ae3e-305c6ec2e4ba"},"vehicle_type_id":"4","last_reported":1687583235,"current_range_meters":23200,"station_id":"ce4bht12rcd13ifvqi60","pricing_plan_id":"free"},{"bike_id":"d69fed3a-efe9-46fb-b1dc-1240b8978d3e","system_id":"levelo_inurba_marseille","lat":43.316517,"lon":5.404375,"is_reserved":false,"is_disabled":false,"rental_uris":{"android":"levelo://app?vid=d69fed3a-efe9-46fb-b1dc-1240b8978d3e","ios":"levelo://app?vid=d69fed3a-efe9-46fb-b1dc-1240b8978d3e"},"vehicle_type_id":"4","last_reported":1687583235,"current_range_meters":20400,"station_id":"ce4bh012rcd13ifvqd00","pricing_plan_id":"free"},{"bike_id":"cb2ab01d-5baf-40ee-a4a4-cdd0746f7341","system_id":"levelo_inurba_marseille","lat":43.316517,"lon":5.404375,"is_reserved":false,"is_disabled":false,"rental_uris":{"android":"levelo://app?vid=cb2ab01d-5baf-40ee-a4a4-cdd0746f7341","ios":"levelo://app?vid=cb2ab01d-5baf-40ee-a4a4-cdd0746f7341"},"vehicle_type_id":"4","last_reported":1687583235,"current_range_meters":31200,"station_id":"ce4bh012rcd13ifvqd00","pricing_plan_id":"free"},{"bike_id":"7ff0394d-f958-44b6-9037-68a6ba6907f8","system_id":"levelo_inurba_marseille","lat":43.316517,"lon":5.404375,"is_reserved":false,"is_disabled":false,"rental_uris":{"android":"levelo://app?vid=7ff0394d-f958-44b6-9037-68a6ba6907f8","ios":"levelo://app?vid=7ff0394d-f958-44b6-9037-68a6ba6907f8"},"vehicle_type_id":"4","last_reported":1687583235,"current_range_meters":31200,"station_id":"ce4bh012rcd13ifvqd00","pricing_plan_id":"free"},{"bike_id":"5c2055f6-43af-42f5-9106-4fb329f7a3c9","system_id":"levelo_inurba_marseille","lat":43.316517,"lon":5.404375,"is_reserved":false,"is_disabled":false,"rental_uris":{"android":"levelo://app?vid=5c2055f6-43af-42f5-9106-4fb329f7a3c9","ios":"levelo://app?vid=5c2055f6-43af-42f5-9106-4fb329f7a3c9"},"vehicle_type_id":"4","last_reported":1687583235,"current_range_meters":31200,"station_id":"ce4bh012rcd13ifvqd00","pricing_plan_id":"free"},{"bike_id":"b946f9df-c663-48fa-907b-d419086985fe","system_id":"levelo_inurba_marseille","lat":43.316517,"lon":5.404375,"is_reserved":false,"is_disabled":false,"rental_uris":{"android":"levelo://app?vid=b946f9df-c663-48fa-907b-d419086985fe","ios":"levelo://app?vid=b946f9df-c663-48fa-907b-d419086985fe"},"vehicle_type_id":"4","last_reported":1687583235,"current_range_meters":17200,"station_id":"ce4bh012rcd13ifvqd00","pricing_plan_id":"free"},{"bike_id":"f2c35237-c640-4813-ba24-ef17c0774c80","system_id":"levelo_inurba_marseille","lat":43.29569,"lon":5.39783,"is_reserved":false,"is_disabled":false,"rental_uris":{"android":"levelo://app?vid=f2c35237-c640-4813-ba24-ef17c0774c80","ios":"levelo://app?vid=f2c35237-c640-4813-ba24-ef17c0774c80"},"vehicle_type_id":"4","last_reported":1687583235,"current_range_meters":0,"station_id":"","pricing_plan_id":"free"},{"bike_id":"83ae0af3-0521-4258-b6ce-d11ca8d98f1a","system_id":"levelo_inurba_marseille","lat":43.29191,"lon":5.39312,"is_reserved":false,"is_disabled":false,"rental_uris":{"android":"levelo://app?vid=83ae0af3-0521-4258-b6ce-d11ca8d98f1a","ios":"levelo://app?vid=83ae0af3-0521-4258-b6ce-d11ca8d98f1a"},"vehicle_type_id":"4","last_reported":1687583235,"current_range_meters":3200,"station_id":"ce4bh192rcd13ifvqdd0","pricing_plan_id":"free"},{"bike_id":"1797aa7f-2084-425f-9e0b-55e5db8e64db","system_id":"levelo_inurba_marseille","lat":43.284534,"lon":5.358662,"is_reserved":false,"is_disabled":false,"rental_uris":{"android":"levelo://app?vid=1797aa7f-2084-425f-9e0b-55e5db8e64db","ios":"levelo://app?vid=1797aa7f-2084-425f-9e0b-55e5db8e64db"},"vehicle_type_id":"4","last_reported":1687583235,"current_range_meters":6400,"station_id":"ce4bhah2rcd13ifvqei0","pricing_plan_id":"free"},{"bike_id":"28fbafb9-ecfd-4b1e-972c-2924ae277716","system_id":"levelo_inurba_marseille","lat":43.28462,"lon":5.35886,"is_reserved":false,"is_disabled":false,"rental_uris":{"android":"levelo://app?vid=28fbafb9-ecfd-4b1e-972c-2924ae277716","ios":"levelo://app?vid=28fbafb9-ecfd-4b1e-972c-2924ae277716"},"vehicle_type_id":"4","last_reported":1687583235,"current_range_meters":0,"station_id":"ce4bhah2rcd13ifvqei0","pricing_plan_id":"free"},{"bike_id":"4cb4ce11-e7d2-4af9-b9ef-92b346cd0c47","system_id":"levelo_inurba_marseille","lat":43.28461,"lon":5.35886,"is_reserved":false,"is_disabled":false,"rental_uris":{"android":"levelo://app?vid=4cb4ce11-e7d2-4af9-b9ef-92b346cd0c47","ios":"levelo://app?vid=4cb4ce11-e7d2-4af9-b9ef-92b346cd0c47"},"vehicle_type_id":"4","last_reported":1687583235,"current_range_meters":26400,"station_id":"ce4bhah2rcd13ifvqei0","pricing_plan_id":"free"},{"bike_id":"16c6cba8-7ce3-455a-839b-069856d0cfe6","system_id":"levelo_inurba_marseille","lat":43.284534,"lon":5.358662,"is_reserved":false,"is_disabled":false,"rental_uris":{"android":"levelo://app?vid=16c6cba8-7ce3-455a-839b-069856d0cfe6","ios":"levelo://app?vid=16c6cba8-7ce3-455a-839b-069856d0cfe6"},"vehicle_type_id":"4","last_reported":1687583235,"current_range_meters":20000,"station_id":"ce4bhah2rcd13ifvqei0","pricing_plan_id":"free"},{"bike_id":"d311da88-5efe-4245-99e9-69cf4dec3bfb","system_id":"levelo_inurba_marseille","lat":43.294314,"lon":5.397498,"is_reserved":false,"is_disabled":false,"rental_uris":{"android":"levelo://app?vid=d311da88-5efe-4245-99e9-69cf4dec3bfb","ios":"levelo://app?vid=d311da88-5efe-4245-99e9-69cf4dec3bfb"},"vehicle_type_id":"4","last_reported":1687583235,"current_range_meters":29200,"station_id":"ce4bh3h2rcd13ifvqdo0","pricing_plan_id":"free"},{"bike_id":"ab09438f-9b00-4871-813a-24e97d14b9c4","system_id":"levelo_inurba_marseille","lat":43.295713,"lon":5.399639,"is_reserved":false,"is_disabled":false,"rental_uris":{"android":"levelo://app?vid=ab09438f-9b00-4871-813a-24e97d14b9c4","ios":"levelo://app?vid=ab09438f-9b00-4871-813a-24e97d14b9c4"},"vehicle_type_id":"4","last_reported":1687583235,"current_range_meters":28800,"station_id":"ce4bh312rcd13ifvqdj0","pricing_plan_id":"free"},{"bike_id":"99359303-263f-4858-9567-dda5525f3cfc","system_id":"levelo_inurba_marseille","lat":43.28407,"lon":5.37517,"is_reserved":false,"is_disabled":false,"rental_uris":{"android":"levelo://app?vid=99359303-263f-4858-9567-dda5525f3cfc","ios":"levelo://app?vid=99359303-263f-4858-9567-dda5525f3cfc"},"vehicle_type_id":"4","last_reported":1687583235,"current_range_meters":17200,"station_id":"ce4bh412rcd13ifvqds0","pricing_plan_id":"free"},{"bike_id":"6cb063c5-4685-408c-ae17-918edf72d459","system_id":"levelo_inurba_marseille","lat":43.295713,"lon":5.399639,"is_reserved":false,"is_disabled":false,"rental_uris":{"android":"levelo://app?vid=6cb063c5-4685-408c-ae17-918edf72d459","ios":"levelo://app?vid=6cb063c5-4685-408c-ae17-918edf72d459"},"vehicle_type_id":"4","last_reported":1687583235,"current_range_meters":13200,"station_id":"ce4bh312rcd13ifvqdj0","pricing_plan_id":"free"},{"bike_id":"363121c8-61d8-4ad9-a23c-03c45f41e8e0","system_id":"levelo_inurba_marseille","lat":43.29568,"lon":5.39966,"is_reserved":false,"is_disabled":false,"rental_uris":{"android":"levelo://app?vid=363121c8-61d8-4ad9-a23c-03c45f41e8e0","ios":"levelo://app?vid=363121c8-61d8-4ad9-a23c-03c45f41e8e0"},"vehicle_type_id":"4","last_reported":1687583235,"current_range_meters":31200,"station_id":"ce4bh312rcd13ifvqdj0","pricing_plan_id":"free"},{"bike_id":"790b9b69-1801-4a65-805d-cda7d5a771c1","system_id":"levelo_inurba_marseille","lat":43.295713,"lon":5.399639,"is_reserved":false,"is_disabled":false,"rental_uris":{"android":"levelo://app?vid=790b9b69-1801-4a65-805d-cda7d5a771c1","ios":"levelo://app?vid=790b9b69-1801-4a65-805d-cda7d5a771c1"},"vehicle_type_id":"4","last_reported":1687583235,"current_range_meters":31600,"station_id":"ce4bh312rcd13ifvqdj0","pricing_plan_id":"free"},{"bike_id":"455d8a87-c960-44f8-b935-979d07392cfa","system_id":"levelo_inurba_marseille","lat":43.295713,"lon":5.399639,"is_reserved":false,"is_disabled":false,"rental_uris":{"android":"levelo://app?vid=455d8a87-c960-44f8-b935-979d07392cfa","ios":"levelo://app?vid=455d8a87-c960-44f8-b935-979d07392cfa"},"vehicle_type_id":"4","last_reported":1687583235,"current_range_meters":26800,"station_id":"ce4bh312rcd13ifvqdj0","pricing_plan_id":"free"},{"bike_id":"59b08044-bea7-45b6-b274-52aeeb492f1a","system_id":"levelo_inurba_marseille","lat":43.295713,"lon":5.399639,"is_reserved":false,"is_disabled":false,"rental_uris":{"android":"levelo://app?vid=59b08044-bea7-45b6-b274-52aeeb492f1a","ios":"levelo://app?vid=59b08044-bea7-45b6-b274-52aeeb492f1a"},"vehicle_type_id":"4","last_reported":1687583235,"current_range_meters":30400,"station_id":"ce4bh312rcd13ifvqdj0","pricing_plan_id":"free"},{"bike_id":"4a2ae629-6af2-42b8-bb70-5f5dab067d1c","system_id":"levelo_inurba_marseille","lat":43.28683,"lon":5.38664,"is_reserved":false,"is_disabled":false,"rental_uris":{"android":"levelo://app?vid=4a2ae629-6af2-42b8-bb70-5f5dab067d1c","ios":"levelo://app?vid=4a2ae629-6af2-42b8-bb70-5f5dab067d1c"},"vehicle_type_id":"4","last_reported":1687583235,"current_range_meters":21200,"station_id":"ce4bh492rcd13ifvqdug","pricing_plan_id":"free"},{"bike_id":"75b81fdb-a7b4-4460-a538-12c0506d599b","system_id":"levelo_inurba_marseille","lat":43.323464,"lon":5.406297,"is_reserved":false,"is_disabled":false,"rental_uris":{"android":"levelo://app?vid=75b81fdb-a7b4-4460-a538-12c0506d599b","ios":"levelo://app?vid=75b81fdb-a7b4-4460-a538-12c0506d599b"},"vehicle_type_id":"4","last_reported":1687583235,"current_range_meters":13600,"station_id":"ce4bhq92rcd13ifvqhjg","pricing_plan_id":"free"},{"bike_id":"2a2f252d-d96d-4440-a4a3-43fbbf49969d","system_id":"levelo_inurba_marseille","lat":43.323464,"lon":5.406297,"is_reserved":false,"is_disabled":false,"rental_uris":{"android":"levelo://app?vid=2a2f252d-d96d-4440-a4a3-43fbbf49969d","ios":"levelo://app?vid=2a2f252d-d96d-4440-a4a3-43fbbf49969d"},"vehicle_type_id":"4","last_reported":1687583235,"current_range_meters":25200,"station_id":"ce4bhq92rcd13ifvqhjg","pricing_plan_id":"free"},{"bike_id":"00803c85-75e3-424e-a0cb-c6ed39a02c23","system_id":"levelo_inurba_marseille","lat":43.323464,"lon":5.406297,"is_reserved":false,"is_disabled":false,"rental_uris":{"android":"levelo://app?vid=00803c85-75e3-424e-a0cb-c6ed39a02c23","ios":"levelo://app?vid=00803c85-75e3-424e-a0cb-c6ed39a02c23"},"vehicle_type_id":"4","last_reported":1687583235,"current_range_meters":31200,"station_id":"ce4bhq92rcd13ifvqhjg","pricing_plan_id":"free"},{"bike_id":"9cae825f-ce49-4976-9212-5608954cbbcd","system_id":"levelo_inurba_marseille","lat":43.323464,"lon":5.406297,"is_reserved":false,"is_disabled":false,"rental_uris":{"android":"levelo://app?vid=9cae825f-ce49-4976-9212-5608954cbbcd","ios":"levelo://app?vid=9cae825f-ce49-4976-9212-5608954cbbcd"},"vehicle_type_id":"4","last_reported":1687583235,"current_range_meters":31200,"station_id":"ce4bhq92rcd13ifvqhjg","pricing_plan_id":"free"},{"bike_id":"aee02a24-eb86-40f1-93e3-4f7daf94bd69","system_id":"levelo_inurba_marseille","lat":43.32343,"lon":5.40621,"is_reserved":false,"is_disabled":false,"rental_uris":{"android":"levelo://app?vid=aee02a24-eb86-40f1-93e3-4f7daf94bd69","ios":"levelo://app?vid=aee02a24-eb86-40f1-93e3-4f7daf94bd69"},"vehicle_type_id":"4","last_reported":1687583235,"current_range_meters":31200,"station_id":"ce4bhq92rcd13ifvqhjg","pricing_plan_id":"free"},{"bike_id":"165784fd-8cb0-48fe-8681-d7abe54a6cf4","system_id":"levelo_inurba_marseille","lat":43.32342,"lon":5.40625,"is_reserved":false,"is_disabled":false,"rental_uris":{"android":"levelo://app?vid=165784fd-8cb0-48fe-8681-d7abe54a6cf4","ios":"levelo://app?vid=165784fd-8cb0-48fe-8681-d7abe54a6cf4"},"vehicle_type_id":"4","last_reported":1687583235,"current_range_meters":31200,"station_id":"ce4bhq92rcd13ifvqhjg","pricing_plan_id":"free"},{"bike_id":"a54c5183-d12c-4b5d-b1a7-e6c2a62eb9b5","system_id":"levelo_inurba_marseille","lat":43.32343,"lon":5.40626,"is_reserved":false,"is_disabled":false,"rental_uris":{"android":"levelo://app?vid=a54c5183-d12c-4b5d-b1a7-e6c2a62eb9b5","ios":"levelo://app?vid=a54c5183-d12c-4b5d-b1a7-e6c2a62eb9b5"},"vehicle_type_id":"4","last_reported":1687583235,"current_range_meters":20400,"station_id":"ce4bhq92rcd13ifvqhjg","pricing_plan_id":"free"},{"bike_id":"8d1f88b2-a260-40c1-9cbd-c5c8b2bfd015","system_id":"levelo_inurba_marseille","lat":43.32346,"lon":5.40625,"is_reserved":false,"is_disabled":false,"rental_uris":{"android":"levelo://app?vid=8d1f88b2-a260-40c1-9cbd-c5c8b2bfd015","ios":"levelo://app?vid=8d1f88b2-a260-40c1-9cbd-c5c8b2bfd015"},"vehicle_type_id":"4","last_reported":1687583235,"current_range_meters":12400,"station_id":"ce4bhq92rcd13ifvqhjg","pricing_plan_id":"free"},{"bike_id":"56026b83-878a-42de-a814-b2789732736c","system_id":"levelo_inurba_marseille","lat":43.284787,"lon":5.384116,"is_reserved":false,"is_disabled":false,"rental_uris":{"android":"levelo://app?vid=56026b83-878a-42de-a814-b2789732736c","ios":"levelo://app?vid=56026b83-878a-42de-a814-b2789732736c"},"vehicle_type_id":"4","last_reported":1687583235,"current_range_meters":14800,"station_id":"ce4bh512rcd13ifvqe3g","pricing_plan_id":"free"},{"bike_id":"fe1f39ee-1f5f-4fee-bf72-ec5ff6851e86","system_id":"levelo_inurba_marseille","lat":43.32233,"lon":5.40702,"is_reserved":false,"is_disabled":false,"rental_uris":{"android":"levelo://app?vid=fe1f39ee-1f5f-4fee-bf72-ec5ff6851e86","ios":"levelo://app?vid=fe1f39ee-1f5f-4fee-bf72-ec5ff6851e86"},"vehicle_type_id":"4","last_reported":1687583235,"current_range_meters":3200,"station_id":"","pricing_plan_id":"free"},{"bike_id":"bd9a6f6f-d933-4628-bb49-5fb12002ddad","system_id":"levelo_inurba_marseille","lat":43.28865,"lon":5.3932,"is_reserved":false,"is_disabled":false,"rental_uris":{"android":"levelo://app?vid=bd9a6f6f-d933-4628-bb49-5fb12002ddad","ios":"levelo://app?vid=bd9a6f6f-d933-4628-bb49-5fb12002ddad"},"vehicle_type_id":"4","last_reported":1687583235,"current_range_meters":24400,"station_id":"ce4bh2p2rcd13ifvqdi0","pricing_plan_id":"free"},{"bike_id":"e9bb34fa-f29b-4419-a7d6-dd07a0c9a7bf","system_id":"levelo_inurba_marseille","lat":43.30699,"lon":5.40845,"is_reserved":false,"is_disabled":false,"rental_uris":{"android":"levelo://app?vid=e9bb34fa-f29b-4419-a7d6-dd07a0c9a7bf","ios":"levelo://app?vid=e9bb34fa-f29b-4419-a7d6-dd07a0c9a7bf"},"vehicle_type_id":"4","last_reported":1687583235,"current_range_meters":0,"station_id":"","pricing_plan_id":"free"},{"bike_id":"2260071e-29de-49a7-957d-3ac03fd951d4","system_id":"levelo_inurba_marseille","lat":43.28857,"lon":5.3932,"is_reserved":false,"is_disabled":false,"rental_uris":{"android":"levelo://app?vid=2260071e-29de-49a7-957d-3ac03fd951d4","ios":"levelo://app?vid=2260071e-29de-49a7-957d-3ac03fd951d4"},"vehicle_type_id":"4","last_reported":1687583235,"current_range_meters":31200,"station_id":"ce4bh2p2rcd13ifvqdi0","pricing_plan_id":"free"},{"bike_id":"a076151a-c1e7-4d8c-a777-6e9d2dcba3a1","system_id":"levelo_inurba_marseille","lat":43.288497,"lon":5.393089,"is_reserved":false,"is_disabled":false,"rental_uris":{"android":"levelo://app?vid=a076151a-c1e7-4d8c-a777-6e9d2dcba3a1","ios":"levelo://app?vid=a076151a-c1e7-4d8c-a777-6e9d2dcba3a1"},"vehicle_type_id":"4","last_reported":1687583235,"current_range_meters":30800,"station_id":"ce4bh2p2rcd13ifvqdi0","pricing_plan_id":"free"},{"bike_id":"b4c950db-352f-4a1a-8e3c-c05101a6dad0","system_id":"levelo_inurba_marseille","lat":43.288497,"lon":5.393089,"is_reserved":false,"is_disabled":false,"rental_uris":{"android":"levelo://app?vid=b4c950db-352f-4a1a-8e3c-c05101a6dad0","ios":"levelo://app?vid=b4c950db-352f-4a1a-8e3c-c05101a6dad0"},"vehicle_type_id":"4","last_reported":1687583235,"current_range_meters":31200,"station_id":"ce4bh2p2rcd13ifvqdi0","pricing_plan_id":"free"},{"bike_id":"22deb612-a017-4430-928a-8d46f55a7268","system_id":"levelo_inurba_marseille","lat":43.28947,"lon":5.39636,"is_reserved":false,"is_disabled":false,"rental_uris":{"android":"levelo://app?vid=22deb612-a017-4430-928a-8d46f55a7268","ios":"levelo://app?vid=22deb612-a017-4430-928a-8d46f55a7268"},"vehicle_type_id":"4","last_reported":1687583235,"current_range_meters":13600,"station_id":"ce4bh3h2rcd13ifvqdn0","pricing_plan_id":"free"},{"bike_id":"82f0c12c-a976-4c4f-addd-333e5baac730","system_id":"levelo_inurba_marseille","lat":43.29272,"lon":5.40118,"is_reserved":false,"is_disabled":false,"rental_uris":{"android":"levelo://app?vid=82f0c12c-a976-4c4f-addd-333e5baac730","ios":"levelo://app?vid=82f0c12c-a976-4c4f-addd-333e5baac730"},"vehicle_type_id":"4","last_reported":1687583235,"current_range_meters":0,"station_id":"ce4bh312rcd13ifvqdk0","pricing_plan_id":"free"},{"bike_id":"ad0a14d8-1d1a-4393-aaca-9bdeb48a55e4","system_id":"levelo_inurba_marseille","lat":43.283502,"lon":5.386471,"is_reserved":false,"is_disabled":false,"rental_uris":{"android":"levelo://app?vid=ad0a14d8-1d1a-4393-aaca-9bdeb48a55e4","ios":"levelo://app?vid=ad0a14d8-1d1a-4393-aaca-9bdeb48a55e4"},"vehicle_type_id":"4","last_reported":1687583235,"current_range_meters":30400,"station_id":"ce4bh492rcd13ifvqdvg","pricing_plan_id":"free"},{"bike_id":"c04f5a17-e49d-4e3f-8452-951f9662f312","system_id":"levelo_inurba_marseille","lat":43.28271,"lon":5.35061,"is_reserved":false,"is_disabled":false,"rental_uris":{"android":"levelo://app?vid=c04f5a17-e49d-4e3f-8452-951f9662f312","ios":"levelo://app?vid=c04f5a17-e49d-4e3f-8452-951f9662f312"},"vehicle_type_id":"4","last_reported":1687583235,"current_range_meters":4400,"station_id":"ce4bhbp2rcd13ifvqerg","pricing_plan_id":"free"},{"bike_id":"02f870c8-c116-4b39-a4b9-cd0f00ed2aa2","system_id":"levelo_inurba_marseille","lat":43.283502,"lon":5.386471,"is_reserved":false,"is_disabled":false,"rental_uris":{"android":"levelo://app?vid=02f870c8-c116-4b39-a4b9-cd0f00ed2aa2","ios":"levelo://app?vid=02f870c8-c116-4b39-a4b9-cd0f00ed2aa2"},"vehicle_type_id":"4","last_reported":1687583235,"current_range_meters":20800,"station_id":"ce4bh492rcd13ifvqdvg","pricing_plan_id":"free"},{"bike_id":"ef2e44a7-b986-497e-9f87-10d004442a13","system_id":"levelo_inurba_marseille","lat":43.283502,"lon":5.386471,"is_reserved":false,"is_disabled":false,"rental_uris":{"android":"levelo://app?vid=ef2e44a7-b986-497e-9f87-10d004442a13","ios":"levelo://app?vid=ef2e44a7-b986-497e-9f87-10d004442a13"},"vehicle_type_id":"4","last_reported":1687583235,"current_range_meters":25200,"station_id":"ce4bh492rcd13ifvqdvg","pricing_plan_id":"free"},{"bike_id":"42ebd637-e2bb-4ccf-b453-2dad03b9db8f","system_id":"levelo_inurba_marseille","lat":43.28354,"lon":5.38624,"is_reserved":false,"is_disabled":false,"rental_uris":{"android":"levelo://app?vid=42ebd637-e2bb-4ccf-b453-2dad03b9db8f","ios":"levelo://app?vid=42ebd637-e2bb-4ccf-b453-2dad03b9db8f"},"vehicle_type_id":"4","last_reported":1687583235,"current_range_meters":18000,"station_id":"ce4bh492rcd13ifvqdvg","pricing_plan_id":"free"},{"bike_id":"cc98937f-3534-475d-a3fb-ed625ec9b0cf","system_id":"levelo_inurba_marseille","lat":43.28032,"lon":5.36936,"is_reserved":false,"is_disabled":false,"rental_uris":{"android":"levelo://app?vid=cc98937f-3534-475d-a3fb-ed625ec9b0cf","ios":"levelo://app?vid=cc98937f-3534-475d-a3fb-ed625ec9b0cf"},"vehicle_type_id":"4","last_reported":1687583235,"current_range_meters":1200,"station_id":"ce4bha12rcd13ifvqef0","pricing_plan_id":"free"},{"bike_id":"0f1ab7c4-2849-4c92-9419-e78ea5bacc90","system_id":"levelo_inurba_marseille","lat":43.282744,"lon":5.350533,"is_reserved":false,"is_disabled":false,"rental_uris":{"android":"levelo://app?vid=0f1ab7c4-2849-4c92-9419-e78ea5bacc90","ios":"levelo://app?vid=0f1ab7c4-2849-4c92-9419-e78ea5bacc90"},"vehicle_type_id":"4","last_reported":1687583235,"current_range_meters":27600,"station_id":"ce4bhbp2rcd13ifvqerg","pricing_plan_id":"free"},