{"last_updated":1741277536,"ttl":60,"version":"2.2","data":{"bikes":[{"bike_id":"5e092d5b-f266-4369-b24a-17b435a74b01","system_id":"levelo_inurba_marseille","lat":43.23178,"lon":5.39988,"is_reserved":false,"is_disabled":false,"rental_uris":{"android":"levelo://app?vid=5e092d5b-f266-4369-b24a-17b435a74b01","ios":"levelo://app?vid=5e092d5b-f266-4369-b24a-17b435a74b01"},"vehicle_type_id":"4","last_reported":1741277536,"current_range_meters":2800,"station_id":"ce4bhn12rcd13ifvqgqg","pricing_plan_id":"cebpf4jnsgd1na2vs0mg"},{"bike_id":"7c9bb30e-276a-4276-9e69-7a551f00c356","system_id":"levelo_inurba_marseille","lat":43.32542,"lon":5.41438,"is_reserved":false,"is_disabled":false,"rental_uris":{"android":"levelo://app?vid=7c9bb30e-276a-4276-9e69-7a551f00c356","ios":"levelo://app?vid=7c9bb30e-276a-4276-9e69-7a551f00c356"},"vehicle_type_id":"4","last_reported":1741277536,"current_range_meters":2800,"station_id":"ce4bhq12rcd13ifvqhhg","pricing_plan_id":"cebpf4jnsgd1na2vs0mg"},{"bike_id":"c6e07f10-e243-45c9-a19b-2f3bbb3bfcf0","system_id":"levelo_inurba_marseille","lat":43.29583,"lon":5.36738,"is_reserved":false,"is_disabled":false,"rental_uris":{"android":"levelo://app?vid=c6e07f10-e243-45c9-a19b-2f3bbb3bfcf0","ios":"levelo://app?vid=c6e07f10-e243-45c9-a19b-2f3bbb3bfcf0"},"vehicle_type_id":"4","last_reported":1741277536,"current_range_meters":3200,"station_id":"ce4bgph2rcd13ifvqc2g","pricing_plan_id":"cebpf4jnsgd1na2vs0mg"},{"bike_id":"3cd25498-f8fc-4467-a916-d7b10b452177","system_id":"levelo_inurba_marseille","lat":43.29789,"lon":5.38092,"is_reserved":false,"is_disabled":false,"rental_uris":{"android":"levelo://app?vid=3cd25498-f8fc-4467-a916-d7b10b452177","ios":"levelo://app?vid=3cd25498-f8fc-4467-a916-d7b10b452177"},"vehicle_type_id":"4","last_reported":1741277536,"current_range_meters":3200,"station_id":"ce4bgip2rcd13ifvqbb0","pricing_plan_id":"cebpf4jnsgd1na2vs0mg"},{"bike_id":"045deb7e-220c-402b-9410-aac992402727","system_id":"levelo_inurba_marseille","lat":43.255,"lon":5.37647,"is_reserved":false,"is_disabled":false,"rental_uris":{"android":"levelo://app?vid=045deb7e-220c-402b-9410-aac992402727","ios":"levelo://app?vid=045deb7e-220c-402b-9410-aac992402727"},"vehicle_type_id":"4","last_reported":1741277536,"current_range_meters":3200,"station_id":"ce4bhh12rcd13ifvqff0","pricing_plan_id":"cebpf4jnsgd1na2vs0mg"},{"bike_id":"a27da62f-2316-4d83-938c-5aea7de71e43","system_id":"levelo_inurba_marseille","lat":43.25086,"lon":5.39524,"is_reserved":false,"is_disabled":false,"rental_uris":{"android":"levelo://app?vid=a27da62f-2316-4d83-938c-5aea7de71e43","ios":"levelo://app?vid=a27da62f-2316-4d83-938c-5aea7de71e43"},"vehicle_type_id":"4","last_reported":1741277536,"current_range_meters":3600,"station_id":"ce4bhm12rcd13ifvqgkg","pricing_plan_id":"cebpf4jnsgd1na2vs0mg"},{"bike_id":"d257413e-3664-4303-825c-53c6851439a9","system_id":"levelo_inurba_marseille","lat":43.29271,"lon":5.40108,"is_reserved":false,"is_disabled":false,"rental_uris":{"android":"levelo://app?vid=d257413e-3664-4303-825c-53c6851439a9","ios":"levelo://app?vid=d257413e-3664-4303-825c-53c6851439a9"},"vehicle_type_id":"4","last_reported":1741277536,"current_range_meters":3600,"station_id":"ce4bh312rcd13ifvqdk0","pricing_plan_id":"cebpf4jnsgd1na2vs0mg"},{"bike_id":"27dff8d7-6705-46cd-9326-4469ed929349","system_id":"levelo_inurba_marseille","lat":43.27085,"lon":5.4026,"is_reserved":false,"is_disabled":false,"rental_uris":{"android":"levelo://app?vid=27dff8d7-6705-46cd-9326-4469ed929349","ios":"levelo://app?vid=27dff8d7-6705-46cd-9326-4469ed929349"},"vehicle_type_id":"4","last_reported":1741277536,"current_range_meters":4000,"station_id":"ce4bhk92rcd13ifvqgc0","pricing_plan_id":"cebpf4jnsgd1na2vs0mg"},{"bike_id":"e4d4cf0d-38a0-4e32-9aa1-cd0e4bfbea79","system_id":"levelo_inurba_marseille","lat":43.29628,"lon":5.40585,"is_reserved":false,"is_disabled":false,"rental_uris":{"android":"levelo://app?vid=e4d4cf0d-38a0-4e32-9aa1-cd0e4bfbea79","ios":"levelo://app?vid=e4d4cf0d-38a0-4e32-9aa1-cd0e4bfbea79"},"vehicle_type_id":"4","last_reported":1741277536,"current_range_meters":3600,"station_id":"ce4bh0h2rcd13ifvqd60","pricing_plan_id":"cebpf4jnsgd1na2vs0mg"},{"bike_id":"3d1b06d4-568a-4db9-be49-4f282703f5a3","system_id":"levelo_inurba_marseille","lat":43.305573,"lon":5.365718,"is_reserved":false,"is_disabled":false,"rental_uris":{"android":"levelo://app?vid=3d1b06d4-568a-4db9-be49-4f282703f5a3","ios":"levelo://app?vid=3d1b06d4-568a-4db9-be49-4f282703f5a3"},"vehicle_type_id":"4","last_reported":1741277536,"current_range_meters":4000,"station_id":"ce4bha12rcd13ifvqee0","pricing_plan_id":"cebpf4jnsgd1na2vs0mg"},{"bike_id":"60e16947-a9f1-498b-b2ef-8ab854e60937","system_id":"levelo_inurba_marseille","lat":43.28165,"lon":5.42628,"is_reserved":false,"is_disabled":false,"rental_uris":{"android":"levelo://app?vid=60e16947-a9f1-498b-b2ef-8ab854e60937","ios":"levelo://app?vid=60e16947-a9f1-498b-b2ef-8ab854e60937"},"vehicle_type_id":"4","last_reported":1741277536,"current_range_meters":4000,"station_id":"ce4bhnh2rcd13ifvqgug","pricing_plan_id":"cebpf4jnsgd1na2vs0mg"},{"bike_id":"6ea067ad-0927-492e-ad44-171812dd1748","system_id":"levelo_inurba_marseille","lat":43.26223,"lon":5.40449,"is_reserved":false,"is_disabled":false,"rental_uris":{"android":"levelo://app?vid=6ea067ad-0927-492e-ad44-171812dd1748","ios":"levelo://app?vid=6ea067ad-0927-492e-ad44-171812dd1748"},"vehicle_type_id":"4","last_reported":1741277536,"current_range_meters":4400,"station_id":"ce4bhmh2rcd13ifvqgmg","pricing_plan_id":"cebpf4jnsgd1na2vs0mg"},{"bike_id":"1683aebd-39fe-441c-929b-2b7ee92ef4a6","system_id":"levelo_inurba_marseille","lat":43.2971,"lon":5.36604,"is_reserved":false,"is_disabled":false,"rental_uris":{"android":"levelo://app?vid=1683aebd-39fe-441c-929b-2b7ee92ef4a6","ios":"levelo://app?vid=1683aebd-39fe-441c-929b-2b7ee92ef4a6"},"vehicle_type_id":"4","last_reported":1741277536,"current_range_meters":4400,"station_id":"ce4bgn12rcd13ifvqbt0","pricing_plan_id":"cebpf4jnsgd1na2vs0mg"},{"bike_id":"c2abc49b-6aad-4fe9-95bc-fe25ddd54526","system_id":"levelo_inurba_marseille","lat":43.28149,"lon":5.4263,"is_reserved":false,"is_disabled":false,"rental_uris":{"android":"levelo://app?vid=c2abc49b-6aad-4fe9-95bc-fe25ddd54526","ios":"levelo://app?vid=c2abc49b-6aad-4fe9-95bc-fe25ddd54526"},"vehicle_type_id":"4","last_reported":1741277536,"current_range_meters":4400,"station_id":"ce4bhnh2rcd13ifvqgug","pricing_plan_id":"cebpf4jnsgd1na2vs0mg"},{"bike_id":"233654dd-ec6a-4eef-aef7-50bfc00c3e11","system_id":"levelo_inurba_marseille","lat":43.26557,"lon":5.37285,"is_reserved":false,"is_disabled":false,"rental_uris":{"android":"levelo://app?vid=233654dd-ec6a-4eef-aef7-50bfc00c3e11","ios":"levelo://app?vid=233654dd-ec6a-4eef-aef7-50bfc00c3e11"},"vehicle_type_id":"4","last_reported":1741277536,"current_range_meters":4800,"station_id":"ce4bhg12rcd13ifvqf70","pricing_plan_id":"cebpf4jnsgd1na2vs0mg"},{"bike_id":"9caf591e-2635-468a-b196-64a0737b2d75","system_id":"levelo_inurba_marseille","lat":43.28154,"lon":5.42639,"is_reserved":false,"is_disabled":false,"rental_uris":{"android":"levelo://app?vid=9caf591e-2635-468a-b196-64a0737b2d75","ios":"levelo://app?vid=9caf591e-2635-468a-b196-64a0737b2d75"},"vehicle_type_id":"4","last_reported":1741277536,"current_range_meters":6800,"station_id":"ce4bhnh2rcd13ifvqgug","pricing_plan_id":"cebpf4jnsgd1na2vs0mg"},{"bike_id":"b0b7d48a-4ec1-46c6-9a57-441e2157a987","system_id":"levelo_inurba_marseille","lat":43.29044,"lon":5.37238,"is_reserved":false,"is_disabled":false,"rental_uris":{"android":"levelo://app?vid=b0b7d48a-4ec1-46c6-9a57-441e2157a987","ios":"levelo://app?vid=b0b7d48a-4ec1-46c6-9a57-441e2157a987"},"vehicle_type_id":"4","last_reported":1741277536,"current_range_meters":5600,"station_id":"ce4bh5p2rcd13ifvqe4g","pricing_plan_id":"cebpf4jnsgd1na2vs0mg"},{"bike_id":"0a9a930f-7de1-4375-bef2-a278adeb700d","system_id":"levelo_inurba_marseille","lat":43.28614,"lon":5.35104,"is_reserved":false,"is_disabled":false,"rental_uris":{"android":"levelo://app?vid=0a9a930f-7de1-4375-bef2-a278adeb700d","ios":"levelo://app?vid=0a9a930f-7de1-4375-bef2-a278adeb700d"},"vehicle_type_id":"4","last_reported":1741277536,"current_range_meters":5600,"station_id":"ce4bhch2rcd13ifvqeug","pricing_plan_id":"cebpf4jnsgd1na2vs0mg"},{"bike_id":"ed658983-ed9c-4fca-8a9d-4be7f4b03ae1","system_id":"levelo_inurba_marseille","lat":43.26672,"lon":5.38281,"is_reserved":false,"is_disabled":false,"rental_uris":{"android":"levelo://app?vid=ed658983-ed9c-4fca-8a9d-4be7f4b03ae1","ios":"levelo://app?vid=ed658983-ed9c-4fca-8a9d-4be7f4b03ae1"},"vehicle_type_id":"4","last_reported":1741277536,"current_range_meters":6000,"station_id":"ce4bhg92rcd13ifvqf90","pricing_plan_id":"cebpf4jnsgd1na2vs0mg"},{"bike_id":"e08d02ce-e05e-47db-a4da-61408324febe","system_id":"levelo_inurba_marseille","lat":43.27675,"lon":5.38875,"is_reserved":false,"is_disabled":false,"rental_uris":{"android":"levelo://app?vid=e08d02ce-e05e-47db-a4da-61408324febe","ios":"levelo://app?vid=e08d02ce-e05e-47db-a4da-61408324febe"},"vehicle_type_id":"4","last_reported":1741277536,"current_range_meters":6000,"station_id":"ce4bhi12rcd13ifvqfo0","pricing_plan_id":"cebpf4jnsgd1na2vs0mg"},{"bike_id":"fadc5597-2f44-411e-bbc9-b698e9edf980","system_id":"levelo_inurba_marseille","lat":43.27943,"lon":5.41047,"is_reserved":false,"is_disabled":false,"rental_uris":{"android":"levelo://app?vid=fadc5597-2f44-411e-bbc9-b698e9edf980","ios":"levelo://app?vid=fadc5597-2f44-411e-bbc9-b698e9edf980"},"vehicle_type_id":"4","last_reported":1741277536,"current_range_meters":6000,"station_id":"ce4bhnp2rcd13ifvqh0g","pricing_plan_id":"cebpf4jnsgd1na2vs0mg"},{"bike_id":"a508c450-2471-4823-b989-5917711248cb","system_id":"levelo_inurba_marseille","lat":43.27055,"lon":5.40253,"is_reserved":false,"is_disabled":false,"rental_uris":{"android":"levelo://app?vid=a508c450-2471-4823-b989-5917711248cb","ios":"levelo://app?vid=a508c450-2471-4823-b989-5917711248cb"},"vehicle_type_id":"4","last_reported":1741277536,"current_range_meters":6400,"station_id":"ce4bhk92rcd13ifvqgc0","pricing_plan_id":"cebpf4jnsgd1na2vs0mg"},{"bike_id":"48662fb8-f861-40dd-9602-1be05890b2f6","system_id":"levelo_inurba_marseille","lat":43.29909,"lon":5.38138,"is_reserved":false,"is_disabled":false,"rental_uris":{"android":"levelo://app?vid=48662fb8-f861-40dd-9602-1be05890b2f6","ios":"levelo://app?vid=48662fb8-f861-40dd-9602-1be05890b2f6"},"vehicle_type_id":"4","last_reported":1741277536,"current_range_meters":6400,"station_id":"ce4bgj12rcd13ifvqbc0","pricing_plan_id":"cebpf4jnsgd1na2vs0mg"},{"bike_id":"0ce9eef2-7f51-4f9c-9643-42b0b1d4f216","system_id":"levelo_inurba_marseille","lat":43.23063,"lon":5.35494,"is_reserved":false,"is_disabled":false,"rental_uris":{"android":"levelo://app?vid=0ce9eef2-7f51-4f9c-9643-42b0b1d4f216","ios":"levelo://app?vid=0ce9eef2-7f51-4f9c-9643-42b0b1d4f216"},"vehicle_type_id":"4","last_reported":1741277536,"current_range_meters":6400,"station_id":"cpo3342slgdg3j2ifvpg","pricing_plan_id":"cebpf4jnsgd1na2vs0mg"},{"bike_id":"34b51711-710a-46c0-b78d-e1555568a456","system_id":"levelo_inurba_marseille","lat":43.30596,"lon":5.39353,"is_reserved":false,"is_disabled":false,"rental_uris":{"android":"levelo://app?vid=34b51711-710a-46c0-b78d-e1555568a456","ios":"levelo://app?vid=34b51711-710a-46c0-b78d-e1555568a456"},"vehicle_type_id":"4","last_reported":1741277536,"current_range_meters":6400,"station_id":"ce4bh0p2rcd13ifvqd80","pricing_plan_id":"cebpf4jnsgd1na2vs0mg"},{"bike_id":"3e016c28-b879-40a8-ac02-113d3e116dcc","system_id":"levelo_inurba_marseille","lat":43.24201,"lon":5.39712,"is_reserved":false,"is_disabled":false,"rental_uris":{"android":"levelo://app?vid=3e016c28-b879-40a8-ac02-113d3e116dcc","ios":"levelo://app?vid=3e016c28-b879-40a8-ac02-113d3e116dcc"},"vehicle_type_id":"4","last_reported":1741277536,"current_range_meters":6400,"station_id":"ce4bhn12rcd13ifvqgpg","pricing_plan_id":"cebpf4jnsgd1na2vs0mg"},{"bike_id":"1f94d263-123a-4103-b9c3-fb4f4f2dfeb7","system_id":"levelo_inurba_marseille","lat":43.30175,"lon":5.36605,"is_reserved":false,"is_disabled":false,"rental_uris":{"android":"levelo://app?vid=1f94d263-123a-4103-b9c3-fb4f4f2dfeb7","ios":"levelo://app?vid=1f94d263-123a-4103-b9c3-fb4f4f2dfeb7"},"vehicle_type_id":"4","last_reported":1741277536,"current_range_meters":6800,"station_id":"ce4bgrh2rcd13ifvqc8g","pricing_plan_id":"cebpf4jnsgd1na2vs0mg"},{"bike_id":"4ace18c2-e70b-4c9e-becd-aa41f6f9fb67","system_id":"levelo_inurba_marseille","lat":43.23965,"lon":5.36631,"is_reserved":false,"is_disabled":false,"rental_uris":{"android":"levelo://app?vid=4ace18c2-e70b-4c9e-becd-aa41f6f9fb67","ios":"levelo://app?vid=4ace18c2-e70b-4c9e-becd-aa41f6f9fb67"},"vehicle_type_id":"4","last_reported":1741277536,"current_range_meters":7200,"station_id":"ce4bhi12rcd13ifvqfp0","pricing_plan_id":"cebpf4jnsgd1na2vs0mg"},{"bike_id":"c500a268-2283-4634-a367-0ebf0832f01a","system_id":"levelo_inurba_marseille","lat":43.28103,"lon":5.37838,"is_reserved":false,"is_disabled":false,"rental_uris":{"android":"levelo://app?vid=c500a268-2283-4634-a367-0ebf0832f01a","ios":"levelo://app?vid=c500a268-2283-4634-a367-0ebf0832f01a"},"vehicle_type_id":"4","last_reported":1741277536,"current_range_meters":7200,"station_id":"ce4bha12rcd13ifvqee0","pricing_plan_id":"cebpf4jnsgd1na2vs0mg"},{"bike_id":"f9fc3450-00c1-46c4-a8f0-75d5054525a7","system_id":"levelo_inurba_marseille","lat":43.23964,"lon":5.36635,"is_reserved":false,"is_disabled":false,"rental_uris":{"android":"levelo://app?vid=f9fc3450-00c1-46c4-a8f0-75d5054525a7","ios":"levelo://app?vid=f9fc3450-00c1-46c4-a8f0-75d5054525a7"},"vehicle_type_id":"4","last_reported":1741277536,"current_range_meters":7200,"station_id":"ce4bhi12rcd13ifvqfp0","pricing_plan_id":"cebpf4jnsgd1na2vs0mg"},{"bike_id":"dee0034c-b7aa-49ec-825b-f346b5e704a0","system_id":"levelo_inurba_marseille","lat":43.30336,"lon":5.4042,"is_reserved":false,"is_disabled":false,"rental_uris":{"android":"levelo://app?vid=dee0034c-b7aa-49ec-825b-f346b5e704a0","ios":"levelo://app?vid=dee0034c-b7aa-49ec-825b-f346b5e704a0"},"vehicle_type_id":"4","last_reported":1741277536,"current_range_meters":7200,"station_id":"ce4bh012rcd13ifvqd10","pricing_plan_id":"cebpf4jnsgd1na2vs0mg"},{"bike_id":"2effeb5c-1f14-41ca-898d-3713e4c18dc4","system_id":"levelo_inurba_marseille","lat":43.29634,"lon":5.40594,"is_reserved":false,"is_disabled":false,"rental_uris":{"android":"levelo://app?vid=2effeb5c-1f14-41ca-898d-3713e4c18dc4","ios":"levelo://app?vid=2effeb5c-1f14-41ca-898d-3713e4c18dc4"},"vehicle_type_id":"4","last_reported":1741277536,"current_range_meters":7200,"station_id":"ce4bh0h2rcd13ifvqd60","pricing_plan_id":"cebpf4jnsgd1na2vs0mg"},{"bike_id":"fbdac73f-bf4f-41e7-9418-9d132e27384e","system_id":"levelo_inurba_marseille","lat":43.31892,"lon":5.40778,"is_reserved":false,"is_disabled":false,"rental_uris":{"android":"levelo://app?vid=fbdac73f-bf4f-41e7-9418-9d132e27384e","ios":"levelo://app?vid=fbdac73f-bf4f-41e7-9418-9d132e27384e"},"vehicle_type_id":"4","last_reported":1741277536,"current_range_meters":7200,"station_id":"ce4bhq92rcd13ifvqhjg","pricing_plan_id":"cebpf4jnsgd1na2vs0mg"},{"bike_id":"1978e2ad-3054-41b1-85f1-381e805e439e","system_id":"levelo_inurba_marseille","lat":43.25088,"lon":5.3952,"is_reserved":false,"is_disabled":false,"rental_uris":{"android":"levelo://app?vid=1978e2ad-3054-41b1-85f1-381e805e439e","ios":"levelo://app?vid=1978e2ad-3054-41b1-85f1-381e805e439e"},"vehicle_type_id":"4","last_reported":1741277536,"current_range_meters":7200,"station_id":"ce4bhm12rcd13ifvqgkg","pricing_plan_id":"cebpf4jnsgd1na2vs0mg"},{"bike_id":"5b891476-d41e-4561-b441-cc793141b0eb","system_id":"levelo_inurba_marseille","lat":43.23059,"lon":5.35493,"is_reserved":false,"is_disabled":false,"rental_uris":{"android":"levelo://app?vid=5b891476-d41e-4561-b441-cc793141b0eb","ios":"levelo://app?vid=5b891476-d41e-4561-b441-cc793141b0eb"},"vehicle_type_id":"4","last_reported":1741277536,"current_range_meters":7200,"station_id":"cpo3342slgdg3j2ifvpg","pricing_plan_id":"cebpf4jnsgd1na2vs0mg"},{"bike_id":"c201fcaa-24e0-4800-8544-9d0c7461c8bf","system_id":"levelo_inurba_marseille","lat":43.31185,"lon":5.38723,"is_reserved":false,"is_disabled":false,"rental_uris":{"android":"levelo://app?vid=c201fcaa-24e0-4800-8544-9d0c7461c8bf","ios":"levelo://app?vid=c201fcaa-24e0-4800-8544-9d0c7461c8bf"},"vehicle_type_id":"4","last_reported":1741277536,"current_range_meters":7200,"station_id":"ce4bgv12rcd13ifvqcp0","pricing_plan_id":"cebpf4jnsgd1na2vs0mg"},{"bike_id":"641805c3-6a9a-4f09-b595-5e405820520c","system_id":"levelo_inurba_marseille","lat":43.308853,"lon":5.396333,"is_reserved":false,"is_disabled":false,"rental_uris":{"android":"levelo://app?vid=641805c3-6a9a-4f09-b595-5e405820520c","ios":"levelo://app?vid=641805c3-6a9a-4f09-b595-5e405820520c"},"vehicle_type_id":"4","last_reported":1741277536,"current_range_meters":7200,"station_id":"ce4bh012rcd13ifvqcv0","pricing_plan_id":"cebpf4jnsgd1na2vs0mg"},{"bike_id":"e3341622-346f-4904-9fb0-a88cb54a1901","system_id":"levelo_inurba_marseille","lat":43.29509,"lon":5.39396,"is_reserved":false,"is_disabled":false,"rental_uris":{"android":"levelo://app?vid=e3341622-346f-4904-9fb0-a88cb54a1901","ios":"levelo://app?vid=e3341622-346f-4904-9fb0-a88cb54a1901"},"vehicle_type_id":"4","last_reported":1741277536,"current_range_meters":7200,"station_id":"ce4bh292rcd13ifvqdf0","pricing_plan_id":"cebpf4jnsgd1na2vs0mg"},{"bike_id":"2f8c8588-f8fa-4a0d-b774-ab735fa75f49","system_id":"levelo_inurba_marseille","lat":43.29184,"lon":5.39325,"is_reserved":false,"is_disabled":false,"rental_uris":{"android":"levelo://app?vid=2f8c8588-f8fa-4a0d-b774-ab735fa75f49","ios":"levelo://app?vid=2f8c8588-f8fa-4a0d-b774-ab735fa75f49"},"vehicle_type_id":"4","last_reported":1741277536,"current_range_meters":8000,"station_id":"ce4bh192rcd13ifvqdd0","pricing_plan_id":"cebpf4jnsgd1na2vs0mg"},{"bike_id":"5dcf0930-6922-4b14-85d5-480fcc252b3b","system_id":"levelo_inurba_marseille","lat":43.28422,"lon":5.34985,"is_reserved":false,"is_disabled":false,"rental_uris":{"android":"levelo://app?vid=5dcf0930-6922-4b14-85d5-480fcc252b3b","ios":"levelo://app?vid=5dcf0930-6922-4b14-85d5-480fcc252b3b"},"vehicle_type_id":"4","last_reported":1741277536,"current_range_meters":8000,"station_id":"ce4bhbh2rcd13ifvqepg","pricing_plan_id":"cebpf4jnsgd1na2vs0mg"},{"bike_id":"254f8979-06cf-45f0-90f3-b0152192a807","system_id":"levelo_inurba_marseille","lat":43.28154,"lon":5.42652,"is_reserved":false,"is_disabled":false,"rental_uris":{"android":"levelo://app?vid=254f8979-06cf-45f0-90f3-b0152192a807","ios":"levelo://app?vid=254f8979-06cf-45f0-90f3-b0152192a807"},"vehicle_type_id":"4","last_reported":1741277536,"current_range_meters":8000,"station_id":"ce4bhnh2rcd13ifvqgug","pricing_plan_id":"cebpf4jnsgd1na2vs0mg"},{"bike_id":"2e5133a3-f6a0-42d3-8379-e91fd50ff494","system_id":"levelo_inurba_marseille","lat":43.28941,"lon":5.36635,"is_reserved":false,"is_disabled":false,"rental_uris":{"android":"levelo://app?vid=2e5133a3-f6a0-42d3-8379-e91fd50ff494","ios":"levelo://app?vid=2e5133a3-f6a0-42d3-8379-e91fd50ff494"},"vehicle_type_id":"4","last_reported":1741277536,"current_range_meters":7200,"station_id":"ce4bhap2rcd13ifvqek0","pricing_plan_id":"cebpf4jnsgd1na2vs0mg"},{"bike_id":"530b21ac-8cd7-4e5d-8cb0-3c887b179d27","system_id":"levelo_inurba_marseille","lat":43.28408,"lon":5.37515,"is_reserved":false,"is_disabled":false,"rental_uris":{"android":"levelo://app?vid=530b21ac-8cd7-4e5d-8cb0-3c887b179d27","ios":"levelo://app?vid=530b21ac-8cd7-4e5d-8cb0-3c887b179d27"},"vehicle_type_id":"4","last_reported":1741277536,"current_range_meters":8000,"station_id":"ce4bh412rcd13ifvqds0","pricing_plan_id":"cebpf4jnsgd1na2vs0mg"},{"bike_id":"14ec57cb-179b-4206-812f-fe514bf8347a","system_id":"levelo_inurba_marseille","lat":43.31229,"lon":5.3686,"is_reserved":false,"is_disabled":false,"rental_uris":{"android":"levelo://app?vid=14ec57cb-179b-4206-812f-fe514bf8347a","ios":"levelo://app?vid=14ec57cb-179b-4206-812f-fe514bf8347a"},"vehicle_type_id":"4","last_reported":1741277536,"current_range_meters":8000,"station_id":"ce4bgl92rcd13ifvqbq0","pricing_plan_id":"cebpf4jnsgd1na2vs0mg"},{"bike_id":"c24b4af8-5aeb-447d-a818-513a969305c9","system_id":"levelo_inurba_marseille","lat":43.24389,"lon":5.37063,"is_reserved":false,"is_disabled":false,"rental_uris":{"android":"levelo://app?vid=c24b4af8-5aeb-447d-a818-513a969305c9","ios":"levelo://app?vid=c24b4af8-5aeb-447d-a818-513a969305c9"},"vehicle_type_id":"4","last_reported":1741277536,"current_range_meters":8000,"station_id":"ce4bhhh2rcd13ifvqfk0","pricing_plan_id":"cebpf4jnsgd1na2vs0mg"},{"bike_id":"7b3dc7b9-ed95-4fac-b8db-fb164e0e0a08","system_id":"levelo_inurba_marseille","lat":43.27492,"lon":5.42458,"is_reserved":false,"is_disabled":true,"rental_uris":{"android":"levelo://app?vid=7b3dc7b9-ed95-4fac-b8db-fb164e0e0a08","ios":"levelo://app?vid=7b3dc7b9-ed95-4fac-b8db-fb164e0e0a08"},"vehicle_type_id":"4","last_reported":1741277536,"current_range_meters":8000,"station_id":"ce4bhn92rcd13ifvqgrg","pricing_plan_id":"cebpf4jnsgd1na2vs0mg"},{"bike_id":"d71ec65a-80ab-4043-a893-eb64debf9ad2","system_id":"levelo_inurba_marseille","lat":43.28631,"lon":5.35093,"is_reserved":false,"is_disabled":false,"rental_uris":{"android":"levelo://app?vid=d71ec65a-80ab-4043-a893-eb64debf9ad2","ios":"levelo://app?vid=d71ec65a-80ab-4043-a893-eb64debf9ad2"},"vehicle_type_id":"4","last_reported":1741277536,"current_range_meters":8400,"station_id":"ce4bhch2rcd13ifvqeug","pricing_plan_id":"cebpf4jnsgd1na2vs0mg"},{"bike_id":"d2fd960f-0af3-4bf9-bd6a-b0c4aa4544af","system_id":"levelo_inurba_marseille","lat":43.23189,"lon":5.39993,"is_reserved":false,"is_disabled":false,"rental_uris":{"android":"levelo://app?vid=d2fd960f-0af3-4bf9-bd6a-b0c4aa4544af","ios":"levelo://app?vid=d2fd960f-0af3-4bf9-bd6a-b0c4aa4544af"},"vehicle_type_id":"4","last_reported":1741277536,"current_range_meters":8400,"station_id":"ce4bhn12rcd13ifvqgqg","pricing_plan_id":"cebpf4jnsgd1na2vs0mg"},{"bike_id":"b7f80aae-85d2-4d21-8e82-2e83bd2ca053","system_id":"levelo_inurba_marseille","lat":43.30468,"lon":5.37902,"is_reserved":false,"is_disabled":false,"rental_uris":{"android":"levelo://app?vid=b7f80aae-85d2-4d21-8e82-2e83bd2ca053","ios":"levelo://app?vid=b7f80aae-85d2-4d21-8e82-2e83bd2ca053"},"vehicle_type_id":"4","last_reported":1741277536,"current_range_meters":8800,"station_id":"ce4bgup2rcd13ifvqcn0","pricing_plan_id":"cebpf4jnsgd1na2vs0mg"},{"bike_id":"17b0a0d7-51a2-4638-90e4-14ebf546581c","system_id":"levelo_inurba_marseille","lat":43.30326,"lon":5.4043,"is_reserved":false,"is_disabled":false,"rental_uris":{"android":"levelo://app?vid=17b0a0d7-51a2-4638-90e4-14ebf546581c","ios":"levelo://app?vid=17b0a0d7-51a2-4638-90e4-14ebf546581c"},"vehicle_type_id":"4","last_reported":1741277536,"current_range_meters":8800,"station_id":"ce4bh012rcd13ifvqd10","pricing_plan_id":"cebpf4jnsgd1na2vs0mg"},{"bike_id":"24cdf152-42fe-4f34-80ac-7bdbcee9ddb4","system_id":"levelo_inurba_marseille","lat":43.24178,"lon":5.3974,"is_reserved":false,"is_disabled":false,"rental_uris":{"android":"levelo://app?vid=24cdf152-42fe-4f34-80ac-7bdbcee9ddb4","ios":"levelo://app?vid=24cdf152-42fe-4f34-80ac-7bdbcee9ddb4"},"vehicle_type_id":"4","last_reported":1741277536,"current_range_meters":8800,"station_id":"ce4bhn12rcd13ifvqgpg","pricing_plan_id":"cebpf4jnsgd1na2vs0mg"},{"bike_id":"12d2fe9d-5c07-43f0-9d49-b975fecba854","system_id":"levelo_inurba_marseille","lat":43.27954,"lon":5.41042,"is_reserved":false,"is_disabled":false,"rental_uris":{"android":"levelo://app?vid=12d2fe9d-5c07-43f0-9d49-b975fecba854","ios":"levelo://app?vid=12d2fe9d-5c07-43f0-9d49-b975fecba854"},"vehicle_type_id":"4","last_reported":1741277536,"current_range_meters":8800,"station_id":"ce4bhnp2rcd13ifvqh0g","pricing_plan_id":"cebpf4jnsgd1na2vs0mg"},{"bike_id":"fdde8103-1f2a-4455-bcfa-e1d74ecb0194","system_id":"levelo_inurba_marseille","lat":43.2781,"lon":5.40689,"is_reserved":false,"is_disabled":false,"rental_uris":{"android":"levelo://app?vid=fdde8103-1f2a-4455-bcfa-e1d74ecb0194","ios":"levelo://app?vid=fdde8103-1f2a-4455-bcfa-e1d74ecb0194"},"vehicle_type_id":"4","last_reported":1741277536,"current_range_meters":8800,"station_id":"ce4bhnh2rcd13ifvqgtg","pricing_plan_id":"cebpf4jnsgd1na2vs0mg"},{"bike_id":"3bd0b4f9-ef95-48a1-a0e0-96356ea2a36b","system_id":"levelo_inurba_marseille","lat":43.23154,"lon":5.43702,"is_reserved":false,"is_disabled":false,"rental_uris":{"android":"levelo://app?vid=3bd0b4f9-ef95-48a1-a0e0-96356ea2a36b","ios":"levelo://app?vid=3bd0b4f9-ef95-48a1-a0e0-96356ea2a36b"},"vehicle_type_id":"4","last_reported":1741277536,"current_range_meters":8400,"station_id":"ce4bhmp2rcd13ifvqgog","pricing_plan_id":"cebpf4jnsgd1na2vs0mg"},{"bike_id":"1a14f969-b023-4d40-b066-ba8ed02ae533","system_id":"levelo_inurba_marseille","lat":43.24548,"lon":5.39518,"is_reserved":false,"is_disabled":false,"rental_uris":{"android":"levelo://app?vid=1a14f969-b023-4d40-b066-ba8ed02ae533","ios":"levelo://app?vid=1a14f969-b023-4d40-b066-ba8ed02ae533"},"vehicle_type_id":"4","last_reported":1741277536,"current_range_meters":8800,"station_id":"ce4bhlp2rcd13ifvqgjg","pricing_plan_id":"cebpf4jnsgd1na2vs0mg"},{"bike_id":"d3e27771-168c-4fb7-8c52-21640ea98c08","system_id":"levelo_inurba_marseille","lat":43.23967,"lon":5.36635,"is_reserved":false,"is_disabled":false,"rental_uris":{"android":"levelo://app?vid=d3e27771-168c-4fb7-8c52-21640ea98c08","ios":"levelo://app?vid=d3e27771-168c-4fb7-8c52-21640ea98c08"},"vehicle_type_id":"4","last_reported":1741277536,"current_range_meters":8800,"station_id":"ce4bhi12rcd13ifvqfp0","pricing_plan_id":"cebpf4jnsgd1na2vs0mg"},{"bike_id":"e0c0bec3-454a-410d-a60f-3aed516ec149","system_id":"levelo_inurba_marseille","lat":43.23191,"lon":5.35549,"is_reserved":false,"is_disabled":false,"rental_uris":{"android":"levelo://app?vid=e0c0bec3-454a-410d-a60f-3aed516ec149","ios":"levelo://app?vid=e0c0bec3-454a-410d-a60f-3aed516ec149"},"vehicle_type_id":"4","last_reported":1741277536,"current_range_meters":9200,"station_id":"ce4bhu92rcd13ifvqi70","pricing_plan_id":"cebpf4jnsgd1na2vs0mg"},{"bike_id":"9b4c709f-1afb-4e49-aa2e-9ac607023e6e","system_id":"levelo_inurba_marseille","lat":43.29199,"lon":5.35792,"is_reserved":false,"is_disabled":false,"rental_uris":{"android":"levelo://app?vid=9b4c709f-1afb-4e49-aa2e-9ac607023e6e","ios":"levelo://app?vid=9b4c709f-1afb-4e49-aa2e-9ac607023e6e"},"vehicle_type_id":"4","last_reported":1741277536,"current_range_meters":8800,"station_id":"ce4bhb12rcd13ifvqel0","pricing_plan_id":"cebpf4jnsgd1na2vs0mg"},{"bike_id":"fa4ba4bb-ce4e-4b1f-b5ce-612b31e29587","system_id":"levelo_inurba_marseille","lat":43.29032,"lon":5.38639,"is_reserved":false,"is_disabled":false,"rental_uris":{"android":"levelo://app?vid=fa4ba4bb-ce4e-4b1f-b5ce-612b31e29587","ios":"levelo://app?vid=fa4ba4bb-ce4e-4b1f-b5ce-612b31e29587"},"vehicle_type_id":"4","last_reported":1741277536,"current_range_meters":9200,"station_id":"ce4bh4p2rcd13ifvqe0g","pricing_plan_id":"cebpf4jnsgd1na2vs0mg"},{"bike_id":"5efbecc9-908f-4afa-9577-a3da37f38388","system_id":"levelo_inurba_marseille","lat":43.28622,"lon":5.35095,"is_reserved":false,"is_disabled":false,"rental_uris":{"android":"levelo://app?vid=5efbecc9-908f-4afa-9577-a3da37f38388","ios":"levelo://app?vid=5efbecc9-908f-4afa-9577-a3da37f38388"},"vehicle_type_id":"4","last_reported":1741277536,"current_range_meters":9200,"station_id":"ce4bhch2rcd13ifvqeug","pricing_plan_id":"cebpf4jnsgd1na2vs0mg"},{"bike_id":"47061543-fada-47a1-bfc3-d01de413b6a1","system_id":"levelo_inurba_marseille","lat":43.28268,"lon":5.35086,"is_reserved":false,"is_disabled":false,"rental_uris":{"android":"levelo://app?vid=47061543-fada-47a1-bfc3-d01de413b6a1","ios":"levelo://app?vid=47061543-fada-47a1-bfc3-d01de413b6a1"},"vehicle_type_id":"4","last_reported":1741277536,"current_range_meters":9200,"station_id":"ce4bhbp2rcd13ifvqerg","pricing_plan_id":"cebpf4jnsgd1na2vs0mg"},{"bike_id":"7f1905bf-da4d-4f13-af14-c5d46804e585","system_id":"levelo_inurba_marseille","lat":43.23192,"lon":5.35552,"is_reserved":false,"is_disabled":false,"rental_uris":{"android":"levelo://app?vid=7f1905bf-da4d-4f13-af14-c5d46804e585","ios":"levelo://app?vid=7f1905bf-da4d-4f13-af14-c5d46804e585"},"vehicle_type_id":"4","last_reported":1741277536,"current_range_meters":9600,"station_id":"ce4bhu92rcd13ifvqi70","pricing_plan_id":"cebpf4jnsgd1na2vs0mg"},{"bike_id":"2caa72aa-7fe7-43d0-97a9-a3b420dd37f6","system_id":"levelo_inurba_marseille","lat":43.29008,"lon":5.35609,"is_reserved":false,"is_disabled":false,"rental_uris":{"android":"levelo://app?vid=2caa72aa-7fe7-43d0-97a9-a3b420dd37f6","ios":"levelo://app?vid=2caa72aa-7fe7-43d0-97a9-a3b420dd37f6"},"vehicle_type_id":"4","last_reported":1741277536,"current_range_meters":9600,"station_id":"ce4bhb92rcd13ifvqen0","pricing_plan_id":"cebpf4jnsgd1na2vs0mg"},{"bike_id":"a1e53a03-6057-4fcd-9960-cde3c908f242","system_id":"levelo_inurba_marseille","lat":43.27053,"lon":5.40261,"is_reserved":false,"is_disabled":false,"rental_uris":{"android":"levelo://app?vid=a1e53a03-6057-4fcd-9960-cde3c908f242","ios":"levelo://app?vid=a1e53a03-6057-4fcd-9960-cde3c908f242"},"vehicle_type_id":"4","last_reported":1741277536,"current_range_meters":10000,"station_id":"ce4bhk92rcd13ifvqgc0","pricing_plan_id":"cebpf4jnsgd1na2vs0mg"},{"bike_id":"c262f8cf-6400-4efd-af91-c8aabadab203","system_id":"levelo_inurba_marseille","lat":43.23181,"lon":5.3999,"is_reserved":false,"is_disabled":false,"rental_uris":{"android":"levelo://app?vid=c262f8cf-6400-4efd-af91-c8aabadab203","ios":"levelo://app?vid=c262f8cf-6400-4efd-af91-c8aabadab203"},"vehicle_type_id":"4","last_reported":1741277536,"current_range_meters":10000,"station_id":"ce4bhn12rcd13ifvqgqg","pricing_plan_id":"cebpf4jnsgd1na2vs0mg"},{"bike_id":"8a9efcae-7962-44eb-b602-3d52cc43d3b5","system_id":"levelo_inurba_marseille","lat":43.26214,"lon":5.37443,"is_reserved":false,"is_disabled":false,"rental_uris":{"android":"levelo://app?vid=8a9efcae-7962-44eb-b602-3d52cc43d3b5","ios":"levelo://app?vid=8a9efcae-7962-44eb-b602-3d52cc43d3b5"},"vehicle_type_id":"4","last_reported":1741277536,"current_range_meters":10000,"station_id":"ce4bhgp2rcd13ifvqfc0","pricing_plan_id":"cebpf4jnsgd1na2vs0mg"},{"bike_id":"365b0577-ed8a-415d-b047-7a6332ca8f71","system_id":"levelo_inurba_marseille","lat":43.30882,"lon":5.3962,"is_reserved":false,"is_disabled":false,"rental_uris":{"android":"levelo://app?vid=365b0577-ed8a-415d-b047-7a6332ca8f71","ios":"levelo://app?vid=365b0577-ed8a-415d-b047-7a6332ca8f71"},"vehicle_type_id":"4","last_reported":1741277536,"current_range_meters":10000,"station_id":"ce4bh012rcd13ifvqcv0","pricing_plan_id":"cebpf4jnsgd1na2vs0mg"},{"bike_id":"be341932-0597-4c11-8405-d2f52c1a614d","system_id":"levelo_inurba_marseille","lat":43.29869,"lon":5.38896,"is_reserved":false,"is_disabled":false,"rental_uris":{"android":"levelo://app?vid=be341932-0597-4c11-8405-d2f52c1a614d","ios":"levelo://app?vid=be341932-0597-4c11-8405-d2f52c1a614d"},"vehicle_type_id":"4","last_reported":1741277536,"current_range_meters":9600,"station_id":"ce4bh392rcd13ifvqdl0","pricing_plan_id":"cebpf4jnsgd1na2vs0mg"},{"bike_id":"63815b6e-f9bf-4ae0-9cc4-53a2a981b401","system_id":"levelo_inurba_marseille","lat":43.26808,"lon":5.40261,"is_reserved":false,"is_disabled":false,"rental_uris":{"android":"levelo://app?vid=63815b6e-f9bf-4ae0-9cc4-53a2a981b401","ios":"levelo://app?vid=63815b6e-f9bf-4ae0-9cc4-53a2a981b401"},"vehicle_type_id":"4","last_reported":1741277536,"current_range_meters":10000,"station_id":"ce501612rcd8frsf0b60","pricing_plan_id":"cebpf4jnsgd1na2vs0mg"},{"bike_id":"8079a5b1-b6cc-46c6-89eb-64f5140f6c2d","system_id":"levelo_inurba_marseille","lat":43.29071,"lon":5.37206,"is_reserved":false,"is_disabled":false,"rental_uris":{"android":"levelo://app?vid=8079a5b1-b6cc-46c6-89eb-64f5140f6c2d","ios":"levelo://app?vid=8079a5b1-b6cc-46c6-89eb-64f5140f6c2d"},"vehicle_type_id":"4","last_reported":1741277536,"current_range_meters":10000,"station_id":"ce4bh5p2rcd13ifvqe4g","pricing_plan_id":"cebpf4jnsgd1na2vs0mg"},{"bike_id":"ac35eafe-694d-4f2e-8a01-27a84122fe0b","system_id":"levelo_inurba_marseille","lat":43.31389,"lon":5.3918,"is_reserved":false,"is_disabled":false,"rental_uris":{"android":"levelo://app?vid=ac35eafe-694d-4f2e-8a01-27a84122fe0b","ios":"levelo://app?vid=ac35eafe-694d-4f2e-8a01-27a84122fe0b"},"vehicle_type_id":"4","last_reported":1741277536,"current_range_meters":10800,"station_id":"","pricing_plan_id":"cebpf4jnsgd1na2vs0mg"},{"bike_id":"1a2cae83-5bef-44f5-b2a6-ff0e0f904599","system_id":"levelo_inurba_marseille","lat":43.29378,"lon":5.37837,"is_reserved":false,"is_disabled":false,"rental_uris":{"android":"levelo://app?vid=1a2cae83-5bef-44f5-b2a6-ff0e0f904599","ios":"levelo://app?vid=1a2cae83-5bef-44f5-b2a6-ff0e0f904599"},"vehicle_type_id":"4","last_reported":1741277536,"current_range_meters":10000,"station_id":"ce4bgjh2rcd13ifvqbf0","pricing_plan_id":"cebpf4jnsgd1na2vs0mg"},{"bike_id":"21b00a54-4e29-48af-82d5-6aa688c17fc3","system_id":"levelo_inurba_marseille","lat":43.26558,"lon":5.39052,"is_reserved":false,"is_disabled":false,"rental_uris":{"android":"levelo://app?vid=21b00a54-4e29-48af-82d5-6aa688c17fc3","ios":"levelo://app?vid=21b00a54-4e29-48af-82d5-6aa688c17fc3"},"vehicle_type_id":"4","last_reported":1741277536,"current_range_meters":10800,"station_id":"ce4bhe12rcd13ifvqf30","pricing_plan_id":"cebpf4jnsgd1na2vs0mg"},{"bike_id":"f927a9c8-5d84-472f-b8fd-88f2fc3bc3e6","system_id":"levelo_inurba_marseille","lat":43.2991,"lon":5.43611,"is_reserved":false,"is_disabled":false,"rental_uris":{"android":"levelo://app?vid=f927a9c8-5d84-472f-b8fd-88f2fc3bc3e6","ios":"levelo://app?vid=f927a9c8-5d84-472f-b8fd-88f2fc3bc3e6"},"vehicle_type_id":"4","last_reported":1741277536,"current_range_meters":10800,"station_id":"ce4bhpp2rcd13ifvqhfg","pricing_plan_id":"cebpf4jnsgd1na2vs0mg"},{"bike_id":"16063099-28c1-42d4-a56e-3be9f5bb543c","system_id":"levelo_inurba_marseille","lat":43.26217,"lon":5.3745,"is_reserved":false,"is_disabled":false,"rental_uris":{"android":"levelo://app?vid=16063099-28c1-42d4-a56e-3be9f5bb543c","ios":"levelo://app?vid=16063099-28c1-42d4-a56e-3be9f5bb543c"},"vehicle_type_id":"4","last_reported":1741277536,"current_range_meters":10800,"station_id":"ce4bhgp2rcd13ifvqfc0","pricing_plan_id":"cebpf4jnsgd1na2vs0mg"},{"bike_id":"4c43f934-2a93-42ef-b887-5a5a239cbf7e","system_id":"levelo_inurba_marseille","lat":43.26213,"lon":5.37441,"is_reserved":false,"is_disabled":false,"rental_uris":{"android":"levelo://app?vid=4c43f934-2a93-42ef-b887-5a5a239cbf7e","ios":"levelo://app?vid=4c43f934-2a93-42ef-b887-5a5a239cbf7e"},"vehicle_type_id":"4","last_reported":1741277536,"current_range_meters":10800,"station_id":"ce4bhgp2rcd13ifvqfc0","pricing_plan_id":"cebpf4jnsgd1na2vs0mg"},{"bike_id":"740df627-5ddd-4847-9d55-a8f5b4da2f4e","system_id":"levelo_inurba_marseille","lat":43.3107,"lon":5.38353,"is_reserved":false,"is_disabled":false,"rental_uris":{"android":"levelo://app?vid=740df627-5ddd-4847-9d55-a8f5b4da2f4e","ios":"levelo://app?vid=740df627-5ddd-4847-9d55-a8f5b4da2f4e"},"vehicle_type_id":"4","last_reported":1741277536,"current_range_meters":10800,"station_id":"ce4bgv92rcd13ifvqcr0","pricing_plan_id":"cebpf4jnsgd1na2vs0mg"},{"bike_id":"ff3228ef-c722-4531-aa41-dd0456ac2a39","system_id":"levelo_inurba_marseille","lat":43.23186,"lon":5.39982,"is_reserved":false,"is_disabled":false,"rental_uris":{"android":"levelo://app?vid=ff3228ef-c722-4531-aa41-dd0456ac2a39","ios":"levelo://app?vid=ff3228ef-c722-4531-aa41-dd0456ac2a39"},"vehicle_type_id":"4","last_reported":1741277536,"current_range_meters":11200,"station_id":"ce4bhn12rcd13ifvqgqg","pricing_plan_id":"cebpf4jnsgd1na2vs0mg"},{"bike_id":"1784e57a-bc5b-47b9-a1db-670efd0cb136","system_id":"levelo_inurba_marseille","lat":43.2991,"lon":5.38151,"is_reserved":false,"is_disabled":false,"rental_uris":{"android":"levelo://app?vid=1784e57a-bc5b-47b9-a1db-670efd0cb136","ios":"levelo://app?vid=1784e57a-bc5b-47b9-a1db-670efd0cb136"},"vehicle_type_id":"4","last_reported":1741277536,"current_range_meters":11200,"station_id":"ce4bgj12rcd13ifvqbc0","pricing_plan_id":"cebpf4jnsgd1na2vs0mg"},{"bike_id":"0236009d-b83e-4481-b97e-6a8e1f189885","system_id":"levelo_inurba_marseille","lat":43.29779,"lon":5.38119,"is_reserved":false,"is_disabled":false,"rental_uris":{"android":"levelo://app?vid=0236009d-b83e-4481-b97e-6a8e1f189885","ios":"levelo://app?vid=0236009d-b83e-4481-b97e-6a8e1f189885"},"vehicle_type_id":"4","last_reported":1741277536,"current_range_meters":11600,"station_id":"ce4bgip2rcd13ifvqbb0","pricing_plan_id":"cebpf4jnsgd1na2vs0mg"},{"bike_id":"d84210b5-e4ad-4646-831c-02e83d3abc55","system_id":"levelo_inurba_marseille","lat":43.28457,"lon":5.35893,"is_reserved":false,"is_disabled":false,"rental_uris":{"android":"levelo://app?vid=d84210b5-e4ad-4646-831c-02e83d3abc55","ios":"levelo://app?vid=d84210b5-e4ad-4646-831c-02e83d3abc55"},"vehicle_type_id":"4","last_reported":1741277536,"current_range_meters":11600,"station_id":"ce4bhah2rcd13ifvqei0","pricing_plan_id":"cebpf4jnsgd1na2vs0mg"},{"bike_id":"55c7f4f7-7673-447a-8e28-160ee124449b","system_id":"levelo_inurba_marseille","lat":43.30887,"lon":5.37195,"is_reserved":false,"is_disabled":false,"rental_uris":{"android":"levelo://app?vid=55c7f4f7-7673-447a-8e28-160ee124449b","ios":"levelo://app?vid=55c7f4f7-7673-447a-8e28-160ee124449b"},"vehicle_type_id":"4","last_reported":1741277536,"current_range_meters":11600,"station_id":"ce4bguh2rcd13ifvqckg","pricing_plan_id":"cebpf4jnsgd1na2vs0mg"},{"bike_id":"4bb8ec19-fa9e-4bc2-9ced-8316005f4173","system_id":"levelo_inurba_marseille","lat":43.27927,"lon":5.39566,"is_reserved":false,"is_disabled":true,"rental_uris":{"android":"levelo://app?vid=4bb8ec19-fa9e-4bc2-9ced-8316005f4173","ios":"levelo://app?vid=4bb8ec19-fa9e-4bc2-9ced-8316005f4173"},"vehicle_type_id":"4","last_reported":1741277536,"current_range_meters":11600,"station_id":"ce4bhf92rcd13ifvqf40","pricing_plan_id":"cebpf4jnsgd1na2vs0mg"},{"bike_id":"88f1cdf8-d5f9-4bd1-9807-7495f7918208","system_id":"levelo_inurba_marseille","lat":43.3124,"lon":5.3687,"is_reserved":false,"is_disabled":false,"rental_uris":{"android":"levelo://app?vid=88f1cdf8-d5f9-4bd1-9807-7495f7918208","ios":"levelo://app?vid=88f1cdf8-d5f9-4bd1-9807-7495f7918208"},"vehicle_type_id":"4","last_reported":1741277536,"current_range_meters":11600,"station_id":"ce4bgl92rcd13ifvqbq0","pricing_plan_id":"cebpf4jnsgd1na2vs0mg"},{"bike_id":"549f0e20-712f-455b-8868-0f3f9588d3f7","system_id":"levelo_inurba_marseille","lat":43.2318,"lon":5.39985,"is_reserved":false,"is_disabled":false,"rental_uris":{"android":"levelo://app?vid=549f0e20-712f-455b-8868-0f3f9588d3f7","ios":"levelo://app?vid=549f0e20-712f-455b-8868-0f3f9588d3f7"},"vehicle_type_id":"4","last_reported":1741277536,"current_range_meters":11600,"station_id":"ce4bhn12rcd13ifvqgqg","pricing_plan_id":"cebpf4jnsgd1na2vs0mg"},{"bike_id":"f6d57886-5b80-4f1b-a930-f76d8c33ddf5","system_id":"levelo_inurba_marseille","lat":43.295544,"lon":5.396819,"is_reserved":false,"is_disabled":false,"rental_uris":{"android":"levelo://app?vid=f6d57886-5b80-4f1b-a930-f76d8c33ddf5","ios":"levelo://app?vid=f6d57886-5b80-4f1b-a930-f76d8c33ddf5"},"vehicle_type_id":"4","last_reported":1741277536,"current_range_meters":11600,"station_id":"ce4bh292rcd13ifvqdf0","pricing_plan_id":"cebpf4jnsgd1na2vs0mg"},{"bike_id":"5bbf8c69-bf93-479f-ad79-b4c970ed1791","system_id":"levelo_inurba_marseille","lat":43.23059,"lon":5.35476,"is_reserved":false,"is_disabled":false,"rental_uris":{"android":"levelo://app?vid=5bbf8c69-bf93-479f-ad79-b4c970ed1791","ios":"levelo://app?vid=5bbf8c69-bf93-479f-ad79-b4c970ed1791"},"vehicle_type_id":"4","last_reported":1741277536,"current_range_meters":11600,"station_id":"cpo3342slgdg3j2ifvpg","pricing_plan_id":"cebpf4jnsgd1na2vs0mg"},{"bike_id":"3550497f-d437-4cd2-98ee-4e36189934b6","system_id":"levelo_inurba_marseille","lat":43.30194,"lon":5.36623,"is_reserved":false,"is_disabled":false,"rental_uris":{"android":"levelo://app?vid=3550497f-d437-4cd2-98ee-4e36189934b6","ios":"levelo://app?vid=3550497f-d437-4cd2-98ee-4e36189934b6"},"vehicle_type_id":"4","last_reported":1741277536,"current_range_meters":11600,"station_id":"ce4bgrh2rcd13ifvqc8g","pricing_plan_id":"cebpf4jnsgd1na2vs0mg"},{"bike_id":"0b759960-66e1-46be-af8e-ffdc5de61a6b","system_id":"levelo_inurba_marseille","lat":43.28626,"lon":5.35093,"is_reserved":false,"is_disabled":false,"rental_uris":{"android":"levelo://app?vid=0b759960-66e1-46be-af8e-ffdc5de61a6b","ios":"levelo://app?vid=0b759960-66e1-46be-af8e-ffdc5de61a6b"},"vehicle_type_id":"4","last_reported":1741277536,"current_range_meters":11600,"station_id":"ce4bhch2rcd13ifvqeug","pricing_plan_id":"cebpf4jnsgd1na2vs0mg"},{"bike_id":"973c1026-b5e8-4f5e-a49e-65407c7cead9","system_id":"levelo_inurba_marseille","lat":43.24667,"lon":5.38162,"is_reserved":false,"is_disabled":false,"rental_uris":{"android":"levelo://app?vid=973c1026-b5e8-4f5e-a49e-65407c7cead9","ios":"levelo://app?vid=973c1026-b5e8-4f5e-a49e-65407c7cead9"},"vehicle_type_id":"4","last_reported":1741277536,"current_range_meters":12000,"station_id":"ce4bhih2rcd13ifvqfr0","pricing_plan_id":"cebpf4jnsgd1na2vs0mg"},{"bike_id":"357f6d64-705b-43e7-a09c-68858d678fff","system_id":"levelo_inurba_marseille","lat":43.30543,"lon":5.36534,"is_reserved":false,"is_disabled":false,"rental_uris":{"android":"levelo://app?vid=357f6d64-705b-43e7-a09c-68858d678fff","ios":"levelo://app?vid=357f6d64-705b-43e7-a09c-68858d678fff"},"vehicle_type_id":"4","last_reported":1741277536,"current_range_meters":12000,"station_id":"ce4bgs12rcd13ifvqcag","pricing_plan_id":"cebpf4jnsgd1na2vs0mg"},{"bike_id":"02f19654-eccc-49c7-8cab-1983ab1bfb8f","system_id":"levelo_inurba_marseille","lat":43.28464,"lon":5.38419,"is_reserved":false,"is_disabled":false,"rental_uris":{"android":"levelo://app?vid=02f19654-eccc-49c7-8cab-1983ab1bfb8f","ios":"levelo://app?vid=02f19654-eccc-49c7-8cab-1983ab1bfb8f"},"vehicle_type_id":"4","last_reported":1741277536,"current_range_meters":12000,"station_id":"ce4bh512rcd13ifvqe3g","pricing_plan_id":"cebpf4jnsgd1na2vs0mg"},{"bike_id":"aec07b75-ce6d-484f-acfd-8c6b398226ce","system_id":"levelo_inurba_marseille","lat":43.28485,"lon":5.38423,"is_reserved":false,"is_disabled":false,"rental_uris":{"android":"levelo://app?vid=aec07b75-ce6d-484f-acfd-8c6b398226ce","ios":"levelo://app?vid=aec07b75-ce6d-484f-acfd-8c6b398226ce"},"vehicle_type_id":"4","last_reported":1741277536,"current_range_meters":12400,"station_id":"ce4bh512rcd13ifvqe3g","pricing_plan_id":"cebpf4jnsgd1na2vs0mg"},{"bike_id":"4c1c48e7-1fc5-4435-8eca-6a790b1fc568","system_id":"levelo_inurba_marseille","lat":43.313011,"lon":5.375457,"is_reserved":false,"is_disabled":false,"rental_uris":{"android":"levelo://app?vid=4c1c48e7-1fc5-4435-8eca-6a790b1fc568","ios":"levelo://app?vid=4c1c48e7-1fc5-4435-8eca-6a790b1fc568"},"vehicle_type_id":"4","last_reported":1741277536,"current_range_meters":14800,"station_id":"ce4bgt92rcd13ifvqcg0","pricing_plan_id":"cebpf4jnsgd1na2vs0mg"},{"bike_id":"ca1311a4-67d8-4ae6-bf74-7cab421c1c98","system_id":"levelo_inurba_marseille","lat":43.30177,"lon":5.36613,"is_reserved":false,"is_disabled":false,"rental_uris":{"android":"levelo://app?vid=ca1311a4-67d8-4ae6-bf74-7cab421c1c98","ios":"levelo://app?vid=ca1311a4-67d8-4ae6-bf74-7cab421c1c98"},"vehicle_type_id":"4","last_reported":1741277536,"current_range_meters":12400,"station_id":"ce4bgrh2rcd13ifvqc8g","pricing_plan_id":"cebpf4jnsgd1na2vs0mg"},{"bike_id":"b4eff007-9a5e-4d11-ace4-0ec579a0980c","system_id":"levelo_inurba_marseille","lat":43.29347,"lon":5.42826,"is_reserved":false,"is_disabled":false,"rental_uris":{"android":"levelo://app?vid=b4eff007-9a5e-4d11-ace4-0ec579a0980c","ios":"levelo://app?vid=b4eff007-9a5e-4d11-ace4-0ec579a0980c"},"vehicle_type_id":"4","last_reported":1741277536,"current_range_meters":12400,"station_id":"","pricing_plan_id":"cebpf4jnsgd1na2vs0mg"},{"bike_id":"768d8d45-c974-4297-99ba-b51d97073598","system_id":"levelo_inurba_marseille","lat":43.25874,"lon":5.39884,"is_reserved":false,"is_disabled":false,"rental_uris":{"android":"levelo://app?vid=768d8d45-c974-4297-99ba-b51d97073598","ios":"levelo://app?vid=768d8d45-c974-4297-99ba-b51d97073598"},"vehicle_type_id":"4","last_reported":1741277536,"current_range_meters":12400,"station_id":"ce4bhl92rcd13ifvqghg","pricing_plan_id":"cebpf4jnsgd1na2vs0mg"},{"bike_id":"4c4f40ce-b677-4958-a34a-41f58f94190b","system_id":"levelo_inurba_marseille","lat":43.23183,"lon":5.39986,"is_reserved":false,"is_disabled":false,"rental_uris":{"android":"levelo://app?vid=4c4f40ce-b677-4958-a34a-41f58f94190b","ios":"levelo://app?vid=4c4f40ce-b677-4958-a34a-41f58f94190b"},"vehicle_type_id":"4","last_reported":1741277536,"current_range_meters":12800,"station_id":"ce4bhn12rcd13ifvqgqg","pricing_plan_id":"cebpf4jnsgd1na2vs0mg"},{"bike_id":"058d6c49-91d3-4e1e-8135-17aae12b86fe","system_id":"levelo_inurba_marseille","lat":43.28158,"lon":5.42644,"is_reserved":false,"is_disabled":false,"rental_uris":{"android":"levelo://app?vid=058d6c49-91d3-4e1e-8135-17aae12b86fe","ios":"levelo://app?vid=058d6c49-91d3-4e1e-8135-17aae12b86fe"},"vehicle_type_id":"4","last_reported":1741277536,"current_range_meters":12800,"station_id":"ce4bhnh2rcd13ifvqgug","pricing_plan_id":"cebpf4jnsgd1na2vs0mg"},{"bike_id":"9d320da6-48e4-431c-9c55-774780fb260c","system_id":"levelo_inurba_marseille","lat":43.2742,"lon":5.39413,"is_reserved":false,"is_disabled":false,"rental_uris":{"android":"levelo://app?vid=9d320da6-48e4-431c-9c55-774780fb260c","ios":"levelo://app?vid=9d320da6-48e4-431c-9c55-774780fb260c"},"vehicle_type_id":"4","last_reported":1741277536,"current_range_meters":12800,"station_id":"ce4bhdp2rcd13ifvqf20","pricing_plan_id":"cebpf4jnsgd1na2vs0mg"},{"bike_id":"d0999f89-578b-4d12-b07b-3eab07ea10c7","system_id":"levelo_inurba_marseille","lat":43.28273,"lon":5.35059,"is_reserved":false,"is_disabled":false,"rental_uris":{"android":"levelo://app?vid=d0999f89-578b-4d12-b07b-3eab07ea10c7","ios":"levelo://app?vid=d0999f89-578b-4d12-b07b-3eab07ea10c7"},"vehicle_type_id":"4","last_reported":1741277536,"current_range_meters":12800,"station_id":"ce4bhbp2rcd13ifvqerg","pricing_plan_id":"cebpf4jnsgd1na2vs0mg"},{"bike_id":"48218efe-0f89-428d-849f-8b6d90bb2db5","system_id":"levelo_inurba_marseille","lat":43.2987,"lon":5.39749,"is_reserved":false,"is_disabled":false,"rental_uris":{"android":"levelo://app?vid=48218efe-0f89-428d-849f-8b6d90bb2db5","ios":"levelo://app?vid=48218efe-0f89-428d-849f-8b6d90bb2db5"},"vehicle_type_id":"4","last_reported":1741277536,"current_range_meters":12800,"station_id":"ce4bh0h2rcd13ifvqd50","pricing_plan_id":"cebpf4jnsgd1na2vs0mg"},{"bike_id":"9f0f0224-b72b-4ee3-a38d-b5ba80204629","system_id":"levelo_inurba_marseille","lat":43.23199,"lon":5.35534,"is_reserved":false,"is_disabled":false,"rental_uris":{"android":"levelo://app?vid=9f0f0224-b72b-4ee3-a38d-b5ba80204629","ios":"levelo://app?vid=9f0f0224-b72b-4ee3-a38d-b5ba80204629"},"vehicle_type_id":"4","last_reported":1741277536,"current_range_meters":13600,"station_id":"ce4bhu92rcd13ifvqi70","pricing_plan_id":"cebpf4jnsgd1na2vs0mg"},{"bike_id":"a0553725-938d-4a24-ad4e-3a8aa5b27341","system_id":"levelo_inurba_marseille","lat":43.2904,"lon":5.37563,"is_reserved":false,"is_disabled":false,"rental_uris":{"android":"levelo://app?vid=a0553725-938d-4a24-ad4e-3a8aa5b27341","ios":"levelo://app?vid=a0553725-938d-4a24-ad4e-3a8aa5b27341"},"vehicle_type_id":"4","last_reported":1741277536,"current_range_meters":13600,"station_id":"ce4bh692rcd13ifvqe90","pricing_plan_id":"cebpf4jnsgd1na2vs0mg"},{"bike_id":"d3530106-1d83-4eee-a4ba-d10aa7394cd5","system_id":"levelo_inurba_marseille","lat":43.30095,"lon":5.39065,"is_reserved":false,"is_disabled":false,"rental_uris":{"android":"levelo://app?vid=d3530106-1d83-4eee-a4ba-d10aa7394cd5","ios":"levelo://app?vid=d3530106-1d83-4eee-a4ba-d10aa7394cd5"},"vehicle_type_id":"4","last_reported":1741277536,"current_range_meters":13600,"station_id":"ce4bh192rcd13ifvqdb0","pricing_plan_id":"cebpf4jnsgd1na2vs0mg"},{"bike_id":"7a617cd0-2571-4f5b-8455-54d27146d528","system_id":"levelo_inurba_marseille","lat":43.29038,"lon":5.37549,"is_reserved":false,"is_disabled":false,"rental_uris":{"android":"levelo://app?vid=7a617cd0-2571-4f5b-8455-54d27146d528","ios":"levelo://app?vid=7a617cd0-2571-4f5b-8455-54d27146d528"},"vehicle_type_id":"4","last_reported":1741277536,"current_range_meters":13600,"station_id":"ce4bh692rcd13ifvqe90","pricing_plan_id":"cebpf4jnsgd1na2vs0mg"},{"bike_id":"11caa29a-bee9-472c-a859-7c99f3cd2fa4","system_id":"levelo_inurba_marseille","lat":43.29415,"lon":5.38616,"is_reserved":false,"is_disabled":false,"rental_uris":{"android":"levelo://app?vid=11caa29a-bee9-472c-a859-7c99f3cd2fa4","ios":"levelo://app?vid=11caa29a-bee9-472c-a859-7c99f3cd2fa4"},"vehicle_type_id":"4","last_reported":1741277536,"current_range_meters":13600,"station_id":"ce4bh2h2rcd13ifvqdh0","pricing_plan_id":"cebpf4jnsgd1na2vs0mg"},{"bike_id":"44569901-b374-488d-b116-bc936a932267","system_id":"levelo_inurba_marseille","lat":43.32345,"lon":5.40615,"is_reserved":false,"is_disabled":false,"rental_uris":{"android":"levelo://app?vid=44569901-b374-488d-b116-bc936a932267","ios":"levelo://app?vid=44569901-b374-488d-b116-bc936a932267"},"vehicle_type_id":"4","last_reported":1741277536,"current_range_meters":13600,"station_id":"ce4bhq92rcd13ifvqhjg","pricing_plan_id":"cebpf4jnsgd1na2vs0mg"},{"bike_id":"c9c4b5c8-0e79-4803-876f-c975d1cecff7","system_id":"levelo_inurba_marseille","lat":43.29273,"lon":5.38425,"is_reserved":false,"is_disabled":false,"rental_uris":{"android":"levelo://app?vid=c9c4b5c8-0e79-4803-876f-c975d1cecff7","ios":"levelo://app?vid=c9c4b5c8-0e79-4803-876f-c975d1cecff7"},"vehicle_type_id":"4","last_reported":1741277536,"current_range_meters":13600,"station_id":"ce4bh692rcd13ifvqea0","pricing_plan_id":"cebpf4jnsgd1na2vs0mg"},{"bike_id":"c16ccb51-1ff7-4b93-8e4d-d5c1c6809677","system_id":"levelo_inurba_marseille","lat":43.30426,"lon":5.41275,"is_reserved":false,"is_disabled":false,"rental_uris":{"android":"levelo://app?vid=c16ccb51-1ff7-4b93-8e4d-d5c1c6809677","ios":"levelo://app?vid=c16ccb51-1ff7-4b93-8e4d-d5c1c6809677"},"vehicle_type_id":"4","last_reported":1741277536,"current_range_meters":14000,"station_id":"ce4bhop2rcd13ifvqh8g","pricing_plan_id":"cebpf4jnsgd1na2vs0mg"},{"bike_id":"0683a293-51f0-4d0e-abbf-5ca227d6f896","system_id":"levelo_inurba_marseille","lat":43.32476,"lon":5.36548,"is_reserved":false,"is_disabled":false,"rental_uris":{"android":"levelo://app?vid=0683a293-51f0-4d0e-abbf-5ca227d6f896","ios":"levelo://app?vid=0683a293-51f0-4d0e-abbf-5ca227d6f896"},"vehicle_type_id":"4","last_reported":1741277536,"current_range_meters":14000,"station_id":"ce4bhs12rcd13ifvqhvg","pricing_plan_id":"cebpf4jnsgd1na2vs0mg"},{"bike_id":"e1b133e5-1e38-43f1-98ca-09441b485a5f","system_id":"levelo_inurba_marseille","lat":43.25587,"lon":5.38237,"is_reserved":false,"is_disabled":false,"rental_uris":{"android":"levelo://app?vid=e1b133e5-1e38-43f1-98ca-09441b485a5f","ios":"levelo://app?vid=e1b133e5-1e38-43f1-98ca-09441b485a5f"},"vehicle_type_id":"4","last_reported":1741277536,"current_range_meters":14000,"station_id":"ce4bhih2rcd13ifvqfs0","pricing_plan_id":"cebpf4jnsgd1na2vs0mg"},{"bike_id":"82899e15-7443-463e-aa4d-dc9c15abb3b5","system_id":"levelo_inurba_marseille","lat":43.2926,"lon":5.37622,"is_reserved":false,"is_disabled":false,"rental_uris":{"android":"levelo://app?vid=82899e15-7443-463e-aa4d-dc9c15abb3b5","ios":"levelo://app?vid=82899e15-7443-463e-aa4d-dc9c15abb3b5"},"vehicle_type_id":"4","last_reported":1741277536,"current_range_meters":14400,"station_id":"ce4bgi12rcd13ifvqb80","pricing_plan_id":"cebpf4jnsgd1na2vs0mg"},{"bike_id":"cfce7569-7296-4463-a330-40e4d37032b9","system_id":"levelo_inurba_marseille","lat":43.25112,"lon":5.40324,"is_reserved":false,"is_disabled":false,"rental_uris":{"android":"levelo://app?vid=cfce7569-7296-4463-a330-40e4d37032b9","ios":"levelo://app?vid=cfce7569-7296-4463-a330-40e4d37032b9"},"vehicle_type_id":"4","last_reported":1741277536,"current_range_meters":14400,"station_id":"ce4bhlh2rcd13ifvqgig","pricing_plan_id":"cebpf4jnsgd1na2vs0mg"},{"bike_id":"0e1da408-7eaf-4bd1-b289-4bc1ab5f243c","system_id":"levelo_inurba_marseille","lat":43.28622,"lon":5.35118,"is_reserved":false,"is_disabled":false,"rental_uris":{"android":"levelo://app?vid=0e1da408-7eaf-4bd1-b289-4bc1ab5f243c","ios":"levelo://app?vid=0e1da408-7eaf-4bd1-b289-4bc1ab5f243c"},"vehicle_type_id":"4","last_reported":1741277536,"current_range_meters":14800,"station_id":"ce4bhch2rcd13ifvqeug","pricing_plan_id":"cebpf4jnsgd1na2vs0mg"},{"bike_id":"63103f47-b772-4a88-ba86-2d2dd36204d9","system_id":"levelo_inurba_marseille","lat":43.26531,"lon":5.3903,"is_reserved":false,"is_disabled":false,"rental_uris":{"android":"levelo://app?vid=63103f47-b772-4a88-ba86-2d2dd36204d9","ios":"levelo://app?vid=63103f47-b772-4a88-ba86-2d2dd36204d9"},"vehicle_type_id":"4","last_reported":1741277536,"current_range_meters":14800,"station_id":"ce4bhe12rcd13ifvqf30","pricing_plan_id":"cebpf4jnsgd1na2vs0mg"},{"bike_id":"469a2003-7592-4486-9c7e-55c204fb4cb4","system_id":"levelo_inurba_marseille","lat":43.31166,"lon":5.3872,"is_reserved":false,"is_disabled":false,"rental_uris":{"android":"levelo://app?vid=469a2003-7592-4486-9c7e-55c204fb4cb4","ios":"levelo://app?vid=469a2003-7592-4486-9c7e-55c204fb4cb4"},"vehicle_type_id":"4","last_reported":1741277536,"current_range_meters":14800,"station_id":"ce4bgv12rcd13ifvqcp0","pricing_plan_id":"cebpf4jnsgd1na2vs0mg"},{"bike_id":"b3eaca3c-3e02-4788-8e1c-7df7f67f5818","system_id":"levelo_inurba_marseille","lat":43.2986,"lon":5.36262,"is_reserved":false,"is_disabled":false,"rental_uris":{"android":"levelo://app?vid=b3eaca3c-3e02-4788-8e1c-7df7f67f5818","ios":"levelo://app?vid=b3eaca3c-3e02-4788-8e1c-7df7f67f5818"},"vehicle_type_id":"4","last_reported":1741277536,"current_range_meters":15200,"station_id":"ce4bgpp2rcd13ifvqc3g","pricing_plan_id":"cebpf4jnsgd1na2vs0mg"},{"bike_id":"b53c3d76-8461-4543-961d-ddc7e485656b","system_id":"levelo_inurba_marseille","lat":43.28284,"lon":5.35076,"is_reserved":false,"is_disabled":false,"rental_uris":{"android":"levelo://app?vid=b53c3d76-8461-4543-961d-ddc7e485656b","ios":"levelo://app?vid=b53c3d76-8461-4543-961d-ddc7e485656b"},"vehicle_type_id":"4","last_reported":1741277536,"current_range_meters":15200,"station_id":"ce4bhbp2rcd13ifvqerg","pricing_plan_id":"cebpf4jnsgd1na2vs0mg"},{"bike_id":"8bd4b128-b85d-4e21-ad3f-ceffde0e548c","system_id":"levelo_inurba_marseille","lat":43.31334,"lon":5.3969,"is_reserved":false,"is_disabled":false,"rental_uris":{"android":"levelo://app?vid=8bd4b128-b85d-4e21-ad3f-ceffde0e548c","ios":"levelo://app?vid=8bd4b128-b85d-4e21-ad3f-ceffde0e548c"},"vehicle_type_id":"4","last_reported":1741277536,"current_range_meters":15200,"station_id":"ce4bgvp2rcd13ifvqcu0","pricing_plan_id":"cebpf4jnsgd1na2vs0mg"},{"bike_id":"7cf50167-6718-414f-b490-05f5b0534e01","system_id":"levelo_inurba_marseille","lat":43.29284,"lon":5.40113,"is_reserved":false,"is_disabled":false,"rental_uris":{"android":"levelo://app?vid=7cf50167-6718-414f-b490-05f5b0534e01","ios":"levelo://app?vid=7cf50167-6718-414f-b490-05f5b0534e01"},"vehicle_type_id":"4","last_reported":1741277536,"current_range_meters":15200,"station_id":"ce4bh312rcd13ifvqdk0","pricing_plan_id":"cebpf4jnsgd1na2vs0mg"},{"bike_id":"2b335451-2759-471c-83e1-a5a099aba791","system_id":"levelo_inurba_marseille","lat":43.25827,"lon":5.39438,"is_reserved":false,"is_disabled":false,"rental_uris":{"android":"levelo://app?vid=2b335451-2759-471c-83e1-a5a099aba791","ios":"levelo://app?vid=2b335451-2759-471c-83e1-a5a099aba791"},"vehicle_type_id":"4","last_reported":1741277536,"current_range_meters":15200,"station_id":"ce4bhip2rcd13ifvqft0","pricing_plan_id":"cebpf4jnsgd1na2vs0mg"},{"bike_id":"65974a34-3b8f-4bfb-b8dd-ba4183ec7b80","system_id":"levelo_inurba_marseille","lat":43.32372,"lon":5.38882,"is_reserved":false,"is_disabled":false,"rental_uris":{"android":"levelo://app?vid=65974a34-3b8f-4bfb-b8dd-ba4183ec7b80","ios":"levelo://app?vid=65974a34-3b8f-4bfb-b8dd-ba4183ec7b80"},"vehicle_type_id":"4","last_reported":1741277536,"current_range_meters":15200,"station_id":"ce4bhqp2rcd13ifvqhog","pricing_plan_id":"cebpf4jnsgd1na2vs0mg"},{"bike_id":"7bb4b946-078d-46ba-8c18-0abbc01045bf","system_id":"levelo_inurba_marseille","lat":43.31372,"lon":5.3673,"is_reserved":false,"is_disabled":false,"rental_uris":{"android":"levelo://app?vid=7bb4b946-078d-46ba-8c18-0abbc01045bf","ios":"levelo://app?vid=7bb4b946-078d-46ba-8c18-0abbc01045bf"},"vehicle_type_id":"4","last_reported":1741277536,"current_range_meters":16000,"station_id":"ce4bgr92rcd13ifvqc6g","pricing_plan_id":"cebpf4jnsgd1na2vs0mg"},{"bike_id":"2d31bd33-7bbc-485d-a4dd-59c0e816926e","system_id":"levelo_inurba_marseille","lat":43.25821,"lon":5.39431,"is_reserved":false,"is_disabled":false,"rental_uris":{"android":"levelo://app?vid=2d31bd33-7bbc-485d-a4dd-59c0e816926e","ios":"levelo://app?vid=2d31bd33-7bbc-485d-a4dd-59c0e816926e"},"vehicle_type_id":"4","last_reported":1741277536,"current_range_meters":16000,"station_id":"ce4bhip2rcd13ifvqft0","pricing_plan_id":"cebpf4jnsgd1na2vs0mg"},{"bike_id":"19e21bc2-a636-42ad-a625-6ca4e47d2c65","system_id":"levelo_inurba_marseille","lat":43.33024,"lon":5.39043,"is_reserved":false,"is_disabled":false,"rental_uris":{"android":"levelo://app?vid=19e21bc2-a636-42ad-a625-6ca4e47d2c65","ios":"levelo://app?vid=19e21bc2-a636-42ad-a625-6ca4e47d2c65"},"vehicle_type_id":"4","last_reported":1741277536,"current_range_meters":16000,"station_id":"ce4bhr92rcd13ifvqhrg","pricing_plan_id":"cebpf4jnsgd1na2vs0mg"},{"bike_id":"5ccfb67b-e8ae-4525-8742-ac0b6f2453a4","system_id":"levelo_inurba_marseille","lat":43.28369,"lon":5.3865,"is_reserved":false,"is_disabled":false,"rental_uris":{"android":"levelo://app?vid=5ccfb67b-e8ae-4525-8742-ac0b6f2453a4","ios":"levelo://app?vid=5ccfb67b-e8ae-4525-8742-ac0b6f2453a4"},"vehicle_type_id":"4","last_reported":1741277536,"current_range_meters":16000,"station_id":"ce4bh492rcd13ifvqdvg","pricing_plan_id":"cebpf4jnsgd1na2vs0mg"},{"bike_id":"41a1e7e6-612e-4a23-97b5-31c39c1888a3","system_id":"levelo_inurba_marseille","lat":43.26558,"lon":5.37284,"is_reserved":false,"is_disabled":false,"rental_uris":{"android":"levelo://app?vid=41a1e7e6-612e-4a23-97b5-31c39c1888a3","ios":"levelo://app?vid=41a1e7e6-612e-4a23-97b5-31c39c1888a3"},"vehicle_type_id":"4","last_reported":1741277536,"current_range_meters":16000,"station_id":"ce4bhg12rcd13ifvqf70","pricing_plan_id":"cebpf4jnsgd1na2vs0mg"},{"bike_id":"085ac09f-0143-4c42-8a9d-f63ae7331c7f","system_id":"levelo_inurba_marseille","lat":43.31164,"lon":5.38723,"is_reserved":false,"is_disabled":false,"rental_uris":{"android":"levelo://app?vid=085ac09f-0143-4c42-8a9d-f63ae7331c7f","ios":"levelo://app?vid=085ac09f-0143-4c42-8a9d-f63ae7331c7f"},"vehicle_type_id":"4","last_reported":1741277536,"current_range_meters":16000,"station_id":"ce4bgv12rcd13ifvqcp0","pricing_plan_id":"cebpf4jnsgd1na2vs0mg"},{"bike_id":"11e06683-8fbf-4e8d-be1a-c9322e803342","system_id":"levelo_inurba_marseille","lat":43.23146,"lon":5.43703,"is_reserved":false,"is_disabled":false,"rental_uris":{"android":"levelo://app?vid=11e06683-8fbf-4e8d-be1a-c9322e803342","ios":"levelo://app?vid=11e06683-8fbf-4e8d-be1a-c9322e803342"},"vehicle_type_id":"4","last_reported":1741277536,"current_range_meters":16000,"station_id":"ce4bhmp2rcd13ifvqgog","pricing_plan_id":"cebpf4jnsgd1na2vs0mg"},{"bike_id":"e3936ecd-bc2f-4535-ae1e-23167a131007","system_id":"levelo_inurba_marseille","lat":43.32991,"lon":5.39494,"is_reserved":false,"is_disabled":false,"rental_uris":{"android":"levelo://app?vid=e3936ecd-bc2f-4535-ae1e-23167a131007","ios":"levelo://app?vid=e3936ecd-bc2f-4535-ae1e-23167a131007"},"vehicle_type_id":"4","last_reported":1741277536,"current_range_meters":16000,"station_id":"","pricing_plan_id":"cebpf4jnsgd1na2vs0mg"},{"bike_id":"89ad2f68-0d7f-4d48-b165-f889c6e42afb","system_id":"levelo_inurba_marseille","lat":43.31334,"lon":5.39691,"is_reserved":false,"is_disabled":false,"rental_uris":{"android":"levelo://app?vid=89ad2f68-0d7f-4d48-b165-f889c6e42afb","ios":"levelo://app?vid=89ad2f68-0d7f-4d48-b165-f889c6e42afb"},"vehicle_type_id":"4","last_reported":1741277536,"current_range_meters":16000,"station_id":"ce4bgvp2rcd13ifvqcu0","pricing_plan_id":"cebpf4jnsgd1na2vs0mg"},{"bike_id":"daa48c53-c5de-46aa-94fc-655cbd710c8c","system_id":"levelo_inurba_marseille","lat":43.22932,"lon":5.35384,"is_reserved":false,"is_disabled":false,"rental_uris":{"android":"levelo://app?vid=daa48c53-c5de-46aa-94fc-655cbd710c8c","ios":"levelo://app?vid=daa48c53-c5de-46aa-94fc-655cbd710c8c"},"vehicle_type_id":"4","last_reported":1741277536,"current_range_meters":16000,"station_id":"cpo3532slgdg3j2ikp40","pricing_plan_id":"cebpf4jnsgd1na2vs0mg"},{"bike_id":"142beda5-5801-4044-b3d9-6bc7175801dd","system_id":"levelo_inurba_marseille","lat":43.28107,"lon":5.37839,"is_reserved":false,"is_disabled":false,"rental_uris":{"android":"levelo://app?vid=142beda5-5801-4044-b3d9-6bc7175801dd","ios":"levelo://app?vid=142beda5-5801-4044-b3d9-6bc7175801dd"},"vehicle_type_id":"4","last_reported":1741277536,"current_range_meters":16000,"station_id":"ce4bha12rcd13ifvqee0","pricing_plan_id":"cebpf4jnsgd1na2vs0mg"},{"bike_id":"798bc586-9497-4588-ad60-aa439884aae6","system_id":"levelo_inurba_marseille","lat":43.24389,"lon":5.37059,"is_reserved":false,"is_disabled":false,"rental_uris":{"android":"levelo://app?vid=798bc586-9497-4588-ad60-aa439884aae6","ios":"levelo://app?vid=798bc586-9497-4588-ad60-aa439884aae6"},"vehicle_type_id":"4","last_reported":1741277536,"current_range_meters":16400,"station_id":"ce4bhhh2rcd13ifvqfk0","pricing_plan_id":"cebpf4jnsgd1na2vs0mg"},{"bike_id":"f3a3a9ed-47ed-41aa-a3be-90fb163b5447","system_id":"levelo_inurba_marseille","lat":43.27997,"lon":5.38721,"is_reserved":false,"is_disabled":false,"rental_uris":{"android":"levelo://app?vid=f3a3a9ed-47ed-41aa-a3be-90fb163b5447","ios":"levelo://app?vid=f3a3a9ed-47ed-41aa-a3be-90fb163b5447"},"vehicle_type_id":"4","last_reported":1741277536,"current_range_meters":16400,"station_id":"ce4bhg12rcd13ifvqf80","pricing_plan_id":"cebpf4jnsgd1na2vs0mg"},{"bike_id":"68c19fc9-ba1c-4395-a7d2-1805fe31ec71","system_id":"levelo_inurba_marseille","lat":43.24183,"lon":5.39693,"is_reserved":false,"is_disabled":false,"rental_uris":{"android":"levelo://app?vid=68c19fc9-ba1c-4395-a7d2-1805fe31ec71","ios":"levelo://app?vid=68c19fc9-ba1c-4395-a7d2-1805fe31ec71"},"vehicle_type_id":"4","last_reported":1741277536,"current_range_meters":16400,"station_id":"ce4bhn12rcd13ifvqgpg","pricing_plan_id":"cebpf4jnsgd1na2vs0mg"},{"bike_id":"6fdc8f03-fe67-4cfc-9220-35ac353d53e8","system_id":"levelo_inurba_marseille","lat":43.292,"lon":5.39312,"is_reserved":false,"is_disabled":false,"rental_uris":{"android":"levelo://app?vid=6fdc8f03-fe67-4cfc-9220-35ac353d53e8","ios":"levelo://app?vid=6fdc8f03-fe67-4cfc-9220-35ac353d53e8"},"vehicle_type_id":"4","last_reported":1741277536,"current_range_meters":16400,"station_id":"ce4bh192rcd13ifvqdd0","pricing_plan_id":"cebpf4jnsgd1na2vs0mg"},{"bike_id":"becf5e38-2c56-4fce-862d-4abc9e5b3435","system_id":"levelo_inurba_marseille","lat":43.25118,"lon":5.40334,"is_reserved":false,"is_disabled":false,"rental_uris":{"android":"levelo://app?vid=becf5e38-2c56-4fce-862d-4abc9e5b3435","ios":"levelo://app?vid=becf5e38-2c56-4fce-862d-4abc9e5b3435"},"vehicle_type_id":"4","last_reported":1741277536,"current_range_meters":16400,"station_id":"ce4bhlh2rcd13ifvqgig","pricing_plan_id":"cebpf4jnsgd1na2vs0mg"},{"bike_id":"d0a9e0b6-7460-48af-b167-fa241d6b44c3","system_id":"levelo_inurba_marseille","lat":43.32094,"lon":5.3677,"is_reserved":false,"is_disabled":false,"rental_uris":{"android":"levelo://app?vid=d0a9e0b6-7460-48af-b167-fa241d6b44c3","ios":"levelo://app?vid=d0a9e0b6-7460-48af-b167-fa241d6b44c3"},"vehicle_type_id":"4","last_reported":1741277536,"current_range_meters":16400,"station_id":"ce4bhrh2rcd13ifvqhug","pricing_plan_id":"cebpf4jnsgd1na2vs0mg"},{"bike_id":"4d7ce7db-debb-443d-9bff-f95041dd574f","system_id":"levelo_inurba_marseille","lat":43.28616,"lon":5.35099,"is_reserved":false,"is_disabled":false,"rental_uris":{"android":"levelo://app?vid=4d7ce7db-debb-443d-9bff-f95041dd574f","ios":"levelo://app?vid=4d7ce7db-debb-443d-9bff-f95041dd574f"},"vehicle_type_id":"4","last_reported":1741277536,"current_range_meters":16800,"station_id":"ce4bhch2rcd13ifvqeug","pricing_plan_id":"cebpf4jnsgd1na2vs0mg"},{"bike_id":"6d7e0450-89ad-4e81-9f4f-61db2e3e009a","system_id":"levelo_inurba_marseille","lat":43.29897,"lon":5.43664,"is_reserved":false,"is_disabled":false,"rental_uris":{"android":"levelo://app?vid=6d7e0450-89ad-4e81-9f4f-61db2e3e009a","ios":"levelo://app?vid=6d7e0450-89ad-4e81-9f4f-61db2e3e009a"},"vehicle_type_id":"4","last_reported":1741277536,"current_range_meters":16800,"station_id":"ce4bhpp2rcd13ifvqhfg","pricing_plan_id":"cebpf4jnsgd1na2vs0mg"},{"bike_id":"10b74c6d-04bc-43c8-b892-4a1d3e03c2bd","system_id":"levelo_inurba_marseille","lat":43.230615,"lon":5.354929,"is_reserved":false,"is_disabled":false,"rental_uris":{"android":"levelo://app?vid=10b74c6d-04bc-43c8-b892-4a1d3e03c2bd","ios":"levelo://app?vid=10b74c6d-04bc-43c8-b892-4a1d3e03c2bd"},"vehicle_type_id":"4","last_reported":1741277536,"current_range_meters":16800,"station_id":"cpo3342slgdg3j2ifvpg","pricing_plan_id":"cebpf4jnsgd1na2vs0mg"},{"bike_id":"1ce866b7-af70-4315-9c9d-9c33cb575d6f","system_id":"levelo_inurba_marseille","lat":43.3013,"lon":5.39187,"is_reserved":false,"is_disabled":false,"rental_uris":{"android":"levelo://app?vid=1ce866b7-af70-4315-9c9d-9c33cb575d6f","ios":"levelo://app?vid=1ce866b7-af70-4315-9c9d-9c33cb575d6f"},"vehicle_type_id":"4","last_reported":1741277536,"current_range_meters":16800,"station_id":"","pricing_plan_id":"cebpf4jnsgd1na2vs0mg"},{"bike_id":"01fa33b2-6d89-4b7b-b651-4c2662abf9c7","system_id":"levelo_inurba_marseille","lat":43.2958,"lon":5.39971,"is_reserved":false,"is_disabled":false,"rental_uris":{"android":"levelo://app?vid=01fa33b2-6d89-4b7b-b651-4c2662abf9c7","ios":"levelo://app?vid=01fa33b2-6d89-4b7b-b651-4c2662abf9c7"},"vehicle_type_id":"4","last_reported":1741277536,"current_range_meters":16800,"station_id":"ce4bh312rcd13ifvqdj0","pricing_plan_id":"cebpf4jnsgd1na2vs0mg"},{"bike_id":"eaf53bb7-e49d-4fa3-819a-15dd2914b67c","system_id":"levelo_inurba_marseille","lat":43.29792,"lon":5.38113,"is_reserved":false,"is_disabled":false,"rental_uris":{"android":"levelo://app?vid=eaf53bb7-e49d-4fa3-819a-15dd2914b67c","ios":"levelo://app?vid=eaf53bb7-e49d-4fa3-819a-15dd2914b67c"},"vehicle_type_id":"4","last_reported":1741277536,"current_range_meters":17200,"station_id":"ce4bgip2rcd13ifvqbb0","pricing_plan_id":"cebpf4jnsgd1na2vs0mg"},{"bike_id":"4fc9e149-677f-4273-9c1d-f3527e9e64c7","system_id":"levelo_inurba_marseille","lat":43.24183,"lon":5.39736,"is_reserved":false,"is_disabled":false,"rental_uris":{"android":"levelo://app?vid=4fc9e149-677f-4273-9c1d-f3527e9e64c7","ios":"levelo://app?vid=4fc9e149-677f-4273-9c1d-f3527e9e64c7"},"vehicle_type_id":"4","last_reported":1741277536,"current_range_meters":17200,"station_id":"ce4bhn12rcd13ifvqgpg","pricing_plan_id":"cebpf4jnsgd1na2vs0mg"},{"bike_id":"68e488c2-9d73-4c91-9da2-5e65e0d498b1","system_id":"levelo_inurba_marseille","lat":43.26536,"lon":5.39019,"is_reserved":false,"is_disabled":false,"rental_uris":{"android":"levelo://app?vid=68e488c2-9d73-4c91-9da2-5e65e0d498b1","ios":"levelo://app?vid=68e488c2-9d73-4c91-9da2-5e65e0d498b1"},"vehicle_type_id":"4","last_reported":1741277536,"current_range_meters":17200,"station_id":"ce4bhe12rcd13ifvqf30","pricing_plan_id":"cebpf4jnsgd1na2vs0mg"},{"bike_id":"deb4feb9-b171-4a7a-b9d2-5867d67ff13d","system_id":"levelo_inurba_marseille","lat":43.28942,"lon":5.36386,"is_reserved":false,"is_disabled":false,"rental_uris":{"android":"levelo://app?vid=deb4feb9-b171-4a7a-b9d2-5867d67ff13d","ios":"levelo://app?vid=deb4feb9-b171-4a7a-b9d2-5867d67ff13d"},"vehicle_type_id":"4","last_reported":1741277536,"current_range_meters":16800,"station_id":"ce4bhc92rcd13ifvqetg","pricing_plan_id":"cebpf4jnsgd1na2vs0mg"},{"bike_id":"3119aed4-e324-4ddb-93ac-300feb05feeb","system_id":"levelo_inurba_marseille","lat":43.30885,"lon":5.39655,"is_reserved":false,"is_disabled":false,"rental_uris":{"android":"levelo://app?vid=3119aed4-e324-4ddb-93ac-300feb05feeb","ios":"levelo://app?vid=3119aed4-e324-4ddb-93ac-300feb05feeb"},"vehicle_type_id":"4","last_reported":1741277536,"current_range_meters":17200,"station_id":"ce4bh012rcd13ifvqcv0","pricing_plan_id":"cebpf4jnsgd1na2vs0mg"},{"bike_id":"279e9af7-3a71-47f3-b268-47fa39cff163","system_id":"levelo_inurba_marseille","lat":43.28156,"lon":5.42633,"is_reserved":false,"is_disabled":false,"rental_uris":{"android":"levelo://app?vid=279e9af7-3a71-47f3-b268-47fa39cff163","ios":"levelo://app?vid=279e9af7-3a71-47f3-b268-47fa39cff163"},"vehicle_type_id":"4","last_reported":1741277536,"current_range_meters":17200,"station_id":"ce4bhnh2rcd13ifvqgug","pricing_plan_id":"cebpf4jnsgd1na2vs0mg"},{"bike_id":"6ae77951-a909-4dfa-a933-35324bca41b7","system_id":"levelo_inurba_marseille","lat":43.25011,"lon":5.38913,"is_reserved":false,"is_disabled":false,"rental_uris":{"android":"levelo://app?vid=6ae77951-a909-4dfa-a933-35324bca41b7","ios":"levelo://app?vid=6ae77951-a909-4dfa-a933-35324bca41b7"},"vehicle_type_id":"4","last_reported":1741277536,"current_range_meters":17600,"station_id":"ce4bhgp2rcd13ifvqfd0","pricing_plan_id":"cebpf4jnsgd1na2vs0mg"},{"bike_id":"6e0dd493-0c23-4ef2-a3b3-49953bc6d790","system_id":"levelo_inurba_marseille","lat":43.30556,"lon":5.36525,"is_reserved":false,"is_disabled":false,"rental_uris":{"android":"levelo://app?vid=6e0dd493-0c23-4ef2-a3b3-49953bc6d790","ios":"levelo://app?vid=6e0dd493-0c23-4ef2-a3b3-49953bc6d790"},"vehicle_type_id":"4","last_reported":1741277536,"current_range_meters":17600,"station_id":"ce4bgs12rcd13ifvqcag","pricing_plan_id":"cebpf4jnsgd1na2vs0mg"},{"bike_id":"d65a9f15-0d08-4f36-87d6-9fe0b02e1cf9","system_id":"levelo_inurba_marseille","lat":43.24168,"lon":5.39701,"is_reserved":false,"is_disabled":false,"rental_uris":{"android":"levelo://app?vid=d65a9f15-0d08-4f36-87d6-9fe0b02e1cf9","ios":"levelo://app?vid=d65a9f15-0d08-4f36-87d6-9fe0b02e1cf9"},"vehicle_type_id":"4","last_reported":1741277536,"current_range_meters":17600,"station_id":"ce4bhn12rcd13ifvqgpg","pricing_plan_id":"cebpf4jnsgd1na2vs0mg"},{"bike_id":"9d3f993c-56ea-44d7-9c60-11a1f55eedcd","system_id":"levelo_inurba_marseille","lat":43.29879,"lon":5.39722,"is_reserved":false,"is_disabled":false,"rental_uris":{"android":"levelo://app?vid=9d3f993c-56ea-44d7-9c60-11a1f55eedcd","ios":"levelo://app?vid=9d3f993c-56ea-44d7-9c60-11a1f55eedcd"},"vehicle_type_id":"4","last_reported":1741277536,"current_range_meters":17600,"station_id":"ce4bh0h2rcd13ifvqd50","pricing_plan_id":"cebpf4jnsgd1na2vs0mg"},{"bike_id":"87412959-ba8d-48b7-94ab-3d24c85abd0c","system_id":"levelo_inurba_marseille","lat":43.28459,"lon":5.35888,"is_reserved":false,"is_disabled":false,"rental_uris":{"android":"levelo://app?vid=87412959-ba8d-48b7-94ab-3d24c85abd0c","ios":"levelo://app?vid=87412959-ba8d-48b7-94ab-3d24c85abd0c"},"vehicle_type_id":"4","last_reported":1741277536,"current_range_meters":17600,"station_id":"ce4bhah2rcd13ifvqei0","pricing_plan_id":"cebpf4jnsgd1na2vs0mg"},{"bike_id":"e15bba34-7b40-4116-bc76-5266e9c3e088","system_id":"levelo_inurba_marseille","lat":43.30146,"lon":5.37413,"is_reserved":false,"is_disabled":false,"rental_uris":{"android":"levelo://app?vid=e15bba34-7b40-4116-bc76-5266e9c3e088","ios":"levelo://app?vid=e15bba34-7b40-4116-bc76-5266e9c3e088"},"vehicle_type_id":"4","last_reported":1741277536,"current_range_meters":17600,"station_id":"ce4bgs92rcd13ifvqcc0","pricing_plan_id":"cebpf4jnsgd1na2vs0mg"},{"bike_id":"9f81a8d7-3e2b-4007-9464-c777fd8529ba","system_id":"levelo_inurba_marseille","lat":43.33017,"lon":5.39047,"is_reserved":false,"is_disabled":true,"rental_uris":{"android":"levelo://app?vid=9f81a8d7-3e2b-4007-9464-c777fd8529ba","ios":"levelo://app?vid=9f81a8d7-3e2b-4007-9464-c777fd8529ba"},"vehicle_type_id":"4","last_reported":1741277536,"current_range_meters":17600,"station_id":"ce4bhr92rcd13ifvqhrg","pricing_plan_id":"cebpf4jnsgd1na2vs0mg"},{"bike_id":"8d203f57-3343-4bc0-8a9c-79d1c1be1625","system_id":"levelo_inurba_marseille","lat":43.268047,"lon":5.402644,"is_reserved":false,"is_disabled":false,"rental_uris":{"android":"levelo://app?vid=8d203f57-3343-4bc0-8a9c-79d1c1be1625","ios":"levelo://app?vid=8d203f57-3343-4bc0-8a9c-79d1c1be1625"},"vehicle_type_id":"4","last_reported":1741277536,"current_range_meters":17600,"station_id":"ce501612rcd8frsf0b60","pricing_plan_id":"cebpf4jnsgd1na2vs0mg"},{"bike_id":"3c94b931-3649-4c69-bf1c-99f8fd15e284","system_id":"levelo_inurba_marseille","lat":43.32469,"lon":5.36604,"is_reserved":false,"is_disabled":false,"rental_uris":{"android":"levelo://app?vid=3c94b931-3649-4c69-bf1c-99f8fd15e284","ios":"levelo://app?vid=3c94b931-3649-4c69-bf1c-99f8fd15e284"},"vehicle_type_id":"4","last_reported":1741277536,"current_range_meters":18000,"station_id":"ce4bhs12rcd13ifvqhvg","pricing_plan_id":"cebpf4jnsgd1na2vs0mg"},{"bike_id":"c52c2b56-27a2-425f-b101-7fae34528eea","system_id":"levelo_inurba_marseille","lat":43.304169,"lon":5.412966,"is_reserved":false,"is_disabled":false,"rental_uris":{"android":"levelo://app?vid=c52c2b56-27a2-425f-b101-7fae34528eea","ios":"levelo://app?vid=c52c2b56-27a2-425f-b101-7fae34528eea"},"vehicle_type_id":"4","last_reported":1741277536,"current_range_meters":18000,"station_id":"ce4bhr92rcd13ifvqhsg","pricing_plan_id":"cebpf4jnsgd1na2vs0mg"},{"bike_id":"104f72e3-704b-4fa5-bec6-f97785f2546f","system_id":"levelo_inurba_marseille","lat":43.30805,"lon":5.43519,"is_reserved":false,"is_disabled":false,"rental_uris":{"android":"levelo://app?vid=104f72e3-704b-4fa5-bec6-f97785f2546f","ios":"levelo://app?vid=104f72e3-704b-4fa5-bec6-f97785f2546f"},"vehicle_type_id":"4","last_reported":1741277536,"current_range_meters":18000,"station_id":"ce4bhph2rcd13ifvqheg","pricing_plan_id":"cebpf4jnsgd1na2vs0mg"},{"bike_id":"86e84a3a-9527-4338-a853-13c81496b027","system_id":"levelo_inurba_marseille","lat":43.22933,"lon":5.35379,"is_reserved":false,"is_disabled":false,"rental_uris":{"android":"levelo://app?vid=86e84a3a-9527-4338-a853-13c81496b027","ios":"levelo://app?vid=86e84a3a-9527-4338-a853-13c81496b027"},"vehicle_type_id":"4","last_reported":1741277536,"current_range_meters":18000,"station_id":"cpo3532slgdg3j2ikp40","pricing_plan_id":"cebpf4jnsgd1na2vs0mg"},{"bike_id":"f26bc332-c610-4859-8c21-45441691fe23","system_id":"levelo_inurba_marseille","lat":43.28097,"lon":5.3786,"is_reserved":false,"is_disabled":false,"rental_uris":{"android":"levelo://app?vid=f26bc332-c610-4859-8c21-45441691fe23","ios":"levelo://app?vid=f26bc332-c610-4859-8c21-45441691fe23"},"vehicle_type_id":"4","last_reported":1741277536,"current_range_meters":18000,"station_id":"ce4bha12rcd13ifvqee0","pricing_plan_id":"cebpf4jnsgd1na2vs0mg"},{"bike_id":"43d55693-be44-4f7b-870d-2b17a576a397","system_id":"levelo_inurba_marseille","lat":43.26202,"lon":5.37458,"is_reserved":false,"is_disabled":false,"rental_uris":{"android":"levelo://app?vid=43d55693-be44-4f7b-870d-2b17a576a397","ios":"levelo://app?vid=43d55693-be44-4f7b-870d-2b17a576a397"},"vehicle_type_id":"4","last_reported":1741277536,"current_range_meters":18000,"station_id":"ce4bhgp2rcd13ifvqfc0","pricing_plan_id":"cebpf4jnsgd1na2vs0mg"},{"bike_id":"99873fad-8a34-44de-a038-82bc4e8a54d4","system_id":"levelo_inurba_marseille","lat":43.290819,"lon":5.371704,"is_reserved":false,"is_disabled":false,"rental_uris":{"android":"levelo://app?vid=99873fad-8a34-44de-a038-82bc4e8a54d4","ios":"levelo://app?vid=99873fad-8a34-44de-a038-82bc4e8a54d4"},"vehicle_type_id":"4","last_reported":1741277536,"current_range_meters":17600,"station_id":"ce4bh5p2rcd13ifvqe4g","pricing_plan_id":"cebpf4jnsgd1na2vs0mg"},{"bike_id":"d71da873-4d09-4df3-bd2b-e2ce147e2eb0","system_id":"levelo_inurba_marseille","lat":43.26194,"lon":5.3745,"is_reserved":false,"is_disabled":false,"rental_uris":{"android":"levelo://app?vid=d71da873-4d09-4df3-bd2b-e2ce147e2eb0","ios":"levelo://app?vid=d71da873-4d09-4df3-bd2b-e2ce147e2eb0"},"vehicle_type_id":"4","last_reported":1741277536,"current_range_meters":18000,"station_id":"ce4bhgp2rcd13ifvqfc0","pricing_plan_id":"cebpf4jnsgd1na2vs0mg"},{"bike_id":"65a45cfe-f7b0-4ae1-bced-492326c634a7","system_id":"levelo_inurba_marseille","lat":43.31076,"lon":5.38351,"is_reserved":false,"is_disabled":false,"rental_uris":{"android":"levelo://app?vid=65a45cfe-f7b0-4ae1-bced-492326c634a7","ios":"levelo://app?vid=65a45cfe-f7b0-4ae1-bced-492326c634a7"},"vehicle_type_id":"4","last_reported":1741277536,"current_range_meters":18000,"station_id":"ce4bgv92rcd13ifvqcr0","pricing_plan_id":"cebpf4jnsgd1na2vs0mg"},{"bike_id":"44f3ffdb-dc50-4cc4-847e-e3884c69756e","system_id":"levelo_inurba_marseille","lat":43.257874,"lon":5.394477,"is_reserved":false,"is_disabled":false,"rental_uris":{"android":"levelo://app?vid=44f3ffdb-dc50-4cc4-847e-e3884c69756e","ios":"levelo://app?vid=44f3ffdb-dc50-4cc4-847e-e3884c69756e"},"vehicle_type_id":"4","last_reported":1741277536,"current_range_meters":18000,"station_id":"ce4bhip2rcd13ifvqft0","pricing_plan_id":"cebpf4jnsgd1na2vs0mg"},{"bike_id":"168bb3ab-2114-49c2-8e81-ccbcb3642543","system_id":"levelo_inurba_marseille","lat":43.29804,"lon":5.38072,"is_reserved":false,"is_disabled":false,"rental_uris":{"android":"levelo://app?vid=168bb3ab-2114-49c2-8e81-ccbcb3642543","ios":"levelo://app?vid=168bb3ab-2114-49c2-8e81-ccbcb3642543"},"vehicle_type_id":"4","last_reported":1741277536,"current_range_meters":18000,"station_id":"ce4bgip2rcd13ifvqbb0","pricing_plan_id":"cebpf4jnsgd1na2vs0mg"},{"bike_id":"9a9367c8-3830-4d11-8cd0-4cb333338364","system_id":"levelo_inurba_marseille","lat":43.27617,"lon":5.36116,"is_reserved":false,"is_disabled":false,"rental_uris":{"android":"levelo://app?vid=9a9367c8-3830-4d11-8cd0-4cb333338364","ios":"levelo://app?vid=9a9367c8-3830-4d11-8cd0-4cb333338364"},"vehicle_type_id":"4","last_reported":1741277536,"current_range_meters":18800,"station_id":"ce4bgj92rcd13ifvqbe0","pricing_plan_id":"cebpf4jnsgd1na2vs0mg"},{"bike_id":"af7e07e1-a036-4dc2-8731-a5321de7c490","system_id":"levelo_inurba_marseille","lat":43.2926,"lon":5.40901,"is_reserved":false,"is_disabled":false,"rental_uris":{"android":"levelo://app?vid=af7e07e1-a036-4dc2-8731-a5321de7c490","ios":"levelo://app?vid=af7e07e1-a036-4dc2-8731-a5321de7c490"},"vehicle_type_id":"4","last_reported":1741277536,"current_range_meters":18800,"station_id":"ce4bh192rcd13ifvqdc0","pricing_plan_id":"cebpf4jnsgd1na2vs0mg"},{"bike_id":"64716444-3a0f-4034-aa7e-b2dbc332386f","system_id":"levelo_inurba_marseille","lat":43.26059,"lon":5.39398,"is_reserved":false,"is_disabled":false,"rental_uris":{"android":"levelo://app?vid=64716444-3a0f-4034-aa7e-b2dbc332386f","ios":"levelo://app?vid=64716444-3a0f-4034-aa7e-b2dbc332386f"},"vehicle_type_id":"4","last_reported":1741277536,"current_range_meters":17600,"station_id":"ce4bhh92rcd13ifvqfj0","pricing_plan_id":"cebpf4jnsgd1na2vs0mg"},{"bike_id":"bd1b1bcc-7707-4182-9c0d-d33e52bca527","system_id":"levelo_inurba_marseille","lat":43.2721,"lon":5.39173,"is_reserved":false,"is_disabled":false,"rental_uris":{"android":"levelo://app?vid=bd1b1bcc-7707-4182-9c0d-d33e52bca527","ios":"levelo://app?vid=bd1b1bcc-7707-4182-9c0d-d33e52bca527"},"vehicle_type_id":"4","last_reported":1741277536,"current_range_meters":18800,"station_id":"ce4bhhp2rcd13ifvqfm0","pricing_plan_id":"cebpf4jnsgd1na2vs0mg"},{"bike_id":"a0718cfb-52af-4b15-9c48-188becec1ce3","system_id":"levelo_inurba_marseille","lat":43.25586,"lon":5.38231,"is_reserved":false,"is_disabled":false,"rental_uris":{"android":"levelo://app?vid=a0718cfb-52af-4b15-9c48-188becec1ce3","ios":"levelo://app?vid=a0718cfb-52af-4b15-9c48-188becec1ce3"},"vehicle_type_id":"4","last_reported":1741277536,"current_range_meters":18800,"station_id":"ce4bhih2rcd13ifvqfs0","pricing_plan_id":"cebpf4jnsgd1na2vs0mg"},{"bike_id":"0adc3f22-a7b2-4be8-b93b-812996b5f9d5","system_id":"levelo_inurba_marseille","lat":43.26686,"lon":5.38279,"is_reserved":false,"is_disabled":false,"rental_uris":{"android":"levelo://app?vid=0adc3f22-a7b2-4be8-b93b-812996b5f9d5","ios":"levelo://app?vid=0adc3f22-a7b2-4be8-b93b-812996b5f9d5"},"vehicle_type_id":"4","last_reported":1741277536,"current_range_meters":18800,"station_id":"ce4bhg92rcd13ifvqf90","pricing_plan_id":"cebpf4jnsgd1na2vs0mg"},{"bike_id":"45fa8020-1fd6-4f06-8a66-82bca87e5395","system_id":"levelo_inurba_marseille","lat":43.24181,"lon":5.39723,"is_reserved":false,"is_disabled":false,"rental_uris":{"android":"levelo://app?vid=45fa8020-1fd6-4f06-8a66-82bca87e5395","ios":"levelo://app?vid=45fa8020-1fd6-4f06-8a66-82bca87e5395"},"vehicle_type_id":"4","last_reported":1741277536,"current_range_meters":19200,"station_id":"ce4bhn12rcd13ifvqgpg","pricing_plan_id":"cebpf4jnsgd1na2vs0mg"},{"bike_id":"e524bcef-a391-41b2-bad2-673eae53ea51","system_id":"levelo_inurba_marseille","lat":43.31715,"lon":5.43703,"is_reserved":false,"is_disabled":false,"rental_uris":{"android":"levelo://app?vid=e524bcef-a391-41b2-bad2-673eae53ea51","ios":"levelo://app?vid=e524bcef-a391-41b2-bad2-673eae53ea51"},"vehicle_type_id":"4","last_reported":1741277536,"current_range_meters":19200,"station_id":"ce4bhp92rcd13ifvqhcg","pricing_plan_id":"cebpf4jnsgd1na2vs0mg"},{"bike_id":"d44d1f0d-089b-4712-acec-6159946190a1","system_id":"levelo_inurba_marseille","lat":43.24167,"lon":5.36395,"is_reserved":false,"is_disabled":false,"rental_uris":{"android":"levelo://app?vid=d44d1f0d-089b-4712-acec-6159946190a1","ios":"levelo://app?vid=d44d1f0d-089b-4712-acec-6159946190a1"},"vehicle_type_id":"4","last_reported":1741277536,"current_range_meters":19200,"station_id":"cpo36qri1sfpv3e86is0","pricing_plan_id":"cebpf4jnsgd1na2vs0mg"},{"bike_id":"d6967345-11d9-40f2-a572-f71cbe34ee81","system_id":"levelo_inurba_marseille","lat":43.29802,"lon":5.40417,"is_reserved":false,"is_disabled":false,"rental_uris":{"android":"levelo://app?vid=d6967345-11d9-40f2-a572-f71cbe34ee81","ios":"levelo://app?vid=d6967345-11d9-40f2-a572-f71cbe34ee81"},"vehicle_type_id":"4","last_reported":1741277536,"current_range_meters":18800,"station_id":"ce4bh112rcd13ifvqd90","pricing_plan_id":"cebpf4jnsgd1na2vs0mg"},{"bike_id":"cd48c8ab-97df-4f40-b1e1-0e60faf8bde8","system_id":"levelo_inurba_marseille","lat":43.27318,"lon":5.39102,"is_reserved":false,"is_disabled":false,"rental_uris":{"android":"levelo://app?vid=cd48c8ab-97df-4f40-b1e1-0e60faf8bde8","ios":"levelo://app?vid=cd48c8ab-97df-4f40-b1e1-0e60faf8bde8"},"vehicle_type_id":"4","last_reported":1741277536,"current_range_meters":19200,"station_id":"ce4bhgp2rcd13ifvqfe0","pricing_plan_id":"cebpf4jnsgd1na2vs0mg"},{"bike_id":"41dafdb7-f935-4c1a-8a5e-a6ec7423d558","system_id":"levelo_inurba_marseille","lat":43.28415,"lon":5.37511,"is_reserved":false,"is_disabled":false,"rental_uris":{"android":"levelo://app?vid=41dafdb7-f935-4c1a-8a5e-a6ec7423d558","ios":"levelo://app?vid=41dafdb7-f935-4c1a-8a5e-a6ec7423d558"},"vehicle_type_id":"4","last_reported":1741277536,"current_range_meters":19200,"station_id":"ce4bh412rcd13ifvqds0","pricing_plan_id":"cebpf4jnsgd1na2vs0mg"},{"bike_id":"8cb13240-8250-4e81-8cb1-e3751841028a","system_id":"levelo_inurba_marseille","lat":43.31343,"lon":5.39718,"is_reserved":false,"is_disabled":false,"rental_uris":{"android":"levelo://app?vid=8cb13240-8250-4e81-8cb1-e3751841028a","ios":"levelo://app?vid=8cb13240-8250-4e81-8cb1-e3751841028a"},"vehicle_type_id":"4","last_reported":1741277536,"current_range_meters":19200,"station_id":"ce4bh092rcd13ifvqd30","pricing_plan_id":"cebpf4jnsgd1na2vs0mg"},{"bike_id":"82b343bd-ac62-4a2e-9f28-c927ad763b60","system_id":"levelo_inurba_marseille","lat":43.30783,"lon":5.38168,"is_reserved":false,"is_disabled":false,"rental_uris":{"android":"levelo://app?vid=82b343bd-ac62-4a2e-9f28-c927ad763b60","ios":"levelo://app?vid=82b343bd-ac62-4a2e-9f28-c927ad763b60"},"vehicle_type_id":"4","last_reported":1741277536,"current_range_meters":18800,"station_id":"ce4bgt12rcd13ifvqce0","pricing_plan_id":"cebpf4jnsgd1na2vs0mg"},{"bike_id":"975fa86d-1215-4f11-9def-f80adfd3d7ee","system_id":"levelo_inurba_marseille","lat":43.25583,"lon":5.38249,"is_reserved":false,"is_disabled":false,"rental_uris":{"android":"levelo://app?vid=975fa86d-1215-4f11-9def-f80adfd3d7ee","ios":"levelo://app?vid=975fa86d-1215-4f11-9def-f80adfd3d7ee"},"vehicle_type_id":"4","last_reported":1741277536,"current_range_meters":19200,"station_id":"ce4bhih2rcd13ifvqfs0","pricing_plan_id":"cebpf4jnsgd1na2vs0mg"},{"bike_id":"65eab838-e929-454d-be01-4aaf37d35265","system_id":"levelo_inurba_marseille","lat":43.31715,"lon":5.4241,"is_reserved":false,"is_disabled":false,"rental_uris":{"android":"levelo://app?vid=65eab838-e929-454d-be01-4aaf37d35265","ios":"levelo://app?vid=65eab838-e929-454d-be01-4aaf37d35265"},"vehicle_type_id":"4","last_reported":1741277536,"current_range_meters":19600,"station_id":"ce4bhp92rcd13ifvqhbg","pricing_plan_id":"cebpf4jnsgd1na2vs0mg"},{"bike_id":"7472b3be-97c6-4430-8739-29bd05538cb9","system_id":"levelo_inurba_marseille","lat":43.30165,"lon":5.38083,"is_reserved":false,"is_disabled":false,"rental_uris":{"android":"levelo://app?vid=7472b3be-97c6-4430-8739-29bd05538cb9","ios":"levelo://app?vid=7472b3be-97c6-4430-8739-29bd05538cb9"},"vehicle_type_id":"4","last_reported":1741277536,"current_range_meters":19200,"station_id":"ce4bgjp2rcd13ifvqbh0","pricing_plan_id":"cebpf4jnsgd1na2vs0mg"},{"bike_id":"c1d8b999-fb99-4a52-9da4-6d7c62054937","system_id":"levelo_inurba_marseille","lat":43.28673,"lon":5.38682,"is_reserved":false,"is_disabled":false,"rental_uris":{"android":"levelo://app?vid=c1d8b999-fb99-4a52-9da4-6d7c62054937","ios":"levelo://app?vid=c1d8b999-fb99-4a52-9da4-6d7c62054937"},"vehicle_type_id":"4","last_reported":1741277536,"current_range_meters":19200,"station_id":"ce4bhpp2rcd13ifvqhfg","pricing_plan_id":"cebpf4jnsgd1na2vs0mg"},{"bike_id":"6460db91-3812-4851-93fb-90a38b9acd88","system_id":"levelo_inurba_marseille","lat":43.27807,"lon":5.40723,"is_reserved":false,"is_disabled":false,"rental_uris":{"android":"levelo://app?vid=6460db91-3812-4851-93fb-90a38b9acd88","ios":"levelo://app?vid=6460db91-3812-4851-93fb-90a38b9acd88"},"vehicle_type_id":"4","last_reported":1741277536,"current_range_meters":19600,"station_id":"ce4bhnh2rcd13ifvqgtg","pricing_plan_id":"cebpf4jnsgd1na2vs0mg"},{"bike_id":"94bb4b42-765a-4dcc-84e5-1e56175a727a","system_id":"levelo_inurba_marseille","lat":43.33793,"lon":5.37428,"is_reserved":false,"is_disabled":false,"rental_uris":{"android":"levelo://app?vid=94bb4b42-765a-4dcc-84e5-1e56175a727a","ios":"levelo://app?vid=94bb4b42-765a-4dcc-84e5-1e56175a727a"},"vehicle_type_id":"4","last_reported":1741277536,"current_range_meters":19600,"station_id":"","pricing_plan_id":"cebpf4jnsgd1na2vs0mg"},{"bike_id":"b37d6e9f-2b77-42d8-8a3c-c3df6863002a","system_id":"levelo_inurba_marseille","lat":43.24398,"lon":5.37064,"is_reserved":false,"is_disabled":false,"rental_uris":{"android":"levelo://app?vid=b37d6e9f-2b77-42d8-8a3c-c3df6863002a","ios":"levelo://app?vid=b37d6e9f-2b77-42d8-8a3c-c3df6863002a"},"vehicle_type_id":"4","last_reported":1741277536,"current_range_meters":19600,"station_id":"ce4bhhh2rcd13ifvqfk0","pricing_plan_id":"cebpf4jnsgd1na2vs0mg"},{"bike_id":"72bc97e1-9dab-4760-8968-472134ffffc5","system_id":"levelo_inurba_marseille","lat":43.26194,"lon":5.37451,"is_reserved":false,"is_disabled":false,"rental_uris":{"android":"levelo://app?vid=72bc97e1-9dab-4760-8968-472134ffffc5","ios":"levelo://app?vid=72bc97e1-9dab-4760-8968-472134ffffc5"},"vehicle_type_id":"4","last_reported":1741277536,"current_range_meters":19600,"station_id":"ce4bhgp2rcd13ifvqfc0","pricing_plan_id":"cebpf4jnsgd1na2vs0mg"},{"bike_id":"1f934958-07de-4732-8413-364976a8d9eb","system_id":"levelo_inurba_marseille","lat":43.29536,"lon":5.39023,"is_reserved":false,"is_disabled":false,"rental_uris":{"android":"levelo://app?vid=1f934958-07de-4732-8413-364976a8d9eb","ios":"levelo://app?vid=1f934958-07de-4732-8413-364976a8d9eb"},"vehicle_type_id":"4","last_reported":1741277536,"current_range_meters":20000,"station_id":"ce4bh3p2rcd13ifvqdp0","pricing_plan_id":"cebpf4jnsgd1na2vs0mg"},{"bike_id":"bf3cfc08-4e30-476a-84d6-0e60f923d8d5","system_id":"levelo_inurba_marseille","lat":43.31127,"lon":5.37766,"is_reserved":false,"is_disabled":false,"rental_uris":{"android":"levelo://app?vid=bf3cfc08-4e30-476a-84d6-0e60f923d8d5","ios":"levelo://app?vid=bf3cfc08-4e30-476a-84d6-0e60f923d8d5"},"vehicle_type_id":"4","last_reported":1741277536,"current_range_meters":20000,"station_id":"ce4bgt92rcd13ifvqcg0","pricing_plan_id":"cebpf4jnsgd1na2vs0mg"},{"bike_id":"6a8a51f8-8c20-4638-ab22-4c359ebab299","system_id":"levelo_inurba_marseille","lat":43.3045,"lon":5.38907,"is_reserved":false,"is_disabled":false,"rental_uris":{"android":"levelo://app?vid=6a8a51f8-8c20-4638-ab22-4c359ebab299","ios":"levelo://app?vid=6a8a51f8-8c20-4638-ab22-4c359ebab299"},"vehicle_type_id":"4","last_reported":1741277536,"current_range_meters":20000,"station_id":"ce4bgk12rcd13ifvqbi0","pricing_plan_id":"cebpf4jnsgd1na2vs0mg"},{"bike_id":"f6476c21-f85c-43c4-bf5c-c819cd2287bb","system_id":"levelo_inurba_marseille","lat":43.28431,"lon":5.34987,"is_reserved":false,"is_disabled":false,"rental_uris":{"android":"levelo://app?vid=f6476c21-f85c-43c4-bf5c-c819cd2287bb","ios":"levelo://app?vid=f6476c21-f85c-43c4-bf5c-c819cd2287bb"},"vehicle_type_id":"4","last_reported":1741277536,"current_range_meters":20000,"station_id":"ce4bhbh2rcd13ifvqepg","pricing_plan_id":"cebpf4jnsgd1na2vs0mg"},{"bike_id":"4a87e6db-055b-4888-a6d1-f398ef44023e","system_id":"levelo_inurba_marseille","lat":43.28398,"lon":5.37514,"is_reserved":false,"is_disabled":false,"rental_uris":{"android":"levelo://app?vid=4a87e6db-055b-4888-a6d1-f398ef44023e","ios":"levelo://app?vid=4a87e6db-055b-4888-a6d1-f398ef44023e"},"vehicle_type_id":"4","last_reported":1741277536,"current_range_meters":20000,"station_id":"ce4bh412rcd13ifvqds0","pricing_plan_id":"cebpf4jnsgd1na2vs0mg"},{"bike_id":"2cbc3187-229b-47d4-8e94-fe66879e11cf","system_id":"levelo_inurba_marseille","lat":43.25,"lon":5.38921,"is_reserved":false,"is_disabled":false,"rental_uris":{"android":"levelo://app?vid=2cbc3187-229b-47d4-8e94-fe66879e11cf","ios":"levelo://app?vid=2cbc3187-229b-47d4-8e94-fe66879e11cf"},"vehicle_type_id":"4","last_reported":1741277536,"current_range_meters":20000,"station_id":"ce4bhgp2rcd13ifvqfd0","pricing_plan_id":"cebpf4jnsgd1na2vs0mg"},{"bike_id":"2f214610-8c86-4c13-b4a2-71c69a8ac509","system_id":"levelo_inurba_marseille","lat":43.23182,"lon":5.39984,"is_reserved":false,"is_disabled":false,"rental_uris":{"android":"levelo://app?vid=2f214610-8c86-4c13-b4a2-71c69a8ac509","ios":"levelo://app?vid=2f214610-8c86-4c13-b4a2-71c69a8ac509"},"vehicle_type_id":"4","last_reported":1741277536,"current_range_meters":20000,"station_id":"ce4bhn12rcd13ifvqgqg","pricing_plan_id":"cebpf4jnsgd1na2vs0mg"},{"bike_id":"f51df5b4-21a0-4605-84eb-b64d8d5055ee","system_id":"levelo_inurba_marseille","lat":43.3211,"lon":5.36775,"is_reserved":false,"is_disabled":false,"rental_uris":{"android":"levelo://app?vid=f51df5b4-21a0-4605-84eb-b64d8d5055ee","ios":"levelo://app?vid=f51df5b4-21a0-4605-84eb-b64d8d5055ee"},"vehicle_type_id":"4","last_reported":1741277536,"current_range_meters":20000,"station_id":"ce4bhrh2rcd13ifvqhug","pricing_plan_id":"cebpf4jnsgd1na2vs0mg"},{"bike_id":"bd663619-de96-4a8c-8c6b-d3d4f4783383","system_id":"levelo_inurba_marseille","lat":43.26807,"lon":5.40263,"is_reserved":false,"is_disabled":false,"rental_uris":{"android":"levelo://app?vid=bd663619-de96-4a8c-8c6b-d3d4f4783383","ios":"levelo://app?vid=bd663619-de96-4a8c-8c6b-d3d4f4783383"},"vehicle_type_id":"4","last_reported":1741277536,"current_range_meters":20000,"station_id":"ce501612rcd8frsf0b60","pricing_plan_id":"cebpf4jnsgd1na2vs0mg"},{"bike_id":"1e818649-c59f-4b21-894e-2685c0f36f8d","system_id":"levelo_inurba_marseille","lat":43.30882,"lon":5.39653,"is_reserved":false,"is_disabled":false,"rental_uris":{"android":"levelo://app?vid=1e818649-c59f-4b21-894e-2685c0f36f8d","ios":"levelo://app?vid=1e818649-c59f-4b21-894e-2685c0f36f8d"},"vehicle_type_id":"4","last_reported":1741277536,"current_range_meters":20000,"station_id":"ce4bh012rcd13ifvqcv0","pricing_plan_id":"cebpf4jnsgd1na2vs0mg"},{"bike_id":"21cc19e5-ba62-421e-a849-ad2e2dec6dd6","system_id":"levelo_inurba_marseille","lat":43.2893,"lon":5.38391,"is_reserved":false,"is_disabled":false,"rental_uris":{"android":"levelo://app?vid=21cc19e5-ba62-421e-a849-ad2e2dec6dd6","ios":"levelo://app?vid=21cc19e5-ba62-421e-a849-ad2e2dec6dd6"},"vehicle_type_id":"4","last_reported":1741277536,"current_range_meters":20000,"station_id":"ce4bh612rcd13ifvqe6g","pricing_plan_id":"cebpf4jnsgd1na2vs0mg"},{"bike_id":"8211b57e-cdfe-4e79-ae3e-efbc6df9bd01","system_id":"levelo_inurba_marseille","lat":43.28619,"lon":5.35103,"is_reserved":false,"is_disabled":false,"rental_uris":{"android":"levelo://app?vid=8211b57e-cdfe-4e79-ae3e-efbc6df9bd01","ios":"levelo://app?vid=8211b57e-cdfe-4e79-ae3e-efbc6df9bd01"},"vehicle_type_id":"4","last_reported":1741277536,"current_range_meters":20400,"station_id":"ce4bhch2rcd13ifvqeug","pricing_plan_id":"cebpf4jnsgd1na2vs0mg"},{"bike_id":"5dc1523c-d8f4-4079-89fb-0c3374723061","system_id":"levelo_inurba_marseille","lat":43.24176,"lon":5.3972,"is_reserved":false,"is_disabled":false,"rental_uris":{"android":"levelo://app?vid=5dc1523c-d8f4-4079-89fb-0c3374723061","ios":"levelo://app?vid=5dc1523c-d8f4-4079-89fb-0c3374723061"},"vehicle_type_id":"4","last_reported":1741277536,"current_range_meters":20400,"station_id":"ce4bhn12rcd13ifvqgpg","pricing_plan_id":"cebpf4jnsgd1na2vs0mg"},{"bike_id":"230a7eb3-c69b-42a2-a490-9d1e0f68e229","system_id":"levelo_inurba_marseille","lat":43.29306,"lon":5.37175,"is_reserved":false,"is_disabled":false,"rental_uris":{"android":"levelo://app?vid=230a7eb3-c69b-42a2-a490-9d1e0f68e229","ios":"levelo://app?vid=230a7eb3-c69b-42a2-a490-9d1e0f68e229"},"vehicle_type_id":"4","last_reported":1741277536,"current_range_meters":20400,"station_id":"ce4bgh92rcd13ifvqb40","pricing_plan_id":"cebpf4jnsgd1na2vs0mg"},{"bike_id":"b6f5bd9e-0551-43ec-8391-a17a881382ef","system_id":"levelo_inurba_marseille","lat":43.31138,"lon":5.38684,"is_reserved":false,"is_disabled":false,"rental_uris":{"android":"levelo://app?vid=b6f5bd9e-0551-43ec-8391-a17a881382ef","ios":"levelo://app?vid=b6f5bd9e-0551-43ec-8391-a17a881382ef"},"vehicle_type_id":"4","last_reported":1741277536,"current_range_meters":20400,"station_id":"","pricing_plan_id":"cebpf4jnsgd1na2vs0mg"},{"bike_id":"1e0f64be-15c5-4142-b4cc-d5d24f751da5","system_id":"levelo_inurba_marseille","lat":43.28094,"lon":5.39677,"is_reserved":false,"is_disabled":false,"rental_uris":{"android":"levelo://app?vid=1e0f64be-15c5-4142-b4cc-d5d24f751da5","ios":"levelo://app?vid=1e0f64be-15c5-4142-b4cc-d5d24f751da5"},"vehicle_type_id":"4","last_reported":1741277536,"current_range_meters":20400,"station_id":"ce4bho12rcd13ifvqh2g","pricing_plan_id":"cebpf4jnsgd1na2vs0mg"},{"bike_id":"5e0331ab-4337-4272-87c3-dda663c6a461","system_id":"levelo_inurba_marseille","lat":43.30787,"lon":5.37637,"is_reserved":false,"is_disabled":false,"rental_uris":{"android":"levelo://app?vid=5e0331ab-4337-4272-87c3-dda663c6a461","ios":"levelo://app?vid=5e0331ab-4337-4272-87c3-dda663c6a461"},"vehicle_type_id":"4","last_reported":1741277536,"current_range_meters":20000,"station_id":"ce4bgv92rcd13ifvqcq0","pricing_plan_id":"cebpf4jnsgd1na2vs0mg"},{"bike_id":"40562c40-cbd6-496d-935e-edcd811d60ca","system_id":"levelo_inurba_marseille","lat":43.30003,"lon":5.37131,"is_reserved":false,"is_disabled":true,"rental_uris":{"android":"levelo://app?vid=40562c40-cbd6-496d-935e-edcd811d60ca","ios":"levelo://app?vid=40562c40-cbd6-496d-935e-edcd811d60ca"},"vehicle_type_id":"4","last_reported":1741277536,"current_range_meters":20400,"station_id":"ce4bgr92rcd13ifvqc7g","pricing_plan_id":"cebpf4jnsgd1na2vs0mg"},{"bike_id":"c8ffc37a-f36b-4206-afe2-a361da30cef2","system_id":"levelo_inurba_marseille","lat":43.29533,"lon":5.38542,"is_reserved":false,"is_disabled":false,"rental_uris":{"android":"levelo://app?vid=c8ffc37a-f36b-4206-afe2-a361da30cef2","ios":"levelo://app?vid=c8ffc37a-f36b-4206-afe2-a361da30cef2"},"vehicle_type_id":"4","last_reported":1741277536,"current_range_meters":20400,"station_id":"ce4bgih2rcd13ifvqba0","pricing_plan_id":"cebpf4jnsgd1na2vs0mg"},{"bike_id":"77ee7625-0bad-4bb5-ad4c-0e177d052153","system_id":"levelo_inurba_marseille","lat":43.31291,"lon":5.36998,"is_reserved":false,"is_disabled":false,"rental_uris":{"android":"levelo://app?vid=77ee7625-0bad-4bb5-ad4c-0e177d052153","ios":"levelo://app?vid=77ee7625-0bad-4bb5-ad4c-0e177d052153"},"vehicle_type_id":"4","last_reported":1741277536,"current_range_meters":20800,"station_id":"","pricing_plan_id":"cebpf4jnsgd1na2vs0mg"},{"bike_id":"345f8d8b-ee3b-4251-831a-6f17e3c67824","system_id":"levelo_inurba_marseille","lat":43.323774,"lon":5.388736,"is_reserved":false,"is_disabled":false,"rental_uris":{"android":"levelo://app?vid=345f8d8b-ee3b-4251-831a-6f17e3c67824","ios":"levelo://app?vid=345f8d8b-ee3b-4251-831a-6f17e3c67824"},"vehicle_type_id":"4","last_reported":1741277536,"current_range_meters":20800,"station_id":"ce4bh192rcd13ifvqdd0","pricing_plan_id":"cebpf4jnsgd1na2vs0mg"},{"bike_id":"52e6262a-e3d3-4a99-b8cc-9679b8bac798","system_id":"levelo_inurba_marseille","lat":43.26209,"lon":5.374395,"is_reserved":false,"is_disabled":false,"rental_uris":{"android":"levelo://app?vid=52e6262a-e3d3-4a99-b8cc-9679b8bac798","ios":"levelo://app?vid=52e6262a-e3d3-4a99-b8cc-9679b8bac798"},"vehicle_type_id":"4","last_reported":1741277536,"current_range_meters":20800,"station_id":"ce4bhgp2rcd13ifvqfc0","pricing_plan_id":"cebpf4jnsgd1na2vs0mg"},{"bike_id":"f93ac2a7-48da-4401-be69-66187c0ee242","system_id":"levelo_inurba_marseille","lat":43.312264,"lon":5.36872,"is_reserved":false,"is_disabled":false,"rental_uris":{"android":"levelo://app?vid=f93ac2a7-48da-4401-be69-66187c0ee242","ios":"levelo://app?vid=f93ac2a7-48da-4401-be69-66187c0ee242"},"vehicle_type_id":"4","last_reported":1741277536,"current_range_meters":20800,"station_id":"ce4bgl92rcd13ifvqbq0","pricing_plan_id":"cebpf4jnsgd1na2vs0mg"},{"bike_id":"b074c098-105a-483f-9325-0896897af1e3","system_id":"levelo_inurba_marseille","lat":43.23196,"lon":5.39966,"is_reserved":false,"is_disabled":false,"rental_uris":{"android":"levelo://app?vid=b074c098-105a-483f-9325-0896897af1e3","ios":"levelo://app?vid=b074c098-105a-483f-9325-0896897af1e3"},"vehicle_type_id":"4","last_reported":1741277536,"current_range_meters":20800,"station_id":"ce4bhn12rcd13ifvqgqg","pricing_plan_id":"cebpf4jnsgd1na2vs0mg"},{"bike_id":"090b8fd8-b974-4044-8aa5-d004f030a0c7","system_id":"levelo_inurba_marseille","lat":43.29261,"lon":5.37623,"is_reserved":false,"is_disabled":false,"rental_uris":{"android":"levelo://app?vid=090b8fd8-b974-4044-8aa5-d004f030a0c7","ios":"levelo://app?vid=090b8fd8-b974-4044-8aa5-d004f030a0c7"},"vehicle_type_id":"4","last_reported":1741277536,"current_range_meters":20800,"station_id":"ce4bgi12rcd13ifvqb80","pricing_plan_id":"cebpf4jnsgd1na2vs0mg"},{"bike_id":"4bcbb800-b116-42a7-8590-4693d1fc913a","system_id":"levelo_inurba_marseille","lat":43.28613,"lon":5.35106,"is_reserved":false,"is_disabled":false,"rental_uris":{"android":"levelo://app?vid=4bcbb800-b116-42a7-8590-4693d1fc913a","ios":"levelo://app?vid=4bcbb800-b116-42a7-8590-4693d1fc913a"},"vehicle_type_id":"4","last_reported":1741277536,"current_range_meters":20800,"station_id":"ce4bhch2rcd13ifvqeug","pricing_plan_id":"cebpf4jnsgd1na2vs0mg"},{"bike_id":"b2c2514d-58df-4080-9acc-0a3325c87525","system_id":"levelo_inurba_marseille","lat":43.32376,"lon":5.36767,"is_reserved":false,"is_disabled":false,"rental_uris":{"android":"levelo://app?vid=b2c2514d-58df-4080-9acc-0a3325c87525","ios":"levelo://app?vid=b2c2514d-58df-4080-9acc-0a3325c87525"},"vehicle_type_id":"4","last_reported":1741277536,"current_range_meters":21600,"station_id":"ce4bhsh2rcd13ifvqi2g","pricing_plan_id":"cebpf4jnsgd1na2vs0mg"},