{"last_updated":1706897356,"ttl":30,"version":"2.2","data":{"bikes":[{"bike_id":"1b13ba75-8eb6-4585-b1a8-76a5e391cc6e","system_id":"levelo_inurba_marseille","lat":43.309076,"lon":5.368465,"is_reserved":false,"is_disabled":false,"rental_uris":{"android":"levelo://app?vid=1b13ba75-8eb6-4585-b1a8-76a5e391cc6e","ios":"levelo://app?vid=1b13ba75-8eb6-4585-b1a8-76a5e391cc6e"},"vehicle_type_id":"4","last_reported":1706897356,"current_range_meters":27600,"station_id":"ce4bgn92rcd13ifvqbvg","pricing_plan_id":"free"},{"bike_id":"8075556e-9c83-4ece-b92f-e5e90a5fd8a2","system_id":"levelo_inurba_marseille","lat":43.31306,"lon":5.37258,"is_reserved":false,"is_disabled":false,"rental_uris":{"android":"levelo://app?vid=8075556e-9c83-4ece-b92f-e5e90a5fd8a2","ios":"levelo://app?vid=8075556e-9c83-4ece-b92f-e5e90a5fd8a2"},"vehicle_type_id":"4","last_reported":1706897356,"current_range_meters":8800,"station_id":"","pricing_plan_id":"free"},{"bike_id":"c84d9401-c4f7-456f-8ce2-9f472c3af105","system_id":"levelo_inurba_marseille","lat":43.309076,"lon":5.368465,"is_reserved":false,"is_disabled":false,"rental_uris":{"android":"levelo://app?vid=c84d9401-c4f7-456f-8ce2-9f472c3af105","ios":"levelo://app?vid=c84d9401-c4f7-456f-8ce2-9f472c3af105"},"vehicle_type_id":"4","last_reported":1706897356,"current_range_meters":6400,"station_id":"ce4bgn92rcd13ifvqbvg","pricing_plan_id":"free"},{"bike_id":"d7f0ad3a-95f8-4294-be63-a45e187ba075","system_id":"levelo_inurba_marseille","lat":43.314811,"lon":5.373103,"is_reserved":false,"is_disabled":false,"rental_uris":{"android":"levelo://app?vid=d7f0ad3a-95f8-4294-be63-a45e187ba075","ios":"levelo://app?vid=d7f0ad3a-95f8-4294-be63-a45e187ba075"},"vehicle_type_id":"4","last_reported":1706897356,"current_range_meters":0,"station_id":"ce4bgt12rcd13ifvqcd0","pricing_plan_id":"free"},{"bike_id":"3bcdd184-7e7b-4d87-a6e9-ce9ed9fb0a30","system_id":"levelo_inurba_marseille","lat":43.314811,"lon":5.373104,"is_reserved":false,"is_disabled":false,"rental_uris":{"android":"levelo://app?vid=3bcdd184-7e7b-4d87-a6e9-ce9ed9fb0a30","ios":"levelo://app?vid=3bcdd184-7e7b-4d87-a6e9-ce9ed9fb0a30"},"vehicle_type_id":"4","last_reported":1706897356,"current_range_meters":1200,"station_id":"ce4bgt12rcd13ifvqcd0","pricing_plan_id":"free"},{"bike_id":"828c2628-31a6-4dbd-9f7b-7ff4f7c2fd11","system_id":"levelo_inurba_marseille","lat":43.309034,"lon":5.371783,"is_reserved":false,"is_disabled":false,"rental_uris":{"android":"levelo://app?vid=828c2628-31a6-4dbd-9f7b-7ff4f7c2fd11","ios":"levelo://app?vid=828c2628-31a6-4dbd-9f7b-7ff4f7c2fd11"},"vehicle_type_id":"4","last_reported":1706897356,"current_range_meters":3600,"station_id":"ce4bguh2rcd13ifvqckg","pricing_plan_id":"free"},{"bike_id":"9c2f3bfd-4bdd-4ccf-9273-993857cc23d3","system_id":"levelo_inurba_marseille","lat":43.30891,"lon":5.37182,"is_reserved":false,"is_disabled":false,"rental_uris":{"android":"levelo://app?vid=9c2f3bfd-4bdd-4ccf-9273-993857cc23d3","ios":"levelo://app?vid=9c2f3bfd-4bdd-4ccf-9273-993857cc23d3"},"vehicle_type_id":"4","last_reported":1706897356,"current_range_meters":3600,"station_id":"ce4bguh2rcd13ifvqckg","pricing_plan_id":"free"},{"bike_id":"4935c2bb-fa9e-412b-9ac1-51d8f5e7ba5e","system_id":"levelo_inurba_marseille","lat":43.30863,"lon":5.37155,"is_reserved":false,"is_disabled":false,"rental_uris":{"android":"levelo://app?vid=4935c2bb-fa9e-412b-9ac1-51d8f5e7ba5e","ios":"levelo://app?vid=4935c2bb-fa9e-412b-9ac1-51d8f5e7ba5e"},"vehicle_type_id":"4","last_reported":1706897356,"current_range_meters":0,"station_id":"","pricing_plan_id":"free"},{"bike_id":"332d1ac0-671e-475b-95d5-85dcaaa755b3","system_id":"levelo_inurba_marseille","lat":43.305567,"lon":5.366969,"is_reserved":false,"is_disabled":false,"rental_uris":{"android":"levelo://app?vid=332d1ac0-671e-475b-95d5-85dcaaa755b3","ios":"levelo://app?vid=332d1ac0-671e-475b-95d5-85dcaaa755b3"},"vehicle_type_id":"4","last_reported":1706897356,"current_range_meters":17200,"station_id":"ce4bgrp2rcd13ifvqc9g","pricing_plan_id":"free"},{"bike_id":"3be74026-f7a4-448d-9422-99de4a9b4335","system_id":"levelo_inurba_marseille","lat":43.305368,"lon":5.367343,"is_reserved":false,"is_disabled":false,"rental_uris":{"android":"levelo://app?vid=3be74026-f7a4-448d-9422-99de4a9b4335","ios":"levelo://app?vid=3be74026-f7a4-448d-9422-99de4a9b4335"},"vehicle_type_id":"4","last_reported":1706897356,"current_range_meters":11200,"station_id":"ce4bgrp2rcd13ifvqc9g","pricing_plan_id":"free"},{"bike_id":"373c2a2e-c05d-40ef-aef0-58901dc0dcea","system_id":"levelo_inurba_marseille","lat":43.305368,"lon":5.367343,"is_reserved":false,"is_disabled":false,"rental_uris":{"android":"levelo://app?vid=373c2a2e-c05d-40ef-aef0-58901dc0dcea","ios":"levelo://app?vid=373c2a2e-c05d-40ef-aef0-58901dc0dcea"},"vehicle_type_id":"4","last_reported":1706897356,"current_range_meters":400,"station_id":"ce4bgrp2rcd13ifvqc9g","pricing_plan_id":"free"},{"bike_id":"8989ab9c-318b-4cde-b7a6-161588fd18b8","system_id":"levelo_inurba_marseille","lat":43.305706,"lon":5.365654,"is_reserved":false,"is_disabled":false,"rental_uris":{"android":"levelo://app?vid=8989ab9c-318b-4cde-b7a6-161588fd18b8","ios":"levelo://app?vid=8989ab9c-318b-4cde-b7a6-161588fd18b8"},"vehicle_type_id":"4","last_reported":1706897356,"current_range_meters":0,"station_id":"ce4bgs12rcd13ifvqcag","pricing_plan_id":"free"},{"bike_id":"c1f39c28-f6e0-402d-b0ce-cc4cbafeb154","system_id":"levelo_inurba_marseille","lat":43.305989,"lon":5.37225,"is_reserved":false,"is_disabled":false,"rental_uris":{"android":"levelo://app?vid=c1f39c28-f6e0-402d-b0ce-cc4cbafeb154","ios":"levelo://app?vid=c1f39c28-f6e0-402d-b0ce-cc4cbafeb154"},"vehicle_type_id":"4","last_reported":1706897356,"current_range_meters":5600,"station_id":"ce4bgqh2rcd13ifvqc4g","pricing_plan_id":"free"},{"bike_id":"aff4fd98-ba75-45c6-ba05-720c9edbed0a","system_id":"levelo_inurba_marseille","lat":43.305989,"lon":5.37225,"is_reserved":false,"is_disabled":false,"rental_uris":{"android":"levelo://app?vid=aff4fd98-ba75-45c6-ba05-720c9edbed0a","ios":"levelo://app?vid=aff4fd98-ba75-45c6-ba05-720c9edbed0a"},"vehicle_type_id":"4","last_reported":1706897356,"current_range_meters":18400,"station_id":"ce4bgqh2rcd13ifvqc4g","pricing_plan_id":"free"},{"bike_id":"a23cbf0f-d069-4fcd-a89f-d5586c72f90b","system_id":"levelo_inurba_marseille","lat":43.305989,"lon":5.37225,"is_reserved":false,"is_disabled":false,"rental_uris":{"android":"levelo://app?vid=a23cbf0f-d069-4fcd-a89f-d5586c72f90b","ios":"levelo://app?vid=a23cbf0f-d069-4fcd-a89f-d5586c72f90b"},"vehicle_type_id":"4","last_reported":1706897356,"current_range_meters":0,"station_id":"ce4bgqh2rcd13ifvqc4g","pricing_plan_id":"free"},{"bike_id":"8af28190-3c83-4b33-84cb-456152a7d456","system_id":"levelo_inurba_marseille","lat":43.3059,"lon":5.37244,"is_reserved":false,"is_disabled":false,"rental_uris":{"android":"levelo://app?vid=8af28190-3c83-4b33-84cb-456152a7d456","ios":"levelo://app?vid=8af28190-3c83-4b33-84cb-456152a7d456"},"vehicle_type_id":"4","last_reported":1706897356,"current_range_meters":8400,"station_id":"","pricing_plan_id":"free"},{"bike_id":"36c30efb-afd8-4b89-8e3a-e493e0220a39","system_id":"levelo_inurba_marseille","lat":43.305989,"lon":5.37225,"is_reserved":false,"is_disabled":false,"rental_uris":{"android":"levelo://app?vid=36c30efb-afd8-4b89-8e3a-e493e0220a39","ios":"levelo://app?vid=36c30efb-afd8-4b89-8e3a-e493e0220a39"},"vehicle_type_id":"4","last_reported":1706897356,"current_range_meters":1600,"station_id":"ce4bgqh2rcd13ifvqc4g","pricing_plan_id":"free"},{"bike_id":"c8a23292-7574-4195-bd50-f65f59d66a53","system_id":"levelo_inurba_marseille","lat":43.3111,"lon":5.377645,"is_reserved":false,"is_disabled":false,"rental_uris":{"android":"levelo://app?vid=c8a23292-7574-4195-bd50-f65f59d66a53","ios":"levelo://app?vid=c8a23292-7574-4195-bd50-f65f59d66a53"},"vehicle_type_id":"4","last_reported":1706897356,"current_range_meters":0,"station_id":"ce4bgt92rcd13ifvqcg0","pricing_plan_id":"free"},{"bike_id":"7619253a-8e05-459c-8770-596c9599a3c7","system_id":"levelo_inurba_marseille","lat":43.311131,"lon":5.377651,"is_reserved":false,"is_disabled":false,"rental_uris":{"android":"levelo://app?vid=7619253a-8e05-459c-8770-596c9599a3c7","ios":"levelo://app?vid=7619253a-8e05-459c-8770-596c9599a3c7"},"vehicle_type_id":"4","last_reported":1706897356,"current_range_meters":12800,"station_id":"ce4bgt92rcd13ifvqcg0","pricing_plan_id":"free"},{"bike_id":"49b528ef-6bf1-4055-a951-09f3d56c9e37","system_id":"levelo_inurba_marseille","lat":43.311131,"lon":5.377651,"is_reserved":false,"is_disabled":false,"rental_uris":{"android":"levelo://app?vid=49b528ef-6bf1-4055-a951-09f3d56c9e37","ios":"levelo://app?vid=49b528ef-6bf1-4055-a951-09f3d56c9e37"},"vehicle_type_id":"4","last_reported":1706897356,"current_range_meters":0,"station_id":"ce4bgt92rcd13ifvqcg0","pricing_plan_id":"free"},{"bike_id":"0f833ad1-607f-417a-a09f-4998cd54a18f","system_id":"levelo_inurba_marseille","lat":43.317075,"lon":5.377367,"is_reserved":false,"is_disabled":false,"rental_uris":{"android":"levelo://app?vid=0f833ad1-607f-417a-a09f-4998cd54a18f","ios":"levelo://app?vid=0f833ad1-607f-417a-a09f-4998cd54a18f"},"vehicle_type_id":"4","last_reported":1706897356,"current_range_meters":0,"station_id":"ce4bgth2rcd13ifvqch0","pricing_plan_id":"free"},{"bike_id":"dba8a457-b91c-4757-8021-ae2e7939072d","system_id":"levelo_inurba_marseille","lat":43.30785,"lon":5.37655,"is_reserved":false,"is_disabled":false,"rental_uris":{"android":"levelo://app?vid=dba8a457-b91c-4757-8021-ae2e7939072d","ios":"levelo://app?vid=dba8a457-b91c-4757-8021-ae2e7939072d"},"vehicle_type_id":"4","last_reported":1706897356,"current_range_meters":16000,"station_id":"ce4bgv92rcd13ifvqcq0","pricing_plan_id":"free"},{"bike_id":"a71113cb-78c0-457c-a86a-8f4bc6822fe3","system_id":"levelo_inurba_marseille","lat":43.317075,"lon":5.377367,"is_reserved":false,"is_disabled":false,"rental_uris":{"android":"levelo://app?vid=a71113cb-78c0-457c-a86a-8f4bc6822fe3","ios":"levelo://app?vid=a71113cb-78c0-457c-a86a-8f4bc6822fe3"},"vehicle_type_id":"4","last_reported":1706897356,"current_range_meters":0,"station_id":"ce4bgth2rcd13ifvqch0","pricing_plan_id":"free"},{"bike_id":"2903f219-2a57-4958-bb20-79c422faf981","system_id":"levelo_inurba_marseille","lat":43.317075,"lon":5.377367,"is_reserved":false,"is_disabled":false,"rental_uris":{"android":"levelo://app?vid=2903f219-2a57-4958-bb20-79c422faf981","ios":"levelo://app?vid=2903f219-2a57-4958-bb20-79c422faf981"},"vehicle_type_id":"4","last_reported":1706897356,"current_range_meters":27600,"station_id":"ce4bgth2rcd13ifvqch0","pricing_plan_id":"free"},{"bike_id":"a94bde46-42ed-49d8-bf89-8de1b2b7f499","system_id":"levelo_inurba_marseille","lat":43.317075,"lon":5.377367,"is_reserved":false,"is_disabled":false,"rental_uris":{"android":"levelo://app?vid=a94bde46-42ed-49d8-bf89-8de1b2b7f499","ios":"levelo://app?vid=a94bde46-42ed-49d8-bf89-8de1b2b7f499"},"vehicle_type_id":"4","last_reported":1706897356,"current_range_meters":4000,"station_id":"ce4bgth2rcd13ifvqch0","pricing_plan_id":"free"},{"bike_id":"eca4bc68-2201-4590-84c0-9934a8eaac8f","system_id":"levelo_inurba_marseille","lat":43.317075,"lon":5.377367,"is_reserved":false,"is_disabled":false,"rental_uris":{"android":"levelo://app?vid=eca4bc68-2201-4590-84c0-9934a8eaac8f","ios":"levelo://app?vid=eca4bc68-2201-4590-84c0-9934a8eaac8f"},"vehicle_type_id":"4","last_reported":1706897356,"current_range_meters":2400,"station_id":"ce4bgth2rcd13ifvqch0","pricing_plan_id":"free"},{"bike_id":"fecb14f6-59b5-4d52-99dd-80c6a67fedd3","system_id":"levelo_inurba_marseille","lat":43.317075,"lon":5.377367,"is_reserved":false,"is_disabled":false,"rental_uris":{"android":"levelo://app?vid=fecb14f6-59b5-4d52-99dd-80c6a67fedd3","ios":"levelo://app?vid=fecb14f6-59b5-4d52-99dd-80c6a67fedd3"},"vehicle_type_id":"4","last_reported":1706897356,"current_range_meters":25600,"station_id":"ce4bgth2rcd13ifvqch0","pricing_plan_id":"free"},{"bike_id":"63565569-7503-4d4b-8aac-bfc64cff8b2d","system_id":"levelo_inurba_marseille","lat":43.317075,"lon":5.377367,"is_reserved":false,"is_disabled":false,"rental_uris":{"android":"levelo://app?vid=63565569-7503-4d4b-8aac-bfc64cff8b2d","ios":"levelo://app?vid=63565569-7503-4d4b-8aac-bfc64cff8b2d"},"vehicle_type_id":"4","last_reported":1706897356,"current_range_meters":10000,"station_id":"ce4bgth2rcd13ifvqch0","pricing_plan_id":"free"},{"bike_id":"8b1f8d5c-de88-4237-bd77-fd5a9620e61a","system_id":"levelo_inurba_marseille","lat":43.301939,"lon":5.366286,"is_reserved":false,"is_disabled":false,"rental_uris":{"android":"levelo://app?vid=8b1f8d5c-de88-4237-bd77-fd5a9620e61a","ios":"levelo://app?vid=8b1f8d5c-de88-4237-bd77-fd5a9620e61a"},"vehicle_type_id":"4","last_reported":1706897356,"current_range_meters":20400,"station_id":"ce4bgrh2rcd13ifvqc8g","pricing_plan_id":"free"},{"bike_id":"90b12383-7b2a-42a6-a157-ebfb9820a79a","system_id":"levelo_inurba_marseille","lat":43.301939,"lon":5.366286,"is_reserved":false,"is_disabled":false,"rental_uris":{"android":"levelo://app?vid=90b12383-7b2a-42a6-a157-ebfb9820a79a","ios":"levelo://app?vid=90b12383-7b2a-42a6-a157-ebfb9820a79a"},"vehicle_type_id":"4","last_reported":1706897356,"current_range_meters":7600,"station_id":"ce4bgrh2rcd13ifvqc8g","pricing_plan_id":"free"},{"bike_id":"11c65d0e-c552-4956-b0e1-c25d7e2de4c3","system_id":"levelo_inurba_marseille","lat":43.30192,"lon":5.36616,"is_reserved":false,"is_disabled":false,"rental_uris":{"android":"levelo://app?vid=11c65d0e-c552-4956-b0e1-c25d7e2de4c3","ios":"levelo://app?vid=11c65d0e-c552-4956-b0e1-c25d7e2de4c3"},"vehicle_type_id":"4","last_reported":1706897356,"current_range_meters":6400,"station_id":"ce4bgrh2rcd13ifvqc8g","pricing_plan_id":"free"},{"bike_id":"05fd0505-2e02-4e94-b51b-b00ec328dc5b","system_id":"levelo_inurba_marseille","lat":43.301939,"lon":5.366286,"is_reserved":false,"is_disabled":false,"rental_uris":{"android":"levelo://app?vid=05fd0505-2e02-4e94-b51b-b00ec328dc5b","ios":"levelo://app?vid=05fd0505-2e02-4e94-b51b-b00ec328dc5b"},"vehicle_type_id":"4","last_reported":1706897356,"current_range_meters":8000,"station_id":"ce4bgrh2rcd13ifvqc8g","pricing_plan_id":"free"},{"bike_id":"3eedf519-019d-4ccd-bc3e-adc51b76e496","system_id":"levelo_inurba_marseille","lat":43.304606,"lon":5.379026,"is_reserved":false,"is_disabled":false,"rental_uris":{"android":"levelo://app?vid=3eedf519-019d-4ccd-bc3e-adc51b76e496","ios":"levelo://app?vid=3eedf519-019d-4ccd-bc3e-adc51b76e496"},"vehicle_type_id":"4","last_reported":1706897356,"current_range_meters":0,"station_id":"ce4bgup2rcd13ifvqcn0","pricing_plan_id":"free"},{"bike_id":"a94c6bf4-d8c7-4043-a1b4-c8fae198703f","system_id":"levelo_inurba_marseille","lat":43.304606,"lon":5.379026,"is_reserved":false,"is_disabled":false,"rental_uris":{"android":"levelo://app?vid=a94c6bf4-d8c7-4043-a1b4-c8fae198703f","ios":"levelo://app?vid=a94c6bf4-d8c7-4043-a1b4-c8fae198703f"},"vehicle_type_id":"4","last_reported":1706897356,"current_range_meters":400,"station_id":"ce4bgup2rcd13ifvqcn0","pricing_plan_id":"free"},{"bike_id":"561d44c4-90a0-448c-bcb0-dade4cb395b2","system_id":"levelo_inurba_marseille","lat":43.304606,"lon":5.379026,"is_reserved":false,"is_disabled":false,"rental_uris":{"android":"levelo://app?vid=561d44c4-90a0-448c-bcb0-dade4cb395b2","ios":"levelo://app?vid=561d44c4-90a0-448c-bcb0-dade4cb395b2"},"vehicle_type_id":"4","last_reported":1706897356,"current_range_meters":0,"station_id":"ce4bgup2rcd13ifvqcn0","pricing_plan_id":"free"},{"bike_id":"91325535-5ae9-429a-8788-2aaa8c2a5390","system_id":"levelo_inurba_marseille","lat":43.304606,"lon":5.379026,"is_reserved":false,"is_disabled":false,"rental_uris":{"android":"levelo://app?vid=91325535-5ae9-429a-8788-2aaa8c2a5390","ios":"levelo://app?vid=91325535-5ae9-429a-8788-2aaa8c2a5390"},"vehicle_type_id":"4","last_reported":1706897356,"current_range_meters":0,"station_id":"ce4bgup2rcd13ifvqcn0","pricing_plan_id":"free"},{"bike_id":"6488ad89-300f-43e4-8698-0c99147aa1b9","system_id":"levelo_inurba_marseille","lat":43.304606,"lon":5.379026,"is_reserved":false,"is_disabled":false,"rental_uris":{"android":"levelo://app?vid=6488ad89-300f-43e4-8698-0c99147aa1b9","ios":"levelo://app?vid=6488ad89-300f-43e4-8698-0c99147aa1b9"},"vehicle_type_id":"4","last_reported":1706897356,"current_range_meters":12800,"station_id":"ce4bgup2rcd13ifvqcn0","pricing_plan_id":"free"},{"bike_id":"cbda4845-c84b-4f1d-a103-73e6257fa989","system_id":"levelo_inurba_marseille","lat":43.3046,"lon":5.37898,"is_reserved":false,"is_disabled":false,"rental_uris":{"android":"levelo://app?vid=cbda4845-c84b-4f1d-a103-73e6257fa989","ios":"levelo://app?vid=cbda4845-c84b-4f1d-a103-73e6257fa989"},"vehicle_type_id":"4","last_reported":1706897356,"current_range_meters":0,"station_id":"ce4bgup2rcd13ifvqcn0","pricing_plan_id":"free"},{"bike_id":"6e18cb80-e348-4c15-ab14-c3f09fbd6360","system_id":"levelo_inurba_marseille","lat":43.310804,"lon":5.38359,"is_reserved":false,"is_disabled":false,"rental_uris":{"android":"levelo://app?vid=6e18cb80-e348-4c15-ab14-c3f09fbd6360","ios":"levelo://app?vid=6e18cb80-e348-4c15-ab14-c3f09fbd6360"},"vehicle_type_id":"4","last_reported":1706897356,"current_range_meters":23600,"station_id":"ce4bgv92rcd13ifvqcr0","pricing_plan_id":"free"},{"bike_id":"89477423-b9e8-49c8-8d78-04c9b090cb74","system_id":"levelo_inurba_marseille","lat":43.310804,"lon":5.38359,"is_reserved":false,"is_disabled":false,"rental_uris":{"android":"levelo://app?vid=89477423-b9e8-49c8-8d78-04c9b090cb74","ios":"levelo://app?vid=89477423-b9e8-49c8-8d78-04c9b090cb74"},"vehicle_type_id":"4","last_reported":1706897356,"current_range_meters":15200,"station_id":"ce4bgv92rcd13ifvqcr0","pricing_plan_id":"free"},{"bike_id":"d6c6117f-570d-4943-9f4e-85244eb92b89","system_id":"levelo_inurba_marseille","lat":43.31987,"lon":5.3815,"is_reserved":false,"is_disabled":false,"rental_uris":{"android":"levelo://app?vid=d6c6117f-570d-4943-9f4e-85244eb92b89","ios":"levelo://app?vid=d6c6117f-570d-4943-9f4e-85244eb92b89"},"vehicle_type_id":"4","last_reported":1706897356,"current_range_meters":12400,"station_id":"ce4bhr12rcd13ifvqhpg","pricing_plan_id":"free"},{"bike_id":"106a407c-36e6-462b-9265-604bd28d927b","system_id":"levelo_inurba_marseille","lat":43.319935,"lon":5.381699,"is_reserved":false,"is_disabled":false,"rental_uris":{"android":"levelo://app?vid=106a407c-36e6-462b-9265-604bd28d927b","ios":"levelo://app?vid=106a407c-36e6-462b-9265-604bd28d927b"},"vehicle_type_id":"4","last_reported":1706897356,"current_range_meters":15200,"station_id":"ce4bhr12rcd13ifvqhpg","pricing_plan_id":"free"},{"bike_id":"e6b97678-ff4b-4939-b378-896bb5fe55dd","system_id":"levelo_inurba_marseille","lat":43.31362,"lon":5.38501,"is_reserved":false,"is_disabled":false,"rental_uris":{"android":"levelo://app?vid=e6b97678-ff4b-4939-b378-896bb5fe55dd","ios":"levelo://app?vid=e6b97678-ff4b-4939-b378-896bb5fe55dd"},"vehicle_type_id":"4","last_reported":1706897356,"current_range_meters":4400,"station_id":"ce4bgt92rcd13ifvqcf0","pricing_plan_id":"free"},{"bike_id":"348f120a-ba98-4411-a9ec-68c7775b3b29","system_id":"levelo_inurba_marseille","lat":43.29935,"lon":5.36562,"is_reserved":false,"is_disabled":false,"rental_uris":{"android":"levelo://app?vid=348f120a-ba98-4411-a9ec-68c7775b3b29","ios":"levelo://app?vid=348f120a-ba98-4411-a9ec-68c7775b3b29"},"vehicle_type_id":"4","last_reported":1706897356,"current_range_meters":0,"station_id":"ce4bgm92rcd13ifvqbr0","pricing_plan_id":"free"},{"bike_id":"0b545af6-92be-473d-8fcd-4e17bf8df435","system_id":"levelo_inurba_marseille","lat":43.299222,"lon":5.365554,"is_reserved":false,"is_disabled":false,"rental_uris":{"android":"levelo://app?vid=0b545af6-92be-473d-8fcd-4e17bf8df435","ios":"levelo://app?vid=0b545af6-92be-473d-8fcd-4e17bf8df435"},"vehicle_type_id":"4","last_reported":1706897356,"current_range_meters":8800,"station_id":"ce4bgm92rcd13ifvqbr0","pricing_plan_id":"free"},{"bike_id":"9b99ece1-af07-4267-a5f7-b2c75dde2d93","system_id":"levelo_inurba_marseille","lat":43.32607,"lon":5.37449,"is_reserved":false,"is_disabled":false,"rental_uris":{"android":"levelo://app?vid=9b99ece1-af07-4267-a5f7-b2c75dde2d93","ios":"levelo://app?vid=9b99ece1-af07-4267-a5f7-b2c75dde2d93"},"vehicle_type_id":"4","last_reported":1706897356,"current_range_meters":29200,"station_id":"","pricing_plan_id":"free"},{"bike_id":"a291e153-b18f-42fb-8abf-86c36f8f027c","system_id":"levelo_inurba_marseille","lat":43.32625,"lon":5.37452,"is_reserved":false,"is_disabled":false,"rental_uris":{"android":"levelo://app?vid=a291e153-b18f-42fb-8abf-86c36f8f027c","ios":"levelo://app?vid=a291e153-b18f-42fb-8abf-86c36f8f027c"},"vehicle_type_id":"4","last_reported":1706897356,"current_range_meters":31200,"station_id":"","pricing_plan_id":"free"},{"bike_id":"9fe0f38d-623a-43db-80fb-0c11833c0ac1","system_id":"levelo_inurba_marseille","lat":43.298433,"lon":5.362774,"is_reserved":false,"is_disabled":false,"rental_uris":{"android":"levelo://app?vid=9fe0f38d-623a-43db-80fb-0c11833c0ac1","ios":"levelo://app?vid=9fe0f38d-623a-43db-80fb-0c11833c0ac1"},"vehicle_type_id":"4","last_reported":1706897356,"current_range_meters":0,"station_id":"ce4bgpp2rcd13ifvqc3g","pricing_plan_id":"free"},{"bike_id":"2e6088aa-6fab-43b7-85f3-93a79c6bd05e","system_id":"levelo_inurba_marseille","lat":43.311722,"lon":5.387247,"is_reserved":false,"is_disabled":false,"rental_uris":{"android":"levelo://app?vid=2e6088aa-6fab-43b7-85f3-93a79c6bd05e","ios":"levelo://app?vid=2e6088aa-6fab-43b7-85f3-93a79c6bd05e"},"vehicle_type_id":"4","last_reported":1706897356,"current_range_meters":23200,"station_id":"ce4bgv12rcd13ifvqcp0","pricing_plan_id":"free"},{"bike_id":"751f4492-aeb9-48e0-b212-e1a6eced17ed","system_id":"levelo_inurba_marseille","lat":43.31169,"lon":5.38716,"is_reserved":false,"is_disabled":false,"rental_uris":{"android":"levelo://app?vid=751f4492-aeb9-48e0-b212-e1a6eced17ed","ios":"levelo://app?vid=751f4492-aeb9-48e0-b212-e1a6eced17ed"},"vehicle_type_id":"4","last_reported":1706897356,"current_range_meters":12400,"station_id":"ce4bgv12rcd13ifvqcp0","pricing_plan_id":"free"},{"bike_id":"fa932f8f-fcac-420c-8595-9eaed6f9528b","system_id":"levelo_inurba_marseille","lat":43.311722,"lon":5.387247,"is_reserved":false,"is_disabled":false,"rental_uris":{"android":"levelo://app?vid=fa932f8f-fcac-420c-8595-9eaed6f9528b","ios":"levelo://app?vid=fa932f8f-fcac-420c-8595-9eaed6f9528b"},"vehicle_type_id":"4","last_reported":1706897356,"current_range_meters":16000,"station_id":"ce4bgv12rcd13ifvqcp0","pricing_plan_id":"free"},{"bike_id":"8f074824-d66f-4336-97ba-5ba3d36b9c10","system_id":"levelo_inurba_marseille","lat":43.297794,"lon":5.370888,"is_reserved":false,"is_disabled":false,"rental_uris":{"android":"levelo://app?vid=8f074824-d66f-4336-97ba-5ba3d36b9c10","ios":"levelo://app?vid=8f074824-d66f-4336-97ba-5ba3d36b9c10"},"vehicle_type_id":"4","last_reported":1706897356,"current_range_meters":22400,"station_id":"ce4bgop2rcd13ifvqc1g","pricing_plan_id":"free"},{"bike_id":"65cdfc14-d57a-452e-8dc5-c02b0bdb56dd","system_id":"levelo_inurba_marseille","lat":43.322872,"lon":5.382756,"is_reserved":false,"is_disabled":false,"rental_uris":{"android":"levelo://app?vid=65cdfc14-d57a-452e-8dc5-c02b0bdb56dd","ios":"levelo://app?vid=65cdfc14-d57a-452e-8dc5-c02b0bdb56dd"},"vehicle_type_id":"4","last_reported":1706897356,"current_range_meters":30000,"station_id":"ce4bhr12rcd13ifvqhqg","pricing_plan_id":"free"},{"bike_id":"b5d7b2cb-266e-4133-b32f-f491e5a88e3f","system_id":"levelo_inurba_marseille","lat":43.322872,"lon":5.382756,"is_reserved":false,"is_disabled":false,"rental_uris":{"android":"levelo://app?vid=b5d7b2cb-266e-4133-b32f-f491e5a88e3f","ios":"levelo://app?vid=b5d7b2cb-266e-4133-b32f-f491e5a88e3f"},"vehicle_type_id":"4","last_reported":1706897356,"current_range_meters":15600,"station_id":"ce4bhr12rcd13ifvqhqg","pricing_plan_id":"free"},{"bike_id":"bde7abc7-a189-40fe-8be3-229230a2a20f","system_id":"levelo_inurba_marseille","lat":43.322872,"lon":5.382756,"is_reserved":false,"is_disabled":false,"rental_uris":{"android":"levelo://app?vid=bde7abc7-a189-40fe-8be3-229230a2a20f","ios":"levelo://app?vid=bde7abc7-a189-40fe-8be3-229230a2a20f"},"vehicle_type_id":"4","last_reported":1706897356,"current_range_meters":31200,"station_id":"ce4bhr12rcd13ifvqhqg","pricing_plan_id":"free"},{"bike_id":"1900e2ea-9239-49b1-933e-57903fa99707","system_id":"levelo_inurba_marseille","lat":43.32826,"lon":5.36695,"is_reserved":false,"is_disabled":false,"rental_uris":{"android":"levelo://app?vid=1900e2ea-9239-49b1-933e-57903fa99707","ios":"levelo://app?vid=1900e2ea-9239-49b1-933e-57903fa99707"},"vehicle_type_id":"4","last_reported":1706897356,"current_range_meters":18000,"station_id":"ce4bhs92rcd13ifvqi0g","pricing_plan_id":"free"},{"bike_id":"b130b28c-14ed-4fe3-a5cc-1784fe0ffea7","system_id":"levelo_inurba_marseille","lat":43.297163,"lon":5.365866,"is_reserved":false,"is_disabled":false,"rental_uris":{"android":"levelo://app?vid=b130b28c-14ed-4fe3-a5cc-1784fe0ffea7","ios":"levelo://app?vid=b130b28c-14ed-4fe3-a5cc-1784fe0ffea7"},"vehicle_type_id":"4","last_reported":1706897356,"current_range_meters":16400,"station_id":"ce4bgn12rcd13ifvqbt0","pricing_plan_id":"free"},{"bike_id":"7437c69a-8708-4c0b-b4fb-e558a743565b","system_id":"levelo_inurba_marseille","lat":43.297163,"lon":5.365866,"is_reserved":false,"is_disabled":false,"rental_uris":{"android":"levelo://app?vid=7437c69a-8708-4c0b-b4fb-e558a743565b","ios":"levelo://app?vid=7437c69a-8708-4c0b-b4fb-e558a743565b"},"vehicle_type_id":"4","last_reported":1706897356,"current_range_meters":27600,"station_id":"ce4bgn12rcd13ifvqbt0","pricing_plan_id":"free"},{"bike_id":"9bd7a52c-b4d0-4545-973c-841239cf25c9","system_id":"levelo_inurba_marseille","lat":43.297163,"lon":5.365866,"is_reserved":false,"is_disabled":false,"rental_uris":{"android":"levelo://app?vid=9bd7a52c-b4d0-4545-973c-841239cf25c9","ios":"levelo://app?vid=9bd7a52c-b4d0-4545-973c-841239cf25c9"},"vehicle_type_id":"4","last_reported":1706897356,"current_range_meters":14000,"station_id":"ce4bgn12rcd13ifvqbt0","pricing_plan_id":"free"},{"bike_id":"bce80903-2c7e-4348-8524-f914d7d1360c","system_id":"levelo_inurba_marseille","lat":43.297163,"lon":5.365866,"is_reserved":false,"is_disabled":false,"rental_uris":{"android":"levelo://app?vid=bce80903-2c7e-4348-8524-f914d7d1360c","ios":"levelo://app?vid=bce80903-2c7e-4348-8524-f914d7d1360c"},"vehicle_type_id":"4","last_reported":1706897356,"current_range_meters":22000,"station_id":"ce4bgn12rcd13ifvqbt0","pricing_plan_id":"free"},{"bike_id":"6bd28e52-985f-4426-b7a5-dd3644503d35","system_id":"levelo_inurba_marseille","lat":43.30948,"lon":5.39021,"is_reserved":false,"is_disabled":false,"rental_uris":{"android":"levelo://app?vid=6bd28e52-985f-4426-b7a5-dd3644503d35","ios":"levelo://app?vid=6bd28e52-985f-4426-b7a5-dd3644503d35"},"vehicle_type_id":"4","last_reported":1706897356,"current_range_meters":16000,"station_id":"ce4bgup2rcd13ifvqco0","pricing_plan_id":"free"},{"bike_id":"27c036af-0eb3-43d2-b902-2dec67ecbb7d","system_id":"levelo_inurba_marseille","lat":43.309589,"lon":5.390258,"is_reserved":false,"is_disabled":false,"rental_uris":{"android":"levelo://app?vid=27c036af-0eb3-43d2-b902-2dec67ecbb7d","ios":"levelo://app?vid=27c036af-0eb3-43d2-b902-2dec67ecbb7d"},"vehicle_type_id":"4","last_reported":1706897356,"current_range_meters":21600,"station_id":"ce4bgup2rcd13ifvqco0","pricing_plan_id":"free"},{"bike_id":"edbf01b9-8284-4c88-be16-0d77b5302650","system_id":"levelo_inurba_marseille","lat":43.30953,"lon":5.39024,"is_reserved":false,"is_disabled":false,"rental_uris":{"android":"levelo://app?vid=edbf01b9-8284-4c88-be16-0d77b5302650","ios":"levelo://app?vid=edbf01b9-8284-4c88-be16-0d77b5302650"},"vehicle_type_id":"4","last_reported":1706897356,"current_range_meters":24400,"station_id":"ce4bgup2rcd13ifvqco0","pricing_plan_id":"free"},{"bike_id":"a41e4c72-aa57-4e81-8d73-e83c28189596","system_id":"levelo_inurba_marseille","lat":43.30953,"lon":5.39025,"is_reserved":false,"is_disabled":false,"rental_uris":{"android":"levelo://app?vid=a41e4c72-aa57-4e81-8d73-e83c28189596","ios":"levelo://app?vid=a41e4c72-aa57-4e81-8d73-e83c28189596"},"vehicle_type_id":"4","last_reported":1706897356,"current_range_meters":12400,"station_id":"ce4bgup2rcd13ifvqco0","pricing_plan_id":"free"},{"bike_id":"f3b1fa50-aa18-4550-b26d-2487352606d4","system_id":"levelo_inurba_marseille","lat":43.30947,"lon":5.39025,"is_reserved":false,"is_disabled":false,"rental_uris":{"android":"levelo://app?vid=f3b1fa50-aa18-4550-b26d-2487352606d4","ios":"levelo://app?vid=f3b1fa50-aa18-4550-b26d-2487352606d4"},"vehicle_type_id":"4","last_reported":1706897356,"current_range_meters":22800,"station_id":"ce4bgup2rcd13ifvqco0","pricing_plan_id":"free"},{"bike_id":"f4be600f-88f6-4f08-80d4-0656353b9686","system_id":"levelo_inurba_marseille","lat":43.309589,"lon":5.390258,"is_reserved":false,"is_disabled":false,"rental_uris":{"android":"levelo://app?vid=f4be600f-88f6-4f08-80d4-0656353b9686","ios":"levelo://app?vid=f4be600f-88f6-4f08-80d4-0656353b9686"},"vehicle_type_id":"4","last_reported":1706897356,"current_range_meters":18000,"station_id":"ce4bgup2rcd13ifvqco0","pricing_plan_id":"free"},{"bike_id":"dd6ea4d7-573e-4f64-aaa5-7dcc462832bc","system_id":"levelo_inurba_marseille","lat":43.309589,"lon":5.390258,"is_reserved":false,"is_disabled":false,"rental_uris":{"android":"levelo://app?vid=dd6ea4d7-573e-4f64-aaa5-7dcc462832bc","ios":"levelo://app?vid=dd6ea4d7-573e-4f64-aaa5-7dcc462832bc"},"vehicle_type_id":"4","last_reported":1706897356,"current_range_meters":12000,"station_id":"ce4bgup2rcd13ifvqco0","pricing_plan_id":"free"},{"bike_id":"91a1332d-274f-4f7e-a39c-f2dc5680778f","system_id":"levelo_inurba_marseille","lat":43.30947,"lon":5.39028,"is_reserved":false,"is_disabled":false,"rental_uris":{"android":"levelo://app?vid=91a1332d-274f-4f7e-a39c-f2dc5680778f","ios":"levelo://app?vid=91a1332d-274f-4f7e-a39c-f2dc5680778f"},"vehicle_type_id":"4","last_reported":1706897356,"current_range_meters":6800,"station_id":"ce4bgup2rcd13ifvqco0","pricing_plan_id":"free"},{"bike_id":"c5d311c8-deb8-4ce2-9b12-61f57be68ec8","system_id":"levelo_inurba_marseille","lat":43.30947,"lon":5.39029,"is_reserved":false,"is_disabled":false,"rental_uris":{"android":"levelo://app?vid=c5d311c8-deb8-4ce2-9b12-61f57be68ec8","ios":"levelo://app?vid=c5d311c8-deb8-4ce2-9b12-61f57be68ec8"},"vehicle_type_id":"4","last_reported":1706897356,"current_range_meters":13600,"station_id":"ce4bgup2rcd13ifvqco0","pricing_plan_id":"free"},{"bike_id":"7d41256b-b0c7-469d-b465-999746dc5f1a","system_id":"levelo_inurba_marseille","lat":43.30947,"lon":5.3903,"is_reserved":false,"is_disabled":false,"rental_uris":{"android":"levelo://app?vid=7d41256b-b0c7-469d-b465-999746dc5f1a","ios":"levelo://app?vid=7d41256b-b0c7-469d-b465-999746dc5f1a"},"vehicle_type_id":"4","last_reported":1706897356,"current_range_meters":6000,"station_id":"ce4bgup2rcd13ifvqco0","pricing_plan_id":"free"},{"bike_id":"3542e6aa-9321-4c01-86da-f29a87517755","system_id":"levelo_inurba_marseille","lat":43.309589,"lon":5.390258,"is_reserved":false,"is_disabled":false,"rental_uris":{"android":"levelo://app?vid=3542e6aa-9321-4c01-86da-f29a87517755","ios":"levelo://app?vid=3542e6aa-9321-4c01-86da-f29a87517755"},"vehicle_type_id":"4","last_reported":1706897356,"current_range_meters":1600,"station_id":"ce4bgup2rcd13ifvqco0","pricing_plan_id":"free"},{"bike_id":"a6b1bcbc-d02e-498e-b007-2d607ce7f865","system_id":"levelo_inurba_marseille","lat":43.309589,"lon":5.390258,"is_reserved":false,"is_disabled":false,"rental_uris":{"android":"levelo://app?vid=a6b1bcbc-d02e-498e-b007-2d607ce7f865","ios":"levelo://app?vid=a6b1bcbc-d02e-498e-b007-2d607ce7f865"},"vehicle_type_id":"4","last_reported":1706897356,"current_range_meters":19600,"station_id":"ce4bgup2rcd13ifvqco0","pricing_plan_id":"free"},{"bike_id":"30b877fe-5d8e-4dbc-99ba-200c64e0d04a","system_id":"levelo_inurba_marseille","lat":43.309589,"lon":5.390258,"is_reserved":false,"is_disabled":false,"rental_uris":{"android":"levelo://app?vid=30b877fe-5d8e-4dbc-99ba-200c64e0d04a","ios":"levelo://app?vid=30b877fe-5d8e-4dbc-99ba-200c64e0d04a"},"vehicle_type_id":"4","last_reported":1706897356,"current_range_meters":20800,"station_id":"ce4bgup2rcd13ifvqco0","pricing_plan_id":"free"},{"bike_id":"8bd3cdca-fdc0-4dc5-8a3f-cb438be6a3e8","system_id":"levelo_inurba_marseille","lat":43.309589,"lon":5.390258,"is_reserved":false,"is_disabled":false,"rental_uris":{"android":"levelo://app?vid=8bd3cdca-fdc0-4dc5-8a3f-cb438be6a3e8","ios":"levelo://app?vid=8bd3cdca-fdc0-4dc5-8a3f-cb438be6a3e8"},"vehicle_type_id":"4","last_reported":1706897356,"current_range_meters":30800,"station_id":"ce4bgup2rcd13ifvqco0","pricing_plan_id":"free"},{"bike_id":"691c3209-0b54-4e77-a383-e19d2757f53d","system_id":"levelo_inurba_marseille","lat":43.309589,"lon":5.390258,"is_reserved":false,"is_disabled":false,"rental_uris":{"android":"levelo://app?vid=691c3209-0b54-4e77-a383-e19d2757f53d","ios":"levelo://app?vid=691c3209-0b54-4e77-a383-e19d2757f53d"},"vehicle_type_id":"4","last_reported":1706897356,"current_range_meters":4800,"station_id":"ce4bgup2rcd13ifvqco0","pricing_plan_id":"free"},{"bike_id":"7a32d36a-fd31-4867-ab05-dd00664e50af","system_id":"levelo_inurba_marseille","lat":43.309589,"lon":5.390258,"is_reserved":false,"is_disabled":false,"rental_uris":{"android":"levelo://app?vid=7a32d36a-fd31-4867-ab05-dd00664e50af","ios":"levelo://app?vid=7a32d36a-fd31-4867-ab05-dd00664e50af"},"vehicle_type_id":"4","last_reported":1706897356,"current_range_meters":4000,"station_id":"ce4bgup2rcd13ifvqco0","pricing_plan_id":"free"},{"bike_id":"6a7c553e-ebd1-4bc3-8a2a-4b3a3268d060","system_id":"levelo_inurba_marseille","lat":43.317557,"lon":5.390173,"is_reserved":false,"is_disabled":false,"rental_uris":{"android":"levelo://app?vid=6a7c553e-ebd1-4bc3-8a2a-4b3a3268d060","ios":"levelo://app?vid=6a7c553e-ebd1-4bc3-8a2a-4b3a3268d060"},"vehicle_type_id":"4","last_reported":1706897356,"current_range_meters":20000,"station_id":"ce4bhqp2rcd13ifvqhng","pricing_plan_id":"free"},{"bike_id":"6717cb07-a2bf-46d1-ba83-09e9386dc5e6","system_id":"levelo_inurba_marseille","lat":43.317557,"lon":5.390173,"is_reserved":false,"is_disabled":false,"rental_uris":{"android":"levelo://app?vid=6717cb07-a2bf-46d1-ba83-09e9386dc5e6","ios":"levelo://app?vid=6717cb07-a2bf-46d1-ba83-09e9386dc5e6"},"vehicle_type_id":"4","last_reported":1706897356,"current_range_meters":24000,"station_id":"ce4bhqp2rcd13ifvqhng","pricing_plan_id":"free"},{"bike_id":"106fe314-0813-4817-8722-724f217949ab","system_id":"levelo_inurba_marseille","lat":43.317557,"lon":5.390173,"is_reserved":false,"is_disabled":false,"rental_uris":{"android":"levelo://app?vid=106fe314-0813-4817-8722-724f217949ab","ios":"levelo://app?vid=106fe314-0813-4817-8722-724f217949ab"},"vehicle_type_id":"4","last_reported":1706897356,"current_range_meters":27600,"station_id":"ce4bhqp2rcd13ifvqhng","pricing_plan_id":"free"},{"bike_id":"aaee9df6-2bd3-419f-9a0a-fb04ee96325a","system_id":"levelo_inurba_marseille","lat":43.317557,"lon":5.390173,"is_reserved":false,"is_disabled":false,"rental_uris":{"android":"levelo://app?vid=aaee9df6-2bd3-419f-9a0a-fb04ee96325a","ios":"levelo://app?vid=aaee9df6-2bd3-419f-9a0a-fb04ee96325a"},"vehicle_type_id":"4","last_reported":1706897356,"current_range_meters":31600,"station_id":"ce4bhqp2rcd13ifvqhng","pricing_plan_id":"free"},{"bike_id":"cdd0a5e1-97e9-4609-aa8c-b9db9e70b7f9","system_id":"levelo_inurba_marseille","lat":43.317557,"lon":5.390173,"is_reserved":false,"is_disabled":false,"rental_uris":{"android":"levelo://app?vid=cdd0a5e1-97e9-4609-aa8c-b9db9e70b7f9","ios":"levelo://app?vid=cdd0a5e1-97e9-4609-aa8c-b9db9e70b7f9"},"vehicle_type_id":"4","last_reported":1706897356,"current_range_meters":18000,"station_id":"ce4bhqp2rcd13ifvqhng","pricing_plan_id":"free"},{"bike_id":"a58d93ca-bdc9-4969-ad76-287ea92adedb","system_id":"levelo_inurba_marseille","lat":43.317557,"lon":5.390173,"is_reserved":false,"is_disabled":false,"rental_uris":{"android":"levelo://app?vid=a58d93ca-bdc9-4969-ad76-287ea92adedb","ios":"levelo://app?vid=a58d93ca-bdc9-4969-ad76-287ea92adedb"},"vehicle_type_id":"4","last_reported":1706897356,"current_range_meters":26800,"station_id":"ce4bhqp2rcd13ifvqhng","pricing_plan_id":"free"},{"bike_id":"86eba5ee-3f3e-465e-879d-a26eca611b6f","system_id":"levelo_inurba_marseille","lat":43.319078,"lon":5.389894,"is_reserved":false,"is_disabled":false,"rental_uris":{"android":"levelo://app?vid=86eba5ee-3f3e-465e-879d-a26eca611b6f","ios":"levelo://app?vid=86eba5ee-3f3e-465e-879d-a26eca611b6f"},"vehicle_type_id":"4","last_reported":1706897356,"current_range_meters":25200,"station_id":"","pricing_plan_id":"free"},{"bike_id":"ca41be1b-e435-4119-88be-8c8c43770832","system_id":"levelo_inurba_marseille","lat":43.298037,"lon":5.381066,"is_reserved":false,"is_disabled":false,"rental_uris":{"android":"levelo://app?vid=ca41be1b-e435-4119-88be-8c8c43770832","ios":"levelo://app?vid=ca41be1b-e435-4119-88be-8c8c43770832"},"vehicle_type_id":"4","last_reported":1706897356,"current_range_meters":6400,"station_id":"ce4bgip2rcd13ifvqbb0","pricing_plan_id":"free"},{"bike_id":"568077de-7690-4c44-aaaa-36c39a782a08","system_id":"levelo_inurba_marseille","lat":43.304274,"lon":5.388873,"is_reserved":false,"is_disabled":false,"rental_uris":{"android":"levelo://app?vid=568077de-7690-4c44-aaaa-36c39a782a08","ios":"levelo://app?vid=568077de-7690-4c44-aaaa-36c39a782a08"},"vehicle_type_id":"4","last_reported":1706897356,"current_range_meters":12000,"station_id":"ce4bgk12rcd13ifvqbi0","pricing_plan_id":"free"},{"bike_id":"db47856e-0ab4-4c31-b16a-00409aede0d5","system_id":"levelo_inurba_marseille","lat":43.29623,"lon":5.37694,"is_reserved":false,"is_disabled":false,"rental_uris":{"android":"levelo://app?vid=db47856e-0ab4-4c31-b16a-00409aede0d5","ios":"levelo://app?vid=db47856e-0ab4-4c31-b16a-00409aede0d5"},"vehicle_type_id":"4","last_reported":1706897356,"current_range_meters":1600,"station_id":"ce4bgi92rcd13ifvqb90","pricing_plan_id":"free"},{"bike_id":"8e6f7710-3edd-4701-ab3b-0c92b554092b","system_id":"levelo_inurba_marseille","lat":43.2957,"lon":5.37523,"is_reserved":false,"is_disabled":false,"rental_uris":{"android":"levelo://app?vid=8e6f7710-3edd-4701-ab3b-0c92b554092b","ios":"levelo://app?vid=8e6f7710-3edd-4701-ab3b-0c92b554092b"},"vehicle_type_id":"4","last_reported":1706897356,"current_range_meters":0,"station_id":"ce4bgh92rcd13ifvqb50","pricing_plan_id":"free"},{"bike_id":"e3d1c1d9-dd23-48f6-964a-f4c6db31b8e1","system_id":"levelo_inurba_marseille","lat":43.295279,"lon":5.375048,"is_reserved":false,"is_disabled":false,"rental_uris":{"android":"levelo://app?vid=e3d1c1d9-dd23-48f6-964a-f4c6db31b8e1","ios":"levelo://app?vid=e3d1c1d9-dd23-48f6-964a-f4c6db31b8e1"},"vehicle_type_id":"4","last_reported":1706897356,"current_range_meters":12000,"station_id":"ce4bgkp2rcd13ifvqbmg","pricing_plan_id":"free"},{"bike_id":"875fd4e3-8eab-4ff3-a7df-c3e09ae296bc","system_id":"levelo_inurba_marseille","lat":43.300029,"lon":5.385654,"is_reserved":false,"is_disabled":false,"rental_uris":{"android":"levelo://app?vid=875fd4e3-8eab-4ff3-a7df-c3e09ae296bc","ios":"levelo://app?vid=875fd4e3-8eab-4ff3-a7df-c3e09ae296bc"},"vehicle_type_id":"4","last_reported":1706897356,"current_range_meters":4400,"station_id":"ce4bgj92rcd13ifvqbd0","pricing_plan_id":"free"},{"bike_id":"e512050a-6529-4225-a927-b67d6c06029f","system_id":"levelo_inurba_marseille","lat":43.32363,"lon":5.38871,"is_reserved":false,"is_disabled":false,"rental_uris":{"android":"levelo://app?vid=e512050a-6529-4225-a927-b67d6c06029f","ios":"levelo://app?vid=e512050a-6529-4225-a927-b67d6c06029f"},"vehicle_type_id":"4","last_reported":1706897356,"current_range_meters":0,"station_id":"ce4bhqp2rcd13ifvqhog","pricing_plan_id":"free"},{"bike_id":"80aebc65-9276-4106-9147-2143e4c2833e","system_id":"levelo_inurba_marseille","lat":43.323594,"lon":5.388777,"is_reserved":false,"is_disabled":false,"rental_uris":{"android":"levelo://app?vid=80aebc65-9276-4106-9147-2143e4c2833e","ios":"levelo://app?vid=80aebc65-9276-4106-9147-2143e4c2833e"},"vehicle_type_id":"4","last_reported":1706897356,"current_range_meters":10800,"station_id":"ce4bhqp2rcd13ifvqhog","pricing_plan_id":"free"},{"bike_id":"9dad1a4f-a5d3-4369-b77e-e6216220a892","system_id":"levelo_inurba_marseille","lat":43.29602,"lon":5.381084,"is_reserved":false,"is_disabled":false,"rental_uris":{"android":"levelo://app?vid=9dad1a4f-a5d3-4369-b77e-e6216220a892","ios":"levelo://app?vid=9dad1a4f-a5d3-4369-b77e-e6216220a892"},"vehicle_type_id":"4","last_reported":1706897356,"current_range_meters":25600,"station_id":"ce4bgl12rcd13ifvqbo0","pricing_plan_id":"free"},{"bike_id":"2f639903-b097-46b0-8494-0017af56b0e6","system_id":"levelo_inurba_marseille","lat":43.32364,"lon":5.38874,"is_reserved":false,"is_disabled":false,"rental_uris":{"android":"levelo://app?vid=2f639903-b097-46b0-8494-0017af56b0e6","ios":"levelo://app?vid=2f639903-b097-46b0-8494-0017af56b0e6"},"vehicle_type_id":"4","last_reported":1706897356,"current_range_meters":21200,"station_id":"ce4bhqp2rcd13ifvqhog","pricing_plan_id":"free"},{"bike_id":"67d49ac5-1f02-4459-b787-ad82d964cdfa","system_id":"levelo_inurba_marseille","lat":43.32361,"lon":5.38877,"is_reserved":false,"is_disabled":false,"rental_uris":{"android":"levelo://app?vid=67d49ac5-1f02-4459-b787-ad82d964cdfa","ios":"levelo://app?vid=67d49ac5-1f02-4459-b787-ad82d964cdfa"},"vehicle_type_id":"4","last_reported":1706897356,"current_range_meters":0,"station_id":"ce4bhqp2rcd13ifvqhog","pricing_plan_id":"free"},{"bike_id":"a763ba73-be1b-47fe-b1b9-a14bd81f3a01","system_id":"levelo_inurba_marseille","lat":43.32367,"lon":5.388836,"is_reserved":false,"is_disabled":false,"rental_uris":{"android":"levelo://app?vid=a763ba73-be1b-47fe-b1b9-a14bd81f3a01","ios":"levelo://app?vid=a763ba73-be1b-47fe-b1b9-a14bd81f3a01"},"vehicle_type_id":"4","last_reported":1706897356,"current_range_meters":23200,"station_id":"ce4bhqp2rcd13ifvqhog","pricing_plan_id":"free"},{"bike_id":"f0c7a271-34e7-485e-b3da-5e19394fe417","system_id":"levelo_inurba_marseille","lat":43.32364,"lon":5.38876,"is_reserved":false,"is_disabled":false,"rental_uris":{"android":"levelo://app?vid=f0c7a271-34e7-485e-b3da-5e19394fe417","ios":"levelo://app?vid=f0c7a271-34e7-485e-b3da-5e19394fe417"},"vehicle_type_id":"4","last_reported":1706897356,"current_range_meters":4800,"station_id":"ce4bhqp2rcd13ifvqhog","pricing_plan_id":"free"},{"bike_id":"2867005b-b9b0-4312-8b91-edb88d7a8842","system_id":"levelo_inurba_marseille","lat":43.32367,"lon":5.38876,"is_reserved":false,"is_disabled":false,"rental_uris":{"android":"levelo://app?vid=2867005b-b9b0-4312-8b91-edb88d7a8842","ios":"levelo://app?vid=2867005b-b9b0-4312-8b91-edb88d7a8842"},"vehicle_type_id":"4","last_reported":1706897356,"current_range_meters":800,"station_id":"ce4bhqp2rcd13ifvqhog","pricing_plan_id":"free"},{"bike_id":"1aca591f-66c1-4cab-8b35-fdb227e8bbbc","system_id":"levelo_inurba_marseille","lat":43.32367,"lon":5.388836,"is_reserved":false,"is_disabled":false,"rental_uris":{"android":"levelo://app?vid=1aca591f-66c1-4cab-8b35-fdb227e8bbbc","ios":"levelo://app?vid=1aca591f-66c1-4cab-8b35-fdb227e8bbbc"},"vehicle_type_id":"4","last_reported":1706897356,"current_range_meters":1600,"station_id":"ce4bhqp2rcd13ifvqhog","pricing_plan_id":"free"},{"bike_id":"81b0db2a-d7d3-47f0-a95d-ba7da6ca0e0e","system_id":"levelo_inurba_marseille","lat":43.32367,"lon":5.388836,"is_reserved":false,"is_disabled":false,"rental_uris":{"android":"levelo://app?vid=81b0db2a-d7d3-47f0-a95d-ba7da6ca0e0e","ios":"levelo://app?vid=81b0db2a-d7d3-47f0-a95d-ba7da6ca0e0e"},"vehicle_type_id":"4","last_reported":1706897356,"current_range_meters":800,"station_id":"ce4bhqp2rcd13ifvqhog","pricing_plan_id":"free"},{"bike_id":"6cace00d-6777-4858-af23-ff43d9cb211e","system_id":"levelo_inurba_marseille","lat":43.30517,"lon":5.39134,"is_reserved":false,"is_disabled":false,"rental_uris":{"android":"levelo://app?vid=6cace00d-6777-4858-af23-ff43d9cb211e","ios":"levelo://app?vid=6cace00d-6777-4858-af23-ff43d9cb211e"},"vehicle_type_id":"4","last_reported":1706897356,"current_range_meters":1200,"station_id":"","pricing_plan_id":"free"},{"bike_id":"56f3b6df-cede-44fd-a0c1-6ccbe3836656","system_id":"levelo_inurba_marseille","lat":43.32366,"lon":5.38883,"is_reserved":false,"is_disabled":false,"rental_uris":{"android":"levelo://app?vid=56f3b6df-cede-44fd-a0c1-6ccbe3836656","ios":"levelo://app?vid=56f3b6df-cede-44fd-a0c1-6ccbe3836656"},"vehicle_type_id":"4","last_reported":1706897356,"current_range_meters":4800,"station_id":"ce4bhqp2rcd13ifvqhog","pricing_plan_id":"free"},{"bike_id":"e3ee28ba-cab5-40e7-ba5c-728151521cef","system_id":"levelo_inurba_marseille","lat":43.32366,"lon":5.38884,"is_reserved":false,"is_disabled":false,"rental_uris":{"android":"levelo://app?vid=e3ee28ba-cab5-40e7-ba5c-728151521cef","ios":"levelo://app?vid=e3ee28ba-cab5-40e7-ba5c-728151521cef"},"vehicle_type_id":"4","last_reported":1706897356,"current_range_meters":11600,"station_id":"ce4bhqp2rcd13ifvqhog","pricing_plan_id":"free"},{"bike_id":"522745f2-6505-4a93-9a55-5c66eaece61d","system_id":"levelo_inurba_marseille","lat":43.32366,"lon":5.38884,"is_reserved":false,"is_disabled":false,"rental_uris":{"android":"levelo://app?vid=522745f2-6505-4a93-9a55-5c66eaece61d","ios":"levelo://app?vid=522745f2-6505-4a93-9a55-5c66eaece61d"},"vehicle_type_id":"4","last_reported":1706897356,"current_range_meters":6000,"station_id":"ce4bhqp2rcd13ifvqhog","pricing_plan_id":"free"},{"bike_id":"cabe25cb-ec0b-4dc3-8feb-44741e6dd484","system_id":"levelo_inurba_marseille","lat":43.32364,"lon":5.38886,"is_reserved":false,"is_disabled":false,"rental_uris":{"android":"levelo://app?vid=cabe25cb-ec0b-4dc3-8feb-44741e6dd484","ios":"levelo://app?vid=cabe25cb-ec0b-4dc3-8feb-44741e6dd484"},"vehicle_type_id":"4","last_reported":1706897356,"current_range_meters":6800,"station_id":"ce4bhqp2rcd13ifvqhog","pricing_plan_id":"free"},{"bike_id":"13b9c551-9d4a-4e3d-8b94-3ec930896106","system_id":"levelo_inurba_marseille","lat":43.323673,"lon":5.388877,"is_reserved":false,"is_disabled":false,"rental_uris":{"android":"levelo://app?vid=13b9c551-9d4a-4e3d-8b94-3ec930896106","ios":"levelo://app?vid=13b9c551-9d4a-4e3d-8b94-3ec930896106"},"vehicle_type_id":"4","last_reported":1706897356,"current_range_meters":3200,"station_id":"ce4bhqp2rcd13ifvqhog","pricing_plan_id":"free"},{"bike_id":"0c9579ed-a90a-40cf-a334-262881444ad0","system_id":"levelo_inurba_marseille","lat":43.29602,"lon":5.381084,"is_reserved":false,"is_disabled":false,"rental_uris":{"android":"levelo://app?vid=0c9579ed-a90a-40cf-a334-262881444ad0","ios":"levelo://app?vid=0c9579ed-a90a-40cf-a334-262881444ad0"},"vehicle_type_id":"4","last_reported":1706897356,"current_range_meters":12400,"station_id":"ce4bgl12rcd13ifvqbo0","pricing_plan_id":"free"},{"bike_id":"9a5304b2-5a9e-42b4-be4a-6f6115ae3aa1","system_id":"levelo_inurba_marseille","lat":43.296105,"lon":5.381155,"is_reserved":false,"is_disabled":false,"rental_uris":{"android":"levelo://app?vid=9a5304b2-5a9e-42b4-be4a-6f6115ae3aa1","ios":"levelo://app?vid=9a5304b2-5a9e-42b4-be4a-6f6115ae3aa1"},"vehicle_type_id":"4","last_reported":1706897356,"current_range_meters":0,"station_id":"","pricing_plan_id":"free"},{"bike_id":"3a80bad9-a3fe-48e5-a416-ce44ff849855","system_id":"levelo_inurba_marseille","lat":43.292749,"lon":5.368402,"is_reserved":false,"is_disabled":false,"rental_uris":{"android":"levelo://app?vid=3a80bad9-a3fe-48e5-a416-ce44ff849855","ios":"levelo://app?vid=3a80bad9-a3fe-48e5-a416-ce44ff849855"},"vehicle_type_id":"4","last_reported":1706897356,"current_range_meters":18000,"station_id":"ce4bhbp2rcd13ifvqesg","pricing_plan_id":"free"},{"bike_id":"bd3f1548-e3f1-46db-9ad0-c9684413c94f","system_id":"levelo_inurba_marseille","lat":43.292749,"lon":5.368402,"is_reserved":false,"is_disabled":false,"rental_uris":{"android":"levelo://app?vid=bd3f1548-e3f1-46db-9ad0-c9684413c94f","ios":"levelo://app?vid=bd3f1548-e3f1-46db-9ad0-c9684413c94f"},"vehicle_type_id":"4","last_reported":1706897356,"current_range_meters":16000,"station_id":"ce4bhbp2rcd13ifvqesg","pricing_plan_id":"free"},{"bike_id":"209895a8-091b-433f-b486-ee755863c1cd","system_id":"levelo_inurba_marseille","lat":43.292853,"lon":5.368682,"is_reserved":false,"is_disabled":false,"rental_uris":{"android":"levelo://app?vid=209895a8-091b-433f-b486-ee755863c1cd","ios":"levelo://app?vid=209895a8-091b-433f-b486-ee755863c1cd"},"vehicle_type_id":"4","last_reported":1706897356,"current_range_meters":400,"station_id":"ce4bhbp2rcd13ifvqesg","pricing_plan_id":"free"},{"bike_id":"2a844446-6c5d-4e4a-9602-d01b623dba85","system_id":"levelo_inurba_marseille","lat":43.292749,"lon":5.368402,"is_reserved":false,"is_disabled":false,"rental_uris":{"android":"levelo://app?vid=2a844446-6c5d-4e4a-9602-d01b623dba85","ios":"levelo://app?vid=2a844446-6c5d-4e4a-9602-d01b623dba85"},"vehicle_type_id":"4","last_reported":1706897356,"current_range_meters":19200,"station_id":"ce4bhbp2rcd13ifvqesg","pricing_plan_id":"free"},{"bike_id":"e4cca626-7905-47c7-bbaa-8460d2e32bf8","system_id":"levelo_inurba_marseille","lat":43.2931,"lon":5.37183,"is_reserved":false,"is_disabled":false,"rental_uris":{"android":"levelo://app?vid=e4cca626-7905-47c7-bbaa-8460d2e32bf8","ios":"levelo://app?vid=e4cca626-7905-47c7-bbaa-8460d2e32bf8"},"vehicle_type_id":"4","last_reported":1706897356,"current_range_meters":0,"station_id":"ce4bgh92rcd13ifvqb40","pricing_plan_id":"free"},{"bike_id":"a6186054-3115-4514-8fc7-c2bfac60bd73","system_id":"levelo_inurba_marseille","lat":43.292749,"lon":5.368402,"is_reserved":false,"is_disabled":false,"rental_uris":{"android":"levelo://app?vid=a6186054-3115-4514-8fc7-c2bfac60bd73","ios":"levelo://app?vid=a6186054-3115-4514-8fc7-c2bfac60bd73"},"vehicle_type_id":"4","last_reported":1706897356,"current_range_meters":2400,"station_id":"ce4bhbp2rcd13ifvqesg","pricing_plan_id":"free"},{"bike_id":"ceb49b07-725d-4c65-a3fd-b8edb27d45ae","system_id":"levelo_inurba_marseille","lat":43.292749,"lon":5.368402,"is_reserved":false,"is_disabled":false,"rental_uris":{"android":"levelo://app?vid=ceb49b07-725d-4c65-a3fd-b8edb27d45ae","ios":"levelo://app?vid=ceb49b07-725d-4c65-a3fd-b8edb27d45ae"},"vehicle_type_id":"4","last_reported":1706897356,"current_range_meters":1200,"station_id":"ce4bhbp2rcd13ifvqesg","pricing_plan_id":"free"},{"bike_id":"14d4fc05-7f4a-41d3-b5ed-ab8e9de3e0ee","system_id":"levelo_inurba_marseille","lat":43.292749,"lon":5.368402,"is_reserved":false,"is_disabled":false,"rental_uris":{"android":"levelo://app?vid=14d4fc05-7f4a-41d3-b5ed-ab8e9de3e0ee","ios":"levelo://app?vid=14d4fc05-7f4a-41d3-b5ed-ab8e9de3e0ee"},"vehicle_type_id":"4","last_reported":1706897356,"current_range_meters":24000,"station_id":"ce4bhbp2rcd13ifvqesg","pricing_plan_id":"free"},{"bike_id":"c652c71c-6934-4143-a22f-5420e7324bc1","system_id":"levelo_inurba_marseille","lat":43.293259,"lon":5.371586,"is_reserved":false,"is_disabled":false,"rental_uris":{"android":"levelo://app?vid=c652c71c-6934-4143-a22f-5420e7324bc1","ios":"levelo://app?vid=c652c71c-6934-4143-a22f-5420e7324bc1"},"vehicle_type_id":"4","last_reported":1706897356,"current_range_meters":6000,"station_id":"ce4bgh92rcd13ifvqb40","pricing_plan_id":"free"},{"bike_id":"144955f0-6c41-45af-a182-d6a7135f0666","system_id":"levelo_inurba_marseille","lat":43.299717,"lon":5.384845,"is_reserved":false,"is_disabled":false,"rental_uris":{"android":"levelo://app?vid=144955f0-6c41-45af-a182-d6a7135f0666","ios":"levelo://app?vid=144955f0-6c41-45af-a182-d6a7135f0666"},"vehicle_type_id":"4","last_reported":1706897356,"current_range_meters":24800,"station_id":"ce4bgj92rcd13ifvqbd0","pricing_plan_id":"free"},{"bike_id":"9ffa8d96-0e7f-4588-b025-6311387f91b4","system_id":"levelo_inurba_marseille","lat":43.29264,"lon":5.36842,"is_reserved":false,"is_disabled":false,"rental_uris":{"android":"levelo://app?vid=9ffa8d96-0e7f-4588-b025-6311387f91b4","ios":"levelo://app?vid=9ffa8d96-0e7f-4588-b025-6311387f91b4"},"vehicle_type_id":"4","last_reported":1706897356,"current_range_meters":0,"station_id":"ce4bhbp2rcd13ifvqesg","pricing_plan_id":"free"},{"bike_id":"a9351d6c-afbe-4c7c-a8be-1c71635af9a7","system_id":"levelo_inurba_marseille","lat":43.293009,"lon":5.374584,"is_reserved":false,"is_disabled":false,"rental_uris":{"android":"levelo://app?vid=a9351d6c-afbe-4c7c-a8be-1c71635af9a7","ios":"levelo://app?vid=a9351d6c-afbe-4c7c-a8be-1c71635af9a7"},"vehicle_type_id":"4","last_reported":1706897356,"current_range_meters":7200,"station_id":"ce4bgi12rcd13ifvqb70","pricing_plan_id":"free"},{"bike_id":"d3cadec9-d8da-4b80-b130-25db0600d25e","system_id":"levelo_inurba_marseille","lat":43.293019,"lon":5.37553,"is_reserved":false,"is_disabled":false,"rental_uris":{"android":"levelo://app?vid=d3cadec9-d8da-4b80-b130-25db0600d25e","ios":"levelo://app?vid=d3cadec9-d8da-4b80-b130-25db0600d25e"},"vehicle_type_id":"4","last_reported":1706897356,"current_range_meters":0,"station_id":"ce4bgi12rcd13ifvqb70","pricing_plan_id":"free"},{"bike_id":"cc408db3-41c9-4f03-9b2a-6d1fbba56486","system_id":"levelo_inurba_marseille","lat":43.2936,"lon":5.37835,"is_reserved":false,"is_disabled":false,"rental_uris":{"android":"levelo://app?vid=cc408db3-41c9-4f03-9b2a-6d1fbba56486","ios":"levelo://app?vid=cc408db3-41c9-4f03-9b2a-6d1fbba56486"},"vehicle_type_id":"4","last_reported":1706897356,"current_range_meters":4000,"station_id":"ce4bgjh2rcd13ifvqbf0","pricing_plan_id":"free"},{"bike_id":"8fb27bdd-fd74-4cbd-b623-37571dd07c2f","system_id":"levelo_inurba_marseille","lat":43.302992,"lon":5.392136,"is_reserved":false,"is_disabled":false,"rental_uris":{"android":"levelo://app?vid=8fb27bdd-fd74-4cbd-b623-37571dd07c2f","ios":"levelo://app?vid=8fb27bdd-fd74-4cbd-b623-37571dd07c2f"},"vehicle_type_id":"4","last_reported":1706897356,"current_range_meters":4800,"station_id":"ce4bgkh2rcd13ifvqbk0","pricing_plan_id":"free"},{"bike_id":"908bac9b-0ce2-4976-b71e-26362f5549aa","system_id":"levelo_inurba_marseille","lat":43.2936,"lon":5.37835,"is_reserved":false,"is_disabled":false,"rental_uris":{"android":"levelo://app?vid=908bac9b-0ce2-4976-b71e-26362f5549aa","ios":"levelo://app?vid=908bac9b-0ce2-4976-b71e-26362f5549aa"},"vehicle_type_id":"4","last_reported":1706897356,"current_range_meters":7600,"station_id":"ce4bgjh2rcd13ifvqbf0","pricing_plan_id":"free"},{"bike_id":"553baf23-1aca-4554-8883-55a0257ee39d","system_id":"levelo_inurba_marseille","lat":43.2936,"lon":5.37835,"is_reserved":false,"is_disabled":false,"rental_uris":{"android":"levelo://app?vid=553baf23-1aca-4554-8883-55a0257ee39d","ios":"levelo://app?vid=553baf23-1aca-4554-8883-55a0257ee39d"},"vehicle_type_id":"4","last_reported":1706897356,"current_range_meters":0,"station_id":"ce4bgjh2rcd13ifvqbf0","pricing_plan_id":"free"},{"bike_id":"f06d2d70-fc43-41e5-b7f2-0fedfbf5fa7d","system_id":"levelo_inurba_marseille","lat":43.301012,"lon":5.390739,"is_reserved":false,"is_disabled":false,"rental_uris":{"android":"levelo://app?vid=f06d2d70-fc43-41e5-b7f2-0fedfbf5fa7d","ios":"levelo://app?vid=f06d2d70-fc43-41e5-b7f2-0fedfbf5fa7d"},"vehicle_type_id":"4","last_reported":1706897356,"current_range_meters":21200,"station_id":"ce4bh192rcd13ifvqdb0","pricing_plan_id":"free"},{"bike_id":"24748724-fd1e-4564-856c-505edd0bbaf5","system_id":"levelo_inurba_marseille","lat":43.2936,"lon":5.37835,"is_reserved":false,"is_disabled":false,"rental_uris":{"android":"levelo://app?vid=24748724-fd1e-4564-856c-505edd0bbaf5","ios":"levelo://app?vid=24748724-fd1e-4564-856c-505edd0bbaf5"},"vehicle_type_id":"4","last_reported":1706897356,"current_range_meters":30800,"station_id":"ce4bgjh2rcd13ifvqbf0","pricing_plan_id":"free"},{"bike_id":"522a91cd-c7b3-427c-b719-14ee29114be6","system_id":"levelo_inurba_marseille","lat":43.293009,"lon":5.374584,"is_reserved":false,"is_disabled":false,"rental_uris":{"android":"levelo://app?vid=522a91cd-c7b3-427c-b719-14ee29114be6","ios":"levelo://app?vid=522a91cd-c7b3-427c-b719-14ee29114be6"},"vehicle_type_id":"4","last_reported":1706897356,"current_range_meters":0,"station_id":"ce4bgi12rcd13ifvqb70","pricing_plan_id":"free"},{"bike_id":"0c2b13dc-0d40-40cf-8c93-d841f1123b58","system_id":"levelo_inurba_marseille","lat":43.313291,"lon":5.396838,"is_reserved":false,"is_disabled":false,"rental_uris":{"android":"levelo://app?vid=0c2b13dc-0d40-40cf-8c93-d841f1123b58","ios":"levelo://app?vid=0c2b13dc-0d40-40cf-8c93-d841f1123b58"},"vehicle_type_id":"4","last_reported":1706897356,"current_range_meters":12800,"station_id":"ce4bgvp2rcd13ifvqcu0","pricing_plan_id":"free"},{"bike_id":"a992ab17-04ba-4e1f-a173-973e6e2ce162","system_id":"levelo_inurba_marseille","lat":43.292644,"lon":5.384257,"is_reserved":false,"is_disabled":false,"rental_uris":{"android":"levelo://app?vid=a992ab17-04ba-4e1f-a173-973e6e2ce162","ios":"levelo://app?vid=a992ab17-04ba-4e1f-a173-973e6e2ce162"},"vehicle_type_id":"4","last_reported":1706897356,"current_range_meters":12400,"station_id":"ce4bh692rcd13ifvqea0","pricing_plan_id":"free"},{"bike_id":"9a5c0bd7-2e04-454a-b386-2a409d132c42","system_id":"levelo_inurba_marseille","lat":43.29541,"lon":5.38545,"is_reserved":false,"is_disabled":false,"rental_uris":{"android":"levelo://app?vid=9a5c0bd7-2e04-454a-b386-2a409d132c42","ios":"levelo://app?vid=9a5c0bd7-2e04-454a-b386-2a409d132c42"},"vehicle_type_id":"4","last_reported":1706897356,"current_range_meters":400,"station_id":"ce4bgih2rcd13ifvqba0","pricing_plan_id":"free"},{"bike_id":"0c4af853-c0e7-4640-9a9d-7b4595df0a25","system_id":"levelo_inurba_marseille","lat":43.29541,"lon":5.38549,"is_reserved":false,"is_disabled":false,"rental_uris":{"android":"levelo://app?vid=0c4af853-c0e7-4640-9a9d-7b4595df0a25","ios":"levelo://app?vid=0c4af853-c0e7-4640-9a9d-7b4595df0a25"},"vehicle_type_id":"4","last_reported":1706897356,"current_range_meters":8800,"station_id":"ce4bgih2rcd13ifvqba0","pricing_plan_id":"free"},{"bike_id":"65c4d6fc-7796-41b2-a660-a883969c514b","system_id":"levelo_inurba_marseille","lat":43.29545,"lon":5.38558,"is_reserved":false,"is_disabled":false,"rental_uris":{"android":"levelo://app?vid=65c4d6fc-7796-41b2-a660-a883969c514b","ios":"levelo://app?vid=65c4d6fc-7796-41b2-a660-a883969c514b"},"vehicle_type_id":"4","last_reported":1706897356,"current_range_meters":0,"station_id":"ce4bgih2rcd13ifvqba0","pricing_plan_id":"free"},{"bike_id":"7e4ac5bd-1b9f-4870-9745-f6849effd91d","system_id":"levelo_inurba_marseille","lat":43.29529,"lon":5.385581,"is_reserved":false,"is_disabled":false,"rental_uris":{"android":"levelo://app?vid=7e4ac5bd-1b9f-4870-9745-f6849effd91d","ios":"levelo://app?vid=7e4ac5bd-1b9f-4870-9745-f6849effd91d"},"vehicle_type_id":"4","last_reported":1706897356,"current_range_meters":8400,"station_id":"ce4bgih2rcd13ifvqba0","pricing_plan_id":"free"},{"bike_id":"df16778f-5f94-4d5a-a056-0825e97eebdc","system_id":"levelo_inurba_marseille","lat":43.30212,"lon":5.39483,"is_reserved":false,"is_disabled":false,"rental_uris":{"android":"levelo://app?vid=df16778f-5f94-4d5a-a056-0825e97eebdc","ios":"levelo://app?vid=df16778f-5f94-4d5a-a056-0825e97eebdc"},"vehicle_type_id":"4","last_reported":1706897356,"current_range_meters":0,"station_id":"ce4bh0p2rcd13ifvqd70","pricing_plan_id":"free"},{"bike_id":"0401058b-6281-40d2-b77f-c792513d1bc7","system_id":"levelo_inurba_marseille","lat":43.29454,"lon":5.38615,"is_reserved":false,"is_disabled":false,"rental_uris":{"android":"levelo://app?vid=0401058b-6281-40d2-b77f-c792513d1bc7","ios":"levelo://app?vid=0401058b-6281-40d2-b77f-c792513d1bc7"},"vehicle_type_id":"4","last_reported":1706897356,"current_range_meters":4400,"station_id":"ce4bh2h2rcd13ifvqdh0","pricing_plan_id":"free"},{"bike_id":"7c755874-04f4-49a7-881c-3dccfea2f0df","system_id":"levelo_inurba_marseille","lat":43.290441,"lon":5.359123,"is_reserved":false,"is_disabled":false,"rental_uris":{"android":"levelo://app?vid=7c755874-04f4-49a7-881c-3dccfea2f0df","ios":"levelo://app?vid=7c755874-04f4-49a7-881c-3dccfea2f0df"},"vehicle_type_id":"4","last_reported":1706897356,"current_range_meters":5600,"station_id":"","pricing_plan_id":"free"},{"bike_id":"ad428d05-a57f-448d-b213-e068c9d3aded","system_id":"levelo_inurba_marseille","lat":43.290327,"lon":5.375711,"is_reserved":false,"is_disabled":false,"rental_uris":{"android":"levelo://app?vid=ad428d05-a57f-448d-b213-e068c9d3aded","ios":"levelo://app?vid=ad428d05-a57f-448d-b213-e068c9d3aded"},"vehicle_type_id":"4","last_reported":1706897356,"current_range_meters":5600,"station_id":"ce4bh692rcd13ifvqe90","pricing_plan_id":"free"},{"bike_id":"b545cea7-1102-40e9-b62e-180ed624d7b2","system_id":"levelo_inurba_marseille","lat":43.294153,"lon":5.386305,"is_reserved":false,"is_disabled":false,"rental_uris":{"android":"levelo://app?vid=b545cea7-1102-40e9-b62e-180ed624d7b2","ios":"levelo://app?vid=b545cea7-1102-40e9-b62e-180ed624d7b2"},"vehicle_type_id":"4","last_reported":1706897356,"current_range_meters":0,"station_id":"ce4bh2h2rcd13ifvqdh0","pricing_plan_id":"free"},{"bike_id":"0983b53f-65ff-457a-bfa5-c26f3f3b79a3","system_id":"levelo_inurba_marseille","lat":43.294153,"lon":5.386305,"is_reserved":false,"is_disabled":false,"rental_uris":{"android":"levelo://app?vid=0983b53f-65ff-457a-bfa5-c26f3f3b79a3","ios":"levelo://app?vid=0983b53f-65ff-457a-bfa5-c26f3f3b79a3"},"vehicle_type_id":"4","last_reported":1706897356,"current_range_meters":8000,"station_id":"ce4bh2h2rcd13ifvqdh0","pricing_plan_id":"free"},{"bike_id":"e2efcda2-59a0-414d-8e9d-c57c3fb483f1","system_id":"levelo_inurba_marseille","lat":43.294153,"lon":5.386305,"is_reserved":false,"is_disabled":false,"rental_uris":{"android":"levelo://app?vid=e2efcda2-59a0-414d-8e9d-c57c3fb483f1","ios":"levelo://app?vid=e2efcda2-59a0-414d-8e9d-c57c3fb483f1"},"vehicle_type_id":"4","last_reported":1706897356,"current_range_meters":28000,"station_id":"ce4bh2h2rcd13ifvqdh0","pricing_plan_id":"free"},{"bike_id":"dd49f170-2202-4c51-8dbb-0c7bc9c2a6f0","system_id":"levelo_inurba_marseille","lat":43.294153,"lon":5.386305,"is_reserved":false,"is_disabled":false,"rental_uris":{"android":"levelo://app?vid=dd49f170-2202-4c51-8dbb-0c7bc9c2a6f0","ios":"levelo://app?vid=dd49f170-2202-4c51-8dbb-0c7bc9c2a6f0"},"vehicle_type_id":"4","last_reported":1706897356,"current_range_meters":19200,"station_id":"ce4bh2h2rcd13ifvqdh0","pricing_plan_id":"free"},{"bike_id":"8af69f4a-6770-45bb-b8a2-eb70bc884754","system_id":"levelo_inurba_marseille","lat":43.29422,"lon":5.38621,"is_reserved":false,"is_disabled":false,"rental_uris":{"android":"levelo://app?vid=8af69f4a-6770-45bb-b8a2-eb70bc884754","ios":"levelo://app?vid=8af69f4a-6770-45bb-b8a2-eb70bc884754"},"vehicle_type_id":"4","last_reported":1706897356,"current_range_meters":25600,"station_id":"ce4bh2h2rcd13ifvqdh0","pricing_plan_id":"free"},{"bike_id":"1864cb53-2020-402d-b503-cca8a07be739","system_id":"levelo_inurba_marseille","lat":43.294193,"lon":5.386218,"is_reserved":false,"is_disabled":false,"rental_uris":{"android":"levelo://app?vid=1864cb53-2020-402d-b503-cca8a07be739","ios":"levelo://app?vid=1864cb53-2020-402d-b503-cca8a07be739"},"vehicle_type_id":"4","last_reported":1706897356,"current_range_meters":2000,"station_id":"ce4bh4p2rcd13ifvqe0g","pricing_plan_id":"free"},{"bike_id":"cea01420-214f-426c-814d-0f7c5a7f5f19","system_id":"levelo_inurba_marseille","lat":43.29422,"lon":5.38627,"is_reserved":false,"is_disabled":false,"rental_uris":{"android":"levelo://app?vid=cea01420-214f-426c-814d-0f7c5a7f5f19","ios":"levelo://app?vid=cea01420-214f-426c-814d-0f7c5a7f5f19"},"vehicle_type_id":"4","last_reported":1706897356,"current_range_meters":2000,"station_id":"ce4bh2h2rcd13ifvqdh0","pricing_plan_id":"free"},{"bike_id":"cd47f3d3-b33e-4c25-a1c4-b23b057fabc4","system_id":"levelo_inurba_marseille","lat":43.294153,"lon":5.386305,"is_reserved":false,"is_disabled":false,"rental_uris":{"android":"levelo://app?vid=cd47f3d3-b33e-4c25-a1c4-b23b057fabc4","ios":"levelo://app?vid=cd47f3d3-b33e-4c25-a1c4-b23b057fabc4"},"vehicle_type_id":"4","last_reported":1706897356,"current_range_meters":30400,"station_id":"ce4bh2h2rcd13ifvqdh0","pricing_plan_id":"free"},{"bike_id":"fb3eda30-f745-4e8c-b435-f045cec6d4af","system_id":"levelo_inurba_marseille","lat":43.294153,"lon":5.386305,"is_reserved":false,"is_disabled":false,"rental_uris":{"android":"levelo://app?vid=fb3eda30-f745-4e8c-b435-f045cec6d4af","ios":"levelo://app?vid=fb3eda30-f745-4e8c-b435-f045cec6d4af"},"vehicle_type_id":"4","last_reported":1706897356,"current_range_meters":14800,"station_id":"ce4bh2h2rcd13ifvqdh0","pricing_plan_id":"free"},{"bike_id":"7327800c-1475-4d87-a6f6-cfa34c55bcd1","system_id":"levelo_inurba_marseille","lat":43.29423,"lon":5.38633,"is_reserved":false,"is_disabled":false,"rental_uris":{"android":"levelo://app?vid=7327800c-1475-4d87-a6f6-cfa34c55bcd1","ios":"levelo://app?vid=7327800c-1475-4d87-a6f6-cfa34c55bcd1"},"vehicle_type_id":"4","last_reported":1706897356,"current_range_meters":7200,"station_id":"ce4bh2h2rcd13ifvqdh0","pricing_plan_id":"free"},{"bike_id":"1bfcbf95-689a-4d03-b4a6-d2c1eba454e9","system_id":"levelo_inurba_marseille","lat":43.29418,"lon":5.38624,"is_reserved":false,"is_disabled":false,"rental_uris":{"android":"levelo://app?vid=1bfcbf95-689a-4d03-b4a6-d2c1eba454e9","ios":"levelo://app?vid=1bfcbf95-689a-4d03-b4a6-d2c1eba454e9"},"vehicle_type_id":"4","last_reported":1706897356,"current_range_meters":20800,"station_id":"ce4bh2h2rcd13ifvqdh0","pricing_plan_id":"free"},{"bike_id":"c0e627dc-cbd2-4f51-9c0f-2ff81d2f6c34","system_id":"levelo_inurba_marseille","lat":43.28946,"lon":5.36643,"is_reserved":false,"is_disabled":false,"rental_uris":{"android":"levelo://app?vid=c0e627dc-cbd2-4f51-9c0f-2ff81d2f6c34","ios":"levelo://app?vid=c0e627dc-cbd2-4f51-9c0f-2ff81d2f6c34"},"vehicle_type_id":"4","last_reported":1706897356,"current_range_meters":28400,"station_id":"ce4bhap2rcd13ifvqek0","pricing_plan_id":"free"},{"bike_id":"550e0e26-18bb-4849-af43-23ae92017937","system_id":"levelo_inurba_marseille","lat":43.29425,"lon":5.38637,"is_reserved":false,"is_disabled":false,"rental_uris":{"android":"levelo://app?vid=550e0e26-18bb-4849-af43-23ae92017937","ios":"levelo://app?vid=550e0e26-18bb-4849-af43-23ae92017937"},"vehicle_type_id":"4","last_reported":1706897356,"current_range_meters":18800,"station_id":"ce4bh2h2rcd13ifvqdh0","pricing_plan_id":"free"},{"bike_id":"608b041d-6c45-4964-89f7-848af93755a2","system_id":"levelo_inurba_marseille","lat":43.290319,"lon":5.375732,"is_reserved":false,"is_disabled":false,"rental_uris":{"android":"levelo://app?vid=608b041d-6c45-4964-89f7-848af93755a2","ios":"levelo://app?vid=608b041d-6c45-4964-89f7-848af93755a2"},"vehicle_type_id":"4","last_reported":1706897356,"current_range_meters":800,"station_id":"ce4bh692rcd13ifvqe90","pricing_plan_id":"free"},{"bike_id":"3a561e9e-53e6-4d47-8a12-40811e0426e8","system_id":"levelo_inurba_marseille","lat":43.294153,"lon":5.386305,"is_reserved":false,"is_disabled":false,"rental_uris":{"android":"levelo://app?vid=3a561e9e-53e6-4d47-8a12-40811e0426e8","ios":"levelo://app?vid=3a561e9e-53e6-4d47-8a12-40811e0426e8"},"vehicle_type_id":"4","last_reported":1706897356,"current_range_meters":400,"station_id":"ce4bh2h2rcd13ifvqdh0","pricing_plan_id":"free"},{"bike_id":"4d47e66b-bb49-4f9d-b771-a0d2ad3ab009","system_id":"levelo_inurba_marseille","lat":43.29417,"lon":5.38624,"is_reserved":false,"is_disabled":false,"rental_uris":{"android":"levelo://app?vid=4d47e66b-bb49-4f9d-b771-a0d2ad3ab009","ios":"levelo://app?vid=4d47e66b-bb49-4f9d-b771-a0d2ad3ab009"},"vehicle_type_id":"4","last_reported":1706897356,"current_range_meters":12000,"station_id":"ce4bh2h2rcd13ifvqdh0","pricing_plan_id":"free"},{"bike_id":"f7cedc1b-79e4-4c3b-82c4-3bb3e06230d4","system_id":"levelo_inurba_marseille","lat":43.28945,"lon":5.36639,"is_reserved":false,"is_disabled":false,"rental_uris":{"android":"levelo://app?vid=f7cedc1b-79e4-4c3b-82c4-3bb3e06230d4","ios":"levelo://app?vid=f7cedc1b-79e4-4c3b-82c4-3bb3e06230d4"},"vehicle_type_id":"4","last_reported":1706897356,"current_range_meters":31200,"station_id":"ce4bhap2rcd13ifvqek0","pricing_plan_id":"free"},{"bike_id":"d22a6fc1-9b2b-4f56-a002-fab84e309d8f","system_id":"levelo_inurba_marseille","lat":43.29417,"lon":5.38625,"is_reserved":false,"is_disabled":false,"rental_uris":{"android":"levelo://app?vid=d22a6fc1-9b2b-4f56-a002-fab84e309d8f","ios":"levelo://app?vid=d22a6fc1-9b2b-4f56-a002-fab84e309d8f"},"vehicle_type_id":"4","last_reported":1706897356,"current_range_meters":20000,"station_id":"ce4bh2h2rcd13ifvqdh0","pricing_plan_id":"free"},{"bike_id":"ad4060f4-d91e-4084-99e7-50fb5e68381b","system_id":"levelo_inurba_marseille","lat":43.294162,"lon":5.38629,"is_reserved":false,"is_disabled":false,"rental_uris":{"android":"levelo://app?vid=ad4060f4-d91e-4084-99e7-50fb5e68381b","ios":"levelo://app?vid=ad4060f4-d91e-4084-99e7-50fb5e68381b"},"vehicle_type_id":"4","last_reported":1706897356,"current_range_meters":14800,"station_id":"ce4bh2h2rcd13ifvqdh0","pricing_plan_id":"free"},{"bike_id":"9cb6dd07-43ce-4655-ba85-f2afacb20398","system_id":"levelo_inurba_marseille","lat":43.294135,"lon":5.386241,"is_reserved":false,"is_disabled":false,"rental_uris":{"android":"levelo://app?vid=9cb6dd07-43ce-4655-ba85-f2afacb20398","ios":"levelo://app?vid=9cb6dd07-43ce-4655-ba85-f2afacb20398"},"vehicle_type_id":"4","last_reported":1706897356,"current_range_meters":14400,"station_id":"ce4bh2h2rcd13ifvqdh0","pricing_plan_id":"free"},{"bike_id":"9ad91837-7c6e-4d7a-bd0e-286e5a4d8e05","system_id":"levelo_inurba_marseille","lat":43.29417,"lon":5.38632,"is_reserved":false,"is_disabled":false,"rental_uris":{"android":"levelo://app?vid=9ad91837-7c6e-4d7a-bd0e-286e5a4d8e05","ios":"levelo://app?vid=9ad91837-7c6e-4d7a-bd0e-286e5a4d8e05"},"vehicle_type_id":"4","last_reported":1706897356,"current_range_meters":0,"station_id":"ce4bh2h2rcd13ifvqdh0","pricing_plan_id":"free"},{"bike_id":"d1beb2f6-b55d-4728-b453-1e2cfdd4095b","system_id":"levelo_inurba_marseille","lat":43.2894,"lon":5.36633,"is_reserved":false,"is_disabled":false,"rental_uris":{"android":"levelo://app?vid=d1beb2f6-b55d-4728-b453-1e2cfdd4095b","ios":"levelo://app?vid=d1beb2f6-b55d-4728-b453-1e2cfdd4095b"},"vehicle_type_id":"4","last_reported":1706897356,"current_range_meters":18000,"station_id":"ce4bhap2rcd13ifvqek0","pricing_plan_id":"free"},{"bike_id":"df6d665c-ffa0-4739-a83e-6c1e3b01a0d8","system_id":"levelo_inurba_marseille","lat":43.294141,"lon":5.386363,"is_reserved":false,"is_disabled":false,"rental_uris":{"android":"levelo://app?vid=df6d665c-ffa0-4739-a83e-6c1e3b01a0d8","ios":"levelo://app?vid=df6d665c-ffa0-4739-a83e-6c1e3b01a0d8"},"vehicle_type_id":"4","last_reported":1706897356,"current_range_meters":0,"station_id":"ce4bh2h2rcd13ifvqdh0","pricing_plan_id":"free"},{"bike_id":"50cb32b3-c057-45f2-a02a-8410dd749b55","system_id":"levelo_inurba_marseille","lat":43.292642,"lon":5.384254,"is_reserved":false,"is_disabled":false,"rental_uris":{"android":"levelo://app?vid=50cb32b3-c057-45f2-a02a-8410dd749b55","ios":"levelo://app?vid=50cb32b3-c057-45f2-a02a-8410dd749b55"},"vehicle_type_id":"4","last_reported":1706897356,"current_range_meters":400,"station_id":"ce4bh692rcd13ifvqea0","pricing_plan_id":"free"},{"bike_id":"e1c04609-115c-4491-a2aa-682630e6be32","system_id":"levelo_inurba_marseille","lat":43.292644,"lon":5.384257,"is_reserved":false,"is_disabled":false,"rental_uris":{"android":"levelo://app?vid=e1c04609-115c-4491-a2aa-682630e6be32","ios":"levelo://app?vid=e1c04609-115c-4491-a2aa-682630e6be32"},"vehicle_type_id":"4","last_reported":1706897356,"current_range_meters":30400,"station_id":"ce4bh692rcd13ifvqea0","pricing_plan_id":"free"},{"bike_id":"0fe37fe8-a84a-436f-8e3d-4cbb6b637056","system_id":"levelo_inurba_marseille","lat":43.292644,"lon":5.384257,"is_reserved":false,"is_disabled":false,"rental_uris":{"android":"levelo://app?vid=0fe37fe8-a84a-436f-8e3d-4cbb6b637056","ios":"levelo://app?vid=0fe37fe8-a84a-436f-8e3d-4cbb6b637056"},"vehicle_type_id":"4","last_reported":1706897356,"current_range_meters":13600,"station_id":"ce4bh692rcd13ifvqea0","pricing_plan_id":"free"},{"bike_id":"c74ada3f-dafd-4c9e-9310-fd6deb121ac0","system_id":"levelo_inurba_marseille","lat":43.292644,"lon":5.384257,"is_reserved":false,"is_disabled":false,"rental_uris":{"android":"levelo://app?vid=c74ada3f-dafd-4c9e-9310-fd6deb121ac0","ios":"levelo://app?vid=c74ada3f-dafd-4c9e-9310-fd6deb121ac0"},"vehicle_type_id":"4","last_reported":1706897356,"current_range_meters":4400,"station_id":"ce4bh692rcd13ifvqea0","pricing_plan_id":"free"},{"bike_id":"3addc08c-c96a-408a-9c7a-17c0ea1d5558","system_id":"levelo_inurba_marseille","lat":43.292642,"lon":5.384254,"is_reserved":false,"is_disabled":false,"rental_uris":{"android":"levelo://app?vid=3addc08c-c96a-408a-9c7a-17c0ea1d5558","ios":"levelo://app?vid=3addc08c-c96a-408a-9c7a-17c0ea1d5558"},"vehicle_type_id":"4","last_reported":1706897356,"current_range_meters":4400,"station_id":"ce4bh692rcd13ifvqea0","pricing_plan_id":"free"},{"bike_id":"225e8c8e-47bd-4028-bcf4-52349812c06d","system_id":"levelo_inurba_marseille","lat":43.29282,"lon":5.38459,"is_reserved":false,"is_disabled":false,"rental_uris":{"android":"levelo://app?vid=225e8c8e-47bd-4028-bcf4-52349812c06d","ios":"levelo://app?vid=225e8c8e-47bd-4028-bcf4-52349812c06d"},"vehicle_type_id":"4","last_reported":1706897356,"current_range_meters":0,"station_id":"ce4bh692rcd13ifvqea0","pricing_plan_id":"free"},{"bike_id":"84478c82-42a7-4d76-8843-ee9eaa99d1b0","system_id":"levelo_inurba_marseille","lat":43.292644,"lon":5.384257,"is_reserved":false,"is_disabled":false,"rental_uris":{"android":"levelo://app?vid=84478c82-42a7-4d76-8843-ee9eaa99d1b0","ios":"levelo://app?vid=84478c82-42a7-4d76-8843-ee9eaa99d1b0"},"vehicle_type_id":"4","last_reported":1706897356,"current_range_meters":12400,"station_id":"ce4bh692rcd13ifvqea0","pricing_plan_id":"free"},{"bike_id":"fd8c8afd-b0ee-401a-87ab-16a40895be5e","system_id":"levelo_inurba_marseille","lat":43.292642,"lon":5.384254,"is_reserved":false,"is_disabled":false,"rental_uris":{"android":"levelo://app?vid=fd8c8afd-b0ee-401a-87ab-16a40895be5e","ios":"levelo://app?vid=fd8c8afd-b0ee-401a-87ab-16a40895be5e"},"vehicle_type_id":"4","last_reported":1706897356,"current_range_meters":400,"station_id":"ce4bh692rcd13ifvqea0","pricing_plan_id":"free"},{"bike_id":"c65b986d-3be7-4526-b5cb-daaf60578bf7","system_id":"levelo_inurba_marseille","lat":43.29271,"lon":5.384493,"is_reserved":false,"is_disabled":false,"rental_uris":{"android":"levelo://app?vid=c65b986d-3be7-4526-b5cb-daaf60578bf7","ios":"levelo://app?vid=c65b986d-3be7-4526-b5cb-daaf60578bf7"},"vehicle_type_id":"4","last_reported":1706897356,"current_range_meters":20400,"station_id":"ce4bh692rcd13ifvqea0","pricing_plan_id":"free"},{"bike_id":"b1b25626-fbd9-4015-9003-d6516cb2adf3","system_id":"levelo_inurba_marseille","lat":43.29272,"lon":5.38452,"is_reserved":false,"is_disabled":false,"rental_uris":{"android":"levelo://app?vid=b1b25626-fbd9-4015-9003-d6516cb2adf3","ios":"levelo://app?vid=b1b25626-fbd9-4015-9003-d6516cb2adf3"},"vehicle_type_id":"4","last_reported":1706897356,"current_range_meters":6000,"station_id":"","pricing_plan_id":"free"},{"bike_id":"cdce129e-8838-4aa2-b813-56c21306e992","system_id":"levelo_inurba_marseille","lat":43.292642,"lon":5.384254,"is_reserved":false,"is_disabled":false,"rental_uris":{"android":"levelo://app?vid=cdce129e-8838-4aa2-b813-56c21306e992","ios":"levelo://app?vid=cdce129e-8838-4aa2-b813-56c21306e992"},"vehicle_type_id":"4","last_reported":1706897356,"current_range_meters":20000,"station_id":"ce4bh692rcd13ifvqea0","pricing_plan_id":"free"},{"bike_id":"2a5e68e5-ab99-48cb-a2c0-58eb402bce5c","system_id":"levelo_inurba_marseille","lat":43.29269,"lon":5.38446,"is_reserved":false,"is_disabled":false,"rental_uris":{"android":"levelo://app?vid=2a5e68e5-ab99-48cb-a2c0-58eb402bce5c","ios":"levelo://app?vid=2a5e68e5-ab99-48cb-a2c0-58eb402bce5c"},"vehicle_type_id":"4","last_reported":1706897356,"current_range_meters":12800,"station_id":"ce4bh692rcd13ifvqea0","pricing_plan_id":"free"},{"bike_id":"1dfa31fe-c167-435e-a49a-f98a7e143232","system_id":"levelo_inurba_marseille","lat":43.292644,"lon":5.384257,"is_reserved":false,"is_disabled":false,"rental_uris":{"android":"levelo://app?vid=1dfa31fe-c167-435e-a49a-f98a7e143232","ios":"levelo://app?vid=1dfa31fe-c167-435e-a49a-f98a7e143232"},"vehicle_type_id":"4","last_reported":1706897356,"current_range_meters":0,"station_id":"ce4bh692rcd13ifvqea0","pricing_plan_id":"free"},{"bike_id":"95c2cd5a-a949-4c45-bc7e-a6374adfd690","system_id":"levelo_inurba_marseille","lat":43.292642,"lon":5.384254,"is_reserved":false,"is_disabled":false,"rental_uris":{"android":"levelo://app?vid=95c2cd5a-a949-4c45-bc7e-a6374adfd690","ios":"levelo://app?vid=95c2cd5a-a949-4c45-bc7e-a6374adfd690"},"vehicle_type_id":"4","last_reported":1706897356,"current_range_meters":2000,"station_id":"ce4bh692rcd13ifvqea0","pricing_plan_id":"free"},{"bike_id":"3820b4ca-fb8e-414b-abce-b70e7bf92dfa","system_id":"levelo_inurba_marseille","lat":43.292642,"lon":5.384254,"is_reserved":false,"is_disabled":false,"rental_uris":{"android":"levelo://app?vid=3820b4ca-fb8e-414b-abce-b70e7bf92dfa","ios":"levelo://app?vid=3820b4ca-fb8e-414b-abce-b70e7bf92dfa"},"vehicle_type_id":"4","last_reported":1706897356,"current_range_meters":21600,"station_id":"ce4bh692rcd13ifvqea0","pricing_plan_id":"free"},{"bike_id":"85960a85-afd6-4d67-9859-0474da495e7b","system_id":"levelo_inurba_marseille","lat":43.29254,"lon":5.38448,"is_reserved":false,"is_disabled":false,"rental_uris":{"android":"levelo://app?vid=85960a85-afd6-4d67-9859-0474da495e7b","ios":"levelo://app?vid=85960a85-afd6-4d67-9859-0474da495e7b"},"vehicle_type_id":"4","last_reported":1706897356,"current_range_meters":12400,"station_id":"ce4bh692rcd13ifvqea0","pricing_plan_id":"free"},{"bike_id":"89d313f3-be45-4493-9b94-a4b49fc0f68a","system_id":"levelo_inurba_marseille","lat":43.29104,"lon":5.38125,"is_reserved":false,"is_disabled":false,"rental_uris":{"android":"levelo://app?vid=89d313f3-be45-4493-9b94-a4b49fc0f68a","ios":"levelo://app?vid=89d313f3-be45-4493-9b94-a4b49fc0f68a"},"vehicle_type_id":"4","last_reported":1706897356,"current_range_meters":0,"station_id":"ce4bh512rcd13ifvqe2g","pricing_plan_id":"free"},{"bike_id":"e189f645-0139-49b1-af85-51c846cab672","system_id":"levelo_inurba_marseille","lat":43.295169,"lon":5.390426,"is_reserved":false,"is_disabled":false,"rental_uris":{"android":"levelo://app?vid=e189f645-0139-49b1-af85-51c846cab672","ios":"levelo://app?vid=e189f645-0139-49b1-af85-51c846cab672"},"vehicle_type_id":"4","last_reported":1706897356,"current_range_meters":17600,"station_id":"ce4bh3p2rcd13ifvqdp0","pricing_plan_id":"free"},{"bike_id":"2ffb0a4e-ba0c-4d76-9439-bff22ed42e92","system_id":"levelo_inurba_marseille","lat":43.295169,"lon":5.390426,"is_reserved":false,"is_disabled":false,"rental_uris":{"android":"levelo://app?vid=2ffb0a4e-ba0c-4d76-9439-bff22ed42e92","ios":"levelo://app?vid=2ffb0a4e-ba0c-4d76-9439-bff22ed42e92"},"vehicle_type_id":"4","last_reported":1706897356,"current_range_meters":10800,"station_id":"ce4bh3p2rcd13ifvqdp0","pricing_plan_id":"free"},{"bike_id":"7759c629-ca24-4a47-ac87-e6ba4db5ed84","system_id":"levelo_inurba_marseille","lat":43.297815,"lon":5.393548,"is_reserved":false,"is_disabled":false,"rental_uris":{"android":"levelo://app?vid=7759c629-ca24-4a47-ac87-e6ba4db5ed84","ios":"levelo://app?vid=7759c629-ca24-4a47-ac87-e6ba4db5ed84"},"vehicle_type_id":"4","last_reported":1706897356,"current_range_meters":5200,"station_id":"chh1huq6cuj3fo74tm60","pricing_plan_id":"free"},{"bike_id":"467065bf-a1c9-42d7-bfa0-f336bf07a0ac","system_id":"levelo_inurba_marseille","lat":43.295169,"lon":5.390426,"is_reserved":false,"is_disabled":false,"rental_uris":{"android":"levelo://app?vid=467065bf-a1c9-42d7-bfa0-f336bf07a0ac","ios":"levelo://app?vid=467065bf-a1c9-42d7-bfa0-f336bf07a0ac"},"vehicle_type_id":"4","last_reported":1706897356,"current_range_meters":7600,"station_id":"ce4bh3p2rcd13ifvqdp0","pricing_plan_id":"free"},{"bike_id":"76ac7326-988e-4f26-b805-b4719930e666","system_id":"levelo_inurba_marseille","lat":43.295169,"lon":5.390426,"is_reserved":false,"is_disabled":false,"rental_uris":{"android":"levelo://app?vid=76ac7326-988e-4f26-b805-b4719930e666","ios":"levelo://app?vid=76ac7326-988e-4f26-b805-b4719930e666"},"vehicle_type_id":"4","last_reported":1706897356,"current_range_meters":14800,"station_id":"ce4bh3p2rcd13ifvqdp0","pricing_plan_id":"free"},{"bike_id":"36f6f725-b9cd-4428-96d9-f73568eb820b","system_id":"levelo_inurba_marseille","lat":43.295169,"lon":5.390426,"is_reserved":false,"is_disabled":false,"rental_uris":{"android":"levelo://app?vid=36f6f725-b9cd-4428-96d9-f73568eb820b","ios":"levelo://app?vid=36f6f725-b9cd-4428-96d9-f73568eb820b"},"vehicle_type_id":"4","last_reported":1706897356,"current_range_meters":0,"station_id":"ce4bh3p2rcd13ifvqdp0","pricing_plan_id":"free"},{"bike_id":"8076ca9f-27b2-41aa-ba0d-1fde78a02105","system_id":"levelo_inurba_marseille","lat":43.295169,"lon":5.390426,"is_reserved":false,"is_disabled":false,"rental_uris":{"android":"levelo://app?vid=8076ca9f-27b2-41aa-ba0d-1fde78a02105","ios":"levelo://app?vid=8076ca9f-27b2-41aa-ba0d-1fde78a02105"},"vehicle_type_id":"4","last_reported":1706897356,"current_range_meters":5600,"station_id":"ce4bh3p2rcd13ifvqdp0","pricing_plan_id":"free"},{"bike_id":"c30db12c-3450-40c0-8d2b-62a1048d8299","system_id":"levelo_inurba_marseille","lat":43.297815,"lon":5.393548,"is_reserved":false,"is_disabled":false,"rental_uris":{"android":"levelo://app?vid=c30db12c-3450-40c0-8d2b-62a1048d8299","ios":"levelo://app?vid=c30db12c-3450-40c0-8d2b-62a1048d8299"},"vehicle_type_id":"4","last_reported":1706897356,"current_range_meters":8800,"station_id":"chh1huq6cuj3fo74tm60","pricing_plan_id":"free"},{"bike_id":"ba9a463e-7eef-496b-9162-c8f70602f1db","system_id":"levelo_inurba_marseille","lat":43.295169,"lon":5.390426,"is_reserved":false,"is_disabled":false,"rental_uris":{"android":"levelo://app?vid=ba9a463e-7eef-496b-9162-c8f70602f1db","ios":"levelo://app?vid=ba9a463e-7eef-496b-9162-c8f70602f1db"},"vehicle_type_id":"4","last_reported":1706897356,"current_range_meters":27200,"station_id":"ce4bh3p2rcd13ifvqdp0","pricing_plan_id":"free"},{"bike_id":"1623bc1b-23a5-4a7b-bb7a-55f3e2375e31","system_id":"levelo_inurba_marseille","lat":43.295169,"lon":5.390426,"is_reserved":false,"is_disabled":false,"rental_uris":{"android":"levelo://app?vid=1623bc1b-23a5-4a7b-bb7a-55f3e2375e31","ios":"levelo://app?vid=1623bc1b-23a5-4a7b-bb7a-55f3e2375e31"},"vehicle_type_id":"4","last_reported":1706897356,"current_range_meters":30000,"station_id":"ce4bh3p2rcd13ifvqdp0","pricing_plan_id":"free"},{"bike_id":"37d5312b-48ce-463b-8a79-12ca0134a456","system_id":"levelo_inurba_marseille","lat":43.33024,"lon":5.39039,"is_reserved":false,"is_disabled":false,"rental_uris":{"android":"levelo://app?vid=37d5312b-48ce-463b-8a79-12ca0134a456","ios":"levelo://app?vid=37d5312b-48ce-463b-8a79-12ca0134a456"},"vehicle_type_id":"4","last_reported":1706897356,"current_range_meters":30800,"station_id":"ce4bhr92rcd13ifvqhrg","pricing_plan_id":"free"},{"bike_id":"e1a50ad8-3099-40fb-8677-01ec84a1bbcc","system_id":"levelo_inurba_marseille","lat":43.289743,"lon":5.378304,"is_reserved":false,"is_disabled":false,"rental_uris":{"android":"levelo://app?vid=e1a50ad8-3099-40fb-8677-01ec84a1bbcc","ios":"levelo://app?vid=e1a50ad8-3099-40fb-8677-01ec84a1bbcc"},"vehicle_type_id":"4","last_reported":1706897356,"current_range_meters":31600,"station_id":"ce4bh9p2rcd13ifvqed0","pricing_plan_id":"free"},{"bike_id":"4e664993-0bad-45d9-b552-7c79a994df52","system_id":"levelo_inurba_marseille","lat":43.330442,"lon":5.389148,"is_reserved":false,"is_disabled":false,"rental_uris":{"android":"levelo://app?vid=4e664993-0bad-45d9-b552-7c79a994df52","ios":"levelo://app?vid=4e664993-0bad-45d9-b552-7c79a994df52"},"vehicle_type_id":"4","last_reported":1706897356,"current_range_meters":28400,"station_id":"ce4bhr92rcd13ifvqhrg","pricing_plan_id":"free"},{"bike_id":"60619f01-d613-4796-9382-64bf15b3216d","system_id":"levelo_inurba_marseille","lat":43.295169,"lon":5.390426,"is_reserved":false,"is_disabled":false,"rental_uris":{"android":"levelo://app?vid=60619f01-d613-4796-9382-64bf15b3216d","ios":"levelo://app?vid=60619f01-d613-4796-9382-64bf15b3216d"},"vehicle_type_id":"4","last_reported":1706897356,"current_range_meters":30800,"station_id":"ce4bh3p2rcd13ifvqdp0","pricing_plan_id":"free"},{"bike_id":"01889df2-9c88-4801-950c-5f6d9e0fe606","system_id":"levelo_inurba_marseille","lat":43.330442,"lon":5.389148,"is_reserved":false,"is_disabled":false,"rental_uris":{"android":"levelo://app?vid=01889df2-9c88-4801-950c-5f6d9e0fe606","ios":"levelo://app?vid=01889df2-9c88-4801-950c-5f6d9e0fe606"},"vehicle_type_id":"4","last_reported":1706897356,"current_range_meters":4000,"station_id":"ce4bhr92rcd13ifvqhrg","pricing_plan_id":"free"},{"bike_id":"08cc879b-1792-4afe-8152-dbcb369420fe","system_id":"levelo_inurba_marseille","lat":43.295169,"lon":5.390426,"is_reserved":false,"is_disabled":false,"rental_uris":{"android":"levelo://app?vid=08cc879b-1792-4afe-8152-dbcb369420fe","ios":"levelo://app?vid=08cc879b-1792-4afe-8152-dbcb369420fe"},"vehicle_type_id":"4","last_reported":1706897356,"current_range_meters":6000,"station_id":"ce4bh3p2rcd13ifvqdp0","pricing_plan_id":"free"},{"bike_id":"5cd68196-1328-4d8c-8241-e73a5604e640","system_id":"levelo_inurba_marseille","lat":43.29529,"lon":5.3908,"is_reserved":false,"is_disabled":false,"rental_uris":{"android":"levelo://app?vid=5cd68196-1328-4d8c-8241-e73a5604e640","ios":"levelo://app?vid=5cd68196-1328-4d8c-8241-e73a5604e640"},"vehicle_type_id":"4","last_reported":1706897356,"current_range_meters":3200,"station_id":"ce4bh3p2rcd13ifvqdp0","pricing_plan_id":"free"},{"bike_id":"ca28b495-172f-4e38-9e13-21399449c27d","system_id":"levelo_inurba_marseille","lat":43.28856,"lon":5.358371,"is_reserved":false,"is_disabled":false,"rental_uris":{"android":"levelo://app?vid=ca28b495-172f-4e38-9e13-21399449c27d","ios":"levelo://app?vid=ca28b495-172f-4e38-9e13-21399449c27d"},"vehicle_type_id":"4","last_reported":1706897356,"current_range_meters":12000,"station_id":"ce4bhb12rcd13ifvqem0","pricing_plan_id":"free"},{"bike_id":"f667fe1c-3a89-46b6-a6a3-b43183a0ddbd","system_id":"levelo_inurba_marseille","lat":43.290094,"lon":5.381264,"is_reserved":false,"is_disabled":false,"rental_uris":{"android":"levelo://app?vid=f667fe1c-3a89-46b6-a6a3-b43183a0ddbd","ios":"levelo://app?vid=f667fe1c-3a89-46b6-a6a3-b43183a0ddbd"},"vehicle_type_id":"4","last_reported":1706897356,"current_range_meters":18000,"station_id":"ce4bh4p2rcd13ifvqe1g","pricing_plan_id":"free"},{"bike_id":"5fce6dee-e70d-4d90-96bc-dd0b68aed6c6","system_id":"levelo_inurba_marseille","lat":43.28859,"lon":5.35856,"is_reserved":false,"is_disabled":false,"rental_uris":{"android":"levelo://app?vid=5fce6dee-e70d-4d90-96bc-dd0b68aed6c6","ios":"levelo://app?vid=5fce6dee-e70d-4d90-96bc-dd0b68aed6c6"},"vehicle_type_id":"4","last_reported":1706897356,"current_range_meters":13200,"station_id":"ce4bhb12rcd13ifvqem0","pricing_plan_id":"free"},{"bike_id":"8c1899f6-3316-40c7-8745-404927ed8b49","system_id":"levelo_inurba_marseille","lat":43.28856,"lon":5.358371,"is_reserved":false,"is_disabled":false,"rental_uris":{"android":"levelo://app?vid=8c1899f6-3316-40c7-8745-404927ed8b49","ios":"levelo://app?vid=8c1899f6-3316-40c7-8745-404927ed8b49"},"vehicle_type_id":"4","last_reported":1706897356,"current_range_meters":0,"station_id":"ce4bhb12rcd13ifvqem0","pricing_plan_id":"free"},{"bike_id":"3a4684ab-ee62-461d-9a94-50bf2f958012","system_id":"levelo_inurba_marseille","lat":43.31277,"lon":5.40164,"is_reserved":false,"is_disabled":false,"rental_uris":{"android":"levelo://app?vid=3a4684ab-ee62-461d-9a94-50bf2f958012","ios":"levelo://app?vid=3a4684ab-ee62-461d-9a94-50bf2f958012"},"vehicle_type_id":"4","last_reported":1706897356,"current_range_meters":15600,"station_id":"ce4bh092rcd13ifvqd30","pricing_plan_id":"free"},{"bike_id":"93a628e9-5cc1-4936-8954-c94b165a4389","system_id":"levelo_inurba_marseille","lat":43.3128,"lon":5.40173,"is_reserved":false,"is_disabled":false,"rental_uris":{"android":"levelo://app?vid=93a628e9-5cc1-4936-8954-c94b165a4389","ios":"levelo://app?vid=93a628e9-5cc1-4936-8954-c94b165a4389"},"vehicle_type_id":"4","last_reported":1706897356,"current_range_meters":18000,"station_id":"ce4bh092rcd13ifvqd30","pricing_plan_id":"free"},{"bike_id":"a693be26-d51d-4635-bbd8-1f98ddaeba30","system_id":"levelo_inurba_marseille","lat":43.337477,"lon":5.374431,"is_reserved":false,"is_disabled":false,"rental_uris":{"android":"levelo://app?vid=a693be26-d51d-4635-bbd8-1f98ddaeba30","ios":"levelo://app?vid=a693be26-d51d-4635-bbd8-1f98ddaeba30"},"vehicle_type_id":"4","last_reported":1706897356,"current_range_meters":29200,"station_id":"","pricing_plan_id":"free"},{"bike_id":"d21d0a7c-1c7d-4e4b-b545-41d9d2ab6d6e","system_id":"levelo_inurba_marseille","lat":43.312609,"lon":5.401662,"is_reserved":false,"is_disabled":false,"rental_uris":{"android":"levelo://app?vid=d21d0a7c-1c7d-4e4b-b545-41d9d2ab6d6e","ios":"levelo://app?vid=d21d0a7c-1c7d-4e4b-b545-41d9d2ab6d6e"},"vehicle_type_id":"4","last_reported":1706897356,"current_range_meters":5200,"station_id":"ce4bh092rcd13ifvqd30","pricing_plan_id":"free"},{"bike_id":"6b4dc34e-3f5c-47c0-bd01-bcef851f3e16","system_id":"levelo_inurba_marseille","lat":43.3127,"lon":5.4018,"is_reserved":false,"is_disabled":false,"rental_uris":{"android":"levelo://app?vid=6b4dc34e-3f5c-47c0-bd01-bcef851f3e16","ios":"levelo://app?vid=6b4dc34e-3f5c-47c0-bd01-bcef851f3e16"},"vehicle_type_id":"4","last_reported":1706897356,"current_range_meters":16800,"station_id":"ce4bh092rcd13ifvqd30","pricing_plan_id":"free"},{"bike_id":"03c5e89b-2264-4540-bdd1-e27e7926a9a8","system_id":"levelo_inurba_marseille","lat":43.312609,"lon":5.401662,"is_reserved":false,"is_disabled":false,"rental_uris":{"android":"levelo://app?vid=03c5e89b-2264-4540-bdd1-e27e7926a9a8","ios":"levelo://app?vid=03c5e89b-2264-4540-bdd1-e27e7926a9a8"},"vehicle_type_id":"4","last_reported":1706897356,"current_range_meters":800,"station_id":"ce4bh092rcd13ifvqd30","pricing_plan_id":"free"},{"bike_id":"0aca2214-6738-4ad0-ba13-439e119f904d","system_id":"levelo_inurba_marseille","lat":43.337539,"lon":5.374451,"is_reserved":false,"is_disabled":false,"rental_uris":{"android":"levelo://app?vid=0aca2214-6738-4ad0-ba13-439e119f904d","ios":"levelo://app?vid=0aca2214-6738-4ad0-ba13-439e119f904d"},"vehicle_type_id":"4","last_reported":1706897356,"current_range_meters":27200,"station_id":"","pricing_plan_id":"free"},{"bike_id":"892472c2-1dc7-4ec9-9b54-dd0e755889c8","system_id":"levelo_inurba_marseille","lat":43.309139,"lon":5.401482,"is_reserved":false,"is_disabled":false,"rental_uris":{"android":"levelo://app?vid=892472c2-1dc7-4ec9-9b54-dd0e755889c8","ios":"levelo://app?vid=892472c2-1dc7-4ec9-9b54-dd0e755889c8"},"vehicle_type_id":"4","last_reported":1706897356,"current_range_meters":16000,"station_id":"ce4bgvp2rcd13ifvqct0","pricing_plan_id":"free"},{"bike_id":"ed81199d-a52c-48d5-94a1-6ba32c179aa9","system_id":"levelo_inurba_marseille","lat":43.306637,"lon":5.400879,"is_reserved":false,"is_disabled":false,"rental_uris":{"android":"levelo://app?vid=ed81199d-a52c-48d5-94a1-6ba32c179aa9","ios":"levelo://app?vid=ed81199d-a52c-48d5-94a1-6ba32c179aa9"},"vehicle_type_id":"4","last_reported":1706897356,"current_range_meters":31200,"station_id":"ce4bh112rcd13ifvqda0","pricing_plan_id":"free"},{"bike_id":"fbd79014-8443-4fa8-a575-118d08a47cbc","system_id":"levelo_inurba_marseille","lat":43.33762,"lon":5.37432,"is_reserved":false,"is_disabled":false,"rental_uris":{"android":"levelo://app?vid=fbd79014-8443-4fa8-a575-118d08a47cbc","ios":"levelo://app?vid=fbd79014-8443-4fa8-a575-118d08a47cbc"},"vehicle_type_id":"4","last_reported":1706897356,"current_range_meters":25600,"station_id":"","pricing_plan_id":"free"},{"bike_id":"26bb0da5-4654-4f1d-9e48-a53eae8e239b","system_id":"levelo_inurba_marseille","lat":43.312609,"lon":5.401662,"is_reserved":false,"is_disabled":false,"rental_uris":{"android":"levelo://app?vid=26bb0da5-4654-4f1d-9e48-a53eae8e239b","ios":"levelo://app?vid=26bb0da5-4654-4f1d-9e48-a53eae8e239b"},"vehicle_type_id":"4","last_reported":1706897356,"current_range_meters":22400,"station_id":"ce4bh092rcd13ifvqd30","pricing_plan_id":"free"},{"bike_id":"e2d4d079-cc66-4f38-adc8-060273bea7e7","system_id":"levelo_inurba_marseille","lat":43.33769,"lon":5.3744,"is_reserved":false,"is_disabled":false,"rental_uris":{"android":"levelo://app?vid=e2d4d079-cc66-4f38-adc8-060273bea7e7","ios":"levelo://app?vid=e2d4d079-cc66-4f38-adc8-060273bea7e7"},"vehicle_type_id":"4","last_reported":1706897356,"current_range_meters":800,"station_id":"","pricing_plan_id":"free"},{"bike_id":"73a56a22-e8a0-4af8-8a52-8e9591158e60","system_id":"levelo_inurba_marseille","lat":43.306412,"lon":5.401035,"is_reserved":false,"is_disabled":false,"rental_uris":{"android":"levelo://app?vid=73a56a22-e8a0-4af8-8a52-8e9591158e60","ios":"levelo://app?vid=73a56a22-e8a0-4af8-8a52-8e9591158e60"},"vehicle_type_id":"4","last_reported":1706897356,"current_range_meters":4400,"station_id":"ce4bh112rcd13ifvqda0","pricing_plan_id":"free"},{"bike_id":"db726bf6-39c7-459e-ba9d-83b7ddb101f4","system_id":"levelo_inurba_marseille","lat":43.30135,"lon":5.39854,"is_reserved":false,"is_disabled":false,"rental_uris":{"android":"levelo://app?vid=db726bf6-39c7-459e-ba9d-83b7ddb101f4","ios":"levelo://app?vid=db726bf6-39c7-459e-ba9d-83b7ddb101f4"},"vehicle_type_id":"4","last_reported":1706897356,"current_range_meters":1600,"station_id":"ce4bh0h2rcd13ifvqd40","pricing_plan_id":"free"},{"bike_id":"d4c97274-741a-4122-b21d-e4a59508e695","system_id":"levelo_inurba_marseille","lat":43.30137,"lon":5.39857,"is_reserved":false,"is_disabled":false,"rental_uris":{"android":"levelo://app?vid=d4c97274-741a-4122-b21d-e4a59508e695","ios":"levelo://app?vid=d4c97274-741a-4122-b21d-e4a59508e695"},"vehicle_type_id":"4","last_reported":1706897356,"current_range_meters":0,"station_id":"ce4bh0h2rcd13ifvqd40","pricing_plan_id":"free"},{"bike_id":"365bab38-d16d-4a55-b742-757a6f66d884","system_id":"levelo_inurba_marseille","lat":43.301117,"lon":5.398795,"is_reserved":false,"is_disabled":false,"rental_uris":{"android":"levelo://app?vid=365bab38-d16d-4a55-b742-757a6f66d884","ios":"levelo://app?vid=365bab38-d16d-4a55-b742-757a6f66d884"},"vehicle_type_id":"4","last_reported":1706897356,"current_range_meters":7600,"station_id":"ce4bh0h2rcd13ifvqd40","pricing_plan_id":"free"},{"bike_id":"349d1f11-2c1c-4ee9-b159-6e91ddd33f0e","system_id":"levelo_inurba_marseille","lat":43.306412,"lon":5.401035,"is_reserved":false,"is_disabled":false,"rental_uris":{"android":"levelo://app?vid=349d1f11-2c1c-4ee9-b159-6e91ddd33f0e","ios":"levelo://app?vid=349d1f11-2c1c-4ee9-b159-6e91ddd33f0e"},"vehicle_type_id":"4","last_reported":1706897356,"current_range_meters":30400,"station_id":"ce4bh112rcd13ifvqda0","pricing_plan_id":"free"},{"bike_id":"8c34647a-a341-436d-8ea0-4d70167efbd4","system_id":"levelo_inurba_marseille","lat":43.301117,"lon":5.398795,"is_reserved":false,"is_disabled":false,"rental_uris":{"android":"levelo://app?vid=8c34647a-a341-436d-8ea0-4d70167efbd4","ios":"levelo://app?vid=8c34647a-a341-436d-8ea0-4d70167efbd4"},"vehicle_type_id":"4","last_reported":1706897356,"current_range_meters":3200,"station_id":"ce4bh0h2rcd13ifvqd40","pricing_plan_id":"free"},{"bike_id":"6938d868-4aa0-4133-963a-53151e594341","system_id":"levelo_inurba_marseille","lat":43.28727,"lon":5.36078,"is_reserved":false,"is_disabled":false,"rental_uris":{"android":"levelo://app?vid=6938d868-4aa0-4133-963a-53151e594341","ios":"levelo://app?vid=6938d868-4aa0-4133-963a-53151e594341"},"vehicle_type_id":"4","last_reported":1706897356,"current_range_meters":29200,"station_id":"cki0cbj6b192h4jlfktg","pricing_plan_id":"free"},{"bike_id":"7f420f62-9e9b-4a9e-aa3b-7b420ae7ef3c","system_id":"levelo_inurba_marseille","lat":43.28727,"lon":5.36078,"is_reserved":false,"is_disabled":false,"rental_uris":{"android":"levelo://app?vid=7f420f62-9e9b-4a9e-aa3b-7b420ae7ef3c","ios":"levelo://app?vid=7f420f62-9e9b-4a9e-aa3b-7b420ae7ef3c"},"vehicle_type_id":"4","last_reported":1706897356,"current_range_meters":20000,"station_id":"cki0cbj6b192h4jlfktg","pricing_plan_id":"free"},{"bike_id":"1093a4ba-bc45-48e6-bc05-8951fb44fbba","system_id":"levelo_inurba_marseille","lat":43.286593,"lon":5.363346,"is_reserved":false,"is_disabled":false,"rental_uris":{"android":"levelo://app?vid=1093a4ba-bc45-48e6-bc05-8951fb44fbba","ios":"levelo://app?vid=1093a4ba-bc45-48e6-bc05-8951fb44fbba"},"vehicle_type_id":"4","last_reported":1706897356,"current_range_meters":25600,"station_id":"ce4bhah2rcd13ifvqej0","pricing_plan_id":"free"},{"bike_id":"4f411edc-c9e8-4392-b4be-bd2cafd8f99a","system_id":"levelo_inurba_marseille","lat":43.286591,"lon":5.363346,"is_reserved":false,"is_disabled":false,"rental_uris":{"android":"levelo://app?vid=4f411edc-c9e8-4392-b4be-bd2cafd8f99a","ios":"levelo://app?vid=4f411edc-c9e8-4392-b4be-bd2cafd8f99a"},"vehicle_type_id":"4","last_reported":1706897356,"current_range_meters":25200,"station_id":"ce4bhah2rcd13ifvqej0","pricing_plan_id":"free"},{"bike_id":"97605842-db24-4005-8e63-0f71485e62dd","system_id":"levelo_inurba_marseille","lat":43.286593,"lon":5.363346,"is_reserved":false,"is_disabled":false,"rental_uris":{"android":"levelo://app?vid=97605842-db24-4005-8e63-0f71485e62dd","ios":"levelo://app?vid=97605842-db24-4005-8e63-0f71485e62dd"},"vehicle_type_id":"4","last_reported":1706897356,"current_range_meters":0,"station_id":"ce4bhah2rcd13ifvqej0","pricing_plan_id":"free"},{"bike_id":"ec5a189f-bd6e-4ae4-a9c5-3ed764595f07","system_id":"levelo_inurba_marseille","lat":43.298681,"lon":5.397225,"is_reserved":false,"is_disabled":false,"rental_uris":{"android":"levelo://app?vid=ec5a189f-bd6e-4ae4-a9c5-3ed764595f07","ios":"levelo://app?vid=ec5a189f-bd6e-4ae4-a9c5-3ed764595f07"},"vehicle_type_id":"4","last_reported":1706897356,"current_range_meters":0,"station_id":"ce4bh0h2rcd13ifvqd50","pricing_plan_id":"free"},{"bike_id":"466cfccc-7f08-40de-a9e9-a563e9fe6ab5","system_id":"levelo_inurba_marseille","lat":43.298681,"lon":5.397225,"is_reserved":false,"is_disabled":false,"rental_uris":{"android":"levelo://app?vid=466cfccc-7f08-40de-a9e9-a563e9fe6ab5","ios":"levelo://app?vid=466cfccc-7f08-40de-a9e9-a563e9fe6ab5"},"vehicle_type_id":"4","last_reported":1706897356,"current_range_meters":14400,"station_id":"ce4bh0h2rcd13ifvqd50","pricing_plan_id":"free"},{"bike_id":"5e128934-4a0a-4fac-ac89-4685c42a74b4","system_id":"levelo_inurba_marseille","lat":43.286544,"lon":5.363203,"is_reserved":false,"is_disabled":false,"rental_uris":{"android":"levelo://app?vid=5e128934-4a0a-4fac-ac89-4685c42a74b4","ios":"levelo://app?vid=5e128934-4a0a-4fac-ac89-4685c42a74b4"},"vehicle_type_id":"4","last_reported":1706897356,"current_range_meters":6400,"station_id":"","pricing_plan_id":"free"},{"bike_id":"7c354e6c-da69-466d-acbf-3605bba839cf","system_id":"levelo_inurba_marseille","lat":43.290345,"lon":5.38646,"is_reserved":false,"is_disabled":false,"rental_uris":{"android":"levelo://app?vid=7c354e6c-da69-466d-acbf-3605bba839cf","ios":"levelo://app?vid=7c354e6c-da69-466d-acbf-3605bba839cf"},"vehicle_type_id":"4","last_reported":1706897356,"current_range_meters":400,"station_id":"ce4bh4p2rcd13ifvqe0g","pricing_plan_id":"free"},{"bike_id":"0770cee4-1227-4fc4-8238-ed6598cb810a","system_id":"levelo_inurba_marseille","lat":43.289307,"lon":5.38406,"is_reserved":false,"is_disabled":false,"rental_uris":{"android":"levelo://app?vid=0770cee4-1227-4fc4-8238-ed6598cb810a","ios":"levelo://app?vid=0770cee4-1227-4fc4-8238-ed6598cb810a"},"vehicle_type_id":"4","last_reported":1706897356,"current_range_meters":1600,"station_id":"ce4bh612rcd13ifvqe6g","pricing_plan_id":"free"},{"bike_id":"2bf7e1e7-1284-4fc7-ace9-b9df84b924ba","system_id":"levelo_inurba_marseille","lat":43.289307,"lon":5.38406,"is_reserved":false,"is_disabled":false,"rental_uris":{"android":"levelo://app?vid=2bf7e1e7-1284-4fc7-ace9-b9df84b924ba","ios":"levelo://app?vid=2bf7e1e7-1284-4fc7-ace9-b9df84b924ba"},"vehicle_type_id":"4","last_reported":1706897356,"current_range_meters":9600,"station_id":"ce4bh612rcd13ifvqe6g","pricing_plan_id":"free"},