{"last_updated":1707768456,"ttl":30,"version":"2.2","data":{"bikes":[{"bike_id":"e545a2e7-5a94-45c9-921f-db82b9a78e89","system_id":"levelo_inurba_marseille","lat":43.31219,"lon":5.36856,"is_reserved":false,"is_disabled":false,"rental_uris":{"android":"levelo://app?vid=e545a2e7-5a94-45c9-921f-db82b9a78e89","ios":"levelo://app?vid=e545a2e7-5a94-45c9-921f-db82b9a78e89"},"vehicle_type_id":"4","last_reported":1707768456,"current_range_meters":0,"station_id":"ce4bgl92rcd13ifvqbq0","pricing_plan_id":"free"},{"bike_id":"4c1bbdd6-5bb2-41a2-85ee-70b851a0b51d","system_id":"levelo_inurba_marseille","lat":43.312239,"lon":5.368562,"is_reserved":false,"is_disabled":false,"rental_uris":{"android":"levelo://app?vid=4c1bbdd6-5bb2-41a2-85ee-70b851a0b51d","ios":"levelo://app?vid=4c1bbdd6-5bb2-41a2-85ee-70b851a0b51d"},"vehicle_type_id":"4","last_reported":1707768456,"current_range_meters":20800,"station_id":"ce4bgl92rcd13ifvqbq0","pricing_plan_id":"free"},{"bike_id":"aae8673e-bb75-43cc-8ba1-10e6a855a4c5","system_id":"levelo_inurba_marseille","lat":43.309076,"lon":5.368465,"is_reserved":false,"is_disabled":false,"rental_uris":{"android":"levelo://app?vid=aae8673e-bb75-43cc-8ba1-10e6a855a4c5","ios":"levelo://app?vid=aae8673e-bb75-43cc-8ba1-10e6a855a4c5"},"vehicle_type_id":"4","last_reported":1707768456,"current_range_meters":28400,"station_id":"ce4bgn92rcd13ifvqbvg","pricing_plan_id":"free"},{"bike_id":"d1a30fac-ce7c-4373-8c3a-029059931649","system_id":"levelo_inurba_marseille","lat":43.314811,"lon":5.373103,"is_reserved":false,"is_disabled":false,"rental_uris":{"android":"levelo://app?vid=d1a30fac-ce7c-4373-8c3a-029059931649","ios":"levelo://app?vid=d1a30fac-ce7c-4373-8c3a-029059931649"},"vehicle_type_id":"4","last_reported":1707768456,"current_range_meters":3200,"station_id":"ce4bgt12rcd13ifvqcd0","pricing_plan_id":"free"},{"bike_id":"ef57f6ab-300a-49be-9597-61187524c2ca","system_id":"levelo_inurba_marseille","lat":43.305714,"lon":5.365633,"is_reserved":false,"is_disabled":false,"rental_uris":{"android":"levelo://app?vid=ef57f6ab-300a-49be-9597-61187524c2ca","ios":"levelo://app?vid=ef57f6ab-300a-49be-9597-61187524c2ca"},"vehicle_type_id":"4","last_reported":1707768456,"current_range_meters":20000,"station_id":"ce4bgs12rcd13ifvqcag","pricing_plan_id":"free"},{"bike_id":"9eb02513-166b-46d0-beeb-f43d66dce48b","system_id":"levelo_inurba_marseille","lat":43.30537,"lon":5.367345,"is_reserved":false,"is_disabled":false,"rental_uris":{"android":"levelo://app?vid=9eb02513-166b-46d0-beeb-f43d66dce48b","ios":"levelo://app?vid=9eb02513-166b-46d0-beeb-f43d66dce48b"},"vehicle_type_id":"4","last_reported":1707768456,"current_range_meters":30800,"station_id":"ce4bgrp2rcd13ifvqc9g","pricing_plan_id":"free"},{"bike_id":"c3a5ef66-1e07-4656-8d31-e13222f4f090","system_id":"levelo_inurba_marseille","lat":43.305368,"lon":5.367343,"is_reserved":false,"is_disabled":false,"rental_uris":{"android":"levelo://app?vid=c3a5ef66-1e07-4656-8d31-e13222f4f090","ios":"levelo://app?vid=c3a5ef66-1e07-4656-8d31-e13222f4f090"},"vehicle_type_id":"4","last_reported":1707768456,"current_range_meters":30400,"station_id":"ce4bgrp2rcd13ifvqc9g","pricing_plan_id":"free"},{"bike_id":"05e60f41-5f75-48cb-bd2f-fbab7a9ec98c","system_id":"levelo_inurba_marseille","lat":43.305989,"lon":5.37225,"is_reserved":false,"is_disabled":false,"rental_uris":{"android":"levelo://app?vid=05e60f41-5f75-48cb-bd2f-fbab7a9ec98c","ios":"levelo://app?vid=05e60f41-5f75-48cb-bd2f-fbab7a9ec98c"},"vehicle_type_id":"4","last_reported":1707768456,"current_range_meters":24000,"station_id":"ce4bgqh2rcd13ifvqc4g","pricing_plan_id":"free"},{"bike_id":"a26b521c-92b5-48ae-b89a-460510a1ab87","system_id":"levelo_inurba_marseille","lat":43.31655,"lon":5.37612,"is_reserved":false,"is_disabled":false,"rental_uris":{"android":"levelo://app?vid=a26b521c-92b5-48ae-b89a-460510a1ab87","ios":"levelo://app?vid=a26b521c-92b5-48ae-b89a-460510a1ab87"},"vehicle_type_id":"4","last_reported":1707768456,"current_range_meters":18800,"station_id":"","pricing_plan_id":"free"},{"bike_id":"321d6243-5e4d-4b23-8d3e-6f7dd5a9f262","system_id":"levelo_inurba_marseille","lat":43.305989,"lon":5.37225,"is_reserved":false,"is_disabled":false,"rental_uris":{"android":"levelo://app?vid=321d6243-5e4d-4b23-8d3e-6f7dd5a9f262","ios":"levelo://app?vid=321d6243-5e4d-4b23-8d3e-6f7dd5a9f262"},"vehicle_type_id":"4","last_reported":1707768456,"current_range_meters":6400,"station_id":"ce4bgqh2rcd13ifvqc4g","pricing_plan_id":"free"},{"bike_id":"04fc5646-a233-4c97-9e9d-000bf6e08b4b","system_id":"levelo_inurba_marseille","lat":43.31115,"lon":5.37764,"is_reserved":false,"is_disabled":false,"rental_uris":{"android":"levelo://app?vid=04fc5646-a233-4c97-9e9d-000bf6e08b4b","ios":"levelo://app?vid=04fc5646-a233-4c97-9e9d-000bf6e08b4b"},"vehicle_type_id":"4","last_reported":1707768456,"current_range_meters":2400,"station_id":"ce4bgt92rcd13ifvqcg0","pricing_plan_id":"free"},{"bike_id":"ebecbb38-5cd7-4c78-af82-622c8fd54c8b","system_id":"levelo_inurba_marseille","lat":43.311125,"lon":5.377624,"is_reserved":false,"is_disabled":false,"rental_uris":{"android":"levelo://app?vid=ebecbb38-5cd7-4c78-af82-622c8fd54c8b","ios":"levelo://app?vid=ebecbb38-5cd7-4c78-af82-622c8fd54c8b"},"vehicle_type_id":"4","last_reported":1707768456,"current_range_meters":4000,"station_id":"ce4bgt92rcd13ifvqcg0","pricing_plan_id":"free"},{"bike_id":"7117dcda-9bc4-4718-8b8b-53fed57f3b2a","system_id":"levelo_inurba_marseille","lat":43.307945,"lon":5.376487,"is_reserved":false,"is_disabled":false,"rental_uris":{"android":"levelo://app?vid=7117dcda-9bc4-4718-8b8b-53fed57f3b2a","ios":"levelo://app?vid=7117dcda-9bc4-4718-8b8b-53fed57f3b2a"},"vehicle_type_id":"4","last_reported":1707768456,"current_range_meters":28800,"station_id":"ce4bgv92rcd13ifvqcq0","pricing_plan_id":"free"},{"bike_id":"9a525516-b250-4705-b9fd-52b1016ae2b8","system_id":"levelo_inurba_marseille","lat":43.317075,"lon":5.377367,"is_reserved":false,"is_disabled":false,"rental_uris":{"android":"levelo://app?vid=9a525516-b250-4705-b9fd-52b1016ae2b8","ios":"levelo://app?vid=9a525516-b250-4705-b9fd-52b1016ae2b8"},"vehicle_type_id":"4","last_reported":1707768456,"current_range_meters":7200,"station_id":"ce4bgth2rcd13ifvqch0","pricing_plan_id":"free"},{"bike_id":"1d35b594-82dc-4c63-8c2a-5a6f605778b7","system_id":"levelo_inurba_marseille","lat":43.317075,"lon":5.377367,"is_reserved":false,"is_disabled":false,"rental_uris":{"android":"levelo://app?vid=1d35b594-82dc-4c63-8c2a-5a6f605778b7","ios":"levelo://app?vid=1d35b594-82dc-4c63-8c2a-5a6f605778b7"},"vehicle_type_id":"4","last_reported":1707768456,"current_range_meters":27600,"station_id":"ce4bgth2rcd13ifvqch0","pricing_plan_id":"free"},{"bike_id":"3ef00240-31df-4be9-bfe9-27658bdcd6d5","system_id":"levelo_inurba_marseille","lat":43.317075,"lon":5.377367,"is_reserved":false,"is_disabled":false,"rental_uris":{"android":"levelo://app?vid=3ef00240-31df-4be9-bfe9-27658bdcd6d5","ios":"levelo://app?vid=3ef00240-31df-4be9-bfe9-27658bdcd6d5"},"vehicle_type_id":"4","last_reported":1707768456,"current_range_meters":18800,"station_id":"ce4bgth2rcd13ifvqch0","pricing_plan_id":"free"},{"bike_id":"6c7eb289-c43e-402b-a39b-aeff7faf73e6","system_id":"levelo_inurba_marseille","lat":43.321807,"lon":5.368639,"is_reserved":false,"is_disabled":false,"rental_uris":{"android":"levelo://app?vid=6c7eb289-c43e-402b-a39b-aeff7faf73e6","ios":"levelo://app?vid=6c7eb289-c43e-402b-a39b-aeff7faf73e6"},"vehicle_type_id":"4","last_reported":1707768456,"current_range_meters":1200,"station_id":"","pricing_plan_id":"free"},{"bike_id":"ca4bc145-0288-4159-93b8-1e0aa551f83d","system_id":"levelo_inurba_marseille","lat":43.31539,"lon":5.38037,"is_reserved":false,"is_disabled":false,"rental_uris":{"android":"levelo://app?vid=ca4bc145-0288-4159-93b8-1e0aa551f83d","ios":"levelo://app?vid=ca4bc145-0288-4159-93b8-1e0aa551f83d"},"vehicle_type_id":"4","last_reported":1707768456,"current_range_meters":400,"station_id":"ce4bhsp2rcd13ifvqi50","pricing_plan_id":"free"},{"bike_id":"dca02982-a8ca-4f8f-99aa-c4c50c3dc6cf","system_id":"levelo_inurba_marseille","lat":43.32273,"lon":5.36961,"is_reserved":false,"is_disabled":false,"rental_uris":{"android":"levelo://app?vid=dca02982-a8ca-4f8f-99aa-c4c50c3dc6cf","ios":"levelo://app?vid=dca02982-a8ca-4f8f-99aa-c4c50c3dc6cf"},"vehicle_type_id":"4","last_reported":1707768456,"current_range_meters":13600,"station_id":"","pricing_plan_id":"free"},{"bike_id":"57bc12b2-c694-4aec-a06e-08344f5bacfc","system_id":"levelo_inurba_marseille","lat":43.308012,"lon":5.381511,"is_reserved":false,"is_disabled":false,"rental_uris":{"android":"levelo://app?vid=57bc12b2-c694-4aec-a06e-08344f5bacfc","ios":"levelo://app?vid=57bc12b2-c694-4aec-a06e-08344f5bacfc"},"vehicle_type_id":"4","last_reported":1707768456,"current_range_meters":17600,"station_id":"ce4bgt12rcd13ifvqce0","pricing_plan_id":"free"},{"bike_id":"69b112af-7d01-43de-8989-e6323b38e331","system_id":"levelo_inurba_marseille","lat":43.308012,"lon":5.381511,"is_reserved":false,"is_disabled":false,"rental_uris":{"android":"levelo://app?vid=69b112af-7d01-43de-8989-e6323b38e331","ios":"levelo://app?vid=69b112af-7d01-43de-8989-e6323b38e331"},"vehicle_type_id":"4","last_reported":1707768456,"current_range_meters":24800,"station_id":"ce4bgt12rcd13ifvqce0","pricing_plan_id":"free"},{"bike_id":"cd19cbd2-fdc9-4ad6-b545-da608836247c","system_id":"levelo_inurba_marseille","lat":43.324771,"lon":5.36557,"is_reserved":false,"is_disabled":false,"rental_uris":{"android":"levelo://app?vid=cd19cbd2-fdc9-4ad6-b545-da608836247c","ios":"levelo://app?vid=cd19cbd2-fdc9-4ad6-b545-da608836247c"},"vehicle_type_id":"4","last_reported":1707768456,"current_range_meters":2800,"station_id":"ce4bhs12rcd13ifvqhvg","pricing_plan_id":"free"},{"bike_id":"a34a2f83-cbcd-4c60-acc0-2f59774cd82e","system_id":"levelo_inurba_marseille","lat":43.324771,"lon":5.36557,"is_reserved":false,"is_disabled":false,"rental_uris":{"android":"levelo://app?vid=a34a2f83-cbcd-4c60-acc0-2f59774cd82e","ios":"levelo://app?vid=a34a2f83-cbcd-4c60-acc0-2f59774cd82e"},"vehicle_type_id":"4","last_reported":1707768456,"current_range_meters":4800,"station_id":"ce4bhs12rcd13ifvqhvg","pricing_plan_id":"free"},{"bike_id":"ae102b04-dfae-41a7-a671-5670341330eb","system_id":"levelo_inurba_marseille","lat":43.310804,"lon":5.38359,"is_reserved":false,"is_disabled":false,"rental_uris":{"android":"levelo://app?vid=ae102b04-dfae-41a7-a671-5670341330eb","ios":"levelo://app?vid=ae102b04-dfae-41a7-a671-5670341330eb"},"vehicle_type_id":"4","last_reported":1707768456,"current_range_meters":2400,"station_id":"ce4bgv92rcd13ifvqcr0","pricing_plan_id":"free"},{"bike_id":"486c92bf-34b2-4ccf-a112-1eb098e1f331","system_id":"levelo_inurba_marseille","lat":43.310804,"lon":5.38359,"is_reserved":false,"is_disabled":false,"rental_uris":{"android":"levelo://app?vid=486c92bf-34b2-4ccf-a112-1eb098e1f331","ios":"levelo://app?vid=486c92bf-34b2-4ccf-a112-1eb098e1f331"},"vehicle_type_id":"4","last_reported":1707768456,"current_range_meters":10400,"station_id":"ce4bgv92rcd13ifvqcr0","pricing_plan_id":"free"},{"bike_id":"742623c4-35b0-4a54-bcfb-8b45d980d2ae","system_id":"levelo_inurba_marseille","lat":43.302784,"lon":5.377158,"is_reserved":false,"is_disabled":false,"rental_uris":{"android":"levelo://app?vid=742623c4-35b0-4a54-bcfb-8b45d980d2ae","ios":"levelo://app?vid=742623c4-35b0-4a54-bcfb-8b45d980d2ae"},"vehicle_type_id":"4","last_reported":1707768456,"current_range_meters":10800,"station_id":"ce4bguh2rcd13ifvqcj0","pricing_plan_id":"free"},{"bike_id":"d5936a56-3f9e-4802-9d89-84da19e47e48","system_id":"levelo_inurba_marseille","lat":43.30143,"lon":5.37413,"is_reserved":false,"is_disabled":false,"rental_uris":{"android":"levelo://app?vid=d5936a56-3f9e-4802-9d89-84da19e47e48","ios":"levelo://app?vid=d5936a56-3f9e-4802-9d89-84da19e47e48"},"vehicle_type_id":"4","last_reported":1707768456,"current_range_meters":21200,"station_id":"ce4bgs92rcd13ifvqcc0","pricing_plan_id":"free"},{"bike_id":"4bb76dd1-f376-4657-8a3f-2579e4f876d7","system_id":"levelo_inurba_marseille","lat":43.31996,"lon":5.381443,"is_reserved":false,"is_disabled":false,"rental_uris":{"android":"levelo://app?vid=4bb76dd1-f376-4657-8a3f-2579e4f876d7","ios":"levelo://app?vid=4bb76dd1-f376-4657-8a3f-2579e4f876d7"},"vehicle_type_id":"4","last_reported":1707768456,"current_range_meters":0,"station_id":"ce4bhr12rcd13ifvqhpg","pricing_plan_id":"free"},{"bike_id":"ec59000e-1431-4b94-9efa-61772203a39e","system_id":"levelo_inurba_marseille","lat":43.31998,"lon":5.38158,"is_reserved":false,"is_disabled":false,"rental_uris":{"android":"levelo://app?vid=ec59000e-1431-4b94-9efa-61772203a39e","ios":"levelo://app?vid=ec59000e-1431-4b94-9efa-61772203a39e"},"vehicle_type_id":"4","last_reported":1707768456,"current_range_meters":1200,"station_id":"ce4bhr12rcd13ifvqhpg","pricing_plan_id":"free"},{"bike_id":"68ea133a-6c8c-4500-8dbf-a6144f869869","system_id":"levelo_inurba_marseille","lat":43.31994,"lon":5.38163,"is_reserved":false,"is_disabled":false,"rental_uris":{"android":"levelo://app?vid=68ea133a-6c8c-4500-8dbf-a6144f869869","ios":"levelo://app?vid=68ea133a-6c8c-4500-8dbf-a6144f869869"},"vehicle_type_id":"4","last_reported":1707768456,"current_range_meters":0,"station_id":"ce4bhr12rcd13ifvqhpg","pricing_plan_id":"free"},{"bike_id":"2c22e086-344d-466d-9a29-400a3159186e","system_id":"levelo_inurba_marseille","lat":43.320013,"lon":5.38159,"is_reserved":false,"is_disabled":false,"rental_uris":{"android":"levelo://app?vid=2c22e086-344d-466d-9a29-400a3159186e","ios":"levelo://app?vid=2c22e086-344d-466d-9a29-400a3159186e"},"vehicle_type_id":"4","last_reported":1707768456,"current_range_meters":11600,"station_id":"ce4bhr12rcd13ifvqhpg","pricing_plan_id":"free"},{"bike_id":"eef421ab-b8b4-44b0-8692-6f744b0dfa34","system_id":"levelo_inurba_marseille","lat":43.32,"lon":5.381616,"is_reserved":false,"is_disabled":false,"rental_uris":{"android":"levelo://app?vid=eef421ab-b8b4-44b0-8692-6f744b0dfa34","ios":"levelo://app?vid=eef421ab-b8b4-44b0-8692-6f744b0dfa34"},"vehicle_type_id":"4","last_reported":1707768456,"current_range_meters":17200,"station_id":"ce4bhr12rcd13ifvqhpg","pricing_plan_id":"free"},{"bike_id":"12ff0f57-efb1-42f5-a96c-02c2f75e3c2b","system_id":"levelo_inurba_marseille","lat":43.313571,"lon":5.384829,"is_reserved":false,"is_disabled":false,"rental_uris":{"android":"levelo://app?vid=12ff0f57-efb1-42f5-a96c-02c2f75e3c2b","ios":"levelo://app?vid=12ff0f57-efb1-42f5-a96c-02c2f75e3c2b"},"vehicle_type_id":"4","last_reported":1707768456,"current_range_meters":10400,"station_id":"ce4bgt92rcd13ifvqcf0","pricing_plan_id":"free"},{"bike_id":"10bad820-adc2-4de9-8ac2-e6a0fab7db7b","system_id":"levelo_inurba_marseille","lat":43.313571,"lon":5.384829,"is_reserved":false,"is_disabled":false,"rental_uris":{"android":"levelo://app?vid=10bad820-adc2-4de9-8ac2-e6a0fab7db7b","ios":"levelo://app?vid=10bad820-adc2-4de9-8ac2-e6a0fab7db7b"},"vehicle_type_id":"4","last_reported":1707768456,"current_range_meters":17200,"station_id":"ce4bgt92rcd13ifvqcf0","pricing_plan_id":"free"},{"bike_id":"536774e1-bfe7-4f35-a3fa-d188c4136af2","system_id":"levelo_inurba_marseille","lat":43.313571,"lon":5.384829,"is_reserved":false,"is_disabled":false,"rental_uris":{"android":"levelo://app?vid=536774e1-bfe7-4f35-a3fa-d188c4136af2","ios":"levelo://app?vid=536774e1-bfe7-4f35-a3fa-d188c4136af2"},"vehicle_type_id":"4","last_reported":1707768456,"current_range_meters":7200,"station_id":"ce4bgt92rcd13ifvqcf0","pricing_plan_id":"free"},{"bike_id":"f80f5ed0-3348-4800-a656-ea9c9a88f10d","system_id":"levelo_inurba_marseille","lat":43.313571,"lon":5.384829,"is_reserved":false,"is_disabled":false,"rental_uris":{"android":"levelo://app?vid=f80f5ed0-3348-4800-a656-ea9c9a88f10d","ios":"levelo://app?vid=f80f5ed0-3348-4800-a656-ea9c9a88f10d"},"vehicle_type_id":"4","last_reported":1707768456,"current_range_meters":4400,"station_id":"ce4bgt92rcd13ifvqcf0","pricing_plan_id":"free"},{"bike_id":"d6f1ea0f-0e2a-4458-8eb5-858caa789d0a","system_id":"levelo_inurba_marseille","lat":43.299724,"lon":5.371829,"is_reserved":false,"is_disabled":false,"rental_uris":{"android":"levelo://app?vid=d6f1ea0f-0e2a-4458-8eb5-858caa789d0a","ios":"levelo://app?vid=d6f1ea0f-0e2a-4458-8eb5-858caa789d0a"},"vehicle_type_id":"4","last_reported":1707768456,"current_range_meters":20000,"station_id":"ce4bgr92rcd13ifvqc7g","pricing_plan_id":"free"},{"bike_id":"9152aca9-28e6-4d41-86f0-81a90a9276ce","system_id":"levelo_inurba_marseille","lat":43.305364,"lon":5.384119,"is_reserved":false,"is_disabled":false,"rental_uris":{"android":"levelo://app?vid=9152aca9-28e6-4d41-86f0-81a90a9276ce","ios":"levelo://app?vid=9152aca9-28e6-4d41-86f0-81a90a9276ce"},"vehicle_type_id":"4","last_reported":1707768456,"current_range_meters":1200,"station_id":"ce4bgg92rcd13ifvqb30","pricing_plan_id":"free"},{"bike_id":"1e65f469-019c-4714-a330-ed9f0d796f84","system_id":"levelo_inurba_marseille","lat":43.31155,"lon":5.38687,"is_reserved":false,"is_disabled":false,"rental_uris":{"android":"levelo://app?vid=1e65f469-019c-4714-a330-ed9f0d796f84","ios":"levelo://app?vid=1e65f469-019c-4714-a330-ed9f0d796f84"},"vehicle_type_id":"4","last_reported":1707768456,"current_range_meters":18800,"station_id":"ce4bgv12rcd13ifvqcp0","pricing_plan_id":"free"},{"bike_id":"0a5d9c4a-c3b8-4638-a3f2-61c7092483f3","system_id":"levelo_inurba_marseille","lat":43.311722,"lon":5.387247,"is_reserved":false,"is_disabled":false,"rental_uris":{"android":"levelo://app?vid=0a5d9c4a-c3b8-4638-a3f2-61c7092483f3","ios":"levelo://app?vid=0a5d9c4a-c3b8-4638-a3f2-61c7092483f3"},"vehicle_type_id":"4","last_reported":1707768456,"current_range_meters":10400,"station_id":"ce4bgv12rcd13ifvqcp0","pricing_plan_id":"free"},{"bike_id":"c7f3d38a-237d-4a77-8968-cc825cba8ffd","system_id":"levelo_inurba_marseille","lat":43.29932,"lon":5.37501,"is_reserved":false,"is_disabled":false,"rental_uris":{"android":"levelo://app?vid=c7f3d38a-237d-4a77-8968-cc825cba8ffd","ios":"levelo://app?vid=c7f3d38a-237d-4a77-8968-cc825cba8ffd"},"vehicle_type_id":"4","last_reported":1707768456,"current_range_meters":1600,"station_id":"ce4bgjh2rcd13ifvqbg0","pricing_plan_id":"free"},{"bike_id":"f68a0559-01a4-4d65-96c2-6c09b4364852","system_id":"levelo_inurba_marseille","lat":43.311722,"lon":5.387247,"is_reserved":false,"is_disabled":false,"rental_uris":{"android":"levelo://app?vid=f68a0559-01a4-4d65-96c2-6c09b4364852","ios":"levelo://app?vid=f68a0559-01a4-4d65-96c2-6c09b4364852"},"vehicle_type_id":"4","last_reported":1707768456,"current_range_meters":10400,"station_id":"ce4bgv12rcd13ifvqcp0","pricing_plan_id":"free"},{"bike_id":"7e0faa01-a580-40c8-a904-99fc96650a55","system_id":"levelo_inurba_marseille","lat":43.2992,"lon":5.37475,"is_reserved":false,"is_disabled":false,"rental_uris":{"android":"levelo://app?vid=7e0faa01-a580-40c8-a904-99fc96650a55","ios":"levelo://app?vid=7e0faa01-a580-40c8-a904-99fc96650a55"},"vehicle_type_id":"4","last_reported":1707768456,"current_range_meters":24400,"station_id":"ce4bgjh2rcd13ifvqbg0","pricing_plan_id":"free"},{"bike_id":"6a95ce23-c39e-407e-a6d0-23e6d8127458","system_id":"levelo_inurba_marseille","lat":43.2991,"lon":5.37472,"is_reserved":false,"is_disabled":false,"rental_uris":{"android":"levelo://app?vid=6a95ce23-c39e-407e-a6d0-23e6d8127458","ios":"levelo://app?vid=6a95ce23-c39e-407e-a6d0-23e6d8127458"},"vehicle_type_id":"4","last_reported":1707768456,"current_range_meters":0,"station_id":"ce4bgjh2rcd13ifvqbg0","pricing_plan_id":"free"},{"bike_id":"e55fcaa5-901c-4125-af7c-a00d790db26e","system_id":"levelo_inurba_marseille","lat":43.311722,"lon":5.387247,"is_reserved":false,"is_disabled":false,"rental_uris":{"android":"levelo://app?vid=e55fcaa5-901c-4125-af7c-a00d790db26e","ios":"levelo://app?vid=e55fcaa5-901c-4125-af7c-a00d790db26e"},"vehicle_type_id":"4","last_reported":1707768456,"current_range_meters":20800,"station_id":"ce4bgv12rcd13ifvqcp0","pricing_plan_id":"free"},{"bike_id":"964d4335-777b-44f0-91f1-70fb9148c889","system_id":"levelo_inurba_marseille","lat":43.311722,"lon":5.387247,"is_reserved":false,"is_disabled":false,"rental_uris":{"android":"levelo://app?vid=964d4335-777b-44f0-91f1-70fb9148c889","ios":"levelo://app?vid=964d4335-777b-44f0-91f1-70fb9148c889"},"vehicle_type_id":"4","last_reported":1707768456,"current_range_meters":400,"station_id":"ce4bgv12rcd13ifvqcp0","pricing_plan_id":"free"},{"bike_id":"d16915ab-365b-49c0-8e2e-1059f74f084d","system_id":"levelo_inurba_marseille","lat":43.32287,"lon":5.38265,"is_reserved":false,"is_disabled":false,"rental_uris":{"android":"levelo://app?vid=d16915ab-365b-49c0-8e2e-1059f74f084d","ios":"levelo://app?vid=d16915ab-365b-49c0-8e2e-1059f74f084d"},"vehicle_type_id":"4","last_reported":1707768456,"current_range_meters":22800,"station_id":"ce4bhr12rcd13ifvqhqg","pricing_plan_id":"free"},{"bike_id":"beb3e36f-3f99-4dfc-841c-74803ce2e6c8","system_id":"levelo_inurba_marseille","lat":43.32291,"lon":5.38264,"is_reserved":false,"is_disabled":false,"rental_uris":{"android":"levelo://app?vid=beb3e36f-3f99-4dfc-841c-74803ce2e6c8","ios":"levelo://app?vid=beb3e36f-3f99-4dfc-841c-74803ce2e6c8"},"vehicle_type_id":"4","last_reported":1707768456,"current_range_meters":0,"station_id":"ce4bhr12rcd13ifvqhqg","pricing_plan_id":"free"},{"bike_id":"527b6507-a86f-47b7-9c36-9aeccc7f6780","system_id":"levelo_inurba_marseille","lat":43.32288,"lon":5.38268,"is_reserved":false,"is_disabled":false,"rental_uris":{"android":"levelo://app?vid=527b6507-a86f-47b7-9c36-9aeccc7f6780","ios":"levelo://app?vid=527b6507-a86f-47b7-9c36-9aeccc7f6780"},"vehicle_type_id":"4","last_reported":1707768456,"current_range_meters":27600,"station_id":"ce4bhr12rcd13ifvqhqg","pricing_plan_id":"free"},{"bike_id":"7c59bca1-a347-4cb9-b145-64f6481277fc","system_id":"levelo_inurba_marseille","lat":43.3229,"lon":5.38271,"is_reserved":false,"is_disabled":false,"rental_uris":{"android":"levelo://app?vid=7c59bca1-a347-4cb9-b145-64f6481277fc","ios":"levelo://app?vid=7c59bca1-a347-4cb9-b145-64f6481277fc"},"vehicle_type_id":"4","last_reported":1707768456,"current_range_meters":30400,"station_id":"ce4bhr12rcd13ifvqhqg","pricing_plan_id":"free"},{"bike_id":"e5750477-e3f2-40a2-b1f6-91d5216398f6","system_id":"levelo_inurba_marseille","lat":43.3229,"lon":5.38273,"is_reserved":false,"is_disabled":false,"rental_uris":{"android":"levelo://app?vid=e5750477-e3f2-40a2-b1f6-91d5216398f6","ios":"levelo://app?vid=e5750477-e3f2-40a2-b1f6-91d5216398f6"},"vehicle_type_id":"4","last_reported":1707768456,"current_range_meters":23200,"station_id":"ce4bhr12rcd13ifvqhqg","pricing_plan_id":"free"},{"bike_id":"c3332315-777e-4af8-b68a-18a46d9c4f28","system_id":"levelo_inurba_marseille","lat":43.3229,"lon":5.38276,"is_reserved":false,"is_disabled":false,"rental_uris":{"android":"levelo://app?vid=c3332315-777e-4af8-b68a-18a46d9c4f28","ios":"levelo://app?vid=c3332315-777e-4af8-b68a-18a46d9c4f28"},"vehicle_type_id":"4","last_reported":1707768456,"current_range_meters":28000,"station_id":"ce4bhr12rcd13ifvqhqg","pricing_plan_id":"free"},{"bike_id":"2503d63f-9409-4626-bcfa-fa2e70777687","system_id":"levelo_inurba_marseille","lat":43.322872,"lon":5.382756,"is_reserved":false,"is_disabled":false,"rental_uris":{"android":"levelo://app?vid=2503d63f-9409-4626-bcfa-fa2e70777687","ios":"levelo://app?vid=2503d63f-9409-4626-bcfa-fa2e70777687"},"vehicle_type_id":"4","last_reported":1707768456,"current_range_meters":25600,"station_id":"ce4bhr12rcd13ifvqhqg","pricing_plan_id":"free"},{"bike_id":"33170a3c-d249-42cf-a23e-db8cbeecfd39","system_id":"levelo_inurba_marseille","lat":43.322872,"lon":5.382756,"is_reserved":false,"is_disabled":false,"rental_uris":{"android":"levelo://app?vid=33170a3c-d249-42cf-a23e-db8cbeecfd39","ios":"levelo://app?vid=33170a3c-d249-42cf-a23e-db8cbeecfd39"},"vehicle_type_id":"4","last_reported":1707768456,"current_range_meters":9600,"station_id":"ce4bhr12rcd13ifvqhqg","pricing_plan_id":"free"},{"bike_id":"86254fdf-6ef6-483b-a898-31a9e6cb76cc","system_id":"levelo_inurba_marseille","lat":43.297163,"lon":5.365866,"is_reserved":false,"is_disabled":false,"rental_uris":{"android":"levelo://app?vid=86254fdf-6ef6-483b-a898-31a9e6cb76cc","ios":"levelo://app?vid=86254fdf-6ef6-483b-a898-31a9e6cb76cc"},"vehicle_type_id":"4","last_reported":1707768456,"current_range_meters":20800,"station_id":"ce4bgn12rcd13ifvqbt0","pricing_plan_id":"free"},{"bike_id":"c780842c-e95f-47ff-a149-ed36c8a413db","system_id":"levelo_inurba_marseille","lat":43.322872,"lon":5.382756,"is_reserved":false,"is_disabled":false,"rental_uris":{"android":"levelo://app?vid=c780842c-e95f-47ff-a149-ed36c8a413db","ios":"levelo://app?vid=c780842c-e95f-47ff-a149-ed36c8a413db"},"vehicle_type_id":"4","last_reported":1707768456,"current_range_meters":30800,"station_id":"ce4bhr12rcd13ifvqhqg","pricing_plan_id":"free"},{"bike_id":"a44933ef-03a0-4282-9ff6-bcc91878fda0","system_id":"levelo_inurba_marseille","lat":43.32823,"lon":5.366826,"is_reserved":false,"is_disabled":false,"rental_uris":{"android":"levelo://app?vid=a44933ef-03a0-4282-9ff6-bcc91878fda0","ios":"levelo://app?vid=a44933ef-03a0-4282-9ff6-bcc91878fda0"},"vehicle_type_id":"4","last_reported":1707768456,"current_range_meters":6800,"station_id":"ce4bhs92rcd13ifvqi0g","pricing_plan_id":"free"},{"bike_id":"03730dd5-0a88-4239-8528-528347df93a2","system_id":"levelo_inurba_marseille","lat":43.328371,"lon":5.366909,"is_reserved":false,"is_disabled":false,"rental_uris":{"android":"levelo://app?vid=03730dd5-0a88-4239-8528-528347df93a2","ios":"levelo://app?vid=03730dd5-0a88-4239-8528-528347df93a2"},"vehicle_type_id":"4","last_reported":1707768456,"current_range_meters":6400,"station_id":"ce4bhs92rcd13ifvqi0g","pricing_plan_id":"free"},{"bike_id":"99e6dca8-54df-4893-943b-1465094ebc9e","system_id":"levelo_inurba_marseille","lat":43.32826,"lon":5.36682,"is_reserved":false,"is_disabled":false,"rental_uris":{"android":"levelo://app?vid=99e6dca8-54df-4893-943b-1465094ebc9e","ios":"levelo://app?vid=99e6dca8-54df-4893-943b-1465094ebc9e"},"vehicle_type_id":"4","last_reported":1707768456,"current_range_meters":1600,"station_id":"ce4bhs92rcd13ifvqi0g","pricing_plan_id":"free"},{"bike_id":"de562f14-ffaa-41a8-9815-6c8ff06728a2","system_id":"levelo_inurba_marseille","lat":43.32826,"lon":5.36682,"is_reserved":false,"is_disabled":false,"rental_uris":{"android":"levelo://app?vid=de562f14-ffaa-41a8-9815-6c8ff06728a2","ios":"levelo://app?vid=de562f14-ffaa-41a8-9815-6c8ff06728a2"},"vehicle_type_id":"4","last_reported":1707768456,"current_range_meters":18000,"station_id":"ce4bhs92rcd13ifvqi0g","pricing_plan_id":"free"},{"bike_id":"0cf06903-45ed-4c06-866c-98b66b380890","system_id":"levelo_inurba_marseille","lat":43.328268,"lon":5.366794,"is_reserved":false,"is_disabled":false,"rental_uris":{"android":"levelo://app?vid=0cf06903-45ed-4c06-866c-98b66b380890","ios":"levelo://app?vid=0cf06903-45ed-4c06-866c-98b66b380890"},"vehicle_type_id":"4","last_reported":1707768456,"current_range_meters":20400,"station_id":"ce4bhs92rcd13ifvqi0g","pricing_plan_id":"free"},{"bike_id":"d7fb2c06-e97d-437a-9eb9-d8da8314c700","system_id":"levelo_inurba_marseille","lat":43.32828,"lon":5.36678,"is_reserved":false,"is_disabled":false,"rental_uris":{"android":"levelo://app?vid=d7fb2c06-e97d-437a-9eb9-d8da8314c700","ios":"levelo://app?vid=d7fb2c06-e97d-437a-9eb9-d8da8314c700"},"vehicle_type_id":"4","last_reported":1707768456,"current_range_meters":2000,"station_id":"ce4bhs92rcd13ifvqi0g","pricing_plan_id":"free"},{"bike_id":"b17262ff-d7fc-4ef8-92b0-4128905d7cdd","system_id":"levelo_inurba_marseille","lat":43.328282,"lon":5.366895,"is_reserved":false,"is_disabled":false,"rental_uris":{"android":"levelo://app?vid=b17262ff-d7fc-4ef8-92b0-4128905d7cdd","ios":"levelo://app?vid=b17262ff-d7fc-4ef8-92b0-4128905d7cdd"},"vehicle_type_id":"4","last_reported":1707768456,"current_range_meters":25200,"station_id":"ce4bhs92rcd13ifvqi0g","pricing_plan_id":"free"},{"bike_id":"f9328847-93f3-477c-b3c4-058f938086b7","system_id":"levelo_inurba_marseille","lat":43.3283,"lon":5.36687,"is_reserved":false,"is_disabled":false,"rental_uris":{"android":"levelo://app?vid=f9328847-93f3-477c-b3c4-058f938086b7","ios":"levelo://app?vid=f9328847-93f3-477c-b3c4-058f938086b7"},"vehicle_type_id":"4","last_reported":1707768456,"current_range_meters":14400,"station_id":"ce4bhs92rcd13ifvqi0g","pricing_plan_id":"free"},{"bike_id":"9f2ae0bd-3169-4a49-a743-1f928b2ea94c","system_id":"levelo_inurba_marseille","lat":43.328371,"lon":5.366909,"is_reserved":false,"is_disabled":false,"rental_uris":{"android":"levelo://app?vid=9f2ae0bd-3169-4a49-a743-1f928b2ea94c","ios":"levelo://app?vid=9f2ae0bd-3169-4a49-a743-1f928b2ea94c"},"vehicle_type_id":"4","last_reported":1707768456,"current_range_meters":7200,"station_id":"ce4bhs92rcd13ifvqi0g","pricing_plan_id":"free"},{"bike_id":"6efdf75a-59db-4683-9096-a599d89573b4","system_id":"levelo_inurba_marseille","lat":43.328371,"lon":5.366912,"is_reserved":false,"is_disabled":false,"rental_uris":{"android":"levelo://app?vid=6efdf75a-59db-4683-9096-a599d89573b4","ios":"levelo://app?vid=6efdf75a-59db-4683-9096-a599d89573b4"},"vehicle_type_id":"4","last_reported":1707768456,"current_range_meters":24400,"station_id":"ce4bhs92rcd13ifvqi0g","pricing_plan_id":"free"},{"bike_id":"8e092373-00e1-4a63-b127-a3af9bd0304a","system_id":"levelo_inurba_marseille","lat":43.297163,"lon":5.365866,"is_reserved":false,"is_disabled":false,"rental_uris":{"android":"levelo://app?vid=8e092373-00e1-4a63-b127-a3af9bd0304a","ios":"levelo://app?vid=8e092373-00e1-4a63-b127-a3af9bd0304a"},"vehicle_type_id":"4","last_reported":1707768456,"current_range_meters":14000,"station_id":"ce4bgn12rcd13ifvqbt0","pricing_plan_id":"free"},{"bike_id":"d22a27f5-091b-42fa-941c-6e99819fca0e","system_id":"levelo_inurba_marseille","lat":43.328308,"lon":5.366843,"is_reserved":false,"is_disabled":false,"rental_uris":{"android":"levelo://app?vid=d22a27f5-091b-42fa-941c-6e99819fca0e","ios":"levelo://app?vid=d22a27f5-091b-42fa-941c-6e99819fca0e"},"vehicle_type_id":"4","last_reported":1707768456,"current_range_meters":17600,"station_id":"ce4bhs92rcd13ifvqi0g","pricing_plan_id":"free"},{"bike_id":"539658ea-f894-4894-b082-9dd4b1b6af49","system_id":"levelo_inurba_marseille","lat":43.328371,"lon":5.366909,"is_reserved":false,"is_disabled":false,"rental_uris":{"android":"levelo://app?vid=539658ea-f894-4894-b082-9dd4b1b6af49","ios":"levelo://app?vid=539658ea-f894-4894-b082-9dd4b1b6af49"},"vehicle_type_id":"4","last_reported":1707768456,"current_range_meters":26000,"station_id":"ce4bhs92rcd13ifvqi0g","pricing_plan_id":"free"},{"bike_id":"9d4f4af9-654a-4fd3-bf5e-6e84dbb3dbae","system_id":"levelo_inurba_marseille","lat":43.32831,"lon":5.36686,"is_reserved":false,"is_disabled":false,"rental_uris":{"android":"levelo://app?vid=9d4f4af9-654a-4fd3-bf5e-6e84dbb3dbae","ios":"levelo://app?vid=9d4f4af9-654a-4fd3-bf5e-6e84dbb3dbae"},"vehicle_type_id":"4","last_reported":1707768456,"current_range_meters":8800,"station_id":"ce4bhs92rcd13ifvqi0g","pricing_plan_id":"free"},{"bike_id":"1f8bcc96-199c-401e-a00d-ac34b60c808b","system_id":"levelo_inurba_marseille","lat":43.328371,"lon":5.366912,"is_reserved":false,"is_disabled":false,"rental_uris":{"android":"levelo://app?vid=1f8bcc96-199c-401e-a00d-ac34b60c808b","ios":"levelo://app?vid=1f8bcc96-199c-401e-a00d-ac34b60c808b"},"vehicle_type_id":"4","last_reported":1707768456,"current_range_meters":4000,"station_id":"ce4bhs92rcd13ifvqi0g","pricing_plan_id":"free"},{"bike_id":"6999e336-b5dd-44ca-9b7f-232462b76e41","system_id":"levelo_inurba_marseille","lat":43.328371,"lon":5.366909,"is_reserved":false,"is_disabled":false,"rental_uris":{"android":"levelo://app?vid=6999e336-b5dd-44ca-9b7f-232462b76e41","ios":"levelo://app?vid=6999e336-b5dd-44ca-9b7f-232462b76e41"},"vehicle_type_id":"4","last_reported":1707768456,"current_range_meters":5200,"station_id":"ce4bhs92rcd13ifvqi0g","pricing_plan_id":"free"},{"bike_id":"a22b4351-89df-44ce-a9c5-b5aa3919be44","system_id":"levelo_inurba_marseille","lat":43.328332,"lon":5.366859,"is_reserved":false,"is_disabled":false,"rental_uris":{"android":"levelo://app?vid=a22b4351-89df-44ce-a9c5-b5aa3919be44","ios":"levelo://app?vid=a22b4351-89df-44ce-a9c5-b5aa3919be44"},"vehicle_type_id":"4","last_reported":1707768456,"current_range_meters":23600,"station_id":"ce4bhs92rcd13ifvqi0g","pricing_plan_id":"free"},{"bike_id":"6a3c4286-d135-47b6-b7e6-099bebcaa564","system_id":"levelo_inurba_marseille","lat":43.328371,"lon":5.366912,"is_reserved":false,"is_disabled":false,"rental_uris":{"android":"levelo://app?vid=6a3c4286-d135-47b6-b7e6-099bebcaa564","ios":"levelo://app?vid=6a3c4286-d135-47b6-b7e6-099bebcaa564"},"vehicle_type_id":"4","last_reported":1707768456,"current_range_meters":28800,"station_id":"ce4bhs92rcd13ifvqi0g","pricing_plan_id":"free"},{"bike_id":"0698732c-7b3f-4a8a-86e5-fd25f4d00607","system_id":"levelo_inurba_marseille","lat":43.29689,"lon":5.37293,"is_reserved":false,"is_disabled":false,"rental_uris":{"android":"levelo://app?vid=0698732c-7b3f-4a8a-86e5-fd25f4d00607","ios":"levelo://app?vid=0698732c-7b3f-4a8a-86e5-fd25f4d00607"},"vehicle_type_id":"4","last_reported":1707768456,"current_range_meters":8000,"station_id":"ce4bgk12rcd13ifvqbj0","pricing_plan_id":"free"},{"bike_id":"a6882e6e-1dd1-46be-8933-754f3c4c13b8","system_id":"levelo_inurba_marseille","lat":43.2968,"lon":5.37291,"is_reserved":false,"is_disabled":false,"rental_uris":{"android":"levelo://app?vid=a6882e6e-1dd1-46be-8933-754f3c4c13b8","ios":"levelo://app?vid=a6882e6e-1dd1-46be-8933-754f3c4c13b8"},"vehicle_type_id":"4","last_reported":1707768456,"current_range_meters":19200,"station_id":"ce4bgk12rcd13ifvqbj0","pricing_plan_id":"free"},{"bike_id":"e84ff4d2-8c0e-476b-b55a-37d3bdd50b55","system_id":"levelo_inurba_marseille","lat":43.295951,"lon":5.368007,"is_reserved":false,"is_disabled":false,"rental_uris":{"android":"levelo://app?vid=e84ff4d2-8c0e-476b-b55a-37d3bdd50b55","ios":"levelo://app?vid=e84ff4d2-8c0e-476b-b55a-37d3bdd50b55"},"vehicle_type_id":"4","last_reported":1707768456,"current_range_meters":9600,"station_id":"","pricing_plan_id":"free"},{"bike_id":"ece7b733-0963-4dbd-9901-a05e92721a25","system_id":"levelo_inurba_marseille","lat":43.296131,"lon":5.370791,"is_reserved":false,"is_disabled":false,"rental_uris":{"android":"levelo://app?vid=ece7b733-0963-4dbd-9901-a05e92721a25","ios":"levelo://app?vid=ece7b733-0963-4dbd-9901-a05e92721a25"},"vehicle_type_id":"4","last_reported":1707768456,"current_range_meters":22000,"station_id":"ce4bgnh2rcd13ifvqc0g","pricing_plan_id":"free"},{"bike_id":"9607e598-0114-496f-b334-cb24f831e6a6","system_id":"levelo_inurba_marseille","lat":43.299028,"lon":5.381509,"is_reserved":false,"is_disabled":false,"rental_uris":{"android":"levelo://app?vid=9607e598-0114-496f-b334-cb24f831e6a6","ios":"levelo://app?vid=9607e598-0114-496f-b334-cb24f831e6a6"},"vehicle_type_id":"4","last_reported":1707768456,"current_range_meters":4400,"station_id":"ce4bgj12rcd13ifvqbc0","pricing_plan_id":"free"},{"bike_id":"f42d86a3-26a3-4740-a076-acda4a783789","system_id":"levelo_inurba_marseille","lat":43.317557,"lon":5.390173,"is_reserved":false,"is_disabled":false,"rental_uris":{"android":"levelo://app?vid=f42d86a3-26a3-4740-a076-acda4a783789","ios":"levelo://app?vid=f42d86a3-26a3-4740-a076-acda4a783789"},"vehicle_type_id":"4","last_reported":1707768456,"current_range_meters":27200,"station_id":"ce4bhqp2rcd13ifvqhng","pricing_plan_id":"free"},{"bike_id":"6117291f-19d4-409c-be16-ea2c0d5a38af","system_id":"levelo_inurba_marseille","lat":43.317569,"lon":5.390166,"is_reserved":false,"is_disabled":false,"rental_uris":{"android":"levelo://app?vid=6117291f-19d4-409c-be16-ea2c0d5a38af","ios":"levelo://app?vid=6117291f-19d4-409c-be16-ea2c0d5a38af"},"vehicle_type_id":"4","last_reported":1707768456,"current_range_meters":8800,"station_id":"ce4bhqp2rcd13ifvqhng","pricing_plan_id":"free"},{"bike_id":"e4fb8bdb-2f12-40c5-8bb7-c44304f6c093","system_id":"levelo_inurba_marseille","lat":43.31757,"lon":5.39017,"is_reserved":false,"is_disabled":false,"rental_uris":{"android":"levelo://app?vid=e4fb8bdb-2f12-40c5-8bb7-c44304f6c093","ios":"levelo://app?vid=e4fb8bdb-2f12-40c5-8bb7-c44304f6c093"},"vehicle_type_id":"4","last_reported":1707768456,"current_range_meters":22400,"station_id":"ce4bhqp2rcd13ifvqhng","pricing_plan_id":"free"},{"bike_id":"c64f5bfa-78fa-4ca6-972c-8b8de57dcc38","system_id":"levelo_inurba_marseille","lat":43.317557,"lon":5.390173,"is_reserved":false,"is_disabled":false,"rental_uris":{"android":"levelo://app?vid=c64f5bfa-78fa-4ca6-972c-8b8de57dcc38","ios":"levelo://app?vid=c64f5bfa-78fa-4ca6-972c-8b8de57dcc38"},"vehicle_type_id":"4","last_reported":1707768456,"current_range_meters":10000,"station_id":"ce4bhqp2rcd13ifvqhng","pricing_plan_id":"free"},{"bike_id":"6c13b8a6-6de2-4cb8-90a3-ca30e8c1dab5","system_id":"levelo_inurba_marseille","lat":43.31751,"lon":5.3902,"is_reserved":false,"is_disabled":false,"rental_uris":{"android":"levelo://app?vid=6c13b8a6-6de2-4cb8-90a3-ca30e8c1dab5","ios":"levelo://app?vid=6c13b8a6-6de2-4cb8-90a3-ca30e8c1dab5"},"vehicle_type_id":"4","last_reported":1707768456,"current_range_meters":16400,"station_id":"ce4bhqp2rcd13ifvqhng","pricing_plan_id":"free"},{"bike_id":"be9cf9ac-82a5-4313-9a19-c2aa38642a56","system_id":"levelo_inurba_marseille","lat":43.31749,"lon":5.39023,"is_reserved":false,"is_disabled":false,"rental_uris":{"android":"levelo://app?vid=be9cf9ac-82a5-4313-9a19-c2aa38642a56","ios":"levelo://app?vid=be9cf9ac-82a5-4313-9a19-c2aa38642a56"},"vehicle_type_id":"4","last_reported":1707768456,"current_range_meters":19200,"station_id":"ce4bhqp2rcd13ifvqhng","pricing_plan_id":"free"},{"bike_id":"d316055b-b4e1-4300-a152-12db6201596f","system_id":"levelo_inurba_marseille","lat":43.31758,"lon":5.3902,"is_reserved":false,"is_disabled":false,"rental_uris":{"android":"levelo://app?vid=d316055b-b4e1-4300-a152-12db6201596f","ios":"levelo://app?vid=d316055b-b4e1-4300-a152-12db6201596f"},"vehicle_type_id":"4","last_reported":1707768456,"current_range_meters":31200,"station_id":"ce4bhqp2rcd13ifvqhng","pricing_plan_id":"free"},{"bike_id":"6fea3049-e166-4c62-ae45-118f599bb1bd","system_id":"levelo_inurba_marseille","lat":43.317557,"lon":5.390173,"is_reserved":false,"is_disabled":false,"rental_uris":{"android":"levelo://app?vid=6fea3049-e166-4c62-ae45-118f599bb1bd","ios":"levelo://app?vid=6fea3049-e166-4c62-ae45-118f599bb1bd"},"vehicle_type_id":"4","last_reported":1707768456,"current_range_meters":30800,"station_id":"ce4bhqp2rcd13ifvqhng","pricing_plan_id":"free"},{"bike_id":"7f7fc01e-1952-4bab-afa7-dcf3990c799a","system_id":"levelo_inurba_marseille","lat":43.317557,"lon":5.390173,"is_reserved":false,"is_disabled":false,"rental_uris":{"android":"levelo://app?vid=7f7fc01e-1952-4bab-afa7-dcf3990c799a","ios":"levelo://app?vid=7f7fc01e-1952-4bab-afa7-dcf3990c799a"},"vehicle_type_id":"4","last_reported":1707768456,"current_range_meters":31600,"station_id":"ce4bhqp2rcd13ifvqhng","pricing_plan_id":"free"},{"bike_id":"f718d9c2-6fb8-4585-9684-c2b2826090ae","system_id":"levelo_inurba_marseille","lat":43.317585,"lon":5.390206,"is_reserved":false,"is_disabled":false,"rental_uris":{"android":"levelo://app?vid=f718d9c2-6fb8-4585-9684-c2b2826090ae","ios":"levelo://app?vid=f718d9c2-6fb8-4585-9684-c2b2826090ae"},"vehicle_type_id":"4","last_reported":1707768456,"current_range_meters":31200,"station_id":"ce4bhqp2rcd13ifvqhng","pricing_plan_id":"free"},{"bike_id":"ff96a7d3-adf4-41f2-b7f4-c9989e2211ad","system_id":"levelo_inurba_marseille","lat":43.317557,"lon":5.390173,"is_reserved":false,"is_disabled":false,"rental_uris":{"android":"levelo://app?vid=ff96a7d3-adf4-41f2-b7f4-c9989e2211ad","ios":"levelo://app?vid=ff96a7d3-adf4-41f2-b7f4-c9989e2211ad"},"vehicle_type_id":"4","last_reported":1707768456,"current_range_meters":19200,"station_id":"ce4bhqp2rcd13ifvqhng","pricing_plan_id":"free"},{"bike_id":"db336c6e-a9e4-4755-9985-80bc119245c3","system_id":"levelo_inurba_marseille","lat":43.317557,"lon":5.390173,"is_reserved":false,"is_disabled":false,"rental_uris":{"android":"levelo://app?vid=db336c6e-a9e4-4755-9985-80bc119245c3","ios":"levelo://app?vid=db336c6e-a9e4-4755-9985-80bc119245c3"},"vehicle_type_id":"4","last_reported":1707768456,"current_range_meters":31200,"station_id":"ce4bhqp2rcd13ifvqhng","pricing_plan_id":"free"},{"bike_id":"09008396-4df0-421d-b3bd-c071bc61ca03","system_id":"levelo_inurba_marseille","lat":43.31755,"lon":5.390247,"is_reserved":false,"is_disabled":false,"rental_uris":{"android":"levelo://app?vid=09008396-4df0-421d-b3bd-c071bc61ca03","ios":"levelo://app?vid=09008396-4df0-421d-b3bd-c071bc61ca03"},"vehicle_type_id":"4","last_reported":1707768456,"current_range_meters":21200,"station_id":"ce4bhqp2rcd13ifvqhng","pricing_plan_id":"free"},{"bike_id":"c29f8f52-e332-436d-a51c-f1629c25b243","system_id":"levelo_inurba_marseille","lat":43.317557,"lon":5.390173,"is_reserved":false,"is_disabled":false,"rental_uris":{"android":"levelo://app?vid=c29f8f52-e332-436d-a51c-f1629c25b243","ios":"levelo://app?vid=c29f8f52-e332-436d-a51c-f1629c25b243"},"vehicle_type_id":"4","last_reported":1707768456,"current_range_meters":20800,"station_id":"ce4bhqp2rcd13ifvqhng","pricing_plan_id":"free"},{"bike_id":"ac01b50e-433e-49b3-b608-2ec0d9b78044","system_id":"levelo_inurba_marseille","lat":43.298037,"lon":5.381066,"is_reserved":false,"is_disabled":false,"rental_uris":{"android":"levelo://app?vid=ac01b50e-433e-49b3-b608-2ec0d9b78044","ios":"levelo://app?vid=ac01b50e-433e-49b3-b608-2ec0d9b78044"},"vehicle_type_id":"4","last_reported":1707768456,"current_range_meters":15600,"station_id":"ce4bgip2rcd13ifvqbb0","pricing_plan_id":"free"},{"bike_id":"c9bb32cd-4038-48f0-83b8-91bc5e601175","system_id":"levelo_inurba_marseille","lat":43.30451,"lon":5.38889,"is_reserved":false,"is_disabled":false,"rental_uris":{"android":"levelo://app?vid=c9bb32cd-4038-48f0-83b8-91bc5e601175","ios":"levelo://app?vid=c9bb32cd-4038-48f0-83b8-91bc5e601175"},"vehicle_type_id":"4","last_reported":1707768456,"current_range_meters":25200,"station_id":"ce4bgk12rcd13ifvqbi0","pricing_plan_id":"free"},{"bike_id":"c82d59aa-9891-4f53-9191-ce1a33fe3fa3","system_id":"levelo_inurba_marseille","lat":43.304448,"lon":5.388866,"is_reserved":false,"is_disabled":false,"rental_uris":{"android":"levelo://app?vid=c82d59aa-9891-4f53-9191-ce1a33fe3fa3","ios":"levelo://app?vid=c82d59aa-9891-4f53-9191-ce1a33fe3fa3"},"vehicle_type_id":"4","last_reported":1707768456,"current_range_meters":4800,"station_id":"ce4bgk12rcd13ifvqbi0","pricing_plan_id":"free"},{"bike_id":"b9631352-2a79-41f7-b6e4-3fe4e6209359","system_id":"levelo_inurba_marseille","lat":43.304274,"lon":5.388873,"is_reserved":false,"is_disabled":false,"rental_uris":{"android":"levelo://app?vid=b9631352-2a79-41f7-b6e4-3fe4e6209359","ios":"levelo://app?vid=b9631352-2a79-41f7-b6e4-3fe4e6209359"},"vehicle_type_id":"4","last_reported":1707768456,"current_range_meters":4000,"station_id":"ce4bgk12rcd13ifvqbi0","pricing_plan_id":"free"},{"bike_id":"ec7f6dab-b21c-4957-94b0-f06b80a6d125","system_id":"levelo_inurba_marseille","lat":43.304274,"lon":5.388873,"is_reserved":false,"is_disabled":false,"rental_uris":{"android":"levelo://app?vid=ec7f6dab-b21c-4957-94b0-f06b80a6d125","ios":"levelo://app?vid=ec7f6dab-b21c-4957-94b0-f06b80a6d125"},"vehicle_type_id":"4","last_reported":1707768456,"current_range_meters":3600,"station_id":"ce4bgk12rcd13ifvqbi0","pricing_plan_id":"free"},{"bike_id":"0fec86d2-45f7-4a2d-9035-941c11852e3b","system_id":"levelo_inurba_marseille","lat":43.30436,"lon":5.38888,"is_reserved":false,"is_disabled":false,"rental_uris":{"android":"levelo://app?vid=0fec86d2-45f7-4a2d-9035-941c11852e3b","ios":"levelo://app?vid=0fec86d2-45f7-4a2d-9035-941c11852e3b"},"vehicle_type_id":"4","last_reported":1707768456,"current_range_meters":21200,"station_id":"ce4bgk12rcd13ifvqbi0","pricing_plan_id":"free"},{"bike_id":"4a93e636-15df-49cf-9530-4a60c978d2d7","system_id":"levelo_inurba_marseille","lat":43.304274,"lon":5.388873,"is_reserved":false,"is_disabled":false,"rental_uris":{"android":"levelo://app?vid=4a93e636-15df-49cf-9530-4a60c978d2d7","ios":"levelo://app?vid=4a93e636-15df-49cf-9530-4a60c978d2d7"},"vehicle_type_id":"4","last_reported":1707768456,"current_range_meters":18000,"station_id":"ce4bgk12rcd13ifvqbi0","pricing_plan_id":"free"},{"bike_id":"21dcc2e0-e397-4540-adcb-28a9f16cb2ba","system_id":"levelo_inurba_marseille","lat":43.304274,"lon":5.388873,"is_reserved":false,"is_disabled":false,"rental_uris":{"android":"levelo://app?vid=21dcc2e0-e397-4540-adcb-28a9f16cb2ba","ios":"levelo://app?vid=21dcc2e0-e397-4540-adcb-28a9f16cb2ba"},"vehicle_type_id":"4","last_reported":1707768456,"current_range_meters":15200,"station_id":"ce4bgk12rcd13ifvqbi0","pricing_plan_id":"free"},{"bike_id":"90e6b430-ebdd-422c-bd07-f79c49dca129","system_id":"levelo_inurba_marseille","lat":43.299707,"lon":5.384859,"is_reserved":false,"is_disabled":false,"rental_uris":{"android":"levelo://app?vid=90e6b430-ebdd-422c-bd07-f79c49dca129","ios":"levelo://app?vid=90e6b430-ebdd-422c-bd07-f79c49dca129"},"vehicle_type_id":"4","last_reported":1707768456,"current_range_meters":8400,"station_id":"ce4bgj92rcd13ifvqbd0","pricing_plan_id":"free"},{"bike_id":"414d04e3-ce8f-4b6c-be07-b9cfb7c652f6","system_id":"levelo_inurba_marseille","lat":43.299717,"lon":5.384845,"is_reserved":false,"is_disabled":false,"rental_uris":{"android":"levelo://app?vid=414d04e3-ce8f-4b6c-be07-b9cfb7c652f6","ios":"levelo://app?vid=414d04e3-ce8f-4b6c-be07-b9cfb7c652f6"},"vehicle_type_id":"4","last_reported":1707768456,"current_range_meters":20000,"station_id":"ce4bgj92rcd13ifvqbd0","pricing_plan_id":"free"},{"bike_id":"443f7d8a-0f80-4838-8759-c38ae3c3e0e6","system_id":"levelo_inurba_marseille","lat":43.299717,"lon":5.384845,"is_reserved":false,"is_disabled":false,"rental_uris":{"android":"levelo://app?vid=443f7d8a-0f80-4838-8759-c38ae3c3e0e6","ios":"levelo://app?vid=443f7d8a-0f80-4838-8759-c38ae3c3e0e6"},"vehicle_type_id":"4","last_reported":1707768456,"current_range_meters":8800,"station_id":"ce4bgj92rcd13ifvqbd0","pricing_plan_id":"free"},{"bike_id":"ed916ad3-b11b-4ca5-a15c-15213f1164bc","system_id":"levelo_inurba_marseille","lat":43.299717,"lon":5.384845,"is_reserved":false,"is_disabled":false,"rental_uris":{"android":"levelo://app?vid=ed916ad3-b11b-4ca5-a15c-15213f1164bc","ios":"levelo://app?vid=ed916ad3-b11b-4ca5-a15c-15213f1164bc"},"vehicle_type_id":"4","last_reported":1707768456,"current_range_meters":23200,"station_id":"ce4bgj92rcd13ifvqbd0","pricing_plan_id":"free"},{"bike_id":"4eaf5f86-657f-4344-bba5-1a9dbe22b6e7","system_id":"levelo_inurba_marseille","lat":43.32367,"lon":5.388836,"is_reserved":false,"is_disabled":false,"rental_uris":{"android":"levelo://app?vid=4eaf5f86-657f-4344-bba5-1a9dbe22b6e7","ios":"levelo://app?vid=4eaf5f86-657f-4344-bba5-1a9dbe22b6e7"},"vehicle_type_id":"4","last_reported":1707768456,"current_range_meters":17600,"station_id":"ce4bhqp2rcd13ifvqhog","pricing_plan_id":"free"},{"bike_id":"3a32260d-96a3-4b93-9fb4-5455d590c1b8","system_id":"levelo_inurba_marseille","lat":43.32367,"lon":5.388836,"is_reserved":false,"is_disabled":false,"rental_uris":{"android":"levelo://app?vid=3a32260d-96a3-4b93-9fb4-5455d590c1b8","ios":"levelo://app?vid=3a32260d-96a3-4b93-9fb4-5455d590c1b8"},"vehicle_type_id":"4","last_reported":1707768456,"current_range_meters":30400,"station_id":"ce4bhqp2rcd13ifvqhog","pricing_plan_id":"free"},{"bike_id":"40e43410-f1c5-4eff-88c2-752bafca8f63","system_id":"levelo_inurba_marseille","lat":43.293259,"lon":5.371586,"is_reserved":false,"is_disabled":false,"rental_uris":{"android":"levelo://app?vid=40e43410-f1c5-4eff-88c2-752bafca8f63","ios":"levelo://app?vid=40e43410-f1c5-4eff-88c2-752bafca8f63"},"vehicle_type_id":"4","last_reported":1707768456,"current_range_meters":4800,"station_id":"ce4bgh92rcd13ifvqb40","pricing_plan_id":"free"},{"bike_id":"4b8a076f-beec-47c7-918d-8c2cbc7619d1","system_id":"levelo_inurba_marseille","lat":43.292749,"lon":5.368402,"is_reserved":false,"is_disabled":false,"rental_uris":{"android":"levelo://app?vid=4b8a076f-beec-47c7-918d-8c2cbc7619d1","ios":"levelo://app?vid=4b8a076f-beec-47c7-918d-8c2cbc7619d1"},"vehicle_type_id":"4","last_reported":1707768456,"current_range_meters":0,"station_id":"ce4bhbp2rcd13ifvqesg","pricing_plan_id":"free"},{"bike_id":"e219781e-c3c6-4805-ae9e-ef77e33df599","system_id":"levelo_inurba_marseille","lat":43.293259,"lon":5.371586,"is_reserved":false,"is_disabled":false,"rental_uris":{"android":"levelo://app?vid=e219781e-c3c6-4805-ae9e-ef77e33df599","ios":"levelo://app?vid=e219781e-c3c6-4805-ae9e-ef77e33df599"},"vehicle_type_id":"4","last_reported":1707768456,"current_range_meters":6800,"station_id":"ce4bgh92rcd13ifvqb40","pricing_plan_id":"free"},{"bike_id":"e8eaa1a6-998a-435b-9907-8fb3910c05bd","system_id":"levelo_inurba_marseille","lat":43.305994,"lon":5.393687,"is_reserved":false,"is_disabled":false,"rental_uris":{"android":"levelo://app?vid=e8eaa1a6-998a-435b-9907-8fb3910c05bd","ios":"levelo://app?vid=e8eaa1a6-998a-435b-9907-8fb3910c05bd"},"vehicle_type_id":"4","last_reported":1707768456,"current_range_meters":12400,"station_id":"ce4bh0p2rcd13ifvqd80","pricing_plan_id":"free"},{"bike_id":"e1df6a46-8b1f-4876-9d1e-5d7eadc53ab7","system_id":"levelo_inurba_marseille","lat":43.29293,"lon":5.37451,"is_reserved":false,"is_disabled":false,"rental_uris":{"android":"levelo://app?vid=e1df6a46-8b1f-4876-9d1e-5d7eadc53ab7","ios":"levelo://app?vid=e1df6a46-8b1f-4876-9d1e-5d7eadc53ab7"},"vehicle_type_id":"4","last_reported":1707768456,"current_range_meters":6400,"station_id":"ce4bgi12rcd13ifvqb70","pricing_plan_id":"free"},{"bike_id":"8e5cbe74-7478-4e29-be7e-48162c9c520d","system_id":"levelo_inurba_marseille","lat":43.293009,"lon":5.374584,"is_reserved":false,"is_disabled":false,"rental_uris":{"android":"levelo://app?vid=8e5cbe74-7478-4e29-be7e-48162c9c520d","ios":"levelo://app?vid=8e5cbe74-7478-4e29-be7e-48162c9c520d"},"vehicle_type_id":"4","last_reported":1707768456,"current_range_meters":26800,"station_id":"ce4bgi12rcd13ifvqb70","pricing_plan_id":"free"},{"bike_id":"7199bc24-e9e3-41c9-aea9-d697a9bd6328","system_id":"levelo_inurba_marseille","lat":43.305994,"lon":5.393687,"is_reserved":false,"is_disabled":false,"rental_uris":{"android":"levelo://app?vid=7199bc24-e9e3-41c9-aea9-d697a9bd6328","ios":"levelo://app?vid=7199bc24-e9e3-41c9-aea9-d697a9bd6328"},"vehicle_type_id":"4","last_reported":1707768456,"current_range_meters":8000,"station_id":"ce4bh0p2rcd13ifvqd80","pricing_plan_id":"free"},{"bike_id":"6c8c9791-5ee4-4957-b880-f94a64ce96e9","system_id":"levelo_inurba_marseille","lat":43.305994,"lon":5.393687,"is_reserved":false,"is_disabled":false,"rental_uris":{"android":"levelo://app?vid=6c8c9791-5ee4-4957-b880-f94a64ce96e9","ios":"levelo://app?vid=6c8c9791-5ee4-4957-b880-f94a64ce96e9"},"vehicle_type_id":"4","last_reported":1707768456,"current_range_meters":23600,"station_id":"ce4bh0p2rcd13ifvqd80","pricing_plan_id":"free"},{"bike_id":"68becaff-b220-40ef-9f2b-154cb8e51b2b","system_id":"levelo_inurba_marseille","lat":43.29289,"lon":5.37457,"is_reserved":false,"is_disabled":false,"rental_uris":{"android":"levelo://app?vid=68becaff-b220-40ef-9f2b-154cb8e51b2b","ios":"levelo://app?vid=68becaff-b220-40ef-9f2b-154cb8e51b2b"},"vehicle_type_id":"4","last_reported":1707768456,"current_range_meters":17200,"station_id":"ce4bgi12rcd13ifvqb70","pricing_plan_id":"free"},{"bike_id":"e5bceecd-8cfe-49c1-b407-123161ecbc92","system_id":"levelo_inurba_marseille","lat":43.2936,"lon":5.37835,"is_reserved":false,"is_disabled":false,"rental_uris":{"android":"levelo://app?vid=e5bceecd-8cfe-49c1-b407-123161ecbc92","ios":"levelo://app?vid=e5bceecd-8cfe-49c1-b407-123161ecbc92"},"vehicle_type_id":"4","last_reported":1707768456,"current_range_meters":6000,"station_id":"ce4bgjh2rcd13ifvqbf0","pricing_plan_id":"free"},{"bike_id":"cfa7ec63-4397-45a0-85ce-b2accf675fac","system_id":"levelo_inurba_marseille","lat":43.303002,"lon":5.392142,"is_reserved":false,"is_disabled":false,"rental_uris":{"android":"levelo://app?vid=cfa7ec63-4397-45a0-85ce-b2accf675fac","ios":"levelo://app?vid=cfa7ec63-4397-45a0-85ce-b2accf675fac"},"vehicle_type_id":"4","last_reported":1707768456,"current_range_meters":13200,"station_id":"ce4bgkh2rcd13ifvqbk0","pricing_plan_id":"free"},{"bike_id":"66e4cad8-a9ae-43be-a827-3dd5bc540f05","system_id":"levelo_inurba_marseille","lat":43.303002,"lon":5.392142,"is_reserved":false,"is_disabled":false,"rental_uris":{"android":"levelo://app?vid=66e4cad8-a9ae-43be-a827-3dd5bc540f05","ios":"levelo://app?vid=66e4cad8-a9ae-43be-a827-3dd5bc540f05"},"vehicle_type_id":"4","last_reported":1707768456,"current_range_meters":22400,"station_id":"ce4bgkh2rcd13ifvqbk0","pricing_plan_id":"free"},{"bike_id":"37e2ec3f-29ce-4391-9948-81068de47cc5","system_id":"levelo_inurba_marseille","lat":43.303002,"lon":5.392142,"is_reserved":false,"is_disabled":false,"rental_uris":{"android":"levelo://app?vid=37e2ec3f-29ce-4391-9948-81068de47cc5","ios":"levelo://app?vid=37e2ec3f-29ce-4391-9948-81068de47cc5"},"vehicle_type_id":"4","last_reported":1707768456,"current_range_meters":23600,"station_id":"ce4bgkh2rcd13ifvqbk0","pricing_plan_id":"free"},{"bike_id":"6ba3e32d-ad21-4da2-8fed-dbcac82b63cb","system_id":"levelo_inurba_marseille","lat":43.2936,"lon":5.37835,"is_reserved":false,"is_disabled":false,"rental_uris":{"android":"levelo://app?vid=6ba3e32d-ad21-4da2-8fed-dbcac82b63cb","ios":"levelo://app?vid=6ba3e32d-ad21-4da2-8fed-dbcac82b63cb"},"vehicle_type_id":"4","last_reported":1707768456,"current_range_meters":12400,"station_id":"ce4bgjh2rcd13ifvqbf0","pricing_plan_id":"free"},{"bike_id":"4b52073d-4d54-4a61-ad1a-e1ee0718df04","system_id":"levelo_inurba_marseille","lat":43.30085,"lon":5.390856,"is_reserved":false,"is_disabled":false,"rental_uris":{"android":"levelo://app?vid=4b52073d-4d54-4a61-ad1a-e1ee0718df04","ios":"levelo://app?vid=4b52073d-4d54-4a61-ad1a-e1ee0718df04"},"vehicle_type_id":"4","last_reported":1707768456,"current_range_meters":29600,"station_id":"ce4bh192rcd13ifvqdb0","pricing_plan_id":"free"},{"bike_id":"f4e690ea-197a-47d3-9889-e9fc5755770c","system_id":"levelo_inurba_marseille","lat":43.30085,"lon":5.390856,"is_reserved":false,"is_disabled":false,"rental_uris":{"android":"levelo://app?vid=f4e690ea-197a-47d3-9889-e9fc5755770c","ios":"levelo://app?vid=f4e690ea-197a-47d3-9889-e9fc5755770c"},"vehicle_type_id":"4","last_reported":1707768456,"current_range_meters":10000,"station_id":"ce4bh192rcd13ifvqdb0","pricing_plan_id":"free"},{"bike_id":"8c669acb-8c07-4b5f-b614-13cf8c9352d2","system_id":"levelo_inurba_marseille","lat":43.2936,"lon":5.37835,"is_reserved":false,"is_disabled":false,"rental_uris":{"android":"levelo://app?vid=8c669acb-8c07-4b5f-b614-13cf8c9352d2","ios":"levelo://app?vid=8c669acb-8c07-4b5f-b614-13cf8c9352d2"},"vehicle_type_id":"4","last_reported":1707768456,"current_range_meters":10800,"station_id":"ce4bgjh2rcd13ifvqbf0","pricing_plan_id":"free"},{"bike_id":"92ed04f7-2645-471d-a762-d2415b59f2f2","system_id":"levelo_inurba_marseille","lat":43.302992,"lon":5.392136,"is_reserved":false,"is_disabled":false,"rental_uris":{"android":"levelo://app?vid=92ed04f7-2645-471d-a762-d2415b59f2f2","ios":"levelo://app?vid=92ed04f7-2645-471d-a762-d2415b59f2f2"},"vehicle_type_id":"4","last_reported":1707768456,"current_range_meters":4000,"station_id":"ce4bgkh2rcd13ifvqbk0","pricing_plan_id":"free"},{"bike_id":"fe65f715-63f9-4466-a36c-57cea8d997da","system_id":"levelo_inurba_marseille","lat":43.300852,"lon":5.390859,"is_reserved":false,"is_disabled":false,"rental_uris":{"android":"levelo://app?vid=fe65f715-63f9-4466-a36c-57cea8d997da","ios":"levelo://app?vid=fe65f715-63f9-4466-a36c-57cea8d997da"},"vehicle_type_id":"4","last_reported":1707768456,"current_range_meters":25200,"station_id":"ce4bh192rcd13ifvqdb0","pricing_plan_id":"free"},{"bike_id":"b8a55830-63db-4114-abb1-023dcee94625","system_id":"levelo_inurba_marseille","lat":43.300852,"lon":5.390859,"is_reserved":false,"is_disabled":false,"rental_uris":{"android":"levelo://app?vid=b8a55830-63db-4114-abb1-023dcee94625","ios":"levelo://app?vid=b8a55830-63db-4114-abb1-023dcee94625"},"vehicle_type_id":"4","last_reported":1707768456,"current_range_meters":9600,"station_id":"ce4bh192rcd13ifvqdb0","pricing_plan_id":"free"},{"bike_id":"401b3cf7-6242-4536-bd4e-c850661aed3a","system_id":"levelo_inurba_marseille","lat":43.300852,"lon":5.390859,"is_reserved":false,"is_disabled":false,"rental_uris":{"android":"levelo://app?vid=401b3cf7-6242-4536-bd4e-c850661aed3a","ios":"levelo://app?vid=401b3cf7-6242-4536-bd4e-c850661aed3a"},"vehicle_type_id":"4","last_reported":1707768456,"current_range_meters":3200,"station_id":"ce4bh192rcd13ifvqdb0","pricing_plan_id":"free"},{"bike_id":"d7ad8a75-bbbf-4309-880e-b727210f6aa7","system_id":"levelo_inurba_marseille","lat":43.30085,"lon":5.390856,"is_reserved":false,"is_disabled":false,"rental_uris":{"android":"levelo://app?vid=d7ad8a75-bbbf-4309-880e-b727210f6aa7","ios":"levelo://app?vid=d7ad8a75-bbbf-4309-880e-b727210f6aa7"},"vehicle_type_id":"4","last_reported":1707768456,"current_range_meters":20800,"station_id":"ce4bh192rcd13ifvqdb0","pricing_plan_id":"free"},{"bike_id":"2cfc988c-1b00-4da9-b7f2-24cf6efeb701","system_id":"levelo_inurba_marseille","lat":43.30085,"lon":5.390856,"is_reserved":false,"is_disabled":false,"rental_uris":{"android":"levelo://app?vid=2cfc988c-1b00-4da9-b7f2-24cf6efeb701","ios":"levelo://app?vid=2cfc988c-1b00-4da9-b7f2-24cf6efeb701"},"vehicle_type_id":"4","last_reported":1707768456,"current_range_meters":4400,"station_id":"ce4bh192rcd13ifvqdb0","pricing_plan_id":"free"},{"bike_id":"f76f465c-b6ea-46b4-b77d-a2bee9e82f18","system_id":"levelo_inurba_marseille","lat":43.292311,"lon":5.360731,"is_reserved":false,"is_disabled":false,"rental_uris":{"android":"levelo://app?vid=f76f465c-b6ea-46b4-b77d-a2bee9e82f18","ios":"levelo://app?vid=f76f465c-b6ea-46b4-b77d-a2bee9e82f18"},"vehicle_type_id":"4","last_reported":1707768456,"current_range_meters":14400,"station_id":"ce4bhbh2rcd13ifvqeqg","pricing_plan_id":"free"},{"bike_id":"31191924-1491-40cb-9e6f-7e5aaec70bed","system_id":"levelo_inurba_marseille","lat":43.30085,"lon":5.390856,"is_reserved":false,"is_disabled":false,"rental_uris":{"android":"levelo://app?vid=31191924-1491-40cb-9e6f-7e5aaec70bed","ios":"levelo://app?vid=31191924-1491-40cb-9e6f-7e5aaec70bed"},"vehicle_type_id":"4","last_reported":1707768456,"current_range_meters":28400,"station_id":"ce4bh192rcd13ifvqdb0","pricing_plan_id":"free"},{"bike_id":"d6e2c81f-9712-4283-a964-bd45bb7e49ab","system_id":"levelo_inurba_marseille","lat":43.291671,"lon":5.371575,"is_reserved":false,"is_disabled":false,"rental_uris":{"android":"levelo://app?vid=d6e2c81f-9712-4283-a964-bd45bb7e49ab","ios":"levelo://app?vid=d6e2c81f-9712-4283-a964-bd45bb7e49ab"},"vehicle_type_id":"4","last_reported":1707768456,"current_range_meters":19600,"station_id":"ce4bha92rcd13ifvqeh0","pricing_plan_id":"free"},{"bike_id":"072b85de-cb83-48b8-a3ea-b4749a9eeb96","system_id":"levelo_inurba_marseille","lat":43.291675,"lon":5.371583,"is_reserved":false,"is_disabled":false,"rental_uris":{"android":"levelo://app?vid=072b85de-cb83-48b8-a3ea-b4749a9eeb96","ios":"levelo://app?vid=072b85de-cb83-48b8-a3ea-b4749a9eeb96"},"vehicle_type_id":"4","last_reported":1707768456,"current_range_meters":25600,"station_id":"ce4bha92rcd13ifvqeh0","pricing_plan_id":"free"},{"bike_id":"2f06bb09-1bd3-4dec-bfd7-aa7b95ce3f29","system_id":"levelo_inurba_marseille","lat":43.298764,"lon":5.388973,"is_reserved":false,"is_disabled":false,"rental_uris":{"android":"levelo://app?vid=2f06bb09-1bd3-4dec-bfd7-aa7b95ce3f29","ios":"levelo://app?vid=2f06bb09-1bd3-4dec-bfd7-aa7b95ce3f29"},"vehicle_type_id":"4","last_reported":1707768456,"current_range_meters":31200,"station_id":"ce4bh392rcd13ifvqdl0","pricing_plan_id":"free"},{"bike_id":"4c5ae574-93c9-4213-8270-d10101c35a33","system_id":"levelo_inurba_marseille","lat":43.298764,"lon":5.388973,"is_reserved":false,"is_disabled":false,"rental_uris":{"android":"levelo://app?vid=4c5ae574-93c9-4213-8270-d10101c35a33","ios":"levelo://app?vid=4c5ae574-93c9-4213-8270-d10101c35a33"},"vehicle_type_id":"4","last_reported":1707768456,"current_range_meters":23200,"station_id":"ce4bh392rcd13ifvqdl0","pricing_plan_id":"free"},{"bike_id":"90628443-ef33-49db-9c3a-7a87bdd47d4a","system_id":"levelo_inurba_marseille","lat":43.29872,"lon":5.3891,"is_reserved":false,"is_disabled":false,"rental_uris":{"android":"levelo://app?vid=90628443-ef33-49db-9c3a-7a87bdd47d4a","ios":"levelo://app?vid=90628443-ef33-49db-9c3a-7a87bdd47d4a"},"vehicle_type_id":"4","last_reported":1707768456,"current_range_meters":31200,"station_id":"ce4bh392rcd13ifvqdl0","pricing_plan_id":"free"},{"bike_id":"1f34bf33-af3e-458a-b1e3-8a1ec19f5680","system_id":"levelo_inurba_marseille","lat":43.292045,"lon":5.357985,"is_reserved":false,"is_disabled":false,"rental_uris":{"android":"levelo://app?vid=1f34bf33-af3e-458a-b1e3-8a1ec19f5680","ios":"levelo://app?vid=1f34bf33-af3e-458a-b1e3-8a1ec19f5680"},"vehicle_type_id":"4","last_reported":1707768456,"current_range_meters":10800,"station_id":"ce4bhb12rcd13ifvqel0","pricing_plan_id":"free"},{"bike_id":"11405fad-6bba-4ee8-9906-edc950453430","system_id":"levelo_inurba_marseille","lat":43.291994,"lon":5.357886,"is_reserved":false,"is_disabled":false,"rental_uris":{"android":"levelo://app?vid=11405fad-6bba-4ee8-9906-edc950453430","ios":"levelo://app?vid=11405fad-6bba-4ee8-9906-edc950453430"},"vehicle_type_id":"4","last_reported":1707768456,"current_range_meters":31200,"station_id":"ce4bhb12rcd13ifvqel0","pricing_plan_id":"free"},{"bike_id":"921e4fe6-9446-4ce8-bf1c-ee9cc4c8ce14","system_id":"levelo_inurba_marseille","lat":43.309047,"lon":5.396551,"is_reserved":false,"is_disabled":false,"rental_uris":{"android":"levelo://app?vid=921e4fe6-9446-4ce8-bf1c-ee9cc4c8ce14","ios":"levelo://app?vid=921e4fe6-9446-4ce8-bf1c-ee9cc4c8ce14"},"vehicle_type_id":"4","last_reported":1707768456,"current_range_meters":29200,"station_id":"ce4bh012rcd13ifvqcv0","pricing_plan_id":"free"},{"bike_id":"ab1b2f57-71b7-4eca-b078-360976608ab0","system_id":"levelo_inurba_marseille","lat":43.313291,"lon":5.396838,"is_reserved":false,"is_disabled":false,"rental_uris":{"android":"levelo://app?vid=ab1b2f57-71b7-4eca-b078-360976608ab0","ios":"levelo://app?vid=ab1b2f57-71b7-4eca-b078-360976608ab0"},"vehicle_type_id":"4","last_reported":1707768456,"current_range_meters":27200,"station_id":"ce4bgvp2rcd13ifvqcu0","pricing_plan_id":"free"},{"bike_id":"c7026a1b-4437-4b0d-bfd4-23ac38012614","system_id":"levelo_inurba_marseille","lat":43.309038,"lon":5.396546,"is_reserved":false,"is_disabled":false,"rental_uris":{"android":"levelo://app?vid=c7026a1b-4437-4b0d-bfd4-23ac38012614","ios":"levelo://app?vid=c7026a1b-4437-4b0d-bfd4-23ac38012614"},"vehicle_type_id":"4","last_reported":1707768456,"current_range_meters":5600,"station_id":"ce4bh012rcd13ifvqcv0","pricing_plan_id":"free"},{"bike_id":"b6e55048-dcaf-40d5-ac55-7a92022ce817","system_id":"levelo_inurba_marseille","lat":43.313291,"lon":5.396838,"is_reserved":false,"is_disabled":false,"rental_uris":{"android":"levelo://app?vid=b6e55048-dcaf-40d5-ac55-7a92022ce817","ios":"levelo://app?vid=b6e55048-dcaf-40d5-ac55-7a92022ce817"},"vehicle_type_id":"4","last_reported":1707768456,"current_range_meters":0,"station_id":"ce4bgvp2rcd13ifvqcu0","pricing_plan_id":"free"},{"bike_id":"0b2a19dc-5309-46d2-ab49-2bebe156720e","system_id":"levelo_inurba_marseille","lat":43.313291,"lon":5.396838,"is_reserved":false,"is_disabled":false,"rental_uris":{"android":"levelo://app?vid=0b2a19dc-5309-46d2-ab49-2bebe156720e","ios":"levelo://app?vid=0b2a19dc-5309-46d2-ab49-2bebe156720e"},"vehicle_type_id":"4","last_reported":1707768456,"current_range_meters":31200,"station_id":"ce4bgvp2rcd13ifvqcu0","pricing_plan_id":"free"},{"bike_id":"594070c2-1153-4d46-8ee4-4d7b61b27a48","system_id":"levelo_inurba_marseille","lat":43.29529,"lon":5.385581,"is_reserved":false,"is_disabled":false,"rental_uris":{"android":"levelo://app?vid=594070c2-1153-4d46-8ee4-4d7b61b27a48","ios":"levelo://app?vid=594070c2-1153-4d46-8ee4-4d7b61b27a48"},"vehicle_type_id":"4","last_reported":1707768456,"current_range_meters":0,"station_id":"ce4bgih2rcd13ifvqba0","pricing_plan_id":"free"},{"bike_id":"0a160c62-aed8-4e56-b3b7-b1bc96292a25","system_id":"levelo_inurba_marseille","lat":43.309038,"lon":5.396546,"is_reserved":false,"is_disabled":false,"rental_uris":{"android":"levelo://app?vid=0a160c62-aed8-4e56-b3b7-b1bc96292a25","ios":"levelo://app?vid=0a160c62-aed8-4e56-b3b7-b1bc96292a25"},"vehicle_type_id":"4","last_reported":1707768456,"current_range_meters":400,"station_id":"ce4bh012rcd13ifvqcv0","pricing_plan_id":"free"},{"bike_id":"dfbbd3aa-230d-4bc9-8774-feb9cc3b1fc9","system_id":"levelo_inurba_marseille","lat":43.29536,"lon":5.38541,"is_reserved":false,"is_disabled":false,"rental_uris":{"android":"levelo://app?vid=dfbbd3aa-230d-4bc9-8774-feb9cc3b1fc9","ios":"levelo://app?vid=dfbbd3aa-230d-4bc9-8774-feb9cc3b1fc9"},"vehicle_type_id":"4","last_reported":1707768456,"current_range_meters":5200,"station_id":"ce4bgih2rcd13ifvqba0","pricing_plan_id":"free"},{"bike_id":"28f3ef64-8902-48d5-9527-c694a3143716","system_id":"levelo_inurba_marseille","lat":43.29529,"lon":5.385581,"is_reserved":false,"is_disabled":false,"rental_uris":{"android":"levelo://app?vid=28f3ef64-8902-48d5-9527-c694a3143716","ios":"levelo://app?vid=28f3ef64-8902-48d5-9527-c694a3143716"},"vehicle_type_id":"4","last_reported":1707768456,"current_range_meters":21200,"station_id":"ce4bgih2rcd13ifvqba0","pricing_plan_id":"free"},{"bike_id":"ceb9451e-2b2c-4497-a9f4-315aa2455dcd","system_id":"levelo_inurba_marseille","lat":43.29529,"lon":5.385581,"is_reserved":false,"is_disabled":false,"rental_uris":{"android":"levelo://app?vid=ceb9451e-2b2c-4497-a9f4-315aa2455dcd","ios":"levelo://app?vid=ceb9451e-2b2c-4497-a9f4-315aa2455dcd"},"vehicle_type_id":"4","last_reported":1707768456,"current_range_meters":15200,"station_id":"ce4bgih2rcd13ifvqba0","pricing_plan_id":"free"},{"bike_id":"385a7fb4-0f79-4252-956d-0660e2b186b1","system_id":"levelo_inurba_marseille","lat":43.29529,"lon":5.385581,"is_reserved":false,"is_disabled":false,"rental_uris":{"android":"levelo://app?vid=385a7fb4-0f79-4252-956d-0660e2b186b1","ios":"levelo://app?vid=385a7fb4-0f79-4252-956d-0660e2b186b1"},"vehicle_type_id":"4","last_reported":1707768456,"current_range_meters":4800,"station_id":"ce4bgih2rcd13ifvqba0","pricing_plan_id":"free"},{"bike_id":"7b301b67-c10f-4955-aab6-3395a7305468","system_id":"levelo_inurba_marseille","lat":43.29529,"lon":5.385581,"is_reserved":false,"is_disabled":false,"rental_uris":{"android":"levelo://app?vid=7b301b67-c10f-4955-aab6-3395a7305468","ios":"levelo://app?vid=7b301b67-c10f-4955-aab6-3395a7305468"},"vehicle_type_id":"4","last_reported":1707768456,"current_range_meters":4800,"station_id":"ce4bgih2rcd13ifvqba0","pricing_plan_id":"free"},{"bike_id":"1a152870-8492-4069-abae-cf0c27bc9557","system_id":"levelo_inurba_marseille","lat":43.29529,"lon":5.385581,"is_reserved":false,"is_disabled":false,"rental_uris":{"android":"levelo://app?vid=1a152870-8492-4069-abae-cf0c27bc9557","ios":"levelo://app?vid=1a152870-8492-4069-abae-cf0c27bc9557"},"vehicle_type_id":"4","last_reported":1707768456,"current_range_meters":7200,"station_id":"ce4bgih2rcd13ifvqba0","pricing_plan_id":"free"},{"bike_id":"46b28c06-c48f-422d-ac0c-f0a898f140d4","system_id":"levelo_inurba_marseille","lat":43.293259,"lon":5.371586,"is_reserved":false,"is_disabled":false,"rental_uris":{"android":"levelo://app?vid=46b28c06-c48f-422d-ac0c-f0a898f140d4","ios":"levelo://app?vid=46b28c06-c48f-422d-ac0c-f0a898f140d4"},"vehicle_type_id":"4","last_reported":1707768456,"current_range_meters":30400,"station_id":"ce4bgh92rcd13ifvqb40","pricing_plan_id":"free"},{"bike_id":"24e461b7-3747-45a0-b2c2-d1440118fd7b","system_id":"levelo_inurba_marseille","lat":43.290779,"lon":5.371482,"is_reserved":false,"is_disabled":false,"rental_uris":{"android":"levelo://app?vid=24e461b7-3747-45a0-b2c2-d1440118fd7b","ios":"levelo://app?vid=24e461b7-3747-45a0-b2c2-d1440118fd7b"},"vehicle_type_id":"4","last_reported":1707768456,"current_range_meters":12000,"station_id":"ce4bh5p2rcd13ifvqe4g","pricing_plan_id":"free"},{"bike_id":"de37ce7a-15bc-4756-8af3-7a89fc54c8a0","system_id":"levelo_inurba_marseille","lat":43.290779,"lon":5.371482,"is_reserved":false,"is_disabled":false,"rental_uris":{"android":"levelo://app?vid=de37ce7a-15bc-4756-8af3-7a89fc54c8a0","ios":"levelo://app?vid=de37ce7a-15bc-4756-8af3-7a89fc54c8a0"},"vehicle_type_id":"4","last_reported":1707768456,"current_range_meters":22000,"station_id":"ce4bh5p2rcd13ifvqe4g","pricing_plan_id":"free"},{"bike_id":"303fa6f6-0fb5-4516-a095-1dd5c0815dfc","system_id":"levelo_inurba_marseille","lat":43.302008,"lon":5.394694,"is_reserved":false,"is_disabled":false,"rental_uris":{"android":"levelo://app?vid=303fa6f6-0fb5-4516-a095-1dd5c0815dfc","ios":"levelo://app?vid=303fa6f6-0fb5-4516-a095-1dd5c0815dfc"},"vehicle_type_id":"4","last_reported":1707768456,"current_range_meters":12400,"station_id":"ce4bh0p2rcd13ifvqd70","pricing_plan_id":"free"},{"bike_id":"df8c2afa-5d0f-4092-a823-9908c207762e","system_id":"levelo_inurba_marseille","lat":43.302008,"lon":5.394694,"is_reserved":false,"is_disabled":false,"rental_uris":{"android":"levelo://app?vid=df8c2afa-5d0f-4092-a823-9908c207762e","ios":"levelo://app?vid=df8c2afa-5d0f-4092-a823-9908c207762e"},"vehicle_type_id":"4","last_reported":1707768456,"current_range_meters":11200,"station_id":"ce4bh0p2rcd13ifvqd70","pricing_plan_id":"free"},{"bike_id":"91e1b49c-973e-4370-9a02-829050c57c8c","system_id":"levelo_inurba_marseille","lat":43.302008,"lon":5.394694,"is_reserved":false,"is_disabled":false,"rental_uris":{"android":"levelo://app?vid=91e1b49c-973e-4370-9a02-829050c57c8c","ios":"levelo://app?vid=91e1b49c-973e-4370-9a02-829050c57c8c"},"vehicle_type_id":"4","last_reported":1707768456,"current_range_meters":22400,"station_id":"ce4bh0p2rcd13ifvqd70","pricing_plan_id":"free"},{"bike_id":"e55312b4-4b98-477b-91c6-18d249a2db68","system_id":"levelo_inurba_marseille","lat":43.302008,"lon":5.394694,"is_reserved":false,"is_disabled":false,"rental_uris":{"android":"levelo://app?vid=e55312b4-4b98-477b-91c6-18d249a2db68","ios":"levelo://app?vid=e55312b4-4b98-477b-91c6-18d249a2db68"},"vehicle_type_id":"4","last_reported":1707768456,"current_range_meters":21600,"station_id":"ce4bh0p2rcd13ifvqd70","pricing_plan_id":"free"},{"bike_id":"428152da-e405-4356-8b70-21b1378846da","system_id":"levelo_inurba_marseille","lat":43.302008,"lon":5.394694,"is_reserved":false,"is_disabled":false,"rental_uris":{"android":"levelo://app?vid=428152da-e405-4356-8b70-21b1378846da","ios":"levelo://app?vid=428152da-e405-4356-8b70-21b1378846da"},"vehicle_type_id":"4","last_reported":1707768456,"current_range_meters":10800,"station_id":"ce4bh0p2rcd13ifvqd70","pricing_plan_id":"free"},{"bike_id":"2298d897-b6e4-4893-92f4-df39740b3fff","system_id":"levelo_inurba_marseille","lat":43.302008,"lon":5.394694,"is_reserved":false,"is_disabled":false,"rental_uris":{"android":"levelo://app?vid=2298d897-b6e4-4893-92f4-df39740b3fff","ios":"levelo://app?vid=2298d897-b6e4-4893-92f4-df39740b3fff"},"vehicle_type_id":"4","last_reported":1707768456,"current_range_meters":20000,"station_id":"ce4bh0p2rcd13ifvqd70","pricing_plan_id":"free"},{"bike_id":"ddd31c1a-fd1e-45fd-813c-fdab73a125b6","system_id":"levelo_inurba_marseille","lat":43.294162,"lon":5.386292,"is_reserved":false,"is_disabled":false,"rental_uris":{"android":"levelo://app?vid=ddd31c1a-fd1e-45fd-813c-fdab73a125b6","ios":"levelo://app?vid=ddd31c1a-fd1e-45fd-813c-fdab73a125b6"},"vehicle_type_id":"4","last_reported":1707768456,"current_range_meters":14800,"station_id":"ce4bh2h2rcd13ifvqdh0","pricing_plan_id":"free"},{"bike_id":"bd954173-ebc6-4251-8d2a-58526f57eac3","system_id":"levelo_inurba_marseille","lat":43.294153,"lon":5.386305,"is_reserved":false,"is_disabled":false,"rental_uris":{"android":"levelo://app?vid=bd954173-ebc6-4251-8d2a-58526f57eac3","ios":"levelo://app?vid=bd954173-ebc6-4251-8d2a-58526f57eac3"},"vehicle_type_id":"4","last_reported":1707768456,"current_range_meters":11200,"station_id":"ce4bh2h2rcd13ifvqdh0","pricing_plan_id":"free"},{"bike_id":"0c85cab6-7bf6-49ac-a75f-0b7e3da13c61","system_id":"levelo_inurba_marseille","lat":43.29418,"lon":5.38618,"is_reserved":false,"is_disabled":false,"rental_uris":{"android":"levelo://app?vid=0c85cab6-7bf6-49ac-a75f-0b7e3da13c61","ios":"levelo://app?vid=0c85cab6-7bf6-49ac-a75f-0b7e3da13c61"},"vehicle_type_id":"4","last_reported":1707768456,"current_range_meters":21600,"station_id":"ce4bh2h2rcd13ifvqdh0","pricing_plan_id":"free"},{"bike_id":"f17c73f3-76a4-4d23-90c1-7a5214bb5314","system_id":"levelo_inurba_marseille","lat":43.294153,"lon":5.386305,"is_reserved":false,"is_disabled":false,"rental_uris":{"android":"levelo://app?vid=f17c73f3-76a4-4d23-90c1-7a5214bb5314","ios":"levelo://app?vid=f17c73f3-76a4-4d23-90c1-7a5214bb5314"},"vehicle_type_id":"4","last_reported":1707768456,"current_range_meters":24800,"station_id":"ce4bh2h2rcd13ifvqdh0","pricing_plan_id":"free"},{"bike_id":"b8263cfb-dc88-43c3-97d6-4b8f7deea843","system_id":"levelo_inurba_marseille","lat":43.294162,"lon":5.386292,"is_reserved":false,"is_disabled":false,"rental_uris":{"android":"levelo://app?vid=b8263cfb-dc88-43c3-97d6-4b8f7deea843","ios":"levelo://app?vid=b8263cfb-dc88-43c3-97d6-4b8f7deea843"},"vehicle_type_id":"4","last_reported":1707768456,"current_range_meters":23600,"station_id":"ce4bh2h2rcd13ifvqdh0","pricing_plan_id":"free"},{"bike_id":"4281c261-f185-4ac1-9c4f-f76d74966a03","system_id":"levelo_inurba_marseille","lat":43.289468,"lon":5.363719,"is_reserved":false,"is_disabled":false,"rental_uris":{"android":"levelo://app?vid=4281c261-f185-4ac1-9c4f-f76d74966a03","ios":"levelo://app?vid=4281c261-f185-4ac1-9c4f-f76d74966a03"},"vehicle_type_id":"4","last_reported":1707768456,"current_range_meters":17600,"station_id":"ce4bhc92rcd13ifvqetg","pricing_plan_id":"free"},{"bike_id":"a009db42-9121-4a14-8532-3590ab2286e9","system_id":"levelo_inurba_marseille","lat":43.294153,"lon":5.386305,"is_reserved":false,"is_disabled":false,"rental_uris":{"android":"levelo://app?vid=a009db42-9121-4a14-8532-3590ab2286e9","ios":"levelo://app?vid=a009db42-9121-4a14-8532-3590ab2286e9"},"vehicle_type_id":"4","last_reported":1707768456,"current_range_meters":16400,"station_id":"ce4bh2h2rcd13ifvqdh0","pricing_plan_id":"free"},{"bike_id":"439739ee-d825-4849-8dd0-597849c54440","system_id":"levelo_inurba_marseille","lat":43.294162,"lon":5.386292,"is_reserved":false,"is_disabled":false,"rental_uris":{"android":"levelo://app?vid=439739ee-d825-4849-8dd0-597849c54440","ios":"levelo://app?vid=439739ee-d825-4849-8dd0-597849c54440"},"vehicle_type_id":"4","last_reported":1707768456,"current_range_meters":12000,"station_id":"ce4bh2h2rcd13ifvqdh0","pricing_plan_id":"free"},{"bike_id":"8a358fbb-3744-4b18-bf0d-5a46b6102156","system_id":"levelo_inurba_marseille","lat":43.29419,"lon":5.38632,"is_reserved":false,"is_disabled":false,"rental_uris":{"android":"levelo://app?vid=8a358fbb-3744-4b18-bf0d-5a46b6102156","ios":"levelo://app?vid=8a358fbb-3744-4b18-bf0d-5a46b6102156"},"vehicle_type_id":"4","last_reported":1707768456,"current_range_meters":0,"station_id":"ce4bh2h2rcd13ifvqdh0","pricing_plan_id":"free"},{"bike_id":"8887911f-d7e7-4499-9a6d-64746ec503b7","system_id":"levelo_inurba_marseille","lat":43.290327,"lon":5.375711,"is_reserved":false,"is_disabled":false,"rental_uris":{"android":"levelo://app?vid=8887911f-d7e7-4499-9a6d-64746ec503b7","ios":"levelo://app?vid=8887911f-d7e7-4499-9a6d-64746ec503b7"},"vehicle_type_id":"4","last_reported":1707768456,"current_range_meters":17200,"station_id":"ce4bh692rcd13ifvqe90","pricing_plan_id":"free"},{"bike_id":"5d1172a1-e966-40e3-b31c-f3ee4100e7bd","system_id":"levelo_inurba_marseille","lat":43.29416,"lon":5.38627,"is_reserved":false,"is_disabled":false,"rental_uris":{"android":"levelo://app?vid=5d1172a1-e966-40e3-b31c-f3ee4100e7bd","ios":"levelo://app?vid=5d1172a1-e966-40e3-b31c-f3ee4100e7bd"},"vehicle_type_id":"4","last_reported":1707768456,"current_range_meters":0,"station_id":"ce4bh2h2rcd13ifvqdh0","pricing_plan_id":"free"},{"bike_id":"7b41b1be-bfd5-4642-87c5-39273a4f6cd7","system_id":"levelo_inurba_marseille","lat":43.29417,"lon":5.3863,"is_reserved":false,"is_disabled":false,"rental_uris":{"android":"levelo://app?vid=7b41b1be-bfd5-4642-87c5-39273a4f6cd7","ios":"levelo://app?vid=7b41b1be-bfd5-4642-87c5-39273a4f6cd7"},"vehicle_type_id":"4","last_reported":1707768456,"current_range_meters":19200,"station_id":"ce4bh2h2rcd13ifvqdh0","pricing_plan_id":"free"},{"bike_id":"35406035-fe98-455e-b7d6-e507dbe2c3d7","system_id":"levelo_inurba_marseille","lat":43.289184,"lon":5.366408,"is_reserved":false,"is_disabled":false,"rental_uris":{"android":"levelo://app?vid=35406035-fe98-455e-b7d6-e507dbe2c3d7","ios":"levelo://app?vid=35406035-fe98-455e-b7d6-e507dbe2c3d7"},"vehicle_type_id":"4","last_reported":1707768456,"current_range_meters":19200,"station_id":"ce4bhap2rcd13ifvqek0","pricing_plan_id":"free"},{"bike_id":"cf1aba93-6d03-43dc-9620-9efcbad3c616","system_id":"levelo_inurba_marseille","lat":43.294162,"lon":5.386292,"is_reserved":false,"is_disabled":false,"rental_uris":{"android":"levelo://app?vid=cf1aba93-6d03-43dc-9620-9efcbad3c616","ios":"levelo://app?vid=cf1aba93-6d03-43dc-9620-9efcbad3c616"},"vehicle_type_id":"4","last_reported":1707768456,"current_range_meters":13600,"station_id":"ce4bh2h2rcd13ifvqdh0","pricing_plan_id":"free"},{"bike_id":"0e01a4bb-d54e-4d83-bb79-83d22e679612","system_id":"levelo_inurba_marseille","lat":43.289184,"lon":5.366408,"is_reserved":false,"is_disabled":false,"rental_uris":{"android":"levelo://app?vid=0e01a4bb-d54e-4d83-bb79-83d22e679612","ios":"levelo://app?vid=0e01a4bb-d54e-4d83-bb79-83d22e679612"},"vehicle_type_id":"4","last_reported":1707768456,"current_range_meters":9200,"station_id":"ce4bhap2rcd13ifvqek0","pricing_plan_id":"free"},{"bike_id":"1585f5a4-f61e-4d6b-970f-ba8ae4ec4bee","system_id":"levelo_inurba_marseille","lat":43.29416,"lon":5.38633,"is_reserved":false,"is_disabled":false,"rental_uris":{"android":"levelo://app?vid=1585f5a4-f61e-4d6b-970f-ba8ae4ec4bee","ios":"levelo://app?vid=1585f5a4-f61e-4d6b-970f-ba8ae4ec4bee"},"vehicle_type_id":"4","last_reported":1707768456,"current_range_meters":0,"station_id":"ce4bh2h2rcd13ifvqdh0","pricing_plan_id":"free"},{"bike_id":"18b6d4d8-0753-491f-a2c1-828e814a0ab1","system_id":"levelo_inurba_marseille","lat":43.289468,"lon":5.363719,"is_reserved":false,"is_disabled":false,"rental_uris":{"android":"levelo://app?vid=18b6d4d8-0753-491f-a2c1-828e814a0ab1","ios":"levelo://app?vid=18b6d4d8-0753-491f-a2c1-828e814a0ab1"},"vehicle_type_id":"4","last_reported":1707768456,"current_range_meters":5600,"station_id":"ce4bhc92rcd13ifvqetg","pricing_plan_id":"free"},{"bike_id":"51355ab9-8d78-49f5-98de-be4432d05d54","system_id":"levelo_inurba_marseille","lat":43.289184,"lon":5.366408,"is_reserved":false,"is_disabled":false,"rental_uris":{"android":"levelo://app?vid=51355ab9-8d78-49f5-98de-be4432d05d54","ios":"levelo://app?vid=51355ab9-8d78-49f5-98de-be4432d05d54"},"vehicle_type_id":"4","last_reported":1707768456,"current_range_meters":9600,"station_id":"ce4bhap2rcd13ifvqek0","pricing_plan_id":"free"},{"bike_id":"89bb6738-9e8c-473d-b11e-69f6a4a4da08","system_id":"levelo_inurba_marseille","lat":43.2894,"lon":5.3663,"is_reserved":false,"is_disabled":false,"rental_uris":{"android":"levelo://app?vid=89bb6738-9e8c-473d-b11e-69f6a4a4da08","ios":"levelo://app?vid=89bb6738-9e8c-473d-b11e-69f6a4a4da08"},"vehicle_type_id":"4","last_reported":1707768456,"current_range_meters":7600,"station_id":"ce4bhap2rcd13ifvqek0","pricing_plan_id":"free"},{"bike_id":"e60ac76d-99e7-4452-9788-ce5bec8db618","system_id":"levelo_inurba_marseille","lat":43.289184,"lon":5.366408,"is_reserved":false,"is_disabled":false,"rental_uris":{"android":"levelo://app?vid=e60ac76d-99e7-4452-9788-ce5bec8db618","ios":"levelo://app?vid=e60ac76d-99e7-4452-9788-ce5bec8db618"},"vehicle_type_id":"4","last_reported":1707768456,"current_range_meters":12000,"station_id":"ce4bhap2rcd13ifvqek0","pricing_plan_id":"free"},{"bike_id":"d25d46fd-5931-4008-a040-ad7024caec0f","system_id":"levelo_inurba_marseille","lat":43.289184,"lon":5.366408,"is_reserved":false,"is_disabled":false,"rental_uris":{"android":"levelo://app?vid=d25d46fd-5931-4008-a040-ad7024caec0f","ios":"levelo://app?vid=d25d46fd-5931-4008-a040-ad7024caec0f"},"vehicle_type_id":"4","last_reported":1707768456,"current_range_meters":2800,"station_id":"ce4bhap2rcd13ifvqek0","pricing_plan_id":"free"},{"bike_id":"7fa59985-a757-40e1-b6ff-a309cbb326f0","system_id":"levelo_inurba_marseille","lat":43.289184,"lon":5.366408,"is_reserved":false,"is_disabled":false,"rental_uris":{"android":"levelo://app?vid=7fa59985-a757-40e1-b6ff-a309cbb326f0","ios":"levelo://app?vid=7fa59985-a757-40e1-b6ff-a309cbb326f0"},"vehicle_type_id":"4","last_reported":1707768456,"current_range_meters":27600,"station_id":"ce4bhap2rcd13ifvqek0","pricing_plan_id":"free"},{"bike_id":"fb15ef86-0bf2-4a54-9180-5ccb5a22e557","system_id":"levelo_inurba_marseille","lat":43.289184,"lon":5.366408,"is_reserved":false,"is_disabled":false,"rental_uris":{"android":"levelo://app?vid=fb15ef86-0bf2-4a54-9180-5ccb5a22e557","ios":"levelo://app?vid=fb15ef86-0bf2-4a54-9180-5ccb5a22e557"},"vehicle_type_id":"4","last_reported":1707768456,"current_range_meters":18800,"station_id":"ce4bhap2rcd13ifvqek0","pricing_plan_id":"free"},{"bike_id":"29450a0e-4e8c-4ae8-93e8-0f29d5edcab6","system_id":"levelo_inurba_marseille","lat":43.289184,"lon":5.366408,"is_reserved":false,"is_disabled":false,"rental_uris":{"android":"levelo://app?vid=29450a0e-4e8c-4ae8-93e8-0f29d5edcab6","ios":"levelo://app?vid=29450a0e-4e8c-4ae8-93e8-0f29d5edcab6"},"vehicle_type_id":"4","last_reported":1707768456,"current_range_meters":29200,"station_id":"ce4bhap2rcd13ifvqek0","pricing_plan_id":"free"},{"bike_id":"15450742-2b6f-4735-82ce-d3b3b720eb7c","system_id":"levelo_inurba_marseille","lat":43.289184,"lon":5.366408,"is_reserved":false,"is_disabled":false,"rental_uris":{"android":"levelo://app?vid=15450742-2b6f-4735-82ce-d3b3b720eb7c","ios":"levelo://app?vid=15450742-2b6f-4735-82ce-d3b3b720eb7c"},"vehicle_type_id":"4","last_reported":1707768456,"current_range_meters":2800,"station_id":"ce4bhap2rcd13ifvqek0","pricing_plan_id":"free"},{"bike_id":"3024b10a-5516-4905-9ffb-9153d442989d","system_id":"levelo_inurba_marseille","lat":43.289184,"lon":5.366408,"is_reserved":false,"is_disabled":false,"rental_uris":{"android":"levelo://app?vid=3024b10a-5516-4905-9ffb-9153d442989d","ios":"levelo://app?vid=3024b10a-5516-4905-9ffb-9153d442989d"},"vehicle_type_id":"4","last_reported":1707768456,"current_range_meters":20800,"station_id":"ce4bhap2rcd13ifvqek0","pricing_plan_id":"free"},{"bike_id":"e5ebdad6-e840-4a76-b5ff-06b1a7d1328d","system_id":"levelo_inurba_marseille","lat":43.289184,"lon":5.366408,"is_reserved":false,"is_disabled":false,"rental_uris":{"android":"levelo://app?vid=e5ebdad6-e840-4a76-b5ff-06b1a7d1328d","ios":"levelo://app?vid=e5ebdad6-e840-4a76-b5ff-06b1a7d1328d"},"vehicle_type_id":"4","last_reported":1707768456,"current_range_meters":21200,"station_id":"ce4bhap2rcd13ifvqek0","pricing_plan_id":"free"},{"bike_id":"f5b26537-d860-4ead-a539-8382701a8c38","system_id":"levelo_inurba_marseille","lat":43.289184,"lon":5.366408,"is_reserved":false,"is_disabled":false,"rental_uris":{"android":"levelo://app?vid=f5b26537-d860-4ead-a539-8382701a8c38","ios":"levelo://app?vid=f5b26537-d860-4ead-a539-8382701a8c38"},"vehicle_type_id":"4","last_reported":1707768456,"current_range_meters":18400,"station_id":"ce4bhap2rcd13ifvqek0","pricing_plan_id":"free"},{"bike_id":"8bc1b106-8621-45b8-ba60-00c8cdbb1e82","system_id":"levelo_inurba_marseille","lat":43.289184,"lon":5.366408,"is_reserved":false,"is_disabled":false,"rental_uris":{"android":"levelo://app?vid=8bc1b106-8621-45b8-ba60-00c8cdbb1e82","ios":"levelo://app?vid=8bc1b106-8621-45b8-ba60-00c8cdbb1e82"},"vehicle_type_id":"4","last_reported":1707768456,"current_range_meters":20000,"station_id":"ce4bhap2rcd13ifvqek0","pricing_plan_id":"free"},{"bike_id":"6efcfb7c-7417-4259-9d22-90b3886a50c9","system_id":"levelo_inurba_marseille","lat":43.289468,"lon":5.363719,"is_reserved":false,"is_disabled":false,"rental_uris":{"android":"levelo://app?vid=6efcfb7c-7417-4259-9d22-90b3886a50c9","ios":"levelo://app?vid=6efcfb7c-7417-4259-9d22-90b3886a50c9"},"vehicle_type_id":"4","last_reported":1707768456,"current_range_meters":12800,"station_id":"ce4bhc92rcd13ifvqetg","pricing_plan_id":"free"},{"bike_id":"cc37912f-a71a-42dd-9cb2-637a33c2061b","system_id":"levelo_inurba_marseille","lat":43.289184,"lon":5.366408,"is_reserved":false,"is_disabled":false,"rental_uris":{"android":"levelo://app?vid=cc37912f-a71a-42dd-9cb2-637a33c2061b","ios":"levelo://app?vid=cc37912f-a71a-42dd-9cb2-637a33c2061b"},"vehicle_type_id":"4","last_reported":1707768456,"current_range_meters":5600,"station_id":"ce4bhap2rcd13ifvqek0","pricing_plan_id":"free"},{"bike_id":"d6817cab-ffc3-4741-819c-221b8bf35a31","system_id":"levelo_inurba_marseille","lat":43.289184,"lon":5.366408,"is_reserved":false,"is_disabled":false,"rental_uris":{"android":"levelo://app?vid=d6817cab-ffc3-4741-819c-221b8bf35a31","ios":"levelo://app?vid=d6817cab-ffc3-4741-819c-221b8bf35a31"},"vehicle_type_id":"4","last_reported":1707768456,"current_range_meters":31600,"station_id":"ce4bhap2rcd13ifvqek0","pricing_plan_id":"free"},{"bike_id":"29f8e4cb-24ce-4a5b-a6ca-9983793f9c8d","system_id":"levelo_inurba_marseille","lat":43.289468,"lon":5.363719,"is_reserved":false,"is_disabled":false,"rental_uris":{"android":"levelo://app?vid=29f8e4cb-24ce-4a5b-a6ca-9983793f9c8d","ios":"levelo://app?vid=29f8e4cb-24ce-4a5b-a6ca-9983793f9c8d"},"vehicle_type_id":"4","last_reported":1707768456,"current_range_meters":31200,"station_id":"ce4bhc92rcd13ifvqetg","pricing_plan_id":"free"},{"bike_id":"02a5acd7-5948-443d-8939-4531069fd7c9","system_id":"levelo_inurba_marseille","lat":43.289468,"lon":5.363719,"is_reserved":false,"is_disabled":false,"rental_uris":{"android":"levelo://app?vid=02a5acd7-5948-443d-8939-4531069fd7c9","ios":"levelo://app?vid=02a5acd7-5948-443d-8939-4531069fd7c9"},"vehicle_type_id":"4","last_reported":1707768456,"current_range_meters":30400,"station_id":"ce4bhc92rcd13ifvqetg","pricing_plan_id":"free"},{"bike_id":"d1049bdf-0ea5-41aa-9cc7-37bc0a6be411","system_id":"levelo_inurba_marseille","lat":43.289184,"lon":5.366408,"is_reserved":false,"is_disabled":false,"rental_uris":{"android":"levelo://app?vid=d1049bdf-0ea5-41aa-9cc7-37bc0a6be411","ios":"levelo://app?vid=d1049bdf-0ea5-41aa-9cc7-37bc0a6be411"},"vehicle_type_id":"4","last_reported":1707768456,"current_range_meters":17200,"station_id":"ce4bhap2rcd13ifvqek0","pricing_plan_id":"free"},{"bike_id":"d51d29ca-cf5d-47f3-a36c-82f747aaffd0","system_id":"levelo_inurba_marseille","lat":43.289184,"lon":5.366408,"is_reserved":false,"is_disabled":false,"rental_uris":{"android":"levelo://app?vid=d51d29ca-cf5d-47f3-a36c-82f747aaffd0","ios":"levelo://app?vid=d51d29ca-cf5d-47f3-a36c-82f747aaffd0"},"vehicle_type_id":"4","last_reported":1707768456,"current_range_meters":24800,"station_id":"ce4bhap2rcd13ifvqek0","pricing_plan_id":"free"},{"bike_id":"bcb9ad1d-0dcc-45fe-85c5-e337290310f2","system_id":"levelo_inurba_marseille","lat":43.289184,"lon":5.366408,"is_reserved":false,"is_disabled":false,"rental_uris":{"android":"levelo://app?vid=bcb9ad1d-0dcc-45fe-85c5-e337290310f2","ios":"levelo://app?vid=bcb9ad1d-0dcc-45fe-85c5-e337290310f2"},"vehicle_type_id":"4","last_reported":1707768456,"current_range_meters":31600,"station_id":"ce4bhap2rcd13ifvqek0","pricing_plan_id":"free"},{"bike_id":"bd23dff2-941d-4da0-8930-3edf00bc672d","system_id":"levelo_inurba_marseille","lat":43.30432,"lon":5.39721,"is_reserved":false,"is_disabled":false,"rental_uris":{"android":"levelo://app?vid=bd23dff2-941d-4da0-8930-3edf00bc672d","ios":"levelo://app?vid=bd23dff2-941d-4da0-8930-3edf00bc672d"},"vehicle_type_id":"4","last_reported":1707768456,"current_range_meters":24000,"station_id":"ce4bh092rcd13ifvqd20","pricing_plan_id":"free"},{"bike_id":"91fc4d0c-62a3-4dec-9bbd-12bd91a6bb29","system_id":"levelo_inurba_marseille","lat":43.292644,"lon":5.384257,"is_reserved":false,"is_disabled":false,"rental_uris":{"android":"levelo://app?vid=91fc4d0c-62a3-4dec-9bbd-12bd91a6bb29","ios":"levelo://app?vid=91fc4d0c-62a3-4dec-9bbd-12bd91a6bb29"},"vehicle_type_id":"4","last_reported":1707768456,"current_range_meters":1600,"station_id":"ce4bh692rcd13ifvqea0","pricing_plan_id":"free"},{"bike_id":"bbe818bd-3389-40de-9ebb-45a8f4983563","system_id":"levelo_inurba_marseille","lat":43.29272,"lon":5.38449,"is_reserved":false,"is_disabled":false,"rental_uris":{"android":"levelo://app?vid=bbe818bd-3389-40de-9ebb-45a8f4983563","ios":"levelo://app?vid=bbe818bd-3389-40de-9ebb-45a8f4983563"},"vehicle_type_id":"4","last_reported":1707768456,"current_range_meters":10000,"station_id":"ce4bh692rcd13ifvqea0","pricing_plan_id":"free"},{"bike_id":"6e1054e9-df71-43f2-be1e-5ff9beda375f","system_id":"levelo_inurba_marseille","lat":43.304296,"lon":5.397513,"is_reserved":false,"is_disabled":false,"rental_uris":{"android":"levelo://app?vid=6e1054e9-df71-43f2-be1e-5ff9beda375f","ios":"levelo://app?vid=6e1054e9-df71-43f2-be1e-5ff9beda375f"},"vehicle_type_id":"4","last_reported":1707768456,"current_range_meters":7200,"station_id":"ce4bh092rcd13ifvqd20","pricing_plan_id":"free"},{"bike_id":"06374d9c-b31a-45d0-a754-666a3bd6f197","system_id":"levelo_inurba_marseille","lat":43.292642,"lon":5.384254,"is_reserved":false,"is_disabled":false,"rental_uris":{"android":"levelo://app?vid=06374d9c-b31a-45d0-a754-666a3bd6f197","ios":"levelo://app?vid=06374d9c-b31a-45d0-a754-666a3bd6f197"},"vehicle_type_id":"4","last_reported":1707768456,"current_range_meters":25600,"station_id":"ce4bh692rcd13ifvqea0","pricing_plan_id":"free"},{"bike_id":"68438b5c-1051-4991-a658-94f75b54f69d","system_id":"levelo_inurba_marseille","lat":43.304296,"lon":5.397513,"is_reserved":false,"is_disabled":false,"rental_uris":{"android":"levelo://app?vid=68438b5c-1051-4991-a658-94f75b54f69d","ios":"levelo://app?vid=68438b5c-1051-4991-a658-94f75b54f69d"},"vehicle_type_id":"4","last_reported":1707768456,"current_range_meters":9600,"station_id":"ce4bh092rcd13ifvqd20","pricing_plan_id":"free"},{"bike_id":"031709bf-03ea-4970-a4ff-125b72cc4eab","system_id":"levelo_inurba_marseille","lat":43.292608,"lon":5.38438,"is_reserved":false,"is_disabled":false,"rental_uris":{"android":"levelo://app?vid=031709bf-03ea-4970-a4ff-125b72cc4eab","ios":"levelo://app?vid=031709bf-03ea-4970-a4ff-125b72cc4eab"},"vehicle_type_id":"4","last_reported":1707768456,"current_range_meters":10800,"station_id":"ce4bh692rcd13ifvqea0","pricing_plan_id":"free"},{"bike_id":"121db312-d4e2-486a-9f06-f11e24d43d0f","system_id":"levelo_inurba_marseille","lat":43.29259,"lon":5.38438,"is_reserved":false,"is_disabled":false,"rental_uris":{"android":"levelo://app?vid=121db312-d4e2-486a-9f06-f11e24d43d0f","ios":"levelo://app?vid=121db312-d4e2-486a-9f06-f11e24d43d0f"},"vehicle_type_id":"4","last_reported":1707768456,"current_range_meters":4000,"station_id":"ce4bh692rcd13ifvqea0","pricing_plan_id":"free"},{"bike_id":"e4ccd828-c247-4310-8b19-2f665531130f","system_id":"levelo_inurba_marseille","lat":43.2926,"lon":5.38443,"is_reserved":false,"is_disabled":false,"rental_uris":{"android":"levelo://app?vid=e4ccd828-c247-4310-8b19-2f665531130f","ios":"levelo://app?vid=e4ccd828-c247-4310-8b19-2f665531130f"},"vehicle_type_id":"4","last_reported":1707768456,"current_range_meters":12000,"station_id":"ce4bh692rcd13ifvqea0","pricing_plan_id":"free"},{"bike_id":"8a5daf49-f231-46a2-8c35-1d99096a3c72","system_id":"levelo_inurba_marseille","lat":43.290103,"lon":5.356114,"is_reserved":false,"is_disabled":false,"rental_uris":{"android":"levelo://app?vid=8a5daf49-f231-46a2-8c35-1d99096a3c72","ios":"levelo://app?vid=8a5daf49-f231-46a2-8c35-1d99096a3c72"},"vehicle_type_id":"4","last_reported":1707768456,"current_range_meters":12000,"station_id":"ce4bhb92rcd13ifvqen0","pricing_plan_id":"free"},{"bike_id":"3439cc38-084c-4bff-815b-377c5d4fdfe2","system_id":"levelo_inurba_marseille","lat":43.29007,"lon":5.35613,"is_reserved":false,"is_disabled":false,"rental_uris":{"android":"levelo://app?vid=3439cc38-084c-4bff-815b-377c5d4fdfe2","ios":"levelo://app?vid=3439cc38-084c-4bff-815b-377c5d4fdfe2"},"vehicle_type_id":"4","last_reported":1707768456,"current_range_meters":15200,"station_id":"ce4bhb92rcd13ifvqen0","pricing_plan_id":"free"},{"bike_id":"7e9ac007-98b8-428a-b2ae-87ebba756d57","system_id":"levelo_inurba_marseille","lat":43.290103,"lon":5.356114,"is_reserved":false,"is_disabled":false,"rental_uris":{"android":"levelo://app?vid=7e9ac007-98b8-428a-b2ae-87ebba756d57","ios":"levelo://app?vid=7e9ac007-98b8-428a-b2ae-87ebba756d57"},"vehicle_type_id":"4","last_reported":1707768456,"current_range_meters":24800,"station_id":"ce4bhb92rcd13ifvqen0","pricing_plan_id":"free"},{"bike_id":"e9884606-594a-4f0f-b922-812982ff6ea2","system_id":"levelo_inurba_marseille","lat":43.29004,"lon":5.35612,"is_reserved":false,"is_disabled":false,"rental_uris":{"android":"levelo://app?vid=e9884606-594a-4f0f-b922-812982ff6ea2","ios":"levelo://app?vid=e9884606-594a-4f0f-b922-812982ff6ea2"},"vehicle_type_id":"4","last_reported":1707768456,"current_range_meters":19600,"station_id":"ce4bhb92rcd13ifvqen0","pricing_plan_id":"free"},{"bike_id":"3ea19759-a726-45bd-b1b8-e2737bc4cbae","system_id":"levelo_inurba_marseille","lat":43.29003,"lon":5.35608,"is_reserved":false,"is_disabled":false,"rental_uris":{"android":"levelo://app?vid=3ea19759-a726-45bd-b1b8-e2737bc4cbae","ios":"levelo://app?vid=3ea19759-a726-45bd-b1b8-e2737bc4cbae"},"vehicle_type_id":"4","last_reported":1707768456,"current_range_meters":6800,"station_id":"ce4bhb92rcd13ifvqen0","pricing_plan_id":"free"},{"bike_id":"50ada13c-b49e-4a7a-b058-c9290aff965d","system_id":"levelo_inurba_marseille","lat":43.290104,"lon":5.356111,"is_reserved":false,"is_disabled":false,"rental_uris":{"android":"levelo://app?vid=50ada13c-b49e-4a7a-b058-c9290aff965d","ios":"levelo://app?vid=50ada13c-b49e-4a7a-b058-c9290aff965d"},"vehicle_type_id":"4","last_reported":1707768456,"current_range_meters":22000,"station_id":"ce4bhb92rcd13ifvqen0","pricing_plan_id":"free"},{"bike_id":"562b027d-ac07-4cd3-bda8-658dd76d04b1","system_id":"levelo_inurba_marseille","lat":43.290014,"lon":5.356111,"is_reserved":false,"is_disabled":false,"rental_uris":{"android":"levelo://app?vid=562b027d-ac07-4cd3-bda8-658dd76d04b1","ios":"levelo://app?vid=562b027d-ac07-4cd3-bda8-658dd76d04b1"},"vehicle_type_id":"4","last_reported":1707768456,"current_range_meters":24800,"station_id":"ce4bhb92rcd13ifvqen0","pricing_plan_id":"free"},{"bike_id":"d2d4de53-8cc9-41f6-9ae6-28c239d59eb4","system_id":"levelo_inurba_marseille","lat":43.290104,"lon":5.356111,"is_reserved":false,"is_disabled":false,"rental_uris":{"android":"levelo://app?vid=d2d4de53-8cc9-41f6-9ae6-28c239d59eb4","ios":"levelo://app?vid=d2d4de53-8cc9-41f6-9ae6-28c239d59eb4"},"vehicle_type_id":"4","last_reported":1707768456,"current_range_meters":28000,"station_id":"ce4bhb92rcd13ifvqen0","pricing_plan_id":"free"},{"bike_id":"d207d1d9-e26e-430e-8278-f7f6fc1744d4","system_id":"levelo_inurba_marseille","lat":43.290103,"lon":5.356114,"is_reserved":false,"is_disabled":false,"rental_uris":{"android":"levelo://app?vid=d207d1d9-e26e-430e-8278-f7f6fc1744d4","ios":"levelo://app?vid=d207d1d9-e26e-430e-8278-f7f6fc1744d4"},"vehicle_type_id":"4","last_reported":1707768456,"current_range_meters":20400,"station_id":"ce4bhb92rcd13ifvqen0","pricing_plan_id":"free"},{"bike_id":"41860594-ec4b-4d66-a0f4-83e5ae9b141c","system_id":"levelo_inurba_marseille","lat":43.290995,"lon":5.381361,"is_reserved":false,"is_disabled":false,"rental_uris":{"android":"levelo://app?vid=41860594-ec4b-4d66-a0f4-83e5ae9b141c","ios":"levelo://app?vid=41860594-ec4b-4d66-a0f4-83e5ae9b141c"},"vehicle_type_id":"4","last_reported":1707768456,"current_range_meters":14800,"station_id":"ce4bh512rcd13ifvqe2g","pricing_plan_id":"free"},{"bike_id":"fa57d21a-9610-4c08-b1d8-7847580bdc5e","system_id":"levelo_inurba_marseille","lat":43.290995,"lon":5.381361,"is_reserved":false,"is_disabled":false,"rental_uris":{"android":"levelo://app?vid=fa57d21a-9610-4c08-b1d8-7847580bdc5e","ios":"levelo://app?vid=fa57d21a-9610-4c08-b1d8-7847580bdc5e"},"vehicle_type_id":"4","last_reported":1707768456,"current_range_meters":6400,"station_id":"ce4bh512rcd13ifvqe2g","pricing_plan_id":"free"},{"bike_id":"45172a4a-ad9f-4d0e-8d58-e28e5403b493","system_id":"levelo_inurba_marseille","lat":43.290995,"lon":5.381361,"is_reserved":false,"is_disabled":false,"rental_uris":{"android":"levelo://app?vid=45172a4a-ad9f-4d0e-8d58-e28e5403b493","ios":"levelo://app?vid=45172a4a-ad9f-4d0e-8d58-e28e5403b493"},"vehicle_type_id":"4","last_reported":1707768456,"current_range_meters":6000,"station_id":"ce4bh512rcd13ifvqe2g","pricing_plan_id":"free"},{"bike_id":"bae50f70-1df2-421b-a550-fc4c983f91af","system_id":"levelo_inurba_marseille","lat":43.295169,"lon":5.390426,"is_reserved":false,"is_disabled":false,"rental_uris":{"android":"levelo://app?vid=bae50f70-1df2-421b-a550-fc4c983f91af","ios":"levelo://app?vid=bae50f70-1df2-421b-a550-fc4c983f91af"},"vehicle_type_id":"4","last_reported":1707768456,"current_range_meters":19600,"station_id":"ce4bh3p2rcd13ifvqdp0","pricing_plan_id":"free"},{"bike_id":"b1705133-2472-4866-ad29-16d1875b9bb1","system_id":"levelo_inurba_marseille","lat":43.297815,"lon":5.393548,"is_reserved":false,"is_disabled":false,"rental_uris":{"android":"levelo://app?vid=b1705133-2472-4866-ad29-16d1875b9bb1","ios":"levelo://app?vid=b1705133-2472-4866-ad29-16d1875b9bb1"},"vehicle_type_id":"4","last_reported":1707768456,"current_range_meters":28000,"station_id":"chh1huq6cuj3fo74tm60","pricing_plan_id":"free"},{"bike_id":"a84edf36-97f8-4239-bcaf-592dbe9a0898","system_id":"levelo_inurba_marseille","lat":43.295169,"lon":5.390426,"is_reserved":false,"is_disabled":false,"rental_uris":{"android":"levelo://app?vid=a84edf36-97f8-4239-bcaf-592dbe9a0898","ios":"levelo://app?vid=a84edf36-97f8-4239-bcaf-592dbe9a0898"},"vehicle_type_id":"4","last_reported":1707768456,"current_range_meters":6000,"station_id":"ce4bh3p2rcd13ifvqdp0","pricing_plan_id":"free"},{"bike_id":"ba7895df-fdf0-43d4-b40a-e7e64d29137d","system_id":"levelo_inurba_marseille","lat":43.33015,"lon":5.39042,"is_reserved":false,"is_disabled":false,"rental_uris":{"android":"levelo://app?vid=ba7895df-fdf0-43d4-b40a-e7e64d29137d","ios":"levelo://app?vid=ba7895df-fdf0-43d4-b40a-e7e64d29137d"},"vehicle_type_id":"4","last_reported":1707768456,"current_range_meters":19200,"station_id":"ce4bhr92rcd13ifvqhrg","pricing_plan_id":"free"},{"bike_id":"5808e810-d387-4fbf-9289-14ca727d9b15","system_id":"levelo_inurba_marseille","lat":43.33024,"lon":5.39032,"is_reserved":false,"is_disabled":false,"rental_uris":{"android":"levelo://app?vid=5808e810-d387-4fbf-9289-14ca727d9b15","ios":"levelo://app?vid=5808e810-d387-4fbf-9289-14ca727d9b15"},"vehicle_type_id":"4","last_reported":1707768456,"current_range_meters":5200,"station_id":"ce4bhr92rcd13ifvqhrg","pricing_plan_id":"free"},{"bike_id":"885d22c6-50bb-4b62-9e03-bc76c977b16d","system_id":"levelo_inurba_marseille","lat":43.330442,"lon":5.389148,"is_reserved":false,"is_disabled":false,"rental_uris":{"android":"levelo://app?vid=885d22c6-50bb-4b62-9e03-bc76c977b16d","ios":"levelo://app?vid=885d22c6-50bb-4b62-9e03-bc76c977b16d"},"vehicle_type_id":"4","last_reported":1707768456,"current_range_meters":800,"station_id":"ce4bhr92rcd13ifvqhrg","pricing_plan_id":"free"},{"bike_id":"6143b246-3fa0-4c50-967f-81b19f2106fa","system_id":"levelo_inurba_marseille","lat":43.330442,"lon":5.389148,"is_reserved":false,"is_disabled":false,"rental_uris":{"android":"levelo://app?vid=6143b246-3fa0-4c50-967f-81b19f2106fa","ios":"levelo://app?vid=6143b246-3fa0-4c50-967f-81b19f2106fa"},"vehicle_type_id":"4","last_reported":1707768456,"current_range_meters":30400,"station_id":"ce4bhr92rcd13ifvqhrg","pricing_plan_id":"free"},