{"last_updated":1700190443,"ttl":30,"version":"2.2","data":{"bikes":[{"bike_id":"837a37a0-f79b-4465-b960-5b2eaad69767","system_id":"levelo_inurba_marseille","lat":43.31341,"lon":5.367098,"is_reserved":false,"is_disabled":false,"rental_uris":{"android":"levelo://app?vid=837a37a0-f79b-4465-b960-5b2eaad69767","ios":"levelo://app?vid=837a37a0-f79b-4465-b960-5b2eaad69767"},"vehicle_type_id":"4","last_reported":1700190444,"current_range_meters":28800,"station_id":"ce4bgr92rcd13ifvqc6g","pricing_plan_id":"free"},{"bike_id":"f38450ee-d8b1-4da6-8f88-420d587ee280","system_id":"levelo_inurba_marseille","lat":43.312239,"lon":5.368562,"is_reserved":false,"is_disabled":false,"rental_uris":{"android":"levelo://app?vid=f38450ee-d8b1-4da6-8f88-420d587ee280","ios":"levelo://app?vid=f38450ee-d8b1-4da6-8f88-420d587ee280"},"vehicle_type_id":"4","last_reported":1700190444,"current_range_meters":30000,"station_id":"ce4bgl92rcd13ifvqbq0","pricing_plan_id":"free"},{"bike_id":"943dfc2f-eec4-44b8-ae3a-bf8f278b58c3","system_id":"levelo_inurba_marseille","lat":43.3116,"lon":5.36889,"is_reserved":false,"is_disabled":false,"rental_uris":{"android":"levelo://app?vid=943dfc2f-eec4-44b8-ae3a-bf8f278b58c3","ios":"levelo://app?vid=943dfc2f-eec4-44b8-ae3a-bf8f278b58c3"},"vehicle_type_id":"4","last_reported":1700190444,"current_range_meters":6800,"station_id":"","pricing_plan_id":"free"},{"bike_id":"78dee062-99e4-4bb0-a8f9-d06f78f984d7","system_id":"levelo_inurba_marseille","lat":43.309076,"lon":5.368465,"is_reserved":false,"is_disabled":false,"rental_uris":{"android":"levelo://app?vid=78dee062-99e4-4bb0-a8f9-d06f78f984d7","ios":"levelo://app?vid=78dee062-99e4-4bb0-a8f9-d06f78f984d7"},"vehicle_type_id":"4","last_reported":1700190444,"current_range_meters":30000,"station_id":"ce4bgn92rcd13ifvqbvg","pricing_plan_id":"free"},{"bike_id":"f0631920-8e9c-4975-b7f7-a67f4f29dbae","system_id":"levelo_inurba_marseille","lat":43.309076,"lon":5.368465,"is_reserved":false,"is_disabled":false,"rental_uris":{"android":"levelo://app?vid=f0631920-8e9c-4975-b7f7-a67f4f29dbae","ios":"levelo://app?vid=f0631920-8e9c-4975-b7f7-a67f4f29dbae"},"vehicle_type_id":"4","last_reported":1700190444,"current_range_meters":31600,"station_id":"ce4bgn92rcd13ifvqbvg","pricing_plan_id":"free"},{"bike_id":"633552a7-d3df-44d0-a43b-372114343899","system_id":"levelo_inurba_marseille","lat":43.309076,"lon":5.368465,"is_reserved":false,"is_disabled":false,"rental_uris":{"android":"levelo://app?vid=633552a7-d3df-44d0-a43b-372114343899","ios":"levelo://app?vid=633552a7-d3df-44d0-a43b-372114343899"},"vehicle_type_id":"4","last_reported":1700190444,"current_range_meters":13200,"station_id":"ce4bgn92rcd13ifvqbvg","pricing_plan_id":"free"},{"bike_id":"98d55163-c3ab-490d-bdc5-e9b53b17d171","system_id":"levelo_inurba_marseille","lat":43.31486,"lon":5.373048,"is_reserved":false,"is_disabled":false,"rental_uris":{"android":"levelo://app?vid=98d55163-c3ab-490d-bdc5-e9b53b17d171","ios":"levelo://app?vid=98d55163-c3ab-490d-bdc5-e9b53b17d171"},"vehicle_type_id":"4","last_reported":1700190444,"current_range_meters":27600,"station_id":"","pricing_plan_id":"free"},{"bike_id":"53109a94-edb8-4598-bf29-87dc5dbff2fb","system_id":"levelo_inurba_marseille","lat":43.314811,"lon":5.373103,"is_reserved":false,"is_disabled":false,"rental_uris":{"android":"levelo://app?vid=53109a94-edb8-4598-bf29-87dc5dbff2fb","ios":"levelo://app?vid=53109a94-edb8-4598-bf29-87dc5dbff2fb"},"vehicle_type_id":"4","last_reported":1700190444,"current_range_meters":9600,"station_id":"ce4bgt12rcd13ifvqcd0","pricing_plan_id":"free"},{"bike_id":"c5d017d3-6681-4427-8136-fbf9b1db26ab","system_id":"levelo_inurba_marseille","lat":43.314811,"lon":5.373103,"is_reserved":false,"is_disabled":false,"rental_uris":{"android":"levelo://app?vid=c5d017d3-6681-4427-8136-fbf9b1db26ab","ios":"levelo://app?vid=c5d017d3-6681-4427-8136-fbf9b1db26ab"},"vehicle_type_id":"4","last_reported":1700190444,"current_range_meters":28400,"station_id":"ce4bgt12rcd13ifvqcd0","pricing_plan_id":"free"},{"bike_id":"981dd138-ade2-4320-ae3d-8e3fe29bb2de","system_id":"levelo_inurba_marseille","lat":43.31493,"lon":5.37315,"is_reserved":false,"is_disabled":false,"rental_uris":{"android":"levelo://app?vid=981dd138-ade2-4320-ae3d-8e3fe29bb2de","ios":"levelo://app?vid=981dd138-ade2-4320-ae3d-8e3fe29bb2de"},"vehicle_type_id":"4","last_reported":1700190444,"current_range_meters":0,"station_id":"","pricing_plan_id":"free"},{"bike_id":"0d0ff306-c067-4bdf-b82b-c9539c7113b8","system_id":"levelo_inurba_marseille","lat":43.309039,"lon":5.371797,"is_reserved":false,"is_disabled":false,"rental_uris":{"android":"levelo://app?vid=0d0ff306-c067-4bdf-b82b-c9539c7113b8","ios":"levelo://app?vid=0d0ff306-c067-4bdf-b82b-c9539c7113b8"},"vehicle_type_id":"4","last_reported":1700190444,"current_range_meters":30000,"station_id":"ce4bguh2rcd13ifvqckg","pricing_plan_id":"free"},{"bike_id":"d0834d35-1728-4c47-b247-6ef2527d59da","system_id":"levelo_inurba_marseille","lat":43.309039,"lon":5.371797,"is_reserved":false,"is_disabled":false,"rental_uris":{"android":"levelo://app?vid=d0834d35-1728-4c47-b247-6ef2527d59da","ios":"levelo://app?vid=d0834d35-1728-4c47-b247-6ef2527d59da"},"vehicle_type_id":"4","last_reported":1700190444,"current_range_meters":29200,"station_id":"ce4bguh2rcd13ifvqckg","pricing_plan_id":"free"},{"bike_id":"3475d204-43b6-43d9-b615-ca1d0d58200e","system_id":"levelo_inurba_marseille","lat":43.30679,"lon":5.3679,"is_reserved":false,"is_disabled":false,"rental_uris":{"android":"levelo://app?vid=3475d204-43b6-43d9-b615-ca1d0d58200e","ios":"levelo://app?vid=3475d204-43b6-43d9-b615-ca1d0d58200e"},"vehicle_type_id":"4","last_reported":1700190444,"current_range_meters":20000,"station_id":"","pricing_plan_id":"free"},{"bike_id":"aa60e7eb-1aff-45a6-bddd-926b554eeb5d","system_id":"levelo_inurba_marseille","lat":43.305989,"lon":5.37225,"is_reserved":false,"is_disabled":false,"rental_uris":{"android":"levelo://app?vid=aa60e7eb-1aff-45a6-bddd-926b554eeb5d","ios":"levelo://app?vid=aa60e7eb-1aff-45a6-bddd-926b554eeb5d"},"vehicle_type_id":"4","last_reported":1700190444,"current_range_meters":16400,"station_id":"ce4bgqh2rcd13ifvqc4g","pricing_plan_id":"free"},{"bike_id":"09148a2b-f327-4c31-9ce0-87e38ffd7c32","system_id":"levelo_inurba_marseille","lat":43.305989,"lon":5.37225,"is_reserved":false,"is_disabled":false,"rental_uris":{"android":"levelo://app?vid=09148a2b-f327-4c31-9ce0-87e38ffd7c32","ios":"levelo://app?vid=09148a2b-f327-4c31-9ce0-87e38ffd7c32"},"vehicle_type_id":"4","last_reported":1700190444,"current_range_meters":26000,"station_id":"ce4bgqh2rcd13ifvqc4g","pricing_plan_id":"free"},{"bike_id":"befc5fb4-a993-4c65-8df1-d068f732e911","system_id":"levelo_inurba_marseille","lat":43.305989,"lon":5.37225,"is_reserved":false,"is_disabled":false,"rental_uris":{"android":"levelo://app?vid=befc5fb4-a993-4c65-8df1-d068f732e911","ios":"levelo://app?vid=befc5fb4-a993-4c65-8df1-d068f732e911"},"vehicle_type_id":"4","last_reported":1700190444,"current_range_meters":27200,"station_id":"ce4bgqh2rcd13ifvqc4g","pricing_plan_id":"free"},{"bike_id":"456052fc-548c-49af-a078-bf768fc3999d","system_id":"levelo_inurba_marseille","lat":43.305945,"lon":5.372152,"is_reserved":false,"is_disabled":false,"rental_uris":{"android":"levelo://app?vid=456052fc-548c-49af-a078-bf768fc3999d","ios":"levelo://app?vid=456052fc-548c-49af-a078-bf768fc3999d"},"vehicle_type_id":"4","last_reported":1700190444,"current_range_meters":22800,"station_id":"ce4bgqh2rcd13ifvqc4g","pricing_plan_id":"free"},{"bike_id":"85784779-b2f6-409b-b507-338cd0746fd0","system_id":"levelo_inurba_marseille","lat":43.311131,"lon":5.377651,"is_reserved":false,"is_disabled":false,"rental_uris":{"android":"levelo://app?vid=85784779-b2f6-409b-b507-338cd0746fd0","ios":"levelo://app?vid=85784779-b2f6-409b-b507-338cd0746fd0"},"vehicle_type_id":"4","last_reported":1700190444,"current_range_meters":31600,"station_id":"ce4bgt92rcd13ifvqcg0","pricing_plan_id":"free"},{"bike_id":"cc655a90-7686-4135-ab43-68d4b31ccab8","system_id":"levelo_inurba_marseille","lat":43.311131,"lon":5.377651,"is_reserved":false,"is_disabled":false,"rental_uris":{"android":"levelo://app?vid=cc655a90-7686-4135-ab43-68d4b31ccab8","ios":"levelo://app?vid=cc655a90-7686-4135-ab43-68d4b31ccab8"},"vehicle_type_id":"4","last_reported":1700190444,"current_range_meters":9600,"station_id":"ce4bgt92rcd13ifvqcg0","pricing_plan_id":"free"},{"bike_id":"13155706-5c23-4672-82de-508755f71ebc","system_id":"levelo_inurba_marseille","lat":43.311131,"lon":5.377651,"is_reserved":false,"is_disabled":false,"rental_uris":{"android":"levelo://app?vid=13155706-5c23-4672-82de-508755f71ebc","ios":"levelo://app?vid=13155706-5c23-4672-82de-508755f71ebc"},"vehicle_type_id":"4","last_reported":1700190444,"current_range_meters":22400,"station_id":"ce4bgt92rcd13ifvqcg0","pricing_plan_id":"free"},{"bike_id":"1b35fb4d-8379-4b2a-9b57-b62d0ffae650","system_id":"levelo_inurba_marseille","lat":43.311125,"lon":5.377624,"is_reserved":false,"is_disabled":false,"rental_uris":{"android":"levelo://app?vid=1b35fb4d-8379-4b2a-9b57-b62d0ffae650","ios":"levelo://app?vid=1b35fb4d-8379-4b2a-9b57-b62d0ffae650"},"vehicle_type_id":"4","last_reported":1700190444,"current_range_meters":7600,"station_id":"ce4bgt92rcd13ifvqcg0","pricing_plan_id":"free"},{"bike_id":"1d49e9ba-e586-4e39-965e-fec47c539ad1","system_id":"levelo_inurba_marseille","lat":43.311131,"lon":5.377651,"is_reserved":false,"is_disabled":false,"rental_uris":{"android":"levelo://app?vid=1d49e9ba-e586-4e39-965e-fec47c539ad1","ios":"levelo://app?vid=1d49e9ba-e586-4e39-965e-fec47c539ad1"},"vehicle_type_id":"4","last_reported":1700190444,"current_range_meters":8000,"station_id":"ce4bgt92rcd13ifvqcg0","pricing_plan_id":"free"},{"bike_id":"025a6649-7455-475f-90f5-fb3ac4af6e20","system_id":"levelo_inurba_marseille","lat":43.311125,"lon":5.377624,"is_reserved":false,"is_disabled":false,"rental_uris":{"android":"levelo://app?vid=025a6649-7455-475f-90f5-fb3ac4af6e20","ios":"levelo://app?vid=025a6649-7455-475f-90f5-fb3ac4af6e20"},"vehicle_type_id":"4","last_reported":1700190444,"current_range_meters":26000,"station_id":"ce4bgt92rcd13ifvqcg0","pricing_plan_id":"free"},{"bike_id":"87921a99-b182-4a6e-9c0d-07baa509c1ad","system_id":"levelo_inurba_marseille","lat":43.311131,"lon":5.377651,"is_reserved":false,"is_disabled":false,"rental_uris":{"android":"levelo://app?vid=87921a99-b182-4a6e-9c0d-07baa509c1ad","ios":"levelo://app?vid=87921a99-b182-4a6e-9c0d-07baa509c1ad"},"vehicle_type_id":"4","last_reported":1700190444,"current_range_meters":800,"station_id":"ce4bgt92rcd13ifvqcg0","pricing_plan_id":"free"},{"bike_id":"12c20082-3d62-42f2-bc67-598c9417c713","system_id":"levelo_inurba_marseille","lat":43.311125,"lon":5.377624,"is_reserved":false,"is_disabled":false,"rental_uris":{"android":"levelo://app?vid=12c20082-3d62-42f2-bc67-598c9417c713","ios":"levelo://app?vid=12c20082-3d62-42f2-bc67-598c9417c713"},"vehicle_type_id":"4","last_reported":1700190444,"current_range_meters":28000,"station_id":"ce4bgt92rcd13ifvqcg0","pricing_plan_id":"free"},{"bike_id":"68426adf-abb4-4a7d-b957-00f9b91d9a5d","system_id":"levelo_inurba_marseille","lat":43.307945,"lon":5.376487,"is_reserved":false,"is_disabled":false,"rental_uris":{"android":"levelo://app?vid=68426adf-abb4-4a7d-b957-00f9b91d9a5d","ios":"levelo://app?vid=68426adf-abb4-4a7d-b957-00f9b91d9a5d"},"vehicle_type_id":"4","last_reported":1700190444,"current_range_meters":31600,"station_id":"ce4bgv92rcd13ifvqcq0","pricing_plan_id":"free"},{"bike_id":"29f00c65-4961-495a-8421-61cffbea2d3f","system_id":"levelo_inurba_marseille","lat":43.307945,"lon":5.376487,"is_reserved":false,"is_disabled":false,"rental_uris":{"android":"levelo://app?vid=29f00c65-4961-495a-8421-61cffbea2d3f","ios":"levelo://app?vid=29f00c65-4961-495a-8421-61cffbea2d3f"},"vehicle_type_id":"4","last_reported":1700190444,"current_range_meters":19200,"station_id":"ce4bgv92rcd13ifvqcq0","pricing_plan_id":"free"},{"bike_id":"f2523eae-9009-497c-80eb-41736c70977d","system_id":"levelo_inurba_marseille","lat":43.307945,"lon":5.376487,"is_reserved":false,"is_disabled":false,"rental_uris":{"android":"levelo://app?vid=f2523eae-9009-497c-80eb-41736c70977d","ios":"levelo://app?vid=f2523eae-9009-497c-80eb-41736c70977d"},"vehicle_type_id":"4","last_reported":1700190444,"current_range_meters":21600,"station_id":"ce4bgv92rcd13ifvqcq0","pricing_plan_id":"free"},{"bike_id":"d12b034f-cbb9-44e7-ad54-16fd0d867283","system_id":"levelo_inurba_marseille","lat":43.307945,"lon":5.376487,"is_reserved":false,"is_disabled":false,"rental_uris":{"android":"levelo://app?vid=d12b034f-cbb9-44e7-ad54-16fd0d867283","ios":"levelo://app?vid=d12b034f-cbb9-44e7-ad54-16fd0d867283"},"vehicle_type_id":"4","last_reported":1700190444,"current_range_meters":29200,"station_id":"ce4bgv92rcd13ifvqcq0","pricing_plan_id":"free"},{"bike_id":"efa59877-0f80-4f47-8c3e-2508e134cd70","system_id":"levelo_inurba_marseille","lat":43.307945,"lon":5.376487,"is_reserved":false,"is_disabled":false,"rental_uris":{"android":"levelo://app?vid=efa59877-0f80-4f47-8c3e-2508e134cd70","ios":"levelo://app?vid=efa59877-0f80-4f47-8c3e-2508e134cd70"},"vehicle_type_id":"4","last_reported":1700190444,"current_range_meters":22400,"station_id":"ce4bgv92rcd13ifvqcq0","pricing_plan_id":"free"},{"bike_id":"509e7b5b-5204-43a1-9b03-f12cfb0e7534","system_id":"levelo_inurba_marseille","lat":43.307945,"lon":5.376487,"is_reserved":false,"is_disabled":false,"rental_uris":{"android":"levelo://app?vid=509e7b5b-5204-43a1-9b03-f12cfb0e7534","ios":"levelo://app?vid=509e7b5b-5204-43a1-9b03-f12cfb0e7534"},"vehicle_type_id":"4","last_reported":1700190444,"current_range_meters":23200,"station_id":"ce4bgv92rcd13ifvqcq0","pricing_plan_id":"free"},{"bike_id":"57053367-5328-4d78-8951-737f56b37ed9","system_id":"levelo_inurba_marseille","lat":43.319924,"lon":5.373389,"is_reserved":false,"is_disabled":false,"rental_uris":{"android":"levelo://app?vid=57053367-5328-4d78-8951-737f56b37ed9","ios":"levelo://app?vid=57053367-5328-4d78-8951-737f56b37ed9"},"vehicle_type_id":"4","last_reported":1700190444,"current_range_meters":0,"station_id":"","pricing_plan_id":"free"},{"bike_id":"b91bb155-8ee6-4691-9d0d-db06dc52285b","system_id":"levelo_inurba_marseille","lat":43.30776,"lon":5.37655,"is_reserved":false,"is_disabled":false,"rental_uris":{"android":"levelo://app?vid=b91bb155-8ee6-4691-9d0d-db06dc52285b","ios":"levelo://app?vid=b91bb155-8ee6-4691-9d0d-db06dc52285b"},"vehicle_type_id":"4","last_reported":1700190444,"current_range_meters":15600,"station_id":"ce4bgv92rcd13ifvqcq0","pricing_plan_id":"free"},{"bike_id":"6f318cd4-200d-496d-b0b6-8821e7ad12e7","system_id":"levelo_inurba_marseille","lat":43.317009,"lon":5.377335,"is_reserved":false,"is_disabled":false,"rental_uris":{"android":"levelo://app?vid=6f318cd4-200d-496d-b0b6-8821e7ad12e7","ios":"levelo://app?vid=6f318cd4-200d-496d-b0b6-8821e7ad12e7"},"vehicle_type_id":"4","last_reported":1700190444,"current_range_meters":24400,"station_id":"ce4bgth2rcd13ifvqch0","pricing_plan_id":"free"},{"bike_id":"02d70d64-e2da-4498-8364-b1d0d94b82c4","system_id":"levelo_inurba_marseille","lat":43.317075,"lon":5.377367,"is_reserved":false,"is_disabled":false,"rental_uris":{"android":"levelo://app?vid=02d70d64-e2da-4498-8364-b1d0d94b82c4","ios":"levelo://app?vid=02d70d64-e2da-4498-8364-b1d0d94b82c4"},"vehicle_type_id":"4","last_reported":1700190444,"current_range_meters":28400,"station_id":"ce4bgth2rcd13ifvqch0","pricing_plan_id":"free"},{"bike_id":"ea4edc06-e67b-4292-9984-5b7a9b93e21b","system_id":"levelo_inurba_marseille","lat":43.317075,"lon":5.377367,"is_reserved":false,"is_disabled":false,"rental_uris":{"android":"levelo://app?vid=ea4edc06-e67b-4292-9984-5b7a9b93e21b","ios":"levelo://app?vid=ea4edc06-e67b-4292-9984-5b7a9b93e21b"},"vehicle_type_id":"4","last_reported":1700190444,"current_range_meters":28800,"station_id":"ce4bgth2rcd13ifvqch0","pricing_plan_id":"free"},{"bike_id":"a4d08049-928d-48ae-a38c-380f49e3bd31","system_id":"levelo_inurba_marseille","lat":43.317075,"lon":5.377367,"is_reserved":false,"is_disabled":false,"rental_uris":{"android":"levelo://app?vid=a4d08049-928d-48ae-a38c-380f49e3bd31","ios":"levelo://app?vid=a4d08049-928d-48ae-a38c-380f49e3bd31"},"vehicle_type_id":"4","last_reported":1700190444,"current_range_meters":27200,"station_id":"ce4bgth2rcd13ifvqch0","pricing_plan_id":"free"},{"bike_id":"1e50b8c1-eeb0-4234-8dd0-abe03976041f","system_id":"levelo_inurba_marseille","lat":43.317075,"lon":5.377367,"is_reserved":false,"is_disabled":false,"rental_uris":{"android":"levelo://app?vid=1e50b8c1-eeb0-4234-8dd0-abe03976041f","ios":"levelo://app?vid=1e50b8c1-eeb0-4234-8dd0-abe03976041f"},"vehicle_type_id":"4","last_reported":1700190444,"current_range_meters":22000,"station_id":"ce4bgth2rcd13ifvqch0","pricing_plan_id":"free"},{"bike_id":"0e0ce45e-f9bb-4f2a-a3b6-86be428901b6","system_id":"levelo_inurba_marseille","lat":43.321413,"lon":5.371128,"is_reserved":false,"is_disabled":false,"rental_uris":{"android":"levelo://app?vid=0e0ce45e-f9bb-4f2a-a3b6-86be428901b6","ios":"levelo://app?vid=0e0ce45e-f9bb-4f2a-a3b6-86be428901b6"},"vehicle_type_id":"4","last_reported":1700190444,"current_range_meters":23200,"station_id":"","pricing_plan_id":"free"},{"bike_id":"6718bcfd-196e-4e6e-9b7c-e7f312920884","system_id":"levelo_inurba_marseille","lat":43.30304,"lon":5.368987,"is_reserved":false,"is_disabled":false,"rental_uris":{"android":"levelo://app?vid=6718bcfd-196e-4e6e-9b7c-e7f312920884","ios":"levelo://app?vid=6718bcfd-196e-4e6e-9b7c-e7f312920884"},"vehicle_type_id":"4","last_reported":1700190444,"current_range_meters":30400,"station_id":"ce4bgqh2rcd13ifvqc5g","pricing_plan_id":"free"},{"bike_id":"9f47febd-7daa-4e26-9803-91ff0840b1bb","system_id":"levelo_inurba_marseille","lat":43.302897,"lon":5.369173,"is_reserved":false,"is_disabled":false,"rental_uris":{"android":"levelo://app?vid=9f47febd-7daa-4e26-9803-91ff0840b1bb","ios":"levelo://app?vid=9f47febd-7daa-4e26-9803-91ff0840b1bb"},"vehicle_type_id":"4","last_reported":1700190444,"current_range_meters":2400,"station_id":"ce4bgqh2rcd13ifvqc5g","pricing_plan_id":"free"},{"bike_id":"b974c708-cb13-4988-9c8e-36ddde63e517","system_id":"levelo_inurba_marseille","lat":43.31529,"lon":5.3803,"is_reserved":false,"is_disabled":false,"rental_uris":{"android":"levelo://app?vid=b974c708-cb13-4988-9c8e-36ddde63e517","ios":"levelo://app?vid=b974c708-cb13-4988-9c8e-36ddde63e517"},"vehicle_type_id":"4","last_reported":1700190444,"current_range_meters":3200,"station_id":"ce4bhsp2rcd13ifvqi50","pricing_plan_id":"free"},{"bike_id":"1131de15-5b10-476a-9100-12652e87094d","system_id":"levelo_inurba_marseille","lat":43.31531,"lon":5.38038,"is_reserved":false,"is_disabled":false,"rental_uris":{"android":"levelo://app?vid=1131de15-5b10-476a-9100-12652e87094d","ios":"levelo://app?vid=1131de15-5b10-476a-9100-12652e87094d"},"vehicle_type_id":"4","last_reported":1700190444,"current_range_meters":31200,"station_id":"ce4bhsp2rcd13ifvqi50","pricing_plan_id":"free"},{"bike_id":"f3cbf8eb-7175-4814-b1c9-84a364c5d83a","system_id":"levelo_inurba_marseille","lat":43.307682,"lon":5.379907,"is_reserved":false,"is_disabled":false,"rental_uris":{"android":"levelo://app?vid=f3cbf8eb-7175-4814-b1c9-84a364c5d83a","ios":"levelo://app?vid=f3cbf8eb-7175-4814-b1c9-84a364c5d83a"},"vehicle_type_id":"4","last_reported":1700190444,"current_range_meters":400,"station_id":"","pricing_plan_id":"free"},{"bike_id":"55430171-ab60-4c7d-91f4-38ec97bad8a7","system_id":"levelo_inurba_marseille","lat":43.301939,"lon":5.366286,"is_reserved":false,"is_disabled":false,"rental_uris":{"android":"levelo://app?vid=55430171-ab60-4c7d-91f4-38ec97bad8a7","ios":"levelo://app?vid=55430171-ab60-4c7d-91f4-38ec97bad8a7"},"vehicle_type_id":"4","last_reported":1700190444,"current_range_meters":30000,"station_id":"ce4bgrh2rcd13ifvqc8g","pricing_plan_id":"free"},{"bike_id":"00939bcc-27fa-469f-a499-d9f44826ee88","system_id":"levelo_inurba_marseille","lat":43.301939,"lon":5.366286,"is_reserved":false,"is_disabled":false,"rental_uris":{"android":"levelo://app?vid=00939bcc-27fa-469f-a499-d9f44826ee88","ios":"levelo://app?vid=00939bcc-27fa-469f-a499-d9f44826ee88"},"vehicle_type_id":"4","last_reported":1700190444,"current_range_meters":30400,"station_id":"ce4bgrh2rcd13ifvqc8g","pricing_plan_id":"free"},{"bike_id":"f3f06834-0f4f-4b8a-b7ca-409b0f54eda0","system_id":"levelo_inurba_marseille","lat":43.308012,"lon":5.381511,"is_reserved":false,"is_disabled":false,"rental_uris":{"android":"levelo://app?vid=f3f06834-0f4f-4b8a-b7ca-409b0f54eda0","ios":"levelo://app?vid=f3f06834-0f4f-4b8a-b7ca-409b0f54eda0"},"vehicle_type_id":"4","last_reported":1700190444,"current_range_meters":0,"station_id":"ce4bgt12rcd13ifvqce0","pricing_plan_id":"free"},{"bike_id":"bb7cc887-6746-43a3-8e90-c1a4b61d77a4","system_id":"levelo_inurba_marseille","lat":43.308012,"lon":5.381511,"is_reserved":false,"is_disabled":false,"rental_uris":{"android":"levelo://app?vid=bb7cc887-6746-43a3-8e90-c1a4b61d77a4","ios":"levelo://app?vid=bb7cc887-6746-43a3-8e90-c1a4b61d77a4"},"vehicle_type_id":"4","last_reported":1700190444,"current_range_meters":4000,"station_id":"ce4bgt12rcd13ifvqce0","pricing_plan_id":"free"},{"bike_id":"9db5aff7-1e9a-4af3-83a6-cbdaa5f34d67","system_id":"levelo_inurba_marseille","lat":43.307968,"lon":5.381524,"is_reserved":false,"is_disabled":false,"rental_uris":{"android":"levelo://app?vid=9db5aff7-1e9a-4af3-83a6-cbdaa5f34d67","ios":"levelo://app?vid=9db5aff7-1e9a-4af3-83a6-cbdaa5f34d67"},"vehicle_type_id":"4","last_reported":1700190444,"current_range_meters":800,"station_id":"ce4bgt12rcd13ifvqce0","pricing_plan_id":"free"},{"bike_id":"87c3788c-88c6-4589-88b3-4c125e40a871","system_id":"levelo_inurba_marseille","lat":43.304606,"lon":5.379026,"is_reserved":false,"is_disabled":false,"rental_uris":{"android":"levelo://app?vid=87c3788c-88c6-4589-88b3-4c125e40a871","ios":"levelo://app?vid=87c3788c-88c6-4589-88b3-4c125e40a871"},"vehicle_type_id":"4","last_reported":1700190444,"current_range_meters":29600,"station_id":"ce4bgup2rcd13ifvqcn0","pricing_plan_id":"free"},{"bike_id":"39743b76-f5a3-41ca-a1d0-3b1eaf18fd1c","system_id":"levelo_inurba_marseille","lat":43.304606,"lon":5.379026,"is_reserved":false,"is_disabled":false,"rental_uris":{"android":"levelo://app?vid=39743b76-f5a3-41ca-a1d0-3b1eaf18fd1c","ios":"levelo://app?vid=39743b76-f5a3-41ca-a1d0-3b1eaf18fd1c"},"vehicle_type_id":"4","last_reported":1700190444,"current_range_meters":0,"station_id":"ce4bgup2rcd13ifvqcn0","pricing_plan_id":"free"},{"bike_id":"a1a84403-ca2b-42eb-b322-5b691009ac8b","system_id":"levelo_inurba_marseille","lat":43.324832,"lon":5.365808,"is_reserved":false,"is_disabled":false,"rental_uris":{"android":"levelo://app?vid=a1a84403-ca2b-42eb-b322-5b691009ac8b","ios":"levelo://app?vid=a1a84403-ca2b-42eb-b322-5b691009ac8b"},"vehicle_type_id":"4","last_reported":1700190444,"current_range_meters":15600,"station_id":"ce4bhs12rcd13ifvqhvg","pricing_plan_id":"free"},{"bike_id":"d242b4a6-8179-475a-ba33-c47ff4b4b334","system_id":"levelo_inurba_marseille","lat":43.324771,"lon":5.36557,"is_reserved":false,"is_disabled":false,"rental_uris":{"android":"levelo://app?vid=d242b4a6-8179-475a-ba33-c47ff4b4b334","ios":"levelo://app?vid=d242b4a6-8179-475a-ba33-c47ff4b4b334"},"vehicle_type_id":"4","last_reported":1700190444,"current_range_meters":26000,"station_id":"ce4bhs12rcd13ifvqhvg","pricing_plan_id":"free"},{"bike_id":"39836e61-2344-43be-9725-26f62c1f8eb7","system_id":"levelo_inurba_marseille","lat":43.324771,"lon":5.36557,"is_reserved":false,"is_disabled":false,"rental_uris":{"android":"levelo://app?vid=39836e61-2344-43be-9725-26f62c1f8eb7","ios":"levelo://app?vid=39836e61-2344-43be-9725-26f62c1f8eb7"},"vehicle_type_id":"4","last_reported":1700190444,"current_range_meters":20800,"station_id":"ce4bhs12rcd13ifvqhvg","pricing_plan_id":"free"},{"bike_id":"e6e2f134-7fb6-463f-bb84-db0eab83b8ef","system_id":"levelo_inurba_marseille","lat":43.30143,"lon":5.37413,"is_reserved":false,"is_disabled":false,"rental_uris":{"android":"levelo://app?vid=e6e2f134-7fb6-463f-bb84-db0eab83b8ef","ios":"levelo://app?vid=e6e2f134-7fb6-463f-bb84-db0eab83b8ef"},"vehicle_type_id":"4","last_reported":1700190444,"current_range_meters":27600,"station_id":"ce4bgs92rcd13ifvqcc0","pricing_plan_id":"free"},{"bike_id":"1ac31019-03c5-475f-91b0-0804ba739f15","system_id":"levelo_inurba_marseille","lat":43.319992,"lon":5.381587,"is_reserved":false,"is_disabled":false,"rental_uris":{"android":"levelo://app?vid=1ac31019-03c5-475f-91b0-0804ba739f15","ios":"levelo://app?vid=1ac31019-03c5-475f-91b0-0804ba739f15"},"vehicle_type_id":"4","last_reported":1700190444,"current_range_meters":0,"station_id":"ce4bhr12rcd13ifvqhpg","pricing_plan_id":"free"},{"bike_id":"a33f430b-d19c-4b17-b669-c3cd344ceaae","system_id":"levelo_inurba_marseille","lat":43.313571,"lon":5.384829,"is_reserved":false,"is_disabled":false,"rental_uris":{"android":"levelo://app?vid=a33f430b-d19c-4b17-b669-c3cd344ceaae","ios":"levelo://app?vid=a33f430b-d19c-4b17-b669-c3cd344ceaae"},"vehicle_type_id":"4","last_reported":1700190444,"current_range_meters":27200,"station_id":"ce4bgt92rcd13ifvqcf0","pricing_plan_id":"free"},{"bike_id":"32630bca-c0f0-4d01-ac8c-a886b7a2be11","system_id":"levelo_inurba_marseille","lat":43.313571,"lon":5.384829,"is_reserved":false,"is_disabled":false,"rental_uris":{"android":"levelo://app?vid=32630bca-c0f0-4d01-ac8c-a886b7a2be11","ios":"levelo://app?vid=32630bca-c0f0-4d01-ac8c-a886b7a2be11"},"vehicle_type_id":"4","last_reported":1700190444,"current_range_meters":27200,"station_id":"ce4bgt92rcd13ifvqcf0","pricing_plan_id":"free"},{"bike_id":"0424e37d-a78d-41d4-bad9-68af13837195","system_id":"levelo_inurba_marseille","lat":43.313571,"lon":5.384829,"is_reserved":false,"is_disabled":false,"rental_uris":{"android":"levelo://app?vid=0424e37d-a78d-41d4-bad9-68af13837195","ios":"levelo://app?vid=0424e37d-a78d-41d4-bad9-68af13837195"},"vehicle_type_id":"4","last_reported":1700190444,"current_range_meters":2400,"station_id":"ce4bgt92rcd13ifvqcf0","pricing_plan_id":"free"},{"bike_id":"a299cec9-b60b-43ae-addd-d2613c4d3da7","system_id":"levelo_inurba_marseille","lat":43.313571,"lon":5.384829,"is_reserved":false,"is_disabled":false,"rental_uris":{"android":"levelo://app?vid=a299cec9-b60b-43ae-addd-d2613c4d3da7","ios":"levelo://app?vid=a299cec9-b60b-43ae-addd-d2613c4d3da7"},"vehicle_type_id":"4","last_reported":1700190444,"current_range_meters":31600,"station_id":"ce4bgt92rcd13ifvqcf0","pricing_plan_id":"free"},{"bike_id":"a7712e79-0e0a-4dee-bfcb-dbfd13253b54","system_id":"levelo_inurba_marseille","lat":43.313571,"lon":5.384829,"is_reserved":false,"is_disabled":false,"rental_uris":{"android":"levelo://app?vid=a7712e79-0e0a-4dee-bfcb-dbfd13253b54","ios":"levelo://app?vid=a7712e79-0e0a-4dee-bfcb-dbfd13253b54"},"vehicle_type_id":"4","last_reported":1700190444,"current_range_meters":26400,"station_id":"ce4bgt92rcd13ifvqcf0","pricing_plan_id":"free"},{"bike_id":"e66d1b50-3c2c-4faa-bd19-08169dcd13d5","system_id":"levelo_inurba_marseille","lat":43.299222,"lon":5.365554,"is_reserved":false,"is_disabled":false,"rental_uris":{"android":"levelo://app?vid=e66d1b50-3c2c-4faa-bd19-08169dcd13d5","ios":"levelo://app?vid=e66d1b50-3c2c-4faa-bd19-08169dcd13d5"},"vehicle_type_id":"4","last_reported":1700190444,"current_range_meters":23200,"station_id":"ce4bgm92rcd13ifvqbr0","pricing_plan_id":"free"},{"bike_id":"66963c79-9023-4e40-bef4-709c1b04f449","system_id":"levelo_inurba_marseille","lat":43.31158,"lon":5.38684,"is_reserved":false,"is_disabled":false,"rental_uris":{"android":"levelo://app?vid=66963c79-9023-4e40-bef4-709c1b04f449","ios":"levelo://app?vid=66963c79-9023-4e40-bef4-709c1b04f449"},"vehicle_type_id":"4","last_reported":1700190444,"current_range_meters":9600,"station_id":"ce4bgv12rcd13ifvqcp0","pricing_plan_id":"free"},{"bike_id":"2c8190cc-2569-4258-a5b2-e8cbf8692d3e","system_id":"levelo_inurba_marseille","lat":43.305364,"lon":5.384119,"is_reserved":false,"is_disabled":false,"rental_uris":{"android":"levelo://app?vid=2c8190cc-2569-4258-a5b2-e8cbf8692d3e","ios":"levelo://app?vid=2c8190cc-2569-4258-a5b2-e8cbf8692d3e"},"vehicle_type_id":"4","last_reported":1700190444,"current_range_meters":1600,"station_id":"ce4bgg92rcd13ifvqb30","pricing_plan_id":"free"},{"bike_id":"5da9dea2-bd9f-4746-b637-56e44ea9e587","system_id":"levelo_inurba_marseille","lat":43.298489,"lon":5.362942,"is_reserved":false,"is_disabled":false,"rental_uris":{"android":"levelo://app?vid=5da9dea2-bd9f-4746-b637-56e44ea9e587","ios":"levelo://app?vid=5da9dea2-bd9f-4746-b637-56e44ea9e587"},"vehicle_type_id":"4","last_reported":1700190444,"current_range_meters":3200,"station_id":"","pricing_plan_id":"free"},{"bike_id":"9c0945f9-3a14-4e4c-bde4-fb0b0a2434f9","system_id":"levelo_inurba_marseille","lat":43.305364,"lon":5.384119,"is_reserved":false,"is_disabled":false,"rental_uris":{"android":"levelo://app?vid=9c0945f9-3a14-4e4c-bde4-fb0b0a2434f9","ios":"levelo://app?vid=9c0945f9-3a14-4e4c-bde4-fb0b0a2434f9"},"vehicle_type_id":"4","last_reported":1700190444,"current_range_meters":23200,"station_id":"ce4bgg92rcd13ifvqb30","pricing_plan_id":"free"},{"bike_id":"6c3a447d-af92-4b32-a4a2-9ec57fa27241","system_id":"levelo_inurba_marseille","lat":43.305364,"lon":5.384119,"is_reserved":false,"is_disabled":false,"rental_uris":{"android":"levelo://app?vid=6c3a447d-af92-4b32-a4a2-9ec57fa27241","ios":"levelo://app?vid=6c3a447d-af92-4b32-a4a2-9ec57fa27241"},"vehicle_type_id":"4","last_reported":1700190444,"current_range_meters":7200,"station_id":"ce4bgg92rcd13ifvqb30","pricing_plan_id":"free"},{"bike_id":"7a3f6f95-144a-489e-b70e-affbf8df4391","system_id":"levelo_inurba_marseille","lat":43.299243,"lon":5.374807,"is_reserved":false,"is_disabled":false,"rental_uris":{"android":"levelo://app?vid=7a3f6f95-144a-489e-b70e-affbf8df4391","ios":"levelo://app?vid=7a3f6f95-144a-489e-b70e-affbf8df4391"},"vehicle_type_id":"4","last_reported":1700190444,"current_range_meters":30400,"station_id":"ce4bgjh2rcd13ifvqbg0","pricing_plan_id":"free"},{"bike_id":"41906527-6995-49fc-bd83-755ca90915f5","system_id":"levelo_inurba_marseille","lat":43.311722,"lon":5.387247,"is_reserved":false,"is_disabled":false,"rental_uris":{"android":"levelo://app?vid=41906527-6995-49fc-bd83-755ca90915f5","ios":"levelo://app?vid=41906527-6995-49fc-bd83-755ca90915f5"},"vehicle_type_id":"4","last_reported":1700190444,"current_range_meters":7200,"station_id":"ce4bgv12rcd13ifvqcp0","pricing_plan_id":"free"},{"bike_id":"76ab6e6c-b0ba-4894-98b5-9b45a3422a1a","system_id":"levelo_inurba_marseille","lat":43.311722,"lon":5.387247,"is_reserved":false,"is_disabled":false,"rental_uris":{"android":"levelo://app?vid=76ab6e6c-b0ba-4894-98b5-9b45a3422a1a","ios":"levelo://app?vid=76ab6e6c-b0ba-4894-98b5-9b45a3422a1a"},"vehicle_type_id":"4","last_reported":1700190444,"current_range_meters":27600,"station_id":"ce4bgv12rcd13ifvqcp0","pricing_plan_id":"free"},{"bike_id":"4e2b74dc-1c86-42a4-8a58-b91b910251b2","system_id":"levelo_inurba_marseille","lat":43.311722,"lon":5.387247,"is_reserved":false,"is_disabled":false,"rental_uris":{"android":"levelo://app?vid=4e2b74dc-1c86-42a4-8a58-b91b910251b2","ios":"levelo://app?vid=4e2b74dc-1c86-42a4-8a58-b91b910251b2"},"vehicle_type_id":"4","last_reported":1700190444,"current_range_meters":19600,"station_id":"ce4bgv12rcd13ifvqcp0","pricing_plan_id":"free"},{"bike_id":"72ffb3d7-ffc7-4831-bb0e-141df8259b72","system_id":"levelo_inurba_marseille","lat":43.311722,"lon":5.387247,"is_reserved":false,"is_disabled":false,"rental_uris":{"android":"levelo://app?vid=72ffb3d7-ffc7-4831-bb0e-141df8259b72","ios":"levelo://app?vid=72ffb3d7-ffc7-4831-bb0e-141df8259b72"},"vehicle_type_id":"4","last_reported":1700190444,"current_range_meters":30000,"station_id":"ce4bgv12rcd13ifvqcp0","pricing_plan_id":"free"},{"bike_id":"62404c93-0797-40eb-bd2d-3884221c54f0","system_id":"levelo_inurba_marseille","lat":43.311722,"lon":5.387247,"is_reserved":false,"is_disabled":false,"rental_uris":{"android":"levelo://app?vid=62404c93-0797-40eb-bd2d-3884221c54f0","ios":"levelo://app?vid=62404c93-0797-40eb-bd2d-3884221c54f0"},"vehicle_type_id":"4","last_reported":1700190444,"current_range_meters":31600,"station_id":"ce4bgv12rcd13ifvqcp0","pricing_plan_id":"free"},{"bike_id":"b3683981-8778-489b-96ed-0a5e2424a2d0","system_id":"levelo_inurba_marseille","lat":43.3283,"lon":5.36677,"is_reserved":false,"is_disabled":false,"rental_uris":{"android":"levelo://app?vid=b3683981-8778-489b-96ed-0a5e2424a2d0","ios":"levelo://app?vid=b3683981-8778-489b-96ed-0a5e2424a2d0"},"vehicle_type_id":"4","last_reported":1700190444,"current_range_meters":22800,"station_id":"ce4bhs92rcd13ifvqi0g","pricing_plan_id":"free"},{"bike_id":"d8260af4-0c45-421f-8417-36bf76f71468","system_id":"levelo_inurba_marseille","lat":43.328308,"lon":5.36679,"is_reserved":false,"is_disabled":false,"rental_uris":{"android":"levelo://app?vid=d8260af4-0c45-421f-8417-36bf76f71468","ios":"levelo://app?vid=d8260af4-0c45-421f-8417-36bf76f71468"},"vehicle_type_id":"4","last_reported":1700190444,"current_range_meters":11600,"station_id":"ce4bhs92rcd13ifvqi0g","pricing_plan_id":"free"},{"bike_id":"8835a6d8-aac8-4e9f-a32b-82403aff3be5","system_id":"levelo_inurba_marseille","lat":43.328371,"lon":5.366909,"is_reserved":false,"is_disabled":false,"rental_uris":{"android":"levelo://app?vid=8835a6d8-aac8-4e9f-a32b-82403aff3be5","ios":"levelo://app?vid=8835a6d8-aac8-4e9f-a32b-82403aff3be5"},"vehicle_type_id":"4","last_reported":1700190444,"current_range_meters":25200,"station_id":"ce4bhs92rcd13ifvqi0g","pricing_plan_id":"free"},{"bike_id":"d447991a-59b4-4778-a190-7d2b0920a414","system_id":"levelo_inurba_marseille","lat":43.32215,"lon":5.38613,"is_reserved":false,"is_disabled":false,"rental_uris":{"android":"levelo://app?vid=d447991a-59b4-4778-a190-7d2b0920a414","ios":"levelo://app?vid=d447991a-59b4-4778-a190-7d2b0920a414"},"vehicle_type_id":"4","last_reported":1700190444,"current_range_meters":0,"station_id":"","pricing_plan_id":"free"},{"bike_id":"587ccb8c-0b67-46b9-8066-894b81411f3f","system_id":"levelo_inurba_marseille","lat":43.309534,"lon":5.390364,"is_reserved":false,"is_disabled":false,"rental_uris":{"android":"levelo://app?vid=587ccb8c-0b67-46b9-8066-894b81411f3f","ios":"levelo://app?vid=587ccb8c-0b67-46b9-8066-894b81411f3f"},"vehicle_type_id":"4","last_reported":1700190444,"current_range_meters":10800,"station_id":"ce4bgup2rcd13ifvqco0","pricing_plan_id":"free"},{"bike_id":"834a95d3-3931-4ae5-bf7f-0848d4bb72fa","system_id":"levelo_inurba_marseille","lat":43.31753,"lon":5.39019,"is_reserved":false,"is_disabled":false,"rental_uris":{"android":"levelo://app?vid=834a95d3-3931-4ae5-bf7f-0848d4bb72fa","ios":"levelo://app?vid=834a95d3-3931-4ae5-bf7f-0848d4bb72fa"},"vehicle_type_id":"4","last_reported":1700190444,"current_range_meters":15200,"station_id":"ce4bhqp2rcd13ifvqhng","pricing_plan_id":"free"},{"bike_id":"ccc0dd0b-2416-4b1c-82da-dc1f5ffb3f3f","system_id":"levelo_inurba_marseille","lat":43.3176,"lon":5.39018,"is_reserved":false,"is_disabled":false,"rental_uris":{"android":"levelo://app?vid=ccc0dd0b-2416-4b1c-82da-dc1f5ffb3f3f","ios":"levelo://app?vid=ccc0dd0b-2416-4b1c-82da-dc1f5ffb3f3f"},"vehicle_type_id":"4","last_reported":1700190444,"current_range_meters":7200,"station_id":"ce4bhqp2rcd13ifvqhng","pricing_plan_id":"free"},{"bike_id":"61f29459-d9d0-443f-a43a-299a7e718fc6","system_id":"levelo_inurba_marseille","lat":43.31759,"lon":5.39021,"is_reserved":false,"is_disabled":false,"rental_uris":{"android":"levelo://app?vid=61f29459-d9d0-443f-a43a-299a7e718fc6","ios":"levelo://app?vid=61f29459-d9d0-443f-a43a-299a7e718fc6"},"vehicle_type_id":"4","last_reported":1700190444,"current_range_meters":18400,"station_id":"ce4bhqp2rcd13ifvqhng","pricing_plan_id":"free"},{"bike_id":"d6a087c2-f0d5-4524-a6df-9466122c35e1","system_id":"levelo_inurba_marseille","lat":43.317557,"lon":5.390235,"is_reserved":false,"is_disabled":false,"rental_uris":{"android":"levelo://app?vid=d6a087c2-f0d5-4524-a6df-9466122c35e1","ios":"levelo://app?vid=d6a087c2-f0d5-4524-a6df-9466122c35e1"},"vehicle_type_id":"4","last_reported":1700190444,"current_range_meters":6800,"station_id":"ce4bhqp2rcd13ifvqhng","pricing_plan_id":"free"},{"bike_id":"d2dced52-b7fb-4d11-ad33-56be009e3364","system_id":"levelo_inurba_marseille","lat":43.321847,"lon":5.388263,"is_reserved":false,"is_disabled":false,"rental_uris":{"android":"levelo://app?vid=d2dced52-b7fb-4d11-ad33-56be009e3364","ios":"levelo://app?vid=d2dced52-b7fb-4d11-ad33-56be009e3364"},"vehicle_type_id":"4","last_reported":1700190444,"current_range_meters":24400,"station_id":"","pricing_plan_id":"free"},{"bike_id":"e679fa58-28aa-40c9-b201-7dab476d30b3","system_id":"levelo_inurba_marseille","lat":43.304313,"lon":5.38888,"is_reserved":false,"is_disabled":false,"rental_uris":{"android":"levelo://app?vid=e679fa58-28aa-40c9-b201-7dab476d30b3","ios":"levelo://app?vid=e679fa58-28aa-40c9-b201-7dab476d30b3"},"vehicle_type_id":"4","last_reported":1700190444,"current_range_meters":8000,"station_id":"ce4bgk12rcd13ifvqbi0","pricing_plan_id":"free"},{"bike_id":"e84d3190-1aa6-4075-a1f4-4ea30e0278d1","system_id":"levelo_inurba_marseille","lat":43.30433,"lon":5.3889,"is_reserved":false,"is_disabled":false,"rental_uris":{"android":"levelo://app?vid=e84d3190-1aa6-4075-a1f4-4ea30e0278d1","ios":"levelo://app?vid=e84d3190-1aa6-4075-a1f4-4ea30e0278d1"},"vehicle_type_id":"4","last_reported":1700190444,"current_range_meters":20400,"station_id":"ce4bgk12rcd13ifvqbi0","pricing_plan_id":"free"},{"bike_id":"731473c4-a4c8-47ad-bfb0-473ce2bdfcdd","system_id":"levelo_inurba_marseille","lat":43.304302,"lon":5.388904,"is_reserved":false,"is_disabled":false,"rental_uris":{"android":"levelo://app?vid=731473c4-a4c8-47ad-bfb0-473ce2bdfcdd","ios":"levelo://app?vid=731473c4-a4c8-47ad-bfb0-473ce2bdfcdd"},"vehicle_type_id":"4","last_reported":1700190444,"current_range_meters":9600,"station_id":"ce4bgk12rcd13ifvqbi0","pricing_plan_id":"free"},{"bike_id":"5996a5c9-07b2-42df-ada7-76ce8ef1fb49","system_id":"levelo_inurba_marseille","lat":43.30429,"lon":5.38894,"is_reserved":false,"is_disabled":false,"rental_uris":{"android":"levelo://app?vid=5996a5c9-07b2-42df-ada7-76ce8ef1fb49","ios":"levelo://app?vid=5996a5c9-07b2-42df-ada7-76ce8ef1fb49"},"vehicle_type_id":"4","last_reported":1700190444,"current_range_meters":2000,"station_id":"ce4bgk12rcd13ifvqbi0","pricing_plan_id":"free"},{"bike_id":"3e3e92fe-39b7-4933-99ff-3747b28b5d69","system_id":"levelo_inurba_marseille","lat":43.328154,"lon":5.380034,"is_reserved":false,"is_disabled":false,"rental_uris":{"android":"levelo://app?vid=3e3e92fe-39b7-4933-99ff-3747b28b5d69","ios":"levelo://app?vid=3e3e92fe-39b7-4933-99ff-3747b28b5d69"},"vehicle_type_id":"4","last_reported":1700190444,"current_range_meters":10800,"station_id":"","pricing_plan_id":"free"},{"bike_id":"55e3ebf2-2fad-4876-ae6e-2e98105cbd9f","system_id":"levelo_inurba_marseille","lat":43.296067,"lon":5.377067,"is_reserved":false,"is_disabled":false,"rental_uris":{"android":"levelo://app?vid=55e3ebf2-2fad-4876-ae6e-2e98105cbd9f","ios":"levelo://app?vid=55e3ebf2-2fad-4876-ae6e-2e98105cbd9f"},"vehicle_type_id":"4","last_reported":1700190444,"current_range_meters":0,"station_id":"ce4bgi92rcd13ifvqb90","pricing_plan_id":"free"},{"bike_id":"2b3adcae-3b4a-4037-a7f5-95f664abf31c","system_id":"levelo_inurba_marseille","lat":43.32364,"lon":5.388748,"is_reserved":false,"is_disabled":false,"rental_uris":{"android":"levelo://app?vid=2b3adcae-3b4a-4037-a7f5-95f664abf31c","ios":"levelo://app?vid=2b3adcae-3b4a-4037-a7f5-95f664abf31c"},"vehicle_type_id":"4","last_reported":1700190444,"current_range_meters":20800,"station_id":"ce4bhqp2rcd13ifvqhog","pricing_plan_id":"free"},{"bike_id":"96ca2097-32de-4136-bcd5-21a640e16e4f","system_id":"levelo_inurba_marseille","lat":43.323589,"lon":5.388839,"is_reserved":false,"is_disabled":false,"rental_uris":{"android":"levelo://app?vid=96ca2097-32de-4136-bcd5-21a640e16e4f","ios":"levelo://app?vid=96ca2097-32de-4136-bcd5-21a640e16e4f"},"vehicle_type_id":"4","last_reported":1700190444,"current_range_meters":4000,"station_id":"ce4bhqp2rcd13ifvqhog","pricing_plan_id":"free"},{"bike_id":"9b08c065-23ca-4c6c-8668-5a59f865504c","system_id":"levelo_inurba_marseille","lat":43.32367,"lon":5.388836,"is_reserved":false,"is_disabled":false,"rental_uris":{"android":"levelo://app?vid=9b08c065-23ca-4c6c-8668-5a59f865504c","ios":"levelo://app?vid=9b08c065-23ca-4c6c-8668-5a59f865504c"},"vehicle_type_id":"4","last_reported":1700190444,"current_range_meters":18000,"station_id":"ce4bhqp2rcd13ifvqhog","pricing_plan_id":"free"},{"bike_id":"e9390b23-e327-4c58-8512-295638e43305","system_id":"levelo_inurba_marseille","lat":43.32366,"lon":5.38885,"is_reserved":false,"is_disabled":false,"rental_uris":{"android":"levelo://app?vid=e9390b23-e327-4c58-8512-295638e43305","ios":"levelo://app?vid=e9390b23-e327-4c58-8512-295638e43305"},"vehicle_type_id":"4","last_reported":1700190444,"current_range_meters":23600,"station_id":"ce4bhqp2rcd13ifvqhog","pricing_plan_id":"free"},{"bike_id":"83347de0-7ca3-4233-a46b-ce300236ee3c","system_id":"levelo_inurba_marseille","lat":43.32367,"lon":5.388836,"is_reserved":false,"is_disabled":false,"rental_uris":{"android":"levelo://app?vid=83347de0-7ca3-4233-a46b-ce300236ee3c","ios":"levelo://app?vid=83347de0-7ca3-4233-a46b-ce300236ee3c"},"vehicle_type_id":"4","last_reported":1700190444,"current_range_meters":15600,"station_id":"ce4bhqp2rcd13ifvqhog","pricing_plan_id":"free"},{"bike_id":"383d81be-83e7-4632-bc2b-3d6373c64d2a","system_id":"levelo_inurba_marseille","lat":43.292311,"lon":5.360731,"is_reserved":false,"is_disabled":false,"rental_uris":{"android":"levelo://app?vid=383d81be-83e7-4632-bc2b-3d6373c64d2a","ios":"levelo://app?vid=383d81be-83e7-4632-bc2b-3d6373c64d2a"},"vehicle_type_id":"4","last_reported":1700190444,"current_range_meters":24400,"station_id":"ce4bhbh2rcd13ifvqeqg","pricing_plan_id":"free"},{"bike_id":"0c7ecd08-53ce-4a0f-8b16-fb8835f74b9f","system_id":"levelo_inurba_marseille","lat":43.292311,"lon":5.360731,"is_reserved":false,"is_disabled":false,"rental_uris":{"android":"levelo://app?vid=0c7ecd08-53ce-4a0f-8b16-fb8835f74b9f","ios":"levelo://app?vid=0c7ecd08-53ce-4a0f-8b16-fb8835f74b9f"},"vehicle_type_id":"4","last_reported":1700190444,"current_range_meters":31200,"station_id":"ce4bhbh2rcd13ifvqeqg","pricing_plan_id":"free"},{"bike_id":"4a2577cd-9f7d-4ec1-a3f9-5c052294c3c1","system_id":"levelo_inurba_marseille","lat":43.292311,"lon":5.360731,"is_reserved":false,"is_disabled":false,"rental_uris":{"android":"levelo://app?vid=4a2577cd-9f7d-4ec1-a3f9-5c052294c3c1","ios":"levelo://app?vid=4a2577cd-9f7d-4ec1-a3f9-5c052294c3c1"},"vehicle_type_id":"4","last_reported":1700190444,"current_range_meters":0,"station_id":"ce4bhbh2rcd13ifvqeqg","pricing_plan_id":"free"},{"bike_id":"4eef38cc-64cf-4f4d-8d5b-99bd9d3b1b37","system_id":"levelo_inurba_marseille","lat":43.291671,"lon":5.371575,"is_reserved":false,"is_disabled":false,"rental_uris":{"android":"levelo://app?vid=4eef38cc-64cf-4f4d-8d5b-99bd9d3b1b37","ios":"levelo://app?vid=4eef38cc-64cf-4f4d-8d5b-99bd9d3b1b37"},"vehicle_type_id":"4","last_reported":1700190444,"current_range_meters":27200,"station_id":"ce4bha92rcd13ifvqeh0","pricing_plan_id":"free"},{"bike_id":"fbfa3f83-9456-4924-b5c5-3c50930feea4","system_id":"levelo_inurba_marseille","lat":43.309038,"lon":5.396546,"is_reserved":false,"is_disabled":false,"rental_uris":{"android":"levelo://app?vid=fbfa3f83-9456-4924-b5c5-3c50930feea4","ios":"levelo://app?vid=fbfa3f83-9456-4924-b5c5-3c50930feea4"},"vehicle_type_id":"4","last_reported":1700190444,"current_range_meters":18800,"station_id":"ce4bh012rcd13ifvqcv0","pricing_plan_id":"free"},{"bike_id":"9de503f2-dbdb-45fd-a227-50c41076550b","system_id":"levelo_inurba_marseille","lat":43.309047,"lon":5.396551,"is_reserved":false,"is_disabled":false,"rental_uris":{"android":"levelo://app?vid=9de503f2-dbdb-45fd-a227-50c41076550b","ios":"levelo://app?vid=9de503f2-dbdb-45fd-a227-50c41076550b"},"vehicle_type_id":"4","last_reported":1700190444,"current_range_meters":10800,"station_id":"ce4bh012rcd13ifvqcv0","pricing_plan_id":"free"},{"bike_id":"1f382665-a979-434e-af93-721414321c96","system_id":"levelo_inurba_marseille","lat":43.309038,"lon":5.396546,"is_reserved":false,"is_disabled":false,"rental_uris":{"android":"levelo://app?vid=1f382665-a979-434e-af93-721414321c96","ios":"levelo://app?vid=1f382665-a979-434e-af93-721414321c96"},"vehicle_type_id":"4","last_reported":1700190444,"current_range_meters":31600,"station_id":"ce4bh012rcd13ifvqcv0","pricing_plan_id":"free"},{"bike_id":"37ca8cc8-74bd-43c7-a6ec-0425df5f654a","system_id":"levelo_inurba_marseille","lat":43.309038,"lon":5.396546,"is_reserved":false,"is_disabled":false,"rental_uris":{"android":"levelo://app?vid=37ca8cc8-74bd-43c7-a6ec-0425df5f654a","ios":"levelo://app?vid=37ca8cc8-74bd-43c7-a6ec-0425df5f654a"},"vehicle_type_id":"4","last_reported":1700190444,"current_range_meters":31200,"station_id":"ce4bh012rcd13ifvqcv0","pricing_plan_id":"free"},{"bike_id":"7f21e84e-88d3-4819-99dd-196c91432b5e","system_id":"levelo_inurba_marseille","lat":43.309038,"lon":5.396546,"is_reserved":false,"is_disabled":false,"rental_uris":{"android":"levelo://app?vid=7f21e84e-88d3-4819-99dd-196c91432b5e","ios":"levelo://app?vid=7f21e84e-88d3-4819-99dd-196c91432b5e"},"vehicle_type_id":"4","last_reported":1700190444,"current_range_meters":5200,"station_id":"ce4bh012rcd13ifvqcv0","pricing_plan_id":"free"},{"bike_id":"91ff65a9-2319-432c-a9e3-91be60a033c3","system_id":"levelo_inurba_marseille","lat":43.309038,"lon":5.396546,"is_reserved":false,"is_disabled":false,"rental_uris":{"android":"levelo://app?vid=91ff65a9-2319-432c-a9e3-91be60a033c3","ios":"levelo://app?vid=91ff65a9-2319-432c-a9e3-91be60a033c3"},"vehicle_type_id":"4","last_reported":1700190444,"current_range_meters":30000,"station_id":"ce4bh012rcd13ifvqcv0","pricing_plan_id":"free"},{"bike_id":"297c441d-fabc-482c-a493-e14c80ac22ce","system_id":"levelo_inurba_marseille","lat":43.309047,"lon":5.396551,"is_reserved":false,"is_disabled":false,"rental_uris":{"android":"levelo://app?vid=297c441d-fabc-482c-a493-e14c80ac22ce","ios":"levelo://app?vid=297c441d-fabc-482c-a493-e14c80ac22ce"},"vehicle_type_id":"4","last_reported":1700190444,"current_range_meters":30400,"station_id":"ce4bh012rcd13ifvqcv0","pricing_plan_id":"free"},{"bike_id":"0c344eaf-0857-4a75-b946-fe74225f060d","system_id":"levelo_inurba_marseille","lat":43.309038,"lon":5.396546,"is_reserved":false,"is_disabled":false,"rental_uris":{"android":"levelo://app?vid=0c344eaf-0857-4a75-b946-fe74225f060d","ios":"levelo://app?vid=0c344eaf-0857-4a75-b946-fe74225f060d"},"vehicle_type_id":"4","last_reported":1700190444,"current_range_meters":31600,"station_id":"ce4bh012rcd13ifvqcv0","pricing_plan_id":"free"},{"bike_id":"28430917-3ede-4b65-84d9-42ea7eb9b33c","system_id":"levelo_inurba_marseille","lat":43.313291,"lon":5.396838,"is_reserved":false,"is_disabled":false,"rental_uris":{"android":"levelo://app?vid=28430917-3ede-4b65-84d9-42ea7eb9b33c","ios":"levelo://app?vid=28430917-3ede-4b65-84d9-42ea7eb9b33c"},"vehicle_type_id":"4","last_reported":1700190444,"current_range_meters":14400,"station_id":"ce4bgvp2rcd13ifvqcu0","pricing_plan_id":"free"},{"bike_id":"026f832a-42cb-4edb-8126-61abb8e86536","system_id":"levelo_inurba_marseille","lat":43.309047,"lon":5.396551,"is_reserved":false,"is_disabled":false,"rental_uris":{"android":"levelo://app?vid=026f832a-42cb-4edb-8126-61abb8e86536","ios":"levelo://app?vid=026f832a-42cb-4edb-8126-61abb8e86536"},"vehicle_type_id":"4","last_reported":1700190444,"current_range_meters":22000,"station_id":"ce4bh012rcd13ifvqcv0","pricing_plan_id":"free"},{"bike_id":"564fde9f-1d78-4f15-b297-f6fbb405d188","system_id":"levelo_inurba_marseille","lat":43.313257,"lon":5.396956,"is_reserved":false,"is_disabled":false,"rental_uris":{"android":"levelo://app?vid=564fde9f-1d78-4f15-b297-f6fbb405d188","ios":"levelo://app?vid=564fde9f-1d78-4f15-b297-f6fbb405d188"},"vehicle_type_id":"4","last_reported":1700190444,"current_range_meters":14800,"station_id":"ce4bgvp2rcd13ifvqcu0","pricing_plan_id":"free"},{"bike_id":"5561e438-13bb-4dea-8240-ef92322803cc","system_id":"levelo_inurba_marseille","lat":43.313291,"lon":5.396838,"is_reserved":false,"is_disabled":false,"rental_uris":{"android":"levelo://app?vid=5561e438-13bb-4dea-8240-ef92322803cc","ios":"levelo://app?vid=5561e438-13bb-4dea-8240-ef92322803cc"},"vehicle_type_id":"4","last_reported":1700190444,"current_range_meters":0,"station_id":"ce4bgvp2rcd13ifvqcu0","pricing_plan_id":"free"},{"bike_id":"841886ac-b519-422c-ab60-3ef4e8b8103d","system_id":"levelo_inurba_marseille","lat":43.309038,"lon":5.396546,"is_reserved":false,"is_disabled":false,"rental_uris":{"android":"levelo://app?vid=841886ac-b519-422c-ab60-3ef4e8b8103d","ios":"levelo://app?vid=841886ac-b519-422c-ab60-3ef4e8b8103d"},"vehicle_type_id":"4","last_reported":1700190444,"current_range_meters":8000,"station_id":"ce4bh012rcd13ifvqcv0","pricing_plan_id":"free"},{"bike_id":"8b822269-04de-433c-92dc-9fb7d0c3165a","system_id":"levelo_inurba_marseille","lat":43.290624,"lon":5.359245,"is_reserved":false,"is_disabled":false,"rental_uris":{"android":"levelo://app?vid=8b822269-04de-433c-92dc-9fb7d0c3165a","ios":"levelo://app?vid=8b822269-04de-433c-92dc-9fb7d0c3165a"},"vehicle_type_id":"4","last_reported":1700190444,"current_range_meters":28400,"station_id":"ce4bha92rcd13ifvqeg0","pricing_plan_id":"free"},{"bike_id":"bcaffae8-30fd-4c4d-b7e7-55a8152b1186","system_id":"levelo_inurba_marseille","lat":43.290465,"lon":5.359111,"is_reserved":false,"is_disabled":false,"rental_uris":{"android":"levelo://app?vid=bcaffae8-30fd-4c4d-b7e7-55a8152b1186","ios":"levelo://app?vid=bcaffae8-30fd-4c4d-b7e7-55a8152b1186"},"vehicle_type_id":"4","last_reported":1700190444,"current_range_meters":15600,"station_id":"ce4bha92rcd13ifvqeg0","pricing_plan_id":"free"},{"bike_id":"1d046e37-0d60-4b97-8367-8b7c6299b850","system_id":"levelo_inurba_marseille","lat":43.290631,"lon":5.359244,"is_reserved":false,"is_disabled":false,"rental_uris":{"android":"levelo://app?vid=1d046e37-0d60-4b97-8367-8b7c6299b850","ios":"levelo://app?vid=1d046e37-0d60-4b97-8367-8b7c6299b850"},"vehicle_type_id":"4","last_reported":1700190444,"current_range_meters":30000,"station_id":"ce4bha92rcd13ifvqeg0","pricing_plan_id":"free"},{"bike_id":"8f313e1a-0eca-4c2b-9740-34423956b708","system_id":"levelo_inurba_marseille","lat":43.290631,"lon":5.359244,"is_reserved":false,"is_disabled":false,"rental_uris":{"android":"levelo://app?vid=8f313e1a-0eca-4c2b-9740-34423956b708","ios":"levelo://app?vid=8f313e1a-0eca-4c2b-9740-34423956b708"},"vehicle_type_id":"4","last_reported":1700190444,"current_range_meters":16000,"station_id":"ce4bha92rcd13ifvqeg0","pricing_plan_id":"free"},{"bike_id":"1dc1fa3a-007e-4573-b55f-a3463aab9595","system_id":"levelo_inurba_marseille","lat":43.290631,"lon":5.359244,"is_reserved":false,"is_disabled":false,"rental_uris":{"android":"levelo://app?vid=1dc1fa3a-007e-4573-b55f-a3463aab9595","ios":"levelo://app?vid=1dc1fa3a-007e-4573-b55f-a3463aab9595"},"vehicle_type_id":"4","last_reported":1700190444,"current_range_meters":28000,"station_id":"ce4bha92rcd13ifvqeg0","pricing_plan_id":"free"},{"bike_id":"a4fa7bf6-f0fe-4ccb-afaf-cad8e39abe19","system_id":"levelo_inurba_marseille","lat":43.294153,"lon":5.386305,"is_reserved":false,"is_disabled":false,"rental_uris":{"android":"levelo://app?vid=a4fa7bf6-f0fe-4ccb-afaf-cad8e39abe19","ios":"levelo://app?vid=a4fa7bf6-f0fe-4ccb-afaf-cad8e39abe19"},"vehicle_type_id":"4","last_reported":1700190444,"current_range_meters":15600,"station_id":"ce4bh2h2rcd13ifvqdh0","pricing_plan_id":"free"},{"bike_id":"76842cd8-59b6-4569-9a3a-492df20fc6b8","system_id":"levelo_inurba_marseille","lat":43.289406,"lon":5.364035,"is_reserved":false,"is_disabled":false,"rental_uris":{"android":"levelo://app?vid=76842cd8-59b6-4569-9a3a-492df20fc6b8","ios":"levelo://app?vid=76842cd8-59b6-4569-9a3a-492df20fc6b8"},"vehicle_type_id":"4","last_reported":1700190444,"current_range_meters":23600,"station_id":"ce4bhc92rcd13ifvqetg","pricing_plan_id":"free"},{"bike_id":"baec64be-3552-4f61-b220-1d296ec808eb","system_id":"levelo_inurba_marseille","lat":43.289404,"lon":5.363954,"is_reserved":false,"is_disabled":false,"rental_uris":{"android":"levelo://app?vid=baec64be-3552-4f61-b220-1d296ec808eb","ios":"levelo://app?vid=baec64be-3552-4f61-b220-1d296ec808eb"},"vehicle_type_id":"4","last_reported":1700190444,"current_range_meters":31600,"station_id":"ce4bhc92rcd13ifvqetg","pricing_plan_id":"free"},{"bike_id":"9c76db82-4af0-4ce6-acb4-b3aa86ca77af","system_id":"levelo_inurba_marseille","lat":43.330442,"lon":5.389148,"is_reserved":false,"is_disabled":false,"rental_uris":{"android":"levelo://app?vid=9c76db82-4af0-4ce6-acb4-b3aa86ca77af","ios":"levelo://app?vid=9c76db82-4af0-4ce6-acb4-b3aa86ca77af"},"vehicle_type_id":"4","last_reported":1700190444,"current_range_meters":11600,"station_id":"ce4bhr92rcd13ifvqhrg","pricing_plan_id":"free"},{"bike_id":"6b721cd9-9ba0-4c89-8a70-15da853bc052","system_id":"levelo_inurba_marseille","lat":43.33039,"lon":5.38924,"is_reserved":false,"is_disabled":false,"rental_uris":{"android":"levelo://app?vid=6b721cd9-9ba0-4c89-8a70-15da853bc052","ios":"levelo://app?vid=6b721cd9-9ba0-4c89-8a70-15da853bc052"},"vehicle_type_id":"4","last_reported":1700190444,"current_range_meters":0,"station_id":"","pricing_plan_id":"free"},{"bike_id":"f8b6cdbb-40a2-4e6d-8c1c-31780f5f0d3f","system_id":"levelo_inurba_marseille","lat":43.290995,"lon":5.381361,"is_reserved":false,"is_disabled":false,"rental_uris":{"android":"levelo://app?vid=f8b6cdbb-40a2-4e6d-8c1c-31780f5f0d3f","ios":"levelo://app?vid=f8b6cdbb-40a2-4e6d-8c1c-31780f5f0d3f"},"vehicle_type_id":"4","last_reported":1700190444,"current_range_meters":10400,"station_id":"ce4bh512rcd13ifvqe2g","pricing_plan_id":"free"},{"bike_id":"7e06362b-f0f3-42f3-aee4-52fe740b6634","system_id":"levelo_inurba_marseille","lat":43.290995,"lon":5.381361,"is_reserved":false,"is_disabled":false,"rental_uris":{"android":"levelo://app?vid=7e06362b-f0f3-42f3-aee4-52fe740b6634","ios":"levelo://app?vid=7e06362b-f0f3-42f3-aee4-52fe740b6634"},"vehicle_type_id":"4","last_reported":1700190444,"current_range_meters":31200,"station_id":"ce4bh512rcd13ifvqe2g","pricing_plan_id":"free"},{"bike_id":"69f4d937-1340-46bb-8724-0587b10189b3","system_id":"levelo_inurba_marseille","lat":43.290995,"lon":5.381361,"is_reserved":false,"is_disabled":false,"rental_uris":{"android":"levelo://app?vid=69f4d937-1340-46bb-8724-0587b10189b3","ios":"levelo://app?vid=69f4d937-1340-46bb-8724-0587b10189b3"},"vehicle_type_id":"4","last_reported":1700190444,"current_range_meters":31200,"station_id":"ce4bh512rcd13ifvqe2g","pricing_plan_id":"free"},{"bike_id":"412baa06-3776-44b0-9b9a-de21617b128e","system_id":"levelo_inurba_marseille","lat":43.297815,"lon":5.393548,"is_reserved":false,"is_disabled":false,"rental_uris":{"android":"levelo://app?vid=412baa06-3776-44b0-9b9a-de21617b128e","ios":"levelo://app?vid=412baa06-3776-44b0-9b9a-de21617b128e"},"vehicle_type_id":"4","last_reported":1700190444,"current_range_meters":28800,"station_id":"chh1huq6cuj3fo74tm60","pricing_plan_id":"free"},{"bike_id":"e36e442b-b78c-41b0-a107-8575c94bb7db","system_id":"levelo_inurba_marseille","lat":43.28856,"lon":5.358371,"is_reserved":false,"is_disabled":false,"rental_uris":{"android":"levelo://app?vid=e36e442b-b78c-41b0-a107-8575c94bb7db","ios":"levelo://app?vid=e36e442b-b78c-41b0-a107-8575c94bb7db"},"vehicle_type_id":"4","last_reported":1700190444,"current_range_meters":30000,"station_id":"ce4bhb12rcd13ifvqem0","pricing_plan_id":"free"},{"bike_id":"67ffd28a-0325-489b-a10f-d90500122751","system_id":"levelo_inurba_marseille","lat":43.28856,"lon":5.358371,"is_reserved":false,"is_disabled":false,"rental_uris":{"android":"levelo://app?vid=67ffd28a-0325-489b-a10f-d90500122751","ios":"levelo://app?vid=67ffd28a-0325-489b-a10f-d90500122751"},"vehicle_type_id":"4","last_reported":1700190444,"current_range_meters":31600,"station_id":"ce4bhb12rcd13ifvqem0","pricing_plan_id":"free"},{"bike_id":"7b06b9ae-40b0-4b66-968d-2aedcd6013c9","system_id":"levelo_inurba_marseille","lat":43.28856,"lon":5.358371,"is_reserved":false,"is_disabled":false,"rental_uris":{"android":"levelo://app?vid=7b06b9ae-40b0-4b66-968d-2aedcd6013c9","ios":"levelo://app?vid=7b06b9ae-40b0-4b66-968d-2aedcd6013c9"},"vehicle_type_id":"4","last_reported":1700190444,"current_range_meters":31200,"station_id":"ce4bhb12rcd13ifvqem0","pricing_plan_id":"free"},{"bike_id":"672aa418-0c24-4984-b1b2-e5cefc3f7d11","system_id":"levelo_inurba_marseille","lat":43.28856,"lon":5.358371,"is_reserved":false,"is_disabled":false,"rental_uris":{"android":"levelo://app?vid=672aa418-0c24-4984-b1b2-e5cefc3f7d11","ios":"levelo://app?vid=672aa418-0c24-4984-b1b2-e5cefc3f7d11"},"vehicle_type_id":"4","last_reported":1700190444,"current_range_meters":15200,"station_id":"ce4bhb12rcd13ifvqem0","pricing_plan_id":"free"},{"bike_id":"952246db-ba5e-42be-ab49-509c2af11a7f","system_id":"levelo_inurba_marseille","lat":43.28856,"lon":5.358371,"is_reserved":false,"is_disabled":false,"rental_uris":{"android":"levelo://app?vid=952246db-ba5e-42be-ab49-509c2af11a7f","ios":"levelo://app?vid=952246db-ba5e-42be-ab49-509c2af11a7f"},"vehicle_type_id":"4","last_reported":1700190444,"current_range_meters":24800,"station_id":"ce4bhb12rcd13ifvqem0","pricing_plan_id":"free"},{"bike_id":"9c010fa3-3f9a-42d5-b129-01803990bde5","system_id":"levelo_inurba_marseille","lat":43.28856,"lon":5.358371,"is_reserved":false,"is_disabled":false,"rental_uris":{"android":"levelo://app?vid=9c010fa3-3f9a-42d5-b129-01803990bde5","ios":"levelo://app?vid=9c010fa3-3f9a-42d5-b129-01803990bde5"},"vehicle_type_id":"4","last_reported":1700190444,"current_range_meters":16800,"station_id":"ce4bhb12rcd13ifvqem0","pricing_plan_id":"free"},{"bike_id":"c023d6ee-1eff-4293-b81d-6feb3a1dd493","system_id":"levelo_inurba_marseille","lat":43.288431,"lon":5.35842,"is_reserved":false,"is_disabled":false,"rental_uris":{"android":"levelo://app?vid=c023d6ee-1eff-4293-b81d-6feb3a1dd493","ios":"levelo://app?vid=c023d6ee-1eff-4293-b81d-6feb3a1dd493"},"vehicle_type_id":"4","last_reported":1700190444,"current_range_meters":31200,"station_id":"ce4bhb12rcd13ifvqem0","pricing_plan_id":"free"},{"bike_id":"f246c589-1e2d-4450-822b-a7d5f80eadd1","system_id":"levelo_inurba_marseille","lat":43.28856,"lon":5.358371,"is_reserved":false,"is_disabled":false,"rental_uris":{"android":"levelo://app?vid=f246c589-1e2d-4450-822b-a7d5f80eadd1","ios":"levelo://app?vid=f246c589-1e2d-4450-822b-a7d5f80eadd1"},"vehicle_type_id":"4","last_reported":1700190444,"current_range_meters":26400,"station_id":"ce4bhb12rcd13ifvqem0","pricing_plan_id":"free"},{"bike_id":"07202f70-50d7-46f0-a5bd-59712659d6a0","system_id":"levelo_inurba_marseille","lat":43.31251,"lon":5.40162,"is_reserved":false,"is_disabled":false,"rental_uris":{"android":"levelo://app?vid=07202f70-50d7-46f0-a5bd-59712659d6a0","ios":"levelo://app?vid=07202f70-50d7-46f0-a5bd-59712659d6a0"},"vehicle_type_id":"4","last_reported":1700190444,"current_range_meters":20400,"station_id":"","pricing_plan_id":"free"},{"bike_id":"b08e401a-7030-4aba-a922-7adc4cf8bb34","system_id":"levelo_inurba_marseille","lat":43.30929,"lon":5.40139,"is_reserved":false,"is_disabled":false,"rental_uris":{"android":"levelo://app?vid=b08e401a-7030-4aba-a922-7adc4cf8bb34","ios":"levelo://app?vid=b08e401a-7030-4aba-a922-7adc4cf8bb34"},"vehicle_type_id":"4","last_reported":1700190444,"current_range_meters":20400,"station_id":"ce4bgvp2rcd13ifvqct0","pricing_plan_id":"free"},{"bike_id":"530221f6-20fc-4eaf-8df2-c308836a4e1c","system_id":"levelo_inurba_marseille","lat":43.309371,"lon":5.401449,"is_reserved":false,"is_disabled":false,"rental_uris":{"android":"levelo://app?vid=530221f6-20fc-4eaf-8df2-c308836a4e1c","ios":"levelo://app?vid=530221f6-20fc-4eaf-8df2-c308836a4e1c"},"vehicle_type_id":"4","last_reported":1700190444,"current_range_meters":7600,"station_id":"ce4bgvp2rcd13ifvqct0","pricing_plan_id":"free"},{"bike_id":"1e83fe7f-8f01-4a36-bddc-2c07a29f6677","system_id":"levelo_inurba_marseille","lat":43.30642,"lon":5.401031,"is_reserved":false,"is_disabled":false,"rental_uris":{"android":"levelo://app?vid=1e83fe7f-8f01-4a36-bddc-2c07a29f6677","ios":"levelo://app?vid=1e83fe7f-8f01-4a36-bddc-2c07a29f6677"},"vehicle_type_id":"4","last_reported":1700190444,"current_range_meters":31600,"station_id":"ce4bh112rcd13ifvqda0","pricing_plan_id":"free"},{"bike_id":"cf5ccbf5-d557-49be-b3cc-aa496b43aa2c","system_id":"levelo_inurba_marseille","lat":43.309371,"lon":5.401449,"is_reserved":false,"is_disabled":false,"rental_uris":{"android":"levelo://app?vid=cf5ccbf5-d557-49be-b3cc-aa496b43aa2c","ios":"levelo://app?vid=cf5ccbf5-d557-49be-b3cc-aa496b43aa2c"},"vehicle_type_id":"4","last_reported":1700190444,"current_range_meters":22800,"station_id":"ce4bgvp2rcd13ifvqct0","pricing_plan_id":"free"},{"bike_id":"69e33c50-3302-4084-8f8c-daa164d8688e","system_id":"levelo_inurba_marseille","lat":43.30642,"lon":5.401031,"is_reserved":false,"is_disabled":false,"rental_uris":{"android":"levelo://app?vid=69e33c50-3302-4084-8f8c-daa164d8688e","ios":"levelo://app?vid=69e33c50-3302-4084-8f8c-daa164d8688e"},"vehicle_type_id":"4","last_reported":1700190444,"current_range_meters":4800,"station_id":"ce4bh112rcd13ifvqda0","pricing_plan_id":"free"},{"bike_id":"b8bb5207-d9dd-491b-9f35-8e90d7e26654","system_id":"levelo_inurba_marseille","lat":43.306412,"lon":5.401035,"is_reserved":false,"is_disabled":false,"rental_uris":{"android":"levelo://app?vid=b8bb5207-d9dd-491b-9f35-8e90d7e26654","ios":"levelo://app?vid=b8bb5207-d9dd-491b-9f35-8e90d7e26654"},"vehicle_type_id":"4","last_reported":1700190444,"current_range_meters":13200,"station_id":"ce4bh112rcd13ifvqda0","pricing_plan_id":"free"},{"bike_id":"a4ab260c-253b-4fc4-9feb-bbb4fac14e85","system_id":"levelo_inurba_marseille","lat":43.30648,"lon":5.40081,"is_reserved":false,"is_disabled":false,"rental_uris":{"android":"levelo://app?vid=a4ab260c-253b-4fc4-9feb-bbb4fac14e85","ios":"levelo://app?vid=a4ab260c-253b-4fc4-9feb-bbb4fac14e85"},"vehicle_type_id":"4","last_reported":1700190444,"current_range_meters":3200,"station_id":"ce4bh112rcd13ifvqda0","pricing_plan_id":"free"},{"bike_id":"8a9fe94c-34e6-45d2-8367-f7ba28cf306f","system_id":"levelo_inurba_marseille","lat":43.306412,"lon":5.401035,"is_reserved":false,"is_disabled":false,"rental_uris":{"android":"levelo://app?vid=8a9fe94c-34e6-45d2-8367-f7ba28cf306f","ios":"levelo://app?vid=8a9fe94c-34e6-45d2-8367-f7ba28cf306f"},"vehicle_type_id":"4","last_reported":1700190444,"current_range_meters":31600,"station_id":"ce4bh112rcd13ifvqda0","pricing_plan_id":"free"},{"bike_id":"38ab841e-26d5-4761-a71e-a707386be6df","system_id":"levelo_inurba_marseille","lat":43.306495,"lon":5.400824,"is_reserved":false,"is_disabled":false,"rental_uris":{"android":"levelo://app?vid=38ab841e-26d5-4761-a71e-a707386be6df","ios":"levelo://app?vid=38ab841e-26d5-4761-a71e-a707386be6df"},"vehicle_type_id":"4","last_reported":1700190444,"current_range_meters":30800,"station_id":"ce4bh112rcd13ifvqda0","pricing_plan_id":"free"},{"bike_id":"17892db3-59f5-40e7-b901-d3796c778cd9","system_id":"levelo_inurba_marseille","lat":43.306449,"lon":5.40081,"is_reserved":false,"is_disabled":false,"rental_uris":{"android":"levelo://app?vid=17892db3-59f5-40e7-b901-d3796c778cd9","ios":"levelo://app?vid=17892db3-59f5-40e7-b901-d3796c778cd9"},"vehicle_type_id":"4","last_reported":1700190444,"current_range_meters":6400,"station_id":"ce4bh112rcd13ifvqda0","pricing_plan_id":"free"},{"bike_id":"604e53ee-b884-43c6-882e-768847e93ad5","system_id":"levelo_inurba_marseille","lat":43.30642,"lon":5.401031,"is_reserved":false,"is_disabled":false,"rental_uris":{"android":"levelo://app?vid=604e53ee-b884-43c6-882e-768847e93ad5","ios":"levelo://app?vid=604e53ee-b884-43c6-882e-768847e93ad5"},"vehicle_type_id":"4","last_reported":1700190444,"current_range_meters":28000,"station_id":"ce4bh112rcd13ifvqda0","pricing_plan_id":"free"},{"bike_id":"b68f4f71-2d09-49f4-adf6-44f8247f1603","system_id":"levelo_inurba_marseille","lat":43.30642,"lon":5.401031,"is_reserved":false,"is_disabled":false,"rental_uris":{"android":"levelo://app?vid=b68f4f71-2d09-49f4-adf6-44f8247f1603","ios":"levelo://app?vid=b68f4f71-2d09-49f4-adf6-44f8247f1603"},"vehicle_type_id":"4","last_reported":1700190444,"current_range_meters":26800,"station_id":"ce4bh112rcd13ifvqda0","pricing_plan_id":"free"},{"bike_id":"708e3123-ba26-49d4-9c77-f210f1cbec62","system_id":"levelo_inurba_marseille","lat":43.30135,"lon":5.398744,"is_reserved":false,"is_disabled":false,"rental_uris":{"android":"levelo://app?vid=708e3123-ba26-49d4-9c77-f210f1cbec62","ios":"levelo://app?vid=708e3123-ba26-49d4-9c77-f210f1cbec62"},"vehicle_type_id":"4","last_reported":1700190444,"current_range_meters":0,"station_id":"ce4bh0h2rcd13ifvqd40","pricing_plan_id":"free"},{"bike_id":"6fdaa7f4-5f82-49da-96f5-e6f658442109","system_id":"levelo_inurba_marseille","lat":43.28727,"lon":5.36078,"is_reserved":false,"is_disabled":false,"rental_uris":{"android":"levelo://app?vid=6fdaa7f4-5f82-49da-96f5-e6f658442109","ios":"levelo://app?vid=6fdaa7f4-5f82-49da-96f5-e6f658442109"},"vehicle_type_id":"4","last_reported":1700190444,"current_range_meters":28800,"station_id":"cki0cbj6b192h4jlfktg","pricing_plan_id":"free"},{"bike_id":"6c5e73fa-3c52-4856-8b42-728e9ff7c0a2","system_id":"levelo_inurba_marseille","lat":43.28727,"lon":5.36078,"is_reserved":false,"is_disabled":false,"rental_uris":{"android":"levelo://app?vid=6c5e73fa-3c52-4856-8b42-728e9ff7c0a2","ios":"levelo://app?vid=6c5e73fa-3c52-4856-8b42-728e9ff7c0a2"},"vehicle_type_id":"4","last_reported":1700190444,"current_range_meters":30800,"station_id":"cki0cbj6b192h4jlfktg","pricing_plan_id":"free"},{"bike_id":"5d358a69-7d58-4e46-b1eb-d44760a8d4f8","system_id":"levelo_inurba_marseille","lat":43.28727,"lon":5.36078,"is_reserved":false,"is_disabled":false,"rental_uris":{"android":"levelo://app?vid=5d358a69-7d58-4e46-b1eb-d44760a8d4f8","ios":"levelo://app?vid=5d358a69-7d58-4e46-b1eb-d44760a8d4f8"},"vehicle_type_id":"4","last_reported":1700190444,"current_range_meters":12400,"station_id":"cki0cbj6b192h4jlfktg","pricing_plan_id":"free"},{"bike_id":"95d54123-6867-43a9-a08e-f76b9c638ed0","system_id":"levelo_inurba_marseille","lat":43.28727,"lon":5.36078,"is_reserved":false,"is_disabled":false,"rental_uris":{"android":"levelo://app?vid=95d54123-6867-43a9-a08e-f76b9c638ed0","ios":"levelo://app?vid=95d54123-6867-43a9-a08e-f76b9c638ed0"},"vehicle_type_id":"4","last_reported":1700190444,"current_range_meters":14000,"station_id":"cki0cbj6b192h4jlfktg","pricing_plan_id":"free"},{"bike_id":"2bf21403-9af9-42d7-b06d-3d7c1416c85d","system_id":"levelo_inurba_marseille","lat":43.28727,"lon":5.36078,"is_reserved":false,"is_disabled":false,"rental_uris":{"android":"levelo://app?vid=2bf21403-9af9-42d7-b06d-3d7c1416c85d","ios":"levelo://app?vid=2bf21403-9af9-42d7-b06d-3d7c1416c85d"},"vehicle_type_id":"4","last_reported":1700190444,"current_range_meters":31600,"station_id":"cki0cbj6b192h4jlfktg","pricing_plan_id":"free"},{"bike_id":"ccdced52-6fec-4745-a6a2-909f42e49c47","system_id":"levelo_inurba_marseille","lat":43.292246,"lon":5.389032,"is_reserved":false,"is_disabled":false,"rental_uris":{"android":"levelo://app?vid=ccdced52-6fec-4745-a6a2-909f42e49c47","ios":"levelo://app?vid=ccdced52-6fec-4745-a6a2-909f42e49c47"},"vehicle_type_id":"4","last_reported":1700190444,"current_range_meters":19200,"station_id":"","pricing_plan_id":"free"},{"bike_id":"ba96262a-b66b-4001-8cce-b20648c1c6b2","system_id":"levelo_inurba_marseille","lat":43.298681,"lon":5.397225,"is_reserved":false,"is_disabled":false,"rental_uris":{"android":"levelo://app?vid=ba96262a-b66b-4001-8cce-b20648c1c6b2","ios":"levelo://app?vid=ba96262a-b66b-4001-8cce-b20648c1c6b2"},"vehicle_type_id":"4","last_reported":1700190444,"current_range_meters":30000,"station_id":"ce4bh0h2rcd13ifvqd50","pricing_plan_id":"free"},{"bike_id":"de324d36-6765-492d-bfb0-282d004f760a","system_id":"levelo_inurba_marseille","lat":43.286591,"lon":5.363346,"is_reserved":false,"is_disabled":false,"rental_uris":{"android":"levelo://app?vid=de324d36-6765-492d-bfb0-282d004f760a","ios":"levelo://app?vid=de324d36-6765-492d-bfb0-282d004f760a"},"vehicle_type_id":"4","last_reported":1700190444,"current_range_meters":31200,"station_id":"ce4bhah2rcd13ifvqej0","pricing_plan_id":"free"},{"bike_id":"a3f98899-977c-4239-9e5d-94b880635efd","system_id":"levelo_inurba_marseille","lat":43.286591,"lon":5.363346,"is_reserved":false,"is_disabled":false,"rental_uris":{"android":"levelo://app?vid=a3f98899-977c-4239-9e5d-94b880635efd","ios":"levelo://app?vid=a3f98899-977c-4239-9e5d-94b880635efd"},"vehicle_type_id":"4","last_reported":1700190444,"current_range_meters":30400,"station_id":"ce4bhah2rcd13ifvqej0","pricing_plan_id":"free"},{"bike_id":"da8b696f-5402-4a50-acac-60542841966a","system_id":"levelo_inurba_marseille","lat":43.298783,"lon":5.397365,"is_reserved":false,"is_disabled":false,"rental_uris":{"android":"levelo://app?vid=da8b696f-5402-4a50-acac-60542841966a","ios":"levelo://app?vid=da8b696f-5402-4a50-acac-60542841966a"},"vehicle_type_id":"4","last_reported":1700190444,"current_range_meters":30000,"station_id":"ce4bh0h2rcd13ifvqd50","pricing_plan_id":"free"},{"bike_id":"a650514b-d4c4-45b6-a155-a1cba97daebc","system_id":"levelo_inurba_marseille","lat":43.286591,"lon":5.363346,"is_reserved":false,"is_disabled":false,"rental_uris":{"android":"levelo://app?vid=a650514b-d4c4-45b6-a155-a1cba97daebc","ios":"levelo://app?vid=a650514b-d4c4-45b6-a155-a1cba97daebc"},"vehicle_type_id":"4","last_reported":1700190444,"current_range_meters":30000,"station_id":"ce4bhah2rcd13ifvqej0","pricing_plan_id":"free"},{"bike_id":"24e19589-854b-40f8-81ee-ca3beb9120bd","system_id":"levelo_inurba_marseille","lat":43.286591,"lon":5.363346,"is_reserved":false,"is_disabled":false,"rental_uris":{"android":"levelo://app?vid=24e19589-854b-40f8-81ee-ca3beb9120bd","ios":"levelo://app?vid=24e19589-854b-40f8-81ee-ca3beb9120bd"},"vehicle_type_id":"4","last_reported":1700190444,"current_range_meters":27600,"station_id":"ce4bhah2rcd13ifvqej0","pricing_plan_id":"free"},{"bike_id":"2f3dff83-7e54-4f57-8071-d0391a25e35a","system_id":"levelo_inurba_marseille","lat":43.28662,"lon":5.36357,"is_reserved":false,"is_disabled":false,"rental_uris":{"android":"levelo://app?vid=2f3dff83-7e54-4f57-8071-d0391a25e35a","ios":"levelo://app?vid=2f3dff83-7e54-4f57-8071-d0391a25e35a"},"vehicle_type_id":"4","last_reported":1700190444,"current_range_meters":23200,"station_id":"ce4bhah2rcd13ifvqej0","pricing_plan_id":"free"},{"bike_id":"de6496aa-c38b-449b-b7a0-3d909b30ae80","system_id":"levelo_inurba_marseille","lat":43.286591,"lon":5.363346,"is_reserved":false,"is_disabled":false,"rental_uris":{"android":"levelo://app?vid=de6496aa-c38b-449b-b7a0-3d909b30ae80","ios":"levelo://app?vid=de6496aa-c38b-449b-b7a0-3d909b30ae80"},"vehicle_type_id":"4","last_reported":1700190444,"current_range_meters":25600,"station_id":"ce4bhah2rcd13ifvqej0","pricing_plan_id":"free"},{"bike_id":"3a01d875-3cdf-4f2d-92ae-a8035ff49878","system_id":"levelo_inurba_marseille","lat":43.286591,"lon":5.363346,"is_reserved":false,"is_disabled":false,"rental_uris":{"android":"levelo://app?vid=3a01d875-3cdf-4f2d-92ae-a8035ff49878","ios":"levelo://app?vid=3a01d875-3cdf-4f2d-92ae-a8035ff49878"},"vehicle_type_id":"4","last_reported":1700190444,"current_range_meters":23200,"station_id":"ce4bhah2rcd13ifvqej0","pricing_plan_id":"free"},{"bike_id":"e3e0b903-f39e-44bb-9b6f-05c472a8e465","system_id":"levelo_inurba_marseille","lat":43.290257,"lon":5.386475,"is_reserved":false,"is_disabled":false,"rental_uris":{"android":"levelo://app?vid=e3e0b903-f39e-44bb-9b6f-05c472a8e465","ios":"levelo://app?vid=e3e0b903-f39e-44bb-9b6f-05c472a8e465"},"vehicle_type_id":"4","last_reported":1700190444,"current_range_meters":0,"station_id":"","pricing_plan_id":"free"},{"bike_id":"29d7fc56-d2ba-47f7-a51a-18d28d001baf","system_id":"levelo_inurba_marseille","lat":43.302759,"lon":5.400793,"is_reserved":false,"is_disabled":false,"rental_uris":{"android":"levelo://app?vid=29d7fc56-d2ba-47f7-a51a-18d28d001baf","ios":"levelo://app?vid=29d7fc56-d2ba-47f7-a51a-18d28d001baf"},"vehicle_type_id":"4","last_reported":1700190444,"current_range_meters":16400,"station_id":"ce4bgvh2rcd13ifvqcs0","pricing_plan_id":"free"},{"bike_id":"52f757a2-c5d7-4bc9-9d47-54afdd881797","system_id":"levelo_inurba_marseille","lat":43.302759,"lon":5.400793,"is_reserved":false,"is_disabled":false,"rental_uris":{"android":"levelo://app?vid=52f757a2-c5d7-4bc9-9d47-54afdd881797","ios":"levelo://app?vid=52f757a2-c5d7-4bc9-9d47-54afdd881797"},"vehicle_type_id":"4","last_reported":1700190444,"current_range_meters":32000,"station_id":"ce4bgvh2rcd13ifvqcs0","pricing_plan_id":"free"},{"bike_id":"5ec09432-a7c6-4577-b2db-ef4e88f1b3b7","system_id":"levelo_inurba_marseille","lat":43.302552,"lon":5.400797,"is_reserved":false,"is_disabled":false,"rental_uris":{"android":"levelo://app?vid=5ec09432-a7c6-4577-b2db-ef4e88f1b3b7","ios":"levelo://app?vid=5ec09432-a7c6-4577-b2db-ef4e88f1b3b7"},"vehicle_type_id":"4","last_reported":1700190444,"current_range_meters":16400,"station_id":"ce4bgvh2rcd13ifvqcs0","pricing_plan_id":"free"},{"bike_id":"fd14c736-4900-479f-9756-6439106d4378","system_id":"levelo_inurba_marseille","lat":43.302759,"lon":5.400793,"is_reserved":false,"is_disabled":false,"rental_uris":{"android":"levelo://app?vid=fd14c736-4900-479f-9756-6439106d4378","ios":"levelo://app?vid=fd14c736-4900-479f-9756-6439106d4378"},"vehicle_type_id":"4","last_reported":1700190444,"current_range_meters":28000,"station_id":"ce4bgvh2rcd13ifvqcs0","pricing_plan_id":"free"},{"bike_id":"f67404f7-4c10-4c34-8bde-f052f747e2ff","system_id":"levelo_inurba_marseille","lat":43.302516,"lon":5.400811,"is_reserved":false,"is_disabled":false,"rental_uris":{"android":"levelo://app?vid=f67404f7-4c10-4c34-8bde-f052f747e2ff","ios":"levelo://app?vid=f67404f7-4c10-4c34-8bde-f052f747e2ff"},"vehicle_type_id":"4","last_reported":1700190444,"current_range_meters":28400,"station_id":"ce4bgvh2rcd13ifvqcs0","pricing_plan_id":"free"},{"bike_id":"e658bdab-3cbf-4d07-8ccc-7e4b31ac8080","system_id":"levelo_inurba_marseille","lat":43.302507,"lon":5.400818,"is_reserved":false,"is_disabled":false,"rental_uris":{"android":"levelo://app?vid=e658bdab-3cbf-4d07-8ccc-7e4b31ac8080","ios":"levelo://app?vid=e658bdab-3cbf-4d07-8ccc-7e4b31ac8080"},"vehicle_type_id":"4","last_reported":1700190444,"current_range_meters":29600,"station_id":"ce4bgvh2rcd13ifvqcs0","pricing_plan_id":"free"},{"bike_id":"5738f923-3d91-43ef-9fd4-972206339ca2","system_id":"levelo_inurba_marseille","lat":43.31646,"lon":5.40435,"is_reserved":false,"is_disabled":false,"rental_uris":{"android":"levelo://app?vid=5738f923-3d91-43ef-9fd4-972206339ca2","ios":"levelo://app?vid=5738f923-3d91-43ef-9fd4-972206339ca2"},"vehicle_type_id":"4","last_reported":1700190444,"current_range_meters":20800,"station_id":"ce4bh012rcd13ifvqd00","pricing_plan_id":"free"},{"bike_id":"57834a35-487d-4e70-a145-c7d14fc5379f","system_id":"levelo_inurba_marseille","lat":43.291994,"lon":5.392907,"is_reserved":false,"is_disabled":false,"rental_uris":{"android":"levelo://app?vid=57834a35-487d-4e70-a145-c7d14fc5379f","ios":"levelo://app?vid=57834a35-487d-4e70-a145-c7d14fc5379f"},"vehicle_type_id":"4","last_reported":1700190444,"current_range_meters":29200,"station_id":"ce4bh192rcd13ifvqdd0","pricing_plan_id":"free"},{"bike_id":"bc105196-f6ee-4d4f-8863-ee9117a37250","system_id":"levelo_inurba_marseille","lat":43.284664,"lon":5.358872,"is_reserved":false,"is_disabled":false,"rental_uris":{"android":"levelo://app?vid=bc105196-f6ee-4d4f-8863-ee9117a37250","ios":"levelo://app?vid=bc105196-f6ee-4d4f-8863-ee9117a37250"},"vehicle_type_id":"4","last_reported":1700190444,"current_range_meters":30800,"station_id":"ce4bhah2rcd13ifvqei0","pricing_plan_id":"free"},{"bike_id":"4e64a86f-aa4b-4134-babb-6e7a94ec6f6c","system_id":"levelo_inurba_marseille","lat":43.284538,"lon":5.358657,"is_reserved":false,"is_disabled":false,"rental_uris":{"android":"levelo://app?vid=4e64a86f-aa4b-4134-babb-6e7a94ec6f6c","ios":"levelo://app?vid=4e64a86f-aa4b-4134-babb-6e7a94ec6f6c"},"vehicle_type_id":"4","last_reported":1700190444,"current_range_meters":31600,"station_id":"ce4bhah2rcd13ifvqei0","pricing_plan_id":"free"},{"bike_id":"adc25490-5f98-4c60-85b1-ff0d2430ac44","system_id":"levelo_inurba_marseille","lat":43.284534,"lon":5.358662,"is_reserved":false,"is_disabled":false,"rental_uris":{"android":"levelo://app?vid=adc25490-5f98-4c60-85b1-ff0d2430ac44","ios":"levelo://app?vid=adc25490-5f98-4c60-85b1-ff0d2430ac44"},"vehicle_type_id":"4","last_reported":1700190444,"current_range_meters":28800,"station_id":"ce4bhah2rcd13ifvqei0","pricing_plan_id":"free"},{"bike_id":"dfa4a722-2d3d-4d47-a6a4-edba5085a2b1","system_id":"levelo_inurba_marseille","lat":43.284534,"lon":5.358662,"is_reserved":false,"is_disabled":false,"rental_uris":{"android":"levelo://app?vid=dfa4a722-2d3d-4d47-a6a4-edba5085a2b1","ios":"levelo://app?vid=dfa4a722-2d3d-4d47-a6a4-edba5085a2b1"},"vehicle_type_id":"4","last_reported":1700190444,"current_range_meters":20800,"station_id":"ce4bhah2rcd13ifvqei0","pricing_plan_id":"free"},{"bike_id":"f7b8592c-b59c-405c-800b-017bf58bf202","system_id":"levelo_inurba_marseille","lat":43.284538,"lon":5.358657,"is_reserved":false,"is_disabled":false,"rental_uris":{"android":"levelo://app?vid=f7b8592c-b59c-405c-800b-017bf58bf202","ios":"levelo://app?vid=f7b8592c-b59c-405c-800b-017bf58bf202"},"vehicle_type_id":"4","last_reported":1700190444,"current_range_meters":15200,"station_id":"ce4bhah2rcd13ifvqei0","pricing_plan_id":"free"},{"bike_id":"a0ecafb2-37bc-43db-9e36-34257ca45283","system_id":"levelo_inurba_marseille","lat":43.284538,"lon":5.358657,"is_reserved":false,"is_disabled":false,"rental_uris":{"android":"levelo://app?vid=a0ecafb2-37bc-43db-9e36-34257ca45283","ios":"levelo://app?vid=a0ecafb2-37bc-43db-9e36-34257ca45283"},"vehicle_type_id":"4","last_reported":1700190444,"current_range_meters":31200,"station_id":"ce4bhah2rcd13ifvqei0","pricing_plan_id":"free"},{"bike_id":"7838ec99-f427-44ae-86ff-50b59a90e873","system_id":"levelo_inurba_marseille","lat":43.284534,"lon":5.358662,"is_reserved":false,"is_disabled":false,"rental_uris":{"android":"levelo://app?vid=7838ec99-f427-44ae-86ff-50b59a90e873","ios":"levelo://app?vid=7838ec99-f427-44ae-86ff-50b59a90e873"},"vehicle_type_id":"4","last_reported":1700190444,"current_range_meters":31200,"station_id":"ce4bhah2rcd13ifvqei0","pricing_plan_id":"free"},{"bike_id":"d67e9571-bda9-480d-9dc7-175e73fd1d98","system_id":"levelo_inurba_marseille","lat":43.284538,"lon":5.358657,"is_reserved":false,"is_disabled":false,"rental_uris":{"android":"levelo://app?vid=d67e9571-bda9-480d-9dc7-175e73fd1d98","ios":"levelo://app?vid=d67e9571-bda9-480d-9dc7-175e73fd1d98"},"vehicle_type_id":"4","last_reported":1700190444,"current_range_meters":25600,"station_id":"ce4bhah2rcd13ifvqei0","pricing_plan_id":"free"},{"bike_id":"151812ba-7675-40b3-9c2b-5c99899d36a6","system_id":"levelo_inurba_marseille","lat":43.284534,"lon":5.358662,"is_reserved":false,"is_disabled":false,"rental_uris":{"android":"levelo://app?vid=151812ba-7675-40b3-9c2b-5c99899d36a6","ios":"levelo://app?vid=151812ba-7675-40b3-9c2b-5c99899d36a6"},"vehicle_type_id":"4","last_reported":1700190444,"current_range_meters":31200,"station_id":"ce4bhah2rcd13ifvqei0","pricing_plan_id":"free"},{"bike_id":"0a49a6f4-f60b-4d4e-a6da-2488bc1b2b9b","system_id":"levelo_inurba_marseille","lat":43.284538,"lon":5.358657,"is_reserved":false,"is_disabled":false,"rental_uris":{"android":"levelo://app?vid=0a49a6f4-f60b-4d4e-a6da-2488bc1b2b9b","ios":"levelo://app?vid=0a49a6f4-f60b-4d4e-a6da-2488bc1b2b9b"},"vehicle_type_id":"4","last_reported":1700190444,"current_range_meters":31600,"station_id":"ce4bhah2rcd13ifvqei0","pricing_plan_id":"free"},{"bike_id":"5b42172c-f435-4799-8f01-2c0e79037cd9","system_id":"levelo_inurba_marseille","lat":43.284538,"lon":5.358657,"is_reserved":false,"is_disabled":false,"rental_uris":{"android":"levelo://app?vid=5b42172c-f435-4799-8f01-2c0e79037cd9","ios":"levelo://app?vid=5b42172c-f435-4799-8f01-2c0e79037cd9"},"vehicle_type_id":"4","last_reported":1700190444,"current_range_meters":31600,"station_id":"ce4bhah2rcd13ifvqei0","pricing_plan_id":"free"},{"bike_id":"cd98d01e-f8ac-40a6-aa28-609cb5f7a6c6","system_id":"levelo_inurba_marseille","lat":43.284534,"lon":5.358662,"is_reserved":false,"is_disabled":false,"rental_uris":{"android":"levelo://app?vid=cd98d01e-f8ac-40a6-aa28-609cb5f7a6c6","ios":"levelo://app?vid=cd98d01e-f8ac-40a6-aa28-609cb5f7a6c6"},"vehicle_type_id":"4","last_reported":1700190444,"current_range_meters":31200,"station_id":"ce4bhah2rcd13ifvqei0","pricing_plan_id":"free"},{"bike_id":"6eac7650-c11b-4c08-915e-107b5acbc839","system_id":"levelo_inurba_marseille","lat":43.284534,"lon":5.358662,"is_reserved":false,"is_disabled":false,"rental_uris":{"android":"levelo://app?vid=6eac7650-c11b-4c08-915e-107b5acbc839","ios":"levelo://app?vid=6eac7650-c11b-4c08-915e-107b5acbc839"},"vehicle_type_id":"4","last_reported":1700190444,"current_range_meters":21200,"station_id":"ce4bhah2rcd13ifvqei0","pricing_plan_id":"free"},{"bike_id":"8bf2bf76-ef80-4d10-a25a-df378dab5110","system_id":"levelo_inurba_marseille","lat":43.284548,"lon":5.35884,"is_reserved":false,"is_disabled":false,"rental_uris":{"android":"levelo://app?vid=8bf2bf76-ef80-4d10-a25a-df378dab5110","ios":"levelo://app?vid=8bf2bf76-ef80-4d10-a25a-df378dab5110"},"vehicle_type_id":"4","last_reported":1700190444,"current_range_meters":23200,"station_id":"ce4bhah2rcd13ifvqei0","pricing_plan_id":"free"},{"bike_id":"1ec224e1-5d8a-4ef5-8223-274d8b8e48fa","system_id":"levelo_inurba_marseille","lat":43.284538,"lon":5.358657,"is_reserved":false,"is_disabled":false,"rental_uris":{"android":"levelo://app?vid=1ec224e1-5d8a-4ef5-8223-274d8b8e48fa","ios":"levelo://app?vid=1ec224e1-5d8a-4ef5-8223-274d8b8e48fa"},"vehicle_type_id":"4","last_reported":1700190444,"current_range_meters":28000,"station_id":"ce4bhah2rcd13ifvqei0","pricing_plan_id":"free"},{"bike_id":"0caa1002-bb8b-4d2c-9824-6ad2a71f2b4e","system_id":"levelo_inurba_marseille","lat":43.284534,"lon":5.358662,"is_reserved":false,"is_disabled":false,"rental_uris":{"android":"levelo://app?vid=0caa1002-bb8b-4d2c-9824-6ad2a71f2b4e","ios":"levelo://app?vid=0caa1002-bb8b-4d2c-9824-6ad2a71f2b4e"},"vehicle_type_id":"4","last_reported":1700190444,"current_range_meters":24400,"station_id":"ce4bhah2rcd13ifvqei0","pricing_plan_id":"free"},{"bike_id":"be89bbed-9d70-4763-a8db-56ba2b57aea7","system_id":"levelo_inurba_marseille","lat":43.284534,"lon":5.358662,"is_reserved":false,"is_disabled":false,"rental_uris":{"android":"levelo://app?vid=be89bbed-9d70-4763-a8db-56ba2b57aea7","ios":"levelo://app?vid=be89bbed-9d70-4763-a8db-56ba2b57aea7"},"vehicle_type_id":"4","last_reported":1700190444,"current_range_meters":31200,"station_id":"ce4bhah2rcd13ifvqei0","pricing_plan_id":"free"},{"bike_id":"1eb4f198-d2a7-4bd0-90d4-f0336408d958","system_id":"levelo_inurba_marseille","lat":43.284534,"lon":5.358662,"is_reserved":false,"is_disabled":false,"rental_uris":{"android":"levelo://app?vid=1eb4f198-d2a7-4bd0-90d4-f0336408d958","ios":"levelo://app?vid=1eb4f198-d2a7-4bd0-90d4-f0336408d958"},"vehicle_type_id":"4","last_reported":1700190444,"current_range_meters":29600,"station_id":"ce4bhah2rcd13ifvqei0","pricing_plan_id":"free"},{"bike_id":"1a24d21b-84cb-44f4-a860-83d4a68072fd","system_id":"levelo_inurba_marseille","lat":43.294314,"lon":5.397498,"is_reserved":false,"is_disabled":false,"rental_uris":{"android":"levelo://app?vid=1a24d21b-84cb-44f4-a860-83d4a68072fd","ios":"levelo://app?vid=1a24d21b-84cb-44f4-a860-83d4a68072fd"},"vehicle_type_id":"4","last_reported":1700190444,"current_range_meters":26800,"station_id":"ce4bh3h2rcd13ifvqdo0","pricing_plan_id":"free"},{"bike_id":"e1c89dd8-bd8c-4305-b0ad-0369369c6866","system_id":"levelo_inurba_marseille","lat":43.28617,"lon":5.35098,"is_reserved":false,"is_disabled":false,"rental_uris":{"android":"levelo://app?vid=e1c89dd8-bd8c-4305-b0ad-0369369c6866","ios":"levelo://app?vid=e1c89dd8-bd8c-4305-b0ad-0369369c6866"},"vehicle_type_id":"4","last_reported":1700190444,"current_range_meters":31200,"station_id":"ce4bhch2rcd13ifvqeug","pricing_plan_id":"free"},{"bike_id":"b27411b2-d0d2-45fc-b789-5b621b3cf24d","system_id":"levelo_inurba_marseille","lat":43.28615,"lon":5.35101,"is_reserved":false,"is_disabled":false,"rental_uris":{"android":"levelo://app?vid=b27411b2-d0d2-45fc-b789-5b621b3cf24d","ios":"levelo://app?vid=b27411b2-d0d2-45fc-b789-5b621b3cf24d"},"vehicle_type_id":"4","last_reported":1700190444,"current_range_meters":31200,"station_id":"ce4bhch2rcd13ifvqeug","pricing_plan_id":"free"},{"bike_id":"450d6271-56f9-48db-aa29-e65f2e482fae","system_id":"levelo_inurba_marseille","lat":43.284144,"lon":5.375033,"is_reserved":false,"is_disabled":false,"rental_uris":{"android":"levelo://app?vid=450d6271-56f9-48db-aa29-e65f2e482fae","ios":"levelo://app?vid=450d6271-56f9-48db-aa29-e65f2e482fae"},"vehicle_type_id":"4","last_reported":1700190444,"current_range_meters":20400,"station_id":"ce4bh412rcd13ifvqds0","pricing_plan_id":"free"},{"bike_id":"efb5b4a8-12a5-497e-995c-b244e93886b9","system_id":"levelo_inurba_marseille","lat":43.284142,"lon":5.375078,"is_reserved":false,"is_disabled":false,"rental_uris":{"android":"levelo://app?vid=efb5b4a8-12a5-497e-995c-b244e93886b9","ios":"levelo://app?vid=efb5b4a8-12a5-497e-995c-b244e93886b9"},"vehicle_type_id":"4","last_reported":1700190444,"current_range_meters":0,"station_id":"ce4bh412rcd13ifvqds0","pricing_plan_id":"free"},{"bike_id":"cf1a36fe-44c6-4388-a3bf-663bce57dc9e","system_id":"levelo_inurba_marseille","lat":43.28413,"lon":5.3751,"is_reserved":false,"is_disabled":false,"rental_uris":{"android":"levelo://app?vid=cf1a36fe-44c6-4388-a3bf-663bce57dc9e","ios":"levelo://app?vid=cf1a36fe-44c6-4388-a3bf-663bce57dc9e"},"vehicle_type_id":"4","last_reported":1700190444,"current_range_meters":16400,"station_id":"ce4bh412rcd13ifvqds0","pricing_plan_id":"free"},{"bike_id":"ef567753-1991-41a8-915f-c4c31bcab487","system_id":"levelo_inurba_marseille","lat":43.28412,"lon":5.37511,"is_reserved":false,"is_disabled":false,"rental_uris":{"android":"levelo://app?vid=ef567753-1991-41a8-915f-c4c31bcab487","ios":"levelo://app?vid=ef567753-1991-41a8-915f-c4c31bcab487"},"vehicle_type_id":"4","last_reported":1700190444,"current_range_meters":28400,"station_id":"ce4bh412rcd13ifvqds0","pricing_plan_id":"free"},{"bike_id":"c7653755-5f45-4d91-9ca1-2073fea437d0","system_id":"levelo_inurba_marseille","lat":43.283998,"lon":5.375062,"is_reserved":false,"is_disabled":false,"rental_uris":{"android":"levelo://app?vid=c7653755-5f45-4d91-9ca1-2073fea437d0","ios":"levelo://app?vid=c7653755-5f45-4d91-9ca1-2073fea437d0"},"vehicle_type_id":"4","last_reported":1700190444,"current_range_meters":21600,"station_id":"ce4bh412rcd13ifvqds0","pricing_plan_id":"free"},{"bike_id":"c92547b9-f186-4f7e-970e-23f5c008ffae","system_id":"levelo_inurba_marseille","lat":43.283998,"lon":5.375062,"is_reserved":false,"is_disabled":false,"rental_uris":{"android":"levelo://app?vid=c92547b9-f186-4f7e-970e-23f5c008ffae","ios":"levelo://app?vid=c92547b9-f186-4f7e-970e-23f5c008ffae"},"vehicle_type_id":"4","last_reported":1700190444,"current_range_meters":27200,"station_id":"ce4bh412rcd13ifvqds0","pricing_plan_id":"free"},{"bike_id":"c7732283-ebec-49a2-b735-3a41a2ffab4c","system_id":"levelo_inurba_marseille","lat":43.284068,"lon":5.374997,"is_reserved":false,"is_disabled":false,"rental_uris":{"android":"levelo://app?vid=c7732283-ebec-49a2-b735-3a41a2ffab4c","ios":"levelo://app?vid=c7732283-ebec-49a2-b735-3a41a2ffab4c"},"vehicle_type_id":"4","last_reported":1700190444,"current_range_meters":24800,"station_id":"ce4bh412rcd13ifvqds0","pricing_plan_id":"free"},{"bike_id":"83430088-e83f-4535-9d1e-569d2e9f09a4","system_id":"levelo_inurba_marseille","lat":43.295717,"lon":5.399697,"is_reserved":false,"is_disabled":false,"rental_uris":{"android":"levelo://app?vid=83430088-e83f-4535-9d1e-569d2e9f09a4","ios":"levelo://app?vid=83430088-e83f-4535-9d1e-569d2e9f09a4"},"vehicle_type_id":"4","last_reported":1700190444,"current_range_meters":19200,"station_id":"","pricing_plan_id":"free"},{"bike_id":"168c48b2-5052-4af7-8668-1a6baae9197e","system_id":"levelo_inurba_marseille","lat":43.294594,"lon":5.39856,"is_reserved":false,"is_disabled":false,"rental_uris":{"android":"levelo://app?vid=168c48b2-5052-4af7-8668-1a6baae9197e","ios":"levelo://app?vid=168c48b2-5052-4af7-8668-1a6baae9197e"},"vehicle_type_id":"4","last_reported":1700190444,"current_range_meters":0,"station_id":"","pricing_plan_id":"free"},{"bike_id":"1ec2d348-6c88-4361-ace9-2fa343647282","system_id":"levelo_inurba_marseille","lat":43.295713,"lon":5.399639,"is_reserved":false,"is_disabled":false,"rental_uris":{"android":"levelo://app?vid=1ec2d348-6c88-4361-ace9-2fa343647282","ios":"levelo://app?vid=1ec2d348-6c88-4361-ace9-2fa343647282"},"vehicle_type_id":"4","last_reported":1700190444,"current_range_meters":27200,"station_id":"ce4bh312rcd13ifvqdj0","pricing_plan_id":"free"},{"bike_id":"d60b6006-6691-4abf-b4ee-8a75b634bb02","system_id":"levelo_inurba_marseille","lat":43.286843,"lon":5.386713,"is_reserved":false,"is_disabled":false,"rental_uris":{"android":"levelo://app?vid=d60b6006-6691-4abf-b4ee-8a75b634bb02","ios":"levelo://app?vid=d60b6006-6691-4abf-b4ee-8a75b634bb02"},"vehicle_type_id":"4","last_reported":1700190444,"current_range_meters":31200,"station_id":"ce4bh492rcd13ifvqdug","pricing_plan_id":"free"},{"bike_id":"2444a590-7e21-4722-b154-c8ca640d99ce","system_id":"levelo_inurba_marseille","lat":43.28682,"lon":5.38668,"is_reserved":false,"is_disabled":false,"rental_uris":{"android":"levelo://app?vid=2444a590-7e21-4722-b154-c8ca640d99ce","ios":"levelo://app?vid=2444a590-7e21-4722-b154-c8ca640d99ce"},"vehicle_type_id":"4","last_reported":1700190444,"current_range_meters":29200,"station_id":"ce4bh492rcd13ifvqdug","pricing_plan_id":"free"},{"bike_id":"24ec77cc-4c16-45a0-b345-83d0f0f57fa6","system_id":"levelo_inurba_marseille","lat":43.28681,"lon":5.38671,"is_reserved":false,"is_disabled":false,"rental_uris":{"android":"levelo://app?vid=24ec77cc-4c16-45a0-b345-83d0f0f57fa6","ios":"levelo://app?vid=24ec77cc-4c16-45a0-b345-83d0f0f57fa6"},"vehicle_type_id":"4","last_reported":1700190444,"current_range_meters":30800,"station_id":"ce4bh492rcd13ifvqdug","pricing_plan_id":"free"},{"bike_id":"e6e7720d-d8f5-45dc-b40b-8855d0503b08","system_id":"levelo_inurba_marseille","lat":43.2867,"lon":5.38656,"is_reserved":false,"is_disabled":false,"rental_uris":{"android":"levelo://app?vid=e6e7720d-d8f5-45dc-b40b-8855d0503b08","ios":"levelo://app?vid=e6e7720d-d8f5-45dc-b40b-8855d0503b08"},"vehicle_type_id":"4","last_reported":1700190444,"current_range_meters":8400,"station_id":"ce4bh492rcd13ifvqdug","pricing_plan_id":"free"},{"bike_id":"9ed6e21a-8af3-4616-b3e0-b5b65e1423cd","system_id":"levelo_inurba_marseille","lat":43.28673,"lon":5.38668,"is_reserved":false,"is_disabled":false,"rental_uris":{"android":"levelo://app?vid=9ed6e21a-8af3-4616-b3e0-b5b65e1423cd","ios":"levelo://app?vid=9ed6e21a-8af3-4616-b3e0-b5b65e1423cd"},"vehicle_type_id":"4","last_reported":1700190444,"current_range_meters":20400,"station_id":"ce4bh492rcd13ifvqdug","pricing_plan_id":"free"},{"bike_id":"68b32a73-6150-4e8b-bc5e-37bc5cc09735","system_id":"levelo_inurba_marseille","lat":43.323464,"lon":5.406297,"is_reserved":false,"is_disabled":false,"rental_uris":{"android":"levelo://app?vid=68b32a73-6150-4e8b-bc5e-37bc5cc09735","ios":"levelo://app?vid=68b32a73-6150-4e8b-bc5e-37bc5cc09735"},"vehicle_type_id":"4","last_reported":1700190444,"current_range_meters":28000,"station_id":"ce4bhq92rcd13ifvqhjg","pricing_plan_id":"free"},{"bike_id":"b929ba07-35b4-4b4e-83b3-47dbc61d297e","system_id":"levelo_inurba_marseille","lat":43.337168,"lon":5.391825,"is_reserved":false,"is_disabled":false,"rental_uris":{"android":"levelo://app?vid=b929ba07-35b4-4b4e-83b3-47dbc61d297e","ios":"levelo://app?vid=b929ba07-35b4-4b4e-83b3-47dbc61d297e"},"vehicle_type_id":"4","last_reported":1700190444,"current_range_meters":28400,"station_id":"ce4bhr92rcd13ifvqhsg","pricing_plan_id":"free"},{"bike_id":"2fad3b00-b57c-4139-96df-3280340872bc","system_id":"levelo_inurba_marseille","lat":43.323464,"lon":5.406297,"is_reserved":false,"is_disabled":false,"rental_uris":{"android":"levelo://app?vid=2fad3b00-b57c-4139-96df-3280340872bc","ios":"levelo://app?vid=2fad3b00-b57c-4139-96df-3280340872bc"},"vehicle_type_id":"4","last_reported":1700190444,"current_range_meters":31200,"station_id":"ce4bhq92rcd13ifvqhjg","pricing_plan_id":"free"},{"bike_id":"733e5aa8-12c8-4f09-810a-8c8e0112cbf6","system_id":"levelo_inurba_marseille","lat":43.284787,"lon":5.384116,"is_reserved":false,"is_disabled":false,"rental_uris":{"android":"levelo://app?vid=733e5aa8-12c8-4f09-810a-8c8e0112cbf6","ios":"levelo://app?vid=733e5aa8-12c8-4f09-810a-8c8e0112cbf6"},"vehicle_type_id":"4","last_reported":1700190444,"current_range_meters":30400,"station_id":"ce4bh512rcd13ifvqe3g","pricing_plan_id":"free"},{"bike_id":"e688d32d-861e-4bf6-b303-ed1fccf037d3","system_id":"levelo_inurba_marseille","lat":43.297946,"lon":5.404063,"is_reserved":false,"is_disabled":false,"rental_uris":{"android":"levelo://app?vid=e688d32d-861e-4bf6-b303-ed1fccf037d3","ios":"levelo://app?vid=e688d32d-861e-4bf6-b303-ed1fccf037d3"},"vehicle_type_id":"4","last_reported":1700190444,"current_range_meters":27200,"station_id":"ce4bh112rcd13ifvqd90","pricing_plan_id":"free"},{"bike_id":"49cc4abb-eaa4-480c-9505-51d3b997c0a9","system_id":"levelo_inurba_marseille","lat":43.29795,"lon":5.404086,"is_reserved":false,"is_disabled":false,"rental_uris":{"android":"levelo://app?vid=49cc4abb-eaa4-480c-9505-51d3b997c0a9","ios":"levelo://app?vid=49cc4abb-eaa4-480c-9505-51d3b997c0a9"},"vehicle_type_id":"4","last_reported":1700190444,"current_range_meters":30000,"station_id":"ce4bh112rcd13ifvqd90","pricing_plan_id":"free"},{"bike_id":"4c14add8-11b9-40bd-844a-946594ec1352","system_id":"levelo_inurba_marseille","lat":43.288501,"lon":5.393087,"is_reserved":false,"is_disabled":false,"rental_uris":{"android":"levelo://app?vid=4c14add8-11b9-40bd-844a-946594ec1352","ios":"levelo://app?vid=4c14add8-11b9-40bd-844a-946594ec1352"},"vehicle_type_id":"4","last_reported":1700190444,"current_range_meters":29600,"station_id":"ce4bh2p2rcd13ifvqdi0","pricing_plan_id":"free"},{"bike_id":"d3dd3e3d-57b0-4c9e-949f-fddd56c2349c","system_id":"levelo_inurba_marseille","lat":43.32521,"lon":5.40575,"is_reserved":false,"is_disabled":false,"rental_uris":{"android":"levelo://app?vid=d3dd3e3d-57b0-4c9e-949f-fddd56c2349c","ios":"levelo://app?vid=d3dd3e3d-57b0-4c9e-949f-fddd56c2349c"},"vehicle_type_id":"4","last_reported":1700190444,"current_range_meters":7600,"station_id":"","pricing_plan_id":"free"},{"bike_id":"8bf74dc9-19af-42eb-8a59-e67da688ce2c","system_id":"levelo_inurba_marseille","lat":43.283498,"lon":5.380948,"is_reserved":false,"is_disabled":false,"rental_uris":{"android":"levelo://app?vid=8bf74dc9-19af-42eb-8a59-e67da688ce2c","ios":"levelo://app?vid=8bf74dc9-19af-42eb-8a59-e67da688ce2c"},"vehicle_type_id":"4","last_reported":1700190444,"current_range_meters":28000,"station_id":"ce4bh412rcd13ifvqdr0","pricing_plan_id":"free"},{"bike_id":"62cdea6f-43e9-46ac-a57d-a9037b3e4ddb","system_id":"levelo_inurba_marseille","lat":43.325233,"lon":5.406063,"is_reserved":false,"is_disabled":false,"rental_uris":{"android":"levelo://app?vid=62cdea6f-43e9-46ac-a57d-a9037b3e4ddb","ios":"levelo://app?vid=62cdea6f-43e9-46ac-a57d-a9037b3e4ddb"},"vehicle_type_id":"4","last_reported":1700190444,"current_range_meters":2800,"station_id":"","pricing_plan_id":"free"},{"bike_id":"b7d2f254-8e1c-496d-b25a-ad96ce8567a1","system_id":"levelo_inurba_marseille","lat":43.28948,"lon":5.396297,"is_reserved":false,"is_disabled":false,"rental_uris":{"android":"levelo://app?vid=b7d2f254-8e1c-496d-b25a-ad96ce8567a1","ios":"levelo://app?vid=b7d2f254-8e1c-496d-b25a-ad96ce8567a1"},"vehicle_type_id":"4","last_reported":1700190444,"current_range_meters":30800,"station_id":"ce4bh3h2rcd13ifvqdn0","pricing_plan_id":"free"},{"bike_id":"a5e6aa50-45a0-4ae7-9e75-724f7cfc1834","system_id":"levelo_inurba_marseille","lat":43.292724,"lon":5.401131,"is_reserved":false,"is_disabled":false,"rental_uris":{"android":"levelo://app?vid=a5e6aa50-45a0-4ae7-9e75-724f7cfc1834","ios":"levelo://app?vid=a5e6aa50-45a0-4ae7-9e75-724f7cfc1834"},"vehicle_type_id":"4","last_reported":1700190444,"current_range_meters":14800,"station_id":"ce4bh312rcd13ifvqdk0","pricing_plan_id":"free"},{"bike_id":"7bdf999c-d55e-45ad-b103-4ed1a6b2b4e4","system_id":"levelo_inurba_marseille","lat":43.292724,"lon":5.401131,"is_reserved":false,"is_disabled":false,"rental_uris":{"android":"levelo://app?vid=7bdf999c-d55e-45ad-b103-4ed1a6b2b4e4","ios":"levelo://app?vid=7bdf999c-d55e-45ad-b103-4ed1a6b2b4e4"},"vehicle_type_id":"4","last_reported":1700190444,"current_range_meters":22400,"station_id":"ce4bh312rcd13ifvqdk0","pricing_plan_id":"free"},{"bike_id":"b50fd59e-0c2a-4e89-ac9a-21fa756e0407","system_id":"levelo_inurba_marseille","lat":43.292779,"lon":5.401146,"is_reserved":false,"is_disabled":false,"rental_uris":{"android":"levelo://app?vid=b50fd59e-0c2a-4e89-ac9a-21fa756e0407","ios":"levelo://app?vid=b50fd59e-0c2a-4e89-ac9a-21fa756e0407"},"vehicle_type_id":"4","last_reported":1700190444,"current_range_meters":18400,"station_id":"ce4bh312rcd13ifvqdk0","pricing_plan_id":"free"},{"bike_id":"ca0f4bca-c872-4b42-9267-7c1eb1b6d298","system_id":"levelo_inurba_marseille","lat":43.292724,"lon":5.401131,"is_reserved":false,"is_disabled":false,"rental_uris":{"android":"levelo://app?vid=ca0f4bca-c872-4b42-9267-7c1eb1b6d298","ios":"levelo://app?vid=ca0f4bca-c872-4b42-9267-7c1eb1b6d298"},"vehicle_type_id":"4","last_reported":1700190444,"current_range_meters":30800,"station_id":"ce4bh312rcd13ifvqdk0","pricing_plan_id":"free"},{"bike_id":"bea621ab-635d-4531-b1f2-ec6f97e34c1c","system_id":"levelo_inurba_marseille","lat":43.292724,"lon":5.401131,"is_reserved":false,"is_disabled":false,"rental_uris":{"android":"levelo://app?vid=bea621ab-635d-4531-b1f2-ec6f97e34c1c","ios":"levelo://app?vid=bea621ab-635d-4531-b1f2-ec6f97e34c1c"},"vehicle_type_id":"4","last_reported":1700190444,"current_range_meters":27600,"station_id":"ce4bh312rcd13ifvqdk0","pricing_plan_id":"free"},{"bike_id":"724cea94-11ca-4301-8a72-f9f6c41fd516","system_id":"levelo_inurba_marseille","lat":43.292724,"lon":5.401131,"is_reserved":false,"is_disabled":false,"rental_uris":{"android":"levelo://app?vid=724cea94-11ca-4301-8a72-f9f6c41fd516","ios":"levelo://app?vid=724cea94-11ca-4301-8a72-f9f6c41fd516"},"vehicle_type_id":"4","last_reported":1700190444,"current_range_meters":31200,"station_id":"ce4bh312rcd13ifvqdk0","pricing_plan_id":"free"},{"bike_id":"d94b1da6-455f-466d-91d5-3d2eecc862ea","system_id":"levelo_inurba_marseille","lat":43.282744,"lon":5.350533,"is_reserved":false,"is_disabled":false,"rental_uris":{"android":"levelo://app?vid=d94b1da6-455f-466d-91d5-3d2eecc862ea","ios":"levelo://app?vid=d94b1da6-455f-466d-91d5-3d2eecc862ea"},"vehicle_type_id":"4","last_reported":1700190444,"current_range_meters":23200,"station_id":"ce4bhbp2rcd13ifvqerg","pricing_plan_id":"free"},{"bike_id":"992e3a0e-3e6d-49cd-9a36-d85014b5149f","system_id":"levelo_inurba_marseille","lat":43.280373,"lon":5.369531,"is_reserved":false,"is_disabled":false,"rental_uris":{"android":"levelo://app?vid=992e3a0e-3e6d-49cd-9a36-d85014b5149f","ios":"levelo://app?vid=992e3a0e-3e6d-49cd-9a36-d85014b5149f"},"vehicle_type_id":"4","last_reported":1700190444,"current_range_meters":18800,"station_id":"ce4bha12rcd13ifvqef0","pricing_plan_id":"free"},{"bike_id":"adb09be2-e30b-4089-9537-64215779c66e","system_id":"levelo_inurba_marseille","lat":43.28351,"lon":5.38626,"is_reserved":false,"is_disabled":false,"rental_uris":{"android":"levelo://app?vid=adb09be2-e30b-4089-9537-64215779c66e","ios":"levelo://app?vid=adb09be2-e30b-4089-9537-64215779c66e"},