{"last_updated":1729408077,"ttl":60,"version":"2.2","data":{"bikes":[{"bike_id":"834fec7b-d4c0-427b-b877-186743eeea27","system_id":"levelo_inurba_marseille","lat":43.26947,"lon":5.38637,"is_reserved":false,"is_disabled":false,"rental_uris":{"android":"levelo://app?vid=834fec7b-d4c0-427b-b877-186743eeea27","ios":"levelo://app?vid=834fec7b-d4c0-427b-b877-186743eeea27"},"vehicle_type_id":"4","last_reported":1729408078,"current_range_meters":38800,"station_id":"ce4bhh92rcd13ifvqfh0","pricing_plan_id":"cebpf4jnsgd1na2vs0mg"},{"bike_id":"4e48fe99-a3b8-424e-8829-620aa30b499f","system_id":"levelo_inurba_marseille","lat":43.30878,"lon":5.39634,"is_reserved":false,"is_disabled":false,"rental_uris":{"android":"levelo://app?vid=4e48fe99-a3b8-424e-8829-620aa30b499f","ios":"levelo://app?vid=4e48fe99-a3b8-424e-8829-620aa30b499f"},"vehicle_type_id":"4","last_reported":1729408078,"current_range_meters":35200,"station_id":"ce4bh012rcd13ifvqcv0","pricing_plan_id":"cebpf4jnsgd1na2vs0mg"},{"bike_id":"9b9a7cfe-944f-49a6-84c3-af9eec72cacc","system_id":"levelo_inurba_marseille","lat":43.31117,"lon":5.37767,"is_reserved":false,"is_disabled":false,"rental_uris":{"android":"levelo://app?vid=9b9a7cfe-944f-49a6-84c3-af9eec72cacc","ios":"levelo://app?vid=9b9a7cfe-944f-49a6-84c3-af9eec72cacc"},"vehicle_type_id":"4","last_reported":1729408078,"current_range_meters":21600,"station_id":"ce4bgt92rcd13ifvqcg0","pricing_plan_id":"cebpf4jnsgd1na2vs0mg"},{"bike_id":"1204cbef-c9af-4739-b0b5-165baedf1bc4","system_id":"levelo_inurba_marseille","lat":43.26949,"lon":5.38641,"is_reserved":false,"is_disabled":false,"rental_uris":{"android":"levelo://app?vid=1204cbef-c9af-4739-b0b5-165baedf1bc4","ios":"levelo://app?vid=1204cbef-c9af-4739-b0b5-165baedf1bc4"},"vehicle_type_id":"4","last_reported":1729408078,"current_range_meters":37600,"station_id":"ce4bhh92rcd13ifvqfh0","pricing_plan_id":"cebpf4jnsgd1na2vs0mg"},{"bike_id":"dffa0817-8664-41e5-901d-7664a9492d1c","system_id":"levelo_inurba_marseille","lat":43.32049,"lon":5.41531,"is_reserved":false,"is_disabled":false,"rental_uris":{"android":"levelo://app?vid=dffa0817-8664-41e5-901d-7664a9492d1c","ios":"levelo://app?vid=dffa0817-8664-41e5-901d-7664a9492d1c"},"vehicle_type_id":"4","last_reported":1729408078,"current_range_meters":39200,"station_id":"ce4bhq92rcd13ifvqhkg","pricing_plan_id":"cebpf4jnsgd1na2vs0mg"},{"bike_id":"9b720767-01f9-43e0-97e9-3a90a402ffce","system_id":"levelo_inurba_marseille","lat":43.28845,"lon":5.35862,"is_reserved":false,"is_disabled":false,"rental_uris":{"android":"levelo://app?vid=9b720767-01f9-43e0-97e9-3a90a402ffce","ios":"levelo://app?vid=9b720767-01f9-43e0-97e9-3a90a402ffce"},"vehicle_type_id":"4","last_reported":1729408078,"current_range_meters":37600,"station_id":"ce4bhb12rcd13ifvqem0","pricing_plan_id":"cebpf4jnsgd1na2vs0mg"},{"bike_id":"cc7efa44-13df-4e12-a405-4e45667f6687","system_id":"levelo_inurba_marseille","lat":43.31113,"lon":5.3776,"is_reserved":false,"is_disabled":false,"rental_uris":{"android":"levelo://app?vid=cc7efa44-13df-4e12-a405-4e45667f6687","ios":"levelo://app?vid=cc7efa44-13df-4e12-a405-4e45667f6687"},"vehicle_type_id":"4","last_reported":1729408078,"current_range_meters":38400,"station_id":"ce4bgt92rcd13ifvqcg0","pricing_plan_id":"cebpf4jnsgd1na2vs0mg"},{"bike_id":"fe93bfb2-7aeb-4c17-8248-6549ba71e9ff","system_id":"levelo_inurba_marseille","lat":43.28272,"lon":5.35072,"is_reserved":false,"is_disabled":false,"rental_uris":{"android":"levelo://app?vid=fe93bfb2-7aeb-4c17-8248-6549ba71e9ff","ios":"levelo://app?vid=fe93bfb2-7aeb-4c17-8248-6549ba71e9ff"},"vehicle_type_id":"4","last_reported":1729408078,"current_range_meters":38800,"station_id":"ce4bhbp2rcd13ifvqerg","pricing_plan_id":"cebpf4jnsgd1na2vs0mg"},{"bike_id":"079f0eb0-2f43-406f-bfbc-68285c577f87","system_id":"levelo_inurba_marseille","lat":43.2815,"lon":5.42639,"is_reserved":false,"is_disabled":false,"rental_uris":{"android":"levelo://app?vid=079f0eb0-2f43-406f-bfbc-68285c577f87","ios":"levelo://app?vid=079f0eb0-2f43-406f-bfbc-68285c577f87"},"vehicle_type_id":"4","last_reported":1729408078,"current_range_meters":8000,"station_id":"ce4bhnh2rcd13ifvqgug","pricing_plan_id":"cebpf4jnsgd1na2vs0mg"},{"bike_id":"a4f82997-97a2-41ab-8364-cac29d87167b","system_id":"levelo_inurba_marseille","lat":43.2707,"lon":5.42279,"is_reserved":false,"is_disabled":false,"rental_uris":{"android":"levelo://app?vid=a4f82997-97a2-41ab-8364-cac29d87167b","ios":"levelo://app?vid=a4f82997-97a2-41ab-8364-cac29d87167b"},"vehicle_type_id":"4","last_reported":1729408078,"current_range_meters":12400,"station_id":"ce4bhk92rcd13ifvqgb0","pricing_plan_id":"cebpf4jnsgd1na2vs0mg"},{"bike_id":"f35b4149-9686-4e35-b2f2-05813ac856cd","system_id":"levelo_inurba_marseille","lat":43.31371,"lon":5.38493,"is_reserved":false,"is_disabled":false,"rental_uris":{"android":"levelo://app?vid=f35b4149-9686-4e35-b2f2-05813ac856cd","ios":"levelo://app?vid=f35b4149-9686-4e35-b2f2-05813ac856cd"},"vehicle_type_id":"4","last_reported":1729408078,"current_range_meters":13600,"station_id":"ce4bgt92rcd13ifvqcf0","pricing_plan_id":"cebpf4jnsgd1na2vs0mg"},{"bike_id":"814a8b4c-43f0-4f31-87f7-0f70c081bccd","system_id":"levelo_inurba_marseille","lat":43.24811,"lon":5.37459,"is_reserved":false,"is_disabled":false,"rental_uris":{"android":"levelo://app?vid=814a8b4c-43f0-4f31-87f7-0f70c081bccd","ios":"levelo://app?vid=814a8b4c-43f0-4f31-87f7-0f70c081bccd"},"vehicle_type_id":"4","last_reported":1729408078,"current_range_meters":38000,"station_id":"ce4bhgh2rcd13ifvqfb0","pricing_plan_id":"cebpf4jnsgd1na2vs0mg"},{"bike_id":"1d123306-76de-4e99-b18a-f2b54d4716f7","system_id":"levelo_inurba_marseille","lat":43.32333,"lon":5.40615,"is_reserved":false,"is_disabled":false,"rental_uris":{"android":"levelo://app?vid=1d123306-76de-4e99-b18a-f2b54d4716f7","ios":"levelo://app?vid=1d123306-76de-4e99-b18a-f2b54d4716f7"},"vehicle_type_id":"4","last_reported":1729408078,"current_range_meters":17200,"station_id":"ce4bhq92rcd13ifvqhjg","pricing_plan_id":"cebpf4jnsgd1na2vs0mg"},{"bike_id":"e0879c3f-10eb-4d3b-8053-605cb1c6310c","system_id":"levelo_inurba_marseille","lat":43.26064,"lon":5.39392,"is_reserved":false,"is_disabled":false,"rental_uris":{"android":"levelo://app?vid=e0879c3f-10eb-4d3b-8053-605cb1c6310c","ios":"levelo://app?vid=e0879c3f-10eb-4d3b-8053-605cb1c6310c"},"vehicle_type_id":"4","last_reported":1729408078,"current_range_meters":22400,"station_id":"ce4bhh92rcd13ifvqfj0","pricing_plan_id":"cebpf4jnsgd1na2vs0mg"},{"bike_id":"5670cc1a-3b42-4baf-84dd-24fbe4175a33","system_id":"levelo_inurba_marseille","lat":43.30816,"lon":5.38118,"is_reserved":false,"is_disabled":false,"rental_uris":{"android":"levelo://app?vid=5670cc1a-3b42-4baf-84dd-24fbe4175a33","ios":"levelo://app?vid=5670cc1a-3b42-4baf-84dd-24fbe4175a33"},"vehicle_type_id":"4","last_reported":1729408078,"current_range_meters":8800,"station_id":"ce4bgt12rcd13ifvqce0","pricing_plan_id":"cebpf4jnsgd1na2vs0mg"},{"bike_id":"a5e4860a-da03-4154-90f8-517a46fbad82","system_id":"levelo_inurba_marseille","lat":43.28419,"lon":5.34984,"is_reserved":false,"is_disabled":false,"rental_uris":{"android":"levelo://app?vid=a5e4860a-da03-4154-90f8-517a46fbad82","ios":"levelo://app?vid=a5e4860a-da03-4154-90f8-517a46fbad82"},"vehicle_type_id":"4","last_reported":1729408078,"current_range_meters":39200,"station_id":"ce4bhbh2rcd13ifvqepg","pricing_plan_id":"cebpf4jnsgd1na2vs0mg"},{"bike_id":"a9128e19-daf5-4e1f-b719-f7b1a144d711","system_id":"levelo_inurba_marseille","lat":43.33715,"lon":5.3918,"is_reserved":false,"is_disabled":false,"rental_uris":{"android":"levelo://app?vid=a9128e19-daf5-4e1f-b719-f7b1a144d711","ios":"levelo://app?vid=a9128e19-daf5-4e1f-b719-f7b1a144d711"},"vehicle_type_id":"4","last_reported":1729408078,"current_range_meters":38000,"station_id":"ce4bhr92rcd13ifvqhsg","pricing_plan_id":"cebpf4jnsgd1na2vs0mg"},{"bike_id":"6ce775c4-02cf-418d-8d4a-b7d83d4820f9","system_id":"levelo_inurba_marseille","lat":43.2694,"lon":5.4026,"is_reserved":false,"is_disabled":false,"rental_uris":{"android":"levelo://app?vid=6ce775c4-02cf-418d-8d4a-b7d83d4820f9","ios":"levelo://app?vid=6ce775c4-02cf-418d-8d4a-b7d83d4820f9"},"vehicle_type_id":"4","last_reported":1729408078,"current_range_meters":38800,"station_id":"cjm6bp8fraef2m0cb0m0","pricing_plan_id":"cebpf4jnsgd1na2vs0mg"},{"bike_id":"fe70c65c-d59e-4a80-b4e8-fd6faec9551e","system_id":"levelo_inurba_marseille","lat":43.2903,"lon":5.39958,"is_reserved":false,"is_disabled":false,"rental_uris":{"android":"levelo://app?vid=fe70c65c-d59e-4a80-b4e8-fd6faec9551e","ios":"levelo://app?vid=fe70c65c-d59e-4a80-b4e8-fd6faec9551e"},"vehicle_type_id":"4","last_reported":1729408078,"current_range_meters":27600,"station_id":"ce4bh392rcd13ifvqdm0","pricing_plan_id":"cebpf4jnsgd1na2vs0mg"},{"bike_id":"3c542d24-c53e-4899-8c72-748e72210bc5","system_id":"levelo_inurba_marseille","lat":43.22926,"lon":5.35375,"is_reserved":false,"is_disabled":false,"rental_uris":{"android":"levelo://app?vid=3c542d24-c53e-4899-8c72-748e72210bc5","ios":"levelo://app?vid=3c542d24-c53e-4899-8c72-748e72210bc5"},"vehicle_type_id":"4","last_reported":1729408078,"current_range_meters":38800,"station_id":"cpo3532slgdg3j2ikp40","pricing_plan_id":"cebpf4jnsgd1na2vs0mg"},{"bike_id":"9cbb511e-f89c-44db-8723-f9f338233573","system_id":"levelo_inurba_marseille","lat":43.24992,"lon":5.38918,"is_reserved":false,"is_disabled":false,"rental_uris":{"android":"levelo://app?vid=9cbb511e-f89c-44db-8723-f9f338233573","ios":"levelo://app?vid=9cbb511e-f89c-44db-8723-f9f338233573"},"vehicle_type_id":"4","last_reported":1729408078,"current_range_meters":39200,"station_id":"ce4bhgp2rcd13ifvqfd0","pricing_plan_id":"cebpf4jnsgd1na2vs0mg"},{"bike_id":"1e1137d6-f6bf-499e-9ccf-0a40cee1b32b","system_id":"levelo_inurba_marseille","lat":43.24075,"lon":5.37753,"is_reserved":false,"is_disabled":false,"rental_uris":{"android":"levelo://app?vid=1e1137d6-f6bf-499e-9ccf-0a40cee1b32b","ios":"levelo://app?vid=1e1137d6-f6bf-499e-9ccf-0a40cee1b32b"},"vehicle_type_id":"4","last_reported":1729408078,"current_range_meters":28000,"station_id":"ce4bhnp2rcd13ifvqgvg","pricing_plan_id":"cebpf4jnsgd1na2vs0mg"},{"bike_id":"f7c0932d-ef62-4ed9-a8ec-4ea2294260c5","system_id":"levelo_inurba_marseille","lat":43.25721,"lon":5.41114,"is_reserved":false,"is_disabled":false,"rental_uris":{"android":"levelo://app?vid=f7c0932d-ef62-4ed9-a8ec-4ea2294260c5","ios":"levelo://app?vid=f7c0932d-ef62-4ed9-a8ec-4ea2294260c5"},"vehicle_type_id":"4","last_reported":1729408078,"current_range_meters":16400,"station_id":"ce4bhkp2rcd13ifvqgd0","pricing_plan_id":"cebpf4jnsgd1na2vs0mg"},{"bike_id":"32b0fbe4-1b28-4286-93c3-3c48329a3104","system_id":"levelo_inurba_marseille","lat":43.28656,"lon":5.36338,"is_reserved":false,"is_disabled":false,"rental_uris":{"android":"levelo://app?vid=32b0fbe4-1b28-4286-93c3-3c48329a3104","ios":"levelo://app?vid=32b0fbe4-1b28-4286-93c3-3c48329a3104"},"vehicle_type_id":"4","last_reported":1729408078,"current_range_meters":38000,"station_id":"ce4bhah2rcd13ifvqej0","pricing_plan_id":"cebpf4jnsgd1na2vs0mg"},{"bike_id":"39c955b0-78d1-43ac-ba4d-13ca9d2b3802","system_id":"levelo_inurba_marseille","lat":43.29268,"lon":5.40905,"is_reserved":false,"is_disabled":false,"rental_uris":{"android":"levelo://app?vid=39c955b0-78d1-43ac-ba4d-13ca9d2b3802","ios":"levelo://app?vid=39c955b0-78d1-43ac-ba4d-13ca9d2b3802"},"vehicle_type_id":"4","last_reported":1729408078,"current_range_meters":38800,"station_id":"ce4bh192rcd13ifvqdc0","pricing_plan_id":"cebpf4jnsgd1na2vs0mg"},{"bike_id":"481cffd0-bd3a-4827-9e2c-2ef60f9d0829","system_id":"levelo_inurba_marseille","lat":43.284596,"lon":5.358901,"is_reserved":false,"is_disabled":false,"rental_uris":{"android":"levelo://app?vid=481cffd0-bd3a-4827-9e2c-2ef60f9d0829","ios":"levelo://app?vid=481cffd0-bd3a-4827-9e2c-2ef60f9d0829"},"vehicle_type_id":"4","last_reported":1729408078,"current_range_meters":24800,"station_id":"ce4bhah2rcd13ifvqei0","pricing_plan_id":"cebpf4jnsgd1na2vs0mg"},{"bike_id":"43ba7a1f-7371-4f25-a2ea-7d72f4cd049c","system_id":"levelo_inurba_marseille","lat":43.30459,"lon":5.37911,"is_reserved":false,"is_disabled":false,"rental_uris":{"android":"levelo://app?vid=43ba7a1f-7371-4f25-a2ea-7d72f4cd049c","ios":"levelo://app?vid=43ba7a1f-7371-4f25-a2ea-7d72f4cd049c"},"vehicle_type_id":"4","last_reported":1729408078,"current_range_meters":39200,"station_id":"ce4bgup2rcd13ifvqcn0","pricing_plan_id":"cebpf4jnsgd1na2vs0mg"},{"bike_id":"f002ff7c-8d7f-4b30-a59b-b17d6e6e6eba","system_id":"levelo_inurba_marseille","lat":43.326627,"lon":5.409873,"is_reserved":false,"is_disabled":false,"rental_uris":{"android":"levelo://app?vid=f002ff7c-8d7f-4b30-a59b-b17d6e6e6eba","ios":"levelo://app?vid=f002ff7c-8d7f-4b30-a59b-b17d6e6e6eba"},"vehicle_type_id":"4","last_reported":1729408078,"current_range_meters":11200,"station_id":"ce4bhpp2rcd13ifvqhgg","pricing_plan_id":"cebpf4jnsgd1na2vs0mg"},{"bike_id":"474ccd54-d884-4c48-ac27-1f7190ae4438","system_id":"levelo_inurba_marseille","lat":43.33721,"lon":5.3919,"is_reserved":false,"is_disabled":false,"rental_uris":{"android":"levelo://app?vid=474ccd54-d884-4c48-ac27-1f7190ae4438","ios":"levelo://app?vid=474ccd54-d884-4c48-ac27-1f7190ae4438"},"vehicle_type_id":"4","last_reported":1729408078,"current_range_meters":8400,"station_id":"ce4bhr92rcd13ifvqhsg","pricing_plan_id":"cebpf4jnsgd1na2vs0mg"},{"bike_id":"e07dac2c-5cff-4a50-b639-04e0bb7be902","system_id":"levelo_inurba_marseille","lat":43.284671,"lon":5.358924,"is_reserved":false,"is_disabled":false,"rental_uris":{"android":"levelo://app?vid=e07dac2c-5cff-4a50-b639-04e0bb7be902","ios":"levelo://app?vid=e07dac2c-5cff-4a50-b639-04e0bb7be902"},"vehicle_type_id":"4","last_reported":1729408078,"current_range_meters":38000,"station_id":"ce4bhah2rcd13ifvqei0","pricing_plan_id":"cebpf4jnsgd1na2vs0mg"},{"bike_id":"ca3a98fb-1eae-48f5-aca4-b718a35664a0","system_id":"levelo_inurba_marseille","lat":43.32339,"lon":5.40617,"is_reserved":false,"is_disabled":false,"rental_uris":{"android":"levelo://app?vid=ca3a98fb-1eae-48f5-aca4-b718a35664a0","ios":"levelo://app?vid=ca3a98fb-1eae-48f5-aca4-b718a35664a0"},"vehicle_type_id":"4","last_reported":1729408078,"current_range_meters":38800,"station_id":"ce4bhq92rcd13ifvqhjg","pricing_plan_id":"cebpf4jnsgd1na2vs0mg"},{"bike_id":"f75bac43-de1c-46ee-b029-720a38aa18a4","system_id":"levelo_inurba_marseille","lat":43.28609,"lon":5.35095,"is_reserved":false,"is_disabled":false,"rental_uris":{"android":"levelo://app?vid=f75bac43-de1c-46ee-b029-720a38aa18a4","ios":"levelo://app?vid=f75bac43-de1c-46ee-b029-720a38aa18a4"},"vehicle_type_id":"4","last_reported":1729408078,"current_range_meters":38000,"station_id":"ce4bhch2rcd13ifvqeug","pricing_plan_id":"cebpf4jnsgd1na2vs0mg"},{"bike_id":"4b3a7b1d-1156-4149-b46d-f67ecf2f601f","system_id":"levelo_inurba_marseille","lat":43.3047,"lon":5.37894,"is_reserved":false,"is_disabled":false,"rental_uris":{"android":"levelo://app?vid=4b3a7b1d-1156-4149-b46d-f67ecf2f601f","ios":"levelo://app?vid=4b3a7b1d-1156-4149-b46d-f67ecf2f601f"},"vehicle_type_id":"4","last_reported":1729408078,"current_range_meters":36000,"station_id":"ce4bgup2rcd13ifvqcn0","pricing_plan_id":"cebpf4jnsgd1na2vs0mg"},{"bike_id":"736b8fa1-3177-4558-9d6e-81abc0207e97","system_id":"levelo_inurba_marseille","lat":43.279052,"lon":5.380105,"is_reserved":false,"is_disabled":false,"rental_uris":{"android":"levelo://app?vid=736b8fa1-3177-4558-9d6e-81abc0207e97","ios":"levelo://app?vid=736b8fa1-3177-4558-9d6e-81abc0207e97"},"vehicle_type_id":"4","last_reported":1729408078,"current_range_meters":19200,"station_id":"ce4bhf92rcd13ifvqf50","pricing_plan_id":"cebpf4jnsgd1na2vs0mg"},{"bike_id":"f3b69c34-10e7-4317-9526-21af752e0d86","system_id":"levelo_inurba_marseille","lat":43.27613,"lon":5.36118,"is_reserved":false,"is_disabled":false,"rental_uris":{"android":"levelo://app?vid=f3b69c34-10e7-4317-9526-21af752e0d86","ios":"levelo://app?vid=f3b69c34-10e7-4317-9526-21af752e0d86"},"vehicle_type_id":"4","last_reported":1729408078,"current_range_meters":38400,"station_id":"ce4bgj92rcd13ifvqbe0","pricing_plan_id":"cebpf4jnsgd1na2vs0mg"},{"bike_id":"45ceb560-a8c0-4a30-8f76-689582c39d38","system_id":"levelo_inurba_marseille","lat":43.30876,"lon":5.39652,"is_reserved":false,"is_disabled":false,"rental_uris":{"android":"levelo://app?vid=45ceb560-a8c0-4a30-8f76-689582c39d38","ios":"levelo://app?vid=45ceb560-a8c0-4a30-8f76-689582c39d38"},"vehicle_type_id":"4","last_reported":1729408078,"current_range_meters":10800,"station_id":"ce4bh012rcd13ifvqcv0","pricing_plan_id":"cebpf4jnsgd1na2vs0mg"},{"bike_id":"5684823b-d640-4e9a-9bac-38e172ce7408","system_id":"levelo_inurba_marseille","lat":43.32479,"lon":5.3656,"is_reserved":false,"is_disabled":false,"rental_uris":{"android":"levelo://app?vid=5684823b-d640-4e9a-9bac-38e172ce7408","ios":"levelo://app?vid=5684823b-d640-4e9a-9bac-38e172ce7408"},"vehicle_type_id":"4","last_reported":1729408078,"current_range_meters":38000,"station_id":"ce4bhs12rcd13ifvqhvg","pricing_plan_id":"cebpf4jnsgd1na2vs0mg"},{"bike_id":"066f1cff-74a7-4b76-8793-d4c6512c30f8","system_id":"levelo_inurba_marseille","lat":43.25373,"lon":5.39455,"is_reserved":false,"is_disabled":false,"rental_uris":{"android":"levelo://app?vid=066f1cff-74a7-4b76-8793-d4c6512c30f8","ios":"levelo://app?vid=066f1cff-74a7-4b76-8793-d4c6512c30f8"},"vehicle_type_id":"4","last_reported":1729408078,"current_range_meters":37600,"station_id":"ce4bhh92rcd13ifvqfj0","pricing_plan_id":"cebpf4jnsgd1na2vs0mg"},{"bike_id":"9d912eba-02a5-41c2-8d48-c02ba9a29689","system_id":"levelo_inurba_marseille","lat":43.27482,"lon":5.42456,"is_reserved":false,"is_disabled":false,"rental_uris":{"android":"levelo://app?vid=9d912eba-02a5-41c2-8d48-c02ba9a29689","ios":"levelo://app?vid=9d912eba-02a5-41c2-8d48-c02ba9a29689"},"vehicle_type_id":"4","last_reported":1729408078,"current_range_meters":36800,"station_id":"ce4bhn92rcd13ifvqgrg","pricing_plan_id":"cebpf4jnsgd1na2vs0mg"},{"bike_id":"98f7b4ed-0d9f-453b-9176-41ebd99c3142","system_id":"levelo_inurba_marseille","lat":43.336,"lon":5.41019,"is_reserved":false,"is_disabled":false,"rental_uris":{"android":"levelo://app?vid=98f7b4ed-0d9f-453b-9176-41ebd99c3142","ios":"levelo://app?vid=98f7b4ed-0d9f-453b-9176-41ebd99c3142"},"vehicle_type_id":"4","last_reported":1729408078,"current_range_meters":38000,"station_id":"ce4bhqh2rcd13ifvqhmg","pricing_plan_id":"cebpf4jnsgd1na2vs0mg"},{"bike_id":"d85aed35-4005-4c2e-863d-273016e09085","system_id":"levelo_inurba_marseille","lat":43.24394,"lon":5.37059,"is_reserved":false,"is_disabled":false,"rental_uris":{"android":"levelo://app?vid=d85aed35-4005-4c2e-863d-273016e09085","ios":"levelo://app?vid=d85aed35-4005-4c2e-863d-273016e09085"},"vehicle_type_id":"4","last_reported":1729408078,"current_range_meters":30800,"station_id":"ce4bhhh2rcd13ifvqfk0","pricing_plan_id":"cebpf4jnsgd1na2vs0mg"},{"bike_id":"a271bdd0-8735-4737-9887-7e1fad0a3b13","system_id":"levelo_inurba_marseille","lat":43.275573,"lon":5.384281,"is_reserved":false,"is_disabled":false,"rental_uris":{"android":"levelo://app?vid=a271bdd0-8735-4737-9887-7e1fad0a3b13","ios":"levelo://app?vid=a271bdd0-8735-4737-9887-7e1fad0a3b13"},"vehicle_type_id":"4","last_reported":1729408078,"current_range_meters":13600,"station_id":"ce4bhh92rcd13ifvqfi0","pricing_plan_id":"cebpf4jnsgd1na2vs0mg"},{"bike_id":"6c4ce779-9e86-402c-ba93-f5e7946ad1de","system_id":"levelo_inurba_marseille","lat":43.30474,"lon":5.37897,"is_reserved":false,"is_disabled":false,"rental_uris":{"android":"levelo://app?vid=6c4ce779-9e86-402c-ba93-f5e7946ad1de","ios":"levelo://app?vid=6c4ce779-9e86-402c-ba93-f5e7946ad1de"},"vehicle_type_id":"4","last_reported":1729408078,"current_range_meters":34800,"station_id":"ce4bgup2rcd13ifvqcn0","pricing_plan_id":"cebpf4jnsgd1na2vs0mg"},{"bike_id":"9fa7c963-2f9d-4588-8236-ff860a4358c6","system_id":"levelo_inurba_marseille","lat":43.27384,"lon":5.36252,"is_reserved":false,"is_disabled":false,"rental_uris":{"android":"levelo://app?vid=9fa7c963-2f9d-4588-8236-ff860a4358c6","ios":"levelo://app?vid=9fa7c963-2f9d-4588-8236-ff860a4358c6"},"vehicle_type_id":"4","last_reported":1729408078,"current_range_meters":37600,"station_id":"ce4bhbh2rcd13ifvqeo0","pricing_plan_id":"cebpf4jnsgd1na2vs0mg"},{"bike_id":"68ecf5b1-3e27-4073-bcfd-9b4d888b6f5c","system_id":"levelo_inurba_marseille","lat":43.32112,"lon":5.36782,"is_reserved":false,"is_disabled":false,"rental_uris":{"android":"levelo://app?vid=68ecf5b1-3e27-4073-bcfd-9b4d888b6f5c","ios":"levelo://app?vid=68ecf5b1-3e27-4073-bcfd-9b4d888b6f5c"},"vehicle_type_id":"4","last_reported":1729408078,"current_range_meters":37600,"station_id":"ce4bhrh2rcd13ifvqhug","pricing_plan_id":"cebpf4jnsgd1na2vs0mg"},{"bike_id":"289b0bcc-b64b-401a-b6bf-b24c6264c2b9","system_id":"levelo_inurba_marseille","lat":43.32531,"lon":5.41445,"is_reserved":false,"is_disabled":false,"rental_uris":{"android":"levelo://app?vid=289b0bcc-b64b-401a-b6bf-b24c6264c2b9","ios":"levelo://app?vid=289b0bcc-b64b-401a-b6bf-b24c6264c2b9"},"vehicle_type_id":"4","last_reported":1729408078,"current_range_meters":39200,"station_id":"ce4bhq12rcd13ifvqhhg","pricing_plan_id":"cebpf4jnsgd1na2vs0mg"},{"bike_id":"3e5d498e-183c-4c41-b322-8b3d2a14059a","system_id":"levelo_inurba_marseille","lat":43.29614,"lon":5.37725,"is_reserved":false,"is_disabled":false,"rental_uris":{"android":"levelo://app?vid=3e5d498e-183c-4c41-b322-8b3d2a14059a","ios":"levelo://app?vid=3e5d498e-183c-4c41-b322-8b3d2a14059a"},"vehicle_type_id":"4","last_reported":1729408078,"current_range_meters":35600,"station_id":"ce4bgi92rcd13ifvqb90","pricing_plan_id":"cebpf4jnsgd1na2vs0mg"},{"bike_id":"6c4fed87-6be3-4d97-9301-4412accaca73","system_id":"levelo_inurba_marseille","lat":43.23952,"lon":5.36647,"is_reserved":false,"is_disabled":false,"rental_uris":{"android":"levelo://app?vid=6c4fed87-6be3-4d97-9301-4412accaca73","ios":"levelo://app?vid=6c4fed87-6be3-4d97-9301-4412accaca73"},"vehicle_type_id":"4","last_reported":1729408078,"current_range_meters":24400,"station_id":"ce4bhi12rcd13ifvqfp0","pricing_plan_id":"cebpf4jnsgd1na2vs0mg"},{"bike_id":"348163b3-efb0-444b-bc94-f06b350a41f7","system_id":"levelo_inurba_marseille","lat":43.29965,"lon":5.41326,"is_reserved":false,"is_disabled":false,"rental_uris":{"android":"levelo://app?vid=348163b3-efb0-444b-bc94-f06b350a41f7","ios":"levelo://app?vid=348163b3-efb0-444b-bc94-f06b350a41f7"},"vehicle_type_id":"4","last_reported":1729408078,"current_range_meters":32000,"station_id":"ce4bhp12rcd13ifvqh9g","pricing_plan_id":"cebpf4jnsgd1na2vs0mg"},{"bike_id":"f7207608-1141-4390-a077-b1eca2449690","system_id":"levelo_inurba_marseille","lat":43.26202,"lon":5.37923,"is_reserved":false,"is_disabled":false,"rental_uris":{"android":"levelo://app?vid=f7207608-1141-4390-a077-b1eca2449690","ios":"levelo://app?vid=f7207608-1141-4390-a077-b1eca2449690"},"vehicle_type_id":"4","last_reported":1729408078,"current_range_meters":39200,"station_id":"ce4bhjp2rcd13ifvqg90","pricing_plan_id":"cebpf4jnsgd1na2vs0mg"},{"bike_id":"90df3600-4649-48cc-bb49-e6d37a98564b","system_id":"levelo_inurba_marseille","lat":43.29022,"lon":5.38646,"is_reserved":false,"is_disabled":false,"rental_uris":{"android":"levelo://app?vid=90df3600-4649-48cc-bb49-e6d37a98564b","ios":"levelo://app?vid=90df3600-4649-48cc-bb49-e6d37a98564b"},"vehicle_type_id":"4","last_reported":1729408078,"current_range_meters":38800,"station_id":"ce4bh4p2rcd13ifvqe0g","pricing_plan_id":"cebpf4jnsgd1na2vs0mg"},{"bike_id":"d6705838-4779-4c07-bcd8-e488b02b05d4","system_id":"levelo_inurba_marseille","lat":43.30889,"lon":5.39643,"is_reserved":false,"is_disabled":false,"rental_uris":{"android":"levelo://app?vid=d6705838-4779-4c07-bcd8-e488b02b05d4","ios":"levelo://app?vid=d6705838-4779-4c07-bcd8-e488b02b05d4"},"vehicle_type_id":"4","last_reported":1729408078,"current_range_meters":36000,"station_id":"ce4bh012rcd13ifvqcv0","pricing_plan_id":"cebpf4jnsgd1na2vs0mg"},{"bike_id":"b3739b06-57bc-4d0a-9a67-35d60acb1897","system_id":"levelo_inurba_marseille","lat":43.29229,"lon":5.36058,"is_reserved":false,"is_disabled":false,"rental_uris":{"android":"levelo://app?vid=b3739b06-57bc-4d0a-9a67-35d60acb1897","ios":"levelo://app?vid=b3739b06-57bc-4d0a-9a67-35d60acb1897"},"vehicle_type_id":"4","last_reported":1729408078,"current_range_meters":36800,"station_id":"ce4bhbh2rcd13ifvqeqg","pricing_plan_id":"cebpf4jnsgd1na2vs0mg"},{"bike_id":"57dd0012-e7c2-43e3-90a1-087125ac63fa","system_id":"levelo_inurba_marseille","lat":43.33753,"lon":5.37454,"is_reserved":false,"is_disabled":false,"rental_uris":{"android":"levelo://app?vid=57dd0012-e7c2-43e3-90a1-087125ac63fa","ios":"levelo://app?vid=57dd0012-e7c2-43e3-90a1-087125ac63fa"},"vehicle_type_id":"4","last_reported":1729408078,"current_range_meters":36000,"station_id":"","pricing_plan_id":"cebpf4jnsgd1na2vs0mg"},{"bike_id":"d0c5a1c1-66a9-4933-b464-9142a7c2b7a1","system_id":"levelo_inurba_marseille","lat":43.28454,"lon":5.35896,"is_reserved":false,"is_disabled":false,"rental_uris":{"android":"levelo://app?vid=d0c5a1c1-66a9-4933-b464-9142a7c2b7a1","ios":"levelo://app?vid=d0c5a1c1-66a9-4933-b464-9142a7c2b7a1"},"vehicle_type_id":"4","last_reported":1729408078,"current_range_meters":27600,"station_id":"ce4bhah2rcd13ifvqei0","pricing_plan_id":"cebpf4jnsgd1na2vs0mg"},{"bike_id":"498a4553-90fb-47c5-90fd-181a86ef019e","system_id":"levelo_inurba_marseille","lat":43.27177,"lon":5.40985,"is_reserved":false,"is_disabled":false,"rental_uris":{"android":"levelo://app?vid=498a4553-90fb-47c5-90fd-181a86ef019e","ios":"levelo://app?vid=498a4553-90fb-47c5-90fd-181a86ef019e"},"vehicle_type_id":"4","last_reported":1729408078,"current_range_meters":27600,"station_id":"ce4bhl12rcd13ifvqgf0","pricing_plan_id":"cebpf4jnsgd1na2vs0mg"},{"bike_id":"fd120257-b182-4344-8733-fb96bf49725c","system_id":"levelo_inurba_marseille","lat":43.30458,"lon":5.37901,"is_reserved":false,"is_disabled":false,"rental_uris":{"android":"levelo://app?vid=fd120257-b182-4344-8733-fb96bf49725c","ios":"levelo://app?vid=fd120257-b182-4344-8733-fb96bf49725c"},"vehicle_type_id":"4","last_reported":1729408078,"current_range_meters":36800,"station_id":"ce4bgup2rcd13ifvqcn0","pricing_plan_id":"cebpf4jnsgd1na2vs0mg"},{"bike_id":"52139088-9b52-4cc6-8ada-499878d0a5ff","system_id":"levelo_inurba_marseille","lat":43.30155,"lon":5.3809,"is_reserved":false,"is_disabled":false,"rental_uris":{"android":"levelo://app?vid=52139088-9b52-4cc6-8ada-499878d0a5ff","ios":"levelo://app?vid=52139088-9b52-4cc6-8ada-499878d0a5ff"},"vehicle_type_id":"4","last_reported":1729408078,"current_range_meters":39200,"station_id":"ce4bgk12rcd13ifvqbi0","pricing_plan_id":"cebpf4jnsgd1na2vs0mg"},{"bike_id":"e92b997a-b92a-43d3-8735-21181860b167","system_id":"levelo_inurba_marseille","lat":43.28726,"lon":5.36098,"is_reserved":false,"is_disabled":false,"rental_uris":{"android":"levelo://app?vid=e92b997a-b92a-43d3-8735-21181860b167","ios":"levelo://app?vid=e92b997a-b92a-43d3-8735-21181860b167"},"vehicle_type_id":"4","last_reported":1729408078,"current_range_meters":39200,"station_id":"cki0cbj6b192h4jlfktg","pricing_plan_id":"cebpf4jnsgd1na2vs0mg"},{"bike_id":"33d7d198-7377-4437-a113-8bb472e93958","system_id":"levelo_inurba_marseille","lat":43.26556,"lon":5.37293,"is_reserved":false,"is_disabled":false,"rental_uris":{"android":"levelo://app?vid=33d7d198-7377-4437-a113-8bb472e93958","ios":"levelo://app?vid=33d7d198-7377-4437-a113-8bb472e93958"},"vehicle_type_id":"4","last_reported":1729408078,"current_range_meters":35600,"station_id":"ce4bhg12rcd13ifvqf70","pricing_plan_id":"cebpf4jnsgd1na2vs0mg"},{"bike_id":"b06b08ee-6d63-4ac9-bf8b-724a84ccfa80","system_id":"levelo_inurba_marseille","lat":43.31686,"lon":5.40467,"is_reserved":false,"is_disabled":false,"rental_uris":{"android":"levelo://app?vid=b06b08ee-6d63-4ac9-bf8b-724a84ccfa80","ios":"levelo://app?vid=b06b08ee-6d63-4ac9-bf8b-724a84ccfa80"},"vehicle_type_id":"4","last_reported":1729408078,"current_range_meters":4400,"station_id":"ce4bh012rcd13ifvqd00","pricing_plan_id":"cebpf4jnsgd1na2vs0mg"},{"bike_id":"390c511b-54c3-4464-9557-2ac33896af8d","system_id":"levelo_inurba_marseille","lat":43.30936,"lon":5.401407,"is_reserved":false,"is_disabled":false,"rental_uris":{"android":"levelo://app?vid=390c511b-54c3-4464-9557-2ac33896af8d","ios":"levelo://app?vid=390c511b-54c3-4464-9557-2ac33896af8d"},"vehicle_type_id":"4","last_reported":1729408078,"current_range_meters":7200,"station_id":"ce4bgvp2rcd13ifvqct0","pricing_plan_id":"cebpf4jnsgd1na2vs0mg"},{"bike_id":"970ce056-93b7-4b51-889b-8fcf2f52c05f","system_id":"levelo_inurba_marseille","lat":43.24546,"lon":5.39519,"is_reserved":false,"is_disabled":false,"rental_uris":{"android":"levelo://app?vid=970ce056-93b7-4b51-889b-8fcf2f52c05f","ios":"levelo://app?vid=970ce056-93b7-4b51-889b-8fcf2f52c05f"},"vehicle_type_id":"4","last_reported":1729408078,"current_range_meters":8400,"station_id":"ce4bhlp2rcd13ifvqgjg","pricing_plan_id":"cebpf4jnsgd1na2vs0mg"},{"bike_id":"dd1a312a-55dd-4ec7-869f-03b40c85e025","system_id":"levelo_inurba_marseille","lat":43.29628,"lon":5.40592,"is_reserved":false,"is_disabled":false,"rental_uris":{"android":"levelo://app?vid=dd1a312a-55dd-4ec7-869f-03b40c85e025","ios":"levelo://app?vid=dd1a312a-55dd-4ec7-869f-03b40c85e025"},"vehicle_type_id":"4","last_reported":1729408078,"current_range_meters":36800,"station_id":"ce4bh0h2rcd13ifvqd60","pricing_plan_id":"cebpf4jnsgd1na2vs0mg"},{"bike_id":"e97fcdb5-1961-42b4-a125-c53d570f0136","system_id":"levelo_inurba_marseille","lat":43.27899,"lon":5.3959,"is_reserved":false,"is_disabled":false,"rental_uris":{"android":"levelo://app?vid=e97fcdb5-1961-42b4-a125-c53d570f0136","ios":"levelo://app?vid=e97fcdb5-1961-42b4-a125-c53d570f0136"},"vehicle_type_id":"4","last_reported":1729408078,"current_range_meters":38800,"station_id":"ce4bhf92rcd13ifvqf40","pricing_plan_id":"cebpf4jnsgd1na2vs0mg"},{"bike_id":"ce758863-95f9-429c-887a-9235d3270663","system_id":"levelo_inurba_marseille","lat":43.24991,"lon":5.38923,"is_reserved":false,"is_disabled":false,"rental_uris":{"android":"levelo://app?vid=ce758863-95f9-429c-887a-9235d3270663","ios":"levelo://app?vid=ce758863-95f9-429c-887a-9235d3270663"},"vehicle_type_id":"4","last_reported":1729408078,"current_range_meters":22400,"station_id":"ce4bhgp2rcd13ifvqfd0","pricing_plan_id":"cebpf4jnsgd1na2vs0mg"},{"bike_id":"0267b95f-f262-4fa3-9ef3-3d2f4f626c6f","system_id":"levelo_inurba_marseille","lat":43.25112,"lon":5.40322,"is_reserved":false,"is_disabled":false,"rental_uris":{"android":"levelo://app?vid=0267b95f-f262-4fa3-9ef3-3d2f4f626c6f","ios":"levelo://app?vid=0267b95f-f262-4fa3-9ef3-3d2f4f626c6f"},"vehicle_type_id":"4","last_reported":1729408078,"current_range_meters":39200,"station_id":"ce4bhlh2rcd13ifvqgig","pricing_plan_id":"cebpf4jnsgd1na2vs0mg"},{"bike_id":"a533abe5-dac1-401a-9d02-f2c113b84f4f","system_id":"levelo_inurba_marseille","lat":43.28933,"lon":5.36392,"is_reserved":false,"is_disabled":false,"rental_uris":{"android":"levelo://app?vid=a533abe5-dac1-401a-9d02-f2c113b84f4f","ios":"levelo://app?vid=a533abe5-dac1-401a-9d02-f2c113b84f4f"},"vehicle_type_id":"4","last_reported":1729408078,"current_range_meters":39200,"station_id":"ce4bhc92rcd13ifvqetg","pricing_plan_id":"cebpf4jnsgd1na2vs0mg"},{"bike_id":"e8b3df60-01e0-45e7-8b61-61d52e175cbb","system_id":"levelo_inurba_marseille","lat":43.28105,"lon":5.37842,"is_reserved":false,"is_disabled":false,"rental_uris":{"android":"levelo://app?vid=e8b3df60-01e0-45e7-8b61-61d52e175cbb","ios":"levelo://app?vid=e8b3df60-01e0-45e7-8b61-61d52e175cbb"},"vehicle_type_id":"4","last_reported":1729408078,"current_range_meters":38000,"station_id":"ce4bha12rcd13ifvqee0","pricing_plan_id":"cebpf4jnsgd1na2vs0mg"},{"bike_id":"b88b0471-3e76-49b0-9ff7-c71e4fc07cd2","system_id":"levelo_inurba_marseille","lat":43.265676,"lon":5.390142,"is_reserved":false,"is_disabled":false,"rental_uris":{"android":"levelo://app?vid=b88b0471-3e76-49b0-9ff7-c71e4fc07cd2","ios":"levelo://app?vid=b88b0471-3e76-49b0-9ff7-c71e4fc07cd2"},"vehicle_type_id":"4","last_reported":1729408078,"current_range_meters":38400,"station_id":"ce4bhe12rcd13ifvqf30","pricing_plan_id":"cebpf4jnsgd1na2vs0mg"},{"bike_id":"343aa4d1-f953-489c-ab86-dc9d91d2a18b","system_id":"levelo_inurba_marseille","lat":43.30383,"lon":5.37006,"is_reserved":false,"is_disabled":false,"rental_uris":{"android":"levelo://app?vid=343aa4d1-f953-489c-ab86-dc9d91d2a18b","ios":"levelo://app?vid=343aa4d1-f953-489c-ab86-dc9d91d2a18b"},"vehicle_type_id":"4","last_reported":1729408078,"current_range_meters":24800,"station_id":"ce4bgnh2rcd13ifvqc0g","pricing_plan_id":"cebpf4jnsgd1na2vs0mg"},{"bike_id":"3fc3344c-8b02-4a3d-b256-2e7a5003b4bf","system_id":"levelo_inurba_marseille","lat":43.23964,"lon":5.36641,"is_reserved":false,"is_disabled":false,"rental_uris":{"android":"levelo://app?vid=3fc3344c-8b02-4a3d-b256-2e7a5003b4bf","ios":"levelo://app?vid=3fc3344c-8b02-4a3d-b256-2e7a5003b4bf"},"vehicle_type_id":"4","last_reported":1729408078,"current_range_meters":12800,"station_id":"ce4bhi12rcd13ifvqfp0","pricing_plan_id":"cebpf4jnsgd1na2vs0mg"},{"bike_id":"cd8b1232-f97c-45b7-9700-909bc3a499a7","system_id":"levelo_inurba_marseille","lat":43.2847,"lon":5.38552,"is_reserved":false,"is_disabled":false,"rental_uris":{"android":"levelo://app?vid=cd8b1232-f97c-45b7-9700-909bc3a499a7","ios":"levelo://app?vid=cd8b1232-f97c-45b7-9700-909bc3a499a7"},"vehicle_type_id":"4","last_reported":1729408078,"current_range_meters":38800,"station_id":"ce4bh8p2rcd13ifvqeb0","pricing_plan_id":"cebpf4jnsgd1na2vs0mg"},{"bike_id":"ec0e8be9-214b-41af-905e-f0447d0d6399","system_id":"levelo_inurba_marseille","lat":43.29549,"lon":5.42286,"is_reserved":false,"is_disabled":false,"rental_uris":{"android":"levelo://app?vid=ec0e8be9-214b-41af-905e-f0447d0d6399","ios":"levelo://app?vid=ec0e8be9-214b-41af-905e-f0447d0d6399"},"vehicle_type_id":"4","last_reported":1729408078,"current_range_meters":36400,"station_id":"ce4bhph2rcd13ifvqhdg","pricing_plan_id":"cebpf4jnsgd1na2vs0mg"},{"bike_id":"4fd31807-69bb-4ddb-a239-d5805c940fdf","system_id":"levelo_inurba_marseille","lat":43.30458,"lon":5.37899,"is_reserved":false,"is_disabled":false,"rental_uris":{"android":"levelo://app?vid=4fd31807-69bb-4ddb-a239-d5805c940fdf","ios":"levelo://app?vid=4fd31807-69bb-4ddb-a239-d5805c940fdf"},"vehicle_type_id":"4","last_reported":1729408078,"current_range_meters":38400,"station_id":"ce4bgup2rcd13ifvqcn0","pricing_plan_id":"cebpf4jnsgd1na2vs0mg"},{"bike_id":"a6351717-4546-43b2-bb8d-4cf8fc271544","system_id":"levelo_inurba_marseille","lat":43.28417,"lon":5.34982,"is_reserved":false,"is_disabled":false,"rental_uris":{"android":"levelo://app?vid=a6351717-4546-43b2-bb8d-4cf8fc271544","ios":"levelo://app?vid=a6351717-4546-43b2-bb8d-4cf8fc271544"},"vehicle_type_id":"4","last_reported":1729408078,"current_range_meters":36000,"station_id":"ce4bhbh2rcd13ifvqepg","pricing_plan_id":"cebpf4jnsgd1na2vs0mg"},{"bike_id":"6cf6e3f2-d67f-4577-85be-79bfa89d8097","system_id":"levelo_inurba_marseille","lat":43.284675,"lon":5.359,"is_reserved":false,"is_disabled":false,"rental_uris":{"android":"levelo://app?vid=6cf6e3f2-d67f-4577-85be-79bfa89d8097","ios":"levelo://app?vid=6cf6e3f2-d67f-4577-85be-79bfa89d8097"},"vehicle_type_id":"4","last_reported":1729408078,"current_range_meters":38800,"station_id":"ce4bhah2rcd13ifvqei0","pricing_plan_id":"cebpf4jnsgd1na2vs0mg"},{"bike_id":"eebe0e24-0f4d-4bb8-8747-b2774ddf6874","system_id":"levelo_inurba_marseille","lat":43.25082,"lon":5.39512,"is_reserved":false,"is_disabled":false,"rental_uris":{"android":"levelo://app?vid=eebe0e24-0f4d-4bb8-8747-b2774ddf6874","ios":"levelo://app?vid=eebe0e24-0f4d-4bb8-8747-b2774ddf6874"},"vehicle_type_id":"4","last_reported":1729408078,"current_range_meters":39200,"station_id":"ce4bhm12rcd13ifvqgkg","pricing_plan_id":"cebpf4jnsgd1na2vs0mg"},{"bike_id":"e2198d75-ec0b-45d7-b6f6-08bbbe60882a","system_id":"levelo_inurba_marseille","lat":43.33019,"lon":5.39043,"is_reserved":false,"is_disabled":false,"rental_uris":{"android":"levelo://app?vid=e2198d75-ec0b-45d7-b6f6-08bbbe60882a","ios":"levelo://app?vid=e2198d75-ec0b-45d7-b6f6-08bbbe60882a"},"vehicle_type_id":"4","last_reported":1729408078,"current_range_meters":39200,"station_id":"ce4bhr92rcd13ifvqhrg","pricing_plan_id":"cebpf4jnsgd1na2vs0mg"},{"bike_id":"9032d96b-507c-452d-97c0-38b7559bf1f5","system_id":"levelo_inurba_marseille","lat":43.27374,"lon":5.3626,"is_reserved":false,"is_disabled":false,"rental_uris":{"android":"levelo://app?vid=9032d96b-507c-452d-97c0-38b7559bf1f5","ios":"levelo://app?vid=9032d96b-507c-452d-97c0-38b7559bf1f5"},"vehicle_type_id":"4","last_reported":1729408078,"current_range_meters":34000,"station_id":"ce4bhbh2rcd13ifvqeo0","pricing_plan_id":"cebpf4jnsgd1na2vs0mg"},{"bike_id":"e3b6f8d6-715d-433b-8ab0-718ff6b21ad1","system_id":"levelo_inurba_marseille","lat":43.27067,"lon":5.42272,"is_reserved":false,"is_disabled":false,"rental_uris":{"android":"levelo://app?vid=e3b6f8d6-715d-433b-8ab0-718ff6b21ad1","ios":"levelo://app?vid=e3b6f8d6-715d-433b-8ab0-718ff6b21ad1"},"vehicle_type_id":"4","last_reported":1729408078,"current_range_meters":8800,"station_id":"ce4bhk92rcd13ifvqgb0","pricing_plan_id":"cebpf4jnsgd1na2vs0mg"},{"bike_id":"fca55886-769e-4104-8bc2-0030b8dbff79","system_id":"levelo_inurba_marseille","lat":43.24083,"lon":5.37738,"is_reserved":false,"is_disabled":false,"rental_uris":{"android":"levelo://app?vid=fca55886-769e-4104-8bc2-0030b8dbff79","ios":"levelo://app?vid=fca55886-769e-4104-8bc2-0030b8dbff79"},"vehicle_type_id":"4","last_reported":1729408078,"current_range_meters":38400,"station_id":"ce4bhnp2rcd13ifvqgvg","pricing_plan_id":"cebpf4jnsgd1na2vs0mg"},{"bike_id":"6bd60844-0daf-48b6-b3fe-59f881da13ca","system_id":"levelo_inurba_marseille","lat":43.32481,"lon":5.3656,"is_reserved":false,"is_disabled":false,"rental_uris":{"android":"levelo://app?vid=6bd60844-0daf-48b6-b3fe-59f881da13ca","ios":"levelo://app?vid=6bd60844-0daf-48b6-b3fe-59f881da13ca"},"vehicle_type_id":"4","last_reported":1729408078,"current_range_meters":39200,"station_id":"ce4bhs12rcd13ifvqhvg","pricing_plan_id":"cebpf4jnsgd1na2vs0mg"},{"bike_id":"35e7f867-368c-476c-a860-684a9be05389","system_id":"levelo_inurba_marseille","lat":43.26557,"lon":5.39006,"is_reserved":false,"is_disabled":false,"rental_uris":{"android":"levelo://app?vid=35e7f867-368c-476c-a860-684a9be05389","ios":"levelo://app?vid=35e7f867-368c-476c-a860-684a9be05389"},"vehicle_type_id":"4","last_reported":1729408078,"current_range_meters":36400,"station_id":"ce4bhe12rcd13ifvqf30","pricing_plan_id":"cebpf4jnsgd1na2vs0mg"},{"bike_id":"25ab302b-1201-45e2-9143-4ec4ea699a05","system_id":"levelo_inurba_marseille","lat":43.27907,"lon":5.3959,"is_reserved":false,"is_disabled":false,"rental_uris":{"android":"levelo://app?vid=25ab302b-1201-45e2-9143-4ec4ea699a05","ios":"levelo://app?vid=25ab302b-1201-45e2-9143-4ec4ea699a05"},"vehicle_type_id":"4","last_reported":1729408078,"current_range_meters":20800,"station_id":"ce4bhf92rcd13ifvqf40","pricing_plan_id":"cebpf4jnsgd1na2vs0mg"},{"bike_id":"98c72085-a267-4e25-82a8-7cad096f4563","system_id":"levelo_inurba_marseille","lat":43.30457,"lon":5.37896,"is_reserved":false,"is_disabled":false,"rental_uris":{"android":"levelo://app?vid=98c72085-a267-4e25-82a8-7cad096f4563","ios":"levelo://app?vid=98c72085-a267-4e25-82a8-7cad096f4563"},"vehicle_type_id":"4","last_reported":1729408078,"current_range_meters":39200,"station_id":"ce4bgup2rcd13ifvqcn0","pricing_plan_id":"cebpf4jnsgd1na2vs0mg"},{"bike_id":"5806356f-5354-4c71-82dd-6abc9ce4a086","system_id":"levelo_inurba_marseille","lat":43.28701,"lon":5.39973,"is_reserved":false,"is_disabled":false,"rental_uris":{"android":"levelo://app?vid=5806356f-5354-4c71-82dd-6abc9ce4a086","ios":"levelo://app?vid=5806356f-5354-4c71-82dd-6abc9ce4a086"},"vehicle_type_id":"4","last_reported":1729408078,"current_range_meters":38800,"station_id":"ce4bho92rcd13ifvqh3g","pricing_plan_id":"cebpf4jnsgd1na2vs0mg"},{"bike_id":"d9924d9a-3ffb-4166-8795-96d1e1801940","system_id":"levelo_inurba_marseille","lat":43.24991,"lon":5.38923,"is_reserved":false,"is_disabled":false,"rental_uris":{"android":"levelo://app?vid=d9924d9a-3ffb-4166-8795-96d1e1801940","ios":"levelo://app?vid=d9924d9a-3ffb-4166-8795-96d1e1801940"},"vehicle_type_id":"4","last_reported":1729408078,"current_range_meters":39200,"station_id":"ce4bhgp2rcd13ifvqfd0","pricing_plan_id":"cebpf4jnsgd1na2vs0mg"},{"bike_id":"d234dac7-4ce3-4348-b72f-a62abb04355c","system_id":"levelo_inurba_marseille","lat":43.27916,"lon":5.39593,"is_reserved":false,"is_disabled":false,"rental_uris":{"android":"levelo://app?vid=d234dac7-4ce3-4348-b72f-a62abb04355c","ios":"levelo://app?vid=d234dac7-4ce3-4348-b72f-a62abb04355c"},"vehicle_type_id":"4","last_reported":1729408078,"current_range_meters":10800,"station_id":"ce4bhf92rcd13ifvqf40","pricing_plan_id":"cebpf4jnsgd1na2vs0mg"},{"bike_id":"2f8b0e9f-b5ad-4ad0-9db2-5dbcdf6f7423","system_id":"levelo_inurba_marseille","lat":43.24385,"lon":5.37048,"is_reserved":false,"is_disabled":false,"rental_uris":{"android":"levelo://app?vid=2f8b0e9f-b5ad-4ad0-9db2-5dbcdf6f7423","ios":"levelo://app?vid=2f8b0e9f-b5ad-4ad0-9db2-5dbcdf6f7423"},"vehicle_type_id":"4","last_reported":1729408078,"current_range_meters":34000,"station_id":"ce4bhhh2rcd13ifvqfk0","pricing_plan_id":"cebpf4jnsgd1na2vs0mg"},{"bike_id":"b10181cc-41ff-4bd7-8376-48a23e3dc7f1","system_id":"levelo_inurba_marseille","lat":43.25858,"lon":5.39904,"is_reserved":false,"is_disabled":false,"rental_uris":{"android":"levelo://app?vid=b10181cc-41ff-4bd7-8376-48a23e3dc7f1","ios":"levelo://app?vid=b10181cc-41ff-4bd7-8376-48a23e3dc7f1"},"vehicle_type_id":"4","last_reported":1729408078,"current_range_meters":30000,"station_id":"ce4bhl92rcd13ifvqghg","pricing_plan_id":"cebpf4jnsgd1na2vs0mg"},{"bike_id":"bdc9eb1f-e84a-472b-9728-39e6924ff743","system_id":"levelo_inurba_marseille","lat":43.26552,"lon":5.37281,"is_reserved":false,"is_disabled":false,"rental_uris":{"android":"levelo://app?vid=bdc9eb1f-e84a-472b-9728-39e6924ff743","ios":"levelo://app?vid=bdc9eb1f-e84a-472b-9728-39e6924ff743"},"vehicle_type_id":"4","last_reported":1729408078,"current_range_meters":38800,"station_id":"ce4bhg12rcd13ifvqf70","pricing_plan_id":"cebpf4jnsgd1na2vs0mg"},{"bike_id":"0c07120c-6a22-4d0f-a500-32eb140d4f3a","system_id":"levelo_inurba_marseille","lat":43.28704,"lon":5.39992,"is_reserved":false,"is_disabled":false,"rental_uris":{"android":"levelo://app?vid=0c07120c-6a22-4d0f-a500-32eb140d4f3a","ios":"levelo://app?vid=0c07120c-6a22-4d0f-a500-32eb140d4f3a"},"vehicle_type_id":"4","last_reported":1729408078,"current_range_meters":37600,"station_id":"ce4bho92rcd13ifvqh3g","pricing_plan_id":"cebpf4jnsgd1na2vs0mg"},{"bike_id":"8d99d55a-7b47-40c1-ad7b-8d15db9ce591","system_id":"levelo_inurba_marseille","lat":43.25114,"lon":5.40315,"is_reserved":false,"is_disabled":false,"rental_uris":{"android":"levelo://app?vid=8d99d55a-7b47-40c1-ad7b-8d15db9ce591","ios":"levelo://app?vid=8d99d55a-7b47-40c1-ad7b-8d15db9ce591"},"vehicle_type_id":"4","last_reported":1729408078,"current_range_meters":37600,"station_id":"ce4bhlh2rcd13ifvqgig","pricing_plan_id":"cebpf4jnsgd1na2vs0mg"},{"bike_id":"0c10c22b-9a13-407e-96da-d240a7081806","system_id":"levelo_inurba_marseille","lat":43.28412,"lon":5.34985,"is_reserved":false,"is_disabled":false,"rental_uris":{"android":"levelo://app?vid=0c10c22b-9a13-407e-96da-d240a7081806","ios":"levelo://app?vid=0c10c22b-9a13-407e-96da-d240a7081806"},"vehicle_type_id":"4","last_reported":1729408078,"current_range_meters":37600,"station_id":"ce4bhbh2rcd13ifvqepg","pricing_plan_id":"cebpf4jnsgd1na2vs0mg"},{"bike_id":"55b3a8f5-19d1-4d08-bf99-ccf2c312bc04","system_id":"levelo_inurba_marseille","lat":43.23187,"lon":5.35552,"is_reserved":false,"is_disabled":false,"rental_uris":{"android":"levelo://app?vid=55b3a8f5-19d1-4d08-bf99-ccf2c312bc04","ios":"levelo://app?vid=55b3a8f5-19d1-4d08-bf99-ccf2c312bc04"},"vehicle_type_id":"4","last_reported":1729408078,"current_range_meters":38800,"station_id":"ce4bhu92rcd13ifvqi70","pricing_plan_id":"cebpf4jnsgd1na2vs0mg"},{"bike_id":"a785f59f-8743-440d-a86a-653e8f4e7925","system_id":"levelo_inurba_marseille","lat":43.29307,"lon":5.37461,"is_reserved":false,"is_disabled":false,"rental_uris":{"android":"levelo://app?vid=a785f59f-8743-440d-a86a-653e8f4e7925","ios":"levelo://app?vid=a785f59f-8743-440d-a86a-653e8f4e7925"},"vehicle_type_id":"4","last_reported":1729408078,"current_range_meters":22800,"station_id":"ce4bgi12rcd13ifvqb70","pricing_plan_id":"cebpf4jnsgd1na2vs0mg"},{"bike_id":"a7bcffac-bd47-4286-bbc6-11ff622c5313","system_id":"levelo_inurba_marseille","lat":43.29229,"lon":5.36069,"is_reserved":false,"is_disabled":false,"rental_uris":{"android":"levelo://app?vid=a7bcffac-bd47-4286-bbc6-11ff622c5313","ios":"levelo://app?vid=a7bcffac-bd47-4286-bbc6-11ff622c5313"},"vehicle_type_id":"4","last_reported":1729408078,"current_range_meters":38800,"station_id":"ce4bhbh2rcd13ifvqeqg","pricing_plan_id":"cebpf4jnsgd1na2vs0mg"},{"bike_id":"b9a67f3d-b2eb-443d-98a9-e1167058c7fb","system_id":"levelo_inurba_marseille","lat":43.24073,"lon":5.37764,"is_reserved":false,"is_disabled":false,"rental_uris":{"android":"levelo://app?vid=b9a67f3d-b2eb-443d-98a9-e1167058c7fb","ios":"levelo://app?vid=b9a67f3d-b2eb-443d-98a9-e1167058c7fb"},"vehicle_type_id":"4","last_reported":1729408078,"current_range_meters":38000,"station_id":"ce4bhnp2rcd13ifvqgvg","pricing_plan_id":"cebpf4jnsgd1na2vs0mg"},{"bike_id":"b7de9dd9-5cc2-4cc4-a2fe-9e58cc422c15","system_id":"levelo_inurba_marseille","lat":43.32343,"lon":5.40624,"is_reserved":false,"is_disabled":false,"rental_uris":{"android":"levelo://app?vid=b7de9dd9-5cc2-4cc4-a2fe-9e58cc422c15","ios":"levelo://app?vid=b7de9dd9-5cc2-4cc4-a2fe-9e58cc422c15"},"vehicle_type_id":"4","last_reported":1729408078,"current_range_meters":24800,"station_id":"ce4bhq92rcd13ifvqhjg","pricing_plan_id":"cebpf4jnsgd1na2vs0mg"},{"bike_id":"43d24770-4ece-4a77-a029-fe46e9bde13b","system_id":"levelo_inurba_marseille","lat":43.31574,"lon":5.37423,"is_reserved":false,"is_disabled":false,"rental_uris":{"android":"levelo://app?vid=43d24770-4ece-4a77-a029-fe46e9bde13b","ios":"levelo://app?vid=43d24770-4ece-4a77-a029-fe46e9bde13b"},"vehicle_type_id":"4","last_reported":1729408078,"current_range_meters":38000,"station_id":"","pricing_plan_id":"cebpf4jnsgd1na2vs0mg"},{"bike_id":"7607f7fa-d9db-4900-9cd5-b43b382ea6b0","system_id":"levelo_inurba_marseille","lat":43.29265,"lon":5.3843,"is_reserved":false,"is_disabled":false,"rental_uris":{"android":"levelo://app?vid=7607f7fa-d9db-4900-9cd5-b43b382ea6b0","ios":"levelo://app?vid=7607f7fa-d9db-4900-9cd5-b43b382ea6b0"},"vehicle_type_id":"4","last_reported":1729408078,"current_range_meters":36800,"station_id":"","pricing_plan_id":"cebpf4jnsgd1na2vs0mg"},{"bike_id":"28db4370-84ab-40a1-ba5d-f49d506458f1","system_id":"levelo_inurba_marseille","lat":43.2846,"lon":5.358852,"is_reserved":false,"is_disabled":false,"rental_uris":{"android":"levelo://app?vid=28db4370-84ab-40a1-ba5d-f49d506458f1","ios":"levelo://app?vid=28db4370-84ab-40a1-ba5d-f49d506458f1"},"vehicle_type_id":"4","last_reported":1729408078,"current_range_meters":10000,"station_id":"ce4bhah2rcd13ifvqei0","pricing_plan_id":"cebpf4jnsgd1na2vs0mg"},{"bike_id":"643721b9-55a6-44b4-9f12-974763206f0f","system_id":"levelo_inurba_marseille","lat":43.29612,"lon":5.37722,"is_reserved":false,"is_disabled":false,"rental_uris":{"android":"levelo://app?vid=643721b9-55a6-44b4-9f12-974763206f0f","ios":"levelo://app?vid=643721b9-55a6-44b4-9f12-974763206f0f"},"vehicle_type_id":"4","last_reported":1729408078,"current_range_meters":38800,"station_id":"ce4bgi92rcd13ifvqb90","pricing_plan_id":"cebpf4jnsgd1na2vs0mg"},{"bike_id":"df0764bb-73ac-46d7-903f-a26945b45d7c","system_id":"levelo_inurba_marseille","lat":43.2462,"lon":5.41597,"is_reserved":false,"is_disabled":false,"rental_uris":{"android":"levelo://app?vid=df0764bb-73ac-46d7-903f-a26945b45d7c","ios":"levelo://app?vid=df0764bb-73ac-46d7-903f-a26945b45d7c"},"vehicle_type_id":"4","last_reported":1729408078,"current_range_meters":25600,"station_id":"","pricing_plan_id":"cebpf4jnsgd1na2vs0mg"},{"bike_id":"766da900-471d-42f5-8cfa-8db494f945d7","system_id":"levelo_inurba_marseille","lat":43.289,"lon":5.46056,"is_reserved":false,"is_disabled":false,"rental_uris":{"android":"levelo://app?vid=766da900-471d-42f5-8cfa-8db494f945d7","ios":"levelo://app?vid=766da900-471d-42f5-8cfa-8db494f945d7"},"vehicle_type_id":"4","last_reported":1729408078,"current_range_meters":25600,"station_id":"","pricing_plan_id":"cebpf4jnsgd1na2vs0mg"},{"bike_id":"fb09f322-f9d6-4440-96c5-d4411dd2d084","system_id":"levelo_inurba_marseille","lat":43.31275,"lon":5.40169,"is_reserved":false,"is_disabled":false,"rental_uris":{"android":"levelo://app?vid=fb09f322-f9d6-4440-96c5-d4411dd2d084","ios":"levelo://app?vid=fb09f322-f9d6-4440-96c5-d4411dd2d084"},"vehicle_type_id":"4","last_reported":1729408078,"current_range_meters":39200,"station_id":"ce4bh092rcd13ifvqd30","pricing_plan_id":"cebpf4jnsgd1na2vs0mg"},{"bike_id":"2d0d1b30-1f62-45a2-816c-b5f7ae0610f7","system_id":"levelo_inurba_marseille","lat":43.2606,"lon":5.39397,"is_reserved":false,"is_disabled":false,"rental_uris":{"android":"levelo://app?vid=2d0d1b30-1f62-45a2-816c-b5f7ae0610f7","ios":"levelo://app?vid=2d0d1b30-1f62-45a2-816c-b5f7ae0610f7"},"vehicle_type_id":"4","last_reported":1729408078,"current_range_meters":24000,"station_id":"ce4bhh92rcd13ifvqfj0","pricing_plan_id":"cebpf4jnsgd1na2vs0mg"},{"bike_id":"e567248c-cc07-4ac3-93e3-3f51dcec5d60","system_id":"levelo_inurba_marseille","lat":43.28456,"lon":5.35892,"is_reserved":false,"is_disabled":false,"rental_uris":{"android":"levelo://app?vid=e567248c-cc07-4ac3-93e3-3f51dcec5d60","ios":"levelo://app?vid=e567248c-cc07-4ac3-93e3-3f51dcec5d60"},"vehicle_type_id":"4","last_reported":1729408078,"current_range_meters":22800,"station_id":"ce4bhah2rcd13ifvqei0","pricing_plan_id":"cebpf4jnsgd1na2vs0mg"},{"bike_id":"26cf6b29-c1eb-4de4-a614-78ba934e32e2","system_id":"levelo_inurba_marseille","lat":43.26207,"lon":5.37443,"is_reserved":false,"is_disabled":false,"rental_uris":{"android":"levelo://app?vid=26cf6b29-c1eb-4de4-a614-78ba934e32e2","ios":"levelo://app?vid=26cf6b29-c1eb-4de4-a614-78ba934e32e2"},"vehicle_type_id":"4","last_reported":1729408078,"current_range_meters":28800,"station_id":"ce4bhgp2rcd13ifvqfc0","pricing_plan_id":"cebpf4jnsgd1na2vs0mg"},{"bike_id":"ab3708dc-2324-4d77-ac1a-38c928b735aa","system_id":"levelo_inurba_marseille","lat":43.28099,"lon":5.37848,"is_reserved":false,"is_disabled":false,"rental_uris":{"android":"levelo://app?vid=ab3708dc-2324-4d77-ac1a-38c928b735aa","ios":"levelo://app?vid=ab3708dc-2324-4d77-ac1a-38c928b735aa"},"vehicle_type_id":"4","last_reported":1729408078,"current_range_meters":26000,"station_id":"ce4bha12rcd13ifvqee0","pricing_plan_id":"cebpf4jnsgd1na2vs0mg"},{"bike_id":"76611704-e1c5-4c66-88ec-35ce96c89571","system_id":"levelo_inurba_marseille","lat":43.28617,"lon":5.35101,"is_reserved":false,"is_disabled":false,"rental_uris":{"android":"levelo://app?vid=76611704-e1c5-4c66-88ec-35ce96c89571","ios":"levelo://app?vid=76611704-e1c5-4c66-88ec-35ce96c89571"},"vehicle_type_id":"4","last_reported":1729408078,"current_range_meters":24400,"station_id":"ce4bhch2rcd13ifvqeug","pricing_plan_id":"cebpf4jnsgd1na2vs0mg"},{"bike_id":"8400a97e-ed46-4d37-b5cf-926b69826c1f","system_id":"levelo_inurba_marseille","lat":43.28101,"lon":5.37847,"is_reserved":false,"is_disabled":false,"rental_uris":{"android":"levelo://app?vid=8400a97e-ed46-4d37-b5cf-926b69826c1f","ios":"levelo://app?vid=8400a97e-ed46-4d37-b5cf-926b69826c1f"},"vehicle_type_id":"4","last_reported":1729408078,"current_range_meters":17200,"station_id":"ce4bha12rcd13ifvqee0","pricing_plan_id":"cebpf4jnsgd1na2vs0mg"},{"bike_id":"fbe5e5b4-3e44-4487-a73e-284854502401","system_id":"levelo_inurba_marseille","lat":43.240709,"lon":5.377597,"is_reserved":false,"is_disabled":false,"rental_uris":{"android":"levelo://app?vid=fbe5e5b4-3e44-4487-a73e-284854502401","ios":"levelo://app?vid=fbe5e5b4-3e44-4487-a73e-284854502401"},"vehicle_type_id":"4","last_reported":1729408078,"current_range_meters":18800,"station_id":"ce4bhnp2rcd13ifvqgvg","pricing_plan_id":"cebpf4jnsgd1na2vs0mg"},{"bike_id":"4158d4ef-7d68-469c-9874-e49eaf6f57e9","system_id":"levelo_inurba_marseille","lat":43.29259,"lon":5.40919,"is_reserved":false,"is_disabled":false,"rental_uris":{"android":"levelo://app?vid=4158d4ef-7d68-469c-9874-e49eaf6f57e9","ios":"levelo://app?vid=4158d4ef-7d68-469c-9874-e49eaf6f57e9"},"vehicle_type_id":"4","last_reported":1729408078,"current_range_meters":37600,"station_id":"ce4bh192rcd13ifvqdc0","pricing_plan_id":"cebpf4jnsgd1na2vs0mg"},{"bike_id":"b1987f79-3507-468b-81ed-924312b61f29","system_id":"levelo_inurba_marseille","lat":43.27369,"lon":5.3626,"is_reserved":false,"is_disabled":false,"rental_uris":{"android":"levelo://app?vid=b1987f79-3507-468b-81ed-924312b61f29","ios":"levelo://app?vid=b1987f79-3507-468b-81ed-924312b61f29"},"vehicle_type_id":"4","last_reported":1729408078,"current_range_meters":39200,"station_id":"ce4bhbh2rcd13ifvqeo0","pricing_plan_id":"cebpf4jnsgd1na2vs0mg"},{"bike_id":"ea320c88-3598-4572-b01b-56a6e717a94a","system_id":"levelo_inurba_marseille","lat":43.30196,"lon":5.36623,"is_reserved":false,"is_disabled":false,"rental_uris":{"android":"levelo://app?vid=ea320c88-3598-4572-b01b-56a6e717a94a","ios":"levelo://app?vid=ea320c88-3598-4572-b01b-56a6e717a94a"},"vehicle_type_id":"4","last_reported":1729408078,"current_range_meters":39200,"station_id":"ce4bgrh2rcd13ifvqc8g","pricing_plan_id":"cebpf4jnsgd1na2vs0mg"},{"bike_id":"243e4da9-60e6-491b-8c2b-409a78f24877","system_id":"levelo_inurba_marseille","lat":43.30354,"lon":5.41875,"is_reserved":false,"is_disabled":false,"rental_uris":{"android":"levelo://app?vid=243e4da9-60e6-491b-8c2b-409a78f24877","ios":"levelo://app?vid=243e4da9-60e6-491b-8c2b-409a78f24877"},"vehicle_type_id":"4","last_reported":1729408078,"current_range_meters":26000,"station_id":"ce4bhop2rcd13ifvqh7g","pricing_plan_id":"cebpf4jnsgd1na2vs0mg"},{"bike_id":"cd44bf01-87b7-4d36-8ef8-6e689430e5d1","system_id":"levelo_inurba_marseille","lat":43.33023,"lon":5.39039,"is_reserved":false,"is_disabled":false,"rental_uris":{"android":"levelo://app?vid=cd44bf01-87b7-4d36-8ef8-6e689430e5d1","ios":"levelo://app?vid=cd44bf01-87b7-4d36-8ef8-6e689430e5d1"},"vehicle_type_id":"4","last_reported":1729408078,"current_range_meters":10000,"station_id":"ce4bhr92rcd13ifvqhrg","pricing_plan_id":"cebpf4jnsgd1na2vs0mg"},{"bike_id":"fd42a663-0239-480c-9319-dc0b1f65e35e","system_id":"levelo_inurba_marseille","lat":43.27616,"lon":5.36098,"is_reserved":false,"is_disabled":false,"rental_uris":{"android":"levelo://app?vid=fd42a663-0239-480c-9319-dc0b1f65e35e","ios":"levelo://app?vid=fd42a663-0239-480c-9319-dc0b1f65e35e"},"vehicle_type_id":"4","last_reported":1729408078,"current_range_meters":25600,"station_id":"ce4bgj92rcd13ifvqbe0","pricing_plan_id":"cebpf4jnsgd1na2vs0mg"},{"bike_id":"2910eaad-da2f-4396-abed-6a24ceae014b","system_id":"levelo_inurba_marseille","lat":43.30381,"lon":5.37329,"is_reserved":false,"is_disabled":false,"rental_uris":{"android":"levelo://app?vid=2910eaad-da2f-4396-abed-6a24ceae014b","ios":"levelo://app?vid=2910eaad-da2f-4396-abed-6a24ceae014b"},"vehicle_type_id":"4","last_reported":1729408078,"current_range_meters":17600,"station_id":"","pricing_plan_id":"cebpf4jnsgd1na2vs0mg"},{"bike_id":"0326ee85-d660-4331-a018-7d6617a93caf","system_id":"levelo_inurba_marseille","lat":43.30644,"lon":5.40077,"is_reserved":false,"is_disabled":false,"rental_uris":{"android":"levelo://app?vid=0326ee85-d660-4331-a018-7d6617a93caf","ios":"levelo://app?vid=0326ee85-d660-4331-a018-7d6617a93caf"},"vehicle_type_id":"4","last_reported":1729408078,"current_range_meters":39200,"station_id":"ce4bh112rcd13ifvqda0","pricing_plan_id":"cebpf4jnsgd1na2vs0mg"},{"bike_id":"6e706dcb-6e41-41b6-a172-73765c66fdaa","system_id":"levelo_inurba_marseille","lat":43.26239,"lon":5.37584,"is_reserved":false,"is_disabled":false,"rental_uris":{"android":"levelo://app?vid=6e706dcb-6e41-41b6-a172-73765c66fdaa","ios":"levelo://app?vid=6e706dcb-6e41-41b6-a172-73765c66fdaa"},"vehicle_type_id":"4","last_reported":1729408078,"current_range_meters":35600,"station_id":"ce4bhhp2rcd13ifvqfm0","pricing_plan_id":"cebpf4jnsgd1na2vs0mg"},{"bike_id":"0b297742-aea6-41b8-bd02-ada1ede0366e","system_id":"levelo_inurba_marseille","lat":43.31283,"lon":5.40159,"is_reserved":false,"is_disabled":false,"rental_uris":{"android":"levelo://app?vid=0b297742-aea6-41b8-bd02-ada1ede0366e","ios":"levelo://app?vid=0b297742-aea6-41b8-bd02-ada1ede0366e"},"vehicle_type_id":"4","last_reported":1729408078,"current_range_meters":10000,"station_id":"ce4bh092rcd13ifvqd30","pricing_plan_id":"cebpf4jnsgd1na2vs0mg"},{"bike_id":"80f9bb87-fd46-4ad9-a153-d24e9870383e","system_id":"levelo_inurba_marseille","lat":43.24076,"lon":5.37756,"is_reserved":false,"is_disabled":false,"rental_uris":{"android":"levelo://app?vid=80f9bb87-fd46-4ad9-a153-d24e9870383e","ios":"levelo://app?vid=80f9bb87-fd46-4ad9-a153-d24e9870383e"},"vehicle_type_id":"4","last_reported":1729408078,"current_range_meters":27600,"station_id":"ce4bhnp2rcd13ifvqgvg","pricing_plan_id":"cebpf4jnsgd1na2vs0mg"},{"bike_id":"522bb5dc-efc4-45ac-a026-aafe838b2839","system_id":"levelo_inurba_marseille","lat":43.29764,"lon":5.37093,"is_reserved":false,"is_disabled":false,"rental_uris":{"android":"levelo://app?vid=522bb5dc-efc4-45ac-a026-aafe838b2839","ios":"levelo://app?vid=522bb5dc-efc4-45ac-a026-aafe838b2839"},"vehicle_type_id":"4","last_reported":1729408078,"current_range_meters":37600,"station_id":"ce4bgop2rcd13ifvqc1g","pricing_plan_id":"cebpf4jnsgd1na2vs0mg"},{"bike_id":"1d0123a6-a46a-4f0d-aa90-d1ca1d1a44c9","system_id":"levelo_inurba_marseille","lat":43.31326,"lon":5.39699,"is_reserved":false,"is_disabled":false,"rental_uris":{"android":"levelo://app?vid=1d0123a6-a46a-4f0d-aa90-d1ca1d1a44c9","ios":"levelo://app?vid=1d0123a6-a46a-4f0d-aa90-d1ca1d1a44c9"},"vehicle_type_id":"4","last_reported":1729408078,"current_range_meters":38800,"station_id":"ce4bgvp2rcd13ifvqcu0","pricing_plan_id":"cebpf4jnsgd1na2vs0mg"},{"bike_id":"1734c220-ff2f-4e77-bf5f-01628bb64e13","system_id":"levelo_inurba_marseille","lat":43.30461,"lon":5.37913,"is_reserved":false,"is_disabled":false,"rental_uris":{"android":"levelo://app?vid=1734c220-ff2f-4e77-bf5f-01628bb64e13","ios":"levelo://app?vid=1734c220-ff2f-4e77-bf5f-01628bb64e13"},"vehicle_type_id":"4","last_reported":1729408078,"current_range_meters":28400,"station_id":"ce4bgup2rcd13ifvqcn0","pricing_plan_id":"cebpf4jnsgd1na2vs0mg"},{"bike_id":"89c21f72-8fef-4bd7-b31b-b47f981ec7ff","system_id":"levelo_inurba_marseille","lat":43.29195,"lon":5.35807,"is_reserved":false,"is_disabled":false,"rental_uris":{"android":"levelo://app?vid=89c21f72-8fef-4bd7-b31b-b47f981ec7ff","ios":"levelo://app?vid=89c21f72-8fef-4bd7-b31b-b47f981ec7ff"},"vehicle_type_id":"4","last_reported":1729408078,"current_range_meters":32800,"station_id":"ce4bhb12rcd13ifvqel0","pricing_plan_id":"cebpf4jnsgd1na2vs0mg"},{"bike_id":"adf5cd07-0fd3-48b8-8b39-d99bf1af1db3","system_id":"levelo_inurba_marseille","lat":43.33024,"lon":5.39041,"is_reserved":false,"is_disabled":false,"rental_uris":{"android":"levelo://app?vid=adf5cd07-0fd3-48b8-8b39-d99bf1af1db3","ios":"levelo://app?vid=adf5cd07-0fd3-48b8-8b39-d99bf1af1db3"},"vehicle_type_id":"4","last_reported":1729408078,"current_range_meters":38400,"station_id":"ce4bhr92rcd13ifvqhrg","pricing_plan_id":"cebpf4jnsgd1na2vs0mg"},{"bike_id":"7772d39f-5e28-445c-af91-069b0cf63793","system_id":"levelo_inurba_marseille","lat":43.33765,"lon":5.37438,"is_reserved":false,"is_disabled":false,"rental_uris":{"android":"levelo://app?vid=7772d39f-5e28-445c-af91-069b0cf63793","ios":"levelo://app?vid=7772d39f-5e28-445c-af91-069b0cf63793"},"vehicle_type_id":"4","last_reported":1729408078,"current_range_meters":5600,"station_id":"","pricing_plan_id":"cebpf4jnsgd1na2vs0mg"},{"bike_id":"858f8101-d134-4ca8-b49c-156bc855d981","system_id":"levelo_inurba_marseille","lat":43.27053,"lon":5.40268,"is_reserved":false,"is_disabled":false,"rental_uris":{"android":"levelo://app?vid=858f8101-d134-4ca8-b49c-156bc855d981","ios":"levelo://app?vid=858f8101-d134-4ca8-b49c-156bc855d981"},"vehicle_type_id":"4","last_reported":1729408078,"current_range_meters":38400,"station_id":"ce4bhk92rcd13ifvqgc0","pricing_plan_id":"cebpf4jnsgd1na2vs0mg"},{"bike_id":"733eb2c5-00ab-4d49-8038-dfb888b12557","system_id":"levelo_inurba_marseille","lat":43.3199,"lon":5.38143,"is_reserved":false,"is_disabled":false,"rental_uris":{"android":"levelo://app?vid=733eb2c5-00ab-4d49-8038-dfb888b12557","ios":"levelo://app?vid=733eb2c5-00ab-4d49-8038-dfb888b12557"},"vehicle_type_id":"4","last_reported":1729408078,"current_range_meters":33600,"station_id":"ce4bhr12rcd13ifvqhpg","pricing_plan_id":"cebpf4jnsgd1na2vs0mg"},{"bike_id":"3213665e-989c-4d22-9f5a-31c8522597dd","system_id":"levelo_inurba_marseille","lat":43.296,"lon":5.36142,"is_reserved":false,"is_disabled":false,"rental_uris":{"android":"levelo://app?vid=3213665e-989c-4d22-9f5a-31c8522597dd","ios":"levelo://app?vid=3213665e-989c-4d22-9f5a-31c8522597dd"},"vehicle_type_id":"4","last_reported":1729408078,"current_range_meters":16000,"station_id":"","pricing_plan_id":"cebpf4jnsgd1na2vs0mg"},{"bike_id":"fb380ef8-ebb9-4d8f-8a9a-5d42151baa1e","system_id":"levelo_inurba_marseille","lat":43.27627,"lon":5.36115,"is_reserved":false,"is_disabled":false,"rental_uris":{"android":"levelo://app?vid=fb380ef8-ebb9-4d8f-8a9a-5d42151baa1e","ios":"levelo://app?vid=fb380ef8-ebb9-4d8f-8a9a-5d42151baa1e"},"vehicle_type_id":"4","last_reported":1729408078,"current_range_meters":39200,"station_id":"ce4bgj92rcd13ifvqbe0","pricing_plan_id":"cebpf4jnsgd1na2vs0mg"},{"bike_id":"c66fec5e-c687-4ab7-8158-a98e2f408d7b","system_id":"levelo_inurba_marseille","lat":43.30541,"lon":5.36706,"is_reserved":false,"is_disabled":false,"rental_uris":{"android":"levelo://app?vid=c66fec5e-c687-4ab7-8158-a98e2f408d7b","ios":"levelo://app?vid=c66fec5e-c687-4ab7-8158-a98e2f408d7b"},"vehicle_type_id":"4","last_reported":1729408078,"current_range_meters":39200,"station_id":"ce4bgrp2rcd13ifvqc9g","pricing_plan_id":"cebpf4jnsgd1na2vs0mg"},{"bike_id":"befdf3a1-a9f7-42b3-929a-34c9e2e2ff08","system_id":"levelo_inurba_marseille","lat":43.24186,"lon":5.39728,"is_reserved":false,"is_disabled":false,"rental_uris":{"android":"levelo://app?vid=befdf3a1-a9f7-42b3-929a-34c9e2e2ff08","ios":"levelo://app?vid=befdf3a1-a9f7-42b3-929a-34c9e2e2ff08"},"vehicle_type_id":"4","last_reported":1729408078,"current_range_meters":26800,"station_id":"ce4bhn12rcd13ifvqgpg","pricing_plan_id":"cebpf4jnsgd1na2vs0mg"},{"bike_id":"3f3c663d-a6fd-4091-8533-6c09ca965902","system_id":"levelo_inurba_marseille","lat":43.3119,"lon":5.37715,"is_reserved":false,"is_disabled":false,"rental_uris":{"android":"levelo://app?vid=3f3c663d-a6fd-4091-8533-6c09ca965902","ios":"levelo://app?vid=3f3c663d-a6fd-4091-8533-6c09ca965902"},"vehicle_type_id":"4","last_reported":1729408078,"current_range_meters":16000,"station_id":"","pricing_plan_id":"cebpf4jnsgd1na2vs0mg"},{"bike_id":"275e8b97-c257-4f5b-9606-c19c9133569b","system_id":"levelo_inurba_marseille","lat":43.29472,"lon":5.36322,"is_reserved":false,"is_disabled":false,"rental_uris":{"android":"levelo://app?vid=275e8b97-c257-4f5b-9606-c19c9133569b","ios":"levelo://app?vid=275e8b97-c257-4f5b-9606-c19c9133569b"},"vehicle_type_id":"4","last_reported":1729408078,"current_range_meters":11600,"station_id":"","pricing_plan_id":"cebpf4jnsgd1na2vs0mg"},{"bike_id":"9a2117f0-c5b0-4dc2-891b-026a24af23f1","system_id":"levelo_inurba_marseille","lat":43.3105,"lon":5.40092,"is_reserved":false,"is_disabled":false,"rental_uris":{"android":"levelo://app?vid=9a2117f0-c5b0-4dc2-891b-026a24af23f1","ios":"levelo://app?vid=9a2117f0-c5b0-4dc2-891b-026a24af23f1"},"vehicle_type_id":"4","last_reported":1729408078,"current_range_meters":36400,"station_id":"","pricing_plan_id":"cebpf4jnsgd1na2vs0mg"},{"bike_id":"d1b9b24d-752d-4d9e-896e-2daed81bf1ca","system_id":"levelo_inurba_marseille","lat":43.28936,"lon":5.3963,"is_reserved":false,"is_disabled":false,"rental_uris":{"android":"levelo://app?vid=d1b9b24d-752d-4d9e-896e-2daed81bf1ca","ios":"levelo://app?vid=d1b9b24d-752d-4d9e-896e-2daed81bf1ca"},"vehicle_type_id":"4","last_reported":1729408078,"current_range_meters":38000,"station_id":"ce4bh3h2rcd13ifvqdn0","pricing_plan_id":"cebpf4jnsgd1na2vs0mg"},{"bike_id":"41d12afe-d43b-4212-9958-e7c01d02bfc5","system_id":"levelo_inurba_marseille","lat":43.24997,"lon":5.38921,"is_reserved":false,"is_disabled":false,"rental_uris":{"android":"levelo://app?vid=41d12afe-d43b-4212-9958-e7c01d02bfc5","ios":"levelo://app?vid=41d12afe-d43b-4212-9958-e7c01d02bfc5"},"vehicle_type_id":"4","last_reported":1729408078,"current_range_meters":38400,"station_id":"ce4bhgp2rcd13ifvqfd0","pricing_plan_id":"cebpf4jnsgd1na2vs0mg"},{"bike_id":"5dd719ab-a213-4094-b2e1-609f6924f39b","system_id":"levelo_inurba_marseille","lat":43.3199,"lon":5.38141,"is_reserved":false,"is_disabled":false,"rental_uris":{"android":"levelo://app?vid=5dd719ab-a213-4094-b2e1-609f6924f39b","ios":"levelo://app?vid=5dd719ab-a213-4094-b2e1-609f6924f39b"},"vehicle_type_id":"4","last_reported":1729408078,"current_range_meters":39200,"station_id":"ce4bhr12rcd13ifvqhpg","pricing_plan_id":"cebpf4jnsgd1na2vs0mg"},{"bike_id":"d1eaed94-2ffc-4609-a3b8-b0df4a991b21","system_id":"levelo_inurba_marseille","lat":43.31236,"lon":5.38478,"is_reserved":false,"is_disabled":false,"rental_uris":{"android":"levelo://app?vid=d1eaed94-2ffc-4609-a3b8-b0df4a991b21","ios":"levelo://app?vid=d1eaed94-2ffc-4609-a3b8-b0df4a991b21"},"vehicle_type_id":"4","last_reported":1729408078,"current_range_meters":15200,"station_id":"","pricing_plan_id":"cebpf4jnsgd1na2vs0mg"},{"bike_id":"32ff2e1c-64bb-4140-95a4-ec9bf3a327bc","system_id":"levelo_inurba_marseille","lat":43.31501,"lon":5.37308,"is_reserved":false,"is_disabled":false,"rental_uris":{"android":"levelo://app?vid=32ff2e1c-64bb-4140-95a4-ec9bf3a327bc","ios":"levelo://app?vid=32ff2e1c-64bb-4140-95a4-ec9bf3a327bc"},"vehicle_type_id":"4","last_reported":1729408078,"current_range_meters":35600,"station_id":"ce4bgt12rcd13ifvqcd0","pricing_plan_id":"cebpf4jnsgd1na2vs0mg"},{"bike_id":"3a553d37-94eb-4024-abd0-f1450ee14b60","system_id":"levelo_inurba_marseille","lat":43.31526,"lon":5.38037,"is_reserved":false,"is_disabled":false,"rental_uris":{"android":"levelo://app?vid=3a553d37-94eb-4024-abd0-f1450ee14b60","ios":"levelo://app?vid=3a553d37-94eb-4024-abd0-f1450ee14b60"},"vehicle_type_id":"4","last_reported":1729408078,"current_range_meters":19200,"station_id":"ce4bhsp2rcd13ifvqi50","pricing_plan_id":"cebpf4jnsgd1na2vs0mg"},{"bike_id":"9b4d512d-4a58-49eb-90e3-4f256fa70580","system_id":"levelo_inurba_marseille","lat":43.30463,"lon":5.379,"is_reserved":false,"is_disabled":false,"rental_uris":{"android":"levelo://app?vid=9b4d512d-4a58-49eb-90e3-4f256fa70580","ios":"levelo://app?vid=9b4d512d-4a58-49eb-90e3-4f256fa70580"},"vehicle_type_id":"4","last_reported":1729408078,"current_range_meters":39200,"station_id":"ce4bgup2rcd13ifvqcn0","pricing_plan_id":"cebpf4jnsgd1na2vs0mg"},{"bike_id":"0e93c432-086c-4bb3-8a75-15e0e2792f9b","system_id":"levelo_inurba_marseille","lat":43.29095,"lon":5.38151,"is_reserved":false,"is_disabled":false,"rental_uris":{"android":"levelo://app?vid=0e93c432-086c-4bb3-8a75-15e0e2792f9b","ios":"levelo://app?vid=0e93c432-086c-4bb3-8a75-15e0e2792f9b"},"vehicle_type_id":"4","last_reported":1729408078,"current_range_meters":38800,"station_id":"ce4bh512rcd13ifvqe2g","pricing_plan_id":"cebpf4jnsgd1na2vs0mg"},{"bike_id":"e396cbb5-c8f9-41f7-9363-2179bf8a0454","system_id":"levelo_inurba_marseille","lat":43.28363,"lon":5.38626,"is_reserved":false,"is_disabled":false,"rental_uris":{"android":"levelo://app?vid=e396cbb5-c8f9-41f7-9363-2179bf8a0454","ios":"levelo://app?vid=e396cbb5-c8f9-41f7-9363-2179bf8a0454"},"vehicle_type_id":"4","last_reported":1729408078,"current_range_meters":36800,"station_id":"ce4bh492rcd13ifvqdvg","pricing_plan_id":"cebpf4jnsgd1na2vs0mg"},{"bike_id":"00e7f300-5489-4a7b-806b-f9a497338933","system_id":"levelo_inurba_marseille","lat":43.23162,"lon":5.43702,"is_reserved":false,"is_disabled":false,"rental_uris":{"android":"levelo://app?vid=00e7f300-5489-4a7b-806b-f9a497338933","ios":"levelo://app?vid=00e7f300-5489-4a7b-806b-f9a497338933"},"vehicle_type_id":"4","last_reported":1729408078,"current_range_meters":6800,"station_id":"ce4bhmp2rcd13ifvqgog","pricing_plan_id":"cebpf4jnsgd1na2vs0mg"},{"bike_id":"4cc5727d-b9bc-4c19-9396-1b26b139dc2a","system_id":"levelo_inurba_marseille","lat":43.31701,"lon":5.40458,"is_reserved":false,"is_disabled":false,"rental_uris":{"android":"levelo://app?vid=4cc5727d-b9bc-4c19-9396-1b26b139dc2a","ios":"levelo://app?vid=4cc5727d-b9bc-4c19-9396-1b26b139dc2a"},"vehicle_type_id":"4","last_reported":1729408078,"current_range_meters":38000,"station_id":"ce4bh012rcd13ifvqd00","pricing_plan_id":"cebpf4jnsgd1na2vs0mg"},{"bike_id":"b8b721e3-c0e7-4491-844f-191085275f86","system_id":"levelo_inurba_marseille","lat":43.24548,"lon":5.39524,"is_reserved":false,"is_disabled":false,"rental_uris":{"android":"levelo://app?vid=b8b721e3-c0e7-4491-844f-191085275f86","ios":"levelo://app?vid=b8b721e3-c0e7-4491-844f-191085275f86"},"vehicle_type_id":"4","last_reported":1729408078,"current_range_meters":38400,"station_id":"ce4bhlp2rcd13ifvqgjg","pricing_plan_id":"cebpf4jnsgd1na2vs0mg"},{"bike_id":"6b95e607-5252-40d1-9c48-bec0d67493f0","system_id":"levelo_inurba_marseille","lat":43.29799,"lon":5.40409,"is_reserved":false,"is_disabled":false,"rental_uris":{"android":"levelo://app?vid=6b95e607-5252-40d1-9c48-bec0d67493f0","ios":"levelo://app?vid=6b95e607-5252-40d1-9c48-bec0d67493f0"},"vehicle_type_id":"4","last_reported":1729408078,"current_range_meters":39200,"station_id":"ce4bh112rcd13ifvqd90","pricing_plan_id":"cebpf4jnsgd1na2vs0mg"},{"bike_id":"bda13ecd-dec7-4d6c-824c-916958aec047","system_id":"levelo_inurba_marseille","lat":43.3094,"lon":5.39023,"is_reserved":false,"is_disabled":false,"rental_uris":{"android":"levelo://app?vid=bda13ecd-dec7-4d6c-824c-916958aec047","ios":"levelo://app?vid=bda13ecd-dec7-4d6c-824c-916958aec047"},"vehicle_type_id":"4","last_reported":1729408078,"current_range_meters":36800,"station_id":"ce4bgup2rcd13ifvqco0","pricing_plan_id":"cebpf4jnsgd1na2vs0mg"},{"bike_id":"881a82da-107c-4d05-8789-9855bb8ac47f","system_id":"levelo_inurba_marseille","lat":43.28099,"lon":5.37839,"is_reserved":false,"is_disabled":false,"rental_uris":{"android":"levelo://app?vid=881a82da-107c-4d05-8789-9855bb8ac47f","ios":"levelo://app?vid=881a82da-107c-4d05-8789-9855bb8ac47f"},"vehicle_type_id":"4","last_reported":1729408078,"current_range_meters":36800,"station_id":"ce4bha12rcd13ifvqee0","pricing_plan_id":"cebpf4jnsgd1na2vs0mg"},{"bike_id":"5f181de5-971b-4e62-8fe1-4fbba3f53f7e","system_id":"levelo_inurba_marseille","lat":43.31324,"lon":5.39694,"is_reserved":false,"is_disabled":false,"rental_uris":{"android":"levelo://app?vid=5f181de5-971b-4e62-8fe1-4fbba3f53f7e","ios":"levelo://app?vid=5f181de5-971b-4e62-8fe1-4fbba3f53f7e"},"vehicle_type_id":"4","last_reported":1729408078,"current_range_meters":26000,"station_id":"ce4bgvp2rcd13ifvqcu0","pricing_plan_id":"cebpf4jnsgd1na2vs0mg"},{"bike_id":"88a6c16e-2cb9-4142-9434-e66382622780","system_id":"levelo_inurba_marseille","lat":43.32338,"lon":5.40621,"is_reserved":false,"is_disabled":false,"rental_uris":{"android":"levelo://app?vid=88a6c16e-2cb9-4142-9434-e66382622780","ios":"levelo://app?vid=88a6c16e-2cb9-4142-9434-e66382622780"},"vehicle_type_id":"4","last_reported":1729408078,"current_range_meters":32800,"station_id":"ce4bhq92rcd13ifvqhjg","pricing_plan_id":"cebpf4jnsgd1na2vs0mg"},{"bike_id":"cf273a89-6a8e-481b-ae0b-31b8ee1c3722","system_id":"levelo_inurba_marseille","lat":43.29899,"lon":5.43661,"is_reserved":false,"is_disabled":false,"rental_uris":{"android":"levelo://app?vid=cf273a89-6a8e-481b-ae0b-31b8ee1c3722","ios":"levelo://app?vid=cf273a89-6a8e-481b-ae0b-31b8ee1c3722"},"vehicle_type_id":"4","last_reported":1729408078,"current_range_meters":30400,"station_id":"ce4bhpp2rcd13ifvqhfg","pricing_plan_id":"cebpf4jnsgd1na2vs0mg"},{"bike_id":"dbe4779b-106e-4d41-a93b-3e3563f5056e","system_id":"levelo_inurba_marseille","lat":43.31075,"lon":5.38352,"is_reserved":false,"is_disabled":false,"rental_uris":{"android":"levelo://app?vid=dbe4779b-106e-4d41-a93b-3e3563f5056e","ios":"levelo://app?vid=dbe4779b-106e-4d41-a93b-3e3563f5056e"},"vehicle_type_id":"4","last_reported":1729408078,"current_range_meters":12800,"station_id":"ce4bgv92rcd13ifvqcr0","pricing_plan_id":"cebpf4jnsgd1na2vs0mg"},{"bike_id":"f7b5f56c-96a1-445f-b511-773f0f01cf87","system_id":"levelo_inurba_marseille","lat":43.28156,"lon":5.42645,"is_reserved":false,"is_disabled":false,"rental_uris":{"android":"levelo://app?vid=f7b5f56c-96a1-445f-b511-773f0f01cf87","ios":"levelo://app?vid=f7b5f56c-96a1-445f-b511-773f0f01cf87"},"vehicle_type_id":"4","last_reported":1729408078,"current_range_meters":38800,"station_id":"ce4bhnh2rcd13ifvqgug","pricing_plan_id":"cebpf4jnsgd1na2vs0mg"},{"bike_id":"e577b906-eafe-441a-9d89-24ea49eea369","system_id":"levelo_inurba_marseille","lat":43.27315,"lon":5.39074,"is_reserved":false,"is_disabled":false,"rental_uris":{"android":"levelo://app?vid=e577b906-eafe-441a-9d89-24ea49eea369","ios":"levelo://app?vid=e577b906-eafe-441a-9d89-24ea49eea369"},"vehicle_type_id":"4","last_reported":1729408078,"current_range_meters":6800,"station_id":"ce4bhgp2rcd13ifvqfe0","pricing_plan_id":"cebpf4jnsgd1na2vs0mg"},{"bike_id":"1c4ce82e-f03f-4873-b4e8-87353cd83dbd","system_id":"levelo_inurba_marseille","lat":43.29897,"lon":5.43662,"is_reserved":false,"is_disabled":false,"rental_uris":{"android":"levelo://app?vid=1c4ce82e-f03f-4873-b4e8-87353cd83dbd","ios":"levelo://app?vid=1c4ce82e-f03f-4873-b4e8-87353cd83dbd"},"vehicle_type_id":"4","last_reported":1729408078,"current_range_meters":38800,"station_id":"ce4bhpp2rcd13ifvqhfg","pricing_plan_id":"cebpf4jnsgd1na2vs0mg"},{"bike_id":"a50da574-03c5-475b-b6c5-e3885a5b2ef0","system_id":"levelo_inurba_marseille","lat":43.28154,"lon":5.42633,"is_reserved":false,"is_disabled":false,"rental_uris":{"android":"levelo://app?vid=a50da574-03c5-475b-b6c5-e3885a5b2ef0","ios":"levelo://app?vid=a50da574-03c5-475b-b6c5-e3885a5b2ef0"},"vehicle_type_id":"4","last_reported":1729408078,"current_range_meters":18800,"station_id":"ce4bhnh2rcd13ifvqgug","pricing_plan_id":"cebpf4jnsgd1na2vs0mg"},{"bike_id":"fac9a3a2-2dd0-4efd-afd6-73cc4f4edd9a","system_id":"levelo_inurba_marseille","lat":43.24813,"lon":5.37456,"is_reserved":false,"is_disabled":false,"rental_uris":{"android":"levelo://app?vid=fac9a3a2-2dd0-4efd-afd6-73cc4f4edd9a","ios":"levelo://app?vid=fac9a3a2-2dd0-4efd-afd6-73cc4f4edd9a"},"vehicle_type_id":"4","last_reported":1729408078,"current_range_meters":37600,"station_id":"ce4bhgh2rcd13ifvqfb0","pricing_plan_id":"cebpf4jnsgd1na2vs0mg"},{"bike_id":"c65ccc54-b3cc-4c6d-abc0-34d5a50b0f6d","system_id":"levelo_inurba_marseille","lat":43.29277,"lon":5.40119,"is_reserved":false,"is_disabled":false,"rental_uris":{"android":"levelo://app?vid=c65ccc54-b3cc-4c6d-abc0-34d5a50b0f6d","ios":"levelo://app?vid=c65ccc54-b3cc-4c6d-abc0-34d5a50b0f6d"},"vehicle_type_id":"4","last_reported":1729408078,"current_range_meters":11200,"station_id":"ce4bh312rcd13ifvqdk0","pricing_plan_id":"cebpf4jnsgd1na2vs0mg"},{"bike_id":"a459c14b-29d1-40c4-80a7-950dfaa34a2b","system_id":"levelo_inurba_marseille","lat":43.30874,"lon":5.39633,"is_reserved":false,"is_disabled":false,"rental_uris":{"android":"levelo://app?vid=a459c14b-29d1-40c4-80a7-950dfaa34a2b","ios":"levelo://app?vid=a459c14b-29d1-40c4-80a7-950dfaa34a2b"},"vehicle_type_id":"4","last_reported":1729408078,"current_range_meters":18000,"station_id":"ce4bh012rcd13ifvqcv0","pricing_plan_id":"cebpf4jnsgd1na2vs0mg"},{"bike_id":"5bc52170-939a-4323-897d-413d1a71af61","system_id":"levelo_inurba_marseille","lat":43.30313,"lon":5.3689,"is_reserved":false,"is_disabled":false,"rental_uris":{"android":"levelo://app?vid=5bc52170-939a-4323-897d-413d1a71af61","ios":"levelo://app?vid=5bc52170-939a-4323-897d-413d1a71af61"},"vehicle_type_id":"4","last_reported":1729408078,"current_range_meters":38400,"station_id":"ce4bgqh2rcd13ifvqc5g","pricing_plan_id":"cebpf4jnsgd1na2vs0mg"},{"bike_id":"ca4436b6-ef84-437a-acb8-3bff7e58e93c","system_id":"levelo_inurba_marseille","lat":43.23716,"lon":5.43569,"is_reserved":false,"is_disabled":false,"rental_uris":{"android":"levelo://app?vid=ca4436b6-ef84-437a-acb8-3bff7e58e93c","ios":"levelo://app?vid=ca4436b6-ef84-437a-acb8-3bff7e58e93c"},"vehicle_type_id":"4","last_reported":1729408078,"current_range_meters":37600,"station_id":"","pricing_plan_id":"cebpf4jnsgd1na2vs0mg"},{"bike_id":"dd7781fa-faee-4f5a-a4ec-a0d7113eef43","system_id":"levelo_inurba_marseille","lat":43.30654,"lon":5.40091,"is_reserved":false,"is_disabled":false,"rental_uris":{"android":"levelo://app?vid=dd7781fa-faee-4f5a-a4ec-a0d7113eef43","ios":"levelo://app?vid=dd7781fa-faee-4f5a-a4ec-a0d7113eef43"},"vehicle_type_id":"4","last_reported":1729408078,"current_range_meters":12400,"station_id":"ce4bh112rcd13ifvqda0","pricing_plan_id":"cebpf4jnsgd1na2vs0mg"},{"bike_id":"65bdf8a7-581b-4618-bccb-c8132147d71a","system_id":"levelo_inurba_marseille","lat":43.27554,"lon":5.3603,"is_reserved":false,"is_disabled":false,"rental_uris":{"android":"levelo://app?vid=65bdf8a7-581b-4618-bccb-c8132147d71a","ios":"levelo://app?vid=65bdf8a7-581b-4618-bccb-c8132147d71a"},"vehicle_type_id":"4","last_reported":1729408078,"current_range_meters":14000,"station_id":"","pricing_plan_id":"cebpf4jnsgd1na2vs0mg"},{"bike_id":"3b4ba1e5-ac30-42f2-bc8a-d6e4130c1c65","system_id":"levelo_inurba_marseille","lat":43.26195,"lon":5.3745,"is_reserved":false,"is_disabled":false,"rental_uris":{"android":"levelo://app?vid=3b4ba1e5-ac30-42f2-bc8a-d6e4130c1c65","ios":"levelo://app?vid=3b4ba1e5-ac30-42f2-bc8a-d6e4130c1c65"},"vehicle_type_id":"4","last_reported":1729408078,"current_range_meters":38800,"station_id":"ce4bhgp2rcd13ifvqfc0","pricing_plan_id":"cebpf4jnsgd1na2vs0mg"},{"bike_id":"7485345f-f8d4-475c-bee4-00c6720db24a","system_id":"levelo_inurba_marseille","lat":43.29005,"lon":5.35605,"is_reserved":false,"is_disabled":false,"rental_uris":{"android":"levelo://app?vid=7485345f-f8d4-475c-bee4-00c6720db24a","ios":"levelo://app?vid=7485345f-f8d4-475c-bee4-00c6720db24a"},"vehicle_type_id":"4","last_reported":1729408078,"current_range_meters":38800,"station_id":"ce4bhb92rcd13ifvqen0","pricing_plan_id":"cebpf4jnsgd1na2vs0mg"},{"bike_id":"528fef3b-bb8b-42d1-985d-ca1adbc390f0","system_id":"levelo_inurba_marseille","lat":43.24386,"lon":5.3706,"is_reserved":false,"is_disabled":false,"rental_uris":{"android":"levelo://app?vid=528fef3b-bb8b-42d1-985d-ca1adbc390f0","ios":"levelo://app?vid=528fef3b-bb8b-42d1-985d-ca1adbc390f0"},"vehicle_type_id":"4","last_reported":1729408078,"current_range_meters":11600,"station_id":"ce4bhhh2rcd13ifvqfk0","pricing_plan_id":"cebpf4jnsgd1na2vs0mg"},{"bike_id":"eb19aaa7-2912-4dbe-9481-814b4015641a","system_id":"levelo_inurba_marseille","lat":43.33614,"lon":5.41035,"is_reserved":false,"is_disabled":false,"rental_uris":{"android":"levelo://app?vid=eb19aaa7-2912-4dbe-9481-814b4015641a","ios":"levelo://app?vid=eb19aaa7-2912-4dbe-9481-814b4015641a"},"vehicle_type_id":"4","last_reported":1729408078,"current_range_meters":20000,"station_id":"ce4bhqh2rcd13ifvqhmg","pricing_plan_id":"cebpf4jnsgd1na2vs0mg"},{"bike_id":"ceb1603d-2c49-4a2f-971f-80e7a3348d6a","system_id":"levelo_inurba_marseille","lat":43.33025,"lon":5.39043,"is_reserved":false,"is_disabled":false,"rental_uris":{"android":"levelo://app?vid=ceb1603d-2c49-4a2f-971f-80e7a3348d6a","ios":"levelo://app?vid=ceb1603d-2c49-4a2f-971f-80e7a3348d6a"},"vehicle_type_id":"4","last_reported":1729408078,"current_range_meters":39200,"station_id":"ce4bhr92rcd13ifvqhrg","pricing_plan_id":"cebpf4jnsgd1na2vs0mg"},{"bike_id":"6bd00f8b-916e-44af-90df-bc806f6543a2","system_id":"levelo_inurba_marseille","lat":43.27312,"lon":5.39094,"is_reserved":false,"is_disabled":false,"rental_uris":{"android":"levelo://app?vid=6bd00f8b-916e-44af-90df-bc806f6543a2","ios":"levelo://app?vid=6bd00f8b-916e-44af-90df-bc806f6543a2"},"vehicle_type_id":"4","last_reported":1729408078,"current_range_meters":33200,"station_id":"ce4bhgp2rcd13ifvqfe0","pricing_plan_id":"cebpf4jnsgd1na2vs0mg"},{"bike_id":"9844e503-d4bc-48f3-9db5-980e55dc4bec","system_id":"levelo_inurba_marseille","lat":43.28452,"lon":5.3588,"is_reserved":false,"is_disabled":false,"rental_uris":{"android":"levelo://app?vid=9844e503-d4bc-48f3-9db5-980e55dc4bec","ios":"levelo://app?vid=9844e503-d4bc-48f3-9db5-980e55dc4bec"},"vehicle_type_id":"4","last_reported":1729408078,"current_range_meters":30000,"station_id":"ce4bhah2rcd13ifvqei0","pricing_plan_id":"cebpf4jnsgd1na2vs0mg"},{"bike_id":"4c9c34e8-5850-4d33-bcfd-59b646f8d969","system_id":"levelo_inurba_marseille","lat":43.30539,"lon":5.36562,"is_reserved":false,"is_disabled":false,"rental_uris":{"android":"levelo://app?vid=4c9c34e8-5850-4d33-bcfd-59b646f8d969","ios":"levelo://app?vid=4c9c34e8-5850-4d33-bcfd-59b646f8d969"},"vehicle_type_id":"4","last_reported":1729408078,"current_range_meters":38400,"station_id":"ce4bgs12rcd13ifvqcag","pricing_plan_id":"cebpf4jnsgd1na2vs0mg"},{"bike_id":"1a0b0904-fa4d-4834-93d4-f5594cc04786","system_id":"levelo_inurba_marseille","lat":43.28483,"lon":5.39857,"is_reserved":false,"is_disabled":false,"rental_uris":{"android":"levelo://app?vid=1a0b0904-fa4d-4834-93d4-f5594cc04786","ios":"levelo://app?vid=1a0b0904-fa4d-4834-93d4-f5594cc04786"},"vehicle_type_id":"4","last_reported":1729408078,"current_range_meters":26000,"station_id":"ce4bhl12rcd13ifvqgf0","pricing_plan_id":"cebpf4jnsgd1na2vs0mg"},{"bike_id":"4cf3e5d8-4f9a-4007-b965-622ecd99339e","system_id":"levelo_inurba_marseille","lat":43.31074,"lon":5.40085,"is_reserved":false,"is_disabled":false,"rental_uris":{"android":"levelo://app?vid=4cf3e5d8-4f9a-4007-b965-622ecd99339e","ios":"levelo://app?vid=4cf3e5d8-4f9a-4007-b965-622ecd99339e"},"vehicle_type_id":"4","last_reported":1729408078,"current_range_meters":9600,"station_id":"","pricing_plan_id":"cebpf4jnsgd1na2vs0mg"},{"bike_id":"c34e2acb-3afe-4aa1-8cdb-c481d100b683","system_id":"levelo_inurba_marseille","lat":43.32485,"lon":5.36562,"is_reserved":false,"is_disabled":false,"rental_uris":{"android":"levelo://app?vid=c34e2acb-3afe-4aa1-8cdb-c481d100b683","ios":"levelo://app?vid=c34e2acb-3afe-4aa1-8cdb-c481d100b683"},"vehicle_type_id":"4","last_reported":1729408078,"current_range_meters":22000,"station_id":"ce4bhs12rcd13ifvqhvg","pricing_plan_id":"cebpf4jnsgd1na2vs0mg"},{"bike_id":"19e0c7ba-a3f7-43e2-aca8-366f22e4e87d","system_id":"levelo_inurba_marseille","lat":43.33721,"lon":5.39183,"is_reserved":false,"is_disabled":false,"rental_uris":{"android":"levelo://app?vid=19e0c7ba-a3f7-43e2-aca8-366f22e4e87d","ios":"levelo://app?vid=19e0c7ba-a3f7-43e2-aca8-366f22e4e87d"},"vehicle_type_id":"4","last_reported":1729408078,"current_range_meters":38000,"station_id":"ce4bhr92rcd13ifvqhsg","pricing_plan_id":"cebpf4jnsgd1na2vs0mg"},{"bike_id":"dc1671ee-37a9-4563-85ac-9c05583fa151","system_id":"levelo_inurba_marseille","lat":43.30457,"lon":5.37904,"is_reserved":false,"is_disabled":false,"rental_uris":{"android":"levelo://app?vid=dc1671ee-37a9-4563-85ac-9c05583fa151","ios":"levelo://app?vid=dc1671ee-37a9-4563-85ac-9c05583fa151"},"vehicle_type_id":"4","last_reported":1729408078,"current_range_meters":38800,"station_id":"ce4bgup2rcd13ifvqcn0","pricing_plan_id":"cebpf4jnsgd1na2vs0mg"},{"bike_id":"f9928a1b-5e01-4359-8549-3825d8c7f41a","system_id":"levelo_inurba_marseille","lat":43.22928,"lon":5.35377,"is_reserved":false,"is_disabled":false,"rental_uris":{"android":"levelo://app?vid=f9928a1b-5e01-4359-8549-3825d8c7f41a","ios":"levelo://app?vid=f9928a1b-5e01-4359-8549-3825d8c7f41a"},"vehicle_type_id":"4","last_reported":1729408078,"current_range_meters":38400,"station_id":"cpo3532slgdg3j2ikp40","pricing_plan_id":"cebpf4jnsgd1na2vs0mg"},{"bike_id":"a1a7d3ed-365b-4260-b205-0c746b54ce25","system_id":"levelo_inurba_marseille","lat":43.27573,"lon":5.38422,"is_reserved":false,"is_disabled":false,"rental_uris":{"android":"levelo://app?vid=a1a7d3ed-365b-4260-b205-0c746b54ce25","ios":"levelo://app?vid=a1a7d3ed-365b-4260-b205-0c746b54ce25"},"vehicle_type_id":"4","last_reported":1729408078,"current_range_meters":39200,"station_id":"ce4bhh92rcd13ifvqfi0","pricing_plan_id":"cebpf4jnsgd1na2vs0mg"},{"bike_id":"d8ec393f-4484-4f65-969b-8ae2145a9b2b","system_id":"levelo_inurba_marseille","lat":43.31889,"lon":5.40724,"is_reserved":false,"is_disabled":false,"rental_uris":{"android":"levelo://app?vid=d8ec393f-4484-4f65-969b-8ae2145a9b2b","ios":"levelo://app?vid=d8ec393f-4484-4f65-969b-8ae2145a9b2b"},"vehicle_type_id":"4","last_reported":1729408078,"current_range_meters":39200,"station_id":"ce4bhq12rcd13ifvqhig","pricing_plan_id":"cebpf4jnsgd1na2vs0mg"},{"bike_id":"b3da6c3a-2a10-4172-a1ac-14d12204275b","system_id":"levelo_inurba_marseille","lat":43.27481,"lon":5.42457,"is_reserved":false,"is_disabled":false,"rental_uris":{"android":"levelo://app?vid=b3da6c3a-2a10-4172-a1ac-14d12204275b","ios":"levelo://app?vid=b3da6c3a-2a10-4172-a1ac-14d12204275b"},"vehicle_type_id":"4","last_reported":1729408078,"current_range_meters":39200,"station_id":"ce4bhn92rcd13ifvqgrg","pricing_plan_id":"cebpf4jnsgd1na2vs0mg"},{"bike_id":"da57fedc-7e7e-49e9-b674-21ebe804bbf1","system_id":"levelo_inurba_marseille","lat":43.31122,"lon":5.37764,"is_reserved":false,"is_disabled":false,"rental_uris":{"android":"levelo://app?vid=da57fedc-7e7e-49e9-b674-21ebe804bbf1","ios":"levelo://app?vid=da57fedc-7e7e-49e9-b674-21ebe804bbf1"},"vehicle_type_id":"4","last_reported":1729408078,"current_range_meters":31200,"station_id":"ce4bgt92rcd13ifvqcg0","pricing_plan_id":"cebpf4jnsgd1na2vs0mg"},{"bike_id":"a7b7a404-4daf-4700-b81b-e63a35f02840","system_id":"levelo_inurba_marseille","lat":43.24395,"lon":5.37064,"is_reserved":false,"is_disabled":false,"rental_uris":{"android":"levelo://app?vid=a7b7a404-4daf-4700-b81b-e63a35f02840","ios":"levelo://app?vid=a7b7a404-4daf-4700-b81b-e63a35f02840"},"vehicle_type_id":"4","last_reported":1729408078,"current_range_meters":36400,"station_id":"ce4bhhh2rcd13ifvqfk0","pricing_plan_id":"cebpf4jnsgd1na2vs0mg"},{"bike_id":"72d28181-0c72-461a-876d-d6d2ee52d80d","system_id":"levelo_inurba_marseille","lat":43.25494,"lon":5.37648,"is_reserved":false,"is_disabled":false,"rental_uris":{"android":"levelo://app?vid=72d28181-0c72-461a-876d-d6d2ee52d80d","ios":"levelo://app?vid=72d28181-0c72-461a-876d-d6d2ee52d80d"},"vehicle_type_id":"4","last_reported":1729408078,"current_range_meters":38000,"station_id":"ce4bhh12rcd13ifvqff0","pricing_plan_id":"cebpf4jnsgd1na2vs0mg"},{"bike_id":"ee026ab5-3618-48cd-990a-86fb331daa48","system_id":"levelo_inurba_marseille","lat":43.28722,"lon":5.3608,"is_reserved":false,"is_disabled":false,"rental_uris":{"android":"levelo://app?vid=ee026ab5-3618-48cd-990a-86fb331daa48","ios":"levelo://app?vid=ee026ab5-3618-48cd-990a-86fb331daa48"},"vehicle_type_id":"4","last_reported":1729408078,"current_range_meters":38800,"station_id":"cki0cbj6b192h4jlfktg","pricing_plan_id":"cebpf4jnsgd1na2vs0mg"},{"bike_id":"a0b4c194-1974-4888-85e2-7cfc7aeed116","system_id":"levelo_inurba_marseille","lat":43.31716,"lon":5.43704,"is_reserved":false,"is_disabled":false,"rental_uris":{"android":"levelo://app?vid=a0b4c194-1974-4888-85e2-7cfc7aeed116","ios":"levelo://app?vid=a0b4c194-1974-4888-85e2-7cfc7aeed116"},"vehicle_type_id":"4","last_reported":1729408078,"current_range_meters":38000,"station_id":"ce4bhp92rcd13ifvqhcg","pricing_plan_id":"cebpf4jnsgd1na2vs0mg"},{"bike_id":"84683f0d-cf9c-47e1-a697-233126fe0789","system_id":"levelo_inurba_marseille","lat":43.24666,"lon":5.3816,"is_reserved":false,"is_disabled":false,"rental_uris":{"android":"levelo://app?vid=84683f0d-cf9c-47e1-a697-233126fe0789","ios":"levelo://app?vid=84683f0d-cf9c-47e1-a697-233126fe0789"},"vehicle_type_id":"4","last_reported":1729408078,"current_range_meters":37600,"station_id":"ce4bhih2rcd13ifvqfr0","pricing_plan_id":"cebpf4jnsgd1na2vs0mg"},{"bike_id":"b0e10746-11f2-4c4e-90bb-c69e6264f7f1","system_id":"levelo_inurba_marseille","lat":43.31355,"lon":5.38503,"is_reserved":false,"is_disabled":false,"rental_uris":{"android":"levelo://app?vid=b0e10746-11f2-4c4e-90bb-c69e6264f7f1","ios":"levelo://app?vid=b0e10746-11f2-4c4e-90bb-c69e6264f7f1"},"vehicle_type_id":"4","last_reported":1729408078,"current_range_meters":25200,"station_id":"ce4bgt92rcd13ifvqcf0","pricing_plan_id":"cebpf4jnsgd1na2vs0mg"},{"bike_id":"ad9a42f3-8727-4e40-a621-56d9a1c9117f","system_id":"levelo_inurba_marseille","lat":43.30558,"lon":5.36532,"is_reserved":false,"is_disabled":false,"rental_uris":{"android":"levelo://app?vid=ad9a42f3-8727-4e40-a621-56d9a1c9117f","ios":"levelo://app?vid=ad9a42f3-8727-4e40-a621-56d9a1c9117f"},"vehicle_type_id":"4","last_reported":1729408078,"current_range_meters":30400,"station_id":"ce4bgs12rcd13ifvqcag","pricing_plan_id":"cebpf4jnsgd1na2vs0mg"},{"bike_id":"f48b72db-9bde-43a7-b377-39126943e043","system_id":"levelo_inurba_marseille","lat":43.26684,"lon":5.3827,"is_reserved":false,"is_disabled":false,"rental_uris":{"android":"levelo://app?vid=f48b72db-9bde-43a7-b377-39126943e043","ios":"levelo://app?vid=f48b72db-9bde-43a7-b377-39126943e043"},"vehicle_type_id":"4","last_reported":1729408078,"current_range_meters":31200,"station_id":"ce4bhg92rcd13ifvqf90","pricing_plan_id":"cebpf4jnsgd1na2vs0mg"},{"bike_id":"78d24d41-71e6-4e87-9147-735fa7bb813d","system_id":"levelo_inurba_marseille","lat":43.30883,"lon":5.37193,"is_reserved":false,"is_disabled":false,"rental_uris":{"android":"levelo://app?vid=78d24d41-71e6-4e87-9147-735fa7bb813d","ios":"levelo://app?vid=78d24d41-71e6-4e87-9147-735fa7bb813d"},"vehicle_type_id":"4","last_reported":1729408078,"current_range_meters":38800,"station_id":"ce4bguh2rcd13ifvqckg","pricing_plan_id":"cebpf4jnsgd1na2vs0mg"},{"bike_id":"7d50997c-97e5-450b-8a34-fa22993db999","system_id":"levelo_inurba_marseille","lat":43.23188,"lon":5.39977,"is_reserved":false,"is_disabled":false,"rental_uris":{"android":"levelo://app?vid=7d50997c-97e5-450b-8a34-fa22993db999","ios":"levelo://app?vid=7d50997c-97e5-450b-8a34-fa22993db999"},"vehicle_type_id":"4","last_reported":1729408078,"current_range_meters":38000,"station_id":"ce4bhn12rcd13ifvqgqg","pricing_plan_id":"cebpf4jnsgd1na2vs0mg"},{"bike_id":"8daa2212-5c0a-4ab0-92a0-040c0cfbf0a1","system_id":"levelo_inurba_marseille","lat":43.293549,"lon":5.373912,"is_reserved":false,"is_disabled":false,"rental_uris":{"android":"levelo://app?vid=8daa2212-5c0a-4ab0-92a0-040c0cfbf0a1","ios":"levelo://app?vid=8daa2212-5c0a-4ab0-92a0-040c0cfbf0a1"},"vehicle_type_id":"4","last_reported":1729408078,"current_range_meters":36800,"station_id":"ce4bgi12rcd13ifvqb70","pricing_plan_id":"cebpf4jnsgd1na2vs0mg"},{"bike_id":"018e2329-1568-4e8f-9415-7dfca9b582e9","system_id":"levelo_inurba_marseille","lat":43.288088,"lon":5.379281,"is_reserved":false,"is_disabled":false,"rental_uris":{"android":"levelo://app?vid=018e2329-1568-4e8f-9415-7dfca9b582e9","ios":"levelo://app?vid=018e2329-1568-4e8f-9415-7dfca9b582e9"},"vehicle_type_id":"4","last_reported":1729408078,"current_range_meters":20000,"station_id":"ce4bh9p2rcd13ifvqec0","pricing_plan_id":"cebpf4jnsgd1na2vs0mg"},{"bike_id":"aad109e1-be95-4042-959f-9781027b7aa6","system_id":"levelo_inurba_marseille","lat":43.30142,"lon":5.37413,"is_reserved":false,"is_disabled":false,"rental_uris":{"android":"levelo://app?vid=aad109e1-be95-4042-959f-9781027b7aa6","ios":"levelo://app?vid=aad109e1-be95-4042-959f-9781027b7aa6"},"vehicle_type_id":"4","last_reported":1729408078,"current_range_meters":39200,"station_id":"ce4bgs92rcd13ifvqcc0","pricing_plan_id":"cebpf4jnsgd1na2vs0mg"},{"bike_id":"024bd572-001b-4880-ba52-71e7b69a39e1","system_id":"levelo_inurba_marseille","lat":43.2782,"lon":5.39219,"is_reserved":false,"is_disabled":false,"rental_uris":{"android":"levelo://app?vid=024bd572-001b-4880-ba52-71e7b69a39e1","ios":"levelo://app?vid=024bd572-001b-4880-ba52-71e7b69a39e1"},"vehicle_type_id":"4","last_reported":1729408078,"current_range_meters":24400,"station_id":"ce4bhjp2rcd13ifvqga0","pricing_plan_id":"cebpf4jnsgd1na2vs0mg"},{"bike_id":"021d2da3-42dd-4c19-bf9e-5e37c868e26c","system_id":"levelo_inurba_marseille","lat":43.28725,"lon":5.36088,"is_reserved":false,"is_disabled":false,"rental_uris":{"android":"levelo://app?vid=021d2da3-42dd-4c19-bf9e-5e37c868e26c","ios":"levelo://app?vid=021d2da3-42dd-4c19-bf9e-5e37c868e26c"},"vehicle_type_id":"4","last_reported":1729408078,"current_range_meters":4400,"station_id":"cki0cbj6b192h4jlfktg","pricing_plan_id":"cebpf4jnsgd1na2vs0mg"},{"bike_id":"251c2ece-8912-4dfb-9847-d8f9ff013dd6","system_id":"levelo_inurba_marseille","lat":43.24663,"lon":5.38162,"is_reserved":false,"is_disabled":false,"rental_uris":{"android":"levelo://app?vid=251c2ece-8912-4dfb-9847-d8f9ff013dd6","ios":"levelo://app?vid=251c2ece-8912-4dfb-9847-d8f9ff013dd6"},"vehicle_type_id":"4","last_reported":1729408078,"current_range_meters":22800,"station_id":"ce4bhih2rcd13ifvqfr0","pricing_plan_id":"cebpf4jnsgd1na2vs0mg"},{"bike_id":"ace7c196-7914-431b-84b0-66173ce12310","system_id":"levelo_inurba_marseille","lat":43.28935,"lon":5.38399,"is_reserved":false,"is_disabled":false,"rental_uris":{"android":"levelo://app?vid=ace7c196-7914-431b-84b0-66173ce12310","ios":"levelo://app?vid=ace7c196-7914-431b-84b0-66173ce12310"},"vehicle_type_id":"4","last_reported":1729408078,"current_range_meters":35600,"station_id":"ce4bh612rcd13ifvqe6g","pricing_plan_id":"cebpf4jnsgd1na2vs0mg"},{"bike_id":"831694b9-27d1-4291-a73b-97f20f1db91f","system_id":"levelo_inurba_marseille","lat":43.25094,"lon":5.39523,"is_reserved":false,"is_disabled":false,"rental_uris":{"android":"levelo://app?vid=831694b9-27d1-4291-a73b-97f20f1db91f","ios":"levelo://app?vid=831694b9-27d1-4291-a73b-97f20f1db91f"},"vehicle_type_id":"4","last_reported":1729408078,"current_range_meters":38000,"station_id":"ce4bhm12rcd13ifvqgkg","pricing_plan_id":"cebpf4jnsgd1na2vs0mg"},{"bike_id":"bacd04d9-1af5-4d7d-9505-058e1b611ff9","system_id":"levelo_inurba_marseille","lat":43.26193,"lon":5.37448,"is_reserved":false,"is_disabled":false,"rental_uris":{"android":"levelo://app?vid=bacd04d9-1af5-4d7d-9505-058e1b611ff9","ios":"levelo://app?vid=bacd04d9-1af5-4d7d-9505-058e1b611ff9"},"vehicle_type_id":"4","last_reported":1729408078,"current_range_meters":37600,"station_id":"ce4bhgp2rcd13ifvqfc0","pricing_plan_id":"cebpf4jnsgd1na2vs0mg"},{"bike_id":"14f7eaa1-664e-49b4-8b73-659cb46ec435","system_id":"levelo_inurba_marseille","lat":43.27434,"lon":5.39406,"is_reserved":false,"is_disabled":false,"rental_uris":{"android":"levelo://app?vid=14f7eaa1-664e-49b4-8b73-659cb46ec435","ios":"levelo://app?vid=14f7eaa1-664e-49b4-8b73-659cb46ec435"},"vehicle_type_id":"4","last_reported":1729408078,"current_range_meters":38000,"station_id":"ce4bhdp2rcd13ifvqf20","pricing_plan_id":"cebpf4jnsgd1na2vs0mg"},{"bike_id":"96c0370a-2117-4376-938b-85413456106b","system_id":"levelo_inurba_marseille","lat":43.31713,"lon":5.37767,"is_reserved":false,"is_disabled":false,"rental_uris":{"android":"levelo://app?vid=96c0370a-2117-4376-938b-85413456106b","ios":"levelo://app?vid=96c0370a-2117-4376-938b-85413456106b"},"vehicle_type_id":"4","last_reported":1729408078,"current_range_meters":39200,"station_id":"ce4bgth2rcd13ifvqch0","pricing_plan_id":"cebpf4jnsgd1na2vs0mg"},{"bike_id":"e27667ae-f457-4f31-80c6-ebe260e821b5","system_id":"levelo_inurba_marseille","lat":43.24802,"lon":5.37454,"is_reserved":false,"is_disabled":false,"rental_uris":{"android":"levelo://app?vid=e27667ae-f457-4f31-80c6-ebe260e821b5","ios":"levelo://app?vid=e27667ae-f457-4f31-80c6-ebe260e821b5"},"vehicle_type_id":"4","last_reported":1729408078,"current_range_meters":39200,"station_id":"ce4bhgh2rcd13ifvqfb0","pricing_plan_id":"cebpf4jnsgd1na2vs0mg"},{"bike_id":"d66bd0ae-b590-4029-ae7d-0fa65a35f925","system_id":"levelo_inurba_marseille","lat":43.336,"lon":5.41019,"is_reserved":false,"is_disabled":false,"rental_uris":{"android":"levelo://app?vid=d66bd0ae-b590-4029-ae7d-0fa65a35f925","ios":"levelo://app?vid=d66bd0ae-b590-4029-ae7d-0fa65a35f925"},"vehicle_type_id":"4","last_reported":1729408078,"current_range_meters":18000,"station_id":"ce4bhqh2rcd13ifvqhmg","pricing_plan_id":"cebpf4jnsgd1na2vs0mg"},{"bike_id":"1d2180f5-fb21-4098-aebc-efca26ac2abe","system_id":"levelo_inurba_marseille","lat":43.27624,"lon":5.36107,"is_reserved":false,"is_disabled":false,"rental_uris":{"android":"levelo://app?vid=1d2180f5-fb21-4098-aebc-efca26ac2abe","ios":"levelo://app?vid=1d2180f5-fb21-4098-aebc-efca26ac2abe"},"vehicle_type_id":"4","last_reported":1729408078,"current_range_meters":38000,"station_id":"ce4bgj92rcd13ifvqbe0","pricing_plan_id":"cebpf4jnsgd1na2vs0mg"},{"bike_id":"bdddfe23-e73a-465b-8f5d-33c18d897ac7","system_id":"levelo_inurba_marseille","lat":43.30148,"lon":5.38074,"is_reserved":false,"is_disabled":false,"rental_uris":{"android":"levelo://app?vid=bdddfe23-e73a-465b-8f5d-33c18d897ac7","ios":"levelo://app?vid=bdddfe23-e73a-465b-8f5d-33c18d897ac7"},"vehicle_type_id":"4","last_reported":1729408078,"current_range_meters":38800,"station_id":"ce4bgjp2rcd13ifvqbh0","pricing_plan_id":"cebpf4jnsgd1na2vs0mg"},{"bike_id":"97df47e1-06ff-4c7d-9826-ef85034bd3cf","system_id":"levelo_inurba_marseille","lat":43.26191,"lon":5.37449,"is_reserved":false,"is_disabled":false,"rental_uris":{"android":"levelo://app?vid=97df47e1-06ff-4c7d-9826-ef85034bd3cf","ios":"levelo://app?vid=97df47e1-06ff-4c7d-9826-ef85034bd3cf"},"vehicle_type_id":"4","last_reported":1729408078,"current_range_meters":30400,"station_id":"ce4bhgp2rcd13ifvqfc0","pricing_plan_id":"cebpf4jnsgd1na2vs0mg"},{"bike_id":"0070ae3c-019c-45a4-b7c4-cac83bbfa099","system_id":"levelo_inurba_marseille","lat":43.28458,"lon":5.35888,"is_reserved":false,"is_disabled":false,"rental_uris":{"android":"levelo://app?vid=0070ae3c-019c-45a4-b7c4-cac83bbfa099","ios":"levelo://app?vid=0070ae3c-019c-45a4-b7c4-cac83bbfa099"},"vehicle_type_id":"4","last_reported":1729408078,"current_range_meters":8000,"station_id":"ce4bhah2rcd13ifvqei0","pricing_plan_id":"cebpf4jnsgd1na2vs0mg"},{"bike_id":"02b99d41-0727-45dd-8b05-f76d6d331f44","system_id":"levelo_inurba_marseille","lat":43.28103,"lon":5.37843,"is_reserved":false,"is_disabled":false,"rental_uris":{"android":"levelo://app?vid=02b99d41-0727-45dd-8b05-f76d6d331f44","ios":"levelo://app?vid=02b99d41-0727-45dd-8b05-f76d6d331f44"},"vehicle_type_id":"4","last_reported":1729408078,"current_range_meters":10000,"station_id":"ce4bha12rcd13ifvqee0","pricing_plan_id":"cebpf4jnsgd1na2vs0mg"},{"bike_id":"cfdbc031-1d29-43df-9f69-452b0c9f4985","system_id":"levelo_inurba_marseille","lat":43.31275,"lon":5.40163,"is_reserved":false,"is_disabled":false,"rental_uris":{"android":"levelo://app?vid=cfdbc031-1d29-43df-9f69-452b0c9f4985","ios":"levelo://app?vid=cfdbc031-1d29-43df-9f69-452b0c9f4985"},"vehicle_type_id":"4","last_reported":1729408078,"current_range_meters":10000,"station_id":"ce4bh092rcd13ifvqd30","pricing_plan_id":"cebpf4jnsgd1na2vs0mg"},{"bike_id":"f3b18d4c-688e-4e02-9104-7f1d559134af","system_id":"levelo_inurba_marseille","lat":43.32095,"lon":5.36766,"is_reserved":false,"is_disabled":false,"rental_uris":{"android":"levelo://app?vid=f3b18d4c-688e-4e02-9104-7f1d559134af","ios":"levelo://app?vid=f3b18d4c-688e-4e02-9104-7f1d559134af"},"vehicle_type_id":"4","last_reported":1729408078,"current_range_meters":37600,"station_id":"ce4bhrh2rcd13ifvqhug","pricing_plan_id":"cebpf4jnsgd1na2vs0mg"},{"bike_id":"99a36e8e-83dc-4174-97c1-e95b5764b998","system_id":"levelo_inurba_marseille","lat":43.2396,"lon":5.36637,"is_reserved":false,"is_disabled":false,"rental_uris":{"android":"levelo://app?vid=99a36e8e-83dc-4174-97c1-e95b5764b998","ios":"levelo://app?vid=99a36e8e-83dc-4174-97c1-e95b5764b998"},"vehicle_type_id":"4","last_reported":1729408078,"current_range_meters":10000,"station_id":"ce4bhi12rcd13ifvqfp0","pricing_plan_id":"cebpf4jnsgd1na2vs0mg"},