{"last_updated":1732824611,"ttl":60,"version":"2.2","data":{"bikes":[{"bike_id":"32ab80bc-e625-46a0-8a89-d877000fa341","system_id":"levelo_inurba_marseille","lat":43.31324,"lon":5.39695,"is_reserved":false,"is_disabled":false,"rental_uris":{"android":"levelo://app?vid=32ab80bc-e625-46a0-8a89-d877000fa341","ios":"levelo://app?vid=32ab80bc-e625-46a0-8a89-d877000fa341"},"vehicle_type_id":"4","last_reported":1732824611,"current_range_meters":19600,"station_id":"ce4bgvp2rcd13ifvqcu0","pricing_plan_id":"cebpf4jnsgd1na2vs0mg"},{"bike_id":"b856c8b4-412d-4c25-bdd4-e6b29aed04cb","system_id":"levelo_inurba_marseille","lat":43.22932,"lon":5.35375,"is_reserved":false,"is_disabled":false,"rental_uris":{"android":"levelo://app?vid=b856c8b4-412d-4c25-bdd4-e6b29aed04cb","ios":"levelo://app?vid=b856c8b4-412d-4c25-bdd4-e6b29aed04cb"},"vehicle_type_id":"4","last_reported":1732824611,"current_range_meters":38800,"station_id":"cpo3532slgdg3j2ikp40","pricing_plan_id":"cebpf4jnsgd1na2vs0mg"},{"bike_id":"f62dfa6d-b0d5-4735-8ee9-836e260c5ddb","system_id":"levelo_inurba_marseille","lat":43.30252,"lon":5.40056,"is_reserved":false,"is_disabled":false,"rental_uris":{"android":"levelo://app?vid=f62dfa6d-b0d5-4735-8ee9-836e260c5ddb","ios":"levelo://app?vid=f62dfa6d-b0d5-4735-8ee9-836e260c5ddb"},"vehicle_type_id":"4","last_reported":1732824611,"current_range_meters":11200,"station_id":"ce4bgvh2rcd13ifvqcs0","pricing_plan_id":"cebpf4jnsgd1na2vs0mg"},{"bike_id":"7227eb96-d386-412d-821f-5a72792a8416","system_id":"levelo_inurba_marseille","lat":43.2841,"lon":5.37521,"is_reserved":false,"is_disabled":false,"rental_uris":{"android":"levelo://app?vid=7227eb96-d386-412d-821f-5a72792a8416","ios":"levelo://app?vid=7227eb96-d386-412d-821f-5a72792a8416"},"vehicle_type_id":"4","last_reported":1732824611,"current_range_meters":37600,"station_id":"ce4bh412rcd13ifvqds0","pricing_plan_id":"cebpf4jnsgd1na2vs0mg"},{"bike_id":"3a4e264e-4408-43e1-b485-af873bad4fca","system_id":"levelo_inurba_marseille","lat":43.28491,"lon":5.38566,"is_reserved":false,"is_disabled":false,"rental_uris":{"android":"levelo://app?vid=3a4e264e-4408-43e1-b485-af873bad4fca","ios":"levelo://app?vid=3a4e264e-4408-43e1-b485-af873bad4fca"},"vehicle_type_id":"4","last_reported":1732824611,"current_range_meters":32800,"station_id":"ce4bh8p2rcd13ifvqeb0","pricing_plan_id":"cebpf4jnsgd1na2vs0mg"},{"bike_id":"fac63031-3de9-41dc-941a-a395646bc4e4","system_id":"levelo_inurba_marseille","lat":43.25578,"lon":5.38234,"is_reserved":false,"is_disabled":false,"rental_uris":{"android":"levelo://app?vid=fac63031-3de9-41dc-941a-a395646bc4e4","ios":"levelo://app?vid=fac63031-3de9-41dc-941a-a395646bc4e4"},"vehicle_type_id":"4","last_reported":1732824611,"current_range_meters":9600,"station_id":"ce4bhih2rcd13ifvqfs0","pricing_plan_id":"cebpf4jnsgd1na2vs0mg"},{"bike_id":"78228560-6fbf-4122-9d03-128a049c2bf9","system_id":"levelo_inurba_marseille","lat":43.23191,"lon":5.39969,"is_reserved":false,"is_disabled":false,"rental_uris":{"android":"levelo://app?vid=78228560-6fbf-4122-9d03-128a049c2bf9","ios":"levelo://app?vid=78228560-6fbf-4122-9d03-128a049c2bf9"},"vehicle_type_id":"4","last_reported":1732824611,"current_range_meters":22800,"station_id":"ce4bhn12rcd13ifvqgqg","pricing_plan_id":"cebpf4jnsgd1na2vs0mg"},{"bike_id":"8bf48f06-e12d-4024-b839-2c83b8950feb","system_id":"levelo_inurba_marseille","lat":43.28837,"lon":5.39318,"is_reserved":false,"is_disabled":false,"rental_uris":{"android":"levelo://app?vid=8bf48f06-e12d-4024-b839-2c83b8950feb","ios":"levelo://app?vid=8bf48f06-e12d-4024-b839-2c83b8950feb"},"vehicle_type_id":"4","last_reported":1732824611,"current_range_meters":24800,"station_id":"ce4bh2p2rcd13ifvqdi0","pricing_plan_id":"cebpf4jnsgd1na2vs0mg"},{"bike_id":"c35eaf00-fbf3-46d8-a54e-9d55b849e1e5","system_id":"levelo_inurba_marseille","lat":43.31465,"lon":5.37396,"is_reserved":false,"is_disabled":false,"rental_uris":{"android":"levelo://app?vid=c35eaf00-fbf3-46d8-a54e-9d55b849e1e5","ios":"levelo://app?vid=c35eaf00-fbf3-46d8-a54e-9d55b849e1e5"},"vehicle_type_id":"4","last_reported":1732824611,"current_range_meters":38800,"station_id":"","pricing_plan_id":"cebpf4jnsgd1na2vs0mg"},{"bike_id":"4b7d29bf-038d-4bed-b735-693a7ae5e93a","system_id":"levelo_inurba_marseille","lat":43.28451,"lon":5.35893,"is_reserved":false,"is_disabled":true,"rental_uris":{"android":"levelo://app?vid=4b7d29bf-038d-4bed-b735-693a7ae5e93a","ios":"levelo://app?vid=4b7d29bf-038d-4bed-b735-693a7ae5e93a"},"vehicle_type_id":"4","last_reported":1732824611,"current_range_meters":0,"station_id":"ce4bhah2rcd13ifvqei0","pricing_plan_id":"cebpf4jnsgd1na2vs0mg"},{"bike_id":"63d5ea0e-a914-4314-9ef8-c7ac468ecf56","system_id":"levelo_inurba_marseille","lat":43.28152,"lon":5.4264,"is_reserved":false,"is_disabled":false,"rental_uris":{"android":"levelo://app?vid=63d5ea0e-a914-4314-9ef8-c7ac468ecf56","ios":"levelo://app?vid=63d5ea0e-a914-4314-9ef8-c7ac468ecf56"},"vehicle_type_id":"4","last_reported":1732824611,"current_range_meters":28000,"station_id":"ce4bhnh2rcd13ifvqgug","pricing_plan_id":"cebpf4jnsgd1na2vs0mg"},{"bike_id":"c9fb6819-c048-4bb7-bb71-207e20cce37a","system_id":"levelo_inurba_marseille","lat":43.31332,"lon":5.39682,"is_reserved":false,"is_disabled":false,"rental_uris":{"android":"levelo://app?vid=c9fb6819-c048-4bb7-bb71-207e20cce37a","ios":"levelo://app?vid=c9fb6819-c048-4bb7-bb71-207e20cce37a"},"vehicle_type_id":"4","last_reported":1732824611,"current_range_meters":3200,"station_id":"ce4bgvp2rcd13ifvqcu0","pricing_plan_id":"cebpf4jnsgd1na2vs0mg"},{"bike_id":"0f7d60aa-ebf6-41f6-9788-9541356b826e","system_id":"levelo_inurba_marseille","lat":43.284883,"lon":5.384009,"is_reserved":false,"is_disabled":false,"rental_uris":{"android":"levelo://app?vid=0f7d60aa-ebf6-41f6-9788-9541356b826e","ios":"levelo://app?vid=0f7d60aa-ebf6-41f6-9788-9541356b826e"},"vehicle_type_id":"4","last_reported":1732824611,"current_range_meters":36400,"station_id":"ce4bh512rcd13ifvqe3g","pricing_plan_id":"cebpf4jnsgd1na2vs0mg"},{"bike_id":"4c7bbe18-3500-4c15-8c72-d661435c19ec","system_id":"levelo_inurba_marseille","lat":43.29269,"lon":5.36856,"is_reserved":false,"is_disabled":false,"rental_uris":{"android":"levelo://app?vid=4c7bbe18-3500-4c15-8c72-d661435c19ec","ios":"levelo://app?vid=4c7bbe18-3500-4c15-8c72-d661435c19ec"},"vehicle_type_id":"4","last_reported":1732824611,"current_range_meters":24800,"station_id":"ce4bhbp2rcd13ifvqesg","pricing_plan_id":"cebpf4jnsgd1na2vs0mg"},{"bike_id":"fad34e97-38d9-479a-a62d-50620591c64e","system_id":"levelo_inurba_marseille","lat":43.29966,"lon":5.38497,"is_reserved":false,"is_disabled":false,"rental_uris":{"android":"levelo://app?vid=fad34e97-38d9-479a-a62d-50620591c64e","ios":"levelo://app?vid=fad34e97-38d9-479a-a62d-50620591c64e"},"vehicle_type_id":"4","last_reported":1732824611,"current_range_meters":16400,"station_id":"ce4bgj92rcd13ifvqbd0","pricing_plan_id":"cebpf4jnsgd1na2vs0mg"},{"bike_id":"5cb0945a-cfc8-4830-8a42-15cea78ec0ff","system_id":"levelo_inurba_marseille","lat":43.2837,"lon":5.38629,"is_reserved":false,"is_disabled":false,"rental_uris":{"android":"levelo://app?vid=5cb0945a-cfc8-4830-8a42-15cea78ec0ff","ios":"levelo://app?vid=5cb0945a-cfc8-4830-8a42-15cea78ec0ff"},"vehicle_type_id":"4","last_reported":1732824611,"current_range_meters":29600,"station_id":"ce4bh492rcd13ifvqdvg","pricing_plan_id":"cebpf4jnsgd1na2vs0mg"},{"bike_id":"ce15a521-8a1d-47b7-92c8-091ca367d00e","system_id":"levelo_inurba_marseille","lat":43.33749,"lon":5.37439,"is_reserved":false,"is_disabled":false,"rental_uris":{"android":"levelo://app?vid=ce15a521-8a1d-47b7-92c8-091ca367d00e","ios":"levelo://app?vid=ce15a521-8a1d-47b7-92c8-091ca367d00e"},"vehicle_type_id":"4","last_reported":1732824611,"current_range_meters":36400,"station_id":"","pricing_plan_id":"cebpf4jnsgd1na2vs0mg"},{"bike_id":"9b36b344-4f78-4c40-b25d-b45a6dce19e1","system_id":"levelo_inurba_marseille","lat":43.29298,"lon":5.37464,"is_reserved":false,"is_disabled":false,"rental_uris":{"android":"levelo://app?vid=9b36b344-4f78-4c40-b25d-b45a6dce19e1","ios":"levelo://app?vid=9b36b344-4f78-4c40-b25d-b45a6dce19e1"},"vehicle_type_id":"4","last_reported":1732824611,"current_range_meters":9600,"station_id":"ce4bgi12rcd13ifvqb70","pricing_plan_id":"cebpf4jnsgd1na2vs0mg"},{"bike_id":"a8cfb7c5-59c0-4772-a793-b840317f8234","system_id":"levelo_inurba_marseille","lat":43.29249,"lon":5.409,"is_reserved":false,"is_disabled":true,"rental_uris":{"android":"levelo://app?vid=a8cfb7c5-59c0-4772-a793-b840317f8234","ios":"levelo://app?vid=a8cfb7c5-59c0-4772-a793-b840317f8234"},"vehicle_type_id":"4","last_reported":1732824611,"current_range_meters":39200,"station_id":"ce4bh192rcd13ifvqdc0","pricing_plan_id":"cebpf4jnsgd1na2vs0mg"},{"bike_id":"ba2d1a62-e632-4169-9a28-b83f6acba689","system_id":"levelo_inurba_marseille","lat":43.2633,"lon":5.40457,"is_reserved":false,"is_disabled":true,"rental_uris":{"android":"levelo://app?vid=ba2d1a62-e632-4169-9a28-b83f6acba689","ios":"levelo://app?vid=ba2d1a62-e632-4169-9a28-b83f6acba689"},"vehicle_type_id":"4","last_reported":1732824611,"current_range_meters":0,"station_id":"","pricing_plan_id":"cebpf4jnsgd1na2vs0mg"},{"bike_id":"106e461f-3874-428c-8522-21fc2ca5b5c8","system_id":"levelo_inurba_marseille","lat":43.28032,"lon":5.36929,"is_reserved":false,"is_disabled":false,"rental_uris":{"android":"levelo://app?vid=106e461f-3874-428c-8522-21fc2ca5b5c8","ios":"levelo://app?vid=106e461f-3874-428c-8522-21fc2ca5b5c8"},"vehicle_type_id":"4","last_reported":1732824611,"current_range_meters":38800,"station_id":"ce4bha12rcd13ifvqef0","pricing_plan_id":"cebpf4jnsgd1na2vs0mg"},{"bike_id":"d3384282-9130-4521-b0f1-6d3f0f2f403f","system_id":"levelo_inurba_marseille","lat":43.31448,"lon":5.37073,"is_reserved":false,"is_disabled":false,"rental_uris":{"android":"levelo://app?vid=d3384282-9130-4521-b0f1-6d3f0f2f403f","ios":"levelo://app?vid=d3384282-9130-4521-b0f1-6d3f0f2f403f"},"vehicle_type_id":"4","last_reported":1732824611,"current_range_meters":38800,"station_id":"","pricing_plan_id":"cebpf4jnsgd1na2vs0mg"},{"bike_id":"d094fcad-31e5-49c3-856f-91ce5533a202","system_id":"levelo_inurba_marseille","lat":43.29524,"lon":5.38554,"is_reserved":false,"is_disabled":false,"rental_uris":{"android":"levelo://app?vid=d094fcad-31e5-49c3-856f-91ce5533a202","ios":"levelo://app?vid=d094fcad-31e5-49c3-856f-91ce5533a202"},"vehicle_type_id":"4","last_reported":1732824611,"current_range_meters":13600,"station_id":"ce4bgih2rcd13ifvqba0","pricing_plan_id":"cebpf4jnsgd1na2vs0mg"},{"bike_id":"ff9a1ec5-be80-43ec-9b6e-d2bb637a4f30","system_id":"levelo_inurba_marseille","lat":43.28751,"lon":5.40033,"is_reserved":false,"is_disabled":true,"rental_uris":{"android":"levelo://app?vid=ff9a1ec5-be80-43ec-9b6e-d2bb637a4f30","ios":"levelo://app?vid=ff9a1ec5-be80-43ec-9b6e-d2bb637a4f30"},"vehicle_type_id":"4","last_reported":1732824611,"current_range_meters":34000,"station_id":"ce4bho92rcd13ifvqh3g","pricing_plan_id":"cebpf4jnsgd1na2vs0mg"},{"bike_id":"bc1c0ca3-8c8a-4d55-83cf-3aa521cd2724","system_id":"levelo_inurba_marseille","lat":43.25107,"lon":5.40329,"is_reserved":false,"is_disabled":false,"rental_uris":{"android":"levelo://app?vid=bc1c0ca3-8c8a-4d55-83cf-3aa521cd2724","ios":"levelo://app?vid=bc1c0ca3-8c8a-4d55-83cf-3aa521cd2724"},"vehicle_type_id":"4","last_reported":1732824611,"current_range_meters":38800,"station_id":"ce4bhlh2rcd13ifvqgig","pricing_plan_id":"cebpf4jnsgd1na2vs0mg"},{"bike_id":"6f7949e1-de87-4a49-8620-fec27e04447f","system_id":"levelo_inurba_marseille","lat":43.33727,"lon":5.39192,"is_reserved":false,"is_disabled":false,"rental_uris":{"android":"levelo://app?vid=6f7949e1-de87-4a49-8620-fec27e04447f","ios":"levelo://app?vid=6f7949e1-de87-4a49-8620-fec27e04447f"},"vehicle_type_id":"4","last_reported":1732824611,"current_range_meters":34000,"station_id":"ce4bhr92rcd13ifvqhsg","pricing_plan_id":"cebpf4jnsgd1na2vs0mg"},{"bike_id":"d6af473c-317d-44a4-ba58-092abf84584f","system_id":"levelo_inurba_marseille","lat":43.22935,"lon":5.35379,"is_reserved":false,"is_disabled":true,"rental_uris":{"android":"levelo://app?vid=d6af473c-317d-44a4-ba58-092abf84584f","ios":"levelo://app?vid=d6af473c-317d-44a4-ba58-092abf84584f"},"vehicle_type_id":"4","last_reported":1732824611,"current_range_meters":1200,"station_id":"cpo3532slgdg3j2ikp40","pricing_plan_id":"cebpf4jnsgd1na2vs0mg"},{"bike_id":"8b564fdb-7d62-4fcf-a975-896ac83ae1c6","system_id":"levelo_inurba_marseille","lat":43.29848,"lon":5.36279,"is_reserved":false,"is_disabled":false,"rental_uris":{"android":"levelo://app?vid=8b564fdb-7d62-4fcf-a975-896ac83ae1c6","ios":"levelo://app?vid=8b564fdb-7d62-4fcf-a975-896ac83ae1c6"},"vehicle_type_id":"4","last_reported":1732824611,"current_range_meters":26800,"station_id":"ce4bgpp2rcd13ifvqc3g","pricing_plan_id":"cebpf4jnsgd1na2vs0mg"},{"bike_id":"d873b31d-bfeb-45ba-95cb-ddd4b051333e","system_id":"levelo_inurba_marseille","lat":43.29787,"lon":5.38085,"is_reserved":false,"is_disabled":true,"rental_uris":{"android":"levelo://app?vid=d873b31d-bfeb-45ba-95cb-ddd4b051333e","ios":"levelo://app?vid=d873b31d-bfeb-45ba-95cb-ddd4b051333e"},"vehicle_type_id":"4","last_reported":1732824611,"current_range_meters":38800,"station_id":"ce4bgip2rcd13ifvqbb0","pricing_plan_id":"cebpf4jnsgd1na2vs0mg"},{"bike_id":"4181e642-ae48-4de3-b88f-c4f524dcbbeb","system_id":"levelo_inurba_marseille","lat":43.28616,"lon":5.35105,"is_reserved":false,"is_disabled":false,"rental_uris":{"android":"levelo://app?vid=4181e642-ae48-4de3-b88f-c4f524dcbbeb","ios":"levelo://app?vid=4181e642-ae48-4de3-b88f-c4f524dcbbeb"},"vehicle_type_id":"4","last_reported":1732824611,"current_range_meters":16800,"station_id":"ce4bhch2rcd13ifvqeug","pricing_plan_id":"cebpf4jnsgd1na2vs0mg"},{"bike_id":"5c3593b5-9658-40ac-a2c8-fc9d7e04cb8e","system_id":"levelo_inurba_marseille","lat":43.30181,"lon":5.36628,"is_reserved":false,"is_disabled":false,"rental_uris":{"android":"levelo://app?vid=5c3593b5-9658-40ac-a2c8-fc9d7e04cb8e","ios":"levelo://app?vid=5c3593b5-9658-40ac-a2c8-fc9d7e04cb8e"},"vehicle_type_id":"4","last_reported":1732824611,"current_range_meters":32800,"station_id":"ce4bgrh2rcd13ifvqc8g","pricing_plan_id":"cebpf4jnsgd1na2vs0mg"},{"bike_id":"95bce0c8-7aac-4804-81c7-e4d0b22cb60c","system_id":"levelo_inurba_marseille","lat":43.23965,"lon":5.36625,"is_reserved":false,"is_disabled":false,"rental_uris":{"android":"levelo://app?vid=95bce0c8-7aac-4804-81c7-e4d0b22cb60c","ios":"levelo://app?vid=95bce0c8-7aac-4804-81c7-e4d0b22cb60c"},"vehicle_type_id":"4","last_reported":1732824611,"current_range_meters":38400,"station_id":"ce4bhi12rcd13ifvqfp0","pricing_plan_id":"cebpf4jnsgd1na2vs0mg"},{"bike_id":"8622cad2-1237-46d2-a962-ae34f847b1fd","system_id":"levelo_inurba_marseille","lat":43.2511,"lon":5.40323,"is_reserved":false,"is_disabled":false,"rental_uris":{"android":"levelo://app?vid=8622cad2-1237-46d2-a962-ae34f847b1fd","ios":"levelo://app?vid=8622cad2-1237-46d2-a962-ae34f847b1fd"},"vehicle_type_id":"4","last_reported":1732824611,"current_range_meters":23200,"station_id":"ce4bhlh2rcd13ifvqgig","pricing_plan_id":"cebpf4jnsgd1na2vs0mg"},{"bike_id":"adf2b923-6b30-41fd-a2c3-d189bb813bd0","system_id":"levelo_inurba_marseille","lat":43.28152,"lon":5.42653,"is_reserved":false,"is_disabled":true,"rental_uris":{"android":"levelo://app?vid=adf2b923-6b30-41fd-a2c3-d189bb813bd0","ios":"levelo://app?vid=adf2b923-6b30-41fd-a2c3-d189bb813bd0"},"vehicle_type_id":"4","last_reported":1732824611,"current_range_meters":0,"station_id":"ce4bhnh2rcd13ifvqgug","pricing_plan_id":"cebpf4jnsgd1na2vs0mg"},{"bike_id":"78ee2711-b762-4325-a2f3-7c4ba340bbff","system_id":"levelo_inurba_marseille","lat":43.3148,"lon":5.37306,"is_reserved":false,"is_disabled":false,"rental_uris":{"android":"levelo://app?vid=78ee2711-b762-4325-a2f3-7c4ba340bbff","ios":"levelo://app?vid=78ee2711-b762-4325-a2f3-7c4ba340bbff"},"vehicle_type_id":"4","last_reported":1732824611,"current_range_meters":20400,"station_id":"ce4bgt12rcd13ifvqcd0","pricing_plan_id":"cebpf4jnsgd1na2vs0mg"},{"bike_id":"fde0d70a-faab-4b75-944c-8e8942af1289","system_id":"levelo_inurba_marseille","lat":43.29258,"lon":5.40903,"is_reserved":false,"is_disabled":false,"rental_uris":{"android":"levelo://app?vid=fde0d70a-faab-4b75-944c-8e8942af1289","ios":"levelo://app?vid=fde0d70a-faab-4b75-944c-8e8942af1289"},"vehicle_type_id":"4","last_reported":1732824611,"current_range_meters":8000,"station_id":"ce4bh192rcd13ifvqdc0","pricing_plan_id":"cebpf4jnsgd1na2vs0mg"},{"bike_id":"4709c438-f4af-415a-a919-d27302b75dca","system_id":"levelo_inurba_marseille","lat":43.23191,"lon":5.35548,"is_reserved":false,"is_disabled":false,"rental_uris":{"android":"levelo://app?vid=4709c438-f4af-415a-a919-d27302b75dca","ios":"levelo://app?vid=4709c438-f4af-415a-a919-d27302b75dca"},"vehicle_type_id":"4","last_reported":1732824611,"current_range_meters":39200,"station_id":"ce4bhu92rcd13ifvqi70","pricing_plan_id":"cebpf4jnsgd1na2vs0mg"},{"bike_id":"fa62fb60-3f01-4c81-b623-32274e13ca0e","system_id":"levelo_inurba_marseille","lat":43.29616,"lon":5.37701,"is_reserved":false,"is_disabled":true,"rental_uris":{"android":"levelo://app?vid=fa62fb60-3f01-4c81-b623-32274e13ca0e","ios":"levelo://app?vid=fa62fb60-3f01-4c81-b623-32274e13ca0e"},"vehicle_type_id":"4","last_reported":1732824611,"current_range_meters":36800,"station_id":"ce4bgi92rcd13ifvqb90","pricing_plan_id":"cebpf4jnsgd1na2vs0mg"},{"bike_id":"06676414-b5ff-47ac-a82f-486b9fef74e8","system_id":"levelo_inurba_marseille","lat":43.25574,"lon":5.3824,"is_reserved":false,"is_disabled":false,"rental_uris":{"android":"levelo://app?vid=06676414-b5ff-47ac-a82f-486b9fef74e8","ios":"levelo://app?vid=06676414-b5ff-47ac-a82f-486b9fef74e8"},"vehicle_type_id":"4","last_reported":1732824611,"current_range_meters":11200,"station_id":"ce4bhih2rcd13ifvqfs0","pricing_plan_id":"cebpf4jnsgd1na2vs0mg"},{"bike_id":"11c13d6b-63cd-4521-9815-44cad0b9f7c4","system_id":"levelo_inurba_marseille","lat":43.27171,"lon":5.40995,"is_reserved":false,"is_disabled":false,"rental_uris":{"android":"levelo://app?vid=11c13d6b-63cd-4521-9815-44cad0b9f7c4","ios":"levelo://app?vid=11c13d6b-63cd-4521-9815-44cad0b9f7c4"},"vehicle_type_id":"4","last_reported":1732824611,"current_range_meters":37600,"station_id":"ce4bhl12rcd13ifvqgf0","pricing_plan_id":"cebpf4jnsgd1na2vs0mg"},{"bike_id":"2c2dbeed-d8b9-4443-8bc1-facb2c0b2be9","system_id":"levelo_inurba_marseille","lat":43.30449,"lon":5.36852,"is_reserved":false,"is_disabled":false,"rental_uris":{"android":"levelo://app?vid=2c2dbeed-d8b9-4443-8bc1-facb2c0b2be9","ios":"levelo://app?vid=2c2dbeed-d8b9-4443-8bc1-facb2c0b2be9"},"vehicle_type_id":"4","last_reported":1732824611,"current_range_meters":11200,"station_id":"","pricing_plan_id":"cebpf4jnsgd1na2vs0mg"},{"bike_id":"b5c09906-2419-449b-a255-06d2ae6bc1aa","system_id":"levelo_inurba_marseille","lat":43.24651,"lon":5.38894,"is_reserved":false,"is_disabled":false,"rental_uris":{"android":"levelo://app?vid=b5c09906-2419-449b-a255-06d2ae6bc1aa","ios":"levelo://app?vid=b5c09906-2419-449b-a255-06d2ae6bc1aa"},"vehicle_type_id":"4","last_reported":1732824611,"current_range_meters":6800,"station_id":"ce4bhg12rcd13ifvqf60","pricing_plan_id":"cebpf4jnsgd1na2vs0mg"},{"bike_id":"b053b308-df93-40ed-81b7-cc6347a6608e","system_id":"levelo_inurba_marseille","lat":43.28661,"lon":5.3636,"is_reserved":false,"is_disabled":true,"rental_uris":{"android":"levelo://app?vid=b053b308-df93-40ed-81b7-cc6347a6608e","ios":"levelo://app?vid=b053b308-df93-40ed-81b7-cc6347a6608e"},"vehicle_type_id":"4","last_reported":1732824611,"current_range_meters":38800,"station_id":"ce4bhah2rcd13ifvqej0","pricing_plan_id":"cebpf4jnsgd1na2vs0mg"},{"bike_id":"dbd8f055-15d1-4b81-82db-41291145e7b7","system_id":"levelo_inurba_marseille","lat":43.30881,"lon":5.39646,"is_reserved":false,"is_disabled":false,"rental_uris":{"android":"levelo://app?vid=dbd8f055-15d1-4b81-82db-41291145e7b7","ios":"levelo://app?vid=dbd8f055-15d1-4b81-82db-41291145e7b7"},"vehicle_type_id":"4","last_reported":1732824611,"current_range_meters":38800,"station_id":"ce4bh012rcd13ifvqcv0","pricing_plan_id":"cebpf4jnsgd1na2vs0mg"},{"bike_id":"d43bcf0d-16aa-4132-bee9-932c9bcef8f2","system_id":"levelo_inurba_marseille","lat":43.32366,"lon":5.38884,"is_reserved":false,"is_disabled":false,"rental_uris":{"android":"levelo://app?vid=d43bcf0d-16aa-4132-bee9-932c9bcef8f2","ios":"levelo://app?vid=d43bcf0d-16aa-4132-bee9-932c9bcef8f2"},"vehicle_type_id":"4","last_reported":1732824611,"current_range_meters":4000,"station_id":"ce4bhqp2rcd13ifvqhog","pricing_plan_id":"cebpf4jnsgd1na2vs0mg"},{"bike_id":"ac2b55b9-ec87-4547-9b5d-7bf6e2b17f97","system_id":"levelo_inurba_marseille","lat":43.29517,"lon":5.39056,"is_reserved":false,"is_disabled":false,"rental_uris":{"android":"levelo://app?vid=ac2b55b9-ec87-4547-9b5d-7bf6e2b17f97","ios":"levelo://app?vid=ac2b55b9-ec87-4547-9b5d-7bf6e2b17f97"},"vehicle_type_id":"4","last_reported":1732824611,"current_range_meters":17200,"station_id":"ce4bh3p2rcd13ifvqdp0","pricing_plan_id":"cebpf4jnsgd1na2vs0mg"},{"bike_id":"3647baf0-6fc8-49b8-8ec9-ddbfdd80ce99","system_id":"levelo_inurba_marseille","lat":43.30797,"lon":5.43527,"is_reserved":false,"is_disabled":false,"rental_uris":{"android":"levelo://app?vid=3647baf0-6fc8-49b8-8ec9-ddbfdd80ce99","ios":"levelo://app?vid=3647baf0-6fc8-49b8-8ec9-ddbfdd80ce99"},"vehicle_type_id":"4","last_reported":1732824611,"current_range_meters":8800,"station_id":"ce4bhph2rcd13ifvqheg","pricing_plan_id":"cebpf4jnsgd1na2vs0mg"},{"bike_id":"8e2041ad-6bf5-4186-becc-025de1939b87","system_id":"levelo_inurba_marseille","lat":43.28458,"lon":5.35885,"is_reserved":false,"is_disabled":true,"rental_uris":{"android":"levelo://app?vid=8e2041ad-6bf5-4186-becc-025de1939b87","ios":"levelo://app?vid=8e2041ad-6bf5-4186-becc-025de1939b87"},"vehicle_type_id":"4","last_reported":1732824611,"current_range_meters":13600,"station_id":"ce4bhah2rcd13ifvqei0","pricing_plan_id":"cebpf4jnsgd1na2vs0mg"},{"bike_id":"e1c76266-7d5c-49f3-b563-00be91d3a9f3","system_id":"levelo_inurba_marseille","lat":43.27811,"lon":5.40709,"is_reserved":false,"is_disabled":false,"rental_uris":{"android":"levelo://app?vid=e1c76266-7d5c-49f3-b563-00be91d3a9f3","ios":"levelo://app?vid=e1c76266-7d5c-49f3-b563-00be91d3a9f3"},"vehicle_type_id":"4","last_reported":1732824611,"current_range_meters":16400,"station_id":"ce4bhnh2rcd13ifvqgtg","pricing_plan_id":"cebpf4jnsgd1na2vs0mg"},{"bike_id":"422d452f-17cc-4565-afd8-833a3bc96a0e","system_id":"levelo_inurba_marseille","lat":43.30125,"lon":5.39873,"is_reserved":false,"is_disabled":true,"rental_uris":{"android":"levelo://app?vid=422d452f-17cc-4565-afd8-833a3bc96a0e","ios":"levelo://app?vid=422d452f-17cc-4565-afd8-833a3bc96a0e"},"vehicle_type_id":"4","last_reported":1732824611,"current_range_meters":26000,"station_id":"ce4bh0h2rcd13ifvqd40","pricing_plan_id":"cebpf4jnsgd1na2vs0mg"},{"bike_id":"dcee47ea-c950-4870-9c89-79b44232ba85","system_id":"levelo_inurba_marseille","lat":43.31681,"lon":5.41612,"is_reserved":false,"is_disabled":false,"rental_uris":{"android":"levelo://app?vid=dcee47ea-c950-4870-9c89-79b44232ba85","ios":"levelo://app?vid=dcee47ea-c950-4870-9c89-79b44232ba85"},"vehicle_type_id":"4","last_reported":1732824611,"current_range_meters":37600,"station_id":"ce4bhp92rcd13ifvqhbg","pricing_plan_id":"cebpf4jnsgd1na2vs0mg"},{"bike_id":"4d4c884f-6933-49c0-8899-f9856d90f44d","system_id":"levelo_inurba_marseille","lat":43.29748,"lon":5.37971,"is_reserved":false,"is_disabled":true,"rental_uris":{"android":"levelo://app?vid=4d4c884f-6933-49c0-8899-f9856d90f44d","ios":"levelo://app?vid=4d4c884f-6933-49c0-8899-f9856d90f44d"},"vehicle_type_id":"4","last_reported":1732824611,"current_range_meters":0,"station_id":"","pricing_plan_id":"cebpf4jnsgd1na2vs0mg"},{"bike_id":"0a6a01b8-ebc9-4549-9bc8-25449ed3a98c","system_id":"levelo_inurba_marseille","lat":43.31991,"lon":5.38153,"is_reserved":false,"is_disabled":false,"rental_uris":{"android":"levelo://app?vid=0a6a01b8-ebc9-4549-9bc8-25449ed3a98c","ios":"levelo://app?vid=0a6a01b8-ebc9-4549-9bc8-25449ed3a98c"},"vehicle_type_id":"4","last_reported":1732824611,"current_range_meters":26800,"station_id":"ce4bhr12rcd13ifvqhpg","pricing_plan_id":"cebpf4jnsgd1na2vs0mg"},{"bike_id":"b6e48330-8212-4476-b4d2-8a1e3bec5ff6","system_id":"levelo_inurba_marseille","lat":43.28646,"lon":5.36366,"is_reserved":false,"is_disabled":true,"rental_uris":{"android":"levelo://app?vid=b6e48330-8212-4476-b4d2-8a1e3bec5ff6","ios":"levelo://app?vid=b6e48330-8212-4476-b4d2-8a1e3bec5ff6"},"vehicle_type_id":"4","last_reported":1732824611,"current_range_meters":11200,"station_id":"ce4bhah2rcd13ifvqej0","pricing_plan_id":"cebpf4jnsgd1na2vs0mg"},{"bike_id":"34c4a719-c646-4d7f-8d39-4dd305591c91","system_id":"levelo_inurba_marseille","lat":43.29307,"lon":5.37152,"is_reserved":false,"is_disabled":false,"rental_uris":{"android":"levelo://app?vid=34c4a719-c646-4d7f-8d39-4dd305591c91","ios":"levelo://app?vid=34c4a719-c646-4d7f-8d39-4dd305591c91"},"vehicle_type_id":"4","last_reported":1732824611,"current_range_meters":28000,"station_id":"ce4bgh92rcd13ifvqb40","pricing_plan_id":"cebpf4jnsgd1na2vs0mg"},{"bike_id":"36d0e9bb-e3f8-42c7-820f-ebc8cea12133","system_id":"levelo_inurba_marseille","lat":43.30554,"lon":5.38428,"is_reserved":false,"is_disabled":false,"rental_uris":{"android":"levelo://app?vid=36d0e9bb-e3f8-42c7-820f-ebc8cea12133","ios":"levelo://app?vid=36d0e9bb-e3f8-42c7-820f-ebc8cea12133"},"vehicle_type_id":"4","last_reported":1732824611,"current_range_meters":36000,"station_id":"ce4bgg92rcd13ifvqb30","pricing_plan_id":"cebpf4jnsgd1na2vs0mg"},{"bike_id":"9009be37-c6b1-406b-b0a8-fbab355f715e","system_id":"levelo_inurba_marseille","lat":43.33767,"lon":5.37493,"is_reserved":false,"is_disabled":false,"rental_uris":{"android":"levelo://app?vid=9009be37-c6b1-406b-b0a8-fbab355f715e","ios":"levelo://app?vid=9009be37-c6b1-406b-b0a8-fbab355f715e"},"vehicle_type_id":"4","last_reported":1732824611,"current_range_meters":38800,"station_id":"","pricing_plan_id":"cebpf4jnsgd1na2vs0mg"},{"bike_id":"cfbb9735-0073-47e5-a7b0-871700092b34","system_id":"levelo_inurba_marseille","lat":43.27809,"lon":5.40711,"is_reserved":false,"is_disabled":false,"rental_uris":{"android":"levelo://app?vid=cfbb9735-0073-47e5-a7b0-871700092b34","ios":"levelo://app?vid=cfbb9735-0073-47e5-a7b0-871700092b34"},"vehicle_type_id":"4","last_reported":1732824611,"current_range_meters":32000,"station_id":"ce4bhnh2rcd13ifvqgtg","pricing_plan_id":"cebpf4jnsgd1na2vs0mg"},{"bike_id":"ad448571-bebb-4a8d-8d20-19092292da85","system_id":"levelo_inurba_marseille","lat":43.291752,"lon":5.371436,"is_reserved":false,"is_disabled":true,"rental_uris":{"android":"levelo://app?vid=ad448571-bebb-4a8d-8d20-19092292da85","ios":"levelo://app?vid=ad448571-bebb-4a8d-8d20-19092292da85"},"vehicle_type_id":"4","last_reported":1732824611,"current_range_meters":26800,"station_id":"ce4bha92rcd13ifvqeh0","pricing_plan_id":"cebpf4jnsgd1na2vs0mg"},{"bike_id":"fd4b7828-d6fa-4ffd-a088-07933aa675a1","system_id":"levelo_inurba_marseille","lat":43.32658,"lon":5.40992,"is_reserved":false,"is_disabled":false,"rental_uris":{"android":"levelo://app?vid=fd4b7828-d6fa-4ffd-a088-07933aa675a1","ios":"levelo://app?vid=fd4b7828-d6fa-4ffd-a088-07933aa675a1"},"vehicle_type_id":"4","last_reported":1732824611,"current_range_meters":17600,"station_id":"ce4bhpp2rcd13ifvqhgg","pricing_plan_id":"cebpf4jnsgd1na2vs0mg"},{"bike_id":"f16bf148-e7d5-41fe-9bc6-97af984c9e35","system_id":"levelo_inurba_marseille","lat":43.30134,"lon":5.39864,"is_reserved":false,"is_disabled":true,"rental_uris":{"android":"levelo://app?vid=f16bf148-e7d5-41fe-9bc6-97af984c9e35","ios":"levelo://app?vid=f16bf148-e7d5-41fe-9bc6-97af984c9e35"},"vehicle_type_id":"4","last_reported":1732824611,"current_range_meters":1600,"station_id":"ce4bh0h2rcd13ifvqd40","pricing_plan_id":"cebpf4jnsgd1na2vs0mg"},{"bike_id":"9589002c-1bab-46c5-9d09-a7efb8d9d194","system_id":"levelo_inurba_marseille","lat":43.28422,"lon":5.34982,"is_reserved":false,"is_disabled":false,"rental_uris":{"android":"levelo://app?vid=9589002c-1bab-46c5-9d09-a7efb8d9d194","ios":"levelo://app?vid=9589002c-1bab-46c5-9d09-a7efb8d9d194"},"vehicle_type_id":"4","last_reported":1732824611,"current_range_meters":38000,"station_id":"ce4bhbh2rcd13ifvqepg","pricing_plan_id":"cebpf4jnsgd1na2vs0mg"},{"bike_id":"4cc4e684-c44b-408f-94a5-467701e9e90f","system_id":"levelo_inurba_marseille","lat":43.26955,"lon":5.38637,"is_reserved":false,"is_disabled":false,"rental_uris":{"android":"levelo://app?vid=4cc4e684-c44b-408f-94a5-467701e9e90f","ios":"levelo://app?vid=4cc4e684-c44b-408f-94a5-467701e9e90f"},"vehicle_type_id":"4","last_reported":1732824611,"current_range_meters":4800,"station_id":"ce4bhh92rcd13ifvqfh0","pricing_plan_id":"cebpf4jnsgd1na2vs0mg"},{"bike_id":"5d84ab37-b887-4cbc-90d8-c3fbc6154e0e","system_id":"levelo_inurba_marseille","lat":43.31692,"lon":5.40463,"is_reserved":false,"is_disabled":true,"rental_uris":{"android":"levelo://app?vid=5d84ab37-b887-4cbc-90d8-c3fbc6154e0e","ios":"levelo://app?vid=5d84ab37-b887-4cbc-90d8-c3fbc6154e0e"},"vehicle_type_id":"4","last_reported":1732824611,"current_range_meters":800,"station_id":"ce4bh012rcd13ifvqd00","pricing_plan_id":"cebpf4jnsgd1na2vs0mg"},{"bike_id":"840c2084-3872-4bb0-aad2-5ab80f87c1f6","system_id":"levelo_inurba_marseille","lat":43.30652,"lon":5.40072,"is_reserved":false,"is_disabled":true,"rental_uris":{"android":"levelo://app?vid=840c2084-3872-4bb0-aad2-5ab80f87c1f6","ios":"levelo://app?vid=840c2084-3872-4bb0-aad2-5ab80f87c1f6"},"vehicle_type_id":"4","last_reported":1732824611,"current_range_meters":36000,"station_id":"ce4bh112rcd13ifvqda0","pricing_plan_id":"cebpf4jnsgd1na2vs0mg"},{"bike_id":"c49facee-4cba-4a92-97c9-a5767318ffbd","system_id":"levelo_inurba_marseille","lat":43.33024,"lon":5.39031,"is_reserved":false,"is_disabled":false,"rental_uris":{"android":"levelo://app?vid=c49facee-4cba-4a92-97c9-a5767318ffbd","ios":"levelo://app?vid=c49facee-4cba-4a92-97c9-a5767318ffbd"},"vehicle_type_id":"4","last_reported":1732824611,"current_range_meters":32400,"station_id":"ce4bhr92rcd13ifvqhrg","pricing_plan_id":"cebpf4jnsgd1na2vs0mg"},{"bike_id":"6770707a-d638-46db-ac11-17ca394f4eb5","system_id":"levelo_inurba_marseille","lat":43.23963,"lon":5.3663,"is_reserved":false,"is_disabled":false,"rental_uris":{"android":"levelo://app?vid=6770707a-d638-46db-ac11-17ca394f4eb5","ios":"levelo://app?vid=6770707a-d638-46db-ac11-17ca394f4eb5"},"vehicle_type_id":"4","last_reported":1732824611,"current_range_meters":19600,"station_id":"ce4bhi12rcd13ifvqfp0","pricing_plan_id":"cebpf4jnsgd1na2vs0mg"},{"bike_id":"994fade5-8750-4838-998a-5ff634dcac81","system_id":"levelo_inurba_marseille","lat":43.27067,"lon":5.42271,"is_reserved":false,"is_disabled":false,"rental_uris":{"android":"levelo://app?vid=994fade5-8750-4838-998a-5ff634dcac81","ios":"levelo://app?vid=994fade5-8750-4838-998a-5ff634dcac81"},"vehicle_type_id":"4","last_reported":1732824611,"current_range_meters":26800,"station_id":"ce4bhk92rcd13ifvqgb0","pricing_plan_id":"cebpf4jnsgd1na2vs0mg"},{"bike_id":"11a8253c-9812-4754-bc39-aec3d0b2377f","system_id":"levelo_inurba_marseille","lat":43.29852,"lon":5.36286,"is_reserved":false,"is_disabled":false,"rental_uris":{"android":"levelo://app?vid=11a8253c-9812-4754-bc39-aec3d0b2377f","ios":"levelo://app?vid=11a8253c-9812-4754-bc39-aec3d0b2377f"},"vehicle_type_id":"4","last_reported":1732824611,"current_range_meters":14000,"station_id":"ce4bgpp2rcd13ifvqc3g","pricing_plan_id":"cebpf4jnsgd1na2vs0mg"},{"bike_id":"e45efccf-0da7-450c-bcd2-c74dc2e74caf","system_id":"levelo_inurba_marseille","lat":43.2763,"lon":5.36107,"is_reserved":false,"is_disabled":false,"rental_uris":{"android":"levelo://app?vid=e45efccf-0da7-450c-bcd2-c74dc2e74caf","ios":"levelo://app?vid=e45efccf-0da7-450c-bcd2-c74dc2e74caf"},"vehicle_type_id":"4","last_reported":1732824611,"current_range_meters":34800,"station_id":"ce4bgj92rcd13ifvqbe0","pricing_plan_id":"cebpf4jnsgd1na2vs0mg"},{"bike_id":"1936c595-32cf-4097-a6cb-753cf309a951","system_id":"levelo_inurba_marseille","lat":43.31724,"lon":5.42392,"is_reserved":false,"is_disabled":false,"rental_uris":{"android":"levelo://app?vid=1936c595-32cf-4097-a6cb-753cf309a951","ios":"levelo://app?vid=1936c595-32cf-4097-a6cb-753cf309a951"},"vehicle_type_id":"4","last_reported":1732824611,"current_range_meters":38800,"station_id":"ce4bhp92rcd13ifvqhbg","pricing_plan_id":"cebpf4jnsgd1na2vs0mg"},{"bike_id":"f62a5fa2-9173-4ac1-b63a-4a63811fbef9","system_id":"levelo_inurba_marseille","lat":43.25927,"lon":5.40901,"is_reserved":false,"is_disabled":false,"rental_uris":{"android":"levelo://app?vid=f62a5fa2-9173-4ac1-b63a-4a63811fbef9","ios":"levelo://app?vid=f62a5fa2-9173-4ac1-b63a-4a63811fbef9"},"vehicle_type_id":"4","last_reported":1732824611,"current_range_meters":24000,"station_id":"ce4bhm92rcd13ifvqglg","pricing_plan_id":"cebpf4jnsgd1na2vs0mg"},{"bike_id":"4ef82adb-1398-4bed-bf34-1aa2370cf21d","system_id":"levelo_inurba_marseille","lat":43.31992,"lon":5.38147,"is_reserved":false,"is_disabled":false,"rental_uris":{"android":"levelo://app?vid=4ef82adb-1398-4bed-bf34-1aa2370cf21d","ios":"levelo://app?vid=4ef82adb-1398-4bed-bf34-1aa2370cf21d"},"vehicle_type_id":"4","last_reported":1732824611,"current_range_meters":8800,"station_id":"ce4bhr12rcd13ifvqhpg","pricing_plan_id":"cebpf4jnsgd1na2vs0mg"},{"bike_id":"e8fa7be1-2407-41a7-b843-e7c70f1917ef","system_id":"levelo_inurba_marseille","lat":43.2761,"lon":5.36104,"is_reserved":false,"is_disabled":true,"rental_uris":{"android":"levelo://app?vid=e8fa7be1-2407-41a7-b843-e7c70f1917ef","ios":"levelo://app?vid=e8fa7be1-2407-41a7-b843-e7c70f1917ef"},"vehicle_type_id":"4","last_reported":1732824611,"current_range_meters":0,"station_id":"ce4bgj92rcd13ifvqbe0","pricing_plan_id":"cebpf4jnsgd1na2vs0mg"},{"bike_id":"9ecc32de-994a-4dac-bf19-477b1a5bf98c","system_id":"levelo_inurba_marseille","lat":43.28067,"lon":5.39647,"is_reserved":false,"is_disabled":false,"rental_uris":{"android":"levelo://app?vid=9ecc32de-994a-4dac-bf19-477b1a5bf98c","ios":"levelo://app?vid=9ecc32de-994a-4dac-bf19-477b1a5bf98c"},"vehicle_type_id":"4","last_reported":1732824611,"current_range_meters":7200,"station_id":"ce4bho12rcd13ifvqh2g","pricing_plan_id":"cebpf4jnsgd1na2vs0mg"},{"bike_id":"289614bb-31f0-4f7a-a4f9-71dc95ecf9e2","system_id":"levelo_inurba_marseille","lat":43.29613,"lon":5.37702,"is_reserved":false,"is_disabled":true,"rental_uris":{"android":"levelo://app?vid=289614bb-31f0-4f7a-a4f9-71dc95ecf9e2","ios":"levelo://app?vid=289614bb-31f0-4f7a-a4f9-71dc95ecf9e2"},"vehicle_type_id":"4","last_reported":1732824611,"current_range_meters":0,"station_id":"ce4bgi92rcd13ifvqb90","pricing_plan_id":"cebpf4jnsgd1na2vs0mg"},{"bike_id":"61af104d-610d-43cd-813c-6b3dea024abd","system_id":"levelo_inurba_marseille","lat":43.24589,"lon":5.40934,"is_reserved":false,"is_disabled":false,"rental_uris":{"android":"levelo://app?vid=61af104d-610d-43cd-813c-6b3dea024abd","ios":"levelo://app?vid=61af104d-610d-43cd-813c-6b3dea024abd"},"vehicle_type_id":"4","last_reported":1732824611,"current_range_meters":8800,"station_id":"ce4bhmp2rcd13ifvqgog","pricing_plan_id":"cebpf4jnsgd1na2vs0mg"},{"bike_id":"697e7db7-e9df-4ff3-8d8d-aff6d1ad622d","system_id":"levelo_inurba_marseille","lat":43.29439,"lon":5.39753,"is_reserved":false,"is_disabled":false,"rental_uris":{"android":"levelo://app?vid=697e7db7-e9df-4ff3-8d8d-aff6d1ad622d","ios":"levelo://app?vid=697e7db7-e9df-4ff3-8d8d-aff6d1ad622d"},"vehicle_type_id":"4","last_reported":1732824611,"current_range_meters":8000,"station_id":"ce4bh3h2rcd13ifvqdo0","pricing_plan_id":"cebpf4jnsgd1na2vs0mg"},{"bike_id":"e63455c5-5f55-4960-8084-8cbaf9be1b50","system_id":"levelo_inurba_marseille","lat":43.25581,"lon":5.38235,"is_reserved":false,"is_disabled":false,"rental_uris":{"android":"levelo://app?vid=e63455c5-5f55-4960-8084-8cbaf9be1b50","ios":"levelo://app?vid=e63455c5-5f55-4960-8084-8cbaf9be1b50"},"vehicle_type_id":"4","last_reported":1732824611,"current_range_meters":36400,"station_id":"ce4bhih2rcd13ifvqfs0","pricing_plan_id":"cebpf4jnsgd1na2vs0mg"},{"bike_id":"1dee5398-ece1-4217-b5b9-984f22c2ff59","system_id":"levelo_inurba_marseille","lat":43.29253,"lon":5.38438,"is_reserved":false,"is_disabled":true,"rental_uris":{"android":"levelo://app?vid=1dee5398-ece1-4217-b5b9-984f22c2ff59","ios":"levelo://app?vid=1dee5398-ece1-4217-b5b9-984f22c2ff59"},"vehicle_type_id":"4","last_reported":1732824611,"current_range_meters":0,"station_id":"ce4bh692rcd13ifvqea0","pricing_plan_id":"cebpf4jnsgd1na2vs0mg"},{"bike_id":"35cde48b-e232-4392-95d8-1d6118a2707a","system_id":"levelo_inurba_marseille","lat":43.28273,"lon":5.35072,"is_reserved":false,"is_disabled":true,"rental_uris":{"android":"levelo://app?vid=35cde48b-e232-4392-95d8-1d6118a2707a","ios":"levelo://app?vid=35cde48b-e232-4392-95d8-1d6118a2707a"},"vehicle_type_id":"4","last_reported":1732824611,"current_range_meters":14800,"station_id":"ce4bhbp2rcd13ifvqerg","pricing_plan_id":"cebpf4jnsgd1na2vs0mg"},{"bike_id":"1a1ad613-e33a-4722-b183-07da1e0aa14f","system_id":"levelo_inurba_marseille","lat":43.32288,"lon":5.3827,"is_reserved":false,"is_disabled":false,"rental_uris":{"android":"levelo://app?vid=1a1ad613-e33a-4722-b183-07da1e0aa14f","ios":"levelo://app?vid=1a1ad613-e33a-4722-b183-07da1e0aa14f"},"vehicle_type_id":"4","last_reported":1732824611,"current_range_meters":38800,"station_id":"ce4bhr12rcd13ifvqhqg","pricing_plan_id":"cebpf4jnsgd1na2vs0mg"},{"bike_id":"ce0bb64a-cfd8-4a80-b8c9-2b958e21fc06","system_id":"levelo_inurba_marseille","lat":43.29626,"lon":5.3773,"is_reserved":false,"is_disabled":false,"rental_uris":{"android":"levelo://app?vid=ce0bb64a-cfd8-4a80-b8c9-2b958e21fc06","ios":"levelo://app?vid=ce0bb64a-cfd8-4a80-b8c9-2b958e21fc06"},"vehicle_type_id":"4","last_reported":1732824611,"current_range_meters":12800,"station_id":"ce4bgi92rcd13ifvqb90","pricing_plan_id":"cebpf4jnsgd1na2vs0mg"},{"bike_id":"3ca8d527-6c31-4160-8bc9-0dbae13780f9","system_id":"levelo_inurba_marseille","lat":43.28457,"lon":5.35894,"is_reserved":false,"is_disabled":true,"rental_uris":{"android":"levelo://app?vid=3ca8d527-6c31-4160-8bc9-0dbae13780f9","ios":"levelo://app?vid=3ca8d527-6c31-4160-8bc9-0dbae13780f9"},"vehicle_type_id":"4","last_reported":1732824611,"current_range_meters":26000,"station_id":"ce4bhah2rcd13ifvqei0","pricing_plan_id":"cebpf4jnsgd1na2vs0mg"},{"bike_id":"ff9a0194-5556-4620-a2fd-4447f3258b1c","system_id":"levelo_inurba_marseille","lat":43.26942,"lon":5.38641,"is_reserved":false,"is_disabled":false,"rental_uris":{"android":"levelo://app?vid=ff9a0194-5556-4620-a2fd-4447f3258b1c","ios":"levelo://app?vid=ff9a0194-5556-4620-a2fd-4447f3258b1c"},"vehicle_type_id":"4","last_reported":1732824611,"current_range_meters":38000,"station_id":"ce4bhh92rcd13ifvqfh0","pricing_plan_id":"cebpf4jnsgd1na2vs0mg"},{"bike_id":"a3a6af83-e82f-44c1-a0bd-ba6c0bf45a6f","system_id":"levelo_inurba_marseille","lat":43.29024,"lon":5.38129,"is_reserved":false,"is_disabled":false,"rental_uris":{"android":"levelo://app?vid=a3a6af83-e82f-44c1-a0bd-ba6c0bf45a6f","ios":"levelo://app?vid=a3a6af83-e82f-44c1-a0bd-ba6c0bf45a6f"},"vehicle_type_id":"4","last_reported":1732824611,"current_range_meters":17200,"station_id":"ce4bh4p2rcd13ifvqe1g","pricing_plan_id":"cebpf4jnsgd1na2vs0mg"},{"bike_id":"466d0027-70d0-4a5b-90f6-65a80dfa568b","system_id":"levelo_inurba_marseille","lat":43.26684,"lon":5.3827,"is_reserved":false,"is_disabled":false,"rental_uris":{"android":"levelo://app?vid=466d0027-70d0-4a5b-90f6-65a80dfa568b","ios":"levelo://app?vid=466d0027-70d0-4a5b-90f6-65a80dfa568b"},"vehicle_type_id":"4","last_reported":1732824611,"current_range_meters":37600,"station_id":"ce4bhg92rcd13ifvqf90","pricing_plan_id":"cebpf4jnsgd1na2vs0mg"},{"bike_id":"16fb8e17-b179-4d5a-add7-fbd05efe76fb","system_id":"levelo_inurba_marseille","lat":43.25926,"lon":5.40907,"is_reserved":false,"is_disabled":true,"rental_uris":{"android":"levelo://app?vid=16fb8e17-b179-4d5a-add7-fbd05efe76fb","ios":"levelo://app?vid=16fb8e17-b179-4d5a-add7-fbd05efe76fb"},"vehicle_type_id":"4","last_reported":1732824611,"current_range_meters":0,"station_id":"ce4bhm92rcd13ifvqglg","pricing_plan_id":"cebpf4jnsgd1na2vs0mg"},{"bike_id":"39b04c21-6a6a-40a7-a489-741c2b67c9bd","system_id":"levelo_inurba_marseille","lat":43.33721,"lon":5.39189,"is_reserved":false,"is_disabled":false,"rental_uris":{"android":"levelo://app?vid=39b04c21-6a6a-40a7-a489-741c2b67c9bd","ios":"levelo://app?vid=39b04c21-6a6a-40a7-a489-741c2b67c9bd"},"vehicle_type_id":"4","last_reported":1732824611,"current_range_meters":38400,"station_id":"ce4bhr92rcd13ifvqhsg","pricing_plan_id":"cebpf4jnsgd1na2vs0mg"},{"bike_id":"f2ec638b-3919-4f2b-9dd0-abea2a85dd0d","system_id":"levelo_inurba_marseille","lat":43.28153,"lon":5.42644,"is_reserved":false,"is_disabled":false,"rental_uris":{"android":"levelo://app?vid=f2ec638b-3919-4f2b-9dd0-abea2a85dd0d","ios":"levelo://app?vid=f2ec638b-3919-4f2b-9dd0-abea2a85dd0d"},"vehicle_type_id":"4","last_reported":1732824611,"current_range_meters":14000,"station_id":"ce4bhnh2rcd13ifvqgug","pricing_plan_id":"cebpf4jnsgd1na2vs0mg"},{"bike_id":"1ce3ed32-b584-4a26-98e7-b40c0b789baa","system_id":"levelo_inurba_marseille","lat":43.29265,"lon":5.38449,"is_reserved":false,"is_disabled":false,"rental_uris":{"android":"levelo://app?vid=1ce3ed32-b584-4a26-98e7-b40c0b789baa","ios":"levelo://app?vid=1ce3ed32-b584-4a26-98e7-b40c0b789baa"},"vehicle_type_id":"4","last_reported":1732824611,"current_range_meters":25200,"station_id":"ce4bh692rcd13ifvqea0","pricing_plan_id":"cebpf4jnsgd1na2vs0mg"},{"bike_id":"7c7cc416-eb41-4a4c-99ce-42558eaa1248","system_id":"levelo_inurba_marseille","lat":43.24668,"lon":5.3816,"is_reserved":false,"is_disabled":false,"rental_uris":{"android":"levelo://app?vid=7c7cc416-eb41-4a4c-99ce-42558eaa1248","ios":"levelo://app?vid=7c7cc416-eb41-4a4c-99ce-42558eaa1248"},"vehicle_type_id":"4","last_reported":1732824611,"current_range_meters":10800,"station_id":"","pricing_plan_id":"cebpf4jnsgd1na2vs0mg"},{"bike_id":"8f3f4a42-abb8-4c93-99bd-742eb22f23bc","system_id":"levelo_inurba_marseille","lat":43.27815,"lon":5.40714,"is_reserved":false,"is_disabled":false,"rental_uris":{"android":"levelo://app?vid=8f3f4a42-abb8-4c93-99bd-742eb22f23bc","ios":"levelo://app?vid=8f3f4a42-abb8-4c93-99bd-742eb22f23bc"},"vehicle_type_id":"4","last_reported":1732824611,"current_range_meters":3600,"station_id":"ce4bhnh2rcd13ifvqgtg","pricing_plan_id":"cebpf4jnsgd1na2vs0mg"},{"bike_id":"5270c7d7-0090-476f-b310-befe3bc35ba7","system_id":"levelo_inurba_marseille","lat":43.2942,"lon":5.38612,"is_reserved":false,"is_disabled":false,"rental_uris":{"android":"levelo://app?vid=5270c7d7-0090-476f-b310-befe3bc35ba7","ios":"levelo://app?vid=5270c7d7-0090-476f-b310-befe3bc35ba7"},"vehicle_type_id":"4","last_reported":1732824611,"current_range_meters":28400,"station_id":"ce4bh2h2rcd13ifvqdh0","pricing_plan_id":"cebpf4jnsgd1na2vs0mg"},{"bike_id":"ad2b435a-70df-41fc-b890-6c8f435bcb37","system_id":"levelo_inurba_marseille","lat":43.27429,"lon":5.3941,"is_reserved":false,"is_disabled":false,"rental_uris":{"android":"levelo://app?vid=ad2b435a-70df-41fc-b890-6c8f435bcb37","ios":"levelo://app?vid=ad2b435a-70df-41fc-b890-6c8f435bcb37"},"vehicle_type_id":"4","last_reported":1732824611,"current_range_meters":20400,"station_id":"ce4bhdp2rcd13ifvqf20","pricing_plan_id":"cebpf4jnsgd1na2vs0mg"},{"bike_id":"dd8abf73-0f11-4528-81c0-f7dfced5b75d","system_id":"levelo_inurba_marseille","lat":43.28035,"lon":5.36935,"is_reserved":false,"is_disabled":false,"rental_uris":{"android":"levelo://app?vid=dd8abf73-0f11-4528-81c0-f7dfced5b75d","ios":"levelo://app?vid=dd8abf73-0f11-4528-81c0-f7dfced5b75d"},"vehicle_type_id":"4","last_reported":1732824611,"current_range_meters":27200,"station_id":"ce4bha12rcd13ifvqef0","pricing_plan_id":"cebpf4jnsgd1na2vs0mg"},{"bike_id":"a4334e68-df66-47a8-81e3-023882891004","system_id":"levelo_inurba_marseille","lat":43.27808,"lon":5.40713,"is_reserved":false,"is_disabled":false,"rental_uris":{"android":"levelo://app?vid=a4334e68-df66-47a8-81e3-023882891004","ios":"levelo://app?vid=a4334e68-df66-47a8-81e3-023882891004"},"vehicle_type_id":"4","last_reported":1732824611,"current_range_meters":24400,"station_id":"ce4bhnh2rcd13ifvqgtg","pricing_plan_id":"cebpf4jnsgd1na2vs0mg"},{"bike_id":"4161b2d0-ab46-45b5-a5b7-98f7db0d732b","system_id":"levelo_inurba_marseille","lat":43.26556,"lon":5.37295,"is_reserved":false,"is_disabled":false,"rental_uris":{"android":"levelo://app?vid=4161b2d0-ab46-45b5-a5b7-98f7db0d732b","ios":"levelo://app?vid=4161b2d0-ab46-45b5-a5b7-98f7db0d732b"},"vehicle_type_id":"4","last_reported":1732824611,"current_range_meters":38800,"station_id":"ce4bhg12rcd13ifvqf70","pricing_plan_id":"cebpf4jnsgd1na2vs0mg"},{"bike_id":"8621c060-a925-4112-b4d9-bfafb16dd05f","system_id":"levelo_inurba_marseille","lat":43.23963,"lon":5.36621,"is_reserved":false,"is_disabled":false,"rental_uris":{"android":"levelo://app?vid=8621c060-a925-4112-b4d9-bfafb16dd05f","ios":"levelo://app?vid=8621c060-a925-4112-b4d9-bfafb16dd05f"},"vehicle_type_id":"4","last_reported":1732824611,"current_range_meters":29600,"station_id":"ce4bhi12rcd13ifvqfp0","pricing_plan_id":"cebpf4jnsgd1na2vs0mg"},{"bike_id":"64406122-ec10-4537-bec6-f4e0f789a51e","system_id":"levelo_inurba_marseille","lat":43.30147,"lon":5.38082,"is_reserved":false,"is_disabled":false,"rental_uris":{"android":"levelo://app?vid=64406122-ec10-4537-bec6-f4e0f789a51e","ios":"levelo://app?vid=64406122-ec10-4537-bec6-f4e0f789a51e"},"vehicle_type_id":"4","last_reported":1732824611,"current_range_meters":34000,"station_id":"ce4bgjp2rcd13ifvqbh0","pricing_plan_id":"cebpf4jnsgd1na2vs0mg"},{"bike_id":"b28150e4-18cc-4d56-b749-abddac5e0ca1","system_id":"levelo_inurba_marseille","lat":43.24669,"lon":5.38154,"is_reserved":false,"is_disabled":false,"rental_uris":{"android":"levelo://app?vid=b28150e4-18cc-4d56-b749-abddac5e0ca1","ios":"levelo://app?vid=b28150e4-18cc-4d56-b749-abddac5e0ca1"},"vehicle_type_id":"4","last_reported":1732824611,"current_range_meters":20400,"station_id":"ce4bhih2rcd13ifvqfr0","pricing_plan_id":"cebpf4jnsgd1na2vs0mg"},{"bike_id":"81d9f7be-c3c6-4233-bf11-948e6f22debc","system_id":"levelo_inurba_marseille","lat":43.32364,"lon":5.38886,"is_reserved":false,"is_disabled":false,"rental_uris":{"android":"levelo://app?vid=81d9f7be-c3c6-4233-bf11-948e6f22debc","ios":"levelo://app?vid=81d9f7be-c3c6-4233-bf11-948e6f22debc"},"vehicle_type_id":"4","last_reported":1732824611,"current_range_meters":4800,"station_id":"ce4bhqp2rcd13ifvqhog","pricing_plan_id":"cebpf4jnsgd1na2vs0mg"},{"bike_id":"7fe8aae4-e2fd-45e8-ad84-418c66f3914f","system_id":"levelo_inurba_marseille","lat":43.28854,"lon":5.35837,"is_reserved":false,"is_disabled":true,"rental_uris":{"android":"levelo://app?vid=7fe8aae4-e2fd-45e8-ad84-418c66f3914f","ios":"levelo://app?vid=7fe8aae4-e2fd-45e8-ad84-418c66f3914f"},"vehicle_type_id":"4","last_reported":1732824611,"current_range_meters":18000,"station_id":"ce4bhb12rcd13ifvqem0","pricing_plan_id":"cebpf4jnsgd1na2vs0mg"},{"bike_id":"6d60e89b-debe-4b7e-bdd3-1144b0745bee","system_id":"levelo_inurba_marseille","lat":43.27438,"lon":5.3939,"is_reserved":false,"is_disabled":false,"rental_uris":{"android":"levelo://app?vid=6d60e89b-debe-4b7e-bdd3-1144b0745bee","ios":"levelo://app?vid=6d60e89b-debe-4b7e-bdd3-1144b0745bee"},"vehicle_type_id":"4","last_reported":1732824611,"current_range_meters":16800,"station_id":"ce4bhdp2rcd13ifvqf20","pricing_plan_id":"cebpf4jnsgd1na2vs0mg"},{"bike_id":"4d9843d2-7dfc-4bc3-8e09-2208b04e3616","system_id":"levelo_inurba_marseille","lat":43.31369,"lon":5.38507,"is_reserved":false,"is_disabled":false,"rental_uris":{"android":"levelo://app?vid=4d9843d2-7dfc-4bc3-8e09-2208b04e3616","ios":"levelo://app?vid=4d9843d2-7dfc-4bc3-8e09-2208b04e3616"},"vehicle_type_id":"4","last_reported":1732824611,"current_range_meters":8800,"station_id":"ce4bgt92rcd13ifvqcf0","pricing_plan_id":"cebpf4jnsgd1na2vs0mg"},{"bike_id":"fa2de458-fcf1-4151-a5cd-c5ec4757dcb0","system_id":"levelo_inurba_marseille","lat":43.28377,"lon":5.38346,"is_reserved":false,"is_disabled":true,"rental_uris":{"android":"levelo://app?vid=fa2de458-fcf1-4151-a5cd-c5ec4757dcb0","ios":"levelo://app?vid=fa2de458-fcf1-4151-a5cd-c5ec4757dcb0"},"vehicle_type_id":"4","last_reported":1732824611,"current_range_meters":28800,"station_id":"","pricing_plan_id":"cebpf4jnsgd1na2vs0mg"},{"bike_id":"e48b725b-bc15-4e5d-af14-115990ebade2","system_id":"levelo_inurba_marseille","lat":43.29846,"lon":5.36283,"is_reserved":false,"is_disabled":false,"rental_uris":{"android":"levelo://app?vid=e48b725b-bc15-4e5d-af14-115990ebade2","ios":"levelo://app?vid=e48b725b-bc15-4e5d-af14-115990ebade2"},"vehicle_type_id":"4","last_reported":1732824611,"current_range_meters":12000,"station_id":"ce4bgpp2rcd13ifvqc3g","pricing_plan_id":"cebpf4jnsgd1na2vs0mg"},{"bike_id":"29a80c71-9648-4a26-b6c9-5f69092eaa01","system_id":"levelo_inurba_marseille","lat":43.280891,"lon":5.396391,"is_reserved":false,"is_disabled":true,"rental_uris":{"android":"levelo://app?vid=29a80c71-9648-4a26-b6c9-5f69092eaa01","ios":"levelo://app?vid=29a80c71-9648-4a26-b6c9-5f69092eaa01"},"vehicle_type_id":"4","last_reported":1732824611,"current_range_meters":0,"station_id":"ce4bho12rcd13ifvqh2g","pricing_plan_id":"cebpf4jnsgd1na2vs0mg"},{"bike_id":"4d089ae2-8d3d-4ba1-9519-c59633c846c6","system_id":"levelo_inurba_marseille","lat":43.28272,"lon":5.35082,"is_reserved":false,"is_disabled":true,"rental_uris":{"android":"levelo://app?vid=4d089ae2-8d3d-4ba1-9519-c59633c846c6","ios":"levelo://app?vid=4d089ae2-8d3d-4ba1-9519-c59633c846c6"},"vehicle_type_id":"4","last_reported":1732824611,"current_range_meters":1600,"station_id":"ce4bhbp2rcd13ifvqerg","pricing_plan_id":"cebpf4jnsgd1na2vs0mg"},{"bike_id":"2a60fd72-9cfa-415f-937e-d89edec4f374","system_id":"levelo_inurba_marseille","lat":43.24996,"lon":5.3892,"is_reserved":false,"is_disabled":false,"rental_uris":{"android":"levelo://app?vid=2a60fd72-9cfa-415f-937e-d89edec4f374","ios":"levelo://app?vid=2a60fd72-9cfa-415f-937e-d89edec4f374"},"vehicle_type_id":"4","last_reported":1732824611,"current_range_meters":36400,"station_id":"ce4bhgp2rcd13ifvqfd0","pricing_plan_id":"cebpf4jnsgd1na2vs0mg"},{"bike_id":"0995621e-0e5a-482e-8b5a-efe4989f97eb","system_id":"levelo_inurba_marseille","lat":43.31354,"lon":5.38496,"is_reserved":false,"is_disabled":false,"rental_uris":{"android":"levelo://app?vid=0995621e-0e5a-482e-8b5a-efe4989f97eb","ios":"levelo://app?vid=0995621e-0e5a-482e-8b5a-efe4989f97eb"},"vehicle_type_id":"4","last_reported":1732824611,"current_range_meters":8800,"station_id":"ce4bgt92rcd13ifvqcf0","pricing_plan_id":"cebpf4jnsgd1na2vs0mg"},{"bike_id":"5b6140a7-7f65-4ca3-a3f2-419ab04c93da","system_id":"levelo_inurba_marseille","lat":43.22926,"lon":5.3537,"is_reserved":false,"is_disabled":true,"rental_uris":{"android":"levelo://app?vid=5b6140a7-7f65-4ca3-a3f2-419ab04c93da","ios":"levelo://app?vid=5b6140a7-7f65-4ca3-a3f2-419ab04c93da"},"vehicle_type_id":"4","last_reported":1732824611,"current_range_meters":30800,"station_id":"cpo3532slgdg3j2ikp40","pricing_plan_id":"cebpf4jnsgd1na2vs0mg"},{"bike_id":"b6abb15e-317b-48a8-9fba-41b406216ef3","system_id":"levelo_inurba_marseille","lat":43.2962,"lon":5.37156,"is_reserved":false,"is_disabled":false,"rental_uris":{"android":"levelo://app?vid=b6abb15e-317b-48a8-9fba-41b406216ef3","ios":"levelo://app?vid=b6abb15e-317b-48a8-9fba-41b406216ef3"},"vehicle_type_id":"4","last_reported":1732824611,"current_range_meters":14000,"station_id":"ce4bgnh2rcd13ifvqc0g","pricing_plan_id":"cebpf4jnsgd1na2vs0mg"},{"bike_id":"f794b8fa-1f88-483b-a054-16f24b00c834","system_id":"levelo_inurba_marseille","lat":43.28274,"lon":5.35073,"is_reserved":false,"is_disabled":true,"rental_uris":{"android":"levelo://app?vid=f794b8fa-1f88-483b-a054-16f24b00c834","ios":"levelo://app?vid=f794b8fa-1f88-483b-a054-16f24b00c834"},"vehicle_type_id":"4","last_reported":1732824611,"current_range_meters":11600,"station_id":"ce4bhbp2rcd13ifvqerg","pricing_plan_id":"cebpf4jnsgd1na2vs0mg"},{"bike_id":"56916c16-bebc-4983-b382-da9c616e8edb","system_id":"levelo_inurba_marseille","lat":43.29021,"lon":5.38138,"is_reserved":false,"is_disabled":false,"rental_uris":{"android":"levelo://app?vid=56916c16-bebc-4983-b382-da9c616e8edb","ios":"levelo://app?vid=56916c16-bebc-4983-b382-da9c616e8edb"},"vehicle_type_id":"4","last_reported":1732824611,"current_range_meters":38400,"station_id":"ce4bh4p2rcd13ifvqe1g","pricing_plan_id":"cebpf4jnsgd1na2vs0mg"},{"bike_id":"8ae39db2-3cd0-4a26-b343-40632442ecbb","system_id":"levelo_inurba_marseille","lat":43.293721,"lon":5.40138,"is_reserved":false,"is_disabled":true,"rental_uris":{"android":"levelo://app?vid=8ae39db2-3cd0-4a26-b343-40632442ecbb","ios":"levelo://app?vid=8ae39db2-3cd0-4a26-b343-40632442ecbb"},"vehicle_type_id":"4","last_reported":1732824611,"current_range_meters":1200,"station_id":"ce4bh312rcd13ifvqdk0","pricing_plan_id":"cebpf4jnsgd1na2vs0mg"},{"bike_id":"f5002e49-25e9-488b-8035-0dc33c017fea","system_id":"levelo_inurba_marseille","lat":43.30925,"lon":5.40145,"is_reserved":false,"is_disabled":false,"rental_uris":{"android":"levelo://app?vid=f5002e49-25e9-488b-8035-0dc33c017fea","ios":"levelo://app?vid=f5002e49-25e9-488b-8035-0dc33c017fea"},"vehicle_type_id":"4","last_reported":1732824611,"current_range_meters":19200,"station_id":"ce4bgvp2rcd13ifvqct0","pricing_plan_id":"cebpf4jnsgd1na2vs0mg"},{"bike_id":"1ddc4472-f3fa-4a93-96fd-6fd714ab623e","system_id":"levelo_inurba_marseille","lat":43.2742,"lon":5.39422,"is_reserved":false,"is_disabled":false,"rental_uris":{"android":"levelo://app?vid=1ddc4472-f3fa-4a93-96fd-6fd714ab623e","ios":"levelo://app?vid=1ddc4472-f3fa-4a93-96fd-6fd714ab623e"},"vehicle_type_id":"4","last_reported":1732824611,"current_range_meters":27600,"station_id":"ce4bhdp2rcd13ifvqf20","pricing_plan_id":"cebpf4jnsgd1na2vs0mg"},{"bike_id":"e5afd3b2-8a71-47d1-8d9a-ff35c09a0553","system_id":"levelo_inurba_marseille","lat":43.29557,"lon":5.4228,"is_reserved":false,"is_disabled":true,"rental_uris":{"android":"levelo://app?vid=e5afd3b2-8a71-47d1-8d9a-ff35c09a0553","ios":"levelo://app?vid=e5afd3b2-8a71-47d1-8d9a-ff35c09a0553"},"vehicle_type_id":"4","last_reported":1732824611,"current_range_meters":0,"station_id":"ce4bhph2rcd13ifvqhdg","pricing_plan_id":"cebpf4jnsgd1na2vs0mg"},{"bike_id":"960e0ce8-4af8-4a7b-a1d9-99f150008994","system_id":"levelo_inurba_marseille","lat":43.33026,"lon":5.3904,"is_reserved":false,"is_disabled":false,"rental_uris":{"android":"levelo://app?vid=960e0ce8-4af8-4a7b-a1d9-99f150008994","ios":"levelo://app?vid=960e0ce8-4af8-4a7b-a1d9-99f150008994"},"vehicle_type_id":"4","last_reported":1732824611,"current_range_meters":38800,"station_id":"ce4bhr92rcd13ifvqhrg","pricing_plan_id":"cebpf4jnsgd1na2vs0mg"},{"bike_id":"9471024f-d281-4675-a96b-6a523773f0c3","system_id":"levelo_inurba_marseille","lat":43.30543,"lon":5.36557,"is_reserved":false,"is_disabled":false,"rental_uris":{"android":"levelo://app?vid=9471024f-d281-4675-a96b-6a523773f0c3","ios":"levelo://app?vid=9471024f-d281-4675-a96b-6a523773f0c3"},"vehicle_type_id":"4","last_reported":1732824611,"current_range_meters":10000,"station_id":"ce4bgs12rcd13ifvqcag","pricing_plan_id":"cebpf4jnsgd1na2vs0mg"},{"bike_id":"56159623-a0f3-4979-b486-c977d44e33ae","system_id":"levelo_inurba_marseille","lat":43.25501,"lon":5.37648,"is_reserved":false,"is_disabled":false,"rental_uris":{"android":"levelo://app?vid=56159623-a0f3-4979-b486-c977d44e33ae","ios":"levelo://app?vid=56159623-a0f3-4979-b486-c977d44e33ae"},"vehicle_type_id":"4","last_reported":1732824611,"current_range_meters":23200,"station_id":"ce4bhh12rcd13ifvqff0","pricing_plan_id":"cebpf4jnsgd1na2vs0mg"},{"bike_id":"c32c6612-5f39-4fa3-90cd-49bfaf5adc62","system_id":"levelo_inurba_marseille","lat":43.28149,"lon":5.42647,"is_reserved":false,"is_disabled":false,"rental_uris":{"android":"levelo://app?vid=c32c6612-5f39-4fa3-90cd-49bfaf5adc62","ios":"levelo://app?vid=c32c6612-5f39-4fa3-90cd-49bfaf5adc62"},"vehicle_type_id":"4","last_reported":1732824611,"current_range_meters":4400,"station_id":"ce4bhnh2rcd13ifvqgug","pricing_plan_id":"cebpf4jnsgd1na2vs0mg"},{"bike_id":"9889b9b1-c1bd-4e56-a40a-7a710a32fe91","system_id":"levelo_inurba_marseille","lat":43.31221,"lon":5.36851,"is_reserved":false,"is_disabled":true,"rental_uris":{"android":"levelo://app?vid=9889b9b1-c1bd-4e56-a40a-7a710a32fe91","ios":"levelo://app?vid=9889b9b1-c1bd-4e56-a40a-7a710a32fe91"},"vehicle_type_id":"4","last_reported":1732824611,"current_range_meters":0,"station_id":"ce4bgl92rcd13ifvqbq0","pricing_plan_id":"cebpf4jnsgd1na2vs0mg"},{"bike_id":"5688fac3-e87c-436a-b4e9-09631dd71f90","system_id":"levelo_inurba_marseille","lat":43.27904,"lon":5.38003,"is_reserved":false,"is_disabled":false,"rental_uris":{"android":"levelo://app?vid=5688fac3-e87c-436a-b4e9-09631dd71f90","ios":"levelo://app?vid=5688fac3-e87c-436a-b4e9-09631dd71f90"},"vehicle_type_id":"4","last_reported":1732824611,"current_range_meters":11600,"station_id":"ce4bhf92rcd13ifvqf50","pricing_plan_id":"cebpf4jnsgd1na2vs0mg"},{"bike_id":"2e95a691-d7d8-426b-8dba-47b6b56c6a41","system_id":"levelo_inurba_marseille","lat":43.28151,"lon":5.42641,"is_reserved":false,"is_disabled":true,"rental_uris":{"android":"levelo://app?vid=2e95a691-d7d8-426b-8dba-47b6b56c6a41","ios":"levelo://app?vid=2e95a691-d7d8-426b-8dba-47b6b56c6a41"},"vehicle_type_id":"4","last_reported":1732824611,"current_range_meters":400,"station_id":"ce4bhnh2rcd13ifvqgug","pricing_plan_id":"cebpf4jnsgd1na2vs0mg"},{"bike_id":"c2da9a32-11bc-4fe0-8a48-9b682c55e15f","system_id":"levelo_inurba_marseille","lat":43.28031,"lon":5.36932,"is_reserved":false,"is_disabled":false,"rental_uris":{"android":"levelo://app?vid=c2da9a32-11bc-4fe0-8a48-9b682c55e15f","ios":"levelo://app?vid=c2da9a32-11bc-4fe0-8a48-9b682c55e15f"},"vehicle_type_id":"4","last_reported":1732824611,"current_range_meters":30400,"station_id":"ce4bha12rcd13ifvqef0","pricing_plan_id":"cebpf4jnsgd1na2vs0mg"},{"bike_id":"287740c8-fc08-44ca-8ac7-346acca8b53f","system_id":"levelo_inurba_marseille","lat":43.29844,"lon":5.36265,"is_reserved":false,"is_disabled":false,"rental_uris":{"android":"levelo://app?vid=287740c8-fc08-44ca-8ac7-346acca8b53f","ios":"levelo://app?vid=287740c8-fc08-44ca-8ac7-346acca8b53f"},"vehicle_type_id":"4","last_reported":1732824611,"current_range_meters":39200,"station_id":"ce4bgpp2rcd13ifvqc3g","pricing_plan_id":"cebpf4jnsgd1na2vs0mg"},{"bike_id":"4aa958d1-c3c5-44e5-b08d-f97580abbed0","system_id":"levelo_inurba_marseille","lat":43.28851,"lon":5.35862,"is_reserved":false,"is_disabled":false,"rental_uris":{"android":"levelo://app?vid=4aa958d1-c3c5-44e5-b08d-f97580abbed0","ios":"levelo://app?vid=4aa958d1-c3c5-44e5-b08d-f97580abbed0"},"vehicle_type_id":"4","last_reported":1732824611,"current_range_meters":38000,"station_id":"ce4bhb12rcd13ifvqem0","pricing_plan_id":"cebpf4jnsgd1na2vs0mg"},{"bike_id":"a69979b5-4000-4dd7-9fa0-f8d5d3b3cafe","system_id":"levelo_inurba_marseille","lat":43.32657,"lon":5.40996,"is_reserved":false,"is_disabled":false,"rental_uris":{"android":"levelo://app?vid=a69979b5-4000-4dd7-9fa0-f8d5d3b3cafe","ios":"levelo://app?vid=a69979b5-4000-4dd7-9fa0-f8d5d3b3cafe"},"vehicle_type_id":"4","last_reported":1732824611,"current_range_meters":24000,"station_id":"ce4bhpp2rcd13ifvqhgg","pricing_plan_id":"cebpf4jnsgd1na2vs0mg"},{"bike_id":"4adfe8d8-96d7-4c88-ab44-7ef6a8f2bf9d","system_id":"levelo_inurba_marseille","lat":43.31329,"lon":5.3969,"is_reserved":false,"is_disabled":false,"rental_uris":{"android":"levelo://app?vid=4adfe8d8-96d7-4c88-ab44-7ef6a8f2bf9d","ios":"levelo://app?vid=4adfe8d8-96d7-4c88-ab44-7ef6a8f2bf9d"},"vehicle_type_id":"4","last_reported":1732824611,"current_range_meters":27600,"station_id":"ce4bgvp2rcd13ifvqcu0","pricing_plan_id":"cebpf4jnsgd1na2vs0mg"},{"bike_id":"fe71338f-c225-45df-8433-07c39ac58814","system_id":"levelo_inurba_marseille","lat":43.30546,"lon":5.38424,"is_reserved":false,"is_disabled":false,"rental_uris":{"android":"levelo://app?vid=fe71338f-c225-45df-8433-07c39ac58814","ios":"levelo://app?vid=fe71338f-c225-45df-8433-07c39ac58814"},"vehicle_type_id":"4","last_reported":1732824611,"current_range_meters":33200,"station_id":"ce4bgg92rcd13ifvqb30","pricing_plan_id":"cebpf4jnsgd1na2vs0mg"},{"bike_id":"1e0473d4-9f9c-4e0f-a3cf-8793655344b1","system_id":"levelo_inurba_marseille","lat":43.31489,"lon":5.37309,"is_reserved":false,"is_disabled":false,"rental_uris":{"android":"levelo://app?vid=1e0473d4-9f9c-4e0f-a3cf-8793655344b1","ios":"levelo://app?vid=1e0473d4-9f9c-4e0f-a3cf-8793655344b1"},"vehicle_type_id":"4","last_reported":1732824611,"current_range_meters":2000,"station_id":"ce4bgt12rcd13ifvqcd0","pricing_plan_id":"cebpf4jnsgd1na2vs0mg"},{"bike_id":"d31969a2-e036-460c-a7db-c18d1a5bec8f","system_id":"levelo_inurba_marseille","lat":43.27812,"lon":5.40717,"is_reserved":false,"is_disabled":true,"rental_uris":{"android":"levelo://app?vid=d31969a2-e036-460c-a7db-c18d1a5bec8f","ios":"levelo://app?vid=d31969a2-e036-460c-a7db-c18d1a5bec8f"},"vehicle_type_id":"4","last_reported":1732824611,"current_range_meters":0,"station_id":"ce4bhnh2rcd13ifvqgtg","pricing_plan_id":"cebpf4jnsgd1na2vs0mg"},{"bike_id":"e51b2acb-d883-446b-9ce9-347608453ece","system_id":"levelo_inurba_marseille","lat":43.22925,"lon":5.35378,"is_reserved":false,"is_disabled":false,"rental_uris":{"android":"levelo://app?vid=e51b2acb-d883-446b-9ce9-347608453ece","ios":"levelo://app?vid=e51b2acb-d883-446b-9ce9-347608453ece"},"vehicle_type_id":"4","last_reported":1732824611,"current_range_meters":30400,"station_id":"cpo3532slgdg3j2ikp40","pricing_plan_id":"cebpf4jnsgd1na2vs0mg"},{"bike_id":"3086611e-2b5c-4be0-860a-c70d388b9380","system_id":"levelo_inurba_marseille","lat":43.28178,"lon":5.37909,"is_reserved":false,"is_disabled":false,"rental_uris":{"android":"levelo://app?vid=3086611e-2b5c-4be0-860a-c70d388b9380","ios":"levelo://app?vid=3086611e-2b5c-4be0-860a-c70d388b9380"},"vehicle_type_id":"4","last_reported":1732824611,"current_range_meters":33600,"station_id":"ce4bha12rcd13ifvqee0","pricing_plan_id":"cebpf4jnsgd1na2vs0mg"},{"bike_id":"93bf632f-9c2c-453f-931e-3a26e12fd5f1","system_id":"levelo_inurba_marseille","lat":43.30131,"lon":5.39882,"is_reserved":false,"is_disabled":true,"rental_uris":{"android":"levelo://app?vid=93bf632f-9c2c-453f-931e-3a26e12fd5f1","ios":"levelo://app?vid=93bf632f-9c2c-453f-931e-3a26e12fd5f1"},"vehicle_type_id":"4","last_reported":1732824611,"current_range_meters":36800,"station_id":"ce4bh0h2rcd13ifvqd40","pricing_plan_id":"cebpf4jnsgd1na2vs0mg"},{"bike_id":"44fbd0c1-39cf-42b7-96da-4d227c42c068","system_id":"levelo_inurba_marseille","lat":43.29542,"lon":5.37498,"is_reserved":false,"is_disabled":false,"rental_uris":{"android":"levelo://app?vid=44fbd0c1-39cf-42b7-96da-4d227c42c068","ios":"levelo://app?vid=44fbd0c1-39cf-42b7-96da-4d227c42c068"},"vehicle_type_id":"4","last_reported":1732824611,"current_range_meters":36000,"station_id":"ce4bgkp2rcd13ifvqbmg","pricing_plan_id":"cebpf4jnsgd1na2vs0mg"},{"bike_id":"fe1c6c60-0f4f-4b5c-a7ea-9f2ff8347245","system_id":"levelo_inurba_marseille","lat":43.28126,"lon":5.35158,"is_reserved":false,"is_disabled":false,"rental_uris":{"android":"levelo://app?vid=fe1c6c60-0f4f-4b5c-a7ea-9f2ff8347245","ios":"levelo://app?vid=fe1c6c60-0f4f-4b5c-a7ea-9f2ff8347245"},"vehicle_type_id":"4","last_reported":1732824611,"current_range_meters":15200,"station_id":"ce4bgj92rcd13ifvqbe0","pricing_plan_id":"cebpf4jnsgd1na2vs0mg"},{"bike_id":"371abac0-5dd0-42bb-a641-ca0cac7a118a","system_id":"levelo_inurba_marseille","lat":43.27693,"lon":5.38897,"is_reserved":false,"is_disabled":true,"rental_uris":{"android":"levelo://app?vid=371abac0-5dd0-42bb-a641-ca0cac7a118a","ios":"levelo://app?vid=371abac0-5dd0-42bb-a641-ca0cac7a118a"},"vehicle_type_id":"4","last_reported":1732824611,"current_range_meters":0,"station_id":"ce4bhi12rcd13ifvqfo0","pricing_plan_id":"cebpf4jnsgd1na2vs0mg"},{"bike_id":"41d744b8-cf23-4d73-84c0-926704fe80f9","system_id":"levelo_inurba_marseille","lat":43.29204,"lon":5.39323,"is_reserved":false,"is_disabled":false,"rental_uris":{"android":"levelo://app?vid=41d744b8-cf23-4d73-84c0-926704fe80f9","ios":"levelo://app?vid=41d744b8-cf23-4d73-84c0-926704fe80f9"},"vehicle_type_id":"4","last_reported":1732824611,"current_range_meters":28000,"station_id":"ce4bh192rcd13ifvqdd0","pricing_plan_id":"cebpf4jnsgd1na2vs0mg"},{"bike_id":"44692518-f307-4d34-bde3-20456f8e1767","system_id":"levelo_inurba_marseille","lat":43.27433,"lon":5.38977,"is_reserved":false,"is_disabled":false,"rental_uris":{"android":"levelo://app?vid=44692518-f307-4d34-bde3-20456f8e1767","ios":"levelo://app?vid=44692518-f307-4d34-bde3-20456f8e1767"},"vehicle_type_id":"4","last_reported":1732824611,"current_range_meters":28000,"station_id":"","pricing_plan_id":"cebpf4jnsgd1na2vs0mg"},{"bike_id":"f1242cb1-523d-4c20-8a30-1f928a7250fc","system_id":"levelo_inurba_marseille","lat":43.2662,"lon":5.39051,"is_reserved":false,"is_disabled":false,"rental_uris":{"android":"levelo://app?vid=f1242cb1-523d-4c20-8a30-1f928a7250fc","ios":"levelo://app?vid=f1242cb1-523d-4c20-8a30-1f928a7250fc"},"vehicle_type_id":"4","last_reported":1732824611,"current_range_meters":8400,"station_id":"ce4bhe12rcd13ifvqf30","pricing_plan_id":"cebpf4jnsgd1na2vs0mg"},{"bike_id":"7fdecdfe-ddc9-468f-99a1-d39f2569bb51","system_id":"levelo_inurba_marseille","lat":43.30327,"lon":5.40438,"is_reserved":false,"is_disabled":false,"rental_uris":{"android":"levelo://app?vid=7fdecdfe-ddc9-468f-99a1-d39f2569bb51","ios":"levelo://app?vid=7fdecdfe-ddc9-468f-99a1-d39f2569bb51"},"vehicle_type_id":"4","last_reported":1732824611,"current_range_meters":5600,"station_id":"ce4bh012rcd13ifvqd10","pricing_plan_id":"cebpf4jnsgd1na2vs0mg"},{"bike_id":"0ab9a5ea-e750-499a-a57a-6204ba05a6e1","system_id":"levelo_inurba_marseille","lat":43.28613,"lon":5.35099,"is_reserved":false,"is_disabled":false,"rental_uris":{"android":"levelo://app?vid=0ab9a5ea-e750-499a-a57a-6204ba05a6e1","ios":"levelo://app?vid=0ab9a5ea-e750-499a-a57a-6204ba05a6e1"},"vehicle_type_id":"4","last_reported":1732824611,"current_range_meters":19600,"station_id":"ce4bhch2rcd13ifvqeug","pricing_plan_id":"cebpf4jnsgd1na2vs0mg"},{"bike_id":"a3cc2f4d-bcea-4deb-9ed5-c897e6e372ca","system_id":"levelo_inurba_marseille","lat":43.31487,"lon":5.37313,"is_reserved":false,"is_disabled":false,"rental_uris":{"android":"levelo://app?vid=a3cc2f4d-bcea-4deb-9ed5-c897e6e372ca","ios":"levelo://app?vid=a3cc2f4d-bcea-4deb-9ed5-c897e6e372ca"},"vehicle_type_id":"4","last_reported":1732824611,"current_range_meters":27200,"station_id":"ce4bgt12rcd13ifvqcd0","pricing_plan_id":"cebpf4jnsgd1na2vs0mg"},{"bike_id":"f709e49e-0b22-4bf0-9f1b-8c1a2a21ff90","system_id":"levelo_inurba_marseille","lat":43.25714,"lon":5.41122,"is_reserved":false,"is_disabled":false,"rental_uris":{"android":"levelo://app?vid=f709e49e-0b22-4bf0-9f1b-8c1a2a21ff90","ios":"levelo://app?vid=f709e49e-0b22-4bf0-9f1b-8c1a2a21ff90"},"vehicle_type_id":"4","last_reported":1732824611,"current_range_meters":36400,"station_id":"ce4bhkp2rcd13ifvqgd0","pricing_plan_id":"cebpf4jnsgd1na2vs0mg"},{"bike_id":"e42c3730-6b48-4ecf-b483-e2c2e24c4f25","system_id":"levelo_inurba_marseille","lat":43.27807,"lon":5.40719,"is_reserved":false,"is_disabled":false,"rental_uris":{"android":"levelo://app?vid=e42c3730-6b48-4ecf-b483-e2c2e24c4f25","ios":"levelo://app?vid=e42c3730-6b48-4ecf-b483-e2c2e24c4f25"},"vehicle_type_id":"4","last_reported":1732824611,"current_range_meters":38800,"station_id":"ce4bhnh2rcd13ifvqgtg","pricing_plan_id":"cebpf4jnsgd1na2vs0mg"},{"bike_id":"40d36c1d-abf3-4233-a603-661760e03c67","system_id":"levelo_inurba_marseille","lat":43.28933,"lon":5.36635,"is_reserved":false,"is_disabled":false,"rental_uris":{"android":"levelo://app?vid=40d36c1d-abf3-4233-a603-661760e03c67","ios":"levelo://app?vid=40d36c1d-abf3-4233-a603-661760e03c67"},"vehicle_type_id":"4","last_reported":1732824611,"current_range_meters":18800,"station_id":"ce4bhap2rcd13ifvqek0","pricing_plan_id":"cebpf4jnsgd1na2vs0mg"},{"bike_id":"f21afc80-3ec1-4dbd-ba0c-da243dc5e81e","system_id":"levelo_inurba_marseille","lat":43.31699,"lon":5.3774,"is_reserved":false,"is_disabled":false,"rental_uris":{"android":"levelo://app?vid=f21afc80-3ec1-4dbd-ba0c-da243dc5e81e","ios":"levelo://app?vid=f21afc80-3ec1-4dbd-ba0c-da243dc5e81e"},"vehicle_type_id":"4","last_reported":1732824611,"current_range_meters":20400,"station_id":"ce4bgth2rcd13ifvqch0","pricing_plan_id":"cebpf4jnsgd1na2vs0mg"},{"bike_id":"a11c87cd-c5ed-4a29-ba8a-78abe7a5d984","system_id":"levelo_inurba_marseille","lat":43.27831,"lon":5.39196,"is_reserved":false,"is_disabled":true,"rental_uris":{"android":"levelo://app?vid=a11c87cd-c5ed-4a29-ba8a-78abe7a5d984","ios":"levelo://app?vid=a11c87cd-c5ed-4a29-ba8a-78abe7a5d984"},"vehicle_type_id":"4","last_reported":1732824611,"current_range_meters":30800,"station_id":"ce4bhjp2rcd13ifvqga0","pricing_plan_id":"cebpf4jnsgd1na2vs0mg"},{"bike_id":"3e5a2e41-79f4-4430-a7cc-8ebc5970d02f","system_id":"levelo_inurba_marseille","lat":43.29019,"lon":5.38132,"is_reserved":false,"is_disabled":true,"rental_uris":{"android":"levelo://app?vid=3e5a2e41-79f4-4430-a7cc-8ebc5970d02f","ios":"levelo://app?vid=3e5a2e41-79f4-4430-a7cc-8ebc5970d02f"},"vehicle_type_id":"4","last_reported":1732824611,"current_range_meters":18000,"station_id":"ce4bh4p2rcd13ifvqe1g","pricing_plan_id":"cebpf4jnsgd1na2vs0mg"},{"bike_id":"9d95c138-91c4-40e0-a45c-c4e828158f44","system_id":"levelo_inurba_marseille","lat":43.3107,"lon":5.38352,"is_reserved":false,"is_disabled":false,"rental_uris":{"android":"levelo://app?vid=9d95c138-91c4-40e0-a45c-c4e828158f44","ios":"levelo://app?vid=9d95c138-91c4-40e0-a45c-c4e828158f44"},"vehicle_type_id":"4","last_reported":1732824611,"current_range_meters":29600,"station_id":"ce4bgv92rcd13ifvqcr0","pricing_plan_id":"cebpf4jnsgd1na2vs0mg"},{"bike_id":"75486131-8e85-4448-87a1-67a7e3096de4","system_id":"levelo_inurba_marseille","lat":43.30933,"lon":5.37899,"is_reserved":false,"is_disabled":true,"rental_uris":{"android":"levelo://app?vid=75486131-8e85-4448-87a1-67a7e3096de4","ios":"levelo://app?vid=75486131-8e85-4448-87a1-67a7e3096de4"},"vehicle_type_id":"4","last_reported":1732824611,"current_range_meters":800,"station_id":"","pricing_plan_id":"cebpf4jnsgd1na2vs0mg"},{"bike_id":"a5909545-3e09-4859-9fda-9ffe4e6e4883","system_id":"levelo_inurba_marseille","lat":43.23067,"lon":5.35489,"is_reserved":false,"is_disabled":false,"rental_uris":{"android":"levelo://app?vid=a5909545-3e09-4859-9fda-9ffe4e6e4883","ios":"levelo://app?vid=a5909545-3e09-4859-9fda-9ffe4e6e4883"},"vehicle_type_id":"4","last_reported":1732824611,"current_range_meters":22000,"station_id":"cpo3342slgdg3j2ifvpg","pricing_plan_id":"cebpf4jnsgd1na2vs0mg"},{"bike_id":"9755fa8a-ee99-4fcd-b1b5-829776e94767","system_id":"levelo_inurba_marseille","lat":43.26778,"lon":5.39424,"is_reserved":false,"is_disabled":false,"rental_uris":{"android":"levelo://app?vid=9755fa8a-ee99-4fcd-b1b5-829776e94767","ios":"levelo://app?vid=9755fa8a-ee99-4fcd-b1b5-829776e94767"},"vehicle_type_id":"4","last_reported":1732824611,"current_range_meters":38000,"station_id":"ce4bhh12rcd13ifvqfg0","pricing_plan_id":"cebpf4jnsgd1na2vs0mg"},{"bike_id":"d12af0f5-2eaa-4108-a692-64695b58be39","system_id":"levelo_inurba_marseille","lat":43.29265,"lon":5.40901,"is_reserved":false,"is_disabled":false,"rental_uris":{"android":"levelo://app?vid=d12af0f5-2eaa-4108-a692-64695b58be39","ios":"levelo://app?vid=d12af0f5-2eaa-4108-a692-64695b58be39"},"vehicle_type_id":"4","last_reported":1732824611,"current_range_meters":16400,"station_id":"ce4bh192rcd13ifvqdc0","pricing_plan_id":"cebpf4jnsgd1na2vs0mg"},{"bike_id":"b6b1f691-f5d4-4437-a273-f7c9759cc4c1","system_id":"levelo_inurba_marseille","lat":43.29194,"lon":5.3931,"is_reserved":false,"is_disabled":true,"rental_uris":{"android":"levelo://app?vid=b6b1f691-f5d4-4437-a273-f7c9759cc4c1","ios":"levelo://app?vid=b6b1f691-f5d4-4437-a273-f7c9759cc4c1"},"vehicle_type_id":"4","last_reported":1732824611,"current_range_meters":38800,"station_id":"ce4bh192rcd13ifvqdd0","pricing_plan_id":"cebpf4jnsgd1na2vs0mg"},{"bike_id":"1f3be82a-39fb-49be-9f70-2df7092d6f3c","system_id":"levelo_inurba_marseille","lat":43.32493,"lon":5.36533,"is_reserved":false,"is_disabled":false,"rental_uris":{"android":"levelo://app?vid=1f3be82a-39fb-49be-9f70-2df7092d6f3c","ios":"levelo://app?vid=1f3be82a-39fb-49be-9f70-2df7092d6f3c"},"vehicle_type_id":"4","last_reported":1732824611,"current_range_meters":16400,"station_id":"ce4bhs12rcd13ifvqhvg","pricing_plan_id":"cebpf4jnsgd1na2vs0mg"},{"bike_id":"4fc58fa2-9d3c-4cae-9f79-b1090c26c8cb","system_id":"levelo_inurba_marseille","lat":43.27831,"lon":5.39214,"is_reserved":false,"is_disabled":false,"rental_uris":{"android":"levelo://app?vid=4fc58fa2-9d3c-4cae-9f79-b1090c26c8cb","ios":"levelo://app?vid=4fc58fa2-9d3c-4cae-9f79-b1090c26c8cb"},"vehicle_type_id":"4","last_reported":1732824611,"current_range_meters":34000,"station_id":"ce4bhjp2rcd13ifvqga0","pricing_plan_id":"cebpf4jnsgd1na2vs0mg"},{"bike_id":"e5951ee3-4a5a-4ebb-b469-096c5188dfa3","system_id":"levelo_inurba_marseille","lat":43.231921,"lon":5.355493,"is_reserved":false,"is_disabled":false,"rental_uris":{"android":"levelo://app?vid=e5951ee3-4a5a-4ebb-b469-096c5188dfa3","ios":"levelo://app?vid=e5951ee3-4a5a-4ebb-b469-096c5188dfa3"},"vehicle_type_id":"4","last_reported":1732824611,"current_range_meters":26800,"station_id":"ce4bhu92rcd13ifvqi70","pricing_plan_id":"cebpf4jnsgd1na2vs0mg"},{"bike_id":"888f360b-20ea-47bc-9441-e3690e3d4f21","system_id":"levelo_inurba_marseille","lat":43.2558,"lon":5.38237,"is_reserved":false,"is_disabled":false,"rental_uris":{"android":"levelo://app?vid=888f360b-20ea-47bc-9441-e3690e3d4f21","ios":"levelo://app?vid=888f360b-20ea-47bc-9441-e3690e3d4f21"},"vehicle_type_id":"4","last_reported":1732824611,"current_range_meters":27200,"station_id":"ce4bhih2rcd13ifvqfs0","pricing_plan_id":"cebpf4jnsgd1na2vs0mg"},{"bike_id":"9fe56445-4f06-4096-8c56-06a0e93c0476","system_id":"levelo_inurba_marseille","lat":43.29252,"lon":5.3843,"is_reserved":false,"is_disabled":false,"rental_uris":{"android":"levelo://app?vid=9fe56445-4f06-4096-8c56-06a0e93c0476","ios":"levelo://app?vid=9fe56445-4f06-4096-8c56-06a0e93c0476"},"vehicle_type_id":"4","last_reported":1732824611,"current_range_meters":38000,"station_id":"ce4bh692rcd13ifvqea0","pricing_plan_id":"cebpf4jnsgd1na2vs0mg"},{"bike_id":"cc633f01-bdc8-430a-91b8-8b9dcc960bcd","system_id":"levelo_inurba_marseille","lat":43.32293,"lon":5.38231,"is_reserved":false,"is_disabled":false,"rental_uris":{"android":"levelo://app?vid=cc633f01-bdc8-430a-91b8-8b9dcc960bcd","ios":"levelo://app?vid=cc633f01-bdc8-430a-91b8-8b9dcc960bcd"},"vehicle_type_id":"4","last_reported":1732824611,"current_range_meters":36400,"station_id":"ce4bhr12rcd13ifvqhqg","pricing_plan_id":"cebpf4jnsgd1na2vs0mg"},{"bike_id":"d708a54b-7608-47d7-bf5f-d2d196b937c8","system_id":"levelo_inurba_marseille","lat":43.31371,"lon":5.38496,"is_reserved":false,"is_disabled":false,"rental_uris":{"android":"levelo://app?vid=d708a54b-7608-47d7-bf5f-d2d196b937c8","ios":"levelo://app?vid=d708a54b-7608-47d7-bf5f-d2d196b937c8"},"vehicle_type_id":"4","last_reported":1732824611,"current_range_meters":38800,"station_id":"ce4bgt92rcd13ifvqcf0","pricing_plan_id":"cebpf4jnsgd1na2vs0mg"},{"bike_id":"2989dbec-be7f-41f9-a003-552ba868c232","system_id":"levelo_inurba_marseille","lat":43.28147,"lon":5.42644,"is_reserved":false,"is_disabled":false,"rental_uris":{"android":"levelo://app?vid=2989dbec-be7f-41f9-a003-552ba868c232","ios":"levelo://app?vid=2989dbec-be7f-41f9-a003-552ba868c232"},"vehicle_type_id":"4","last_reported":1732824611,"current_range_meters":38400,"station_id":"ce4bhnh2rcd13ifvqgug","pricing_plan_id":"cebpf4jnsgd1na2vs0mg"},{"bike_id":"c0a660c5-61cb-4528-9d0d-4f4d7f62050a","system_id":"levelo_inurba_marseille","lat":43.29535,"lon":5.38548,"is_reserved":false,"is_disabled":false,"rental_uris":{"android":"levelo://app?vid=c0a660c5-61cb-4528-9d0d-4f4d7f62050a","ios":"levelo://app?vid=c0a660c5-61cb-4528-9d0d-4f4d7f62050a"},"vehicle_type_id":"4","last_reported":1732824611,"current_range_meters":38400,"station_id":"ce4bgih2rcd13ifvqba0","pricing_plan_id":"cebpf4jnsgd1na2vs0mg"},{"bike_id":"0ebb80bc-40d4-435a-a911-cc9fd86bd603","system_id":"levelo_inurba_marseille","lat":43.2465,"lon":5.3889,"is_reserved":false,"is_disabled":false,"rental_uris":{"android":"levelo://app?vid=0ebb80bc-40d4-435a-a911-cc9fd86bd603","ios":"levelo://app?vid=0ebb80bc-40d4-435a-a911-cc9fd86bd603"},"vehicle_type_id":"4","last_reported":1732824611,"current_range_meters":17200,"station_id":"ce4bhg12rcd13ifvqf60","pricing_plan_id":"cebpf4jnsgd1na2vs0mg"},{"bike_id":"57521451-088b-4d59-ae59-c456c4011d5a","system_id":"levelo_inurba_marseille","lat":43.29741,"lon":5.36881,"is_reserved":false,"is_disabled":false,"rental_uris":{"android":"levelo://app?vid=57521451-088b-4d59-ae59-c456c4011d5a","ios":"levelo://app?vid=57521451-088b-4d59-ae59-c456c4011d5a"},"vehicle_type_id":"4","last_reported":1732824611,"current_range_meters":25600,"station_id":"","pricing_plan_id":"cebpf4jnsgd1na2vs0mg"},{"bike_id":"de8dedfd-c65e-4ce5-b8ec-b5ab34a22a6e","system_id":"levelo_inurba_marseille","lat":43.27064,"lon":5.42277,"is_reserved":false,"is_disabled":true,"rental_uris":{"android":"levelo://app?vid=de8dedfd-c65e-4ce5-b8ec-b5ab34a22a6e","ios":"levelo://app?vid=de8dedfd-c65e-4ce5-b8ec-b5ab34a22a6e"},"vehicle_type_id":"4","last_reported":1732824611,"current_range_meters":30800,"station_id":"ce4bhk92rcd13ifvqgb0","pricing_plan_id":"cebpf4jnsgd1na2vs0mg"},{"bike_id":"a6c2aafb-23b3-4c3f-b41e-8e0dbd2146f7","system_id":"levelo_inurba_marseille","lat":43.3236,"lon":5.38887,"is_reserved":false,"is_disabled":false,"rental_uris":{"android":"levelo://app?vid=a6c2aafb-23b3-4c3f-b41e-8e0dbd2146f7","ios":"levelo://app?vid=a6c2aafb-23b3-4c3f-b41e-8e0dbd2146f7"},"vehicle_type_id":"4","last_reported":1732824611,"current_range_meters":24800,"station_id":"ce4bhqp2rcd13ifvqhog","pricing_plan_id":"cebpf4jnsgd1na2vs0mg"},{"bike_id":"d2d01e23-35ca-407f-8292-f4fa070f2e36","system_id":"levelo_inurba_marseille","lat":43.28696,"lon":5.37386,"is_reserved":false,"is_disabled":false,"rental_uris":{"android":"levelo://app?vid=d2d01e23-35ca-407f-8292-f4fa070f2e36","ios":"levelo://app?vid=d2d01e23-35ca-407f-8292-f4fa070f2e36"},"vehicle_type_id":"4","last_reported":1732824611,"current_range_meters":38400,"station_id":"ce4bh3p2rcd13ifvqdq0","pricing_plan_id":"cebpf4jnsgd1na2vs0mg"},{"bike_id":"a22992bb-72fa-413d-a0a5-59129865ae26","system_id":"levelo_inurba_marseille","lat":43.30259,"lon":5.40081,"is_reserved":false,"is_disabled":false,"rental_uris":{"android":"levelo://app?vid=a22992bb-72fa-413d-a0a5-59129865ae26","ios":"levelo://app?vid=a22992bb-72fa-413d-a0a5-59129865ae26"},"vehicle_type_id":"4","last_reported":1732824611,"current_range_meters":28400,"station_id":"ce4bgvh2rcd13ifvqcs0","pricing_plan_id":"cebpf4jnsgd1na2vs0mg"},{"bike_id":"fd8322b1-179b-4f6c-9ae2-0c74d9c351c7","system_id":"levelo_inurba_marseille","lat":43.30431,"lon":5.38897,"is_reserved":false,"is_disabled":false,"rental_uris":{"android":"levelo://app?vid=fd8322b1-179b-4f6c-9ae2-0c74d9c351c7","ios":"levelo://app?vid=fd8322b1-179b-4f6c-9ae2-0c74d9c351c7"},"vehicle_type_id":"4","last_reported":1732824611,"current_range_meters":36800,"station_id":"ce4bgk12rcd13ifvqbi0","pricing_plan_id":"cebpf4jnsgd1na2vs0mg"},{"bike_id":"3a3b1b2b-9521-4bba-ba92-f3603821bdb4","system_id":"levelo_inurba_marseille","lat":43.25581,"lon":5.38229,"is_reserved":false,"is_disabled":false,"rental_uris":{"android":"levelo://app?vid=3a3b1b2b-9521-4bba-ba92-f3603821bdb4","ios":"levelo://app?vid=3a3b1b2b-9521-4bba-ba92-f3603821bdb4"},"vehicle_type_id":"4","last_reported":1732824611,"current_range_meters":27600,"station_id":"ce4bhih2rcd13ifvqfs0","pricing_plan_id":"cebpf4jnsgd1na2vs0mg"},{"bike_id":"f1d93964-753d-4b19-be08-ad315d7722c0","system_id":"levelo_inurba_marseille","lat":43.23148,"lon":5.43719,"is_reserved":false,"is_disabled":false,"rental_uris":{"android":"levelo://app?vid=f1d93964-753d-4b19-be08-ad315d7722c0","ios":"levelo://app?vid=f1d93964-753d-4b19-be08-ad315d7722c0"},"vehicle_type_id":"4","last_reported":1732824611,"current_range_meters":22800,"station_id":"ce4bhmp2rcd13ifvqgog","pricing_plan_id":"cebpf4jnsgd1na2vs0mg"},{"bike_id":"181b72c9-1935-45a4-ac18-c94d99bf0dfc","system_id":"levelo_inurba_marseille","lat":43.29893,"lon":5.3847,"is_reserved":false,"is_disabled":false,"rental_uris":{"android":"levelo://app?vid=181b72c9-1935-45a4-ac18-c94d99bf0dfc","ios":"levelo://app?vid=181b72c9-1935-45a4-ac18-c94d99bf0dfc"},"vehicle_type_id":"4","last_reported":1732824611,"current_range_meters":4000,"station_id":"ce4bgj12rcd13ifvqbc0","pricing_plan_id":"cebpf4jnsgd1na2vs0mg"},{"bike_id":"8105928c-2806-4a6a-b4e4-a4e821a3e547","system_id":"levelo_inurba_marseille","lat":43.28456,"lon":5.35886,"is_reserved":false,"is_disabled":false,"rental_uris":{"android":"levelo://app?vid=8105928c-2806-4a6a-b4e4-a4e821a3e547","ios":"levelo://app?vid=8105928c-2806-4a6a-b4e4-a4e821a3e547"},"vehicle_type_id":"4","last_reported":1732824611,"current_range_meters":37600,"station_id":"ce4bhah2rcd13ifvqei0","pricing_plan_id":"cebpf4jnsgd1na2vs0mg"},{"bike_id":"269ab1f3-960d-485a-9650-8a900a6370f8","system_id":"levelo_inurba_marseille","lat":43.28934,"lon":5.36396,"is_reserved":false,"is_disabled":false,"rental_uris":{"android":"levelo://app?vid=269ab1f3-960d-485a-9650-8a900a6370f8","ios":"levelo://app?vid=269ab1f3-960d-485a-9650-8a900a6370f8"},"vehicle_type_id":"4","last_reported":1732824611,"current_range_meters":37600,"station_id":"ce4bhc92rcd13ifvqetg","pricing_plan_id":"cebpf4jnsgd1na2vs0mg"},{"bike_id":"35454406-e6c0-4029-9881-a7b6c2303978","system_id":"levelo_inurba_marseille","lat":43.29278,"lon":5.40121,"is_reserved":false,"is_disabled":false,"rental_uris":{"android":"levelo://app?vid=35454406-e6c0-4029-9881-a7b6c2303978","ios":"levelo://app?vid=35454406-e6c0-4029-9881-a7b6c2303978"},"vehicle_type_id":"4","last_reported":1732824611,"current_range_meters":20800,"station_id":"ce4bh312rcd13ifvqdk0","pricing_plan_id":"cebpf4jnsgd1na2vs0mg"},{"bike_id":"43746d86-8a13-4845-9faf-ae69b548d714","system_id":"levelo_inurba_marseille","lat":43.29459,"lon":5.37917,"is_reserved":false,"is_disabled":true,"rental_uris":{"android":"levelo://app?vid=43746d86-8a13-4845-9faf-ae69b548d714","ios":"levelo://app?vid=43746d86-8a13-4845-9faf-ae69b548d714"},"vehicle_type_id":"4","last_reported":1732824611,"current_range_meters":0,"station_id":"","pricing_plan_id":"cebpf4jnsgd1na2vs0mg"},{"bike_id":"216a2d8c-b768-44af-a51d-03c5dec1f0d4","system_id":"levelo_inurba_marseille","lat":43.33601,"lon":5.41029,"is_reserved":false,"is_disabled":false,"rental_uris":{"android":"levelo://app?vid=216a2d8c-b768-44af-a51d-03c5dec1f0d4","ios":"levelo://app?vid=216a2d8c-b768-44af-a51d-03c5dec1f0d4"},"vehicle_type_id":"4","last_reported":1732824611,"current_range_meters":8400,"station_id":"ce4bhqh2rcd13ifvqhmg","pricing_plan_id":"cebpf4jnsgd1na2vs0mg"},{"bike_id":"24475bbe-d591-422d-886b-4e03bfa37464","system_id":"levelo_inurba_marseille","lat":43.23183,"lon":5.39985,"is_reserved":false,"is_disabled":false,"rental_uris":{"android":"levelo://app?vid=24475bbe-d591-422d-886b-4e03bfa37464","ios":"levelo://app?vid=24475bbe-d591-422d-886b-4e03bfa37464"},"vehicle_type_id":"4","last_reported":1732824611,"current_range_meters":38800,"station_id":"ce4bhn12rcd13ifvqgqg","pricing_plan_id":"cebpf4jnsgd1na2vs0mg"},{"bike_id":"955893d6-9ae9-473a-9838-7a28ff625647","system_id":"levelo_inurba_marseille","lat":43.27207,"lon":5.4097,"is_reserved":false,"is_disabled":false,"rental_uris":{"android":"levelo://app?vid=955893d6-9ae9-473a-9838-7a28ff625647","ios":"levelo://app?vid=955893d6-9ae9-473a-9838-7a28ff625647"},"vehicle_type_id":"4","last_reported":1732824611,"current_range_meters":38000,"station_id":"ce4bhl12rcd13ifvqgf0","pricing_plan_id":"cebpf4jnsgd1na2vs0mg"},{"bike_id":"026a6ab3-cbe0-49e0-b69d-fc7177c7bf1b","system_id":"levelo_inurba_marseille","lat":43.28566,"lon":5.39497,"is_reserved":false,"is_disabled":false,"rental_uris":{"android":"levelo://app?vid=026a6ab3-cbe0-49e0-b69d-fc7177c7bf1b","ios":"levelo://app?vid=026a6ab3-cbe0-49e0-b69d-fc7177c7bf1b"},"vehicle_type_id":"4","last_reported":1732824611,"current_range_meters":24400,"station_id":"ce4bh292rcd13ifvqdg0","pricing_plan_id":"cebpf4jnsgd1na2vs0mg"},{"bike_id":"38f07019-7b2d-4ea4-8138-ab655e972192","system_id":"levelo_inurba_marseille","lat":43.28576,"lon":5.39494,"is_reserved":false,"is_disabled":true,"rental_uris":{"android":"levelo://app?vid=38f07019-7b2d-4ea4-8138-ab655e972192","ios":"levelo://app?vid=38f07019-7b2d-4ea4-8138-ab655e972192"},"vehicle_type_id":"4","last_reported":1732824611,"current_range_meters":0,"station_id":"ce4bh292rcd13ifvqdg0","pricing_plan_id":"cebpf4jnsgd1na2vs0mg"},{"bike_id":"bb2d75fd-eb1e-47e2-8da6-ca4e05134df5","system_id":"levelo_inurba_marseille","lat":43.24664,"lon":5.38163,"is_reserved":false,"is_disabled":false,"rental_uris":{"android":"levelo://app?vid=bb2d75fd-eb1e-47e2-8da6-ca4e05134df5","ios":"levelo://app?vid=bb2d75fd-eb1e-47e2-8da6-ca4e05134df5"},"vehicle_type_id":"4","last_reported":1732824611,"current_range_meters":38800,"station_id":"ce4bhih2rcd13ifvqfr0","pricing_plan_id":"cebpf4jnsgd1na2vs0mg"},{"bike_id":"0e1045bb-b6d5-4264-9127-33d2749dc04c","system_id":"levelo_inurba_marseille","lat":43.29871,"lon":5.3974,"is_reserved":false,"is_disabled":false,"rental_uris":{"android":"levelo://app?vid=0e1045bb-b6d5-4264-9127-33d2749dc04c","ios":"levelo://app?vid=0e1045bb-b6d5-4264-9127-33d2749dc04c"},"vehicle_type_id":"4","last_reported":1732824611,"current_range_meters":32400,"station_id":"ce4bh0h2rcd13ifvqd50","pricing_plan_id":"cebpf4jnsgd1na2vs0mg"},{"bike_id":"8225cd33-43c6-4fdc-a0ff-156a75ab81ed","system_id":"levelo_inurba_marseille","lat":43.28263,"lon":5.35064,"is_reserved":false,"is_disabled":false,"rental_uris":{"android":"levelo://app?vid=8225cd33-43c6-4fdc-a0ff-156a75ab81ed","ios":"levelo://app?vid=8225cd33-43c6-4fdc-a0ff-156a75ab81ed"},"vehicle_type_id":"4","last_reported":1732824611,"current_range_meters":28800,"station_id":"ce4bhbp2rcd13ifvqerg","pricing_plan_id":"cebpf4jnsgd1na2vs0mg"},{"bike_id":"4b7685fa-b4d0-444e-8077-2fa85ef81c80","system_id":"levelo_inurba_marseille","lat":43.255721,"lon":5.382296,"is_reserved":false,"is_disabled":false,"rental_uris":{"android":"levelo://app?vid=4b7685fa-b4d0-444e-8077-2fa85ef81c80","ios":"levelo://app?vid=4b7685fa-b4d0-444e-8077-2fa85ef81c80"},"vehicle_type_id":"4","last_reported":1732824611,"current_range_meters":38800,"station_id":"ce4bhih2rcd13ifvqfs0","pricing_plan_id":"cebpf4jnsgd1na2vs0mg"},{"bike_id":"3b197e5a-c568-4760-aa41-5161a5428fdb","system_id":"levelo_inurba_marseille","lat":43.28,"lon":5.40011,"is_reserved":false,"is_disabled":false,"rental_uris":{"android":"levelo://app?vid=3b197e5a-c568-4760-aa41-5161a5428fdb","ios":"levelo://app?vid=3b197e5a-c568-4760-aa41-5161a5428fdb"},"vehicle_type_id":"4","last_reported":1732824611,"current_range_meters":34000,"station_id":"ce4bho92rcd13ifvqh4g","pricing_plan_id":"cebpf4jnsgd1na2vs0mg"},{"bike_id":"7cb7bd55-762e-46fa-8167-ad3253b4acf8","system_id":"levelo_inurba_marseille","lat":43.24804,"lon":5.37458,"is_reserved":false,"is_disabled":false,"rental_uris":{"android":"levelo://app?vid=7cb7bd55-762e-46fa-8167-ad3253b4acf8","ios":"levelo://app?vid=7cb7bd55-762e-46fa-8167-ad3253b4acf8"},"vehicle_type_id":"4","last_reported":1732824611,"current_range_meters":6400,"station_id":"ce4bhgh2rcd13ifvqfb0","pricing_plan_id":"cebpf4jnsgd1na2vs0mg"},{"bike_id":"73237246-d3c1-43bc-bad7-8e44028b6f2d","system_id":"levelo_inurba_marseille","lat":43.23187,"lon":5.39981,"is_reserved":false,"is_disabled":false,"rental_uris":{"android":"levelo://app?vid=73237246-d3c1-43bc-bad7-8e44028b6f2d","ios":"levelo://app?vid=73237246-d3c1-43bc-bad7-8e44028b6f2d"},"vehicle_type_id":"4","last_reported":1732824611,"current_range_meters":30000,"station_id":"ce4bhn12rcd13ifvqgqg","pricing_plan_id":"cebpf4jnsgd1na2vs0mg"},{"bike_id":"b61d80d7-b353-4771-8382-6558a9c16f91","system_id":"levelo_inurba_marseille","lat":43.31759,"lon":5.39019,"is_reserved":false,"is_disabled":false,"rental_uris":{"android":"levelo://app?vid=b61d80d7-b353-4771-8382-6558a9c16f91","ios":"levelo://app?vid=b61d80d7-b353-4771-8382-6558a9c16f91"},"vehicle_type_id":"4","last_reported":1732824611,"current_range_meters":19200,"station_id":"ce4bhqp2rcd13ifvqhng","pricing_plan_id":"cebpf4jnsgd1na2vs0mg"},{"bike_id":"fc4d15f5-6256-45a3-90d6-77bb4c676955","system_id":"levelo_inurba_marseille","lat":43.296284,"lon":5.377877,"is_reserved":false,"is_disabled":true,"rental_uris":{"android":"levelo://app?vid=fc4d15f5-6256-45a3-90d6-77bb4c676955","ios":"levelo://app?vid=fc4d15f5-6256-45a3-90d6-77bb4c676955"},"vehicle_type_id":"4","last_reported":1732824611,"current_range_meters":32400,"station_id":"","pricing_plan_id":"cebpf4jnsgd1na2vs0mg"},{"bike_id":"c88f8730-1176-4717-97e2-17c27b15274f","system_id":"levelo_inurba_marseille","lat":43.23195,"lon":5.35551,"is_reserved":false,"is_disabled":false,"rental_uris":{"android":"levelo://app?vid=c88f8730-1176-4717-97e2-17c27b15274f","ios":"levelo://app?vid=c88f8730-1176-4717-97e2-17c27b15274f"},"vehicle_type_id":"4","last_reported":1732824611,"current_range_meters":38800,"station_id":"ce4bhu92rcd13ifvqi70","pricing_plan_id":"cebpf4jnsgd1na2vs0mg"},{"bike_id":"a9e111f5-2597-4318-b5a6-43bcb08f5159","system_id":"levelo_inurba_marseille","lat":43.25735,"lon":5.41102,"is_reserved":false,"is_disabled":false,"rental_uris":{"android":"levelo://app?vid=a9e111f5-2597-4318-b5a6-43bcb08f5159","ios":"levelo://app?vid=a9e111f5-2597-4318-b5a6-43bcb08f5159"},"vehicle_type_id":"4","last_reported":1732824611,"current_range_meters":38000,"station_id":"ce4bhkp2rcd13ifvqgd0","pricing_plan_id":"cebpf4jnsgd1na2vs0mg"},{"bike_id":"9ad9a2ea-af18-46fe-8d9b-1a1b7a01afca","system_id":"levelo_inurba_marseille","lat":43.26063,"lon":5.39401,"is_reserved":false,"is_disabled":false,"rental_uris":{"android":"levelo://app?vid=9ad9a2ea-af18-46fe-8d9b-1a1b7a01afca","ios":"levelo://app?vid=9ad9a2ea-af18-46fe-8d9b-1a1b7a01afca"},"vehicle_type_id":"4","last_reported":1732824611,"current_range_meters":38400,"station_id":"","pricing_plan_id":"cebpf4jnsgd1na2vs0mg"},{"bike_id":"efa320ad-31c5-4bd2-92f1-dc8fa8912378","system_id":"levelo_inurba_marseille","lat":43.29053,"lon":5.37145,"is_reserved":false,"is_disabled":false,"rental_uris":{"android":"levelo://app?vid=efa320ad-31c5-4bd2-92f1-dc8fa8912378","ios":"levelo://app?vid=efa320ad-31c5-4bd2-92f1-dc8fa8912378"},"vehicle_type_id":"4","last_reported":1732824611,"current_range_meters":38800,"station_id":"ce4bh5p2rcd13ifvqe4g","pricing_plan_id":"cebpf4jnsgd1na2vs0mg"},{"bike_id":"e5c70063-2d89-420d-a625-a0a103282496","system_id":"levelo_inurba_marseille","lat":43.29064,"lon":5.37159,"is_reserved":false,"is_disabled":false,"rental_uris":{"android":"levelo://app?vid=e5c70063-2d89-420d-a625-a0a103282496","ios":"levelo://app?vid=e5c70063-2d89-420d-a625-a0a103282496"},"vehicle_type_id":"4","last_reported":1732824611,"current_range_meters":20800,"station_id":"ce4bh5p2rcd13ifvqe4g","pricing_plan_id":"cebpf4jnsgd1na2vs0mg"},{"bike_id":"b6ed1910-de57-401d-8b1d-af35755f9004","system_id":"levelo_inurba_marseille","lat":43.27954,"lon":5.41046,"is_reserved":false,"is_disabled":true,"rental_uris":{"android":"levelo://app?vid=b6ed1910-de57-401d-8b1d-af35755f9004","ios":"levelo://app?vid=b6ed1910-de57-401d-8b1d-af35755f9004"},"vehicle_type_id":"4","last_reported":1732824611,"current_range_meters":28800,"station_id":"ce4bhnp2rcd13ifvqh0g","pricing_plan_id":"cebpf4jnsgd1na2vs0mg"},{"bike_id":"c9171483-0096-497b-b392-5a397eb4315d","system_id":"levelo_inurba_marseille","lat":43.27998,"lon":5.40018,"is_reserved":false,"is_disabled":false,"rental_uris":{"android":"levelo://app?vid=c9171483-0096-497b-b392-5a397eb4315d","ios":"levelo://app?vid=c9171483-0096-497b-b392-5a397eb4315d"},"vehicle_type_id":"4","last_reported":1732824611,"current_range_meters":35600,"station_id":"ce4bho92rcd13ifvqh4g","pricing_plan_id":"cebpf4jnsgd1na2vs0mg"},{"bike_id":"b944efa8-8bfd-4cf3-9742-93239c780cac","system_id":"levelo_inurba_marseille","lat":43.29001,"lon":5.35609,"is_reserved":false,"is_disabled":true,"rental_uris":{"android":"levelo://app?vid=b944efa8-8bfd-4cf3-9742-93239c780cac","ios":"levelo://app?vid=b944efa8-8bfd-4cf3-9742-93239c780cac"},"vehicle_type_id":"4","last_reported":1732824611,"current_range_meters":30800,"station_id":"ce4bhb92rcd13ifvqen0","pricing_plan_id":"cebpf4jnsgd1na2vs0mg"},{"bike_id":"c0c814f8-5da5-485f-b863-3458dcd8a348","system_id":"levelo_inurba_marseille","lat":43.24548,"lon":5.39506,"is_reserved":false,"is_disabled":false,"rental_uris":{"android":"levelo://app?vid=c0c814f8-5da5-485f-b863-3458dcd8a348","ios":"levelo://app?vid=c0c814f8-5da5-485f-b863-3458dcd8a348"},"vehicle_type_id":"4","last_reported":1732824611,"current_range_meters":28000,"station_id":"ce4bhlp2rcd13ifvqgjg","pricing_plan_id":"cebpf4jnsgd1na2vs0mg"},{"bike_id":"81f5e709-c4bd-4272-93cd-1096ff77da56","system_id":"levelo_inurba_marseille","lat":43.30883,"lon":5.39656,"is_reserved":false,"is_disabled":false,"rental_uris":{"android":"levelo://app?vid=81f5e709-c4bd-4272-93cd-1096ff77da56","ios":"levelo://app?vid=81f5e709-c4bd-4272-93cd-1096ff77da56"},"vehicle_type_id":"4","last_reported":1732824611,"current_range_meters":15200,"station_id":"ce4bh012rcd13ifvqcv0","pricing_plan_id":"cebpf4jnsgd1na2vs0mg"},{"bike_id":"f2cc2f5b-dbc2-478c-942d-800ce76bb7a4","system_id":"levelo_inurba_marseille","lat":43.2953,"lon":5.39057,"is_reserved":false,"is_disabled":false,"rental_uris":{"android":"levelo://app?vid=f2cc2f5b-dbc2-478c-942d-800ce76bb7a4","ios":"levelo://app?vid=f2cc2f5b-dbc2-478c-942d-800ce76bb7a4"},"vehicle_type_id":"4","last_reported":1732824611,"current_range_meters":38400,"station_id":"ce4bh3p2rcd13ifvqdp0","pricing_plan_id":"cebpf4jnsgd1na2vs0mg"},{"bike_id":"53832248-7ea6-4cc6-856c-2b60c3f17998","system_id":"levelo_inurba_marseille","lat":43.2956,"lon":5.42298,"is_reserved":false,"is_disabled":true,"rental_uris":{"android":"levelo://app?vid=53832248-7ea6-4cc6-856c-2b60c3f17998","ios":"levelo://app?vid=53832248-7ea6-4cc6-856c-2b60c3f17998"},"vehicle_type_id":"4","last_reported":1732824611,"current_range_meters":39200,"station_id":"ce4bhph2rcd13ifvqhdg","pricing_plan_id":"cebpf4jnsgd1na2vs0mg"},{"bike_id":"ed4dfe3b-c342-4528-90f6-e552938f730a","system_id":"levelo_inurba_marseille","lat":43.23179,"lon":5.3999,"is_reserved":false,"is_disabled":false,"rental_uris":{"android":"levelo://app?vid=ed4dfe3b-c342-4528-90f6-e552938f730a","ios":"levelo://app?vid=ed4dfe3b-c342-4528-90f6-e552938f730a"},"vehicle_type_id":"4","last_reported":1732824611,"current_range_meters":22800,"station_id":"ce4bhn12rcd13ifvqgqg","pricing_plan_id":"cebpf4jnsgd1na2vs0mg"},{"bike_id":"05fca2da-e918-43e4-933f-3a458f9f1ebc","system_id":"levelo_inurba_marseille","lat":43.24175,"lon":5.39729,"is_reserved":false,"is_disabled":false,"rental_uris":{"android":"levelo://app?vid=05fca2da-e918-43e4-933f-3a458f9f1ebc","ios":"levelo://app?vid=05fca2da-e918-43e4-933f-3a458f9f1ebc"},"vehicle_type_id":"4","last_reported":1732824611,"current_range_meters":6400,"station_id":"ce4bhn12rcd13ifvqgpg","pricing_plan_id":"cebpf4jnsgd1na2vs0mg"},{"bike_id":"f41722ec-1c0a-4c4f-a5ec-b23b4f3eb7b8","system_id":"levelo_inurba_marseille","lat":43.29257,"lon":5.3685,"is_reserved":false,"is_disabled":false,"rental_uris":{"android":"levelo://app?vid=f41722ec-1c0a-4c4f-a5ec-b23b4f3eb7b8","ios":"levelo://app?vid=f41722ec-1c0a-4c4f-a5ec-b23b4f3eb7b8"},"vehicle_type_id":"4","last_reported":1732824611,"current_range_meters":15200,"station_id":"ce4bhbp2rcd13ifvqesg","pricing_plan_id":"cebpf4jnsgd1na2vs0mg"},{"bike_id":"d04754ec-7ab3-4c9a-b4e8-e42c62daaa5c","system_id":"levelo_inurba_marseille","lat":43.29197,"lon":5.39316,"is_reserved":false,"is_disabled":false,"rental_uris":{"android":"levelo://app?vid=d04754ec-7ab3-4c9a-b4e8-e42c62daaa5c","ios":"levelo://app?vid=d04754ec-7ab3-4c9a-b4e8-e42c62daaa5c"},"vehicle_type_id":"4","last_reported":1732824611,"current_range_meters":35600,"station_id":"ce4bh192rcd13ifvqdd0","pricing_plan_id":"cebpf4jnsgd1na2vs0mg"},{"bike_id":"0cc59f25-b2b1-4e3f-8467-49da6d5e030d","system_id":"levelo_inurba_marseille","lat":43.2869,"lon":5.37395,"is_reserved":false,"is_disabled":false,"rental_uris":{"android":"levelo://app?vid=0cc59f25-b2b1-4e3f-8467-49da6d5e030d","ios":"levelo://app?vid=0cc59f25-b2b1-4e3f-8467-49da6d5e030d"},"vehicle_type_id":"4","last_reported":1732824611,"current_range_meters":18000,"station_id":"ce4bh3p2rcd13ifvqdq0","pricing_plan_id":"cebpf4jnsgd1na2vs0mg"},{"bike_id":"17592b7a-100d-42ba-bd3e-4e7104b5cf4e","system_id":"levelo_inurba_marseille","lat":43.2856,"lon":5.39492,"is_reserved":false,"is_disabled":true,"rental_uris":{"android":"levelo://app?vid=17592b7a-100d-42ba-bd3e-4e7104b5cf4e","ios":"levelo://app?vid=17592b7a-100d-42ba-bd3e-4e7104b5cf4e"},"vehicle_type_id":"4","last_reported":1732824611,"current_range_meters":0,"station_id":"ce4bh292rcd13ifvqdg0","pricing_plan_id":"cebpf4jnsgd1na2vs0mg"},{"bike_id":"d7281c1c-4e11-43d3-9a5f-bd6f92531d14","system_id":"levelo_inurba_marseille","lat":43.29519,"lon":5.39429,"is_reserved":false,"is_disabled":true,"rental_uris":{"android":"levelo://app?vid=d7281c1c-4e11-43d3-9a5f-bd6f92531d14","ios":"levelo://app?vid=d7281c1c-4e11-43d3-9a5f-bd6f92531d14"},"vehicle_type_id":"4","last_reported":1732824611,"current_range_meters":36800,"station_id":"ce4bh292rcd13ifvqdf0","pricing_plan_id":"cebpf4jnsgd1na2vs0mg"},{"bike_id":"465839f2-6722-4ef8-8c92-f2263eb8bc82","system_id":"levelo_inurba_marseille","lat":43.32655,"lon":5.40982,"is_reserved":false,"is_disabled":true,"rental_uris":{"android":"levelo://app?vid=465839f2-6722-4ef8-8c92-f2263eb8bc82","ios":"levelo://app?vid=465839f2-6722-4ef8-8c92-f2263eb8bc82"},"vehicle_type_id":"4","last_reported":1732824611,"current_range_meters":0,"station_id":"ce4bhpp2rcd13ifvqhgg","pricing_plan_id":"cebpf4jnsgd1na2vs0mg"},{"bike_id":"5c5f2969-a58f-44b4-b927-346aa8bda72b","system_id":"levelo_inurba_marseille","lat":43.29792,"lon":5.38106,"is_reserved":false,"is_disabled":true,"rental_uris":{"android":"levelo://app?vid=5c5f2969-a58f-44b4-b927-346aa8bda72b","ios":"levelo://app?vid=5c5f2969-a58f-44b4-b927-346aa8bda72b"},"vehicle_type_id":"4","last_reported":1732824611,"current_range_meters":39200,"station_id":"ce4bgip2rcd13ifvqbb0","pricing_plan_id":"cebpf4jnsgd1na2vs0mg"},{"bike_id":"373b0ef2-2c12-4172-adc7-218fad8a345e","system_id":"levelo_inurba_marseille","lat":43.30324,"lon":5.40429,"is_reserved":false,"is_disabled":true,"rental_uris":{"android":"levelo://app?vid=373b0ef2-2c12-4172-adc7-218fad8a345e","ios":"levelo://app?vid=373b0ef2-2c12-4172-adc7-218fad8a345e"},"vehicle_type_id":"4","last_reported":1732824611,"current_range_meters":0,"station_id":"ce4bh012rcd13ifvqd10","pricing_plan_id":"cebpf4jnsgd1na2vs0mg"},{"bike_id":"3d6ce2b3-2ad9-4b8f-bc30-a8c510059350","system_id":"levelo_inurba_marseille","lat":43.31075,"lon":5.38348,"is_reserved":false,"is_disabled":false,"rental_uris":{"android":"levelo://app?vid=3d6ce2b3-2ad9-4b8f-bc30-a8c510059350","ios":"levelo://app?vid=3d6ce2b3-2ad9-4b8f-bc30-a8c510059350"},"vehicle_type_id":"4","last_reported":1732824611,"current_range_meters":34000,"station_id":"ce4bgv92rcd13ifvqcr0","pricing_plan_id":"cebpf4jnsgd1na2vs0mg"},{"bike_id":"cc75ff9f-0cc2-4b82-9ea9-7579f6b8f36d","system_id":"levelo_inurba_marseille","lat":43.27429,"lon":5.39411,"is_reserved":false,"is_disabled":false,"rental_uris":{"android":"levelo://app?vid=cc75ff9f-0cc2-4b82-9ea9-7579f6b8f36d","ios":"levelo://app?vid=cc75ff9f-0cc2-4b82-9ea9-7579f6b8f36d"},"vehicle_type_id":"4","last_reported":1732824611,"current_range_meters":38000,"station_id":"ce4bhdp2rcd13ifvqf20","pricing_plan_id":"cebpf4jnsgd1na2vs0mg"},{"bike_id":"fbb69a76-9f06-4ea3-954f-7f4b2f1d4bea","system_id":"levelo_inurba_marseille","lat":43.22923,"lon":5.35376,"is_reserved":false,"is_disabled":true,"rental_uris":{"android":"levelo://app?vid=fbb69a76-9f06-4ea3-954f-7f4b2f1d4bea","ios":"levelo://app?vid=fbb69a76-9f06-4ea3-954f-7f4b2f1d4bea"},