{"last_updated":1727003191,"ttl":30,"version":"2.2","data":{"bikes":[{"bike_id":"5094ca6b-00e4-40fc-80c2-06613525a158","system_id":"levelo_inurba_marseille","lat":43.29728,"lon":5.37695,"is_reserved":false,"is_disabled":false,"rental_uris":{"android":"levelo://app?vid=5094ca6b-00e4-40fc-80c2-06613525a158","ios":"levelo://app?vid=5094ca6b-00e4-40fc-80c2-06613525a158"},"vehicle_type_id":"4","last_reported":1727003191,"current_range_meters":38800,"station_id":"ce4bgkh2rcd13ifvqbl0","pricing_plan_id":"cebpf4jnsgd1na2vs0mg"},{"bike_id":"fd84f170-c075-4570-a556-c5e617e29406","system_id":"levelo_inurba_marseille","lat":43.2829,"lon":5.40894,"is_reserved":false,"is_disabled":false,"rental_uris":{"android":"levelo://app?vid=fd84f170-c075-4570-a556-c5e617e29406","ios":"levelo://app?vid=fd84f170-c075-4570-a556-c5e617e29406"},"vehicle_type_id":"4","last_reported":1727003191,"current_range_meters":18800,"station_id":"","pricing_plan_id":"cebpf4jnsgd1na2vs0mg"},{"bike_id":"a83317cf-35fe-4f1d-ada7-d6e73433d4c4","system_id":"levelo_inurba_marseille","lat":43.27916,"lon":5.3958,"is_reserved":false,"is_disabled":false,"rental_uris":{"android":"levelo://app?vid=a83317cf-35fe-4f1d-ada7-d6e73433d4c4","ios":"levelo://app?vid=a83317cf-35fe-4f1d-ada7-d6e73433d4c4"},"vehicle_type_id":"4","last_reported":1727003191,"current_range_meters":37600,"station_id":"ce4bhf92rcd13ifvqf40","pricing_plan_id":"cebpf4jnsgd1na2vs0mg"},{"bike_id":"09ef34b6-482f-4988-9331-10658115e1c1","system_id":"levelo_inurba_marseille","lat":43.31522,"lon":5.38045,"is_reserved":false,"is_disabled":false,"rental_uris":{"android":"levelo://app?vid=09ef34b6-482f-4988-9331-10658115e1c1","ios":"levelo://app?vid=09ef34b6-482f-4988-9331-10658115e1c1"},"vehicle_type_id":"4","last_reported":1727003191,"current_range_meters":18800,"station_id":"ce4bhsp2rcd13ifvqi50","pricing_plan_id":"cebpf4jnsgd1na2vs0mg"},{"bike_id":"0f4bd5ad-8a1a-4214-94a9-f7a00a32a067","system_id":"levelo_inurba_marseille","lat":43.32067,"lon":5.41578,"is_reserved":false,"is_disabled":false,"rental_uris":{"android":"levelo://app?vid=0f4bd5ad-8a1a-4214-94a9-f7a00a32a067","ios":"levelo://app?vid=0f4bd5ad-8a1a-4214-94a9-f7a00a32a067"},"vehicle_type_id":"4","last_reported":1727003191,"current_range_meters":28000,"station_id":"ce4bhq92rcd13ifvqhkg","pricing_plan_id":"cebpf4jnsgd1na2vs0mg"},{"bike_id":"0cdc4d3a-9145-40d0-86e1-7cd05c57e052","system_id":"levelo_inurba_marseille","lat":43.29361,"lon":5.3786,"is_reserved":false,"is_disabled":false,"rental_uris":{"android":"levelo://app?vid=0cdc4d3a-9145-40d0-86e1-7cd05c57e052","ios":"levelo://app?vid=0cdc4d3a-9145-40d0-86e1-7cd05c57e052"},"vehicle_type_id":"4","last_reported":1727003191,"current_range_meters":30000,"station_id":"ce4bgjh2rcd13ifvqbf0","pricing_plan_id":"cebpf4jnsgd1na2vs0mg"},{"bike_id":"1a1192ff-b389-47c4-b723-39b0b7112e72","system_id":"levelo_inurba_marseille","lat":43.273641,"lon":5.363064,"is_reserved":false,"is_disabled":false,"rental_uris":{"android":"levelo://app?vid=1a1192ff-b389-47c4-b723-39b0b7112e72","ios":"levelo://app?vid=1a1192ff-b389-47c4-b723-39b0b7112e72"},"vehicle_type_id":"4","last_reported":1727003191,"current_range_meters":37600,"station_id":"ce4bhbh2rcd13ifvqeo0","pricing_plan_id":"cebpf4jnsgd1na2vs0mg"},{"bike_id":"add3a9bb-89c0-4474-99ed-e918f5013f73","system_id":"levelo_inurba_marseille","lat":43.23967,"lon":5.36633,"is_reserved":false,"is_disabled":false,"rental_uris":{"android":"levelo://app?vid=add3a9bb-89c0-4474-99ed-e918f5013f73","ios":"levelo://app?vid=add3a9bb-89c0-4474-99ed-e918f5013f73"},"vehicle_type_id":"4","last_reported":1727003191,"current_range_meters":39200,"station_id":"ce4bhi12rcd13ifvqfp0","pricing_plan_id":"cebpf4jnsgd1na2vs0mg"},{"bike_id":"8888949b-eb95-4e71-beba-2f46c5b5a5d0","system_id":"levelo_inurba_marseille","lat":43.24807,"lon":5.37457,"is_reserved":false,"is_disabled":false,"rental_uris":{"android":"levelo://app?vid=8888949b-eb95-4e71-beba-2f46c5b5a5d0","ios":"levelo://app?vid=8888949b-eb95-4e71-beba-2f46c5b5a5d0"},"vehicle_type_id":"4","last_reported":1727003191,"current_range_meters":8400,"station_id":"ce4bhgh2rcd13ifvqfb0","pricing_plan_id":"cebpf4jnsgd1na2vs0mg"},{"bike_id":"89cdcc83-7aab-4c78-8e76-aa0ccb30eb08","system_id":"levelo_inurba_marseille","lat":43.31711,"lon":5.43705,"is_reserved":false,"is_disabled":false,"rental_uris":{"android":"levelo://app?vid=89cdcc83-7aab-4c78-8e76-aa0ccb30eb08","ios":"levelo://app?vid=89cdcc83-7aab-4c78-8e76-aa0ccb30eb08"},"vehicle_type_id":"4","last_reported":1727003191,"current_range_meters":20800,"station_id":"ce4bhp92rcd13ifvqhcg","pricing_plan_id":"cebpf4jnsgd1na2vs0mg"},{"bike_id":"f030d97b-c753-472f-b8ee-1c4ecb87f648","system_id":"levelo_inurba_marseille","lat":43.24178,"lon":5.39731,"is_reserved":false,"is_disabled":false,"rental_uris":{"android":"levelo://app?vid=f030d97b-c753-472f-b8ee-1c4ecb87f648","ios":"levelo://app?vid=f030d97b-c753-472f-b8ee-1c4ecb87f648"},"vehicle_type_id":"4","last_reported":1727003191,"current_range_meters":24800,"station_id":"ce4bhn12rcd13ifvqgpg","pricing_plan_id":"cebpf4jnsgd1na2vs0mg"},{"bike_id":"29d966b0-3c68-4450-a2c8-27c56923f249","system_id":"levelo_inurba_marseille","lat":43.292593,"lon":5.409092,"is_reserved":false,"is_disabled":false,"rental_uris":{"android":"levelo://app?vid=29d966b0-3c68-4450-a2c8-27c56923f249","ios":"levelo://app?vid=29d966b0-3c68-4450-a2c8-27c56923f249"},"vehicle_type_id":"4","last_reported":1727003191,"current_range_meters":29600,"station_id":"ce4bh192rcd13ifvqdc0","pricing_plan_id":"cebpf4jnsgd1na2vs0mg"},{"bike_id":"626bf1ff-5e56-4d5a-81fc-be2b0910f394","system_id":"levelo_inurba_marseille","lat":43.310668,"lon":5.383395,"is_reserved":false,"is_disabled":false,"rental_uris":{"android":"levelo://app?vid=626bf1ff-5e56-4d5a-81fc-be2b0910f394","ios":"levelo://app?vid=626bf1ff-5e56-4d5a-81fc-be2b0910f394"},"vehicle_type_id":"4","last_reported":1727003191,"current_range_meters":36800,"station_id":"ce4bgv92rcd13ifvqcr0","pricing_plan_id":"cebpf4jnsgd1na2vs0mg"},{"bike_id":"59f959f8-7e58-40fa-aed6-82886c40ddd5","system_id":"levelo_inurba_marseille","lat":43.260604,"lon":5.39397,"is_reserved":false,"is_disabled":false,"rental_uris":{"android":"levelo://app?vid=59f959f8-7e58-40fa-aed6-82886c40ddd5","ios":"levelo://app?vid=59f959f8-7e58-40fa-aed6-82886c40ddd5"},"vehicle_type_id":"4","last_reported":1727003191,"current_range_meters":36000,"station_id":"ce4bhh92rcd13ifvqfj0","pricing_plan_id":"cebpf4jnsgd1na2vs0mg"},{"bike_id":"e9adc27d-8b0c-4f8d-b9d7-b9b14651aad4","system_id":"levelo_inurba_marseille","lat":43.30463,"lon":5.3791,"is_reserved":false,"is_disabled":false,"rental_uris":{"android":"levelo://app?vid=e9adc27d-8b0c-4f8d-b9d7-b9b14651aad4","ios":"levelo://app?vid=e9adc27d-8b0c-4f8d-b9d7-b9b14651aad4"},"vehicle_type_id":"4","last_reported":1727003191,"current_range_meters":38800,"station_id":"ce4bgup2rcd13ifvqcn0","pricing_plan_id":"cebpf4jnsgd1na2vs0mg"},{"bike_id":"1e340067-ae93-44c3-92ea-5b2ebe67f335","system_id":"levelo_inurba_marseille","lat":43.28356,"lon":5.38107,"is_reserved":false,"is_disabled":false,"rental_uris":{"android":"levelo://app?vid=1e340067-ae93-44c3-92ea-5b2ebe67f335","ios":"levelo://app?vid=1e340067-ae93-44c3-92ea-5b2ebe67f335"},"vehicle_type_id":"4","last_reported":1727003191,"current_range_meters":12000,"station_id":"ce4bh412rcd13ifvqdr0","pricing_plan_id":"cebpf4jnsgd1na2vs0mg"},{"bike_id":"13eaae16-f893-46f5-91df-144ad2d594fb","system_id":"levelo_inurba_marseille","lat":43.313782,"lon":5.384765,"is_reserved":false,"is_disabled":false,"rental_uris":{"android":"levelo://app?vid=13eaae16-f893-46f5-91df-144ad2d594fb","ios":"levelo://app?vid=13eaae16-f893-46f5-91df-144ad2d594fb"},"vehicle_type_id":"4","last_reported":1727003191,"current_range_meters":28400,"station_id":"ce4bgt92rcd13ifvqcf0","pricing_plan_id":"cebpf4jnsgd1na2vs0mg"},{"bike_id":"b9043ee7-1b51-4205-a7f8-061a93eb7c50","system_id":"levelo_inurba_marseille","lat":43.31892,"lon":5.4073,"is_reserved":false,"is_disabled":false,"rental_uris":{"android":"levelo://app?vid=b9043ee7-1b51-4205-a7f8-061a93eb7c50","ios":"levelo://app?vid=b9043ee7-1b51-4205-a7f8-061a93eb7c50"},"vehicle_type_id":"4","last_reported":1727003191,"current_range_meters":39200,"station_id":"ce4bhq12rcd13ifvqhig","pricing_plan_id":"cebpf4jnsgd1na2vs0mg"},{"bike_id":"20a042f1-81aa-4cde-8548-4f002e395336","system_id":"levelo_inurba_marseille","lat":43.30191,"lon":5.39834,"is_reserved":false,"is_disabled":false,"rental_uris":{"android":"levelo://app?vid=20a042f1-81aa-4cde-8548-4f002e395336","ios":"levelo://app?vid=20a042f1-81aa-4cde-8548-4f002e395336"},"vehicle_type_id":"4","last_reported":1727003191,"current_range_meters":37600,"station_id":"ce4bgvp2rcd13ifvqct0","pricing_plan_id":"cebpf4jnsgd1na2vs0mg"},{"bike_id":"3f3a1968-161c-4281-9dac-b1f6f3f79cd0","system_id":"levelo_inurba_marseille","lat":43.27492,"lon":5.42456,"is_reserved":false,"is_disabled":false,"rental_uris":{"android":"levelo://app?vid=3f3a1968-161c-4281-9dac-b1f6f3f79cd0","ios":"levelo://app?vid=3f3a1968-161c-4281-9dac-b1f6f3f79cd0"},"vehicle_type_id":"4","last_reported":1727003191,"current_range_meters":16800,"station_id":"ce4bhn92rcd13ifvqgrg","pricing_plan_id":"cebpf4jnsgd1na2vs0mg"},{"bike_id":"a4ae4f79-4648-4b4c-bac6-c78ecf3d57bc","system_id":"levelo_inurba_marseille","lat":43.31083,"lon":5.42429,"is_reserved":false,"is_disabled":false,"rental_uris":{"android":"levelo://app?vid=a4ae4f79-4648-4b4c-bac6-c78ecf3d57bc","ios":"levelo://app?vid=a4ae4f79-4648-4b4c-bac6-c78ecf3d57bc"},"vehicle_type_id":"4","last_reported":1727003191,"current_range_meters":10000,"station_id":"ce4bhp92rcd13ifvqhag","pricing_plan_id":"cebpf4jnsgd1na2vs0mg"},{"bike_id":"c75fe3d3-e6c8-4a25-95e1-f837f95917ff","system_id":"levelo_inurba_marseille","lat":43.25826,"lon":5.39444,"is_reserved":false,"is_disabled":false,"rental_uris":{"android":"levelo://app?vid=c75fe3d3-e6c8-4a25-95e1-f837f95917ff","ios":"levelo://app?vid=c75fe3d3-e6c8-4a25-95e1-f837f95917ff"},"vehicle_type_id":"4","last_reported":1727003191,"current_range_meters":36400,"station_id":"ce4bhip2rcd13ifvqft0","pricing_plan_id":"cebpf4jnsgd1na2vs0mg"},{"bike_id":"bcaf4ae7-8ff5-4c65-a290-9f17b5e0bae2","system_id":"levelo_inurba_marseille","lat":43.29261,"lon":5.40904,"is_reserved":false,"is_disabled":false,"rental_uris":{"android":"levelo://app?vid=bcaf4ae7-8ff5-4c65-a290-9f17b5e0bae2","ios":"levelo://app?vid=bcaf4ae7-8ff5-4c65-a290-9f17b5e0bae2"},"vehicle_type_id":"4","last_reported":1727003191,"current_range_meters":36400,"station_id":"ce4bh192rcd13ifvqdc0","pricing_plan_id":"cebpf4jnsgd1na2vs0mg"},{"bike_id":"96247566-d518-4409-a232-ee6adf73b250","system_id":"levelo_inurba_marseille","lat":43.28612,"lon":5.35099,"is_reserved":false,"is_disabled":false,"rental_uris":{"android":"levelo://app?vid=96247566-d518-4409-a232-ee6adf73b250","ios":"levelo://app?vid=96247566-d518-4409-a232-ee6adf73b250"},"vehicle_type_id":"4","last_reported":1727003191,"current_range_meters":38800,"station_id":"ce4bhch2rcd13ifvqeug","pricing_plan_id":"cebpf4jnsgd1na2vs0mg"},{"bike_id":"ddef2735-203a-4460-8fe2-32d0d088e5d5","system_id":"levelo_inurba_marseille","lat":43.31231,"lon":5.37988,"is_reserved":false,"is_disabled":false,"rental_uris":{"android":"levelo://app?vid=ddef2735-203a-4460-8fe2-32d0d088e5d5","ios":"levelo://app?vid=ddef2735-203a-4460-8fe2-32d0d088e5d5"},"vehicle_type_id":"4","last_reported":1727003191,"current_range_meters":6400,"station_id":"","pricing_plan_id":"cebpf4jnsgd1na2vs0mg"},{"bike_id":"6827b231-1d6c-4880-9e24-d675a65cf584","system_id":"levelo_inurba_marseille","lat":43.32349,"lon":5.40623,"is_reserved":false,"is_disabled":false,"rental_uris":{"android":"levelo://app?vid=6827b231-1d6c-4880-9e24-d675a65cf584","ios":"levelo://app?vid=6827b231-1d6c-4880-9e24-d675a65cf584"},"vehicle_type_id":"4","last_reported":1727003191,"current_range_meters":8400,"station_id":"ce4bhq92rcd13ifvqhjg","pricing_plan_id":"cebpf4jnsgd1na2vs0mg"},{"bike_id":"80ef0bbe-2694-4d57-aa26-0ee82b5cdca4","system_id":"levelo_inurba_marseille","lat":43.32657,"lon":5.40992,"is_reserved":false,"is_disabled":false,"rental_uris":{"android":"levelo://app?vid=80ef0bbe-2694-4d57-aa26-0ee82b5cdca4","ios":"levelo://app?vid=80ef0bbe-2694-4d57-aa26-0ee82b5cdca4"},"vehicle_type_id":"4","last_reported":1727003191,"current_range_meters":39200,"station_id":"ce4bhpp2rcd13ifvqhgg","pricing_plan_id":"cebpf4jnsgd1na2vs0mg"},{"bike_id":"2cb082a5-5b0b-47dd-9235-67acda73bc23","system_id":"levelo_inurba_marseille","lat":43.31351,"lon":5.3671,"is_reserved":false,"is_disabled":false,"rental_uris":{"android":"levelo://app?vid=2cb082a5-5b0b-47dd-9235-67acda73bc23","ios":"levelo://app?vid=2cb082a5-5b0b-47dd-9235-67acda73bc23"},"vehicle_type_id":"4","last_reported":1727003191,"current_range_meters":30800,"station_id":"ce4bgr92rcd13ifvqc6g","pricing_plan_id":"cebpf4jnsgd1na2vs0mg"},{"bike_id":"164ccd64-a046-49d7-96c9-80ba8d31801e","system_id":"levelo_inurba_marseille","lat":43.23967,"lon":5.36633,"is_reserved":false,"is_disabled":false,"rental_uris":{"android":"levelo://app?vid=164ccd64-a046-49d7-96c9-80ba8d31801e","ios":"levelo://app?vid=164ccd64-a046-49d7-96c9-80ba8d31801e"},"vehicle_type_id":"4","last_reported":1727003191,"current_range_meters":24800,"station_id":"ce4bhi12rcd13ifvqfp0","pricing_plan_id":"cebpf4jnsgd1na2vs0mg"},{"bike_id":"d05d1d57-bf71-47e3-a273-ec32bcd88457","system_id":"levelo_inurba_marseille","lat":43.29068,"lon":5.37157,"is_reserved":false,"is_disabled":false,"rental_uris":{"android":"levelo://app?vid=d05d1d57-bf71-47e3-a273-ec32bcd88457","ios":"levelo://app?vid=d05d1d57-bf71-47e3-a273-ec32bcd88457"},"vehicle_type_id":"4","last_reported":1727003191,"current_range_meters":36800,"station_id":"ce4bh5p2rcd13ifvqe4g","pricing_plan_id":"cebpf4jnsgd1na2vs0mg"},{"bike_id":"6419325f-76c1-4392-9dbc-8446db0b27c5","system_id":"levelo_inurba_marseille","lat":43.30273,"lon":5.38382,"is_reserved":false,"is_disabled":false,"rental_uris":{"android":"levelo://app?vid=6419325f-76c1-4392-9dbc-8446db0b27c5","ios":"levelo://app?vid=6419325f-76c1-4392-9dbc-8446db0b27c5"},"vehicle_type_id":"4","last_reported":1727003191,"current_range_meters":16400,"station_id":"","pricing_plan_id":"cebpf4jnsgd1na2vs0mg"},{"bike_id":"bda83ca7-9798-4a91-9454-79010960b865","system_id":"levelo_inurba_marseille","lat":43.25718,"lon":5.41116,"is_reserved":false,"is_disabled":false,"rental_uris":{"android":"levelo://app?vid=bda83ca7-9798-4a91-9454-79010960b865","ios":"levelo://app?vid=bda83ca7-9798-4a91-9454-79010960b865"},"vehicle_type_id":"4","last_reported":1727003191,"current_range_meters":30800,"station_id":"ce4bhkp2rcd13ifvqgd0","pricing_plan_id":"cebpf4jnsgd1na2vs0mg"},{"bike_id":"2abfd0da-52ff-49fd-a5cb-a8f4dd818089","system_id":"levelo_inurba_marseille","lat":43.28151,"lon":5.42641,"is_reserved":false,"is_disabled":false,"rental_uris":{"android":"levelo://app?vid=2abfd0da-52ff-49fd-a5cb-a8f4dd818089","ios":"levelo://app?vid=2abfd0da-52ff-49fd-a5cb-a8f4dd818089"},"vehicle_type_id":"4","last_reported":1727003191,"current_range_meters":36800,"station_id":"ce4bhnh2rcd13ifvqgug","pricing_plan_id":"cebpf4jnsgd1na2vs0mg"},{"bike_id":"edfb1ff5-b81b-4225-8da9-100a9115b1e3","system_id":"levelo_inurba_marseille","lat":43.29735,"lon":5.36561,"is_reserved":false,"is_disabled":false,"rental_uris":{"android":"levelo://app?vid=edfb1ff5-b81b-4225-8da9-100a9115b1e3","ios":"levelo://app?vid=edfb1ff5-b81b-4225-8da9-100a9115b1e3"},"vehicle_type_id":"4","last_reported":1727003191,"current_range_meters":4000,"station_id":"","pricing_plan_id":"cebpf4jnsgd1na2vs0mg"},{"bike_id":"b57c2470-faa1-4f08-9d39-24d9dc117d7e","system_id":"levelo_inurba_marseille","lat":43.23064,"lon":5.35491,"is_reserved":false,"is_disabled":false,"rental_uris":{"android":"levelo://app?vid=b57c2470-faa1-4f08-9d39-24d9dc117d7e","ios":"levelo://app?vid=b57c2470-faa1-4f08-9d39-24d9dc117d7e"},"vehicle_type_id":"4","last_reported":1727003191,"current_range_meters":26800,"station_id":"cpo3342slgdg3j2ifvpg","pricing_plan_id":"cebpf4jnsgd1na2vs0mg"},{"bike_id":"c914526b-bc34-4a4c-8d27-ef89019aa801","system_id":"levelo_inurba_marseille","lat":43.29562,"lon":5.42298,"is_reserved":false,"is_disabled":false,"rental_uris":{"android":"levelo://app?vid=c914526b-bc34-4a4c-8d27-ef89019aa801","ios":"levelo://app?vid=c914526b-bc34-4a4c-8d27-ef89019aa801"},"vehicle_type_id":"4","last_reported":1727003191,"current_range_meters":16400,"station_id":"ce4bhph2rcd13ifvqhdg","pricing_plan_id":"cebpf4jnsgd1na2vs0mg"},{"bike_id":"193e020b-81a8-4c54-bc14-c8f099eeee2c","system_id":"levelo_inurba_marseille","lat":43.3089,"lon":5.39646,"is_reserved":false,"is_disabled":false,"rental_uris":{"android":"levelo://app?vid=193e020b-81a8-4c54-bc14-c8f099eeee2c","ios":"levelo://app?vid=193e020b-81a8-4c54-bc14-c8f099eeee2c"},"vehicle_type_id":"4","last_reported":1727003191,"current_range_meters":20400,"station_id":"ce4bh012rcd13ifvqcv0","pricing_plan_id":"cebpf4jnsgd1na2vs0mg"},{"bike_id":"5f3f5e80-8fe3-4a99-8743-2777e4824e27","system_id":"levelo_inurba_marseille","lat":43.26217,"lon":5.37444,"is_reserved":false,"is_disabled":false,"rental_uris":{"android":"levelo://app?vid=5f3f5e80-8fe3-4a99-8743-2777e4824e27","ios":"levelo://app?vid=5f3f5e80-8fe3-4a99-8743-2777e4824e27"},"vehicle_type_id":"4","last_reported":1727003191,"current_range_meters":30000,"station_id":"ce4bhgp2rcd13ifvqfc0","pricing_plan_id":"cebpf4jnsgd1na2vs0mg"},{"bike_id":"659a1cf3-94fe-4b3a-b8ae-406f3f0446d9","system_id":"levelo_inurba_marseille","lat":43.23171,"lon":5.39989,"is_reserved":false,"is_disabled":false,"rental_uris":{"android":"levelo://app?vid=659a1cf3-94fe-4b3a-b8ae-406f3f0446d9","ios":"levelo://app?vid=659a1cf3-94fe-4b3a-b8ae-406f3f0446d9"},"vehicle_type_id":"4","last_reported":1727003191,"current_range_meters":9600,"station_id":"ce4bhn12rcd13ifvqgqg","pricing_plan_id":"cebpf4jnsgd1na2vs0mg"},{"bike_id":"26bddfec-0748-47a2-9395-97b7afaf6400","system_id":"levelo_inurba_marseille","lat":43.25867,"lon":5.39899,"is_reserved":false,"is_disabled":false,"rental_uris":{"android":"levelo://app?vid=26bddfec-0748-47a2-9395-97b7afaf6400","ios":"levelo://app?vid=26bddfec-0748-47a2-9395-97b7afaf6400"},"vehicle_type_id":"4","last_reported":1727003191,"current_range_meters":8800,"station_id":"ce4bhl92rcd13ifvqghg","pricing_plan_id":"cebpf4jnsgd1na2vs0mg"},{"bike_id":"f48cb74c-99ba-4ea5-b1b0-04211ed33987","system_id":"levelo_inurba_marseille","lat":43.282593,"lon":5.350739,"is_reserved":false,"is_disabled":false,"rental_uris":{"android":"levelo://app?vid=f48cb74c-99ba-4ea5-b1b0-04211ed33987","ios":"levelo://app?vid=f48cb74c-99ba-4ea5-b1b0-04211ed33987"},"vehicle_type_id":"4","last_reported":1727003191,"current_range_meters":39200,"station_id":"ce4bgr92rcd13ifvqc7g","pricing_plan_id":"cebpf4jnsgd1na2vs0mg"},{"bike_id":"03bad859-4358-4bb4-9b18-007f8463f1b5","system_id":"levelo_inurba_marseille","lat":43.23186,"lon":5.39984,"is_reserved":false,"is_disabled":false,"rental_uris":{"android":"levelo://app?vid=03bad859-4358-4bb4-9b18-007f8463f1b5","ios":"levelo://app?vid=03bad859-4358-4bb4-9b18-007f8463f1b5"},"vehicle_type_id":"4","last_reported":1727003191,"current_range_meters":38800,"station_id":"ce4bhn12rcd13ifvqgqg","pricing_plan_id":"cebpf4jnsgd1na2vs0mg"},{"bike_id":"b5b77395-b71b-4f99-9726-f013316499ce","system_id":"levelo_inurba_marseille","lat":43.24183,"lon":5.39727,"is_reserved":false,"is_disabled":false,"rental_uris":{"android":"levelo://app?vid=b5b77395-b71b-4f99-9726-f013316499ce","ios":"levelo://app?vid=b5b77395-b71b-4f99-9726-f013316499ce"},"vehicle_type_id":"4","last_reported":1727003191,"current_range_meters":7200,"station_id":"ce4bhn12rcd13ifvqgpg","pricing_plan_id":"cebpf4jnsgd1na2vs0mg"},{"bike_id":"ea219450-0551-484e-bdfc-3c198bec9523","system_id":"levelo_inurba_marseille","lat":43.25866,"lon":5.39901,"is_reserved":false,"is_disabled":false,"rental_uris":{"android":"levelo://app?vid=ea219450-0551-484e-bdfc-3c198bec9523","ios":"levelo://app?vid=ea219450-0551-484e-bdfc-3c198bec9523"},"vehicle_type_id":"4","last_reported":1727003191,"current_range_meters":21600,"station_id":"ce4bhl92rcd13ifvqghg","pricing_plan_id":"cebpf4jnsgd1na2vs0mg"},{"bike_id":"850b08d8-ed42-4ad0-b0d6-020b1b8ae309","system_id":"levelo_inurba_marseille","lat":43.29552,"lon":5.4228,"is_reserved":false,"is_disabled":false,"rental_uris":{"android":"levelo://app?vid=850b08d8-ed42-4ad0-b0d6-020b1b8ae309","ios":"levelo://app?vid=850b08d8-ed42-4ad0-b0d6-020b1b8ae309"},"vehicle_type_id":"4","last_reported":1727003191,"current_range_meters":12800,"station_id":"ce4bhph2rcd13ifvqhdg","pricing_plan_id":"cebpf4jnsgd1na2vs0mg"},{"bike_id":"1e6bc726-39ad-4f50-aba9-4039cbb2613e","system_id":"levelo_inurba_marseille","lat":43.296173,"lon":5.3771,"is_reserved":false,"is_disabled":false,"rental_uris":{"android":"levelo://app?vid=1e6bc726-39ad-4f50-aba9-4039cbb2613e","ios":"levelo://app?vid=1e6bc726-39ad-4f50-aba9-4039cbb2613e"},"vehicle_type_id":"4","last_reported":1727003191,"current_range_meters":38800,"station_id":"ce4bgi92rcd13ifvqb90","pricing_plan_id":"cebpf4jnsgd1na2vs0mg"},{"bike_id":"b165032d-83b3-4326-97ba-be63beca1d48","system_id":"levelo_inurba_marseille","lat":43.2811,"lon":5.37844,"is_reserved":false,"is_disabled":false,"rental_uris":{"android":"levelo://app?vid=b165032d-83b3-4326-97ba-be63beca1d48","ios":"levelo://app?vid=b165032d-83b3-4326-97ba-be63beca1d48"},"vehicle_type_id":"4","last_reported":1727003191,"current_range_meters":6000,"station_id":"ce4bha12rcd13ifvqee0","pricing_plan_id":"cebpf4jnsgd1na2vs0mg"},{"bike_id":"52aef34a-7e0f-4371-959e-fec8ef50f51c","system_id":"levelo_inurba_marseille","lat":43.29625,"lon":5.37165,"is_reserved":false,"is_disabled":false,"rental_uris":{"android":"levelo://app?vid=52aef34a-7e0f-4371-959e-fec8ef50f51c","ios":"levelo://app?vid=52aef34a-7e0f-4371-959e-fec8ef50f51c"},"vehicle_type_id":"4","last_reported":1727003191,"current_range_meters":6800,"station_id":"ce4bgnh2rcd13ifvqc0g","pricing_plan_id":"cebpf4jnsgd1na2vs0mg"},{"bike_id":"54b7f973-33ed-4b77-bfc3-7847058bc7a6","system_id":"levelo_inurba_marseille","lat":43.31725,"lon":5.42406,"is_reserved":false,"is_disabled":false,"rental_uris":{"android":"levelo://app?vid=54b7f973-33ed-4b77-bfc3-7847058bc7a6","ios":"levelo://app?vid=54b7f973-33ed-4b77-bfc3-7847058bc7a6"},"vehicle_type_id":"4","last_reported":1727003191,"current_range_meters":40000,"station_id":"ce4bhp92rcd13ifvqhbg","pricing_plan_id":"cebpf4jnsgd1na2vs0mg"},{"bike_id":"f9a95eab-0223-4144-b856-f15596b1d518","system_id":"levelo_inurba_marseille","lat":43.23178,"lon":5.39989,"is_reserved":false,"is_disabled":false,"rental_uris":{"android":"levelo://app?vid=f9a95eab-0223-4144-b856-f15596b1d518","ios":"levelo://app?vid=f9a95eab-0223-4144-b856-f15596b1d518"},"vehicle_type_id":"4","last_reported":1727003191,"current_range_meters":4000,"station_id":"ce4bhn12rcd13ifvqgqg","pricing_plan_id":"cebpf4jnsgd1na2vs0mg"},{"bike_id":"bbc3fc05-f237-4e68-a4c0-34e49962295d","system_id":"levelo_inurba_marseille","lat":43.22924,"lon":5.35375,"is_reserved":false,"is_disabled":false,"rental_uris":{"android":"levelo://app?vid=bbc3fc05-f237-4e68-a4c0-34e49962295d","ios":"levelo://app?vid=bbc3fc05-f237-4e68-a4c0-34e49962295d"},"vehicle_type_id":"4","last_reported":1727003191,"current_range_meters":11200,"station_id":"cpo3532slgdg3j2ikp40","pricing_plan_id":"cebpf4jnsgd1na2vs0mg"},{"bike_id":"eeee92bd-6394-4d04-8487-072f4cc3e948","system_id":"levelo_inurba_marseille","lat":43.23959,"lon":5.36641,"is_reserved":false,"is_disabled":false,"rental_uris":{"android":"levelo://app?vid=eeee92bd-6394-4d04-8487-072f4cc3e948","ios":"levelo://app?vid=eeee92bd-6394-4d04-8487-072f4cc3e948"},"vehicle_type_id":"4","last_reported":1727003191,"current_range_meters":38800,"station_id":"ce4bhi12rcd13ifvqfp0","pricing_plan_id":"cebpf4jnsgd1na2vs0mg"},{"bike_id":"5419b1bf-d37c-4076-a34c-52ede101758e","system_id":"levelo_inurba_marseille","lat":43.337444,"lon":5.374475,"is_reserved":false,"is_disabled":false,"rental_uris":{"android":"levelo://app?vid=5419b1bf-d37c-4076-a34c-52ede101758e","ios":"levelo://app?vid=5419b1bf-d37c-4076-a34c-52ede101758e"},"vehicle_type_id":"4","last_reported":1727003191,"current_range_meters":28400,"station_id":"","pricing_plan_id":"cebpf4jnsgd1na2vs0mg"},{"bike_id":"013a1a54-8c71-4d7d-ad66-178705a1f09a","system_id":"levelo_inurba_marseille","lat":43.25865,"lon":5.39896,"is_reserved":false,"is_disabled":false,"rental_uris":{"android":"levelo://app?vid=013a1a54-8c71-4d7d-ad66-178705a1f09a","ios":"levelo://app?vid=013a1a54-8c71-4d7d-ad66-178705a1f09a"},"vehicle_type_id":"4","last_reported":1727003191,"current_range_meters":40000,"station_id":"ce4bhl92rcd13ifvqghg","pricing_plan_id":"cebpf4jnsgd1na2vs0mg"},{"bike_id":"b56840e7-0e20-401b-9e28-7a6f100068bb","system_id":"levelo_inurba_marseille","lat":43.26552,"lon":5.37289,"is_reserved":false,"is_disabled":false,"rental_uris":{"android":"levelo://app?vid=b56840e7-0e20-401b-9e28-7a6f100068bb","ios":"levelo://app?vid=b56840e7-0e20-401b-9e28-7a6f100068bb"},"vehicle_type_id":"4","last_reported":1727003191,"current_range_meters":18800,"station_id":"ce4bhg12rcd13ifvqf70","pricing_plan_id":"cebpf4jnsgd1na2vs0mg"},{"bike_id":"aaff5b52-9b1d-412f-b7ab-90af37bda423","system_id":"levelo_inurba_marseille","lat":43.26211,"lon":5.37438,"is_reserved":false,"is_disabled":false,"rental_uris":{"android":"levelo://app?vid=aaff5b52-9b1d-412f-b7ab-90af37bda423","ios":"levelo://app?vid=aaff5b52-9b1d-412f-b7ab-90af37bda423"},"vehicle_type_id":"4","last_reported":1727003191,"current_range_meters":35200,"station_id":"ce4bhgp2rcd13ifvqfc0","pricing_plan_id":"cebpf4jnsgd1na2vs0mg"},{"bike_id":"870a1f8b-9acd-4417-ad40-456726425e82","system_id":"levelo_inurba_marseille","lat":43.28148,"lon":5.42644,"is_reserved":false,"is_disabled":false,"rental_uris":{"android":"levelo://app?vid=870a1f8b-9acd-4417-ad40-456726425e82","ios":"levelo://app?vid=870a1f8b-9acd-4417-ad40-456726425e82"},"vehicle_type_id":"4","last_reported":1727003191,"current_range_meters":14400,"station_id":"ce4bhnh2rcd13ifvqgug","pricing_plan_id":"cebpf4jnsgd1na2vs0mg"},{"bike_id":"408b3d46-3a11-4b51-be77-1e7d8127455b","system_id":"levelo_inurba_marseille","lat":43.28568,"lon":5.39501,"is_reserved":false,"is_disabled":false,"rental_uris":{"android":"levelo://app?vid=408b3d46-3a11-4b51-be77-1e7d8127455b","ios":"levelo://app?vid=408b3d46-3a11-4b51-be77-1e7d8127455b"},"vehicle_type_id":"4","last_reported":1727003191,"current_range_meters":29600,"station_id":"ce4bh292rcd13ifvqdg0","pricing_plan_id":"cebpf4jnsgd1na2vs0mg"},{"bike_id":"5f970973-f4f4-4937-9fbe-7af0359838f0","system_id":"levelo_inurba_marseille","lat":43.3235,"lon":5.40623,"is_reserved":false,"is_disabled":false,"rental_uris":{"android":"levelo://app?vid=5f970973-f4f4-4937-9fbe-7af0359838f0","ios":"levelo://app?vid=5f970973-f4f4-4937-9fbe-7af0359838f0"},"vehicle_type_id":"4","last_reported":1727003191,"current_range_meters":26800,"station_id":"ce4bhq92rcd13ifvqhjg","pricing_plan_id":"cebpf4jnsgd1na2vs0mg"},{"bike_id":"a381d564-3ff5-4eb7-be58-2b40d7b40ba3","system_id":"levelo_inurba_marseille","lat":43.25829,"lon":5.39431,"is_reserved":false,"is_disabled":false,"rental_uris":{"android":"levelo://app?vid=a381d564-3ff5-4eb7-be58-2b40d7b40ba3","ios":"levelo://app?vid=a381d564-3ff5-4eb7-be58-2b40d7b40ba3"},"vehicle_type_id":"4","last_reported":1727003191,"current_range_meters":39200,"station_id":"ce4bhip2rcd13ifvqft0","pricing_plan_id":"cebpf4jnsgd1na2vs0mg"},{"bike_id":"f59f9f07-2020-454d-8f62-ca65292624a4","system_id":"levelo_inurba_marseille","lat":43.31321,"lon":5.397,"is_reserved":false,"is_disabled":false,"rental_uris":{"android":"levelo://app?vid=f59f9f07-2020-454d-8f62-ca65292624a4","ios":"levelo://app?vid=f59f9f07-2020-454d-8f62-ca65292624a4"},"vehicle_type_id":"4","last_reported":1727003191,"current_range_meters":36400,"station_id":"ce4bgvp2rcd13ifvqcu0","pricing_plan_id":"cebpf4jnsgd1na2vs0mg"},{"bike_id":"a8322dde-c4cd-4d57-952e-234e55c68ebf","system_id":"levelo_inurba_marseille","lat":43.25866,"lon":5.39908,"is_reserved":false,"is_disabled":false,"rental_uris":{"android":"levelo://app?vid=a8322dde-c4cd-4d57-952e-234e55c68ebf","ios":"levelo://app?vid=a8322dde-c4cd-4d57-952e-234e55c68ebf"},"vehicle_type_id":"4","last_reported":1727003191,"current_range_meters":38800,"station_id":"ce4bhl92rcd13ifvqghg","pricing_plan_id":"cebpf4jnsgd1na2vs0mg"},{"bike_id":"c4750ba1-adf0-4309-bd46-dcf0eb74a7b9","system_id":"levelo_inurba_marseille","lat":43.25824,"lon":5.39435,"is_reserved":false,"is_disabled":false,"rental_uris":{"android":"levelo://app?vid=c4750ba1-adf0-4309-bd46-dcf0eb74a7b9","ios":"levelo://app?vid=c4750ba1-adf0-4309-bd46-dcf0eb74a7b9"},"vehicle_type_id":"4","last_reported":1727003191,"current_range_meters":39200,"station_id":"ce4bhip2rcd13ifvqft0","pricing_plan_id":"cebpf4jnsgd1na2vs0mg"},{"bike_id":"930d3dad-b4fd-44a3-9305-073de55d61e9","system_id":"levelo_inurba_marseille","lat":43.295414,"lon":5.391827,"is_reserved":false,"is_disabled":false,"rental_uris":{"android":"levelo://app?vid=930d3dad-b4fd-44a3-9305-073de55d61e9","ios":"levelo://app?vid=930d3dad-b4fd-44a3-9305-073de55d61e9"},"vehicle_type_id":"4","last_reported":1727003191,"current_range_meters":32800,"station_id":"ce4bhgh2rcd13ifvqfb0","pricing_plan_id":"cebpf4jnsgd1na2vs0mg"},{"bike_id":"763a8251-6798-4ed0-aef6-3ce1f2e4eeac","system_id":"levelo_inurba_marseille","lat":43.28262,"lon":5.35066,"is_reserved":false,"is_disabled":false,"rental_uris":{"android":"levelo://app?vid=763a8251-6798-4ed0-aef6-3ce1f2e4eeac","ios":"levelo://app?vid=763a8251-6798-4ed0-aef6-3ce1f2e4eeac"},"vehicle_type_id":"4","last_reported":1727003191,"current_range_meters":11200,"station_id":"ce4bhbp2rcd13ifvqerg","pricing_plan_id":"cebpf4jnsgd1na2vs0mg"},{"bike_id":"422e3543-f4e4-40ba-bb8a-f4c5a38ac8ef","system_id":"levelo_inurba_marseille","lat":43.29554,"lon":5.42293,"is_reserved":false,"is_disabled":false,"rental_uris":{"android":"levelo://app?vid=422e3543-f4e4-40ba-bb8a-f4c5a38ac8ef","ios":"levelo://app?vid=422e3543-f4e4-40ba-bb8a-f4c5a38ac8ef"},"vehicle_type_id":"4","last_reported":1727003191,"current_range_meters":26000,"station_id":"ce4bhph2rcd13ifvqhdg","pricing_plan_id":"cebpf4jnsgd1na2vs0mg"},{"bike_id":"149779fc-bc45-458a-857f-33707eedaf6a","system_id":"levelo_inurba_marseille","lat":43.23189,"lon":5.35557,"is_reserved":false,"is_disabled":false,"rental_uris":{"android":"levelo://app?vid=149779fc-bc45-458a-857f-33707eedaf6a","ios":"levelo://app?vid=149779fc-bc45-458a-857f-33707eedaf6a"},"vehicle_type_id":"4","last_reported":1727003191,"current_range_meters":16000,"station_id":"ce4bhu92rcd13ifvqi70","pricing_plan_id":"cebpf4jnsgd1na2vs0mg"},{"bike_id":"340c2618-f7f7-48c4-87ad-f099071c41a9","system_id":"levelo_inurba_marseille","lat":43.28399,"lon":5.37518,"is_reserved":false,"is_disabled":false,"rental_uris":{"android":"levelo://app?vid=340c2618-f7f7-48c4-87ad-f099071c41a9","ios":"levelo://app?vid=340c2618-f7f7-48c4-87ad-f099071c41a9"},"vehicle_type_id":"4","last_reported":1727003191,"current_range_meters":7200,"station_id":"ce4bh412rcd13ifvqds0","pricing_plan_id":"cebpf4jnsgd1na2vs0mg"},{"bike_id":"b0a295e2-91ca-462b-8f65-18c2c9aaff81","system_id":"levelo_inurba_marseille","lat":43.282715,"lon":5.350634,"is_reserved":false,"is_disabled":false,"rental_uris":{"android":"levelo://app?vid=b0a295e2-91ca-462b-8f65-18c2c9aaff81","ios":"levelo://app?vid=b0a295e2-91ca-462b-8f65-18c2c9aaff81"},"vehicle_type_id":"4","last_reported":1727003191,"current_range_meters":28800,"station_id":"ce4bgr92rcd13ifvqc7g","pricing_plan_id":"cebpf4jnsgd1na2vs0mg"},{"bike_id":"22264bb0-564c-4287-973c-99856a7153f3","system_id":"levelo_inurba_marseille","lat":43.25863,"lon":5.39902,"is_reserved":false,"is_disabled":false,"rental_uris":{"android":"levelo://app?vid=22264bb0-564c-4287-973c-99856a7153f3","ios":"levelo://app?vid=22264bb0-564c-4287-973c-99856a7153f3"},"vehicle_type_id":"4","last_reported":1727003191,"current_range_meters":22000,"station_id":"ce4bhl92rcd13ifvqghg","pricing_plan_id":"cebpf4jnsgd1na2vs0mg"},{"bike_id":"9e3288e8-625f-460a-bb8a-757dd4d86b6b","system_id":"levelo_inurba_marseille","lat":43.29264,"lon":5.40903,"is_reserved":false,"is_disabled":false,"rental_uris":{"android":"levelo://app?vid=9e3288e8-625f-460a-bb8a-757dd4d86b6b","ios":"levelo://app?vid=9e3288e8-625f-460a-bb8a-757dd4d86b6b"},"vehicle_type_id":"4","last_reported":1727003191,"current_range_meters":28400,"station_id":"ce4bh192rcd13ifvqdc0","pricing_plan_id":"cebpf4jnsgd1na2vs0mg"},{"bike_id":"14fb6201-5c97-4adf-a603-6a92cef474fe","system_id":"levelo_inurba_marseille","lat":43.25002,"lon":5.38927,"is_reserved":false,"is_disabled":false,"rental_uris":{"android":"levelo://app?vid=14fb6201-5c97-4adf-a603-6a92cef474fe","ios":"levelo://app?vid=14fb6201-5c97-4adf-a603-6a92cef474fe"},"vehicle_type_id":"4","last_reported":1727003191,"current_range_meters":38000,"station_id":"ce4bhgp2rcd13ifvqfd0","pricing_plan_id":"cebpf4jnsgd1na2vs0mg"},{"bike_id":"7d903340-b844-4bfb-bb1e-f140d594d2c5","system_id":"levelo_inurba_marseille","lat":43.30359,"lon":5.41882,"is_reserved":false,"is_disabled":false,"rental_uris":{"android":"levelo://app?vid=7d903340-b844-4bfb-bb1e-f140d594d2c5","ios":"levelo://app?vid=7d903340-b844-4bfb-bb1e-f140d594d2c5"},"vehicle_type_id":"4","last_reported":1727003191,"current_range_meters":35200,"station_id":"ce4bhop2rcd13ifvqh7g","pricing_plan_id":"cebpf4jnsgd1na2vs0mg"},{"bike_id":"3029a821-4f09-426b-9136-c97c9c0dcd3a","system_id":"levelo_inurba_marseille","lat":43.26485,"lon":5.3954,"is_reserved":false,"is_disabled":false,"rental_uris":{"android":"levelo://app?vid=3029a821-4f09-426b-9136-c97c9c0dcd3a","ios":"levelo://app?vid=3029a821-4f09-426b-9136-c97c9c0dcd3a"},"vehicle_type_id":"4","last_reported":1727003191,"current_range_meters":38000,"station_id":"ce4bhi12rcd13ifvqfq0","pricing_plan_id":"cebpf4jnsgd1na2vs0mg"},{"bike_id":"61437227-be5e-4999-bb29-38fdb6c6fcc9","system_id":"levelo_inurba_marseille","lat":43.30457,"lon":5.37908,"is_reserved":false,"is_disabled":false,"rental_uris":{"android":"levelo://app?vid=61437227-be5e-4999-bb29-38fdb6c6fcc9","ios":"levelo://app?vid=61437227-be5e-4999-bb29-38fdb6c6fcc9"},"vehicle_type_id":"4","last_reported":1727003191,"current_range_meters":38800,"station_id":"ce4bgup2rcd13ifvqcn0","pricing_plan_id":"cebpf4jnsgd1na2vs0mg"},{"bike_id":"8aa9229f-7f52-4bd0-9408-b9dcc7a5187a","system_id":"levelo_inurba_marseille","lat":43.27069,"lon":5.42281,"is_reserved":false,"is_disabled":false,"rental_uris":{"android":"levelo://app?vid=8aa9229f-7f52-4bd0-9408-b9dcc7a5187a","ios":"levelo://app?vid=8aa9229f-7f52-4bd0-9408-b9dcc7a5187a"},"vehicle_type_id":"4","last_reported":1727003191,"current_range_meters":18800,"station_id":"ce4bhk92rcd13ifvqgb0","pricing_plan_id":"cebpf4jnsgd1na2vs0mg"},{"bike_id":"46121cc0-436d-4cf1-9853-45960b7d4d1b","system_id":"levelo_inurba_marseille","lat":43.23964,"lon":5.36636,"is_reserved":false,"is_disabled":false,"rental_uris":{"android":"levelo://app?vid=46121cc0-436d-4cf1-9853-45960b7d4d1b","ios":"levelo://app?vid=46121cc0-436d-4cf1-9853-45960b7d4d1b"},"vehicle_type_id":"4","last_reported":1727003191,"current_range_meters":36800,"station_id":"ce4bhi12rcd13ifvqfp0","pricing_plan_id":"cebpf4jnsgd1na2vs0mg"},{"bike_id":"5896447b-c132-429e-bf86-bd6b8c620778","system_id":"levelo_inurba_marseille","lat":43.30824,"lon":5.396521,"is_reserved":false,"is_disabled":false,"rental_uris":{"android":"levelo://app?vid=5896447b-c132-429e-bf86-bd6b8c620778","ios":"levelo://app?vid=5896447b-c132-429e-bf86-bd6b8c620778"},"vehicle_type_id":"4","last_reported":1727003191,"current_range_meters":36800,"station_id":"ce4bgj92rcd13ifvqbd0","pricing_plan_id":"cebpf4jnsgd1na2vs0mg"},{"bike_id":"226a0941-0c72-4b00-be32-622ea037304a","system_id":"levelo_inurba_marseille","lat":43.28614,"lon":5.351,"is_reserved":false,"is_disabled":false,"rental_uris":{"android":"levelo://app?vid=226a0941-0c72-4b00-be32-622ea037304a","ios":"levelo://app?vid=226a0941-0c72-4b00-be32-622ea037304a"},"vehicle_type_id":"4","last_reported":1727003191,"current_range_meters":38800,"station_id":"ce4bhch2rcd13ifvqeug","pricing_plan_id":"cebpf4jnsgd1na2vs0mg"},{"bike_id":"8da29b09-f28c-4dc0-810d-5aa3bc645342","system_id":"levelo_inurba_marseille","lat":43.25006,"lon":5.3893,"is_reserved":false,"is_disabled":false,"rental_uris":{"android":"levelo://app?vid=8da29b09-f28c-4dc0-810d-5aa3bc645342","ios":"levelo://app?vid=8da29b09-f28c-4dc0-810d-5aa3bc645342"},"vehicle_type_id":"4","last_reported":1727003191,"current_range_meters":2000,"station_id":"ce4bhgp2rcd13ifvqfd0","pricing_plan_id":"cebpf4jnsgd1na2vs0mg"},{"bike_id":"977ad24c-2005-446b-b21e-2e9257aa7686","system_id":"levelo_inurba_marseille","lat":43.29843,"lon":5.36277,"is_reserved":false,"is_disabled":false,"rental_uris":{"android":"levelo://app?vid=977ad24c-2005-446b-b21e-2e9257aa7686","ios":"levelo://app?vid=977ad24c-2005-446b-b21e-2e9257aa7686"},"vehicle_type_id":"4","last_reported":1727003191,"current_range_meters":34800,"station_id":"ce4bgpp2rcd13ifvqc3g","pricing_plan_id":"cebpf4jnsgd1na2vs0mg"},{"bike_id":"c750c22f-57e5-44e7-ab11-ab84ef9a0b5e","system_id":"levelo_inurba_marseille","lat":43.23177,"lon":5.4,"is_reserved":false,"is_disabled":false,"rental_uris":{"android":"levelo://app?vid=c750c22f-57e5-44e7-ab11-ab84ef9a0b5e","ios":"levelo://app?vid=c750c22f-57e5-44e7-ab11-ab84ef9a0b5e"},"vehicle_type_id":"4","last_reported":1727003191,"current_range_meters":13600,"station_id":"ce4bhn12rcd13ifvqgqg","pricing_plan_id":"cebpf4jnsgd1na2vs0mg"},{"bike_id":"d4cd02a2-8196-45a0-ade7-083f2b1cddee","system_id":"levelo_inurba_marseille","lat":43.24175,"lon":5.39715,"is_reserved":false,"is_disabled":false,"rental_uris":{"android":"levelo://app?vid=d4cd02a2-8196-45a0-ade7-083f2b1cddee","ios":"levelo://app?vid=d4cd02a2-8196-45a0-ade7-083f2b1cddee"},"vehicle_type_id":"4","last_reported":1727003191,"current_range_meters":38400,"station_id":"ce4bhn12rcd13ifvqgpg","pricing_plan_id":"cebpf4jnsgd1na2vs0mg"},{"bike_id":"a8d42cf3-65fd-4e73-93d7-47142c435399","system_id":"levelo_inurba_marseille","lat":43.34398,"lon":5.40851,"is_reserved":false,"is_disabled":false,"rental_uris":{"android":"levelo://app?vid=a8d42cf3-65fd-4e73-93d7-47142c435399","ios":"levelo://app?vid=a8d42cf3-65fd-4e73-93d7-47142c435399"},"vehicle_type_id":"4","last_reported":1727003191,"current_range_meters":22400,"station_id":"","pricing_plan_id":"cebpf4jnsgd1na2vs0mg"},{"bike_id":"affeab95-004c-4559-a39d-9d9c7e294ed6","system_id":"levelo_inurba_marseille","lat":43.24179,"lon":5.39735,"is_reserved":false,"is_disabled":false,"rental_uris":{"android":"levelo://app?vid=affeab95-004c-4559-a39d-9d9c7e294ed6","ios":"levelo://app?vid=affeab95-004c-4559-a39d-9d9c7e294ed6"},"vehicle_type_id":"4","last_reported":1727003191,"current_range_meters":40000,"station_id":"ce4bhn12rcd13ifvqgpg","pricing_plan_id":"cebpf4jnsgd1na2vs0mg"},{"bike_id":"6a23f07d-8994-434c-9d56-5abb8ead60ec","system_id":"levelo_inurba_marseille","lat":43.299652,"lon":5.385123,"is_reserved":false,"is_disabled":false,"rental_uris":{"android":"levelo://app?vid=6a23f07d-8994-434c-9d56-5abb8ead60ec","ios":"levelo://app?vid=6a23f07d-8994-434c-9d56-5abb8ead60ec"},"vehicle_type_id":"4","last_reported":1727003191,"current_range_meters":10000,"station_id":"ce4bgj92rcd13ifvqbd0","pricing_plan_id":"cebpf4jnsgd1na2vs0mg"},{"bike_id":"5fb9931f-4b67-472c-84ca-869c90c9ca71","system_id":"levelo_inurba_marseille","lat":43.28277,"lon":5.35071,"is_reserved":false,"is_disabled":false,"rental_uris":{"android":"levelo://app?vid=5fb9931f-4b67-472c-84ca-869c90c9ca71","ios":"levelo://app?vid=5fb9931f-4b67-472c-84ca-869c90c9ca71"},"vehicle_type_id":"4","last_reported":1727003191,"current_range_meters":24000,"station_id":"ce4bhbp2rcd13ifvqerg","pricing_plan_id":"cebpf4jnsgd1na2vs0mg"},{"bike_id":"488eab58-702a-49ef-b05e-83a9813536ca","system_id":"levelo_inurba_marseille","lat":43.28149,"lon":5.4265,"is_reserved":false,"is_disabled":false,"rental_uris":{"android":"levelo://app?vid=488eab58-702a-49ef-b05e-83a9813536ca","ios":"levelo://app?vid=488eab58-702a-49ef-b05e-83a9813536ca"},"vehicle_type_id":"4","last_reported":1727003191,"current_range_meters":36000,"station_id":"ce4bhnh2rcd13ifvqgug","pricing_plan_id":"cebpf4jnsgd1na2vs0mg"},{"bike_id":"eb0e566e-7d71-4cc0-bc76-de33a9fd73a8","system_id":"levelo_inurba_marseille","lat":43.2319,"lon":5.35546,"is_reserved":false,"is_disabled":false,"rental_uris":{"android":"levelo://app?vid=eb0e566e-7d71-4cc0-bc76-de33a9fd73a8","ios":"levelo://app?vid=eb0e566e-7d71-4cc0-bc76-de33a9fd73a8"},"vehicle_type_id":"4","last_reported":1727003191,"current_range_meters":38000,"station_id":"ce4bhu92rcd13ifvqi70","pricing_plan_id":"cebpf4jnsgd1na2vs0mg"},{"bike_id":"7f1d4caf-fa09-496f-9db6-140aee4b481e","system_id":"levelo_inurba_marseille","lat":43.28612,"lon":5.35101,"is_reserved":false,"is_disabled":false,"rental_uris":{"android":"levelo://app?vid=7f1d4caf-fa09-496f-9db6-140aee4b481e","ios":"levelo://app?vid=7f1d4caf-fa09-496f-9db6-140aee4b481e"},"vehicle_type_id":"4","last_reported":1727003191,"current_range_meters":25200,"station_id":"ce4bhch2rcd13ifvqeug","pricing_plan_id":"cebpf4jnsgd1na2vs0mg"},{"bike_id":"076adc52-fb4e-4fcf-a48b-6bf861d308c4","system_id":"levelo_inurba_marseille","lat":43.29795,"lon":5.3811,"is_reserved":false,"is_disabled":false,"rental_uris":{"android":"levelo://app?vid=076adc52-fb4e-4fcf-a48b-6bf861d308c4","ios":"levelo://app?vid=076adc52-fb4e-4fcf-a48b-6bf861d308c4"},"vehicle_type_id":"4","last_reported":1727003191,"current_range_meters":32400,"station_id":"ce4bgip2rcd13ifvqbb0","pricing_plan_id":"cebpf4jnsgd1na2vs0mg"},{"bike_id":"04999a37-2436-4404-8c16-cd85cf9b7a10","system_id":"levelo_inurba_marseille","lat":43.33021,"lon":5.39043,"is_reserved":false,"is_disabled":false,"rental_uris":{"android":"levelo://app?vid=04999a37-2436-4404-8c16-cd85cf9b7a10","ios":"levelo://app?vid=04999a37-2436-4404-8c16-cd85cf9b7a10"},"vehicle_type_id":"4","last_reported":1727003191,"current_range_meters":38000,"station_id":"ce4bhr92rcd13ifvqhrg","pricing_plan_id":"cebpf4jnsgd1na2vs0mg"},{"bike_id":"b1680aab-73d0-4297-8d3b-1a71eb66dfc0","system_id":"levelo_inurba_marseille","lat":43.29372,"lon":5.37845,"is_reserved":false,"is_disabled":false,"rental_uris":{"android":"levelo://app?vid=b1680aab-73d0-4297-8d3b-1a71eb66dfc0","ios":"levelo://app?vid=b1680aab-73d0-4297-8d3b-1a71eb66dfc0"},"vehicle_type_id":"4","last_reported":1727003191,"current_range_meters":16400,"station_id":"ce4bgjh2rcd13ifvqbf0","pricing_plan_id":"cebpf4jnsgd1na2vs0mg"},{"bike_id":"e0f6a2c2-e2cf-40f9-9358-5a665b76b86a","system_id":"levelo_inurba_marseille","lat":43.284225,"lon":5.349898,"is_reserved":false,"is_disabled":false,"rental_uris":{"android":"levelo://app?vid=e0f6a2c2-e2cf-40f9-9358-5a665b76b86a","ios":"levelo://app?vid=e0f6a2c2-e2cf-40f9-9358-5a665b76b86a"},"vehicle_type_id":"4","last_reported":1727003191,"current_range_meters":18800,"station_id":"ce4bhbh2rcd13ifvqepg","pricing_plan_id":"cebpf4jnsgd1na2vs0mg"},{"bike_id":"a7a2630d-54d4-495a-8506-d0472b9b9a1a","system_id":"levelo_inurba_marseille","lat":43.29573,"lon":5.4228,"is_reserved":false,"is_disabled":false,"rental_uris":{"android":"levelo://app?vid=a7a2630d-54d4-495a-8506-d0472b9b9a1a","ios":"levelo://app?vid=a7a2630d-54d4-495a-8506-d0472b9b9a1a"},"vehicle_type_id":"4","last_reported":1727003191,"current_range_meters":38800,"station_id":"ce4bhph2rcd13ifvqhdg","pricing_plan_id":"cebpf4jnsgd1na2vs0mg"},{"bike_id":"10a45a83-6a02-46f7-9db3-35edfba1d9bf","system_id":"levelo_inurba_marseille","lat":43.24389,"lon":5.37067,"is_reserved":false,"is_disabled":false,"rental_uris":{"android":"levelo://app?vid=10a45a83-6a02-46f7-9db3-35edfba1d9bf","ios":"levelo://app?vid=10a45a83-6a02-46f7-9db3-35edfba1d9bf"},"vehicle_type_id":"4","last_reported":1727003191,"current_range_meters":24400,"station_id":"ce4bhhh2rcd13ifvqfk0","pricing_plan_id":"cebpf4jnsgd1na2vs0mg"},{"bike_id":"c44bf4fa-fa56-4234-a30e-0c7ff3ed9be1","system_id":"levelo_inurba_marseille","lat":43.30884,"lon":5.39643,"is_reserved":false,"is_disabled":false,"rental_uris":{"android":"levelo://app?vid=c44bf4fa-fa56-4234-a30e-0c7ff3ed9be1","ios":"levelo://app?vid=c44bf4fa-fa56-4234-a30e-0c7ff3ed9be1"},"vehicle_type_id":"4","last_reported":1727003191,"current_range_meters":18800,"station_id":"ce4bh012rcd13ifvqcv0","pricing_plan_id":"cebpf4jnsgd1na2vs0mg"},{"bike_id":"7b9dd459-340b-4978-bfb0-6c163a5263e8","system_id":"levelo_inurba_marseille","lat":43.2319,"lon":5.35548,"is_reserved":false,"is_disabled":false,"rental_uris":{"android":"levelo://app?vid=7b9dd459-340b-4978-bfb0-6c163a5263e8","ios":"levelo://app?vid=7b9dd459-340b-4978-bfb0-6c163a5263e8"},"vehicle_type_id":"4","last_reported":1727003191,"current_range_meters":40000,"station_id":"ce4bhu92rcd13ifvqi70","pricing_plan_id":"cebpf4jnsgd1na2vs0mg"},{"bike_id":"918b4223-ce69-453b-8fa2-22d4ec45312a","system_id":"levelo_inurba_marseille","lat":43.27373,"lon":5.36259,"is_reserved":false,"is_disabled":false,"rental_uris":{"android":"levelo://app?vid=918b4223-ce69-453b-8fa2-22d4ec45312a","ios":"levelo://app?vid=918b4223-ce69-453b-8fa2-22d4ec45312a"},"vehicle_type_id":"4","last_reported":1727003191,"current_range_meters":11200,"station_id":"ce4bhbh2rcd13ifvqeo0","pricing_plan_id":"cebpf4jnsgd1na2vs0mg"},{"bike_id":"97b40545-eefe-4e75-a64f-39693ae8483a","system_id":"levelo_inurba_marseille","lat":43.27382,"lon":5.36259,"is_reserved":false,"is_disabled":false,"rental_uris":{"android":"levelo://app?vid=97b40545-eefe-4e75-a64f-39693ae8483a","ios":"levelo://app?vid=97b40545-eefe-4e75-a64f-39693ae8483a"},"vehicle_type_id":"4","last_reported":1727003191,"current_range_meters":37600,"station_id":"ce4bhbh2rcd13ifvqeo0","pricing_plan_id":"cebpf4jnsgd1na2vs0mg"},{"bike_id":"7a858e04-53cb-4a40-a12a-dc3716c29179","system_id":"levelo_inurba_marseille","lat":43.30899,"lon":5.396411,"is_reserved":false,"is_disabled":false,"rental_uris":{"android":"levelo://app?vid=7a858e04-53cb-4a40-a12a-dc3716c29179","ios":"levelo://app?vid=7a858e04-53cb-4a40-a12a-dc3716c29179"},"vehicle_type_id":"4","last_reported":1727003191,"current_range_meters":8800,"station_id":"ce4bh012rcd13ifvqcv0","pricing_plan_id":"cebpf4jnsgd1na2vs0mg"},{"bike_id":"c0269929-b89f-4bd7-a676-a9dc104a53cd","system_id":"levelo_inurba_marseille","lat":43.25829,"lon":5.39426,"is_reserved":false,"is_disabled":false,"rental_uris":{"android":"levelo://app?vid=c0269929-b89f-4bd7-a676-a9dc104a53cd","ios":"levelo://app?vid=c0269929-b89f-4bd7-a676-a9dc104a53cd"},"vehicle_type_id":"4","last_reported":1727003191,"current_range_meters":26800,"station_id":"ce4bhip2rcd13ifvqft0","pricing_plan_id":"cebpf4jnsgd1na2vs0mg"},{"bike_id":"8ce15e24-59db-44ef-81ed-f5fe4c6ca2bb","system_id":"levelo_inurba_marseille","lat":43.2808,"lon":5.39665,"is_reserved":false,"is_disabled":false,"rental_uris":{"android":"levelo://app?vid=8ce15e24-59db-44ef-81ed-f5fe4c6ca2bb","ios":"levelo://app?vid=8ce15e24-59db-44ef-81ed-f5fe4c6ca2bb"},"vehicle_type_id":"4","last_reported":1727003191,"current_range_meters":38000,"station_id":"ce4bho12rcd13ifvqh2g","pricing_plan_id":"cebpf4jnsgd1na2vs0mg"},{"bike_id":"a1ffdd71-46c6-4703-8721-7a7c70efa1a4","system_id":"levelo_inurba_marseille","lat":43.284681,"lon":5.384084,"is_reserved":false,"is_disabled":false,"rental_uris":{"android":"levelo://app?vid=a1ffdd71-46c6-4703-8721-7a7c70efa1a4","ios":"levelo://app?vid=a1ffdd71-46c6-4703-8721-7a7c70efa1a4"},"vehicle_type_id":"4","last_reported":1727003191,"current_range_meters":31200,"station_id":"ce4bh512rcd13ifvqe3g","pricing_plan_id":"cebpf4jnsgd1na2vs0mg"},{"bike_id":"71aa8592-ddf7-4343-aed4-c00d3433340f","system_id":"levelo_inurba_marseille","lat":43.337444,"lon":5.374475,"is_reserved":false,"is_disabled":false,"rental_uris":{"android":"levelo://app?vid=71aa8592-ddf7-4343-aed4-c00d3433340f","ios":"levelo://app?vid=71aa8592-ddf7-4343-aed4-c00d3433340f"},"vehicle_type_id":"4","last_reported":1727003191,"current_range_meters":32000,"station_id":"","pricing_plan_id":"cebpf4jnsgd1na2vs0mg"},{"bike_id":"3740c6df-06cd-419b-9ae6-b8d9e5eff548","system_id":"levelo_inurba_marseille","lat":43.2753,"lon":5.40935,"is_reserved":false,"is_disabled":false,"rental_uris":{"android":"levelo://app?vid=3740c6df-06cd-419b-9ae6-b8d9e5eff548","ios":"levelo://app?vid=3740c6df-06cd-419b-9ae6-b8d9e5eff548"},"vehicle_type_id":"4","last_reported":1727003191,"current_range_meters":13600,"station_id":"","pricing_plan_id":"cebpf4jnsgd1na2vs0mg"},{"bike_id":"8e56c686-c49a-4a98-a921-18b1bba0c58c","system_id":"levelo_inurba_marseille","lat":43.30904,"lon":5.36864,"is_reserved":false,"is_disabled":false,"rental_uris":{"android":"levelo://app?vid=8e56c686-c49a-4a98-a921-18b1bba0c58c","ios":"levelo://app?vid=8e56c686-c49a-4a98-a921-18b1bba0c58c"},"vehicle_type_id":"4","last_reported":1727003191,"current_range_meters":36000,"station_id":"ce4bgn92rcd13ifvqbvg","pricing_plan_id":"cebpf4jnsgd1na2vs0mg"},{"bike_id":"0fb7e3f9-a5ec-4760-b310-0731599b5852","system_id":"levelo_inurba_marseille","lat":43.2935,"lon":5.37881,"is_reserved":false,"is_disabled":false,"rental_uris":{"android":"levelo://app?vid=0fb7e3f9-a5ec-4760-b310-0731599b5852","ios":"levelo://app?vid=0fb7e3f9-a5ec-4760-b310-0731599b5852"},"vehicle_type_id":"4","last_reported":1727003191,"current_range_meters":38400,"station_id":"ce4bgjh2rcd13ifvqbf0","pricing_plan_id":"cebpf4jnsgd1na2vs0mg"},{"bike_id":"b909506f-584b-48ac-b077-0b983a0fa39d","system_id":"levelo_inurba_marseille","lat":43.273808,"lon":5.36258,"is_reserved":false,"is_disabled":false,"rental_uris":{"android":"levelo://app?vid=b909506f-584b-48ac-b077-0b983a0fa39d","ios":"levelo://app?vid=b909506f-584b-48ac-b077-0b983a0fa39d"},"vehicle_type_id":"4","last_reported":1727003191,"current_range_meters":28400,"station_id":"ce4bhbh2rcd13ifvqeo0","pricing_plan_id":"cebpf4jnsgd1na2vs0mg"},{"bike_id":"587b7091-1fcd-4c6f-a820-801ebabc18cc","system_id":"levelo_inurba_marseille","lat":43.29845,"lon":5.36268,"is_reserved":false,"is_disabled":false,"rental_uris":{"android":"levelo://app?vid=587b7091-1fcd-4c6f-a820-801ebabc18cc","ios":"levelo://app?vid=587b7091-1fcd-4c6f-a820-801ebabc18cc"},"vehicle_type_id":"4","last_reported":1727003191,"current_range_meters":30800,"station_id":"ce4bgpp2rcd13ifvqc3g","pricing_plan_id":"cebpf4jnsgd1na2vs0mg"},{"bike_id":"dd535e37-8871-4ca3-b1ef-79e507a428e9","system_id":"levelo_inurba_marseille","lat":43.313009,"lon":5.386443,"is_reserved":false,"is_disabled":false,"rental_uris":{"android":"levelo://app?vid=dd535e37-8871-4ca3-b1ef-79e507a428e9","ios":"levelo://app?vid=dd535e37-8871-4ca3-b1ef-79e507a428e9"},"vehicle_type_id":"4","last_reported":1727003191,"current_range_meters":26800,"station_id":"ce4bgt92rcd13ifvqcf0","pricing_plan_id":"cebpf4jnsgd1na2vs0mg"},{"bike_id":"02415616-385e-4f14-93d0-2ad915d17a0f","system_id":"levelo_inurba_marseille","lat":43.31324,"lon":5.39687,"is_reserved":false,"is_disabled":false,"rental_uris":{"android":"levelo://app?vid=02415616-385e-4f14-93d0-2ad915d17a0f","ios":"levelo://app?vid=02415616-385e-4f14-93d0-2ad915d17a0f"},"vehicle_type_id":"4","last_reported":1727003191,"current_range_meters":37600,"station_id":"ce4bgvp2rcd13ifvqcu0","pricing_plan_id":"cebpf4jnsgd1na2vs0mg"},{"bike_id":"1a27a312-7cc2-4ff9-a55e-3a99ac9d943e","system_id":"levelo_inurba_marseille","lat":43.31268,"lon":5.40181,"is_reserved":false,"is_disabled":false,"rental_uris":{"android":"levelo://app?vid=1a27a312-7cc2-4ff9-a55e-3a99ac9d943e","ios":"levelo://app?vid=1a27a312-7cc2-4ff9-a55e-3a99ac9d943e"},"vehicle_type_id":"4","last_reported":1727003191,"current_range_meters":38800,"station_id":"ce4bh092rcd13ifvqd30","pricing_plan_id":"cebpf4jnsgd1na2vs0mg"},{"bike_id":"00e33d21-5481-4e03-abfd-ea443517ac83","system_id":"levelo_inurba_marseille","lat":43.296112,"lon":5.373867,"is_reserved":false,"is_disabled":false,"rental_uris":{"android":"levelo://app?vid=00e33d21-5481-4e03-abfd-ea443517ac83","ios":"levelo://app?vid=00e33d21-5481-4e03-abfd-ea443517ac83"},"vehicle_type_id":"4","last_reported":1727003191,"current_range_meters":36800,"station_id":"","pricing_plan_id":"cebpf4jnsgd1na2vs0mg"},{"bike_id":"b8c6e31b-067e-422e-8b84-1adfca4cb70a","system_id":"levelo_inurba_marseille","lat":43.29635,"lon":5.40594,"is_reserved":false,"is_disabled":false,"rental_uris":{"android":"levelo://app?vid=b8c6e31b-067e-422e-8b84-1adfca4cb70a","ios":"levelo://app?vid=b8c6e31b-067e-422e-8b84-1adfca4cb70a"},"vehicle_type_id":"4","last_reported":1727003191,"current_range_meters":39200,"station_id":"ce4bh0h2rcd13ifvqd60","pricing_plan_id":"cebpf4jnsgd1na2vs0mg"},{"bike_id":"34bac9de-afcc-485f-a901-124a385dd441","system_id":"levelo_inurba_marseille","lat":43.24541,"lon":5.39527,"is_reserved":false,"is_disabled":false,"rental_uris":{"android":"levelo://app?vid=34bac9de-afcc-485f-a901-124a385dd441","ios":"levelo://app?vid=34bac9de-afcc-485f-a901-124a385dd441"},"vehicle_type_id":"4","last_reported":1727003191,"current_range_meters":38800,"station_id":"ce4bhlp2rcd13ifvqgjg","pricing_plan_id":"cebpf4jnsgd1na2vs0mg"},{"bike_id":"d24bf50b-1ace-4529-8106-4c2cd9c3a4af","system_id":"levelo_inurba_marseille","lat":43.26551,"lon":5.37295,"is_reserved":false,"is_disabled":false,"rental_uris":{"android":"levelo://app?vid=d24bf50b-1ace-4529-8106-4c2cd9c3a4af","ios":"levelo://app?vid=d24bf50b-1ace-4529-8106-4c2cd9c3a4af"},"vehicle_type_id":"4","last_reported":1727003191,"current_range_meters":38800,"station_id":"ce4bhg12rcd13ifvqf70","pricing_plan_id":"cebpf4jnsgd1na2vs0mg"},{"bike_id":"1575e777-51f8-479e-bd95-714cef91a125","system_id":"levelo_inurba_marseille","lat":43.2418,"lon":5.39721,"is_reserved":false,"is_disabled":false,"rental_uris":{"android":"levelo://app?vid=1575e777-51f8-479e-bd95-714cef91a125","ios":"levelo://app?vid=1575e777-51f8-479e-bd95-714cef91a125"},"vehicle_type_id":"4","last_reported":1727003191,"current_range_meters":27200,"station_id":"ce4bhn12rcd13ifvqgpg","pricing_plan_id":"cebpf4jnsgd1na2vs0mg"},{"bike_id":"4f6cd953-65f5-4d4f-a052-70118d864e1d","system_id":"levelo_inurba_marseille","lat":43.29898,"lon":5.43669,"is_reserved":false,"is_disabled":false,"rental_uris":{"android":"levelo://app?vid=4f6cd953-65f5-4d4f-a052-70118d864e1d","ios":"levelo://app?vid=4f6cd953-65f5-4d4f-a052-70118d864e1d"},"vehicle_type_id":"4","last_reported":1727003191,"current_range_meters":3200,"station_id":"ce4bhpp2rcd13ifvqhfg","pricing_plan_id":"cebpf4jnsgd1na2vs0mg"},{"bike_id":"742fe014-1f5e-499c-bbc5-66a0cbb87904","system_id":"levelo_inurba_marseille","lat":43.23189,"lon":5.35561,"is_reserved":false,"is_disabled":false,"rental_uris":{"android":"levelo://app?vid=742fe014-1f5e-499c-bbc5-66a0cbb87904","ios":"levelo://app?vid=742fe014-1f5e-499c-bbc5-66a0cbb87904"},"vehicle_type_id":"4","last_reported":1727003191,"current_range_meters":34000,"station_id":"ce4bhu92rcd13ifvqi70","pricing_plan_id":"cebpf4jnsgd1na2vs0mg"},{"bike_id":"885eb9fd-e64e-4dcf-b796-e74b9bc20997","system_id":"levelo_inurba_marseille","lat":43.27927,"lon":5.39575,"is_reserved":false,"is_disabled":false,"rental_uris":{"android":"levelo://app?vid=885eb9fd-e64e-4dcf-b796-e74b9bc20997","ios":"levelo://app?vid=885eb9fd-e64e-4dcf-b796-e74b9bc20997"},"vehicle_type_id":"4","last_reported":1727003191,"current_range_meters":36800,"station_id":"ce4bhf92rcd13ifvqf40","pricing_plan_id":"cebpf4jnsgd1na2vs0mg"},{"bike_id":"381f68f3-8724-4058-a683-4f2b1a0bae1d","system_id":"levelo_inurba_marseille","lat":43.290039,"lon":5.356236,"is_reserved":false,"is_disabled":false,"rental_uris":{"android":"levelo://app?vid=381f68f3-8724-4058-a683-4f2b1a0bae1d","ios":"levelo://app?vid=381f68f3-8724-4058-a683-4f2b1a0bae1d"},"vehicle_type_id":"4","last_reported":1727003191,"current_range_meters":30400,"station_id":"ce4bhb92rcd13ifvqen0","pricing_plan_id":"cebpf4jnsgd1na2vs0mg"},{"bike_id":"72fc7b45-54f7-4b5b-b817-3a9bc7d73b4c","system_id":"levelo_inurba_marseille","lat":43.30196,"lon":5.36632,"is_reserved":false,"is_disabled":false,"rental_uris":{"android":"levelo://app?vid=72fc7b45-54f7-4b5b-b817-3a9bc7d73b4c","ios":"levelo://app?vid=72fc7b45-54f7-4b5b-b817-3a9bc7d73b4c"},"vehicle_type_id":"4","last_reported":1727003191,"current_range_meters":25200,"station_id":"ce4bgrh2rcd13ifvqc8g","pricing_plan_id":"cebpf4jnsgd1na2vs0mg"},{"bike_id":"1fcdf865-7c34-404d-a50f-06b5cbee8930","system_id":"levelo_inurba_marseille","lat":43.2586,"lon":5.39914,"is_reserved":false,"is_disabled":false,"rental_uris":{"android":"levelo://app?vid=1fcdf865-7c34-404d-a50f-06b5cbee8930","ios":"levelo://app?vid=1fcdf865-7c34-404d-a50f-06b5cbee8930"},"vehicle_type_id":"4","last_reported":1727003191,"current_range_meters":38800,"station_id":"ce4bhl92rcd13ifvqghg","pricing_plan_id":"cebpf4jnsgd1na2vs0mg"},{"bike_id":"86f853d9-fad9-4b4a-bcf3-e114e8e261e5","system_id":"levelo_inurba_marseille","lat":43.29596,"lon":5.38099,"is_reserved":false,"is_disabled":false,"rental_uris":{"android":"levelo://app?vid=86f853d9-fad9-4b4a-bcf3-e114e8e261e5","ios":"levelo://app?vid=86f853d9-fad9-4b4a-bcf3-e114e8e261e5"},"vehicle_type_id":"4","last_reported":1727003191,"current_range_meters":38800,"station_id":"ce4bgl12rcd13ifvqbo0","pricing_plan_id":"cebpf4jnsgd1na2vs0mg"},{"bike_id":"aed3a203-beac-4ee9-a0f6-21fa8de4db2b","system_id":"levelo_inurba_marseille","lat":43.29976,"lon":5.37187,"is_reserved":false,"is_disabled":false,"rental_uris":{"android":"levelo://app?vid=aed3a203-beac-4ee9-a0f6-21fa8de4db2b","ios":"levelo://app?vid=aed3a203-beac-4ee9-a0f6-21fa8de4db2b"},"vehicle_type_id":"4","last_reported":1727003191,"current_range_meters":8000,"station_id":"ce4bgr92rcd13ifvqc7g","pricing_plan_id":"cebpf4jnsgd1na2vs0mg"},{"bike_id":"feb42740-c719-4916-9efa-d99f861e0e6d","system_id":"levelo_inurba_marseille","lat":43.32478,"lon":5.36571,"is_reserved":false,"is_disabled":false,"rental_uris":{"android":"levelo://app?vid=feb42740-c719-4916-9efa-d99f861e0e6d","ios":"levelo://app?vid=feb42740-c719-4916-9efa-d99f861e0e6d"},"vehicle_type_id":"4","last_reported":1727003191,"current_range_meters":36400,"station_id":"ce4bhs12rcd13ifvqhvg","pricing_plan_id":"cebpf4jnsgd1na2vs0mg"},{"bike_id":"43df654f-7b08-4ea9-a208-46dae57f3606","system_id":"levelo_inurba_marseille","lat":43.30476,"lon":5.37914,"is_reserved":false,"is_disabled":false,"rental_uris":{"android":"levelo://app?vid=43df654f-7b08-4ea9-a208-46dae57f3606","ios":"levelo://app?vid=43df654f-7b08-4ea9-a208-46dae57f3606"},"vehicle_type_id":"4","last_reported":1727003191,"current_range_meters":36400,"station_id":"ce4bgup2rcd13ifvqcn0","pricing_plan_id":"cebpf4jnsgd1na2vs0mg"},{"bike_id":"0c55e3f0-44c1-49a6-9f97-38db8094f157","system_id":"levelo_inurba_marseille","lat":43.25863,"lon":5.39898,"is_reserved":false,"is_disabled":false,"rental_uris":{"android":"levelo://app?vid=0c55e3f0-44c1-49a6-9f97-38db8094f157","ios":"levelo://app?vid=0c55e3f0-44c1-49a6-9f97-38db8094f157"},"vehicle_type_id":"4","last_reported":1727003191,"current_range_meters":38800,"station_id":"ce4bhl92rcd13ifvqghg","pricing_plan_id":"cebpf4jnsgd1na2vs0mg"},{"bike_id":"fceb5afb-6f4c-4308-aac4-3d8de88878ef","system_id":"levelo_inurba_marseille","lat":43.24076,"lon":5.37759,"is_reserved":false,"is_disabled":false,"rental_uris":{"android":"levelo://app?vid=fceb5afb-6f4c-4308-aac4-3d8de88878ef","ios":"levelo://app?vid=fceb5afb-6f4c-4308-aac4-3d8de88878ef"},"vehicle_type_id":"4","last_reported":1727003191,"current_range_meters":30000,"station_id":"ce4bhnp2rcd13ifvqgvg","pricing_plan_id":"cebpf4jnsgd1na2vs0mg"},{"bike_id":"f33483c1-3b2c-4303-843b-6554d88a9a5f","system_id":"levelo_inurba_marseille","lat":43.24076,"lon":5.3776,"is_reserved":false,"is_disabled":false,"rental_uris":{"android":"levelo://app?vid=f33483c1-3b2c-4303-843b-6554d88a9a5f","ios":"levelo://app?vid=f33483c1-3b2c-4303-843b-6554d88a9a5f"},"vehicle_type_id":"4","last_reported":1727003191,"current_range_meters":38000,"station_id":"ce4bhnp2rcd13ifvqgvg","pricing_plan_id":"cebpf4jnsgd1na2vs0mg"},{"bike_id":"4d3c6dd7-63b1-4ab6-9d0e-095824115dea","system_id":"levelo_inurba_marseille","lat":43.282654,"lon":5.350641,"is_reserved":false,"is_disabled":false,"rental_uris":{"android":"levelo://app?vid=4d3c6dd7-63b1-4ab6-9d0e-095824115dea","ios":"levelo://app?vid=4d3c6dd7-63b1-4ab6-9d0e-095824115dea"},"vehicle_type_id":"4","last_reported":1727003191,"current_range_meters":25600,"station_id":"ce4bhbp2rcd13ifvqerg","pricing_plan_id":"cebpf4jnsgd1na2vs0mg"},{"bike_id":"6e793def-70c3-4898-88e9-cb21c07de165","system_id":"levelo_inurba_marseille","lat":43.2828,"lon":5.35073,"is_reserved":false,"is_disabled":false,"rental_uris":{"android":"levelo://app?vid=6e793def-70c3-4898-88e9-cb21c07de165","ios":"levelo://app?vid=6e793def-70c3-4898-88e9-cb21c07de165"},"vehicle_type_id":"4","last_reported":1727003191,"current_range_meters":38000,"station_id":"ce4bhbp2rcd13ifvqerg","pricing_plan_id":"cebpf4jnsgd1na2vs0mg"},{"bike_id":"fce734b4-6c36-4cb6-983c-c95238702258","system_id":"levelo_inurba_marseille","lat":43.31066,"lon":5.38114,"is_reserved":false,"is_disabled":false,"rental_uris":{"android":"levelo://app?vid=fce734b4-6c36-4cb6-983c-c95238702258","ios":"levelo://app?vid=fce734b4-6c36-4cb6-983c-c95238702258"},"vehicle_type_id":"4","last_reported":1727003191,"current_range_meters":12800,"station_id":"","pricing_plan_id":"cebpf4jnsgd1na2vs0mg"},{"bike_id":"ab164393-cd31-4221-b165-f26296d40d00","system_id":"levelo_inurba_marseille","lat":43.31081,"lon":5.42427,"is_reserved":false,"is_disabled":false,"rental_uris":{"android":"levelo://app?vid=ab164393-cd31-4221-b165-f26296d40d00","ios":"levelo://app?vid=ab164393-cd31-4221-b165-f26296d40d00"},"vehicle_type_id":"4","last_reported":1727003191,"current_range_meters":10000,"station_id":"ce4bhp92rcd13ifvqhag","pricing_plan_id":"cebpf4jnsgd1na2vs0mg"},{"bike_id":"c909386f-44fd-4517-b7a5-c26d3c758aba","system_id":"levelo_inurba_marseille","lat":43.23962,"lon":5.36641,"is_reserved":false,"is_disabled":false,"rental_uris":{"android":"levelo://app?vid=c909386f-44fd-4517-b7a5-c26d3c758aba","ios":"levelo://app?vid=c909386f-44fd-4517-b7a5-c26d3c758aba"},"vehicle_type_id":"4","last_reported":1727003191,"current_range_meters":30000,"station_id":"ce4bhi12rcd13ifvqfp0","pricing_plan_id":"cebpf4jnsgd1na2vs0mg"},{"bike_id":"e53da6fb-874f-43e3-852a-446b180b6168","system_id":"levelo_inurba_marseille","lat":43.26961,"lon":5.38638,"is_reserved":false,"is_disabled":false,"rental_uris":{"android":"levelo://app?vid=e53da6fb-874f-43e3-852a-446b180b6168","ios":"levelo://app?vid=e53da6fb-874f-43e3-852a-446b180b6168"},"vehicle_type_id":"4","last_reported":1727003191,"current_range_meters":30400,"station_id":"ce4bhh92rcd13ifvqfh0","pricing_plan_id":"cebpf4jnsgd1na2vs0mg"},{"bike_id":"e9f56558-e0cf-41fa-b126-ab5b05cb3b5d","system_id":"levelo_inurba_marseille","lat":43.323378,"lon":5.406265,"is_reserved":false,"is_disabled":false,"rental_uris":{"android":"levelo://app?vid=e9f56558-e0cf-41fa-b126-ab5b05cb3b5d","ios":"levelo://app?vid=e9f56558-e0cf-41fa-b126-ab5b05cb3b5d"},"vehicle_type_id":"4","last_reported":1727003191,"current_range_meters":37600,"station_id":"ce4bhq92rcd13ifvqhjg","pricing_plan_id":"cebpf4jnsgd1na2vs0mg"},{"bike_id":"f74941be-f473-4ce7-9230-0799526567ae","system_id":"levelo_inurba_marseille","lat":43.23194,"lon":5.35548,"is_reserved":false,"is_disabled":false,"rental_uris":{"android":"levelo://app?vid=f74941be-f473-4ce7-9230-0799526567ae","ios":"levelo://app?vid=f74941be-f473-4ce7-9230-0799526567ae"},"vehicle_type_id":"4","last_reported":1727003191,"current_range_meters":38800,"station_id":"ce4bhu92rcd13ifvqi70","pricing_plan_id":"cebpf4jnsgd1na2vs0mg"},{"bike_id":"584751df-08a9-4e7a-8b10-9ab3f476be95","system_id":"levelo_inurba_marseille","lat":43.29937,"lon":5.36543,"is_reserved":false,"is_disabled":false,"rental_uris":{"android":"levelo://app?vid=584751df-08a9-4e7a-8b10-9ab3f476be95","ios":"levelo://app?vid=584751df-08a9-4e7a-8b10-9ab3f476be95"},"vehicle_type_id":"4","last_reported":1727003191,"current_range_meters":32000,"station_id":"ce4bgm92rcd13ifvqbr0","pricing_plan_id":"cebpf4jnsgd1na2vs0mg"},{"bike_id":"c4e7e0ab-472f-44a3-a37d-3437eac23033","system_id":"levelo_inurba_marseille","lat":43.25491,"lon":5.37652,"is_reserved":false,"is_disabled":false,"rental_uris":{"android":"levelo://app?vid=c4e7e0ab-472f-44a3-a37d-3437eac23033","ios":"levelo://app?vid=c4e7e0ab-472f-44a3-a37d-3437eac23033"},"vehicle_type_id":"4","last_reported":1727003191,"current_range_meters":24800,"station_id":"ce4bhh12rcd13ifvqff0","pricing_plan_id":"cebpf4jnsgd1na2vs0mg"},{"bike_id":"11f1afbe-2e37-4c7b-af9c-fc853605fa25","system_id":"levelo_inurba_marseille","lat":43.26211,"lon":5.37441,"is_reserved":false,"is_disabled":false,"rental_uris":{"android":"levelo://app?vid=11f1afbe-2e37-4c7b-af9c-fc853605fa25","ios":"levelo://app?vid=11f1afbe-2e37-4c7b-af9c-fc853605fa25"},"vehicle_type_id":"4","last_reported":1727003191,"current_range_meters":28000,"station_id":"ce4bhgp2rcd13ifvqfc0","pricing_plan_id":"cebpf4jnsgd1na2vs0mg"},{"bike_id":"729dc18d-4760-4906-bebc-b38174cf9c5e","system_id":"levelo_inurba_marseille","lat":43.28619,"lon":5.35109,"is_reserved":false,"is_disabled":false,"rental_uris":{"android":"levelo://app?vid=729dc18d-4760-4906-bebc-b38174cf9c5e","ios":"levelo://app?vid=729dc18d-4760-4906-bebc-b38174cf9c5e"},"vehicle_type_id":"4","last_reported":1727003191,"current_range_meters":34800,"station_id":"ce4bhch2rcd13ifvqeug","pricing_plan_id":"cebpf4jnsgd1na2vs0mg"},{"bike_id":"abc4cca2-455a-4464-8172-2f51328b24a4","system_id":"levelo_inurba_marseille","lat":43.3149,"lon":5.37311,"is_reserved":false,"is_disabled":false,"rental_uris":{"android":"levelo://app?vid=abc4cca2-455a-4464-8172-2f51328b24a4","ios":"levelo://app?vid=abc4cca2-455a-4464-8172-2f51328b24a4"},"vehicle_type_id":"4","last_reported":1727003191,"current_range_meters":32400,"station_id":"ce4bgt12rcd13ifvqcd0","pricing_plan_id":"cebpf4jnsgd1na2vs0mg"},{"bike_id":"b80b4897-89b4-4de2-a933-d84aeabff311","system_id":"levelo_inurba_marseille","lat":43.29187,"lon":5.357963,"is_reserved":false,"is_disabled":false,"rental_uris":{"android":"levelo://app?vid=b80b4897-89b4-4de2-a933-d84aeabff311","ios":"levelo://app?vid=b80b4897-89b4-4de2-a933-d84aeabff311"},"vehicle_type_id":"4","last_reported":1727003191,"current_range_meters":39200,"station_id":"ce4bhb12rcd13ifvqel0","pricing_plan_id":"cebpf4jnsgd1na2vs0mg"},{"bike_id":"6a27e725-2d8c-4144-8185-44daee5ca0de","system_id":"levelo_inurba_marseille","lat":43.31754,"lon":5.39016,"is_reserved":false,"is_disabled":false,"rental_uris":{"android":"levelo://app?vid=6a27e725-2d8c-4144-8185-44daee5ca0de","ios":"levelo://app?vid=6a27e725-2d8c-4144-8185-44daee5ca0de"},"vehicle_type_id":"4","last_reported":1727003191,"current_range_meters":22800,"station_id":"ce4bhqp2rcd13ifvqhng","pricing_plan_id":"cebpf4jnsgd1na2vs0mg"},{"bike_id":"39a67cac-e07a-41b0-bcc1-63b7f553b04c","system_id":"levelo_inurba_marseille","lat":43.28457,"lon":5.35886,"is_reserved":false,"is_disabled":false,"rental_uris":{"android":"levelo://app?vid=39a67cac-e07a-41b0-bcc1-63b7f553b04c","ios":"levelo://app?vid=39a67cac-e07a-41b0-bcc1-63b7f553b04c"},"vehicle_type_id":"4","last_reported":1727003191,"current_range_meters":20400,"station_id":"ce4bhah2rcd13ifvqei0","pricing_plan_id":"cebpf4jnsgd1na2vs0mg"},{"bike_id":"27be6f2f-1bc2-4192-a569-44eba2fb71ae","system_id":"levelo_inurba_marseille","lat":43.25942,"lon":5.409,"is_reserved":false,"is_disabled":false,"rental_uris":{"android":"levelo://app?vid=27be6f2f-1bc2-4192-a569-44eba2fb71ae","ios":"levelo://app?vid=27be6f2f-1bc2-4192-a569-44eba2fb71ae"},"vehicle_type_id":"4","last_reported":1727003191,"current_range_meters":12800,"station_id":"ce4bhm92rcd13ifvqglg","pricing_plan_id":"cebpf4jnsgd1na2vs0mg"},{"bike_id":"165b741a-2404-4624-b268-999183c6a48e","system_id":"levelo_inurba_marseille","lat":43.27488,"lon":5.42461,"is_reserved":false,"is_disabled":false,"rental_uris":{"android":"levelo://app?vid=165b741a-2404-4624-b268-999183c6a48e","ios":"levelo://app?vid=165b741a-2404-4624-b268-999183c6a48e"},"vehicle_type_id":"4","last_reported":1727003191,"current_range_meters":36800,"station_id":"ce4bhn92rcd13ifvqgrg","pricing_plan_id":"cebpf4jnsgd1na2vs0mg"},{"bike_id":"75c0d00a-ef1a-4798-9315-cb4e57bf83d0","system_id":"levelo_inurba_marseille","lat":43.28269,"lon":5.35085,"is_reserved":false,"is_disabled":false,"rental_uris":{"android":"levelo://app?vid=75c0d00a-ef1a-4798-9315-cb4e57bf83d0","ios":"levelo://app?vid=75c0d00a-ef1a-4798-9315-cb4e57bf83d0"},"vehicle_type_id":"4","last_reported":1727003191,"current_range_meters":6000,"station_id":"ce4bhbp2rcd13ifvqerg","pricing_plan_id":"cebpf4jnsgd1na2vs0mg"},{"bike_id":"523dbe2c-4770-45c9-bbf3-0c8e932b3386","system_id":"levelo_inurba_marseille","lat":43.26495,"lon":5.39548,"is_reserved":false,"is_disabled":false,"rental_uris":{"android":"levelo://app?vid=523dbe2c-4770-45c9-bbf3-0c8e932b3386","ios":"levelo://app?vid=523dbe2c-4770-45c9-bbf3-0c8e932b3386"},"vehicle_type_id":"4","last_reported":1727003191,"current_range_meters":8800,"station_id":"ce4bhi12rcd13ifvqfq0","pricing_plan_id":"cebpf4jnsgd1na2vs0mg"},{"bike_id":"a283e3db-58c0-45ca-837f-963ed26cbe7d","system_id":"levelo_inurba_marseille","lat":43.25574,"lon":5.38241,"is_reserved":false,"is_disabled":false,"rental_uris":{"android":"levelo://app?vid=a283e3db-58c0-45ca-837f-963ed26cbe7d","ios":"levelo://app?vid=a283e3db-58c0-45ca-837f-963ed26cbe7d"},"vehicle_type_id":"4","last_reported":1727003191,"current_range_meters":35200,"station_id":"ce4bhih2rcd13ifvqfs0","pricing_plan_id":"cebpf4jnsgd1na2vs0mg"},{"bike_id":"73eed61d-33cb-4233-a74d-3b9427271030","system_id":"levelo_inurba_marseille","lat":43.25861,"lon":5.39902,"is_reserved":false,"is_disabled":false,"rental_uris":{"android":"levelo://app?vid=73eed61d-33cb-4233-a74d-3b9427271030","ios":"levelo://app?vid=73eed61d-33cb-4233-a74d-3b9427271030"},"vehicle_type_id":"4","last_reported":1727003191,"current_range_meters":8800,"station_id":"ce4bhl92rcd13ifvqghg","pricing_plan_id":"cebpf4jnsgd1na2vs0mg"},{"bike_id":"89131b1e-ffef-4a41-b9dc-cf4c7213ebee","system_id":"levelo_inurba_marseille","lat":43.24808,"lon":5.37453,"is_reserved":false,"is_disabled":false,"rental_uris":{"android":"levelo://app?vid=89131b1e-ffef-4a41-b9dc-cf4c7213ebee","ios":"levelo://app?vid=89131b1e-ffef-4a41-b9dc-cf4c7213ebee"},"vehicle_type_id":"4","last_reported":1727003191,"current_range_meters":11200,"station_id":"ce4bhgh2rcd13ifvqfb0","pricing_plan_id":"cebpf4jnsgd1na2vs0mg"},{"bike_id":"70d5e30d-81bc-44ea-92fa-fc7999351851","system_id":"levelo_inurba_marseille","lat":43.25868,"lon":5.39896,"is_reserved":false,"is_disabled":false,"rental_uris":{"android":"levelo://app?vid=70d5e30d-81bc-44ea-92fa-fc7999351851","ios":"levelo://app?vid=70d5e30d-81bc-44ea-92fa-fc7999351851"},"vehicle_type_id":"4","last_reported":1727003191,"current_range_meters":39200,"station_id":"ce4bhl92rcd13ifvqghg","pricing_plan_id":"cebpf4jnsgd1na2vs0mg"},{"bike_id":"e8d9fcc7-4a1f-4d96-8ebf-5d7fd0b8bb85","system_id":"levelo_inurba_marseille","lat":43.23184,"lon":5.39987,"is_reserved":false,"is_disabled":false,"rental_uris":{"android":"levelo://app?vid=e8d9fcc7-4a1f-4d96-8ebf-5d7fd0b8bb85","ios":"levelo://app?vid=e8d9fcc7-4a1f-4d96-8ebf-5d7fd0b8bb85"},"vehicle_type_id":"4","last_reported":1727003191,"current_range_meters":23200,"station_id":"ce4bhn12rcd13ifvqgqg","pricing_plan_id":"cebpf4jnsgd1na2vs0mg"},{"bike_id":"ef8c4665-5ed2-4c55-a204-5049067fb8cf","system_id":"levelo_inurba_marseille","lat":43.31327,"lon":5.3969,"is_reserved":false,"is_disabled":false,"rental_uris":{"android":"levelo://app?vid=ef8c4665-5ed2-4c55-a204-5049067fb8cf","ios":"levelo://app?vid=ef8c4665-5ed2-4c55-a204-5049067fb8cf"},"vehicle_type_id":"4","last_reported":1727003191,"current_range_meters":38800,"station_id":"ce4bgvp2rcd13ifvqcu0","pricing_plan_id":"cebpf4jnsgd1na2vs0mg"},{"bike_id":"80247f41-cabe-49b6-98e7-0f4faf0dea90","system_id":"levelo_inurba_marseille","lat":43.269337,"lon":5.36649,"is_reserved":false,"is_disabled":false,"rental_uris":{"android":"levelo://app?vid=80247f41-cabe-49b6-98e7-0f4faf0dea90","ios":"levelo://app?vid=80247f41-cabe-49b6-98e7-0f4faf0dea90"},"vehicle_type_id":"4","last_reported":1727003191,"current_range_meters":32800,"station_id":"ce4bhbh2rcd13ifvqepg","pricing_plan_id":"cebpf4jnsgd1na2vs0mg"},{"bike_id":"922422ab-5a2d-48e2-8219-31c99fb052db","system_id":"levelo_inurba_marseille","lat":43.25093,"lon":5.39521,"is_reserved":false,"is_disabled":false,"rental_uris":{"android":"levelo://app?vid=922422ab-5a2d-48e2-8219-31c99fb052db","ios":"levelo://app?vid=922422ab-5a2d-48e2-8219-31c99fb052db"},"vehicle_type_id":"4","last_reported":1727003191,"current_range_meters":25600,"station_id":"ce4bhm12rcd13ifvqgkg","pricing_plan_id":"cebpf4jnsgd1na2vs0mg"},{"bike_id":"15287730-093e-4ecf-b55c-bd281b29acd3","system_id":"levelo_inurba_marseille","lat":43.28853,"lon":5.39319,"is_reserved":false,"is_disabled":false,"rental_uris":{"android":"levelo://app?vid=15287730-093e-4ecf-b55c-bd281b29acd3","ios":"levelo://app?vid=15287730-093e-4ecf-b55c-bd281b29acd3"},"vehicle_type_id":"4","last_reported":1727003191,"current_range_meters":36400,"station_id":"ce4bh2p2rcd13ifvqdi0","pricing_plan_id":"cebpf4jnsgd1na2vs0mg"},{"bike_id":"30328048-d670-4bac-af3f-3c775e987223","system_id":"levelo_inurba_marseille","lat":43.3108,"lon":5.42429,"is_reserved":false,"is_disabled":false,"rental_uris":{"android":"levelo://app?vid=30328048-d670-4bac-af3f-3c775e987223","ios":"levelo://app?vid=30328048-d670-4bac-af3f-3c775e987223"},"vehicle_type_id":"4","last_reported":1727003191,"current_range_meters":16400,"station_id":"ce4bhp92rcd13ifvqhag","pricing_plan_id":"cebpf4jnsgd1na2vs0mg"},{"bike_id":"9db086ca-e7d0-4cbd-a8a0-00e1ea9007af","system_id":"levelo_inurba_marseille","lat":43.26204,"lon":5.37926,"is_reserved":false,"is_disabled":false,"rental_uris":{"android":"levelo://app?vid=9db086ca-e7d0-4cbd-a8a0-00e1ea9007af","ios":"levelo://app?vid=9db086ca-e7d0-4cbd-a8a0-00e1ea9007af"},"vehicle_type_id":"4","last_reported":1727003191,"current_range_meters":6400,"station_id":"ce4bhjp2rcd13ifvqg90","pricing_plan_id":"cebpf4jnsgd1na2vs0mg"},{"bike_id":"e63a6d66-2dff-4ae7-9561-2d3412cef5fc","system_id":"levelo_inurba_marseille","lat":43.2695,"lon":5.38631,"is_reserved":false,"is_disabled":false,"rental_uris":{"android":"levelo://app?vid=e63a6d66-2dff-4ae7-9561-2d3412cef5fc","ios":"levelo://app?vid=e63a6d66-2dff-4ae7-9561-2d3412cef5fc"},"vehicle_type_id":"4","last_reported":1727003191,"current_range_meters":16400,"station_id":"ce4bhh92rcd13ifvqfh0","pricing_plan_id":"cebpf4jnsgd1na2vs0mg"},{"bike_id":"96a97b5c-a410-4406-9920-5ad25f543c35","system_id":"levelo_inurba_marseille","lat":43.28268,"lon":5.35072,"is_reserved":false,"is_disabled":false,"rental_uris":{"android":"levelo://app?vid=96a97b5c-a410-4406-9920-5ad25f543c35","ios":"levelo://app?vid=96a97b5c-a410-4406-9920-5ad25f543c35"},"vehicle_type_id":"4","last_reported":1727003191,"current_range_meters":6800,"station_id":"ce4bhbp2rcd13ifvqerg","pricing_plan_id":"cebpf4jnsgd1na2vs0mg"},{"bike_id":"fa690805-233a-4a70-a9f3-33f1b67cdb1f","system_id":"levelo_inurba_marseille","lat":43.32295,"lon":5.3826,"is_reserved":false,"is_disabled":false,"rental_uris":{"android":"levelo://app?vid=fa690805-233a-4a70-a9f3-33f1b67cdb1f","ios":"levelo://app?vid=fa690805-233a-4a70-a9f3-33f1b67cdb1f"},"vehicle_type_id":"4","last_reported":1727003191,"current_range_meters":8000,"station_id":"ce4bhr12rcd13ifvqhqg","pricing_plan_id":"cebpf4jnsgd1na2vs0mg"},{"bike_id":"1eb0b34b-c691-4c5b-a126-7b808f806645","system_id":"levelo_inurba_marseille","lat":43.28418,"lon":5.375,"is_reserved":false,"is_disabled":false,"rental_uris":{"android":"levelo://app?vid=1eb0b34b-c691-4c5b-a126-7b808f806645","ios":"levelo://app?vid=1eb0b34b-c691-4c5b-a126-7b808f806645"},"vehicle_type_id":"4","last_reported":1727003191,"current_range_meters":35200,"station_id":"ce4bh412rcd13ifvqds0","pricing_plan_id":"cebpf4jnsgd1na2vs0mg"},{"bike_id":"3d3e9249-9d09-4e9c-8f6d-96fea6b7850d","system_id":"levelo_inurba_marseille","lat":43.30787,"lon":5.37657,"is_reserved":false,"is_disabled":false,"rental_uris":{"android":"levelo://app?vid=3d3e9249-9d09-4e9c-8f6d-96fea6b7850d","ios":"levelo://app?vid=3d3e9249-9d09-4e9c-8f6d-96fea6b7850d"},"vehicle_type_id":"4","last_reported":1727003191,"current_range_meters":8800,"station_id":"ce4bgv92rcd13ifvqcq0","pricing_plan_id":"cebpf4jnsgd1na2vs0mg"},{"bike_id":"80e63dfc-a645-4d2f-a0b5-3f87a2df0aaa","system_id":"levelo_inurba_marseille","lat":43.24668,"lon":5.38162,"is_reserved":false,"is_disabled":false,"rental_uris":{"android":"levelo://app?vid=80e63dfc-a645-4d2f-a0b5-3f87a2df0aaa","ios":"levelo://app?vid=80e63dfc-a645-4d2f-a0b5-3f87a2df0aaa"},"vehicle_type_id":"4","last_reported":1727003191,"current_range_meters":28000,"station_id":"ce4bhih2rcd13ifvqfr0","pricing_plan_id":"cebpf4jnsgd1na2vs0mg"},{"bike_id":"fd44e78c-b02a-471f-bf37-b0e8fa0bcc9a","system_id":"levelo_inurba_marseille","lat":43.2862,"lon":5.35107,"is_reserved":false,"is_disabled":false,"rental_uris":{"android":"levelo://app?vid=fd44e78c-b02a-471f-bf37-b0e8fa0bcc9a","ios":"levelo://app?vid=fd44e78c-b02a-471f-bf37-b0e8fa0bcc9a"},"vehicle_type_id":"4","last_reported":1727003191,"current_range_meters":8800,"station_id":"ce4bhch2rcd13ifvqeug","pricing_plan_id":"cebpf4jnsgd1na2vs0mg"},{"bike_id":"e8126802-2acb-4ed2-87db-2389929f881f","system_id":"levelo_inurba_marseille","lat":43.28036,"lon":5.36935,"is_reserved":false,"is_disabled":false,"rental_uris":{"android":"levelo://app?vid=e8126802-2acb-4ed2-87db-2389929f881f","ios":"levelo://app?vid=e8126802-2acb-4ed2-87db-2389929f881f"},"vehicle_type_id":"4","last_reported":1727003191,"current_range_meters":4400,"station_id":"ce4bha12rcd13ifvqef0","pricing_plan_id":"cebpf4jnsgd1na2vs0mg"},{"bike_id":"858a807b-f6af-4117-b41e-102011b231f6","system_id":"levelo_inurba_marseille","lat":43.29847,"lon":5.36275,"is_reserved":false,"is_disabled":false,"rental_uris":{"android":"levelo://app?vid=858a807b-f6af-4117-b41e-102011b231f6","ios":"levelo://app?vid=858a807b-f6af-4117-b41e-102011b231f6"},"vehicle_type_id":"4","last_reported":1727003191,"current_range_meters":28000,"station_id":"ce4bgpp2rcd13ifvqc3g","pricing_plan_id":"cebpf4jnsgd1na2vs0mg"},{"bike_id":"fecfa792-a07c-4ec0-81d5-2fe7a6beed2d","system_id":"levelo_inurba_marseille","lat":43.27069,"lon":5.42277,"is_reserved":false,"is_disabled":false,"rental_uris":{"android":"levelo://app?vid=fecfa792-a07c-4ec0-81d5-2fe7a6beed2d","ios":"levelo://app?vid=fecfa792-a07c-4ec0-81d5-2fe7a6beed2d"},"vehicle_type_id":"4","last_reported":1727003191,"current_range_meters":40000,"station_id":"ce4bhk92rcd13ifvqgb0","pricing_plan_id":"cebpf4jnsgd1na2vs0mg"},{"bike_id":"b2763354-ec6c-4733-8de6-6c4493759ae9","system_id":"levelo_inurba_marseille","lat":43.29045,"lon":5.40135,"is_reserved":false,"is_disabled":false,"rental_uris":{"android":"levelo://app?vid=b2763354-ec6c-4733-8de6-6c4493759ae9","ios":"levelo://app?vid=b2763354-ec6c-4733-8de6-6c4493759ae9"},"vehicle_type_id":"4","last_reported":1727003191,"current_range_meters":9200,"station_id":"","pricing_plan_id":"cebpf4jnsgd1na2vs0mg"},{"bike_id":"7b6863dc-176a-4ff3-aa2a-15569d24c629","system_id":"levelo_inurba_marseille","lat":43.306384,"lon":5.372492,"is_reserved":false,"is_disabled":false,"rental_uris":{"android":"levelo://app?vid=7b6863dc-176a-4ff3-aa2a-15569d24c629","ios":"levelo://app?vid=7b6863dc-176a-4ff3-aa2a-15569d24c629"},"vehicle_type_id":"4","last_reported":1727003191,"current_range_meters":17200,"station_id":"ce4bgqh2rcd13ifvqc4g","pricing_plan_id":"cebpf4jnsgd1na2vs0mg"},{"bike_id":"68868192-32a8-4574-9ba9-8b891c1bd3a2","system_id":"levelo_inurba_marseille","lat":43.28935,"lon":5.36637,"is_reserved":false,"is_disabled":false,"rental_uris":{"android":"levelo://app?vid=68868192-32a8-4574-9ba9-8b891c1bd3a2","ios":"levelo://app?vid=68868192-32a8-4574-9ba9-8b891c1bd3a2"},"vehicle_type_id":"4","last_reported":1727003191,"current_range_meters":27200,"station_id":"ce4bhap2rcd13ifvqek0","pricing_plan_id":"cebpf4jnsgd1na2vs0mg"},{"bike_id":"b5312d09-7495-4a11-9270-8b8509805415","system_id":"levelo_inurba_marseille","lat":43.26543,"lon":5.37293,"is_reserved":false,"is_disabled":false,"rental_uris":{"android":"levelo://app?vid=b5312d09-7495-4a11-9270-8b8509805415","ios":"levelo://app?vid=b5312d09-7495-4a11-9270-8b8509805415"},"vehicle_type_id":"4","last_reported":1727003191,"current_range_meters":38000,"station_id":"ce4bhg12rcd13ifvqf70","pricing_plan_id":"cebpf4jnsgd1na2vs0mg"},{"bike_id":"36d2b2a3-9d02-4ab1-8254-fd2a50eb5abb","system_id":"levelo_inurba_marseille","lat":43.324768,"lon":5.365601,"is_reserved":false,"is_disabled":false,"rental_uris":{"android":"levelo://app?vid=36d2b2a3-9d02-4ab1-8254-fd2a50eb5abb","ios":"levelo://app?vid=36d2b2a3-9d02-4ab1-8254-fd2a50eb5abb"},"vehicle_type_id":"4","last_reported":1727003191,"current_range_meters":32800,"station_id":"ce4bhs12rcd13ifvqhvg","pricing_plan_id":"cebpf4jnsgd1na2vs0mg"},{"bike_id":"6e866676-6958-47a0-bba1-aad239c4e52e","system_id":"levelo_inurba_marseille","lat":43.30365,"lon":5.41877,"is_reserved":false,"is_disabled":false,"rental_uris":{"android":"levelo://app?vid=6e866676-6958-47a0-bba1-aad239c4e52e","ios":"levelo://app?vid=6e866676-6958-47a0-bba1-aad239c4e52e"},"vehicle_type_id":"4","last_reported":1727003191,"current_range_meters":21600,"station_id":"ce4bhop2rcd13ifvqh7g","pricing_plan_id":"cebpf4jnsgd1na2vs0mg"},{"bike_id":"d28ffa41-9d7e-41f1-8b70-1aa04f034503","system_id":"levelo_inurba_marseille","lat":43.29553,"lon":5.42283,"is_reserved":false,"is_disabled":false,"rental_uris":{"android":"levelo://app?vid=d28ffa41-9d7e-41f1-8b70-1aa04f034503","ios":"levelo://app?vid=d28ffa41-9d7e-41f1-8b70-1aa04f034503"},"vehicle_type_id":"4","last_reported":1727003191,"current_range_meters":4800,"station_id":"ce4bhph2rcd13ifvqhdg","pricing_plan_id":"cebpf4jnsgd1na2vs0mg"},{"bike_id":"397349b3-2c2d-44e5-a149-6f78c0100682","system_id":"levelo_inurba_marseille","lat":43.232,"lon":5.35556,"is_reserved":false,"is_disabled":false,"rental_uris":{"android":"levelo://app?vid=397349b3-2c2d-44e5-a149-6f78c0100682","ios":"levelo://app?vid=397349b3-2c2d-44e5-a149-6f78c0100682"},"vehicle_type_id":"4","last_reported":1727003191,"current_range_meters":15200,"station_id":"ce4bhu92rcd13ifvqi70","pricing_plan_id":"cebpf4jnsgd1na2vs0mg"},{"bike_id":"df4ce92a-ae0e-4777-82d0-091e1b55722d","system_id":"levelo_inurba_marseille","lat":43.31226,"lon":5.3686,"is_reserved":false,"is_disabled":false,"rental_uris":{"android":"levelo://app?vid=df4ce92a-ae0e-4777-82d0-091e1b55722d","ios":"levelo://app?vid=df4ce92a-ae0e-4777-82d0-091e1b55722d"},"vehicle_type_id":"4","last_reported":1727003191,"current_range_meters":39200,"station_id":"ce4bgl92rcd13ifvqbq0","pricing_plan_id":"cebpf4jnsgd1na2vs0mg"},{"bike_id":"0d8f8a2a-528f-419f-99f4-275ce72b04f1","system_id":"levelo_inurba_marseille","lat":43.282623,"lon":5.350598,"is_reserved":false,"is_disabled":false,"rental_uris":{"android":"levelo://app?vid=0d8f8a2a-528f-419f-99f4-275ce72b04f1","ios":"levelo://app?vid=0d8f8a2a-528f-419f-99f4-275ce72b04f1"},"vehicle_type_id":"4","last_reported":1727003191,"current_range_meters":38000,"station_id":"ce4bhbp2rcd13ifvqerg","pricing_plan_id":"cebpf4jnsgd1na2vs0mg"},{"bike_id":"ad0d865f-dfbe-4f0f-b4e7-7f93dbdf6427","system_id":"levelo_inurba_marseille","lat":43.29608,"lon":5.3772,"is_reserved":false,"is_disabled":false,"rental_uris":{"android":"levelo://app?vid=ad0d865f-dfbe-4f0f-b4e7-7f93dbdf6427","ios":"levelo://app?vid=ad0d865f-dfbe-4f0f-b4e7-7f93dbdf6427"},"vehicle_type_id":"4","last_reported":1727003191,"current_range_meters":38800,"station_id":"ce4bgi92rcd13ifvqb90","pricing_plan_id":"cebpf4jnsgd1na2vs0mg"},{"bike_id":"29c67a37-ee98-40b9-a5bf-565ac75857d1","system_id":"levelo_inurba_marseille","lat":43.30474,"lon":5.37919,"is_reserved":false,"is_disabled":false,"rental_uris":{"android":"levelo://app?vid=29c67a37-ee98-40b9-a5bf-565ac75857d1","ios":"levelo://app?vid=29c67a37-ee98-40b9-a5bf-565ac75857d1"},"vehicle_type_id":"4","last_reported":1727003191,"current_range_meters":32400,"station_id":"ce4bgup2rcd13ifvqcn0","pricing_plan_id":"cebpf4jnsgd1na2vs0mg"},{"bike_id":"fbe4895b-b62a-4fd0-a038-c96afe0bb0f8","system_id":"levelo_inurba_marseille","lat":43.22924,"lon":5.35375,"is_reserved":false,"is_disabled":false,"rental_uris":{"android":"levelo://app?vid=fbe4895b-b62a-4fd0-a038-c96afe0bb0f8","ios":"levelo://app?vid=fbe4895b-b62a-4fd0-a038-c96afe0bb0f8"},"vehicle_type_id":"4","last_reported":1727003191,"current_range_meters":25600,"station_id":"cpo3532slgdg3j2ikp40","pricing_plan_id":"cebpf4jnsgd1na2vs0mg"},{"bike_id":"9012af4f-2140-4c7c-96c2-3a034ae48bb4","system_id":"levelo_inurba_marseille","lat":43.32484,"lon":5.3656,"is_reserved":false,"is_disabled":false,"rental_uris":{"android":"levelo://app?vid=9012af4f-2140-4c7c-96c2-3a034ae48bb4","ios":"levelo://app?vid=9012af4f-2140-4c7c-96c2-3a034ae48bb4"},"vehicle_type_id":"4","last_reported":1727003191,"current_range_meters":37600,"station_id":"ce4bhs12rcd13ifvqhvg","pricing_plan_id":"cebpf4jnsgd1na2vs0mg"},{"bike_id":"3e215b87-0eb3-49a0-9491-ec7c07e98203","system_id":"levelo_inurba_marseille","lat":43.31888,"lon":5.40724,"is_reserved":false,"is_disabled":false,"rental_uris":{"android":"levelo://app?vid=3e215b87-0eb3-49a0-9491-ec7c07e98203","ios":"levelo://app?vid=3e215b87-0eb3-49a0-9491-ec7c07e98203"},"vehicle_type_id":"4","last_reported":1727003191,"current_range_meters":37600,"station_id":"ce4bhq12rcd13ifvqhig","pricing_plan_id":"cebpf4jnsgd1na2vs0mg"},{"bike_id":"7392ef19-f859-4177-a01f-f3ead3c5b4ca","system_id":"levelo_inurba_marseille","lat":43.2962,"lon":5.37154,"is_reserved":false,"is_disabled":false,"rental_uris":{"android":"levelo://app?vid=7392ef19-f859-4177-a01f-f3ead3c5b4ca","ios":"levelo://app?vid=7392ef19-f859-4177-a01f-f3ead3c5b4ca"},"vehicle_type_id":"4","last_reported":1727003191,"current_range_meters":12800,"station_id":"ce4bgnh2rcd13ifvqc0g","pricing_plan_id":"cebpf4jnsgd1na2vs0mg"},{"bike_id":"8372141b-3135-443c-bb78-021ca80ec25c","system_id":"levelo_inurba_marseille","lat":43.28676,"lon":5.38665,"is_reserved":false,"is_disabled":false,"rental_uris":{"android":"levelo://app?vid=8372141b-3135-443c-bb78-021ca80ec25c","ios":"levelo://app?vid=8372141b-3135-443c-bb78-021ca80ec25c"},"vehicle_type_id":"4","last_reported":1727003191,"current_range_meters":24000,"station_id":"ce4bh492rcd13ifvqdug","pricing_plan_id":"cebpf4jnsgd1na2vs0mg"},{"bike_id":"5feb8f9d-df3e-4036-aaa2-6a9de2f6503a","system_id":"levelo_inurba_marseille","lat":43.29902,"lon":5.43672,"is_reserved":false,"is_disabled":false,"rental_uris":{"android":"levelo://app?vid=5feb8f9d-df3e-4036-aaa2-6a9de2f6503a","ios":"levelo://app?vid=5feb8f9d-df3e-4036-aaa2-6a9de2f6503a"},"vehicle_type_id":"4","last_reported":1727003191,"current_range_meters":33200,"station_id":"ce4bhpp2rcd13ifvqhfg","pricing_plan_id":"cebpf4jnsgd1na2vs0mg"},{"bike_id":"99f53e23-5377-48a5-a528-1be46e0a6efd","system_id":"levelo_inurba_marseille","lat":43.29511,"lon":5.36181,"is_reserved":false,"is_disabled":false,"rental_uris":{"android":"levelo://app?vid=99f53e23-5377-48a5-a528-1be46e0a6efd","ios":"levelo://app?vid=99f53e23-5377-48a5-a528-1be46e0a6efd"},"vehicle_type_id":"4","last_reported":1727003191,"current_range_meters":34800,"station_id":"","pricing_plan_id":"cebpf4jnsgd1na2vs0mg"},{"bike_id":"d6f08157-ac7b-413f-8dd4-fe08649ff8f4","system_id":"levelo_inurba_marseille","lat":43.28674,"lon":5.38667,"is_reserved":false,"is_disabled":false,"rental_uris":{"android":"levelo://app?vid=d6f08157-ac7b-413f-8dd4-fe08649ff8f4","ios":"levelo://app?vid=d6f08157-ac7b-413f-8dd4-fe08649ff8f4"},"vehicle_type_id":"4","last_reported":1727003191,"current_range_meters":38000,"station_id":"ce4bh492rcd13ifvqdug","pricing_plan_id":"cebpf4jnsgd1na2vs0mg"},{"bike_id":"6a08fb94-58ce-4e71-b2e9-255d4a6b03ee","system_id":"levelo_inurba_marseille","lat":43.32035,"lon":5.41571,"is_reserved":false,"is_disabled":false,"rental_uris":{"android":"levelo://app?vid=6a08fb94-58ce-4e71-b2e9-255d4a6b03ee","ios":"levelo://app?vid=6a08fb94-58ce-4e71-b2e9-255d4a6b03ee"},"vehicle_type_id":"4","last_reported":1727003191,"current_range_meters":38000,"station_id":"ce4bhq92rcd13ifvqhkg","pricing_plan_id":"cebpf4jnsgd1na2vs0mg"},{"bike_id":"b6309120-084b-4d13-8337-02329fee26f1","system_id":"levelo_inurba_marseille","lat":43.28152,"lon":5.42647,"is_reserved":false,"is_disabled":false,"rental_uris":{"android":"levelo://app?vid=b6309120-084b-4d13-8337-02329fee26f1","ios":"levelo://app?vid=b6309120-084b-4d13-8337-02329fee26f1"},"vehicle_type_id":"4","last_reported":1727003191,"current_range_meters":16800,"station_id":"ce4bhnh2rcd13ifvqgug","pricing_plan_id":"cebpf4jnsgd1na2vs0mg"},{"bike_id":"31444d97-ada7-4c14-9ccc-e8d8f546def7","system_id":"levelo_inurba_marseille","lat":43.26944,"lon":5.36643,"is_reserved":false,"is_disabled":false,"rental_uris":{"android":"levelo://app?vid=31444d97-ada7-4c14-9ccc-e8d8f546def7","ios":"levelo://app?vid=31444d97-ada7-4c14-9ccc-e8d8f546def7"},"vehicle_type_id":"4","last_reported":1727003191,"current_range_meters":4000,"station_id":"","pricing_plan_id":"cebpf4jnsgd1na2vs0mg"},{"bike_id":"e058e179-187d-4f66-83cd-1e9e43f54e52","system_id":"levelo_inurba_marseille","lat":43.297729,"lon":5.372111,"is_reserved":false,"is_disabled":false,"rental_uris":{"android":"levelo://app?vid=e058e179-187d-4f66-83cd-1e9e43f54e52","ios":"levelo://app?vid=e058e179-187d-4f66-83cd-1e9e43f54e52"},"vehicle_type_id":"4","last_reported":1727003191,"current_range_meters":15200,"station_id":"ce4bgop2rcd13ifvqc1g","pricing_plan_id":"cebpf4jnsgd1na2vs0mg"},{"bike_id":"4ee96c7b-3913-4d87-aa10-c04da1f3977e","system_id":"levelo_inurba_marseille","lat":43.29844,"lon":5.36276,"is_reserved":false,"is_disabled":false,"rental_uris":{"android":"levelo://app?vid=4ee96c7b-3913-4d87-aa10-c04da1f3977e","ios":"levelo://app?vid=4ee96c7b-3913-4d87-aa10-c04da1f3977e"},"vehicle_type_id":"4","last_reported":1727003191,"current_range_meters":32000,"station_id":"ce4bgpp2rcd13ifvqc3g","pricing_plan_id":"cebpf4jnsgd1na2vs0mg"},{"bike_id":"a9c824d3-0b71-497d-93e4-b8684acc6f44","system_id":"levelo_inurba_marseille","lat":43.23199,"lon":5.35551,"is_reserved":false,"is_disabled":false,"rental_uris":{"android":"levelo://app?vid=a9c824d3-0b71-497d-93e4-b8684acc6f44","ios":"levelo://app?vid=a9c824d3-0b71-497d-93e4-b8684acc6f44"},"vehicle_type_id":"4","last_reported":1727003191,"current_range_meters":12000,"station_id":"ce4bhu92rcd13ifvqi70","pricing_plan_id":"cebpf4jnsgd1na2vs0mg"},{"bike_id":"7f02c607-826a-4a2a-b6aa-fd3e33f706a0","system_id":"levelo_inurba_marseille","lat":43.25863,"lon":5.39903,"is_reserved":false,"is_disabled":false,"rental_uris":{"android":"levelo://app?vid=7f02c607-826a-4a2a-b6aa-fd3e33f706a0","ios":"levelo://app?vid=7f02c607-826a-4a2a-b6aa-fd3e33f706a0"},"vehicle_type_id":"4","last_reported":1727003191,"current_range_meters":27200,"station_id":"ce4bhl92rcd13ifvqghg","pricing_plan_id":"cebpf4jnsgd1na2vs0mg"},{"bike_id":"a94bcfc4-fb99-4e59-88f0-6e34ce892fbe","system_id":"levelo_inurba_marseille","lat":43.24173,"lon":5.3973,"is_reserved":false,"is_disabled":false,"rental_uris":{"android":"levelo://app?vid=a94bcfc4-fb99-4e59-88f0-6e34ce892fbe","ios":"levelo://app?vid=a94bcfc4-fb99-4e59-88f0-6e34ce892fbe"},"vehicle_type_id":"4","last_reported":1727003191,"current_range_meters":38400,"station_id":"ce4bhn12rcd13ifvqgpg","pricing_plan_id":"cebpf4jnsgd1na2vs0mg"},{"bike_id":"ccf4dbef-8067-46ba-b92c-86288acf98d9","system_id":"levelo_inurba_marseille","lat":43.26933,"lon":5.38915,"is_reserved":false,"is_disabled":false,"rental_uris":{"android":"levelo://app?vid=ccf4dbef-8067-46ba-b92c-86288acf98d9","ios":"levelo://app?vid=ccf4dbef-8067-46ba-b92c-86288acf98d9"},"vehicle_type_id":"4","last_reported":1727003191,"current_range_meters":9200,"station_id":"ce4bhhh2rcd13ifvqfl0","pricing_plan_id":"cebpf4jnsgd1na2vs0mg"},{"bike_id":"3dea8802-3cab-432d-baa1-c1a12ec9ffa4","system_id":"levelo_inurba_marseille","lat":43.31883,"lon":5.40743,"is_reserved":false,"is_disabled":false,"rental_uris":{"android":"levelo://app?vid=3dea8802-3cab-432d-baa1-c1a12ec9ffa4","ios":"levelo://app?vid=3dea8802-3cab-432d-baa1-c1a12ec9ffa4"},"vehicle_type_id":"4","last_reported":1727003191,"current_range_meters":39200,"station_id":"ce4bhq12rcd13ifvqhig","pricing_plan_id":"cebpf4jnsgd1na2vs0mg"},{"bike_id":"22402a9b-b95e-4eaa-8764-9794e83700f8","system_id":"levelo_inurba_marseille","lat":43.33023,"lon":5.39035,"is_reserved":false,"is_disabled":false,"rental_uris":{"android":"levelo://app?vid=22402a9b-b95e-4eaa-8764-9794e83700f8","ios":"levelo://app?vid=22402a9b-b95e-4eaa-8764-9794e83700f8"},"vehicle_type_id":"4","last_reported":1727003191,"current_range_meters":17600,"station_id":"ce4bhr92rcd13ifvqhrg","pricing_plan_id":"cebpf4jnsgd1na2vs0mg"},{"bike_id":"98874f06-8181-4522-9709-24409190a39a","system_id":"levelo_inurba_marseille","lat":43.303686,"lon":5.369069,"is_reserved":false,"is_disabled":false,"rental_uris":{"android":"levelo://app?vid=98874f06-8181-4522-9709-24409190a39a","ios":"levelo://app?vid=98874f06-8181-4522-9709-24409190a39a"},"vehicle_type_id":"4","last_reported":1727003191,"current_range_meters":26800,"station_id":"ce4bgpp2rcd13ifvqc3g","pricing_plan_id":"cebpf4jnsgd1na2vs0mg"},{"bike_id":"ecd87928-9ce4-40b2-bd15-1cb3e0aae524","system_id":"levelo_inurba_marseille","lat":43.24172,"lon":5.36394,"is_reserved":false,"is_disabled":false,"rental_uris":{"android":"levelo://app?vid=ecd87928-9ce4-40b2-bd15-1cb3e0aae524","ios":"levelo://app?vid=ecd87928-9ce4-40b2-bd15-1cb3e0aae524"},"vehicle_type_id":"4","last_reported":1727003191,"current_range_meters":34000,"station_id":"cpo36qri1sfpv3e86is0","pricing_plan_id":"cebpf4jnsgd1na2vs0mg"},{"bike_id":"d323bc23-4105-4d98-87ab-fb3899c88f8a","system_id":"levelo_inurba_marseille","lat":43.23191,"lon":5.3555,"is_reserved":false,"is_disabled":false,"rental_uris":{"android":"levelo://app?vid=d323bc23-4105-4d98-87ab-fb3899c88f8a","ios":"levelo://app?vid=d323bc23-4105-4d98-87ab-fb3899c88f8a"},"vehicle_type_id":"4","last_reported":1727003191,"current_range_meters":32400,"station_id":"ce4bhu92rcd13ifvqi70","pricing_plan_id":"cebpf4jnsgd1na2vs0mg"},{"bike_id":"c206a849-be2c-41c0-a6fd-48f1882a7fea","system_id":"levelo_inurba_marseille","lat":43.30777,"lon":5.37657,"is_reserved":false,"is_disabled":false,"rental_uris":{"android":"levelo://app?vid=c206a849-be2c-41c0-a6fd-48f1882a7fea","ios":"levelo://app?vid=c206a849-be2c-41c0-a6fd-48f1882a7fea"},"vehicle_type_id":"4","last_reported":1727003191,"current_range_meters":39200,"station_id":"ce4bgv92rcd13ifvqcq0","pricing_plan_id":"cebpf4jnsgd1na2vs0mg"},{"bike_id":"fe68cda5-e3ac-4f57-b4f0-d0efd1623600","system_id":"levelo_inurba_marseille","lat":43.25119,"lon":5.40315,"is_reserved":false,"is_disabled":false,"rental_uris":{"android":"levelo://app?vid=fe68cda5-e3ac-4f57-b4f0-d0efd1623600","ios":"levelo://app?vid=fe68cda5-e3ac-4f57-b4f0-d0efd1623600"},"vehicle_type_id":"4","last_reported":1727003191,"current_range_meters":22400,"station_id":"ce4bhlh2rcd13ifvqgig","pricing_plan_id":"cebpf4jnsgd1na2vs0mg"},{"bike_id":"31fae4fb-ba76-471b-b0ea-42090c6f8bc7","system_id":"levelo_inurba_marseille","lat":43.28696,"lon":5.37397,"is_reserved":false,"is_disabled":false,"rental_uris":{"android":"levelo://app?vid=31fae4fb-ba76-471b-b0ea-42090c6f8bc7","ios":"levelo://app?vid=31fae4fb-ba76-471b-b0ea-42090c6f8bc7"},"vehicle_type_id":"4","last_reported":1727003191,"current_range_meters":36000,"station_id":"ce4bh3p2rcd13ifvqdq0","pricing_plan_id":"cebpf4jnsgd1na2vs0mg"},{"bike_id":"8c95e4dd-dcfd-43d4-9a20-cea16208859d","system_id":"levelo_inurba_marseille","lat":43.25012,"lon":5.38913,"is_reserved":false,"is_disabled":false,"rental_uris":{"android":"levelo://app?vid=8c95e4dd-dcfd-43d4-9a20-cea16208859d","ios":"levelo://app?vid=8c95e4dd-dcfd-43d4-9a20-cea16208859d"},"vehicle_type_id":"4","last_reported":1727003191,"current_range_meters":26800,"station_id":"ce4bhgp2rcd13ifvqfd0","pricing_plan_id":"cebpf4jnsgd1na2vs0mg"},{"bike_id":"5de90350-eece-4dc9-8c24-5e5f8a365ac4","system_id":"levelo_inurba_marseille","lat":43.30796,"lon":5.43526,"is_reserved":false,"is_disabled":false,"rental_uris":{"android":"levelo://app?vid=5de90350-eece-4dc9-8c24-5e5f8a365ac4","ios":"levelo://app?vid=5de90350-eece-4dc9-8c24-5e5f8a365ac4"},"vehicle_type_id":"4","last_reported":1727003191,"current_range_meters":38800,"station_id":"ce4bhph2rcd13ifvqheg","pricing_plan_id":"cebpf4jnsgd1na2vs0mg"},{"bike_id":"300a05c3-f6bc-46b6-8922-dd4da98a3864","system_id":"levelo_inurba_marseille","lat":43.29204,"lon":5.39322,"is_reserved":false,"is_disabled":false,"rental_uris":{"android":"levelo://app?vid=300a05c3-f6bc-46b6-8922-dd4da98a3864","ios":"levelo://app?vid=300a05c3-f6bc-46b6-8922-dd4da98a3864"},"vehicle_type_id":"4","last_reported":1727003191,"current_range_meters":28800,"station_id":"ce4bh192rcd13ifvqdd0","pricing_plan_id":"cebpf4jnsgd1na2vs0mg"},{"bike_id":"0d6a39c3-296c-4f54-988b-2404fa27160b","system_id":"levelo_inurba_marseille","lat":43.28611,"lon":5.35102,"is_reserved":false,"is_disabled":false,"rental_uris":{"android":"levelo://app?vid=0d6a39c3-296c-4f54-988b-2404fa27160b","ios":"levelo://app?vid=0d6a39c3-296c-4f54-988b-2404fa27160b"},"vehicle_type_id":"4","last_reported":1727003191,"current_range_meters":9200,"station_id":"ce4bhch2rcd13ifvqeug","pricing_plan_id":"cebpf4jnsgd1na2vs0mg"},{"bike_id":"e6b1ffa3-901b-4713-95c3-c60c9a38acdc","system_id":"levelo_inurba_marseille","lat":43.23149,"lon":5.43716,"is_reserved":false,"is_disabled":false,"rental_uris":{"android":"levelo://app?vid=e6b1ffa3-901b-4713-95c3-c60c9a38acdc","ios":"levelo://app?vid=e6b1ffa3-901b-4713-95c3-c60c9a38acdc"},"vehicle_type_id":"4","last_reported":1727003191,"current_range_meters":2800,"station_id":"ce4bhmp2rcd13ifvqgog","pricing_plan_id":"cebpf4jnsgd1na2vs0mg"},{"bike_id":"67ebb3ff-0403-4613-b3a3-b0d8d8dca9fd","system_id":"levelo_inurba_marseille","lat":43.26546,"lon":5.37287,"is_reserved":false,"is_disabled":false,"rental_uris":{"android":"levelo://app?vid=67ebb3ff-0403-4613-b3a3-b0d8d8dca9fd","ios":"levelo://app?vid=67ebb3ff-0403-4613-b3a3-b0d8d8dca9fd"},"vehicle_type_id":"4","last_reported":1727003191,"current_range_meters":38000,"station_id":"ce4bhg12rcd13ifvqf70","pricing_plan_id":"cebpf4jnsgd1na2vs0mg"},{"bike_id":"36dc71fe-bfc9-4a4d-b2ef-39ebb067c458","system_id":"levelo_inurba_marseille","lat":43.29554,"lon":5.42285,"is_reserved":false,"is_disabled":false,"rental_uris":{"android":"levelo://app?vid=36dc71fe-bfc9-4a4d-b2ef-39ebb067c458","ios":"levelo://app?vid=36dc71fe-bfc9-4a4d-b2ef-39ebb067c458"},"vehicle_type_id":"4","last_reported":1727003191,"current_range_meters":38000,"station_id":"ce4bhph2rcd13ifvqhdg","pricing_plan_id":"cebpf4jnsgd1na2vs0mg"},{"bike_id":"e4df69c0-9834-4dbd-be9f-50643558cc7b","system_id":"levelo_inurba_marseille","lat":43.255829,"lon":5.382252,"is_reserved":false,"is_disabled":false,"rental_uris":{"android":"levelo://app?vid=e4df69c0-9834-4dbd-be9f-50643558cc7b","ios":"levelo://app?vid=e4df69c0-9834-4dbd-be9f-50643558cc7b"},"vehicle_type_id":"4","last_reported":1727003191,"current_range_meters":18000,"station_id":"ce4bgi12rcd13ifvqb70","pricing_plan_id":"cebpf4jnsgd1na2vs0mg"},{"bike_id":"15d96cbf-d6d6-422a-bf67-8a42c4d7d8d2","system_id":"levelo_inurba_marseille","lat":43.28153,"lon":5.42649,"is_reserved":false,"is_disabled":false,"rental_uris":{"android":"levelo://app?vid=15d96cbf-d6d6-422a-bf67-8a42c4d7d8d2","ios":"levelo://app?vid=15d96cbf-d6d6-422a-bf67-8a42c4d7d8d2"},"vehicle_type_id":"4","last_reported":1727003191,"current_range_meters":32000,"station_id":"ce4bhnh2rcd13ifvqgug","pricing_plan_id":"cebpf4jnsgd1na2vs0mg"},{"bike_id":"baad33e0-e11d-4e13-9910-d7ae58107e3b","system_id":"levelo_inurba_marseille","lat":43.32106,"lon":5.36772,"is_reserved":false,"is_disabled":false,"rental_uris":{"android":"levelo://app?vid=baad33e0-e11d-4e13-9910-d7ae58107e3b","ios":"levelo://app?vid=baad33e0-e11d-4e13-9910-d7ae58107e3b"},"vehicle_type_id":"4","last_reported":1727003191,"current_range_meters":36400,"station_id":"","pricing_plan_id":"cebpf4jnsgd1na2vs0mg"},