{"last_updated":1706595005,"ttl":30,"version":"2.2","data":{"bikes":[{"bike_id":"c59666fe-f143-4f0f-9943-a8fe23f2be9a","system_id":"levelo_inurba_marseille","lat":43.31341,"lon":5.367098,"is_reserved":false,"is_disabled":false,"rental_uris":{"android":"levelo://app?vid=c59666fe-f143-4f0f-9943-a8fe23f2be9a","ios":"levelo://app?vid=c59666fe-f143-4f0f-9943-a8fe23f2be9a"},"vehicle_type_id":"4","last_reported":1706595005,"current_range_meters":25200,"station_id":"ce4bgr92rcd13ifvqc6g","pricing_plan_id":"free"},{"bike_id":"cf35238b-c5c9-4e91-809c-0620fb14c69f","system_id":"levelo_inurba_marseille","lat":43.313391,"lon":5.36706,"is_reserved":false,"is_disabled":false,"rental_uris":{"android":"levelo://app?vid=cf35238b-c5c9-4e91-809c-0620fb14c69f","ios":"levelo://app?vid=cf35238b-c5c9-4e91-809c-0620fb14c69f"},"vehicle_type_id":"4","last_reported":1706595005,"current_range_meters":29600,"station_id":"ce4bgr92rcd13ifvqc6g","pricing_plan_id":"free"},{"bike_id":"884b8082-9b1c-425c-b66c-55a0b2881160","system_id":"levelo_inurba_marseille","lat":43.313391,"lon":5.36706,"is_reserved":false,"is_disabled":false,"rental_uris":{"android":"levelo://app?vid=884b8082-9b1c-425c-b66c-55a0b2881160","ios":"levelo://app?vid=884b8082-9b1c-425c-b66c-55a0b2881160"},"vehicle_type_id":"4","last_reported":1706595005,"current_range_meters":19200,"station_id":"ce4bgr92rcd13ifvqc6g","pricing_plan_id":"free"},{"bike_id":"904180c3-1285-421d-9e62-de9b0b90ac55","system_id":"levelo_inurba_marseille","lat":43.312239,"lon":5.368562,"is_reserved":false,"is_disabled":false,"rental_uris":{"android":"levelo://app?vid=904180c3-1285-421d-9e62-de9b0b90ac55","ios":"levelo://app?vid=904180c3-1285-421d-9e62-de9b0b90ac55"},"vehicle_type_id":"4","last_reported":1706595005,"current_range_meters":22800,"station_id":"ce4bgl92rcd13ifvqbq0","pricing_plan_id":"free"},{"bike_id":"c1b08b31-cd84-4149-97d6-bd86833f0645","system_id":"levelo_inurba_marseille","lat":43.314811,"lon":5.373103,"is_reserved":false,"is_disabled":false,"rental_uris":{"android":"levelo://app?vid=c1b08b31-cd84-4149-97d6-bd86833f0645","ios":"levelo://app?vid=c1b08b31-cd84-4149-97d6-bd86833f0645"},"vehicle_type_id":"4","last_reported":1706595005,"current_range_meters":0,"station_id":"ce4bgt12rcd13ifvqcd0","pricing_plan_id":"free"},{"bike_id":"0c48428f-9da4-40e1-9012-4425d1ee1338","system_id":"levelo_inurba_marseille","lat":43.314811,"lon":5.373103,"is_reserved":false,"is_disabled":false,"rental_uris":{"android":"levelo://app?vid=0c48428f-9da4-40e1-9012-4425d1ee1338","ios":"levelo://app?vid=0c48428f-9da4-40e1-9012-4425d1ee1338"},"vehicle_type_id":"4","last_reported":1706595005,"current_range_meters":30000,"station_id":"ce4bgt12rcd13ifvqcd0","pricing_plan_id":"free"},{"bike_id":"a6ef611a-1b75-41d5-85ef-c6f569fdef5d","system_id":"levelo_inurba_marseille","lat":43.314811,"lon":5.373104,"is_reserved":false,"is_disabled":false,"rental_uris":{"android":"levelo://app?vid=a6ef611a-1b75-41d5-85ef-c6f569fdef5d","ios":"levelo://app?vid=a6ef611a-1b75-41d5-85ef-c6f569fdef5d"},"vehicle_type_id":"4","last_reported":1706595005,"current_range_meters":28000,"station_id":"ce4bgt12rcd13ifvqcd0","pricing_plan_id":"free"},{"bike_id":"26cc001f-a25f-4520-9d18-344ed3020632","system_id":"levelo_inurba_marseille","lat":43.31499,"lon":5.372995,"is_reserved":false,"is_disabled":false,"rental_uris":{"android":"levelo://app?vid=26cc001f-a25f-4520-9d18-344ed3020632","ios":"levelo://app?vid=26cc001f-a25f-4520-9d18-344ed3020632"},"vehicle_type_id":"4","last_reported":1706595005,"current_range_meters":28400,"station_id":"ce4bgt12rcd13ifvqcd0","pricing_plan_id":"free"},{"bike_id":"5b62cb17-8b5a-4990-8c7d-6aa82aa649fe","system_id":"levelo_inurba_marseille","lat":43.31499,"lon":5.37301,"is_reserved":false,"is_disabled":false,"rental_uris":{"android":"levelo://app?vid=5b62cb17-8b5a-4990-8c7d-6aa82aa649fe","ios":"levelo://app?vid=5b62cb17-8b5a-4990-8c7d-6aa82aa649fe"},"vehicle_type_id":"4","last_reported":1706595005,"current_range_meters":2800,"station_id":"ce4bgt12rcd13ifvqcd0","pricing_plan_id":"free"},{"bike_id":"a9afed67-70a7-4480-b19b-770bd494df34","system_id":"levelo_inurba_marseille","lat":43.314811,"lon":5.373104,"is_reserved":false,"is_disabled":false,"rental_uris":{"android":"levelo://app?vid=a9afed67-70a7-4480-b19b-770bd494df34","ios":"levelo://app?vid=a9afed67-70a7-4480-b19b-770bd494df34"},"vehicle_type_id":"4","last_reported":1706595005,"current_range_meters":30400,"station_id":"ce4bgt12rcd13ifvqcd0","pricing_plan_id":"free"},{"bike_id":"8ae8698b-d730-4392-a686-8d078966890f","system_id":"levelo_inurba_marseille","lat":43.30638,"lon":5.36759,"is_reserved":false,"is_disabled":false,"rental_uris":{"android":"levelo://app?vid=8ae8698b-d730-4392-a686-8d078966890f","ios":"levelo://app?vid=8ae8698b-d730-4392-a686-8d078966890f"},"vehicle_type_id":"4","last_reported":1706595005,"current_range_meters":27200,"station_id":"","pricing_plan_id":"free"},{"bike_id":"abcf5371-6d0a-4015-acdb-46ec28dc96a6","system_id":"levelo_inurba_marseille","lat":43.305706,"lon":5.365654,"is_reserved":false,"is_disabled":false,"rental_uris":{"android":"levelo://app?vid=abcf5371-6d0a-4015-acdb-46ec28dc96a6","ios":"levelo://app?vid=abcf5371-6d0a-4015-acdb-46ec28dc96a6"},"vehicle_type_id":"4","last_reported":1706595005,"current_range_meters":1600,"station_id":"ce4bgs12rcd13ifvqcag","pricing_plan_id":"free"},{"bike_id":"f166a138-9df1-47b3-b006-b3e03feda5f7","system_id":"levelo_inurba_marseille","lat":43.311131,"lon":5.377651,"is_reserved":false,"is_disabled":false,"rental_uris":{"android":"levelo://app?vid=f166a138-9df1-47b3-b006-b3e03feda5f7","ios":"levelo://app?vid=f166a138-9df1-47b3-b006-b3e03feda5f7"},"vehicle_type_id":"4","last_reported":1706595005,"current_range_meters":21600,"station_id":"ce4bgt92rcd13ifvqcg0","pricing_plan_id":"free"},{"bike_id":"79b19cf8-8147-46a9-85a1-0748173686a6","system_id":"levelo_inurba_marseille","lat":43.3078,"lon":5.37649,"is_reserved":false,"is_disabled":false,"rental_uris":{"android":"levelo://app?vid=79b19cf8-8147-46a9-85a1-0748173686a6","ios":"levelo://app?vid=79b19cf8-8147-46a9-85a1-0748173686a6"},"vehicle_type_id":"4","last_reported":1706595005,"current_range_meters":24400,"station_id":"ce4bgv92rcd13ifvqcq0","pricing_plan_id":"free"},{"bike_id":"2922fc37-4f6a-4723-9a4b-016c2aa35474","system_id":"levelo_inurba_marseille","lat":43.317075,"lon":5.377367,"is_reserved":false,"is_disabled":false,"rental_uris":{"android":"levelo://app?vid=2922fc37-4f6a-4723-9a4b-016c2aa35474","ios":"levelo://app?vid=2922fc37-4f6a-4723-9a4b-016c2aa35474"},"vehicle_type_id":"4","last_reported":1706595005,"current_range_meters":26800,"station_id":"ce4bgth2rcd13ifvqch0","pricing_plan_id":"free"},{"bike_id":"95c36aad-c68d-476c-86fc-d1086bdd8265","system_id":"levelo_inurba_marseille","lat":43.30317,"lon":5.36896,"is_reserved":false,"is_disabled":false,"rental_uris":{"android":"levelo://app?vid=95c36aad-c68d-476c-86fc-d1086bdd8265","ios":"levelo://app?vid=95c36aad-c68d-476c-86fc-d1086bdd8265"},"vehicle_type_id":"4","last_reported":1706595005,"current_range_meters":9600,"station_id":"ce4bgqh2rcd13ifvqc5g","pricing_plan_id":"free"},{"bike_id":"78331664-9b25-472a-85e9-f61051304054","system_id":"levelo_inurba_marseille","lat":43.315293,"lon":5.380349,"is_reserved":false,"is_disabled":false,"rental_uris":{"android":"levelo://app?vid=78331664-9b25-472a-85e9-f61051304054","ios":"levelo://app?vid=78331664-9b25-472a-85e9-f61051304054"},"vehicle_type_id":"4","last_reported":1706595005,"current_range_meters":2800,"station_id":"ce4bhsp2rcd13ifvqi50","pricing_plan_id":"free"},{"bike_id":"37063afc-ca69-478b-9e65-92a07492042c","system_id":"levelo_inurba_marseille","lat":43.308012,"lon":5.381511,"is_reserved":false,"is_disabled":false,"rental_uris":{"android":"levelo://app?vid=37063afc-ca69-478b-9e65-92a07492042c","ios":"levelo://app?vid=37063afc-ca69-478b-9e65-92a07492042c"},"vehicle_type_id":"4","last_reported":1706595005,"current_range_meters":27200,"station_id":"ce4bgt12rcd13ifvqce0","pricing_plan_id":"free"},{"bike_id":"38ca42ab-a035-4108-a09b-5f59e7e51e4f","system_id":"levelo_inurba_marseille","lat":43.304606,"lon":5.379026,"is_reserved":false,"is_disabled":false,"rental_uris":{"android":"levelo://app?vid=38ca42ab-a035-4108-a09b-5f59e7e51e4f","ios":"levelo://app?vid=38ca42ab-a035-4108-a09b-5f59e7e51e4f"},"vehicle_type_id":"4","last_reported":1706595005,"current_range_meters":25600,"station_id":"ce4bgup2rcd13ifvqcn0","pricing_plan_id":"free"},{"bike_id":"41a2f018-69ed-41b9-8d08-0b2e99d6326e","system_id":"levelo_inurba_marseille","lat":43.304606,"lon":5.379026,"is_reserved":false,"is_disabled":false,"rental_uris":{"android":"levelo://app?vid=41a2f018-69ed-41b9-8d08-0b2e99d6326e","ios":"levelo://app?vid=41a2f018-69ed-41b9-8d08-0b2e99d6326e"},"vehicle_type_id":"4","last_reported":1706595005,"current_range_meters":25600,"station_id":"ce4bgup2rcd13ifvqcn0","pricing_plan_id":"free"},{"bike_id":"dd323140-ec8c-4f06-9326-b47aa150a4f5","system_id":"levelo_inurba_marseille","lat":43.304606,"lon":5.379026,"is_reserved":false,"is_disabled":false,"rental_uris":{"android":"levelo://app?vid=dd323140-ec8c-4f06-9326-b47aa150a4f5","ios":"levelo://app?vid=dd323140-ec8c-4f06-9326-b47aa150a4f5"},"vehicle_type_id":"4","last_reported":1706595005,"current_range_meters":29600,"station_id":"ce4bgup2rcd13ifvqcn0","pricing_plan_id":"free"},{"bike_id":"6e141f13-00a4-42d4-bff9-c2e84fb2ad34","system_id":"levelo_inurba_marseille","lat":43.30461,"lon":5.37898,"is_reserved":false,"is_disabled":false,"rental_uris":{"android":"levelo://app?vid=6e141f13-00a4-42d4-bff9-c2e84fb2ad34","ios":"levelo://app?vid=6e141f13-00a4-42d4-bff9-c2e84fb2ad34"},"vehicle_type_id":"4","last_reported":1706595005,"current_range_meters":25200,"station_id":"ce4bgup2rcd13ifvqcn0","pricing_plan_id":"free"},{"bike_id":"e29a4a4c-0035-4261-b24a-ad82b3cfaec9","system_id":"levelo_inurba_marseille","lat":43.304606,"lon":5.379026,"is_reserved":false,"is_disabled":false,"rental_uris":{"android":"levelo://app?vid=e29a4a4c-0035-4261-b24a-ad82b3cfaec9","ios":"levelo://app?vid=e29a4a4c-0035-4261-b24a-ad82b3cfaec9"},"vehicle_type_id":"4","last_reported":1706595005,"current_range_meters":21200,"station_id":"ce4bgup2rcd13ifvqcn0","pricing_plan_id":"free"},{"bike_id":"3cfd7528-cc90-4084-8853-206e9fe0b672","system_id":"levelo_inurba_marseille","lat":43.304606,"lon":5.379026,"is_reserved":false,"is_disabled":false,"rental_uris":{"android":"levelo://app?vid=3cfd7528-cc90-4084-8853-206e9fe0b672","ios":"levelo://app?vid=3cfd7528-cc90-4084-8853-206e9fe0b672"},"vehicle_type_id":"4","last_reported":1706595005,"current_range_meters":2400,"station_id":"ce4bgup2rcd13ifvqcn0","pricing_plan_id":"free"},{"bike_id":"88c25e20-0586-40e3-9f2e-62dd512c2eb5","system_id":"levelo_inurba_marseille","lat":43.304606,"lon":5.379026,"is_reserved":false,"is_disabled":false,"rental_uris":{"android":"levelo://app?vid=88c25e20-0586-40e3-9f2e-62dd512c2eb5","ios":"levelo://app?vid=88c25e20-0586-40e3-9f2e-62dd512c2eb5"},"vehicle_type_id":"4","last_reported":1706595005,"current_range_meters":11200,"station_id":"ce4bgup2rcd13ifvqcn0","pricing_plan_id":"free"},{"bike_id":"fa63d69a-bc87-4f4f-8712-71569835a74e","system_id":"levelo_inurba_marseille","lat":43.30459,"lon":5.37898,"is_reserved":false,"is_disabled":false,"rental_uris":{"android":"levelo://app?vid=fa63d69a-bc87-4f4f-8712-71569835a74e","ios":"levelo://app?vid=fa63d69a-bc87-4f4f-8712-71569835a74e"},"vehicle_type_id":"4","last_reported":1706595005,"current_range_meters":19200,"station_id":"ce4bgup2rcd13ifvqcn0","pricing_plan_id":"free"},{"bike_id":"356243fa-6b22-4533-9b83-1ce6ad52bebc","system_id":"levelo_inurba_marseille","lat":43.304606,"lon":5.379026,"is_reserved":false,"is_disabled":false,"rental_uris":{"android":"levelo://app?vid=356243fa-6b22-4533-9b83-1ce6ad52bebc","ios":"levelo://app?vid=356243fa-6b22-4533-9b83-1ce6ad52bebc"},"vehicle_type_id":"4","last_reported":1706595005,"current_range_meters":22800,"station_id":"ce4bgup2rcd13ifvqcn0","pricing_plan_id":"free"},{"bike_id":"d961a4ba-30c1-4c4d-8c61-7396cf6da956","system_id":"levelo_inurba_marseille","lat":43.304606,"lon":5.379026,"is_reserved":false,"is_disabled":false,"rental_uris":{"android":"levelo://app?vid=d961a4ba-30c1-4c4d-8c61-7396cf6da956","ios":"levelo://app?vid=d961a4ba-30c1-4c4d-8c61-7396cf6da956"},"vehicle_type_id":"4","last_reported":1706595005,"current_range_meters":30800,"station_id":"ce4bgup2rcd13ifvqcn0","pricing_plan_id":"free"},{"bike_id":"4e3a2677-5b85-4f9d-bab4-7897196cb223","system_id":"levelo_inurba_marseille","lat":43.304606,"lon":5.379026,"is_reserved":false,"is_disabled":false,"rental_uris":{"android":"levelo://app?vid=4e3a2677-5b85-4f9d-bab4-7897196cb223","ios":"levelo://app?vid=4e3a2677-5b85-4f9d-bab4-7897196cb223"},"vehicle_type_id":"4","last_reported":1706595005,"current_range_meters":20800,"station_id":"ce4bgup2rcd13ifvqcn0","pricing_plan_id":"free"},{"bike_id":"61df1b91-c6b8-4c53-b6b6-b32c443dc5b5","system_id":"levelo_inurba_marseille","lat":43.304606,"lon":5.379026,"is_reserved":false,"is_disabled":false,"rental_uris":{"android":"levelo://app?vid=61df1b91-c6b8-4c53-b6b6-b32c443dc5b5","ios":"levelo://app?vid=61df1b91-c6b8-4c53-b6b6-b32c443dc5b5"},"vehicle_type_id":"4","last_reported":1706595005,"current_range_meters":18000,"station_id":"ce4bgup2rcd13ifvqcn0","pricing_plan_id":"free"},{"bike_id":"60c90dbe-295a-4288-b0e8-5adce118b6fa","system_id":"levelo_inurba_marseille","lat":43.304606,"lon":5.379026,"is_reserved":false,"is_disabled":false,"rental_uris":{"android":"levelo://app?vid=60c90dbe-295a-4288-b0e8-5adce118b6fa","ios":"levelo://app?vid=60c90dbe-295a-4288-b0e8-5adce118b6fa"},"vehicle_type_id":"4","last_reported":1706595005,"current_range_meters":22800,"station_id":"ce4bgup2rcd13ifvqcn0","pricing_plan_id":"free"},{"bike_id":"f32aadba-d4a5-43db-8421-98edaa55e5e6","system_id":"levelo_inurba_marseille","lat":43.304606,"lon":5.379026,"is_reserved":false,"is_disabled":false,"rental_uris":{"android":"levelo://app?vid=f32aadba-d4a5-43db-8421-98edaa55e5e6","ios":"levelo://app?vid=f32aadba-d4a5-43db-8421-98edaa55e5e6"},"vehicle_type_id":"4","last_reported":1706595005,"current_range_meters":3200,"station_id":"ce4bgup2rcd13ifvqcn0","pricing_plan_id":"free"},{"bike_id":"86608ca0-f4c9-4723-8878-82b9c9cf377d","system_id":"levelo_inurba_marseille","lat":43.304606,"lon":5.379026,"is_reserved":false,"is_disabled":false,"rental_uris":{"android":"levelo://app?vid=86608ca0-f4c9-4723-8878-82b9c9cf377d","ios":"levelo://app?vid=86608ca0-f4c9-4723-8878-82b9c9cf377d"},"vehicle_type_id":"4","last_reported":1706595005,"current_range_meters":26000,"station_id":"ce4bgup2rcd13ifvqcn0","pricing_plan_id":"free"},{"bike_id":"987456e9-0b51-4501-a865-2045ba7c3b72","system_id":"levelo_inurba_marseille","lat":43.304606,"lon":5.379026,"is_reserved":false,"is_disabled":false,"rental_uris":{"android":"levelo://app?vid=987456e9-0b51-4501-a865-2045ba7c3b72","ios":"levelo://app?vid=987456e9-0b51-4501-a865-2045ba7c3b72"},"vehicle_type_id":"4","last_reported":1706595005,"current_range_meters":29600,"station_id":"ce4bgup2rcd13ifvqcn0","pricing_plan_id":"free"},{"bike_id":"32b2b547-116b-45ca-85cf-22d9f58ee6d0","system_id":"levelo_inurba_marseille","lat":43.304606,"lon":5.379026,"is_reserved":false,"is_disabled":false,"rental_uris":{"android":"levelo://app?vid=32b2b547-116b-45ca-85cf-22d9f58ee6d0","ios":"levelo://app?vid=32b2b547-116b-45ca-85cf-22d9f58ee6d0"},"vehicle_type_id":"4","last_reported":1706595005,"current_range_meters":26800,"station_id":"ce4bgup2rcd13ifvqcn0","pricing_plan_id":"free"},{"bike_id":"959a8a48-a368-4815-8975-74d32f8b27e9","system_id":"levelo_inurba_marseille","lat":43.304606,"lon":5.379026,"is_reserved":false,"is_disabled":false,"rental_uris":{"android":"levelo://app?vid=959a8a48-a368-4815-8975-74d32f8b27e9","ios":"levelo://app?vid=959a8a48-a368-4815-8975-74d32f8b27e9"},"vehicle_type_id":"4","last_reported":1706595005,"current_range_meters":23200,"station_id":"ce4bgup2rcd13ifvqcn0","pricing_plan_id":"free"},{"bike_id":"bcf448ab-4bcc-469b-8508-b12b0e8428fb","system_id":"levelo_inurba_marseille","lat":43.304606,"lon":5.379026,"is_reserved":false,"is_disabled":false,"rental_uris":{"android":"levelo://app?vid=bcf448ab-4bcc-469b-8508-b12b0e8428fb","ios":"levelo://app?vid=bcf448ab-4bcc-469b-8508-b12b0e8428fb"},"vehicle_type_id":"4","last_reported":1706595005,"current_range_meters":11200,"station_id":"ce4bgup2rcd13ifvqcn0","pricing_plan_id":"free"},{"bike_id":"fbdd8818-18df-4e80-8577-72ea893d0af3","system_id":"levelo_inurba_marseille","lat":43.304606,"lon":5.379026,"is_reserved":false,"is_disabled":false,"rental_uris":{"android":"levelo://app?vid=fbdd8818-18df-4e80-8577-72ea893d0af3","ios":"levelo://app?vid=fbdd8818-18df-4e80-8577-72ea893d0af3"},"vehicle_type_id":"4","last_reported":1706595005,"current_range_meters":19200,"station_id":"ce4bgup2rcd13ifvqcn0","pricing_plan_id":"free"},{"bike_id":"2d40c143-6cb5-4df6-a200-396289dcd0f5","system_id":"levelo_inurba_marseille","lat":43.324771,"lon":5.36557,"is_reserved":false,"is_disabled":false,"rental_uris":{"android":"levelo://app?vid=2d40c143-6cb5-4df6-a200-396289dcd0f5","ios":"levelo://app?vid=2d40c143-6cb5-4df6-a200-396289dcd0f5"},"vehicle_type_id":"4","last_reported":1706595005,"current_range_meters":31200,"station_id":"ce4bhs12rcd13ifvqhvg","pricing_plan_id":"free"},{"bike_id":"dc00bdf8-dc57-4b02-8d44-8ea4906debe3","system_id":"levelo_inurba_marseille","lat":43.324771,"lon":5.36557,"is_reserved":false,"is_disabled":false,"rental_uris":{"android":"levelo://app?vid=dc00bdf8-dc57-4b02-8d44-8ea4906debe3","ios":"levelo://app?vid=dc00bdf8-dc57-4b02-8d44-8ea4906debe3"},"vehicle_type_id":"4","last_reported":1706595005,"current_range_meters":10000,"station_id":"ce4bhs12rcd13ifvqhvg","pricing_plan_id":"free"},{"bike_id":"4c1d912b-8425-4b28-bcd4-0691a1724560","system_id":"levelo_inurba_marseille","lat":43.324803,"lon":5.365751,"is_reserved":false,"is_disabled":false,"rental_uris":{"android":"levelo://app?vid=4c1d912b-8425-4b28-bcd4-0691a1724560","ios":"levelo://app?vid=4c1d912b-8425-4b28-bcd4-0691a1724560"},"vehicle_type_id":"4","last_reported":1706595005,"current_range_meters":25200,"station_id":"ce4bhs12rcd13ifvqhvg","pricing_plan_id":"free"},{"bike_id":"96bada0b-1fa9-4706-87e9-8f67e261e440","system_id":"levelo_inurba_marseille","lat":43.324771,"lon":5.36557,"is_reserved":false,"is_disabled":false,"rental_uris":{"android":"levelo://app?vid=96bada0b-1fa9-4706-87e9-8f67e261e440","ios":"levelo://app?vid=96bada0b-1fa9-4706-87e9-8f67e261e440"},"vehicle_type_id":"4","last_reported":1706595005,"current_range_meters":22000,"station_id":"ce4bhs12rcd13ifvqhvg","pricing_plan_id":"free"},{"bike_id":"13bd44b9-8ecb-46da-981f-fe222ffce708","system_id":"levelo_inurba_marseille","lat":43.324771,"lon":5.36557,"is_reserved":false,"is_disabled":false,"rental_uris":{"android":"levelo://app?vid=13bd44b9-8ecb-46da-981f-fe222ffce708","ios":"levelo://app?vid=13bd44b9-8ecb-46da-981f-fe222ffce708"},"vehicle_type_id":"4","last_reported":1706595005,"current_range_meters":10800,"station_id":"ce4bhs12rcd13ifvqhvg","pricing_plan_id":"free"},{"bike_id":"11c30585-a193-4157-8eb9-d99a32e94516","system_id":"levelo_inurba_marseille","lat":43.324771,"lon":5.36557,"is_reserved":false,"is_disabled":false,"rental_uris":{"android":"levelo://app?vid=11c30585-a193-4157-8eb9-d99a32e94516","ios":"levelo://app?vid=11c30585-a193-4157-8eb9-d99a32e94516"},"vehicle_type_id":"4","last_reported":1706595005,"current_range_meters":22800,"station_id":"ce4bhs12rcd13ifvqhvg","pricing_plan_id":"free"},{"bike_id":"72346ff8-1c98-4f8b-bfad-668a2bfc8715","system_id":"levelo_inurba_marseille","lat":43.304606,"lon":5.379026,"is_reserved":false,"is_disabled":false,"rental_uris":{"android":"levelo://app?vid=72346ff8-1c98-4f8b-bfad-668a2bfc8715","ios":"levelo://app?vid=72346ff8-1c98-4f8b-bfad-668a2bfc8715"},"vehicle_type_id":"4","last_reported":1706595005,"current_range_meters":14000,"station_id":"ce4bgup2rcd13ifvqcn0","pricing_plan_id":"free"},{"bike_id":"398f7e37-ef27-409f-a67e-3f607f150550","system_id":"levelo_inurba_marseille","lat":43.302784,"lon":5.377158,"is_reserved":false,"is_disabled":false,"rental_uris":{"android":"levelo://app?vid=398f7e37-ef27-409f-a67e-3f607f150550","ios":"levelo://app?vid=398f7e37-ef27-409f-a67e-3f607f150550"},"vehicle_type_id":"4","last_reported":1706595005,"current_range_meters":4400,"station_id":"ce4bguh2rcd13ifvqcj0","pricing_plan_id":"free"},{"bike_id":"2df07865-3beb-4771-ab7c-be7da48c03d2","system_id":"levelo_inurba_marseille","lat":43.302784,"lon":5.377158,"is_reserved":false,"is_disabled":false,"rental_uris":{"android":"levelo://app?vid=2df07865-3beb-4771-ab7c-be7da48c03d2","ios":"levelo://app?vid=2df07865-3beb-4771-ab7c-be7da48c03d2"},"vehicle_type_id":"4","last_reported":1706595005,"current_range_meters":23600,"station_id":"ce4bguh2rcd13ifvqcj0","pricing_plan_id":"free"},{"bike_id":"8106da83-e6b1-4e28-baf1-c14ff387d74d","system_id":"levelo_inurba_marseille","lat":43.30143,"lon":5.37413,"is_reserved":false,"is_disabled":false,"rental_uris":{"android":"levelo://app?vid=8106da83-e6b1-4e28-baf1-c14ff387d74d","ios":"levelo://app?vid=8106da83-e6b1-4e28-baf1-c14ff387d74d"},"vehicle_type_id":"4","last_reported":1706595005,"current_range_meters":26000,"station_id":"ce4bgs92rcd13ifvqcc0","pricing_plan_id":"free"},{"bike_id":"a8f573a4-6120-47e7-8c06-852fd7de921c","system_id":"levelo_inurba_marseille","lat":43.30143,"lon":5.37413,"is_reserved":false,"is_disabled":false,"rental_uris":{"android":"levelo://app?vid=a8f573a4-6120-47e7-8c06-852fd7de921c","ios":"levelo://app?vid=a8f573a4-6120-47e7-8c06-852fd7de921c"},"vehicle_type_id":"4","last_reported":1706595005,"current_range_meters":24000,"station_id":"ce4bgs92rcd13ifvqcc0","pricing_plan_id":"free"},{"bike_id":"edcd7b8d-79ed-4d51-8314-9b29bf3051bf","system_id":"levelo_inurba_marseille","lat":43.301429,"lon":5.37413,"is_reserved":false,"is_disabled":false,"rental_uris":{"android":"levelo://app?vid=edcd7b8d-79ed-4d51-8314-9b29bf3051bf","ios":"levelo://app?vid=edcd7b8d-79ed-4d51-8314-9b29bf3051bf"},"vehicle_type_id":"4","last_reported":1706595005,"current_range_meters":18800,"station_id":"ce4bgs92rcd13ifvqcc0","pricing_plan_id":"free"},{"bike_id":"b427b178-799f-47cf-9c36-a588c6339fdb","system_id":"levelo_inurba_marseille","lat":43.301429,"lon":5.37413,"is_reserved":false,"is_disabled":false,"rental_uris":{"android":"levelo://app?vid=b427b178-799f-47cf-9c36-a588c6339fdb","ios":"levelo://app?vid=b427b178-799f-47cf-9c36-a588c6339fdb"},"vehicle_type_id":"4","last_reported":1706595005,"current_range_meters":21200,"station_id":"ce4bgs92rcd13ifvqcc0","pricing_plan_id":"free"},{"bike_id":"f08dc9f1-a741-477c-a31d-235ff0618375","system_id":"levelo_inurba_marseille","lat":43.301429,"lon":5.37413,"is_reserved":false,"is_disabled":false,"rental_uris":{"android":"levelo://app?vid=f08dc9f1-a741-477c-a31d-235ff0618375","ios":"levelo://app?vid=f08dc9f1-a741-477c-a31d-235ff0618375"},"vehicle_type_id":"4","last_reported":1706595005,"current_range_meters":21600,"station_id":"ce4bgs92rcd13ifvqcc0","pricing_plan_id":"free"},{"bike_id":"8de982b2-8570-44af-9f2f-b269641b257b","system_id":"levelo_inurba_marseille","lat":43.30143,"lon":5.37413,"is_reserved":false,"is_disabled":false,"rental_uris":{"android":"levelo://app?vid=8de982b2-8570-44af-9f2f-b269641b257b","ios":"levelo://app?vid=8de982b2-8570-44af-9f2f-b269641b257b"},"vehicle_type_id":"4","last_reported":1706595005,"current_range_meters":22400,"station_id":"ce4bgs92rcd13ifvqcc0","pricing_plan_id":"free"},{"bike_id":"a6345780-30db-47f2-acfb-6adc1facc2d6","system_id":"levelo_inurba_marseille","lat":43.319935,"lon":5.381699,"is_reserved":false,"is_disabled":false,"rental_uris":{"android":"levelo://app?vid=a6345780-30db-47f2-acfb-6adc1facc2d6","ios":"levelo://app?vid=a6345780-30db-47f2-acfb-6adc1facc2d6"},"vehicle_type_id":"4","last_reported":1706595005,"current_range_meters":0,"station_id":"ce4bhr12rcd13ifvqhpg","pricing_plan_id":"free"},{"bike_id":"0ca84510-6630-47d1-867a-145dbc99d2a1","system_id":"levelo_inurba_marseille","lat":43.319935,"lon":5.381699,"is_reserved":false,"is_disabled":false,"rental_uris":{"android":"levelo://app?vid=0ca84510-6630-47d1-867a-145dbc99d2a1","ios":"levelo://app?vid=0ca84510-6630-47d1-867a-145dbc99d2a1"},"vehicle_type_id":"4","last_reported":1706595005,"current_range_meters":18800,"station_id":"ce4bhr12rcd13ifvqhpg","pricing_plan_id":"free"},{"bike_id":"e163d0f3-cac3-48a6-9514-1f57ae24562b","system_id":"levelo_inurba_marseille","lat":43.319935,"lon":5.381699,"is_reserved":false,"is_disabled":false,"rental_uris":{"android":"levelo://app?vid=e163d0f3-cac3-48a6-9514-1f57ae24562b","ios":"levelo://app?vid=e163d0f3-cac3-48a6-9514-1f57ae24562b"},"vehicle_type_id":"4","last_reported":1706595005,"current_range_meters":17600,"station_id":"ce4bhr12rcd13ifvqhpg","pricing_plan_id":"free"},{"bike_id":"dd6b7008-c30f-4316-8921-b5028f9d3f38","system_id":"levelo_inurba_marseille","lat":43.319935,"lon":5.381699,"is_reserved":false,"is_disabled":false,"rental_uris":{"android":"levelo://app?vid=dd6b7008-c30f-4316-8921-b5028f9d3f38","ios":"levelo://app?vid=dd6b7008-c30f-4316-8921-b5028f9d3f38"},"vehicle_type_id":"4","last_reported":1706595005,"current_range_meters":19200,"station_id":"ce4bhr12rcd13ifvqhpg","pricing_plan_id":"free"},{"bike_id":"bb929bd9-481f-47ef-b3a2-06363540c0cc","system_id":"levelo_inurba_marseille","lat":43.319935,"lon":5.381699,"is_reserved":false,"is_disabled":false,"rental_uris":{"android":"levelo://app?vid=bb929bd9-481f-47ef-b3a2-06363540c0cc","ios":"levelo://app?vid=bb929bd9-481f-47ef-b3a2-06363540c0cc"},"vehicle_type_id":"4","last_reported":1706595005,"current_range_meters":3200,"station_id":"ce4bhr12rcd13ifvqhpg","pricing_plan_id":"free"},{"bike_id":"62359dd4-e5a2-43d3-8c03-a9073c8bb30e","system_id":"levelo_inurba_marseille","lat":43.314811,"lon":5.373103,"is_reserved":false,"is_disabled":false,"rental_uris":{"android":"levelo://app?vid=62359dd4-e5a2-43d3-8c03-a9073c8bb30e","ios":"levelo://app?vid=62359dd4-e5a2-43d3-8c03-a9073c8bb30e"},"vehicle_type_id":"4","last_reported":1706595005,"current_range_meters":15600,"station_id":"ce4bgt12rcd13ifvqcd0","pricing_plan_id":"free"},{"bike_id":"db221131-c386-47ca-b2fd-68cdd3449415","system_id":"levelo_inurba_marseille","lat":43.319935,"lon":5.381699,"is_reserved":false,"is_disabled":false,"rental_uris":{"android":"levelo://app?vid=db221131-c386-47ca-b2fd-68cdd3449415","ios":"levelo://app?vid=db221131-c386-47ca-b2fd-68cdd3449415"},"vehicle_type_id":"4","last_reported":1706595005,"current_range_meters":4000,"station_id":"ce4bhr12rcd13ifvqhpg","pricing_plan_id":"free"},{"bike_id":"a4fd5860-f2cd-4d58-a5bd-a8f7faea28f9","system_id":"levelo_inurba_marseille","lat":43.313571,"lon":5.384829,"is_reserved":false,"is_disabled":false,"rental_uris":{"android":"levelo://app?vid=a4fd5860-f2cd-4d58-a5bd-a8f7faea28f9","ios":"levelo://app?vid=a4fd5860-f2cd-4d58-a5bd-a8f7faea28f9"},"vehicle_type_id":"4","last_reported":1706595005,"current_range_meters":29600,"station_id":"ce4bgt92rcd13ifvqcf0","pricing_plan_id":"free"},{"bike_id":"3f735a01-06eb-4ed9-9acd-e25be91d84e8","system_id":"levelo_inurba_marseille","lat":43.31359,"lon":5.38498,"is_reserved":false,"is_disabled":false,"rental_uris":{"android":"levelo://app?vid=3f735a01-06eb-4ed9-9acd-e25be91d84e8","ios":"levelo://app?vid=3f735a01-06eb-4ed9-9acd-e25be91d84e8"},"vehicle_type_id":"4","last_reported":1706595005,"current_range_meters":30000,"station_id":"ce4bgt92rcd13ifvqcf0","pricing_plan_id":"free"},{"bike_id":"bd6768d8-9151-4394-bc4b-5e30f6ec41da","system_id":"levelo_inurba_marseille","lat":43.313571,"lon":5.384829,"is_reserved":false,"is_disabled":false,"rental_uris":{"android":"levelo://app?vid=bd6768d8-9151-4394-bc4b-5e30f6ec41da","ios":"levelo://app?vid=bd6768d8-9151-4394-bc4b-5e30f6ec41da"},"vehicle_type_id":"4","last_reported":1706595005,"current_range_meters":30800,"station_id":"ce4bgt92rcd13ifvqcf0","pricing_plan_id":"free"},{"bike_id":"436c94ca-7110-4717-996b-77ed7e337b09","system_id":"levelo_inurba_marseille","lat":43.305364,"lon":5.384119,"is_reserved":false,"is_disabled":false,"rental_uris":{"android":"levelo://app?vid=436c94ca-7110-4717-996b-77ed7e337b09","ios":"levelo://app?vid=436c94ca-7110-4717-996b-77ed7e337b09"},"vehicle_type_id":"4","last_reported":1706595005,"current_range_meters":21600,"station_id":"ce4bgg92rcd13ifvqb30","pricing_plan_id":"free"},{"bike_id":"ae9f63d7-3182-4a2b-a223-d98a3b2a7115","system_id":"levelo_inurba_marseille","lat":43.311731,"lon":5.387021,"is_reserved":false,"is_disabled":false,"rental_uris":{"android":"levelo://app?vid=ae9f63d7-3182-4a2b-a223-d98a3b2a7115","ios":"levelo://app?vid=ae9f63d7-3182-4a2b-a223-d98a3b2a7115"},"vehicle_type_id":"4","last_reported":1706595005,"current_range_meters":31200,"station_id":"ce4bgv12rcd13ifvqcp0","pricing_plan_id":"free"},{"bike_id":"bf6d7d92-c6fb-483b-962e-c72bfff71072","system_id":"levelo_inurba_marseille","lat":43.311702,"lon":5.387058,"is_reserved":false,"is_disabled":false,"rental_uris":{"android":"levelo://app?vid=bf6d7d92-c6fb-483b-962e-c72bfff71072","ios":"levelo://app?vid=bf6d7d92-c6fb-483b-962e-c72bfff71072"},"vehicle_type_id":"4","last_reported":1706595005,"current_range_meters":15200,"station_id":"ce4bgv12rcd13ifvqcp0","pricing_plan_id":"free"},{"bike_id":"ecc16a4e-aa68-43b2-a249-41326e74d1fd","system_id":"levelo_inurba_marseille","lat":43.311722,"lon":5.387247,"is_reserved":false,"is_disabled":false,"rental_uris":{"android":"levelo://app?vid=ecc16a4e-aa68-43b2-a249-41326e74d1fd","ios":"levelo://app?vid=ecc16a4e-aa68-43b2-a249-41326e74d1fd"},"vehicle_type_id":"4","last_reported":1706595005,"current_range_meters":29600,"station_id":"ce4bgv12rcd13ifvqcp0","pricing_plan_id":"free"},{"bike_id":"b1f20554-a69e-4b47-8cbd-a32dbe8662f3","system_id":"levelo_inurba_marseille","lat":43.311722,"lon":5.387247,"is_reserved":false,"is_disabled":false,"rental_uris":{"android":"levelo://app?vid=b1f20554-a69e-4b47-8cbd-a32dbe8662f3","ios":"levelo://app?vid=b1f20554-a69e-4b47-8cbd-a32dbe8662f3"},"vehicle_type_id":"4","last_reported":1706595005,"current_range_meters":2400,"station_id":"ce4bgv12rcd13ifvqcp0","pricing_plan_id":"free"},{"bike_id":"52c0ddbb-c50b-44be-820a-25591618067a","system_id":"levelo_inurba_marseille","lat":43.31174,"lon":5.38708,"is_reserved":false,"is_disabled":false,"rental_uris":{"android":"levelo://app?vid=52c0ddbb-c50b-44be-820a-25591618067a","ios":"levelo://app?vid=52c0ddbb-c50b-44be-820a-25591618067a"},"vehicle_type_id":"4","last_reported":1706595005,"current_range_meters":30800,"station_id":"ce4bgv12rcd13ifvqcp0","pricing_plan_id":"free"},{"bike_id":"7a3928fa-6b7a-4170-bb54-1e67555b930f","system_id":"levelo_inurba_marseille","lat":43.311722,"lon":5.387247,"is_reserved":false,"is_disabled":false,"rental_uris":{"android":"levelo://app?vid=7a3928fa-6b7a-4170-bb54-1e67555b930f","ios":"levelo://app?vid=7a3928fa-6b7a-4170-bb54-1e67555b930f"},"vehicle_type_id":"4","last_reported":1706595005,"current_range_meters":12800,"station_id":"ce4bgv12rcd13ifvqcp0","pricing_plan_id":"free"},{"bike_id":"284b9475-c25a-42a1-a880-056f23495685","system_id":"levelo_inurba_marseille","lat":43.3117,"lon":5.3871,"is_reserved":false,"is_disabled":false,"rental_uris":{"android":"levelo://app?vid=284b9475-c25a-42a1-a880-056f23495685","ios":"levelo://app?vid=284b9475-c25a-42a1-a880-056f23495685"},"vehicle_type_id":"4","last_reported":1706595005,"current_range_meters":10000,"station_id":"ce4bgv12rcd13ifvqcp0","pricing_plan_id":"free"},{"bike_id":"536410ef-870c-4b5b-bc2d-246783c5909e","system_id":"levelo_inurba_marseille","lat":43.311698,"lon":5.387104,"is_reserved":false,"is_disabled":false,"rental_uris":{"android":"levelo://app?vid=536410ef-870c-4b5b-bc2d-246783c5909e","ios":"levelo://app?vid=536410ef-870c-4b5b-bc2d-246783c5909e"},"vehicle_type_id":"4","last_reported":1706595005,"current_range_meters":30000,"station_id":"ce4bgv12rcd13ifvqcp0","pricing_plan_id":"free"},{"bike_id":"0a4fe8a6-2a06-4cab-b638-e0937ae317a8","system_id":"levelo_inurba_marseille","lat":43.31175,"lon":5.387111,"is_reserved":false,"is_disabled":false,"rental_uris":{"android":"levelo://app?vid=0a4fe8a6-2a06-4cab-b638-e0937ae317a8","ios":"levelo://app?vid=0a4fe8a6-2a06-4cab-b638-e0937ae317a8"},"vehicle_type_id":"4","last_reported":1706595005,"current_range_meters":400,"station_id":"ce4bgv12rcd13ifvqcp0","pricing_plan_id":"free"},{"bike_id":"11276585-f17b-4b0c-9778-7880d29226f1","system_id":"levelo_inurba_marseille","lat":43.31173,"lon":5.38711,"is_reserved":false,"is_disabled":false,"rental_uris":{"android":"levelo://app?vid=11276585-f17b-4b0c-9778-7880d29226f1","ios":"levelo://app?vid=11276585-f17b-4b0c-9778-7880d29226f1"},"vehicle_type_id":"4","last_reported":1706595005,"current_range_meters":22400,"station_id":"ce4bgv12rcd13ifvqcp0","pricing_plan_id":"free"},{"bike_id":"4d0663ad-0a23-47d0-9bb8-acf657bbcd6e","system_id":"levelo_inurba_marseille","lat":43.311722,"lon":5.387247,"is_reserved":false,"is_disabled":false,"rental_uris":{"android":"levelo://app?vid=4d0663ad-0a23-47d0-9bb8-acf657bbcd6e","ios":"levelo://app?vid=4d0663ad-0a23-47d0-9bb8-acf657bbcd6e"},"vehicle_type_id":"4","last_reported":1706595005,"current_range_meters":8000,"station_id":"ce4bgv12rcd13ifvqcp0","pricing_plan_id":"free"},{"bike_id":"bbfd2fe8-5ab8-4046-a597-96677d792067","system_id":"levelo_inurba_marseille","lat":43.311696,"lon":5.387168,"is_reserved":false,"is_disabled":false,"rental_uris":{"android":"levelo://app?vid=bbfd2fe8-5ab8-4046-a597-96677d792067","ios":"levelo://app?vid=bbfd2fe8-5ab8-4046-a597-96677d792067"},"vehicle_type_id":"4","last_reported":1706595005,"current_range_meters":29200,"station_id":"ce4bgv12rcd13ifvqcp0","pricing_plan_id":"free"},{"bike_id":"b0ab5bc2-4b47-48d7-8f9e-3496bff6b235","system_id":"levelo_inurba_marseille","lat":43.297794,"lon":5.370888,"is_reserved":false,"is_disabled":false,"rental_uris":{"android":"levelo://app?vid=b0ab5bc2-4b47-48d7-8f9e-3496bff6b235","ios":"levelo://app?vid=b0ab5bc2-4b47-48d7-8f9e-3496bff6b235"},"vehicle_type_id":"4","last_reported":1706595005,"current_range_meters":24000,"station_id":"ce4bgop2rcd13ifvqc1g","pricing_plan_id":"free"},{"bike_id":"b5a0224c-90e2-493a-bcb4-ba404cb0be00","system_id":"levelo_inurba_marseille","lat":43.297794,"lon":5.370888,"is_reserved":false,"is_disabled":false,"rental_uris":{"android":"levelo://app?vid=b5a0224c-90e2-493a-bcb4-ba404cb0be00","ios":"levelo://app?vid=b5a0224c-90e2-493a-bcb4-ba404cb0be00"},"vehicle_type_id":"4","last_reported":1706595005,"current_range_meters":25200,"station_id":"ce4bgop2rcd13ifvqc1g","pricing_plan_id":"free"},{"bike_id":"e1539f0d-02e3-46ca-8fd2-b115fd55a782","system_id":"levelo_inurba_marseille","lat":43.322855,"lon":5.38261,"is_reserved":false,"is_disabled":false,"rental_uris":{"android":"levelo://app?vid=e1539f0d-02e3-46ca-8fd2-b115fd55a782","ios":"levelo://app?vid=e1539f0d-02e3-46ca-8fd2-b115fd55a782"},"vehicle_type_id":"4","last_reported":1706595005,"current_range_meters":17200,"station_id":"ce4bhr12rcd13ifvqhqg","pricing_plan_id":"free"},{"bike_id":"4c76a369-40e2-427c-bdd2-4ff8a4634e1e","system_id":"levelo_inurba_marseille","lat":43.322872,"lon":5.382756,"is_reserved":false,"is_disabled":false,"rental_uris":{"android":"levelo://app?vid=4c76a369-40e2-427c-bdd2-4ff8a4634e1e","ios":"levelo://app?vid=4c76a369-40e2-427c-bdd2-4ff8a4634e1e"},"vehicle_type_id":"4","last_reported":1706595005,"current_range_meters":27600,"station_id":"ce4bhr12rcd13ifvqhqg","pricing_plan_id":"free"},{"bike_id":"1c9d37d0-9c22-419e-afa7-1697cb75aab3","system_id":"levelo_inurba_marseille","lat":43.328371,"lon":5.366909,"is_reserved":false,"is_disabled":false,"rental_uris":{"android":"levelo://app?vid=1c9d37d0-9c22-419e-afa7-1697cb75aab3","ios":"levelo://app?vid=1c9d37d0-9c22-419e-afa7-1697cb75aab3"},"vehicle_type_id":"4","last_reported":1706595005,"current_range_meters":15600,"station_id":"ce4bhs92rcd13ifvqi0g","pricing_plan_id":"free"},{"bike_id":"12d7300c-7281-4d65-b928-1f4a31310a0c","system_id":"levelo_inurba_marseille","lat":43.328371,"lon":5.366912,"is_reserved":false,"is_disabled":false,"rental_uris":{"android":"levelo://app?vid=12d7300c-7281-4d65-b928-1f4a31310a0c","ios":"levelo://app?vid=12d7300c-7281-4d65-b928-1f4a31310a0c"},"vehicle_type_id":"4","last_reported":1706595005,"current_range_meters":17600,"station_id":"ce4bhs92rcd13ifvqi0g","pricing_plan_id":"free"},{"bike_id":"e2921b21-d590-462e-8a8c-af54cfda619c","system_id":"levelo_inurba_marseille","lat":43.328371,"lon":5.366909,"is_reserved":false,"is_disabled":false,"rental_uris":{"android":"levelo://app?vid=e2921b21-d590-462e-8a8c-af54cfda619c","ios":"levelo://app?vid=e2921b21-d590-462e-8a8c-af54cfda619c"},"vehicle_type_id":"4","last_reported":1706595005,"current_range_meters":21200,"station_id":"ce4bhs92rcd13ifvqi0g","pricing_plan_id":"free"},{"bike_id":"92a50463-f1ff-456b-9d7e-c7c72df2851a","system_id":"levelo_inurba_marseille","lat":43.328371,"lon":5.366912,"is_reserved":false,"is_disabled":false,"rental_uris":{"android":"levelo://app?vid=92a50463-f1ff-456b-9d7e-c7c72df2851a","ios":"levelo://app?vid=92a50463-f1ff-456b-9d7e-c7c72df2851a"},"vehicle_type_id":"4","last_reported":1706595005,"current_range_meters":1600,"station_id":"ce4bhs92rcd13ifvqi0g","pricing_plan_id":"free"},{"bike_id":"5e0d7018-715e-4087-a2d6-cfa7ba43c5e5","system_id":"levelo_inurba_marseille","lat":43.328371,"lon":5.366909,"is_reserved":false,"is_disabled":false,"rental_uris":{"android":"levelo://app?vid=5e0d7018-715e-4087-a2d6-cfa7ba43c5e5","ios":"levelo://app?vid=5e0d7018-715e-4087-a2d6-cfa7ba43c5e5"},"vehicle_type_id":"4","last_reported":1706595005,"current_range_meters":19600,"station_id":"ce4bhs92rcd13ifvqi0g","pricing_plan_id":"free"},{"bike_id":"9cc30769-75e2-40a7-b116-b561ec6b360f","system_id":"levelo_inurba_marseille","lat":43.328371,"lon":5.366912,"is_reserved":false,"is_disabled":false,"rental_uris":{"android":"levelo://app?vid=9cc30769-75e2-40a7-b116-b561ec6b360f","ios":"levelo://app?vid=9cc30769-75e2-40a7-b116-b561ec6b360f"},"vehicle_type_id":"4","last_reported":1706595005,"current_range_meters":0,"station_id":"ce4bhs92rcd13ifvqi0g","pricing_plan_id":"free"},{"bike_id":"233c61c8-60e0-4267-b1ef-3372ea76db9e","system_id":"levelo_inurba_marseille","lat":43.328371,"lon":5.366909,"is_reserved":false,"is_disabled":false,"rental_uris":{"android":"levelo://app?vid=233c61c8-60e0-4267-b1ef-3372ea76db9e","ios":"levelo://app?vid=233c61c8-60e0-4267-b1ef-3372ea76db9e"},"vehicle_type_id":"4","last_reported":1706595005,"current_range_meters":31200,"station_id":"ce4bhs92rcd13ifvqi0g","pricing_plan_id":"free"},{"bike_id":"23560432-fa5d-42a4-82de-663e68f70200","system_id":"levelo_inurba_marseille","lat":43.328371,"lon":5.366912,"is_reserved":false,"is_disabled":false,"rental_uris":{"android":"levelo://app?vid=23560432-fa5d-42a4-82de-663e68f70200","ios":"levelo://app?vid=23560432-fa5d-42a4-82de-663e68f70200"},"vehicle_type_id":"4","last_reported":1706595005,"current_range_meters":9200,"station_id":"ce4bhs92rcd13ifvqi0g","pricing_plan_id":"free"},{"bike_id":"f5b960c2-0e81-44a8-a62e-26fac85ba124","system_id":"levelo_inurba_marseille","lat":43.2968,"lon":5.37291,"is_reserved":false,"is_disabled":false,"rental_uris":{"android":"levelo://app?vid=f5b960c2-0e81-44a8-a62e-26fac85ba124","ios":"levelo://app?vid=f5b960c2-0e81-44a8-a62e-26fac85ba124"},"vehicle_type_id":"4","last_reported":1706595005,"current_range_meters":25600,"station_id":"ce4bgk12rcd13ifvqbj0","pricing_plan_id":"free"},{"bike_id":"45bc107e-c6bb-4079-b59a-ce476ec0eb9e","system_id":"levelo_inurba_marseille","lat":43.296921,"lon":5.376579,"is_reserved":false,"is_disabled":false,"rental_uris":{"android":"levelo://app?vid=45bc107e-c6bb-4079-b59a-ce476ec0eb9e","ios":"levelo://app?vid=45bc107e-c6bb-4079-b59a-ce476ec0eb9e"},"vehicle_type_id":"4","last_reported":1706595005,"current_range_meters":22000,"station_id":"ce4bgkh2rcd13ifvqbl0","pricing_plan_id":"free"},{"bike_id":"d9961132-9c91-43ee-b55e-952e0d6a0578","system_id":"levelo_inurba_marseille","lat":43.296921,"lon":5.376579,"is_reserved":false,"is_disabled":false,"rental_uris":{"android":"levelo://app?vid=d9961132-9c91-43ee-b55e-952e0d6a0578","ios":"levelo://app?vid=d9961132-9c91-43ee-b55e-952e0d6a0578"},"vehicle_type_id":"4","last_reported":1706595005,"current_range_meters":19200,"station_id":"ce4bgkh2rcd13ifvqbl0","pricing_plan_id":"free"},{"bike_id":"95469331-84a8-4b03-80ff-f87a9dfed34f","system_id":"levelo_inurba_marseille","lat":43.299028,"lon":5.381509,"is_reserved":false,"is_disabled":false,"rental_uris":{"android":"levelo://app?vid=95469331-84a8-4b03-80ff-f87a9dfed34f","ios":"levelo://app?vid=95469331-84a8-4b03-80ff-f87a9dfed34f"},"vehicle_type_id":"4","last_reported":1706595005,"current_range_meters":6000,"station_id":"ce4bgj12rcd13ifvqbc0","pricing_plan_id":"free"},{"bike_id":"79cb5642-9bff-4890-b5d5-bf319e931aac","system_id":"levelo_inurba_marseille","lat":43.296921,"lon":5.376579,"is_reserved":false,"is_disabled":false,"rental_uris":{"android":"levelo://app?vid=79cb5642-9bff-4890-b5d5-bf319e931aac","ios":"levelo://app?vid=79cb5642-9bff-4890-b5d5-bf319e931aac"},"vehicle_type_id":"4","last_reported":1706595005,"current_range_meters":20000,"station_id":"ce4bgkh2rcd13ifvqbl0","pricing_plan_id":"free"},{"bike_id":"43a9ca4e-5c4d-43aa-bc5f-bf73d5ddb6e0","system_id":"levelo_inurba_marseille","lat":43.299028,"lon":5.381509,"is_reserved":false,"is_disabled":false,"rental_uris":{"android":"levelo://app?vid=43a9ca4e-5c4d-43aa-bc5f-bf73d5ddb6e0","ios":"levelo://app?vid=43a9ca4e-5c4d-43aa-bc5f-bf73d5ddb6e0"},"vehicle_type_id":"4","last_reported":1706595005,"current_range_meters":29200,"station_id":"ce4bgj12rcd13ifvqbc0","pricing_plan_id":"free"},{"bike_id":"652920b1-7f64-4716-a233-6022c719b88f","system_id":"levelo_inurba_marseille","lat":43.296935,"lon":5.376544,"is_reserved":false,"is_disabled":false,"rental_uris":{"android":"levelo://app?vid=652920b1-7f64-4716-a233-6022c719b88f","ios":"levelo://app?vid=652920b1-7f64-4716-a233-6022c719b88f"},"vehicle_type_id":"4","last_reported":1706595005,"current_range_meters":15200,"station_id":"ce4bgkh2rcd13ifvqbl0","pricing_plan_id":"free"},{"bike_id":"ee866e52-ab55-44bb-b755-a902deed5a19","system_id":"levelo_inurba_marseille","lat":43.299028,"lon":5.381509,"is_reserved":false,"is_disabled":false,"rental_uris":{"android":"levelo://app?vid=ee866e52-ab55-44bb-b755-a902deed5a19","ios":"levelo://app?vid=ee866e52-ab55-44bb-b755-a902deed5a19"},"vehicle_type_id":"4","last_reported":1706595005,"current_range_meters":26000,"station_id":"ce4bgj12rcd13ifvqbc0","pricing_plan_id":"free"},{"bike_id":"792ca53d-a85b-4708-a86b-198a6178534c","system_id":"levelo_inurba_marseille","lat":43.317557,"lon":5.390173,"is_reserved":false,"is_disabled":false,"rental_uris":{"android":"levelo://app?vid=792ca53d-a85b-4708-a86b-198a6178534c","ios":"levelo://app?vid=792ca53d-a85b-4708-a86b-198a6178534c"},"vehicle_type_id":"4","last_reported":1706595005,"current_range_meters":28000,"station_id":"ce4bhqp2rcd13ifvqhng","pricing_plan_id":"free"},{"bike_id":"8b3d1c84-2368-4a46-9b33-28710e5cc586","system_id":"levelo_inurba_marseille","lat":43.317557,"lon":5.390173,"is_reserved":false,"is_disabled":false,"rental_uris":{"android":"levelo://app?vid=8b3d1c84-2368-4a46-9b33-28710e5cc586","ios":"levelo://app?vid=8b3d1c84-2368-4a46-9b33-28710e5cc586"},"vehicle_type_id":"4","last_reported":1706595005,"current_range_meters":27600,"station_id":"ce4bhqp2rcd13ifvqhng","pricing_plan_id":"free"},{"bike_id":"0da54c01-c861-4b59-9786-7e8c77ffbfbd","system_id":"levelo_inurba_marseille","lat":43.317557,"lon":5.390173,"is_reserved":false,"is_disabled":false,"rental_uris":{"android":"levelo://app?vid=0da54c01-c861-4b59-9786-7e8c77ffbfbd","ios":"levelo://app?vid=0da54c01-c861-4b59-9786-7e8c77ffbfbd"},"vehicle_type_id":"4","last_reported":1706595005,"current_range_meters":18000,"station_id":"ce4bhqp2rcd13ifvqhng","pricing_plan_id":"free"},{"bike_id":"5e1dfbab-b68d-438c-bb1d-6920aed0fd5d","system_id":"levelo_inurba_marseille","lat":43.298037,"lon":5.381066,"is_reserved":false,"is_disabled":false,"rental_uris":{"android":"levelo://app?vid=5e1dfbab-b68d-438c-bb1d-6920aed0fd5d","ios":"levelo://app?vid=5e1dfbab-b68d-438c-bb1d-6920aed0fd5d"},"vehicle_type_id":"4","last_reported":1706595005,"current_range_meters":4400,"station_id":"ce4bgip2rcd13ifvqbb0","pricing_plan_id":"free"},{"bike_id":"a6cfef22-4f97-478c-b7b1-06002cc0f1f8","system_id":"levelo_inurba_marseille","lat":43.298037,"lon":5.381066,"is_reserved":false,"is_disabled":false,"rental_uris":{"android":"levelo://app?vid=a6cfef22-4f97-478c-b7b1-06002cc0f1f8","ios":"levelo://app?vid=a6cfef22-4f97-478c-b7b1-06002cc0f1f8"},"vehicle_type_id":"4","last_reported":1706595005,"current_range_meters":28400,"station_id":"ce4bgip2rcd13ifvqbb0","pricing_plan_id":"free"},{"bike_id":"5375fc12-1498-45ae-836e-31bf1d70d239","system_id":"levelo_inurba_marseille","lat":43.296935,"lon":5.376544,"is_reserved":false,"is_disabled":false,"rental_uris":{"android":"levelo://app?vid=5375fc12-1498-45ae-836e-31bf1d70d239","ios":"levelo://app?vid=5375fc12-1498-45ae-836e-31bf1d70d239"},"vehicle_type_id":"4","last_reported":1706595005,"current_range_meters":11600,"station_id":"ce4bgkh2rcd13ifvqbl0","pricing_plan_id":"free"},{"bike_id":"d7946414-d5f1-432c-bd52-4546da0bd4d9","system_id":"levelo_inurba_marseille","lat":43.296277,"lon":5.377108,"is_reserved":false,"is_disabled":false,"rental_uris":{"android":"levelo://app?vid=d7946414-d5f1-432c-bd52-4546da0bd4d9","ios":"levelo://app?vid=d7946414-d5f1-432c-bd52-4546da0bd4d9"},"vehicle_type_id":"4","last_reported":1706595005,"current_range_meters":23200,"station_id":"ce4bgi92rcd13ifvqb90","pricing_plan_id":"free"},{"bike_id":"daf1e198-5c45-4277-8d11-7b6794cdc990","system_id":"levelo_inurba_marseille","lat":43.298037,"lon":5.381066,"is_reserved":false,"is_disabled":false,"rental_uris":{"android":"levelo://app?vid=daf1e198-5c45-4277-8d11-7b6794cdc990","ios":"levelo://app?vid=daf1e198-5c45-4277-8d11-7b6794cdc990"},"vehicle_type_id":"4","last_reported":1706595005,"current_range_meters":30000,"station_id":"ce4bgip2rcd13ifvqbb0","pricing_plan_id":"free"},{"bike_id":"eb67c444-35e4-4a85-adf6-37c7985525f0","system_id":"levelo_inurba_marseille","lat":43.295748,"lon":5.37522,"is_reserved":false,"is_disabled":false,"rental_uris":{"android":"levelo://app?vid=eb67c444-35e4-4a85-adf6-37c7985525f0","ios":"levelo://app?vid=eb67c444-35e4-4a85-adf6-37c7985525f0"},"vehicle_type_id":"4","last_reported":1706595005,"current_range_meters":23200,"station_id":"ce4bgh92rcd13ifvqb50","pricing_plan_id":"free"},{"bike_id":"47ddc5f8-79f9-4cfd-923c-3b4de6eeafd6","system_id":"levelo_inurba_marseille","lat":43.295748,"lon":5.37522,"is_reserved":false,"is_disabled":false,"rental_uris":{"android":"levelo://app?vid=47ddc5f8-79f9-4cfd-923c-3b4de6eeafd6","ios":"levelo://app?vid=47ddc5f8-79f9-4cfd-923c-3b4de6eeafd6"},"vehicle_type_id":"4","last_reported":1706595005,"current_range_meters":25200,"station_id":"ce4bgh92rcd13ifvqb50","pricing_plan_id":"free"},{"bike_id":"dd6ccada-f153-45f5-aca2-78c579260312","system_id":"levelo_inurba_marseille","lat":43.296079,"lon":5.377124,"is_reserved":false,"is_disabled":false,"rental_uris":{"android":"levelo://app?vid=dd6ccada-f153-45f5-aca2-78c579260312","ios":"levelo://app?vid=dd6ccada-f153-45f5-aca2-78c579260312"},"vehicle_type_id":"4","last_reported":1706595005,"current_range_meters":8400,"station_id":"ce4bgi92rcd13ifvqb90","pricing_plan_id":"free"},{"bike_id":"e00c81f0-1553-4454-b228-1bc99ec5076a","system_id":"levelo_inurba_marseille","lat":43.296277,"lon":5.377108,"is_reserved":false,"is_disabled":false,"rental_uris":{"android":"levelo://app?vid=e00c81f0-1553-4454-b228-1bc99ec5076a","ios":"levelo://app?vid=e00c81f0-1553-4454-b228-1bc99ec5076a"},"vehicle_type_id":"4","last_reported":1706595005,"current_range_meters":30400,"station_id":"ce4bgi92rcd13ifvqb90","pricing_plan_id":"free"},{"bike_id":"5e568058-dfd0-4612-923f-b8eae7366555","system_id":"levelo_inurba_marseille","lat":43.29991,"lon":5.38476,"is_reserved":false,"is_disabled":false,"rental_uris":{"android":"levelo://app?vid=5e568058-dfd0-4612-923f-b8eae7366555","ios":"levelo://app?vid=5e568058-dfd0-4612-923f-b8eae7366555"},"vehicle_type_id":"4","last_reported":1706595005,"current_range_meters":27600,"station_id":"ce4bgj92rcd13ifvqbd0","pricing_plan_id":"free"},{"bike_id":"45b57917-df61-451b-be98-34e02c6afb5e","system_id":"levelo_inurba_marseille","lat":43.29976,"lon":5.38484,"is_reserved":false,"is_disabled":false,"rental_uris":{"android":"levelo://app?vid=45b57917-df61-451b-be98-34e02c6afb5e","ios":"levelo://app?vid=45b57917-df61-451b-be98-34e02c6afb5e"},"vehicle_type_id":"4","last_reported":1706595005,"current_range_meters":14400,"station_id":"ce4bgj92rcd13ifvqbd0","pricing_plan_id":"free"},{"bike_id":"6022bb21-de7c-4fdc-9eb1-e7a6b0073e0f","system_id":"levelo_inurba_marseille","lat":43.296263,"lon":5.377094,"is_reserved":false,"is_disabled":false,"rental_uris":{"android":"levelo://app?vid=6022bb21-de7c-4fdc-9eb1-e7a6b0073e0f","ios":"levelo://app?vid=6022bb21-de7c-4fdc-9eb1-e7a6b0073e0f"},"vehicle_type_id":"4","last_reported":1706595005,"current_range_meters":27200,"station_id":"ce4bgi92rcd13ifvqb90","pricing_plan_id":"free"},{"bike_id":"9233dc0b-b97a-4bb5-9a07-882874fcec2b","system_id":"levelo_inurba_marseille","lat":43.299717,"lon":5.384845,"is_reserved":false,"is_disabled":false,"rental_uris":{"android":"levelo://app?vid=9233dc0b-b97a-4bb5-9a07-882874fcec2b","ios":"levelo://app?vid=9233dc0b-b97a-4bb5-9a07-882874fcec2b"},"vehicle_type_id":"4","last_reported":1706595005,"current_range_meters":24000,"station_id":"ce4bgj92rcd13ifvqbd0","pricing_plan_id":"free"},{"bike_id":"7fb0085f-6fe2-44b2-a838-d94b58714d86","system_id":"levelo_inurba_marseille","lat":43.289363,"lon":5.396322,"is_reserved":false,"is_disabled":false,"rental_uris":{"android":"levelo://app?vid=7fb0085f-6fe2-44b2-a838-d94b58714d86","ios":"levelo://app?vid=7fb0085f-6fe2-44b2-a838-d94b58714d86"},"vehicle_type_id":"4","last_reported":1706595005,"current_range_meters":10000,"station_id":"ce4bh3h2rcd13ifvqdn0","pricing_plan_id":"free"},{"bike_id":"de25d637-84ec-4203-b892-3e1c2d7c4ddb","system_id":"levelo_inurba_marseille","lat":43.331774,"lon":5.364391,"is_reserved":false,"is_disabled":false,"rental_uris":{"android":"levelo://app?vid=de25d637-84ec-4203-b892-3e1c2d7c4ddb","ios":"levelo://app?vid=de25d637-84ec-4203-b892-3e1c2d7c4ddb"},"vehicle_type_id":"4","last_reported":1706595005,"current_range_meters":13600,"station_id":"","pricing_plan_id":"free"},{"bike_id":"47d90bf9-c566-4da0-b978-4e662f0528ea","system_id":"levelo_inurba_marseille","lat":43.32367,"lon":5.388836,"is_reserved":false,"is_disabled":false,"rental_uris":{"android":"levelo://app?vid=47d90bf9-c566-4da0-b978-4e662f0528ea","ios":"levelo://app?vid=47d90bf9-c566-4da0-b978-4e662f0528ea"},"vehicle_type_id":"4","last_reported":1706595005,"current_range_meters":2800,"station_id":"ce4bhqp2rcd13ifvqhog","pricing_plan_id":"free"},{"bike_id":"4b40ab34-3d74-4149-b004-a93510d83072","system_id":"levelo_inurba_marseille","lat":43.32355,"lon":5.38887,"is_reserved":false,"is_disabled":false,"rental_uris":{"android":"levelo://app?vid=4b40ab34-3d74-4149-b004-a93510d83072","ios":"levelo://app?vid=4b40ab34-3d74-4149-b004-a93510d83072"},"vehicle_type_id":"4","last_reported":1706595005,"current_range_meters":16400,"station_id":"ce4bhqp2rcd13ifvqhog","pricing_plan_id":"free"},{"bike_id":"9232a205-e19f-4e8f-86aa-a3f8e84471ee","system_id":"levelo_inurba_marseille","lat":43.32367,"lon":5.388836,"is_reserved":false,"is_disabled":false,"rental_uris":{"android":"levelo://app?vid=9232a205-e19f-4e8f-86aa-a3f8e84471ee","ios":"levelo://app?vid=9232a205-e19f-4e8f-86aa-a3f8e84471ee"},"vehicle_type_id":"4","last_reported":1706595005,"current_range_meters":20000,"station_id":"ce4bhqp2rcd13ifvqhog","pricing_plan_id":"free"},{"bike_id":"bc5f74f1-a486-4267-a8bc-ad7d689b7941","system_id":"levelo_inurba_marseille","lat":43.32367,"lon":5.388836,"is_reserved":false,"is_disabled":false,"rental_uris":{"android":"levelo://app?vid=bc5f74f1-a486-4267-a8bc-ad7d689b7941","ios":"levelo://app?vid=bc5f74f1-a486-4267-a8bc-ad7d689b7941"},"vehicle_type_id":"4","last_reported":1706595005,"current_range_meters":27600,"station_id":"ce4bhqp2rcd13ifvqhog","pricing_plan_id":"free"},{"bike_id":"5dcfc48e-c7ca-4f3a-99c7-e91e73f3d130","system_id":"levelo_inurba_marseille","lat":43.32368,"lon":5.38884,"is_reserved":false,"is_disabled":false,"rental_uris":{"android":"levelo://app?vid=5dcfc48e-c7ca-4f3a-99c7-e91e73f3d130","ios":"levelo://app?vid=5dcfc48e-c7ca-4f3a-99c7-e91e73f3d130"},"vehicle_type_id":"4","last_reported":1706595005,"current_range_meters":7200,"station_id":"ce4bhqp2rcd13ifvqhog","pricing_plan_id":"free"},{"bike_id":"e1c155e0-52c3-40f4-b2d0-950841c3078b","system_id":"levelo_inurba_marseille","lat":43.2936,"lon":5.37835,"is_reserved":false,"is_disabled":false,"rental_uris":{"android":"levelo://app?vid=e1c155e0-52c3-40f4-b2d0-950841c3078b","ios":"levelo://app?vid=e1c155e0-52c3-40f4-b2d0-950841c3078b"},"vehicle_type_id":"4","last_reported":1706595005,"current_range_meters":27600,"station_id":"ce4bgjh2rcd13ifvqbf0","pricing_plan_id":"free"},{"bike_id":"7ec29f76-9e15-4e23-b525-30fe265176d9","system_id":"levelo_inurba_marseille","lat":43.29228,"lon":5.3605,"is_reserved":false,"is_disabled":false,"rental_uris":{"android":"levelo://app?vid=7ec29f76-9e15-4e23-b525-30fe265176d9","ios":"levelo://app?vid=7ec29f76-9e15-4e23-b525-30fe265176d9"},"vehicle_type_id":"4","last_reported":1706595005,"current_range_meters":30400,"station_id":"ce4bhbh2rcd13ifvqeqg","pricing_plan_id":"free"},{"bike_id":"78c84b1e-d6a1-4026-92a8-81d2ca3482e5","system_id":"levelo_inurba_marseille","lat":43.292092,"lon":5.360436,"is_reserved":false,"is_disabled":false,"rental_uris":{"android":"levelo://app?vid=78c84b1e-d6a1-4026-92a8-81d2ca3482e5","ios":"levelo://app?vid=78c84b1e-d6a1-4026-92a8-81d2ca3482e5"},"vehicle_type_id":"4","last_reported":1706595005,"current_range_meters":29600,"station_id":"ce4bhbh2rcd13ifvqeqg","pricing_plan_id":"free"},{"bike_id":"4300ea46-dbf4-4781-89a1-149cc340c8bd","system_id":"levelo_inurba_marseille","lat":43.298764,"lon":5.388973,"is_reserved":false,"is_disabled":false,"rental_uris":{"android":"levelo://app?vid=4300ea46-dbf4-4781-89a1-149cc340c8bd","ios":"levelo://app?vid=4300ea46-dbf4-4781-89a1-149cc340c8bd"},"vehicle_type_id":"4","last_reported":1706595005,"current_range_meters":4400,"station_id":"ce4bh392rcd13ifvqdl0","pricing_plan_id":"free"},{"bike_id":"15e03da3-5982-40da-8c5e-5e4b5f590042","system_id":"levelo_inurba_marseille","lat":43.298764,"lon":5.388973,"is_reserved":false,"is_disabled":false,"rental_uris":{"android":"levelo://app?vid=15e03da3-5982-40da-8c5e-5e4b5f590042","ios":"levelo://app?vid=15e03da3-5982-40da-8c5e-5e4b5f590042"},"vehicle_type_id":"4","last_reported":1706595005,"current_range_meters":18400,"station_id":"ce4bh392rcd13ifvqdl0","pricing_plan_id":"free"},{"bike_id":"42752d60-ce5a-4aba-bb4d-6befb053704d","system_id":"levelo_inurba_marseille","lat":43.29873,"lon":5.38906,"is_reserved":false,"is_disabled":false,"rental_uris":{"android":"levelo://app?vid=42752d60-ce5a-4aba-bb4d-6befb053704d","ios":"levelo://app?vid=42752d60-ce5a-4aba-bb4d-6befb053704d"},"vehicle_type_id":"4","last_reported":1706595005,"current_range_meters":31600,"station_id":"","pricing_plan_id":"free"},{"bike_id":"262ab755-43c8-48ba-b3ff-64ba02a86121","system_id":"levelo_inurba_marseille","lat":43.309038,"lon":5.396546,"is_reserved":false,"is_disabled":false,"rental_uris":{"android":"levelo://app?vid=262ab755-43c8-48ba-b3ff-64ba02a86121","ios":"levelo://app?vid=262ab755-43c8-48ba-b3ff-64ba02a86121"},"vehicle_type_id":"4","last_reported":1706595005,"current_range_meters":30400,"station_id":"ce4bh012rcd13ifvqcv0","pricing_plan_id":"free"},{"bike_id":"b61e3b4c-03e1-4dd4-9173-aded730ff6f2","system_id":"levelo_inurba_marseille","lat":43.308832,"lon":5.396294,"is_reserved":false,"is_disabled":false,"rental_uris":{"android":"levelo://app?vid=b61e3b4c-03e1-4dd4-9173-aded730ff6f2","ios":"levelo://app?vid=b61e3b4c-03e1-4dd4-9173-aded730ff6f2"},"vehicle_type_id":"4","last_reported":1706595005,"current_range_meters":12400,"station_id":"ce4bh012rcd13ifvqcv0","pricing_plan_id":"free"},{"bike_id":"c1e1a74c-7564-415a-8abc-0fcbeb7ef317","system_id":"levelo_inurba_marseille","lat":43.30884,"lon":5.396301,"is_reserved":false,"is_disabled":false,"rental_uris":{"android":"levelo://app?vid=c1e1a74c-7564-415a-8abc-0fcbeb7ef317","ios":"levelo://app?vid=c1e1a74c-7564-415a-8abc-0fcbeb7ef317"},"vehicle_type_id":"4","last_reported":1706595005,"current_range_meters":20400,"station_id":"ce4bh012rcd13ifvqcv0","pricing_plan_id":"free"},{"bike_id":"1405e604-9cf5-42f8-9bce-88e4764ce68e","system_id":"levelo_inurba_marseille","lat":43.309038,"lon":5.396546,"is_reserved":false,"is_disabled":false,"rental_uris":{"android":"levelo://app?vid=1405e604-9cf5-42f8-9bce-88e4764ce68e","ios":"levelo://app?vid=1405e604-9cf5-42f8-9bce-88e4764ce68e"},"vehicle_type_id":"4","last_reported":1706595005,"current_range_meters":24400,"station_id":"ce4bh012rcd13ifvqcv0","pricing_plan_id":"free"},{"bike_id":"6e9cf4c7-3d24-498c-a9a1-1081e91d920c","system_id":"levelo_inurba_marseille","lat":43.308838,"lon":5.396305,"is_reserved":false,"is_disabled":false,"rental_uris":{"android":"levelo://app?vid=6e9cf4c7-3d24-498c-a9a1-1081e91d920c","ios":"levelo://app?vid=6e9cf4c7-3d24-498c-a9a1-1081e91d920c"},"vehicle_type_id":"4","last_reported":1706595005,"current_range_meters":16000,"station_id":"ce4bh012rcd13ifvqcv0","pricing_plan_id":"free"},{"bike_id":"4b35d7e7-56c0-4104-8559-b43c8174454c","system_id":"levelo_inurba_marseille","lat":43.309038,"lon":5.396546,"is_reserved":false,"is_disabled":false,"rental_uris":{"android":"levelo://app?vid=4b35d7e7-56c0-4104-8559-b43c8174454c","ios":"levelo://app?vid=4b35d7e7-56c0-4104-8559-b43c8174454c"},"vehicle_type_id":"4","last_reported":1706595005,"current_range_meters":2800,"station_id":"ce4bh012rcd13ifvqcv0","pricing_plan_id":"free"},{"bike_id":"026a2567-4afc-4aeb-9b74-3f92811b1049","system_id":"levelo_inurba_marseille","lat":43.313291,"lon":5.396838,"is_reserved":false,"is_disabled":false,"rental_uris":{"android":"levelo://app?vid=026a2567-4afc-4aeb-9b74-3f92811b1049","ios":"levelo://app?vid=026a2567-4afc-4aeb-9b74-3f92811b1049"},"vehicle_type_id":"4","last_reported":1706595005,"current_range_meters":18000,"station_id":"ce4bgvp2rcd13ifvqcu0","pricing_plan_id":"free"},{"bike_id":"afa168ee-e828-4eee-a74e-6270da90788d","system_id":"levelo_inurba_marseille","lat":43.308837,"lon":5.396358,"is_reserved":false,"is_disabled":false,"rental_uris":{"android":"levelo://app?vid=afa168ee-e828-4eee-a74e-6270da90788d","ios":"levelo://app?vid=afa168ee-e828-4eee-a74e-6270da90788d"},"vehicle_type_id":"4","last_reported":1706595005,"current_range_meters":4800,"station_id":"ce4bh012rcd13ifvqcv0","pricing_plan_id":"free"},{"bike_id":"c07daf04-e21b-4f24-a83e-49b9ec655b9c","system_id":"levelo_inurba_marseille","lat":43.309038,"lon":5.396546,"is_reserved":false,"is_disabled":false,"rental_uris":{"android":"levelo://app?vid=c07daf04-e21b-4f24-a83e-49b9ec655b9c","ios":"levelo://app?vid=c07daf04-e21b-4f24-a83e-49b9ec655b9c"},"vehicle_type_id":"4","last_reported":1706595005,"current_range_meters":31600,"station_id":"ce4bh012rcd13ifvqcv0","pricing_plan_id":"free"},{"bike_id":"82d14565-9ce5-48c6-889c-ad4a6e64384d","system_id":"levelo_inurba_marseille","lat":43.309038,"lon":5.396546,"is_reserved":false,"is_disabled":false,"rental_uris":{"android":"levelo://app?vid=82d14565-9ce5-48c6-889c-ad4a6e64384d","ios":"levelo://app?vid=82d14565-9ce5-48c6-889c-ad4a6e64384d"},"vehicle_type_id":"4","last_reported":1706595005,"current_range_meters":9200,"station_id":"ce4bh012rcd13ifvqcv0","pricing_plan_id":"free"},{"bike_id":"92e84b73-e47c-4621-bdf8-c017630d7642","system_id":"levelo_inurba_marseille","lat":43.309038,"lon":5.396546,"is_reserved":false,"is_disabled":false,"rental_uris":{"android":"levelo://app?vid=92e84b73-e47c-4621-bdf8-c017630d7642","ios":"levelo://app?vid=92e84b73-e47c-4621-bdf8-c017630d7642"},"vehicle_type_id":"4","last_reported":1706595005,"current_range_meters":10000,"station_id":"ce4bh012rcd13ifvqcv0","pricing_plan_id":"free"},{"bike_id":"60d917f5-4d65-481e-ba20-ebcaf446e790","system_id":"levelo_inurba_marseille","lat":43.309038,"lon":5.396546,"is_reserved":false,"is_disabled":false,"rental_uris":{"android":"levelo://app?vid=60d917f5-4d65-481e-ba20-ebcaf446e790","ios":"levelo://app?vid=60d917f5-4d65-481e-ba20-ebcaf446e790"},"vehicle_type_id":"4","last_reported":1706595005,"current_range_meters":31600,"station_id":"ce4bh012rcd13ifvqcv0","pricing_plan_id":"free"},{"bike_id":"376e9015-0120-4931-afd1-4bf49d8cc162","system_id":"levelo_inurba_marseille","lat":43.291994,"lon":5.357886,"is_reserved":false,"is_disabled":false,"rental_uris":{"android":"levelo://app?vid=376e9015-0120-4931-afd1-4bf49d8cc162","ios":"levelo://app?vid=376e9015-0120-4931-afd1-4bf49d8cc162"},"vehicle_type_id":"4","last_reported":1706595005,"current_range_meters":27200,"station_id":"ce4bhb12rcd13ifvqel0","pricing_plan_id":"free"},{"bike_id":"3e98e9f1-4454-4610-b890-6e982804de0a","system_id":"levelo_inurba_marseille","lat":43.309038,"lon":5.396546,"is_reserved":false,"is_disabled":false,"rental_uris":{"android":"levelo://app?vid=3e98e9f1-4454-4610-b890-6e982804de0a","ios":"levelo://app?vid=3e98e9f1-4454-4610-b890-6e982804de0a"},"vehicle_type_id":"4","last_reported":1706595005,"current_range_meters":22400,"station_id":"ce4bh012rcd13ifvqcv0","pricing_plan_id":"free"},{"bike_id":"94694735-b0a7-4a13-b8d0-373bbc9655a0","system_id":"levelo_inurba_marseille","lat":43.313291,"lon":5.396838,"is_reserved":false,"is_disabled":false,"rental_uris":{"android":"levelo://app?vid=94694735-b0a7-4a13-b8d0-373bbc9655a0","ios":"levelo://app?vid=94694735-b0a7-4a13-b8d0-373bbc9655a0"},"vehicle_type_id":"4","last_reported":1706595005,"current_range_meters":31200,"station_id":"ce4bgvp2rcd13ifvqcu0","pricing_plan_id":"free"},{"bike_id":"c158d75a-efe0-4ff4-8c01-a3bab86b73f2","system_id":"levelo_inurba_marseille","lat":43.309038,"lon":5.396546,"is_reserved":false,"is_disabled":false,"rental_uris":{"android":"levelo://app?vid=c158d75a-efe0-4ff4-8c01-a3bab86b73f2","ios":"levelo://app?vid=c158d75a-efe0-4ff4-8c01-a3bab86b73f2"},"vehicle_type_id":"4","last_reported":1706595005,"current_range_meters":14400,"station_id":"ce4bh012rcd13ifvqcv0","pricing_plan_id":"free"},{"bike_id":"067a3f54-cdb1-4351-888c-7235aaac275f","system_id":"levelo_inurba_marseille","lat":43.313291,"lon":5.396838,"is_reserved":false,"is_disabled":false,"rental_uris":{"android":"levelo://app?vid=067a3f54-cdb1-4351-888c-7235aaac275f","ios":"levelo://app?vid=067a3f54-cdb1-4351-888c-7235aaac275f"},"vehicle_type_id":"4","last_reported":1706595005,"current_range_meters":8400,"station_id":"ce4bgvp2rcd13ifvqcu0","pricing_plan_id":"free"},{"bike_id":"b36fd92c-f2dc-4b9f-b79f-68b10cd4ccd8","system_id":"levelo_inurba_marseille","lat":43.31326,"lon":5.39692,"is_reserved":false,"is_disabled":false,"rental_uris":{"android":"levelo://app?vid=b36fd92c-f2dc-4b9f-b79f-68b10cd4ccd8","ios":"levelo://app?vid=b36fd92c-f2dc-4b9f-b79f-68b10cd4ccd8"},"vehicle_type_id":"4","last_reported":1706595005,"current_range_meters":12800,"station_id":"ce4bgvp2rcd13ifvqcu0","pricing_plan_id":"free"},{"bike_id":"5930fe37-bd8f-40e9-a615-0698b316f8a7","system_id":"levelo_inurba_marseille","lat":43.313291,"lon":5.396838,"is_reserved":false,"is_disabled":false,"rental_uris":{"android":"levelo://app?vid=5930fe37-bd8f-40e9-a615-0698b316f8a7","ios":"levelo://app?vid=5930fe37-bd8f-40e9-a615-0698b316f8a7"},"vehicle_type_id":"4","last_reported":1706595005,"current_range_meters":31200,"station_id":"ce4bgvp2rcd13ifvqcu0","pricing_plan_id":"free"},{"bike_id":"b6d72427-c365-4967-93b9-105071017ce2","system_id":"levelo_inurba_marseille","lat":43.31324,"lon":5.39693,"is_reserved":false,"is_disabled":false,"rental_uris":{"android":"levelo://app?vid=b6d72427-c365-4967-93b9-105071017ce2","ios":"levelo://app?vid=b6d72427-c365-4967-93b9-105071017ce2"},"vehicle_type_id":"4","last_reported":1706595005,"current_range_meters":31200,"station_id":"ce4bgvp2rcd13ifvqcu0","pricing_plan_id":"free"},{"bike_id":"f48ae292-23a2-4e41-bfa5-847a89ffd6e5","system_id":"levelo_inurba_marseille","lat":43.291994,"lon":5.357886,"is_reserved":false,"is_disabled":false,"rental_uris":{"android":"levelo://app?vid=f48ae292-23a2-4e41-bfa5-847a89ffd6e5","ios":"levelo://app?vid=f48ae292-23a2-4e41-bfa5-847a89ffd6e5"},"vehicle_type_id":"4","last_reported":1706595005,"current_range_meters":5600,"station_id":"ce4bhb12rcd13ifvqel0","pricing_plan_id":"free"},{"bike_id":"ea8ae95c-4655-4202-ab1c-dc5ad19c7faf","system_id":"levelo_inurba_marseille","lat":43.308862,"lon":5.396462,"is_reserved":false,"is_disabled":false,"rental_uris":{"android":"levelo://app?vid=ea8ae95c-4655-4202-ab1c-dc5ad19c7faf","ios":"levelo://app?vid=ea8ae95c-4655-4202-ab1c-dc5ad19c7faf"},"vehicle_type_id":"4","last_reported":1706595005,"current_range_meters":3200,"station_id":"","pricing_plan_id":"free"},{"bike_id":"5382f71c-eeec-4197-8c9c-904f2333c755","system_id":"levelo_inurba_marseille","lat":43.31328,"lon":5.39694,"is_reserved":false,"is_disabled":false,"rental_uris":{"android":"levelo://app?vid=5382f71c-eeec-4197-8c9c-904f2333c755","ios":"levelo://app?vid=5382f71c-eeec-4197-8c9c-904f2333c755"},"vehicle_type_id":"4","last_reported":1706595005,"current_range_meters":3600,"station_id":"ce4bgvp2rcd13ifvqcu0","pricing_plan_id":"free"},{"bike_id":"f5e7ae9a-d3e2-40d7-b6a6-13962af8917f","system_id":"levelo_inurba_marseille","lat":43.313271,"lon":5.396949,"is_reserved":false,"is_disabled":false,"rental_uris":{"android":"levelo://app?vid=f5e7ae9a-d3e2-40d7-b6a6-13962af8917f","ios":"levelo://app?vid=f5e7ae9a-d3e2-40d7-b6a6-13962af8917f"},"vehicle_type_id":"4","last_reported":1706595005,"current_range_meters":25600,"station_id":"ce4bgvp2rcd13ifvqcu0","pricing_plan_id":"free"},{"bike_id":"50610dd5-80b5-45c8-88ad-2b7dce06de7e","system_id":"levelo_inurba_marseille","lat":43.31327,"lon":5.39695,"is_reserved":false,"is_disabled":false,"rental_uris":{"android":"levelo://app?vid=50610dd5-80b5-45c8-88ad-2b7dce06de7e","ios":"levelo://app?vid=50610dd5-80b5-45c8-88ad-2b7dce06de7e"},"vehicle_type_id":"4","last_reported":1706595005,"current_range_meters":28800,"station_id":"ce4bgvp2rcd13ifvqcu0","pricing_plan_id":"free"},{"bike_id":"aa5f2382-8921-4a1f-a1de-1ef8869aed4d","system_id":"levelo_inurba_marseille","lat":43.313291,"lon":5.396838,"is_reserved":false,"is_disabled":false,"rental_uris":{"android":"levelo://app?vid=aa5f2382-8921-4a1f-a1de-1ef8869aed4d","ios":"levelo://app?vid=aa5f2382-8921-4a1f-a1de-1ef8869aed4d"},"vehicle_type_id":"4","last_reported":1706595005,"current_range_meters":14400,"station_id":"ce4bgvp2rcd13ifvqcu0","pricing_plan_id":"free"},{"bike_id":"f53485f9-f98f-46e0-b0ca-bab93f000b79","system_id":"levelo_inurba_marseille","lat":43.313291,"lon":5.397001,"is_reserved":false,"is_disabled":false,"rental_uris":{"android":"levelo://app?vid=f53485f9-f98f-46e0-b0ca-bab93f000b79","ios":"levelo://app?vid=f53485f9-f98f-46e0-b0ca-bab93f000b79"},"vehicle_type_id":"4","last_reported":1706595005,"current_range_meters":18000,"station_id":"ce4bgvp2rcd13ifvqcu0","pricing_plan_id":"free"},{"bike_id":"bb14bd2d-da01-4d43-99dc-0ecf3732aba2","system_id":"levelo_inurba_marseille","lat":43.29529,"lon":5.385581,"is_reserved":false,"is_disabled":false,"rental_uris":{"android":"levelo://app?vid=bb14bd2d-da01-4d43-99dc-0ecf3732aba2","ios":"levelo://app?vid=bb14bd2d-da01-4d43-99dc-0ecf3732aba2"},"vehicle_type_id":"4","last_reported":1706595005,"current_range_meters":21200,"station_id":"ce4bgih2rcd13ifvqba0","pricing_plan_id":"free"},{"bike_id":"809d3a18-6f6f-443f-a675-463b71f8f328","system_id":"levelo_inurba_marseille","lat":43.302138,"lon":5.394662,"is_reserved":false,"is_disabled":false,"rental_uris":{"android":"levelo://app?vid=809d3a18-6f6f-443f-a675-463b71f8f328","ios":"levelo://app?vid=809d3a18-6f6f-443f-a675-463b71f8f328"},"vehicle_type_id":"4","last_reported":1706595005,"current_range_meters":27200,"station_id":"ce4bh0p2rcd13ifvqd70","pricing_plan_id":"free"},{"bike_id":"2c1e47ad-3478-424c-8c66-23a600b1f0dc","system_id":"levelo_inurba_marseille","lat":43.290441,"lon":5.359123,"is_reserved":false,"is_disabled":false,"rental_uris":{"android":"levelo://app?vid=2c1e47ad-3478-424c-8c66-23a600b1f0dc","ios":"levelo://app?vid=2c1e47ad-3478-424c-8c66-23a600b1f0dc"},"vehicle_type_id":"4","last_reported":1706595005,"current_range_meters":19200,"station_id":"","pricing_plan_id":"free"},{"bike_id":"5f8dbcc7-0eac-48ba-961b-5da301647439","system_id":"levelo_inurba_marseille","lat":43.294153,"lon":5.386305,"is_reserved":false,"is_disabled":false,"rental_uris":{"android":"levelo://app?vid=5f8dbcc7-0eac-48ba-961b-5da301647439","ios":"levelo://app?vid=5f8dbcc7-0eac-48ba-961b-5da301647439"},"vehicle_type_id":"4","last_reported":1706595005,"current_range_meters":28400,"station_id":"ce4bh2h2rcd13ifvqdh0","pricing_plan_id":"free"},{"bike_id":"3e19266b-737a-4c48-9270-c721c4ff5515","system_id":"levelo_inurba_marseille","lat":43.28948,"lon":5.36396,"is_reserved":false,"is_disabled":false,"rental_uris":{"android":"levelo://app?vid=3e19266b-737a-4c48-9270-c721c4ff5515","ios":"levelo://app?vid=3e19266b-737a-4c48-9270-c721c4ff5515"},"vehicle_type_id":"4","last_reported":1706595005,"current_range_meters":7600,"station_id":"ce4bhc92rcd13ifvqetg","pricing_plan_id":"free"},{"bike_id":"9a953d5a-3ad4-40a9-a948-01820d5ff246","system_id":"levelo_inurba_marseille","lat":43.28937,"lon":5.36626,"is_reserved":false,"is_disabled":false,"rental_uris":{"android":"levelo://app?vid=9a953d5a-3ad4-40a9-a948-01820d5ff246","ios":"levelo://app?vid=9a953d5a-3ad4-40a9-a948-01820d5ff246"},"vehicle_type_id":"4","last_reported":1706595005,"current_range_meters":18000,"station_id":"ce4bhap2rcd13ifvqek0","pricing_plan_id":"free"},{"bike_id":"2522d434-263e-4c3b-93df-0be97f21be53","system_id":"levelo_inurba_marseille","lat":43.289438,"lon":5.363915,"is_reserved":false,"is_disabled":false,"rental_uris":{"android":"levelo://app?vid=2522d434-263e-4c3b-93df-0be97f21be53","ios":"levelo://app?vid=2522d434-263e-4c3b-93df-0be97f21be53"},"vehicle_type_id":"4","last_reported":1706595005,"current_range_meters":16000,"station_id":"ce4bhc92rcd13ifvqetg","pricing_plan_id":"free"},{"bike_id":"fbb33163-4eda-46c1-b5ee-6042cb7e3646","system_id":"levelo_inurba_marseille","lat":43.289407,"lon":5.363904,"is_reserved":false,"is_disabled":false,"rental_uris":{"android":"levelo://app?vid=fbb33163-4eda-46c1-b5ee-6042cb7e3646","ios":"levelo://app?vid=fbb33163-4eda-46c1-b5ee-6042cb7e3646"},"vehicle_type_id":"4","last_reported":1706595005,"current_range_meters":22000,"station_id":"ce4bhc92rcd13ifvqetg","pricing_plan_id":"free"},{"bike_id":"d26f5bdf-3c12-49a2-b03b-eb4fca799f15","system_id":"levelo_inurba_marseille","lat":43.289468,"lon":5.363719,"is_reserved":false,"is_disabled":false,"rental_uris":{"android":"levelo://app?vid=d26f5bdf-3c12-49a2-b03b-eb4fca799f15","ios":"levelo://app?vid=d26f5bdf-3c12-49a2-b03b-eb4fca799f15"},"vehicle_type_id":"4","last_reported":1706595005,"current_range_meters":28800,"station_id":"ce4bhc92rcd13ifvqetg","pricing_plan_id":"free"},{"bike_id":"563f9f80-dc0e-4d8d-9201-6803e6e29146","system_id":"levelo_inurba_marseille","lat":43.28935,"lon":5.36402,"is_reserved":false,"is_disabled":false,"rental_uris":{"android":"levelo://app?vid=563f9f80-dc0e-4d8d-9201-6803e6e29146","ios":"levelo://app?vid=563f9f80-dc0e-4d8d-9201-6803e6e29146"},"vehicle_type_id":"4","last_reported":1706595005,"current_range_meters":28400,"station_id":"ce4bhc92rcd13ifvqetg","pricing_plan_id":"free"},{"bike_id":"60f2c368-dd3c-460c-a07b-00a8dd1933ca","system_id":"levelo_inurba_marseille","lat":43.304274,"lon":5.397513,"is_reserved":false,"is_disabled":false,"rental_uris":{"android":"levelo://app?vid=60f2c368-dd3c-460c-a07b-00a8dd1933ca","ios":"levelo://app?vid=60f2c368-dd3c-460c-a07b-00a8dd1933ca"},"vehicle_type_id":"4","last_reported":1706595005,"current_range_meters":27200,"station_id":"ce4bh092rcd13ifvqd20","pricing_plan_id":"free"},{"bike_id":"a9b10684-6d64-4121-b37f-e394d49967fb","system_id":"levelo_inurba_marseille","lat":43.290104,"lon":5.356111,"is_reserved":false,"is_disabled":false,"rental_uris":{"android":"levelo://app?vid=a9b10684-6d64-4121-b37f-e394d49967fb","ios":"levelo://app?vid=a9b10684-6d64-4121-b37f-e394d49967fb"},"vehicle_type_id":"4","last_reported":1706595005,"current_range_meters":29600,"station_id":"ce4bhb92rcd13ifvqen0","pricing_plan_id":"free"},{"bike_id":"e3773d17-b3ff-4c6d-a9e3-b9f663b101b1","system_id":"levelo_inurba_marseille","lat":43.297947,"lon":5.393389,"is_reserved":false,"is_disabled":false,"rental_uris":{"android":"levelo://app?vid=e3773d17-b3ff-4c6d-a9e3-b9f663b101b1","ios":"levelo://app?vid=e3773d17-b3ff-4c6d-a9e3-b9f663b101b1"},"vehicle_type_id":"4","last_reported":1706595005,"current_range_meters":28400,"station_id":"chh1huq6cuj3fo74tm60","pricing_plan_id":"free"},{"bike_id":"560df544-b0a0-46e5-bc31-37959c9ad887","system_id":"levelo_inurba_marseille","lat":43.297815,"lon":5.393548,"is_reserved":false,"is_disabled":false,"rental_uris":{"android":"levelo://app?vid=560df544-b0a0-46e5-bc31-37959c9ad887","ios":"levelo://app?vid=560df544-b0a0-46e5-bc31-37959c9ad887"},"vehicle_type_id":"4","last_reported":1706595005,"current_range_meters":30800,"station_id":"chh1huq6cuj3fo74tm60","pricing_plan_id":"free"},{"bike_id":"2ee5855c-07ce-4382-9dda-3663589f01c7","system_id":"levelo_inurba_marseille","lat":43.289743,"lon":5.378304,"is_reserved":false,"is_disabled":false,"rental_uris":{"android":"levelo://app?vid=2ee5855c-07ce-4382-9dda-3663589f01c7","ios":"levelo://app?vid=2ee5855c-07ce-4382-9dda-3663589f01c7"},"vehicle_type_id":"4","last_reported":1706595005,"current_range_meters":0,"station_id":"ce4bh9p2rcd13ifvqed0","pricing_plan_id":"free"},{"bike_id":"536d2704-3927-4957-837a-b2b86a24d827","system_id":"levelo_inurba_marseille","lat":43.330442,"lon":5.389148,"is_reserved":false,"is_disabled":false,"rental_uris":{"android":"levelo://app?vid=536d2704-3927-4957-837a-b2b86a24d827","ios":"levelo://app?vid=536d2704-3927-4957-837a-b2b86a24d827"},"vehicle_type_id":"4","last_reported":1706595005,"current_range_meters":15600,"station_id":"ce4bhr92rcd13ifvqhrg","pricing_plan_id":"free"},{"bike_id":"ca0d8e53-0e04-4cb7-a2a9-e398803487ef","system_id":"levelo_inurba_marseille","lat":43.330442,"lon":5.389148,"is_reserved":false,"is_disabled":false,"rental_uris":{"android":"levelo://app?vid=ca0d8e53-0e04-4cb7-a2a9-e398803487ef","ios":"levelo://app?vid=ca0d8e53-0e04-4cb7-a2a9-e398803487ef"},"vehicle_type_id":"4","last_reported":1706595005,"current_range_meters":28800,"station_id":"ce4bhr92rcd13ifvqhrg","pricing_plan_id":"free"},{"bike_id":"b7e9febd-67eb-4972-9aa9-ea8a8f06e051","system_id":"levelo_inurba_marseille","lat":43.33024,"lon":5.39035,"is_reserved":false,"is_disabled":false,"rental_uris":{"android":"levelo://app?vid=b7e9febd-67eb-4972-9aa9-ea8a8f06e051","ios":"levelo://app?vid=b7e9febd-67eb-4972-9aa9-ea8a8f06e051"},"vehicle_type_id":"4","last_reported":1706595005,"current_range_meters":14800,"station_id":"ce4bhr92rcd13ifvqhrg","pricing_plan_id":"free"},{"bike_id":"2c35eee9-0a73-4a36-80a9-96c0004dabf1","system_id":"levelo_inurba_marseille","lat":43.33018,"lon":5.39044,"is_reserved":false,"is_disabled":false,"rental_uris":{"android":"levelo://app?vid=2c35eee9-0a73-4a36-80a9-96c0004dabf1","ios":"levelo://app?vid=2c35eee9-0a73-4a36-80a9-96c0004dabf1"},"vehicle_type_id":"4","last_reported":1706595005,"current_range_meters":28400,"station_id":"ce4bhr92rcd13ifvqhrg","pricing_plan_id":"free"},{"bike_id":"bf9d087b-2e12-433c-b9c4-75c0b045c4eb","system_id":"levelo_inurba_marseille","lat":43.295169,"lon":5.390426,"is_reserved":false,"is_disabled":false,"rental_uris":{"android":"levelo://app?vid=bf9d087b-2e12-433c-b9c4-75c0b045c4eb","ios":"levelo://app?vid=bf9d087b-2e12-433c-b9c4-75c0b045c4eb"},"vehicle_type_id":"4","last_reported":1706595005,"current_range_meters":26800,"station_id":"ce4bh3p2rcd13ifvqdp0","pricing_plan_id":"free"},{"bike_id":"bcb4a93d-67d3-41e9-bff5-adfd3537a796","system_id":"levelo_inurba_marseille","lat":43.28856,"lon":5.358371,"is_reserved":false,"is_disabled":false,"rental_uris":{"android":"levelo://app?vid=bcb4a93d-67d3-41e9-bff5-adfd3537a796","ios":"levelo://app?vid=bcb4a93d-67d3-41e9-bff5-adfd3537a796"},"vehicle_type_id":"4","last_reported":1706595005,"current_range_meters":23200,"station_id":"ce4bhb12rcd13ifvqem0","pricing_plan_id":"free"},{"bike_id":"dc0cb5b0-1098-450d-af84-8fb9ff29bf5f","system_id":"levelo_inurba_marseille","lat":43.28856,"lon":5.358371,"is_reserved":false,"is_disabled":false,"rental_uris":{"android":"levelo://app?vid=dc0cb5b0-1098-450d-af84-8fb9ff29bf5f","ios":"levelo://app?vid=dc0cb5b0-1098-450d-af84-8fb9ff29bf5f"},"vehicle_type_id":"4","last_reported":1706595005,"current_range_meters":31200,"station_id":"ce4bhb12rcd13ifvqem0","pricing_plan_id":"free"},{"bike_id":"d745797d-d48b-41a2-a87a-e95b1ea7a4eb","system_id":"levelo_inurba_marseille","lat":43.28856,"lon":5.358371,"is_reserved":false,"is_disabled":false,"rental_uris":{"android":"levelo://app?vid=d745797d-d48b-41a2-a87a-e95b1ea7a4eb","ios":"levelo://app?vid=d745797d-d48b-41a2-a87a-e95b1ea7a4eb"},"vehicle_type_id":"4","last_reported":1706595005,"current_range_meters":28400,"station_id":"ce4bhb12rcd13ifvqem0","pricing_plan_id":"free"},{"bike_id":"aa7aa871-37b1-4ba0-9e45-abce3106479d","system_id":"levelo_inurba_marseille","lat":43.28856,"lon":5.358371,"is_reserved":false,"is_disabled":false,"rental_uris":{"android":"levelo://app?vid=aa7aa871-37b1-4ba0-9e45-abce3106479d","ios":"levelo://app?vid=aa7aa871-37b1-4ba0-9e45-abce3106479d"},"vehicle_type_id":"4","last_reported":1706595005,"current_range_meters":2000,"station_id":"ce4bhb12rcd13ifvqem0","pricing_plan_id":"free"},{"bike_id":"12061fc2-a3c1-4ba0-a8e0-f4d3e3001fa5","system_id":"levelo_inurba_marseille","lat":43.28856,"lon":5.358371,"is_reserved":false,"is_disabled":false,"rental_uris":{"android":"levelo://app?vid=12061fc2-a3c1-4ba0-a8e0-f4d3e3001fa5","ios":"levelo://app?vid=12061fc2-a3c1-4ba0-a8e0-f4d3e3001fa5"},"vehicle_type_id":"4","last_reported":1706595005,"current_range_meters":27600,"station_id":"ce4bhb12rcd13ifvqem0","pricing_plan_id":"free"},{"bike_id":"996874ac-4858-428d-9bcb-6194a257f641","system_id":"levelo_inurba_marseille","lat":43.28856,"lon":5.358371,"is_reserved":false,"is_disabled":false,"rental_uris":{"android":"levelo://app?vid=996874ac-4858-428d-9bcb-6194a257f641","ios":"levelo://app?vid=996874ac-4858-428d-9bcb-6194a257f641"},"vehicle_type_id":"4","last_reported":1706595005,"current_range_meters":6800,"station_id":"ce4bhb12rcd13ifvqem0","pricing_plan_id":"free"},{"bike_id":"4729c0d4-9a73-419c-919f-11172d77f3d4","system_id":"levelo_inurba_marseille","lat":43.28856,"lon":5.358371,"is_reserved":false,"is_disabled":false,"rental_uris":{"android":"levelo://app?vid=4729c0d4-9a73-419c-919f-11172d77f3d4","ios":"levelo://app?vid=4729c0d4-9a73-419c-919f-11172d77f3d4"},"vehicle_type_id":"4","last_reported":1706595005,"current_range_meters":3200,"station_id":"ce4bhb12rcd13ifvqem0","pricing_plan_id":"free"},{"bike_id":"50a3ee12-bdf6-45b5-a244-0bb9da6965f7","system_id":"levelo_inurba_marseille","lat":43.28856,"lon":5.358371,"is_reserved":false,"is_disabled":false,"rental_uris":{"android":"levelo://app?vid=50a3ee12-bdf6-45b5-a244-0bb9da6965f7","ios":"levelo://app?vid=50a3ee12-bdf6-45b5-a244-0bb9da6965f7"},"vehicle_type_id":"4","last_reported":1706595005,"current_range_meters":23600,"station_id":"ce4bhb12rcd13ifvqem0","pricing_plan_id":"free"},{"bike_id":"e67ad8e5-85aa-4d7a-90f4-b82221c09c32","system_id":"levelo_inurba_marseille","lat":43.28856,"lon":5.358371,"is_reserved":false,"is_disabled":false,"rental_uris":{"android":"levelo://app?vid=e67ad8e5-85aa-4d7a-90f4-b82221c09c32","ios":"levelo://app?vid=e67ad8e5-85aa-4d7a-90f4-b82221c09c32"},"vehicle_type_id":"4","last_reported":1706595005,"current_range_meters":25600,"station_id":"ce4bhb12rcd13ifvqem0","pricing_plan_id":"free"},{"bike_id":"1cf894b2-e7d5-4b26-b98d-66ab34703764","system_id":"levelo_inurba_marseille","lat":43.28856,"lon":5.358371,"is_reserved":false,"is_disabled":false,"rental_uris":{"android":"levelo://app?vid=1cf894b2-e7d5-4b26-b98d-66ab34703764","ios":"levelo://app?vid=1cf894b2-e7d5-4b26-b98d-66ab34703764"},"vehicle_type_id":"4","last_reported":1706595005,"current_range_meters":2000,"station_id":"ce4bhb12rcd13ifvqem0","pricing_plan_id":"free"},{"bike_id":"d09c1d21-a58f-43ac-b40e-5e7c7921070e","system_id":"levelo_inurba_marseille","lat":43.312609,"lon":5.401662,"is_reserved":false,"is_disabled":false,"rental_uris":{"android":"levelo://app?vid=d09c1d21-a58f-43ac-b40e-5e7c7921070e","ios":"levelo://app?vid=d09c1d21-a58f-43ac-b40e-5e7c7921070e"},"vehicle_type_id":"4","last_reported":1706595005,"current_range_meters":26800,"station_id":"ce4bh092rcd13ifvqd30","pricing_plan_id":"free"},{"bike_id":"106cff73-b018-4862-846a-28ff463f1539","system_id":"levelo_inurba_marseille","lat":43.312609,"lon":5.401662,"is_reserved":false,"is_disabled":false,"rental_uris":{"android":"levelo://app?vid=106cff73-b018-4862-846a-28ff463f1539","ios":"levelo://app?vid=106cff73-b018-4862-846a-28ff463f1539"},"vehicle_type_id":"4","last_reported":1706595005,"current_range_meters":29600,"station_id":"ce4bh092rcd13ifvqd30","pricing_plan_id":"free"},{"bike_id":"d3d1584a-c394-4775-81a5-189c61e6fd0b","system_id":"levelo_inurba_marseille","lat":43.309371,"lon":5.401449,"is_reserved":false,"is_disabled":false,"rental_uris":{"android":"levelo://app?vid=d3d1584a-c394-4775-81a5-189c61e6fd0b","ios":"levelo://app?vid=d3d1584a-c394-4775-81a5-189c61e6fd0b"},"vehicle_type_id":"4","last_reported":1706595005,"current_range_meters":23200,"station_id":"ce4bgvp2rcd13ifvqct0","pricing_plan_id":"free"},{"bike_id":"1de59e6a-7ccb-4b50-a577-045fd7f7de5c","system_id":"levelo_inurba_marseille","lat":43.309371,"lon":5.401449,"is_reserved":false,"is_disabled":false,"rental_uris":{"android":"levelo://app?vid=1de59e6a-7ccb-4b50-a577-045fd7f7de5c","ios":"levelo://app?vid=1de59e6a-7ccb-4b50-a577-045fd7f7de5c"},"vehicle_type_id":"4","last_reported":1706595005,"current_range_meters":29600,"station_id":"ce4bgvp2rcd13ifvqct0","pricing_plan_id":"free"},{"bike_id":"a91e6031-53e9-4ce6-b14e-67b83565e2d0","system_id":"levelo_inurba_marseille","lat":43.30926,"lon":5.40144,"is_reserved":false,"is_disabled":false,"rental_uris":{"android":"levelo://app?vid=a91e6031-53e9-4ce6-b14e-67b83565e2d0","ios":"levelo://app?vid=a91e6031-53e9-4ce6-b14e-67b83565e2d0"},"vehicle_type_id":"4","last_reported":1706595005,"current_range_meters":31200,"station_id":"ce4bgvp2rcd13ifvqct0","pricing_plan_id":"free"},{"bike_id":"a563cdbf-78b8-441c-8dce-8da1c3325b92","system_id":"levelo_inurba_marseille","lat":43.337493,"lon":5.374515,"is_reserved":false,"is_disabled":false,"rental_uris":{"android":"levelo://app?vid=a563cdbf-78b8-441c-8dce-8da1c3325b92","ios":"levelo://app?vid=a563cdbf-78b8-441c-8dce-8da1c3325b92"},"vehicle_type_id":"4","last_reported":1706595005,"current_range_meters":20000,"station_id":"","pricing_plan_id":"free"},{"bike_id":"8d016917-9a2e-4033-9bdb-c8169d9eb3ce","system_id":"levelo_inurba_marseille","lat":43.30939,"lon":5.4015,"is_reserved":false,"is_disabled":false,"rental_uris":{"android":"levelo://app?vid=8d016917-9a2e-4033-9bdb-c8169d9eb3ce","ios":"levelo://app?vid=8d016917-9a2e-4033-9bdb-c8169d9eb3ce"},"vehicle_type_id":"4","last_reported":1706595005,"current_range_meters":28400,"station_id":"ce4bgvp2rcd13ifvqct0","pricing_plan_id":"free"},{"bike_id":"b7f12eab-e0a6-499e-87ec-2b4381c4602a","system_id":"levelo_inurba_marseille","lat":43.337544,"lon":5.374554,"is_reserved":false,"is_disabled":false,"rental_uris":{"android":"levelo://app?vid=b7f12eab-e0a6-499e-87ec-2b4381c4602a","ios":"levelo://app?vid=b7f12eab-e0a6-499e-87ec-2b4381c4602a"},"vehicle_type_id":"4","last_reported":1706595005,"current_range_meters":19600,"station_id":"","pricing_plan_id":"free"},{"bike_id":"91b6ff85-6ee5-4dda-afcf-7e77437e0e9c","system_id":"levelo_inurba_marseille","lat":43.337584,"lon":5.374353,"is_reserved":false,"is_disabled":false,"rental_uris":{"android":"levelo://app?vid=91b6ff85-6ee5-4dda-afcf-7e77437e0e9c","ios":"levelo://app?vid=91b6ff85-6ee5-4dda-afcf-7e77437e0e9c"},"vehicle_type_id":"4","last_reported":1706595005,"current_range_meters":20000,"station_id":"","pricing_plan_id":"free"},{"bike_id":"663b4048-76fd-43f1-8346-64e09c2c7288","system_id":"levelo_inurba_marseille","lat":43.337579,"lon":5.374576,"is_reserved":false,"is_disabled":false,"rental_uris":{"android":"levelo://app?vid=663b4048-76fd-43f1-8346-64e09c2c7288","ios":"levelo://app?vid=663b4048-76fd-43f1-8346-64e09c2c7288"},"vehicle_type_id":"4","last_reported":1706595005,"current_range_meters":16000,"station_id":"","pricing_plan_id":"free"},{"bike_id":"2fe24097-b1c2-4583-ba1f-cf8501171a4c","system_id":"levelo_inurba_marseille","lat":43.337552,"lon":5.374839,"is_reserved":false,"is_disabled":false,"rental_uris":{"android":"levelo://app?vid=2fe24097-b1c2-4583-ba1f-cf8501171a4c","ios":"levelo://app?vid=2fe24097-b1c2-4583-ba1f-cf8501171a4c"},"vehicle_type_id":"4","last_reported":1706595005,"current_range_meters":3600,"station_id":"","pricing_plan_id":"free"},{"bike_id":"22f2ddad-3b54-4c31-8db7-750ed6b09aaa","system_id":"levelo_inurba_marseille","lat":43.299558,"lon":5.396878,"is_reserved":false,"is_disabled":false,"rental_uris":{"android":"levelo://app?vid=22f2ddad-3b54-4c31-8db7-750ed6b09aaa","ios":"levelo://app?vid=22f2ddad-3b54-4c31-8db7-750ed6b09aaa"},"vehicle_type_id":"4","last_reported":1706595005,"current_range_meters":12000,"station_id":"","pricing_plan_id":"free"},{"bike_id":"b7d3b81d-d85a-44b5-a0c7-8f9c9f74639e","system_id":"levelo_inurba_marseille","lat":43.337652,"lon":5.374317,"is_reserved":false,"is_disabled":false,"rental_uris":{"android":"levelo://app?vid=b7d3b81d-d85a-44b5-a0c7-8f9c9f74639e","ios":"levelo://app?vid=b7d3b81d-d85a-44b5-a0c7-8f9c9f74639e"},"vehicle_type_id":"4","last_reported":1706595005,"current_range_meters":23600,"station_id":"","pricing_plan_id":"free"},{"bike_id":"1facbbf3-baac-42f8-85eb-cb1e36f3e4b9","system_id":"levelo_inurba_marseille","lat":43.337579,"lon":5.374922,"is_reserved":false,"is_disabled":false,"rental_uris":{"android":"levelo://app?vid=1facbbf3-baac-42f8-85eb-cb1e36f3e4b9","ios":"levelo://app?vid=1facbbf3-baac-42f8-85eb-cb1e36f3e4b9"},"vehicle_type_id":"4","last_reported":1706595005,"current_range_meters":5600,"station_id":"","pricing_plan_id":"free"},{"bike_id":"12568932-a9a7-4d52-8b2c-668683b75358","system_id":"levelo_inurba_marseille","lat":43.337654,"lon":5.374971,"is_reserved":false,"is_disabled":false,"rental_uris":{"android":"levelo://app?vid=12568932-a9a7-4d52-8b2c-668683b75358","ios":"levelo://app?vid=12568932-a9a7-4d52-8b2c-668683b75358"},"vehicle_type_id":"4","last_reported":1706595005,"current_range_meters":15600,"station_id":"","pricing_plan_id":"free"},{"bike_id":"888fe018-6135-4210-94ff-19cc4fe60be8","system_id":"levelo_inurba_marseille","lat":43.287315,"lon":5.360894,"is_reserved":false,"is_disabled":false,"rental_uris":{"android":"levelo://app?vid=888fe018-6135-4210-94ff-19cc4fe60be8","ios":"levelo://app?vid=888fe018-6135-4210-94ff-19cc4fe60be8"},"vehicle_type_id":"4","last_reported":1706595005,"current_range_meters":400,"station_id":"cki0cbj6b192h4jlfktg","pricing_plan_id":"free"},{"bike_id":"3c082ef8-998e-4b68-a29d-6b97c12f9805","system_id":"levelo_inurba_marseille","lat":43.304687,"lon":5.400653,"is_reserved":false,"is_disabled":false,"rental_uris":{"android":"levelo://app?vid=3c082ef8-998e-4b68-a29d-6b97c12f9805","ios":"levelo://app?vid=3c082ef8-998e-4b68-a29d-6b97c12f9805"},"vehicle_type_id":"4","last_reported":1706595005,"current_range_meters":22800,"station_id":"","pricing_plan_id":"free"},{"bike_id":"6a20c9d8-7d4a-4715-a3e7-c5a147041d89","system_id":"levelo_inurba_marseille","lat":43.28727,"lon":5.36078,"is_reserved":false,"is_disabled":false,"rental_uris":{"android":"levelo://app?vid=6a20c9d8-7d4a-4715-a3e7-c5a147041d89","ios":"levelo://app?vid=6a20c9d8-7d4a-4715-a3e7-c5a147041d89"},"vehicle_type_id":"4","last_reported":1706595005,"current_range_meters":400,"station_id":"cki0cbj6b192h4jlfktg","pricing_plan_id":"free"},{"bike_id":"c77238a3-22c2-4cc0-978c-c10c0a714161","system_id":"levelo_inurba_marseille","lat":43.28727,"lon":5.36078,"is_reserved":false,"is_disabled":false,"rental_uris":{"android":"levelo://app?vid=c77238a3-22c2-4cc0-978c-c10c0a714161","ios":"levelo://app?vid=c77238a3-22c2-4cc0-978c-c10c0a714161"},"vehicle_type_id":"4","last_reported":1706595005,"current_range_meters":3600,"station_id":"cki0cbj6b192h4jlfktg","pricing_plan_id":"free"},{"bike_id":"917f423e-d6b9-44e5-aad6-e9a19dfe6294","system_id":"levelo_inurba_marseille","lat":43.28727,"lon":5.36078,"is_reserved":false,"is_disabled":false,"rental_uris":{"android":"levelo://app?vid=917f423e-d6b9-44e5-aad6-e9a19dfe6294","ios":"levelo://app?vid=917f423e-d6b9-44e5-aad6-e9a19dfe6294"},"vehicle_type_id":"4","last_reported":1706595005,"current_range_meters":800,"station_id":"cki0cbj6b192h4jlfktg","pricing_plan_id":"free"},{"bike_id":"ac4fa579-edec-4e5c-bd47-d17552f58267","system_id":"levelo_inurba_marseille","lat":43.287219,"lon":5.360909,"is_reserved":false,"is_disabled":false,"rental_uris":{"android":"levelo://app?vid=ac4fa579-edec-4e5c-bd47-d17552f58267","ios":"levelo://app?vid=ac4fa579-edec-4e5c-bd47-d17552f58267"},"vehicle_type_id":"4","last_reported":1706595005,"current_range_meters":19600,"station_id":"cki0cbj6b192h4jlfktg","pricing_plan_id":"free"},{"bike_id":"54c7e8bc-34b9-4735-9532-d5fc6184a089","system_id":"levelo_inurba_marseille","lat":43.286663,"lon":5.363462,"is_reserved":false,"is_disabled":false,"rental_uris":{"android":"levelo://app?vid=54c7e8bc-34b9-4735-9532-d5fc6184a089","ios":"levelo://app?vid=54c7e8bc-34b9-4735-9532-d5fc6184a089"},"vehicle_type_id":"4","last_reported":1706595005,"current_range_meters":14000,"station_id":"","pricing_plan_id":"free"},{"bike_id":"b898dc94-5a6a-4129-ba14-91bee8c2c76b","system_id":"levelo_inurba_marseille","lat":43.286648,"lon":5.363468,"is_reserved":false,"is_disabled":false,"rental_uris":{"android":"levelo://app?vid=b898dc94-5a6a-4129-ba14-91bee8c2c76b","ios":"levelo://app?vid=b898dc94-5a6a-4129-ba14-91bee8c2c76b"},"vehicle_type_id":"4","last_reported":1706595005,"current_range_meters":2800,"station_id":"ce4bhah2rcd13ifvqej0","pricing_plan_id":"free"},{"bike_id":"1b1fb395-0bd7-4d4a-8dc5-30cc98791e6f","system_id":"levelo_inurba_marseille","lat":43.298681,"lon":5.397225,"is_reserved":false,"is_disabled":false,"rental_uris":{"android":"levelo://app?vid=1b1fb395-0bd7-4d4a-8dc5-30cc98791e6f","ios":"levelo://app?vid=1b1fb395-0bd7-4d4a-8dc5-30cc98791e6f"},"vehicle_type_id":"4","last_reported":1706595005,"current_range_meters":31200,"station_id":"ce4bh0h2rcd13ifvqd50","pricing_plan_id":"free"},{"bike_id":"fccd36d9-d6c4-400e-958b-9dcab1fe1fd6","system_id":"levelo_inurba_marseille","lat":43.286961,"lon":5.373785,"is_reserved":false,"is_disabled":false,"rental_uris":{"android":"levelo://app?vid=fccd36d9-d6c4-400e-958b-9dcab1fe1fd6","ios":"levelo://app?vid=fccd36d9-d6c4-400e-958b-9dcab1fe1fd6"},"vehicle_type_id":"4","last_reported":1706595005,"current_range_meters":31600,"station_id":"ce4bh3p2rcd13ifvqdq0","pricing_plan_id":"free"},{"bike_id":"e4cbab0e-4db6-4022-9a92-4a942701f9b7","system_id":"levelo_inurba_marseille","lat":43.286961,"lon":5.373785,"is_reserved":false,"is_disabled":false,"rental_uris":{"android":"levelo://app?vid=e4cbab0e-4db6-4022-9a92-4a942701f9b7","ios":"levelo://app?vid=e4cbab0e-4db6-4022-9a92-4a942701f9b7"},"vehicle_type_id":"4","last_reported":1706595005,"current_range_meters":11600,"station_id":"ce4bh3p2rcd13ifvqdq0","pricing_plan_id":"free"},{"bike_id":"d9d8356a-608c-4644-b005-7d43f02fb0be","system_id":"levelo_inurba_marseille","lat":43.287011,"lon":5.37389,"is_reserved":false,"is_disabled":false,"rental_uris":{"android":"levelo://app?vid=d9d8356a-608c-4644-b005-7d43f02fb0be","ios":"levelo://app?vid=d9d8356a-608c-4644-b005-7d43f02fb0be"},"vehicle_type_id":"4","last_reported":1706595005,"current_range_meters":30400,"station_id":"","pricing_plan_id":"free"},{"bike_id":"847f360b-67db-4bde-8ce1-4a399094222c","system_id":"levelo_inurba_marseille","lat":43.286961,"lon":5.373785,"is_reserved":false,"is_disabled":false,"rental_uris":{"android":"levelo://app?vid=847f360b-67db-4bde-8ce1-4a399094222c","ios":"levelo://app?vid=847f360b-67db-4bde-8ce1-4a399094222c"},"vehicle_type_id":"4","last_reported":1706595005,"current_range_meters":19600,"station_id":"ce4bh3p2rcd13ifvqdq0","pricing_plan_id":"free"},{"bike_id":"6159cc09-4c68-4f17-8639-e57b6b5b655e","system_id":"levelo_inurba_marseille","lat":43.286629,"lon":5.363465,"is_reserved":false,"is_disabled":false,"rental_uris":{"android":"levelo://app?vid=6159cc09-4c68-4f17-8639-e57b6b5b655e","ios":"levelo://app?vid=6159cc09-4c68-4f17-8639-e57b6b5b655e"},"vehicle_type_id":"4","last_reported":1706595005,"current_range_meters":7200,"station_id":"ce4bhah2rcd13ifvqej0","pricing_plan_id":"free"},{"bike_id":"5939e54a-96f4-4bb1-a4df-14106d929914","system_id":"levelo_inurba_marseille","lat":43.286623,"lon":5.363507,"is_reserved":false,"is_disabled":false,"rental_uris":{"android":"levelo://app?vid=5939e54a-96f4-4bb1-a4df-14106d929914","ios":"levelo://app?vid=5939e54a-96f4-4bb1-a4df-14106d929914"},"vehicle_type_id":"4","last_reported":1706595005,"current_range_meters":16400,"station_id":"ce4bhah2rcd13ifvqej0","pricing_plan_id":"free"},{"bike_id":"ceed7712-7f74-49b9-98f5-0c410889e5e3","system_id":"levelo_inurba_marseille","lat":43.286961,"lon":5.373785,"is_reserved":false,"is_disabled":false,"rental_uris":{"android":"levelo://app?vid=ceed7712-7f74-49b9-98f5-0c410889e5e3","ios":"levelo://app?vid=ceed7712-7f74-49b9-98f5-0c410889e5e3"},"vehicle_type_id":"4","last_reported":1706595005,"current_range_meters":27200,"station_id":"ce4bh3p2rcd13ifvqdq0","pricing_plan_id":"free"},{"bike_id":"1315efbe-3740-4310-8e1d-e36c26deef6d","system_id":"levelo_inurba_marseille","lat":43.286961,"lon":5.373785,"is_reserved":false,"is_disabled":false,"rental_uris":{"android":"levelo://app?vid=1315efbe-3740-4310-8e1d-e36c26deef6d","ios":"levelo://app?vid=1315efbe-3740-4310-8e1d-e36c26deef6d"},"vehicle_type_id":"4","last_reported":1706595005,"current_range_meters":24400,"station_id":"ce4bh3p2rcd13ifvqdq0","pricing_plan_id":"free"},{"bike_id":"bf7ee3d7-60c7-495d-8389-848bce99b53b","system_id":"levelo_inurba_marseille","lat":43.28659,"lon":5.363488,"is_reserved":false,"is_disabled":false,"rental_uris":{"android":"levelo://app?vid=bf7ee3d7-60c7-495d-8389-848bce99b53b","ios":"levelo://app?vid=bf7ee3d7-60c7-495d-8389-848bce99b53b"},"vehicle_type_id":"4","last_reported":1706595005,"current_range_meters":23200,"station_id":"ce4bhah2rcd13ifvqej0","pricing_plan_id":"free"},{"bike_id":"e699dd47-6bf3-4369-ae9e-5b582ecba0a8","system_id":"levelo_inurba_marseille","lat":43.286587,"lon":5.363509,"is_reserved":false,"is_disabled":false,"rental_uris":{"android":"levelo://app?vid=e699dd47-6bf3-4369-ae9e-5b582ecba0a8","ios":"levelo://app?vid=e699dd47-6bf3-4369-ae9e-5b582ecba0a8"},"vehicle_type_id":"4","last_reported":1706595005,"current_range_meters":6400,"station_id":"ce4bhah2rcd13ifvqej0","pricing_plan_id":"free"},{"bike_id":"fa267333-7c06-4387-ac94-ca27cdf5d5ef","system_id":"levelo_inurba_marseille","lat":43.30257,"lon":5.40064,"is_reserved":false,"is_disabled":false,"rental_uris":{"android":"levelo://app?vid=fa267333-7c06-4387-ac94-ca27cdf5d5ef","ios":"levelo://app?vid=fa267333-7c06-4387-ac94-ca27cdf5d5ef"},"vehicle_type_id":"4","last_reported":1706595005,"current_range_meters":29200,"station_id":"ce4bgvh2rcd13ifvqcs0","pricing_plan_id":"free"},{"bike_id":"18e26d70-496b-4383-b832-d51300f634b8","system_id":"levelo_inurba_marseille","lat":43.302473,"lon":5.40066,"is_reserved":false,"is_disabled":false,"rental_uris":{"android":"levelo://app?vid=18e26d70-496b-4383-b832-d51300f634b8","ios":"levelo://app?vid=18e26d70-496b-4383-b832-d51300f634b8"},"vehicle_type_id":"4","last_reported":1706595005,"current_range_meters":9200,"station_id":"ce4bgvh2rcd13ifvqcs0","pricing_plan_id":"free"},{"bike_id":"752237eb-bf38-48f8-a2bb-fc8204b4f32c","system_id":"levelo_inurba_marseille","lat":43.30246,"lon":5.40068,"is_reserved":false,"is_disabled":false,"rental_uris":{"android":"levelo://app?vid=752237eb-bf38-48f8-a2bb-fc8204b4f32c","ios":"levelo://app?vid=752237eb-bf38-48f8-a2bb-fc8204b4f32c"},"vehicle_type_id":"4","last_reported":1706595005,"current_range_meters":28800,"station_id":"ce4bgvh2rcd13ifvqcs0","pricing_plan_id":"free"},{"bike_id":"6b64c911-421e-4e62-b9d9-ef908fcdb5bb","system_id":"levelo_inurba_marseille","lat":43.302485,"lon":5.400694,"is_reserved":false,"is_disabled":false,"rental_uris":{"android":"levelo://app?vid=6b64c911-421e-4e62-b9d9-ef908fcdb5bb","ios":"levelo://app?vid=6b64c911-421e-4e62-b9d9-ef908fcdb5bb"},"vehicle_type_id":"4","last_reported":1706595005,"current_range_meters":6400,"station_id":"ce4bgvh2rcd13ifvqcs0","pricing_plan_id":"free"},{"bike_id":"08119c0f-583f-43f0-9436-cfa3a1e9b980","system_id":"levelo_inurba_marseille","lat":43.30251,"lon":5.40071,"is_reserved":false,"is_disabled":false,"rental_uris":{"android":"levelo://app?vid=08119c0f-583f-43f0-9436-cfa3a1e9b980","ios":"levelo://app?vid=08119c0f-583f-43f0-9436-cfa3a1e9b980"},"vehicle_type_id":"4","last_reported":1706595005,"current_range_meters":29200,"station_id":"ce4bgvh2rcd13ifvqcs0","pricing_plan_id":"free"},{"bike_id":"2ef4b550-7db0-4ee9-a980-d0071df207e5","system_id":"levelo_inurba_marseille","lat":43.30251,"lon":5.40072,"is_reserved":false,"is_disabled":false,"rental_uris":{"android":"levelo://app?vid=2ef4b550-7db0-4ee9-a980-d0071df207e5","ios":"levelo://app?vid=2ef4b550-7db0-4ee9-a980-d0071df207e5"},"vehicle_type_id":"4","last_reported":1706595005,"current_range_meters":30400,"station_id":"ce4bgvh2rcd13ifvqcs0","pricing_plan_id":"free"},{"bike_id":"58104200-1ff0-41f7-8a7c-b84bb5ca8c4a","system_id":"levelo_inurba_marseille","lat":43.30246,"lon":5.40071,"is_reserved":false,"is_disabled":false,"rental_uris":{"android":"levelo://app?vid=58104200-1ff0-41f7-8a7c-b84bb5ca8c4a","ios":"levelo://app?vid=58104200-1ff0-41f7-8a7c-b84bb5ca8c4a"},"vehicle_type_id":"4","last_reported":1706595005,"current_range_meters":23200,"station_id":"ce4bgvh2rcd13ifvqcs0","pricing_plan_id":"free"},{"bike_id":"807665df-a4a0-4d1f-93e9-1a9c1f652134","system_id":"levelo_inurba_marseille","lat":43.28612,"lon":5.37064,"is_reserved":false,"is_disabled":false,"rental_uris":{"android":"levelo://app?vid=807665df-a4a0-4d1f-93e9-1a9c1f652134","ios":"levelo://app?vid=807665df-a4a0-4d1f-93e9-1a9c1f652134"},"vehicle_type_id":"4","last_reported":1706595005,"current_range_meters":400,"station_id":"ce4bht12rcd13ifvqi60","pricing_plan_id":"free"},{"bike_id":"b0a81108-6938-414d-abd4-0220f16756ca","system_id":"levelo_inurba_marseille","lat":43.2861,"lon":5.37058,"is_reserved":false,"is_disabled":false,"rental_uris":{"android":"levelo://app?vid=b0a81108-6938-414d-abd4-0220f16756ca","ios":"levelo://app?vid=b0a81108-6938-414d-abd4-0220f16756ca"},"vehicle_type_id":"4","last_reported":1706595005,"current_range_meters":3200,"station_id":"ce4bht12rcd13ifvqi60","pricing_plan_id":"free"},{"bike_id":"7315761b-a6e7-4dd1-96cc-efe9b3958bda","system_id":"levelo_inurba_marseille","lat":43.316619,"lon":5.404434,"is_reserved":false,"is_disabled":false,"rental_uris":{"android":"levelo://app?vid=7315761b-a6e7-4dd1-96cc-efe9b3958bda","ios":"levelo://app?vid=7315761b-a6e7-4dd1-96cc-efe9b3958bda"},"vehicle_type_id":"4","last_reported":1706595005,"current_range_meters":0,"station_id":"","pricing_plan_id":"free"},{"bike_id":"97b0bde0-bd3d-4e18-b61d-44a138bde320","system_id":"levelo_inurba_marseille","lat":43.29995,"lon":5.40057,"is_reserved":false,"is_disabled":false,"rental_uris":{"android":"levelo://app?vid=97b0bde0-bd3d-4e18-b61d-44a138bde320","ios":"levelo://app?vid=97b0bde0-bd3d-4e18-b61d-44a138bde320"},