{"last_updated":1747487887,"ttl":60,"version":"2.2","data":{"bikes":[{"bike_id":"c0b9fd4f-e181-46ce-b0bf-f5119973334f","system_id":"levelo_inurba_marseille","lat":43.33771,"lon":5.37424,"is_reserved":false,"is_disabled":false,"rental_uris":{"android":"levelo://app?vid=c0b9fd4f-e181-46ce-b0bf-f5119973334f","ios":"levelo://app?vid=c0b9fd4f-e181-46ce-b0bf-f5119973334f"},"vehicle_type_id":"4","last_reported":1747487887,"current_range_meters":5600,"station_id":"","pricing_plan_id":"cebpf4jnsgd1na2vs0mg"},{"bike_id":"fc2577e7-1497-425b-9d4f-ab8d7dc843c6","system_id":"levelo_inurba_marseille","lat":43.33771,"lon":5.37485,"is_reserved":false,"is_disabled":true,"rental_uris":{"android":"levelo://app?vid=fc2577e7-1497-425b-9d4f-ab8d7dc843c6","ios":"levelo://app?vid=fc2577e7-1497-425b-9d4f-ab8d7dc843c6"},"vehicle_type_id":"4","last_reported":1747487887,"current_range_meters":0,"station_id":"","pricing_plan_id":"cebpf4jnsgd1na2vs0mg"},{"bike_id":"80d0d83f-909d-4568-b4e7-8a3ef4eed2de","system_id":"levelo_inurba_marseille","lat":43.253883,"lon":5.419002,"is_reserved":false,"is_disabled":true,"rental_uris":{"android":"levelo://app?vid=80d0d83f-909d-4568-b4e7-8a3ef4eed2de","ios":"levelo://app?vid=80d0d83f-909d-4568-b4e7-8a3ef4eed2de"},"vehicle_type_id":"4","last_reported":1747487887,"current_range_meters":0,"station_id":"","pricing_plan_id":"cebpf4jnsgd1na2vs0mg"},{"bike_id":"ce4325af-2448-4172-bdec-81d552ee0b62","system_id":"levelo_inurba_marseille","lat":43.26172,"lon":5.42025,"is_reserved":false,"is_disabled":true,"rental_uris":{"android":"levelo://app?vid=ce4325af-2448-4172-bdec-81d552ee0b62","ios":"levelo://app?vid=ce4325af-2448-4172-bdec-81d552ee0b62"},"vehicle_type_id":"4","last_reported":1747487887,"current_range_meters":0,"station_id":"","pricing_plan_id":"cebpf4jnsgd1na2vs0mg"},{"bike_id":"23939faf-d206-4b93-ade4-199417584041","system_id":"levelo_inurba_marseille","lat":43.24945,"lon":5.37536,"is_reserved":false,"is_disabled":true,"rental_uris":{"android":"levelo://app?vid=23939faf-d206-4b93-ade4-199417584041","ios":"levelo://app?vid=23939faf-d206-4b93-ade4-199417584041"},"vehicle_type_id":"4","last_reported":1747487887,"current_range_meters":0,"station_id":"","pricing_plan_id":"cebpf4jnsgd1na2vs0mg"},{"bike_id":"6104f253-4496-4619-8d2b-60a2530278cf","system_id":"levelo_inurba_marseille","lat":43.28194,"lon":5.39051,"is_reserved":false,"is_disabled":true,"rental_uris":{"android":"levelo://app?vid=6104f253-4496-4619-8d2b-60a2530278cf","ios":"levelo://app?vid=6104f253-4496-4619-8d2b-60a2530278cf"},"vehicle_type_id":"4","last_reported":1747487887,"current_range_meters":0,"station_id":"","pricing_plan_id":"cebpf4jnsgd1na2vs0mg"},{"bike_id":"792567c6-0442-4011-aff0-9c05e25deb48","system_id":"levelo_inurba_marseille","lat":43.337444,"lon":5.374475,"is_reserved":false,"is_disabled":true,"rental_uris":{"android":"levelo://app?vid=792567c6-0442-4011-aff0-9c05e25deb48","ios":"levelo://app?vid=792567c6-0442-4011-aff0-9c05e25deb48"},"vehicle_type_id":"4","last_reported":1747487887,"current_range_meters":0,"station_id":"","pricing_plan_id":"cebpf4jnsgd1na2vs0mg"},{"bike_id":"bb0baa39-1e01-43e0-a77c-5ba8d631e8a2","system_id":"levelo_inurba_marseille","lat":43.27267,"lon":5.38555,"is_reserved":false,"is_disabled":true,"rental_uris":{"android":"levelo://app?vid=bb0baa39-1e01-43e0-a77c-5ba8d631e8a2","ios":"levelo://app?vid=bb0baa39-1e01-43e0-a77c-5ba8d631e8a2"},"vehicle_type_id":"4","last_reported":1747487887,"current_range_meters":0,"station_id":"","pricing_plan_id":"cebpf4jnsgd1na2vs0mg"},{"bike_id":"86238aaa-a668-4ff9-bb96-9751bfec3cc3","system_id":"levelo_inurba_marseille","lat":43.31357,"lon":5.38496,"is_reserved":false,"is_disabled":true,"rental_uris":{"android":"levelo://app?vid=86238aaa-a668-4ff9-bb96-9751bfec3cc3","ios":"levelo://app?vid=86238aaa-a668-4ff9-bb96-9751bfec3cc3"},"vehicle_type_id":"4","last_reported":1747487887,"current_range_meters":0,"station_id":"ce4bgt92rcd13ifvqcf0","pricing_plan_id":"cebpf4jnsgd1na2vs0mg"},{"bike_id":"a2701eba-c400-4a84-8ef5-245904d87b19","system_id":"levelo_inurba_marseille","lat":43.30253,"lon":5.40056,"is_reserved":false,"is_disabled":true,"rental_uris":{"android":"levelo://app?vid=a2701eba-c400-4a84-8ef5-245904d87b19","ios":"levelo://app?vid=a2701eba-c400-4a84-8ef5-245904d87b19"},"vehicle_type_id":"4","last_reported":1747487887,"current_range_meters":0,"station_id":"ce4bgvh2rcd13ifvqcs0","pricing_plan_id":"cebpf4jnsgd1na2vs0mg"},{"bike_id":"b529f714-7258-4f0c-a66c-a1cc7a3c3c6e","system_id":"levelo_inurba_marseille","lat":43.2987,"lon":5.39742,"is_reserved":false,"is_disabled":true,"rental_uris":{"android":"levelo://app?vid=b529f714-7258-4f0c-a66c-a1cc7a3c3c6e","ios":"levelo://app?vid=b529f714-7258-4f0c-a66c-a1cc7a3c3c6e"},"vehicle_type_id":"4","last_reported":1747487887,"current_range_meters":0,"station_id":"ce4bh0h2rcd13ifvqd50","pricing_plan_id":"cebpf4jnsgd1na2vs0mg"},{"bike_id":"0307330c-a819-41c4-bff5-e41a5bcb3e8a","system_id":"levelo_inurba_marseille","lat":43.30092,"lon":5.39064,"is_reserved":false,"is_disabled":true,"rental_uris":{"android":"levelo://app?vid=0307330c-a819-41c4-bff5-e41a5bcb3e8a","ios":"levelo://app?vid=0307330c-a819-41c4-bff5-e41a5bcb3e8a"},"vehicle_type_id":"4","last_reported":1747487887,"current_range_meters":0,"station_id":"ce4bh192rcd13ifvqdb0","pricing_plan_id":"cebpf4jnsgd1na2vs0mg"},{"bike_id":"452f98e1-9947-4c95-a951-aa08e8dc92ca","system_id":"levelo_inurba_marseille","lat":43.29073,"lon":5.38168,"is_reserved":false,"is_disabled":true,"rental_uris":{"android":"levelo://app?vid=452f98e1-9947-4c95-a951-aa08e8dc92ca","ios":"levelo://app?vid=452f98e1-9947-4c95-a951-aa08e8dc92ca"},"vehicle_type_id":"4","last_reported":1747487887,"current_range_meters":0,"station_id":"ce4bh512rcd13ifvqe2g","pricing_plan_id":"cebpf4jnsgd1na2vs0mg"},{"bike_id":"42b44bf8-3b9f-428f-86ef-1a4dc28a1c36","system_id":"levelo_inurba_marseille","lat":43.29003,"lon":5.356,"is_reserved":false,"is_disabled":true,"rental_uris":{"android":"levelo://app?vid=42b44bf8-3b9f-428f-86ef-1a4dc28a1c36","ios":"levelo://app?vid=42b44bf8-3b9f-428f-86ef-1a4dc28a1c36"},"vehicle_type_id":"4","last_reported":1747487887,"current_range_meters":0,"station_id":"ce4bhb92rcd13ifvqen0","pricing_plan_id":"cebpf4jnsgd1na2vs0mg"},{"bike_id":"1bb5bd60-4b1e-4450-b7bd-13fbcf43ef57","system_id":"levelo_inurba_marseille","lat":43.27375,"lon":5.36264,"is_reserved":false,"is_disabled":true,"rental_uris":{"android":"levelo://app?vid=1bb5bd60-4b1e-4450-b7bd-13fbcf43ef57","ios":"levelo://app?vid=1bb5bd60-4b1e-4450-b7bd-13fbcf43ef57"},"vehicle_type_id":"4","last_reported":1747487887,"current_range_meters":0,"station_id":"ce4bhbh2rcd13ifvqeo0","pricing_plan_id":"cebpf4jnsgd1na2vs0mg"},{"bike_id":"d965356d-9a58-41de-b3e3-85be27bc392c","system_id":"levelo_inurba_marseille","lat":43.26554,"lon":5.37289,"is_reserved":false,"is_disabled":true,"rental_uris":{"android":"levelo://app?vid=d965356d-9a58-41de-b3e3-85be27bc392c","ios":"levelo://app?vid=d965356d-9a58-41de-b3e3-85be27bc392c"},"vehicle_type_id":"4","last_reported":1747487887,"current_range_meters":0,"station_id":"ce4bhg12rcd13ifvqf70","pricing_plan_id":"cebpf4jnsgd1na2vs0mg"},{"bike_id":"bc85d505-49b1-44bb-a5db-83ca89d0f0be","system_id":"levelo_inurba_marseille","lat":43.26552,"lon":5.37283,"is_reserved":false,"is_disabled":true,"rental_uris":{"android":"levelo://app?vid=bc85d505-49b1-44bb-a5db-83ca89d0f0be","ios":"levelo://app?vid=bc85d505-49b1-44bb-a5db-83ca89d0f0be"},"vehicle_type_id":"4","last_reported":1747487887,"current_range_meters":0,"station_id":"ce4bhg12rcd13ifvqf70","pricing_plan_id":"cebpf4jnsgd1na2vs0mg"},{"bike_id":"de82ae27-2bdd-4968-8ba5-2d808744ef0c","system_id":"levelo_inurba_marseille","lat":43.26553,"lon":5.37281,"is_reserved":false,"is_disabled":true,"rental_uris":{"android":"levelo://app?vid=de82ae27-2bdd-4968-8ba5-2d808744ef0c","ios":"levelo://app?vid=de82ae27-2bdd-4968-8ba5-2d808744ef0c"},"vehicle_type_id":"4","last_reported":1747487887,"current_range_meters":0,"station_id":"ce4bhg12rcd13ifvqf70","pricing_plan_id":"cebpf4jnsgd1na2vs0mg"},{"bike_id":"3e4d241c-4081-448a-b2df-c72311f0590d","system_id":"levelo_inurba_marseille","lat":43.26208,"lon":5.37439,"is_reserved":false,"is_disabled":true,"rental_uris":{"android":"levelo://app?vid=3e4d241c-4081-448a-b2df-c72311f0590d","ios":"levelo://app?vid=3e4d241c-4081-448a-b2df-c72311f0590d"},"vehicle_type_id":"4","last_reported":1747487887,"current_range_meters":0,"station_id":"ce4bhgp2rcd13ifvqfc0","pricing_plan_id":"cebpf4jnsgd1na2vs0mg"},{"bike_id":"9113e279-1e8f-408f-93e7-449d77abc1e1","system_id":"levelo_inurba_marseille","lat":43.26189,"lon":5.37448,"is_reserved":false,"is_disabled":true,"rental_uris":{"android":"levelo://app?vid=9113e279-1e8f-408f-93e7-449d77abc1e1","ios":"levelo://app?vid=9113e279-1e8f-408f-93e7-449d77abc1e1"},"vehicle_type_id":"4","last_reported":1747487887,"current_range_meters":0,"station_id":"ce4bhgp2rcd13ifvqfc0","pricing_plan_id":"cebpf4jnsgd1na2vs0mg"},{"bike_id":"00294e0f-d0ad-40be-a668-aff47157cd27","system_id":"levelo_inurba_marseille","lat":43.26775,"lon":5.39426,"is_reserved":false,"is_disabled":true,"rental_uris":{"android":"levelo://app?vid=00294e0f-d0ad-40be-a668-aff47157cd27","ios":"levelo://app?vid=00294e0f-d0ad-40be-a668-aff47157cd27"},"vehicle_type_id":"4","last_reported":1747487887,"current_range_meters":0,"station_id":"ce4bhh12rcd13ifvqfg0","pricing_plan_id":"cebpf4jnsgd1na2vs0mg"},{"bike_id":"17263047-5b03-49f7-b9b9-abec0f5b5e6a","system_id":"levelo_inurba_marseille","lat":43.24386,"lon":5.37064,"is_reserved":false,"is_disabled":true,"rental_uris":{"android":"levelo://app?vid=17263047-5b03-49f7-b9b9-abec0f5b5e6a","ios":"levelo://app?vid=17263047-5b03-49f7-b9b9-abec0f5b5e6a"},"vehicle_type_id":"4","last_reported":1747487887,"current_range_meters":0,"station_id":"ce4bhhh2rcd13ifvqfk0","pricing_plan_id":"cebpf4jnsgd1na2vs0mg"},{"bike_id":"c07b2368-1e35-48fa-9baf-c1d8f6649242","system_id":"levelo_inurba_marseille","lat":43.27673,"lon":5.38925,"is_reserved":false,"is_disabled":true,"rental_uris":{"android":"levelo://app?vid=c07b2368-1e35-48fa-9baf-c1d8f6649242","ios":"levelo://app?vid=c07b2368-1e35-48fa-9baf-c1d8f6649242"},"vehicle_type_id":"4","last_reported":1747487887,"current_range_meters":0,"station_id":"ce4bhi12rcd13ifvqfo0","pricing_plan_id":"cebpf4jnsgd1na2vs0mg"},{"bike_id":"553bba6c-1eee-4fd0-a922-5eeaaaf2b0dc","system_id":"levelo_inurba_marseille","lat":43.23964,"lon":5.36635,"is_reserved":false,"is_disabled":true,"rental_uris":{"android":"levelo://app?vid=553bba6c-1eee-4fd0-a922-5eeaaaf2b0dc","ios":"levelo://app?vid=553bba6c-1eee-4fd0-a922-5eeaaaf2b0dc"},"vehicle_type_id":"4","last_reported":1747487887,"current_range_meters":0,"station_id":"ce4bhi12rcd13ifvqfp0","pricing_plan_id":"cebpf4jnsgd1na2vs0mg"},{"bike_id":"63e8a27d-0548-4865-90e6-6308fe5b1e1f","system_id":"levelo_inurba_marseille","lat":43.23966,"lon":5.36628,"is_reserved":false,"is_disabled":true,"rental_uris":{"android":"levelo://app?vid=63e8a27d-0548-4865-90e6-6308fe5b1e1f","ios":"levelo://app?vid=63e8a27d-0548-4865-90e6-6308fe5b1e1f"},"vehicle_type_id":"4","last_reported":1747487887,"current_range_meters":0,"station_id":"ce4bhi12rcd13ifvqfp0","pricing_plan_id":"cebpf4jnsgd1na2vs0mg"},{"bike_id":"98b8c9da-77e0-4213-bef2-e59272dfbed2","system_id":"levelo_inurba_marseille","lat":43.23149,"lon":5.437163,"is_reserved":false,"is_disabled":true,"rental_uris":{"android":"levelo://app?vid=98b8c9da-77e0-4213-bef2-e59272dfbed2","ios":"levelo://app?vid=98b8c9da-77e0-4213-bef2-e59272dfbed2"},"vehicle_type_id":"4","last_reported":1747487887,"current_range_meters":0,"station_id":"ce4bhmp2rcd13ifvqgog","pricing_plan_id":"cebpf4jnsgd1na2vs0mg"},{"bike_id":"1c2c1f79-5518-408a-85aa-5b97582c295d","system_id":"levelo_inurba_marseille","lat":43.24077,"lon":5.37761,"is_reserved":false,"is_disabled":true,"rental_uris":{"android":"levelo://app?vid=1c2c1f79-5518-408a-85aa-5b97582c295d","ios":"levelo://app?vid=1c2c1f79-5518-408a-85aa-5b97582c295d"},"vehicle_type_id":"4","last_reported":1747487887,"current_range_meters":0,"station_id":"ce4bhnp2rcd13ifvqgvg","pricing_plan_id":"cebpf4jnsgd1na2vs0mg"},{"bike_id":"2157e5f1-d7c6-4bc3-9f22-02a74b6daaaf","system_id":"levelo_inurba_marseille","lat":43.2795,"lon":5.41042,"is_reserved":false,"is_disabled":true,"rental_uris":{"android":"levelo://app?vid=2157e5f1-d7c6-4bc3-9f22-02a74b6daaaf","ios":"levelo://app?vid=2157e5f1-d7c6-4bc3-9f22-02a74b6daaaf"},"vehicle_type_id":"4","last_reported":1747487887,"current_range_meters":0,"station_id":"ce4bhnp2rcd13ifvqh0g","pricing_plan_id":"cebpf4jnsgd1na2vs0mg"},{"bike_id":"f3643df7-ea3d-41eb-8e92-b31dc64a90e6","system_id":"levelo_inurba_marseille","lat":43.27948,"lon":5.4104,"is_reserved":false,"is_disabled":true,"rental_uris":{"android":"levelo://app?vid=f3643df7-ea3d-41eb-8e92-b31dc64a90e6","ios":"levelo://app?vid=f3643df7-ea3d-41eb-8e92-b31dc64a90e6"},"vehicle_type_id":"4","last_reported":1747487887,"current_range_meters":0,"station_id":"ce4bhnp2rcd13ifvqh0g","pricing_plan_id":"cebpf4jnsgd1na2vs0mg"},{"bike_id":"41c6b5f9-51fa-48d6-a56c-bf62974abb6b","system_id":"levelo_inurba_marseille","lat":43.23194,"lon":5.35576,"is_reserved":false,"is_disabled":true,"rental_uris":{"android":"levelo://app?vid=41c6b5f9-51fa-48d6-a56c-bf62974abb6b","ios":"levelo://app?vid=41c6b5f9-51fa-48d6-a56c-bf62974abb6b"},"vehicle_type_id":"4","last_reported":1747487887,"current_range_meters":0,"station_id":"ce4bhu92rcd13ifvqi70","pricing_plan_id":"cebpf4jnsgd1na2vs0mg"},{"bike_id":"5b33535d-1cda-476c-8cd5-04380b418b48","system_id":"levelo_inurba_marseille","lat":43.22928,"lon":5.35373,"is_reserved":false,"is_disabled":true,"rental_uris":{"android":"levelo://app?vid=5b33535d-1cda-476c-8cd5-04380b418b48","ios":"levelo://app?vid=5b33535d-1cda-476c-8cd5-04380b418b48"},"vehicle_type_id":"4","last_reported":1747487887,"current_range_meters":0,"station_id":"cpo3532slgdg3j2ikp40","pricing_plan_id":"cebpf4jnsgd1na2vs0mg"},{"bike_id":"85162543-93bd-4df0-8608-ce6a577dc4ca","system_id":"levelo_inurba_marseille","lat":43.24168,"lon":5.36389,"is_reserved":false,"is_disabled":true,"rental_uris":{"android":"levelo://app?vid=85162543-93bd-4df0-8608-ce6a577dc4ca","ios":"levelo://app?vid=85162543-93bd-4df0-8608-ce6a577dc4ca"},"vehicle_type_id":"4","last_reported":1747487887,"current_range_meters":0,"station_id":"cpo36qri1sfpv3e86is0","pricing_plan_id":"cebpf4jnsgd1na2vs0mg"},{"bike_id":"ada673ac-e710-4c36-a2e6-36fb5796b078","system_id":"levelo_inurba_marseille","lat":43.21199,"lon":5.35085,"is_reserved":false,"is_disabled":true,"rental_uris":{"android":"levelo://app?vid=ada673ac-e710-4c36-a2e6-36fb5796b078","ios":"levelo://app?vid=ada673ac-e710-4c36-a2e6-36fb5796b078"},"vehicle_type_id":"4","last_reported":1747487887,"current_range_meters":0,"station_id":"st_cvj6sg6p6f1abm77japg","pricing_plan_id":"cebpf4jnsgd1na2vs0mg"},{"bike_id":"fbd7fb1d-0d01-432a-96f8-82633a2e0d99","system_id":"levelo_inurba_marseille","lat":43.21191,"lon":5.35071,"is_reserved":false,"is_disabled":true,"rental_uris":{"android":"levelo://app?vid=fbd7fb1d-0d01-432a-96f8-82633a2e0d99","ios":"levelo://app?vid=fbd7fb1d-0d01-432a-96f8-82633a2e0d99"},"vehicle_type_id":"4","last_reported":1747487887,"current_range_meters":0,"station_id":"st_cvj6sg6p6f1abm77japg","pricing_plan_id":"cebpf4jnsgd1na2vs0mg"},{"bike_id":"1612a283-148b-4709-a423-e84d14d00492","system_id":"levelo_inurba_marseille","lat":43.286105,"lon":5.351108,"is_reserved":false,"is_disabled":true,"rental_uris":{"android":"levelo://app?vid=1612a283-148b-4709-a423-e84d14d00492","ios":"levelo://app?vid=1612a283-148b-4709-a423-e84d14d00492"},"vehicle_type_id":"4","last_reported":1747487887,"current_range_meters":400,"station_id":"","pricing_plan_id":"cebpf4jnsgd1na2vs0mg"},{"bike_id":"e9e8784e-79c6-493d-9a13-fd83f15f4585","system_id":"levelo_inurba_marseille","lat":43.29253,"lon":5.38428,"is_reserved":false,"is_disabled":true,"rental_uris":{"android":"levelo://app?vid=e9e8784e-79c6-493d-9a13-fd83f15f4585","ios":"levelo://app?vid=e9e8784e-79c6-493d-9a13-fd83f15f4585"},"vehicle_type_id":"4","last_reported":1747487887,"current_range_meters":400,"station_id":"ce4bh692rcd13ifvqea0","pricing_plan_id":"cebpf4jnsgd1na2vs0mg"},{"bike_id":"c448c085-f58f-487b-bce0-3adc75aad1f6","system_id":"levelo_inurba_marseille","lat":43.26209,"lon":5.37451,"is_reserved":false,"is_disabled":true,"rental_uris":{"android":"levelo://app?vid=c448c085-f58f-487b-bce0-3adc75aad1f6","ios":"levelo://app?vid=c448c085-f58f-487b-bce0-3adc75aad1f6"},"vehicle_type_id":"4","last_reported":1747487887,"current_range_meters":400,"station_id":"ce4bhgp2rcd13ifvqfc0","pricing_plan_id":"cebpf4jnsgd1na2vs0mg"},{"bike_id":"0d5ec5dc-1184-4e2f-b2c9-ab60a3457c0f","system_id":"levelo_inurba_marseille","lat":43.23156,"lon":5.43703,"is_reserved":false,"is_disabled":true,"rental_uris":{"android":"levelo://app?vid=0d5ec5dc-1184-4e2f-b2c9-ab60a3457c0f","ios":"levelo://app?vid=0d5ec5dc-1184-4e2f-b2c9-ab60a3457c0f"},"vehicle_type_id":"4","last_reported":1747487887,"current_range_meters":400,"station_id":"ce4bhmp2rcd13ifvqgog","pricing_plan_id":"cebpf4jnsgd1na2vs0mg"},{"bike_id":"21f31caa-0079-4826-b4f4-55c86959e6d1","system_id":"levelo_inurba_marseille","lat":43.321085,"lon":5.367735,"is_reserved":false,"is_disabled":true,"rental_uris":{"android":"levelo://app?vid=21f31caa-0079-4826-b4f4-55c86959e6d1","ios":"levelo://app?vid=21f31caa-0079-4826-b4f4-55c86959e6d1"},"vehicle_type_id":"4","last_reported":1747487887,"current_range_meters":400,"station_id":"ce4bhrh2rcd13ifvqhug","pricing_plan_id":"cebpf4jnsgd1na2vs0mg"},{"bike_id":"cc52398b-1780-43d7-9587-f5a9e73f7552","system_id":"levelo_inurba_marseille","lat":43.22928,"lon":5.35369,"is_reserved":false,"is_disabled":true,"rental_uris":{"android":"levelo://app?vid=cc52398b-1780-43d7-9587-f5a9e73f7552","ios":"levelo://app?vid=cc52398b-1780-43d7-9587-f5a9e73f7552"},"vehicle_type_id":"4","last_reported":1747487887,"current_range_meters":400,"station_id":"cpo3532slgdg3j2ikp40","pricing_plan_id":"cebpf4jnsgd1na2vs0mg"},{"bike_id":"e88119c4-ac30-4ace-83be-14b8e3698d34","system_id":"levelo_inurba_marseille","lat":43.28415,"lon":5.34976,"is_reserved":false,"is_disabled":true,"rental_uris":{"android":"levelo://app?vid=e88119c4-ac30-4ace-83be-14b8e3698d34","ios":"levelo://app?vid=e88119c4-ac30-4ace-83be-14b8e3698d34"},"vehicle_type_id":"4","last_reported":1747487887,"current_range_meters":800,"station_id":"","pricing_plan_id":"cebpf4jnsgd1na2vs0mg"},{"bike_id":"da2b1cd3-f40c-421b-a9f9-73ad4122abca","system_id":"levelo_inurba_marseille","lat":43.27373,"lon":5.36261,"is_reserved":false,"is_disabled":true,"rental_uris":{"android":"levelo://app?vid=da2b1cd3-f40c-421b-a9f9-73ad4122abca","ios":"levelo://app?vid=da2b1cd3-f40c-421b-a9f9-73ad4122abca"},"vehicle_type_id":"4","last_reported":1747487887,"current_range_meters":800,"station_id":"ce4bhbh2rcd13ifvqeo0","pricing_plan_id":"cebpf4jnsgd1na2vs0mg"},{"bike_id":"59e33bab-443b-4b82-946a-94b602858b07","system_id":"levelo_inurba_marseille","lat":43.28193,"lon":5.38468,"is_reserved":false,"is_disabled":true,"rental_uris":{"android":"levelo://app?vid=59e33bab-443b-4b82-946a-94b602858b07","ios":"levelo://app?vid=59e33bab-443b-4b82-946a-94b602858b07"},"vehicle_type_id":"4","last_reported":1747487887,"current_range_meters":1200,"station_id":"","pricing_plan_id":"cebpf4jnsgd1na2vs0mg"},{"bike_id":"39e9d9e8-bcf2-4d50-9566-d1664ba9441d","system_id":"levelo_inurba_marseille","lat":43.28209,"lon":5.39054,"is_reserved":false,"is_disabled":true,"rental_uris":{"android":"levelo://app?vid=39e9d9e8-bcf2-4d50-9566-d1664ba9441d","ios":"levelo://app?vid=39e9d9e8-bcf2-4d50-9566-d1664ba9441d"},"vehicle_type_id":"4","last_reported":1747487887,"current_range_meters":1200,"station_id":"","pricing_plan_id":"cebpf4jnsgd1na2vs0mg"},{"bike_id":"8b610aac-e5c5-4824-a10d-f4bfab07e0c7","system_id":"levelo_inurba_marseille","lat":43.28929,"lon":5.39629,"is_reserved":false,"is_disabled":true,"rental_uris":{"android":"levelo://app?vid=8b610aac-e5c5-4824-a10d-f4bfab07e0c7","ios":"levelo://app?vid=8b610aac-e5c5-4824-a10d-f4bfab07e0c7"},"vehicle_type_id":"4","last_reported":1747487887,"current_range_meters":1200,"station_id":"ce4bh3h2rcd13ifvqdn0","pricing_plan_id":"cebpf4jnsgd1na2vs0mg"},{"bike_id":"85d3444f-293f-46bd-82c4-cf1e041c1814","system_id":"levelo_inurba_marseille","lat":43.2602,"lon":5.3756,"is_reserved":false,"is_disabled":true,"rental_uris":{"android":"levelo://app?vid=85d3444f-293f-46bd-82c4-cf1e041c1814","ios":"levelo://app?vid=85d3444f-293f-46bd-82c4-cf1e041c1814"},"vehicle_type_id":"4","last_reported":1747487887,"current_range_meters":1200,"station_id":"ce4bhgh2rcd13ifvqfa0","pricing_plan_id":"cebpf4jnsgd1na2vs0mg"},{"bike_id":"a872d121-5556-42ba-8ebf-07b98e1c6caf","system_id":"levelo_inurba_marseille","lat":43.254997,"lon":5.37653,"is_reserved":false,"is_disabled":true,"rental_uris":{"android":"levelo://app?vid=a872d121-5556-42ba-8ebf-07b98e1c6caf","ios":"levelo://app?vid=a872d121-5556-42ba-8ebf-07b98e1c6caf"},"vehicle_type_id":"4","last_reported":1747487887,"current_range_meters":1200,"station_id":"ce4bhh12rcd13ifvqff0","pricing_plan_id":"cebpf4jnsgd1na2vs0mg"},{"bike_id":"286afc86-edeb-4df2-925a-f34e433925f3","system_id":"levelo_inurba_marseille","lat":43.22929,"lon":5.35377,"is_reserved":false,"is_disabled":true,"rental_uris":{"android":"levelo://app?vid=286afc86-edeb-4df2-925a-f34e433925f3","ios":"levelo://app?vid=286afc86-edeb-4df2-925a-f34e433925f3"},"vehicle_type_id":"4","last_reported":1747487887,"current_range_meters":1200,"station_id":"cpo3532slgdg3j2ikp40","pricing_plan_id":"cebpf4jnsgd1na2vs0mg"},{"bike_id":"e71c543e-51c4-42a0-970d-40f60eee6d98","system_id":"levelo_inurba_marseille","lat":43.27622,"lon":5.36106,"is_reserved":false,"is_disabled":true,"rental_uris":{"android":"levelo://app?vid=e71c543e-51c4-42a0-970d-40f60eee6d98","ios":"levelo://app?vid=e71c543e-51c4-42a0-970d-40f60eee6d98"},"vehicle_type_id":"4","last_reported":1747487887,"current_range_meters":1600,"station_id":"ce4bgj92rcd13ifvqbe0","pricing_plan_id":"cebpf4jnsgd1na2vs0mg"},{"bike_id":"9b312d0a-64aa-4f91-877d-ab85d38ca4a1","system_id":"levelo_inurba_marseille","lat":43.27377,"lon":5.36253,"is_reserved":false,"is_disabled":true,"rental_uris":{"android":"levelo://app?vid=9b312d0a-64aa-4f91-877d-ab85d38ca4a1","ios":"levelo://app?vid=9b312d0a-64aa-4f91-877d-ab85d38ca4a1"},"vehicle_type_id":"4","last_reported":1747487887,"current_range_meters":1600,"station_id":"ce4bhbh2rcd13ifvqeo0","pricing_plan_id":"cebpf4jnsgd1na2vs0mg"},{"bike_id":"eefc8350-f642-420e-abe1-08d8f799bef6","system_id":"levelo_inurba_marseille","lat":43.21192,"lon":5.35072,"is_reserved":false,"is_disabled":true,"rental_uris":{"android":"levelo://app?vid=eefc8350-f642-420e-abe1-08d8f799bef6","ios":"levelo://app?vid=eefc8350-f642-420e-abe1-08d8f799bef6"},"vehicle_type_id":"4","last_reported":1747487887,"current_range_meters":1600,"station_id":"st_cvj6sg6p6f1abm77japg","pricing_plan_id":"cebpf4jnsgd1na2vs0mg"},{"bike_id":"af5610b4-2cf1-4932-8d56-333fd45dddc0","system_id":"levelo_inurba_marseille","lat":43.29665,"lon":5.36738,"is_reserved":false,"is_disabled":false,"rental_uris":{"android":"levelo://app?vid=af5610b4-2cf1-4932-8d56-333fd45dddc0","ios":"levelo://app?vid=af5610b4-2cf1-4932-8d56-333fd45dddc0"},"vehicle_type_id":"4","last_reported":1747487887,"current_range_meters":2000,"station_id":"ce4bgn12rcd13ifvqbt0","pricing_plan_id":"cebpf4jnsgd1na2vs0mg"},{"bike_id":"05b0e787-7925-40db-96b2-8e1505effa95","system_id":"levelo_inurba_marseille","lat":43.24805,"lon":5.37451,"is_reserved":false,"is_disabled":true,"rental_uris":{"android":"levelo://app?vid=05b0e787-7925-40db-96b2-8e1505effa95","ios":"levelo://app?vid=05b0e787-7925-40db-96b2-8e1505effa95"},"vehicle_type_id":"4","last_reported":1747487887,"current_range_meters":2000,"station_id":"ce4bhgh2rcd13ifvqfb0","pricing_plan_id":"cebpf4jnsgd1na2vs0mg"},{"bike_id":"3fb967ea-b69b-457a-8398-3d658ececaf4","system_id":"levelo_inurba_marseille","lat":43.2621,"lon":5.37443,"is_reserved":false,"is_disabled":true,"rental_uris":{"android":"levelo://app?vid=3fb967ea-b69b-457a-8398-3d658ececaf4","ios":"levelo://app?vid=3fb967ea-b69b-457a-8398-3d658ececaf4"},"vehicle_type_id":"4","last_reported":1747487887,"current_range_meters":2000,"station_id":"ce4bhgp2rcd13ifvqfc0","pricing_plan_id":"cebpf4jnsgd1na2vs0mg"},{"bike_id":"9ed9ff51-653f-4559-a00e-537ad0f936d6","system_id":"levelo_inurba_marseille","lat":43.26203,"lon":5.37443,"is_reserved":false,"is_disabled":true,"rental_uris":{"android":"levelo://app?vid=9ed9ff51-653f-4559-a00e-537ad0f936d6","ios":"levelo://app?vid=9ed9ff51-653f-4559-a00e-537ad0f936d6"},"vehicle_type_id":"4","last_reported":1747487887,"current_range_meters":2000,"station_id":"ce4bhgp2rcd13ifvqfc0","pricing_plan_id":"cebpf4jnsgd1na2vs0mg"},{"bike_id":"e1e6f58a-da04-4ede-80bc-2c8e46a27eef","system_id":"levelo_inurba_marseille","lat":43.24555,"lon":5.39538,"is_reserved":false,"is_disabled":true,"rental_uris":{"android":"levelo://app?vid=e1e6f58a-da04-4ede-80bc-2c8e46a27eef","ios":"levelo://app?vid=e1e6f58a-da04-4ede-80bc-2c8e46a27eef"},"vehicle_type_id":"4","last_reported":1747487887,"current_range_meters":2000,"station_id":"ce4bhlp2rcd13ifvqgjg","pricing_plan_id":"cebpf4jnsgd1na2vs0mg"},{"bike_id":"f03cbb86-1380-4293-8567-f7212ddf3dc6","system_id":"levelo_inurba_marseille","lat":43.23157,"lon":5.43722,"is_reserved":false,"is_disabled":true,"rental_uris":{"android":"levelo://app?vid=f03cbb86-1380-4293-8567-f7212ddf3dc6","ios":"levelo://app?vid=f03cbb86-1380-4293-8567-f7212ddf3dc6"},"vehicle_type_id":"4","last_reported":1747487887,"current_range_meters":2000,"station_id":"ce4bhmp2rcd13ifvqgog","pricing_plan_id":"cebpf4jnsgd1na2vs0mg"},{"bike_id":"0faa465a-5d42-4bb4-9b27-5be0f6298090","system_id":"levelo_inurba_marseille","lat":43.29191,"lon":5.39313,"is_reserved":false,"is_disabled":false,"rental_uris":{"android":"levelo://app?vid=0faa465a-5d42-4bb4-9b27-5be0f6298090","ios":"levelo://app?vid=0faa465a-5d42-4bb4-9b27-5be0f6298090"},"vehicle_type_id":"4","last_reported":1747487887,"current_range_meters":2800,"station_id":"ce4bh192rcd13ifvqdd0","pricing_plan_id":"cebpf4jnsgd1na2vs0mg"},{"bike_id":"720ef0ae-b519-46cd-8309-a7b93d2be2be","system_id":"levelo_inurba_marseille","lat":43.25496,"lon":5.37645,"is_reserved":false,"is_disabled":false,"rental_uris":{"android":"levelo://app?vid=720ef0ae-b519-46cd-8309-a7b93d2be2be","ios":"levelo://app?vid=720ef0ae-b519-46cd-8309-a7b93d2be2be"},"vehicle_type_id":"4","last_reported":1747487887,"current_range_meters":2800,"station_id":"ce4bhh12rcd13ifvqff0","pricing_plan_id":"cebpf4jnsgd1na2vs0mg"},{"bike_id":"b14d2f01-aff8-4b99-beac-7088ace7a8b4","system_id":"levelo_inurba_marseille","lat":43.23966,"lon":5.36631,"is_reserved":false,"is_disabled":false,"rental_uris":{"android":"levelo://app?vid=b14d2f01-aff8-4b99-beac-7088ace7a8b4","ios":"levelo://app?vid=b14d2f01-aff8-4b99-beac-7088ace7a8b4"},"vehicle_type_id":"4","last_reported":1747487887,"current_range_meters":2800,"station_id":"ce4bhi12rcd13ifvqfp0","pricing_plan_id":"cebpf4jnsgd1na2vs0mg"},{"bike_id":"4758a931-155f-4a77-bc13-78531520e2d5","system_id":"levelo_inurba_marseille","lat":43.2549,"lon":5.37644,"is_reserved":false,"is_disabled":false,"rental_uris":{"android":"levelo://app?vid=4758a931-155f-4a77-bc13-78531520e2d5","ios":"levelo://app?vid=4758a931-155f-4a77-bc13-78531520e2d5"},"vehicle_type_id":"4","last_reported":1747487887,"current_range_meters":3200,"station_id":"ce4bhh12rcd13ifvqff0","pricing_plan_id":"cebpf4jnsgd1na2vs0mg"},{"bike_id":"177f70cb-2651-46b6-addc-785ef833fe98","system_id":"levelo_inurba_marseille","lat":43.21755,"lon":5.34622,"is_reserved":false,"is_disabled":false,"rental_uris":{"android":"levelo://app?vid=177f70cb-2651-46b6-addc-785ef833fe98","ios":"levelo://app?vid=177f70cb-2651-46b6-addc-785ef833fe98"},"vehicle_type_id":"4","last_reported":1747487887,"current_range_meters":3200,"station_id":"st_cvj6r9ubvosntc0bgbag","pricing_plan_id":"cebpf4jnsgd1na2vs0mg"},{"bike_id":"2e04826b-b4aa-4f76-80e7-13bb2b4d2792","system_id":"levelo_inurba_marseille","lat":43.21744,"lon":5.34603,"is_reserved":false,"is_disabled":false,"rental_uris":{"android":"levelo://app?vid=2e04826b-b4aa-4f76-80e7-13bb2b4d2792","ios":"levelo://app?vid=2e04826b-b4aa-4f76-80e7-13bb2b4d2792"},"vehicle_type_id":"4","last_reported":1747487887,"current_range_meters":3200,"station_id":"st_cvj6r9ubvosntc0bgbag","pricing_plan_id":"cebpf4jnsgd1na2vs0mg"},{"bike_id":"48f3ced8-410e-4a6f-b3a8-865ddca0ff65","system_id":"levelo_inurba_marseille","lat":43.21192,"lon":5.35068,"is_reserved":false,"is_disabled":false,"rental_uris":{"android":"levelo://app?vid=48f3ced8-410e-4a6f-b3a8-865ddca0ff65","ios":"levelo://app?vid=48f3ced8-410e-4a6f-b3a8-865ddca0ff65"},"vehicle_type_id":"4","last_reported":1747487887,"current_range_meters":3200,"station_id":"st_cvj6sg6p6f1abm77japg","pricing_plan_id":"cebpf4jnsgd1na2vs0mg"},{"bike_id":"45f0d5bd-8885-401f-bdea-54dd82c17a6b","system_id":"levelo_inurba_marseille","lat":43.2931,"lon":5.37463,"is_reserved":false,"is_disabled":false,"rental_uris":{"android":"levelo://app?vid=45f0d5bd-8885-401f-bdea-54dd82c17a6b","ios":"levelo://app?vid=45f0d5bd-8885-401f-bdea-54dd82c17a6b"},"vehicle_type_id":"4","last_reported":1747487887,"current_range_meters":3600,"station_id":"ce4bgi12rcd13ifvqb70","pricing_plan_id":"cebpf4jnsgd1na2vs0mg"},{"bike_id":"b4fc4642-fd8e-4735-9810-2a1deaf40634","system_id":"levelo_inurba_marseille","lat":43.29001,"lon":5.35586,"is_reserved":false,"is_disabled":false,"rental_uris":{"android":"levelo://app?vid=b4fc4642-fd8e-4735-9810-2a1deaf40634","ios":"levelo://app?vid=b4fc4642-fd8e-4735-9810-2a1deaf40634"},"vehicle_type_id":"4","last_reported":1747487887,"current_range_meters":3600,"station_id":"ce4bhb92rcd13ifvqen0","pricing_plan_id":"cebpf4jnsgd1na2vs0mg"},{"bike_id":"48bbbe9b-ca03-4b01-9b07-885ca44c3d69","system_id":"levelo_inurba_marseille","lat":43.27917,"lon":5.39578,"is_reserved":false,"is_disabled":false,"rental_uris":{"android":"levelo://app?vid=48bbbe9b-ca03-4b01-9b07-885ca44c3d69","ios":"levelo://app?vid=48bbbe9b-ca03-4b01-9b07-885ca44c3d69"},"vehicle_type_id":"4","last_reported":1747487887,"current_range_meters":3600,"station_id":"ce4bhf92rcd13ifvqf40","pricing_plan_id":"cebpf4jnsgd1na2vs0mg"},{"bike_id":"cc957d39-947d-429a-b153-6a26a5a8e7ca","system_id":"levelo_inurba_marseille","lat":43.27888,"lon":5.38,"is_reserved":false,"is_disabled":false,"rental_uris":{"android":"levelo://app?vid=cc957d39-947d-429a-b153-6a26a5a8e7ca","ios":"levelo://app?vid=cc957d39-947d-429a-b153-6a26a5a8e7ca"},"vehicle_type_id":"4","last_reported":1747487887,"current_range_meters":3600,"station_id":"ce4bhf92rcd13ifvqf50","pricing_plan_id":"cebpf4jnsgd1na2vs0mg"},{"bike_id":"c9e95046-8c29-4161-991e-723074915197","system_id":"levelo_inurba_marseille","lat":43.25487,"lon":5.37644,"is_reserved":false,"is_disabled":false,"rental_uris":{"android":"levelo://app?vid=c9e95046-8c29-4161-991e-723074915197","ios":"levelo://app?vid=c9e95046-8c29-4161-991e-723074915197"},"vehicle_type_id":"4","last_reported":1747487887,"current_range_meters":3600,"station_id":"ce4bhh12rcd13ifvqff0","pricing_plan_id":"cebpf4jnsgd1na2vs0mg"},{"bike_id":"11b8fe1c-835c-457a-9eb0-4fca20b1c915","system_id":"levelo_inurba_marseille","lat":43.23202,"lon":5.35553,"is_reserved":false,"is_disabled":false,"rental_uris":{"android":"levelo://app?vid=11b8fe1c-835c-457a-9eb0-4fca20b1c915","ios":"levelo://app?vid=11b8fe1c-835c-457a-9eb0-4fca20b1c915"},"vehicle_type_id":"4","last_reported":1747487887,"current_range_meters":3600,"station_id":"ce4bhu92rcd13ifvqi70","pricing_plan_id":"cebpf4jnsgd1na2vs0mg"},{"bike_id":"6ebbe2d8-b481-4369-92f6-0200c716cba5","system_id":"levelo_inurba_marseille","lat":43.24167,"lon":5.36389,"is_reserved":false,"is_disabled":false,"rental_uris":{"android":"levelo://app?vid=6ebbe2d8-b481-4369-92f6-0200c716cba5","ios":"levelo://app?vid=6ebbe2d8-b481-4369-92f6-0200c716cba5"},"vehicle_type_id":"4","last_reported":1747487887,"current_range_meters":3600,"station_id":"cpo36qri1sfpv3e86is0","pricing_plan_id":"cebpf4jnsgd1na2vs0mg"},{"bike_id":"06e20113-a5f1-4fe5-b188-f647ff408cc7","system_id":"levelo_inurba_marseille","lat":43.27692,"lon":5.41978,"is_reserved":false,"is_disabled":false,"rental_uris":{"android":"levelo://app?vid=06e20113-a5f1-4fe5-b188-f647ff408cc7","ios":"levelo://app?vid=06e20113-a5f1-4fe5-b188-f647ff408cc7"},"vehicle_type_id":"4","last_reported":1747487887,"current_range_meters":4000,"station_id":"","pricing_plan_id":"cebpf4jnsgd1na2vs0mg"},{"bike_id":"e492e582-e498-4584-a38b-5b1e10921c26","system_id":"levelo_inurba_marseille","lat":43.29607,"lon":5.38104,"is_reserved":false,"is_disabled":false,"rental_uris":{"android":"levelo://app?vid=e492e582-e498-4584-a38b-5b1e10921c26","ios":"levelo://app?vid=e492e582-e498-4584-a38b-5b1e10921c26"},"vehicle_type_id":"4","last_reported":1747487887,"current_range_meters":4000,"station_id":"ce4bgl12rcd13ifvqbo0","pricing_plan_id":"cebpf4jnsgd1na2vs0mg"},{"bike_id":"82029b52-52ed-4789-8f93-a19fa73d2e2c","system_id":"levelo_inurba_marseille","lat":43.24566,"lon":5.39545,"is_reserved":false,"is_disabled":false,"rental_uris":{"android":"levelo://app?vid=82029b52-52ed-4789-8f93-a19fa73d2e2c","ios":"levelo://app?vid=82029b52-52ed-4789-8f93-a19fa73d2e2c"},"vehicle_type_id":"4","last_reported":1747487887,"current_range_meters":4000,"station_id":"ce4bhlp2rcd13ifvqgjg","pricing_plan_id":"cebpf4jnsgd1na2vs0mg"},{"bike_id":"d06a81f7-6bbe-4687-bfbe-932949dc466c","system_id":"levelo_inurba_marseille","lat":43.26125,"lon":5.38743,"is_reserved":false,"is_disabled":false,"rental_uris":{"android":"levelo://app?vid=d06a81f7-6bbe-4687-bfbe-932949dc466c","ios":"levelo://app?vid=d06a81f7-6bbe-4687-bfbe-932949dc466c"},"vehicle_type_id":"4","last_reported":1747487887,"current_range_meters":4400,"station_id":"","pricing_plan_id":"cebpf4jnsgd1na2vs0mg"},{"bike_id":"9978a605-f18f-4dd7-835a-77a8a7f4f3dc","system_id":"levelo_inurba_marseille","lat":43.28633,"lon":5.35099,"is_reserved":false,"is_disabled":false,"rental_uris":{"android":"levelo://app?vid=9978a605-f18f-4dd7-835a-77a8a7f4f3dc","ios":"levelo://app?vid=9978a605-f18f-4dd7-835a-77a8a7f4f3dc"},"vehicle_type_id":"4","last_reported":1747487887,"current_range_meters":4400,"station_id":"ce4bhch2rcd13ifvqeug","pricing_plan_id":"cebpf4jnsgd1na2vs0mg"},{"bike_id":"5021314c-9103-4930-91d2-56b8a66208ed","system_id":"levelo_inurba_marseille","lat":43.26211,"lon":5.37436,"is_reserved":false,"is_disabled":false,"rental_uris":{"android":"levelo://app?vid=5021314c-9103-4930-91d2-56b8a66208ed","ios":"levelo://app?vid=5021314c-9103-4930-91d2-56b8a66208ed"},"vehicle_type_id":"4","last_reported":1747487887,"current_range_meters":4400,"station_id":"ce4bhgp2rcd13ifvqfc0","pricing_plan_id":"cebpf4jnsgd1na2vs0mg"},{"bike_id":"ac26d7de-7038-4467-a0f0-2b882483ecc7","system_id":"levelo_inurba_marseille","lat":43.255003,"lon":5.376536,"is_reserved":false,"is_disabled":false,"rental_uris":{"android":"levelo://app?vid=ac26d7de-7038-4467-a0f0-2b882483ecc7","ios":"levelo://app?vid=ac26d7de-7038-4467-a0f0-2b882483ecc7"},"vehicle_type_id":"4","last_reported":1747487887,"current_range_meters":4400,"station_id":"ce4bhh12rcd13ifvqff0","pricing_plan_id":"cebpf4jnsgd1na2vs0mg"},{"bike_id":"876d0c2e-0b6d-4eb6-84ec-cfa3bb63fac6","system_id":"levelo_inurba_marseille","lat":43.2558,"lon":5.38232,"is_reserved":false,"is_disabled":false,"rental_uris":{"android":"levelo://app?vid=876d0c2e-0b6d-4eb6-84ec-cfa3bb63fac6","ios":"levelo://app?vid=876d0c2e-0b6d-4eb6-84ec-cfa3bb63fac6"},"vehicle_type_id":"4","last_reported":1747487887,"current_range_meters":4400,"station_id":"ce4bhih2rcd13ifvqfs0","pricing_plan_id":"cebpf4jnsgd1na2vs0mg"},{"bike_id":"df48eccf-56f0-4e3c-8e52-40261c99836e","system_id":"levelo_inurba_marseille","lat":43.2417,"lon":5.39729,"is_reserved":false,"is_disabled":false,"rental_uris":{"android":"levelo://app?vid=df48eccf-56f0-4e3c-8e52-40261c99836e","ios":"levelo://app?vid=df48eccf-56f0-4e3c-8e52-40261c99836e"},"vehicle_type_id":"4","last_reported":1747487887,"current_range_meters":4400,"station_id":"ce4bhn12rcd13ifvqgpg","pricing_plan_id":"cebpf4jnsgd1na2vs0mg"},{"bike_id":"f60743d0-8cbf-4386-87d9-1cc250dcb7e9","system_id":"levelo_inurba_marseille","lat":43.32013,"lon":5.38154,"is_reserved":false,"is_disabled":false,"rental_uris":{"android":"levelo://app?vid=f60743d0-8cbf-4386-87d9-1cc250dcb7e9","ios":"levelo://app?vid=f60743d0-8cbf-4386-87d9-1cc250dcb7e9"},"vehicle_type_id":"4","last_reported":1747487887,"current_range_meters":4400,"station_id":"ce4bhr12rcd13ifvqhpg","pricing_plan_id":"cebpf4jnsgd1na2vs0mg"},{"bike_id":"53ae4f8b-68fd-44fb-b4a8-162027bff52f","system_id":"levelo_inurba_marseille","lat":43.21181,"lon":5.3506,"is_reserved":false,"is_disabled":false,"rental_uris":{"android":"levelo://app?vid=53ae4f8b-68fd-44fb-b4a8-162027bff52f","ios":"levelo://app?vid=53ae4f8b-68fd-44fb-b4a8-162027bff52f"},"vehicle_type_id":"4","last_reported":1747487887,"current_range_meters":4400,"station_id":"st_cvj6sg6p6f1abm77japg","pricing_plan_id":"cebpf4jnsgd1na2vs0mg"},{"bike_id":"c6dbdc40-d37c-4f1d-bb27-431d4a674c39","system_id":"levelo_inurba_marseille","lat":43.29004,"lon":5.35614,"is_reserved":false,"is_disabled":false,"rental_uris":{"android":"levelo://app?vid=c6dbdc40-d37c-4f1d-bb27-431d4a674c39","ios":"levelo://app?vid=c6dbdc40-d37c-4f1d-bb27-431d4a674c39"},"vehicle_type_id":"4","last_reported":1747487887,"current_range_meters":4800,"station_id":"ce4bhb92rcd13ifvqen0","pricing_plan_id":"cebpf4jnsgd1na2vs0mg"},{"bike_id":"bc63f2c9-c890-445f-9d10-29cfa536525f","system_id":"levelo_inurba_marseille","lat":43.26029,"lon":5.37549,"is_reserved":false,"is_disabled":false,"rental_uris":{"android":"levelo://app?vid=bc63f2c9-c890-445f-9d10-29cfa536525f","ios":"levelo://app?vid=bc63f2c9-c890-445f-9d10-29cfa536525f"},"vehicle_type_id":"4","last_reported":1747487887,"current_range_meters":4800,"station_id":"ce4bhgh2rcd13ifvqfa0","pricing_plan_id":"cebpf4jnsgd1na2vs0mg"},{"bike_id":"1323b9b1-73b5-4d62-b26b-fdf455255728","system_id":"levelo_inurba_marseille","lat":43.23963,"lon":5.3663,"is_reserved":false,"is_disabled":false,"rental_uris":{"android":"levelo://app?vid=1323b9b1-73b5-4d62-b26b-fdf455255728","ios":"levelo://app?vid=1323b9b1-73b5-4d62-b26b-fdf455255728"},"vehicle_type_id":"4","last_reported":1747487887,"current_range_meters":4800,"station_id":"ce4bhi12rcd13ifvqfp0","pricing_plan_id":"cebpf4jnsgd1na2vs0mg"},{"bike_id":"95364902-2c96-4f26-8b8d-5c3c46ff46d1","system_id":"levelo_inurba_marseille","lat":43.21182,"lon":5.35071,"is_reserved":false,"is_disabled":false,"rental_uris":{"android":"levelo://app?vid=95364902-2c96-4f26-8b8d-5c3c46ff46d1","ios":"levelo://app?vid=95364902-2c96-4f26-8b8d-5c3c46ff46d1"},"vehicle_type_id":"4","last_reported":1747487887,"current_range_meters":4800,"station_id":"st_cvj6sg6p6f1abm77japg","pricing_plan_id":"cebpf4jnsgd1na2vs0mg"},{"bike_id":"da9ab010-9f13-4bc4-bb92-d367d5200ecd","system_id":"levelo_inurba_marseille","lat":43.273777,"lon":5.362623,"is_reserved":false,"is_disabled":false,"rental_uris":{"android":"levelo://app?vid=da9ab010-9f13-4bc4-bb92-d367d5200ecd","ios":"levelo://app?vid=da9ab010-9f13-4bc4-bb92-d367d5200ecd"},"vehicle_type_id":"4","last_reported":1747487887,"current_range_meters":5600,"station_id":"","pricing_plan_id":"cebpf4jnsgd1na2vs0mg"},{"bike_id":"851dfc32-e798-47a2-bd2e-2fef9ffeb756","system_id":"levelo_inurba_marseille","lat":43.27622,"lon":5.36119,"is_reserved":false,"is_disabled":false,"rental_uris":{"android":"levelo://app?vid=851dfc32-e798-47a2-bd2e-2fef9ffeb756","ios":"levelo://app?vid=851dfc32-e798-47a2-bd2e-2fef9ffeb756"},"vehicle_type_id":"4","last_reported":1747487887,"current_range_meters":5600,"station_id":"ce4bgj92rcd13ifvqbe0","pricing_plan_id":"cebpf4jnsgd1na2vs0mg"},{"bike_id":"cd6e7f44-387b-4761-88a1-ce1b1cc531e4","system_id":"levelo_inurba_marseille","lat":43.28266,"lon":5.35074,"is_reserved":false,"is_disabled":false,"rental_uris":{"android":"levelo://app?vid=cd6e7f44-387b-4761-88a1-ce1b1cc531e4","ios":"levelo://app?vid=cd6e7f44-387b-4761-88a1-ce1b1cc531e4"},"vehicle_type_id":"4","last_reported":1747487887,"current_range_meters":5600,"station_id":"ce4bhbp2rcd13ifvqerg","pricing_plan_id":"cebpf4jnsgd1na2vs0mg"},{"bike_id":"923d62b3-a026-40be-89fc-11fd8181b7f9","system_id":"levelo_inurba_marseille","lat":43.26015,"lon":5.37567,"is_reserved":false,"is_disabled":false,"rental_uris":{"android":"levelo://app?vid=923d62b3-a026-40be-89fc-11fd8181b7f9","ios":"levelo://app?vid=923d62b3-a026-40be-89fc-11fd8181b7f9"},"vehicle_type_id":"4","last_reported":1747487887,"current_range_meters":6000,"station_id":"ce4bhgh2rcd13ifvqfa0","pricing_plan_id":"cebpf4jnsgd1na2vs0mg"},{"bike_id":"78e1f020-304c-41a6-b2d4-0db968399b60","system_id":"levelo_inurba_marseille","lat":43.23961,"lon":5.3664,"is_reserved":false,"is_disabled":false,"rental_uris":{"android":"levelo://app?vid=78e1f020-304c-41a6-b2d4-0db968399b60","ios":"levelo://app?vid=78e1f020-304c-41a6-b2d4-0db968399b60"},"vehicle_type_id":"4","last_reported":1747487887,"current_range_meters":6000,"station_id":"ce4bhi12rcd13ifvqfp0","pricing_plan_id":"cebpf4jnsgd1na2vs0mg"},{"bike_id":"76b5604e-45c5-4fc6-ad03-667eaf3a0cbb","system_id":"levelo_inurba_marseille","lat":43.27617,"lon":5.3611,"is_reserved":false,"is_disabled":false,"rental_uris":{"android":"levelo://app?vid=76b5604e-45c5-4fc6-ad03-667eaf3a0cbb","ios":"levelo://app?vid=76b5604e-45c5-4fc6-ad03-667eaf3a0cbb"},"vehicle_type_id":"4","last_reported":1747487887,"current_range_meters":6400,"station_id":"ce4bgj92rcd13ifvqbe0","pricing_plan_id":"cebpf4jnsgd1na2vs0mg"},{"bike_id":"17caf6cf-c044-4d73-85dc-ec083daf980e","system_id":"levelo_inurba_marseille","lat":43.2737,"lon":5.36253,"is_reserved":false,"is_disabled":false,"rental_uris":{"android":"levelo://app?vid=17caf6cf-c044-4d73-85dc-ec083daf980e","ios":"levelo://app?vid=17caf6cf-c044-4d73-85dc-ec083daf980e"},"vehicle_type_id":"4","last_reported":1747487887,"current_range_meters":6400,"station_id":"ce4bhbh2rcd13ifvqeo0","pricing_plan_id":"cebpf4jnsgd1na2vs0mg"},{"bike_id":"7438a3dc-7e35-453e-ba33-c11c46a43ab5","system_id":"levelo_inurba_marseille","lat":43.33715,"lon":5.39212,"is_reserved":false,"is_disabled":false,"rental_uris":{"android":"levelo://app?vid=7438a3dc-7e35-453e-ba33-c11c46a43ab5","ios":"levelo://app?vid=7438a3dc-7e35-453e-ba33-c11c46a43ab5"},"vehicle_type_id":"4","last_reported":1747487887,"current_range_meters":6400,"station_id":"ce4bhr92rcd13ifvqhsg","pricing_plan_id":"cebpf4jnsgd1na2vs0mg"},{"bike_id":"e331ad89-74ad-45a3-a9c4-8152cc1fa47e","system_id":"levelo_inurba_marseille","lat":43.30262,"lon":5.4007,"is_reserved":false,"is_disabled":false,"rental_uris":{"android":"levelo://app?vid=e331ad89-74ad-45a3-a9c4-8152cc1fa47e","ios":"levelo://app?vid=e331ad89-74ad-45a3-a9c4-8152cc1fa47e"},"vehicle_type_id":"4","last_reported":1747487887,"current_range_meters":6800,"station_id":"ce4bgvh2rcd13ifvqcs0","pricing_plan_id":"cebpf4jnsgd1na2vs0mg"},{"bike_id":"fd11da1d-e502-4de6-8703-0c59ffb7922e","system_id":"levelo_inurba_marseille","lat":43.29017,"lon":5.37568,"is_reserved":false,"is_disabled":false,"rental_uris":{"android":"levelo://app?vid=fd11da1d-e502-4de6-8703-0c59ffb7922e","ios":"levelo://app?vid=fd11da1d-e502-4de6-8703-0c59ffb7922e"},"vehicle_type_id":"4","last_reported":1747487887,"current_range_meters":6800,"station_id":"ce4bh692rcd13ifvqe90","pricing_plan_id":"cebpf4jnsgd1na2vs0mg"},{"bike_id":"5c0abf8a-9764-4c7c-9a3e-d14907acc8c5","system_id":"levelo_inurba_marseille","lat":43.25498,"lon":5.3765,"is_reserved":false,"is_disabled":false,"rental_uris":{"android":"levelo://app?vid=5c0abf8a-9764-4c7c-9a3e-d14907acc8c5","ios":"levelo://app?vid=5c0abf8a-9764-4c7c-9a3e-d14907acc8c5"},"vehicle_type_id":"4","last_reported":1747487887,"current_range_meters":6800,"station_id":"ce4bhh12rcd13ifvqff0","pricing_plan_id":"cebpf4jnsgd1na2vs0mg"},{"bike_id":"5cf74a5b-3237-4306-8708-835ce896cf40","system_id":"levelo_inurba_marseille","lat":43.319986,"lon":5.381556,"is_reserved":false,"is_disabled":false,"rental_uris":{"android":"levelo://app?vid=5cf74a5b-3237-4306-8708-835ce896cf40","ios":"levelo://app?vid=5cf74a5b-3237-4306-8708-835ce896cf40"},"vehicle_type_id":"4","last_reported":1747487887,"current_range_meters":6800,"station_id":"ce4bhr12rcd13ifvqhpg","pricing_plan_id":"cebpf4jnsgd1na2vs0mg"},{"bike_id":"70d3b1f9-5fc9-41d6-a648-045864f09d20","system_id":"levelo_inurba_marseille","lat":43.21747,"lon":5.34603,"is_reserved":false,"is_disabled":false,"rental_uris":{"android":"levelo://app?vid=70d3b1f9-5fc9-41d6-a648-045864f09d20","ios":"levelo://app?vid=70d3b1f9-5fc9-41d6-a648-045864f09d20"},"vehicle_type_id":"4","last_reported":1747487887,"current_range_meters":6800,"station_id":"st_cvj6r9ubvosntc0bgbag","pricing_plan_id":"cebpf4jnsgd1na2vs0mg"},{"bike_id":"1dd8b717-6c51-4c45-a030-6dada04cb490","system_id":"levelo_inurba_marseille","lat":43.2119,"lon":5.35069,"is_reserved":false,"is_disabled":false,"rental_uris":{"android":"levelo://app?vid=1dd8b717-6c51-4c45-a030-6dada04cb490","ios":"levelo://app?vid=1dd8b717-6c51-4c45-a030-6dada04cb490"},"vehicle_type_id":"4","last_reported":1747487887,"current_range_meters":6800,"station_id":"st_cvj6sg6p6f1abm77japg","pricing_plan_id":"cebpf4jnsgd1na2vs0mg"},{"bike_id":"27372271-ef96-4e49-a4e0-ad228605e572","system_id":"levelo_inurba_marseille","lat":43.30939,"lon":5.37267,"is_reserved":false,"is_disabled":false,"rental_uris":{"android":"levelo://app?vid=27372271-ef96-4e49-a4e0-ad228605e572","ios":"levelo://app?vid=27372271-ef96-4e49-a4e0-ad228605e572"},"vehicle_type_id":"4","last_reported":1747487887,"current_range_meters":7200,"station_id":"","pricing_plan_id":"cebpf4jnsgd1na2vs0mg"},{"bike_id":"0c2eb33e-58e1-4622-9b47-38e8b73bf692","system_id":"levelo_inurba_marseille","lat":43.28279,"lon":5.35078,"is_reserved":false,"is_disabled":false,"rental_uris":{"android":"levelo://app?vid=0c2eb33e-58e1-4622-9b47-38e8b73bf692","ios":"levelo://app?vid=0c2eb33e-58e1-4622-9b47-38e8b73bf692"},"vehicle_type_id":"4","last_reported":1747487887,"current_range_meters":7200,"station_id":"ce4bhbp2rcd13ifvqerg","pricing_plan_id":"cebpf4jnsgd1na2vs0mg"},{"bike_id":"d59933f8-89ff-47b5-925a-c85d2faacd78","system_id":"levelo_inurba_marseille","lat":43.25488,"lon":5.37646,"is_reserved":false,"is_disabled":false,"rental_uris":{"android":"levelo://app?vid=d59933f8-89ff-47b5-925a-c85d2faacd78","ios":"levelo://app?vid=d59933f8-89ff-47b5-925a-c85d2faacd78"},"vehicle_type_id":"4","last_reported":1747487887,"current_range_meters":7200,"station_id":"ce4bhh12rcd13ifvqff0","pricing_plan_id":"cebpf4jnsgd1na2vs0mg"},{"bike_id":"502d7f86-43ad-493b-898e-82ae0d47764c","system_id":"levelo_inurba_marseille","lat":43.23144,"lon":5.43715,"is_reserved":false,"is_disabled":false,"rental_uris":{"android":"levelo://app?vid=502d7f86-43ad-493b-898e-82ae0d47764c","ios":"levelo://app?vid=502d7f86-43ad-493b-898e-82ae0d47764c"},"vehicle_type_id":"4","last_reported":1747487887,"current_range_meters":7200,"station_id":"ce4bhmp2rcd13ifvqgog","pricing_plan_id":"cebpf4jnsgd1na2vs0mg"},{"bike_id":"7b7e72f6-267c-4cb5-a0ec-d33198a95264","system_id":"levelo_inurba_marseille","lat":43.2419,"lon":5.3977,"is_reserved":false,"is_disabled":false,"rental_uris":{"android":"levelo://app?vid=7b7e72f6-267c-4cb5-a0ec-d33198a95264","ios":"levelo://app?vid=7b7e72f6-267c-4cb5-a0ec-d33198a95264"},"vehicle_type_id":"4","last_reported":1747487887,"current_range_meters":7200,"station_id":"ce4bhn12rcd13ifvqgpg","pricing_plan_id":"cebpf4jnsgd1na2vs0mg"},{"bike_id":"98cb935d-f095-44ca-9e47-f1886ebc938a","system_id":"levelo_inurba_marseille","lat":43.32352,"lon":5.38906,"is_reserved":false,"is_disabled":false,"rental_uris":{"android":"levelo://app?vid=98cb935d-f095-44ca-9e47-f1886ebc938a","ios":"levelo://app?vid=98cb935d-f095-44ca-9e47-f1886ebc938a"},"vehicle_type_id":"4","last_reported":1747487887,"current_range_meters":7200,"station_id":"ce4bhqp2rcd13ifvqhog","pricing_plan_id":"cebpf4jnsgd1na2vs0mg"},{"bike_id":"6e612e7b-28be-478c-9618-97651a5de57b","system_id":"levelo_inurba_marseille","lat":43.24653,"lon":5.39547,"is_reserved":false,"is_disabled":false,"rental_uris":{"android":"levelo://app?vid=6e612e7b-28be-478c-9618-97651a5de57b","ios":"levelo://app?vid=6e612e7b-28be-478c-9618-97651a5de57b"},"vehicle_type_id":"4","last_reported":1747487887,"current_range_meters":8000,"station_id":"","pricing_plan_id":"cebpf4jnsgd1na2vs0mg"},{"bike_id":"6cd5c425-f8ac-4068-b8ea-a8bfbef29ee5","system_id":"levelo_inurba_marseille","lat":43.249945,"lon":5.379389,"is_reserved":false,"is_disabled":false,"rental_uris":{"android":"levelo://app?vid=6cd5c425-f8ac-4068-b8ea-a8bfbef29ee5","ios":"levelo://app?vid=6cd5c425-f8ac-4068-b8ea-a8bfbef29ee5"},"vehicle_type_id":"4","last_reported":1747487887,"current_range_meters":8000,"station_id":"","pricing_plan_id":"cebpf4jnsgd1na2vs0mg"},{"bike_id":"ead90f28-a5e0-4151-880e-2c128ac2ed0a","system_id":"levelo_inurba_marseille","lat":43.28109,"lon":5.37837,"is_reserved":false,"is_disabled":false,"rental_uris":{"android":"levelo://app?vid=ead90f28-a5e0-4151-880e-2c128ac2ed0a","ios":"levelo://app?vid=ead90f28-a5e0-4151-880e-2c128ac2ed0a"},"vehicle_type_id":"4","last_reported":1747487887,"current_range_meters":8000,"station_id":"ce4bha12rcd13ifvqee0","pricing_plan_id":"cebpf4jnsgd1na2vs0mg"},{"bike_id":"6e14a085-9ee2-4ceb-9894-7fed7be42d08","system_id":"levelo_inurba_marseille","lat":43.284058,"lon":5.349741,"is_reserved":false,"is_disabled":false,"rental_uris":{"android":"levelo://app?vid=6e14a085-9ee2-4ceb-9894-7fed7be42d08","ios":"levelo://app?vid=6e14a085-9ee2-4ceb-9894-7fed7be42d08"},"vehicle_type_id":"4","last_reported":1747487887,"current_range_meters":8000,"station_id":"ce4bhap2rcd13ifvqek0","pricing_plan_id":"cebpf4jnsgd1na2vs0mg"},{"bike_id":"501a2724-a6cf-4c97-a1e0-a9a71fe78b1c","system_id":"levelo_inurba_marseille","lat":43.288666,"lon":5.358453,"is_reserved":false,"is_disabled":false,"rental_uris":{"android":"levelo://app?vid=501a2724-a6cf-4c97-a1e0-a9a71fe78b1c","ios":"levelo://app?vid=501a2724-a6cf-4c97-a1e0-a9a71fe78b1c"},"vehicle_type_id":"4","last_reported":1747487887,"current_range_meters":8000,"station_id":"ce4bhb12rcd13ifvqem0","pricing_plan_id":"cebpf4jnsgd1na2vs0mg"},{"bike_id":"b9b2a1e8-dc7d-4b82-80b7-5d071bfa1c86","system_id":"levelo_inurba_marseille","lat":43.27385,"lon":5.36222,"is_reserved":false,"is_disabled":false,"rental_uris":{"android":"levelo://app?vid=b9b2a1e8-dc7d-4b82-80b7-5d071bfa1c86","ios":"levelo://app?vid=b9b2a1e8-dc7d-4b82-80b7-5d071bfa1c86"},"vehicle_type_id":"4","last_reported":1747487887,"current_range_meters":8000,"station_id":"ce4bhbh2rcd13ifvqeo0","pricing_plan_id":"cebpf4jnsgd1na2vs0mg"},{"bike_id":"9216c492-a7fc-4bb0-a87f-56625a38104b","system_id":"levelo_inurba_marseille","lat":43.28275,"lon":5.35078,"is_reserved":false,"is_disabled":false,"rental_uris":{"android":"levelo://app?vid=9216c492-a7fc-4bb0-a87f-56625a38104b","ios":"levelo://app?vid=9216c492-a7fc-4bb0-a87f-56625a38104b"},"vehicle_type_id":"4","last_reported":1747487887,"current_range_meters":8000,"station_id":"ce4bhbp2rcd13ifvqerg","pricing_plan_id":"cebpf4jnsgd1na2vs0mg"},{"bike_id":"66969584-f1a1-48a4-8d06-07c329d828e3","system_id":"levelo_inurba_marseille","lat":43.274733,"lon":5.389849,"is_reserved":false,"is_disabled":false,"rental_uris":{"android":"levelo://app?vid=66969584-f1a1-48a4-8d06-07c329d828e3","ios":"levelo://app?vid=66969584-f1a1-48a4-8d06-07c329d828e3"},"vehicle_type_id":"4","last_reported":1747487887,"current_range_meters":8000,"station_id":"ce4bhi12rcd13ifvqfo0","pricing_plan_id":"cebpf4jnsgd1na2vs0mg"},{"bike_id":"61b7b1c8-de81-451d-a095-a32c982b6ae7","system_id":"levelo_inurba_marseille","lat":43.324927,"lon":5.365701,"is_reserved":false,"is_disabled":false,"rental_uris":{"android":"levelo://app?vid=61b7b1c8-de81-451d-a095-a32c982b6ae7","ios":"levelo://app?vid=61b7b1c8-de81-451d-a095-a32c982b6ae7"},"vehicle_type_id":"4","last_reported":1747487887,"current_range_meters":8000,"station_id":"ce4bhs12rcd13ifvqhvg","pricing_plan_id":"cebpf4jnsgd1na2vs0mg"},{"bike_id":"3d6b5b36-a314-45fa-8bc0-68e5f98a5dde","system_id":"levelo_inurba_marseille","lat":43.22936,"lon":5.35376,"is_reserved":false,"is_disabled":false,"rental_uris":{"android":"levelo://app?vid=3d6b5b36-a314-45fa-8bc0-68e5f98a5dde","ios":"levelo://app?vid=3d6b5b36-a314-45fa-8bc0-68e5f98a5dde"},"vehicle_type_id":"4","last_reported":1747487887,"current_range_meters":8000,"station_id":"cpo3532slgdg3j2ikp40","pricing_plan_id":"cebpf4jnsgd1na2vs0mg"},{"bike_id":"9b5dc053-1a0b-408a-8853-36209b473687","system_id":"levelo_inurba_marseille","lat":43.27375,"lon":5.36249,"is_reserved":false,"is_disabled":false,"rental_uris":{"android":"levelo://app?vid=9b5dc053-1a0b-408a-8853-36209b473687","ios":"levelo://app?vid=9b5dc053-1a0b-408a-8853-36209b473687"},"vehicle_type_id":"4","last_reported":1747487887,"current_range_meters":8400,"station_id":"ce4bhbh2rcd13ifvqeo0","pricing_plan_id":"cebpf4jnsgd1na2vs0mg"},{"bike_id":"5098123d-b36f-482a-a74d-7b81fd65e534","system_id":"levelo_inurba_marseille","lat":43.239634,"lon":5.366264,"is_reserved":false,"is_disabled":false,"rental_uris":{"android":"levelo://app?vid=5098123d-b36f-482a-a74d-7b81fd65e534","ios":"levelo://app?vid=5098123d-b36f-482a-a74d-7b81fd65e534"},"vehicle_type_id":"4","last_reported":1747487887,"current_range_meters":8400,"station_id":"ce4bhi12rcd13ifvqfp0","pricing_plan_id":"cebpf4jnsgd1na2vs0mg"},{"bike_id":"cc0dd266-2c7f-48b1-be6c-1f08e0dda62a","system_id":"levelo_inurba_marseille","lat":43.24676,"lon":5.3818,"is_reserved":false,"is_disabled":false,"rental_uris":{"android":"levelo://app?vid=cc0dd266-2c7f-48b1-be6c-1f08e0dda62a","ios":"levelo://app?vid=cc0dd266-2c7f-48b1-be6c-1f08e0dda62a"},"vehicle_type_id":"4","last_reported":1747487887,"current_range_meters":8400,"station_id":"ce4bhih2rcd13ifvqfr0","pricing_plan_id":"cebpf4jnsgd1na2vs0mg"},{"bike_id":"e935efd6-855c-41b4-ad65-a3c4dfbf56c8","system_id":"levelo_inurba_marseille","lat":43.24545,"lon":5.3952,"is_reserved":false,"is_disabled":false,"rental_uris":{"android":"levelo://app?vid=e935efd6-855c-41b4-ad65-a3c4dfbf56c8","ios":"levelo://app?vid=e935efd6-855c-41b4-ad65-a3c4dfbf56c8"},"vehicle_type_id":"4","last_reported":1747487887,"current_range_meters":8400,"station_id":"ce4bhlp2rcd13ifvqgjg","pricing_plan_id":"cebpf4jnsgd1na2vs0mg"},{"bike_id":"05cfed21-0c71-4180-b280-607cd28c9c9a","system_id":"levelo_inurba_marseille","lat":43.23062,"lon":5.35492,"is_reserved":false,"is_disabled":false,"rental_uris":{"android":"levelo://app?vid=05cfed21-0c71-4180-b280-607cd28c9c9a","ios":"levelo://app?vid=05cfed21-0c71-4180-b280-607cd28c9c9a"},"vehicle_type_id":"4","last_reported":1747487887,"current_range_meters":8400,"station_id":"cpo3342slgdg3j2ifvpg","pricing_plan_id":"cebpf4jnsgd1na2vs0mg"},{"bike_id":"6dc41c7d-d886-4d51-bd29-ec1aa88f4fac","system_id":"levelo_inurba_marseille","lat":43.241684,"lon":5.36394,"is_reserved":false,"is_disabled":false,"rental_uris":{"android":"levelo://app?vid=6dc41c7d-d886-4d51-bd29-ec1aa88f4fac","ios":"levelo://app?vid=6dc41c7d-d886-4d51-bd29-ec1aa88f4fac"},"vehicle_type_id":"4","last_reported":1747487887,"current_range_meters":8400,"station_id":"cpo36qri1sfpv3e86is0","pricing_plan_id":"cebpf4jnsgd1na2vs0mg"},{"bike_id":"3d50d707-bb8a-4329-a7cb-48dae4e42631","system_id":"levelo_inurba_marseille","lat":43.21189,"lon":5.35076,"is_reserved":false,"is_disabled":false,"rental_uris":{"android":"levelo://app?vid=3d50d707-bb8a-4329-a7cb-48dae4e42631","ios":"levelo://app?vid=3d50d707-bb8a-4329-a7cb-48dae4e42631"},"vehicle_type_id":"4","last_reported":1747487887,"current_range_meters":8400,"station_id":"st_cvj6sg6p6f1abm77japg","pricing_plan_id":"cebpf4jnsgd1na2vs0mg"},{"bike_id":"79b0f212-a412-4d78-9698-18a7ce0ce6cd","system_id":"levelo_inurba_marseille","lat":43.233721,"lon":5.360581,"is_reserved":false,"is_disabled":false,"rental_uris":{"android":"levelo://app?vid=79b0f212-a412-4d78-9698-18a7ce0ce6cd","ios":"levelo://app?vid=79b0f212-a412-4d78-9698-18a7ce0ce6cd"},"vehicle_type_id":"4","last_reported":1747487887,"current_range_meters":8800,"station_id":"","pricing_plan_id":"cebpf4jnsgd1na2vs0mg"},{"bike_id":"e526101f-558d-410b-9ed3-893e162467a3","system_id":"levelo_inurba_marseille","lat":43.27622,"lon":5.3611,"is_reserved":false,"is_disabled":false,"rental_uris":{"android":"levelo://app?vid=e526101f-558d-410b-9ed3-893e162467a3","ios":"levelo://app?vid=e526101f-558d-410b-9ed3-893e162467a3"},"vehicle_type_id":"4","last_reported":1747487887,"current_range_meters":8800,"station_id":"ce4bgj92rcd13ifvqbe0","pricing_plan_id":"cebpf4jnsgd1na2vs0mg"},{"bike_id":"74474192-b673-460d-b9f7-b5f9d54e2f31","system_id":"levelo_inurba_marseille","lat":43.28269,"lon":5.35067,"is_reserved":false,"is_disabled":false,"rental_uris":{"android":"levelo://app?vid=74474192-b673-460d-b9f7-b5f9d54e2f31","ios":"levelo://app?vid=74474192-b673-460d-b9f7-b5f9d54e2f31"},"vehicle_type_id":"4","last_reported":1747487887,"current_range_meters":8800,"station_id":"ce4bhbp2rcd13ifvqerg","pricing_plan_id":"cebpf4jnsgd1na2vs0mg"},{"bike_id":"4faa877d-2aed-4ac7-b249-f53d870f481d","system_id":"levelo_inurba_marseille","lat":43.28274,"lon":5.35057,"is_reserved":false,"is_disabled":false,"rental_uris":{"android":"levelo://app?vid=4faa877d-2aed-4ac7-b249-f53d870f481d","ios":"levelo://app?vid=4faa877d-2aed-4ac7-b249-f53d870f481d"},"vehicle_type_id":"4","last_reported":1747487887,"current_range_meters":8800,"station_id":"ce4bhbp2rcd13ifvqerg","pricing_plan_id":"cebpf4jnsgd1na2vs0mg"},{"bike_id":"3bf3e924-6877-4c81-953b-4b15d583373e","system_id":"levelo_inurba_marseille","lat":43.26202,"lon":5.37443,"is_reserved":false,"is_disabled":false,"rental_uris":{"android":"levelo://app?vid=3bf3e924-6877-4c81-953b-4b15d583373e","ios":"levelo://app?vid=3bf3e924-6877-4c81-953b-4b15d583373e"},"vehicle_type_id":"4","last_reported":1747487887,"current_range_meters":8800,"station_id":"ce4bhgp2rcd13ifvqfc0","pricing_plan_id":"cebpf4jnsgd1na2vs0mg"},{"bike_id":"af2259c4-f376-4ccb-8ce7-140fa5a15f30","system_id":"levelo_inurba_marseille","lat":43.27203,"lon":5.39171,"is_reserved":false,"is_disabled":false,"rental_uris":{"android":"levelo://app?vid=af2259c4-f376-4ccb-8ce7-140fa5a15f30","ios":"levelo://app?vid=af2259c4-f376-4ccb-8ce7-140fa5a15f30"},"vehicle_type_id":"4","last_reported":1747487887,"current_range_meters":8800,"station_id":"ce4bhhp2rcd13ifvqfm0","pricing_plan_id":"cebpf4jnsgd1na2vs0mg"},{"bike_id":"4fb7317a-7d8e-45a6-9f0e-8db6b6e4cee5","system_id":"levelo_inurba_marseille","lat":43.276682,"lon":5.388733,"is_reserved":false,"is_disabled":false,"rental_uris":{"android":"levelo://app?vid=4fb7317a-7d8e-45a6-9f0e-8db6b6e4cee5","ios":"levelo://app?vid=4fb7317a-7d8e-45a6-9f0e-8db6b6e4cee5"},"vehicle_type_id":"4","last_reported":1747487887,"current_range_meters":8800,"station_id":"ce4bhi12rcd13ifvqfo0","pricing_plan_id":"cebpf4jnsgd1na2vs0mg"},{"bike_id":"194a8af0-e763-4736-813e-48fcf1182a7f","system_id":"levelo_inurba_marseille","lat":43.23962,"lon":5.36621,"is_reserved":false,"is_disabled":false,"rental_uris":{"android":"levelo://app?vid=194a8af0-e763-4736-813e-48fcf1182a7f","ios":"levelo://app?vid=194a8af0-e763-4736-813e-48fcf1182a7f"},"vehicle_type_id":"4","last_reported":1747487887,"current_range_meters":8800,"station_id":"ce4bhi12rcd13ifvqfp0","pricing_plan_id":"cebpf4jnsgd1na2vs0mg"},{"bike_id":"4627f3d1-17fd-49b2-9a60-3f90cc9b16e5","system_id":"levelo_inurba_marseille","lat":43.31711,"lon":5.43692,"is_reserved":false,"is_disabled":false,"rental_uris":{"android":"levelo://app?vid=4627f3d1-17fd-49b2-9a60-3f90cc9b16e5","ios":"levelo://app?vid=4627f3d1-17fd-49b2-9a60-3f90cc9b16e5"},"vehicle_type_id":"4","last_reported":1747487887,"current_range_meters":8800,"station_id":"ce4bhp92rcd13ifvqhcg","pricing_plan_id":"cebpf4jnsgd1na2vs0mg"},{"bike_id":"85a7ebac-92fe-483d-908a-7562ece62996","system_id":"levelo_inurba_marseille","lat":43.3248,"lon":5.36563,"is_reserved":false,"is_disabled":false,"rental_uris":{"android":"levelo://app?vid=85a7ebac-92fe-483d-908a-7562ece62996","ios":"levelo://app?vid=85a7ebac-92fe-483d-908a-7562ece62996"},"vehicle_type_id":"4","last_reported":1747487887,"current_range_meters":8800,"station_id":"ce4bhs12rcd13ifvqhvg","pricing_plan_id":"cebpf4jnsgd1na2vs0mg"},{"bike_id":"cd5716cc-f478-4f43-a0b1-0cfc996a74ec","system_id":"levelo_inurba_marseille","lat":43.21187,"lon":5.35081,"is_reserved":false,"is_disabled":false,"rental_uris":{"android":"levelo://app?vid=cd5716cc-f478-4f43-a0b1-0cfc996a74ec","ios":"levelo://app?vid=cd5716cc-f478-4f43-a0b1-0cfc996a74ec"},"vehicle_type_id":"4","last_reported":1747487887,"current_range_meters":8800,"station_id":"st_cvj6sg6p6f1abm77japg","pricing_plan_id":"cebpf4jnsgd1na2vs0mg"},{"bike_id":"7d0bdab5-039c-42f3-a355-bb5a63114b97","system_id":"levelo_inurba_marseille","lat":43.337444,"lon":5.374475,"is_reserved":false,"is_disabled":false,"rental_uris":{"android":"levelo://app?vid=7d0bdab5-039c-42f3-a355-bb5a63114b97","ios":"levelo://app?vid=7d0bdab5-039c-42f3-a355-bb5a63114b97"},"vehicle_type_id":"4","last_reported":1747487887,"current_range_meters":9200,"station_id":"","pricing_plan_id":"cebpf4jnsgd1na2vs0mg"},{"bike_id":"0a2f61bc-7ade-4e8d-9fa1-0b4237dd894f","system_id":"levelo_inurba_marseille","lat":43.28669,"lon":5.36357,"is_reserved":false,"is_disabled":false,"rental_uris":{"android":"levelo://app?vid=0a2f61bc-7ade-4e8d-9fa1-0b4237dd894f","ios":"levelo://app?vid=0a2f61bc-7ade-4e8d-9fa1-0b4237dd894f"},"vehicle_type_id":"4","last_reported":1747487887,"current_range_meters":9200,"station_id":"ce4bhah2rcd13ifvqej0","pricing_plan_id":"cebpf4jnsgd1na2vs0mg"},{"bike_id":"fd36f2b2-ab3f-4773-a649-0c532c529c78","system_id":"levelo_inurba_marseille","lat":43.265598,"lon":5.372837,"is_reserved":false,"is_disabled":false,"rental_uris":{"android":"levelo://app?vid=fd36f2b2-ab3f-4773-a649-0c532c529c78","ios":"levelo://app?vid=fd36f2b2-ab3f-4773-a649-0c532c529c78"},"vehicle_type_id":"4","last_reported":1747487887,"current_range_meters":9200,"station_id":"ce4bhg12rcd13ifvqf70","pricing_plan_id":"cebpf4jnsgd1na2vs0mg"},{"bike_id":"6d5e4d62-ec94-462c-af15-b51534e29a15","system_id":"levelo_inurba_marseille","lat":43.25514,"lon":5.37663,"is_reserved":false,"is_disabled":false,"rental_uris":{"android":"levelo://app?vid=6d5e4d62-ec94-462c-af15-b51534e29a15","ios":"levelo://app?vid=6d5e4d62-ec94-462c-af15-b51534e29a15"},"vehicle_type_id":"4","last_reported":1747487887,"current_range_meters":9200,"station_id":"ce4bhh12rcd13ifvqff0","pricing_plan_id":"cebpf4jnsgd1na2vs0mg"},{"bike_id":"c4ead46a-e4ab-4c66-b9d1-abb830e75ebb","system_id":"levelo_inurba_marseille","lat":43.23058,"lon":5.3549,"is_reserved":false,"is_disabled":false,"rental_uris":{"android":"levelo://app?vid=c4ead46a-e4ab-4c66-b9d1-abb830e75ebb","ios":"levelo://app?vid=c4ead46a-e4ab-4c66-b9d1-abb830e75ebb"},"vehicle_type_id":"4","last_reported":1747487887,"current_range_meters":9200,"station_id":"cpo3342slgdg3j2ifvpg","pricing_plan_id":"cebpf4jnsgd1na2vs0mg"},{"bike_id":"b8c12a6a-c8d0-47cf-81e7-5d2d0bd1d32a","system_id":"levelo_inurba_marseille","lat":43.24168,"lon":5.36397,"is_reserved":false,"is_disabled":false,"rental_uris":{"android":"levelo://app?vid=b8c12a6a-c8d0-47cf-81e7-5d2d0bd1d32a","ios":"levelo://app?vid=b8c12a6a-c8d0-47cf-81e7-5d2d0bd1d32a"},"vehicle_type_id":"4","last_reported":1747487887,"current_range_meters":9200,"station_id":"cpo36qri1sfpv3e86is0","pricing_plan_id":"cebpf4jnsgd1na2vs0mg"},{"bike_id":"df684a38-3322-457e-a69d-10f1c3b9f64a","system_id":"levelo_inurba_marseille","lat":43.24163,"lon":5.36389,"is_reserved":false,"is_disabled":false,"rental_uris":{"android":"levelo://app?vid=df684a38-3322-457e-a69d-10f1c3b9f64a","ios":"levelo://app?vid=df684a38-3322-457e-a69d-10f1c3b9f64a"},"vehicle_type_id":"4","last_reported":1747487887,"current_range_meters":9200,"station_id":"cpo36qri1sfpv3e86is0","pricing_plan_id":"cebpf4jnsgd1na2vs0mg"},{"bike_id":"a1ebb40c-08ca-44aa-8190-f0bfa9cf2bb4","system_id":"levelo_inurba_marseille","lat":43.22504,"lon":5.34786,"is_reserved":false,"is_disabled":false,"rental_uris":{"android":"levelo://app?vid=a1ebb40c-08ca-44aa-8190-f0bfa9cf2bb4","ios":"levelo://app?vid=a1ebb40c-08ca-44aa-8190-f0bfa9cf2bb4"},"vehicle_type_id":"4","last_reported":1747487887,"current_range_meters":9200,"station_id":"st_cvj5dfep6f1abm77gieg","pricing_plan_id":"cebpf4jnsgd1na2vs0mg"},{"bike_id":"e1fada1f-ee8d-461a-94ee-b12ae7beae21","system_id":"levelo_inurba_marseille","lat":43.22502,"lon":5.34783,"is_reserved":false,"is_disabled":false,"rental_uris":{"android":"levelo://app?vid=e1fada1f-ee8d-461a-94ee-b12ae7beae21","ios":"levelo://app?vid=e1fada1f-ee8d-461a-94ee-b12ae7beae21"},"vehicle_type_id":"4","last_reported":1747487887,"current_range_meters":9200,"station_id":"st_cvj5dfep6f1abm77gieg","pricing_plan_id":"cebpf4jnsgd1na2vs0mg"},{"bike_id":"0fe40f1c-b730-4c54-b873-778f9d2c42d6","system_id":"levelo_inurba_marseille","lat":43.25958,"lon":5.37547,"is_reserved":false,"is_disabled":false,"rental_uris":{"android":"levelo://app?vid=0fe40f1c-b730-4c54-b873-778f9d2c42d6","ios":"levelo://app?vid=0fe40f1c-b730-4c54-b873-778f9d2c42d6"},"vehicle_type_id":"4","last_reported":1747487887,"current_range_meters":9600,"station_id":"","pricing_plan_id":"cebpf4jnsgd1na2vs0mg"},{"bike_id":"28b7fcf5-b35c-4272-8f82-e1d75dca3d36","system_id":"levelo_inurba_marseille","lat":43.28643,"lon":5.35098,"is_reserved":false,"is_disabled":false,"rental_uris":{"android":"levelo://app?vid=28b7fcf5-b35c-4272-8f82-e1d75dca3d36","ios":"levelo://app?vid=28b7fcf5-b35c-4272-8f82-e1d75dca3d36"},"vehicle_type_id":"4","last_reported":1747487887,"current_range_meters":9600,"station_id":"ce4bhch2rcd13ifvqeug","pricing_plan_id":"cebpf4jnsgd1na2vs0mg"},{"bike_id":"916619f2-0dc4-41f0-a185-2ec681497f91","system_id":"levelo_inurba_marseille","lat":43.25722,"lon":5.41113,"is_reserved":false,"is_disabled":false,"rental_uris":{"android":"levelo://app?vid=916619f2-0dc4-41f0-a185-2ec681497f91","ios":"levelo://app?vid=916619f2-0dc4-41f0-a185-2ec681497f91"},"vehicle_type_id":"4","last_reported":1747487887,"current_range_meters":9600,"station_id":"ce4bhkp2rcd13ifvqgd0","pricing_plan_id":"cebpf4jnsgd1na2vs0mg"},{"bike_id":"a68f9539-d7f7-431a-8b13-de39585015ad","system_id":"levelo_inurba_marseille","lat":43.23197,"lon":5.35561,"is_reserved":false,"is_disabled":false,"rental_uris":{"android":"levelo://app?vid=a68f9539-d7f7-431a-8b13-de39585015ad","ios":"levelo://app?vid=a68f9539-d7f7-431a-8b13-de39585015ad"},"vehicle_type_id":"4","last_reported":1747487887,"current_range_meters":9600,"station_id":"ce4bhu92rcd13ifvqi70","pricing_plan_id":"cebpf4jnsgd1na2vs0mg"},{"bike_id":"f49247d0-4179-47c4-99eb-c08b5ba22d78","system_id":"levelo_inurba_marseille","lat":43.23191,"lon":5.35555,"is_reserved":false,"is_disabled":false,"rental_uris":{"android":"levelo://app?vid=f49247d0-4179-47c4-99eb-c08b5ba22d78","ios":"levelo://app?vid=f49247d0-4179-47c4-99eb-c08b5ba22d78"},"vehicle_type_id":"4","last_reported":1747487887,"current_range_meters":9600,"station_id":"ce4bhu92rcd13ifvqi70","pricing_plan_id":"cebpf4jnsgd1na2vs0mg"},{"bike_id":"2dec80d9-a68d-4dd3-a087-3f3bcd3db7cb","system_id":"levelo_inurba_marseille","lat":43.27621,"lon":5.36115,"is_reserved":false,"is_disabled":false,"rental_uris":{"android":"levelo://app?vid=2dec80d9-a68d-4dd3-a087-3f3bcd3db7cb","ios":"levelo://app?vid=2dec80d9-a68d-4dd3-a087-3f3bcd3db7cb"},"vehicle_type_id":"4","last_reported":1747487887,"current_range_meters":10000,"station_id":"ce4bgj92rcd13ifvqbe0","pricing_plan_id":"cebpf4jnsgd1na2vs0mg"},{"bike_id":"835818df-accf-497d-bb62-632942720a7b","system_id":"levelo_inurba_marseille","lat":43.29936,"lon":5.36538,"is_reserved":false,"is_disabled":false,"rental_uris":{"android":"levelo://app?vid=835818df-accf-497d-bb62-632942720a7b","ios":"levelo://app?vid=835818df-accf-497d-bb62-632942720a7b"},"vehicle_type_id":"4","last_reported":1747487887,"current_range_meters":10000,"station_id":"ce4bgm92rcd13ifvqbr0","pricing_plan_id":"cebpf4jnsgd1na2vs0mg"},{"bike_id":"56a10ad3-c52a-4ee6-9c8f-09e859550d56","system_id":"levelo_inurba_marseille","lat":43.23962,"lon":5.36632,"is_reserved":false,"is_disabled":false,"rental_uris":{"android":"levelo://app?vid=56a10ad3-c52a-4ee6-9c8f-09e859550d56","ios":"levelo://app?vid=56a10ad3-c52a-4ee6-9c8f-09e859550d56"},"vehicle_type_id":"4","last_reported":1747487887,"current_range_meters":10000,"station_id":"ce4bhi12rcd13ifvqfp0","pricing_plan_id":"cebpf4jnsgd1na2vs0mg"},{"bike_id":"14e3d0aa-e605-4c31-9d1a-e362300e06d6","system_id":"levelo_inurba_marseille","lat":43.27172,"lon":5.40989,"is_reserved":false,"is_disabled":false,"rental_uris":{"android":"levelo://app?vid=14e3d0aa-e605-4c31-9d1a-e362300e06d6","ios":"levelo://app?vid=14e3d0aa-e605-4c31-9d1a-e362300e06d6"},"vehicle_type_id":"4","last_reported":1747487887,"current_range_meters":10000,"station_id":"ce4bhl12rcd13ifvqgf0","pricing_plan_id":"cebpf4jnsgd1na2vs0mg"},{"bike_id":"6f7da022-e381-4617-9c99-86adc761a953","system_id":"levelo_inurba_marseille","lat":43.231507,"lon":5.437252,"is_reserved":false,"is_disabled":false,"rental_uris":{"android":"levelo://app?vid=6f7da022-e381-4617-9c99-86adc761a953","ios":"levelo://app?vid=6f7da022-e381-4617-9c99-86adc761a953"},"vehicle_type_id":"4","last_reported":1747487887,"current_range_meters":10000,"station_id":"ce4bhmp2rcd13ifvqgog","pricing_plan_id":"cebpf4jnsgd1na2vs0mg"},{"bike_id":"b04bd58d-ab68-46b4-9085-1ddf540e912e","system_id":"levelo_inurba_marseille","lat":43.24102,"lon":5.37636,"is_reserved":false,"is_disabled":false,"rental_uris":{"android":"levelo://app?vid=b04bd58d-ab68-46b4-9085-1ddf540e912e","ios":"levelo://app?vid=b04bd58d-ab68-46b4-9085-1ddf540e912e"},"vehicle_type_id":"4","last_reported":1747487887,"current_range_meters":10000,"station_id":"ce4bhnp2rcd13ifvqgvg","pricing_plan_id":"cebpf4jnsgd1na2vs0mg"},{"bike_id":"39a5ed3e-451f-4328-be11-120996094544","system_id":"levelo_inurba_marseille","lat":43.30363,"lon":5.41861,"is_reserved":false,"is_disabled":false,"rental_uris":{"android":"levelo://app?vid=39a5ed3e-451f-4328-be11-120996094544","ios":"levelo://app?vid=39a5ed3e-451f-4328-be11-120996094544"},"vehicle_type_id":"4","last_reported":1747487887,"current_range_meters":10000,"station_id":"ce4bhop2rcd13ifvqh7g","pricing_plan_id":"cebpf4jnsgd1na2vs0mg"},{"bike_id":"21658823-ea3c-428a-91b4-01a250e7b14c","system_id":"levelo_inurba_marseille","lat":43.2417,"lon":5.36414,"is_reserved":false,"is_disabled":false,"rental_uris":{"android":"levelo://app?vid=21658823-ea3c-428a-91b4-01a250e7b14c","ios":"levelo://app?vid=21658823-ea3c-428a-91b4-01a250e7b14c"},"vehicle_type_id":"4","last_reported":1747487887,"current_range_meters":10000,"station_id":"cpo36qri1sfpv3e86is0","pricing_plan_id":"cebpf4jnsgd1na2vs0mg"},{"bike_id":"df21fa0f-b89d-4c7d-91ca-06a4db163261","system_id":"levelo_inurba_marseille","lat":43.21187,"lon":5.35069,"is_reserved":false,"is_disabled":false,"rental_uris":{"android":"levelo://app?vid=df21fa0f-b89d-4c7d-91ca-06a4db163261","ios":"levelo://app?vid=df21fa0f-b89d-4c7d-91ca-06a4db163261"},"vehicle_type_id":"4","last_reported":1747487887,"current_range_meters":10000,"station_id":"st_cvj6sg6p6f1abm77japg","pricing_plan_id":"cebpf4jnsgd1na2vs0mg"},{"bike_id":"628fbe8a-b457-4a05-805f-ffdcf0d72703","system_id":"levelo_inurba_marseille","lat":43.28678,"lon":5.36352,"is_reserved":false,"is_disabled":false,"rental_uris":{"android":"levelo://app?vid=628fbe8a-b457-4a05-805f-ffdcf0d72703","ios":"levelo://app?vid=628fbe8a-b457-4a05-805f-ffdcf0d72703"},"vehicle_type_id":"4","last_reported":1747487887,"current_range_meters":10800,"station_id":"ce4bhah2rcd13ifvqej0","pricing_plan_id":"cebpf4jnsgd1na2vs0mg"},{"bike_id":"a4e393aa-bd2c-4b76-ab71-125453ac0062","system_id":"levelo_inurba_marseille","lat":43.28279,"lon":5.35084,"is_reserved":false,"is_disabled":false,"rental_uris":{"android":"levelo://app?vid=a4e393aa-bd2c-4b76-ab71-125453ac0062","ios":"levelo://app?vid=a4e393aa-bd2c-4b76-ab71-125453ac0062"},"vehicle_type_id":"4","last_reported":1747487887,"current_range_meters":10800,"station_id":"ce4bhbp2rcd13ifvqerg","pricing_plan_id":"cebpf4jnsgd1na2vs0mg"},{"bike_id":"66398907-ba33-4c80-a3cf-93786a00b60e","system_id":"levelo_inurba_marseille","lat":43.26681,"lon":5.38267,"is_reserved":false,"is_disabled":false,"rental_uris":{"android":"levelo://app?vid=66398907-ba33-4c80-a3cf-93786a00b60e","ios":"levelo://app?vid=66398907-ba33-4c80-a3cf-93786a00b60e"},"vehicle_type_id":"4","last_reported":1747487887,"current_range_meters":10800,"station_id":"ce4bhg92rcd13ifvqf90","pricing_plan_id":"cebpf4jnsgd1na2vs0mg"},{"bike_id":"f5c3d704-6dd9-430b-be6d-d13ed0323d6f","system_id":"levelo_inurba_marseille","lat":43.25,"lon":5.38923,"is_reserved":false,"is_disabled":false,"rental_uris":{"android":"levelo://app?vid=f5c3d704-6dd9-430b-be6d-d13ed0323d6f","ios":"levelo://app?vid=f5c3d704-6dd9-430b-be6d-d13ed0323d6f"},"vehicle_type_id":"4","last_reported":1747487887,"current_range_meters":10800,"station_id":"ce4bhgp2rcd13ifvqfd0","pricing_plan_id":"cebpf4jnsgd1na2vs0mg"},{"bike_id":"9311a62b-4ccf-4ad2-83dc-2c2cfc931553","system_id":"levelo_inurba_marseille","lat":43.21193,"lon":5.35079,"is_reserved":false,"is_disabled":false,"rental_uris":{"android":"levelo://app?vid=9311a62b-4ccf-4ad2-83dc-2c2cfc931553","ios":"levelo://app?vid=9311a62b-4ccf-4ad2-83dc-2c2cfc931553"},"vehicle_type_id":"4","last_reported":1747487887,"current_range_meters":10800,"station_id":"st_cvj6sg6p6f1abm77japg","pricing_plan_id":"cebpf4jnsgd1na2vs0mg"},{"bike_id":"b8e6468b-87db-4ff6-8122-ef13bf5b7c8c","system_id":"levelo_inurba_marseille","lat":43.31379,"lon":5.37916,"is_reserved":false,"is_disabled":false,"rental_uris":{"android":"levelo://app?vid=b8e6468b-87db-4ff6-8122-ef13bf5b7c8c","ios":"levelo://app?vid=b8e6468b-87db-4ff6-8122-ef13bf5b7c8c"},"vehicle_type_id":"4","last_reported":1747487887,"current_range_meters":11200,"station_id":"","pricing_plan_id":"cebpf4jnsgd1na2vs0mg"},{"bike_id":"6da655b8-0421-4e8a-ae32-6637af746f6a","system_id":"levelo_inurba_marseille","lat":43.268251,"lon":5.411101,"is_reserved":false,"is_disabled":false,"rental_uris":{"android":"levelo://app?vid=6da655b8-0421-4e8a-ae32-6637af746f6a","ios":"levelo://app?vid=6da655b8-0421-4e8a-ae32-6637af746f6a"},"vehicle_type_id":"4","last_reported":1747487887,"current_range_meters":11200,"station_id":"","pricing_plan_id":"cebpf4jnsgd1na2vs0mg"},{"bike_id":"06638319-f0c2-41b0-8c39-d837f248effd","system_id":"levelo_inurba_marseille","lat":43.27619,"lon":5.36108,"is_reserved":false,"is_disabled":false,"rental_uris":{"android":"levelo://app?vid=06638319-f0c2-41b0-8c39-d837f248effd","ios":"levelo://app?vid=06638319-f0c2-41b0-8c39-d837f248effd"},"vehicle_type_id":"4","last_reported":1747487887,"current_range_meters":11200,"station_id":"ce4bgj92rcd13ifvqbe0","pricing_plan_id":"cebpf4jnsgd1na2vs0mg"},{"bike_id":"7db4950a-1d68-44bb-9abf-6f82ddfd17e0","system_id":"levelo_inurba_marseille","lat":43.288635,"lon":5.358468,"is_reserved":false,"is_disabled":false,"rental_uris":{"android":"levelo://app?vid=7db4950a-1d68-44bb-9abf-6f82ddfd17e0","ios":"levelo://app?vid=7db4950a-1d68-44bb-9abf-6f82ddfd17e0"},"vehicle_type_id":"4","last_reported":1747487887,"current_range_meters":11200,"station_id":"ce4bhb12rcd13ifvqem0","pricing_plan_id":"cebpf4jnsgd1na2vs0mg"},{"bike_id":"6abc9efa-4a2f-4cca-a356-43017d999f36","system_id":"levelo_inurba_marseille","lat":43.27371,"lon":5.36255,"is_reserved":false,"is_disabled":false,"rental_uris":{"android":"levelo://app?vid=6abc9efa-4a2f-4cca-a356-43017d999f36","ios":"levelo://app?vid=6abc9efa-4a2f-4cca-a356-43017d999f36"},"vehicle_type_id":"4","last_reported":1747487887,"current_range_meters":11200,"station_id":"ce4bhbh2rcd13ifvqeo0","pricing_plan_id":"cebpf4jnsgd1na2vs0mg"},{"bike_id":"33acbd93-531b-4bae-92c2-573399f188a4","system_id":"levelo_inurba_marseille","lat":43.27368,"lon":5.36243,"is_reserved":false,"is_disabled":false,"rental_uris":{"android":"levelo://app?vid=33acbd93-531b-4bae-92c2-573399f188a4","ios":"levelo://app?vid=33acbd93-531b-4bae-92c2-573399f188a4"},"vehicle_type_id":"4","last_reported":1747487887,"current_range_meters":11200,"station_id":"ce4bhbh2rcd13ifvqeo0","pricing_plan_id":"cebpf4jnsgd1na2vs0mg"},{"bike_id":"725252ae-7146-493c-b329-1699e4d14e34","system_id":"levelo_inurba_marseille","lat":43.284177,"lon":5.349907,"is_reserved":false,"is_disabled":false,"rental_uris":{"android":"levelo://app?vid=725252ae-7146-493c-b329-1699e4d14e34","ios":"levelo://app?vid=725252ae-7146-493c-b329-1699e4d14e34"},"vehicle_type_id":"4","last_reported":1747487887,"current_range_meters":11200,"station_id":"ce4bhbh2rcd13ifvqepg","pricing_plan_id":"cebpf4jnsgd1na2vs0mg"},{"bike_id":"13d5a06f-0e0c-454c-8014-811570a62462","system_id":"levelo_inurba_marseille","lat":43.28273,"lon":5.35068,"is_reserved":false,"is_disabled":false,"rental_uris":{"android":"levelo://app?vid=13d5a06f-0e0c-454c-8014-811570a62462","ios":"levelo://app?vid=13d5a06f-0e0c-454c-8014-811570a62462"},"vehicle_type_id":"4","last_reported":1747487887,"current_range_meters":11200,"station_id":"ce4bhbp2rcd13ifvqerg","pricing_plan_id":"cebpf4jnsgd1na2vs0mg"},{"bike_id":"fa91815a-11ad-403f-9bb8-a0484a31d93c","system_id":"levelo_inurba_marseille","lat":43.24391,"lon":5.37059,"is_reserved":false,"is_disabled":false,"rental_uris":{"android":"levelo://app?vid=fa91815a-11ad-403f-9bb8-a0484a31d93c","ios":"levelo://app?vid=fa91815a-11ad-403f-9bb8-a0484a31d93c"},"vehicle_type_id":"4","last_reported":1747487887,"current_range_meters":11200,"station_id":"ce4bhhh2rcd13ifvqfk0","pricing_plan_id":"cebpf4jnsgd1na2vs0mg"},{"bike_id":"3e630e9a-3c06-4dcc-97d5-ae78a4ea1500","system_id":"levelo_inurba_marseille","lat":43.298988,"lon":5.436588,"is_reserved":false,"is_disabled":false,"rental_uris":{"android":"levelo://app?vid=3e630e9a-3c06-4dcc-97d5-ae78a4ea1500","ios":"levelo://app?vid=3e630e9a-3c06-4dcc-97d5-ae78a4ea1500"},"vehicle_type_id":"4","last_reported":1747487887,"current_range_meters":11200,"station_id":"ce4bhpp2rcd13ifvqhfg","pricing_plan_id":"cebpf4jnsgd1na2vs0mg"},{"bike_id":"adf775ca-e2d4-4abc-a173-6454a5518da9","system_id":"levelo_inurba_marseille","lat":43.23063,"lon":5.35497,"is_reserved":false,"is_disabled":false,"rental_uris":{"android":"levelo://app?vid=adf775ca-e2d4-4abc-a173-6454a5518da9","ios":"levelo://app?vid=adf775ca-e2d4-4abc-a173-6454a5518da9"},"vehicle_type_id":"4","last_reported":1747487887,"current_range_meters":11200,"station_id":"cpo3342slgdg3j2ifvpg","pricing_plan_id":"cebpf4jnsgd1na2vs0mg"},{"bike_id":"03081bb8-2401-4e85-aaab-8d155b040ac7","system_id":"levelo_inurba_marseille","lat":43.27614,"lon":5.36103,"is_reserved":false,"is_disabled":false,"rental_uris":{"android":"levelo://app?vid=03081bb8-2401-4e85-aaab-8d155b040ac7","ios":"levelo://app?vid=03081bb8-2401-4e85-aaab-8d155b040ac7"},"vehicle_type_id":"4","last_reported":1747487887,"current_range_meters":11600,"station_id":"ce4bgj92rcd13ifvqbe0","pricing_plan_id":"cebpf4jnsgd1na2vs0mg"},{"bike_id":"58967947-b61e-4e85-a092-47c333d01030","system_id":"levelo_inurba_marseille","lat":43.28667,"lon":5.36339,"is_reserved":false,"is_disabled":false,"rental_uris":{"android":"levelo://app?vid=58967947-b61e-4e85-a092-47c333d01030","ios":"levelo://app?vid=58967947-b61e-4e85-a092-47c333d01030"},"vehicle_type_id":"4","last_reported":1747487887,"current_range_meters":11600,"station_id":"ce4bhah2rcd13ifvqej0","pricing_plan_id":"cebpf4jnsgd1na2vs0mg"},{"bike_id":"f2d8f72c-b5e8-4d69-8df8-969bd6b58787","system_id":"levelo_inurba_marseille","lat":43.27381,"lon":5.36259,"is_reserved":false,"is_disabled":false,"rental_uris":{"android":"levelo://app?vid=f2d8f72c-b5e8-4d69-8df8-969bd6b58787","ios":"levelo://app?vid=f2d8f72c-b5e8-4d69-8df8-969bd6b58787"},"vehicle_type_id":"4","last_reported":1747487887,"current_range_meters":11600,"station_id":"ce4bhbh2rcd13ifvqeo0","pricing_plan_id":"cebpf4jnsgd1na2vs0mg"},{"bike_id":"5758b797-b64f-4852-b4ae-e853a0662949","system_id":"levelo_inurba_marseille","lat":43.24054,"lon":5.3775,"is_reserved":false,"is_disabled":false,"rental_uris":{"android":"levelo://app?vid=5758b797-b64f-4852-b4ae-e853a0662949","ios":"levelo://app?vid=5758b797-b64f-4852-b4ae-e853a0662949"},"vehicle_type_id":"4","last_reported":1747487887,"current_range_meters":11600,"station_id":"ce4bhnp2rcd13ifvqgvg","pricing_plan_id":"cebpf4jnsgd1na2vs0mg"},{"bike_id":"83be837d-42e9-4d17-9ca1-8064b89c1538","system_id":"levelo_inurba_marseille","lat":43.211933,"lon":5.350742,"is_reserved":false,"is_disabled":false,"rental_uris":{"android":"levelo://app?vid=83be837d-42e9-4d17-9ca1-8064b89c1538","ios":"levelo://app?vid=83be837d-42e9-4d17-9ca1-8064b89c1538"},"vehicle_type_id":"4","last_reported":1747487887,"current_range_meters":11600,"station_id":"st_cvj6sg6p6f1abm77japg","pricing_plan_id":"cebpf4jnsgd1na2vs0mg"},{"bike_id":"f32fee15-19ca-47b9-b3f0-a3b9632bb59b","system_id":"levelo_inurba_marseille","lat":43.28458,"lon":5.35883,"is_reserved":false,"is_disabled":false,"rental_uris":{"android":"levelo://app?vid=f32fee15-19ca-47b9-b3f0-a3b9632bb59b","ios":"levelo://app?vid=f32fee15-19ca-47b9-b3f0-a3b9632bb59b"},"vehicle_type_id":"4","last_reported":1747487887,"current_range_meters":12000,"station_id":"ce4bhah2rcd13ifvqei0","pricing_plan_id":"cebpf4jnsgd1na2vs0mg"},{"bike_id":"2a9eb810-c7fb-4a86-8b44-5a497a96550e","system_id":"levelo_inurba_marseille","lat":43.27365,"lon":5.36223,"is_reserved":false,"is_disabled":false,"rental_uris":{"android":"levelo://app?vid=2a9eb810-c7fb-4a86-8b44-5a497a96550e","ios":"levelo://app?vid=2a9eb810-c7fb-4a86-8b44-5a497a96550e"},"vehicle_type_id":"4","last_reported":1747487887,"current_range_meters":12000,"station_id":"ce4bhbh2rcd13ifvqeo0","pricing_plan_id":"cebpf4jnsgd1na2vs0mg"},{"bike_id":"497cc2cf-fcc5-463f-8221-b4f7c50802f4","system_id":"levelo_inurba_marseille","lat":43.26203,"lon":5.37463,"is_reserved":false,"is_disabled":false,"rental_uris":{"android":"levelo://app?vid=497cc2cf-fcc5-463f-8221-b4f7c50802f4","ios":"levelo://app?vid=497cc2cf-fcc5-463f-8221-b4f7c50802f4"},"vehicle_type_id":"4","last_reported":1747487887,"current_range_meters":12000,"station_id":"ce4bhgp2rcd13ifvqfc0","pricing_plan_id":"cebpf4jnsgd1na2vs0mg"},{"bike_id":"d163374a-cd89-4b4c-acf2-8db1fb93bea7","system_id":"levelo_inurba_marseille","lat":43.30376,"lon":5.42486,"is_reserved":false,"is_disabled":false,"rental_uris":{"android":"levelo://app?vid=d163374a-cd89-4b4c-acf2-8db1fb93bea7","ios":"levelo://app?vid=d163374a-cd89-4b4c-acf2-8db1fb93bea7"},"vehicle_type_id":"4","last_reported":1747487887,"current_range_meters":12000,"station_id":"ce4bhoh2rcd13ifvqh6g","pricing_plan_id":"cebpf4jnsgd1na2vs0mg"},{"bike_id":"a4d7457e-a382-4ab7-9876-e9ba20692ec9","system_id":"levelo_inurba_marseille","lat":43.319929,"lon":5.381625,"is_reserved":false,"is_disabled":false,"rental_uris":{"android":"levelo://app?vid=a4d7457e-a382-4ab7-9876-e9ba20692ec9","ios":"levelo://app?vid=a4d7457e-a382-4ab7-9876-e9ba20692ec9"},"vehicle_type_id":"4","last_reported":1747487887,"current_range_meters":12000,"station_id":"ce4bhr12rcd13ifvqhpg","pricing_plan_id":"cebpf4jnsgd1na2vs0mg"},{"bike_id":"9187c104-9b06-48af-9f58-758fc1dd1410","system_id":"levelo_inurba_marseille","lat":43.23169,"lon":5.35527,"is_reserved":false,"is_disabled":false,"rental_uris":{"android":"levelo://app?vid=9187c104-9b06-48af-9f58-758fc1dd1410","ios":"levelo://app?vid=9187c104-9b06-48af-9f58-758fc1dd1410"},"vehicle_type_id":"4","last_reported":1747487887,"current_range_meters":12000,"station_id":"ce4bhu92rcd13ifvqi70","pricing_plan_id":"cebpf4jnsgd1na2vs0mg"},{"bike_id":"6e1bd625-3ec1-43df-9657-36d71ae09f8d","system_id":"levelo_inurba_marseille","lat":43.33771,"lon":5.37471,"is_reserved":false,"is_disabled":false,"rental_uris":{"android":"levelo://app?vid=6e1bd625-3ec1-43df-9657-36d71ae09f8d","ios":"levelo://app?vid=6e1bd625-3ec1-43df-9657-36d71ae09f8d"},"vehicle_type_id":"4","last_reported":1747487887,"current_range_meters":12400,"station_id":"","pricing_plan_id":"cebpf4jnsgd1na2vs0mg"},{"bike_id":"508dbab0-0562-478f-931d-001e6a89e374","system_id":"levelo_inurba_marseille","lat":43.28461,"lon":5.35889,"is_reserved":false,"is_disabled":false,"rental_uris":{"android":"levelo://app?vid=508dbab0-0562-478f-931d-001e6a89e374","ios":"levelo://app?vid=508dbab0-0562-478f-931d-001e6a89e374"},"vehicle_type_id":"4","last_reported":1747487887,"current_range_meters":12400,"station_id":"ce4bhah2rcd13ifvqei0","pricing_plan_id":"cebpf4jnsgd1na2vs0mg"},{"bike_id":"71b69828-3b51-45aa-91e4-01d89b8e6a9a","system_id":"levelo_inurba_marseille","lat":43.27373,"lon":5.36257,"is_reserved":false,"is_disabled":false,"rental_uris":{"android":"levelo://app?vid=71b69828-3b51-45aa-91e4-01d89b8e6a9a","ios":"levelo://app?vid=71b69828-3b51-45aa-91e4-01d89b8e6a9a"},"vehicle_type_id":"4","last_reported":1747487887,"current_range_meters":12400,"station_id":"ce4bhbh2rcd13ifvqeo0","pricing_plan_id":"cebpf4jnsgd1na2vs0mg"},{"bike_id":"d0cdb5d7-2bd8-4c04-8dc7-1c79374fc00f","system_id":"levelo_inurba_marseille","lat":43.26561,"lon":5.3903,"is_reserved":false,"is_disabled":false,"rental_uris":{"android":"levelo://app?vid=d0cdb5d7-2bd8-4c04-8dc7-1c79374fc00f","ios":"levelo://app?vid=d0cdb5d7-2bd8-4c04-8dc7-1c79374fc00f"},"vehicle_type_id":"4","last_reported":1747487887,"current_range_meters":12400,"station_id":"ce4bhe12rcd13ifvqf30","pricing_plan_id":"cebpf4jnsgd1na2vs0mg"},{"bike_id":"81a9455a-3e2a-4c4a-be15-7a450dcad848","system_id":"levelo_inurba_marseille","lat":43.2397,"lon":5.36654,"is_reserved":false,"is_disabled":false,"rental_uris":{"android":"levelo://app?vid=81a9455a-3e2a-4c4a-be15-7a450dcad848","ios":"levelo://app?vid=81a9455a-3e2a-4c4a-be15-7a450dcad848"},"vehicle_type_id":"4","last_reported":1747487887,"current_range_meters":12400,"station_id":"ce4bhi12rcd13ifvqfp0","pricing_plan_id":"cebpf4jnsgd1na2vs0mg"},{"bike_id":"a2af3094-7e05-4db4-8ba7-e417e85d91dd","system_id":"levelo_inurba_marseille","lat":43.23194,"lon":5.35551,"is_reserved":false,"is_disabled":false,"rental_uris":{"android":"levelo://app?vid=a2af3094-7e05-4db4-8ba7-e417e85d91dd","ios":"levelo://app?vid=a2af3094-7e05-4db4-8ba7-e417e85d91dd"},"vehicle_type_id":"4","last_reported":1747487887,"current_range_meters":12400,"station_id":"ce4bhu92rcd13ifvqi70","pricing_plan_id":"cebpf4jnsgd1na2vs0mg"},{"bike_id":"7f198fbd-e0e0-425b-9796-9a2feab13d1b","system_id":"levelo_inurba_marseille","lat":43.211835,"lon":5.35085,"is_reserved":false,"is_disabled":false,"rental_uris":{"android":"levelo://app?vid=7f198fbd-e0e0-425b-9796-9a2feab13d1b","ios":"levelo://app?vid=7f198fbd-e0e0-425b-9796-9a2feab13d1b"},"vehicle_type_id":"4","last_reported":1747487887,"current_range_meters":12400,"station_id":"st_cvj6sg6p6f1abm77japg","pricing_plan_id":"cebpf4jnsgd1na2vs0mg"},{"bike_id":"46c4ba03-4382-41c0-9bae-f8b360ae58bf","system_id":"levelo_inurba_marseille","lat":43.32008,"lon":5.38109,"is_reserved":false,"is_disabled":false,"rental_uris":{"android":"levelo://app?vid=46c4ba03-4382-41c0-9bae-f8b360ae58bf","ios":"levelo://app?vid=46c4ba03-4382-41c0-9bae-f8b360ae58bf"},"vehicle_type_id":"4","last_reported":1747487887,"current_range_meters":12800,"station_id":"","pricing_plan_id":"cebpf4jnsgd1na2vs0mg"},{"bike_id":"5d60cf90-d8eb-4351-98cd-173d03d6bee7","system_id":"levelo_inurba_marseille","lat":43.30134,"lon":5.38777,"is_reserved":false,"is_disabled":false,"rental_uris":{"android":"levelo://app?vid=5d60cf90-d8eb-4351-98cd-173d03d6bee7","ios":"levelo://app?vid=5d60cf90-d8eb-4351-98cd-173d03d6bee7"},"vehicle_type_id":"4","last_reported":1747487887,"current_range_meters":12800,"station_id":"ce4bghh2rcd13ifvqb60","pricing_plan_id":"cebpf4jnsgd1na2vs0mg"},{"bike_id":"73a43f0b-247e-4ef5-9cfb-005113cc4fec","system_id":"levelo_inurba_marseille","lat":43.2922,"lon":5.36059,"is_reserved":false,"is_disabled":false,"rental_uris":{"android":"levelo://app?vid=73a43f0b-247e-4ef5-9cfb-005113cc4fec","ios":"levelo://app?vid=73a43f0b-247e-4ef5-9cfb-005113cc4fec"},"vehicle_type_id":"4","last_reported":1747487887,"current_range_meters":12800,"station_id":"ce4bhbh2rcd13ifvqeqg","pricing_plan_id":"cebpf4jnsgd1na2vs0mg"},{"bike_id":"8dc84081-423e-499f-8243-020d24558319","system_id":"levelo_inurba_marseille","lat":43.28263,"lon":5.35069,"is_reserved":false,"is_disabled":false,"rental_uris":{"android":"levelo://app?vid=8dc84081-423e-499f-8243-020d24558319","ios":"levelo://app?vid=8dc84081-423e-499f-8243-020d24558319"},"vehicle_type_id":"4","last_reported":1747487887,"current_range_meters":12800,"station_id":"ce4bhbp2rcd13ifvqerg","pricing_plan_id":"cebpf4jnsgd1na2vs0mg"},{"bike_id":"c3738dc5-3166-43ed-915b-7f1a4cfa4f63","system_id":"levelo_inurba_marseille","lat":43.28263,"lon":5.35087,"is_reserved":false,"is_disabled":false,"rental_uris":{"android":"levelo://app?vid=c3738dc5-3166-43ed-915b-7f1a4cfa4f63","ios":"levelo://app?vid=c3738dc5-3166-43ed-915b-7f1a4cfa4f63"},"vehicle_type_id":"4","last_reported":1747487887,"current_range_meters":12800,"station_id":"ce4bhbp2rcd13ifvqerg","pricing_plan_id":"cebpf4jnsgd1na2vs0mg"},{"bike_id":"08461517-c731-4536-b80b-c62ece1a8db0","system_id":"levelo_inurba_marseille","lat":43.26033,"lon":5.37556,"is_reserved":false,"is_disabled":false,"rental_uris":{"android":"levelo://app?vid=08461517-c731-4536-b80b-c62ece1a8db0","ios":"levelo://app?vid=08461517-c731-4536-b80b-c62ece1a8db0"},"vehicle_type_id":"4","last_reported":1747487887,"current_range_meters":12800,"station_id":"ce4bhgh2rcd13ifvqfa0","pricing_plan_id":"cebpf4jnsgd1na2vs0mg"},{"bike_id":"0a0fa568-f7d9-4be3-98a5-36c64d6ae6e0","system_id":"levelo_inurba_marseille","lat":43.21196,"lon":5.35072,"is_reserved":false,"is_disabled":false,"rental_uris":{"android":"levelo://app?vid=0a0fa568-f7d9-4be3-98a5-36c64d6ae6e0","ios":"levelo://app?vid=0a0fa568-f7d9-4be3-98a5-36c64d6ae6e0"},"vehicle_type_id":"4","last_reported":1747487887,"current_range_meters":12800,"station_id":"st_cvj6sg6p6f1abm77japg","pricing_plan_id":"cebpf4jnsgd1na2vs0mg"},{"bike_id":"14603e41-b2dd-4757-a53c-2e366aa4f983","system_id":"levelo_inurba_marseille","lat":43.27004,"lon":5.4281,"is_reserved":false,"is_disabled":false,"rental_uris":{"android":"levelo://app?vid=14603e41-b2dd-4757-a53c-2e366aa4f983","ios":"levelo://app?vid=14603e41-b2dd-4757-a53c-2e366aa4f983"},"vehicle_type_id":"4","last_reported":1747487887,"current_range_meters":13600,"station_id":"","pricing_plan_id":"cebpf4jnsgd1na2vs0mg"},{"bike_id":"2d978aa7-fdc2-49b8-8cb7-75b124d4e324","system_id":"levelo_inurba_marseille","lat":43.28923,"lon":5.36638,"is_reserved":false,"is_disabled":false,"rental_uris":{"android":"levelo://app?vid=2d978aa7-fdc2-49b8-8cb7-75b124d4e324","ios":"levelo://app?vid=2d978aa7-fdc2-49b8-8cb7-75b124d4e324"},"vehicle_type_id":"4","last_reported":1747487887,"current_range_meters":13600,"station_id":"ce4bhap2rcd13ifvqek0","pricing_plan_id":"cebpf4jnsgd1na2vs0mg"},{"bike_id":"f63203cc-3db4-4da9-b727-3ca3702bb76a","system_id":"levelo_inurba_marseille","lat":43.26024,"lon":5.37547,"is_reserved":false,"is_disabled":false,"rental_uris":{"android":"levelo://app?vid=f63203cc-3db4-4da9-b727-3ca3702bb76a","ios":"levelo://app?vid=f63203cc-3db4-4da9-b727-3ca3702bb76a"},"vehicle_type_id":"4","last_reported":1747487887,"current_range_meters":13600,"station_id":"ce4bhgh2rcd13ifvqfa0","pricing_plan_id":"cebpf4jnsgd1na2vs0mg"},{"bike_id":"353fc0e4-539f-4488-be2f-4554d7b26470","system_id":"levelo_inurba_marseille","lat":43.24165,"lon":5.36398,"is_reserved":false,"is_disabled":false,"rental_uris":{"android":"levelo://app?vid=353fc0e4-539f-4488-be2f-4554d7b26470","ios":"levelo://app?vid=353fc0e4-539f-4488-be2f-4554d7b26470"},"vehicle_type_id":"4","last_reported":1747487887,"current_range_meters":13600,"station_id":"cpo36qri1sfpv3e86is0","pricing_plan_id":"cebpf4jnsgd1na2vs0mg"},{"bike_id":"489edee8-4cda-48e4-b99a-51c31ccac25e","system_id":"levelo_inurba_marseille","lat":43.27628,"lon":5.36102,"is_reserved":false,"is_disabled":false,"rental_uris":{"android":"levelo://app?vid=489edee8-4cda-48e4-b99a-51c31ccac25e","ios":"levelo://app?vid=489edee8-4cda-48e4-b99a-51c31ccac25e"},"vehicle_type_id":"4","last_reported":1747487887,"current_range_meters":14000,"station_id":"ce4bgj92rcd13ifvqbe0","pricing_plan_id":"cebpf4jnsgd1na2vs0mg"},{"bike_id":"4af669ac-e74f-4624-909e-182e3361dca5","system_id":"levelo_inurba_marseille","lat":43.288635,"lon":5.358459,"is_reserved":false,"is_disabled":false,"rental_uris":{"android":"levelo://app?vid=4af669ac-e74f-4624-909e-182e3361dca5","ios":"levelo://app?vid=4af669ac-e74f-4624-909e-182e3361dca5"},"vehicle_type_id":"4","last_reported":1747487887,"current_range_meters":14000,"station_id":"ce4bhb12rcd13ifvqem0","pricing_plan_id":"cebpf4jnsgd1na2vs0mg"},{"bike_id":"0bb19ac2-0b62-4439-9151-b3f6367a952d","system_id":"levelo_inurba_marseille","lat":43.28434,"lon":5.35003,"is_reserved":false,"is_disabled":false,"rental_uris":{"android":"levelo://app?vid=0bb19ac2-0b62-4439-9151-b3f6367a952d","ios":"levelo://app?vid=0bb19ac2-0b62-4439-9151-b3f6367a952d"},"vehicle_type_id":"4","last_reported":1747487887,"current_range_meters":14000,"station_id":"ce4bhbh2rcd13ifvqepg","pricing_plan_id":"cebpf4jnsgd1na2vs0mg"},{"bike_id":"b5ab1b0c-2927-4f0b-891e-85c56c5b2523","system_id":"levelo_inurba_marseille","lat":43.28417,"lon":5.34981,"is_reserved":false,"is_disabled":false,"rental_uris":{"android":"levelo://app?vid=b5ab1b0c-2927-4f0b-891e-85c56c5b2523","ios":"levelo://app?vid=b5ab1b0c-2927-4f0b-891e-85c56c5b2523"},"vehicle_type_id":"4","last_reported":1747487887,"current_range_meters":14000,"station_id":"ce4bhbh2rcd13ifvqepg","pricing_plan_id":"cebpf4jnsgd1na2vs0mg"},{"bike_id":"57b03510-be88-47ea-8747-11ed6c71946f","system_id":"levelo_inurba_marseille","lat":43.254398,"lon":5.377056,"is_reserved":false,"is_disabled":false,"rental_uris":{"android":"levelo://app?vid=57b03510-be88-47ea-8747-11ed6c71946f","ios":"levelo://app?vid=57b03510-be88-47ea-8747-11ed6c71946f"},"vehicle_type_id":"4","last_reported":1747487887,"current_range_meters":14000,"station_id":"ce4bhh12rcd13ifvqff0","pricing_plan_id":"cebpf4jnsgd1na2vs0mg"},{"bike_id":"5f2521c9-62fb-4141-b1d6-cd2fc15ce46c","system_id":"levelo_inurba_marseille","lat":43.25583,"lon":5.38237,"is_reserved":false,"is_disabled":false,"rental_uris":{"android":"levelo://app?vid=5f2521c9-62fb-4141-b1d6-cd2fc15ce46c","ios":"levelo://app?vid=5f2521c9-62fb-4141-b1d6-cd2fc15ce46c"},"vehicle_type_id":"4","last_reported":1747487887,"current_range_meters":14000,"station_id":"ce4bhih2rcd13ifvqfs0","pricing_plan_id":"cebpf4jnsgd1na2vs0mg"},{"bike_id":"e785f171-4bd6-4cc7-820e-9f92871788f1","system_id":"levelo_inurba_marseille","lat":43.30458,"lon":5.37907,"is_reserved":false,"is_disabled":false,"rental_uris":{"android":"levelo://app?vid=e785f171-4bd6-4cc7-820e-9f92871788f1","ios":"levelo://app?vid=e785f171-4bd6-4cc7-820e-9f92871788f1"},"vehicle_type_id":"4","last_reported":1747487887,"current_range_meters":14400,"station_id":"ce4bgup2rcd13ifvqcn0","pricing_plan_id":"cebpf4jnsgd1na2vs0mg"},{"bike_id":"2abdd71d-d41b-4881-be99-09b369843637","system_id":"levelo_inurba_marseille","lat":43.289353,"lon":5.366423,"is_reserved":false,"is_disabled":false,"rental_uris":{"android":"levelo://app?vid=2abdd71d-d41b-4881-be99-09b369843637","ios":"levelo://app?vid=2abdd71d-d41b-4881-be99-09b369843637"},"vehicle_type_id":"4","last_reported":1747487887,"current_range_meters":14400,"station_id":"ce4bhap2rcd13ifvqek0","pricing_plan_id":"cebpf4jnsgd1na2vs0mg"},{"bike_id":"a080fa2b-c9b1-408a-9236-025ac0f77890","system_id":"levelo_inurba_marseille","lat":43.2842,"lon":5.34976,"is_reserved":false,"is_disabled":false,"rental_uris":{"android":"levelo://app?vid=a080fa2b-c9b1-408a-9236-025ac0f77890","ios":"levelo://app?vid=a080fa2b-c9b1-408a-9236-025ac0f77890"},"vehicle_type_id":"4","last_reported":1747487887,"current_range_meters":14400,"station_id":"ce4bhbh2rcd13ifvqepg","pricing_plan_id":"cebpf4jnsgd1na2vs0mg"},{"bike_id":"82abce6d-5931-4a18-802a-3aa698611a44","system_id":"levelo_inurba_marseille","lat":43.23076,"lon":5.354883,"is_reserved":false,"is_disabled":false,"rental_uris":{"android":"levelo://app?vid=82abce6d-5931-4a18-802a-3aa698611a44","ios":"levelo://app?vid=82abce6d-5931-4a18-802a-3aa698611a44"},"vehicle_type_id":"4","last_reported":1747487887,"current_range_meters":14400,"station_id":"cpo3342slgdg3j2ifvpg","pricing_plan_id":"cebpf4jnsgd1na2vs0mg"},{"bike_id":"f948109f-a829-41ed-aa38-29e765ca5245","system_id":"levelo_inurba_marseille","lat":43.21191,"lon":5.35074,"is_reserved":false,"is_disabled":false,"rental_uris":{"android":"levelo://app?vid=f948109f-a829-41ed-aa38-29e765ca5245","ios":"levelo://app?vid=f948109f-a829-41ed-aa38-29e765ca5245"},"vehicle_type_id":"4","last_reported":1747487887,"current_range_meters":14400,"station_id":"st_cvj6sg6p6f1abm77japg","pricing_plan_id":"cebpf4jnsgd1na2vs0mg"},{"bike_id":"39cec12e-dea6-413f-8369-708b2b1ec0da","system_id":"levelo_inurba_marseille","lat":43.30888,"lon":5.37283,"is_reserved":false,"is_disabled":false,"rental_uris":{"android":"levelo://app?vid=39cec12e-dea6-413f-8369-708b2b1ec0da","ios":"levelo://app?vid=39cec12e-dea6-413f-8369-708b2b1ec0da"},"vehicle_type_id":"4","last_reported":1747487887,"current_range_meters":14800,"station_id":"","pricing_plan_id":"cebpf4jnsgd1na2vs0mg"},{"bike_id":"dae4c5bf-2c1c-4572-9b48-b310cb0234ea","system_id":"levelo_inurba_marseille","lat":43.27642,"lon":5.36122,"is_reserved":false,"is_disabled":false,"rental_uris":{"android":"levelo://app?vid=dae4c5bf-2c1c-4572-9b48-b310cb0234ea","ios":"levelo://app?vid=dae4c5bf-2c1c-4572-9b48-b310cb0234ea"},"vehicle_type_id":"4","last_reported":1747487887,"current_range_meters":14800,"station_id":"ce4bgj92rcd13ifvqbe0","pricing_plan_id":"cebpf4jnsgd1na2vs0mg"},{"bike_id":"5c1a46ce-92f1-43e9-9a2f-733c98419200","system_id":"levelo_inurba_marseille","lat":43.27372,"lon":5.3626,"is_reserved":false,"is_disabled":false,"rental_uris":{"android":"levelo://app?vid=5c1a46ce-92f1-43e9-9a2f-733c98419200","ios":"levelo://app?vid=5c1a46ce-92f1-43e9-9a2f-733c98419200"},"vehicle_type_id":"4","last_reported":1747487887,"current_range_meters":14800,"station_id":"ce4bhbh2rcd13ifvqeo0","pricing_plan_id":"cebpf4jnsgd1na2vs0mg"},{"bike_id":"c1024872-018c-41ba-b29c-bb48a74a7e67","system_id":"levelo_inurba_marseille","lat":43.27379,"lon":5.36255,"is_reserved":false,"is_disabled":false,"rental_uris":{"android":"levelo://app?vid=c1024872-018c-41ba-b29c-bb48a74a7e67","ios":"levelo://app?vid=c1024872-018c-41ba-b29c-bb48a74a7e67"},"vehicle_type_id":"4","last_reported":1747487887,"current_range_meters":14800,"station_id":"ce4bhbh2rcd13ifvqeo0","pricing_plan_id":"cebpf4jnsgd1na2vs0mg"},{"bike_id":"95e479fb-7118-469a-9c46-75dab5c84b7a","system_id":"levelo_inurba_marseille","lat":43.27372,"lon":5.36255,"is_reserved":false,"is_disabled":false,"rental_uris":{"android":"levelo://app?vid=95e479fb-7118-469a-9c46-75dab5c84b7a","ios":"levelo://app?vid=95e479fb-7118-469a-9c46-75dab5c84b7a"},"vehicle_type_id":"4","last_reported":1747487887,"current_range_meters":14800,"station_id":"ce4bhbh2rcd13ifvqeo0","pricing_plan_id":"cebpf4jnsgd1na2vs0mg"},{"bike_id":"95ac77dd-84bb-4b15-ad8d-be7fbc62aab4","system_id":"levelo_inurba_marseille","lat":43.28266,"lon":5.35071,"is_reserved":false,"is_disabled":false,"rental_uris":{"android":"levelo://app?vid=95ac77dd-84bb-4b15-ad8d-be7fbc62aab4","ios":"levelo://app?vid=95ac77dd-84bb-4b15-ad8d-be7fbc62aab4"},"vehicle_type_id":"4","last_reported":1747487887,"current_range_meters":14800,"station_id":"ce4bhbp2rcd13ifvqerg","pricing_plan_id":"cebpf4jnsgd1na2vs0mg"},{"bike_id":"1207e344-2fe7-49b5-9b51-fdd2c31f4d77","system_id":"levelo_inurba_marseille","lat":43.26194,"lon":5.37439,"is_reserved":false,"is_disabled":false,"rental_uris":{"android":"levelo://app?vid=1207e344-2fe7-49b5-9b51-fdd2c31f4d77","ios":"levelo://app?vid=1207e344-2fe7-49b5-9b51-fdd2c31f4d77"},"vehicle_type_id":"4","last_reported":1747487887,"current_range_meters":14800,"station_id":"ce4bhgp2rcd13ifvqfc0","pricing_plan_id":"cebpf4jnsgd1na2vs0mg"},