{"last_updated":1762009687,"ttl":60,"version":"2.2","data":{"bikes":[{"bike_id":"d75479e5-1a62-48d9-a8ef-50601b8e519f","system_id":"levelo_inurba_marseille","lat":43.25867,"lon":5.39901,"is_reserved":false,"is_disabled":false,"rental_uris":{"android":"levelo://app?vid=d75479e5-1a62-48d9-a8ef-50601b8e519f","ios":"levelo://app?vid=d75479e5-1a62-48d9-a8ef-50601b8e519f"},"vehicle_type_id":"4","last_reported":1762009688,"current_range_meters":2800,"station_id":"ce4bhl92rcd13ifvqghg","pricing_plan_id":"cebpf4jnsgd1na2vs0mg"},{"bike_id":"ce5688cc-c8a0-4540-9ba3-0323a96a45d8","system_id":"levelo_inurba_marseille","lat":43.2842,"lon":5.34993,"is_reserved":false,"is_disabled":false,"rental_uris":{"android":"levelo://app?vid=ce5688cc-c8a0-4540-9ba3-0323a96a45d8","ios":"levelo://app?vid=ce5688cc-c8a0-4540-9ba3-0323a96a45d8"},"vehicle_type_id":"4","last_reported":1762009688,"current_range_meters":2800,"station_id":"ce4bhbh2rcd13ifvqepg","pricing_plan_id":"cebpf4jnsgd1na2vs0mg"},{"bike_id":"98c69ce9-b776-4a35-8190-c3322227776a","system_id":"levelo_inurba_marseille","lat":43.29356,"lon":5.39258,"is_reserved":false,"is_disabled":false,"rental_uris":{"android":"levelo://app?vid=98c69ce9-b776-4a35-8190-c3322227776a","ios":"levelo://app?vid=98c69ce9-b776-4a35-8190-c3322227776a"},"vehicle_type_id":"4","last_reported":1762009688,"current_range_meters":2800,"station_id":"","pricing_plan_id":"cebpf4jnsgd1na2vs0mg"},{"bike_id":"80135d39-ba5d-4967-8ee5-f555d8316521","system_id":"levelo_inurba_marseille","lat":43.28262,"lon":5.35067,"is_reserved":false,"is_disabled":false,"rental_uris":{"android":"levelo://app?vid=80135d39-ba5d-4967-8ee5-f555d8316521","ios":"levelo://app?vid=80135d39-ba5d-4967-8ee5-f555d8316521"},"vehicle_type_id":"4","last_reported":1762009688,"current_range_meters":3200,"station_id":"ce4bhbp2rcd13ifvqerg","pricing_plan_id":"cebpf4jnsgd1na2vs0mg"},{"bike_id":"0cf3a15a-17c2-43a5-ac1b-79ce0d88707b","system_id":"levelo_inurba_marseille","lat":43.27384,"lon":5.36259,"is_reserved":false,"is_disabled":false,"rental_uris":{"android":"levelo://app?vid=0cf3a15a-17c2-43a5-ac1b-79ce0d88707b","ios":"levelo://app?vid=0cf3a15a-17c2-43a5-ac1b-79ce0d88707b"},"vehicle_type_id":"4","last_reported":1762009688,"current_range_meters":3600,"station_id":"ce4bhbh2rcd13ifvqeo0","pricing_plan_id":"cebpf4jnsgd1na2vs0mg"},{"bike_id":"b2d0ce64-8dd6-45d7-a86e-c2d6e724f442","system_id":"levelo_inurba_marseille","lat":43.297701,"lon":5.380871,"is_reserved":false,"is_disabled":false,"rental_uris":{"android":"levelo://app?vid=b2d0ce64-8dd6-45d7-a86e-c2d6e724f442","ios":"levelo://app?vid=b2d0ce64-8dd6-45d7-a86e-c2d6e724f442"},"vehicle_type_id":"4","last_reported":1762009688,"current_range_meters":4000,"station_id":"ce4bgi92rcd13ifvqb90","pricing_plan_id":"cebpf4jnsgd1na2vs0mg"},{"bike_id":"688e0991-23bb-4f67-a97d-b9bb7704a66a","system_id":"levelo_inurba_marseille","lat":43.29255,"lon":5.39101,"is_reserved":false,"is_disabled":false,"rental_uris":{"android":"levelo://app?vid=688e0991-23bb-4f67-a97d-b9bb7704a66a","ios":"levelo://app?vid=688e0991-23bb-4f67-a97d-b9bb7704a66a"},"vehicle_type_id":"4","last_reported":1762009688,"current_range_meters":4000,"station_id":"","pricing_plan_id":"cebpf4jnsgd1na2vs0mg"},{"bike_id":"dbe5a017-5f48-48a9-a30c-d753021d6208","system_id":"levelo_inurba_marseille","lat":43.29706,"lon":5.39666,"is_reserved":false,"is_disabled":false,"rental_uris":{"android":"levelo://app?vid=dbe5a017-5f48-48a9-a30c-d753021d6208","ios":"levelo://app?vid=dbe5a017-5f48-48a9-a30c-d753021d6208"},"vehicle_type_id":"4","last_reported":1762009688,"current_range_meters":4000,"station_id":"","pricing_plan_id":"cebpf4jnsgd1na2vs0mg"},{"bike_id":"cae4b925-f517-4229-be50-b6eab65ad492","system_id":"levelo_inurba_marseille","lat":43.21741,"lon":5.34608,"is_reserved":false,"is_disabled":false,"rental_uris":{"android":"levelo://app?vid=cae4b925-f517-4229-be50-b6eab65ad492","ios":"levelo://app?vid=cae4b925-f517-4229-be50-b6eab65ad492"},"vehicle_type_id":"4","last_reported":1762009688,"current_range_meters":4000,"station_id":"st_cvj6r9ubvosntc0bgbag","pricing_plan_id":"cebpf4jnsgd1na2vs0mg"},{"bike_id":"41bbadbf-5056-4e98-8aff-9918a1c5ed50","system_id":"levelo_inurba_marseille","lat":43.291675,"lon":5.371577,"is_reserved":false,"is_disabled":false,"rental_uris":{"android":"levelo://app?vid=41bbadbf-5056-4e98-8aff-9918a1c5ed50","ios":"levelo://app?vid=41bbadbf-5056-4e98-8aff-9918a1c5ed50"},"vehicle_type_id":"4","last_reported":1762009688,"current_range_meters":4000,"station_id":"ce4bha92rcd13ifvqeh0","pricing_plan_id":"cebpf4jnsgd1na2vs0mg"},{"bike_id":"97579d77-2db5-4002-af83-eeeb4edc2a04","system_id":"levelo_inurba_marseille","lat":43.217507,"lon":5.345963,"is_reserved":false,"is_disabled":false,"rental_uris":{"android":"levelo://app?vid=97579d77-2db5-4002-af83-eeeb4edc2a04","ios":"levelo://app?vid=97579d77-2db5-4002-af83-eeeb4edc2a04"},"vehicle_type_id":"4","last_reported":1762009688,"current_range_meters":4400,"station_id":"st_cvj6r9ubvosntc0bgbag","pricing_plan_id":"cebpf4jnsgd1na2vs0mg"},{"bike_id":"11711535-4775-4d81-a571-2c4dd537ef58","system_id":"levelo_inurba_marseille","lat":43.31327,"lon":5.3673,"is_reserved":false,"is_disabled":false,"rental_uris":{"android":"levelo://app?vid=11711535-4775-4d81-a571-2c4dd537ef58","ios":"levelo://app?vid=11711535-4775-4d81-a571-2c4dd537ef58"},"vehicle_type_id":"4","last_reported":1762009688,"current_range_meters":4400,"station_id":"ce4bgr92rcd13ifvqc6g","pricing_plan_id":"cebpf4jnsgd1na2vs0mg"},{"bike_id":"f2287fbd-65b0-4975-b44b-578b0e69e1ef","system_id":"levelo_inurba_marseille","lat":43.31218,"lon":5.36837,"is_reserved":false,"is_disabled":false,"rental_uris":{"android":"levelo://app?vid=f2287fbd-65b0-4975-b44b-578b0e69e1ef","ios":"levelo://app?vid=f2287fbd-65b0-4975-b44b-578b0e69e1ef"},"vehicle_type_id":"4","last_reported":1762009688,"current_range_meters":4800,"station_id":"ce4bgl92rcd13ifvqbq0","pricing_plan_id":"cebpf4jnsgd1na2vs0mg"},{"bike_id":"0ebdbe66-2920-4369-8677-6dfed611000b","system_id":"levelo_inurba_marseille","lat":43.287071,"lon":5.361017,"is_reserved":false,"is_disabled":false,"rental_uris":{"android":"levelo://app?vid=0ebdbe66-2920-4369-8677-6dfed611000b","ios":"levelo://app?vid=0ebdbe66-2920-4369-8677-6dfed611000b"},"vehicle_type_id":"4","last_reported":1762009688,"current_range_meters":4800,"station_id":"cki0cbj6b192h4jlfktg","pricing_plan_id":"cebpf4jnsgd1na2vs0mg"},{"bike_id":"82a1362f-b61a-46be-a663-3fcb37750770","system_id":"levelo_inurba_marseille","lat":43.28482,"lon":5.48404,"is_reserved":false,"is_disabled":false,"rental_uris":{"android":"levelo://app?vid=82a1362f-b61a-46be-a663-3fcb37750770","ios":"levelo://app?vid=82a1362f-b61a-46be-a663-3fcb37750770"},"vehicle_type_id":"4","last_reported":1762009688,"current_range_meters":4800,"station_id":"st_d3svhcjqgbts73a3dn0g","pricing_plan_id":"cebpf4jnsgd1na2vs0mg"},{"bike_id":"6650acee-d020-450d-a0c9-27342204e019","system_id":"levelo_inurba_marseille","lat":43.28859,"lon":5.42514,"is_reserved":false,"is_disabled":false,"rental_uris":{"android":"levelo://app?vid=6650acee-d020-450d-a0c9-27342204e019","ios":"levelo://app?vid=6650acee-d020-450d-a0c9-27342204e019"},"vehicle_type_id":"4","last_reported":1762009688,"current_range_meters":5600,"station_id":"st_d3b462108ojc7389ooeg","pricing_plan_id":"cebpf4jnsgd1na2vs0mg"},{"bike_id":"a18dbf48-2c4d-4fa4-a4c5-c9871d73c9a0","system_id":"levelo_inurba_marseille","lat":43.301994,"lon":5.383462,"is_reserved":false,"is_disabled":false,"rental_uris":{"android":"levelo://app?vid=a18dbf48-2c4d-4fa4-a4c5-c9871d73c9a0","ios":"levelo://app?vid=a18dbf48-2c4d-4fa4-a4c5-c9871d73c9a0"},"vehicle_type_id":"4","last_reported":1762009688,"current_range_meters":5600,"station_id":"ce4bgup2rcd13ifvqcn0","pricing_plan_id":"cebpf4jnsgd1na2vs0mg"},{"bike_id":"b55bf371-24d3-47b2-8a47-0adcb97d55c0","system_id":"levelo_inurba_marseille","lat":43.2175,"lon":5.3461,"is_reserved":false,"is_disabled":false,"rental_uris":{"android":"levelo://app?vid=b55bf371-24d3-47b2-8a47-0adcb97d55c0","ios":"levelo://app?vid=b55bf371-24d3-47b2-8a47-0adcb97d55c0"},"vehicle_type_id":"4","last_reported":1762009688,"current_range_meters":5600,"station_id":"st_cvj6r9ubvosntc0bgbag","pricing_plan_id":"cebpf4jnsgd1na2vs0mg"},{"bike_id":"d62a4e30-2a8a-47de-9d7a-fd92f829db09","system_id":"levelo_inurba_marseille","lat":43.31195,"lon":5.37956,"is_reserved":false,"is_disabled":false,"rental_uris":{"android":"levelo://app?vid=d62a4e30-2a8a-47de-9d7a-fd92f829db09","ios":"levelo://app?vid=d62a4e30-2a8a-47de-9d7a-fd92f829db09"},"vehicle_type_id":"4","last_reported":1762009688,"current_range_meters":5600,"station_id":"","pricing_plan_id":"cebpf4jnsgd1na2vs0mg"},{"bike_id":"0a5799dc-2cc4-4c1e-9fff-9e20fda3da55","system_id":"levelo_inurba_marseille","lat":43.21743,"lon":5.34606,"is_reserved":false,"is_disabled":false,"rental_uris":{"android":"levelo://app?vid=0a5799dc-2cc4-4c1e-9fff-9e20fda3da55","ios":"levelo://app?vid=0a5799dc-2cc4-4c1e-9fff-9e20fda3da55"},"vehicle_type_id":"4","last_reported":1762009688,"current_range_meters":5600,"station_id":"st_cvj6r9ubvosntc0bgbag","pricing_plan_id":"cebpf4jnsgd1na2vs0mg"},{"bike_id":"2cb7ef3f-095f-4f0a-9b0d-b52b52432c45","system_id":"levelo_inurba_marseille","lat":43.25339,"lon":5.42169,"is_reserved":false,"is_disabled":false,"rental_uris":{"android":"levelo://app?vid=2cb7ef3f-095f-4f0a-9b0d-b52b52432c45","ios":"levelo://app?vid=2cb7ef3f-095f-4f0a-9b0d-b52b52432c45"},"vehicle_type_id":"4","last_reported":1762009688,"current_range_meters":6000,"station_id":"st_d2m65c5bi1j21697t3ng","pricing_plan_id":"cebpf4jnsgd1na2vs0mg"},{"bike_id":"1bbb8c97-ace0-4171-aee0-7acd3d072b3b","system_id":"levelo_inurba_marseille","lat":43.24388,"lon":5.37047,"is_reserved":false,"is_disabled":false,"rental_uris":{"android":"levelo://app?vid=1bbb8c97-ace0-4171-aee0-7acd3d072b3b","ios":"levelo://app?vid=1bbb8c97-ace0-4171-aee0-7acd3d072b3b"},"vehicle_type_id":"4","last_reported":1762009688,"current_range_meters":6000,"station_id":"ce4bhhh2rcd13ifvqfk0","pricing_plan_id":"cebpf4jnsgd1na2vs0mg"},{"bike_id":"7914c679-d037-4198-9963-527fb1d8e4ea","system_id":"levelo_inurba_marseille","lat":43.21736,"lon":5.34603,"is_reserved":false,"is_disabled":false,"rental_uris":{"android":"levelo://app?vid=7914c679-d037-4198-9963-527fb1d8e4ea","ios":"levelo://app?vid=7914c679-d037-4198-9963-527fb1d8e4ea"},"vehicle_type_id":"4","last_reported":1762009688,"current_range_meters":6000,"station_id":"st_cvj6r9ubvosntc0bgbag","pricing_plan_id":"cebpf4jnsgd1na2vs0mg"},{"bike_id":"51713cef-4995-4aac-8586-e972106d2a84","system_id":"levelo_inurba_marseille","lat":43.28265,"lon":5.35062,"is_reserved":false,"is_disabled":false,"rental_uris":{"android":"levelo://app?vid=51713cef-4995-4aac-8586-e972106d2a84","ios":"levelo://app?vid=51713cef-4995-4aac-8586-e972106d2a84"},"vehicle_type_id":"4","last_reported":1762009688,"current_range_meters":6000,"station_id":"ce4bhbp2rcd13ifvqerg","pricing_plan_id":"cebpf4jnsgd1na2vs0mg"},{"bike_id":"277db394-172d-4b62-a3d6-322e397251fa","system_id":"levelo_inurba_marseille","lat":43.28268,"lon":5.35068,"is_reserved":false,"is_disabled":false,"rental_uris":{"android":"levelo://app?vid=277db394-172d-4b62-a3d6-322e397251fa","ios":"levelo://app?vid=277db394-172d-4b62-a3d6-322e397251fa"},"vehicle_type_id":"4","last_reported":1762009688,"current_range_meters":6000,"station_id":"ce4bhbp2rcd13ifvqerg","pricing_plan_id":"cebpf4jnsgd1na2vs0mg"},{"bike_id":"9b93b5e1-c939-4745-bf85-2d21945442dc","system_id":"levelo_inurba_marseille","lat":43.29992,"lon":5.36407,"is_reserved":false,"is_disabled":false,"rental_uris":{"android":"levelo://app?vid=9b93b5e1-c939-4745-bf85-2d21945442dc","ios":"levelo://app?vid=9b93b5e1-c939-4745-bf85-2d21945442dc"},"vehicle_type_id":"4","last_reported":1762009688,"current_range_meters":6400,"station_id":"","pricing_plan_id":"cebpf4jnsgd1na2vs0mg"},{"bike_id":"62a4050e-d759-4638-9ba4-1af08c6063c5","system_id":"levelo_inurba_marseille","lat":43.27212,"lon":5.39181,"is_reserved":false,"is_disabled":false,"rental_uris":{"android":"levelo://app?vid=62a4050e-d759-4638-9ba4-1af08c6063c5","ios":"levelo://app?vid=62a4050e-d759-4638-9ba4-1af08c6063c5"},"vehicle_type_id":"4","last_reported":1762009688,"current_range_meters":6400,"station_id":"ce4bhhp2rcd13ifvqfm0","pricing_plan_id":"cebpf4jnsgd1na2vs0mg"},{"bike_id":"d1311481-3a07-4834-996f-5229084d4b23","system_id":"levelo_inurba_marseille","lat":43.30744,"lon":5.42445,"is_reserved":false,"is_disabled":false,"rental_uris":{"android":"levelo://app?vid=d1311481-3a07-4834-996f-5229084d4b23","ios":"levelo://app?vid=d1311481-3a07-4834-996f-5229084d4b23"},"vehicle_type_id":"4","last_reported":1762009688,"current_range_meters":6400,"station_id":"st_cvj6ca6bvosntc0bfgr0","pricing_plan_id":"cebpf4jnsgd1na2vs0mg"},{"bike_id":"e9eec46a-7d24-474f-beb3-1656893452dd","system_id":"levelo_inurba_marseille","lat":43.26189,"lon":5.37456,"is_reserved":false,"is_disabled":false,"rental_uris":{"android":"levelo://app?vid=e9eec46a-7d24-474f-beb3-1656893452dd","ios":"levelo://app?vid=e9eec46a-7d24-474f-beb3-1656893452dd"},"vehicle_type_id":"4","last_reported":1762009688,"current_range_meters":6400,"station_id":"ce4bhgp2rcd13ifvqfc0","pricing_plan_id":"cebpf4jnsgd1na2vs0mg"},{"bike_id":"a48605af-071a-4b78-b8b4-83ffc5a55f7b","system_id":"levelo_inurba_marseille","lat":43.25582,"lon":5.38258,"is_reserved":false,"is_disabled":false,"rental_uris":{"android":"levelo://app?vid=a48605af-071a-4b78-b8b4-83ffc5a55f7b","ios":"levelo://app?vid=a48605af-071a-4b78-b8b4-83ffc5a55f7b"},"vehicle_type_id":"4","last_reported":1762009688,"current_range_meters":6400,"station_id":"ce4bhih2rcd13ifvqfs0","pricing_plan_id":"cebpf4jnsgd1na2vs0mg"},{"bike_id":"148ecd2f-d897-4595-a56a-dff411874b2b","system_id":"levelo_inurba_marseille","lat":43.31498,"lon":5.37307,"is_reserved":false,"is_disabled":false,"rental_uris":{"android":"levelo://app?vid=148ecd2f-d897-4595-a56a-dff411874b2b","ios":"levelo://app?vid=148ecd2f-d897-4595-a56a-dff411874b2b"},"vehicle_type_id":"4","last_reported":1762009688,"current_range_meters":6400,"station_id":"ce4bgt12rcd13ifvqcd0","pricing_plan_id":"cebpf4jnsgd1na2vs0mg"},{"bike_id":"4e257b92-93aa-4b25-a2ef-f02648040ae9","system_id":"levelo_inurba_marseille","lat":43.284929,"lon":5.385594,"is_reserved":false,"is_disabled":false,"rental_uris":{"android":"levelo://app?vid=4e257b92-93aa-4b25-a2ef-f02648040ae9","ios":"levelo://app?vid=4e257b92-93aa-4b25-a2ef-f02648040ae9"},"vehicle_type_id":"4","last_reported":1762009688,"current_range_meters":6800,"station_id":"","pricing_plan_id":"cebpf4jnsgd1na2vs0mg"},{"bike_id":"e4d8c87b-42d0-4d44-8f02-838fdd568075","system_id":"levelo_inurba_marseille","lat":43.29097,"lon":5.38119,"is_reserved":false,"is_disabled":false,"rental_uris":{"android":"levelo://app?vid=e4d8c87b-42d0-4d44-8f02-838fdd568075","ios":"levelo://app?vid=e4d8c87b-42d0-4d44-8f02-838fdd568075"},"vehicle_type_id":"4","last_reported":1762009688,"current_range_meters":6800,"station_id":"ce4bh512rcd13ifvqe2g","pricing_plan_id":"cebpf4jnsgd1na2vs0mg"},{"bike_id":"50bac76e-2f8d-4aef-8aa4-56832107ff6e","system_id":"levelo_inurba_marseille","lat":43.28612,"lon":5.35107,"is_reserved":false,"is_disabled":false,"rental_uris":{"android":"levelo://app?vid=50bac76e-2f8d-4aef-8aa4-56832107ff6e","ios":"levelo://app?vid=50bac76e-2f8d-4aef-8aa4-56832107ff6e"},"vehicle_type_id":"4","last_reported":1762009688,"current_range_meters":6800,"station_id":"ce4bhch2rcd13ifvqeug","pricing_plan_id":"cebpf4jnsgd1na2vs0mg"},{"bike_id":"1c8e8e21-51bd-4d8f-83b4-b85b2e150b9a","system_id":"levelo_inurba_marseille","lat":43.28607,"lon":5.37076,"is_reserved":false,"is_disabled":false,"rental_uris":{"android":"levelo://app?vid=1c8e8e21-51bd-4d8f-83b4-b85b2e150b9a","ios":"levelo://app?vid=1c8e8e21-51bd-4d8f-83b4-b85b2e150b9a"},"vehicle_type_id":"4","last_reported":1762009688,"current_range_meters":6800,"station_id":"ce4bht12rcd13ifvqi60","pricing_plan_id":"cebpf4jnsgd1na2vs0mg"},{"bike_id":"acbfbef0-2bb2-4997-b766-fa3bada3f104","system_id":"levelo_inurba_marseille","lat":43.217459,"lon":5.346062,"is_reserved":false,"is_disabled":false,"rental_uris":{"android":"levelo://app?vid=acbfbef0-2bb2-4997-b766-fa3bada3f104","ios":"levelo://app?vid=acbfbef0-2bb2-4997-b766-fa3bada3f104"},"vehicle_type_id":"4","last_reported":1762009688,"current_range_meters":7200,"station_id":"st_cvj6r9ubvosntc0bgbag","pricing_plan_id":"cebpf4jnsgd1na2vs0mg"},{"bike_id":"421898f5-6c6d-4850-a304-3c0cc5951bee","system_id":"levelo_inurba_marseille","lat":43.28512,"lon":5.4218,"is_reserved":false,"is_disabled":false,"rental_uris":{"android":"levelo://app?vid=421898f5-6c6d-4850-a304-3c0cc5951bee","ios":"levelo://app?vid=421898f5-6c6d-4850-a304-3c0cc5951bee"},"vehicle_type_id":"4","last_reported":1762009688,"current_range_meters":7200,"station_id":"","pricing_plan_id":"cebpf4jnsgd1na2vs0mg"},{"bike_id":"f643c35b-c5a7-43c4-92a7-c4e52bde8db9","system_id":"levelo_inurba_marseille","lat":43.28155,"lon":5.4267,"is_reserved":false,"is_disabled":false,"rental_uris":{"android":"levelo://app?vid=f643c35b-c5a7-43c4-92a7-c4e52bde8db9","ios":"levelo://app?vid=f643c35b-c5a7-43c4-92a7-c4e52bde8db9"},"vehicle_type_id":"4","last_reported":1762009688,"current_range_meters":7200,"station_id":"ce4bhnh2rcd13ifvqgug","pricing_plan_id":"cebpf4jnsgd1na2vs0mg"},{"bike_id":"ef777f47-3ec2-4a6f-92fd-6d371f9cfd72","system_id":"levelo_inurba_marseille","lat":43.3054,"lon":5.36558,"is_reserved":false,"is_disabled":false,"rental_uris":{"android":"levelo://app?vid=ef777f47-3ec2-4a6f-92fd-6d371f9cfd72","ios":"levelo://app?vid=ef777f47-3ec2-4a6f-92fd-6d371f9cfd72"},"vehicle_type_id":"4","last_reported":1762009688,"current_range_meters":7200,"station_id":"ce4bgs12rcd13ifvqcag","pricing_plan_id":"cebpf4jnsgd1na2vs0mg"},{"bike_id":"3d101700-d25f-4eb8-b740-50ab75b38fc6","system_id":"levelo_inurba_marseille","lat":43.25348,"lon":5.4216,"is_reserved":false,"is_disabled":false,"rental_uris":{"android":"levelo://app?vid=3d101700-d25f-4eb8-b740-50ab75b38fc6","ios":"levelo://app?vid=3d101700-d25f-4eb8-b740-50ab75b38fc6"},"vehicle_type_id":"4","last_reported":1762009688,"current_range_meters":7200,"station_id":"st_d2m65c5bi1j21697t3ng","pricing_plan_id":"cebpf4jnsgd1na2vs0mg"},{"bike_id":"5fb987d7-0fd0-4ae4-b81e-29cf312b29a5","system_id":"levelo_inurba_marseille","lat":43.28947,"lon":5.39036,"is_reserved":false,"is_disabled":false,"rental_uris":{"android":"levelo://app?vid=5fb987d7-0fd0-4ae4-b81e-29cf312b29a5","ios":"levelo://app?vid=5fb987d7-0fd0-4ae4-b81e-29cf312b29a5"},"vehicle_type_id":"4","last_reported":1762009688,"current_range_meters":8000,"station_id":"","pricing_plan_id":"cebpf4jnsgd1na2vs0mg"},{"bike_id":"3a8851b0-bea2-4b80-afc7-0c6751111e32","system_id":"levelo_inurba_marseille","lat":43.28879,"lon":5.42534,"is_reserved":false,"is_disabled":false,"rental_uris":{"android":"levelo://app?vid=3a8851b0-bea2-4b80-afc7-0c6751111e32","ios":"levelo://app?vid=3a8851b0-bea2-4b80-afc7-0c6751111e32"},"vehicle_type_id":"4","last_reported":1762009688,"current_range_meters":8000,"station_id":"st_d3b462108ojc7389ooeg","pricing_plan_id":"cebpf4jnsgd1na2vs0mg"},{"bike_id":"70b7527d-67eb-4818-84c6-51aae343ca97","system_id":"levelo_inurba_marseille","lat":43.284738,"lon":5.484091,"is_reserved":false,"is_disabled":false,"rental_uris":{"android":"levelo://app?vid=70b7527d-67eb-4818-84c6-51aae343ca97","ios":"levelo://app?vid=70b7527d-67eb-4818-84c6-51aae343ca97"},"vehicle_type_id":"4","last_reported":1762009688,"current_range_meters":8000,"station_id":"st_d3svhcjqgbts73a3dn0g","pricing_plan_id":"cebpf4jnsgd1na2vs0mg"},{"bike_id":"5480f442-abba-4438-bd49-604d4ac7acc0","system_id":"levelo_inurba_marseille","lat":43.2407,"lon":5.37769,"is_reserved":false,"is_disabled":false,"rental_uris":{"android":"levelo://app?vid=5480f442-abba-4438-bd49-604d4ac7acc0","ios":"levelo://app?vid=5480f442-abba-4438-bd49-604d4ac7acc0"},"vehicle_type_id":"4","last_reported":1762009688,"current_range_meters":8000,"station_id":"ce4bhnp2rcd13ifvqgvg","pricing_plan_id":"cebpf4jnsgd1na2vs0mg"},{"bike_id":"73439ae4-6788-433f-aa3a-7244ea35af55","system_id":"levelo_inurba_marseille","lat":43.21771,"lon":5.34588,"is_reserved":false,"is_disabled":false,"rental_uris":{"android":"levelo://app?vid=73439ae4-6788-433f-aa3a-7244ea35af55","ios":"levelo://app?vid=73439ae4-6788-433f-aa3a-7244ea35af55"},"vehicle_type_id":"4","last_reported":1762009688,"current_range_meters":8000,"station_id":"st_cvj6r9ubvosntc0bgbag","pricing_plan_id":"cebpf4jnsgd1na2vs0mg"},{"bike_id":"ff0e81dc-2e08-46cb-b993-9e823a1da595","system_id":"levelo_inurba_marseille","lat":43.29191,"lon":5.35812,"is_reserved":false,"is_disabled":false,"rental_uris":{"android":"levelo://app?vid=ff0e81dc-2e08-46cb-b993-9e823a1da595","ios":"levelo://app?vid=ff0e81dc-2e08-46cb-b993-9e823a1da595"},"vehicle_type_id":"4","last_reported":1762009688,"current_range_meters":8400,"station_id":"ce4bhb12rcd13ifvqel0","pricing_plan_id":"cebpf4jnsgd1na2vs0mg"},{"bike_id":"96ad2f8e-1ff0-415a-a84a-9186f2a5baf6","system_id":"levelo_inurba_marseille","lat":43.29606,"lon":5.37672,"is_reserved":false,"is_disabled":false,"rental_uris":{"android":"levelo://app?vid=96ad2f8e-1ff0-415a-a84a-9186f2a5baf6","ios":"levelo://app?vid=96ad2f8e-1ff0-415a-a84a-9186f2a5baf6"},"vehicle_type_id":"4","last_reported":1762009688,"current_range_meters":8400,"station_id":"ce4bgi12rcd13ifvqb80","pricing_plan_id":"cebpf4jnsgd1na2vs0mg"},{"bike_id":"b3ba8d39-c64d-4b5e-a301-8e5e46acf23a","system_id":"levelo_inurba_marseille","lat":43.3176,"lon":5.37726,"is_reserved":false,"is_disabled":false,"rental_uris":{"android":"levelo://app?vid=b3ba8d39-c64d-4b5e-a301-8e5e46acf23a","ios":"levelo://app?vid=b3ba8d39-c64d-4b5e-a301-8e5e46acf23a"},"vehicle_type_id":"4","last_reported":1762009688,"current_range_meters":8400,"station_id":"","pricing_plan_id":"cebpf4jnsgd1na2vs0mg"},{"bike_id":"5b2fa7e3-eb6c-45be-9093-a740803cd6aa","system_id":"levelo_inurba_marseille","lat":43.286145,"lon":5.351066,"is_reserved":false,"is_disabled":false,"rental_uris":{"android":"levelo://app?vid=5b2fa7e3-eb6c-45be-9093-a740803cd6aa","ios":"levelo://app?vid=5b2fa7e3-eb6c-45be-9093-a740803cd6aa"},"vehicle_type_id":"4","last_reported":1762009688,"current_range_meters":8400,"station_id":"ce4bhi12rcd13ifvqfp0","pricing_plan_id":"cebpf4jnsgd1na2vs0mg"},{"bike_id":"8eeb0c8f-9f40-4733-bc78-a599f875a914","system_id":"levelo_inurba_marseille","lat":43.27938,"lon":5.410479,"is_reserved":false,"is_disabled":false,"rental_uris":{"android":"levelo://app?vid=8eeb0c8f-9f40-4733-bc78-a599f875a914","ios":"levelo://app?vid=8eeb0c8f-9f40-4733-bc78-a599f875a914"},"vehicle_type_id":"4","last_reported":1762009688,"current_range_meters":8400,"station_id":"ce4bhnp2rcd13ifvqh0g","pricing_plan_id":"cebpf4jnsgd1na2vs0mg"},{"bike_id":"dcb5f4d6-a57a-45ea-b185-de3fe952058c","system_id":"levelo_inurba_marseille","lat":43.28101,"lon":5.378309,"is_reserved":false,"is_disabled":true,"rental_uris":{"android":"levelo://app?vid=dcb5f4d6-a57a-45ea-b185-de3fe952058c","ios":"levelo://app?vid=dcb5f4d6-a57a-45ea-b185-de3fe952058c"},"vehicle_type_id":"4","last_reported":1762009688,"current_range_meters":8400,"station_id":"","pricing_plan_id":"cebpf4jnsgd1na2vs0mg"},{"bike_id":"6d591f57-3682-42cb-8d38-61479f39e098","system_id":"levelo_inurba_marseille","lat":43.243859,"lon":5.370596,"is_reserved":false,"is_disabled":false,"rental_uris":{"android":"levelo://app?vid=6d591f57-3682-42cb-8d38-61479f39e098","ios":"levelo://app?vid=6d591f57-3682-42cb-8d38-61479f39e098"},"vehicle_type_id":"4","last_reported":1762009688,"current_range_meters":8400,"station_id":"","pricing_plan_id":"cebpf4jnsgd1na2vs0mg"},{"bike_id":"a4dac4fa-66e6-48be-a654-6e17cdc7ca0b","system_id":"levelo_inurba_marseille","lat":43.337571,"lon":5.374323,"is_reserved":false,"is_disabled":false,"rental_uris":{"android":"levelo://app?vid=a4dac4fa-66e6-48be-a654-6e17cdc7ca0b","ios":"levelo://app?vid=a4dac4fa-66e6-48be-a654-6e17cdc7ca0b"},"vehicle_type_id":"4","last_reported":1762009688,"current_range_meters":8800,"station_id":"","pricing_plan_id":"cebpf4jnsgd1na2vs0mg"},{"bike_id":"d1d628be-1675-43b6-95e5-bbf3aeaa7c7f","system_id":"levelo_inurba_marseille","lat":43.27208,"lon":5.39179,"is_reserved":false,"is_disabled":false,"rental_uris":{"android":"levelo://app?vid=d1d628be-1675-43b6-95e5-bbf3aeaa7c7f","ios":"levelo://app?vid=d1d628be-1675-43b6-95e5-bbf3aeaa7c7f"},"vehicle_type_id":"4","last_reported":1762009688,"current_range_meters":8800,"station_id":"ce4bhhp2rcd13ifvqfm0","pricing_plan_id":"cebpf4jnsgd1na2vs0mg"},{"bike_id":"ab0ebdaf-9acb-4b09-84d9-c6bf68cb1684","system_id":"levelo_inurba_marseille","lat":43.23153,"lon":5.43707,"is_reserved":false,"is_disabled":false,"rental_uris":{"android":"levelo://app?vid=ab0ebdaf-9acb-4b09-84d9-c6bf68cb1684","ios":"levelo://app?vid=ab0ebdaf-9acb-4b09-84d9-c6bf68cb1684"},"vehicle_type_id":"4","last_reported":1762009688,"current_range_meters":8800,"station_id":"ce4bhmp2rcd13ifvqgog","pricing_plan_id":"cebpf4jnsgd1na2vs0mg"},{"bike_id":"c1f97f1c-f47a-4b0d-a6b9-b2b54143a2e5","system_id":"levelo_inurba_marseille","lat":43.30554,"lon":5.36555,"is_reserved":false,"is_disabled":false,"rental_uris":{"android":"levelo://app?vid=c1f97f1c-f47a-4b0d-a6b9-b2b54143a2e5","ios":"levelo://app?vid=c1f97f1c-f47a-4b0d-a6b9-b2b54143a2e5"},"vehicle_type_id":"4","last_reported":1762009688,"current_range_meters":8800,"station_id":"ce4bgs12rcd13ifvqcag","pricing_plan_id":"cebpf4jnsgd1na2vs0mg"},{"bike_id":"6e9f1ead-1640-4ccc-bca0-d965c6a1108f","system_id":"levelo_inurba_marseille","lat":43.30058,"lon":5.3868,"is_reserved":false,"is_disabled":false,"rental_uris":{"android":"levelo://app?vid=6e9f1ead-1640-4ccc-bca0-d965c6a1108f","ios":"levelo://app?vid=6e9f1ead-1640-4ccc-bca0-d965c6a1108f"},"vehicle_type_id":"4","last_reported":1762009688,"current_range_meters":8800,"station_id":"","pricing_plan_id":"cebpf4jnsgd1na2vs0mg"},{"bike_id":"b4c42208-672a-4106-a23e-87b8d11f6c78","system_id":"levelo_inurba_marseille","lat":43.28096,"lon":5.37817,"is_reserved":false,"is_disabled":false,"rental_uris":{"android":"levelo://app?vid=b4c42208-672a-4106-a23e-87b8d11f6c78","ios":"levelo://app?vid=b4c42208-672a-4106-a23e-87b8d11f6c78"},"vehicle_type_id":"4","last_reported":1762009688,"current_range_meters":8800,"station_id":"ce4bha12rcd13ifvqee0","pricing_plan_id":"cebpf4jnsgd1na2vs0mg"},{"bike_id":"77fb0526-f6c6-4c08-9694-a94c4dccfa28","system_id":"levelo_inurba_marseille","lat":43.26064,"lon":5.39401,"is_reserved":false,"is_disabled":false,"rental_uris":{"android":"levelo://app?vid=77fb0526-f6c6-4c08-9694-a94c4dccfa28","ios":"levelo://app?vid=77fb0526-f6c6-4c08-9694-a94c4dccfa28"},"vehicle_type_id":"4","last_reported":1762009688,"current_range_meters":8800,"station_id":"ce4bhh92rcd13ifvqfj0","pricing_plan_id":"cebpf4jnsgd1na2vs0mg"},{"bike_id":"18b909eb-f20b-42fa-ba04-fffc45049599","system_id":"levelo_inurba_marseille","lat":43.28255,"lon":5.35079,"is_reserved":false,"is_disabled":false,"rental_uris":{"android":"levelo://app?vid=18b909eb-f20b-42fa-ba04-fffc45049599","ios":"levelo://app?vid=18b909eb-f20b-42fa-ba04-fffc45049599"},"vehicle_type_id":"4","last_reported":1762009688,"current_range_meters":9200,"station_id":"ce4bhbp2rcd13ifvqerg","pricing_plan_id":"cebpf4jnsgd1na2vs0mg"},{"bike_id":"98c1a6ba-8fa1-4beb-b4a3-56f3b50f0302","system_id":"levelo_inurba_marseille","lat":43.284722,"lon":5.384302,"is_reserved":false,"is_disabled":true,"rental_uris":{"android":"levelo://app?vid=98c1a6ba-8fa1-4beb-b4a3-56f3b50f0302","ios":"levelo://app?vid=98c1a6ba-8fa1-4beb-b4a3-56f3b50f0302"},"vehicle_type_id":"4","last_reported":1762009688,"current_range_meters":9200,"station_id":"ce4bh512rcd13ifvqe3g","pricing_plan_id":"cebpf4jnsgd1na2vs0mg"},{"bike_id":"27abc7d1-dd85-495f-9415-aa00cef4846e","system_id":"levelo_inurba_marseille","lat":43.27757,"lon":5.39571,"is_reserved":false,"is_disabled":false,"rental_uris":{"android":"levelo://app?vid=27abc7d1-dd85-495f-9415-aa00cef4846e","ios":"levelo://app?vid=27abc7d1-dd85-495f-9415-aa00cef4846e"},"vehicle_type_id":"4","last_reported":1762009688,"current_range_meters":9200,"station_id":"","pricing_plan_id":"cebpf4jnsgd1na2vs0mg"},{"bike_id":"57b1b275-cdab-4af0-9e1f-b9b2c6a4c45e","system_id":"levelo_inurba_marseille","lat":43.293031,"lon":5.374632,"is_reserved":false,"is_disabled":false,"rental_uris":{"android":"levelo://app?vid=57b1b275-cdab-4af0-9e1f-b9b2c6a4c45e","ios":"levelo://app?vid=57b1b275-cdab-4af0-9e1f-b9b2c6a4c45e"},"vehicle_type_id":"4","last_reported":1762009688,"current_range_meters":9600,"station_id":"ce4bgi12rcd13ifvqb70","pricing_plan_id":"cebpf4jnsgd1na2vs0mg"},{"bike_id":"9d7feb19-1054-4164-b8c6-de464e9c0dbf","system_id":"levelo_inurba_marseille","lat":43.296014,"lon":5.381066,"is_reserved":false,"is_disabled":false,"rental_uris":{"android":"levelo://app?vid=9d7feb19-1054-4164-b8c6-de464e9c0dbf","ios":"levelo://app?vid=9d7feb19-1054-4164-b8c6-de464e9c0dbf"},"vehicle_type_id":"4","last_reported":1762009688,"current_range_meters":9600,"station_id":"ce4bgl12rcd13ifvqbo0","pricing_plan_id":"cebpf4jnsgd1na2vs0mg"},{"bike_id":"838ff85f-e9ed-4843-a7b2-690c3e4d8fc6","system_id":"levelo_inurba_marseille","lat":43.21744,"lon":5.34611,"is_reserved":false,"is_disabled":false,"rental_uris":{"android":"levelo://app?vid=838ff85f-e9ed-4843-a7b2-690c3e4d8fc6","ios":"levelo://app?vid=838ff85f-e9ed-4843-a7b2-690c3e4d8fc6"},"vehicle_type_id":"4","last_reported":1762009688,"current_range_meters":9600,"station_id":"st_cvj6r9ubvosntc0bgbag","pricing_plan_id":"cebpf4jnsgd1na2vs0mg"},{"bike_id":"a6a4dcd0-406d-4bfb-b869-226f57631d1e","system_id":"levelo_inurba_marseille","lat":43.29529,"lon":5.38542,"is_reserved":false,"is_disabled":false,"rental_uris":{"android":"levelo://app?vid=a6a4dcd0-406d-4bfb-b869-226f57631d1e","ios":"levelo://app?vid=a6a4dcd0-406d-4bfb-b869-226f57631d1e"},"vehicle_type_id":"4","last_reported":1762009688,"current_range_meters":9600,"station_id":"ce4bgih2rcd13ifvqba0","pricing_plan_id":"cebpf4jnsgd1na2vs0mg"},{"bike_id":"dacea13e-ff7f-4447-9d68-7558315e0463","system_id":"levelo_inurba_marseille","lat":43.30422,"lon":5.36767,"is_reserved":false,"is_disabled":false,"rental_uris":{"android":"levelo://app?vid=dacea13e-ff7f-4447-9d68-7558315e0463","ios":"levelo://app?vid=dacea13e-ff7f-4447-9d68-7558315e0463"},"vehicle_type_id":"4","last_reported":1762009688,"current_range_meters":9600,"station_id":"","pricing_plan_id":"cebpf4jnsgd1na2vs0mg"},{"bike_id":"f70f0db2-43ba-4acc-9713-f5bd7e77676c","system_id":"levelo_inurba_marseille","lat":43.2174,"lon":5.34607,"is_reserved":false,"is_disabled":false,"rental_uris":{"android":"levelo://app?vid=f70f0db2-43ba-4acc-9713-f5bd7e77676c","ios":"levelo://app?vid=f70f0db2-43ba-4acc-9713-f5bd7e77676c"},"vehicle_type_id":"4","last_reported":1762009688,"current_range_meters":10000,"station_id":"st_cvj6r9ubvosntc0bgbag","pricing_plan_id":"cebpf4jnsgd1na2vs0mg"},{"bike_id":"0d318677-8538-4313-a48f-4d63828473a0","system_id":"levelo_inurba_marseille","lat":43.28105,"lon":5.37841,"is_reserved":false,"is_disabled":false,"rental_uris":{"android":"levelo://app?vid=0d318677-8538-4313-a48f-4d63828473a0","ios":"levelo://app?vid=0d318677-8538-4313-a48f-4d63828473a0"},"vehicle_type_id":"4","last_reported":1762009688,"current_range_meters":10000,"station_id":"ce4bha12rcd13ifvqee0","pricing_plan_id":"cebpf4jnsgd1na2vs0mg"},{"bike_id":"45aca055-e806-4a8f-b226-ca07bd1906ad","system_id":"levelo_inurba_marseille","lat":43.27819,"lon":5.4072,"is_reserved":false,"is_disabled":false,"rental_uris":{"android":"levelo://app?vid=45aca055-e806-4a8f-b226-ca07bd1906ad","ios":"levelo://app?vid=45aca055-e806-4a8f-b226-ca07bd1906ad"},"vehicle_type_id":"4","last_reported":1762009688,"current_range_meters":10000,"station_id":"ce4bhnh2rcd13ifvqgtg","pricing_plan_id":"cebpf4jnsgd1na2vs0mg"},{"bike_id":"6cd59db7-cb12-4301-8385-22b87d7a5cfd","system_id":"levelo_inurba_marseille","lat":43.285363,"lon":5.440972,"is_reserved":false,"is_disabled":false,"rental_uris":{"android":"levelo://app?vid=6cd59db7-cb12-4301-8385-22b87d7a5cfd","ios":"levelo://app?vid=6cd59db7-cb12-4301-8385-22b87d7a5cfd"},"vehicle_type_id":"4","last_reported":1762009688,"current_range_meters":10000,"station_id":"st_d3j3df2ikq2c7380ej80","pricing_plan_id":"cebpf4jnsgd1na2vs0mg"},{"bike_id":"52b117f2-4c01-4f66-887d-006722496528","system_id":"levelo_inurba_marseille","lat":43.3086,"lon":5.3716,"is_reserved":false,"is_disabled":false,"rental_uris":{"android":"levelo://app?vid=52b117f2-4c01-4f66-887d-006722496528","ios":"levelo://app?vid=52b117f2-4c01-4f66-887d-006722496528"},"vehicle_type_id":"4","last_reported":1762009688,"current_range_meters":10000,"station_id":"","pricing_plan_id":"cebpf4jnsgd1na2vs0mg"},{"bike_id":"07d9cad5-27e5-45b1-8100-dec66cdbf239","system_id":"levelo_inurba_marseille","lat":43.32088,"lon":5.3678,"is_reserved":false,"is_disabled":false,"rental_uris":{"android":"levelo://app?vid=07d9cad5-27e5-45b1-8100-dec66cdbf239","ios":"levelo://app?vid=07d9cad5-27e5-45b1-8100-dec66cdbf239"},"vehicle_type_id":"4","last_reported":1762009688,"current_range_meters":10000,"station_id":"ce4bhrh2rcd13ifvqhug","pricing_plan_id":"cebpf4jnsgd1na2vs0mg"},{"bike_id":"f34db612-7437-4eb6-b622-d7f6824be59a","system_id":"levelo_inurba_marseille","lat":43.285389,"lon":5.440934,"is_reserved":false,"is_disabled":false,"rental_uris":{"android":"levelo://app?vid=f34db612-7437-4eb6-b622-d7f6824be59a","ios":"levelo://app?vid=f34db612-7437-4eb6-b622-d7f6824be59a"},"vehicle_type_id":"4","last_reported":1762009688,"current_range_meters":10000,"station_id":"st_d3j3df2ikq2c7380ej80","pricing_plan_id":"cebpf4jnsgd1na2vs0mg"},{"bike_id":"40dbcc84-27d6-48a1-8858-f771cdc7b40d","system_id":"levelo_inurba_marseille","lat":43.30111,"lon":5.43125,"is_reserved":false,"is_disabled":false,"rental_uris":{"android":"levelo://app?vid=40dbcc84-27d6-48a1-8858-f771cdc7b40d","ios":"levelo://app?vid=40dbcc84-27d6-48a1-8858-f771cdc7b40d"},"vehicle_type_id":"4","last_reported":1762009688,"current_range_meters":10800,"station_id":"st_d3js3co5814s73ftftug","pricing_plan_id":"cebpf4jnsgd1na2vs0mg"},{"bike_id":"ef3c599f-c4ca-4eb8-aa71-b3f4816507b8","system_id":"levelo_inurba_marseille","lat":43.294847,"lon":5.433172,"is_reserved":false,"is_disabled":false,"rental_uris":{"android":"levelo://app?vid=ef3c599f-c4ca-4eb8-aa71-b3f4816507b8","ios":"levelo://app?vid=ef3c599f-c4ca-4eb8-aa71-b3f4816507b8"},"vehicle_type_id":"4","last_reported":1762009688,"current_range_meters":10800,"station_id":"st_d3j5ugp08ojc73fj9d10","pricing_plan_id":"cebpf4jnsgd1na2vs0mg"},{"bike_id":"3e0ee96b-8fbf-40c7-b23e-bbfbbf69c224","system_id":"levelo_inurba_marseille","lat":43.28544,"lon":5.44107,"is_reserved":false,"is_disabled":false,"rental_uris":{"android":"levelo://app?vid=3e0ee96b-8fbf-40c7-b23e-bbfbbf69c224","ios":"levelo://app?vid=3e0ee96b-8fbf-40c7-b23e-bbfbbf69c224"},"vehicle_type_id":"4","last_reported":1762009688,"current_range_meters":10800,"station_id":"st_d3j3df2ikq2c7380ej80","pricing_plan_id":"cebpf4jnsgd1na2vs0mg"},{"bike_id":"ae0fc63e-c4a9-4c6c-bfad-bc00bbda9cc0","system_id":"levelo_inurba_marseille","lat":43.23152,"lon":5.43715,"is_reserved":false,"is_disabled":false,"rental_uris":{"android":"levelo://app?vid=ae0fc63e-c4a9-4c6c-bfad-bc00bbda9cc0","ios":"levelo://app?vid=ae0fc63e-c4a9-4c6c-bfad-bc00bbda9cc0"},"vehicle_type_id":"4","last_reported":1762009688,"current_range_meters":11200,"station_id":"ce4bhmp2rcd13ifvqgog","pricing_plan_id":"cebpf4jnsgd1na2vs0mg"},{"bike_id":"512ee872-974a-45c5-a23c-025eff1cfb2b","system_id":"levelo_inurba_marseille","lat":43.23959,"lon":5.36635,"is_reserved":false,"is_disabled":false,"rental_uris":{"android":"levelo://app?vid=512ee872-974a-45c5-a23c-025eff1cfb2b","ios":"levelo://app?vid=512ee872-974a-45c5-a23c-025eff1cfb2b"},"vehicle_type_id":"4","last_reported":1762009688,"current_range_meters":11200,"station_id":"ce4bhi12rcd13ifvqfp0","pricing_plan_id":"cebpf4jnsgd1na2vs0mg"},{"bike_id":"4d4dfcc3-4cc7-48dd-b631-294e5c32095e","system_id":"levelo_inurba_marseille","lat":43.28422,"lon":5.3499,"is_reserved":false,"is_disabled":false,"rental_uris":{"android":"levelo://app?vid=4d4dfcc3-4cc7-48dd-b631-294e5c32095e","ios":"levelo://app?vid=4d4dfcc3-4cc7-48dd-b631-294e5c32095e"},"vehicle_type_id":"4","last_reported":1762009688,"current_range_meters":11200,"station_id":"ce4bhbh2rcd13ifvqepg","pricing_plan_id":"cebpf4jnsgd1na2vs0mg"},{"bike_id":"ae2c081c-523a-42c0-9a76-9f0f55549405","system_id":"levelo_inurba_marseille","lat":43.22924,"lon":5.35375,"is_reserved":false,"is_disabled":true,"rental_uris":{"android":"levelo://app?vid=ae2c081c-523a-42c0-9a76-9f0f55549405","ios":"levelo://app?vid=ae2c081c-523a-42c0-9a76-9f0f55549405"},"vehicle_type_id":"4","last_reported":1762009688,"current_range_meters":11200,"station_id":"cpo3532slgdg3j2ikp40","pricing_plan_id":"cebpf4jnsgd1na2vs0mg"},{"bike_id":"aeb250f6-9d26-491b-956a-8a106fbeece8","system_id":"levelo_inurba_marseille","lat":43.22557,"lon":5.41629,"is_reserved":false,"is_disabled":false,"rental_uris":{"android":"levelo://app?vid=aeb250f6-9d26-491b-956a-8a106fbeece8","ios":"levelo://app?vid=aeb250f6-9d26-491b-956a-8a106fbeece8"},"vehicle_type_id":"4","last_reported":1762009688,"current_range_meters":11200,"station_id":"st_d2o4gvlbi1j2169b742g","pricing_plan_id":"cebpf4jnsgd1na2vs0mg"},{"bike_id":"74b15735-564b-4f09-952a-ba8cccb96884","system_id":"levelo_inurba_marseille","lat":43.29831,"lon":5.44052,"is_reserved":false,"is_disabled":false,"rental_uris":{"android":"levelo://app?vid=74b15735-564b-4f09-952a-ba8cccb96884","ios":"levelo://app?vid=74b15735-564b-4f09-952a-ba8cccb96884"},"vehicle_type_id":"4","last_reported":1762009688,"current_range_meters":11200,"station_id":"st_d3jp68qikq2c7381ktn0","pricing_plan_id":"cebpf4jnsgd1na2vs0mg"},{"bike_id":"e9205fa2-659c-4a10-a9ac-06046927123f","system_id":"levelo_inurba_marseille","lat":43.26555,"lon":5.37286,"is_reserved":false,"is_disabled":false,"rental_uris":{"android":"levelo://app?vid=e9205fa2-659c-4a10-a9ac-06046927123f","ios":"levelo://app?vid=e9205fa2-659c-4a10-a9ac-06046927123f"},"vehicle_type_id":"4","last_reported":1762009688,"current_range_meters":11600,"station_id":"ce4bhg12rcd13ifvqf70","pricing_plan_id":"cebpf4jnsgd1na2vs0mg"},{"bike_id":"b1e81361-2b17-4ef1-8a58-6def5753471b","system_id":"levelo_inurba_marseille","lat":43.33753,"lon":5.37484,"is_reserved":false,"is_disabled":false,"rental_uris":{"android":"levelo://app?vid=b1e81361-2b17-4ef1-8a58-6def5753471b","ios":"levelo://app?vid=b1e81361-2b17-4ef1-8a58-6def5753471b"},"vehicle_type_id":"4","last_reported":1762009688,"current_range_meters":11600,"station_id":"","pricing_plan_id":"cebpf4jnsgd1na2vs0mg"},{"bike_id":"be7c9cbf-934f-479d-b3fb-33bd1a5dc0bf","system_id":"levelo_inurba_marseille","lat":43.29967,"lon":5.38503,"is_reserved":false,"is_disabled":false,"rental_uris":{"android":"levelo://app?vid=be7c9cbf-934f-479d-b3fb-33bd1a5dc0bf","ios":"levelo://app?vid=be7c9cbf-934f-479d-b3fb-33bd1a5dc0bf"},"vehicle_type_id":"4","last_reported":1762009688,"current_range_meters":11600,"station_id":"ce4bgj92rcd13ifvqbd0","pricing_plan_id":"cebpf4jnsgd1na2vs0mg"},{"bike_id":"e04f332d-b41c-47fd-b12f-6fdc7d63f429","system_id":"levelo_inurba_marseille","lat":43.308438,"lon":5.382921,"is_reserved":false,"is_disabled":false,"rental_uris":{"android":"levelo://app?vid=e04f332d-b41c-47fd-b12f-6fdc7d63f429","ios":"levelo://app?vid=e04f332d-b41c-47fd-b12f-6fdc7d63f429"},"vehicle_type_id":"4","last_reported":1762009688,"current_range_meters":11600,"station_id":"","pricing_plan_id":"cebpf4jnsgd1na2vs0mg"},{"bike_id":"c2807477-fd8d-44ed-9bdc-b3f90f0cbde0","system_id":"levelo_inurba_marseille","lat":43.31856,"lon":5.40011,"is_reserved":false,"is_disabled":false,"rental_uris":{"android":"levelo://app?vid=c2807477-fd8d-44ed-9bdc-b3f90f0cbde0","ios":"levelo://app?vid=c2807477-fd8d-44ed-9bdc-b3f90f0cbde0"},"vehicle_type_id":"4","last_reported":1762009688,"current_range_meters":11600,"station_id":"","pricing_plan_id":"cebpf4jnsgd1na2vs0mg"},{"bike_id":"b3677075-235d-410b-bfa9-38d8f2858226","system_id":"levelo_inurba_marseille","lat":43.28626,"lon":5.35093,"is_reserved":false,"is_disabled":false,"rental_uris":{"android":"levelo://app?vid=b3677075-235d-410b-bfa9-38d8f2858226","ios":"levelo://app?vid=b3677075-235d-410b-bfa9-38d8f2858226"},"vehicle_type_id":"4","last_reported":1762009688,"current_range_meters":11600,"station_id":"ce4bhch2rcd13ifvqeug","pricing_plan_id":"cebpf4jnsgd1na2vs0mg"},{"bike_id":"148066c8-f856-4c45-b7bd-c34822c953fe","system_id":"levelo_inurba_marseille","lat":43.2174,"lon":5.34608,"is_reserved":false,"is_disabled":false,"rental_uris":{"android":"levelo://app?vid=148066c8-f856-4c45-b7bd-c34822c953fe","ios":"levelo://app?vid=148066c8-f856-4c45-b7bd-c34822c953fe"},"vehicle_type_id":"4","last_reported":1762009688,"current_range_meters":11600,"station_id":"st_cvj6r9ubvosntc0bgbag","pricing_plan_id":"cebpf4jnsgd1na2vs0mg"},{"bike_id":"acb0b239-859c-49d7-aa24-bbe35f988088","system_id":"levelo_inurba_marseille","lat":43.28438,"lon":5.35025,"is_reserved":false,"is_disabled":false,"rental_uris":{"android":"levelo://app?vid=acb0b239-859c-49d7-aa24-bbe35f988088","ios":"levelo://app?vid=acb0b239-859c-49d7-aa24-bbe35f988088"},"vehicle_type_id":"4","last_reported":1762009688,"current_range_meters":11600,"station_id":"ce4bhbh2rcd13ifvqepg","pricing_plan_id":"cebpf4jnsgd1na2vs0mg"},{"bike_id":"a4ef7b6e-df45-4b7c-b33f-abf818f0047f","system_id":"levelo_inurba_marseille","lat":43.21738,"lon":5.34621,"is_reserved":false,"is_disabled":false,"rental_uris":{"android":"levelo://app?vid=a4ef7b6e-df45-4b7c-b33f-abf818f0047f","ios":"levelo://app?vid=a4ef7b6e-df45-4b7c-b33f-abf818f0047f"},"vehicle_type_id":"4","last_reported":1762009688,"current_range_meters":11600,"station_id":"st_cvj6r9ubvosntc0bgbag","pricing_plan_id":"cebpf4jnsgd1na2vs0mg"},{"bike_id":"f13402d6-bcfe-43c6-9455-f54d46eee62e","system_id":"levelo_inurba_marseille","lat":43.304657,"lon":5.367519,"is_reserved":false,"is_disabled":false,"rental_uris":{"android":"levelo://app?vid=f13402d6-bcfe-43c6-9455-f54d46eee62e","ios":"levelo://app?vid=f13402d6-bcfe-43c6-9455-f54d46eee62e"},"vehicle_type_id":"4","last_reported":1762009688,"current_range_meters":11600,"station_id":"","pricing_plan_id":"cebpf4jnsgd1na2vs0mg"},{"bike_id":"762fbb28-3e2e-4b1f-883a-b6b39d471c29","system_id":"levelo_inurba_marseille","lat":43.24076,"lon":5.37762,"is_reserved":false,"is_disabled":false,"rental_uris":{"android":"levelo://app?vid=762fbb28-3e2e-4b1f-883a-b6b39d471c29","ios":"levelo://app?vid=762fbb28-3e2e-4b1f-883a-b6b39d471c29"},"vehicle_type_id":"4","last_reported":1762009688,"current_range_meters":12000,"station_id":"ce4bhnp2rcd13ifvqgvg","pricing_plan_id":"cebpf4jnsgd1na2vs0mg"},{"bike_id":"528fefcc-b38f-4ee0-8a94-caae103f2267","system_id":"levelo_inurba_marseille","lat":43.288147,"lon":5.391652,"is_reserved":false,"is_disabled":false,"rental_uris":{"android":"levelo://app?vid=528fefcc-b38f-4ee0-8a94-caae103f2267","ios":"levelo://app?vid=528fefcc-b38f-4ee0-8a94-caae103f2267"},"vehicle_type_id":"4","last_reported":1762009688,"current_range_meters":12400,"station_id":"","pricing_plan_id":"cebpf4jnsgd1na2vs0mg"},{"bike_id":"c04ea6ec-c85d-4b9a-aa74-f0de2415a6d2","system_id":"levelo_inurba_marseille","lat":43.3158,"lon":5.38387,"is_reserved":false,"is_disabled":false,"rental_uris":{"android":"levelo://app?vid=c04ea6ec-c85d-4b9a-aa74-f0de2415a6d2","ios":"levelo://app?vid=c04ea6ec-c85d-4b9a-aa74-f0de2415a6d2"},"vehicle_type_id":"4","last_reported":1762009688,"current_range_meters":12400,"station_id":"","pricing_plan_id":"cebpf4jnsgd1na2vs0mg"},{"bike_id":"fbcc5886-69e3-488f-96fd-e45314a075e6","system_id":"levelo_inurba_marseille","lat":43.28865,"lon":5.42519,"is_reserved":false,"is_disabled":false,"rental_uris":{"android":"levelo://app?vid=fbcc5886-69e3-488f-96fd-e45314a075e6","ios":"levelo://app?vid=fbcc5886-69e3-488f-96fd-e45314a075e6"},"vehicle_type_id":"4","last_reported":1762009688,"current_range_meters":12400,"station_id":"st_d3b462108ojc7389ooeg","pricing_plan_id":"cebpf4jnsgd1na2vs0mg"},{"bike_id":"1a2efa1a-bf57-4041-a313-428fa4179c7e","system_id":"levelo_inurba_marseille","lat":43.22943,"lon":5.35377,"is_reserved":false,"is_disabled":false,"rental_uris":{"android":"levelo://app?vid=1a2efa1a-bf57-4041-a313-428fa4179c7e","ios":"levelo://app?vid=1a2efa1a-bf57-4041-a313-428fa4179c7e"},"vehicle_type_id":"4","last_reported":1762009688,"current_range_meters":12400,"station_id":"cpo3532slgdg3j2ikp40","pricing_plan_id":"cebpf4jnsgd1na2vs0mg"},{"bike_id":"2c4fab4c-e727-499b-91f3-d07998dff461","system_id":"levelo_inurba_marseille","lat":43.313412,"lon":5.396881,"is_reserved":false,"is_disabled":false,"rental_uris":{"android":"levelo://app?vid=2c4fab4c-e727-499b-91f3-d07998dff461","ios":"levelo://app?vid=2c4fab4c-e727-499b-91f3-d07998dff461"},"vehicle_type_id":"4","last_reported":1762009688,"current_range_meters":12800,"station_id":"ce4bgvp2rcd13ifvqcu0","pricing_plan_id":"cebpf4jnsgd1na2vs0mg"},{"bike_id":"36e84246-85bd-4d0f-a3ea-ac7675b87e45","system_id":"levelo_inurba_marseille","lat":43.29912,"lon":5.38141,"is_reserved":false,"is_disabled":false,"rental_uris":{"android":"levelo://app?vid=36e84246-85bd-4d0f-a3ea-ac7675b87e45","ios":"levelo://app?vid=36e84246-85bd-4d0f-a3ea-ac7675b87e45"},"vehicle_type_id":"4","last_reported":1762009688,"current_range_meters":12800,"station_id":"ce4bgj12rcd13ifvqbc0","pricing_plan_id":"cebpf4jnsgd1na2vs0mg"},{"bike_id":"ae3598c3-d5d8-4133-922b-9187802cb4d8","system_id":"levelo_inurba_marseille","lat":43.321048,"lon":5.367975,"is_reserved":false,"is_disabled":false,"rental_uris":{"android":"levelo://app?vid=ae3598c3-d5d8-4133-922b-9187802cb4d8","ios":"levelo://app?vid=ae3598c3-d5d8-4133-922b-9187802cb4d8"},"vehicle_type_id":"4","last_reported":1762009688,"current_range_meters":12800,"station_id":"ce4bhrh2rcd13ifvqhug","pricing_plan_id":"cebpf4jnsgd1na2vs0mg"},{"bike_id":"68dfe5bf-96d8-40ed-a701-d1cafa21ceb7","system_id":"levelo_inurba_marseille","lat":43.30562,"lon":5.38978,"is_reserved":false,"is_disabled":false,"rental_uris":{"android":"levelo://app?vid=68dfe5bf-96d8-40ed-a701-d1cafa21ceb7","ios":"levelo://app?vid=68dfe5bf-96d8-40ed-a701-d1cafa21ceb7"},"vehicle_type_id":"4","last_reported":1762009688,"current_range_meters":12800,"station_id":"ce4bgk12rcd13ifvqbi0","pricing_plan_id":"cebpf4jnsgd1na2vs0mg"},{"bike_id":"75c845a3-39e9-4d56-8df2-83965429600c","system_id":"levelo_inurba_marseille","lat":43.31715,"lon":5.37767,"is_reserved":false,"is_disabled":false,"rental_uris":{"android":"levelo://app?vid=75c845a3-39e9-4d56-8df2-83965429600c","ios":"levelo://app?vid=75c845a3-39e9-4d56-8df2-83965429600c"},"vehicle_type_id":"4","last_reported":1762009688,"current_range_meters":12800,"station_id":"ce4bgth2rcd13ifvqch0","pricing_plan_id":"cebpf4jnsgd1na2vs0mg"},{"bike_id":"712b7649-f440-4e95-bc0a-6525a9259dc8","system_id":"levelo_inurba_marseille","lat":43.29148,"lon":5.40217,"is_reserved":false,"is_disabled":false,"rental_uris":{"android":"levelo://app?vid=712b7649-f440-4e95-bc0a-6525a9259dc8","ios":"levelo://app?vid=712b7649-f440-4e95-bc0a-6525a9259dc8"},"vehicle_type_id":"4","last_reported":1762009688,"current_range_meters":12800,"station_id":"","pricing_plan_id":"cebpf4jnsgd1na2vs0mg"},{"bike_id":"8196b960-10f9-4201-a081-fa87c011ac11","system_id":"levelo_inurba_marseille","lat":43.26197,"lon":5.37454,"is_reserved":false,"is_disabled":false,"rental_uris":{"android":"levelo://app?vid=8196b960-10f9-4201-a081-fa87c011ac11","ios":"levelo://app?vid=8196b960-10f9-4201-a081-fa87c011ac11"},"vehicle_type_id":"4","last_reported":1762009688,"current_range_meters":12800,"station_id":"ce4bhgp2rcd13ifvqfc0","pricing_plan_id":"cebpf4jnsgd1na2vs0mg"},{"bike_id":"0d33b67b-5d6f-4ac9-89f9-6a65e050f198","system_id":"levelo_inurba_marseille","lat":43.30143,"lon":5.38076,"is_reserved":false,"is_disabled":false,"rental_uris":{"android":"levelo://app?vid=0d33b67b-5d6f-4ac9-89f9-6a65e050f198","ios":"levelo://app?vid=0d33b67b-5d6f-4ac9-89f9-6a65e050f198"},"vehicle_type_id":"4","last_reported":1762009688,"current_range_meters":13600,"station_id":"ce4bgjp2rcd13ifvqbh0","pricing_plan_id":"cebpf4jnsgd1na2vs0mg"},{"bike_id":"9b528f9a-4ac4-4796-aeb5-0bae3ddc60ae","system_id":"levelo_inurba_marseille","lat":43.260307,"lon":5.375476,"is_reserved":false,"is_disabled":false,"rental_uris":{"android":"levelo://app?vid=9b528f9a-4ac4-4796-aeb5-0bae3ddc60ae","ios":"levelo://app?vid=9b528f9a-4ac4-4796-aeb5-0bae3ddc60ae"},"vehicle_type_id":"4","last_reported":1762009688,"current_range_meters":14000,"station_id":"ce4bhgh2rcd13ifvqfa0","pricing_plan_id":"cebpf4jnsgd1na2vs0mg"},{"bike_id":"90ea3df4-b5b6-4178-9a51-b6f256a79e15","system_id":"levelo_inurba_marseille","lat":43.21749,"lon":5.34617,"is_reserved":false,"is_disabled":false,"rental_uris":{"android":"levelo://app?vid=90ea3df4-b5b6-4178-9a51-b6f256a79e15","ios":"levelo://app?vid=90ea3df4-b5b6-4178-9a51-b6f256a79e15"},"vehicle_type_id":"4","last_reported":1762009688,"current_range_meters":14000,"station_id":"st_cvj6r9ubvosntc0bgbag","pricing_plan_id":"cebpf4jnsgd1na2vs0mg"},{"bike_id":"7a9e1e86-52dc-42e4-a53b-236a591ba00d","system_id":"levelo_inurba_marseille","lat":43.288212,"lon":5.363777,"is_reserved":false,"is_disabled":false,"rental_uris":{"android":"levelo://app?vid=7a9e1e86-52dc-42e4-a53b-236a591ba00d","ios":"levelo://app?vid=7a9e1e86-52dc-42e4-a53b-236a591ba00d"},"vehicle_type_id":"4","last_reported":1762009688,"current_range_meters":14000,"station_id":"","pricing_plan_id":"cebpf4jnsgd1na2vs0mg"},{"bike_id":"f4c38a56-4a35-49a9-bdea-5d14ae1ba768","system_id":"levelo_inurba_marseille","lat":43.297603,"lon":5.427886,"is_reserved":false,"is_disabled":false,"rental_uris":{"android":"levelo://app?vid=f4c38a56-4a35-49a9-bdea-5d14ae1ba768","ios":"levelo://app?vid=f4c38a56-4a35-49a9-bdea-5d14ae1ba768"},"vehicle_type_id":"4","last_reported":1762009688,"current_range_meters":14000,"station_id":"st_d3md5207bmas73dh9klg","pricing_plan_id":"cebpf4jnsgd1na2vs0mg"},{"bike_id":"e6cb7c33-4e1d-444a-93dc-f44007b0546c","system_id":"levelo_inurba_marseille","lat":43.28618,"lon":5.35108,"is_reserved":false,"is_disabled":false,"rental_uris":{"android":"levelo://app?vid=e6cb7c33-4e1d-444a-93dc-f44007b0546c","ios":"levelo://app?vid=e6cb7c33-4e1d-444a-93dc-f44007b0546c"},"vehicle_type_id":"4","last_reported":1762009688,"current_range_meters":14000,"station_id":"ce4bhch2rcd13ifvqeug","pricing_plan_id":"cebpf4jnsgd1na2vs0mg"},{"bike_id":"1c2de41b-474e-40da-99a4-719f00c24016","system_id":"levelo_inurba_marseille","lat":43.22569,"lon":5.41626,"is_reserved":false,"is_disabled":false,"rental_uris":{"android":"levelo://app?vid=1c2de41b-474e-40da-99a4-719f00c24016","ios":"levelo://app?vid=1c2de41b-474e-40da-99a4-719f00c24016"},"vehicle_type_id":"4","last_reported":1762009688,"current_range_meters":14000,"station_id":"st_d2o4gvlbi1j2169b742g","pricing_plan_id":"cebpf4jnsgd1na2vs0mg"},{"bike_id":"0089665c-d050-4f0d-8d27-e9a6af9208fc","system_id":"levelo_inurba_marseille","lat":43.30202,"lon":5.38054,"is_reserved":false,"is_disabled":false,"rental_uris":{"android":"levelo://app?vid=0089665c-d050-4f0d-8d27-e9a6af9208fc","ios":"levelo://app?vid=0089665c-d050-4f0d-8d27-e9a6af9208fc"},"vehicle_type_id":"4","last_reported":1762009688,"current_range_meters":14000,"station_id":"","pricing_plan_id":"cebpf4jnsgd1na2vs0mg"},{"bike_id":"0c3bfe72-1bfa-4fe4-8ec1-abc531b0b6c5","system_id":"levelo_inurba_marseille","lat":43.265482,"lon":5.372922,"is_reserved":false,"is_disabled":true,"rental_uris":{"android":"levelo://app?vid=0c3bfe72-1bfa-4fe4-8ec1-abc531b0b6c5","ios":"levelo://app?vid=0c3bfe72-1bfa-4fe4-8ec1-abc531b0b6c5"},"vehicle_type_id":"4","last_reported":1762009688,"current_range_meters":14000,"station_id":"ce4bhg12rcd13ifvqf70","pricing_plan_id":"cebpf4jnsgd1na2vs0mg"},{"bike_id":"afcb9242-20b4-4a69-870b-9324dc42144e","system_id":"levelo_inurba_marseille","lat":43.28076,"lon":5.39673,"is_reserved":false,"is_disabled":false,"rental_uris":{"android":"levelo://app?vid=afcb9242-20b4-4a69-870b-9324dc42144e","ios":"levelo://app?vid=afcb9242-20b4-4a69-870b-9324dc42144e"},"vehicle_type_id":"4","last_reported":1762009688,"current_range_meters":14000,"station_id":"ce4bho12rcd13ifvqh2g","pricing_plan_id":"cebpf4jnsgd1na2vs0mg"},{"bike_id":"6011365e-8c41-4be0-a6fe-55a5a9ff678f","system_id":"levelo_inurba_marseille","lat":43.28689,"lon":5.39987,"is_reserved":false,"is_disabled":false,"rental_uris":{"android":"levelo://app?vid=6011365e-8c41-4be0-a6fe-55a5a9ff678f","ios":"levelo://app?vid=6011365e-8c41-4be0-a6fe-55a5a9ff678f"},"vehicle_type_id":"4","last_reported":1762009688,"current_range_meters":14000,"station_id":"ce4bho92rcd13ifvqh3g","pricing_plan_id":"cebpf4jnsgd1na2vs0mg"},{"bike_id":"1da464de-a87c-49fb-939a-9732a97a4ebd","system_id":"levelo_inurba_marseille","lat":43.32105,"lon":5.36776,"is_reserved":false,"is_disabled":false,"rental_uris":{"android":"levelo://app?vid=1da464de-a87c-49fb-939a-9732a97a4ebd","ios":"levelo://app?vid=1da464de-a87c-49fb-939a-9732a97a4ebd"},"vehicle_type_id":"4","last_reported":1762009688,"current_range_meters":14400,"station_id":"ce4bhrh2rcd13ifvqhug","pricing_plan_id":"cebpf4jnsgd1na2vs0mg"},{"bike_id":"4578ec2f-8d43-40ba-b7b8-19efca07f686","system_id":"levelo_inurba_marseille","lat":43.29244,"lon":5.38455,"is_reserved":false,"is_disabled":false,"rental_uris":{"android":"levelo://app?vid=4578ec2f-8d43-40ba-b7b8-19efca07f686","ios":"levelo://app?vid=4578ec2f-8d43-40ba-b7b8-19efca07f686"},"vehicle_type_id":"4","last_reported":1762009688,"current_range_meters":14400,"station_id":"ce4bh692rcd13ifvqea0","pricing_plan_id":"cebpf4jnsgd1na2vs0mg"},{"bike_id":"25b8b9c6-92a5-43d3-8767-0700e7c7de1c","system_id":"levelo_inurba_marseille","lat":43.33748,"lon":5.37449,"is_reserved":false,"is_disabled":false,"rental_uris":{"android":"levelo://app?vid=25b8b9c6-92a5-43d3-8767-0700e7c7de1c","ios":"levelo://app?vid=25b8b9c6-92a5-43d3-8767-0700e7c7de1c"},"vehicle_type_id":"4","last_reported":1762009688,"current_range_meters":14400,"station_id":"","pricing_plan_id":"cebpf4jnsgd1na2vs0mg"},{"bike_id":"96cbfedc-d9e0-46b4-9278-ed5bad333296","system_id":"levelo_inurba_marseille","lat":43.292683,"lon":5.368509,"is_reserved":false,"is_disabled":false,"rental_uris":{"android":"levelo://app?vid=96cbfedc-d9e0-46b4-9278-ed5bad333296","ios":"levelo://app?vid=96cbfedc-d9e0-46b4-9278-ed5bad333296"},"vehicle_type_id":"4","last_reported":1762009688,"current_range_meters":14400,"station_id":"ce4bhbp2rcd13ifvqesg","pricing_plan_id":"cebpf4jnsgd1na2vs0mg"},{"bike_id":"01101f52-783d-4a69-b659-15bcb3f48805","system_id":"levelo_inurba_marseille","lat":43.31177,"lon":5.37885,"is_reserved":false,"is_disabled":false,"rental_uris":{"android":"levelo://app?vid=01101f52-783d-4a69-b659-15bcb3f48805","ios":"levelo://app?vid=01101f52-783d-4a69-b659-15bcb3f48805"},"vehicle_type_id":"4","last_reported":1762009688,"current_range_meters":14400,"station_id":"","pricing_plan_id":"cebpf4jnsgd1na2vs0mg"},{"bike_id":"bd81e728-96f5-42d5-a60b-8dcd5e10c0f5","system_id":"levelo_inurba_marseille","lat":43.229313,"lon":5.353769,"is_reserved":false,"is_disabled":false,"rental_uris":{"android":"levelo://app?vid=bd81e728-96f5-42d5-a60b-8dcd5e10c0f5","ios":"levelo://app?vid=bd81e728-96f5-42d5-a60b-8dcd5e10c0f5"},"vehicle_type_id":"4","last_reported":1762009688,"current_range_meters":14800,"station_id":"cpo3532slgdg3j2ikp40","pricing_plan_id":"cebpf4jnsgd1na2vs0mg"},{"bike_id":"5224dfc5-e8f6-493a-a7c3-4cc676f55caf","system_id":"levelo_inurba_marseille","lat":43.23961,"lon":5.36634,"is_reserved":false,"is_disabled":false,"rental_uris":{"android":"levelo://app?vid=5224dfc5-e8f6-493a-a7c3-4cc676f55caf","ios":"levelo://app?vid=5224dfc5-e8f6-493a-a7c3-4cc676f55caf"},"vehicle_type_id":"4","last_reported":1762009688,"current_range_meters":14800,"station_id":"ce4bhi12rcd13ifvqfp0","pricing_plan_id":"cebpf4jnsgd1na2vs0mg"},{"bike_id":"35c5eff1-6c48-49f5-b44e-1b2d21fe3798","system_id":"levelo_inurba_marseille","lat":43.32071,"lon":5.36839,"is_reserved":false,"is_disabled":false,"rental_uris":{"android":"levelo://app?vid=35c5eff1-6c48-49f5-b44e-1b2d21fe3798","ios":"levelo://app?vid=35c5eff1-6c48-49f5-b44e-1b2d21fe3798"},"vehicle_type_id":"4","last_reported":1762009688,"current_range_meters":14800,"station_id":"","pricing_plan_id":"cebpf4jnsgd1na2vs0mg"},{"bike_id":"c02c5e10-788c-4eee-9dd0-5a199a221954","system_id":"levelo_inurba_marseille","lat":43.28613,"lon":5.37066,"is_reserved":false,"is_disabled":false,"rental_uris":{"android":"levelo://app?vid=c02c5e10-788c-4eee-9dd0-5a199a221954","ios":"levelo://app?vid=c02c5e10-788c-4eee-9dd0-5a199a221954"},"vehicle_type_id":"4","last_reported":1762009688,"current_range_meters":14800,"station_id":"ce4bht12rcd13ifvqi60","pricing_plan_id":"cebpf4jnsgd1na2vs0mg"},{"bike_id":"fafa4589-30aa-410f-bafe-e1b351d8b989","system_id":"levelo_inurba_marseille","lat":43.22569,"lon":5.41625,"is_reserved":false,"is_disabled":false,"rental_uris":{"android":"levelo://app?vid=fafa4589-30aa-410f-bafe-e1b351d8b989","ios":"levelo://app?vid=fafa4589-30aa-410f-bafe-e1b351d8b989"},"vehicle_type_id":"4","last_reported":1762009688,"current_range_meters":14800,"station_id":"st_d2o4gvlbi1j2169b742g","pricing_plan_id":"cebpf4jnsgd1na2vs0mg"},{"bike_id":"498fec02-de52-46a0-832f-17e410a9b28d","system_id":"levelo_inurba_marseille","lat":43.295907,"lon":5.38101,"is_reserved":false,"is_disabled":false,"rental_uris":{"android":"levelo://app?vid=498fec02-de52-46a0-832f-17e410a9b28d","ios":"levelo://app?vid=498fec02-de52-46a0-832f-17e410a9b28d"},"vehicle_type_id":"4","last_reported":1762009688,"current_range_meters":14800,"station_id":"ce4bgl12rcd13ifvqbo0","pricing_plan_id":"cebpf4jnsgd1na2vs0mg"},{"bike_id":"a8f79dc8-8353-499c-9fb0-f6c816140f99","system_id":"levelo_inurba_marseille","lat":43.25816,"lon":5.39433,"is_reserved":false,"is_disabled":false,"rental_uris":{"android":"levelo://app?vid=a8f79dc8-8353-499c-9fb0-f6c816140f99","ios":"levelo://app?vid=a8f79dc8-8353-499c-9fb0-f6c816140f99"},"vehicle_type_id":"4","last_reported":1762009688,"current_range_meters":15200,"station_id":"ce4bhip2rcd13ifvqft0","pricing_plan_id":"cebpf4jnsgd1na2vs0mg"},{"bike_id":"92c4ecea-a870-4734-96b0-1c8b639bde58","system_id":"levelo_inurba_marseille","lat":43.25335,"lon":5.42166,"is_reserved":false,"is_disabled":false,"rental_uris":{"android":"levelo://app?vid=92c4ecea-a870-4734-96b0-1c8b639bde58","ios":"levelo://app?vid=92c4ecea-a870-4734-96b0-1c8b639bde58"},"vehicle_type_id":"4","last_reported":1762009688,"current_range_meters":15200,"station_id":"st_d2m65c5bi1j21697t3ng","pricing_plan_id":"cebpf4jnsgd1na2vs0mg"},{"bike_id":"33ae0dab-3749-43ff-9793-2b7dc4ecf75d","system_id":"levelo_inurba_marseille","lat":43.25333,"lon":5.42177,"is_reserved":false,"is_disabled":false,"rental_uris":{"android":"levelo://app?vid=33ae0dab-3749-43ff-9793-2b7dc4ecf75d","ios":"levelo://app?vid=33ae0dab-3749-43ff-9793-2b7dc4ecf75d"},"vehicle_type_id":"4","last_reported":1762009688,"current_range_meters":15200,"station_id":"st_d2m65c5bi1j21697t3ng","pricing_plan_id":"cebpf4jnsgd1na2vs0mg"},{"bike_id":"87f35eb6-fdd4-48cb-aac4-3bc58afdac22","system_id":"levelo_inurba_marseille","lat":43.24803,"lon":5.37472,"is_reserved":false,"is_disabled":false,"rental_uris":{"android":"levelo://app?vid=87f35eb6-fdd4-48cb-aac4-3bc58afdac22","ios":"levelo://app?vid=87f35eb6-fdd4-48cb-aac4-3bc58afdac22"},"vehicle_type_id":"4","last_reported":1762009688,"current_range_meters":15200,"station_id":"ce4bhgh2rcd13ifvqfb0","pricing_plan_id":"cebpf4jnsgd1na2vs0mg"},{"bike_id":"41598790-345d-414f-9e87-720cb432f278","system_id":"levelo_inurba_marseille","lat":43.29477,"lon":5.36227,"is_reserved":false,"is_disabled":false,"rental_uris":{"android":"levelo://app?vid=41598790-345d-414f-9e87-720cb432f278","ios":"levelo://app?vid=41598790-345d-414f-9e87-720cb432f278"},"vehicle_type_id":"4","last_reported":1762009688,"current_range_meters":16000,"station_id":"","pricing_plan_id":"cebpf4jnsgd1na2vs0mg"},{"bike_id":"50c2c89c-4a9b-41f6-af05-b4e430e07029","system_id":"levelo_inurba_marseille","lat":43.24632,"lon":5.43147,"is_reserved":false,"is_disabled":false,"rental_uris":{"android":"levelo://app?vid=50c2c89c-4a9b-41f6-af05-b4e430e07029","ios":"levelo://app?vid=50c2c89c-4a9b-41f6-af05-b4e430e07029"},"vehicle_type_id":"4","last_reported":1762009688,"current_range_meters":16000,"station_id":"st_d2m6c4gdas8pm72e190g","pricing_plan_id":"cebpf4jnsgd1na2vs0mg"},{"bike_id":"269b302d-3c48-4bb6-a063-2ab24423c89a","system_id":"levelo_inurba_marseille","lat":43.22552,"lon":5.41631,"is_reserved":false,"is_disabled":false,"rental_uris":{"android":"levelo://app?vid=269b302d-3c48-4bb6-a063-2ab24423c89a","ios":"levelo://app?vid=269b302d-3c48-4bb6-a063-2ab24423c89a"},"vehicle_type_id":"4","last_reported":1762009688,"current_range_meters":16000,"station_id":"st_d2o4gvlbi1j2169b742g","pricing_plan_id":"cebpf4jnsgd1na2vs0mg"},{"bike_id":"1d29646a-da1f-4f66-b008-0838ffb2fa84","system_id":"levelo_inurba_marseille","lat":43.30002,"lon":5.37219,"is_reserved":false,"is_disabled":false,"rental_uris":{"android":"levelo://app?vid=1d29646a-da1f-4f66-b008-0838ffb2fa84","ios":"levelo://app?vid=1d29646a-da1f-4f66-b008-0838ffb2fa84"},"vehicle_type_id":"4","last_reported":1762009688,"current_range_meters":16000,"station_id":"ce4bgr92rcd13ifvqc7g","pricing_plan_id":"cebpf4jnsgd1na2vs0mg"},{"bike_id":"52b04612-cd38-411f-a68e-6bb9cb24a90a","system_id":"levelo_inurba_marseille","lat":43.24172,"lon":5.364,"is_reserved":false,"is_disabled":false,"rental_uris":{"android":"levelo://app?vid=52b04612-cd38-411f-a68e-6bb9cb24a90a","ios":"levelo://app?vid=52b04612-cd38-411f-a68e-6bb9cb24a90a"},"vehicle_type_id":"4","last_reported":1762009688,"current_range_meters":16400,"station_id":"cpo36qri1sfpv3e86is0","pricing_plan_id":"cebpf4jnsgd1na2vs0mg"},{"bike_id":"dfb7ebd9-e89f-415b-825a-a4691583306a","system_id":"levelo_inurba_marseille","lat":43.29296,"lon":5.37447,"is_reserved":false,"is_disabled":false,"rental_uris":{"android":"levelo://app?vid=dfb7ebd9-e89f-415b-825a-a4691583306a","ios":"levelo://app?vid=dfb7ebd9-e89f-415b-825a-a4691583306a"},"vehicle_type_id":"4","last_reported":1762009688,"current_range_meters":16400,"station_id":"ce4bgi12rcd13ifvqb70","pricing_plan_id":"cebpf4jnsgd1na2vs0mg"},{"bike_id":"528e3c88-b623-43f9-a15b-cba9eb4d6f1a","system_id":"levelo_inurba_marseille","lat":43.284827,"lon":5.483918,"is_reserved":false,"is_disabled":false,"rental_uris":{"android":"levelo://app?vid=528e3c88-b623-43f9-a15b-cba9eb4d6f1a","ios":"levelo://app?vid=528e3c88-b623-43f9-a15b-cba9eb4d6f1a"},"vehicle_type_id":"4","last_reported":1762009688,"current_range_meters":16400,"station_id":"st_d3svhcjqgbts73a3dn0g","pricing_plan_id":"cebpf4jnsgd1na2vs0mg"},{"bike_id":"6f55c2df-5461-4f13-8308-6d7dd6f86eb4","system_id":"levelo_inurba_marseille","lat":43.229323,"lon":5.353685,"is_reserved":false,"is_disabled":false,"rental_uris":{"android":"levelo://app?vid=6f55c2df-5461-4f13-8308-6d7dd6f86eb4","ios":"levelo://app?vid=6f55c2df-5461-4f13-8308-6d7dd6f86eb4"},"vehicle_type_id":"4","last_reported":1762009688,"current_range_meters":16400,"station_id":"","pricing_plan_id":"cebpf4jnsgd1na2vs0mg"},{"bike_id":"565cc599-e2e4-4d0e-aef3-effc6ee3ffe7","system_id":"levelo_inurba_marseille","lat":43.27941,"lon":5.41041,"is_reserved":false,"is_disabled":false,"rental_uris":{"android":"levelo://app?vid=565cc599-e2e4-4d0e-aef3-effc6ee3ffe7","ios":"levelo://app?vid=565cc599-e2e4-4d0e-aef3-effc6ee3ffe7"},"vehicle_type_id":"4","last_reported":1762009688,"current_range_meters":16400,"station_id":"ce4bhnp2rcd13ifvqh0g","pricing_plan_id":"cebpf4jnsgd1na2vs0mg"},{"bike_id":"2ea8b295-6a13-47c7-8965-8106cf796d7e","system_id":"levelo_inurba_marseille","lat":43.31316,"lon":5.37674,"is_reserved":false,"is_disabled":false,"rental_uris":{"android":"levelo://app?vid=2ea8b295-6a13-47c7-8965-8106cf796d7e","ios":"levelo://app?vid=2ea8b295-6a13-47c7-8965-8106cf796d7e"},"vehicle_type_id":"4","last_reported":1762009688,"current_range_meters":16400,"station_id":"","pricing_plan_id":"cebpf4jnsgd1na2vs0mg"},{"bike_id":"aad6a064-c048-4ba9-a156-1745b89548aa","system_id":"levelo_inurba_marseille","lat":43.283099,"lon":5.411004,"is_reserved":false,"is_disabled":false,"rental_uris":{"android":"levelo://app?vid=aad6a064-c048-4ba9-a156-1745b89548aa","ios":"levelo://app?vid=aad6a064-c048-4ba9-a156-1745b89548aa"},"vehicle_type_id":"4","last_reported":1762009688,"current_range_meters":16400,"station_id":"","pricing_plan_id":"cebpf4jnsgd1na2vs0mg"},{"bike_id":"0334b07a-88b3-49f2-9dd3-82ed83335f3e","system_id":"levelo_inurba_marseille","lat":43.293531,"lon":5.378405,"is_reserved":false,"is_disabled":false,"rental_uris":{"android":"levelo://app?vid=0334b07a-88b3-49f2-9dd3-82ed83335f3e","ios":"levelo://app?vid=0334b07a-88b3-49f2-9dd3-82ed83335f3e"},"vehicle_type_id":"4","last_reported":1762009688,"current_range_meters":16400,"station_id":"ce4bgjh2rcd13ifvqbf0","pricing_plan_id":"cebpf4jnsgd1na2vs0mg"},{"bike_id":"45c68fae-1306-455a-b733-efed84a766d6","system_id":"levelo_inurba_marseille","lat":43.284751,"lon":5.385665,"is_reserved":false,"is_disabled":false,"rental_uris":{"android":"levelo://app?vid=45c68fae-1306-455a-b733-efed84a766d6","ios":"levelo://app?vid=45c68fae-1306-455a-b733-efed84a766d6"},"vehicle_type_id":"4","last_reported":1762009688,"current_range_meters":16400,"station_id":"","pricing_plan_id":"cebpf4jnsgd1na2vs0mg"},{"bike_id":"b69d64f7-f9b8-4e55-ba77-47adeaeb468e","system_id":"levelo_inurba_marseille","lat":43.28702,"lon":5.39985,"is_reserved":false,"is_disabled":false,"rental_uris":{"android":"levelo://app?vid=b69d64f7-f9b8-4e55-ba77-47adeaeb468e","ios":"levelo://app?vid=b69d64f7-f9b8-4e55-ba77-47adeaeb468e"},"vehicle_type_id":"4","last_reported":1762009688,"current_range_meters":16400,"station_id":"ce4bho92rcd13ifvqh3g","pricing_plan_id":"cebpf4jnsgd1na2vs0mg"},{"bike_id":"401d33e8-30f9-4f1d-9456-02672eee1f51","system_id":"levelo_inurba_marseille","lat":43.217407,"lon":5.346048,"is_reserved":false,"is_disabled":false,"rental_uris":{"android":"levelo://app?vid=401d33e8-30f9-4f1d-9456-02672eee1f51","ios":"levelo://app?vid=401d33e8-30f9-4f1d-9456-02672eee1f51"},"vehicle_type_id":"4","last_reported":1762009688,"current_range_meters":16400,"station_id":"st_cvj6r9ubvosntc0bgbag","pricing_plan_id":"cebpf4jnsgd1na2vs0mg"},{"bike_id":"7c46eca4-922c-4fc2-9cd3-60f7157880a3","system_id":"levelo_inurba_marseille","lat":43.21748,"lon":5.34602,"is_reserved":false,"is_disabled":false,"rental_uris":{"android":"levelo://app?vid=7c46eca4-922c-4fc2-9cd3-60f7157880a3","ios":"levelo://app?vid=7c46eca4-922c-4fc2-9cd3-60f7157880a3"},"vehicle_type_id":"4","last_reported":1762009688,"current_range_meters":16800,"station_id":"st_cvj6r9ubvosntc0bgbag","pricing_plan_id":"cebpf4jnsgd1na2vs0mg"},{"bike_id":"559dd85a-7aa9-44d9-a59a-779baf8c5c22","system_id":"levelo_inurba_marseille","lat":43.294866,"lon":5.433021,"is_reserved":false,"is_disabled":false,"rental_uris":{"android":"levelo://app?vid=559dd85a-7aa9-44d9-a59a-779baf8c5c22","ios":"levelo://app?vid=559dd85a-7aa9-44d9-a59a-779baf8c5c22"},"vehicle_type_id":"4","last_reported":1762009688,"current_range_meters":16800,"station_id":"st_d3j5ugp08ojc73fj9d10","pricing_plan_id":"cebpf4jnsgd1na2vs0mg"},{"bike_id":"a027e2e4-d56f-4933-bf3e-c9e7108e3cbb","system_id":"levelo_inurba_marseille","lat":43.2319,"lon":5.39983,"is_reserved":false,"is_disabled":false,"rental_uris":{"android":"levelo://app?vid=a027e2e4-d56f-4933-bf3e-c9e7108e3cbb","ios":"levelo://app?vid=a027e2e4-d56f-4933-bf3e-c9e7108e3cbb"},"vehicle_type_id":"4","last_reported":1762009688,"current_range_meters":16800,"station_id":"ce4bhn12rcd13ifvqgqg","pricing_plan_id":"cebpf4jnsgd1na2vs0mg"},{"bike_id":"a599ea86-16bb-4d79-89fe-01c4b3b42dc5","system_id":"levelo_inurba_marseille","lat":43.321148,"lon":5.367757,"is_reserved":false,"is_disabled":false,"rental_uris":{"android":"levelo://app?vid=a599ea86-16bb-4d79-89fe-01c4b3b42dc5","ios":"levelo://app?vid=a599ea86-16bb-4d79-89fe-01c4b3b42dc5"},"vehicle_type_id":"4","last_reported":1762009688,"current_range_meters":16800,"station_id":"ce4bhrh2rcd13ifvqhug","pricing_plan_id":"cebpf4jnsgd1na2vs0mg"},{"bike_id":"769e9f08-d61c-4253-b1a4-ec58f411020c","system_id":"levelo_inurba_marseille","lat":43.24813,"lon":5.37463,"is_reserved":false,"is_disabled":false,"rental_uris":{"android":"levelo://app?vid=769e9f08-d61c-4253-b1a4-ec58f411020c","ios":"levelo://app?vid=769e9f08-d61c-4253-b1a4-ec58f411020c"},"vehicle_type_id":"4","last_reported":1762009688,"current_range_meters":16800,"station_id":"ce4bhgh2rcd13ifvqfb0","pricing_plan_id":"cebpf4jnsgd1na2vs0mg"},{"bike_id":"71607786-3d41-4e5d-982a-18bda98f409c","system_id":"levelo_inurba_marseille","lat":43.26499,"lon":5.39544,"is_reserved":false,"is_disabled":false,"rental_uris":{"android":"levelo://app?vid=71607786-3d41-4e5d-982a-18bda98f409c","ios":"levelo://app?vid=71607786-3d41-4e5d-982a-18bda98f409c"},"vehicle_type_id":"4","last_reported":1762009688,"current_range_meters":16800,"station_id":"ce4bhi12rcd13ifvqfq0","pricing_plan_id":"cebpf4jnsgd1na2vs0mg"},{"bike_id":"ba541a52-7e4e-4241-9791-ae6f1fb03dcd","system_id":"levelo_inurba_marseille","lat":43.319961,"lon":5.41595,"is_reserved":false,"is_disabled":false,"rental_uris":{"android":"levelo://app?vid=ba541a52-7e4e-4241-9791-ae6f1fb03dcd","ios":"levelo://app?vid=ba541a52-7e4e-4241-9791-ae6f1fb03dcd"},"vehicle_type_id":"4","last_reported":1762009688,"current_range_meters":16800,"station_id":"","pricing_plan_id":"cebpf4jnsgd1na2vs0mg"},{"bike_id":"c3c75738-f4b2-4b55-9493-b3d5e8571c11","system_id":"levelo_inurba_marseille","lat":43.27813,"lon":5.40713,"is_reserved":false,"is_disabled":false,"rental_uris":{"android":"levelo://app?vid=c3c75738-f4b2-4b55-9493-b3d5e8571c11","ios":"levelo://app?vid=c3c75738-f4b2-4b55-9493-b3d5e8571c11"},"vehicle_type_id":"4","last_reported":1762009688,"current_range_meters":17200,"station_id":"ce4bhnh2rcd13ifvqgtg","pricing_plan_id":"cebpf4jnsgd1na2vs0mg"},{"bike_id":"37704912-e882-4245-a417-e82be90be020","system_id":"levelo_inurba_marseille","lat":43.30541,"lon":5.36543,"is_reserved":false,"is_disabled":false,"rental_uris":{"android":"levelo://app?vid=37704912-e882-4245-a417-e82be90be020","ios":"levelo://app?vid=37704912-e882-4245-a417-e82be90be020"},"vehicle_type_id":"4","last_reported":1762009688,"current_range_meters":17200,"station_id":"ce4bgs12rcd13ifvqcag","pricing_plan_id":"cebpf4jnsgd1na2vs0mg"},{"bike_id":"137b611e-0d30-42e5-bd0e-4ca1b1f19b3a","system_id":"levelo_inurba_marseille","lat":43.2799,"lon":5.40017,"is_reserved":false,"is_disabled":false,"rental_uris":{"android":"levelo://app?vid=137b611e-0d30-42e5-bd0e-4ca1b1f19b3a","ios":"levelo://app?vid=137b611e-0d30-42e5-bd0e-4ca1b1f19b3a"},"vehicle_type_id":"4","last_reported":1762009688,"current_range_meters":17200,"station_id":"ce4bho92rcd13ifvqh4g","pricing_plan_id":"cebpf4jnsgd1na2vs0mg"},{"bike_id":"45833a00-bb86-4c87-99c2-814a719ac317","system_id":"levelo_inurba_marseille","lat":43.22925,"lon":5.35391,"is_reserved":false,"is_disabled":false,"rental_uris":{"android":"levelo://app?vid=45833a00-bb86-4c87-99c2-814a719ac317","ios":"levelo://app?vid=45833a00-bb86-4c87-99c2-814a719ac317"},"vehicle_type_id":"4","last_reported":1762009688,"current_range_meters":17200,"station_id":"cpo3532slgdg3j2ikp40","pricing_plan_id":"cebpf4jnsgd1na2vs0mg"},{"bike_id":"7b0eaa70-7657-4098-8e47-f6fae1ad1d21","system_id":"levelo_inurba_marseille","lat":43.258681,"lon":5.39898,"is_reserved":false,"is_disabled":false,"rental_uris":{"android":"levelo://app?vid=7b0eaa70-7657-4098-8e47-f6fae1ad1d21","ios":"levelo://app?vid=7b0eaa70-7657-4098-8e47-f6fae1ad1d21"},"vehicle_type_id":"4","last_reported":1762009688,"current_range_meters":17200,"station_id":"ce4bhl92rcd13ifvqghg","pricing_plan_id":"cebpf4jnsgd1na2vs0mg"},{"bike_id":"4c98ce40-3f1b-45d7-9f5b-6a808669ca07","system_id":"levelo_inurba_marseille","lat":43.29046,"lon":5.39966,"is_reserved":false,"is_disabled":false,"rental_uris":{"android":"levelo://app?vid=4c98ce40-3f1b-45d7-9f5b-6a808669ca07","ios":"levelo://app?vid=4c98ce40-3f1b-45d7-9f5b-6a808669ca07"},"vehicle_type_id":"4","last_reported":1762009688,"current_range_meters":17200,"station_id":"ce4bh392rcd13ifvqdm0","pricing_plan_id":"cebpf4jnsgd1na2vs0mg"},{"bike_id":"c167b66d-c44c-4d41-aa0b-cda6607f7bed","system_id":"levelo_inurba_marseille","lat":43.28267,"lon":5.35058,"is_reserved":false,"is_disabled":false,"rental_uris":{"android":"levelo://app?vid=c167b66d-c44c-4d41-aa0b-cda6607f7bed","ios":"levelo://app?vid=c167b66d-c44c-4d41-aa0b-cda6607f7bed"},"vehicle_type_id":"4","last_reported":1762009688,"current_range_meters":17200,"station_id":"ce4bhbp2rcd13ifvqerg","pricing_plan_id":"cebpf4jnsgd1na2vs0mg"},{"bike_id":"905db050-de96-4878-8536-d57891d52c9b","system_id":"levelo_inurba_marseille","lat":43.31326,"lon":5.39697,"is_reserved":false,"is_disabled":false,"rental_uris":{"android":"levelo://app?vid=905db050-de96-4878-8536-d57891d52c9b","ios":"levelo://app?vid=905db050-de96-4878-8536-d57891d52c9b"},"vehicle_type_id":"4","last_reported":1762009688,"current_range_meters":17200,"station_id":"ce4bgvp2rcd13ifvqcu0","pricing_plan_id":"cebpf4jnsgd1na2vs0mg"},{"bike_id":"12a18d4a-7b67-4876-88d1-1820554fc400","system_id":"levelo_inurba_marseille","lat":43.29741,"lon":5.38125,"is_reserved":false,"is_disabled":false,"rental_uris":{"android":"levelo://app?vid=12a18d4a-7b67-4876-88d1-1820554fc400","ios":"levelo://app?vid=12a18d4a-7b67-4876-88d1-1820554fc400"},"vehicle_type_id":"4","last_reported":1762009688,"current_range_meters":17600,"station_id":"","pricing_plan_id":"cebpf4jnsgd1na2vs0mg"},{"bike_id":"c7d57f9b-8ba9-4435-ac3b-54d333c0b4c7","system_id":"levelo_inurba_marseille","lat":43.323557,"lon":5.367399,"is_reserved":false,"is_disabled":false,"rental_uris":{"android":"levelo://app?vid=c7d57f9b-8ba9-4435-ac3b-54d333c0b4c7","ios":"levelo://app?vid=c7d57f9b-8ba9-4435-ac3b-54d333c0b4c7"},"vehicle_type_id":"4","last_reported":1762009688,"current_range_meters":17600,"station_id":"ce4bhsh2rcd13ifvqi2g","pricing_plan_id":"cebpf4jnsgd1na2vs0mg"},{"bike_id":"e24f2027-65e3-4d25-862d-8589d132b0a9","system_id":"levelo_inurba_marseille","lat":43.27939,"lon":5.41051,"is_reserved":false,"is_disabled":false,"rental_uris":{"android":"levelo://app?vid=e24f2027-65e3-4d25-862d-8589d132b0a9","ios":"levelo://app?vid=e24f2027-65e3-4d25-862d-8589d132b0a9"},"vehicle_type_id":"4","last_reported":1762009688,"current_range_meters":17600,"station_id":"ce4bhnp2rcd13ifvqh0g","pricing_plan_id":"cebpf4jnsgd1na2vs0mg"},{"bike_id":"6cc467a6-d5ad-40ce-b332-ab26e42a0e25","system_id":"levelo_inurba_marseille","lat":43.29617,"lon":5.37721,"is_reserved":false,"is_disabled":false,"rental_uris":{"android":"levelo://app?vid=6cc467a6-d5ad-40ce-b332-ab26e42a0e25","ios":"levelo://app?vid=6cc467a6-d5ad-40ce-b332-ab26e42a0e25"},"vehicle_type_id":"4","last_reported":1762009688,"current_range_meters":17600,"station_id":"ce4bgi92rcd13ifvqb90","pricing_plan_id":"cebpf4jnsgd1na2vs0mg"},{"bike_id":"d13f006e-40b9-4a08-a719-d26f559ca18c","system_id":"levelo_inurba_marseille","lat":43.29584,"lon":5.37521,"is_reserved":false,"is_disabled":false,"rental_uris":{"android":"levelo://app?vid=d13f006e-40b9-4a08-a719-d26f559ca18c","ios":"levelo://app?vid=d13f006e-40b9-4a08-a719-d26f559ca18c"},"vehicle_type_id":"4","last_reported":1762009688,"current_range_meters":17600,"station_id":"ce4bgh92rcd13ifvqb50","pricing_plan_id":"cebpf4jnsgd1na2vs0mg"},{"bike_id":"df679281-c179-4884-8c44-8a3b73147f48","system_id":"levelo_inurba_marseille","lat":43.251137,"lon":5.394959,"is_reserved":false,"is_disabled":false,"rental_uris":{"android":"levelo://app?vid=df679281-c179-4884-8c44-8a3b73147f48","ios":"levelo://app?vid=df679281-c179-4884-8c44-8a3b73147f48"},"vehicle_type_id":"4","last_reported":1762009688,"current_range_meters":17600,"station_id":"ce4bhm12rcd13ifvqgkg","pricing_plan_id":"cebpf4jnsgd1na2vs0mg"},{"bike_id":"e304397e-4499-4dfe-b16e-ccda5896dc00","system_id":"levelo_inurba_marseille","lat":43.25488,"lon":5.37649,"is_reserved":false,"is_disabled":false,"rental_uris":{"android":"levelo://app?vid=e304397e-4499-4dfe-b16e-ccda5896dc00","ios":"levelo://app?vid=e304397e-4499-4dfe-b16e-ccda5896dc00"},"vehicle_type_id":"4","last_reported":1762009688,"current_range_meters":17600,"station_id":"ce4bhh12rcd13ifvqff0","pricing_plan_id":"cebpf4jnsgd1na2vs0mg"},{"bike_id":"1dd6e995-1591-48c4-a2b9-be17c06fc029","system_id":"levelo_inurba_marseille","lat":43.28267,"lon":5.35056,"is_reserved":false,"is_disabled":false,"rental_uris":{"android":"levelo://app?vid=1dd6e995-1591-48c4-a2b9-be17c06fc029","ios":"levelo://app?vid=1dd6e995-1591-48c4-a2b9-be17c06fc029"},"vehicle_type_id":"4","last_reported":1762009688,"current_range_meters":17600,"station_id":"ce4bhbp2rcd13ifvqerg","pricing_plan_id":"cebpf4jnsgd1na2vs0mg"},{"bike_id":"5427ba01-f16f-4434-9052-e2f7788aa5e4","system_id":"levelo_inurba_marseille","lat":43.29003,"lon":5.35621,"is_reserved":false,"is_disabled":false,"rental_uris":{"android":"levelo://app?vid=5427ba01-f16f-4434-9052-e2f7788aa5e4","ios":"levelo://app?vid=5427ba01-f16f-4434-9052-e2f7788aa5e4"},"vehicle_type_id":"4","last_reported":1762009688,"current_range_meters":17600,"station_id":"ce4bhb92rcd13ifvqen0","pricing_plan_id":"cebpf4jnsgd1na2vs0mg"},{"bike_id":"2a32e756-8076-4328-a472-196c9c9d4e25","system_id":"levelo_inurba_marseille","lat":43.286089,"lon":5.37067,"is_reserved":false,"is_disabled":false,"rental_uris":{"android":"levelo://app?vid=2a32e756-8076-4328-a472-196c9c9d4e25","ios":"levelo://app?vid=2a32e756-8076-4328-a472-196c9c9d4e25"},"vehicle_type_id":"4","last_reported":1762009688,"current_range_meters":17600,"station_id":"ce4bht12rcd13ifvqi60","pricing_plan_id":"cebpf4jnsgd1na2vs0mg"},{"bike_id":"0522a1d2-9b56-45f6-8bef-7bc82694f70e","system_id":"levelo_inurba_marseille","lat":43.30889,"lon":5.37184,"is_reserved":false,"is_disabled":false,"rental_uris":{"android":"levelo://app?vid=0522a1d2-9b56-45f6-8bef-7bc82694f70e","ios":"levelo://app?vid=0522a1d2-9b56-45f6-8bef-7bc82694f70e"},"vehicle_type_id":"4","last_reported":1762009688,"current_range_meters":17600,"station_id":"ce4bguh2rcd13ifvqckg","pricing_plan_id":"cebpf4jnsgd1na2vs0mg"},{"bike_id":"ea428a04-fad9-4072-84dc-d60bc8cfd593","system_id":"levelo_inurba_marseille","lat":43.29795,"lon":5.38091,"is_reserved":false,"is_disabled":false,"rental_uris":{"android":"levelo://app?vid=ea428a04-fad9-4072-84dc-d60bc8cfd593","ios":"levelo://app?vid=ea428a04-fad9-4072-84dc-d60bc8cfd593"},"vehicle_type_id":"4","last_reported":1762009688,"current_range_meters":17600,"station_id":"ce4bgip2rcd13ifvqbb0","pricing_plan_id":"cebpf4jnsgd1na2vs0mg"},{"bike_id":"afe97da2-f9d7-4848-8f93-c409acdb075e","system_id":"levelo_inurba_marseille","lat":43.22554,"lon":5.41633,"is_reserved":false,"is_disabled":false,"rental_uris":{"android":"levelo://app?vid=afe97da2-f9d7-4848-8f93-c409acdb075e","ios":"levelo://app?vid=afe97da2-f9d7-4848-8f93-c409acdb075e"},"vehicle_type_id":"4","last_reported":1762009688,"current_range_meters":18000,"station_id":"st_d2o4gvlbi1j2169b742g","pricing_plan_id":"cebpf4jnsgd1na2vs0mg"},{"bike_id":"cdcfa7af-5c53-4a1e-bd12-22de38b14978","system_id":"levelo_inurba_marseille","lat":43.24629,"lon":5.43147,"is_reserved":false,"is_disabled":false,"rental_uris":{"android":"levelo://app?vid=cdcfa7af-5c53-4a1e-bd12-22de38b14978","ios":"levelo://app?vid=cdcfa7af-5c53-4a1e-bd12-22de38b14978"},"vehicle_type_id":"4","last_reported":1762009688,"current_range_meters":18000,"station_id":"st_d2m6c4gdas8pm72e190g","pricing_plan_id":"cebpf4jnsgd1na2vs0mg"},{"bike_id":"1dff0eba-7b24-4e9e-b26e-371189c08022","system_id":"levelo_inurba_marseille","lat":43.24812,"lon":5.37456,"is_reserved":false,"is_disabled":false,"rental_uris":{"android":"levelo://app?vid=1dff0eba-7b24-4e9e-b26e-371189c08022","ios":"levelo://app?vid=1dff0eba-7b24-4e9e-b26e-371189c08022"},"vehicle_type_id":"4","last_reported":1762009688,"current_range_meters":18000,"station_id":"ce4bhgh2rcd13ifvqfb0","pricing_plan_id":"cebpf4jnsgd1na2vs0mg"},{"bike_id":"84f1bfac-8d21-499b-b8e1-fdc8049e10ac","system_id":"levelo_inurba_marseille","lat":43.312817,"lon":5.377414,"is_reserved":false,"is_disabled":false,"rental_uris":{"android":"levelo://app?vid=84f1bfac-8d21-499b-b8e1-fdc8049e10ac","ios":"levelo://app?vid=84f1bfac-8d21-499b-b8e1-fdc8049e10ac"},"vehicle_type_id":"4","last_reported":1762009688,"current_range_meters":18000,"station_id":"","pricing_plan_id":"cebpf4jnsgd1na2vs0mg"},{"bike_id":"90e32a66-7f51-4280-8ee9-d2d60faa5cea","system_id":"levelo_inurba_marseille","lat":43.24667,"lon":5.38171,"is_reserved":false,"is_disabled":false,"rental_uris":{"android":"levelo://app?vid=90e32a66-7f51-4280-8ee9-d2d60faa5cea","ios":"levelo://app?vid=90e32a66-7f51-4280-8ee9-d2d60faa5cea"},"vehicle_type_id":"4","last_reported":1762009688,"current_range_meters":18000,"station_id":"ce4bhih2rcd13ifvqfr0","pricing_plan_id":"cebpf4jnsgd1na2vs0mg"},{"bike_id":"03484660-2b83-4fb5-8e11-d6c8b6f330c2","system_id":"levelo_inurba_marseille","lat":43.28039,"lon":5.36937,"is_reserved":false,"is_disabled":false,"rental_uris":{"android":"levelo://app?vid=03484660-2b83-4fb5-8e11-d6c8b6f330c2","ios":"levelo://app?vid=03484660-2b83-4fb5-8e11-d6c8b6f330c2"},"vehicle_type_id":"4","last_reported":1762009688,"current_range_meters":18000,"station_id":"ce4bha12rcd13ifvqef0","pricing_plan_id":"cebpf4jnsgd1na2vs0mg"},{"bike_id":"fd2a3e15-d6ed-4064-b7e2-d83799925ad0","system_id":"levelo_inurba_marseille","lat":43.29752,"lon":5.42775,"is_reserved":false,"is_disabled":false,"rental_uris":{"android":"levelo://app?vid=fd2a3e15-d6ed-4064-b7e2-d83799925ad0","ios":"levelo://app?vid=fd2a3e15-d6ed-4064-b7e2-d83799925ad0"},"vehicle_type_id":"4","last_reported":1762009688,"current_range_meters":18000,"station_id":"st_d3md5207bmas73dh9klg","pricing_plan_id":"cebpf4jnsgd1na2vs0mg"},{"bike_id":"214aae98-88cf-4dfa-b97e-ce54aeafc01e","system_id":"levelo_inurba_marseille","lat":43.27919,"lon":5.39576,"is_reserved":false,"is_disabled":false,"rental_uris":{"android":"levelo://app?vid=214aae98-88cf-4dfa-b97e-ce54aeafc01e","ios":"levelo://app?vid=214aae98-88cf-4dfa-b97e-ce54aeafc01e"},"vehicle_type_id":"4","last_reported":1762009688,"current_range_meters":18000,"station_id":"ce4bhf92rcd13ifvqf40","pricing_plan_id":"cebpf4jnsgd1na2vs0mg"},{"bike_id":"8223a2b3-3e5c-4559-a8c9-e58c63090f10","system_id":"levelo_inurba_marseille","lat":43.21742,"lon":5.3461,"is_reserved":false,"is_disabled":false,"rental_uris":{"android":"levelo://app?vid=8223a2b3-3e5c-4559-a8c9-e58c63090f10","ios":"levelo://app?vid=8223a2b3-3e5c-4559-a8c9-e58c63090f10"},"vehicle_type_id":"4","last_reported":1762009688,"current_range_meters":18000,"station_id":"st_cvj6r9ubvosntc0bgbag","pricing_plan_id":"cebpf4jnsgd1na2vs0mg"},{"bike_id":"fbc899d2-8c60-432e-a054-080f9183e9de","system_id":"levelo_inurba_marseille","lat":43.25332,"lon":5.4219,"is_reserved":false,"is_disabled":false,"rental_uris":{"android":"levelo://app?vid=fbc899d2-8c60-432e-a054-080f9183e9de","ios":"levelo://app?vid=fbc899d2-8c60-432e-a054-080f9183e9de"},"vehicle_type_id":"4","last_reported":1762009688,"current_range_meters":18800,"station_id":"st_d2m65c5bi1j21697t3ng","pricing_plan_id":"cebpf4jnsgd1na2vs0mg"},{"bike_id":"9b0d9e28-79a3-4616-8e57-580f61942c1e","system_id":"levelo_inurba_marseille","lat":43.28806,"lon":5.38561,"is_reserved":false,"is_disabled":false,"rental_uris":{"android":"levelo://app?vid=9b0d9e28-79a3-4616-8e57-580f61942c1e","ios":"levelo://app?vid=9b0d9e28-79a3-4616-8e57-580f61942c1e"},"vehicle_type_id":"4","last_reported":1762009688,"current_range_meters":18800,"station_id":"","pricing_plan_id":"cebpf4jnsgd1na2vs0mg"},{"bike_id":"5fb9cf77-a4c1-4534-8e01-85304473a59b","system_id":"levelo_inurba_marseille","lat":43.23962,"lon":5.36625,"is_reserved":false,"is_disabled":false,"rental_uris":{"android":"levelo://app?vid=5fb9cf77-a4c1-4534-8e01-85304473a59b","ios":"levelo://app?vid=5fb9cf77-a4c1-4534-8e01-85304473a59b"},"vehicle_type_id":"4","last_reported":1762009688,"current_range_meters":18800,"station_id":"ce4bhi12rcd13ifvqfp0","pricing_plan_id":"cebpf4jnsgd1na2vs0mg"},{"bike_id":"aa35cae5-6605-40df-87c8-0535c3d0e8d6","system_id":"levelo_inurba_marseille","lat":43.282161,"lon":5.351012,"is_reserved":false,"is_disabled":false,"rental_uris":{"android":"levelo://app?vid=aa35cae5-6605-40df-87c8-0535c3d0e8d6","ios":"levelo://app?vid=aa35cae5-6605-40df-87c8-0535c3d0e8d6"},"vehicle_type_id":"4","last_reported":1762009688,"current_range_meters":18800,"station_id":"ce4bhbp2rcd13ifvqerg","pricing_plan_id":"cebpf4jnsgd1na2vs0mg"},{"bike_id":"3a94f032-382f-4e78-a618-f9c45b332dd8","system_id":"levelo_inurba_marseille","lat":43.25573,"lon":5.38262,"is_reserved":false,"is_disabled":false,"rental_uris":{"android":"levelo://app?vid=3a94f032-382f-4e78-a618-f9c45b332dd8","ios":"levelo://app?vid=3a94f032-382f-4e78-a618-f9c45b332dd8"},"vehicle_type_id":"4","last_reported":1762009688,"current_range_meters":18800,"station_id":"ce4bhih2rcd13ifvqfs0","pricing_plan_id":"cebpf4jnsgd1na2vs0mg"},{"bike_id":"6fc863ad-4c5a-4ea7-83e6-e4ba16af1c79","system_id":"levelo_inurba_marseille","lat":43.28617,"lon":5.35109,"is_reserved":false,"is_disabled":false,"rental_uris":{"android":"levelo://app?vid=6fc863ad-4c5a-4ea7-83e6-e4ba16af1c79","ios":"levelo://app?vid=6fc863ad-4c5a-4ea7-83e6-e4ba16af1c79"},"vehicle_type_id":"4","last_reported":1762009688,"current_range_meters":18800,"station_id":"ce4bhch2rcd13ifvqeug","pricing_plan_id":"cebpf4jnsgd1na2vs0mg"},{"bike_id":"423802bb-722e-4533-9018-c0f75cce34a6","system_id":"levelo_inurba_marseille","lat":43.30655,"lon":5.38178,"is_reserved":false,"is_disabled":false,"rental_uris":{"android":"levelo://app?vid=423802bb-722e-4533-9018-c0f75cce34a6","ios":"levelo://app?vid=423802bb-722e-4533-9018-c0f75cce34a6"},"vehicle_type_id":"4","last_reported":1762009688,"current_range_meters":19200,"station_id":"","pricing_plan_id":"cebpf4jnsgd1na2vs0mg"},{"bike_id":"9ca5a267-7f08-4088-baf9-443a2423a671","system_id":"levelo_inurba_marseille","lat":43.23959,"lon":5.36632,"is_reserved":false,"is_disabled":false,"rental_uris":{"android":"levelo://app?vid=9ca5a267-7f08-4088-baf9-443a2423a671","ios":"levelo://app?vid=9ca5a267-7f08-4088-baf9-443a2423a671"},"vehicle_type_id":"4","last_reported":1762009688,"current_range_meters":19200,"station_id":"ce4bhi12rcd13ifvqfp0","pricing_plan_id":"cebpf4jnsgd1na2vs0mg"},{"bike_id":"e6d7b950-f107-4150-96c9-469b4723c1ae","system_id":"levelo_inurba_marseille","lat":43.290794,"lon":5.381018,"is_reserved":false,"is_disabled":false,"rental_uris":{"android":"levelo://app?vid=e6d7b950-f107-4150-96c9-469b4723c1ae","ios":"levelo://app?vid=e6d7b950-f107-4150-96c9-469b4723c1ae"},"vehicle_type_id":"4","last_reported":1762009688,"current_range_meters":19200,"station_id":"ce4bh512rcd13ifvqe2g","pricing_plan_id":"cebpf4jnsgd1na2vs0mg"},{"bike_id":"de0ca7a8-116a-46c8-8c50-6b445a473423","system_id":"levelo_inurba_marseille","lat":43.288699,"lon":5.425427,"is_reserved":false,"is_disabled":false,"rental_uris":{"android":"levelo://app?vid=de0ca7a8-116a-46c8-8c50-6b445a473423","ios":"levelo://app?vid=de0ca7a8-116a-46c8-8c50-6b445a473423"},"vehicle_type_id":"4","last_reported":1762009688,"current_range_meters":19200,"station_id":"st_d3b462108ojc7389ooeg","pricing_plan_id":"cebpf4jnsgd1na2vs0mg"},{"bike_id":"7d445eee-4de3-4d4f-8b96-6fffd90422b0","system_id":"levelo_inurba_marseille","lat":43.21744,"lon":5.34604,"is_reserved":false,"is_disabled":false,"rental_uris":{"android":"levelo://app?vid=7d445eee-4de3-4d4f-8b96-6fffd90422b0","ios":"levelo://app?vid=7d445eee-4de3-4d4f-8b96-6fffd90422b0"},"vehicle_type_id":"4","last_reported":1762009688,"current_range_meters":19200,"station_id":"st_cvj6r9ubvosntc0bgbag","pricing_plan_id":"cebpf4jnsgd1na2vs0mg"},{"bike_id":"8adef542-af60-4b61-8a5b-4b604c3bcfe4","system_id":"levelo_inurba_marseille","lat":43.24621,"lon":5.43167,"is_reserved":false,"is_disabled":false,"rental_uris":{"android":"levelo://app?vid=8adef542-af60-4b61-8a5b-4b604c3bcfe4","ios":"levelo://app?vid=8adef542-af60-4b61-8a5b-4b604c3bcfe4"},"vehicle_type_id":"4","last_reported":1762009688,"current_range_meters":19200,"station_id":"st_d2m6c4gdas8pm72e190g","pricing_plan_id":"cebpf4jnsgd1na2vs0mg"},{"bike_id":"72667045-b816-48de-95ee-6e55de9900ca","system_id":"levelo_inurba_marseille","lat":43.25105,"lon":5.40319,"is_reserved":false,"is_disabled":false,"rental_uris":{"android":"levelo://app?vid=72667045-b816-48de-95ee-6e55de9900ca","ios":"levelo://app?vid=72667045-b816-48de-95ee-6e55de9900ca"},"vehicle_type_id":"4","last_reported":1762009688,"current_range_meters":19200,"station_id":"ce4bhlh2rcd13ifvqgig","pricing_plan_id":"cebpf4jnsgd1na2vs0mg"},{"bike_id":"b5e49cce-4c50-4c05-8029-916464358c9e","system_id":"levelo_inurba_marseille","lat":43.22929,"lon":5.35384,"is_reserved":false,"is_disabled":false,"rental_uris":{"android":"levelo://app?vid=b5e49cce-4c50-4c05-8029-916464358c9e","ios":"levelo://app?vid=b5e49cce-4c50-4c05-8029-916464358c9e"},"vehicle_type_id":"4","last_reported":1762009688,"current_range_meters":19200,"station_id":"cpo3532slgdg3j2ikp40","pricing_plan_id":"cebpf4jnsgd1na2vs0mg"},{"bike_id":"00b420a5-75f7-449f-8e85-9e796e56edb0","system_id":"levelo_inurba_marseille","lat":43.23193,"lon":5.35563,"is_reserved":false,"is_disabled":false,"rental_uris":{"android":"levelo://app?vid=00b420a5-75f7-449f-8e85-9e796e56edb0","ios":"levelo://app?vid=00b420a5-75f7-449f-8e85-9e796e56edb0"},"vehicle_type_id":"4","last_reported":1762009688,"current_range_meters":19200,"station_id":"ce4bhu92rcd13ifvqi70","pricing_plan_id":"cebpf4jnsgd1na2vs0mg"},{"bike_id":"dd70bcc2-2e6b-447f-adc2-e0826cf93554","system_id":"levelo_inurba_marseille","lat":43.31909,"lon":5.40156,"is_reserved":false,"is_disabled":false,"rental_uris":{"android":"levelo://app?vid=dd70bcc2-2e6b-447f-adc2-e0826cf93554","ios":"levelo://app?vid=dd70bcc2-2e6b-447f-adc2-e0826cf93554"},"vehicle_type_id":"4","last_reported":1762009688,"current_range_meters":19200,"station_id":"","pricing_plan_id":"cebpf4jnsgd1na2vs0mg"},{"bike_id":"641244de-664d-454b-8dd1-5d15c61abe65","system_id":"levelo_inurba_marseille","lat":43.29252,"lon":5.36884,"is_reserved":false,"is_disabled":false,"rental_uris":{"android":"levelo://app?vid=641244de-664d-454b-8dd1-5d15c61abe65","ios":"levelo://app?vid=641244de-664d-454b-8dd1-5d15c61abe65"},"vehicle_type_id":"4","last_reported":1762009688,"current_range_meters":19600,"station_id":"ce4bhbp2rcd13ifvqesg","pricing_plan_id":"cebpf4jnsgd1na2vs0mg"},{"bike_id":"3b90b151-38e0-415b-aee7-16ce0aa33f1a","system_id":"levelo_inurba_marseille","lat":43.27057,"lon":5.38316,"is_reserved":false,"is_disabled":false,"rental_uris":{"android":"levelo://app?vid=3b90b151-38e0-415b-aee7-16ce0aa33f1a","ios":"levelo://app?vid=3b90b151-38e0-415b-aee7-16ce0aa33f1a"},"vehicle_type_id":"4","last_reported":1762009688,"current_range_meters":19600,"station_id":"st_d3n2fo6cfp8s73cte1j0","pricing_plan_id":"cebpf4jnsgd1na2vs0mg"},{"bike_id":"41ecc14c-6b68-4eca-90ce-56e652a5716d","system_id":"levelo_inurba_marseille","lat":43.30542,"lon":5.36536,"is_reserved":false,"is_disabled":false,"rental_uris":{"android":"levelo://app?vid=41ecc14c-6b68-4eca-90ce-56e652a5716d","ios":"levelo://app?vid=41ecc14c-6b68-4eca-90ce-56e652a5716d"},"vehicle_type_id":"4","last_reported":1762009688,"current_range_meters":19600,"station_id":"ce4bgs12rcd13ifvqcag","pricing_plan_id":"cebpf4jnsgd1na2vs0mg"},{"bike_id":"d0fed751-922f-49cc-8c48-e0fe4a18bcc8","system_id":"levelo_inurba_marseille","lat":43.30148,"lon":5.3808,"is_reserved":false,"is_disabled":false,"rental_uris":{"android":"levelo://app?vid=d0fed751-922f-49cc-8c48-e0fe4a18bcc8","ios":"levelo://app?vid=d0fed751-922f-49cc-8c48-e0fe4a18bcc8"},"vehicle_type_id":"4","last_reported":1762009688,"current_range_meters":19600,"station_id":"ce4bgjp2rcd13ifvqbh0","pricing_plan_id":"cebpf4jnsgd1na2vs0mg"},{"bike_id":"294d1ff9-24a0-4d63-b3df-e8ffc797a747","system_id":"levelo_inurba_marseille","lat":43.261908,"lon":5.374431,"is_reserved":false,"is_disabled":false,"rental_uris":{"android":"levelo://app?vid=294d1ff9-24a0-4d63-b3df-e8ffc797a747","ios":"levelo://app?vid=294d1ff9-24a0-4d63-b3df-e8ffc797a747"},"vehicle_type_id":"4","last_reported":1762009688,"current_range_meters":19600,"station_id":"ce4bhgp2rcd13ifvqfc0","pricing_plan_id":"cebpf4jnsgd1na2vs0mg"},{"bike_id":"e2742136-5b3a-4cff-a340-f6bf3314abf4","system_id":"levelo_inurba_marseille","lat":43.31081,"lon":5.42429,"is_reserved":false,"is_disabled":false,"rental_uris":{"android":"levelo://app?vid=e2742136-5b3a-4cff-a340-f6bf3314abf4","ios":"levelo://app?vid=e2742136-5b3a-4cff-a340-f6bf3314abf4"},"vehicle_type_id":"4","last_reported":1762009688,"current_range_meters":19600,"station_id":"ce4bhp92rcd13ifvqhag","pricing_plan_id":"cebpf4jnsgd1na2vs0mg"},{"bike_id":"d4aa9896-a8e4-4460-b933-b42226612648","system_id":"levelo_inurba_marseille","lat":43.30122,"lon":5.4312,"is_reserved":false,"is_disabled":false,"rental_uris":{"android":"levelo://app?vid=d4aa9896-a8e4-4460-b933-b42226612648","ios":"levelo://app?vid=d4aa9896-a8e4-4460-b933-b42226612648"},"vehicle_type_id":"4","last_reported":1762009688,"current_range_meters":20000,"station_id":"st_d3js3co5814s73ftftug","pricing_plan_id":"cebpf4jnsgd1na2vs0mg"},{"bike_id":"14b92a7a-0805-475a-abfd-8c979184b42b","system_id":"levelo_inurba_marseille","lat":43.30977,"lon":5.36996,"is_reserved":false,"is_disabled":false,"rental_uris":{"android":"levelo://app?vid=14b92a7a-0805-475a-abfd-8c979184b42b","ios":"levelo://app?vid=14b92a7a-0805-475a-abfd-8c979184b42b"},"vehicle_type_id":"4","last_reported":1762009688,"current_range_meters":20000,"station_id":"","pricing_plan_id":"cebpf4jnsgd1na2vs0mg"},{"bike_id":"707adbee-a6fb-4163-bded-a18aafb6fe2f","system_id":"levelo_inurba_marseille","lat":43.29594,"lon":5.380939,"is_reserved":false,"is_disabled":false,"rental_uris":{"android":"levelo://app?vid=707adbee-a6fb-4163-bded-a18aafb6fe2f","ios":"levelo://app?vid=707adbee-a6fb-4163-bded-a18aafb6fe2f"},"vehicle_type_id":"4","last_reported":1762009688,"current_range_meters":20000,"station_id":"ce4bgl12rcd13ifvqbo0","pricing_plan_id":"cebpf4jnsgd1na2vs0mg"},{"bike_id":"b2514755-0f11-4833-b225-7d1f8289efa4","system_id":"levelo_inurba_marseille","lat":43.229312,"lon":5.353754,"is_reserved":false,"is_disabled":false,"rental_uris":{"android":"levelo://app?vid=b2514755-0f11-4833-b225-7d1f8289efa4","ios":"levelo://app?vid=b2514755-0f11-4833-b225-7d1f8289efa4"},"vehicle_type_id":"4","last_reported":1762009688,"current_range_meters":20000,"station_id":"cpo3532slgdg3j2ikp40","pricing_plan_id":"cebpf4jnsgd1na2vs0mg"},{"bike_id":"5762ff96-ba2f-4da6-a024-447079f2f9f7","system_id":"levelo_inurba_marseille","lat":43.28212,"lon":5.39067,"is_reserved":false,"is_disabled":false,"rental_uris":{"android":"levelo://app?vid=5762ff96-ba2f-4da6-a024-447079f2f9f7","ios":"levelo://app?vid=5762ff96-ba2f-4da6-a024-447079f2f9f7"},"vehicle_type_id":"4","last_reported":1762009688,"current_range_meters":20000,"station_id":"ce4bhn92rcd13ifvqgsg","pricing_plan_id":"cebpf4jnsgd1na2vs0mg"},{"bike_id":"6eb523a4-350d-4959-ac5e-1335d8f70954","system_id":"levelo_inurba_marseille","lat":43.315717,"lon":5.406423,"is_reserved":false,"is_disabled":false,"rental_uris":{"android":"levelo://app?vid=6eb523a4-350d-4959-ac5e-1335d8f70954","ios":"levelo://app?vid=6eb523a4-350d-4959-ac5e-1335d8f70954"},"vehicle_type_id":"4","last_reported":1762009688,"current_range_meters":20000,"station_id":"","pricing_plan_id":"cebpf4jnsgd1na2vs0mg"},{"bike_id":"721ab431-2f82-4c09-9790-7574aed85a53","system_id":"levelo_inurba_marseille","lat":43.307916,"lon":5.372469,"is_reserved":false,"is_disabled":false,"rental_uris":{"android":"levelo://app?vid=721ab431-2f82-4c09-9790-7574aed85a53","ios":"levelo://app?vid=721ab431-2f82-4c09-9790-7574aed85a53"},"vehicle_type_id":"4","last_reported":1762009688,"current_range_meters":20000,"station_id":"ce4bguh2rcd13ifvqckg","pricing_plan_id":"cebpf4jnsgd1na2vs0mg"},{"bike_id":"ea981441-de44-4e91-a60f-0f3605343256","system_id":"levelo_inurba_marseille","lat":43.32358,"lon":5.36749,"is_reserved":false,"is_disabled":false,"rental_uris":{"android":"levelo://app?vid=ea981441-de44-4e91-a60f-0f3605343256","ios":"levelo://app?vid=ea981441-de44-4e91-a60f-0f3605343256"},"vehicle_type_id":"4","last_reported":1762009688,"current_range_meters":20000,"station_id":"ce4bhsh2rcd13ifvqi2g","pricing_plan_id":"cebpf4jnsgd1na2vs0mg"},{"bike_id":"f12cda4c-f18d-49c7-808c-3a750cd25b47","system_id":"levelo_inurba_marseille","lat":43.25523,"lon":5.37638,"is_reserved":false,"is_disabled":false,"rental_uris":{"android":"levelo://app?vid=f12cda4c-f18d-49c7-808c-3a750cd25b47","ios":"levelo://app?vid=f12cda4c-f18d-49c7-808c-3a750cd25b47"},"vehicle_type_id":"4","last_reported":1762009688,"current_range_meters":20000,"station_id":"ce4bhh12rcd13ifvqff0","pricing_plan_id":"cebpf4jnsgd1na2vs0mg"},{"bike_id":"7057fd86-10cc-4b0b-9569-8c10ed6ff81d","system_id":"levelo_inurba_marseille","lat":43.30153,"lon":5.38089,"is_reserved":false,"is_disabled":false,"rental_uris":{"android":"levelo://app?vid=7057fd86-10cc-4b0b-9569-8c10ed6ff81d","ios":"levelo://app?vid=7057fd86-10cc-4b0b-9569-8c10ed6ff81d"},"vehicle_type_id":"4","last_reported":1762009688,"current_range_meters":20000,"station_id":"ce4bgjp2rcd13ifvqbh0","pricing_plan_id":"cebpf4jnsgd1na2vs0mg"},{"bike_id":"066ede02-47a2-4c83-bcb1-7eb633a370fb","system_id":"levelo_inurba_marseille","lat":43.31287,"lon":5.37757,"is_reserved":false,"is_disabled":false,"rental_uris":{"android":"levelo://app?vid=066ede02-47a2-4c83-bcb1-7eb633a370fb","ios":"levelo://app?vid=066ede02-47a2-4c83-bcb1-7eb633a370fb"},"vehicle_type_id":"4","last_reported":1762009688,"current_range_meters":20400,"station_id":"","pricing_plan_id":"cebpf4jnsgd1na2vs0mg"},{"bike_id":"fe2272ea-7316-4280-b90c-d8c4db7bc73e","system_id":"levelo_inurba_marseille","lat":43.27982,"lon":5.39268,"is_reserved":false,"is_disabled":false,"rental_uris":{"android":"levelo://app?vid=fe2272ea-7316-4280-b90c-d8c4db7bc73e","ios":"levelo://app?vid=fe2272ea-7316-4280-b90c-d8c4db7bc73e"},"vehicle_type_id":"4","last_reported":1762009688,"current_range_meters":20400,"station_id":"","pricing_plan_id":"cebpf4jnsgd1na2vs0mg"},{"bike_id":"aa56963e-5f6a-4043-b1c7-23e4d9f05d8c","system_id":"levelo_inurba_marseille","lat":43.313499,"lon":5.379119,"is_reserved":false,"is_disabled":false,"rental_uris":{"android":"levelo://app?vid=aa56963e-5f6a-4043-b1c7-23e4d9f05d8c","ios":"levelo://app?vid=aa56963e-5f6a-4043-b1c7-23e4d9f05d8c"},"vehicle_type_id":"4","last_reported":1762009688,"current_range_meters":20400,"station_id":"","pricing_plan_id":"cebpf4jnsgd1na2vs0mg"},{"bike_id":"f5ae7813-7d63-4234-a36a-b4b4d65b1974","system_id":"levelo_inurba_marseille","lat":43.29625,"lon":5.37721,"is_reserved":false,"is_disabled":false,"rental_uris":{"android":"levelo://app?vid=f5ae7813-7d63-4234-a36a-b4b4d65b1974","ios":"levelo://app?vid=f5ae7813-7d63-4234-a36a-b4b4d65b1974"},"vehicle_type_id":"4","last_reported":1762009688,"current_range_meters":20400,"station_id":"ce4bgi92rcd13ifvqb90","pricing_plan_id":"cebpf4jnsgd1na2vs0mg"},{"bike_id":"89ab327b-9ec9-4028-a58c-f23ebf7ca515","system_id":"levelo_inurba_marseille","lat":43.30183,"lon":5.36626,"is_reserved":false,"is_disabled":false,"rental_uris":{"android":"levelo://app?vid=89ab327b-9ec9-4028-a58c-f23ebf7ca515","ios":"levelo://app?vid=89ab327b-9ec9-4028-a58c-f23ebf7ca515"},"vehicle_type_id":"4","last_reported":1762009688,"current_range_meters":20400,"station_id":"ce4bgrh2rcd13ifvqc8g","pricing_plan_id":"cebpf4jnsgd1na2vs0mg"},{"bike_id":"085b7549-8e01-44d6-b54e-efb67a6a4662","system_id":"levelo_inurba_marseille","lat":43.28075,"lon":5.39659,"is_reserved":false,"is_disabled":false,"rental_uris":{"android":"levelo://app?vid=085b7549-8e01-44d6-b54e-efb67a6a4662","ios":"levelo://app?vid=085b7549-8e01-44d6-b54e-efb67a6a4662"},"vehicle_type_id":"4","last_reported":1762009688,"current_range_meters":20400,"station_id":"ce4bho12rcd13ifvqh2g","pricing_plan_id":"cebpf4jnsgd1na2vs0mg"},