{"last_updated":1714763169,"ttl":30,"version":"2.2","data":{"bikes":[{"bike_id":"0884453d-1df3-484e-b8ad-f707ba7385d9","system_id":"levelo_inurba_marseille","lat":43.31341,"lon":5.367098,"is_reserved":false,"is_disabled":false,"rental_uris":{"android":"levelo://app?vid=0884453d-1df3-484e-b8ad-f707ba7385d9","ios":"levelo://app?vid=0884453d-1df3-484e-b8ad-f707ba7385d9"},"vehicle_type_id":"4","last_reported":1714763169,"current_range_meters":23600,"station_id":"ce4bgr92rcd13ifvqc6g","pricing_plan_id":"cebpf4jnsgd1na2vs0mg"},{"bike_id":"194868e1-f48a-425c-9cfe-cf7de572ea28","system_id":"levelo_inurba_marseille","lat":43.31196,"lon":5.36827,"is_reserved":false,"is_disabled":false,"rental_uris":{"android":"levelo://app?vid=194868e1-f48a-425c-9cfe-cf7de572ea28","ios":"levelo://app?vid=194868e1-f48a-425c-9cfe-cf7de572ea28"},"vehicle_type_id":"4","last_reported":1714763169,"current_range_meters":6800,"station_id":"ce4bgl92rcd13ifvqbq0","pricing_plan_id":"cebpf4jnsgd1na2vs0mg"},{"bike_id":"40969caa-19ea-4902-9148-449e2a04387f","system_id":"levelo_inurba_marseille","lat":43.314811,"lon":5.373103,"is_reserved":false,"is_disabled":false,"rental_uris":{"android":"levelo://app?vid=40969caa-19ea-4902-9148-449e2a04387f","ios":"levelo://app?vid=40969caa-19ea-4902-9148-449e2a04387f"},"vehicle_type_id":"4","last_reported":1714763169,"current_range_meters":21600,"station_id":"ce4bgt12rcd13ifvqcd0","pricing_plan_id":"cebpf4jnsgd1na2vs0mg"},{"bike_id":"2ac352b4-3782-4191-9331-fdb2ee6b9eb7","system_id":"levelo_inurba_marseille","lat":43.314811,"lon":5.373103,"is_reserved":false,"is_disabled":false,"rental_uris":{"android":"levelo://app?vid=2ac352b4-3782-4191-9331-fdb2ee6b9eb7","ios":"levelo://app?vid=2ac352b4-3782-4191-9331-fdb2ee6b9eb7"},"vehicle_type_id":"4","last_reported":1714763169,"current_range_meters":29600,"station_id":"ce4bgt12rcd13ifvqcd0","pricing_plan_id":"cebpf4jnsgd1na2vs0mg"},{"bike_id":"6f4884c7-0a8e-4d4a-8100-6f87bb5aad5e","system_id":"levelo_inurba_marseille","lat":43.314811,"lon":5.373104,"is_reserved":false,"is_disabled":false,"rental_uris":{"android":"levelo://app?vid=6f4884c7-0a8e-4d4a-8100-6f87bb5aad5e","ios":"levelo://app?vid=6f4884c7-0a8e-4d4a-8100-6f87bb5aad5e"},"vehicle_type_id":"4","last_reported":1714763169,"current_range_meters":22400,"station_id":"ce4bgt12rcd13ifvqcd0","pricing_plan_id":"cebpf4jnsgd1na2vs0mg"},{"bike_id":"f484057d-25f9-4f72-8d2f-7b3a9b962718","system_id":"levelo_inurba_marseille","lat":43.309034,"lon":5.371783,"is_reserved":false,"is_disabled":false,"rental_uris":{"android":"levelo://app?vid=f484057d-25f9-4f72-8d2f-7b3a9b962718","ios":"levelo://app?vid=f484057d-25f9-4f72-8d2f-7b3a9b962718"},"vehicle_type_id":"4","last_reported":1714763169,"current_range_meters":0,"station_id":"ce4bguh2rcd13ifvqckg","pricing_plan_id":"cebpf4jnsgd1na2vs0mg"},{"bike_id":"7be61336-76bd-4e57-b73f-49e91af258ac","system_id":"levelo_inurba_marseille","lat":43.31433,"lon":5.374405,"is_reserved":false,"is_disabled":false,"rental_uris":{"android":"levelo://app?vid=7be61336-76bd-4e57-b73f-49e91af258ac","ios":"levelo://app?vid=7be61336-76bd-4e57-b73f-49e91af258ac"},"vehicle_type_id":"4","last_reported":1714763169,"current_range_meters":3200,"station_id":"","pricing_plan_id":"cebpf4jnsgd1na2vs0mg"},{"bike_id":"19c805ae-ee4f-4033-9eb8-f861c71be742","system_id":"levelo_inurba_marseille","lat":43.30642,"lon":5.36702,"is_reserved":false,"is_disabled":false,"rental_uris":{"android":"levelo://app?vid=19c805ae-ee4f-4033-9eb8-f861c71be742","ios":"levelo://app?vid=19c805ae-ee4f-4033-9eb8-f861c71be742"},"vehicle_type_id":"4","last_reported":1714763169,"current_range_meters":16800,"station_id":"","pricing_plan_id":"cebpf4jnsgd1na2vs0mg"},{"bike_id":"42576530-87f1-4531-a96a-c1cec2a730b0","system_id":"levelo_inurba_marseille","lat":43.305712,"lon":5.365641,"is_reserved":false,"is_disabled":false,"rental_uris":{"android":"levelo://app?vid=42576530-87f1-4531-a96a-c1cec2a730b0","ios":"levelo://app?vid=42576530-87f1-4531-a96a-c1cec2a730b0"},"vehicle_type_id":"4","last_reported":1714763169,"current_range_meters":14400,"station_id":"ce4bgs12rcd13ifvqcag","pricing_plan_id":"cebpf4jnsgd1na2vs0mg"},{"bike_id":"de6c8cad-677a-41d8-90ad-acef4138fd1d","system_id":"levelo_inurba_marseille","lat":43.305368,"lon":5.367343,"is_reserved":false,"is_disabled":false,"rental_uris":{"android":"levelo://app?vid=de6c8cad-677a-41d8-90ad-acef4138fd1d","ios":"levelo://app?vid=de6c8cad-677a-41d8-90ad-acef4138fd1d"},"vehicle_type_id":"4","last_reported":1714763169,"current_range_meters":0,"station_id":"ce4bgrp2rcd13ifvqc9g","pricing_plan_id":"cebpf4jnsgd1na2vs0mg"},{"bike_id":"0b10a0f5-6545-4749-9280-75bbf710e875","system_id":"levelo_inurba_marseille","lat":43.30539,"lon":5.36727,"is_reserved":false,"is_disabled":false,"rental_uris":{"android":"levelo://app?vid=0b10a0f5-6545-4749-9280-75bbf710e875","ios":"levelo://app?vid=0b10a0f5-6545-4749-9280-75bbf710e875"},"vehicle_type_id":"4","last_reported":1714763169,"current_range_meters":2400,"station_id":"ce4bgrp2rcd13ifvqc9g","pricing_plan_id":"cebpf4jnsgd1na2vs0mg"},{"bike_id":"e62fd66f-b7f7-4586-8da8-4d3728286b62","system_id":"levelo_inurba_marseille","lat":43.305714,"lon":5.365633,"is_reserved":false,"is_disabled":false,"rental_uris":{"android":"levelo://app?vid=e62fd66f-b7f7-4586-8da8-4d3728286b62","ios":"levelo://app?vid=e62fd66f-b7f7-4586-8da8-4d3728286b62"},"vehicle_type_id":"4","last_reported":1714763169,"current_range_meters":7200,"station_id":"ce4bgs12rcd13ifvqcag","pricing_plan_id":"cebpf4jnsgd1na2vs0mg"},{"bike_id":"d19be42e-f291-4aa4-ab6f-6f622953c8a0","system_id":"levelo_inurba_marseille","lat":43.305714,"lon":5.365633,"is_reserved":false,"is_disabled":false,"rental_uris":{"android":"levelo://app?vid=d19be42e-f291-4aa4-ab6f-6f622953c8a0","ios":"levelo://app?vid=d19be42e-f291-4aa4-ab6f-6f622953c8a0"},"vehicle_type_id":"4","last_reported":1714763169,"current_range_meters":15600,"station_id":"ce4bgs12rcd13ifvqcag","pricing_plan_id":"cebpf4jnsgd1na2vs0mg"},{"bike_id":"f4278bea-a82b-4381-8055-e707fc09c7e0","system_id":"levelo_inurba_marseille","lat":43.305263,"lon":5.365335,"is_reserved":false,"is_disabled":false,"rental_uris":{"android":"levelo://app?vid=f4278bea-a82b-4381-8055-e707fc09c7e0","ios":"levelo://app?vid=f4278bea-a82b-4381-8055-e707fc09c7e0"},"vehicle_type_id":"4","last_reported":1714763169,"current_range_meters":0,"station_id":"ce4bgs12rcd13ifvqcag","pricing_plan_id":"cebpf4jnsgd1na2vs0mg"},{"bike_id":"77c5b0d0-06f4-44ab-824b-71e8d7e8e5a6","system_id":"levelo_inurba_marseille","lat":43.305989,"lon":5.37225,"is_reserved":false,"is_disabled":false,"rental_uris":{"android":"levelo://app?vid=77c5b0d0-06f4-44ab-824b-71e8d7e8e5a6","ios":"levelo://app?vid=77c5b0d0-06f4-44ab-824b-71e8d7e8e5a6"},"vehicle_type_id":"4","last_reported":1714763169,"current_range_meters":0,"station_id":"ce4bgqh2rcd13ifvqc4g","pricing_plan_id":"cebpf4jnsgd1na2vs0mg"},{"bike_id":"7c744c76-4258-4420-ab7e-5b6fe4560b65","system_id":"levelo_inurba_marseille","lat":43.305989,"lon":5.37225,"is_reserved":false,"is_disabled":false,"rental_uris":{"android":"levelo://app?vid=7c744c76-4258-4420-ab7e-5b6fe4560b65","ios":"levelo://app?vid=7c744c76-4258-4420-ab7e-5b6fe4560b65"},"vehicle_type_id":"4","last_reported":1714763169,"current_range_meters":2000,"station_id":"ce4bgqh2rcd13ifvqc4g","pricing_plan_id":"cebpf4jnsgd1na2vs0mg"},{"bike_id":"1e04ae1a-3de4-4163-b48c-8e53c7fcb76a","system_id":"levelo_inurba_marseille","lat":43.305989,"lon":5.37225,"is_reserved":false,"is_disabled":false,"rental_uris":{"android":"levelo://app?vid=1e04ae1a-3de4-4163-b48c-8e53c7fcb76a","ios":"levelo://app?vid=1e04ae1a-3de4-4163-b48c-8e53c7fcb76a"},"vehicle_type_id":"4","last_reported":1714763169,"current_range_meters":14000,"station_id":"ce4bgqh2rcd13ifvqc4g","pricing_plan_id":"cebpf4jnsgd1na2vs0mg"},{"bike_id":"6d67401f-8ea5-4add-b0b1-4d32174bcf8a","system_id":"levelo_inurba_marseille","lat":43.305989,"lon":5.37225,"is_reserved":false,"is_disabled":false,"rental_uris":{"android":"levelo://app?vid=6d67401f-8ea5-4add-b0b1-4d32174bcf8a","ios":"levelo://app?vid=6d67401f-8ea5-4add-b0b1-4d32174bcf8a"},"vehicle_type_id":"4","last_reported":1714763169,"current_range_meters":9600,"station_id":"ce4bgqh2rcd13ifvqc4g","pricing_plan_id":"cebpf4jnsgd1na2vs0mg"},{"bike_id":"f7d77309-d140-41b5-ae84-bf6f6c40469f","system_id":"levelo_inurba_marseille","lat":43.311125,"lon":5.377624,"is_reserved":false,"is_disabled":false,"rental_uris":{"android":"levelo://app?vid=f7d77309-d140-41b5-ae84-bf6f6c40469f","ios":"levelo://app?vid=f7d77309-d140-41b5-ae84-bf6f6c40469f"},"vehicle_type_id":"4","last_reported":1714763169,"current_range_meters":2800,"station_id":"ce4bgt92rcd13ifvqcg0","pricing_plan_id":"cebpf4jnsgd1na2vs0mg"},{"bike_id":"ca43606a-19b0-44b7-811e-8c64280e79f3","system_id":"levelo_inurba_marseille","lat":43.31119,"lon":5.37778,"is_reserved":false,"is_disabled":false,"rental_uris":{"android":"levelo://app?vid=ca43606a-19b0-44b7-811e-8c64280e79f3","ios":"levelo://app?vid=ca43606a-19b0-44b7-811e-8c64280e79f3"},"vehicle_type_id":"4","last_reported":1714763169,"current_range_meters":2400,"station_id":"ce4bgt92rcd13ifvqcg0","pricing_plan_id":"cebpf4jnsgd1na2vs0mg"},{"bike_id":"1690ade3-f258-4077-9c3c-0a858ba89d0e","system_id":"levelo_inurba_marseille","lat":43.31102,"lon":5.37786,"is_reserved":false,"is_disabled":false,"rental_uris":{"android":"levelo://app?vid=1690ade3-f258-4077-9c3c-0a858ba89d0e","ios":"levelo://app?vid=1690ade3-f258-4077-9c3c-0a858ba89d0e"},"vehicle_type_id":"4","last_reported":1714763169,"current_range_meters":0,"station_id":"ce4bgt92rcd13ifvqcg0","pricing_plan_id":"cebpf4jnsgd1na2vs0mg"},{"bike_id":"3cd5781e-9c7c-47ad-b39e-6da7ec1b5dbb","system_id":"levelo_inurba_marseille","lat":43.30789,"lon":5.37653,"is_reserved":false,"is_disabled":false,"rental_uris":{"android":"levelo://app?vid=3cd5781e-9c7c-47ad-b39e-6da7ec1b5dbb","ios":"levelo://app?vid=3cd5781e-9c7c-47ad-b39e-6da7ec1b5dbb"},"vehicle_type_id":"4","last_reported":1714763169,"current_range_meters":0,"station_id":"ce4bgv92rcd13ifvqcq0","pricing_plan_id":"cebpf4jnsgd1na2vs0mg"},{"bike_id":"a3f98aa2-ce77-4029-ab6c-1db5e6047fe1","system_id":"levelo_inurba_marseille","lat":43.307945,"lon":5.376487,"is_reserved":false,"is_disabled":false,"rental_uris":{"android":"levelo://app?vid=a3f98aa2-ce77-4029-ab6c-1db5e6047fe1","ios":"levelo://app?vid=a3f98aa2-ce77-4029-ab6c-1db5e6047fe1"},"vehicle_type_id":"4","last_reported":1714763169,"current_range_meters":27600,"station_id":"ce4bgv92rcd13ifvqcq0","pricing_plan_id":"cebpf4jnsgd1na2vs0mg"},{"bike_id":"843a2394-f12b-430a-94a5-9de3545f59fd","system_id":"levelo_inurba_marseille","lat":43.315293,"lon":5.380349,"is_reserved":false,"is_disabled":false,"rental_uris":{"android":"levelo://app?vid=843a2394-f12b-430a-94a5-9de3545f59fd","ios":"levelo://app?vid=843a2394-f12b-430a-94a5-9de3545f59fd"},"vehicle_type_id":"4","last_reported":1714763169,"current_range_meters":30000,"station_id":"ce4bhsp2rcd13ifvqi50","pricing_plan_id":"cebpf4jnsgd1na2vs0mg"},{"bike_id":"bc56b1fc-fdaa-405b-8ab7-76d1696e5de8","system_id":"levelo_inurba_marseille","lat":43.315289,"lon":5.380349,"is_reserved":false,"is_disabled":false,"rental_uris":{"android":"levelo://app?vid=bc56b1fc-fdaa-405b-8ab7-76d1696e5de8","ios":"levelo://app?vid=bc56b1fc-fdaa-405b-8ab7-76d1696e5de8"},"vehicle_type_id":"4","last_reported":1714763169,"current_range_meters":30000,"station_id":"ce4bhsp2rcd13ifvqi50","pricing_plan_id":"cebpf4jnsgd1na2vs0mg"},{"bike_id":"eb0d1368-85cd-4a98-9542-b8265b052419","system_id":"levelo_inurba_marseille","lat":43.315289,"lon":5.380349,"is_reserved":false,"is_disabled":false,"rental_uris":{"android":"levelo://app?vid=eb0d1368-85cd-4a98-9542-b8265b052419","ios":"levelo://app?vid=eb0d1368-85cd-4a98-9542-b8265b052419"},"vehicle_type_id":"4","last_reported":1714763169,"current_range_meters":28800,"station_id":"ce4bhsp2rcd13ifvqi50","pricing_plan_id":"cebpf4jnsgd1na2vs0mg"},{"bike_id":"14fbf655-3abc-490f-93af-431069952cd9","system_id":"levelo_inurba_marseille","lat":43.301939,"lon":5.366286,"is_reserved":false,"is_disabled":false,"rental_uris":{"android":"levelo://app?vid=14fbf655-3abc-490f-93af-431069952cd9","ios":"levelo://app?vid=14fbf655-3abc-490f-93af-431069952cd9"},"vehicle_type_id":"4","last_reported":1714763169,"current_range_meters":26000,"station_id":"ce4bgrh2rcd13ifvqc8g","pricing_plan_id":"cebpf4jnsgd1na2vs0mg"},{"bike_id":"18fbdcd3-5529-4c31-b143-e62ae4bf9ae2","system_id":"levelo_inurba_marseille","lat":43.301939,"lon":5.366286,"is_reserved":false,"is_disabled":false,"rental_uris":{"android":"levelo://app?vid=18fbdcd3-5529-4c31-b143-e62ae4bf9ae2","ios":"levelo://app?vid=18fbdcd3-5529-4c31-b143-e62ae4bf9ae2"},"vehicle_type_id":"4","last_reported":1714763169,"current_range_meters":0,"station_id":"ce4bgrh2rcd13ifvqc8g","pricing_plan_id":"cebpf4jnsgd1na2vs0mg"},{"bike_id":"ce9eae6c-adff-47dd-8091-d4d5d48243b0","system_id":"levelo_inurba_marseille","lat":43.308012,"lon":5.381511,"is_reserved":false,"is_disabled":false,"rental_uris":{"android":"levelo://app?vid=ce9eae6c-adff-47dd-8091-d4d5d48243b0","ios":"levelo://app?vid=ce9eae6c-adff-47dd-8091-d4d5d48243b0"},"vehicle_type_id":"4","last_reported":1714763169,"current_range_meters":28000,"station_id":"ce4bgt12rcd13ifvqce0","pricing_plan_id":"cebpf4jnsgd1na2vs0mg"},{"bike_id":"7424d312-8042-46a7-93a1-0f2b2bca3a05","system_id":"levelo_inurba_marseille","lat":43.308012,"lon":5.381511,"is_reserved":false,"is_disabled":false,"rental_uris":{"android":"levelo://app?vid=7424d312-8042-46a7-93a1-0f2b2bca3a05","ios":"levelo://app?vid=7424d312-8042-46a7-93a1-0f2b2bca3a05"},"vehicle_type_id":"4","last_reported":1714763169,"current_range_meters":0,"station_id":"ce4bgt12rcd13ifvqce0","pricing_plan_id":"cebpf4jnsgd1na2vs0mg"},{"bike_id":"865c1a52-28be-4081-b828-c226738ceca2","system_id":"levelo_inurba_marseille","lat":43.30458,"lon":5.37888,"is_reserved":false,"is_disabled":false,"rental_uris":{"android":"levelo://app?vid=865c1a52-28be-4081-b828-c226738ceca2","ios":"levelo://app?vid=865c1a52-28be-4081-b828-c226738ceca2"},"vehicle_type_id":"4","last_reported":1714763169,"current_range_meters":0,"station_id":"ce4bgup2rcd13ifvqcn0","pricing_plan_id":"cebpf4jnsgd1na2vs0mg"},{"bike_id":"da97bf8c-1a48-4282-af80-c37b5203e5fe","system_id":"levelo_inurba_marseille","lat":43.304606,"lon":5.379026,"is_reserved":false,"is_disabled":false,"rental_uris":{"android":"levelo://app?vid=da97bf8c-1a48-4282-af80-c37b5203e5fe","ios":"levelo://app?vid=da97bf8c-1a48-4282-af80-c37b5203e5fe"},"vehicle_type_id":"4","last_reported":1714763169,"current_range_meters":400,"station_id":"ce4bgup2rcd13ifvqcn0","pricing_plan_id":"cebpf4jnsgd1na2vs0mg"},{"bike_id":"226e4145-da03-453b-b038-cb861c0ed96a","system_id":"levelo_inurba_marseille","lat":43.304606,"lon":5.379026,"is_reserved":false,"is_disabled":false,"rental_uris":{"android":"levelo://app?vid=226e4145-da03-453b-b038-cb861c0ed96a","ios":"levelo://app?vid=226e4145-da03-453b-b038-cb861c0ed96a"},"vehicle_type_id":"4","last_reported":1714763169,"current_range_meters":2800,"station_id":"ce4bgup2rcd13ifvqcn0","pricing_plan_id":"cebpf4jnsgd1na2vs0mg"},{"bike_id":"1e121b67-cf83-4412-9bae-0d58c264f2f5","system_id":"levelo_inurba_marseille","lat":43.304606,"lon":5.379026,"is_reserved":false,"is_disabled":false,"rental_uris":{"android":"levelo://app?vid=1e121b67-cf83-4412-9bae-0d58c264f2f5","ios":"levelo://app?vid=1e121b67-cf83-4412-9bae-0d58c264f2f5"},"vehicle_type_id":"4","last_reported":1714763169,"current_range_meters":2800,"station_id":"ce4bgup2rcd13ifvqcn0","pricing_plan_id":"cebpf4jnsgd1na2vs0mg"},{"bike_id":"131fd9c9-d04b-4f3d-905e-077476faa718","system_id":"levelo_inurba_marseille","lat":43.304606,"lon":5.379026,"is_reserved":false,"is_disabled":false,"rental_uris":{"android":"levelo://app?vid=131fd9c9-d04b-4f3d-905e-077476faa718","ios":"levelo://app?vid=131fd9c9-d04b-4f3d-905e-077476faa718"},"vehicle_type_id":"4","last_reported":1714763169,"current_range_meters":10400,"station_id":"ce4bgup2rcd13ifvqcn0","pricing_plan_id":"cebpf4jnsgd1na2vs0mg"},{"bike_id":"af49242b-82c6-41b1-9ba6-7ee0fba1db40","system_id":"levelo_inurba_marseille","lat":43.304606,"lon":5.379026,"is_reserved":false,"is_disabled":false,"rental_uris":{"android":"levelo://app?vid=af49242b-82c6-41b1-9ba6-7ee0fba1db40","ios":"levelo://app?vid=af49242b-82c6-41b1-9ba6-7ee0fba1db40"},"vehicle_type_id":"4","last_reported":1714763169,"current_range_meters":25200,"station_id":"ce4bgup2rcd13ifvqcn0","pricing_plan_id":"cebpf4jnsgd1na2vs0mg"},{"bike_id":"2b8738c8-0a2e-4e2c-aade-58bb6e8fa134","system_id":"levelo_inurba_marseille","lat":43.304606,"lon":5.379026,"is_reserved":false,"is_disabled":false,"rental_uris":{"android":"levelo://app?vid=2b8738c8-0a2e-4e2c-aade-58bb6e8fa134","ios":"levelo://app?vid=2b8738c8-0a2e-4e2c-aade-58bb6e8fa134"},"vehicle_type_id":"4","last_reported":1714763169,"current_range_meters":0,"station_id":"ce4bgup2rcd13ifvqcn0","pricing_plan_id":"cebpf4jnsgd1na2vs0mg"},{"bike_id":"46ddee76-99a1-44b8-8282-c8d365225419","system_id":"levelo_inurba_marseille","lat":43.324771,"lon":5.36557,"is_reserved":false,"is_disabled":false,"rental_uris":{"android":"levelo://app?vid=46ddee76-99a1-44b8-8282-c8d365225419","ios":"levelo://app?vid=46ddee76-99a1-44b8-8282-c8d365225419"},"vehicle_type_id":"4","last_reported":1714763169,"current_range_meters":3600,"station_id":"ce4bhs12rcd13ifvqhvg","pricing_plan_id":"cebpf4jnsgd1na2vs0mg"},{"bike_id":"f1810f30-de1d-43db-99e3-9ac794fc962f","system_id":"levelo_inurba_marseille","lat":43.324778,"lon":5.365809,"is_reserved":false,"is_disabled":false,"rental_uris":{"android":"levelo://app?vid=f1810f30-de1d-43db-99e3-9ac794fc962f","ios":"levelo://app?vid=f1810f30-de1d-43db-99e3-9ac794fc962f"},"vehicle_type_id":"4","last_reported":1714763169,"current_range_meters":0,"station_id":"ce4bhs12rcd13ifvqhvg","pricing_plan_id":"cebpf4jnsgd1na2vs0mg"},{"bike_id":"dff9f089-e9ad-49de-be1b-ef405955dfcc","system_id":"levelo_inurba_marseille","lat":43.324777,"lon":5.36558,"is_reserved":false,"is_disabled":false,"rental_uris":{"android":"levelo://app?vid=dff9f089-e9ad-49de-be1b-ef405955dfcc","ios":"levelo://app?vid=dff9f089-e9ad-49de-be1b-ef405955dfcc"},"vehicle_type_id":"4","last_reported":1714763169,"current_range_meters":8000,"station_id":"ce4bhs12rcd13ifvqhvg","pricing_plan_id":"cebpf4jnsgd1na2vs0mg"},{"bike_id":"e0baa39e-cffd-4823-bd93-a1ffe73b5a4c","system_id":"levelo_inurba_marseille","lat":43.32479,"lon":5.36567,"is_reserved":false,"is_disabled":false,"rental_uris":{"android":"levelo://app?vid=e0baa39e-cffd-4823-bd93-a1ffe73b5a4c","ios":"levelo://app?vid=e0baa39e-cffd-4823-bd93-a1ffe73b5a4c"},"vehicle_type_id":"4","last_reported":1714763169,"current_range_meters":0,"station_id":"ce4bhs12rcd13ifvqhvg","pricing_plan_id":"cebpf4jnsgd1na2vs0mg"},{"bike_id":"71b4d2f9-5601-41a8-b2ae-86f6e20a127f","system_id":"levelo_inurba_marseille","lat":43.324771,"lon":5.36557,"is_reserved":false,"is_disabled":false,"rental_uris":{"android":"levelo://app?vid=71b4d2f9-5601-41a8-b2ae-86f6e20a127f","ios":"levelo://app?vid=71b4d2f9-5601-41a8-b2ae-86f6e20a127f"},"vehicle_type_id":"4","last_reported":1714763169,"current_range_meters":13200,"station_id":"ce4bhs12rcd13ifvqhvg","pricing_plan_id":"cebpf4jnsgd1na2vs0mg"},{"bike_id":"8bfbedd1-ce45-4313-b336-4cd6308fff65","system_id":"levelo_inurba_marseille","lat":43.324817,"lon":5.365558,"is_reserved":false,"is_disabled":false,"rental_uris":{"android":"levelo://app?vid=8bfbedd1-ce45-4313-b336-4cd6308fff65","ios":"levelo://app?vid=8bfbedd1-ce45-4313-b336-4cd6308fff65"},"vehicle_type_id":"4","last_reported":1714763169,"current_range_meters":23200,"station_id":"ce4bhs12rcd13ifvqhvg","pricing_plan_id":"cebpf4jnsgd1na2vs0mg"},{"bike_id":"4ecf1310-b05d-4109-8ee3-de0bb58656b7","system_id":"levelo_inurba_marseille","lat":43.324771,"lon":5.36557,"is_reserved":false,"is_disabled":false,"rental_uris":{"android":"levelo://app?vid=4ecf1310-b05d-4109-8ee3-de0bb58656b7","ios":"levelo://app?vid=4ecf1310-b05d-4109-8ee3-de0bb58656b7"},"vehicle_type_id":"4","last_reported":1714763169,"current_range_meters":9200,"station_id":"ce4bhs12rcd13ifvqhvg","pricing_plan_id":"cebpf4jnsgd1na2vs0mg"},{"bike_id":"a20a7680-f589-4e66-8659-cb2023b618d3","system_id":"levelo_inurba_marseille","lat":43.310804,"lon":5.38359,"is_reserved":false,"is_disabled":false,"rental_uris":{"android":"levelo://app?vid=a20a7680-f589-4e66-8659-cb2023b618d3","ios":"levelo://app?vid=a20a7680-f589-4e66-8659-cb2023b618d3"},"vehicle_type_id":"4","last_reported":1714763169,"current_range_meters":0,"station_id":"ce4bgv92rcd13ifvqcr0","pricing_plan_id":"cebpf4jnsgd1na2vs0mg"},{"bike_id":"e8abf879-fab1-433a-9910-13fd46a76e73","system_id":"levelo_inurba_marseille","lat":43.310804,"lon":5.38359,"is_reserved":false,"is_disabled":false,"rental_uris":{"android":"levelo://app?vid=e8abf879-fab1-433a-9910-13fd46a76e73","ios":"levelo://app?vid=e8abf879-fab1-433a-9910-13fd46a76e73"},"vehicle_type_id":"4","last_reported":1714763169,"current_range_meters":1200,"station_id":"ce4bgv92rcd13ifvqcr0","pricing_plan_id":"cebpf4jnsgd1na2vs0mg"},{"bike_id":"a2349dc4-5160-497d-b4da-6d15e2ba2c88","system_id":"levelo_inurba_marseille","lat":43.310804,"lon":5.38359,"is_reserved":false,"is_disabled":false,"rental_uris":{"android":"levelo://app?vid=a2349dc4-5160-497d-b4da-6d15e2ba2c88","ios":"levelo://app?vid=a2349dc4-5160-497d-b4da-6d15e2ba2c88"},"vehicle_type_id":"4","last_reported":1714763169,"current_range_meters":0,"station_id":"ce4bgv92rcd13ifvqcr0","pricing_plan_id":"cebpf4jnsgd1na2vs0mg"},{"bike_id":"a28cb40f-50fa-415b-b0e8-a70b4c8f843c","system_id":"levelo_inurba_marseille","lat":43.301429,"lon":5.37413,"is_reserved":false,"is_disabled":false,"rental_uris":{"android":"levelo://app?vid=a28cb40f-50fa-415b-b0e8-a70b4c8f843c","ios":"levelo://app?vid=a28cb40f-50fa-415b-b0e8-a70b4c8f843c"},"vehicle_type_id":"4","last_reported":1714763169,"current_range_meters":0,"station_id":"ce4bgs92rcd13ifvqcc0","pricing_plan_id":"cebpf4jnsgd1na2vs0mg"},{"bike_id":"b9c7251e-b61e-46db-8bb5-7fab96ca51ad","system_id":"levelo_inurba_marseille","lat":43.302784,"lon":5.377158,"is_reserved":false,"is_disabled":false,"rental_uris":{"android":"levelo://app?vid=b9c7251e-b61e-46db-8bb5-7fab96ca51ad","ios":"levelo://app?vid=b9c7251e-b61e-46db-8bb5-7fab96ca51ad"},"vehicle_type_id":"4","last_reported":1714763169,"current_range_meters":3600,"station_id":"ce4bguh2rcd13ifvqcj0","pricing_plan_id":"cebpf4jnsgd1na2vs0mg"},{"bike_id":"165cfbcc-b269-4f37-8842-fda900dbaa6e","system_id":"levelo_inurba_marseille","lat":43.317557,"lon":5.390173,"is_reserved":false,"is_disabled":false,"rental_uris":{"android":"levelo://app?vid=165cfbcc-b269-4f37-8842-fda900dbaa6e","ios":"levelo://app?vid=165cfbcc-b269-4f37-8842-fda900dbaa6e"},"vehicle_type_id":"4","last_reported":1714763169,"current_range_meters":14000,"station_id":"ce4bhqp2rcd13ifvqhng","pricing_plan_id":"cebpf4jnsgd1na2vs0mg"},{"bike_id":"c5382336-c6bc-4a28-b397-b163d1a6019d","system_id":"levelo_inurba_marseille","lat":43.299222,"lon":5.365554,"is_reserved":false,"is_disabled":false,"rental_uris":{"android":"levelo://app?vid=c5382336-c6bc-4a28-b397-b163d1a6019d","ios":"levelo://app?vid=c5382336-c6bc-4a28-b397-b163d1a6019d"},"vehicle_type_id":"4","last_reported":1714763169,"current_range_meters":18400,"station_id":"ce4bgm92rcd13ifvqbr0","pricing_plan_id":"cebpf4jnsgd1na2vs0mg"},{"bike_id":"c7c2b076-94b8-4d5a-9e9d-ddbc88b041ec","system_id":"levelo_inurba_marseille","lat":43.319935,"lon":5.381699,"is_reserved":false,"is_disabled":false,"rental_uris":{"android":"levelo://app?vid=c7c2b076-94b8-4d5a-9e9d-ddbc88b041ec","ios":"levelo://app?vid=c7c2b076-94b8-4d5a-9e9d-ddbc88b041ec"},"vehicle_type_id":"4","last_reported":1714763169,"current_range_meters":14000,"station_id":"ce4bhr12rcd13ifvqhpg","pricing_plan_id":"cebpf4jnsgd1na2vs0mg"},{"bike_id":"0d08a466-6e9f-49b7-8f58-29ada7342f71","system_id":"levelo_inurba_marseille","lat":43.31996,"lon":5.3816,"is_reserved":false,"is_disabled":false,"rental_uris":{"android":"levelo://app?vid=0d08a466-6e9f-49b7-8f58-29ada7342f71","ios":"levelo://app?vid=0d08a466-6e9f-49b7-8f58-29ada7342f71"},"vehicle_type_id":"4","last_reported":1714763169,"current_range_meters":8400,"station_id":"ce4bhr12rcd13ifvqhpg","pricing_plan_id":"cebpf4jnsgd1na2vs0mg"},{"bike_id":"dc7e05cd-fec3-40a7-b824-707041b11a91","system_id":"levelo_inurba_marseille","lat":43.299222,"lon":5.365554,"is_reserved":false,"is_disabled":false,"rental_uris":{"android":"levelo://app?vid=dc7e05cd-fec3-40a7-b824-707041b11a91","ios":"levelo://app?vid=dc7e05cd-fec3-40a7-b824-707041b11a91"},"vehicle_type_id":"4","last_reported":1714763169,"current_range_meters":13600,"station_id":"ce4bgm92rcd13ifvqbr0","pricing_plan_id":"cebpf4jnsgd1na2vs0mg"},{"bike_id":"11cf05c4-1eb8-425b-9164-aa20810ac3cd","system_id":"levelo_inurba_marseille","lat":43.29942,"lon":5.36562,"is_reserved":false,"is_disabled":false,"rental_uris":{"android":"levelo://app?vid=11cf05c4-1eb8-425b-9164-aa20810ac3cd","ios":"levelo://app?vid=11cf05c4-1eb8-425b-9164-aa20810ac3cd"},"vehicle_type_id":"4","last_reported":1714763169,"current_range_meters":26800,"station_id":"ce4bgm92rcd13ifvqbr0","pricing_plan_id":"cebpf4jnsgd1na2vs0mg"},{"bike_id":"f60a9820-b7e5-4e39-ac09-9451d4e9a75f","system_id":"levelo_inurba_marseille","lat":43.299401,"lon":5.365389,"is_reserved":false,"is_disabled":false,"rental_uris":{"android":"levelo://app?vid=f60a9820-b7e5-4e39-ac09-9451d4e9a75f","ios":"levelo://app?vid=f60a9820-b7e5-4e39-ac09-9451d4e9a75f"},"vehicle_type_id":"4","last_reported":1714763169,"current_range_meters":24800,"station_id":"ce4bgm92rcd13ifvqbr0","pricing_plan_id":"cebpf4jnsgd1na2vs0mg"},{"bike_id":"77bc6bc3-7cf5-4a37-9694-ca7ba0523327","system_id":"levelo_inurba_marseille","lat":43.299222,"lon":5.365554,"is_reserved":false,"is_disabled":false,"rental_uris":{"android":"levelo://app?vid=77bc6bc3-7cf5-4a37-9694-ca7ba0523327","ios":"levelo://app?vid=77bc6bc3-7cf5-4a37-9694-ca7ba0523327"},"vehicle_type_id":"4","last_reported":1714763169,"current_range_meters":0,"station_id":"ce4bgm92rcd13ifvqbr0","pricing_plan_id":"cebpf4jnsgd1na2vs0mg"},{"bike_id":"aad9d247-e24e-4321-ae1e-a98defd3cc2c","system_id":"levelo_inurba_marseille","lat":43.29978,"lon":5.37177,"is_reserved":false,"is_disabled":false,"rental_uris":{"android":"levelo://app?vid=aad9d247-e24e-4321-ae1e-a98defd3cc2c","ios":"levelo://app?vid=aad9d247-e24e-4321-ae1e-a98defd3cc2c"},"vehicle_type_id":"4","last_reported":1714763169,"current_range_meters":6800,"station_id":"ce4bgr92rcd13ifvqc7g","pricing_plan_id":"cebpf4jnsgd1na2vs0mg"},{"bike_id":"f580990b-c83a-4f0b-9f8c-5c5a2410c7c8","system_id":"levelo_inurba_marseille","lat":43.299724,"lon":5.371829,"is_reserved":false,"is_disabled":false,"rental_uris":{"android":"levelo://app?vid=f580990b-c83a-4f0b-9f8c-5c5a2410c7c8","ios":"levelo://app?vid=f580990b-c83a-4f0b-9f8c-5c5a2410c7c8"},"vehicle_type_id":"4","last_reported":1714763169,"current_range_meters":11600,"station_id":"ce4bgr92rcd13ifvqc7g","pricing_plan_id":"cebpf4jnsgd1na2vs0mg"},{"bike_id":"269d1191-6545-42f6-aaec-d4327a3c2fec","system_id":"levelo_inurba_marseille","lat":43.29965,"lon":5.371766,"is_reserved":false,"is_disabled":false,"rental_uris":{"android":"levelo://app?vid=269d1191-6545-42f6-aaec-d4327a3c2fec","ios":"levelo://app?vid=269d1191-6545-42f6-aaec-d4327a3c2fec"},"vehicle_type_id":"4","last_reported":1714763169,"current_range_meters":4000,"station_id":"ce4bgr92rcd13ifvqc7g","pricing_plan_id":"cebpf4jnsgd1na2vs0mg"},{"bike_id":"690dfbe3-f0f4-4457-97ac-6d2e2e3b686f","system_id":"levelo_inurba_marseille","lat":43.29968,"lon":5.37192,"is_reserved":false,"is_disabled":false,"rental_uris":{"android":"levelo://app?vid=690dfbe3-f0f4-4457-97ac-6d2e2e3b686f","ios":"levelo://app?vid=690dfbe3-f0f4-4457-97ac-6d2e2e3b686f"},"vehicle_type_id":"4","last_reported":1714763169,"current_range_meters":9600,"station_id":"ce4bgr92rcd13ifvqc7g","pricing_plan_id":"cebpf4jnsgd1na2vs0mg"},{"bike_id":"dd96acb4-0881-49b6-9e6d-e3a32a9ad39e","system_id":"levelo_inurba_marseille","lat":43.298433,"lon":5.362774,"is_reserved":false,"is_disabled":false,"rental_uris":{"android":"levelo://app?vid=dd96acb4-0881-49b6-9e6d-e3a32a9ad39e","ios":"levelo://app?vid=dd96acb4-0881-49b6-9e6d-e3a32a9ad39e"},"vehicle_type_id":"4","last_reported":1714763169,"current_range_meters":7600,"station_id":"ce4bgpp2rcd13ifvqc3g","pricing_plan_id":"cebpf4jnsgd1na2vs0mg"},{"bike_id":"489f4bee-e649-405b-8e56-6bf9c260d1a9","system_id":"levelo_inurba_marseille","lat":43.32247,"lon":5.38115,"is_reserved":false,"is_disabled":false,"rental_uris":{"android":"levelo://app?vid=489f4bee-e649-405b-8e56-6bf9c260d1a9","ios":"levelo://app?vid=489f4bee-e649-405b-8e56-6bf9c260d1a9"},"vehicle_type_id":"4","last_reported":1714763169,"current_range_meters":0,"station_id":"","pricing_plan_id":"cebpf4jnsgd1na2vs0mg"},{"bike_id":"cece6e37-6428-4118-9b30-04e5696cad42","system_id":"levelo_inurba_marseille","lat":43.299243,"lon":5.37481,"is_reserved":false,"is_disabled":false,"rental_uris":{"android":"levelo://app?vid=cece6e37-6428-4118-9b30-04e5696cad42","ios":"levelo://app?vid=cece6e37-6428-4118-9b30-04e5696cad42"},"vehicle_type_id":"4","last_reported":1714763169,"current_range_meters":24800,"station_id":"ce4bgjh2rcd13ifvqbg0","pricing_plan_id":"cebpf4jnsgd1na2vs0mg"},{"bike_id":"17619db0-7285-41ee-b621-6ac2bb713c0a","system_id":"levelo_inurba_marseille","lat":43.298433,"lon":5.362774,"is_reserved":false,"is_disabled":false,"rental_uris":{"android":"levelo://app?vid=17619db0-7285-41ee-b621-6ac2bb713c0a","ios":"levelo://app?vid=17619db0-7285-41ee-b621-6ac2bb713c0a"},"vehicle_type_id":"4","last_reported":1714763169,"current_range_meters":31200,"station_id":"ce4bgpp2rcd13ifvqc3g","pricing_plan_id":"cebpf4jnsgd1na2vs0mg"},{"bike_id":"339b644e-e0fc-4646-9294-334c8f1f8e84","system_id":"levelo_inurba_marseille","lat":43.299243,"lon":5.374807,"is_reserved":false,"is_disabled":false,"rental_uris":{"android":"levelo://app?vid=339b644e-e0fc-4646-9294-334c8f1f8e84","ios":"levelo://app?vid=339b644e-e0fc-4646-9294-334c8f1f8e84"},"vehicle_type_id":"4","last_reported":1714763169,"current_range_meters":5200,"station_id":"ce4bgjh2rcd13ifvqbg0","pricing_plan_id":"cebpf4jnsgd1na2vs0mg"},{"bike_id":"10819799-f1b9-46a6-892d-5df1459126ef","system_id":"levelo_inurba_marseille","lat":43.29844,"lon":5.36272,"is_reserved":false,"is_disabled":false,"rental_uris":{"android":"levelo://app?vid=10819799-f1b9-46a6-892d-5df1459126ef","ios":"levelo://app?vid=10819799-f1b9-46a6-892d-5df1459126ef"},"vehicle_type_id":"4","last_reported":1714763169,"current_range_meters":5600,"station_id":"ce4bgpp2rcd13ifvqc3g","pricing_plan_id":"cebpf4jnsgd1na2vs0mg"},{"bike_id":"b9f99b1b-e7de-4220-8fc1-8720529cfbe9","system_id":"levelo_inurba_marseille","lat":43.29839,"lon":5.36263,"is_reserved":false,"is_disabled":false,"rental_uris":{"android":"levelo://app?vid=b9f99b1b-e7de-4220-8fc1-8720529cfbe9","ios":"levelo://app?vid=b9f99b1b-e7de-4220-8fc1-8720529cfbe9"},"vehicle_type_id":"4","last_reported":1714763169,"current_range_meters":16800,"station_id":"ce4bgpp2rcd13ifvqc3g","pricing_plan_id":"cebpf4jnsgd1na2vs0mg"},{"bike_id":"2ef30124-78ab-41d0-842b-e82bad6b0a91","system_id":"levelo_inurba_marseille","lat":43.311722,"lon":5.387247,"is_reserved":false,"is_disabled":false,"rental_uris":{"android":"levelo://app?vid=2ef30124-78ab-41d0-842b-e82bad6b0a91","ios":"levelo://app?vid=2ef30124-78ab-41d0-842b-e82bad6b0a91"},"vehicle_type_id":"4","last_reported":1714763169,"current_range_meters":19600,"station_id":"ce4bgv12rcd13ifvqcp0","pricing_plan_id":"cebpf4jnsgd1na2vs0mg"},{"bike_id":"73065751-57c3-487f-a44f-db9f4baaf30a","system_id":"levelo_inurba_marseille","lat":43.299243,"lon":5.37481,"is_reserved":false,"is_disabled":false,"rental_uris":{"android":"levelo://app?vid=73065751-57c3-487f-a44f-db9f4baaf30a","ios":"levelo://app?vid=73065751-57c3-487f-a44f-db9f4baaf30a"},"vehicle_type_id":"4","last_reported":1714763169,"current_range_meters":31200,"station_id":"ce4bgjh2rcd13ifvqbg0","pricing_plan_id":"cebpf4jnsgd1na2vs0mg"},{"bike_id":"eb421157-6de9-47f7-b2a5-5ae88ce632f3","system_id":"levelo_inurba_marseille","lat":43.311722,"lon":5.387247,"is_reserved":false,"is_disabled":false,"rental_uris":{"android":"levelo://app?vid=eb421157-6de9-47f7-b2a5-5ae88ce632f3","ios":"levelo://app?vid=eb421157-6de9-47f7-b2a5-5ae88ce632f3"},"vehicle_type_id":"4","last_reported":1714763169,"current_range_meters":15200,"station_id":"ce4bgv12rcd13ifvqcp0","pricing_plan_id":"cebpf4jnsgd1na2vs0mg"},{"bike_id":"bf4acb4c-d38a-427d-940e-57842c74ee30","system_id":"levelo_inurba_marseille","lat":43.311722,"lon":5.387247,"is_reserved":false,"is_disabled":false,"rental_uris":{"android":"levelo://app?vid=bf4acb4c-d38a-427d-940e-57842c74ee30","ios":"levelo://app?vid=bf4acb4c-d38a-427d-940e-57842c74ee30"},"vehicle_type_id":"4","last_reported":1714763169,"current_range_meters":6000,"station_id":"ce4bgv12rcd13ifvqcp0","pricing_plan_id":"cebpf4jnsgd1na2vs0mg"},{"bike_id":"a1c8dcb4-18aa-420d-b0de-dc9af6fe06c1","system_id":"levelo_inurba_marseille","lat":43.311722,"lon":5.387247,"is_reserved":false,"is_disabled":false,"rental_uris":{"android":"levelo://app?vid=a1c8dcb4-18aa-420d-b0de-dc9af6fe06c1","ios":"levelo://app?vid=a1c8dcb4-18aa-420d-b0de-dc9af6fe06c1"},"vehicle_type_id":"4","last_reported":1714763169,"current_range_meters":24400,"station_id":"ce4bgv12rcd13ifvqcp0","pricing_plan_id":"cebpf4jnsgd1na2vs0mg"},{"bike_id":"136190d8-4b48-416f-b840-f6f4f33d5532","system_id":"levelo_inurba_marseille","lat":43.299243,"lon":5.37481,"is_reserved":false,"is_disabled":false,"rental_uris":{"android":"levelo://app?vid=136190d8-4b48-416f-b840-f6f4f33d5532","ios":"levelo://app?vid=136190d8-4b48-416f-b840-f6f4f33d5532"},"vehicle_type_id":"4","last_reported":1714763169,"current_range_meters":0,"station_id":"ce4bgjh2rcd13ifvqbg0","pricing_plan_id":"cebpf4jnsgd1na2vs0mg"},{"bike_id":"f57c5394-ec7b-4a15-8394-3af297f455a5","system_id":"levelo_inurba_marseille","lat":43.31178,"lon":5.38718,"is_reserved":false,"is_disabled":false,"rental_uris":{"android":"levelo://app?vid=f57c5394-ec7b-4a15-8394-3af297f455a5","ios":"levelo://app?vid=f57c5394-ec7b-4a15-8394-3af297f455a5"},"vehicle_type_id":"4","last_reported":1714763169,"current_range_meters":2000,"station_id":"ce4bgv12rcd13ifvqcp0","pricing_plan_id":"cebpf4jnsgd1na2vs0mg"},{"bike_id":"77aaeb51-e4ab-4731-845b-a5d9b3fa3250","system_id":"levelo_inurba_marseille","lat":43.311722,"lon":5.387247,"is_reserved":false,"is_disabled":false,"rental_uris":{"android":"levelo://app?vid=77aaeb51-e4ab-4731-845b-a5d9b3fa3250","ios":"levelo://app?vid=77aaeb51-e4ab-4731-845b-a5d9b3fa3250"},"vehicle_type_id":"4","last_reported":1714763169,"current_range_meters":13600,"station_id":"ce4bgv12rcd13ifvqcp0","pricing_plan_id":"cebpf4jnsgd1na2vs0mg"},{"bike_id":"b2c16f7f-eff4-4e48-89d5-71c4b16ad800","system_id":"levelo_inurba_marseille","lat":43.3116,"lon":5.38722,"is_reserved":false,"is_disabled":false,"rental_uris":{"android":"levelo://app?vid=b2c16f7f-eff4-4e48-89d5-71c4b16ad800","ios":"levelo://app?vid=b2c16f7f-eff4-4e48-89d5-71c4b16ad800"},"vehicle_type_id":"4","last_reported":1714763169,"current_range_meters":4800,"station_id":"ce4bgv12rcd13ifvqcp0","pricing_plan_id":"cebpf4jnsgd1na2vs0mg"},{"bike_id":"3d4d792b-8cdf-4380-8ce0-4952c066a680","system_id":"levelo_inurba_marseille","lat":43.31174,"lon":5.38725,"is_reserved":false,"is_disabled":false,"rental_uris":{"android":"levelo://app?vid=3d4d792b-8cdf-4380-8ce0-4952c066a680","ios":"levelo://app?vid=3d4d792b-8cdf-4380-8ce0-4952c066a680"},"vehicle_type_id":"4","last_reported":1714763169,"current_range_meters":12000,"station_id":"ce4bgv12rcd13ifvqcp0","pricing_plan_id":"cebpf4jnsgd1na2vs0mg"},{"bike_id":"6dfb0795-2a7c-4296-a525-1b26621bf791","system_id":"levelo_inurba_marseille","lat":43.311722,"lon":5.387247,"is_reserved":false,"is_disabled":false,"rental_uris":{"android":"levelo://app?vid=6dfb0795-2a7c-4296-a525-1b26621bf791","ios":"levelo://app?vid=6dfb0795-2a7c-4296-a525-1b26621bf791"},"vehicle_type_id":"4","last_reported":1714763169,"current_range_meters":4000,"station_id":"ce4bgv12rcd13ifvqcp0","pricing_plan_id":"cebpf4jnsgd1na2vs0mg"},{"bike_id":"982d5251-bf6a-4a9c-bebb-13273f6b98a1","system_id":"levelo_inurba_marseille","lat":43.311686,"lon":5.387257,"is_reserved":false,"is_disabled":false,"rental_uris":{"android":"levelo://app?vid=982d5251-bf6a-4a9c-bebb-13273f6b98a1","ios":"levelo://app?vid=982d5251-bf6a-4a9c-bebb-13273f6b98a1"},"vehicle_type_id":"4","last_reported":1714763169,"current_range_meters":0,"station_id":"ce4bgv12rcd13ifvqcp0","pricing_plan_id":"cebpf4jnsgd1na2vs0mg"},{"bike_id":"874efe8e-55ba-4d2a-9be4-4f6c71887c17","system_id":"levelo_inurba_marseille","lat":43.311722,"lon":5.387247,"is_reserved":false,"is_disabled":false,"rental_uris":{"android":"levelo://app?vid=874efe8e-55ba-4d2a-9be4-4f6c71887c17","ios":"levelo://app?vid=874efe8e-55ba-4d2a-9be4-4f6c71887c17"},"vehicle_type_id":"4","last_reported":1714763169,"current_range_meters":20000,"station_id":"ce4bgv12rcd13ifvqcp0","pricing_plan_id":"cebpf4jnsgd1na2vs0mg"},{"bike_id":"c7897f93-193e-47e7-8e78-2ae117357995","system_id":"levelo_inurba_marseille","lat":43.298165,"lon":5.371009,"is_reserved":false,"is_disabled":false,"rental_uris":{"android":"levelo://app?vid=c7897f93-193e-47e7-8e78-2ae117357995","ios":"levelo://app?vid=c7897f93-193e-47e7-8e78-2ae117357995"},"vehicle_type_id":"4","last_reported":1714763169,"current_range_meters":12800,"station_id":"ce4bgop2rcd13ifvqc1g","pricing_plan_id":"cebpf4jnsgd1na2vs0mg"},{"bike_id":"67a77d0a-ffff-4bde-9839-a5c73f026ffb","system_id":"levelo_inurba_marseille","lat":43.29807,"lon":5.36326,"is_reserved":false,"is_disabled":false,"rental_uris":{"android":"levelo://app?vid=67a77d0a-ffff-4bde-9839-a5c73f026ffb","ios":"levelo://app?vid=67a77d0a-ffff-4bde-9839-a5c73f026ffb"},"vehicle_type_id":"4","last_reported":1714763169,"current_range_meters":0,"station_id":"","pricing_plan_id":"cebpf4jnsgd1na2vs0mg"},{"bike_id":"3f0addaa-baf5-46c7-a9d4-db86d7b58ab3","system_id":"levelo_inurba_marseille","lat":43.297999,"lon":5.370993,"is_reserved":false,"is_disabled":false,"rental_uris":{"android":"levelo://app?vid=3f0addaa-baf5-46c7-a9d4-db86d7b58ab3","ios":"levelo://app?vid=3f0addaa-baf5-46c7-a9d4-db86d7b58ab3"},"vehicle_type_id":"4","last_reported":1714763169,"current_range_meters":17600,"station_id":"ce4bgop2rcd13ifvqc1g","pricing_plan_id":"cebpf4jnsgd1na2vs0mg"},{"bike_id":"d15c365d-48f4-41ec-8a15-8c93a9cf008b","system_id":"levelo_inurba_marseille","lat":43.322872,"lon":5.382756,"is_reserved":false,"is_disabled":false,"rental_uris":{"android":"levelo://app?vid=d15c365d-48f4-41ec-8a15-8c93a9cf008b","ios":"levelo://app?vid=d15c365d-48f4-41ec-8a15-8c93a9cf008b"},"vehicle_type_id":"4","last_reported":1714763169,"current_range_meters":29600,"station_id":"ce4bhr12rcd13ifvqhqg","pricing_plan_id":"cebpf4jnsgd1na2vs0mg"},{"bike_id":"4e92485e-2e7a-4134-897a-2f497e23ce51","system_id":"levelo_inurba_marseille","lat":43.29773,"lon":5.37099,"is_reserved":false,"is_disabled":false,"rental_uris":{"android":"levelo://app?vid=4e92485e-2e7a-4134-897a-2f497e23ce51","ios":"levelo://app?vid=4e92485e-2e7a-4134-897a-2f497e23ce51"},"vehicle_type_id":"4","last_reported":1714763169,"current_range_meters":5200,"station_id":"ce4bgop2rcd13ifvqc1g","pricing_plan_id":"cebpf4jnsgd1na2vs0mg"},{"bike_id":"bf05c7e9-e88e-4c69-88f7-f629dd1b5787","system_id":"levelo_inurba_marseille","lat":43.322872,"lon":5.382756,"is_reserved":false,"is_disabled":false,"rental_uris":{"android":"levelo://app?vid=bf05c7e9-e88e-4c69-88f7-f629dd1b5787","ios":"levelo://app?vid=bf05c7e9-e88e-4c69-88f7-f629dd1b5787"},"vehicle_type_id":"4","last_reported":1714763169,"current_range_meters":0,"station_id":"ce4bhr12rcd13ifvqhqg","pricing_plan_id":"cebpf4jnsgd1na2vs0mg"},{"bike_id":"69fde129-74e3-4f3c-a0f7-dac086e4a3ae","system_id":"levelo_inurba_marseille","lat":43.3229,"lon":5.38268,"is_reserved":false,"is_disabled":false,"rental_uris":{"android":"levelo://app?vid=69fde129-74e3-4f3c-a0f7-dac086e4a3ae","ios":"levelo://app?vid=69fde129-74e3-4f3c-a0f7-dac086e4a3ae"},"vehicle_type_id":"4","last_reported":1714763169,"current_range_meters":13600,"station_id":"ce4bhr12rcd13ifvqhqg","pricing_plan_id":"cebpf4jnsgd1na2vs0mg"},{"bike_id":"20e0b06a-25d4-4137-9fd3-d07bb00f838c","system_id":"levelo_inurba_marseille","lat":43.322872,"lon":5.382756,"is_reserved":false,"is_disabled":false,"rental_uris":{"android":"levelo://app?vid=20e0b06a-25d4-4137-9fd3-d07bb00f838c","ios":"levelo://app?vid=20e0b06a-25d4-4137-9fd3-d07bb00f838c"},"vehicle_type_id":"4","last_reported":1714763169,"current_range_meters":30400,"station_id":"ce4bhr12rcd13ifvqhqg","pricing_plan_id":"cebpf4jnsgd1na2vs0mg"},{"bike_id":"3af2fa1c-b61e-4193-9940-343a1eb2b984","system_id":"levelo_inurba_marseille","lat":43.322872,"lon":5.382756,"is_reserved":false,"is_disabled":false,"rental_uris":{"android":"levelo://app?vid=3af2fa1c-b61e-4193-9940-343a1eb2b984","ios":"levelo://app?vid=3af2fa1c-b61e-4193-9940-343a1eb2b984"},"vehicle_type_id":"4","last_reported":1714763169,"current_range_meters":3600,"station_id":"ce4bhr12rcd13ifvqhqg","pricing_plan_id":"cebpf4jnsgd1na2vs0mg"},{"bike_id":"c9bf4c43-0b1e-451c-9f87-db938bb1468e","system_id":"levelo_inurba_marseille","lat":43.322872,"lon":5.382756,"is_reserved":false,"is_disabled":false,"rental_uris":{"android":"levelo://app?vid=c9bf4c43-0b1e-451c-9f87-db938bb1468e","ios":"levelo://app?vid=c9bf4c43-0b1e-451c-9f87-db938bb1468e"},"vehicle_type_id":"4","last_reported":1714763169,"current_range_meters":1200,"station_id":"ce4bhr12rcd13ifvqhqg","pricing_plan_id":"cebpf4jnsgd1na2vs0mg"},{"bike_id":"022ab433-82a5-4b17-8242-31e20d891d04","system_id":"levelo_inurba_marseille","lat":43.32288,"lon":5.38278,"is_reserved":false,"is_disabled":false,"rental_uris":{"android":"levelo://app?vid=022ab433-82a5-4b17-8242-31e20d891d04","ios":"levelo://app?vid=022ab433-82a5-4b17-8242-31e20d891d04"},"vehicle_type_id":"4","last_reported":1714763169,"current_range_meters":5600,"station_id":"ce4bhr12rcd13ifvqhqg","pricing_plan_id":"cebpf4jnsgd1na2vs0mg"},{"bike_id":"14eddade-44a2-4c4b-8f32-fc2a6ba4aa96","system_id":"levelo_inurba_marseille","lat":43.3229,"lon":5.38279,"is_reserved":false,"is_disabled":false,"rental_uris":{"android":"levelo://app?vid=14eddade-44a2-4c4b-8f32-fc2a6ba4aa96","ios":"levelo://app?vid=14eddade-44a2-4c4b-8f32-fc2a6ba4aa96"},"vehicle_type_id":"4","last_reported":1714763169,"current_range_meters":3200,"station_id":"ce4bhr12rcd13ifvqhqg","pricing_plan_id":"cebpf4jnsgd1na2vs0mg"},{"bike_id":"2204a3a8-1fcd-4ed6-b69a-ed55a11913f3","system_id":"levelo_inurba_marseille","lat":43.322872,"lon":5.382756,"is_reserved":false,"is_disabled":false,"rental_uris":{"android":"levelo://app?vid=2204a3a8-1fcd-4ed6-b69a-ed55a11913f3","ios":"levelo://app?vid=2204a3a8-1fcd-4ed6-b69a-ed55a11913f3"},"vehicle_type_id":"4","last_reported":1714763169,"current_range_meters":13600,"station_id":"ce4bhr12rcd13ifvqhqg","pricing_plan_id":"cebpf4jnsgd1na2vs0mg"},{"bike_id":"ee5d5f57-aa9f-4035-ad0b-fffa8eb347a1","system_id":"levelo_inurba_marseille","lat":43.322872,"lon":5.382756,"is_reserved":false,"is_disabled":false,"rental_uris":{"android":"levelo://app?vid=ee5d5f57-aa9f-4035-ad0b-fffa8eb347a1","ios":"levelo://app?vid=ee5d5f57-aa9f-4035-ad0b-fffa8eb347a1"},"vehicle_type_id":"4","last_reported":1714763169,"current_range_meters":25200,"station_id":"ce4bhr12rcd13ifvqhqg","pricing_plan_id":"cebpf4jnsgd1na2vs0mg"},{"bike_id":"419a2b5c-4238-4e2c-8bf0-24105af66f38","system_id":"levelo_inurba_marseille","lat":43.322872,"lon":5.382756,"is_reserved":false,"is_disabled":false,"rental_uris":{"android":"levelo://app?vid=419a2b5c-4238-4e2c-8bf0-24105af66f38","ios":"levelo://app?vid=419a2b5c-4238-4e2c-8bf0-24105af66f38"},"vehicle_type_id":"4","last_reported":1714763169,"current_range_meters":8000,"station_id":"ce4bhr12rcd13ifvqhqg","pricing_plan_id":"cebpf4jnsgd1na2vs0mg"},{"bike_id":"6fe99f06-aa9b-4c5e-b434-c9fec905d82f","system_id":"levelo_inurba_marseille","lat":43.297163,"lon":5.365866,"is_reserved":false,"is_disabled":false,"rental_uris":{"android":"levelo://app?vid=6fe99f06-aa9b-4c5e-b434-c9fec905d82f","ios":"levelo://app?vid=6fe99f06-aa9b-4c5e-b434-c9fec905d82f"},"vehicle_type_id":"4","last_reported":1714763169,"current_range_meters":400,"station_id":"ce4bgn12rcd13ifvqbt0","pricing_plan_id":"cebpf4jnsgd1na2vs0mg"},{"bike_id":"2fa1e526-fc82-4054-bbd1-2d81a5bb766d","system_id":"levelo_inurba_marseille","lat":43.297163,"lon":5.365866,"is_reserved":false,"is_disabled":false,"rental_uris":{"android":"levelo://app?vid=2fa1e526-fc82-4054-bbd1-2d81a5bb766d","ios":"levelo://app?vid=2fa1e526-fc82-4054-bbd1-2d81a5bb766d"},"vehicle_type_id":"4","last_reported":1714763169,"current_range_meters":0,"station_id":"ce4bgn12rcd13ifvqbt0","pricing_plan_id":"cebpf4jnsgd1na2vs0mg"},{"bike_id":"7248dc0f-fe1c-4445-92dd-5e020f4a2558","system_id":"levelo_inurba_marseille","lat":43.29704,"lon":5.36617,"is_reserved":false,"is_disabled":false,"rental_uris":{"android":"levelo://app?vid=7248dc0f-fe1c-4445-92dd-5e020f4a2558","ios":"levelo://app?vid=7248dc0f-fe1c-4445-92dd-5e020f4a2558"},"vehicle_type_id":"4","last_reported":1714763169,"current_range_meters":0,"station_id":"ce4bgn12rcd13ifvqbt0","pricing_plan_id":"cebpf4jnsgd1na2vs0mg"},{"bike_id":"3eb9fd1c-b9a6-4dfa-9ebd-a68a697484c0","system_id":"levelo_inurba_marseille","lat":43.311722,"lon":5.387247,"is_reserved":false,"is_disabled":false,"rental_uris":{"android":"levelo://app?vid=3eb9fd1c-b9a6-4dfa-9ebd-a68a697484c0","ios":"levelo://app?vid=3eb9fd1c-b9a6-4dfa-9ebd-a68a697484c0"},"vehicle_type_id":"4","last_reported":1714763169,"current_range_meters":25200,"station_id":"ce4bgv12rcd13ifvqcp0","pricing_plan_id":"cebpf4jnsgd1na2vs0mg"},{"bike_id":"87ae53a9-6727-4ea9-8745-2ccad419b33d","system_id":"levelo_inurba_marseille","lat":43.2968,"lon":5.37291,"is_reserved":false,"is_disabled":false,"rental_uris":{"android":"levelo://app?vid=87ae53a9-6727-4ea9-8745-2ccad419b33d","ios":"levelo://app?vid=87ae53a9-6727-4ea9-8745-2ccad419b33d"},"vehicle_type_id":"4","last_reported":1714763169,"current_range_meters":9200,"station_id":"ce4bgk12rcd13ifvqbj0","pricing_plan_id":"cebpf4jnsgd1na2vs0mg"},{"bike_id":"a15f1756-34e0-40d9-ba1a-33d7b99e299d","system_id":"levelo_inurba_marseille","lat":43.296131,"lon":5.370791,"is_reserved":false,"is_disabled":false,"rental_uris":{"android":"levelo://app?vid=a15f1756-34e0-40d9-ba1a-33d7b99e299d","ios":"levelo://app?vid=a15f1756-34e0-40d9-ba1a-33d7b99e299d"},"vehicle_type_id":"4","last_reported":1714763169,"current_range_meters":30400,"station_id":"ce4bgnh2rcd13ifvqc0g","pricing_plan_id":"cebpf4jnsgd1na2vs0mg"},{"bike_id":"9664bcf4-fbaa-430b-81e9-4561bf64d15b","system_id":"levelo_inurba_marseille","lat":43.2959,"lon":5.36738,"is_reserved":false,"is_disabled":false,"rental_uris":{"android":"levelo://app?vid=9664bcf4-fbaa-430b-81e9-4561bf64d15b","ios":"levelo://app?vid=9664bcf4-fbaa-430b-81e9-4561bf64d15b"},"vehicle_type_id":"4","last_reported":1714763169,"current_range_meters":2400,"station_id":"ce4bgph2rcd13ifvqc2g","pricing_plan_id":"cebpf4jnsgd1na2vs0mg"},{"bike_id":"24ca6ab9-2c00-44d6-83c6-a3747a983486","system_id":"levelo_inurba_marseille","lat":43.29573,"lon":5.367355,"is_reserved":false,"is_disabled":false,"rental_uris":{"android":"levelo://app?vid=24ca6ab9-2c00-44d6-83c6-a3747a983486","ios":"levelo://app?vid=24ca6ab9-2c00-44d6-83c6-a3747a983486"},"vehicle_type_id":"4","last_reported":1714763169,"current_range_meters":0,"station_id":"ce4bgph2rcd13ifvqc2g","pricing_plan_id":"cebpf4jnsgd1na2vs0mg"},{"bike_id":"46f4aa6e-5a11-4adb-801e-29c76d8fd474","system_id":"levelo_inurba_marseille","lat":43.29622,"lon":5.3717,"is_reserved":false,"is_disabled":false,"rental_uris":{"android":"levelo://app?vid=46f4aa6e-5a11-4adb-801e-29c76d8fd474","ios":"levelo://app?vid=46f4aa6e-5a11-4adb-801e-29c76d8fd474"},"vehicle_type_id":"4","last_reported":1714763169,"current_range_meters":31200,"station_id":"ce4bgnh2rcd13ifvqc0g","pricing_plan_id":"cebpf4jnsgd1na2vs0mg"},{"bike_id":"be232fc9-a3f2-483d-9f3b-2d9cde3e3168","system_id":"levelo_inurba_marseille","lat":43.296131,"lon":5.370791,"is_reserved":false,"is_disabled":false,"rental_uris":{"android":"levelo://app?vid=be232fc9-a3f2-483d-9f3b-2d9cde3e3168","ios":"levelo://app?vid=be232fc9-a3f2-483d-9f3b-2d9cde3e3168"},"vehicle_type_id":"4","last_reported":1714763169,"current_range_meters":24800,"station_id":"ce4bgnh2rcd13ifvqc0g","pricing_plan_id":"cebpf4jnsgd1na2vs0mg"},{"bike_id":"02de5e50-1756-4978-958a-b5c2bc0559b2","system_id":"levelo_inurba_marseille","lat":43.29573,"lon":5.367355,"is_reserved":false,"is_disabled":false,"rental_uris":{"android":"levelo://app?vid=02de5e50-1756-4978-958a-b5c2bc0559b2","ios":"levelo://app?vid=02de5e50-1756-4978-958a-b5c2bc0559b2"},"vehicle_type_id":"4","last_reported":1714763169,"current_range_meters":26400,"station_id":"ce4bgph2rcd13ifvqc2g","pricing_plan_id":"cebpf4jnsgd1na2vs0mg"},{"bike_id":"f4f5eaf3-8fd8-422e-9646-2dfe0b0de0c9","system_id":"levelo_inurba_marseille","lat":43.29573,"lon":5.367355,"is_reserved":false,"is_disabled":false,"rental_uris":{"android":"levelo://app?vid=f4f5eaf3-8fd8-422e-9646-2dfe0b0de0c9","ios":"levelo://app?vid=f4f5eaf3-8fd8-422e-9646-2dfe0b0de0c9"},"vehicle_type_id":"4","last_reported":1714763169,"current_range_meters":24800,"station_id":"ce4bgph2rcd13ifvqc2g","pricing_plan_id":"cebpf4jnsgd1na2vs0mg"},{"bike_id":"20d99301-0dfe-4fa2-a8b1-05297836445f","system_id":"levelo_inurba_marseille","lat":43.337168,"lon":5.391825,"is_reserved":false,"is_disabled":false,"rental_uris":{"android":"levelo://app?vid=20d99301-0dfe-4fa2-a8b1-05297836445f","ios":"levelo://app?vid=20d99301-0dfe-4fa2-a8b1-05297836445f"},"vehicle_type_id":"4","last_reported":1714763169,"current_range_meters":28800,"station_id":"ce4bhr92rcd13ifvqhsg","pricing_plan_id":"cebpf4jnsgd1na2vs0mg"},{"bike_id":"f3778696-af6d-4024-9260-ea8d9e037f71","system_id":"levelo_inurba_marseille","lat":43.29733,"lon":5.37685,"is_reserved":false,"is_disabled":false,"rental_uris":{"android":"levelo://app?vid=f3778696-af6d-4024-9260-ea8d9e037f71","ios":"levelo://app?vid=f3778696-af6d-4024-9260-ea8d9e037f71"},"vehicle_type_id":"4","last_reported":1714763169,"current_range_meters":0,"station_id":"ce4bgkh2rcd13ifvqbl0","pricing_plan_id":"cebpf4jnsgd1na2vs0mg"},{"bike_id":"aa8a1be1-c91e-4b0e-9947-d33f9465daeb","system_id":"levelo_inurba_marseille","lat":43.295902,"lon":5.363409,"is_reserved":false,"is_disabled":false,"rental_uris":{"android":"levelo://app?vid=aa8a1be1-c91e-4b0e-9947-d33f9465daeb","ios":"levelo://app?vid=aa8a1be1-c91e-4b0e-9947-d33f9465daeb"},"vehicle_type_id":"4","last_reported":1714763169,"current_range_meters":18000,"station_id":"ce4bgpp2rcd13ifvqc3g","pricing_plan_id":"cebpf4jnsgd1na2vs0mg"},{"bike_id":"111d1535-d6b7-46ea-9249-e0160e59bf70","system_id":"levelo_inurba_marseille","lat":43.29905,"lon":5.38121,"is_reserved":false,"is_disabled":false,"rental_uris":{"android":"levelo://app?vid=111d1535-d6b7-46ea-9249-e0160e59bf70","ios":"levelo://app?vid=111d1535-d6b7-46ea-9249-e0160e59bf70"},"vehicle_type_id":"4","last_reported":1714763169,"current_range_meters":16400,"station_id":"ce4bgj12rcd13ifvqbc0","pricing_plan_id":"cebpf4jnsgd1na2vs0mg"},{"bike_id":"437b6f77-000e-4688-99d8-ef5dfe425b93","system_id":"levelo_inurba_marseille","lat":43.296921,"lon":5.376579,"is_reserved":false,"is_disabled":false,"rental_uris":{"android":"levelo://app?vid=437b6f77-000e-4688-99d8-ef5dfe425b93","ios":"levelo://app?vid=437b6f77-000e-4688-99d8-ef5dfe425b93"},"vehicle_type_id":"4","last_reported":1714763169,"current_range_meters":18800,"station_id":"ce4bgkh2rcd13ifvqbl0","pricing_plan_id":"cebpf4jnsgd1na2vs0mg"},{"bike_id":"aa515844-e50e-473d-9c3e-8713b7b6af8a","system_id":"levelo_inurba_marseille","lat":43.296921,"lon":5.376579,"is_reserved":false,"is_disabled":false,"rental_uris":{"android":"levelo://app?vid=aa515844-e50e-473d-9c3e-8713b7b6af8a","ios":"levelo://app?vid=aa515844-e50e-473d-9c3e-8713b7b6af8a"},"vehicle_type_id":"4","last_reported":1714763169,"current_range_meters":3600,"station_id":"ce4bgkh2rcd13ifvqbl0","pricing_plan_id":"cebpf4jnsgd1na2vs0mg"},{"bike_id":"818d197d-0fe5-487c-8a53-9efc77a457eb","system_id":"levelo_inurba_marseille","lat":43.30949,"lon":5.39029,"is_reserved":false,"is_disabled":false,"rental_uris":{"android":"levelo://app?vid=818d197d-0fe5-487c-8a53-9efc77a457eb","ios":"levelo://app?vid=818d197d-0fe5-487c-8a53-9efc77a457eb"},"vehicle_type_id":"4","last_reported":1714763169,"current_range_meters":8000,"station_id":"ce4bgup2rcd13ifvqco0","pricing_plan_id":"cebpf4jnsgd1na2vs0mg"},{"bike_id":"a34d74ef-a6a7-4808-a930-918780ebe96e","system_id":"levelo_inurba_marseille","lat":43.30952,"lon":5.39031,"is_reserved":false,"is_disabled":false,"rental_uris":{"android":"levelo://app?vid=a34d74ef-a6a7-4808-a930-918780ebe96e","ios":"levelo://app?vid=a34d74ef-a6a7-4808-a930-918780ebe96e"},"vehicle_type_id":"4","last_reported":1714763169,"current_range_meters":15200,"station_id":"ce4bgup2rcd13ifvqco0","pricing_plan_id":"cebpf4jnsgd1na2vs0mg"},{"bike_id":"5169375b-ced1-4f18-9b25-5277502716b8","system_id":"levelo_inurba_marseille","lat":43.3095,"lon":5.39034,"is_reserved":false,"is_disabled":false,"rental_uris":{"android":"levelo://app?vid=5169375b-ced1-4f18-9b25-5277502716b8","ios":"levelo://app?vid=5169375b-ced1-4f18-9b25-5277502716b8"},"vehicle_type_id":"4","last_reported":1714763169,"current_range_meters":0,"station_id":"ce4bgup2rcd13ifvqco0","pricing_plan_id":"cebpf4jnsgd1na2vs0mg"},{"bike_id":"fceb21a6-1f62-40eb-b594-29106a0795a8","system_id":"levelo_inurba_marseille","lat":43.30951,"lon":5.39036,"is_reserved":false,"is_disabled":false,"rental_uris":{"android":"levelo://app?vid=fceb21a6-1f62-40eb-b594-29106a0795a8","ios":"levelo://app?vid=fceb21a6-1f62-40eb-b594-29106a0795a8"},"vehicle_type_id":"4","last_reported":1714763169,"current_range_meters":800,"station_id":"ce4bgup2rcd13ifvqco0","pricing_plan_id":"cebpf4jnsgd1na2vs0mg"},{"bike_id":"5037ecba-f260-41f1-a68e-ccd0373520dc","system_id":"levelo_inurba_marseille","lat":43.309589,"lon":5.390258,"is_reserved":false,"is_disabled":false,"rental_uris":{"android":"levelo://app?vid=5037ecba-f260-41f1-a68e-ccd0373520dc","ios":"levelo://app?vid=5037ecba-f260-41f1-a68e-ccd0373520dc"},"vehicle_type_id":"4","last_reported":1714763169,"current_range_meters":0,"station_id":"ce4bgup2rcd13ifvqco0","pricing_plan_id":"cebpf4jnsgd1na2vs0mg"},{"bike_id":"36c7bcf6-b69e-4da9-9c6c-5f82735fe19b","system_id":"levelo_inurba_marseille","lat":43.30944,"lon":5.39038,"is_reserved":false,"is_disabled":false,"rental_uris":{"android":"levelo://app?vid=36c7bcf6-b69e-4da9-9c6c-5f82735fe19b","ios":"levelo://app?vid=36c7bcf6-b69e-4da9-9c6c-5f82735fe19b"},"vehicle_type_id":"4","last_reported":1714763169,"current_range_meters":5600,"station_id":"ce4bgup2rcd13ifvqco0","pricing_plan_id":"cebpf4jnsgd1na2vs0mg"},{"bike_id":"8e4f65cd-2f84-4c65-ba3f-9a3d6ba17e29","system_id":"levelo_inurba_marseille","lat":43.30948,"lon":5.3904,"is_reserved":false,"is_disabled":false,"rental_uris":{"android":"levelo://app?vid=8e4f65cd-2f84-4c65-ba3f-9a3d6ba17e29","ios":"levelo://app?vid=8e4f65cd-2f84-4c65-ba3f-9a3d6ba17e29"},"vehicle_type_id":"4","last_reported":1714763169,"current_range_meters":19200,"station_id":"ce4bgup2rcd13ifvqco0","pricing_plan_id":"cebpf4jnsgd1na2vs0mg"},{"bike_id":"bf8a5495-ed5d-47f7-ab69-8f475d6be8a2","system_id":"levelo_inurba_marseille","lat":43.309589,"lon":5.390258,"is_reserved":false,"is_disabled":false,"rental_uris":{"android":"levelo://app?vid=bf8a5495-ed5d-47f7-ab69-8f475d6be8a2","ios":"levelo://app?vid=bf8a5495-ed5d-47f7-ab69-8f475d6be8a2"},"vehicle_type_id":"4","last_reported":1714763169,"current_range_meters":26400,"station_id":"ce4bgup2rcd13ifvqco0","pricing_plan_id":"cebpf4jnsgd1na2vs0mg"},{"bike_id":"d59e0842-e9c6-43b1-9743-9e52f0f47967","system_id":"levelo_inurba_marseille","lat":43.309589,"lon":5.390258,"is_reserved":false,"is_disabled":false,"rental_uris":{"android":"levelo://app?vid=d59e0842-e9c6-43b1-9743-9e52f0f47967","ios":"levelo://app?vid=d59e0842-e9c6-43b1-9743-9e52f0f47967"},"vehicle_type_id":"4","last_reported":1714763169,"current_range_meters":4400,"station_id":"ce4bgup2rcd13ifvqco0","pricing_plan_id":"cebpf4jnsgd1na2vs0mg"},{"bike_id":"c32ee75c-98ad-4424-af67-c22fe3ed9a30","system_id":"levelo_inurba_marseille","lat":43.317557,"lon":5.390173,"is_reserved":false,"is_disabled":false,"rental_uris":{"android":"levelo://app?vid=c32ee75c-98ad-4424-af67-c22fe3ed9a30","ios":"levelo://app?vid=c32ee75c-98ad-4424-af67-c22fe3ed9a30"},"vehicle_type_id":"4","last_reported":1714763169,"current_range_meters":7200,"station_id":"ce4bhqp2rcd13ifvqhng","pricing_plan_id":"cebpf4jnsgd1na2vs0mg"},{"bike_id":"ab93d5a7-3561-4382-aeed-7b46cbcc19d1","system_id":"levelo_inurba_marseille","lat":43.317557,"lon":5.390173,"is_reserved":false,"is_disabled":false,"rental_uris":{"android":"levelo://app?vid=ab93d5a7-3561-4382-aeed-7b46cbcc19d1","ios":"levelo://app?vid=ab93d5a7-3561-4382-aeed-7b46cbcc19d1"},"vehicle_type_id":"4","last_reported":1714763169,"current_range_meters":13200,"station_id":"ce4bhqp2rcd13ifvqhng","pricing_plan_id":"cebpf4jnsgd1na2vs0mg"},{"bike_id":"8342e0a4-f969-42e3-bab6-635654b6e385","system_id":"levelo_inurba_marseille","lat":43.317557,"lon":5.390173,"is_reserved":false,"is_disabled":false,"rental_uris":{"android":"levelo://app?vid=8342e0a4-f969-42e3-bab6-635654b6e385","ios":"levelo://app?vid=8342e0a4-f969-42e3-bab6-635654b6e385"},"vehicle_type_id":"4","last_reported":1714763169,"current_range_meters":11600,"station_id":"ce4bhqp2rcd13ifvqhng","pricing_plan_id":"cebpf4jnsgd1na2vs0mg"},{"bike_id":"ce69f143-0cb3-4e36-995e-37d60055d325","system_id":"levelo_inurba_marseille","lat":43.317557,"lon":5.390173,"is_reserved":false,"is_disabled":false,"rental_uris":{"android":"levelo://app?vid=ce69f143-0cb3-4e36-995e-37d60055d325","ios":"levelo://app?vid=ce69f143-0cb3-4e36-995e-37d60055d325"},"vehicle_type_id":"4","last_reported":1714763169,"current_range_meters":14000,"station_id":"ce4bhqp2rcd13ifvqhng","pricing_plan_id":"cebpf4jnsgd1na2vs0mg"},{"bike_id":"dabd8f15-7dad-445b-9ab8-656d39de16f8","system_id":"levelo_inurba_marseille","lat":43.317557,"lon":5.390173,"is_reserved":false,"is_disabled":false,"rental_uris":{"android":"levelo://app?vid=dabd8f15-7dad-445b-9ab8-656d39de16f8","ios":"levelo://app?vid=dabd8f15-7dad-445b-9ab8-656d39de16f8"},"vehicle_type_id":"4","last_reported":1714763169,"current_range_meters":25600,"station_id":"ce4bhqp2rcd13ifvqhng","pricing_plan_id":"cebpf4jnsgd1na2vs0mg"},{"bike_id":"faf594fe-6442-4e3d-8bf9-52889a83cc0f","system_id":"levelo_inurba_marseille","lat":43.317557,"lon":5.390173,"is_reserved":false,"is_disabled":false,"rental_uris":{"android":"levelo://app?vid=faf594fe-6442-4e3d-8bf9-52889a83cc0f","ios":"levelo://app?vid=faf594fe-6442-4e3d-8bf9-52889a83cc0f"},"vehicle_type_id":"4","last_reported":1714763169,"current_range_meters":28400,"station_id":"ce4bhqp2rcd13ifvqhng","pricing_plan_id":"cebpf4jnsgd1na2vs0mg"},{"bike_id":"3f8869ab-9ec3-47e0-b114-b27821d34dc5","system_id":"levelo_inurba_marseille","lat":43.31754,"lon":5.39028,"is_reserved":false,"is_disabled":false,"rental_uris":{"android":"levelo://app?vid=3f8869ab-9ec3-47e0-b114-b27821d34dc5","ios":"levelo://app?vid=3f8869ab-9ec3-47e0-b114-b27821d34dc5"},"vehicle_type_id":"4","last_reported":1714763169,"current_range_meters":3200,"station_id":"ce4bhqp2rcd13ifvqhng","pricing_plan_id":"cebpf4jnsgd1na2vs0mg"},{"bike_id":"6b80dfea-66e1-4a0d-a857-22f7739112be","system_id":"levelo_inurba_marseille","lat":43.296935,"lon":5.376544,"is_reserved":false,"is_disabled":false,"rental_uris":{"android":"levelo://app?vid=6b80dfea-66e1-4a0d-a857-22f7739112be","ios":"levelo://app?vid=6b80dfea-66e1-4a0d-a857-22f7739112be"},"vehicle_type_id":"4","last_reported":1714763169,"current_range_meters":31200,"station_id":"ce4bgkh2rcd13ifvqbl0","pricing_plan_id":"cebpf4jnsgd1na2vs0mg"},{"bike_id":"9cb48519-0246-4de5-a463-a4def55f423f","system_id":"levelo_inurba_marseille","lat":43.298037,"lon":5.381066,"is_reserved":false,"is_disabled":false,"rental_uris":{"android":"levelo://app?vid=9cb48519-0246-4de5-a463-a4def55f423f","ios":"levelo://app?vid=9cb48519-0246-4de5-a463-a4def55f423f"},"vehicle_type_id":"4","last_reported":1714763169,"current_range_meters":28000,"station_id":"ce4bgip2rcd13ifvqbb0","pricing_plan_id":"cebpf4jnsgd1na2vs0mg"},{"bike_id":"687ea4e9-07b4-403f-be35-c4b7f2380abf","system_id":"levelo_inurba_marseille","lat":43.298037,"lon":5.381066,"is_reserved":false,"is_disabled":false,"rental_uris":{"android":"levelo://app?vid=687ea4e9-07b4-403f-be35-c4b7f2380abf","ios":"levelo://app?vid=687ea4e9-07b4-403f-be35-c4b7f2380abf"},"vehicle_type_id":"4","last_reported":1714763169,"current_range_meters":10800,"station_id":"ce4bgip2rcd13ifvqbb0","pricing_plan_id":"cebpf4jnsgd1na2vs0mg"},{"bike_id":"539d7af2-1600-4ca5-83a2-bff063ac75c6","system_id":"levelo_inurba_marseille","lat":43.298037,"lon":5.381066,"is_reserved":false,"is_disabled":false,"rental_uris":{"android":"levelo://app?vid=539d7af2-1600-4ca5-83a2-bff063ac75c6","ios":"levelo://app?vid=539d7af2-1600-4ca5-83a2-bff063ac75c6"},"vehicle_type_id":"4","last_reported":1714763169,"current_range_meters":26800,"station_id":"ce4bgip2rcd13ifvqbb0","pricing_plan_id":"cebpf4jnsgd1na2vs0mg"},{"bike_id":"ef26d188-901b-4219-b91a-fdbfc226d518","system_id":"levelo_inurba_marseille","lat":43.29796,"lon":5.38108,"is_reserved":false,"is_disabled":false,"rental_uris":{"android":"levelo://app?vid=ef26d188-901b-4219-b91a-fdbfc226d518","ios":"levelo://app?vid=ef26d188-901b-4219-b91a-fdbfc226d518"},"vehicle_type_id":"4","last_reported":1714763169,"current_range_meters":0,"station_id":"ce4bgip2rcd13ifvqbb0","pricing_plan_id":"cebpf4jnsgd1na2vs0mg"},{"bike_id":"fd24fe13-c071-40f7-8006-dc98e6a4b606","system_id":"levelo_inurba_marseille","lat":43.298037,"lon":5.381066,"is_reserved":false,"is_disabled":false,"rental_uris":{"android":"levelo://app?vid=fd24fe13-c071-40f7-8006-dc98e6a4b606","ios":"levelo://app?vid=fd24fe13-c071-40f7-8006-dc98e6a4b606"},"vehicle_type_id":"4","last_reported":1714763169,"current_range_meters":26800,"station_id":"ce4bgip2rcd13ifvqbb0","pricing_plan_id":"cebpf4jnsgd1na2vs0mg"},{"bike_id":"04445e76-fe88-44f1-89da-da0958ec7514","system_id":"levelo_inurba_marseille","lat":43.304274,"lon":5.388873,"is_reserved":false,"is_disabled":false,"rental_uris":{"android":"levelo://app?vid=04445e76-fe88-44f1-89da-da0958ec7514","ios":"levelo://app?vid=04445e76-fe88-44f1-89da-da0958ec7514"},"vehicle_type_id":"4","last_reported":1714763169,"current_range_meters":400,"station_id":"ce4bgk12rcd13ifvqbi0","pricing_plan_id":"cebpf4jnsgd1na2vs0mg"},{"bike_id":"53a5bda9-a344-4033-966b-c1eeef70e9e4","system_id":"levelo_inurba_marseille","lat":43.295748,"lon":5.37522,"is_reserved":false,"is_disabled":false,"rental_uris":{"android":"levelo://app?vid=53a5bda9-a344-4033-966b-c1eeef70e9e4","ios":"levelo://app?vid=53a5bda9-a344-4033-966b-c1eeef70e9e4"},"vehicle_type_id":"4","last_reported":1714763169,"current_range_meters":0,"station_id":"ce4bgh92rcd13ifvqb50","pricing_plan_id":"cebpf4jnsgd1na2vs0mg"},{"bike_id":"e8ba035f-d5da-4839-ad3e-94f8cf2f5124","system_id":"levelo_inurba_marseille","lat":43.296263,"lon":5.377094,"is_reserved":false,"is_disabled":false,"rental_uris":{"android":"levelo://app?vid=e8ba035f-d5da-4839-ad3e-94f8cf2f5124","ios":"levelo://app?vid=e8ba035f-d5da-4839-ad3e-94f8cf2f5124"},"vehicle_type_id":"4","last_reported":1714763169,"current_range_meters":400,"station_id":"ce4bgi92rcd13ifvqb90","pricing_plan_id":"cebpf4jnsgd1na2vs0mg"},{"bike_id":"a13da984-aed0-4b04-8cb1-3a727c1552f0","system_id":"levelo_inurba_marseille","lat":43.296129,"lon":5.370777,"is_reserved":false,"is_disabled":false,"rental_uris":{"android":"levelo://app?vid=a13da984-aed0-4b04-8cb1-3a727c1552f0","ios":"levelo://app?vid=a13da984-aed0-4b04-8cb1-3a727c1552f0"},"vehicle_type_id":"4","last_reported":1714763169,"current_range_meters":29600,"station_id":"ce4bgnh2rcd13ifvqc0g","pricing_plan_id":"cebpf4jnsgd1na2vs0mg"},{"bike_id":"6a5b1ebd-add9-44df-abb7-ed25e1300061","system_id":"levelo_inurba_marseille","lat":43.296263,"lon":5.377094,"is_reserved":false,"is_disabled":false,"rental_uris":{"android":"levelo://app?vid=6a5b1ebd-add9-44df-abb7-ed25e1300061","ios":"levelo://app?vid=6a5b1ebd-add9-44df-abb7-ed25e1300061"},"vehicle_type_id":"4","last_reported":1714763169,"current_range_meters":3600,"station_id":"ce4bgi92rcd13ifvqb90","pricing_plan_id":"cebpf4jnsgd1na2vs0mg"},{"bike_id":"d5c9b5ed-78fc-4d83-ac0e-52542b921f84","system_id":"levelo_inurba_marseille","lat":43.29988,"lon":5.38509,"is_reserved":false,"is_disabled":false,"rental_uris":{"android":"levelo://app?vid=d5c9b5ed-78fc-4d83-ac0e-52542b921f84","ios":"levelo://app?vid=d5c9b5ed-78fc-4d83-ac0e-52542b921f84"},"vehicle_type_id":"4","last_reported":1714763169,"current_range_meters":22800,"station_id":"ce4bgj92rcd13ifvqbd0","pricing_plan_id":"cebpf4jnsgd1na2vs0mg"},{"bike_id":"48151189-ca5c-42a5-914a-1f363fba7703","system_id":"levelo_inurba_marseille","lat":43.32367,"lon":5.388836,"is_reserved":false,"is_disabled":false,"rental_uris":{"android":"levelo://app?vid=48151189-ca5c-42a5-914a-1f363fba7703","ios":"levelo://app?vid=48151189-ca5c-42a5-914a-1f363fba7703"},"vehicle_type_id":"4","last_reported":1714763169,"current_range_meters":16400,"station_id":"ce4bhqp2rcd13ifvqhog","pricing_plan_id":"cebpf4jnsgd1na2vs0mg"},{"bike_id":"3279cef3-550a-41dc-849a-e7b8142c9c7a","system_id":"levelo_inurba_marseille","lat":43.295279,"lon":5.375048,"is_reserved":false,"is_disabled":false,"rental_uris":{"android":"levelo://app?vid=3279cef3-550a-41dc-849a-e7b8142c9c7a","ios":"levelo://app?vid=3279cef3-550a-41dc-849a-e7b8142c9c7a"},"vehicle_type_id":"4","last_reported":1714763169,"current_range_meters":8800,"station_id":"ce4bgkp2rcd13ifvqbmg","pricing_plan_id":"cebpf4jnsgd1na2vs0mg"},{"bike_id":"22b37f3b-f64d-4a7f-bd47-1f4bb120655c","system_id":"levelo_inurba_marseille","lat":43.31405,"lon":5.3927,"is_reserved":false,"is_disabled":false,"rental_uris":{"android":"levelo://app?vid=22b37f3b-f64d-4a7f-bd47-1f4bb120655c","ios":"levelo://app?vid=22b37f3b-f64d-4a7f-bd47-1f4bb120655c"},"vehicle_type_id":"4","last_reported":1714763169,"current_range_meters":4000,"station_id":"","pricing_plan_id":"cebpf4jnsgd1na2vs0mg"},{"bike_id":"49a533d5-c290-4cbb-bab2-0e7642cb3903","system_id":"levelo_inurba_marseille","lat":43.32362,"lon":5.38887,"is_reserved":false,"is_disabled":false,"rental_uris":{"android":"levelo://app?vid=49a533d5-c290-4cbb-bab2-0e7642cb3903","ios":"levelo://app?vid=49a533d5-c290-4cbb-bab2-0e7642cb3903"},"vehicle_type_id":"4","last_reported":1714763169,"current_range_meters":0,"station_id":"ce4bhqp2rcd13ifvqhog","pricing_plan_id":"cebpf4jnsgd1na2vs0mg"},{"bike_id":"6a0a58d7-c690-45c9-811b-25bcc0fdd62b","system_id":"levelo_inurba_marseille","lat":43.293452,"lon":5.37122,"is_reserved":false,"is_disabled":false,"rental_uris":{"android":"levelo://app?vid=6a0a58d7-c690-45c9-811b-25bcc0fdd62b","ios":"levelo://app?vid=6a0a58d7-c690-45c9-811b-25bcc0fdd62b"},"vehicle_type_id":"4","last_reported":1714763169,"current_range_meters":8000,"station_id":"ce4bgi12rcd13ifvqb70","pricing_plan_id":"cebpf4jnsgd1na2vs0mg"},{"bike_id":"eccbb94c-1b16-444b-96ca-566d4e2ee15e","system_id":"levelo_inurba_marseille","lat":43.296194,"lon":5.381331,"is_reserved":false,"is_disabled":false,"rental_uris":{"android":"levelo://app?vid=eccbb94c-1b16-444b-96ca-566d4e2ee15e","ios":"levelo://app?vid=eccbb94c-1b16-444b-96ca-566d4e2ee15e"},"vehicle_type_id":"4","last_reported":1714763169,"current_range_meters":4000,"station_id":"ce4bgl12rcd13ifvqbo0","pricing_plan_id":"cebpf4jnsgd1na2vs0mg"},{"bike_id":"42751837-f389-4f7c-a650-2d1145848a02","system_id":"levelo_inurba_marseille","lat":43.29602,"lon":5.38096,"is_reserved":false,"is_disabled":false,"rental_uris":{"android":"levelo://app?vid=42751837-f389-4f7c-a650-2d1145848a02","ios":"levelo://app?vid=42751837-f389-4f7c-a650-2d1145848a02"},"vehicle_type_id":"4","last_reported":1714763169,"current_range_meters":2800,"station_id":"ce4bgl12rcd13ifvqbo0","pricing_plan_id":"cebpf4jnsgd1na2vs0mg"},{"bike_id":"a0880a74-b1a2-4c09-a3b6-bdb61e5c304d","system_id":"levelo_inurba_marseille","lat":43.29601,"lon":5.381084,"is_reserved":false,"is_disabled":false,"rental_uris":{"android":"levelo://app?vid=a0880a74-b1a2-4c09-a3b6-bdb61e5c304d","ios":"levelo://app?vid=a0880a74-b1a2-4c09-a3b6-bdb61e5c304d"},"vehicle_type_id":"4","last_reported":1714763169,"current_range_meters":29200,"station_id":"ce4bgl12rcd13ifvqbo0","pricing_plan_id":"cebpf4jnsgd1na2vs0mg"},{"bike_id":"0a828134-0b43-42be-bea3-3db8284ed386","system_id":"levelo_inurba_marseille","lat":43.29601,"lon":5.38108,"is_reserved":false,"is_disabled":false,"rental_uris":{"android":"levelo://app?vid=0a828134-0b43-42be-bea3-3db8284ed386","ios":"levelo://app?vid=0a828134-0b43-42be-bea3-3db8284ed386"},"vehicle_type_id":"4","last_reported":1714763169,"current_range_meters":22000,"station_id":"ce4bgl12rcd13ifvqbo0","pricing_plan_id":"cebpf4jnsgd1na2vs0mg"},{"bike_id":"aae40c6d-f645-49e7-bcb8-1cff2e165f7c","system_id":"levelo_inurba_marseille","lat":43.29602,"lon":5.381084,"is_reserved":false,"is_disabled":false,"rental_uris":{"android":"levelo://app?vid=aae40c6d-f645-49e7-bcb8-1cff2e165f7c","ios":"levelo://app?vid=aae40c6d-f645-49e7-bcb8-1cff2e165f7c"},"vehicle_type_id":"4","last_reported":1714763169,"current_range_meters":14400,"station_id":"ce4bgl12rcd13ifvqbo0","pricing_plan_id":"cebpf4jnsgd1na2vs0mg"},{"bike_id":"da91daf3-b2e2-4074-8245-da804cc6b52e","system_id":"levelo_inurba_marseille","lat":43.29601,"lon":5.38109,"is_reserved":false,"is_disabled":false,"rental_uris":{"android":"levelo://app?vid=da91daf3-b2e2-4074-8245-da804cc6b52e","ios":"levelo://app?vid=da91daf3-b2e2-4074-8245-da804cc6b52e"},"vehicle_type_id":"4","last_reported":1714763169,"current_range_meters":17200,"station_id":"ce4bgl12rcd13ifvqbo0","pricing_plan_id":"cebpf4jnsgd1na2vs0mg"},{"bike_id":"e0b4e76f-b45a-49d1-8360-f534d09c9760","system_id":"levelo_inurba_marseille","lat":43.29599,"lon":5.38105,"is_reserved":false,"is_disabled":false,"rental_uris":{"android":"levelo://app?vid=e0b4e76f-b45a-49d1-8360-f534d09c9760","ios":"levelo://app?vid=e0b4e76f-b45a-49d1-8360-f534d09c9760"},"vehicle_type_id":"4","last_reported":1714763169,"current_range_meters":18400,"station_id":"ce4bgl12rcd13ifvqbo0","pricing_plan_id":"cebpf4jnsgd1na2vs0mg"},{"bike_id":"9f2cc56d-8158-4973-97bc-72c59237d18e","system_id":"levelo_inurba_marseille","lat":43.29602,"lon":5.381084,"is_reserved":false,"is_disabled":false,"rental_uris":{"android":"levelo://app?vid=9f2cc56d-8158-4973-97bc-72c59237d18e","ios":"levelo://app?vid=9f2cc56d-8158-4973-97bc-72c59237d18e"},"vehicle_type_id":"4","last_reported":1714763169,"current_range_meters":20400,"station_id":"ce4bgl12rcd13ifvqbo0","pricing_plan_id":"cebpf4jnsgd1na2vs0mg"},{"bike_id":"75441038-3c74-4582-b863-df9ed801b04d","system_id":"levelo_inurba_marseille","lat":43.29602,"lon":5.381084,"is_reserved":false,"is_disabled":false,"rental_uris":{"android":"levelo://app?vid=75441038-3c74-4582-b863-df9ed801b04d","ios":"levelo://app?vid=75441038-3c74-4582-b863-df9ed801b04d"},"vehicle_type_id":"4","last_reported":1714763169,"current_range_meters":16800,"station_id":"ce4bgl12rcd13ifvqbo0","pricing_plan_id":"cebpf4jnsgd1na2vs0mg"},{"bike_id":"2e10510e-3c0f-4cca-b2cf-b7d6d79cce0f","system_id":"levelo_inurba_marseille","lat":43.29602,"lon":5.381084,"is_reserved":false,"is_disabled":false,"rental_uris":{"android":"levelo://app?vid=2e10510e-3c0f-4cca-b2cf-b7d6d79cce0f","ios":"levelo://app?vid=2e10510e-3c0f-4cca-b2cf-b7d6d79cce0f"},"vehicle_type_id":"4","last_reported":1714763169,"current_range_meters":28400,"station_id":"ce4bgl12rcd13ifvqbo0","pricing_plan_id":"cebpf4jnsgd1na2vs0mg"},{"bike_id":"e6b1118d-e04d-40b2-b638-362fbcc3dee0","system_id":"levelo_inurba_marseille","lat":43.29602,"lon":5.381084,"is_reserved":false,"is_disabled":false,"rental_uris":{"android":"levelo://app?vid=e6b1118d-e04d-40b2-b638-362fbcc3dee0","ios":"levelo://app?vid=e6b1118d-e04d-40b2-b638-362fbcc3dee0"},"vehicle_type_id":"4","last_reported":1714763169,"current_range_meters":30400,"station_id":"ce4bgl12rcd13ifvqbo0","pricing_plan_id":"cebpf4jnsgd1na2vs0mg"},{"bike_id":"a53b4e41-337e-4792-b0f2-9740d2ad867b","system_id":"levelo_inurba_marseille","lat":43.29315,"lon":5.37186,"is_reserved":false,"is_disabled":false,"rental_uris":{"android":"levelo://app?vid=a53b4e41-337e-4792-b0f2-9740d2ad867b","ios":"levelo://app?vid=a53b4e41-337e-4792-b0f2-9740d2ad867b"},"vehicle_type_id":"4","last_reported":1714763169,"current_range_meters":0,"station_id":"ce4bgh92rcd13ifvqb40","pricing_plan_id":"cebpf4jnsgd1na2vs0mg"},{"bike_id":"4d0b2878-e701-4e8c-8643-68cd9810e9fc","system_id":"levelo_inurba_marseille","lat":43.292749,"lon":5.368398,"is_reserved":false,"is_disabled":false,"rental_uris":{"android":"levelo://app?vid=4d0b2878-e701-4e8c-8643-68cd9810e9fc","ios":"levelo://app?vid=4d0b2878-e701-4e8c-8643-68cd9810e9fc"},"vehicle_type_id":"4","last_reported":1714763169,"current_range_meters":14800,"station_id":"ce4bhbp2rcd13ifvqesg","pricing_plan_id":"cebpf4jnsgd1na2vs0mg"},{"bike_id":"09f7cb5d-9edd-47d2-a04e-f1b90dc48fc4","system_id":"levelo_inurba_marseille","lat":43.29284,"lon":5.3685,"is_reserved":false,"is_disabled":false,"rental_uris":{"android":"levelo://app?vid=09f7cb5d-9edd-47d2-a04e-f1b90dc48fc4","ios":"levelo://app?vid=09f7cb5d-9edd-47d2-a04e-f1b90dc48fc4"},"vehicle_type_id":"4","last_reported":1714763169,"current_range_meters":29600,"station_id":"ce4bhbp2rcd13ifvqesg","pricing_plan_id":"cebpf4jnsgd1na2vs0mg"},{"bike_id":"12f2b0e7-d427-41c0-bc9d-c4da780bb370","system_id":"levelo_inurba_marseille","lat":43.29311,"lon":5.37181,"is_reserved":false,"is_disabled":false,"rental_uris":{"android":"levelo://app?vid=12f2b0e7-d427-41c0-bc9d-c4da780bb370","ios":"levelo://app?vid=12f2b0e7-d427-41c0-bc9d-c4da780bb370"},"vehicle_type_id":"4","last_reported":1714763169,"current_range_meters":0,"station_id":"ce4bgh92rcd13ifvqb40","pricing_plan_id":"cebpf4jnsgd1na2vs0mg"},{"bike_id":"79ecd5ce-ee27-4e35-9e2a-393c88b46cf2","system_id":"levelo_inurba_marseille","lat":43.292749,"lon":5.368398,"is_reserved":false,"is_disabled":false,"rental_uris":{"android":"levelo://app?vid=79ecd5ce-ee27-4e35-9e2a-393c88b46cf2","ios":"levelo://app?vid=79ecd5ce-ee27-4e35-9e2a-393c88b46cf2"},"vehicle_type_id":"4","last_reported":1714763169,"current_range_meters":11600,"station_id":"ce4bhbp2rcd13ifvqesg","pricing_plan_id":"cebpf4jnsgd1na2vs0mg"},{"bike_id":"5088975e-b178-48c6-801f-4dd8aa4cdfdd","system_id":"levelo_inurba_marseille","lat":43.29308,"lon":5.37177,"is_reserved":false,"is_disabled":false,"rental_uris":{"android":"levelo://app?vid=5088975e-b178-48c6-801f-4dd8aa4cdfdd","ios":"levelo://app?vid=5088975e-b178-48c6-801f-4dd8aa4cdfdd"},"vehicle_type_id":"4","last_reported":1714763169,"current_range_meters":1200,"station_id":"ce4bgh92rcd13ifvqb40","pricing_plan_id":"cebpf4jnsgd1na2vs0mg"},{"bike_id":"53b5ec49-3f67-4385-a9a8-05f896e02e03","system_id":"levelo_inurba_marseille","lat":43.29306,"lon":5.37165,"is_reserved":false,"is_disabled":false,"rental_uris":{"android":"levelo://app?vid=53b5ec49-3f67-4385-a9a8-05f896e02e03","ios":"levelo://app?vid=53b5ec49-3f67-4385-a9a8-05f896e02e03"},"vehicle_type_id":"4","last_reported":1714763169,"current_range_meters":0,"station_id":"ce4bgh92rcd13ifvqb40","pricing_plan_id":"cebpf4jnsgd1na2vs0mg"},{"bike_id":"38087ce9-b07b-4f49-8e9c-73ed4319f1f7","system_id":"levelo_inurba_marseille","lat":43.29278,"lon":5.36841,"is_reserved":false,"is_disabled":false,"rental_uris":{"android":"levelo://app?vid=38087ce9-b07b-4f49-8e9c-73ed4319f1f7","ios":"levelo://app?vid=38087ce9-b07b-4f49-8e9c-73ed4319f1f7"},"vehicle_type_id":"4","last_reported":1714763169,"current_range_meters":14800,"station_id":"ce4bhbp2rcd13ifvqesg","pricing_plan_id":"cebpf4jnsgd1na2vs0mg"},{"bike_id":"5483a3a3-18ac-4cb9-ab65-526d79d42500","system_id":"levelo_inurba_marseille","lat":43.293032,"lon":5.371563,"is_reserved":false,"is_disabled":false,"rental_uris":{"android":"levelo://app?vid=5483a3a3-18ac-4cb9-ab65-526d79d42500","ios":"levelo://app?vid=5483a3a3-18ac-4cb9-ab65-526d79d42500"},"vehicle_type_id":"4","last_reported":1714763169,"current_range_meters":4800,"station_id":"","pricing_plan_id":"cebpf4jnsgd1na2vs0mg"},{"bike_id":"edc931eb-5df2-4dcf-b3b4-fff21e6dcf94","system_id":"levelo_inurba_marseille","lat":43.29277,"lon":5.36851,"is_reserved":false,"is_disabled":false,"rental_uris":{"android":"levelo://app?vid=edc931eb-5df2-4dcf-b3b4-fff21e6dcf94","ios":"levelo://app?vid=edc931eb-5df2-4dcf-b3b4-fff21e6dcf94"},"vehicle_type_id":"4","last_reported":1714763169,"current_range_meters":16400,"station_id":"ce4bhbp2rcd13ifvqesg","pricing_plan_id":"cebpf4jnsgd1na2vs0mg"},{"bike_id":"b3bb1d1d-ca6c-4c04-9a39-ba9d720066bb","system_id":"levelo_inurba_marseille","lat":43.292749,"lon":5.368398,"is_reserved":false,"is_disabled":false,"rental_uris":{"android":"levelo://app?vid=b3bb1d1d-ca6c-4c04-9a39-ba9d720066bb","ios":"levelo://app?vid=b3bb1d1d-ca6c-4c04-9a39-ba9d720066bb"},"vehicle_type_id":"4","last_reported":1714763169,"current_range_meters":1200,"station_id":"ce4bhbp2rcd13ifvqesg","pricing_plan_id":"cebpf4jnsgd1na2vs0mg"},{"bike_id":"0707b84e-00af-4fbb-8228-f280cb261bc0","system_id":"levelo_inurba_marseille","lat":43.292749,"lon":5.368398,"is_reserved":false,"is_disabled":false,"rental_uris":{"android":"levelo://app?vid=0707b84e-00af-4fbb-8228-f280cb261bc0","ios":"levelo://app?vid=0707b84e-00af-4fbb-8228-f280cb261bc0"},"vehicle_type_id":"4","last_reported":1714763169,"current_range_meters":0,"station_id":"ce4bhbp2rcd13ifvqesg","pricing_plan_id":"cebpf4jnsgd1na2vs0mg"},{"bike_id":"fda48e49-eae9-4203-8d7a-e31285ee5b8f","system_id":"levelo_inurba_marseille","lat":43.29299,"lon":5.37171,"is_reserved":false,"is_disabled":false,"rental_uris":{"android":"levelo://app?vid=fda48e49-eae9-4203-8d7a-e31285ee5b8f","ios":"levelo://app?vid=fda48e49-eae9-4203-8d7a-e31285ee5b8f"},"vehicle_type_id":"4","last_reported":1714763169,"current_range_meters":5200,"station_id":"ce4bgh92rcd13ifvqb40","pricing_plan_id":"cebpf4jnsgd1na2vs0mg"},{"bike_id":"69aa5d1e-a279-4db5-a135-4a72155a99de","system_id":"levelo_inurba_marseille","lat":43.293,"lon":5.37182,"is_reserved":false,"is_disabled":false,"rental_uris":{"android":"levelo://app?vid=69aa5d1e-a279-4db5-a135-4a72155a99de","ios":"levelo://app?vid=69aa5d1e-a279-4db5-a135-4a72155a99de"},"vehicle_type_id":"4","last_reported":1714763169,"current_range_meters":6000,"station_id":"ce4bgh92rcd13ifvqb40","pricing_plan_id":"cebpf4jnsgd1na2vs0mg"},{"bike_id":"c8e8b42e-2aae-43da-9545-e9b04cb5acd9","system_id":"levelo_inurba_marseille","lat":43.292749,"lon":5.368398,"is_reserved":false,"is_disabled":false,"rental_uris":{"android":"levelo://app?vid=c8e8b42e-2aae-43da-9545-e9b04cb5acd9","ios":"levelo://app?vid=c8e8b42e-2aae-43da-9545-e9b04cb5acd9"},"vehicle_type_id":"4","last_reported":1714763169,"current_range_meters":16000,"station_id":"ce4bhbp2rcd13ifvqesg","pricing_plan_id":"cebpf4jnsgd1na2vs0mg"},{"bike_id":"414cf29c-0ce0-4cbb-9514-0ba9aed688b6","system_id":"levelo_inurba_marseille","lat":43.292971,"lon":5.371827,"is_reserved":false,"is_disabled":false,"rental_uris":{"android":"levelo://app?vid=414cf29c-0ce0-4cbb-9514-0ba9aed688b6","ios":"levelo://app?vid=414cf29c-0ce0-4cbb-9514-0ba9aed688b6"},"vehicle_type_id":"4","last_reported":1714763169,"current_range_meters":14400,"station_id":"ce4bgh92rcd13ifvqb40","pricing_plan_id":"cebpf4jnsgd1na2vs0mg"},{"bike_id":"837da2a3-4fb7-48b9-b149-c1a73fe7d67a","system_id":"levelo_inurba_marseille","lat":43.29795,"lon":5.404086,"is_reserved":false,"is_disabled":false,"rental_uris":{"android":"levelo://app?vid=837da2a3-4fb7-48b9-b149-c1a73fe7d67a","ios":"levelo://app?vid=837da2a3-4fb7-48b9-b149-c1a73fe7d67a"},"vehicle_type_id":"4","last_reported":1714763169,"current_range_meters":22400,"station_id":"ce4bh112rcd13ifvqd90","pricing_plan_id":"cebpf4jnsgd1na2vs0mg"},{"bike_id":"87565ee2-7bd6-4ac2-87e3-c1dbf298bbed","system_id":"levelo_inurba_marseille","lat":43.29268,"lon":5.36852,"is_reserved":false,"is_disabled":false,"rental_uris":{"android":"levelo://app?vid=87565ee2-7bd6-4ac2-87e3-c1dbf298bbed","ios":"levelo://app?vid=87565ee2-7bd6-4ac2-87e3-c1dbf298bbed"},"vehicle_type_id":"4","last_reported":1714763169,"current_range_meters":14400,"station_id":"ce4bhbp2rcd13ifvqesg","pricing_plan_id":"cebpf4jnsgd1na2vs0mg"},{"bike_id":"e56838a2-62ea-46bc-8613-bf41efe2fff6","system_id":"levelo_inurba_marseille","lat":43.295635,"lon":5.381546,"is_reserved":false,"is_disabled":false,"rental_uris":{"android":"levelo://app?vid=e56838a2-62ea-46bc-8613-bf41efe2fff6","ios":"levelo://app?vid=e56838a2-62ea-46bc-8613-bf41efe2fff6"},"vehicle_type_id":"4","last_reported":1714763169,"current_range_meters":20000,"station_id":"ce4bgl12rcd13ifvqbo0","pricing_plan_id":"cebpf4jnsgd1na2vs0mg"},{"bike_id":"524a2c11-6145-45f0-b7b6-b150f16d8baa","system_id":"levelo_inurba_marseille","lat":43.29334,"lon":5.374504,"is_reserved":false,"is_disabled":false,"rental_uris":{"android":"levelo://app?vid=524a2c11-6145-45f0-b7b6-b150f16d8baa","ios":"levelo://app?vid=524a2c11-6145-45f0-b7b6-b150f16d8baa"},"vehicle_type_id":"4","last_reported":1714763169,"current_range_meters":0,"station_id":"ce4bgi12rcd13ifvqb70","pricing_plan_id":"cebpf4jnsgd1na2vs0mg"},{"bike_id":"0c6a5200-ec42-4aee-a41c-28b886939213","system_id":"levelo_inurba_marseille","lat":43.293058,"lon":5.37451,"is_reserved":false,"is_disabled":false,"rental_uris":{"android":"levelo://app?vid=0c6a5200-ec42-4aee-a41c-28b886939213","ios":"levelo://app?vid=0c6a5200-ec42-4aee-a41c-28b886939213"},"vehicle_type_id":"4","last_reported":1714763169,"current_range_meters":0,"station_id":"ce4bgi12rcd13ifvqb70","pricing_plan_id":"cebpf4jnsgd1na2vs0mg"},{"bike_id":"92e2558a-73b7-4650-903e-e6862c2448e1","system_id":"levelo_inurba_marseille","lat":43.29304,"lon":5.37451,"is_reserved":false,"is_disabled":false,"rental_uris":{"android":"levelo://app?vid=92e2558a-73b7-4650-903e-e6862c2448e1","ios":"levelo://app?vid=92e2558a-73b7-4650-903e-e6862c2448e1"},"vehicle_type_id":"4","last_reported":1714763169,"current_range_meters":7600,"station_id":"ce4bgi12rcd13ifvqb70","pricing_plan_id":"cebpf4jnsgd1na2vs0mg"},{"bike_id":"b836a2dd-0d44-43e5-a7b1-174a251e9557","system_id":"levelo_inurba_marseille","lat":43.293009,"lon":5.374584,"is_reserved":false,"is_disabled":false,"rental_uris":{"android":"levelo://app?vid=b836a2dd-0d44-43e5-a7b1-174a251e9557","ios":"levelo://app?vid=b836a2dd-0d44-43e5-a7b1-174a251e9557"},"vehicle_type_id":"4","last_reported":1714763169,"current_range_meters":0,"station_id":"ce4bgi12rcd13ifvqb70","pricing_plan_id":"cebpf4jnsgd1na2vs0mg"},{"bike_id":"2b07842a-0158-4390-a09c-304539433090","system_id":"levelo_inurba_marseille","lat":43.29302,"lon":5.37461,"is_reserved":false,"is_disabled":false,"rental_uris":{"android":"levelo://app?vid=2b07842a-0158-4390-a09c-304539433090","ios":"levelo://app?vid=2b07842a-0158-4390-a09c-304539433090"},"vehicle_type_id":"4","last_reported":1714763169,"current_range_meters":5600,"station_id":"ce4bgi12rcd13ifvqb70","pricing_plan_id":"cebpf4jnsgd1na2vs0mg"},{"bike_id":"34fa10c6-d45a-4937-a046-3453f1fc824e","system_id":"levelo_inurba_marseille","lat":43.29301,"lon":5.37458,"is_reserved":false,"is_disabled":false,"rental_uris":{"android":"levelo://app?vid=34fa10c6-d45a-4937-a046-3453f1fc824e","ios":"levelo://app?vid=34fa10c6-d45a-4937-a046-3453f1fc824e"},"vehicle_type_id":"4","last_reported":1714763169,"current_range_meters":1600,"station_id":"ce4bgi12rcd13ifvqb70","pricing_plan_id":"cebpf4jnsgd1na2vs0mg"},{"bike_id":"a0c90630-9752-4e55-9a4e-cb845b36fe98","system_id":"levelo_inurba_marseille","lat":43.293,"lon":5.37461,"is_reserved":false,"is_disabled":false,"rental_uris":{"android":"levelo://app?vid=a0c90630-9752-4e55-9a4e-cb845b36fe98","ios":"levelo://app?vid=a0c90630-9752-4e55-9a4e-cb845b36fe98"},"vehicle_type_id":"4","last_reported":1714763169,"current_range_meters":24400,"station_id":"ce4bgi12rcd13ifvqb70","pricing_plan_id":"cebpf4jnsgd1na2vs0mg"},{"bike_id":"db6c3aef-d07a-4267-a92b-3c89e4c900f6","system_id":"levelo_inurba_marseille","lat":43.305994,"lon":5.393687,"is_reserved":false,"is_disabled":false,"rental_uris":{"android":"levelo://app?vid=db6c3aef-d07a-4267-a92b-3c89e4c900f6","ios":"levelo://app?vid=db6c3aef-d07a-4267-a92b-3c89e4c900f6"},"vehicle_type_id":"4","last_reported":1714763169,"current_range_meters":31600,"station_id":"ce4bh0p2rcd13ifvqd80","pricing_plan_id":"cebpf4jnsgd1na2vs0mg"},{"bike_id":"24cb9de5-4b7b-4360-a5ce-912a816d44e1","system_id":"levelo_inurba_marseille","lat":43.293009,"lon":5.374584,"is_reserved":false,"is_disabled":false,"rental_uris":{"android":"levelo://app?vid=24cb9de5-4b7b-4360-a5ce-912a816d44e1","ios":"levelo://app?vid=24cb9de5-4b7b-4360-a5ce-912a816d44e1"},"vehicle_type_id":"4","last_reported":1714763169,"current_range_meters":20400,"station_id":"ce4bgi12rcd13ifvqb70","pricing_plan_id":"cebpf4jnsgd1na2vs0mg"},{"bike_id":"5b091a54-bbf6-4407-b759-689f549d9749","system_id":"levelo_inurba_marseille","lat":43.29297,"lon":5.3746,"is_reserved":false,"is_disabled":false,"rental_uris":{"android":"levelo://app?vid=5b091a54-bbf6-4407-b759-689f549d9749","ios":"levelo://app?vid=5b091a54-bbf6-4407-b759-689f549d9749"},"vehicle_type_id":"4","last_reported":1714763169,"current_range_meters":16800,"station_id":"ce4bgi12rcd13ifvqb70","pricing_plan_id":"cebpf4jnsgd1na2vs0mg"},{"bike_id":"8014590e-3f3a-4061-bae7-160857412d7a","system_id":"levelo_inurba_marseille","lat":43.303002,"lon":5.392142,"is_reserved":false,"is_disabled":false,"rental_uris":{"android":"levelo://app?vid=8014590e-3f3a-4061-bae7-160857412d7a","ios":"levelo://app?vid=8014590e-3f3a-4061-bae7-160857412d7a"},"vehicle_type_id":"4","last_reported":1714763169,"current_range_meters":2400,"station_id":"ce4bgkh2rcd13ifvqbk0","pricing_plan_id":"cebpf4jnsgd1na2vs0mg"},{"bike_id":"c28b7a3a-e659-47bb-a7f8-b3fa23cbc455","system_id":"levelo_inurba_marseille","lat":43.305994,"lon":5.393687,"is_reserved":false,"is_disabled":false,"rental_uris":{"android":"levelo://app?vid=c28b7a3a-e659-47bb-a7f8-b3fa23cbc455","ios":"levelo://app?vid=c28b7a3a-e659-47bb-a7f8-b3fa23cbc455"},"vehicle_type_id":"4","last_reported":1714763169,"current_range_meters":10000,"station_id":"ce4bh0p2rcd13ifvqd80","pricing_plan_id":"cebpf4jnsgd1na2vs0mg"},{"bike_id":"cd123e7f-1266-4527-b27f-81fed0b2ab3e","system_id":"levelo_inurba_marseille","lat":43.292947,"lon":5.374568,"is_reserved":false,"is_disabled":false,"rental_uris":{"android":"levelo://app?vid=cd123e7f-1266-4527-b27f-81fed0b2ab3e","ios":"levelo://app?vid=cd123e7f-1266-4527-b27f-81fed0b2ab3e"},"vehicle_type_id":"4","last_reported":1714763169,"current_range_meters":30400,"station_id":"ce4bgi12rcd13ifvqb70","pricing_plan_id":"cebpf4jnsgd1na2vs0mg"},{"bike_id":"e53013c1-0e4e-44d8-87fd-20b5c3c4507c","system_id":"levelo_inurba_marseille","lat":43.293009,"lon":5.374584,"is_reserved":false,"is_disabled":false,"rental_uris":{"android":"levelo://app?vid=e53013c1-0e4e-44d8-87fd-20b5c3c4507c","ios":"levelo://app?vid=e53013c1-0e4e-44d8-87fd-20b5c3c4507c"},"vehicle_type_id":"4","last_reported":1714763169,"current_range_meters":30800,"station_id":"ce4bgi12rcd13ifvqb70","pricing_plan_id":"cebpf4jnsgd1na2vs0mg"},{"bike_id":"e9efee04-1311-47b9-b844-349c96f9bade","system_id":"levelo_inurba_marseille","lat":43.305994,"lon":5.393687,"is_reserved":false,"is_disabled":false,"rental_uris":{"android":"levelo://app?vid=e9efee04-1311-47b9-b844-349c96f9bade","ios":"levelo://app?vid=e9efee04-1311-47b9-b844-349c96f9bade"},"vehicle_type_id":"4","last_reported":1714763169,"current_range_meters":13600,"station_id":"ce4bh0p2rcd13ifvqd80","pricing_plan_id":"cebpf4jnsgd1na2vs0mg"},{"bike_id":"6d1345a8-6efa-4878-9c18-851c895e3595","system_id":"levelo_inurba_marseille","lat":43.305994,"lon":5.393687,"is_reserved":false,"is_disabled":false,"rental_uris":{"android":"levelo://app?vid=6d1345a8-6efa-4878-9c18-851c895e3595","ios":"levelo://app?vid=6d1345a8-6efa-4878-9c18-851c895e3595"},"vehicle_type_id":"4","last_reported":1714763169,"current_range_meters":1600,"station_id":"ce4bh0p2rcd13ifvqd80","pricing_plan_id":"cebpf4jnsgd1na2vs0mg"},{"bike_id":"a4081ede-088d-44fa-94a4-f111ac0eec65","system_id":"levelo_inurba_marseille","lat":43.305994,"lon":5.393687,"is_reserved":false,"is_disabled":false,"rental_uris":{"android":"levelo://app?vid=a4081ede-088d-44fa-94a4-f111ac0eec65","ios":"levelo://app?vid=a4081ede-088d-44fa-94a4-f111ac0eec65"},"vehicle_type_id":"4","last_reported":1714763169,"current_range_meters":20000,"station_id":"ce4bh0p2rcd13ifvqd80","pricing_plan_id":"cebpf4jnsgd1na2vs0mg"},{"bike_id":"80aed323-c696-4110-99e1-dba4a1e205b4","system_id":"levelo_inurba_marseille","lat":43.305994,"lon":5.393687,"is_reserved":false,"is_disabled":false,"rental_uris":{"android":"levelo://app?vid=80aed323-c696-4110-99e1-dba4a1e205b4","ios":"levelo://app?vid=80aed323-c696-4110-99e1-dba4a1e205b4"},"vehicle_type_id":"4","last_reported":1714763169,"current_range_meters":14800,"station_id":"ce4bh0p2rcd13ifvqd80","pricing_plan_id":"cebpf4jnsgd1na2vs0mg"},{"bike_id":"90e72029-b5c6-4d09-8859-27d58680a89f","system_id":"levelo_inurba_marseille","lat":43.29293,"lon":5.37464,"is_reserved":false,"is_disabled":false,"rental_uris":{"android":"levelo://app?vid=90e72029-b5c6-4d09-8859-27d58680a89f","ios":"levelo://app?vid=90e72029-b5c6-4d09-8859-27d58680a89f"},"vehicle_type_id":"4","last_reported":1714763169,"current_range_meters":18400,"station_id":"ce4bgi12rcd13ifvqb70","pricing_plan_id":"cebpf4jnsgd1na2vs0mg"},{"bike_id":"3b9d08bb-1b55-42a6-afe7-eb04ae251396","system_id":"levelo_inurba_marseille","lat":43.29288,"lon":5.37472,"is_reserved":false,"is_disabled":false,"rental_uris":{"android":"levelo://app?vid=3b9d08bb-1b55-42a6-afe7-eb04ae251396","ios":"levelo://app?vid=3b9d08bb-1b55-42a6-afe7-eb04ae251396"},"vehicle_type_id":"4","last_reported":1714763169,"current_range_meters":0,"station_id":"ce4bgi12rcd13ifvqb70","pricing_plan_id":"cebpf4jnsgd1na2vs0mg"},{"bike_id":"970e1aca-6111-490f-b79f-2aee43c2406f","system_id":"levelo_inurba_marseille","lat":43.2936,"lon":5.37835,"is_reserved":false,"is_disabled":false,"rental_uris":{"android":"levelo://app?vid=970e1aca-6111-490f-b79f-2aee43c2406f","ios":"levelo://app?vid=970e1aca-6111-490f-b79f-2aee43c2406f"},"vehicle_type_id":"4","last_reported":1714763169,"current_range_meters":13200,"station_id":"ce4bgjh2rcd13ifvqbf0","pricing_plan_id":"cebpf4jnsgd1na2vs0mg"},{"bike_id":"97d1ca0f-5513-49aa-b598-8f72950138a2","system_id":"levelo_inurba_marseille","lat":43.2928,"lon":5.37479,"is_reserved":false,"is_disabled":false,"rental_uris":{"android":"levelo://app?vid=97d1ca0f-5513-49aa-b598-8f72950138a2","ios":"levelo://app?vid=97d1ca0f-5513-49aa-b598-8f72950138a2"},"vehicle_type_id":"4","last_reported":1714763169,"current_range_meters":17200,"station_id":"ce4bgi12rcd13ifvqb70","pricing_plan_id":"cebpf4jnsgd1na2vs0mg"},{"bike_id":"369a3649-f78f-47bd-82a9-bfb95bdb65ae","system_id":"levelo_inurba_marseille","lat":43.2936,"lon":5.37835,"is_reserved":false,"is_disabled":false,"rental_uris":{"android":"levelo://app?vid=369a3649-f78f-47bd-82a9-bfb95bdb65ae","ios":"levelo://app?vid=369a3649-f78f-47bd-82a9-bfb95bdb65ae"},"vehicle_type_id":"4","last_reported":1714763169,"current_range_meters":19600,"station_id":"ce4bgjh2rcd13ifvqbf0","pricing_plan_id":"cebpf4jnsgd1na2vs0mg"},{"bike_id":"ed2aebf3-59ae-47bc-987c-a3af2db832d9","system_id":"levelo_inurba_marseille","lat":43.303002,"lon":5.392142,"is_reserved":false,"is_disabled":false,"rental_uris":{"android":"levelo://app?vid=ed2aebf3-59ae-47bc-987c-a3af2db832d9","ios":"levelo://app?vid=ed2aebf3-59ae-47bc-987c-a3af2db832d9"},"vehicle_type_id":"4","last_reported":1714763169,"current_range_meters":16000,"station_id":"ce4bgkh2rcd13ifvqbk0","pricing_plan_id":"cebpf4jnsgd1na2vs0mg"},{"bike_id":"019eb756-e629-407a-91d4-d2e57d66d72e","system_id":"levelo_inurba_marseille","lat":43.303002,"lon":5.392142,"is_reserved":false,"is_disabled":false,"rental_uris":{"android":"levelo://app?vid=019eb756-e629-407a-91d4-d2e57d66d72e","ios":"levelo://app?vid=019eb756-e629-407a-91d4-d2e57d66d72e"},"vehicle_type_id":"4","last_reported":1714763169,"current_range_meters":0,"station_id":"ce4bgkh2rcd13ifvqbk0","pricing_plan_id":"cebpf4jnsgd1na2vs0mg"},{"bike_id":"4a1f64f2-5874-46f1-9bc1-c333d754b879","system_id":"levelo_inurba_marseille","lat":43.303002,"lon":5.392142,"is_reserved":false,"is_disabled":false,"rental_uris":{"android":"levelo://app?vid=4a1f64f2-5874-46f1-9bc1-c333d754b879","ios":"levelo://app?vid=4a1f64f2-5874-46f1-9bc1-c333d754b879"},"vehicle_type_id":"4","last_reported":1714763169,"current_range_meters":7200,"station_id":"ce4bgkh2rcd13ifvqbk0","pricing_plan_id":"cebpf4jnsgd1na2vs0mg"},{"bike_id":"a681395b-591d-48a7-8bf6-3c1b92c30039","system_id":"levelo_inurba_marseille","lat":43.29372,"lon":5.378513,"is_reserved":false,"is_disabled":false,"rental_uris":{"android":"levelo://app?vid=a681395b-591d-48a7-8bf6-3c1b92c30039","ios":"levelo://app?vid=a681395b-591d-48a7-8bf6-3c1b92c30039"},"vehicle_type_id":"4","last_reported":1714763169,"current_range_meters":0,"station_id":"ce4bgjh2rcd13ifvqbf0","pricing_plan_id":"cebpf4jnsgd1na2vs0mg"},{"bike_id":"abb400d1-f87f-4057-bdda-d8b0291e8405","system_id":"levelo_inurba_marseille","lat":43.2936,"lon":5.37835,"is_reserved":false,"is_disabled":false,"rental_uris":{"android":"levelo://app?vid=abb400d1-f87f-4057-bdda-d8b0291e8405","ios":"levelo://app?vid=abb400d1-f87f-4057-bdda-d8b0291e8405"},"vehicle_type_id":"4","last_reported":1714763169,"current_range_meters":2800,"station_id":"ce4bgjh2rcd13ifvqbf0","pricing_plan_id":"cebpf4jnsgd1na2vs0mg"},{"bike_id":"9d0ac72b-c6de-43ff-b0f6-bd722c5de66f","system_id":"levelo_inurba_marseille","lat":43.2936,"lon":5.37835,"is_reserved":false,"is_disabled":false,"rental_uris":{"android":"levelo://app?vid=9d0ac72b-c6de-43ff-b0f6-bd722c5de66f","ios":"levelo://app?vid=9d0ac72b-c6de-43ff-b0f6-bd722c5de66f"},"vehicle_type_id":"4","last_reported":1714763169,"current_range_meters":22400,"station_id":"ce4bgjh2rcd13ifvqbf0","pricing_plan_id":"cebpf4jnsgd1na2vs0mg"},{"bike_id":"31e67f5a-322f-4e90-825f-3ab8f206d53c","system_id":"levelo_inurba_marseille","lat":43.302992,"lon":5.392136,"is_reserved":false,"is_disabled":false,"rental_uris":{"android":"levelo://app?vid=31e67f5a-322f-4e90-825f-3ab8f206d53c","ios":"levelo://app?vid=31e67f5a-322f-4e90-825f-3ab8f206d53c"},"vehicle_type_id":"4","last_reported":1714763169,"current_range_meters":0,"station_id":"ce4bgkh2rcd13ifvqbk0","pricing_plan_id":"cebpf4jnsgd1na2vs0mg"},{"bike_id":"6eef452c-03b6-4e7e-a33c-0eba20548880","system_id":"levelo_inurba_marseille","lat":43.302992,"lon":5.392136,"is_reserved":false,"is_disabled":false,"rental_uris":{"android":"levelo://app?vid=6eef452c-03b6-4e7e-a33c-0eba20548880","ios":"levelo://app?vid=6eef452c-03b6-4e7e-a33c-0eba20548880"},"vehicle_type_id":"4","last_reported":1714763169,"current_range_meters":15600,"station_id":"ce4bgkh2rcd13ifvqbk0","pricing_plan_id":"cebpf4jnsgd1na2vs0mg"},{"bike_id":"618bb7a5-b050-4fcf-97a5-3cea172a109f","system_id":"levelo_inurba_marseille","lat":43.292311,"lon":5.360731,"is_reserved":false,"is_disabled":false,"rental_uris":{"android":"levelo://app?vid=618bb7a5-b050-4fcf-97a5-3cea172a109f","ios":"levelo://app?vid=618bb7a5-b050-4fcf-97a5-3cea172a109f"},"vehicle_type_id":"4","last_reported":1714763169,"current_range_meters":10800,"station_id":"ce4bhbh2rcd13ifvqeqg","pricing_plan_id":"cebpf4jnsgd1na2vs0mg"},{"bike_id":"eb1e5509-d9d2-44bf-92ec-e587ccf8cadc","system_id":"levelo_inurba_marseille","lat":43.29223,"lon":5.36064,"is_reserved":false,"is_disabled":false,"rental_uris":{"android":"levelo://app?vid=eb1e5509-d9d2-44bf-92ec-e587ccf8cadc","ios":"levelo://app?vid=eb1e5509-d9d2-44bf-92ec-e587ccf8cadc"},"vehicle_type_id":"4","last_reported":1714763169,"current_range_meters":0,"station_id":"ce4bhbh2rcd13ifvqeqg","pricing_plan_id":"cebpf4jnsgd1na2vs0mg"},{"bike_id":"1d658414-06e3-44f7-aedc-b2a592b428dc","system_id":"levelo_inurba_marseille","lat":43.291671,"lon":5.371575,"is_reserved":false,"is_disabled":false,"rental_uris":{"android":"levelo://app?vid=1d658414-06e3-44f7-aedc-b2a592b428dc","ios":"levelo://app?vid=1d658414-06e3-44f7-aedc-b2a592b428dc"},"vehicle_type_id":"4","last_reported":1714763169,"current_range_meters":22400,"station_id":"ce4bha92rcd13ifvqeh0","pricing_plan_id":"cebpf4jnsgd1na2vs0mg"},{"bike_id":"fc12e3f1-e077-4d78-966d-773bc46eaa12","system_id":"levelo_inurba_marseille","lat":43.291675,"lon":5.371583,"is_reserved":false,"is_disabled":false,"rental_uris":{"android":"levelo://app?vid=fc12e3f1-e077-4d78-966d-773bc46eaa12","ios":"levelo://app?vid=fc12e3f1-e077-4d78-966d-773bc46eaa12"},"vehicle_type_id":"4","last_reported":1714763169,"current_range_meters":27200,"station_id":"ce4bha92rcd13ifvqeh0","pricing_plan_id":"cebpf4jnsgd1na2vs0mg"},{"bike_id":"1450348f-f1d1-4dc7-b8cf-801977a97c0d","system_id":"levelo_inurba_marseille","lat":43.291675,"lon":5.371583,"is_reserved":false,"is_disabled":false,"rental_uris":{"android":"levelo://app?vid=1450348f-f1d1-4dc7-b8cf-801977a97c0d","ios":"levelo://app?vid=1450348f-f1d1-4dc7-b8cf-801977a97c0d"},"vehicle_type_id":"4","last_reported":1714763169,"current_range_meters":18000,"station_id":"ce4bha92rcd13ifvqeh0","pricing_plan_id":"cebpf4jnsgd1na2vs0mg"},{"bike_id":"1f12f441-a44e-45ed-b104-500b18941ff4","system_id":"levelo_inurba_marseille","lat":43.298764,"lon":5.388973,"is_reserved":false,"is_disabled":false,"rental_uris":{"android":"levelo://app?vid=1f12f441-a44e-45ed-b104-500b18941ff4","ios":"levelo://app?vid=1f12f441-a44e-45ed-b104-500b18941ff4"},"vehicle_type_id":"4","last_reported":1714763169,"current_range_meters":10000,"station_id":"ce4bh392rcd13ifvqdl0","pricing_plan_id":"cebpf4jnsgd1na2vs0mg"},{"bike_id":"b3105068-3544-440d-938f-37ad8964a146","system_id":"levelo_inurba_marseille","lat":43.29529,"lon":5.385581,"is_reserved":false,"is_disabled":false,"rental_uris":{"android":"levelo://app?vid=b3105068-3544-440d-938f-37ad8964a146","ios":"levelo://app?vid=b3105068-3544-440d-938f-37ad8964a146"},"vehicle_type_id":"4","last_reported":1714763169,"current_range_meters":18400,"station_id":"ce4bgih2rcd13ifvqba0","pricing_plan_id":"cebpf4jnsgd1na2vs0mg"},{"bike_id":"b745b0d1-8ac1-4d45-8e70-9b12e1bd7b13","system_id":"levelo_inurba_marseille","lat":43.29529,"lon":5.385581,"is_reserved":false,"is_disabled":false,"rental_uris":{"android":"levelo://app?vid=b745b0d1-8ac1-4d45-8e70-9b12e1bd7b13","ios":"levelo://app?vid=b745b0d1-8ac1-4d45-8e70-9b12e1bd7b13"},"vehicle_type_id":"4","last_reported":1714763169,"current_range_meters":4000,"station_id":"ce4bgih2rcd13ifvqba0","pricing_plan_id":"cebpf4jnsgd1na2vs0mg"},{"bike_id":"88839d15-cb74-4f97-af8a-26c82d536522","system_id":"levelo_inurba_marseille","lat":43.29529,"lon":5.385581,"is_reserved":false,"is_disabled":false,"rental_uris":{"android":"levelo://app?vid=88839d15-cb74-4f97-af8a-26c82d536522","ios":"levelo://app?vid=88839d15-cb74-4f97-af8a-26c82d536522"},"vehicle_type_id":"4","last_reported":1714763169,"current_range_meters":2400,"station_id":"ce4bgih2rcd13ifvqba0","pricing_plan_id":"cebpf4jnsgd1na2vs0mg"},{"bike_id":"93676d58-d36d-4aa1-82cf-eb9149b62357","system_id":"levelo_inurba_marseille","lat":43.313291,"lon":5.396838,"is_reserved":false,"is_disabled":false,"rental_uris":{"android":"levelo://app?vid=93676d58-d36d-4aa1-82cf-eb9149b62357","ios":"levelo://app?vid=93676d58-d36d-4aa1-82cf-eb9149b62357"},"vehicle_type_id":"4","last_reported":1714763169,"current_range_meters":7600,"station_id":"ce4bgvp2rcd13ifvqcu0","pricing_plan_id":"cebpf4jnsgd1na2vs0mg"},{"bike_id":"e9a514af-610f-46a1-9dcb-675382175cf2","system_id":"levelo_inurba_marseille","lat":43.29547,"lon":5.3852,"is_reserved":false,"is_disabled":false,"rental_uris":{"android":"levelo://app?vid=e9a514af-610f-46a1-9dcb-675382175cf2","ios":"levelo://app?vid=e9a514af-610f-46a1-9dcb-675382175cf2"},