{"last_updated":1742195440,"ttl":60,"version":"2.2","data":{"bikes":[{"bike_id":"a0077075-129c-41b6-a008-934f22aa9c2b","system_id":"levelo_inurba_marseille","lat":43.26181,"lon":5.3747,"is_reserved":false,"is_disabled":true,"rental_uris":{"android":"levelo://app?vid=a0077075-129c-41b6-a008-934f22aa9c2b","ios":"levelo://app?vid=a0077075-129c-41b6-a008-934f22aa9c2b"},"vehicle_type_id":"4","last_reported":1742195440,"current_range_meters":2800,"station_id":"ce4bhgp2rcd13ifvqfc0","pricing_plan_id":"cebpf4jnsgd1na2vs0mg"},{"bike_id":"1ac0ebad-6828-4242-99b2-14a9f8209f79","system_id":"levelo_inurba_marseille","lat":43.23191,"lon":5.35564,"is_reserved":false,"is_disabled":false,"rental_uris":{"android":"levelo://app?vid=1ac0ebad-6828-4242-99b2-14a9f8209f79","ios":"levelo://app?vid=1ac0ebad-6828-4242-99b2-14a9f8209f79"},"vehicle_type_id":"4","last_reported":1742195440,"current_range_meters":3200,"station_id":"ce4bhu92rcd13ifvqi70","pricing_plan_id":"cebpf4jnsgd1na2vs0mg"},{"bike_id":"630e4be9-714d-4ded-a2a8-21ffee61b1ae","system_id":"levelo_inurba_marseille","lat":43.30948,"lon":5.39027,"is_reserved":false,"is_disabled":false,"rental_uris":{"android":"levelo://app?vid=630e4be9-714d-4ded-a2a8-21ffee61b1ae","ios":"levelo://app?vid=630e4be9-714d-4ded-a2a8-21ffee61b1ae"},"vehicle_type_id":"4","last_reported":1742195440,"current_range_meters":3200,"station_id":"ce4bgup2rcd13ifvqco0","pricing_plan_id":"cebpf4jnsgd1na2vs0mg"},{"bike_id":"260cf0bf-f63c-4727-a422-e0441bb0e006","system_id":"levelo_inurba_marseille","lat":43.29022,"lon":5.39983,"is_reserved":false,"is_disabled":false,"rental_uris":{"android":"levelo://app?vid=260cf0bf-f63c-4727-a422-e0441bb0e006","ios":"levelo://app?vid=260cf0bf-f63c-4727-a422-e0441bb0e006"},"vehicle_type_id":"4","last_reported":1742195440,"current_range_meters":3200,"station_id":"ce4bh392rcd13ifvqdm0","pricing_plan_id":"cebpf4jnsgd1na2vs0mg"},{"bike_id":"6cff3099-fc62-4212-a5e6-1cc54ed7cc41","system_id":"levelo_inurba_marseille","lat":43.24994,"lon":5.38954,"is_reserved":false,"is_disabled":false,"rental_uris":{"android":"levelo://app?vid=6cff3099-fc62-4212-a5e6-1cc54ed7cc41","ios":"levelo://app?vid=6cff3099-fc62-4212-a5e6-1cc54ed7cc41"},"vehicle_type_id":"4","last_reported":1742195440,"current_range_meters":3600,"station_id":"ce4bhgp2rcd13ifvqfd0","pricing_plan_id":"cebpf4jnsgd1na2vs0mg"},{"bike_id":"82465aa7-55ed-4055-9cc8-5fdee15ebdd8","system_id":"levelo_inurba_marseille","lat":43.276438,"lon":5.419008,"is_reserved":false,"is_disabled":false,"rental_uris":{"android":"levelo://app?vid=82465aa7-55ed-4055-9cc8-5fdee15ebdd8","ios":"levelo://app?vid=82465aa7-55ed-4055-9cc8-5fdee15ebdd8"},"vehicle_type_id":"4","last_reported":1742195440,"current_range_meters":3600,"station_id":"","pricing_plan_id":"cebpf4jnsgd1na2vs0mg"},{"bike_id":"e753054e-e0fe-4566-a93f-06acc689489e","system_id":"levelo_inurba_marseille","lat":43.28342,"lon":5.38106,"is_reserved":false,"is_disabled":false,"rental_uris":{"android":"levelo://app?vid=e753054e-e0fe-4566-a93f-06acc689489e","ios":"levelo://app?vid=e753054e-e0fe-4566-a93f-06acc689489e"},"vehicle_type_id":"4","last_reported":1742195440,"current_range_meters":3600,"station_id":"ce4bh412rcd13ifvqdr0","pricing_plan_id":"cebpf4jnsgd1na2vs0mg"},{"bike_id":"ae25fe52-db37-435e-90b0-0d9ecc4e1c43","system_id":"levelo_inurba_marseille","lat":43.27816,"lon":5.39224,"is_reserved":false,"is_disabled":false,"rental_uris":{"android":"levelo://app?vid=ae25fe52-db37-435e-90b0-0d9ecc4e1c43","ios":"levelo://app?vid=ae25fe52-db37-435e-90b0-0d9ecc4e1c43"},"vehicle_type_id":"4","last_reported":1742195440,"current_range_meters":3600,"station_id":"ce4bhjp2rcd13ifvqga0","pricing_plan_id":"cebpf4jnsgd1na2vs0mg"},{"bike_id":"71d6b220-48b3-44b0-9feb-d7bbfca6b232","system_id":"levelo_inurba_marseille","lat":43.25494,"lon":5.37665,"is_reserved":false,"is_disabled":true,"rental_uris":{"android":"levelo://app?vid=71d6b220-48b3-44b0-9feb-d7bbfca6b232","ios":"levelo://app?vid=71d6b220-48b3-44b0-9feb-d7bbfca6b232"},"vehicle_type_id":"4","last_reported":1742195440,"current_range_meters":3600,"station_id":"ce4bhh12rcd13ifvqff0","pricing_plan_id":"cebpf4jnsgd1na2vs0mg"},{"bike_id":"efb53dda-871b-483c-8dec-e716116f9234","system_id":"levelo_inurba_marseille","lat":43.31119,"lon":5.36771,"is_reserved":false,"is_disabled":false,"rental_uris":{"android":"levelo://app?vid=efb53dda-871b-483c-8dec-e716116f9234","ios":"levelo://app?vid=efb53dda-871b-483c-8dec-e716116f9234"},"vehicle_type_id":"4","last_reported":1742195440,"current_range_meters":3600,"station_id":"","pricing_plan_id":"cebpf4jnsgd1na2vs0mg"},{"bike_id":"a5d9a2f8-11e2-445b-9946-70463938f681","system_id":"levelo_inurba_marseille","lat":43.3116,"lon":5.38101,"is_reserved":false,"is_disabled":false,"rental_uris":{"android":"levelo://app?vid=a5d9a2f8-11e2-445b-9946-70463938f681","ios":"levelo://app?vid=a5d9a2f8-11e2-445b-9946-70463938f681"},"vehicle_type_id":"4","last_reported":1742195440,"current_range_meters":4000,"station_id":"","pricing_plan_id":"cebpf4jnsgd1na2vs0mg"},{"bike_id":"62cdf71e-41bc-4339-a546-f6be9625932d","system_id":"levelo_inurba_marseille","lat":43.29071,"lon":5.38674,"is_reserved":false,"is_disabled":false,"rental_uris":{"android":"levelo://app?vid=62cdf71e-41bc-4339-a546-f6be9625932d","ios":"levelo://app?vid=62cdf71e-41bc-4339-a546-f6be9625932d"},"vehicle_type_id":"4","last_reported":1742195440,"current_range_meters":4000,"station_id":"ce4bh4p2rcd13ifvqe0g","pricing_plan_id":"cebpf4jnsgd1na2vs0mg"},{"bike_id":"7dd769be-a96c-41b3-8a44-6973fc831e5b","system_id":"levelo_inurba_marseille","lat":43.25472,"lon":5.37716,"is_reserved":false,"is_disabled":true,"rental_uris":{"android":"levelo://app?vid=7dd769be-a96c-41b3-8a44-6973fc831e5b","ios":"levelo://app?vid=7dd769be-a96c-41b3-8a44-6973fc831e5b"},"vehicle_type_id":"4","last_reported":1742195440,"current_range_meters":4000,"station_id":"","pricing_plan_id":"cebpf4jnsgd1na2vs0mg"},{"bike_id":"c65173e3-05b2-4b51-9e26-7c5d7786f936","system_id":"levelo_inurba_marseille","lat":43.29033,"lon":5.38611,"is_reserved":false,"is_disabled":false,"rental_uris":{"android":"levelo://app?vid=c65173e3-05b2-4b51-9e26-7c5d7786f936","ios":"levelo://app?vid=c65173e3-05b2-4b51-9e26-7c5d7786f936"},"vehicle_type_id":"4","last_reported":1742195440,"current_range_meters":4400,"station_id":"ce4bh4p2rcd13ifvqe0g","pricing_plan_id":"cebpf4jnsgd1na2vs0mg"},{"bike_id":"1ebee6af-6672-4475-8604-890591e5f769","system_id":"levelo_inurba_marseille","lat":43.31698,"lon":5.37786,"is_reserved":false,"is_disabled":false,"rental_uris":{"android":"levelo://app?vid=1ebee6af-6672-4475-8604-890591e5f769","ios":"levelo://app?vid=1ebee6af-6672-4475-8604-890591e5f769"},"vehicle_type_id":"4","last_reported":1742195440,"current_range_meters":4400,"station_id":"ce4bgth2rcd13ifvqch0","pricing_plan_id":"cebpf4jnsgd1na2vs0mg"},{"bike_id":"bce6321c-509e-4dd3-9555-936abbbc3ab2","system_id":"levelo_inurba_marseille","lat":43.26944,"lon":5.38643,"is_reserved":false,"is_disabled":false,"rental_uris":{"android":"levelo://app?vid=bce6321c-509e-4dd3-9555-936abbbc3ab2","ios":"levelo://app?vid=bce6321c-509e-4dd3-9555-936abbbc3ab2"},"vehicle_type_id":"4","last_reported":1742195440,"current_range_meters":4400,"station_id":"ce4bhh92rcd13ifvqfh0","pricing_plan_id":"cebpf4jnsgd1na2vs0mg"},{"bike_id":"2127c283-3bf3-4081-9791-ba201cf5a542","system_id":"levelo_inurba_marseille","lat":43.3048,"lon":5.37396,"is_reserved":false,"is_disabled":false,"rental_uris":{"android":"levelo://app?vid=2127c283-3bf3-4081-9791-ba201cf5a542","ios":"levelo://app?vid=2127c283-3bf3-4081-9791-ba201cf5a542"},"vehicle_type_id":"4","last_reported":1742195440,"current_range_meters":4400,"station_id":"","pricing_plan_id":"cebpf4jnsgd1na2vs0mg"},{"bike_id":"f69cbcf2-f0c6-4812-a66d-6bffd54a736c","system_id":"levelo_inurba_marseille","lat":43.29708,"lon":5.36593,"is_reserved":false,"is_disabled":false,"rental_uris":{"android":"levelo://app?vid=f69cbcf2-f0c6-4812-a66d-6bffd54a736c","ios":"levelo://app?vid=f69cbcf2-f0c6-4812-a66d-6bffd54a736c"},"vehicle_type_id":"4","last_reported":1742195440,"current_range_meters":4400,"station_id":"ce4bgn12rcd13ifvqbt0","pricing_plan_id":"cebpf4jnsgd1na2vs0mg"},{"bike_id":"8ac36ff0-95fa-4664-8e37-a03afd0a16e1","system_id":"levelo_inurba_marseille","lat":43.289743,"lon":5.37834,"is_reserved":false,"is_disabled":true,"rental_uris":{"android":"levelo://app?vid=8ac36ff0-95fa-4664-8e37-a03afd0a16e1","ios":"levelo://app?vid=8ac36ff0-95fa-4664-8e37-a03afd0a16e1"},"vehicle_type_id":"4","last_reported":1742195440,"current_range_meters":4400,"station_id":"ce4bh9p2rcd13ifvqed0","pricing_plan_id":"cebpf4jnsgd1na2vs0mg"},{"bike_id":"f2b7b04e-8089-4d6c-9db8-5e21bca75c26","system_id":"levelo_inurba_marseille","lat":43.27827,"lon":5.39195,"is_reserved":false,"is_disabled":true,"rental_uris":{"android":"levelo://app?vid=f2b7b04e-8089-4d6c-9db8-5e21bca75c26","ios":"levelo://app?vid=f2b7b04e-8089-4d6c-9db8-5e21bca75c26"},"vehicle_type_id":"4","last_reported":1742195440,"current_range_meters":4400,"station_id":"ce4bhjp2rcd13ifvqga0","pricing_plan_id":"cebpf4jnsgd1na2vs0mg"},{"bike_id":"be27bfdc-e161-49d5-941e-eb1cd214500b","system_id":"levelo_inurba_marseille","lat":43.23965,"lon":5.3663,"is_reserved":false,"is_disabled":false,"rental_uris":{"android":"levelo://app?vid=be27bfdc-e161-49d5-941e-eb1cd214500b","ios":"levelo://app?vid=be27bfdc-e161-49d5-941e-eb1cd214500b"},"vehicle_type_id":"4","last_reported":1742195440,"current_range_meters":4800,"station_id":"ce4bhi12rcd13ifvqfp0","pricing_plan_id":"cebpf4jnsgd1na2vs0mg"},{"bike_id":"ba9ade16-5f6c-4bd9-87fc-1d72f77f26ac","system_id":"levelo_inurba_marseille","lat":43.289104,"lon":5.362187,"is_reserved":false,"is_disabled":false,"rental_uris":{"android":"levelo://app?vid=ba9ade16-5f6c-4bd9-87fc-1d72f77f26ac","ios":"levelo://app?vid=ba9ade16-5f6c-4bd9-87fc-1d72f77f26ac"},"vehicle_type_id":"4","last_reported":1742195440,"current_range_meters":4400,"station_id":"ce4bhqp2rcd13ifvqhng","pricing_plan_id":"cebpf4jnsgd1na2vs0mg"},{"bike_id":"61ea1968-2790-4970-9685-8a749d4e6df8","system_id":"levelo_inurba_marseille","lat":43.31127,"lon":5.37754,"is_reserved":false,"is_disabled":false,"rental_uris":{"android":"levelo://app?vid=61ea1968-2790-4970-9685-8a749d4e6df8","ios":"levelo://app?vid=61ea1968-2790-4970-9685-8a749d4e6df8"},"vehicle_type_id":"4","last_reported":1742195440,"current_range_meters":4800,"station_id":"ce4bgt92rcd13ifvqcg0","pricing_plan_id":"cebpf4jnsgd1na2vs0mg"},{"bike_id":"ee7c4bbf-f7e8-454c-a8b5-b704a65ca5bd","system_id":"levelo_inurba_marseille","lat":43.28265,"lon":5.35067,"is_reserved":false,"is_disabled":false,"rental_uris":{"android":"levelo://app?vid=ee7c4bbf-f7e8-454c-a8b5-b704a65ca5bd","ios":"levelo://app?vid=ee7c4bbf-f7e8-454c-a8b5-b704a65ca5bd"},"vehicle_type_id":"4","last_reported":1742195440,"current_range_meters":4800,"station_id":"ce4bhbp2rcd13ifvqerg","pricing_plan_id":"cebpf4jnsgd1na2vs0mg"},{"bike_id":"1e9aea03-6937-4ee0-9e91-73eda13ab755","system_id":"levelo_inurba_marseille","lat":43.33603,"lon":5.41036,"is_reserved":false,"is_disabled":false,"rental_uris":{"android":"levelo://app?vid=1e9aea03-6937-4ee0-9e91-73eda13ab755","ios":"levelo://app?vid=1e9aea03-6937-4ee0-9e91-73eda13ab755"},"vehicle_type_id":"4","last_reported":1742195440,"current_range_meters":4800,"station_id":"ce4bhqh2rcd13ifvqhmg","pricing_plan_id":"cebpf4jnsgd1na2vs0mg"},{"bike_id":"bd33bbd5-1724-41ef-9baa-0fb597b17988","system_id":"levelo_inurba_marseille","lat":43.26564,"lon":5.39013,"is_reserved":false,"is_disabled":false,"rental_uris":{"android":"levelo://app?vid=bd33bbd5-1724-41ef-9baa-0fb597b17988","ios":"levelo://app?vid=bd33bbd5-1724-41ef-9baa-0fb597b17988"},"vehicle_type_id":"4","last_reported":1742195440,"current_range_meters":4800,"station_id":"ce4bhe12rcd13ifvqf30","pricing_plan_id":"cebpf4jnsgd1na2vs0mg"},{"bike_id":"226bfa8c-468a-4f7f-bbde-f46c7fc50809","system_id":"levelo_inurba_marseille","lat":43.25573,"lon":5.40764,"is_reserved":false,"is_disabled":false,"rental_uris":{"android":"levelo://app?vid=226bfa8c-468a-4f7f-bbde-f46c7fc50809","ios":"levelo://app?vid=226bfa8c-468a-4f7f-bbde-f46c7fc50809"},"vehicle_type_id":"4","last_reported":1742195440,"current_range_meters":5600,"station_id":"ce4bhkp2rcd13ifvqgd0","pricing_plan_id":"cebpf4jnsgd1na2vs0mg"},{"bike_id":"af004255-93b1-4617-8c69-428414d7ebe9","system_id":"levelo_inurba_marseille","lat":43.24994,"lon":5.3894,"is_reserved":false,"is_disabled":false,"rental_uris":{"android":"levelo://app?vid=af004255-93b1-4617-8c69-428414d7ebe9","ios":"levelo://app?vid=af004255-93b1-4617-8c69-428414d7ebe9"},"vehicle_type_id":"4","last_reported":1742195440,"current_range_meters":5600,"station_id":"ce4bhgp2rcd13ifvqfd0","pricing_plan_id":"cebpf4jnsgd1na2vs0mg"},{"bike_id":"cd88cc99-a578-4f6a-93db-eacc85ece484","system_id":"levelo_inurba_marseille","lat":43.26058,"lon":5.394,"is_reserved":false,"is_disabled":false,"rental_uris":{"android":"levelo://app?vid=cd88cc99-a578-4f6a-93db-eacc85ece484","ios":"levelo://app?vid=cd88cc99-a578-4f6a-93db-eacc85ece484"},"vehicle_type_id":"4","last_reported":1742195440,"current_range_meters":5600,"station_id":"ce4bhh92rcd13ifvqfj0","pricing_plan_id":"cebpf4jnsgd1na2vs0mg"},{"bike_id":"60e1856d-727f-4e31-b84b-b55b6ecd07a6","system_id":"levelo_inurba_marseille","lat":43.29307,"lon":5.37173,"is_reserved":false,"is_disabled":false,"rental_uris":{"android":"levelo://app?vid=60e1856d-727f-4e31-b84b-b55b6ecd07a6","ios":"levelo://app?vid=60e1856d-727f-4e31-b84b-b55b6ecd07a6"},"vehicle_type_id":"4","last_reported":1742195440,"current_range_meters":5600,"station_id":"ce4bgh92rcd13ifvqb40","pricing_plan_id":"cebpf4jnsgd1na2vs0mg"},{"bike_id":"b7f516c4-2b30-42b6-a285-c0f7db3d7524","system_id":"levelo_inurba_marseille","lat":43.29227,"lon":5.36064,"is_reserved":false,"is_disabled":false,"rental_uris":{"android":"levelo://app?vid=b7f516c4-2b30-42b6-a285-c0f7db3d7524","ios":"levelo://app?vid=b7f516c4-2b30-42b6-a285-c0f7db3d7524"},"vehicle_type_id":"4","last_reported":1742195440,"current_range_meters":5600,"station_id":"ce4bhbh2rcd13ifvqeqg","pricing_plan_id":"cebpf4jnsgd1na2vs0mg"},{"bike_id":"743c9fbf-42df-4986-bc8c-9b4a2bc386be","system_id":"levelo_inurba_marseille","lat":43.24088,"lon":5.37764,"is_reserved":false,"is_disabled":false,"rental_uris":{"android":"levelo://app?vid=743c9fbf-42df-4986-bc8c-9b4a2bc386be","ios":"levelo://app?vid=743c9fbf-42df-4986-bc8c-9b4a2bc386be"},"vehicle_type_id":"4","last_reported":1742195440,"current_range_meters":5600,"station_id":"ce4bhnp2rcd13ifvqgvg","pricing_plan_id":"cebpf4jnsgd1na2vs0mg"},{"bike_id":"82e4859a-e942-44b1-82e8-bca3ed8730b3","system_id":"levelo_inurba_marseille","lat":43.24815,"lon":5.37473,"is_reserved":false,"is_disabled":false,"rental_uris":{"android":"levelo://app?vid=82e4859a-e942-44b1-82e8-bca3ed8730b3","ios":"levelo://app?vid=82e4859a-e942-44b1-82e8-bca3ed8730b3"},"vehicle_type_id":"4","last_reported":1742195440,"current_range_meters":5600,"station_id":"ce4bhgh2rcd13ifvqfb0","pricing_plan_id":"cebpf4jnsgd1na2vs0mg"},{"bike_id":"c5ff76ac-c5f0-4e6d-872b-0339d85f51aa","system_id":"levelo_inurba_marseille","lat":43.24064,"lon":5.37758,"is_reserved":false,"is_disabled":false,"rental_uris":{"android":"levelo://app?vid=c5ff76ac-c5f0-4e6d-872b-0339d85f51aa","ios":"levelo://app?vid=c5ff76ac-c5f0-4e6d-872b-0339d85f51aa"},"vehicle_type_id":"4","last_reported":1742195440,"current_range_meters":5600,"station_id":"ce4bhnp2rcd13ifvqgvg","pricing_plan_id":"cebpf4jnsgd1na2vs0mg"},{"bike_id":"31710fca-ccfa-43a5-ac6f-5ec923018ebf","system_id":"levelo_inurba_marseille","lat":43.274019,"lon":5.420479,"is_reserved":false,"is_disabled":false,"rental_uris":{"android":"levelo://app?vid=31710fca-ccfa-43a5-ac6f-5ec923018ebf","ios":"levelo://app?vid=31710fca-ccfa-43a5-ac6f-5ec923018ebf"},"vehicle_type_id":"4","last_reported":1742195440,"current_range_meters":5600,"station_id":"","pricing_plan_id":"cebpf4jnsgd1na2vs0mg"},{"bike_id":"0102a975-ca16-4d1e-8694-d919e87a2584","system_id":"levelo_inurba_marseille","lat":43.29547,"lon":5.42282,"is_reserved":false,"is_disabled":false,"rental_uris":{"android":"levelo://app?vid=0102a975-ca16-4d1e-8694-d919e87a2584","ios":"levelo://app?vid=0102a975-ca16-4d1e-8694-d919e87a2584"},"vehicle_type_id":"4","last_reported":1742195440,"current_range_meters":6000,"station_id":"ce4bhph2rcd13ifvqhdg","pricing_plan_id":"cebpf4jnsgd1na2vs0mg"},{"bike_id":"f7c08432-961c-46aa-bedc-f011bde76af8","system_id":"levelo_inurba_marseille","lat":43.26948,"lon":5.38629,"is_reserved":false,"is_disabled":false,"rental_uris":{"android":"levelo://app?vid=f7c08432-961c-46aa-bedc-f011bde76af8","ios":"levelo://app?vid=f7c08432-961c-46aa-bedc-f011bde76af8"},"vehicle_type_id":"4","last_reported":1742195440,"current_range_meters":6000,"station_id":"ce4bhh92rcd13ifvqfh0","pricing_plan_id":"cebpf4jnsgd1na2vs0mg"},{"bike_id":"68f3bcfe-e20f-4ad8-9579-f569150feb8a","system_id":"levelo_inurba_marseille","lat":43.27602,"lon":5.36127,"is_reserved":false,"is_disabled":false,"rental_uris":{"android":"levelo://app?vid=68f3bcfe-e20f-4ad8-9579-f569150feb8a","ios":"levelo://app?vid=68f3bcfe-e20f-4ad8-9579-f569150feb8a"},"vehicle_type_id":"4","last_reported":1742195440,"current_range_meters":6000,"station_id":"ce4bgj92rcd13ifvqbe0","pricing_plan_id":"cebpf4jnsgd1na2vs0mg"},{"bike_id":"ccaaf1b5-95e5-46c7-a707-b5f308e57161","system_id":"levelo_inurba_marseille","lat":43.26957,"lon":5.3864,"is_reserved":false,"is_disabled":false,"rental_uris":{"android":"levelo://app?vid=ccaaf1b5-95e5-46c7-a707-b5f308e57161","ios":"levelo://app?vid=ccaaf1b5-95e5-46c7-a707-b5f308e57161"},"vehicle_type_id":"4","last_reported":1742195440,"current_range_meters":6000,"station_id":"ce4bhh92rcd13ifvqfh0","pricing_plan_id":"cebpf4jnsgd1na2vs0mg"},{"bike_id":"a17866dc-3074-49fc-9a89-48869866e9d8","system_id":"levelo_inurba_marseille","lat":43.27213,"lon":5.39205,"is_reserved":false,"is_disabled":true,"rental_uris":{"android":"levelo://app?vid=a17866dc-3074-49fc-9a89-48869866e9d8","ios":"levelo://app?vid=a17866dc-3074-49fc-9a89-48869866e9d8"},"vehicle_type_id":"4","last_reported":1742195440,"current_range_meters":6000,"station_id":"ce4bhhp2rcd13ifvqfm0","pricing_plan_id":"cebpf4jnsgd1na2vs0mg"},{"bike_id":"81a0f13a-69ee-4ea7-ada0-3a2c5a1d7adb","system_id":"levelo_inurba_marseille","lat":43.34141,"lon":5.40909,"is_reserved":false,"is_disabled":false,"rental_uris":{"android":"levelo://app?vid=81a0f13a-69ee-4ea7-ada0-3a2c5a1d7adb","ios":"levelo://app?vid=81a0f13a-69ee-4ea7-ada0-3a2c5a1d7adb"},"vehicle_type_id":"4","last_reported":1742195440,"current_range_meters":6000,"station_id":"ce4bhqh2rcd13ifvqhlg","pricing_plan_id":"cebpf4jnsgd1na2vs0mg"},{"bike_id":"3a766561-d5df-4bb1-accb-85c347f27a70","system_id":"levelo_inurba_marseille","lat":43.33703,"lon":5.39202,"is_reserved":false,"is_disabled":false,"rental_uris":{"android":"levelo://app?vid=3a766561-d5df-4bb1-accb-85c347f27a70","ios":"levelo://app?vid=3a766561-d5df-4bb1-accb-85c347f27a70"},"vehicle_type_id":"4","last_reported":1742195440,"current_range_meters":6000,"station_id":"ce4bhr92rcd13ifvqhsg","pricing_plan_id":"cebpf4jnsgd1na2vs0mg"},{"bike_id":"66d32bc0-87bc-4009-b362-232cd68bde0e","system_id":"levelo_inurba_marseille","lat":43.25083,"lon":5.39523,"is_reserved":false,"is_disabled":false,"rental_uris":{"android":"levelo://app?vid=66d32bc0-87bc-4009-b362-232cd68bde0e","ios":"levelo://app?vid=66d32bc0-87bc-4009-b362-232cd68bde0e"},"vehicle_type_id":"4","last_reported":1742195440,"current_range_meters":6000,"station_id":"ce4bhm12rcd13ifvqgkg","pricing_plan_id":"cebpf4jnsgd1na2vs0mg"},{"bike_id":"d3bd0ca2-58e0-4f19-bd33-980724ab7a39","system_id":"levelo_inurba_marseille","lat":43.30898,"lon":5.39626,"is_reserved":false,"is_disabled":true,"rental_uris":{"android":"levelo://app?vid=d3bd0ca2-58e0-4f19-bd33-980724ab7a39","ios":"levelo://app?vid=d3bd0ca2-58e0-4f19-bd33-980724ab7a39"},"vehicle_type_id":"4","last_reported":1742195440,"current_range_meters":6000,"station_id":"ce4bh012rcd13ifvqcv0","pricing_plan_id":"cebpf4jnsgd1na2vs0mg"},{"bike_id":"5d9a22e0-3e63-4043-aae3-272336597850","system_id":"levelo_inurba_marseille","lat":43.29801,"lon":5.3643,"is_reserved":false,"is_disabled":false,"rental_uris":{"android":"levelo://app?vid=5d9a22e0-3e63-4043-aae3-272336597850","ios":"levelo://app?vid=5d9a22e0-3e63-4043-aae3-272336597850"},"vehicle_type_id":"4","last_reported":1742195440,"current_range_meters":6400,"station_id":"ce4bgn12rcd13ifvqbt0","pricing_plan_id":"cebpf4jnsgd1na2vs0mg"},{"bike_id":"2c2b70e5-e895-43c6-973c-cdd69db920eb","system_id":"levelo_inurba_marseille","lat":43.279383,"lon":5.410374,"is_reserved":false,"is_disabled":false,"rental_uris":{"android":"levelo://app?vid=2c2b70e5-e895-43c6-973c-cdd69db920eb","ios":"levelo://app?vid=2c2b70e5-e895-43c6-973c-cdd69db920eb"},"vehicle_type_id":"4","last_reported":1742195440,"current_range_meters":6400,"station_id":"ce4bhnp2rcd13ifvqh0g","pricing_plan_id":"cebpf4jnsgd1na2vs0mg"},{"bike_id":"71b342b8-694b-40d5-99e8-310baf77a970","system_id":"levelo_inurba_marseille","lat":43.23046,"lon":5.3551,"is_reserved":false,"is_disabled":false,"rental_uris":{"android":"levelo://app?vid=71b342b8-694b-40d5-99e8-310baf77a970","ios":"levelo://app?vid=71b342b8-694b-40d5-99e8-310baf77a970"},"vehicle_type_id":"4","last_reported":1742195440,"current_range_meters":6400,"station_id":"cpo3342slgdg3j2ifvpg","pricing_plan_id":"cebpf4jnsgd1na2vs0mg"},{"bike_id":"8bf2e89b-2ebd-4f34-a419-e5c65583077b","system_id":"levelo_inurba_marseille","lat":43.281255,"lon":5.445928,"is_reserved":false,"is_disabled":false,"rental_uris":{"android":"levelo://app?vid=8bf2e89b-2ebd-4f34-a419-e5c65583077b","ios":"levelo://app?vid=8bf2e89b-2ebd-4f34-a419-e5c65583077b"},"vehicle_type_id":"4","last_reported":1742195440,"current_range_meters":6400,"station_id":"","pricing_plan_id":"cebpf4jnsgd1na2vs0mg"},{"bike_id":"dfa76b7e-741a-4edb-9a75-5948b5933f81","system_id":"levelo_inurba_marseille","lat":43.24875,"lon":5.40903,"is_reserved":false,"is_disabled":false,"rental_uris":{"android":"levelo://app?vid=dfa76b7e-741a-4edb-9a75-5948b5933f81","ios":"levelo://app?vid=dfa76b7e-741a-4edb-9a75-5948b5933f81"},"vehicle_type_id":"4","last_reported":1742195440,"current_range_meters":6400,"station_id":"","pricing_plan_id":"cebpf4jnsgd1na2vs0mg"},{"bike_id":"884110b3-ae46-42ad-bdac-dbe98a54ba78","system_id":"levelo_inurba_marseille","lat":43.26499,"lon":5.39531,"is_reserved":false,"is_disabled":false,"rental_uris":{"android":"levelo://app?vid=884110b3-ae46-42ad-bdac-dbe98a54ba78","ios":"levelo://app?vid=884110b3-ae46-42ad-bdac-dbe98a54ba78"},"vehicle_type_id":"4","last_reported":1742195440,"current_range_meters":6400,"station_id":"ce4bhi12rcd13ifvqfq0","pricing_plan_id":"cebpf4jnsgd1na2vs0mg"},{"bike_id":"af0e35b3-8dbd-46c7-96d1-8852cbb490f2","system_id":"levelo_inurba_marseille","lat":43.26558,"lon":5.3726,"is_reserved":false,"is_disabled":false,"rental_uris":{"android":"levelo://app?vid=af0e35b3-8dbd-46c7-96d1-8852cbb490f2","ios":"levelo://app?vid=af0e35b3-8dbd-46c7-96d1-8852cbb490f2"},"vehicle_type_id":"4","last_reported":1742195440,"current_range_meters":6400,"station_id":"ce4bhg12rcd13ifvqf70","pricing_plan_id":"cebpf4jnsgd1na2vs0mg"},{"bike_id":"25bb2ded-fba6-47cc-8f36-5c53dcdeec58","system_id":"levelo_inurba_marseille","lat":43.24184,"lon":5.39731,"is_reserved":false,"is_disabled":false,"rental_uris":{"android":"levelo://app?vid=25bb2ded-fba6-47cc-8f36-5c53dcdeec58","ios":"levelo://app?vid=25bb2ded-fba6-47cc-8f36-5c53dcdeec58"},"vehicle_type_id":"4","last_reported":1742195440,"current_range_meters":6400,"station_id":"ce4bhn12rcd13ifvqgpg","pricing_plan_id":"cebpf4jnsgd1na2vs0mg"},{"bike_id":"d41c908c-4dc6-4aaa-969d-73466d9b3b3d","system_id":"levelo_inurba_marseille","lat":43.27491,"lon":5.42459,"is_reserved":false,"is_disabled":false,"rental_uris":{"android":"levelo://app?vid=d41c908c-4dc6-4aaa-969d-73466d9b3b3d","ios":"levelo://app?vid=d41c908c-4dc6-4aaa-969d-73466d9b3b3d"},"vehicle_type_id":"4","last_reported":1742195440,"current_range_meters":6400,"station_id":"ce4bhn92rcd13ifvqgrg","pricing_plan_id":"cebpf4jnsgd1na2vs0mg"},{"bike_id":"c1ccf9ca-98f0-4eaf-9c83-bb7b5133d125","system_id":"levelo_inurba_marseille","lat":43.32019,"lon":5.36872,"is_reserved":false,"is_disabled":false,"rental_uris":{"android":"levelo://app?vid=c1ccf9ca-98f0-4eaf-9c83-bb7b5133d125","ios":"levelo://app?vid=c1ccf9ca-98f0-4eaf-9c83-bb7b5133d125"},"vehicle_type_id":"4","last_reported":1742195440,"current_range_meters":6400,"station_id":"","pricing_plan_id":"cebpf4jnsgd1na2vs0mg"},{"bike_id":"5f813939-abd0-4724-aebe-15fd911368cc","system_id":"levelo_inurba_marseille","lat":43.232004,"lon":5.355518,"is_reserved":false,"is_disabled":false,"rental_uris":{"android":"levelo://app?vid=5f813939-abd0-4724-aebe-15fd911368cc","ios":"levelo://app?vid=5f813939-abd0-4724-aebe-15fd911368cc"},"vehicle_type_id":"4","last_reported":1742195440,"current_range_meters":6400,"station_id":"ce4bhu92rcd13ifvqi70","pricing_plan_id":"cebpf4jnsgd1na2vs0mg"},{"bike_id":"23f402d9-dfb0-47f6-9db8-b03d1756c728","system_id":"levelo_inurba_marseille","lat":43.23146,"lon":5.43722,"is_reserved":false,"is_disabled":false,"rental_uris":{"android":"levelo://app?vid=23f402d9-dfb0-47f6-9db8-b03d1756c728","ios":"levelo://app?vid=23f402d9-dfb0-47f6-9db8-b03d1756c728"},"vehicle_type_id":"4","last_reported":1742195440,"current_range_meters":6800,"station_id":"ce4bhmp2rcd13ifvqgog","pricing_plan_id":"cebpf4jnsgd1na2vs0mg"},{"bike_id":"555bf458-d1d6-4a2e-8876-071970d88ebd","system_id":"levelo_inurba_marseille","lat":43.26533,"lon":5.39044,"is_reserved":false,"is_disabled":false,"rental_uris":{"android":"levelo://app?vid=555bf458-d1d6-4a2e-8876-071970d88ebd","ios":"levelo://app?vid=555bf458-d1d6-4a2e-8876-071970d88ebd"},"vehicle_type_id":"4","last_reported":1742195440,"current_range_meters":6800,"station_id":"ce4bhe12rcd13ifvqf30","pricing_plan_id":"cebpf4jnsgd1na2vs0mg"},{"bike_id":"6582e7c2-5aa5-4e6a-abc5-fa241e74aeb6","system_id":"levelo_inurba_marseille","lat":43.29894,"lon":5.43668,"is_reserved":false,"is_disabled":false,"rental_uris":{"android":"levelo://app?vid=6582e7c2-5aa5-4e6a-abc5-fa241e74aeb6","ios":"levelo://app?vid=6582e7c2-5aa5-4e6a-abc5-fa241e74aeb6"},"vehicle_type_id":"4","last_reported":1742195440,"current_range_meters":6800,"station_id":"ce4bhpp2rcd13ifvqhfg","pricing_plan_id":"cebpf4jnsgd1na2vs0mg"},{"bike_id":"fc071de1-2cc0-488a-a43e-f8037a5a9a49","system_id":"levelo_inurba_marseille","lat":43.23063,"lon":5.35497,"is_reserved":false,"is_disabled":false,"rental_uris":{"android":"levelo://app?vid=fc071de1-2cc0-488a-a43e-f8037a5a9a49","ios":"levelo://app?vid=fc071de1-2cc0-488a-a43e-f8037a5a9a49"},"vehicle_type_id":"4","last_reported":1742195440,"current_range_meters":6800,"station_id":"cpo3342slgdg3j2ifvpg","pricing_plan_id":"cebpf4jnsgd1na2vs0mg"},{"bike_id":"c4c002d3-8c70-4b36-8c7f-5d4af5808201","system_id":"levelo_inurba_marseille","lat":43.29179,"lon":5.39311,"is_reserved":false,"is_disabled":true,"rental_uris":{"android":"levelo://app?vid=c4c002d3-8c70-4b36-8c7f-5d4af5808201","ios":"levelo://app?vid=c4c002d3-8c70-4b36-8c7f-5d4af5808201"},"vehicle_type_id":"4","last_reported":1742195440,"current_range_meters":6800,"station_id":"ce4bh192rcd13ifvqdd0","pricing_plan_id":"cebpf4jnsgd1na2vs0mg"},{"bike_id":"174c9c66-b172-484e-b7f9-5752aa18aabf","system_id":"levelo_inurba_marseille","lat":43.230683,"lon":5.354978,"is_reserved":false,"is_disabled":false,"rental_uris":{"android":"levelo://app?vid=174c9c66-b172-484e-b7f9-5752aa18aabf","ios":"levelo://app?vid=174c9c66-b172-484e-b7f9-5752aa18aabf"},"vehicle_type_id":"4","last_reported":1742195440,"current_range_meters":6800,"station_id":"cpo3342slgdg3j2ifvpg","pricing_plan_id":"cebpf4jnsgd1na2vs0mg"},{"bike_id":"cae963d0-8ab6-4903-842b-fd456179f2b4","system_id":"levelo_inurba_marseille","lat":43.3046,"lon":5.37918,"is_reserved":false,"is_disabled":false,"rental_uris":{"android":"levelo://app?vid=cae963d0-8ab6-4903-842b-fd456179f2b4","ios":"levelo://app?vid=cae963d0-8ab6-4903-842b-fd456179f2b4"},"vehicle_type_id":"4","last_reported":1742195440,"current_range_meters":6800,"station_id":"ce4bgup2rcd13ifvqcn0","pricing_plan_id":"cebpf4jnsgd1na2vs0mg"},{"bike_id":"3e2e14c7-f5ed-4573-bf2b-84d788bc9968","system_id":"levelo_inurba_marseille","lat":43.33712,"lon":5.42087,"is_reserved":false,"is_disabled":false,"rental_uris":{"android":"levelo://app?vid=3e2e14c7-f5ed-4573-bf2b-84d788bc9968","ios":"levelo://app?vid=3e2e14c7-f5ed-4573-bf2b-84d788bc9968"},"vehicle_type_id":"4","last_reported":1742195440,"current_range_meters":6800,"station_id":"","pricing_plan_id":"cebpf4jnsgd1na2vs0mg"},{"bike_id":"9544e52b-7c59-430f-a85b-7c60f50c2f53","system_id":"levelo_inurba_marseille","lat":43.25824,"lon":5.3944,"is_reserved":false,"is_disabled":false,"rental_uris":{"android":"levelo://app?vid=9544e52b-7c59-430f-a85b-7c60f50c2f53","ios":"levelo://app?vid=9544e52b-7c59-430f-a85b-7c60f50c2f53"},"vehicle_type_id":"4","last_reported":1742195440,"current_range_meters":6800,"station_id":"ce4bhip2rcd13ifvqft0","pricing_plan_id":"cebpf4jnsgd1na2vs0mg"},{"bike_id":"f876773a-fec2-4503-8f9a-c65b00603ae5","system_id":"levelo_inurba_marseille","lat":43.24056,"lon":5.37743,"is_reserved":false,"is_disabled":false,"rental_uris":{"android":"levelo://app?vid=f876773a-fec2-4503-8f9a-c65b00603ae5","ios":"levelo://app?vid=f876773a-fec2-4503-8f9a-c65b00603ae5"},"vehicle_type_id":"4","last_reported":1742195440,"current_range_meters":7200,"station_id":"ce4bhnp2rcd13ifvqgvg","pricing_plan_id":"cebpf4jnsgd1na2vs0mg"},{"bike_id":"c0d14a55-0953-4c59-b0cd-c76953277ffe","system_id":"levelo_inurba_marseille","lat":43.29697,"lon":5.44722,"is_reserved":false,"is_disabled":false,"rental_uris":{"android":"levelo://app?vid=c0d14a55-0953-4c59-b0cd-c76953277ffe","ios":"levelo://app?vid=c0d14a55-0953-4c59-b0cd-c76953277ffe"},"vehicle_type_id":"4","last_reported":1742195440,"current_range_meters":7200,"station_id":"","pricing_plan_id":"cebpf4jnsgd1na2vs0mg"},{"bike_id":"76b415aa-d90d-4b4c-9954-2e46fdae4260","system_id":"levelo_inurba_marseille","lat":43.29004,"lon":5.3561,"is_reserved":false,"is_disabled":true,"rental_uris":{"android":"levelo://app?vid=76b415aa-d90d-4b4c-9954-2e46fdae4260","ios":"levelo://app?vid=76b415aa-d90d-4b4c-9954-2e46fdae4260"},"vehicle_type_id":"4","last_reported":1742195440,"current_range_meters":8000,"station_id":"ce4bhb92rcd13ifvqen0","pricing_plan_id":"cebpf4jnsgd1na2vs0mg"},{"bike_id":"f4806f6b-90cc-4357-8538-1ba6d4b0b5e4","system_id":"levelo_inurba_marseille","lat":43.23181,"lon":5.35556,"is_reserved":false,"is_disabled":false,"rental_uris":{"android":"levelo://app?vid=f4806f6b-90cc-4357-8538-1ba6d4b0b5e4","ios":"levelo://app?vid=f4806f6b-90cc-4357-8538-1ba6d4b0b5e4"},"vehicle_type_id":"4","last_reported":1742195440,"current_range_meters":8000,"station_id":"ce4bhu92rcd13ifvqi70","pricing_plan_id":"cebpf4jnsgd1na2vs0mg"},{"bike_id":"0a75b9be-4843-49b8-b389-4ce031569179","system_id":"levelo_inurba_marseille","lat":43.2798,"lon":5.40785,"is_reserved":false,"is_disabled":false,"rental_uris":{"android":"levelo://app?vid=0a75b9be-4843-49b8-b389-4ce031569179","ios":"levelo://app?vid=0a75b9be-4843-49b8-b389-4ce031569179"},"vehicle_type_id":"4","last_reported":1742195440,"current_range_meters":8000,"station_id":"","pricing_plan_id":"cebpf4jnsgd1na2vs0mg"},{"bike_id":"f82ca6b2-f7eb-4f59-a86f-e607859c35e5","system_id":"levelo_inurba_marseille","lat":43.29911,"lon":5.37455,"is_reserved":false,"is_disabled":false,"rental_uris":{"android":"levelo://app?vid=f82ca6b2-f7eb-4f59-a86f-e607859c35e5","ios":"levelo://app?vid=f82ca6b2-f7eb-4f59-a86f-e607859c35e5"},"vehicle_type_id":"4","last_reported":1742195440,"current_range_meters":6800,"station_id":"ce4bgjh2rcd13ifvqbg0","pricing_plan_id":"cebpf4jnsgd1na2vs0mg"},{"bike_id":"30d81c08-34da-4edd-b95f-c61ec8b992dd","system_id":"levelo_inurba_marseille","lat":43.2804,"lon":5.36939,"is_reserved":false,"is_disabled":false,"rental_uris":{"android":"levelo://app?vid=30d81c08-34da-4edd-b95f-c61ec8b992dd","ios":"levelo://app?vid=30d81c08-34da-4edd-b95f-c61ec8b992dd"},"vehicle_type_id":"4","last_reported":1742195440,"current_range_meters":2800,"station_id":"ce4bha12rcd13ifvqef0","pricing_plan_id":"cebpf4jnsgd1na2vs0mg"},{"bike_id":"c46bec50-c693-405c-875f-3f20e5871328","system_id":"levelo_inurba_marseille","lat":43.241741,"lon":5.397278,"is_reserved":false,"is_disabled":false,"rental_uris":{"android":"levelo://app?vid=c46bec50-c693-405c-875f-3f20e5871328","ios":"levelo://app?vid=c46bec50-c693-405c-875f-3f20e5871328"},"vehicle_type_id":"4","last_reported":1742195440,"current_range_meters":8000,"station_id":"ce4bhn12rcd13ifvqgpg","pricing_plan_id":"cebpf4jnsgd1na2vs0mg"},{"bike_id":"158ac11d-51ea-45c5-885b-753b84e974bb","system_id":"levelo_inurba_marseille","lat":43.33772,"lon":5.37442,"is_reserved":false,"is_disabled":false,"rental_uris":{"android":"levelo://app?vid=158ac11d-51ea-45c5-885b-753b84e974bb","ios":"levelo://app?vid=158ac11d-51ea-45c5-885b-753b84e974bb"},"vehicle_type_id":"4","last_reported":1742195440,"current_range_meters":8000,"station_id":"","pricing_plan_id":"cebpf4jnsgd1na2vs0mg"},{"bike_id":"ec4c8fc9-399f-4f5a-b345-e19e03d811c3","system_id":"levelo_inurba_marseille","lat":43.27166,"lon":5.41008,"is_reserved":false,"is_disabled":true,"rental_uris":{"android":"levelo://app?vid=ec4c8fc9-399f-4f5a-b345-e19e03d811c3","ios":"levelo://app?vid=ec4c8fc9-399f-4f5a-b345-e19e03d811c3"},"vehicle_type_id":"4","last_reported":1742195440,"current_range_meters":8000,"station_id":"ce4bhl12rcd13ifvqgf0","pricing_plan_id":"cebpf4jnsgd1na2vs0mg"},{"bike_id":"0f03e598-d877-4a3d-a03c-ef9f78c69a5e","system_id":"levelo_inurba_marseille","lat":43.30599,"lon":5.39338,"is_reserved":false,"is_disabled":false,"rental_uris":{"android":"levelo://app?vid=0f03e598-d877-4a3d-a03c-ef9f78c69a5e","ios":"levelo://app?vid=0f03e598-d877-4a3d-a03c-ef9f78c69a5e"},"vehicle_type_id":"4","last_reported":1742195440,"current_range_meters":8000,"station_id":"ce4bh0p2rcd13ifvqd80","pricing_plan_id":"cebpf4jnsgd1na2vs0mg"},{"bike_id":"cfca55c0-fecd-4bcd-8dab-5697f0a3af12","system_id":"levelo_inurba_marseille","lat":43.30466,"lon":5.37907,"is_reserved":false,"is_disabled":false,"rental_uris":{"android":"levelo://app?vid=cfca55c0-fecd-4bcd-8dab-5697f0a3af12","ios":"levelo://app?vid=cfca55c0-fecd-4bcd-8dab-5697f0a3af12"},"vehicle_type_id":"4","last_reported":1742195440,"current_range_meters":8000,"station_id":"ce4bgup2rcd13ifvqcn0","pricing_plan_id":"cebpf4jnsgd1na2vs0mg"},{"bike_id":"63ccaa1b-7302-45e3-82a8-d904a69351b6","system_id":"levelo_inurba_marseille","lat":43.2396,"lon":5.36615,"is_reserved":false,"is_disabled":true,"rental_uris":{"android":"levelo://app?vid=63ccaa1b-7302-45e3-82a8-d904a69351b6","ios":"levelo://app?vid=63ccaa1b-7302-45e3-82a8-d904a69351b6"},"vehicle_type_id":"4","last_reported":1742195440,"current_range_meters":8000,"station_id":"ce4bhi12rcd13ifvqfp0","pricing_plan_id":"cebpf4jnsgd1na2vs0mg"},{"bike_id":"02903d83-44bb-40cf-a804-6798606e7bc6","system_id":"levelo_inurba_marseille","lat":43.24817,"lon":5.37474,"is_reserved":false,"is_disabled":false,"rental_uris":{"android":"levelo://app?vid=02903d83-44bb-40cf-a804-6798606e7bc6","ios":"levelo://app?vid=02903d83-44bb-40cf-a804-6798606e7bc6"},"vehicle_type_id":"4","last_reported":1742195440,"current_range_meters":8000,"station_id":"ce4bhgh2rcd13ifvqfb0","pricing_plan_id":"cebpf4jnsgd1na2vs0mg"},{"bike_id":"38de9398-607b-4e38-b181-28a0e85a0172","system_id":"levelo_inurba_marseille","lat":43.29031,"lon":5.38618,"is_reserved":false,"is_disabled":true,"rental_uris":{"android":"levelo://app?vid=38de9398-607b-4e38-b181-28a0e85a0172","ios":"levelo://app?vid=38de9398-607b-4e38-b181-28a0e85a0172"},"vehicle_type_id":"4","last_reported":1742195440,"current_range_meters":8000,"station_id":"ce4bh4p2rcd13ifvqe0g","pricing_plan_id":"cebpf4jnsgd1na2vs0mg"},{"bike_id":"7099c38a-2986-4dc9-9398-307b562f7d30","system_id":"levelo_inurba_marseille","lat":43.25934,"lon":5.40911,"is_reserved":false,"is_disabled":false,"rental_uris":{"android":"levelo://app?vid=7099c38a-2986-4dc9-9398-307b562f7d30","ios":"levelo://app?vid=7099c38a-2986-4dc9-9398-307b562f7d30"},"vehicle_type_id":"4","last_reported":1742195440,"current_range_meters":8000,"station_id":"ce4bhm92rcd13ifvqglg","pricing_plan_id":"cebpf4jnsgd1na2vs0mg"},{"bike_id":"9fbd07b4-f8ec-47c8-8b77-af3d624fa697","system_id":"levelo_inurba_marseille","lat":43.299014,"lon":5.436583,"is_reserved":false,"is_disabled":false,"rental_uris":{"android":"levelo://app?vid=9fbd07b4-f8ec-47c8-8b77-af3d624fa697","ios":"levelo://app?vid=9fbd07b4-f8ec-47c8-8b77-af3d624fa697"},"vehicle_type_id":"4","last_reported":1742195440,"current_range_meters":8000,"station_id":"ce4bhpp2rcd13ifvqhfg","pricing_plan_id":"cebpf4jnsgd1na2vs0mg"},{"bike_id":"ac3bcbd3-ced4-4f57-a9ed-a1beeadbb0b9","system_id":"levelo_inurba_marseille","lat":43.27209,"lon":5.39187,"is_reserved":false,"is_disabled":false,"rental_uris":{"android":"levelo://app?vid=ac3bcbd3-ced4-4f57-a9ed-a1beeadbb0b9","ios":"levelo://app?vid=ac3bcbd3-ced4-4f57-a9ed-a1beeadbb0b9"},"vehicle_type_id":"4","last_reported":1742195440,"current_range_meters":12400,"station_id":"ce4bhhp2rcd13ifvqfm0","pricing_plan_id":"cebpf4jnsgd1na2vs0mg"},{"bike_id":"d2140e8e-fc46-4fb8-a675-866428dbf6bb","system_id":"levelo_inurba_marseille","lat":43.23053,"lon":5.35494,"is_reserved":false,"is_disabled":false,"rental_uris":{"android":"levelo://app?vid=d2140e8e-fc46-4fb8-a675-866428dbf6bb","ios":"levelo://app?vid=d2140e8e-fc46-4fb8-a675-866428dbf6bb"},"vehicle_type_id":"4","last_reported":1742195440,"current_range_meters":8000,"station_id":"cpo3342slgdg3j2ifvpg","pricing_plan_id":"cebpf4jnsgd1na2vs0mg"},{"bike_id":"d9178df5-18f2-46df-a448-d529e133bb74","system_id":"levelo_inurba_marseille","lat":43.29903,"lon":5.3748,"is_reserved":false,"is_disabled":false,"rental_uris":{"android":"levelo://app?vid=d9178df5-18f2-46df-a448-d529e133bb74","ios":"levelo://app?vid=d9178df5-18f2-46df-a448-d529e133bb74"},"vehicle_type_id":"4","last_reported":1742195440,"current_range_meters":8000,"station_id":"ce4bgjh2rcd13ifvqbg0","pricing_plan_id":"cebpf4jnsgd1na2vs0mg"},{"bike_id":"2e93b8fd-3cc5-47fd-be6f-2a7e66fa1616","system_id":"levelo_inurba_marseille","lat":43.2657,"lon":5.39058,"is_reserved":false,"is_disabled":false,"rental_uris":{"android":"levelo://app?vid=2e93b8fd-3cc5-47fd-be6f-2a7e66fa1616","ios":"levelo://app?vid=2e93b8fd-3cc5-47fd-be6f-2a7e66fa1616"},"vehicle_type_id":"4","last_reported":1742195440,"current_range_meters":8000,"station_id":"ce4bhe12rcd13ifvqf30","pricing_plan_id":"cebpf4jnsgd1na2vs0mg"},{"bike_id":"ab56b08b-bd30-4452-9154-c93ed0756dd8","system_id":"levelo_inurba_marseille","lat":43.27495,"lon":5.42452,"is_reserved":false,"is_disabled":false,"rental_uris":{"android":"levelo://app?vid=ab56b08b-bd30-4452-9154-c93ed0756dd8","ios":"levelo://app?vid=ab56b08b-bd30-4452-9154-c93ed0756dd8"},"vehicle_type_id":"4","last_reported":1742195440,"current_range_meters":8000,"station_id":"ce4bhn92rcd13ifvqgrg","pricing_plan_id":"cebpf4jnsgd1na2vs0mg"},{"bike_id":"904ce9f4-1cc9-4999-a1cc-4724b35c454b","system_id":"levelo_inurba_marseille","lat":43.29226,"lon":5.36064,"is_reserved":false,"is_disabled":false,"rental_uris":{"android":"levelo://app?vid=904ce9f4-1cc9-4999-a1cc-4724b35c454b","ios":"levelo://app?vid=904ce9f4-1cc9-4999-a1cc-4724b35c454b"},"vehicle_type_id":"4","last_reported":1742195440,"current_range_meters":8400,"station_id":"ce4bhbh2rcd13ifvqeqg","pricing_plan_id":"cebpf4jnsgd1na2vs0mg"},{"bike_id":"b0d2cd6b-a9b2-49f5-b582-3051ba923f33","system_id":"levelo_inurba_marseille","lat":43.2508,"lon":5.39522,"is_reserved":false,"is_disabled":false,"rental_uris":{"android":"levelo://app?vid=b0d2cd6b-a9b2-49f5-b582-3051ba923f33","ios":"levelo://app?vid=b0d2cd6b-a9b2-49f5-b582-3051ba923f33"},"vehicle_type_id":"4","last_reported":1742195440,"current_range_meters":8400,"station_id":"ce4bhm12rcd13ifvqgkg","pricing_plan_id":"cebpf4jnsgd1na2vs0mg"},{"bike_id":"886b1561-ec94-4994-aa50-d2b92f6f05ff","system_id":"levelo_inurba_marseille","lat":43.2502,"lon":5.38928,"is_reserved":false,"is_disabled":false,"rental_uris":{"android":"levelo://app?vid=886b1561-ec94-4994-aa50-d2b92f6f05ff","ios":"levelo://app?vid=886b1561-ec94-4994-aa50-d2b92f6f05ff"},"vehicle_type_id":"4","last_reported":1742195440,"current_range_meters":8400,"station_id":"ce4bhgp2rcd13ifvqfd0","pricing_plan_id":"cebpf4jnsgd1na2vs0mg"},{"bike_id":"23d4689b-80a0-4957-9106-f572be80fe0e","system_id":"levelo_inurba_marseille","lat":43.27493,"lon":5.42454,"is_reserved":false,"is_disabled":false,"rental_uris":{"android":"levelo://app?vid=23d4689b-80a0-4957-9106-f572be80fe0e","ios":"levelo://app?vid=23d4689b-80a0-4957-9106-f572be80fe0e"},"vehicle_type_id":"4","last_reported":1742195440,"current_range_meters":8400,"station_id":"ce4bhn92rcd13ifvqgrg","pricing_plan_id":"cebpf4jnsgd1na2vs0mg"},{"bike_id":"2e6c3038-6eb8-46ce-bd43-53f0733e5db9","system_id":"levelo_inurba_marseille","lat":43.32109,"lon":5.36791,"is_reserved":false,"is_disabled":false,"rental_uris":{"android":"levelo://app?vid=2e6c3038-6eb8-46ce-bd43-53f0733e5db9","ios":"levelo://app?vid=2e6c3038-6eb8-46ce-bd43-53f0733e5db9"},"vehicle_type_id":"4","last_reported":1742195440,"current_range_meters":8400,"station_id":"ce4bhrh2rcd13ifvqhug","pricing_plan_id":"cebpf4jnsgd1na2vs0mg"},{"bike_id":"10a5dfbf-3aa3-4cf3-ac17-cd4d12fd6782","system_id":"levelo_inurba_marseille","lat":43.32352,"lon":5.36828,"is_reserved":false,"is_disabled":false,"rental_uris":{"android":"levelo://app?vid=10a5dfbf-3aa3-4cf3-ac17-cd4d12fd6782","ios":"levelo://app?vid=10a5dfbf-3aa3-4cf3-ac17-cd4d12fd6782"},"vehicle_type_id":"4","last_reported":1742195440,"current_range_meters":8400,"station_id":"","pricing_plan_id":"cebpf4jnsgd1na2vs0mg"},{"bike_id":"4b1426cb-648f-45df-a095-ae89ed465b04","system_id":"levelo_inurba_marseille","lat":43.25005,"lon":5.38929,"is_reserved":false,"is_disabled":false,"rental_uris":{"android":"levelo://app?vid=4b1426cb-648f-45df-a095-ae89ed465b04","ios":"levelo://app?vid=4b1426cb-648f-45df-a095-ae89ed465b04"},"vehicle_type_id":"4","last_reported":1742195440,"current_range_meters":8400,"station_id":"ce4bhgp2rcd13ifvqfd0","pricing_plan_id":"cebpf4jnsgd1na2vs0mg"},{"bike_id":"000a2ee5-a10e-4888-a8ff-9bed5376c87f","system_id":"levelo_inurba_marseille","lat":43.28494,"lon":5.38419,"is_reserved":false,"is_disabled":false,"rental_uris":{"android":"levelo://app?vid=000a2ee5-a10e-4888-a8ff-9bed5376c87f","ios":"levelo://app?vid=000a2ee5-a10e-4888-a8ff-9bed5376c87f"},"vehicle_type_id":"4","last_reported":1742195440,"current_range_meters":8400,"station_id":"ce4bh512rcd13ifvqe3g","pricing_plan_id":"cebpf4jnsgd1na2vs0mg"},{"bike_id":"2f97e577-a7f2-47bf-ab29-204992553693","system_id":"levelo_inurba_marseille","lat":43.24052,"lon":5.37719,"is_reserved":false,"is_disabled":false,"rental_uris":{"android":"levelo://app?vid=2f97e577-a7f2-47bf-ab29-204992553693","ios":"levelo://app?vid=2f97e577-a7f2-47bf-ab29-204992553693"},"vehicle_type_id":"4","last_reported":1742195440,"current_range_meters":8400,"station_id":"ce4bhnp2rcd13ifvqgvg","pricing_plan_id":"cebpf4jnsgd1na2vs0mg"},{"bike_id":"18f33ae7-3acb-407d-a5a7-4c104a302f2a","system_id":"levelo_inurba_marseille","lat":43.276145,"lon":5.361223,"is_reserved":false,"is_disabled":false,"rental_uris":{"android":"levelo://app?vid=18f33ae7-3acb-407d-a5a7-4c104a302f2a","ios":"levelo://app?vid=18f33ae7-3acb-407d-a5a7-4c104a302f2a"},"vehicle_type_id":"4","last_reported":1742195440,"current_range_meters":8400,"station_id":"ce4bgj92rcd13ifvqbe0","pricing_plan_id":"cebpf4jnsgd1na2vs0mg"},{"bike_id":"41d856e8-014d-42b4-85e9-2a0a980f469f","system_id":"levelo_inurba_marseille","lat":43.2319,"lon":5.3556,"is_reserved":false,"is_disabled":false,"rental_uris":{"android":"levelo://app?vid=41d856e8-014d-42b4-85e9-2a0a980f469f","ios":"levelo://app?vid=41d856e8-014d-42b4-85e9-2a0a980f469f"},"vehicle_type_id":"4","last_reported":1742195440,"current_range_meters":8800,"station_id":"ce4bhu92rcd13ifvqi70","pricing_plan_id":"cebpf4jnsgd1na2vs0mg"},{"bike_id":"65e84329-b6e0-4d39-a9b4-54ee9595fc9d","system_id":"levelo_inurba_marseille","lat":43.3014,"lon":5.38074,"is_reserved":false,"is_disabled":false,"rental_uris":{"android":"levelo://app?vid=65e84329-b6e0-4d39-a9b4-54ee9595fc9d","ios":"levelo://app?vid=65e84329-b6e0-4d39-a9b4-54ee9595fc9d"},"vehicle_type_id":"4","last_reported":1742195440,"current_range_meters":8800,"station_id":"ce4bgjp2rcd13ifvqbh0","pricing_plan_id":"cebpf4jnsgd1na2vs0mg"},{"bike_id":"b881a216-a8e0-47ad-9c6d-ce879391627c","system_id":"levelo_inurba_marseille","lat":43.29953,"lon":5.36509,"is_reserved":false,"is_disabled":true,"rental_uris":{"android":"levelo://app?vid=b881a216-a8e0-47ad-9c6d-ce879391627c","ios":"levelo://app?vid=b881a216-a8e0-47ad-9c6d-ce879391627c"},"vehicle_type_id":"4","last_reported":1742195440,"current_range_meters":8800,"station_id":"","pricing_plan_id":"cebpf4jnsgd1na2vs0mg"},{"bike_id":"d6cd0df4-ca0d-407c-ac60-8420479f0dd1","system_id":"levelo_inurba_marseille","lat":43.23063,"lon":5.35494,"is_reserved":false,"is_disabled":false,"rental_uris":{"android":"levelo://app?vid=d6cd0df4-ca0d-407c-ac60-8420479f0dd1","ios":"levelo://app?vid=d6cd0df4-ca0d-407c-ac60-8420479f0dd1"},"vehicle_type_id":"4","last_reported":1742195440,"current_range_meters":8800,"station_id":"cpo3342slgdg3j2ifvpg","pricing_plan_id":"cebpf4jnsgd1na2vs0mg"},{"bike_id":"c2cbcb9c-b7f4-4fd9-804c-0d53237f1b29","system_id":"levelo_inurba_marseille","lat":43.28477,"lon":5.38426,"is_reserved":false,"is_disabled":false,"rental_uris":{"android":"levelo://app?vid=c2cbcb9c-b7f4-4fd9-804c-0d53237f1b29","ios":"levelo://app?vid=c2cbcb9c-b7f4-4fd9-804c-0d53237f1b29"},"vehicle_type_id":"4","last_reported":1742195440,"current_range_meters":8800,"station_id":"ce4bh512rcd13ifvqe3g","pricing_plan_id":"cebpf4jnsgd1na2vs0mg"},{"bike_id":"5a61a616-683f-484d-83ae-d7f61143d634","system_id":"levelo_inurba_marseille","lat":43.29514,"lon":5.42486,"is_reserved":false,"is_disabled":false,"rental_uris":{"android":"levelo://app?vid=5a61a616-683f-484d-83ae-d7f61143d634","ios":"levelo://app?vid=5a61a616-683f-484d-83ae-d7f61143d634"},"vehicle_type_id":"4","last_reported":1742195440,"current_range_meters":8800,"station_id":"","pricing_plan_id":"cebpf4jnsgd1na2vs0mg"},{"bike_id":"7fdaba83-9e71-4d79-962d-8e9bcb4ba61b","system_id":"levelo_inurba_marseille","lat":43.23172,"lon":5.35586,"is_reserved":false,"is_disabled":false,"rental_uris":{"android":"levelo://app?vid=7fdaba83-9e71-4d79-962d-8e9bcb4ba61b","ios":"levelo://app?vid=7fdaba83-9e71-4d79-962d-8e9bcb4ba61b"},"vehicle_type_id":"4","last_reported":1742195440,"current_range_meters":8800,"station_id":"ce4bhu92rcd13ifvqi70","pricing_plan_id":"cebpf4jnsgd1na2vs0mg"},{"bike_id":"502a3b3e-8957-45c1-a4dd-1cb7cf5ee2e2","system_id":"levelo_inurba_marseille","lat":43.32105,"lon":5.36791,"is_reserved":false,"is_disabled":false,"rental_uris":{"android":"levelo://app?vid=502a3b3e-8957-45c1-a4dd-1cb7cf5ee2e2","ios":"levelo://app?vid=502a3b3e-8957-45c1-a4dd-1cb7cf5ee2e2"},"vehicle_type_id":"4","last_reported":1742195440,"current_range_meters":8800,"station_id":"ce4bhrh2rcd13ifvqhug","pricing_plan_id":"cebpf4jnsgd1na2vs0mg"},{"bike_id":"659cfc6c-f2ba-4758-b6de-6943e7c2dc48","system_id":"levelo_inurba_marseille","lat":43.28671,"lon":5.37399,"is_reserved":false,"is_disabled":true,"rental_uris":{"android":"levelo://app?vid=659cfc6c-f2ba-4758-b6de-6943e7c2dc48","ios":"levelo://app?vid=659cfc6c-f2ba-4758-b6de-6943e7c2dc48"},"vehicle_type_id":"4","last_reported":1742195440,"current_range_meters":8800,"station_id":"ce4bh3p2rcd13ifvqdq0","pricing_plan_id":"cebpf4jnsgd1na2vs0mg"},{"bike_id":"8fa7ea8d-156d-42f2-95b3-ae3567fc37ee","system_id":"levelo_inurba_marseille","lat":43.23177,"lon":5.39987,"is_reserved":false,"is_disabled":false,"rental_uris":{"android":"levelo://app?vid=8fa7ea8d-156d-42f2-95b3-ae3567fc37ee","ios":"levelo://app?vid=8fa7ea8d-156d-42f2-95b3-ae3567fc37ee"},"vehicle_type_id":"4","last_reported":1742195440,"current_range_meters":8800,"station_id":"ce4bhn12rcd13ifvqgqg","pricing_plan_id":"cebpf4jnsgd1na2vs0mg"},{"bike_id":"b12504a2-a649-4e69-8759-4dc56a1cd8bd","system_id":"levelo_inurba_marseille","lat":43.27845,"lon":5.38237,"is_reserved":false,"is_disabled":false,"rental_uris":{"android":"levelo://app?vid=b12504a2-a649-4e69-8759-4dc56a1cd8bd","ios":"levelo://app?vid=b12504a2-a649-4e69-8759-4dc56a1cd8bd"},"vehicle_type_id":"4","last_reported":1742195440,"current_range_meters":8800,"station_id":"","pricing_plan_id":"cebpf4jnsgd1na2vs0mg"},{"bike_id":"7744a398-14ee-4b67-a148-5c9c6471def4","system_id":"levelo_inurba_marseille","lat":43.254883,"lon":5.37659,"is_reserved":false,"is_disabled":true,"rental_uris":{"android":"levelo://app?vid=7744a398-14ee-4b67-a148-5c9c6471def4","ios":"levelo://app?vid=7744a398-14ee-4b67-a148-5c9c6471def4"},"vehicle_type_id":"4","last_reported":1742195440,"current_range_meters":8800,"station_id":"ce4bhh12rcd13ifvqff0","pricing_plan_id":"cebpf4jnsgd1na2vs0mg"},{"bike_id":"bae4d477-143c-43e2-97d6-503711a70faf","system_id":"levelo_inurba_marseille","lat":43.29525,"lon":5.39049,"is_reserved":false,"is_disabled":false,"rental_uris":{"android":"levelo://app?vid=bae4d477-143c-43e2-97d6-503711a70faf","ios":"levelo://app?vid=bae4d477-143c-43e2-97d6-503711a70faf"},"vehicle_type_id":"4","last_reported":1742195440,"current_range_meters":8000,"station_id":"ce4bh3p2rcd13ifvqdp0","pricing_plan_id":"cebpf4jnsgd1na2vs0mg"},{"bike_id":"b60034db-a5de-4145-9a8b-89a445c4f874","system_id":"levelo_inurba_marseille","lat":43.27496,"lon":5.42457,"is_reserved":false,"is_disabled":false,"rental_uris":{"android":"levelo://app?vid=b60034db-a5de-4145-9a8b-89a445c4f874","ios":"levelo://app?vid=b60034db-a5de-4145-9a8b-89a445c4f874"},"vehicle_type_id":"4","last_reported":1742195440,"current_range_meters":8800,"station_id":"ce4bhn92rcd13ifvqgrg","pricing_plan_id":"cebpf4jnsgd1na2vs0mg"},{"bike_id":"801a9631-aa14-450a-a1ac-5b280d35cdcb","system_id":"levelo_inurba_marseille","lat":43.28667,"lon":5.40004,"is_reserved":false,"is_disabled":false,"rental_uris":{"android":"levelo://app?vid=801a9631-aa14-450a-a1ac-5b280d35cdcb","ios":"levelo://app?vid=801a9631-aa14-450a-a1ac-5b280d35cdcb"},"vehicle_type_id":"4","last_reported":1742195440,"current_range_meters":8800,"station_id":"","pricing_plan_id":"cebpf4jnsgd1na2vs0mg"},{"bike_id":"d6f33984-2a1d-45ad-b419-93446d1bd8ae","system_id":"levelo_inurba_marseille","lat":43.2465,"lon":5.38896,"is_reserved":false,"is_disabled":false,"rental_uris":{"android":"levelo://app?vid=d6f33984-2a1d-45ad-b419-93446d1bd8ae","ios":"levelo://app?vid=d6f33984-2a1d-45ad-b419-93446d1bd8ae"},"vehicle_type_id":"4","last_reported":1742195440,"current_range_meters":8800,"station_id":"ce4bhg12rcd13ifvqf60","pricing_plan_id":"cebpf4jnsgd1na2vs0mg"},{"bike_id":"1f9a9668-f20a-4b32-9dce-dfb024996834","system_id":"levelo_inurba_marseille","lat":43.29001,"lon":5.38626,"is_reserved":false,"is_disabled":true,"rental_uris":{"android":"levelo://app?vid=1f9a9668-f20a-4b32-9dce-dfb024996834","ios":"levelo://app?vid=1f9a9668-f20a-4b32-9dce-dfb024996834"},"vehicle_type_id":"4","last_reported":1742195440,"current_range_meters":8800,"station_id":"ce4bh4p2rcd13ifvqe0g","pricing_plan_id":"cebpf4jnsgd1na2vs0mg"},{"bike_id":"49fea2c2-9361-4fb5-954f-b44bbf354e43","system_id":"levelo_inurba_marseille","lat":43.32354,"lon":5.36774,"is_reserved":false,"is_disabled":false,"rental_uris":{"android":"levelo://app?vid=49fea2c2-9361-4fb5-954f-b44bbf354e43","ios":"levelo://app?vid=49fea2c2-9361-4fb5-954f-b44bbf354e43"},"vehicle_type_id":"4","last_reported":1742195440,"current_range_meters":8800,"station_id":"ce4bhsh2rcd13ifvqi2g","pricing_plan_id":"cebpf4jnsgd1na2vs0mg"},{"bike_id":"58fd59c6-6ae3-49d2-8193-f01dc0a2a25e","system_id":"levelo_inurba_marseille","lat":43.26943,"lon":5.3864,"is_reserved":false,"is_disabled":false,"rental_uris":{"android":"levelo://app?vid=58fd59c6-6ae3-49d2-8193-f01dc0a2a25e","ios":"levelo://app?vid=58fd59c6-6ae3-49d2-8193-f01dc0a2a25e"},"vehicle_type_id":"4","last_reported":1742195440,"current_range_meters":9200,"station_id":"ce4bhh92rcd13ifvqfh0","pricing_plan_id":"cebpf4jnsgd1na2vs0mg"},{"bike_id":"c551f2e0-5f8e-4cc9-9464-06b9d0710638","system_id":"levelo_inurba_marseille","lat":43.23155,"lon":5.43713,"is_reserved":false,"is_disabled":false,"rental_uris":{"android":"levelo://app?vid=c551f2e0-5f8e-4cc9-9464-06b9d0710638","ios":"levelo://app?vid=c551f2e0-5f8e-4cc9-9464-06b9d0710638"},"vehicle_type_id":"4","last_reported":1742195440,"current_range_meters":9200,"station_id":"ce4bhmp2rcd13ifvqgog","pricing_plan_id":"cebpf4jnsgd1na2vs0mg"},{"bike_id":"ce157c99-2b38-44c1-b6a5-db708ae225d5","system_id":"levelo_inurba_marseille","lat":43.24067,"lon":5.3776,"is_reserved":false,"is_disabled":false,"rental_uris":{"android":"levelo://app?vid=ce157c99-2b38-44c1-b6a5-db708ae225d5","ios":"levelo://app?vid=ce157c99-2b38-44c1-b6a5-db708ae225d5"},"vehicle_type_id":"4","last_reported":1742195440,"current_range_meters":9200,"station_id":"ce4bhnp2rcd13ifvqgvg","pricing_plan_id":"cebpf4jnsgd1na2vs0mg"},{"bike_id":"ea3faa2e-2727-4cd3-a354-57574da4893b","system_id":"levelo_inurba_marseille","lat":43.241688,"lon":5.36396,"is_reserved":false,"is_disabled":false,"rental_uris":{"android":"levelo://app?vid=ea3faa2e-2727-4cd3-a354-57574da4893b","ios":"levelo://app?vid=ea3faa2e-2727-4cd3-a354-57574da4893b"},"vehicle_type_id":"4","last_reported":1742195440,"current_range_meters":9200,"station_id":"cpo36qri1sfpv3e86is0","pricing_plan_id":"cebpf4jnsgd1na2vs0mg"},{"bike_id":"845d5ebc-e22c-4e30-b410-77f73d55732a","system_id":"levelo_inurba_marseille","lat":43.297515,"lon":5.447235,"is_reserved":false,"is_disabled":false,"rental_uris":{"android":"levelo://app?vid=845d5ebc-e22c-4e30-b410-77f73d55732a","ios":"levelo://app?vid=845d5ebc-e22c-4e30-b410-77f73d55732a"},"vehicle_type_id":"4","last_reported":1742195440,"current_range_meters":9200,"station_id":"","pricing_plan_id":"cebpf4jnsgd1na2vs0mg"},{"bike_id":"2df1be79-4306-4a58-8d75-240fa315c0ef","system_id":"levelo_inurba_marseille","lat":43.304568,"lon":5.37911,"is_reserved":false,"is_disabled":false,"rental_uris":{"android":"levelo://app?vid=2df1be79-4306-4a58-8d75-240fa315c0ef","ios":"levelo://app?vid=2df1be79-4306-4a58-8d75-240fa315c0ef"},"vehicle_type_id":"4","last_reported":1742195440,"current_range_meters":9600,"station_id":"ce4bgup2rcd13ifvqcn0","pricing_plan_id":"cebpf4jnsgd1na2vs0mg"},{"bike_id":"e789255e-840e-4e9d-926a-462347b0eff9","system_id":"levelo_inurba_marseille","lat":43.287048,"lon":5.399893,"is_reserved":false,"is_disabled":false,"rental_uris":{"android":"levelo://app?vid=e789255e-840e-4e9d-926a-462347b0eff9","ios":"levelo://app?vid=e789255e-840e-4e9d-926a-462347b0eff9"},"vehicle_type_id":"4","last_reported":1742195440,"current_range_meters":9600,"station_id":"ce4bho92rcd13ifvqh3g","pricing_plan_id":"cebpf4jnsgd1na2vs0mg"},{"bike_id":"260688aa-bac6-4d40-9506-344609b87a60","system_id":"levelo_inurba_marseille","lat":43.30163,"lon":5.38089,"is_reserved":false,"is_disabled":false,"rental_uris":{"android":"levelo://app?vid=260688aa-bac6-4d40-9506-344609b87a60","ios":"levelo://app?vid=260688aa-bac6-4d40-9506-344609b87a60"},"vehicle_type_id":"4","last_reported":1742195440,"current_range_meters":9600,"station_id":"ce4bgjp2rcd13ifvqbh0","pricing_plan_id":"cebpf4jnsgd1na2vs0mg"},{"bike_id":"eb9eafbf-18d1-4f66-b457-7c8dee269ad7","system_id":"levelo_inurba_marseille","lat":43.27614,"lon":5.36133,"is_reserved":false,"is_disabled":false,"rental_uris":{"android":"levelo://app?vid=eb9eafbf-18d1-4f66-b457-7c8dee269ad7","ios":"levelo://app?vid=eb9eafbf-18d1-4f66-b457-7c8dee269ad7"},"vehicle_type_id":"4","last_reported":1742195440,"current_range_meters":9600,"station_id":"ce4bgj92rcd13ifvqbe0","pricing_plan_id":"cebpf4jnsgd1na2vs0mg"},{"bike_id":"77cde221-2746-4ce8-9bb2-82c3a2d59de7","system_id":"levelo_inurba_marseille","lat":43.299,"lon":5.38126,"is_reserved":false,"is_disabled":true,"rental_uris":{"android":"levelo://app?vid=77cde221-2746-4ce8-9bb2-82c3a2d59de7","ios":"levelo://app?vid=77cde221-2746-4ce8-9bb2-82c3a2d59de7"},"vehicle_type_id":"4","last_reported":1742195440,"current_range_meters":9600,"station_id":"ce4bgj12rcd13ifvqbc0","pricing_plan_id":"cebpf4jnsgd1na2vs0mg"},{"bike_id":"dd98f38e-cdd6-4a77-a161-2adc7415e16c","system_id":"levelo_inurba_marseille","lat":43.2829,"lon":5.43127,"is_reserved":false,"is_disabled":false,"rental_uris":{"android":"levelo://app?vid=dd98f38e-cdd6-4a77-a161-2adc7415e16c","ios":"levelo://app?vid=dd98f38e-cdd6-4a77-a161-2adc7415e16c"},"vehicle_type_id":"4","last_reported":1742195440,"current_range_meters":9600,"station_id":"","pricing_plan_id":"cebpf4jnsgd1na2vs0mg"},{"bike_id":"a03e208e-94c1-4a5f-9d61-9150c74ebe8c","system_id":"levelo_inurba_marseille","lat":43.32357,"lon":5.36777,"is_reserved":false,"is_disabled":false,"rental_uris":{"android":"levelo://app?vid=a03e208e-94c1-4a5f-9d61-9150c74ebe8c","ios":"levelo://app?vid=a03e208e-94c1-4a5f-9d61-9150c74ebe8c"},"vehicle_type_id":"4","last_reported":1742195440,"current_range_meters":9600,"station_id":"ce4bhsh2rcd13ifvqi2g","pricing_plan_id":"cebpf4jnsgd1na2vs0mg"},{"bike_id":"a0226cb6-2cfc-439f-8908-87824371f5c4","system_id":"levelo_inurba_marseille","lat":43.27085,"lon":5.42287,"is_reserved":false,"is_disabled":false,"rental_uris":{"android":"levelo://app?vid=a0226cb6-2cfc-439f-8908-87824371f5c4","ios":"levelo://app?vid=a0226cb6-2cfc-439f-8908-87824371f5c4"},"vehicle_type_id":"4","last_reported":1742195440,"current_range_meters":9600,"station_id":"ce4bhk92rcd13ifvqgb0","pricing_plan_id":"cebpf4jnsgd1na2vs0mg"},{"bike_id":"5189287a-880a-46a1-bc5e-d4c1d9f06a31","system_id":"levelo_inurba_marseille","lat":43.24062,"lon":5.37734,"is_reserved":false,"is_disabled":false,"rental_uris":{"android":"levelo://app?vid=5189287a-880a-46a1-bc5e-d4c1d9f06a31","ios":"levelo://app?vid=5189287a-880a-46a1-bc5e-d4c1d9f06a31"},"vehicle_type_id":"4","last_reported":1742195440,"current_range_meters":9600,"station_id":"ce4bhnp2rcd13ifvqgvg","pricing_plan_id":"cebpf4jnsgd1na2vs0mg"},{"bike_id":"e39aff96-0142-46d0-807b-703830dfcf78","system_id":"levelo_inurba_marseille","lat":43.286136,"lon":5.35108,"is_reserved":false,"is_disabled":true,"rental_uris":{"android":"levelo://app?vid=e39aff96-0142-46d0-807b-703830dfcf78","ios":"levelo://app?vid=e39aff96-0142-46d0-807b-703830dfcf78"},"vehicle_type_id":"4","last_reported":1742195440,"current_range_meters":9600,"station_id":"","pricing_plan_id":"cebpf4jnsgd1na2vs0mg"},{"bike_id":"db819791-27c1-48de-91ad-79208088cf91","system_id":"levelo_inurba_marseille","lat":43.23184,"lon":5.39983,"is_reserved":false,"is_disabled":false,"rental_uris":{"android":"levelo://app?vid=db819791-27c1-48de-91ad-79208088cf91","ios":"levelo://app?vid=db819791-27c1-48de-91ad-79208088cf91"},"vehicle_type_id":"4","last_reported":1742195440,"current_range_meters":9600,"station_id":"ce4bhn12rcd13ifvqgqg","pricing_plan_id":"cebpf4jnsgd1na2vs0mg"},{"bike_id":"dba0ecfc-0bb7-4670-ab8e-e4c122a8d90e","system_id":"levelo_inurba_marseille","lat":43.27634,"lon":5.42481,"is_reserved":false,"is_disabled":false,"rental_uris":{"android":"levelo://app?vid=dba0ecfc-0bb7-4670-ab8e-e4c122a8d90e","ios":"levelo://app?vid=dba0ecfc-0bb7-4670-ab8e-e4c122a8d90e"},"vehicle_type_id":"4","last_reported":1742195440,"current_range_meters":9600,"station_id":"","pricing_plan_id":"cebpf4jnsgd1na2vs0mg"},{"bike_id":"ef73c0a8-9f79-486c-afc3-8c0a9b5935ab","system_id":"levelo_inurba_marseille","lat":43.29545,"lon":5.4228,"is_reserved":false,"is_disabled":false,"rental_uris":{"android":"levelo://app?vid=ef73c0a8-9f79-486c-afc3-8c0a9b5935ab","ios":"levelo://app?vid=ef73c0a8-9f79-486c-afc3-8c0a9b5935ab"},"vehicle_type_id":"4","last_reported":1742195440,"current_range_meters":9600,"station_id":"ce4bhph2rcd13ifvqhdg","pricing_plan_id":"cebpf4jnsgd1na2vs0mg"},{"bike_id":"024afde3-4c7e-4c72-9b6e-ff99a57526a9","system_id":"levelo_inurba_marseille","lat":43.23061,"lon":5.35499,"is_reserved":false,"is_disabled":false,"rental_uris":{"android":"levelo://app?vid=024afde3-4c7e-4c72-9b6e-ff99a57526a9","ios":"levelo://app?vid=024afde3-4c7e-4c72-9b6e-ff99a57526a9"},"vehicle_type_id":"4","last_reported":1742195440,"current_range_meters":10000,"station_id":"cpo3342slgdg3j2ifvpg","pricing_plan_id":"cebpf4jnsgd1na2vs0mg"},{"bike_id":"a6b0a040-07e7-4faa-a4d4-f0ae30938573","system_id":"levelo_inurba_marseille","lat":43.24388,"lon":5.37055,"is_reserved":false,"is_disabled":false,"rental_uris":{"android":"levelo://app?vid=a6b0a040-07e7-4faa-a4d4-f0ae30938573","ios":"levelo://app?vid=a6b0a040-07e7-4faa-a4d4-f0ae30938573"},"vehicle_type_id":"4","last_reported":1742195440,"current_range_meters":10000,"station_id":"ce4bhhh2rcd13ifvqfk0","pricing_plan_id":"cebpf4jnsgd1na2vs0mg"},{"bike_id":"f6ea2adf-076d-4022-9ca9-c0c59511cfd5","system_id":"levelo_inurba_marseille","lat":43.23184,"lon":5.35565,"is_reserved":false,"is_disabled":false,"rental_uris":{"android":"levelo://app?vid=f6ea2adf-076d-4022-9ca9-c0c59511cfd5","ios":"levelo://app?vid=f6ea2adf-076d-4022-9ca9-c0c59511cfd5"},"vehicle_type_id":"4","last_reported":1742195440,"current_range_meters":10000,"station_id":"ce4bhu92rcd13ifvqi70","pricing_plan_id":"cebpf4jnsgd1na2vs0mg"},{"bike_id":"74b03e74-dbee-453d-99a3-3dea6f7daa42","system_id":"levelo_inurba_marseille","lat":43.27996,"lon":5.40016,"is_reserved":false,"is_disabled":false,"rental_uris":{"android":"levelo://app?vid=74b03e74-dbee-453d-99a3-3dea6f7daa42","ios":"levelo://app?vid=74b03e74-dbee-453d-99a3-3dea6f7daa42"},"vehicle_type_id":"4","last_reported":1742195440,"current_range_meters":10000,"station_id":"ce4bho92rcd13ifvqh4g","pricing_plan_id":"cebpf4jnsgd1na2vs0mg"},{"bike_id":"13e278b3-c9cb-4550-ad8b-8b4c511558ae","system_id":"levelo_inurba_marseille","lat":43.27438,"lon":5.40939,"is_reserved":false,"is_disabled":false,"rental_uris":{"android":"levelo://app?vid=13e278b3-c9cb-4550-ad8b-8b4c511558ae","ios":"levelo://app?vid=13e278b3-c9cb-4550-ad8b-8b4c511558ae"},"vehicle_type_id":"4","last_reported":1742195440,"current_range_meters":10000,"station_id":"","pricing_plan_id":"cebpf4jnsgd1na2vs0mg"},{"bike_id":"859f60fc-e905-43d1-b79d-c375474a6202","system_id":"levelo_inurba_marseille","lat":43.29556,"lon":5.42292,"is_reserved":false,"is_disabled":false,"rental_uris":{"android":"levelo://app?vid=859f60fc-e905-43d1-b79d-c375474a6202","ios":"levelo://app?vid=859f60fc-e905-43d1-b79d-c375474a6202"},"vehicle_type_id":"4","last_reported":1742195440,"current_range_meters":10000,"station_id":"ce4bhph2rcd13ifvqhdg","pricing_plan_id":"cebpf4jnsgd1na2vs0mg"},{"bike_id":"15114da5-30fb-4fb1-9632-866a9f4be863","system_id":"levelo_inurba_marseille","lat":43.29652,"lon":5.36535,"is_reserved":false,"is_disabled":false,"rental_uris":{"android":"levelo://app?vid=15114da5-30fb-4fb1-9632-866a9f4be863","ios":"levelo://app?vid=15114da5-30fb-4fb1-9632-866a9f4be863"},"vehicle_type_id":"4","last_reported":1742195440,"current_range_meters":10000,"station_id":"","pricing_plan_id":"cebpf4jnsgd1na2vs0mg"},{"bike_id":"19452eed-d82c-486d-9e09-02ab2b36db5b","system_id":"levelo_inurba_marseille","lat":43.29255,"lon":5.40908,"is_reserved":false,"is_disabled":true,"rental_uris":{"android":"levelo://app?vid=19452eed-d82c-486d-9e09-02ab2b36db5b","ios":"levelo://app?vid=19452eed-d82c-486d-9e09-02ab2b36db5b"},"vehicle_type_id":"4","last_reported":1742195440,"current_range_meters":10800,"station_id":"ce4bh192rcd13ifvqdc0","pricing_plan_id":"cebpf4jnsgd1na2vs0mg"},{"bike_id":"a80b708e-9960-477b-bb7d-a21f3fdfea6d","system_id":"levelo_inurba_marseille","lat":43.231863,"lon":5.399864,"is_reserved":false,"is_disabled":false,"rental_uris":{"android":"levelo://app?vid=a80b708e-9960-477b-bb7d-a21f3fdfea6d","ios":"levelo://app?vid=a80b708e-9960-477b-bb7d-a21f3fdfea6d"},"vehicle_type_id":"4","last_reported":1742195440,"current_range_meters":10800,"station_id":"ce4bhn12rcd13ifvqgqg","pricing_plan_id":"cebpf4jnsgd1na2vs0mg"},{"bike_id":"cc539c1f-b440-45b0-86ec-c2054cf3a800","system_id":"levelo_inurba_marseille","lat":43.24061,"lon":5.37753,"is_reserved":false,"is_disabled":false,"rental_uris":{"android":"levelo://app?vid=cc539c1f-b440-45b0-86ec-c2054cf3a800","ios":"levelo://app?vid=cc539c1f-b440-45b0-86ec-c2054cf3a800"},"vehicle_type_id":"4","last_reported":1742195440,"current_range_meters":10800,"station_id":"ce4bhnp2rcd13ifvqgvg","pricing_plan_id":"cebpf4jnsgd1na2vs0mg"},{"bike_id":"0dba11c1-db3c-4349-bd60-4c1ec38c51b3","system_id":"levelo_inurba_marseille","lat":43.23194,"lon":5.35548,"is_reserved":false,"is_disabled":false,"rental_uris":{"android":"levelo://app?vid=0dba11c1-db3c-4349-bd60-4c1ec38c51b3","ios":"levelo://app?vid=0dba11c1-db3c-4349-bd60-4c1ec38c51b3"},"vehicle_type_id":"4","last_reported":1742195440,"current_range_meters":10800,"station_id":"ce4bhu92rcd13ifvqi70","pricing_plan_id":"cebpf4jnsgd1na2vs0mg"},{"bike_id":"840483eb-dec7-490f-b669-ee3773ac063c","system_id":"levelo_inurba_marseille","lat":43.29266,"lon":5.36844,"is_reserved":false,"is_disabled":true,"rental_uris":{"android":"levelo://app?vid=840483eb-dec7-490f-b669-ee3773ac063c","ios":"levelo://app?vid=840483eb-dec7-490f-b669-ee3773ac063c"},"vehicle_type_id":"4","last_reported":1742195440,"current_range_meters":10800,"station_id":"ce4bhbp2rcd13ifvqesg","pricing_plan_id":"cebpf4jnsgd1na2vs0mg"},{"bike_id":"5a4a7d35-0ef8-41e9-9195-6b8c171d9e40","system_id":"levelo_inurba_marseille","lat":43.25936,"lon":5.40896,"is_reserved":false,"is_disabled":false,"rental_uris":{"android":"levelo://app?vid=5a4a7d35-0ef8-41e9-9195-6b8c171d9e40","ios":"levelo://app?vid=5a4a7d35-0ef8-41e9-9195-6b8c171d9e40"},"vehicle_type_id":"4","last_reported":1742195440,"current_range_meters":10800,"station_id":"ce4bhm92rcd13ifvqglg","pricing_plan_id":"cebpf4jnsgd1na2vs0mg"},{"bike_id":"acae015a-47e9-488b-96c7-da5370995513","system_id":"levelo_inurba_marseille","lat":43.23201,"lon":5.35564,"is_reserved":false,"is_disabled":false,"rental_uris":{"android":"levelo://app?vid=acae015a-47e9-488b-96c7-da5370995513","ios":"levelo://app?vid=acae015a-47e9-488b-96c7-da5370995513"},"vehicle_type_id":"4","last_reported":1742195440,"current_range_meters":10800,"station_id":"ce4bhu92rcd13ifvqi70","pricing_plan_id":"cebpf4jnsgd1na2vs0mg"},{"bike_id":"882ffc5d-3d7c-4533-805d-8739914a99fb","system_id":"levelo_inurba_marseille","lat":43.33599,"lon":5.41028,"is_reserved":false,"is_disabled":false,"rental_uris":{"android":"levelo://app?vid=882ffc5d-3d7c-4533-805d-8739914a99fb","ios":"levelo://app?vid=882ffc5d-3d7c-4533-805d-8739914a99fb"},"vehicle_type_id":"4","last_reported":1742195440,"current_range_meters":9600,"station_id":"ce4bhqh2rcd13ifvqhmg","pricing_plan_id":"cebpf4jnsgd1na2vs0mg"},{"bike_id":"6d7aba10-2ad7-403b-88bc-52c92007007a","system_id":"levelo_inurba_marseille","lat":43.29026,"lon":5.38109,"is_reserved":false,"is_disabled":true,"rental_uris":{"android":"levelo://app?vid=6d7aba10-2ad7-403b-88bc-52c92007007a","ios":"levelo://app?vid=6d7aba10-2ad7-403b-88bc-52c92007007a"},"vehicle_type_id":"4","last_reported":1742195440,"current_range_meters":10800,"station_id":"","pricing_plan_id":"cebpf4jnsgd1na2vs0mg"},{"bike_id":"ca40f8d9-4c74-45e9-8112-b26b76ca6ffe","system_id":"levelo_inurba_marseille","lat":43.28682,"lon":5.37401,"is_reserved":false,"is_disabled":true,"rental_uris":{"android":"levelo://app?vid=ca40f8d9-4c74-45e9-8112-b26b76ca6ffe","ios":"levelo://app?vid=ca40f8d9-4c74-45e9-8112-b26b76ca6ffe"},"vehicle_type_id":"4","last_reported":1742195440,"current_range_meters":10800,"station_id":"ce4bh3p2rcd13ifvqdq0","pricing_plan_id":"cebpf4jnsgd1na2vs0mg"},{"bike_id":"8582a594-232f-4ecd-9ce1-980b2fb12fee","system_id":"levelo_inurba_marseille","lat":43.29553,"lon":5.42278,"is_reserved":false,"is_disabled":false,"rental_uris":{"android":"levelo://app?vid=8582a594-232f-4ecd-9ce1-980b2fb12fee","ios":"levelo://app?vid=8582a594-232f-4ecd-9ce1-980b2fb12fee"},"vehicle_type_id":"4","last_reported":1742195440,"current_range_meters":10800,"station_id":"ce4bhph2rcd13ifvqhdg","pricing_plan_id":"cebpf4jnsgd1na2vs0mg"},{"bike_id":"c2979db5-0dce-4961-9036-2acbab990ec5","system_id":"levelo_inurba_marseille","lat":43.30592,"lon":5.39354,"is_reserved":false,"is_disabled":false,"rental_uris":{"android":"levelo://app?vid=c2979db5-0dce-4961-9036-2acbab990ec5","ios":"levelo://app?vid=c2979db5-0dce-4961-9036-2acbab990ec5"},"vehicle_type_id":"4","last_reported":1742195440,"current_range_meters":10800,"station_id":"ce4bh0p2rcd13ifvqd80","pricing_plan_id":"cebpf4jnsgd1na2vs0mg"},{"bike_id":"24dd4337-618b-4771-83f7-03578c7756e5","system_id":"levelo_inurba_marseille","lat":43.297301,"lon":5.376861,"is_reserved":false,"is_disabled":true,"rental_uris":{"android":"levelo://app?vid=24dd4337-618b-4771-83f7-03578c7756e5","ios":"levelo://app?vid=24dd4337-618b-4771-83f7-03578c7756e5"},"vehicle_type_id":"4","last_reported":1742195440,"current_range_meters":10800,"station_id":"ce4bgkh2rcd13ifvqbl0","pricing_plan_id":"cebpf4jnsgd1na2vs0mg"},{"bike_id":"a4e011c7-6f19-4681-84ea-4262f143037e","system_id":"levelo_inurba_marseille","lat":43.32364,"lon":5.36779,"is_reserved":false,"is_disabled":false,"rental_uris":{"android":"levelo://app?vid=a4e011c7-6f19-4681-84ea-4262f143037e","ios":"levelo://app?vid=a4e011c7-6f19-4681-84ea-4262f143037e"},"vehicle_type_id":"4","last_reported":1742195440,"current_range_meters":10800,"station_id":"ce4bhsh2rcd13ifvqi2g","pricing_plan_id":"cebpf4jnsgd1na2vs0mg"},{"bike_id":"1ec3ac74-32cf-42ec-9a7f-d5faae8f2bf7","system_id":"levelo_inurba_marseille","lat":43.26062,"lon":5.39395,"is_reserved":false,"is_disabled":false,"rental_uris":{"android":"levelo://app?vid=1ec3ac74-32cf-42ec-9a7f-d5faae8f2bf7","ios":"levelo://app?vid=1ec3ac74-32cf-42ec-9a7f-d5faae8f2bf7"},"vehicle_type_id":"4","last_reported":1742195440,"current_range_meters":11200,"station_id":"ce4bhh92rcd13ifvqfj0","pricing_plan_id":"cebpf4jnsgd1na2vs0mg"},{"bike_id":"2f42e19e-22f1-4965-ad6e-662af5324e76","system_id":"levelo_inurba_marseille","lat":43.231911,"lon":5.35553,"is_reserved":false,"is_disabled":false,"rental_uris":{"android":"levelo://app?vid=2f42e19e-22f1-4965-ad6e-662af5324e76","ios":"levelo://app?vid=2f42e19e-22f1-4965-ad6e-662af5324e76"},"vehicle_type_id":"4","last_reported":1742195440,"current_range_meters":11200,"station_id":"ce4bhu92rcd13ifvqi70","pricing_plan_id":"cebpf4jnsgd1na2vs0mg"},{"bike_id":"02f851a7-faeb-48ff-b4b8-89131a62e00f","system_id":"levelo_inurba_marseille","lat":43.28487,"lon":5.3842,"is_reserved":false,"is_disabled":false,"rental_uris":{"android":"levelo://app?vid=02f851a7-faeb-48ff-b4b8-89131a62e00f","ios":"levelo://app?vid=02f851a7-faeb-48ff-b4b8-89131a62e00f"},"vehicle_type_id":"4","last_reported":1742195440,"current_range_meters":11200,"station_id":"ce4bh512rcd13ifvqe3g","pricing_plan_id":"cebpf4jnsgd1na2vs0mg"},{"bike_id":"f56c7c5e-eda8-494d-9ab8-b4c027672166","system_id":"levelo_inurba_marseille","lat":43.282464,"lon":5.443719,"is_reserved":false,"is_disabled":false,"rental_uris":{"android":"levelo://app?vid=f56c7c5e-eda8-494d-9ab8-b4c027672166","ios":"levelo://app?vid=f56c7c5e-eda8-494d-9ab8-b4c027672166"},"vehicle_type_id":"4","last_reported":1742195440,"current_range_meters":11200,"station_id":"","pricing_plan_id":"cebpf4jnsgd1na2vs0mg"},{"bike_id":"519c39f7-1d66-4c01-b5c0-7e898107fa6b","system_id":"levelo_inurba_marseille","lat":43.31261,"lon":5.4018,"is_reserved":false,"is_disabled":false,"rental_uris":{"android":"levelo://app?vid=519c39f7-1d66-4c01-b5c0-7e898107fa6b","ios":"levelo://app?vid=519c39f7-1d66-4c01-b5c0-7e898107fa6b"},"vehicle_type_id":"4","last_reported":1742195440,"current_range_meters":8400,"station_id":"ce4bh092rcd13ifvqd30","pricing_plan_id":"cebpf4jnsgd1na2vs0mg"},{"bike_id":"c8cbded7-6ffd-4d7f-a814-f3b7094bdaf5","system_id":"levelo_inurba_marseille","lat":43.3189,"lon":5.40742,"is_reserved":false,"is_disabled":true,"rental_uris":{"android":"levelo://app?vid=c8cbded7-6ffd-4d7f-a814-f3b7094bdaf5","ios":"levelo://app?vid=c8cbded7-6ffd-4d7f-a814-f3b7094bdaf5"},"vehicle_type_id":"4","last_reported":1742195440,"current_range_meters":9600,"station_id":"ce4bhq12rcd13ifvqhig","pricing_plan_id":"cebpf4jnsgd1na2vs0mg"},{"bike_id":"0c8237b6-b887-4fb3-8bfc-d84cb8935c7a","system_id":"levelo_inurba_marseille","lat":43.28169,"lon":5.4264,"is_reserved":false,"is_disabled":false,"rental_uris":{"android":"levelo://app?vid=0c8237b6-b887-4fb3-8bfc-d84cb8935c7a","ios":"levelo://app?vid=0c8237b6-b887-4fb3-8bfc-d84cb8935c7a"},"vehicle_type_id":"4","last_reported":1742195440,"current_range_meters":11600,"station_id":"ce4bhnh2rcd13ifvqgug","pricing_plan_id":"cebpf4jnsgd1na2vs0mg"},{"bike_id":"54d44332-57ce-4ae1-b078-2a5204f6f497","system_id":"levelo_inurba_marseille","lat":43.276124,"lon":5.361102,"is_reserved":false,"is_disabled":false,"rental_uris":{"android":"levelo://app?vid=54d44332-57ce-4ae1-b078-2a5204f6f497","ios":"levelo://app?vid=54d44332-57ce-4ae1-b078-2a5204f6f497"},"vehicle_type_id":"4","last_reported":1742195440,"current_range_meters":11600,"station_id":"ce4bgj92rcd13ifvqbe0","pricing_plan_id":"cebpf4jnsgd1na2vs0mg"},{"bike_id":"79a0ee71-5e27-4d0f-9128-c9d94a9316a9","system_id":"levelo_inurba_marseille","lat":43.24166,"lon":5.36395,"is_reserved":false,"is_disabled":false,"rental_uris":{"android":"levelo://app?vid=79a0ee71-5e27-4d0f-9128-c9d94a9316a9","ios":"levelo://app?vid=79a0ee71-5e27-4d0f-9128-c9d94a9316a9"},"vehicle_type_id":"4","last_reported":1742195440,"current_range_meters":11600,"station_id":"cpo36qri1sfpv3e86is0","pricing_plan_id":"cebpf4jnsgd1na2vs0mg"},{"bike_id":"26bffbf6-789c-417e-b283-e9182420cd62","system_id":"levelo_inurba_marseille","lat":43.28945,"lon":5.36404,"is_reserved":false,"is_disabled":false,"rental_uris":{"android":"levelo://app?vid=26bffbf6-789c-417e-b283-e9182420cd62","ios":"levelo://app?vid=26bffbf6-789c-417e-b283-e9182420cd62"},"vehicle_type_id":"4","last_reported":1742195440,"current_range_meters":11600,"station_id":"ce4bhc92rcd13ifvqetg","pricing_plan_id":"cebpf4jnsgd1na2vs0mg"},{"bike_id":"21c479b8-e94f-453c-8c08-adbfc66aae92","system_id":"levelo_inurba_marseille","lat":43.31359,"lon":5.38482,"is_reserved":false,"is_disabled":false,"rental_uris":{"android":"levelo://app?vid=21c479b8-e94f-453c-8c08-adbfc66aae92","ios":"levelo://app?vid=21c479b8-e94f-453c-8c08-adbfc66aae92"},"vehicle_type_id":"4","last_reported":1742195440,"current_range_meters":11600,"station_id":"ce4bgt92rcd13ifvqcf0","pricing_plan_id":"cebpf4jnsgd1na2vs0mg"},{"bike_id":"d969f8c5-0523-4729-9dfb-7374ac3ef158","system_id":"levelo_inurba_marseille","lat":43.285093,"lon":5.385697,"is_reserved":false,"is_disabled":false,"rental_uris":{"android":"levelo://app?vid=d969f8c5-0523-4729-9dfb-7374ac3ef158","ios":"levelo://app?vid=d969f8c5-0523-4729-9dfb-7374ac3ef158"},"vehicle_type_id":"4","last_reported":1742195440,"current_range_meters":11600,"station_id":"ce4bh8p2rcd13ifvqeb0","pricing_plan_id":"cebpf4jnsgd1na2vs0mg"},{"bike_id":"20c5e275-c004-4fea-84eb-5e6a013c0e40","system_id":"levelo_inurba_marseille","lat":43.29989,"lon":5.37197,"is_reserved":false,"is_disabled":true,"rental_uris":{"android":"levelo://app?vid=20c5e275-c004-4fea-84eb-5e6a013c0e40","ios":"levelo://app?vid=20c5e275-c004-4fea-84eb-5e6a013c0e40"},"vehicle_type_id":"4","last_reported":1742195440,"current_range_meters":11600,"station_id":"ce4bgr92rcd13ifvqc7g","pricing_plan_id":"cebpf4jnsgd1na2vs0mg"},{"bike_id":"dcbc9e2d-1eeb-4373-bc45-b0cca4c80eca","system_id":"levelo_inurba_marseille","lat":43.28126,"lon":5.4432,"is_reserved":false,"is_disabled":false,"rental_uris":{"android":"levelo://app?vid=dcbc9e2d-1eeb-4373-bc45-b0cca4c80eca","ios":"levelo://app?vid=dcbc9e2d-1eeb-4373-bc45-b0cca4c80eca"},"vehicle_type_id":"4","last_reported":1742195440,"current_range_meters":11600,"station_id":"","pricing_plan_id":"cebpf4jnsgd1na2vs0mg"},{"bike_id":"f9eda727-bee7-40df-86c3-742de5d38771","system_id":"levelo_inurba_marseille","lat":43.30204,"lon":5.39482,"is_reserved":false,"is_disabled":false,"rental_uris":{"android":"levelo://app?vid=f9eda727-bee7-40df-86c3-742de5d38771","ios":"levelo://app?vid=f9eda727-bee7-40df-86c3-742de5d38771"},"vehicle_type_id":"4","last_reported":1742195440,"current_range_meters":11600,"station_id":"ce4bh0p2rcd13ifvqd70","pricing_plan_id":"cebpf4jnsgd1na2vs0mg"},{"bike_id":"f93f0d14-91b9-41fc-a4f1-6134ed03420c","system_id":"levelo_inurba_marseille","lat":43.297093,"lon":5.366171,"is_reserved":false,"is_disabled":false,"rental_uris":{"android":"levelo://app?vid=f93f0d14-91b9-41fc-a4f1-6134ed03420c","ios":"levelo://app?vid=f93f0d14-91b9-41fc-a4f1-6134ed03420c"},"vehicle_type_id":"4","last_reported":1742195440,"current_range_meters":11600,"station_id":"ce4bgn12rcd13ifvqbt0","pricing_plan_id":"cebpf4jnsgd1na2vs0mg"},{"bike_id":"aab95aeb-f5d4-4bef-bcdc-d835ba6c3583","system_id":"levelo_inurba_marseille","lat":43.23056,"lon":5.35501,"is_reserved":false,"is_disabled":false,"rental_uris":{"android":"levelo://app?vid=aab95aeb-f5d4-4bef-bcdc-d835ba6c3583","ios":"levelo://app?vid=aab95aeb-f5d4-4bef-bcdc-d835ba6c3583"},"vehicle_type_id":"4","last_reported":1742195440,"current_range_meters":12000,"station_id":"cpo3342slgdg3j2ifvpg","pricing_plan_id":"cebpf4jnsgd1na2vs0mg"},{"bike_id":"f8448f78-a39d-491e-a4a8-5b2b39ba3b73","system_id":"levelo_inurba_marseille","lat":43.310555,"lon":5.37149,"is_reserved":false,"is_disabled":false,"rental_uris":{"android":"levelo://app?vid=f8448f78-a39d-491e-a4a8-5b2b39ba3b73","ios":"levelo://app?vid=f8448f78-a39d-491e-a4a8-5b2b39ba3b73"},"vehicle_type_id":"4","last_reported":1742195440,"current_range_meters":12000,"station_id":"","pricing_plan_id":"cebpf4jnsgd1na2vs0mg"},{"bike_id":"da13238e-d41c-45e1-a56d-699763e37342","system_id":"levelo_inurba_marseille","lat":43.27497,"lon":5.42462,"is_reserved":false,"is_disabled":false,"rental_uris":{"android":"levelo://app?vid=da13238e-d41c-45e1-a56d-699763e37342","ios":"levelo://app?vid=da13238e-d41c-45e1-a56d-699763e37342"},"vehicle_type_id":"4","last_reported":1742195440,"current_range_meters":12000,"station_id":"ce4bhn92rcd13ifvqgrg","pricing_plan_id":"cebpf4jnsgd1na2vs0mg"},{"bike_id":"b763467b-fcb1-47ab-9842-1db9f33d174c","system_id":"levelo_inurba_marseille","lat":43.23195,"lon":5.35553,"is_reserved":false,"is_disabled":false,"rental_uris":{"android":"levelo://app?vid=b763467b-fcb1-47ab-9842-1db9f33d174c","ios":"levelo://app?vid=b763467b-fcb1-47ab-9842-1db9f33d174c"},"vehicle_type_id":"4","last_reported":1742195440,"current_range_meters":12000,"station_id":"ce4bhu92rcd13ifvqi70","pricing_plan_id":"cebpf4jnsgd1na2vs0mg"},{"bike_id":"f6d26e90-c8a6-4832-a1c5-767d58aee5bc","system_id":"levelo_inurba_marseille","lat":43.231436,"lon":5.437035,"is_reserved":false,"is_disabled":false,"rental_uris":{"android":"levelo://app?vid=f6d26e90-c8a6-4832-a1c5-767d58aee5bc","ios":"levelo://app?vid=f6d26e90-c8a6-4832-a1c5-767d58aee5bc"},"vehicle_type_id":"4","last_reported":1742195440,"current_range_meters":12000,"station_id":"ce4bhmp2rcd13ifvqgog","pricing_plan_id":"cebpf4jnsgd1na2vs0mg"},{"bike_id":"b7136dc7-a464-4b6b-b499-0275257b4d3f","system_id":"levelo_inurba_marseille","lat":43.27489,"lon":5.42454,"is_reserved":false,"is_disabled":false,"rental_uris":{"android":"levelo://app?vid=b7136dc7-a464-4b6b-b499-0275257b4d3f","ios":"levelo://app?vid=b7136dc7-a464-4b6b-b499-0275257b4d3f"},"vehicle_type_id":"4","last_reported":1742195440,"current_range_meters":12000,"station_id":"ce4bhn92rcd13ifvqgrg","pricing_plan_id":"cebpf4jnsgd1na2vs0mg"},{"bike_id":"ab390a76-0a57-4543-a76e-6d96e1e77958","system_id":"levelo_inurba_marseille","lat":43.23054,"lon":5.35504,"is_reserved":false,"is_disabled":false,"rental_uris":{"android":"levelo://app?vid=ab390a76-0a57-4543-a76e-6d96e1e77958","ios":"levelo://app?vid=ab390a76-0a57-4543-a76e-6d96e1e77958"},"vehicle_type_id":"4","last_reported":1742195440,"current_range_meters":12000,"station_id":"cpo3342slgdg3j2ifvpg","pricing_plan_id":"cebpf4jnsgd1na2vs0mg"},{"bike_id":"061c3eab-ebbd-4760-8917-2528d6e29cbc","system_id":"levelo_inurba_marseille","lat":43.27086,"lon":5.42296,"is_reserved":false,"is_disabled":true,"rental_uris":{"android":"levelo://app?vid=061c3eab-ebbd-4760-8917-2528d6e29cbc","ios":"levelo://app?vid=061c3eab-ebbd-4760-8917-2528d6e29cbc"},"vehicle_type_id":"4","last_reported":1742195440,"current_range_meters":12000,"station_id":"ce4bhk92rcd13ifvqgb0","pricing_plan_id":"cebpf4jnsgd1na2vs0mg"},{"bike_id":"4ee66709-29b2-40f6-8f6f-ebc9370d1671","system_id":"levelo_inurba_marseille","lat":43.29224,"lon":5.42691,"is_reserved":false,"is_disabled":false,"rental_uris":{"android":"levelo://app?vid=4ee66709-29b2-40f6-8f6f-ebc9370d1671","ios":"levelo://app?vid=4ee66709-29b2-40f6-8f6f-ebc9370d1671"},"vehicle_type_id":"4","last_reported":1742195440,"current_range_meters":12400,"station_id":"","pricing_plan_id":"cebpf4jnsgd1na2vs0mg"},{"bike_id":"a110c3e8-a146-4d68-a9ad-64c5ddcb51fe","system_id":"levelo_inurba_marseille","lat":43.23135,"lon":5.43715,"is_reserved":false,"is_disabled":false,"rental_uris":{"android":"levelo://app?vid=a110c3e8-a146-4d68-a9ad-64c5ddcb51fe","ios":"levelo://app?vid=a110c3e8-a146-4d68-a9ad-64c5ddcb51fe"},"vehicle_type_id":"4","last_reported":1742195440,"current_range_meters":12000,"station_id":"ce4bhmp2rcd13ifvqgog","pricing_plan_id":"cebpf4jnsgd1na2vs0mg"},{"bike_id":"6e46b814-3eb3-4bc5-8438-aff0326ba365","system_id":"levelo_inurba_marseille","lat":43.24071,"lon":5.37765,"is_reserved":false,"is_disabled":false,"rental_uris":{"android":"levelo://app?vid=6e46b814-3eb3-4bc5-8438-aff0326ba365","ios":"levelo://app?vid=6e46b814-3eb3-4bc5-8438-aff0326ba365"},"vehicle_type_id":"4","last_reported":1742195440,"current_range_meters":12400,"station_id":"ce4bhnp2rcd13ifvqgvg","pricing_plan_id":"cebpf4jnsgd1na2vs0mg"},{"bike_id":"0b2c588e-ad18-4b5f-909d-2d111e78fbae","system_id":"levelo_inurba_marseille","lat":43.284724,"lon":5.384278,"is_reserved":false,"is_disabled":true,"rental_uris":{"android":"levelo://app?vid=0b2c588e-ad18-4b5f-909d-2d111e78fbae","ios":"levelo://app?vid=0b2c588e-ad18-4b5f-909d-2d111e78fbae"},"vehicle_type_id":"4","last_reported":1742195440,"current_range_meters":12400,"station_id":"ce4bh512rcd13ifvqe3g","pricing_plan_id":"cebpf4jnsgd1na2vs0mg"},{"bike_id":"04779c95-09a2-425e-927f-fb9e05ab6347","system_id":"levelo_inurba_marseille","lat":43.33761,"lon":5.37489,"is_reserved":false,"is_disabled":false,"rental_uris":{"android":"levelo://app?vid=04779c95-09a2-425e-927f-fb9e05ab6347","ios":"levelo://app?vid=04779c95-09a2-425e-927f-fb9e05ab6347"},"vehicle_type_id":"4","last_reported":1742195440,"current_range_meters":12400,"station_id":"","pricing_plan_id":"cebpf4jnsgd1na2vs0mg"},{"bike_id":"394a2af0-8b0c-4cc5-b51f-e1ea47c6efce","system_id":"levelo_inurba_marseille","lat":43.29601,"lon":5.38112,"is_reserved":false,"is_disabled":false,"rental_uris":{"android":"levelo://app?vid=394a2af0-8b0c-4cc5-b51f-e1ea47c6efce","ios":"levelo://app?vid=394a2af0-8b0c-4cc5-b51f-e1ea47c6efce"},"vehicle_type_id":"4","last_reported":1742195440,"current_range_meters":12400,"station_id":"ce4bgl12rcd13ifvqbo0","pricing_plan_id":"cebpf4jnsgd1na2vs0mg"},{"bike_id":"84cfc446-bf14-431e-a684-b664920352f0","system_id":"levelo_inurba_marseille","lat":43.241719,"lon":5.363999,"is_reserved":false,"is_disabled":true,"rental_uris":{"android":"levelo://app?vid=84cfc446-bf14-431e-a684-b664920352f0","ios":"levelo://app?vid=84cfc446-bf14-431e-a684-b664920352f0"},"vehicle_type_id":"4","last_reported":1742195440,"current_range_meters":12400,"station_id":"cpo36qri1sfpv3e86is0","pricing_plan_id":"cebpf4jnsgd1na2vs0mg"},{"bike_id":"c735a41e-8707-4425-9245-f2bfffe653b8","system_id":"levelo_inurba_marseille","lat":43.259384,"lon":5.409013,"is_reserved":false,"is_disabled":false,"rental_uris":{"android":"levelo://app?vid=c735a41e-8707-4425-9245-f2bfffe653b8","ios":"levelo://app?vid=c735a41e-8707-4425-9245-f2bfffe653b8"},"vehicle_type_id":"4","last_reported":1742195440,"current_range_meters":12400,"station_id":"ce4bhm92rcd13ifvqglg","pricing_plan_id":"cebpf4jnsgd1na2vs0mg"},{"bike_id":"7feea859-b4ac-43c2-a126-ab29c189eef5","system_id":"levelo_inurba_marseille","lat":43.23192,"lon":5.35555,"is_reserved":false,"is_disabled":false,"rental_uris":{"android":"levelo://app?vid=7feea859-b4ac-43c2-a126-ab29c189eef5","ios":"levelo://app?vid=7feea859-b4ac-43c2-a126-ab29c189eef5"},"vehicle_type_id":"4","last_reported":1742195440,"current_range_meters":12400,"station_id":"ce4bhu92rcd13ifvqi70","pricing_plan_id":"cebpf4jnsgd1na2vs0mg"},{"bike_id":"8bbd1e87-2f18-4bbe-8e92-af8b00ffc8de","system_id":"levelo_inurba_marseille","lat":43.30162,"lon":5.38082,"is_reserved":false,"is_disabled":false,"rental_uris":{"android":"levelo://app?vid=8bbd1e87-2f18-4bbe-8e92-af8b00ffc8de","ios":"levelo://app?vid=8bbd1e87-2f18-4bbe-8e92-af8b00ffc8de"},"vehicle_type_id":"4","last_reported":1742195440,"current_range_meters":12800,"station_id":"ce4bgjp2rcd13ifvqbh0","pricing_plan_id":"cebpf4jnsgd1na2vs0mg"},{"bike_id":"7678d4fe-044b-415e-bbb6-5f97a0548a0c","system_id":"levelo_inurba_marseille","lat":43.23186,"lon":5.40013,"is_reserved":false,"is_disabled":true,"rental_uris":{"android":"levelo://app?vid=7678d4fe-044b-415e-bbb6-5f97a0548a0c","ios":"levelo://app?vid=7678d4fe-044b-415e-bbb6-5f97a0548a0c"},"vehicle_type_id":"4","last_reported":1742195440,"current_range_meters":12800,"station_id":"ce4bhn12rcd13ifvqgqg","pricing_plan_id":"cebpf4jnsgd1na2vs0mg"},{"bike_id":"eb68e8b7-38f3-4b46-bcf2-645e79c2103b","system_id":"levelo_inurba_marseille","lat":43.26569,"lon":5.386286,"is_reserved":false,"is_disabled":false,"rental_uris":{"android":"levelo://app?vid=eb68e8b7-38f3-4b46-bcf2-645e79c2103b","ios":"levelo://app?vid=eb68e8b7-38f3-4b46-bcf2-645e79c2103b"},"vehicle_type_id":"4","last_reported":1742195440,"current_range_meters":12800,"station_id":"","pricing_plan_id":"cebpf4jnsgd1na2vs0mg"},{"bike_id":"611e1d18-f8ac-41a1-ace3-de54f198d91d","system_id":"levelo_inurba_marseille","lat":43.28833,"lon":5.35828,"is_reserved":false,"is_disabled":true,"rental_uris":{"android":"levelo://app?vid=611e1d18-f8ac-41a1-ace3-de54f198d91d","ios":"levelo://app?vid=611e1d18-f8ac-41a1-ace3-de54f198d91d"},"vehicle_type_id":"4","last_reported":1742195440,"current_range_meters":12800,"station_id":"ce4bhb12rcd13ifvqem0","pricing_plan_id":"cebpf4jnsgd1na2vs0mg"},{"bike_id":"5c7d3af7-81c2-462c-80cb-d705f57b5e51","system_id":"levelo_inurba_marseille","lat":43.25672,"lon":5.41104,"is_reserved":false,"is_disabled":true,"rental_uris":{"android":"levelo://app?vid=5c7d3af7-81c2-462c-80cb-d705f57b5e51","ios":"levelo://app?vid=5c7d3af7-81c2-462c-80cb-d705f57b5e51"},"vehicle_type_id":"4","last_reported":1742195440,"current_range_meters":12800,"station_id":"ce4bhkp2rcd13ifvqgd0","pricing_plan_id":"cebpf4jnsgd1na2vs0mg"},{"bike_id":"419e75fc-e7a8-4d96-937f-2277bdae5953","system_id":"levelo_inurba_marseille","lat":43.28977,"lon":5.37825,"is_reserved":false,"is_disabled":false,"rental_uris":{"android":"levelo://app?vid=419e75fc-e7a8-4d96-937f-2277bdae5953","ios":"levelo://app?vid=419e75fc-e7a8-4d96-937f-2277bdae5953"},"vehicle_type_id":"4","last_reported":1742195440,"current_range_meters":13600,"station_id":"ce4bh9p2rcd13ifvqed0","pricing_plan_id":"cebpf4jnsgd1na2vs0mg"},{"bike_id":"24a479cc-374a-418f-9144-dac66f4aa10b","system_id":"levelo_inurba_marseille","lat":43.28454,"lon":5.35899,"is_reserved":false,"is_disabled":true,"rental_uris":{"android":"levelo://app?vid=24a479cc-374a-418f-9144-dac66f4aa10b","ios":"levelo://app?vid=24a479cc-374a-418f-9144-dac66f4aa10b"},"vehicle_type_id":"4","last_reported":1742195440,"current_range_meters":13600,"station_id":"ce4bhah2rcd13ifvqei0","pricing_plan_id":"cebpf4jnsgd1na2vs0mg"},{"bike_id":"3c0a0b9d-ab1b-4ecc-a265-5e422decaa33","system_id":"levelo_inurba_marseille","lat":43.27374,"lon":5.36259,"is_reserved":false,"is_disabled":true,"rental_uris":{"android":"levelo://app?vid=3c0a0b9d-ab1b-4ecc-a265-5e422decaa33","ios":"levelo://app?vid=3c0a0b9d-ab1b-4ecc-a265-5e422decaa33"},"vehicle_type_id":"4","last_reported":1742195440,"current_range_meters":13600,"station_id":"ce4bhbh2rcd13ifvqeo0","pricing_plan_id":"cebpf4jnsgd1na2vs0mg"},{"bike_id":"82f2740b-aabb-4944-8011-64a453061c5b","system_id":"levelo_inurba_marseille","lat":43.24076,"lon":5.37748,"is_reserved":false,"is_disabled":false,"rental_uris":{"android":"levelo://app?vid=82f2740b-aabb-4944-8011-64a453061c5b","ios":"levelo://app?vid=82f2740b-aabb-4944-8011-64a453061c5b"},"vehicle_type_id":"4","last_reported":1742195440,"current_range_meters":13600,"station_id":"ce4bhnp2rcd13ifvqgvg","pricing_plan_id":"cebpf4jnsgd1na2vs0mg"},{"bike_id":"8dd6b84d-cb72-4700-b382-65fc3acfcd2e","system_id":"levelo_inurba_marseille","lat":43.26569,"lon":5.39008,"is_reserved":false,"is_disabled":false,"rental_uris":{"android":"levelo://app?vid=8dd6b84d-cb72-4700-b382-65fc3acfcd2e","ios":"levelo://app?vid=8dd6b84d-cb72-4700-b382-65fc3acfcd2e"},"vehicle_type_id":"4","last_reported":1742195440,"current_range_meters":13600,"station_id":"ce4bhe12rcd13ifvqf30","pricing_plan_id":"cebpf4jnsgd1na2vs0mg"},{"bike_id":"62f04d62-7a6c-4336-93a2-423f52c0b161","system_id":"levelo_inurba_marseille","lat":43.28706,"lon":5.39986,"is_reserved":false,"is_disabled":false,"rental_uris":{"android":"levelo://app?vid=62f04d62-7a6c-4336-93a2-423f52c0b161","ios":"levelo://app?vid=62f04d62-7a6c-4336-93a2-423f52c0b161"},"vehicle_type_id":"4","last_reported":1742195440,"current_range_meters":14000,"station_id":"ce4bho92rcd13ifvqh3g","pricing_plan_id":"cebpf4jnsgd1na2vs0mg"},{"bike_id":"de8d7383-0a9d-44bb-8489-5ad2b418df53","system_id":"levelo_inurba_marseille","lat":43.295921,"lon":5.377352,"is_reserved":false,"is_disabled":false,"rental_uris":{"android":"levelo://app?vid=de8d7383-0a9d-44bb-8489-5ad2b418df53","ios":"levelo://app?vid=de8d7383-0a9d-44bb-8489-5ad2b418df53"},"vehicle_type_id":"4","last_reported":1742195440,"current_range_meters":13600,"station_id":"ce4bgi92rcd13ifvqb90","pricing_plan_id":"cebpf4jnsgd1na2vs0mg"},{"bike_id":"f3b6156c-2087-4f03-a6ba-2a9b58eef4d8","system_id":"levelo_inurba_marseille","lat":43.24069,"lon":5.37759,"is_reserved":false,"is_disabled":false,"rental_uris":{"android":"levelo://app?vid=f3b6156c-2087-4f03-a6ba-2a9b58eef4d8","ios":"levelo://app?vid=f3b6156c-2087-4f03-a6ba-2a9b58eef4d8"},"vehicle_type_id":"4","last_reported":1742195440,"current_range_meters":14000,"station_id":"ce4bhnp2rcd13ifvqgvg","pricing_plan_id":"cebpf4jnsgd1na2vs0mg"},{"bike_id":"9c88cbe5-3617-4fe4-8bfd-243334d7fe47","system_id":"levelo_inurba_marseille","lat":43.2468,"lon":5.38141,"is_reserved":false,"is_disabled":false,"rental_uris":{"android":"levelo://app?vid=9c88cbe5-3617-4fe4-8bfd-243334d7fe47","ios":"levelo://app?vid=9c88cbe5-3617-4fe4-8bfd-243334d7fe47"},"vehicle_type_id":"4","last_reported":1742195440,"current_range_meters":14000,"station_id":"ce4bhih2rcd13ifvqfr0","pricing_plan_id":"cebpf4jnsgd1na2vs0mg"},{"bike_id":"421ffe78-25bf-4527-9fb4-a76483712f90","system_id":"levelo_inurba_marseille","lat":43.22934,"lon":5.35383,"is_reserved":false,"is_disabled":false,"rental_uris":{"android":"levelo://app?vid=421ffe78-25bf-4527-9fb4-a76483712f90","ios":"levelo://app?vid=421ffe78-25bf-4527-9fb4-a76483712f90"},"vehicle_type_id":"4","last_reported":1742195440,"current_range_meters":14000,"station_id":"cpo3532slgdg3j2ikp40","pricing_plan_id":"cebpf4jnsgd1na2vs0mg"},{"bike_id":"f94de7fa-5e4f-4999-99c8-9c98dc8c7305","system_id":"levelo_inurba_marseille","lat":43.24997,"lon":5.38943,"is_reserved":false,"is_disabled":false,"rental_uris":{"android":"levelo://app?vid=f94de7fa-5e4f-4999-99c8-9c98dc8c7305","ios":"levelo://app?vid=f94de7fa-5e4f-4999-99c8-9c98dc8c7305"},"vehicle_type_id":"4","last_reported":1742195440,"current_range_meters":14400,"station_id":"ce4bhgp2rcd13ifvqfd0","pricing_plan_id":"cebpf4jnsgd1na2vs0mg"},{"bike_id":"f39a9551-cdb5-459a-997a-57b76880a5a5","system_id":"levelo_inurba_marseille","lat":43.27822,"lon":5.39219,"is_reserved":false,"is_disabled":true,"rental_uris":{"android":"levelo://app?vid=f39a9551-cdb5-459a-997a-57b76880a5a5","ios":"levelo://app?vid=f39a9551-cdb5-459a-997a-57b76880a5a5"},"vehicle_type_id":"4","last_reported":1742195440,"current_range_meters":14400,"station_id":"ce4bhjp2rcd13ifvqga0","pricing_plan_id":"cebpf4jnsgd1na2vs0mg"},{"bike_id":"8cc8ed01-839f-4b86-abcf-a00c49463ec3","system_id":"levelo_inurba_marseille","lat":43.30167,"lon":5.38091,"is_reserved":false,"is_disabled":false,"rental_uris":{"android":"levelo://app?vid=8cc8ed01-839f-4b86-abcf-a00c49463ec3","ios":"levelo://app?vid=8cc8ed01-839f-4b86-abcf-a00c49463ec3"},"vehicle_type_id":"4","last_reported":1742195440,"current_range_meters":14400,"station_id":"ce4bgjp2rcd13ifvqbh0","pricing_plan_id":"cebpf4jnsgd1na2vs0mg"},{"bike_id":"daa507ef-e942-4dfc-999f-f4fb2edbd295","system_id":"levelo_inurba_marseille","lat":43.25821,"lon":5.39442,"is_reserved":false,"is_disabled":false,"rental_uris":{"android":"levelo://app?vid=daa507ef-e942-4dfc-999f-f4fb2edbd295","ios":"levelo://app?vid=daa507ef-e942-4dfc-999f-f4fb2edbd295"},"vehicle_type_id":"4","last_reported":1742195440,"current_range_meters":16000,"station_id":"ce4bhip2rcd13ifvqft0","pricing_plan_id":"cebpf4jnsgd1na2vs0mg"},{"bike_id":"cabd52bd-50db-4e11-8830-bdda486c0bac","system_id":"levelo_inurba_marseille","lat":43.2617,"lon":5.42081,"is_reserved":false,"is_disabled":false,"rental_uris":{"android":"levelo://app?vid=cabd52bd-50db-4e11-8830-bdda486c0bac","ios":"levelo://app?vid=cabd52bd-50db-4e11-8830-bdda486c0bac"},"vehicle_type_id":"4","last_reported":1742195440,"current_range_meters":14800,"station_id":"","pricing_plan_id":"cebpf4jnsgd1na2vs0mg"},{"bike_id":"75e009c4-ea5f-4e47-b8c6-5ec12f7ca4b1","system_id":"levelo_inurba_marseille","lat":43.23183,"lon":5.40003,"is_reserved":false,"is_disabled":false,"rental_uris":{"android":"levelo://app?vid=75e009c4-ea5f-4e47-b8c6-5ec12f7ca4b1","ios":"levelo://app?vid=75e009c4-ea5f-4e47-b8c6-5ec12f7ca4b1"},"vehicle_type_id":"4","last_reported":1742195440,"current_range_meters":14800,"station_id":"ce4bhn12rcd13ifvqgqg","pricing_plan_id":"cebpf4jnsgd1na2vs0mg"},{"bike_id":"6e193a03-0e16-4a77-98bc-c467932cc93f","system_id":"levelo_inurba_marseille","lat":43.28077,"lon":5.39858,"is_reserved":false,"is_disabled":false,"rental_uris":{"android":"levelo://app?vid=6e193a03-0e16-4a77-98bc-c467932cc93f","ios":"levelo://app?vid=6e193a03-0e16-4a77-98bc-c467932cc93f"},"vehicle_type_id":"4","last_reported":1742195440,"current_range_meters":14800,"station_id":"","pricing_plan_id":"cebpf4jnsgd1na2vs0mg"},{"bike_id":"0977ec3e-6541-46a2-929f-74c4731521ab","system_id":"levelo_inurba_marseille","lat":43.240774,"lon":5.377463,"is_reserved":false,"is_disabled":false,"rental_uris":{"android":"levelo://app?vid=0977ec3e-6541-46a2-929f-74c4731521ab","ios":"levelo://app?vid=0977ec3e-6541-46a2-929f-74c4731521ab"},"vehicle_type_id":"4","last_reported":1742195440,"current_range_meters":14800,"station_id":"ce4bhnp2rcd13ifvqgvg","pricing_plan_id":"cebpf4jnsgd1na2vs0mg"},{"bike_id":"f4949a44-a562-413e-8510-5ea9da5dbefb","system_id":"levelo_inurba_marseille","lat":43.32063,"lon":5.36859,"is_reserved":false,"is_disabled":false,"rental_uris":{"android":"levelo://app?vid=f4949a44-a562-413e-8510-5ea9da5dbefb","ios":"levelo://app?vid=f4949a44-a562-413e-8510-5ea9da5dbefb"},"vehicle_type_id":"4","last_reported":1742195440,"current_range_meters":14800,"station_id":"","pricing_plan_id":"cebpf4jnsgd1na2vs0mg"},{"bike_id":"7c66673a-04c3-4d32-a675-3d59fed633d9","system_id":"levelo_inurba_marseille","lat":43.231988,"lon":5.355501,"is_reserved":false,"is_disabled":false,"rental_uris":{"android":"levelo://app?vid=7c66673a-04c3-4d32-a675-3d59fed633d9","ios":"levelo://app?vid=7c66673a-04c3-4d32-a675-3d59fed633d9"},"vehicle_type_id":"4","last_reported":1742195440,"current_range_meters":14800,"station_id":"ce4bhu92rcd13ifvqi70","pricing_plan_id":"cebpf4jnsgd1na2vs0mg"},{"bike_id":"74a63c06-f234-45d1-b5b6-10fbae4a4bf8","system_id":"levelo_inurba_marseille","lat":43.31719,"lon":5.42403,"is_reserved":false,"is_disabled":false,"rental_uris":{"android":"levelo://app?vid=74a63c06-f234-45d1-b5b6-10fbae4a4bf8","ios":"levelo://app?vid=74a63c06-f234-45d1-b5b6-10fbae4a4bf8"},"vehicle_type_id":"4","last_reported":1742195440,"current_range_meters":14800,"station_id":"ce4bhp92rcd13ifvqhbg","pricing_plan_id":"cebpf4jnsgd1na2vs0mg"},{"bike_id":"92e08434-b01c-4bc3-875d-ec8db8b3f4a0","system_id":"levelo_inurba_marseille","lat":43.31043,"lon":5.38356,"is_reserved":false,"is_disabled":false,"rental_uris":{"android":"levelo://app?vid=92e08434-b01c-4bc3-875d-ec8db8b3f4a0","ios":"levelo://app?vid=92e08434-b01c-4bc3-875d-ec8db8b3f4a0"},"vehicle_type_id":"4","last_reported":1742195440,"current_range_meters":14800,"station_id":"ce4bgv92rcd13ifvqcr0","pricing_plan_id":"cebpf4jnsgd1na2vs0mg"},{"bike_id":"493245d2-5b57-48a5-904f-c9d1657dd165","system_id":"levelo_inurba_marseille","lat":43.28729,"lon":5.36075,"is_reserved":false,"is_disabled":false,"rental_uris":{"android":"levelo://app?vid=493245d2-5b57-48a5-904f-c9d1657dd165","ios":"levelo://app?vid=493245d2-5b57-48a5-904f-c9d1657dd165"},"vehicle_type_id":"4","last_reported":1742195440,"current_range_meters":14800,"station_id":"cki0cbj6b192h4jlfktg","pricing_plan_id":"cebpf4jnsgd1na2vs0mg"},{"bike_id":"fc4106bc-6043-4d42-918e-8ee6e6d1caf9","system_id":"levelo_inurba_marseille","lat":43.23222,"lon":5.39926,"is_reserved":false,"is_disabled":false,"rental_uris":{"android":"levelo://app?vid=fc4106bc-6043-4d42-918e-8ee6e6d1caf9","ios":"levelo://app?vid=fc4106bc-6043-4d42-918e-8ee6e6d1caf9"},"vehicle_type_id":"4","last_reported":1742195440,"current_range_meters":14800,"station_id":"","pricing_plan_id":"cebpf4jnsgd1na2vs0mg"},{"bike_id":"41185e3d-5edc-434f-8dc7-6a844863e74d","system_id":"levelo_inurba_marseille","lat":43.284801,"lon":5.385383,"is_reserved":false,"is_disabled":true,"rental_uris":{"android":"levelo://app?vid=41185e3d-5edc-434f-8dc7-6a844863e74d","ios":"levelo://app?vid=41185e3d-5edc-434f-8dc7-6a844863e74d"},"vehicle_type_id":"4","last_reported":1742195440,"current_range_meters":15200,"station_id":"ce4bh8p2rcd13ifvqeb0","pricing_plan_id":"cebpf4jnsgd1na2vs0mg"},{"bike_id":"d0be47f6-0a19-4b11-ab8f-caa0125f1c7f","system_id":"levelo_inurba_marseille","lat":43.30592,"lon":5.39342,"is_reserved":false,"is_disabled":false,"rental_uris":{"android":"levelo://app?vid=d0be47f6-0a19-4b11-ab8f-caa0125f1c7f","ios":"levelo://app?vid=d0be47f6-0a19-4b11-ab8f-caa0125f1c7f"},"vehicle_type_id":"4","last_reported":1742195440,"current_range_meters":15200,"station_id":"ce4bh0p2rcd13ifvqd80","pricing_plan_id":"cebpf4jnsgd1na2vs0mg"},{"bike_id":"fba0232d-37cd-48b1-b751-a68ed8dafddd","system_id":"levelo_inurba_marseille","lat":43.229282,"lon":5.353866,"is_reserved":false,"is_disabled":false,"rental_uris":{"android":"levelo://app?vid=fba0232d-37cd-48b1-b751-a68ed8dafddd","ios":"levelo://app?vid=fba0232d-37cd-48b1-b751-a68ed8dafddd"},"vehicle_type_id":"4","last_reported":1742195440,"current_range_meters":15200,"station_id":"cpo3532slgdg3j2ikp40","pricing_plan_id":"cebpf4jnsgd1na2vs0mg"},{"bike_id":"ee2bd1ff-31ee-4df9-84f1-6e62cf91ecfe","system_id":"levelo_inurba_marseille","lat":43.28422,"lon":5.34995,"is_reserved":false,"is_disabled":true,"rental_uris":{"android":"levelo://app?vid=ee2bd1ff-31ee-4df9-84f1-6e62cf91ecfe","ios":"levelo://app?vid=ee2bd1ff-31ee-4df9-84f1-6e62cf91ecfe"},"vehicle_type_id":"4","last_reported":1742195440,"current_range_meters":15200,"station_id":"ce4bhbh2rcd13ifvqepg","pricing_plan_id":"cebpf4jnsgd1na2vs0mg"},{"bike_id":"ba1a19a5-2ede-4681-958d-fa01b744d546","system_id":"levelo_inurba_marseille","lat":43.24069,"lon":5.37764,"is_reserved":false,"is_disabled":false,"rental_uris":{"android":"levelo://app?vid=ba1a19a5-2ede-4681-958d-fa01b744d546","ios":"levelo://app?vid=ba1a19a5-2ede-4681-958d-fa01b744d546"},"vehicle_type_id":"4","last_reported":1742195440,"current_range_meters":15200,"station_id":"ce4bhnp2rcd13ifvqgvg","pricing_plan_id":"cebpf4jnsgd1na2vs0mg"},