{"last_updated":1708448776,"ttl":30,"version":"2.2","data":{"bikes":[{"bike_id":"ae21ff70-3d7f-4bfa-bd72-6d6d64cd480a","system_id":"levelo_inurba_marseille","lat":43.3134,"lon":5.36721,"is_reserved":false,"is_disabled":false,"rental_uris":{"android":"levelo://app?vid=ae21ff70-3d7f-4bfa-bd72-6d6d64cd480a","ios":"levelo://app?vid=ae21ff70-3d7f-4bfa-bd72-6d6d64cd480a"},"vehicle_type_id":"4","last_reported":1708448776,"current_range_meters":20400,"station_id":"ce4bgr92rcd13ifvqc6g","pricing_plan_id":"cebpf4jnsgd1na2vs0mg"},{"bike_id":"23b4c254-b370-447c-bef1-035bb004f557","system_id":"levelo_inurba_marseille","lat":43.31337,"lon":5.36732,"is_reserved":false,"is_disabled":false,"rental_uris":{"android":"levelo://app?vid=23b4c254-b370-447c-bef1-035bb004f557","ios":"levelo://app?vid=23b4c254-b370-447c-bef1-035bb004f557"},"vehicle_type_id":"4","last_reported":1708448776,"current_range_meters":31200,"station_id":"ce4bgr92rcd13ifvqc6g","pricing_plan_id":"cebpf4jnsgd1na2vs0mg"},{"bike_id":"327c3a12-35c4-4c07-bd88-9e8f7ffdb893","system_id":"levelo_inurba_marseille","lat":43.313413,"lon":5.367211,"is_reserved":false,"is_disabled":false,"rental_uris":{"android":"levelo://app?vid=327c3a12-35c4-4c07-bd88-9e8f7ffdb893","ios":"levelo://app?vid=327c3a12-35c4-4c07-bd88-9e8f7ffdb893"},"vehicle_type_id":"4","last_reported":1708448776,"current_range_meters":0,"station_id":"ce4bgr92rcd13ifvqc6g","pricing_plan_id":"cebpf4jnsgd1na2vs0mg"},{"bike_id":"e524c456-c666-47fc-baa5-727b523afc60","system_id":"levelo_inurba_marseille","lat":43.31346,"lon":5.36717,"is_reserved":false,"is_disabled":false,"rental_uris":{"android":"levelo://app?vid=e524c456-c666-47fc-baa5-727b523afc60","ios":"levelo://app?vid=e524c456-c666-47fc-baa5-727b523afc60"},"vehicle_type_id":"4","last_reported":1708448776,"current_range_meters":28800,"station_id":"ce4bgr92rcd13ifvqc6g","pricing_plan_id":"cebpf4jnsgd1na2vs0mg"},{"bike_id":"ee9d3079-fca7-4ff6-a9c9-c756b70627d6","system_id":"levelo_inurba_marseille","lat":43.312377,"lon":5.368597,"is_reserved":false,"is_disabled":false,"rental_uris":{"android":"levelo://app?vid=ee9d3079-fca7-4ff6-a9c9-c756b70627d6","ios":"levelo://app?vid=ee9d3079-fca7-4ff6-a9c9-c756b70627d6"},"vehicle_type_id":"4","last_reported":1708448776,"current_range_meters":10400,"station_id":"ce4bgl92rcd13ifvqbq0","pricing_plan_id":"cebpf4jnsgd1na2vs0mg"},{"bike_id":"4d0caac7-eef6-4720-9788-10356b8c35c7","system_id":"levelo_inurba_marseille","lat":43.312239,"lon":5.368562,"is_reserved":false,"is_disabled":false,"rental_uris":{"android":"levelo://app?vid=4d0caac7-eef6-4720-9788-10356b8c35c7","ios":"levelo://app?vid=4d0caac7-eef6-4720-9788-10356b8c35c7"},"vehicle_type_id":"4","last_reported":1708448776,"current_range_meters":15600,"station_id":"ce4bgl92rcd13ifvqbq0","pricing_plan_id":"cebpf4jnsgd1na2vs0mg"},{"bike_id":"9de158cf-b589-4642-b438-6eac585c38f5","system_id":"levelo_inurba_marseille","lat":43.312239,"lon":5.368562,"is_reserved":false,"is_disabled":false,"rental_uris":{"android":"levelo://app?vid=9de158cf-b589-4642-b438-6eac585c38f5","ios":"levelo://app?vid=9de158cf-b589-4642-b438-6eac585c38f5"},"vehicle_type_id":"4","last_reported":1708448776,"current_range_meters":29200,"station_id":"ce4bgl92rcd13ifvqbq0","pricing_plan_id":"cebpf4jnsgd1na2vs0mg"},{"bike_id":"dbc76024-fd90-47b8-a9e7-46b3823f777e","system_id":"levelo_inurba_marseille","lat":43.312239,"lon":5.368562,"is_reserved":false,"is_disabled":false,"rental_uris":{"android":"levelo://app?vid=dbc76024-fd90-47b8-a9e7-46b3823f777e","ios":"levelo://app?vid=dbc76024-fd90-47b8-a9e7-46b3823f777e"},"vehicle_type_id":"4","last_reported":1708448776,"current_range_meters":13600,"station_id":"ce4bgl92rcd13ifvqbq0","pricing_plan_id":"cebpf4jnsgd1na2vs0mg"},{"bike_id":"6d53f158-747c-4835-ac41-f2243dab4c59","system_id":"levelo_inurba_marseille","lat":43.312239,"lon":5.368562,"is_reserved":false,"is_disabled":false,"rental_uris":{"android":"levelo://app?vid=6d53f158-747c-4835-ac41-f2243dab4c59","ios":"levelo://app?vid=6d53f158-747c-4835-ac41-f2243dab4c59"},"vehicle_type_id":"4","last_reported":1708448776,"current_range_meters":22000,"station_id":"ce4bgl92rcd13ifvqbq0","pricing_plan_id":"cebpf4jnsgd1na2vs0mg"},{"bike_id":"c6a787ca-4fcc-476f-887e-2b214dea3464","system_id":"levelo_inurba_marseille","lat":43.312225,"lon":5.368675,"is_reserved":false,"is_disabled":false,"rental_uris":{"android":"levelo://app?vid=c6a787ca-4fcc-476f-887e-2b214dea3464","ios":"levelo://app?vid=c6a787ca-4fcc-476f-887e-2b214dea3464"},"vehicle_type_id":"4","last_reported":1708448776,"current_range_meters":18800,"station_id":"ce4bgl92rcd13ifvqbq0","pricing_plan_id":"cebpf4jnsgd1na2vs0mg"},{"bike_id":"cae48475-0180-4cf8-b124-9c0cb5429a20","system_id":"levelo_inurba_marseille","lat":43.312239,"lon":5.368562,"is_reserved":false,"is_disabled":false,"rental_uris":{"android":"levelo://app?vid=cae48475-0180-4cf8-b124-9c0cb5429a20","ios":"levelo://app?vid=cae48475-0180-4cf8-b124-9c0cb5429a20"},"vehicle_type_id":"4","last_reported":1708448776,"current_range_meters":0,"station_id":"ce4bgl92rcd13ifvqbq0","pricing_plan_id":"cebpf4jnsgd1na2vs0mg"},{"bike_id":"223efb0f-9d79-4fdf-a47e-f7c5d2fad22c","system_id":"levelo_inurba_marseille","lat":43.309076,"lon":5.368465,"is_reserved":false,"is_disabled":false,"rental_uris":{"android":"levelo://app?vid=223efb0f-9d79-4fdf-a47e-f7c5d2fad22c","ios":"levelo://app?vid=223efb0f-9d79-4fdf-a47e-f7c5d2fad22c"},"vehicle_type_id":"4","last_reported":1708448776,"current_range_meters":14800,"station_id":"ce4bgn92rcd13ifvqbvg","pricing_plan_id":"cebpf4jnsgd1na2vs0mg"},{"bike_id":"16109f98-d72f-45fc-b4e8-528af6b366ba","system_id":"levelo_inurba_marseille","lat":43.309076,"lon":5.368465,"is_reserved":false,"is_disabled":false,"rental_uris":{"android":"levelo://app?vid=16109f98-d72f-45fc-b4e8-528af6b366ba","ios":"levelo://app?vid=16109f98-d72f-45fc-b4e8-528af6b366ba"},"vehicle_type_id":"4","last_reported":1708448776,"current_range_meters":0,"station_id":"ce4bgn92rcd13ifvqbvg","pricing_plan_id":"cebpf4jnsgd1na2vs0mg"},{"bike_id":"c3eddc3f-dd7c-417d-97bc-1b1dd25f4740","system_id":"levelo_inurba_marseille","lat":43.309039,"lon":5.371797,"is_reserved":false,"is_disabled":false,"rental_uris":{"android":"levelo://app?vid=c3eddc3f-dd7c-417d-97bc-1b1dd25f4740","ios":"levelo://app?vid=c3eddc3f-dd7c-417d-97bc-1b1dd25f4740"},"vehicle_type_id":"4","last_reported":1708448776,"current_range_meters":20400,"station_id":"ce4bguh2rcd13ifvqckg","pricing_plan_id":"cebpf4jnsgd1na2vs0mg"},{"bike_id":"02d407e3-2861-46ac-b61d-8b971a53c4fe","system_id":"levelo_inurba_marseille","lat":43.305611,"lon":5.367084,"is_reserved":false,"is_disabled":false,"rental_uris":{"android":"levelo://app?vid=02d407e3-2861-46ac-b61d-8b971a53c4fe","ios":"levelo://app?vid=02d407e3-2861-46ac-b61d-8b971a53c4fe"},"vehicle_type_id":"4","last_reported":1708448776,"current_range_meters":30400,"station_id":"ce4bgrp2rcd13ifvqc9g","pricing_plan_id":"cebpf4jnsgd1na2vs0mg"},{"bike_id":"cb064ea6-0fa8-466d-9c06-f6c34229a736","system_id":"levelo_inurba_marseille","lat":43.305714,"lon":5.365633,"is_reserved":false,"is_disabled":false,"rental_uris":{"android":"levelo://app?vid=cb064ea6-0fa8-466d-9c06-f6c34229a736","ios":"levelo://app?vid=cb064ea6-0fa8-466d-9c06-f6c34229a736"},"vehicle_type_id":"4","last_reported":1708448776,"current_range_meters":9600,"station_id":"ce4bgs12rcd13ifvqcag","pricing_plan_id":"cebpf4jnsgd1na2vs0mg"},{"bike_id":"b49120b7-1aa0-4fb4-8dcb-6a5769ed99e1","system_id":"levelo_inurba_marseille","lat":43.311125,"lon":5.377624,"is_reserved":false,"is_disabled":false,"rental_uris":{"android":"levelo://app?vid=b49120b7-1aa0-4fb4-8dcb-6a5769ed99e1","ios":"levelo://app?vid=b49120b7-1aa0-4fb4-8dcb-6a5769ed99e1"},"vehicle_type_id":"4","last_reported":1708448776,"current_range_meters":16400,"station_id":"ce4bgt92rcd13ifvqcg0","pricing_plan_id":"cebpf4jnsgd1na2vs0mg"},{"bike_id":"916bf9ce-fc92-4e49-823e-17f1b7bda90c","system_id":"levelo_inurba_marseille","lat":43.311125,"lon":5.377624,"is_reserved":false,"is_disabled":false,"rental_uris":{"android":"levelo://app?vid=916bf9ce-fc92-4e49-823e-17f1b7bda90c","ios":"levelo://app?vid=916bf9ce-fc92-4e49-823e-17f1b7bda90c"},"vehicle_type_id":"4","last_reported":1708448776,"current_range_meters":19600,"station_id":"ce4bgt92rcd13ifvqcg0","pricing_plan_id":"cebpf4jnsgd1na2vs0mg"},{"bike_id":"27e06294-c069-497e-b4b6-3d55d638f1b7","system_id":"levelo_inurba_marseille","lat":43.31118,"lon":5.37777,"is_reserved":false,"is_disabled":false,"rental_uris":{"android":"levelo://app?vid=27e06294-c069-497e-b4b6-3d55d638f1b7","ios":"levelo://app?vid=27e06294-c069-497e-b4b6-3d55d638f1b7"},"vehicle_type_id":"4","last_reported":1708448776,"current_range_meters":0,"station_id":"ce4bgt92rcd13ifvqcg0","pricing_plan_id":"cebpf4jnsgd1na2vs0mg"},{"bike_id":"1cc2fe0c-482f-421a-a7da-083cf7c621f6","system_id":"levelo_inurba_marseille","lat":43.311125,"lon":5.377624,"is_reserved":false,"is_disabled":false,"rental_uris":{"android":"levelo://app?vid=1cc2fe0c-482f-421a-a7da-083cf7c621f6","ios":"levelo://app?vid=1cc2fe0c-482f-421a-a7da-083cf7c621f6"},"vehicle_type_id":"4","last_reported":1708448776,"current_range_meters":30800,"station_id":"ce4bgt92rcd13ifvqcg0","pricing_plan_id":"cebpf4jnsgd1na2vs0mg"},{"bike_id":"16b47936-e655-4857-b528-3544fe544851","system_id":"levelo_inurba_marseille","lat":43.311125,"lon":5.377624,"is_reserved":false,"is_disabled":false,"rental_uris":{"android":"levelo://app?vid=16b47936-e655-4857-b528-3544fe544851","ios":"levelo://app?vid=16b47936-e655-4857-b528-3544fe544851"},"vehicle_type_id":"4","last_reported":1708448776,"current_range_meters":25200,"station_id":"ce4bgt92rcd13ifvqcg0","pricing_plan_id":"cebpf4jnsgd1na2vs0mg"},{"bike_id":"dc22c28f-522a-4fb4-b7ab-c6251b90de82","system_id":"levelo_inurba_marseille","lat":43.317075,"lon":5.377367,"is_reserved":false,"is_disabled":false,"rental_uris":{"android":"levelo://app?vid=dc22c28f-522a-4fb4-b7ab-c6251b90de82","ios":"levelo://app?vid=dc22c28f-522a-4fb4-b7ab-c6251b90de82"},"vehicle_type_id":"4","last_reported":1708448776,"current_range_meters":7200,"station_id":"ce4bgth2rcd13ifvqch0","pricing_plan_id":"cebpf4jnsgd1na2vs0mg"},{"bike_id":"4f9ced05-d8e8-4281-b0f8-f82b71d88d9b","system_id":"levelo_inurba_marseille","lat":43.317075,"lon":5.377367,"is_reserved":false,"is_disabled":false,"rental_uris":{"android":"levelo://app?vid=4f9ced05-d8e8-4281-b0f8-f82b71d88d9b","ios":"levelo://app?vid=4f9ced05-d8e8-4281-b0f8-f82b71d88d9b"},"vehicle_type_id":"4","last_reported":1708448776,"current_range_meters":17600,"station_id":"ce4bgth2rcd13ifvqch0","pricing_plan_id":"cebpf4jnsgd1na2vs0mg"},{"bike_id":"3811d5e2-6d36-48ca-822e-40cd1d0f3ee2","system_id":"levelo_inurba_marseille","lat":43.317075,"lon":5.377367,"is_reserved":false,"is_disabled":false,"rental_uris":{"android":"levelo://app?vid=3811d5e2-6d36-48ca-822e-40cd1d0f3ee2","ios":"levelo://app?vid=3811d5e2-6d36-48ca-822e-40cd1d0f3ee2"},"vehicle_type_id":"4","last_reported":1708448776,"current_range_meters":19600,"station_id":"ce4bgth2rcd13ifvqch0","pricing_plan_id":"cebpf4jnsgd1na2vs0mg"},{"bike_id":"1a63a8a6-9ec8-4d16-9128-71703868e6f7","system_id":"levelo_inurba_marseille","lat":43.317075,"lon":5.377367,"is_reserved":false,"is_disabled":false,"rental_uris":{"android":"levelo://app?vid=1a63a8a6-9ec8-4d16-9128-71703868e6f7","ios":"levelo://app?vid=1a63a8a6-9ec8-4d16-9128-71703868e6f7"},"vehicle_type_id":"4","last_reported":1708448776,"current_range_meters":15600,"station_id":"ce4bgth2rcd13ifvqch0","pricing_plan_id":"cebpf4jnsgd1na2vs0mg"},{"bike_id":"a0a0aafc-b69f-4a9a-be75-04be5f5b99ae","system_id":"levelo_inurba_marseille","lat":43.31708,"lon":5.377516,"is_reserved":false,"is_disabled":false,"rental_uris":{"android":"levelo://app?vid=a0a0aafc-b69f-4a9a-be75-04be5f5b99ae","ios":"levelo://app?vid=a0a0aafc-b69f-4a9a-be75-04be5f5b99ae"},"vehicle_type_id":"4","last_reported":1708448776,"current_range_meters":8000,"station_id":"ce4bgth2rcd13ifvqch0","pricing_plan_id":"cebpf4jnsgd1na2vs0mg"},{"bike_id":"53eb4708-a7d2-40e2-9146-9113f83fb3f3","system_id":"levelo_inurba_marseille","lat":43.307945,"lon":5.376487,"is_reserved":false,"is_disabled":false,"rental_uris":{"android":"levelo://app?vid=53eb4708-a7d2-40e2-9146-9113f83fb3f3","ios":"levelo://app?vid=53eb4708-a7d2-40e2-9146-9113f83fb3f3"},"vehicle_type_id":"4","last_reported":1708448776,"current_range_meters":16800,"station_id":"ce4bgv92rcd13ifvqcq0","pricing_plan_id":"cebpf4jnsgd1na2vs0mg"},{"bike_id":"4da0bc28-1f1b-4133-aeb1-e5fa264d8ee7","system_id":"levelo_inurba_marseille","lat":43.31419,"lon":5.3803,"is_reserved":false,"is_disabled":false,"rental_uris":{"android":"levelo://app?vid=4da0bc28-1f1b-4133-aeb1-e5fa264d8ee7","ios":"levelo://app?vid=4da0bc28-1f1b-4133-aeb1-e5fa264d8ee7"},"vehicle_type_id":"4","last_reported":1708448776,"current_range_meters":25600,"station_id":"","pricing_plan_id":"cebpf4jnsgd1na2vs0mg"},{"bike_id":"108080e3-e3d0-4d63-b2eb-44c11220cfd7","system_id":"levelo_inurba_marseille","lat":43.30197,"lon":5.36621,"is_reserved":false,"is_disabled":false,"rental_uris":{"android":"levelo://app?vid=108080e3-e3d0-4d63-b2eb-44c11220cfd7","ios":"levelo://app?vid=108080e3-e3d0-4d63-b2eb-44c11220cfd7"},"vehicle_type_id":"4","last_reported":1708448776,"current_range_meters":0,"station_id":"ce4bgrh2rcd13ifvqc8g","pricing_plan_id":"cebpf4jnsgd1na2vs0mg"},{"bike_id":"5cf45f64-a37a-4e9f-98dc-7117f47a0ea5","system_id":"levelo_inurba_marseille","lat":43.301939,"lon":5.366286,"is_reserved":false,"is_disabled":false,"rental_uris":{"android":"levelo://app?vid=5cf45f64-a37a-4e9f-98dc-7117f47a0ea5","ios":"levelo://app?vid=5cf45f64-a37a-4e9f-98dc-7117f47a0ea5"},"vehicle_type_id":"4","last_reported":1708448776,"current_range_meters":800,"station_id":"ce4bgrh2rcd13ifvqc8g","pricing_plan_id":"cebpf4jnsgd1na2vs0mg"},{"bike_id":"6e22b325-f26e-4353-a13e-18342c92d2e8","system_id":"levelo_inurba_marseille","lat":43.301939,"lon":5.366286,"is_reserved":false,"is_disabled":false,"rental_uris":{"android":"levelo://app?vid=6e22b325-f26e-4353-a13e-18342c92d2e8","ios":"levelo://app?vid=6e22b325-f26e-4353-a13e-18342c92d2e8"},"vehicle_type_id":"4","last_reported":1708448776,"current_range_meters":31200,"station_id":"ce4bgrh2rcd13ifvqc8g","pricing_plan_id":"cebpf4jnsgd1na2vs0mg"},{"bike_id":"4f58101c-7a6d-44e4-9079-e597a1a31434","system_id":"levelo_inurba_marseille","lat":43.301939,"lon":5.366286,"is_reserved":false,"is_disabled":false,"rental_uris":{"android":"levelo://app?vid=4f58101c-7a6d-44e4-9079-e597a1a31434","ios":"levelo://app?vid=4f58101c-7a6d-44e4-9079-e597a1a31434"},"vehicle_type_id":"4","last_reported":1708448776,"current_range_meters":31200,"station_id":"ce4bgrh2rcd13ifvqc8g","pricing_plan_id":"cebpf4jnsgd1na2vs0mg"},{"bike_id":"83c54e94-28ed-460e-a897-688abf583d6f","system_id":"levelo_inurba_marseille","lat":43.30184,"lon":5.36609,"is_reserved":false,"is_disabled":false,"rental_uris":{"android":"levelo://app?vid=83c54e94-28ed-460e-a897-688abf583d6f","ios":"levelo://app?vid=83c54e94-28ed-460e-a897-688abf583d6f"},"vehicle_type_id":"4","last_reported":1708448776,"current_range_meters":14800,"station_id":"ce4bgrh2rcd13ifvqc8g","pricing_plan_id":"cebpf4jnsgd1na2vs0mg"},{"bike_id":"d2e5aa32-5deb-4517-9ef5-a15334797714","system_id":"levelo_inurba_marseille","lat":43.30182,"lon":5.36615,"is_reserved":false,"is_disabled":false,"rental_uris":{"android":"levelo://app?vid=d2e5aa32-5deb-4517-9ef5-a15334797714","ios":"levelo://app?vid=d2e5aa32-5deb-4517-9ef5-a15334797714"},"vehicle_type_id":"4","last_reported":1708448776,"current_range_meters":16800,"station_id":"ce4bgrh2rcd13ifvqc8g","pricing_plan_id":"cebpf4jnsgd1na2vs0mg"},{"bike_id":"701d9557-fb92-4759-a6ec-1405a5bc029c","system_id":"levelo_inurba_marseille","lat":43.301939,"lon":5.366286,"is_reserved":false,"is_disabled":false,"rental_uris":{"android":"levelo://app?vid=701d9557-fb92-4759-a6ec-1405a5bc029c","ios":"levelo://app?vid=701d9557-fb92-4759-a6ec-1405a5bc029c"},"vehicle_type_id":"4","last_reported":1708448776,"current_range_meters":23600,"station_id":"ce4bgrh2rcd13ifvqc8g","pricing_plan_id":"cebpf4jnsgd1na2vs0mg"},{"bike_id":"af91666f-82b5-45eb-bf5f-b99ecc3ef42d","system_id":"levelo_inurba_marseille","lat":43.301939,"lon":5.366286,"is_reserved":false,"is_disabled":false,"rental_uris":{"android":"levelo://app?vid=af91666f-82b5-45eb-bf5f-b99ecc3ef42d","ios":"levelo://app?vid=af91666f-82b5-45eb-bf5f-b99ecc3ef42d"},"vehicle_type_id":"4","last_reported":1708448776,"current_range_meters":400,"station_id":"ce4bgrh2rcd13ifvqc8g","pricing_plan_id":"cebpf4jnsgd1na2vs0mg"},{"bike_id":"f5c720d3-def2-4684-a003-2cb32390e22c","system_id":"levelo_inurba_marseille","lat":43.308012,"lon":5.381511,"is_reserved":false,"is_disabled":false,"rental_uris":{"android":"levelo://app?vid=f5c720d3-def2-4684-a003-2cb32390e22c","ios":"levelo://app?vid=f5c720d3-def2-4684-a003-2cb32390e22c"},"vehicle_type_id":"4","last_reported":1708448776,"current_range_meters":21600,"station_id":"ce4bgt12rcd13ifvqce0","pricing_plan_id":"cebpf4jnsgd1na2vs0mg"},{"bike_id":"3f5a95a1-d15b-49dd-b6f4-3a88962268c4","system_id":"levelo_inurba_marseille","lat":43.324771,"lon":5.36557,"is_reserved":false,"is_disabled":false,"rental_uris":{"android":"levelo://app?vid=3f5a95a1-d15b-49dd-b6f4-3a88962268c4","ios":"levelo://app?vid=3f5a95a1-d15b-49dd-b6f4-3a88962268c4"},"vehicle_type_id":"4","last_reported":1708448776,"current_range_meters":29600,"station_id":"ce4bhs12rcd13ifvqhvg","pricing_plan_id":"cebpf4jnsgd1na2vs0mg"},{"bike_id":"4cd60cd3-101b-4a05-9703-76840434a255","system_id":"levelo_inurba_marseille","lat":43.324771,"lon":5.36557,"is_reserved":false,"is_disabled":false,"rental_uris":{"android":"levelo://app?vid=4cd60cd3-101b-4a05-9703-76840434a255","ios":"levelo://app?vid=4cd60cd3-101b-4a05-9703-76840434a255"},"vehicle_type_id":"4","last_reported":1708448776,"current_range_meters":24800,"station_id":"ce4bhs12rcd13ifvqhvg","pricing_plan_id":"cebpf4jnsgd1na2vs0mg"},{"bike_id":"787b97fd-3045-418a-93db-948f0d624107","system_id":"levelo_inurba_marseille","lat":43.324771,"lon":5.36557,"is_reserved":false,"is_disabled":false,"rental_uris":{"android":"levelo://app?vid=787b97fd-3045-418a-93db-948f0d624107","ios":"levelo://app?vid=787b97fd-3045-418a-93db-948f0d624107"},"vehicle_type_id":"4","last_reported":1708448776,"current_range_meters":18400,"station_id":"ce4bhs12rcd13ifvqhvg","pricing_plan_id":"cebpf4jnsgd1na2vs0mg"},{"bike_id":"caaf26f8-fbed-445b-be7b-3ecf625cc521","system_id":"levelo_inurba_marseille","lat":43.324771,"lon":5.36557,"is_reserved":false,"is_disabled":false,"rental_uris":{"android":"levelo://app?vid=caaf26f8-fbed-445b-be7b-3ecf625cc521","ios":"levelo://app?vid=caaf26f8-fbed-445b-be7b-3ecf625cc521"},"vehicle_type_id":"4","last_reported":1708448776,"current_range_meters":30000,"station_id":"ce4bhs12rcd13ifvqhvg","pricing_plan_id":"cebpf4jnsgd1na2vs0mg"},{"bike_id":"2c6c36c9-7e02-4a23-ad99-472b535677b4","system_id":"levelo_inurba_marseille","lat":43.324771,"lon":5.36557,"is_reserved":false,"is_disabled":false,"rental_uris":{"android":"levelo://app?vid=2c6c36c9-7e02-4a23-ad99-472b535677b4","ios":"levelo://app?vid=2c6c36c9-7e02-4a23-ad99-472b535677b4"},"vehicle_type_id":"4","last_reported":1708448776,"current_range_meters":4000,"station_id":"ce4bhs12rcd13ifvqhvg","pricing_plan_id":"cebpf4jnsgd1na2vs0mg"},{"bike_id":"cda8eb5b-2134-4fe4-b0ac-1209e0bbc329","system_id":"levelo_inurba_marseille","lat":43.324771,"lon":5.36557,"is_reserved":false,"is_disabled":false,"rental_uris":{"android":"levelo://app?vid=cda8eb5b-2134-4fe4-b0ac-1209e0bbc329","ios":"levelo://app?vid=cda8eb5b-2134-4fe4-b0ac-1209e0bbc329"},"vehicle_type_id":"4","last_reported":1708448776,"current_range_meters":17200,"station_id":"ce4bhs12rcd13ifvqhvg","pricing_plan_id":"cebpf4jnsgd1na2vs0mg"},{"bike_id":"0c68f0db-4e50-4629-ba3a-39f94737ad6c","system_id":"levelo_inurba_marseille","lat":43.324771,"lon":5.36557,"is_reserved":false,"is_disabled":false,"rental_uris":{"android":"levelo://app?vid=0c68f0db-4e50-4629-ba3a-39f94737ad6c","ios":"levelo://app?vid=0c68f0db-4e50-4629-ba3a-39f94737ad6c"},"vehicle_type_id":"4","last_reported":1708448776,"current_range_meters":26800,"station_id":"ce4bhs12rcd13ifvqhvg","pricing_plan_id":"cebpf4jnsgd1na2vs0mg"},{"bike_id":"5f3727da-be6d-4245-8b7a-5c108328736b","system_id":"levelo_inurba_marseille","lat":43.324771,"lon":5.36557,"is_reserved":false,"is_disabled":false,"rental_uris":{"android":"levelo://app?vid=5f3727da-be6d-4245-8b7a-5c108328736b","ios":"levelo://app?vid=5f3727da-be6d-4245-8b7a-5c108328736b"},"vehicle_type_id":"4","last_reported":1708448776,"current_range_meters":0,"station_id":"ce4bhs12rcd13ifvqhvg","pricing_plan_id":"cebpf4jnsgd1na2vs0mg"},{"bike_id":"6c560146-338a-4b4e-bdc6-9ba91e644467","system_id":"levelo_inurba_marseille","lat":43.324853,"lon":5.365613,"is_reserved":false,"is_disabled":false,"rental_uris":{"android":"levelo://app?vid=6c560146-338a-4b4e-bdc6-9ba91e644467","ios":"levelo://app?vid=6c560146-338a-4b4e-bdc6-9ba91e644467"},"vehicle_type_id":"4","last_reported":1708448776,"current_range_meters":18800,"station_id":"ce4bhs12rcd13ifvqhvg","pricing_plan_id":"cebpf4jnsgd1na2vs0mg"},{"bike_id":"0c3af452-9de0-48fe-bbc2-fad1f6653323","system_id":"levelo_inurba_marseille","lat":43.324771,"lon":5.36557,"is_reserved":false,"is_disabled":false,"rental_uris":{"android":"levelo://app?vid=0c3af452-9de0-48fe-bbc2-fad1f6653323","ios":"levelo://app?vid=0c3af452-9de0-48fe-bbc2-fad1f6653323"},"vehicle_type_id":"4","last_reported":1708448776,"current_range_meters":15600,"station_id":"ce4bhs12rcd13ifvqhvg","pricing_plan_id":"cebpf4jnsgd1na2vs0mg"},{"bike_id":"04a9d404-4ca2-4493-9c18-bd75da5ac86d","system_id":"levelo_inurba_marseille","lat":43.31064,"lon":5.38356,"is_reserved":false,"is_disabled":false,"rental_uris":{"android":"levelo://app?vid=04a9d404-4ca2-4493-9c18-bd75da5ac86d","ios":"levelo://app?vid=04a9d404-4ca2-4493-9c18-bd75da5ac86d"},"vehicle_type_id":"4","last_reported":1708448776,"current_range_meters":0,"station_id":"ce4bgv92rcd13ifvqcr0","pricing_plan_id":"cebpf4jnsgd1na2vs0mg"},{"bike_id":"8450b60c-f986-4e76-a3d1-1e7e06d3e9c1","system_id":"levelo_inurba_marseille","lat":43.30272,"lon":5.37704,"is_reserved":false,"is_disabled":false,"rental_uris":{"android":"levelo://app?vid=8450b60c-f986-4e76-a3d1-1e7e06d3e9c1","ios":"levelo://app?vid=8450b60c-f986-4e76-a3d1-1e7e06d3e9c1"},"vehicle_type_id":"4","last_reported":1708448776,"current_range_meters":17600,"station_id":"ce4bguh2rcd13ifvqcj0","pricing_plan_id":"cebpf4jnsgd1na2vs0mg"},{"bike_id":"e7e2327e-a151-4294-a6c9-f87e03b42c2d","system_id":"levelo_inurba_marseille","lat":43.30143,"lon":5.37413,"is_reserved":false,"is_disabled":false,"rental_uris":{"android":"levelo://app?vid=e7e2327e-a151-4294-a6c9-f87e03b42c2d","ios":"levelo://app?vid=e7e2327e-a151-4294-a6c9-f87e03b42c2d"},"vehicle_type_id":"4","last_reported":1708448776,"current_range_meters":0,"station_id":"ce4bgs92rcd13ifvqcc0","pricing_plan_id":"cebpf4jnsgd1na2vs0mg"},{"bike_id":"a63de636-7888-4378-b580-9977bae0afe7","system_id":"levelo_inurba_marseille","lat":43.301429,"lon":5.37413,"is_reserved":false,"is_disabled":false,"rental_uris":{"android":"levelo://app?vid=a63de636-7888-4378-b580-9977bae0afe7","ios":"levelo://app?vid=a63de636-7888-4378-b580-9977bae0afe7"},"vehicle_type_id":"4","last_reported":1708448776,"current_range_meters":3600,"station_id":"ce4bgs92rcd13ifvqcc0","pricing_plan_id":"cebpf4jnsgd1na2vs0mg"},{"bike_id":"28ac92c8-3492-4bb4-bfaf-10fd4ee37ea4","system_id":"levelo_inurba_marseille","lat":43.319935,"lon":5.381699,"is_reserved":false,"is_disabled":false,"rental_uris":{"android":"levelo://app?vid=28ac92c8-3492-4bb4-bfaf-10fd4ee37ea4","ios":"levelo://app?vid=28ac92c8-3492-4bb4-bfaf-10fd4ee37ea4"},"vehicle_type_id":"4","last_reported":1708448776,"current_range_meters":0,"station_id":"ce4bhr12rcd13ifvqhpg","pricing_plan_id":"cebpf4jnsgd1na2vs0mg"},{"bike_id":"f191428a-6ba4-4e2b-8ff4-6f930ec8df13","system_id":"levelo_inurba_marseille","lat":43.319935,"lon":5.381699,"is_reserved":false,"is_disabled":false,"rental_uris":{"android":"levelo://app?vid=f191428a-6ba4-4e2b-8ff4-6f930ec8df13","ios":"levelo://app?vid=f191428a-6ba4-4e2b-8ff4-6f930ec8df13"},"vehicle_type_id":"4","last_reported":1708448776,"current_range_meters":10400,"station_id":"ce4bhr12rcd13ifvqhpg","pricing_plan_id":"cebpf4jnsgd1na2vs0mg"},{"bike_id":"b8639b54-e154-4619-a275-04af44bfe872","system_id":"levelo_inurba_marseille","lat":43.319935,"lon":5.381699,"is_reserved":false,"is_disabled":false,"rental_uris":{"android":"levelo://app?vid=b8639b54-e154-4619-a275-04af44bfe872","ios":"levelo://app?vid=b8639b54-e154-4619-a275-04af44bfe872"},"vehicle_type_id":"4","last_reported":1708448776,"current_range_meters":16800,"station_id":"ce4bhr12rcd13ifvqhpg","pricing_plan_id":"cebpf4jnsgd1na2vs0mg"},{"bike_id":"a1189954-73f7-4a2a-b766-97f3ea088c35","system_id":"levelo_inurba_marseille","lat":43.313571,"lon":5.384829,"is_reserved":false,"is_disabled":false,"rental_uris":{"android":"levelo://app?vid=a1189954-73f7-4a2a-b766-97f3ea088c35","ios":"levelo://app?vid=a1189954-73f7-4a2a-b766-97f3ea088c35"},"vehicle_type_id":"4","last_reported":1708448776,"current_range_meters":13600,"station_id":"ce4bgt92rcd13ifvqcf0","pricing_plan_id":"cebpf4jnsgd1na2vs0mg"},{"bike_id":"79a238ce-2214-4bf8-ad41-2d1a9ba33887","system_id":"levelo_inurba_marseille","lat":43.299222,"lon":5.365554,"is_reserved":false,"is_disabled":false,"rental_uris":{"android":"levelo://app?vid=79a238ce-2214-4bf8-ad41-2d1a9ba33887","ios":"levelo://app?vid=79a238ce-2214-4bf8-ad41-2d1a9ba33887"},"vehicle_type_id":"4","last_reported":1708448776,"current_range_meters":14800,"station_id":"ce4bgm92rcd13ifvqbr0","pricing_plan_id":"cebpf4jnsgd1na2vs0mg"},{"bike_id":"211f3668-4c04-4fa9-80ad-1f42a497a6ed","system_id":"levelo_inurba_marseille","lat":43.299222,"lon":5.365554,"is_reserved":false,"is_disabled":false,"rental_uris":{"android":"levelo://app?vid=211f3668-4c04-4fa9-80ad-1f42a497a6ed","ios":"levelo://app?vid=211f3668-4c04-4fa9-80ad-1f42a497a6ed"},"vehicle_type_id":"4","last_reported":1708448776,"current_range_meters":20000,"station_id":"ce4bgm92rcd13ifvqbr0","pricing_plan_id":"cebpf4jnsgd1na2vs0mg"},{"bike_id":"b1f2e112-3724-4106-8359-7f9b53b30f01","system_id":"levelo_inurba_marseille","lat":43.299724,"lon":5.371829,"is_reserved":false,"is_disabled":false,"rental_uris":{"android":"levelo://app?vid=b1f2e112-3724-4106-8359-7f9b53b30f01","ios":"levelo://app?vid=b1f2e112-3724-4106-8359-7f9b53b30f01"},"vehicle_type_id":"4","last_reported":1708448776,"current_range_meters":22800,"station_id":"ce4bgr92rcd13ifvqc7g","pricing_plan_id":"cebpf4jnsgd1na2vs0mg"},{"bike_id":"98adbdac-a9c0-4f2a-9d26-b70b01c9217a","system_id":"levelo_inurba_marseille","lat":43.299222,"lon":5.365554,"is_reserved":false,"is_disabled":false,"rental_uris":{"android":"levelo://app?vid=98adbdac-a9c0-4f2a-9d26-b70b01c9217a","ios":"levelo://app?vid=98adbdac-a9c0-4f2a-9d26-b70b01c9217a"},"vehicle_type_id":"4","last_reported":1708448776,"current_range_meters":8000,"station_id":"ce4bgm92rcd13ifvqbr0","pricing_plan_id":"cebpf4jnsgd1na2vs0mg"},{"bike_id":"9466e473-52d8-4799-b876-06696796ba69","system_id":"levelo_inurba_marseille","lat":43.299222,"lon":5.365554,"is_reserved":false,"is_disabled":false,"rental_uris":{"android":"levelo://app?vid=9466e473-52d8-4799-b876-06696796ba69","ios":"levelo://app?vid=9466e473-52d8-4799-b876-06696796ba69"},"vehicle_type_id":"4","last_reported":1708448776,"current_range_meters":5600,"station_id":"ce4bgm92rcd13ifvqbr0","pricing_plan_id":"cebpf4jnsgd1na2vs0mg"},{"bike_id":"8e1fb7e6-9bae-415f-81aa-15dc8004d66b","system_id":"levelo_inurba_marseille","lat":43.299222,"lon":5.365554,"is_reserved":false,"is_disabled":false,"rental_uris":{"android":"levelo://app?vid=8e1fb7e6-9bae-415f-81aa-15dc8004d66b","ios":"levelo://app?vid=8e1fb7e6-9bae-415f-81aa-15dc8004d66b"},"vehicle_type_id":"4","last_reported":1708448776,"current_range_meters":15600,"station_id":"ce4bgm92rcd13ifvqbr0","pricing_plan_id":"cebpf4jnsgd1na2vs0mg"},{"bike_id":"d618f696-f5e0-4bb6-a76f-dde055086bc9","system_id":"levelo_inurba_marseille","lat":43.299222,"lon":5.365554,"is_reserved":false,"is_disabled":false,"rental_uris":{"android":"levelo://app?vid=d618f696-f5e0-4bb6-a76f-dde055086bc9","ios":"levelo://app?vid=d618f696-f5e0-4bb6-a76f-dde055086bc9"},"vehicle_type_id":"4","last_reported":1708448776,"current_range_meters":16400,"station_id":"ce4bgm92rcd13ifvqbr0","pricing_plan_id":"cebpf4jnsgd1na2vs0mg"},{"bike_id":"d1c637b6-700d-4787-a8b6-b498a21bcb98","system_id":"levelo_inurba_marseille","lat":43.305364,"lon":5.384119,"is_reserved":false,"is_disabled":false,"rental_uris":{"android":"levelo://app?vid=d1c637b6-700d-4787-a8b6-b498a21bcb98","ios":"levelo://app?vid=d1c637b6-700d-4787-a8b6-b498a21bcb98"},"vehicle_type_id":"4","last_reported":1708448776,"current_range_meters":11600,"station_id":"ce4bgg92rcd13ifvqb30","pricing_plan_id":"cebpf4jnsgd1na2vs0mg"},{"bike_id":"e8af105d-6765-4698-9f17-a2073bf407dd","system_id":"levelo_inurba_marseille","lat":43.299243,"lon":5.374807,"is_reserved":false,"is_disabled":false,"rental_uris":{"android":"levelo://app?vid=e8af105d-6765-4698-9f17-a2073bf407dd","ios":"levelo://app?vid=e8af105d-6765-4698-9f17-a2073bf407dd"},"vehicle_type_id":"4","last_reported":1708448776,"current_range_meters":0,"station_id":"ce4bgjh2rcd13ifvqbg0","pricing_plan_id":"cebpf4jnsgd1na2vs0mg"},{"bike_id":"098eaae3-c91c-4c4e-9a14-70e940012909","system_id":"levelo_inurba_marseille","lat":43.298349,"lon":5.362576,"is_reserved":false,"is_disabled":false,"rental_uris":{"android":"levelo://app?vid=098eaae3-c91c-4c4e-9a14-70e940012909","ios":"levelo://app?vid=098eaae3-c91c-4c4e-9a14-70e940012909"},"vehicle_type_id":"4","last_reported":1708448776,"current_range_meters":21200,"station_id":"","pricing_plan_id":"cebpf4jnsgd1na2vs0mg"},{"bike_id":"6b145206-f362-4366-b7f5-748fce36133a","system_id":"levelo_inurba_marseille","lat":43.299243,"lon":5.37481,"is_reserved":false,"is_disabled":false,"rental_uris":{"android":"levelo://app?vid=6b145206-f362-4366-b7f5-748fce36133a","ios":"levelo://app?vid=6b145206-f362-4366-b7f5-748fce36133a"},"vehicle_type_id":"4","last_reported":1708448776,"current_range_meters":6000,"station_id":"ce4bgjh2rcd13ifvqbg0","pricing_plan_id":"cebpf4jnsgd1na2vs0mg"},{"bike_id":"d64c6621-b8b0-40d6-a25a-4fa89df53dbb","system_id":"levelo_inurba_marseille","lat":43.29786,"lon":5.37096,"is_reserved":false,"is_disabled":false,"rental_uris":{"android":"levelo://app?vid=d64c6621-b8b0-40d6-a25a-4fa89df53dbb","ios":"levelo://app?vid=d64c6621-b8b0-40d6-a25a-4fa89df53dbb"},"vehicle_type_id":"4","last_reported":1708448776,"current_range_meters":0,"station_id":"","pricing_plan_id":"cebpf4jnsgd1na2vs0mg"},{"bike_id":"6eecdcf6-464c-449b-98d5-70934ddab606","system_id":"levelo_inurba_marseille","lat":43.297794,"lon":5.370888,"is_reserved":false,"is_disabled":false,"rental_uris":{"android":"levelo://app?vid=6eecdcf6-464c-449b-98d5-70934ddab606","ios":"levelo://app?vid=6eecdcf6-464c-449b-98d5-70934ddab606"},"vehicle_type_id":"4","last_reported":1708448776,"current_range_meters":400,"station_id":"ce4bgop2rcd13ifvqc1g","pricing_plan_id":"cebpf4jnsgd1na2vs0mg"},{"bike_id":"c0b416c2-0613-45c1-9d06-622918b52f14","system_id":"levelo_inurba_marseille","lat":43.297774,"lon":5.370875,"is_reserved":false,"is_disabled":false,"rental_uris":{"android":"levelo://app?vid=c0b416c2-0613-45c1-9d06-622918b52f14","ios":"levelo://app?vid=c0b416c2-0613-45c1-9d06-622918b52f14"},"vehicle_type_id":"4","last_reported":1708448776,"current_range_meters":400,"station_id":"ce4bgop2rcd13ifvqc1g","pricing_plan_id":"cebpf4jnsgd1na2vs0mg"},{"bike_id":"79b54601-dd27-44fc-91ca-5befd5594d9b","system_id":"levelo_inurba_marseille","lat":43.322872,"lon":5.382756,"is_reserved":false,"is_disabled":false,"rental_uris":{"android":"levelo://app?vid=79b54601-dd27-44fc-91ca-5befd5594d9b","ios":"levelo://app?vid=79b54601-dd27-44fc-91ca-5befd5594d9b"},"vehicle_type_id":"4","last_reported":1708448776,"current_range_meters":12800,"station_id":"ce4bhr12rcd13ifvqhqg","pricing_plan_id":"cebpf4jnsgd1na2vs0mg"},{"bike_id":"3ef6b703-e056-421a-9179-5e7d94b25453","system_id":"levelo_inurba_marseille","lat":43.32289,"lon":5.38274,"is_reserved":false,"is_disabled":false,"rental_uris":{"android":"levelo://app?vid=3ef6b703-e056-421a-9179-5e7d94b25453","ios":"levelo://app?vid=3ef6b703-e056-421a-9179-5e7d94b25453"},"vehicle_type_id":"4","last_reported":1708448776,"current_range_meters":24400,"station_id":"ce4bhr12rcd13ifvqhqg","pricing_plan_id":"cebpf4jnsgd1na2vs0mg"},{"bike_id":"25fc5026-6ec5-4002-b696-3e1c3a41c330","system_id":"levelo_inurba_marseille","lat":43.32287,"lon":5.38279,"is_reserved":false,"is_disabled":false,"rental_uris":{"android":"levelo://app?vid=25fc5026-6ec5-4002-b696-3e1c3a41c330","ios":"levelo://app?vid=25fc5026-6ec5-4002-b696-3e1c3a41c330"},"vehicle_type_id":"4","last_reported":1708448776,"current_range_meters":5200,"station_id":"ce4bhr12rcd13ifvqhqg","pricing_plan_id":"cebpf4jnsgd1na2vs0mg"},{"bike_id":"ba3e0a03-7a30-4904-90df-bdae5cbcbbac","system_id":"levelo_inurba_marseille","lat":43.32287,"lon":5.38282,"is_reserved":false,"is_disabled":false,"rental_uris":{"android":"levelo://app?vid=ba3e0a03-7a30-4904-90df-bdae5cbcbbac","ios":"levelo://app?vid=ba3e0a03-7a30-4904-90df-bdae5cbcbbac"},"vehicle_type_id":"4","last_reported":1708448776,"current_range_meters":19600,"station_id":"ce4bhr12rcd13ifvqhqg","pricing_plan_id":"cebpf4jnsgd1na2vs0mg"},{"bike_id":"b1611032-fa9c-4e4d-98d4-3733e81cc1f0","system_id":"levelo_inurba_marseille","lat":43.297163,"lon":5.365866,"is_reserved":false,"is_disabled":false,"rental_uris":{"android":"levelo://app?vid=b1611032-fa9c-4e4d-98d4-3733e81cc1f0","ios":"levelo://app?vid=b1611032-fa9c-4e4d-98d4-3733e81cc1f0"},"vehicle_type_id":"4","last_reported":1708448776,"current_range_meters":20400,"station_id":"ce4bgn12rcd13ifvqbt0","pricing_plan_id":"cebpf4jnsgd1na2vs0mg"},{"bike_id":"d8dffdc7-3b8a-430d-a274-65a01ed91a7b","system_id":"levelo_inurba_marseille","lat":43.297163,"lon":5.365866,"is_reserved":false,"is_disabled":false,"rental_uris":{"android":"levelo://app?vid=d8dffdc7-3b8a-430d-a274-65a01ed91a7b","ios":"levelo://app?vid=d8dffdc7-3b8a-430d-a274-65a01ed91a7b"},"vehicle_type_id":"4","last_reported":1708448776,"current_range_meters":5200,"station_id":"ce4bgn12rcd13ifvqbt0","pricing_plan_id":"cebpf4jnsgd1na2vs0mg"},{"bike_id":"354c4365-3fe0-4cd7-ba40-b8f325ebfb96","system_id":"levelo_inurba_marseille","lat":43.2968,"lon":5.37291,"is_reserved":false,"is_disabled":false,"rental_uris":{"android":"levelo://app?vid=354c4365-3fe0-4cd7-ba40-b8f325ebfb96","ios":"levelo://app?vid=354c4365-3fe0-4cd7-ba40-b8f325ebfb96"},"vehicle_type_id":"4","last_reported":1708448776,"current_range_meters":5600,"station_id":"ce4bgk12rcd13ifvqbj0","pricing_plan_id":"cebpf4jnsgd1na2vs0mg"},{"bike_id":"02891626-caa9-4594-894b-3d5d8d928c5c","system_id":"levelo_inurba_marseille","lat":43.2968,"lon":5.37291,"is_reserved":false,"is_disabled":false,"rental_uris":{"android":"levelo://app?vid=02891626-caa9-4594-894b-3d5d8d928c5c","ios":"levelo://app?vid=02891626-caa9-4594-894b-3d5d8d928c5c"},"vehicle_type_id":"4","last_reported":1708448776,"current_range_meters":28000,"station_id":"ce4bgk12rcd13ifvqbj0","pricing_plan_id":"cebpf4jnsgd1na2vs0mg"},{"bike_id":"fc1ad593-cd0c-428e-b5b8-fdb11e77781e","system_id":"levelo_inurba_marseille","lat":43.2968,"lon":5.37291,"is_reserved":false,"is_disabled":false,"rental_uris":{"android":"levelo://app?vid=fc1ad593-cd0c-428e-b5b8-fdb11e77781e","ios":"levelo://app?vid=fc1ad593-cd0c-428e-b5b8-fdb11e77781e"},"vehicle_type_id":"4","last_reported":1708448776,"current_range_meters":24400,"station_id":"ce4bgk12rcd13ifvqbj0","pricing_plan_id":"cebpf4jnsgd1na2vs0mg"},{"bike_id":"d3e6e310-5302-473c-81f5-c4c17d7579f3","system_id":"levelo_inurba_marseille","lat":43.29628,"lon":5.37144,"is_reserved":false,"is_disabled":false,"rental_uris":{"android":"levelo://app?vid=d3e6e310-5302-473c-81f5-c4c17d7579f3","ios":"levelo://app?vid=d3e6e310-5302-473c-81f5-c4c17d7579f3"},"vehicle_type_id":"4","last_reported":1708448776,"current_range_meters":24800,"station_id":"ce4bgnh2rcd13ifvqc0g","pricing_plan_id":"cebpf4jnsgd1na2vs0mg"},{"bike_id":"31e433fc-deb9-4f2a-8ab7-201f1bc2ec5c","system_id":"levelo_inurba_marseille","lat":43.296131,"lon":5.370773,"is_reserved":false,"is_disabled":false,"rental_uris":{"android":"levelo://app?vid=31e433fc-deb9-4f2a-8ab7-201f1bc2ec5c","ios":"levelo://app?vid=31e433fc-deb9-4f2a-8ab7-201f1bc2ec5c"},"vehicle_type_id":"4","last_reported":1708448776,"current_range_meters":16000,"station_id":"ce4bgnh2rcd13ifvqc0g","pricing_plan_id":"cebpf4jnsgd1na2vs0mg"},{"bike_id":"c133dcc1-255f-4ade-b430-22f99d703073","system_id":"levelo_inurba_marseille","lat":43.296129,"lon":5.370777,"is_reserved":false,"is_disabled":false,"rental_uris":{"android":"levelo://app?vid=c133dcc1-255f-4ade-b430-22f99d703073","ios":"levelo://app?vid=c133dcc1-255f-4ade-b430-22f99d703073"},"vehicle_type_id":"4","last_reported":1708448776,"current_range_meters":10800,"station_id":"ce4bgnh2rcd13ifvqc0g","pricing_plan_id":"cebpf4jnsgd1na2vs0mg"},{"bike_id":"3e7e306d-659e-44eb-8c5d-6361cf4048f9","system_id":"levelo_inurba_marseille","lat":43.29573,"lon":5.367355,"is_reserved":false,"is_disabled":false,"rental_uris":{"android":"levelo://app?vid=3e7e306d-659e-44eb-8c5d-6361cf4048f9","ios":"levelo://app?vid=3e7e306d-659e-44eb-8c5d-6361cf4048f9"},"vehicle_type_id":"4","last_reported":1708448776,"current_range_meters":12400,"station_id":"ce4bgph2rcd13ifvqc2g","pricing_plan_id":"cebpf4jnsgd1na2vs0mg"},{"bike_id":"9eca3120-503c-429a-a77f-2f94d0d151c0","system_id":"levelo_inurba_marseille","lat":43.29573,"lon":5.367355,"is_reserved":false,"is_disabled":false,"rental_uris":{"android":"levelo://app?vid=9eca3120-503c-429a-a77f-2f94d0d151c0","ios":"levelo://app?vid=9eca3120-503c-429a-a77f-2f94d0d151c0"},"vehicle_type_id":"4","last_reported":1708448776,"current_range_meters":24800,"station_id":"ce4bgph2rcd13ifvqc2g","pricing_plan_id":"cebpf4jnsgd1na2vs0mg"},{"bike_id":"0e158e9b-456e-454b-a5e9-6ec63b9bab2b","system_id":"levelo_inurba_marseille","lat":43.299028,"lon":5.381509,"is_reserved":false,"is_disabled":false,"rental_uris":{"android":"levelo://app?vid=0e158e9b-456e-454b-a5e9-6ec63b9bab2b","ios":"levelo://app?vid=0e158e9b-456e-454b-a5e9-6ec63b9bab2b"},"vehicle_type_id":"4","last_reported":1708448776,"current_range_meters":24400,"station_id":"ce4bgj12rcd13ifvqbc0","pricing_plan_id":"cebpf4jnsgd1na2vs0mg"},{"bike_id":"79993f82-245d-4893-b1d9-0205357d3721","system_id":"levelo_inurba_marseille","lat":43.299028,"lon":5.381509,"is_reserved":false,"is_disabled":false,"rental_uris":{"android":"levelo://app?vid=79993f82-245d-4893-b1d9-0205357d3721","ios":"levelo://app?vid=79993f82-245d-4893-b1d9-0205357d3721"},"vehicle_type_id":"4","last_reported":1708448776,"current_range_meters":27600,"station_id":"ce4bgj12rcd13ifvqbc0","pricing_plan_id":"cebpf4jnsgd1na2vs0mg"},{"bike_id":"8c6b8474-cfd7-4b49-9b2d-177085f3fb24","system_id":"levelo_inurba_marseille","lat":43.309589,"lon":5.390258,"is_reserved":false,"is_disabled":false,"rental_uris":{"android":"levelo://app?vid=8c6b8474-cfd7-4b49-9b2d-177085f3fb24","ios":"levelo://app?vid=8c6b8474-cfd7-4b49-9b2d-177085f3fb24"},"vehicle_type_id":"4","last_reported":1708448776,"current_range_meters":27600,"station_id":"ce4bgup2rcd13ifvqco0","pricing_plan_id":"cebpf4jnsgd1na2vs0mg"},{"bike_id":"b619f3e9-418b-4e0e-9fc0-6418184246e5","system_id":"levelo_inurba_marseille","lat":43.296935,"lon":5.376544,"is_reserved":false,"is_disabled":false,"rental_uris":{"android":"levelo://app?vid=b619f3e9-418b-4e0e-9fc0-6418184246e5","ios":"levelo://app?vid=b619f3e9-418b-4e0e-9fc0-6418184246e5"},"vehicle_type_id":"4","last_reported":1708448776,"current_range_meters":0,"station_id":"ce4bgkh2rcd13ifvqbl0","pricing_plan_id":"cebpf4jnsgd1na2vs0mg"},{"bike_id":"4cf535cf-e121-444b-8eee-f66d4d7cf2ec","system_id":"levelo_inurba_marseille","lat":43.309481,"lon":5.390465,"is_reserved":false,"is_disabled":false,"rental_uris":{"android":"levelo://app?vid=4cf535cf-e121-444b-8eee-f66d4d7cf2ec","ios":"levelo://app?vid=4cf535cf-e121-444b-8eee-f66d4d7cf2ec"},"vehicle_type_id":"4","last_reported":1708448776,"current_range_meters":0,"station_id":"ce4bgup2rcd13ifvqco0","pricing_plan_id":"cebpf4jnsgd1na2vs0mg"},{"bike_id":"8eec016a-baa5-4e43-8503-56ebac48725d","system_id":"levelo_inurba_marseille","lat":43.298037,"lon":5.381066,"is_reserved":false,"is_disabled":false,"rental_uris":{"android":"levelo://app?vid=8eec016a-baa5-4e43-8503-56ebac48725d","ios":"levelo://app?vid=8eec016a-baa5-4e43-8503-56ebac48725d"},"vehicle_type_id":"4","last_reported":1708448776,"current_range_meters":22400,"station_id":"ce4bgip2rcd13ifvqbb0","pricing_plan_id":"cebpf4jnsgd1na2vs0mg"},{"bike_id":"824626e2-85cb-465f-b927-ed089244574e","system_id":"levelo_inurba_marseille","lat":43.304274,"lon":5.388873,"is_reserved":false,"is_disabled":false,"rental_uris":{"android":"levelo://app?vid=824626e2-85cb-465f-b927-ed089244574e","ios":"levelo://app?vid=824626e2-85cb-465f-b927-ed089244574e"},"vehicle_type_id":"4","last_reported":1708448776,"current_range_meters":14800,"station_id":"ce4bgk12rcd13ifvqbi0","pricing_plan_id":"cebpf4jnsgd1na2vs0mg"},{"bike_id":"d15524d8-aafc-428f-b806-88385645cbc9","system_id":"levelo_inurba_marseille","lat":43.304278,"lon":5.388868,"is_reserved":false,"is_disabled":false,"rental_uris":{"android":"levelo://app?vid=d15524d8-aafc-428f-b806-88385645cbc9","ios":"levelo://app?vid=d15524d8-aafc-428f-b806-88385645cbc9"},"vehicle_type_id":"4","last_reported":1708448776,"current_range_meters":0,"station_id":"ce4bgk12rcd13ifvqbi0","pricing_plan_id":"cebpf4jnsgd1na2vs0mg"},{"bike_id":"89ccc3e8-4a77-4146-a1ad-7bb48950f310","system_id":"levelo_inurba_marseille","lat":43.304278,"lon":5.388868,"is_reserved":false,"is_disabled":false,"rental_uris":{"android":"levelo://app?vid=89ccc3e8-4a77-4146-a1ad-7bb48950f310","ios":"levelo://app?vid=89ccc3e8-4a77-4146-a1ad-7bb48950f310"},"vehicle_type_id":"4","last_reported":1708448776,"current_range_meters":14800,"station_id":"ce4bgk12rcd13ifvqbi0","pricing_plan_id":"cebpf4jnsgd1na2vs0mg"},{"bike_id":"87c45258-7d50-4df2-b8a7-57fd805bbe62","system_id":"levelo_inurba_marseille","lat":43.298037,"lon":5.381066,"is_reserved":false,"is_disabled":false,"rental_uris":{"android":"levelo://app?vid=87c45258-7d50-4df2-b8a7-57fd805bbe62","ios":"levelo://app?vid=87c45258-7d50-4df2-b8a7-57fd805bbe62"},"vehicle_type_id":"4","last_reported":1708448776,"current_range_meters":19200,"station_id":"ce4bgip2rcd13ifvqbb0","pricing_plan_id":"cebpf4jnsgd1na2vs0mg"},{"bike_id":"355dd538-dcaf-4d18-85d5-09fa5fa3989c","system_id":"levelo_inurba_marseille","lat":43.304278,"lon":5.388868,"is_reserved":false,"is_disabled":false,"rental_uris":{"android":"levelo://app?vid=355dd538-dcaf-4d18-85d5-09fa5fa3989c","ios":"levelo://app?vid=355dd538-dcaf-4d18-85d5-09fa5fa3989c"},"vehicle_type_id":"4","last_reported":1708448776,"current_range_meters":30800,"station_id":"ce4bgk12rcd13ifvqbi0","pricing_plan_id":"cebpf4jnsgd1na2vs0mg"},{"bike_id":"fbdfd436-f179-49f2-883b-9479d6c1b2b0","system_id":"levelo_inurba_marseille","lat":43.30435,"lon":5.38896,"is_reserved":false,"is_disabled":false,"rental_uris":{"android":"levelo://app?vid=fbdfd436-f179-49f2-883b-9479d6c1b2b0","ios":"levelo://app?vid=fbdfd436-f179-49f2-883b-9479d6c1b2b0"},"vehicle_type_id":"4","last_reported":1708448776,"current_range_meters":0,"station_id":"ce4bgk12rcd13ifvqbi0","pricing_plan_id":"cebpf4jnsgd1na2vs0mg"},{"bike_id":"cf6aab17-f088-49e6-9f55-94fcb1adeda8","system_id":"levelo_inurba_marseille","lat":43.296277,"lon":5.377108,"is_reserved":false,"is_disabled":false,"rental_uris":{"android":"levelo://app?vid=cf6aab17-f088-49e6-9f55-94fcb1adeda8","ios":"levelo://app?vid=cf6aab17-f088-49e6-9f55-94fcb1adeda8"},"vehicle_type_id":"4","last_reported":1708448776,"current_range_meters":1600,"station_id":"ce4bgi92rcd13ifvqb90","pricing_plan_id":"cebpf4jnsgd1na2vs0mg"},{"bike_id":"f4a13744-ea3e-4605-84f1-3738afc32e09","system_id":"levelo_inurba_marseille","lat":43.304278,"lon":5.388868,"is_reserved":false,"is_disabled":false,"rental_uris":{"android":"levelo://app?vid=f4a13744-ea3e-4605-84f1-3738afc32e09","ios":"levelo://app?vid=f4a13744-ea3e-4605-84f1-3738afc32e09"},"vehicle_type_id":"4","last_reported":1708448776,"current_range_meters":6800,"station_id":"ce4bgk12rcd13ifvqbi0","pricing_plan_id":"cebpf4jnsgd1na2vs0mg"},{"bike_id":"352848a7-52e8-4c44-bfb5-7efd3797b0da","system_id":"levelo_inurba_marseille","lat":43.29627,"lon":5.37729,"is_reserved":false,"is_disabled":false,"rental_uris":{"android":"levelo://app?vid=352848a7-52e8-4c44-bfb5-7efd3797b0da","ios":"levelo://app?vid=352848a7-52e8-4c44-bfb5-7efd3797b0da"},"vehicle_type_id":"4","last_reported":1708448776,"current_range_meters":0,"station_id":"","pricing_plan_id":"cebpf4jnsgd1na2vs0mg"},{"bike_id":"1a5ed6c6-9c20-461e-9320-bc14b9dcd931","system_id":"levelo_inurba_marseille","lat":43.297786,"lon":5.381025,"is_reserved":false,"is_disabled":false,"rental_uris":{"android":"levelo://app?vid=1a5ed6c6-9c20-461e-9320-bc14b9dcd931","ios":"levelo://app?vid=1a5ed6c6-9c20-461e-9320-bc14b9dcd931"},"vehicle_type_id":"4","last_reported":1708448776,"current_range_meters":2400,"station_id":"ce4bgip2rcd13ifvqbb0","pricing_plan_id":"cebpf4jnsgd1na2vs0mg"},{"bike_id":"1fc75f87-acfa-49aa-a046-6d61081598ab","system_id":"levelo_inurba_marseille","lat":43.29621,"lon":5.37719,"is_reserved":false,"is_disabled":false,"rental_uris":{"android":"levelo://app?vid=1fc75f87-acfa-49aa-a046-6d61081598ab","ios":"levelo://app?vid=1fc75f87-acfa-49aa-a046-6d61081598ab"},"vehicle_type_id":"4","last_reported":1708448776,"current_range_meters":0,"station_id":"ce4bgi92rcd13ifvqb90","pricing_plan_id":"cebpf4jnsgd1na2vs0mg"},{"bike_id":"c7084a34-df4c-476a-a442-9e632d7f09f6","system_id":"levelo_inurba_marseille","lat":43.32315,"lon":5.38889,"is_reserved":false,"is_disabled":false,"rental_uris":{"android":"levelo://app?vid=c7084a34-df4c-476a-a442-9e632d7f09f6","ios":"levelo://app?vid=c7084a34-df4c-476a-a442-9e632d7f09f6"},"vehicle_type_id":"4","last_reported":1708448776,"current_range_meters":26400,"station_id":"","pricing_plan_id":"cebpf4jnsgd1na2vs0mg"},{"bike_id":"7671d002-68d4-4024-8203-235f9470c257","system_id":"levelo_inurba_marseille","lat":43.32318,"lon":5.38894,"is_reserved":false,"is_disabled":false,"rental_uris":{"android":"levelo://app?vid=7671d002-68d4-4024-8203-235f9470c257","ios":"levelo://app?vid=7671d002-68d4-4024-8203-235f9470c257"},"vehicle_type_id":"4","last_reported":1708448776,"current_range_meters":24000,"station_id":"","pricing_plan_id":"cebpf4jnsgd1na2vs0mg"},{"bike_id":"146e877e-91b7-4571-b34e-bca68e9e556b","system_id":"levelo_inurba_marseille","lat":43.32367,"lon":5.388836,"is_reserved":false,"is_disabled":false,"rental_uris":{"android":"levelo://app?vid=146e877e-91b7-4571-b34e-bca68e9e556b","ios":"levelo://app?vid=146e877e-91b7-4571-b34e-bca68e9e556b"},"vehicle_type_id":"4","last_reported":1708448776,"current_range_meters":24800,"station_id":"ce4bhqp2rcd13ifvqhog","pricing_plan_id":"cebpf4jnsgd1na2vs0mg"},{"bike_id":"0605d24d-f576-4560-a092-4bccfadc3a33","system_id":"levelo_inurba_marseille","lat":43.32367,"lon":5.388836,"is_reserved":false,"is_disabled":false,"rental_uris":{"android":"levelo://app?vid=0605d24d-f576-4560-a092-4bccfadc3a33","ios":"levelo://app?vid=0605d24d-f576-4560-a092-4bccfadc3a33"},"vehicle_type_id":"4","last_reported":1708448776,"current_range_meters":9600,"station_id":"ce4bhqp2rcd13ifvqhog","pricing_plan_id":"cebpf4jnsgd1na2vs0mg"},{"bike_id":"5d13dbc0-e515-4e3c-bf53-5a83d8b7fc54","system_id":"levelo_inurba_marseille","lat":43.32367,"lon":5.388836,"is_reserved":false,"is_disabled":false,"rental_uris":{"android":"levelo://app?vid=5d13dbc0-e515-4e3c-bf53-5a83d8b7fc54","ios":"levelo://app?vid=5d13dbc0-e515-4e3c-bf53-5a83d8b7fc54"},"vehicle_type_id":"4","last_reported":1708448776,"current_range_meters":6800,"station_id":"ce4bhqp2rcd13ifvqhog","pricing_plan_id":"cebpf4jnsgd1na2vs0mg"},{"bike_id":"f6d70e1a-28a8-4fd6-82cd-ab78aeaef9da","system_id":"levelo_inurba_marseille","lat":43.32367,"lon":5.388836,"is_reserved":false,"is_disabled":false,"rental_uris":{"android":"levelo://app?vid=f6d70e1a-28a8-4fd6-82cd-ab78aeaef9da","ios":"levelo://app?vid=f6d70e1a-28a8-4fd6-82cd-ab78aeaef9da"},"vehicle_type_id":"4","last_reported":1708448776,"current_range_meters":27600,"station_id":"ce4bhqp2rcd13ifvqhog","pricing_plan_id":"cebpf4jnsgd1na2vs0mg"},{"bike_id":"d710a93d-08a7-4d06-ac92-af0098c02c97","system_id":"levelo_inurba_marseille","lat":43.29602,"lon":5.381084,"is_reserved":false,"is_disabled":false,"rental_uris":{"android":"levelo://app?vid=d710a93d-08a7-4d06-ac92-af0098c02c97","ios":"levelo://app?vid=d710a93d-08a7-4d06-ac92-af0098c02c97"},"vehicle_type_id":"4","last_reported":1708448776,"current_range_meters":3600,"station_id":"ce4bgl12rcd13ifvqbo0","pricing_plan_id":"cebpf4jnsgd1na2vs0mg"},{"bike_id":"2eb68a34-2d21-42b3-bcd3-b2002baa5c46","system_id":"levelo_inurba_marseille","lat":43.29602,"lon":5.381084,"is_reserved":false,"is_disabled":false,"rental_uris":{"android":"levelo://app?vid=2eb68a34-2d21-42b3-bcd3-b2002baa5c46","ios":"levelo://app?vid=2eb68a34-2d21-42b3-bcd3-b2002baa5c46"},"vehicle_type_id":"4","last_reported":1708448776,"current_range_meters":12400,"station_id":"ce4bgl12rcd13ifvqbo0","pricing_plan_id":"cebpf4jnsgd1na2vs0mg"},{"bike_id":"7f4b6f5f-7e5f-414a-b1ee-1d586d0410bf","system_id":"levelo_inurba_marseille","lat":43.292749,"lon":5.368402,"is_reserved":false,"is_disabled":false,"rental_uris":{"android":"levelo://app?vid=7f4b6f5f-7e5f-414a-b1ee-1d586d0410bf","ios":"levelo://app?vid=7f4b6f5f-7e5f-414a-b1ee-1d586d0410bf"},"vehicle_type_id":"4","last_reported":1708448776,"current_range_meters":0,"station_id":"ce4bhbp2rcd13ifvqesg","pricing_plan_id":"cebpf4jnsgd1na2vs0mg"},{"bike_id":"23070941-cb08-4974-a614-54d421d4e7c2","system_id":"levelo_inurba_marseille","lat":43.292749,"lon":5.368402,"is_reserved":false,"is_disabled":false,"rental_uris":{"android":"levelo://app?vid=23070941-cb08-4974-a614-54d421d4e7c2","ios":"levelo://app?vid=23070941-cb08-4974-a614-54d421d4e7c2"},"vehicle_type_id":"4","last_reported":1708448776,"current_range_meters":14400,"station_id":"ce4bhbp2rcd13ifvqesg","pricing_plan_id":"cebpf4jnsgd1na2vs0mg"},{"bike_id":"7c8f723f-02dd-4d45-888b-456568f05e8f","system_id":"levelo_inurba_marseille","lat":43.29529,"lon":5.385581,"is_reserved":false,"is_disabled":false,"rental_uris":{"android":"levelo://app?vid=7c8f723f-02dd-4d45-888b-456568f05e8f","ios":"levelo://app?vid=7c8f723f-02dd-4d45-888b-456568f05e8f"},"vehicle_type_id":"4","last_reported":1708448776,"current_range_meters":29200,"station_id":"ce4bgih2rcd13ifvqba0","pricing_plan_id":"cebpf4jnsgd1na2vs0mg"},{"bike_id":"1d3b8529-bab1-4976-90bf-0179ad3877a4","system_id":"levelo_inurba_marseille","lat":43.29238,"lon":5.36555,"is_reserved":false,"is_disabled":false,"rental_uris":{"android":"levelo://app?vid=1d3b8529-bab1-4976-90bf-0179ad3877a4","ios":"levelo://app?vid=1d3b8529-bab1-4976-90bf-0179ad3877a4"},"vehicle_type_id":"4","last_reported":1708448776,"current_range_meters":0,"station_id":"","pricing_plan_id":"cebpf4jnsgd1na2vs0mg"},{"bike_id":"191f2c73-e88d-4d88-9da0-dc287a1a9bd1","system_id":"levelo_inurba_marseille","lat":43.29311,"lon":5.37469,"is_reserved":false,"is_disabled":false,"rental_uris":{"android":"levelo://app?vid=191f2c73-e88d-4d88-9da0-dc287a1a9bd1","ios":"levelo://app?vid=191f2c73-e88d-4d88-9da0-dc287a1a9bd1"},"vehicle_type_id":"4","last_reported":1708448776,"current_range_meters":0,"station_id":"ce4bgi12rcd13ifvqb70","pricing_plan_id":"cebpf4jnsgd1na2vs0mg"},{"bike_id":"ecb64e8a-16a0-42d1-8f45-cfc786b0c733","system_id":"levelo_inurba_marseille","lat":43.305994,"lon":5.393687,"is_reserved":false,"is_disabled":false,"rental_uris":{"android":"levelo://app?vid=ecb64e8a-16a0-42d1-8f45-cfc786b0c733","ios":"levelo://app?vid=ecb64e8a-16a0-42d1-8f45-cfc786b0c733"},"vehicle_type_id":"4","last_reported":1708448776,"current_range_meters":6400,"station_id":"ce4bh0p2rcd13ifvqd80","pricing_plan_id":"cebpf4jnsgd1na2vs0mg"},{"bike_id":"b4416818-648a-4af5-a56b-5e225950a3a6","system_id":"levelo_inurba_marseille","lat":43.30604,"lon":5.39368,"is_reserved":false,"is_disabled":false,"rental_uris":{"android":"levelo://app?vid=b4416818-648a-4af5-a56b-5e225950a3a6","ios":"levelo://app?vid=b4416818-648a-4af5-a56b-5e225950a3a6"},"vehicle_type_id":"4","last_reported":1708448776,"current_range_meters":2400,"station_id":"ce4bh0p2rcd13ifvqd80","pricing_plan_id":"cebpf4jnsgd1na2vs0mg"},{"bike_id":"252ff498-0d90-4af8-879f-4940423c3427","system_id":"levelo_inurba_marseille","lat":43.30308,"lon":5.39205,"is_reserved":false,"is_disabled":false,"rental_uris":{"android":"levelo://app?vid=252ff498-0d90-4af8-879f-4940423c3427","ios":"levelo://app?vid=252ff498-0d90-4af8-879f-4940423c3427"},"vehicle_type_id":"4","last_reported":1708448776,"current_range_meters":4800,"station_id":"ce4bgkh2rcd13ifvqbk0","pricing_plan_id":"cebpf4jnsgd1na2vs0mg"},{"bike_id":"fed8707f-0641-4d6a-b8b2-7db2bdb90d04","system_id":"levelo_inurba_marseille","lat":43.303002,"lon":5.392142,"is_reserved":false,"is_disabled":false,"rental_uris":{"android":"levelo://app?vid=fed8707f-0641-4d6a-b8b2-7db2bdb90d04","ios":"levelo://app?vid=fed8707f-0641-4d6a-b8b2-7db2bdb90d04"},"vehicle_type_id":"4","last_reported":1708448776,"current_range_meters":11200,"station_id":"ce4bgkh2rcd13ifvqbk0","pricing_plan_id":"cebpf4jnsgd1na2vs0mg"},{"bike_id":"890ed36e-5f59-4054-ab86-edf67316f2e4","system_id":"levelo_inurba_marseille","lat":43.302992,"lon":5.392136,"is_reserved":false,"is_disabled":false,"rental_uris":{"android":"levelo://app?vid=890ed36e-5f59-4054-ab86-edf67316f2e4","ios":"levelo://app?vid=890ed36e-5f59-4054-ab86-edf67316f2e4"},"vehicle_type_id":"4","last_reported":1708448776,"current_range_meters":21600,"station_id":"ce4bgkh2rcd13ifvqbk0","pricing_plan_id":"cebpf4jnsgd1na2vs0mg"},{"bike_id":"dbe240e5-9055-483b-82c0-968e59165809","system_id":"levelo_inurba_marseille","lat":43.30301,"lon":5.39228,"is_reserved":false,"is_disabled":false,"rental_uris":{"android":"levelo://app?vid=dbe240e5-9055-483b-82c0-968e59165809","ios":"levelo://app?vid=dbe240e5-9055-483b-82c0-968e59165809"},"vehicle_type_id":"4","last_reported":1708448776,"current_range_meters":14800,"station_id":"ce4bgkh2rcd13ifvqbk0","pricing_plan_id":"cebpf4jnsgd1na2vs0mg"},{"bike_id":"ced04b86-ef37-48ff-8101-83188245b1bb","system_id":"levelo_inurba_marseille","lat":43.29368,"lon":5.378588,"is_reserved":false,"is_disabled":false,"rental_uris":{"android":"levelo://app?vid=ced04b86-ef37-48ff-8101-83188245b1bb","ios":"levelo://app?vid=ced04b86-ef37-48ff-8101-83188245b1bb"},"vehicle_type_id":"4","last_reported":1708448776,"current_range_meters":0,"station_id":"","pricing_plan_id":"cebpf4jnsgd1na2vs0mg"},{"bike_id":"b76f7bb5-b9c7-44cc-97eb-cae3f1fbf443","system_id":"levelo_inurba_marseille","lat":43.300852,"lon":5.390859,"is_reserved":false,"is_disabled":false,"rental_uris":{"android":"levelo://app?vid=b76f7bb5-b9c7-44cc-97eb-cae3f1fbf443","ios":"levelo://app?vid=b76f7bb5-b9c7-44cc-97eb-cae3f1fbf443"},"vehicle_type_id":"4","last_reported":1708448776,"current_range_meters":400,"station_id":"ce4bh192rcd13ifvqdb0","pricing_plan_id":"cebpf4jnsgd1na2vs0mg"},{"bike_id":"75a49c2b-c8e1-45e7-8275-e5936b199ff9","system_id":"levelo_inurba_marseille","lat":43.300852,"lon":5.390859,"is_reserved":false,"is_disabled":false,"rental_uris":{"android":"levelo://app?vid=75a49c2b-c8e1-45e7-8275-e5936b199ff9","ios":"levelo://app?vid=75a49c2b-c8e1-45e7-8275-e5936b199ff9"},"vehicle_type_id":"4","last_reported":1708448776,"current_range_meters":16800,"station_id":"ce4bh192rcd13ifvqdb0","pricing_plan_id":"cebpf4jnsgd1na2vs0mg"},{"bike_id":"026b1152-5a9a-43c4-8b99-a88ffe05173c","system_id":"levelo_inurba_marseille","lat":43.29225,"lon":5.36049,"is_reserved":false,"is_disabled":false,"rental_uris":{"android":"levelo://app?vid=026b1152-5a9a-43c4-8b99-a88ffe05173c","ios":"levelo://app?vid=026b1152-5a9a-43c4-8b99-a88ffe05173c"},"vehicle_type_id":"4","last_reported":1708448776,"current_range_meters":14400,"station_id":"ce4bhbh2rcd13ifvqeqg","pricing_plan_id":"cebpf4jnsgd1na2vs0mg"},{"bike_id":"777abd95-740d-438f-b914-cd4e68f1e25f","system_id":"levelo_inurba_marseille","lat":43.300852,"lon":5.390859,"is_reserved":false,"is_disabled":false,"rental_uris":{"android":"levelo://app?vid=777abd95-740d-438f-b914-cd4e68f1e25f","ios":"levelo://app?vid=777abd95-740d-438f-b914-cd4e68f1e25f"},"vehicle_type_id":"4","last_reported":1708448776,"current_range_meters":16000,"station_id":"ce4bh192rcd13ifvqdb0","pricing_plan_id":"cebpf4jnsgd1na2vs0mg"},{"bike_id":"95619175-fe8f-4920-a6a3-b6eda6cb49a4","system_id":"levelo_inurba_marseille","lat":43.298764,"lon":5.388973,"is_reserved":false,"is_disabled":false,"rental_uris":{"android":"levelo://app?vid=95619175-fe8f-4920-a6a3-b6eda6cb49a4","ios":"levelo://app?vid=95619175-fe8f-4920-a6a3-b6eda6cb49a4"},"vehicle_type_id":"4","last_reported":1708448776,"current_range_meters":10400,"station_id":"ce4bh392rcd13ifvqdl0","pricing_plan_id":"cebpf4jnsgd1na2vs0mg"},{"bike_id":"98f50c02-a11f-4d5e-bcea-a2b0c209f963","system_id":"levelo_inurba_marseille","lat":43.293009,"lon":5.374584,"is_reserved":false,"is_disabled":false,"rental_uris":{"android":"levelo://app?vid=98f50c02-a11f-4d5e-bcea-a2b0c209f963","ios":"levelo://app?vid=98f50c02-a11f-4d5e-bcea-a2b0c209f963"},"vehicle_type_id":"4","last_reported":1708448776,"current_range_meters":18800,"station_id":"ce4bgi12rcd13ifvqb70","pricing_plan_id":"cebpf4jnsgd1na2vs0mg"},{"bike_id":"1d7cdcfd-a07a-46d3-b9e1-bd7dc1d38936","system_id":"levelo_inurba_marseille","lat":43.291675,"lon":5.371583,"is_reserved":false,"is_disabled":false,"rental_uris":{"android":"levelo://app?vid=1d7cdcfd-a07a-46d3-b9e1-bd7dc1d38936","ios":"levelo://app?vid=1d7cdcfd-a07a-46d3-b9e1-bd7dc1d38936"},"vehicle_type_id":"4","last_reported":1708448776,"current_range_meters":31200,"station_id":"ce4bha92rcd13ifvqeh0","pricing_plan_id":"cebpf4jnsgd1na2vs0mg"},{"bike_id":"d0b49e7b-d144-4df6-b43c-8387d50e5e02","system_id":"levelo_inurba_marseille","lat":43.298764,"lon":5.388973,"is_reserved":false,"is_disabled":false,"rental_uris":{"android":"levelo://app?vid=d0b49e7b-d144-4df6-b43c-8387d50e5e02","ios":"levelo://app?vid=d0b49e7b-d144-4df6-b43c-8387d50e5e02"},"vehicle_type_id":"4","last_reported":1708448776,"current_range_meters":4800,"station_id":"ce4bh392rcd13ifvqdl0","pricing_plan_id":"cebpf4jnsgd1na2vs0mg"},{"bike_id":"343e53d5-43c0-4997-a562-392f1103c7f5","system_id":"levelo_inurba_marseille","lat":43.29876,"lon":5.38922,"is_reserved":false,"is_disabled":false,"rental_uris":{"android":"levelo://app?vid=343e53d5-43c0-4997-a562-392f1103c7f5","ios":"levelo://app?vid=343e53d5-43c0-4997-a562-392f1103c7f5"},"vehicle_type_id":"4","last_reported":1708448776,"current_range_meters":9600,"station_id":"ce4bh392rcd13ifvqdl0","pricing_plan_id":"cebpf4jnsgd1na2vs0mg"},{"bike_id":"a58c8f17-7fde-4074-aef5-26dca2e9eef8","system_id":"levelo_inurba_marseille","lat":43.296059,"lon":5.385433,"is_reserved":false,"is_disabled":false,"rental_uris":{"android":"levelo://app?vid=a58c8f17-7fde-4074-aef5-26dca2e9eef8","ios":"levelo://app?vid=a58c8f17-7fde-4074-aef5-26dca2e9eef8"},"vehicle_type_id":"4","last_reported":1708448776,"current_range_meters":23600,"station_id":"ce4bgih2rcd13ifvqba0","pricing_plan_id":"cebpf4jnsgd1na2vs0mg"},{"bike_id":"a380200a-53b0-49f8-a23e-27a3b9bf0582","system_id":"levelo_inurba_marseille","lat":43.284219,"lon":5.3497,"is_reserved":false,"is_disabled":false,"rental_uris":{"android":"levelo://app?vid=a380200a-53b0-49f8-a23e-27a3b9bf0582","ios":"levelo://app?vid=a380200a-53b0-49f8-a23e-27a3b9bf0582"},"vehicle_type_id":"4","last_reported":1708448776,"current_range_meters":28400,"station_id":"ce4bhbh2rcd13ifvqepg","pricing_plan_id":"cebpf4jnsgd1na2vs0mg"},{"bike_id":"7b5bebcc-d8aa-460e-9f1e-57f4d270ae6a","system_id":"levelo_inurba_marseille","lat":43.291994,"lon":5.357886,"is_reserved":false,"is_disabled":false,"rental_uris":{"android":"levelo://app?vid=7b5bebcc-d8aa-460e-9f1e-57f4d270ae6a","ios":"levelo://app?vid=7b5bebcc-d8aa-460e-9f1e-57f4d270ae6a"},"vehicle_type_id":"4","last_reported":1708448776,"current_range_meters":0,"station_id":"ce4bhb12rcd13ifvqel0","pricing_plan_id":"cebpf4jnsgd1na2vs0mg"},{"bike_id":"7e2f6f40-b64d-44d4-bdea-8e9952787b4d","system_id":"levelo_inurba_marseille","lat":43.291994,"lon":5.357886,"is_reserved":false,"is_disabled":false,"rental_uris":{"android":"levelo://app?vid=7e2f6f40-b64d-44d4-bdea-8e9952787b4d","ios":"levelo://app?vid=7e2f6f40-b64d-44d4-bdea-8e9952787b4d"},"vehicle_type_id":"4","last_reported":1708448776,"current_range_meters":3600,"station_id":"ce4bhb12rcd13ifvqel0","pricing_plan_id":"cebpf4jnsgd1na2vs0mg"},{"bike_id":"e22dc2d0-f6e7-441e-af55-3191e22c2d81","system_id":"levelo_inurba_marseille","lat":43.291994,"lon":5.357886,"is_reserved":false,"is_disabled":false,"rental_uris":{"android":"levelo://app?vid=e22dc2d0-f6e7-441e-af55-3191e22c2d81","ios":"levelo://app?vid=e22dc2d0-f6e7-441e-af55-3191e22c2d81"},"vehicle_type_id":"4","last_reported":1708448776,"current_range_meters":15600,"station_id":"ce4bhb12rcd13ifvqel0","pricing_plan_id":"cebpf4jnsgd1na2vs0mg"},{"bike_id":"901b1f6f-663d-4d0b-aec8-60dd7259be53","system_id":"levelo_inurba_marseille","lat":43.309038,"lon":5.396546,"is_reserved":false,"is_disabled":false,"rental_uris":{"android":"levelo://app?vid=901b1f6f-663d-4d0b-aec8-60dd7259be53","ios":"levelo://app?vid=901b1f6f-663d-4d0b-aec8-60dd7259be53"},"vehicle_type_id":"4","last_reported":1708448776,"current_range_meters":24800,"station_id":"ce4bh012rcd13ifvqcv0","pricing_plan_id":"cebpf4jnsgd1na2vs0mg"},{"bike_id":"d377ae55-ef4a-4bd0-8d4a-434e6fed3bbe","system_id":"levelo_inurba_marseille","lat":43.292311,"lon":5.360731,"is_reserved":false,"is_disabled":false,"rental_uris":{"android":"levelo://app?vid=d377ae55-ef4a-4bd0-8d4a-434e6fed3bbe","ios":"levelo://app?vid=d377ae55-ef4a-4bd0-8d4a-434e6fed3bbe"},"vehicle_type_id":"4","last_reported":1708448776,"current_range_meters":6400,"station_id":"ce4bhbh2rcd13ifvqeqg","pricing_plan_id":"cebpf4jnsgd1na2vs0mg"},{"bike_id":"2c890d0c-1c30-42bd-b1d6-d77bb908a57a","system_id":"levelo_inurba_marseille","lat":43.291962,"lon":5.357954,"is_reserved":false,"is_disabled":false,"rental_uris":{"android":"levelo://app?vid=2c890d0c-1c30-42bd-b1d6-d77bb908a57a","ios":"levelo://app?vid=2c890d0c-1c30-42bd-b1d6-d77bb908a57a"},"vehicle_type_id":"4","last_reported":1708448776,"current_range_meters":0,"station_id":"ce4bhb12rcd13ifvqel0","pricing_plan_id":"cebpf4jnsgd1na2vs0mg"},{"bike_id":"ce0d55f0-c31f-41ce-987c-cb204d8270cf","system_id":"levelo_inurba_marseille","lat":43.313291,"lon":5.396838,"is_reserved":false,"is_disabled":false,"rental_uris":{"android":"levelo://app?vid=ce0d55f0-c31f-41ce-987c-cb204d8270cf","ios":"levelo://app?vid=ce0d55f0-c31f-41ce-987c-cb204d8270cf"},"vehicle_type_id":"4","last_reported":1708448776,"current_range_meters":17600,"station_id":"ce4bgvp2rcd13ifvqcu0","pricing_plan_id":"cebpf4jnsgd1na2vs0mg"},{"bike_id":"75de3240-a397-439e-bc4c-2c62d3c50054","system_id":"levelo_inurba_marseille","lat":43.291994,"lon":5.357886,"is_reserved":false,"is_disabled":false,"rental_uris":{"android":"levelo://app?vid=75de3240-a397-439e-bc4c-2c62d3c50054","ios":"levelo://app?vid=75de3240-a397-439e-bc4c-2c62d3c50054"},"vehicle_type_id":"4","last_reported":1708448776,"current_range_meters":11600,"station_id":"ce4bhb12rcd13ifvqel0","pricing_plan_id":"cebpf4jnsgd1na2vs0mg"},{"bike_id":"4a855623-f036-4ee7-9128-967a94a26bef","system_id":"levelo_inurba_marseille","lat":43.309047,"lon":5.396551,"is_reserved":false,"is_disabled":false,"rental_uris":{"android":"levelo://app?vid=4a855623-f036-4ee7-9128-967a94a26bef","ios":"levelo://app?vid=4a855623-f036-4ee7-9128-967a94a26bef"},"vehicle_type_id":"4","last_reported":1708448776,"current_range_meters":0,"station_id":"ce4bh012rcd13ifvqcv0","pricing_plan_id":"cebpf4jnsgd1na2vs0mg"},{"bike_id":"34a78d8f-16a7-48c2-9f83-7a325f0f9681","system_id":"levelo_inurba_marseille","lat":43.313291,"lon":5.396838,"is_reserved":false,"is_disabled":false,"rental_uris":{"android":"levelo://app?vid=34a78d8f-16a7-48c2-9f83-7a325f0f9681","ios":"levelo://app?vid=34a78d8f-16a7-48c2-9f83-7a325f0f9681"},"vehicle_type_id":"4","last_reported":1708448776,"current_range_meters":17600,"station_id":"ce4bgvp2rcd13ifvqcu0","pricing_plan_id":"cebpf4jnsgd1na2vs0mg"},{"bike_id":"708b2253-2db2-48b1-b1fc-90fd22220d95","system_id":"levelo_inurba_marseille","lat":43.313236,"lon":5.396928,"is_reserved":false,"is_disabled":false,"rental_uris":{"android":"levelo://app?vid=708b2253-2db2-48b1-b1fc-90fd22220d95","ios":"levelo://app?vid=708b2253-2db2-48b1-b1fc-90fd22220d95"},"vehicle_type_id":"4","last_reported":1708448776,"current_range_meters":22800,"station_id":"ce4bgvp2rcd13ifvqcu0","pricing_plan_id":"cebpf4jnsgd1na2vs0mg"},{"bike_id":"1c8e05e1-50a2-495d-b73e-83b1c65be716","system_id":"levelo_inurba_marseille","lat":43.313291,"lon":5.396838,"is_reserved":false,"is_disabled":false,"rental_uris":{"android":"levelo://app?vid=1c8e05e1-50a2-495d-b73e-83b1c65be716","ios":"levelo://app?vid=1c8e05e1-50a2-495d-b73e-83b1c65be716"},"vehicle_type_id":"4","last_reported":1708448776,"current_range_meters":8000,"station_id":"ce4bgvp2rcd13ifvqcu0","pricing_plan_id":"cebpf4jnsgd1na2vs0mg"},{"bike_id":"7de84a5e-f8db-4ac7-8c14-ccb765fdc401","system_id":"levelo_inurba_marseille","lat":43.313291,"lon":5.396838,"is_reserved":false,"is_disabled":false,"rental_uris":{"android":"levelo://app?vid=7de84a5e-f8db-4ac7-8c14-ccb765fdc401","ios":"levelo://app?vid=7de84a5e-f8db-4ac7-8c14-ccb765fdc401"},"vehicle_type_id":"4","last_reported":1708448776,"current_range_meters":4400,"station_id":"ce4bgvp2rcd13ifvqcu0","pricing_plan_id":"cebpf4jnsgd1na2vs0mg"},{"bike_id":"de2e22b9-0a79-4e41-98d1-6ef7ce3eb265","system_id":"levelo_inurba_marseille","lat":43.309038,"lon":5.396546,"is_reserved":false,"is_disabled":false,"rental_uris":{"android":"levelo://app?vid=de2e22b9-0a79-4e41-98d1-6ef7ce3eb265","ios":"levelo://app?vid=de2e22b9-0a79-4e41-98d1-6ef7ce3eb265"},"vehicle_type_id":"4","last_reported":1708448776,"current_range_meters":14800,"station_id":"ce4bh012rcd13ifvqcv0","pricing_plan_id":"cebpf4jnsgd1na2vs0mg"},{"bike_id":"f8a25da3-4198-491a-96a1-6c08c5509d16","system_id":"levelo_inurba_marseille","lat":43.309047,"lon":5.396551,"is_reserved":false,"is_disabled":false,"rental_uris":{"android":"levelo://app?vid=f8a25da3-4198-491a-96a1-6c08c5509d16","ios":"levelo://app?vid=f8a25da3-4198-491a-96a1-6c08c5509d16"},"vehicle_type_id":"4","last_reported":1708448776,"current_range_meters":8800,"station_id":"ce4bh012rcd13ifvqcv0","pricing_plan_id":"cebpf4jnsgd1na2vs0mg"},{"bike_id":"43e4dfd4-2e04-49da-9d83-79e535fd1b0a","system_id":"levelo_inurba_marseille","lat":43.309047,"lon":5.396551,"is_reserved":false,"is_disabled":false,"rental_uris":{"android":"levelo://app?vid=43e4dfd4-2e04-49da-9d83-79e535fd1b0a","ios":"levelo://app?vid=43e4dfd4-2e04-49da-9d83-79e535fd1b0a"},"vehicle_type_id":"4","last_reported":1708448776,"current_range_meters":2000,"station_id":"ce4bh012rcd13ifvqcv0","pricing_plan_id":"cebpf4jnsgd1na2vs0mg"},{"bike_id":"2a30ab90-829e-40b4-9ae9-e8d33ee0ab4f","system_id":"levelo_inurba_marseille","lat":43.309038,"lon":5.396546,"is_reserved":false,"is_disabled":false,"rental_uris":{"android":"levelo://app?vid=2a30ab90-829e-40b4-9ae9-e8d33ee0ab4f","ios":"levelo://app?vid=2a30ab90-829e-40b4-9ae9-e8d33ee0ab4f"},"vehicle_type_id":"4","last_reported":1708448776,"current_range_meters":13200,"station_id":"ce4bh012rcd13ifvqcv0","pricing_plan_id":"cebpf4jnsgd1na2vs0mg"},{"bike_id":"9b0b3688-17ad-49cc-a10b-82065edea25e","system_id":"levelo_inurba_marseille","lat":43.309038,"lon":5.396546,"is_reserved":false,"is_disabled":false,"rental_uris":{"android":"levelo://app?vid=9b0b3688-17ad-49cc-a10b-82065edea25e","ios":"levelo://app?vid=9b0b3688-17ad-49cc-a10b-82065edea25e"},"vehicle_type_id":"4","last_reported":1708448776,"current_range_meters":26400,"station_id":"ce4bh012rcd13ifvqcv0","pricing_plan_id":"cebpf4jnsgd1na2vs0mg"},{"bike_id":"c7675864-b47b-4d37-a757-396a5e51116a","system_id":"levelo_inurba_marseille","lat":43.313291,"lon":5.396838,"is_reserved":false,"is_disabled":false,"rental_uris":{"android":"levelo://app?vid=c7675864-b47b-4d37-a757-396a5e51116a","ios":"levelo://app?vid=c7675864-b47b-4d37-a757-396a5e51116a"},"vehicle_type_id":"4","last_reported":1708448776,"current_range_meters":30400,"station_id":"ce4bgvp2rcd13ifvqcu0","pricing_plan_id":"cebpf4jnsgd1na2vs0mg"},{"bike_id":"b1cdee1f-53dd-45d2-9675-5659e7800e6a","system_id":"levelo_inurba_marseille","lat":43.29529,"lon":5.385581,"is_reserved":false,"is_disabled":false,"rental_uris":{"android":"levelo://app?vid=b1cdee1f-53dd-45d2-9675-5659e7800e6a","ios":"levelo://app?vid=b1cdee1f-53dd-45d2-9675-5659e7800e6a"},"vehicle_type_id":"4","last_reported":1708448776,"current_range_meters":24000,"station_id":"ce4bgih2rcd13ifvqba0","pricing_plan_id":"cebpf4jnsgd1na2vs0mg"},{"bike_id":"6437ea11-8c54-4b31-b0f0-b1a6d664258d","system_id":"levelo_inurba_marseille","lat":43.309038,"lon":5.396546,"is_reserved":false,"is_disabled":false,"rental_uris":{"android":"levelo://app?vid=6437ea11-8c54-4b31-b0f0-b1a6d664258d","ios":"levelo://app?vid=6437ea11-8c54-4b31-b0f0-b1a6d664258d"},"vehicle_type_id":"4","last_reported":1708448776,"current_range_meters":2000,"station_id":"ce4bh012rcd13ifvqcv0","pricing_plan_id":"cebpf4jnsgd1na2vs0mg"},{"bike_id":"11e75439-0608-4dc7-b736-35c651d34ca3","system_id":"levelo_inurba_marseille","lat":43.29542,"lon":5.38554,"is_reserved":false,"is_disabled":false,"rental_uris":{"android":"levelo://app?vid=11e75439-0608-4dc7-b736-35c651d34ca3","ios":"levelo://app?vid=11e75439-0608-4dc7-b736-35c651d34ca3"},"vehicle_type_id":"4","last_reported":1708448776,"current_range_meters":8000,"station_id":"ce4bgih2rcd13ifvqba0","pricing_plan_id":"cebpf4jnsgd1na2vs0mg"},{"bike_id":"d088131c-37fa-4ee3-9d34-4b9913f4a3fc","system_id":"levelo_inurba_marseille","lat":43.309038,"lon":5.396546,"is_reserved":false,"is_disabled":false,"rental_uris":{"android":"levelo://app?vid=d088131c-37fa-4ee3-9d34-4b9913f4a3fc","ios":"levelo://app?vid=d088131c-37fa-4ee3-9d34-4b9913f4a3fc"},"vehicle_type_id":"4","last_reported":1708448776,"current_range_meters":31200,"station_id":"ce4bh012rcd13ifvqcv0","pricing_plan_id":"cebpf4jnsgd1na2vs0mg"},{"bike_id":"40df2aa6-c84c-420e-b40d-bbe4b09cdc31","system_id":"levelo_inurba_marseille","lat":43.29536,"lon":5.38546,"is_reserved":false,"is_disabled":false,"rental_uris":{"android":"levelo://app?vid=40df2aa6-c84c-420e-b40d-bbe4b09cdc31","ios":"levelo://app?vid=40df2aa6-c84c-420e-b40d-bbe4b09cdc31"},"vehicle_type_id":"4","last_reported":1708448776,"current_range_meters":4400,"station_id":"ce4bgih2rcd13ifvqba0","pricing_plan_id":"cebpf4jnsgd1na2vs0mg"},{"bike_id":"dac86187-5c50-4c3f-964b-962e150e53cf","system_id":"levelo_inurba_marseille","lat":43.29529,"lon":5.385581,"is_reserved":false,"is_disabled":false,"rental_uris":{"android":"levelo://app?vid=dac86187-5c50-4c3f-964b-962e150e53cf","ios":"levelo://app?vid=dac86187-5c50-4c3f-964b-962e150e53cf"},"vehicle_type_id":"4","last_reported":1708448776,"current_range_meters":15600,"station_id":"ce4bgih2rcd13ifvqba0","pricing_plan_id":"cebpf4jnsgd1na2vs0mg"},{"bike_id":"8fd64954-2b88-4e62-916e-5a54c2246f3a","system_id":"levelo_inurba_marseille","lat":43.29529,"lon":5.385581,"is_reserved":false,"is_disabled":false,"rental_uris":{"android":"levelo://app?vid=8fd64954-2b88-4e62-916e-5a54c2246f3a","ios":"levelo://app?vid=8fd64954-2b88-4e62-916e-5a54c2246f3a"},"vehicle_type_id":"4","last_reported":1708448776,"current_range_meters":22800,"station_id":"ce4bgih2rcd13ifvqba0","pricing_plan_id":"cebpf4jnsgd1na2vs0mg"},{"bike_id":"3c9f426b-fae9-4002-a786-d8cd8bc27b63","system_id":"levelo_inurba_marseille","lat":43.29532,"lon":5.38549,"is_reserved":false,"is_disabled":false,"rental_uris":{"android":"levelo://app?vid=3c9f426b-fae9-4002-a786-d8cd8bc27b63","ios":"levelo://app?vid=3c9f426b-fae9-4002-a786-d8cd8bc27b63"},"vehicle_type_id":"4","last_reported":1708448776,"current_range_meters":14000,"station_id":"ce4bgih2rcd13ifvqba0","pricing_plan_id":"cebpf4jnsgd1na2vs0mg"},{"bike_id":"063ab24e-24e5-42f8-a56d-8aaa835a3689","system_id":"levelo_inurba_marseille","lat":43.290779,"lon":5.371482,"is_reserved":false,"is_disabled":false,"rental_uris":{"android":"levelo://app?vid=063ab24e-24e5-42f8-a56d-8aaa835a3689","ios":"levelo://app?vid=063ab24e-24e5-42f8-a56d-8aaa835a3689"},"vehicle_type_id":"4","last_reported":1708448776,"current_range_meters":20800,"station_id":"ce4bh5p2rcd13ifvqe4g","pricing_plan_id":"cebpf4jnsgd1na2vs0mg"},{"bike_id":"5947ee71-713d-4abf-ad79-66265b165a61","system_id":"levelo_inurba_marseille","lat":43.302008,"lon":5.394694,"is_reserved":false,"is_disabled":false,"rental_uris":{"android":"levelo://app?vid=5947ee71-713d-4abf-ad79-66265b165a61","ios":"levelo://app?vid=5947ee71-713d-4abf-ad79-66265b165a61"},"vehicle_type_id":"4","last_reported":1708448776,"current_range_meters":400,"station_id":"ce4bh0p2rcd13ifvqd70","pricing_plan_id":"cebpf4jnsgd1na2vs0mg"},{"bike_id":"6be7cdea-9718-4682-8bbd-3b4e7497b517","system_id":"levelo_inurba_marseille","lat":43.302008,"lon":5.394694,"is_reserved":false,"is_disabled":false,"rental_uris":{"android":"levelo://app?vid=6be7cdea-9718-4682-8bbd-3b4e7497b517","ios":"levelo://app?vid=6be7cdea-9718-4682-8bbd-3b4e7497b517"},"vehicle_type_id":"4","last_reported":1708448776,"current_range_meters":4000,"station_id":"ce4bh0p2rcd13ifvqd70","pricing_plan_id":"cebpf4jnsgd1na2vs0mg"},{"bike_id":"eaf5afeb-6fac-4477-8710-3a8c6a3c142e","system_id":"levelo_inurba_marseille","lat":43.290631,"lon":5.359244,"is_reserved":false,"is_disabled":false,"rental_uris":{"android":"levelo://app?vid=eaf5afeb-6fac-4477-8710-3a8c6a3c142e","ios":"levelo://app?vid=eaf5afeb-6fac-4477-8710-3a8c6a3c142e"},"vehicle_type_id":"4","last_reported":1708448776,"current_range_meters":15200,"station_id":"ce4bha92rcd13ifvqeg0","pricing_plan_id":"cebpf4jnsgd1na2vs0mg"},{"bike_id":"0959b3c1-686d-4c14-a9e7-d1bb7eda1d4a","system_id":"levelo_inurba_marseille","lat":43.290631,"lon":5.359244,"is_reserved":false,"is_disabled":false,"rental_uris":{"android":"levelo://app?vid=0959b3c1-686d-4c14-a9e7-d1bb7eda1d4a","ios":"levelo://app?vid=0959b3c1-686d-4c14-a9e7-d1bb7eda1d4a"},"vehicle_type_id":"4","last_reported":1708448776,"current_range_meters":0,"station_id":"ce4bha92rcd13ifvqeg0","pricing_plan_id":"cebpf4jnsgd1na2vs0mg"},{"bike_id":"abff4a3f-811f-4675-8d9c-d5fe6e6e18a3","system_id":"levelo_inurba_marseille","lat":43.290624,"lon":5.359245,"is_reserved":false,"is_disabled":false,"rental_uris":{"android":"levelo://app?vid=abff4a3f-811f-4675-8d9c-d5fe6e6e18a3","ios":"levelo://app?vid=abff4a3f-811f-4675-8d9c-d5fe6e6e18a3"},"vehicle_type_id":"4","last_reported":1708448776,"current_range_meters":400,"station_id":"ce4bha92rcd13ifvqeg0","pricing_plan_id":"cebpf4jnsgd1na2vs0mg"},{"bike_id":"9fcc7848-1fc3-4112-8daf-c08c1be18343","system_id":"levelo_inurba_marseille","lat":43.290419,"lon":5.375698,"is_reserved":false,"is_disabled":false,"rental_uris":{"android":"levelo://app?vid=9fcc7848-1fc3-4112-8daf-c08c1be18343","ios":"levelo://app?vid=9fcc7848-1fc3-4112-8daf-c08c1be18343"},"vehicle_type_id":"4","last_reported":1708448776,"current_range_meters":17200,"station_id":"ce4bh692rcd13ifvqe90","pricing_plan_id":"cebpf4jnsgd1na2vs0mg"},{"bike_id":"e1f10d98-dbae-447a-a279-86c5d730fae6","system_id":"levelo_inurba_marseille","lat":43.29422,"lon":5.38622,"is_reserved":false,"is_disabled":false,"rental_uris":{"android":"levelo://app?vid=e1f10d98-dbae-447a-a279-86c5d730fae6","ios":"levelo://app?vid=e1f10d98-dbae-447a-a279-86c5d730fae6"},"vehicle_type_id":"4","last_reported":1708448776,"current_range_meters":16800,"station_id":"ce4bh2h2rcd13ifvqdh0","pricing_plan_id":"cebpf4jnsgd1na2vs0mg"},{"bike_id":"4b442917-8bdb-4e12-8092-641e177c619a","system_id":"levelo_inurba_marseille","lat":43.29033,"lon":5.37549,"is_reserved":false,"is_disabled":false,"rental_uris":{"android":"levelo://app?vid=4b442917-8bdb-4e12-8092-641e177c619a","ios":"levelo://app?vid=4b442917-8bdb-4e12-8092-641e177c619a"},"vehicle_type_id":"4","last_reported":1708448776,"current_range_meters":0,"station_id":"ce4bh692rcd13ifvqe90","pricing_plan_id":"cebpf4jnsgd1na2vs0mg"},{"bike_id":"cab739b2-ff10-48d1-930c-9a302712067a","system_id":"levelo_inurba_marseille","lat":43.294153,"lon":5.386305,"is_reserved":false,"is_disabled":false,"rental_uris":{"android":"levelo://app?vid=cab739b2-ff10-48d1-930c-9a302712067a","ios":"levelo://app?vid=cab739b2-ff10-48d1-930c-9a302712067a"},"vehicle_type_id":"4","last_reported":1708448776,"current_range_meters":12800,"station_id":"ce4bh2h2rcd13ifvqdh0","pricing_plan_id":"cebpf4jnsgd1na2vs0mg"},{"bike_id":"2cdd0905-52d6-4fc5-a1a7-5056dbcbed26","system_id":"levelo_inurba_marseille","lat":43.28945,"lon":5.36638,"is_reserved":false,"is_disabled":false,"rental_uris":{"android":"levelo://app?vid=2cdd0905-52d6-4fc5-a1a7-5056dbcbed26","ios":"levelo://app?vid=2cdd0905-52d6-4fc5-a1a7-5056dbcbed26"},"vehicle_type_id":"4","last_reported":1708448776,"current_range_meters":0,"station_id":"ce4bhap2rcd13ifvqek0","pricing_plan_id":"cebpf4jnsgd1na2vs0mg"},{"bike_id":"f3b1b9c0-b7fa-4c6f-87db-df6f69d86c4f","system_id":"levelo_inurba_marseille","lat":43.294162,"lon":5.386292,"is_reserved":false,"is_disabled":false,"rental_uris":{"android":"levelo://app?vid=f3b1b9c0-b7fa-4c6f-87db-df6f69d86c4f","ios":"levelo://app?vid=f3b1b9c0-b7fa-4c6f-87db-df6f69d86c4f"},"vehicle_type_id":"4","last_reported":1708448776,"current_range_meters":20400,"station_id":"ce4bh2h2rcd13ifvqdh0","pricing_plan_id":"cebpf4jnsgd1na2vs0mg"},{"bike_id":"c826defc-fd5d-4b3f-9e34-084f2c413c56","system_id":"levelo_inurba_marseille","lat":43.28944,"lon":5.36637,"is_reserved":false,"is_disabled":false,"rental_uris":{"android":"levelo://app?vid=c826defc-fd5d-4b3f-9e34-084f2c413c56","ios":"levelo://app?vid=c826defc-fd5d-4b3f-9e34-084f2c413c56"},"vehicle_type_id":"4","last_reported":1708448776,"current_range_meters":0,"station_id":"ce4bhap2rcd13ifvqek0","pricing_plan_id":"cebpf4jnsgd1na2vs0mg"},{"bike_id":"efbd94ff-c0f9-4eae-b9b4-49aa50783664","system_id":"levelo_inurba_marseille","lat":43.294162,"lon":5.386292,"is_reserved":false,"is_disabled":false,"rental_uris":{"android":"levelo://app?vid=efbd94ff-c0f9-4eae-b9b4-49aa50783664","ios":"levelo://app?vid=efbd94ff-c0f9-4eae-b9b4-49aa50783664"},"vehicle_type_id":"4","last_reported":1708448776,"current_range_meters":6400,"station_id":"ce4bh2h2rcd13ifvqdh0","pricing_plan_id":"cebpf4jnsgd1na2vs0mg"},{"bike_id":"da725a81-7585-45af-8589-ce54d918171e","system_id":"levelo_inurba_marseille","lat":43.290327,"lon":5.375711,"is_reserved":false,"is_disabled":false,"rental_uris":{"android":"levelo://app?vid=da725a81-7585-45af-8589-ce54d918171e","ios":"levelo://app?vid=da725a81-7585-45af-8589-ce54d918171e"},"vehicle_type_id":"4","last_reported":1708448776,"current_range_meters":4000,"station_id":"ce4bh692rcd13ifvqe90","pricing_plan_id":"cebpf4jnsgd1na2vs0mg"},{"bike_id":"ba3f2bf0-f485-4d5b-a58a-278713024782","system_id":"levelo_inurba_marseille","lat":43.28939,"lon":5.36642,"is_reserved":false,"is_disabled":false,"rental_uris":{"android":"levelo://app?vid=ba3f2bf0-f485-4d5b-a58a-278713024782","ios":"levelo://app?vid=ba3f2bf0-f485-4d5b-a58a-278713024782"},"vehicle_type_id":"4","last_reported":1708448776,"current_range_meters":0,"station_id":"ce4bhap2rcd13ifvqek0","pricing_plan_id":"cebpf4jnsgd1na2vs0mg"},{"bike_id":"7098b2f6-a587-4a20-b5f0-cb6b1652465c","system_id":"levelo_inurba_marseille","lat":43.28939,"lon":5.36641,"is_reserved":false,"is_disabled":false,"rental_uris":{"android":"levelo://app?vid=7098b2f6-a587-4a20-b5f0-cb6b1652465c","ios":"levelo://app?vid=7098b2f6-a587-4a20-b5f0-cb6b1652465c"},"vehicle_type_id":"4","last_reported":1708448776,"current_range_meters":15200,"station_id":"ce4bhap2rcd13ifvqek0","pricing_plan_id":"cebpf4jnsgd1na2vs0mg"},{"bike_id":"d10ed7ee-89f5-41b8-aeea-4236215b8305","system_id":"levelo_inurba_marseille","lat":43.289184,"lon":5.366408,"is_reserved":false,"is_disabled":false,"rental_uris":{"android":"levelo://app?vid=d10ed7ee-89f5-41b8-aeea-4236215b8305","ios":"levelo://app?vid=d10ed7ee-89f5-41b8-aeea-4236215b8305"},"vehicle_type_id":"4","last_reported":1708448776,"current_range_meters":24400,"station_id":"ce4bhap2rcd13ifvqek0","pricing_plan_id":"cebpf4jnsgd1na2vs0mg"},{"bike_id":"3a299ff0-30a1-433f-a22c-c79e88d28b7b","system_id":"levelo_inurba_marseille","lat":43.289184,"lon":5.366408,"is_reserved":false,"is_disabled":false,"rental_uris":{"android":"levelo://app?vid=3a299ff0-30a1-433f-a22c-c79e88d28b7b","ios":"levelo://app?vid=3a299ff0-30a1-433f-a22c-c79e88d28b7b"},"vehicle_type_id":"4","last_reported":1708448776,"current_range_meters":19600,"station_id":"ce4bhap2rcd13ifvqek0","pricing_plan_id":"cebpf4jnsgd1na2vs0mg"},{"bike_id":"e437a3a2-71c5-4b43-bb6f-3fae7d85f2e1","system_id":"levelo_inurba_marseille","lat":43.28931,"lon":5.36643,"is_reserved":false,"is_disabled":false,"rental_uris":{"android":"levelo://app?vid=e437a3a2-71c5-4b43-bb6f-3fae7d85f2e1","ios":"levelo://app?vid=e437a3a2-71c5-4b43-bb6f-3fae7d85f2e1"},"vehicle_type_id":"4","last_reported":1708448776,"current_range_meters":4000,"station_id":"","pricing_plan_id":"cebpf4jnsgd1na2vs0mg"},{"bike_id":"501f3088-d5db-41a4-b034-4e7716e816bc","system_id":"levelo_inurba_marseille","lat":43.289184,"lon":5.366408,"is_reserved":false,"is_disabled":false,"rental_uris":{"android":"levelo://app?vid=501f3088-d5db-41a4-b034-4e7716e816bc","ios":"levelo://app?vid=501f3088-d5db-41a4-b034-4e7716e816bc"},"vehicle_type_id":"4","last_reported":1708448776,"current_range_meters":16400,"station_id":"ce4bhap2rcd13ifvqek0","pricing_plan_id":"cebpf4jnsgd1na2vs0mg"},{"bike_id":"1273feae-aedb-4d00-a74d-6d8736dc5af4","system_id":"levelo_inurba_marseille","lat":43.292642,"lon":5.384254,"is_reserved":false,"is_disabled":false,"rental_uris":{"android":"levelo://app?vid=1273feae-aedb-4d00-a74d-6d8736dc5af4","ios":"levelo://app?vid=1273feae-aedb-4d00-a74d-6d8736dc5af4"},"vehicle_type_id":"4","last_reported":1708448776,"current_range_meters":23600,"station_id":"ce4bh692rcd13ifvqea0","pricing_plan_id":"cebpf4jnsgd1na2vs0mg"},{"bike_id":"f89f8a84-8fe3-437b-a727-149d8a2f0c1d","system_id":"levelo_inurba_marseille","lat":43.29269,"lon":5.38441,"is_reserved":false,"is_disabled":false,"rental_uris":{"android":"levelo://app?vid=f89f8a84-8fe3-437b-a727-149d8a2f0c1d","ios":"levelo://app?vid=f89f8a84-8fe3-437b-a727-149d8a2f0c1d"},"vehicle_type_id":"4","last_reported":1708448776,"current_range_meters":21200,"station_id":"ce4bh692rcd13ifvqea0","pricing_plan_id":"cebpf4jnsgd1na2vs0mg"},{"bike_id":"7f371267-7ed6-4052-8974-47647d6272f6","system_id":"levelo_inurba_marseille","lat":43.292475,"lon":5.38398,"is_reserved":false,"is_disabled":false,"rental_uris":{"android":"levelo://app?vid=7f371267-7ed6-4052-8974-47647d6272f6","ios":"levelo://app?vid=7f371267-7ed6-4052-8974-47647d6272f6"},"vehicle_type_id":"4","last_reported":1708448776,"current_range_meters":26400,"station_id":"ce4bh692rcd13ifvqea0","pricing_plan_id":"cebpf4jnsgd1na2vs0mg"},{"bike_id":"62fedc8d-0503-4d4b-b040-286e1835004c","system_id":"levelo_inurba_marseille","lat":43.29265,"lon":5.3844,"is_reserved":false,"is_disabled":false,"rental_uris":{"android":"levelo://app?vid=62fedc8d-0503-4d4b-b040-286e1835004c","ios":"levelo://app?vid=62fedc8d-0503-4d4b-b040-286e1835004c"},"vehicle_type_id":"4","last_reported":1708448776,"current_range_meters":12000,"station_id":"ce4bh692rcd13ifvqea0","pricing_plan_id":"cebpf4jnsgd1na2vs0mg"},{"bike_id":"afb58c8b-83d4-4163-a0e6-54e8529c8ee6","system_id":"levelo_inurba_marseille","lat":43.292613,"lon":5.384487,"is_reserved":false,"is_disabled":false,"rental_uris":{"android":"levelo://app?vid=afb58c8b-83d4-4163-a0e6-54e8529c8ee6","ios":"levelo://app?vid=afb58c8b-83d4-4163-a0e6-54e8529c8ee6"},"vehicle_type_id":"4","last_reported":1708448776,"current_range_meters":0,"station_id":"ce4bh692rcd13ifvqea0","pricing_plan_id":"cebpf4jnsgd1na2vs0mg"},{"bike_id":"64c8a977-e817-4529-bbbf-d54830de4873","system_id":"levelo_inurba_marseille","lat":43.29103,"lon":5.38085,"is_reserved":false,"is_disabled":false,"rental_uris":{"android":"levelo://app?vid=64c8a977-e817-4529-bbbf-d54830de4873","ios":"levelo://app?vid=64c8a977-e817-4529-bbbf-d54830de4873"},"vehicle_type_id":"4","last_reported":1708448776,"current_range_meters":12400,"station_id":"","pricing_plan_id":"cebpf4jnsgd1na2vs0mg"},{"bike_id":"35436a62-530d-4892-a3f4-6bb03197891c","system_id":"levelo_inurba_marseille","lat":43.290131,"lon":5.35602,"is_reserved":false,"is_disabled":false,"rental_uris":{"android":"levelo://app?vid=35436a62-530d-4892-a3f4-6bb03197891c","ios":"levelo://app?vid=35436a62-530d-4892-a3f4-6bb03197891c"},"vehicle_type_id":"4","last_reported":1708448776,"current_range_meters":9200,"station_id":"ce4bhb92rcd13ifvqen0","pricing_plan_id":"cebpf4jnsgd1na2vs0mg"},{"bike_id":"7b93c214-ab03-4dc2-9127-b3ce64148daf","system_id":"levelo_inurba_marseille","lat":43.29007,"lon":5.3561,"is_reserved":false,"is_disabled":false,"rental_uris":{"android":"levelo://app?vid=7b93c214-ab03-4dc2-9127-b3ce64148daf","ios":"levelo://app?vid=7b93c214-ab03-4dc2-9127-b3ce64148daf"},"vehicle_type_id":"4","last_reported":1708448776,"current_range_meters":22000,"station_id":"ce4bhb92rcd13ifvqen0","pricing_plan_id":"cebpf4jnsgd1na2vs0mg"},{"bike_id":"aefb3306-f510-487f-9acd-3c30691ee66a","system_id":"levelo_inurba_marseille","lat":43.290103,"lon":5.356114,"is_reserved":false,"is_disabled":false,"rental_uris":{"android":"levelo://app?vid=aefb3306-f510-487f-9acd-3c30691ee66a","ios":"levelo://app?vid=aefb3306-f510-487f-9acd-3c30691ee66a"},"vehicle_type_id":"4","last_reported":1708448776,"current_range_meters":0,"station_id":"ce4bhb92rcd13ifvqen0","pricing_plan_id":"cebpf4jnsgd1na2vs0mg"},{"bike_id":"aabac943-f467-43b2-9b93-e4d829e106d3","system_id":"levelo_inurba_marseille","lat":43.290104,"lon":5.356111,"is_reserved":false,"is_disabled":false,"rental_uris":{"android":"levelo://app?vid=aabac943-f467-43b2-9b93-e4d829e106d3","ios":"levelo://app?vid=aabac943-f467-43b2-9b93-e4d829e106d3"},"vehicle_type_id":"4","last_reported":1708448776,"current_range_meters":29600,"station_id":"ce4bhb92rcd13ifvqen0","pricing_plan_id":"cebpf4jnsgd1na2vs0mg"},{"bike_id":"742489f5-24e6-4dc1-a139-711c770616de","system_id":"levelo_inurba_marseille","lat":43.29005,"lon":5.35611,"is_reserved":false,"is_disabled":false,"rental_uris":{"android":"levelo://app?vid=742489f5-24e6-4dc1-a139-711c770616de","ios":"levelo://app?vid=742489f5-24e6-4dc1-a139-711c770616de"},"vehicle_type_id":"4","last_reported":1708448776,"current_range_meters":10400,"station_id":"ce4bhb92rcd13ifvqen0","pricing_plan_id":"cebpf4jnsgd1na2vs0mg"},{"bike_id":"50ae6da9-fb0f-4703-ae2a-16ac06fa4557","system_id":"levelo_inurba_marseille","lat":43.290104,"lon":5.356111,"is_reserved":false,"is_disabled":false,"rental_uris":{"android":"levelo://app?vid=50ae6da9-fb0f-4703-ae2a-16ac06fa4557","ios":"levelo://app?vid=50ae6da9-fb0f-4703-ae2a-16ac06fa4557"},"vehicle_type_id":"4","last_reported":1708448776,"current_range_meters":14400,"station_id":"ce4bhb92rcd13ifvqen0","pricing_plan_id":"cebpf4jnsgd1na2vs0mg"},{"bike_id":"a5d5eebb-2b37-427d-ab1c-8555ab3f94c3","system_id":"levelo_inurba_marseille","lat":43.290104,"lon":5.356111,"is_reserved":false,"is_disabled":false,"rental_uris":{"android":"levelo://app?vid=a5d5eebb-2b37-427d-ab1c-8555ab3f94c3","ios":"levelo://app?vid=a5d5eebb-2b37-427d-ab1c-8555ab3f94c3"},"vehicle_type_id":"4","last_reported":1708448776,"current_range_meters":29600,"station_id":"ce4bhb92rcd13ifvqen0","pricing_plan_id":"cebpf4jnsgd1na2vs0mg"},{"bike_id":"4e4c76c0-77f5-4a71-86de-f6267a7e7817","system_id":"levelo_inurba_marseille","lat":43.290104,"lon":5.356111,"is_reserved":false,"is_disabled":false,"rental_uris":{"android":"levelo://app?vid=4e4c76c0-77f5-4a71-86de-f6267a7e7817","ios":"levelo://app?vid=4e4c76c0-77f5-4a71-86de-f6267a7e7817"},"vehicle_type_id":"4","last_reported":1708448776,"current_range_meters":2800,"station_id":"ce4bhb92rcd13ifvqen0","pricing_plan_id":"cebpf4jnsgd1na2vs0mg"},{"bike_id":"2d1f9d89-f0cc-4e67-b346-e4fd0792a43f","system_id":"levelo_inurba_marseille","lat":43.290104,"lon":5.356111,"is_reserved":false,"is_disabled":false,"rental_uris":{"android":"levelo://app?vid=2d1f9d89-f0cc-4e67-b346-e4fd0792a43f","ios":"levelo://app?vid=2d1f9d89-f0cc-4e67-b346-e4fd0792a43f"},"vehicle_type_id":"4","last_reported":1708448776,"current_range_meters":0,"station_id":"ce4bhb92rcd13ifvqen0","pricing_plan_id":"cebpf4jnsgd1na2vs0mg"},{"bike_id":"f9e5a1f1-b4c8-4c27-aa11-10d7ac738b64","system_id":"levelo_inurba_marseille","lat":43.28998,"lon":5.35605,"is_reserved":false,"is_disabled":false,"rental_uris":{"android":"levelo://app?vid=f9e5a1f1-b4c8-4c27-aa11-10d7ac738b64","ios":"levelo://app?vid=f9e5a1f1-b4c8-4c27-aa11-10d7ac738b64"},"vehicle_type_id":"4","last_reported":1708448776,"current_range_meters":13600,"station_id":"ce4bhb92rcd13ifvqen0","pricing_plan_id":"cebpf4jnsgd1na2vs0mg"},{"bike_id":"b124f330-af79-4e08-bcbe-ef6d3048f514","system_id":"levelo_inurba_marseille","lat":43.33025,"lon":5.39034,"is_reserved":false,"is_disabled":false,"rental_uris":{"android":"levelo://app?vid=b124f330-af79-4e08-bcbe-ef6d3048f514","ios":"levelo://app?vid=b124f330-af79-4e08-bcbe-ef6d3048f514"},"vehicle_type_id":"4","last_reported":1708448776,"current_range_meters":3600,"station_id":"ce4bhr92rcd13ifvqhrg","pricing_plan_id":"cebpf4jnsgd1na2vs0mg"},{"bike_id":"a4f2e61f-fb62-4278-b6f8-aa1032f104d0","system_id":"levelo_inurba_marseille","lat":43.330442,"lon":5.389148,"is_reserved":false,"is_disabled":false,"rental_uris":{"android":"levelo://app?vid=a4f2e61f-fb62-4278-b6f8-aa1032f104d0","ios":"levelo://app?vid=a4f2e61f-fb62-4278-b6f8-aa1032f104d0"},"vehicle_type_id":"4","last_reported":1708448776,"current_range_meters":26400,"station_id":"ce4bhr92rcd13ifvqhrg","pricing_plan_id":"cebpf4jnsgd1na2vs0mg"},{"bike_id":"45cf4f05-a86f-4445-b568-9b6735400b05","system_id":"levelo_inurba_marseille","lat":43.28856,"lon":5.358371,"is_reserved":false,"is_disabled":false,"rental_uris":{"android":"levelo://app?vid=45cf4f05-a86f-4445-b568-9b6735400b05","ios":"levelo://app?vid=45cf4f05-a86f-4445-b568-9b6735400b05"},"vehicle_type_id":"4","last_reported":1708448776,"current_range_meters":5200,"station_id":"ce4bhb12rcd13ifvqem0","pricing_plan_id":"cebpf4jnsgd1na2vs0mg"},{"bike_id":"b6df8c44-0992-4c6b-8179-edab1a32f824","system_id":"levelo_inurba_marseille","lat":43.28856,"lon":5.358371,"is_reserved":false,"is_disabled":false,"rental_uris":{"android":"levelo://app?vid=b6df8c44-0992-4c6b-8179-edab1a32f824","ios":"levelo://app?vid=b6df8c44-0992-4c6b-8179-edab1a32f824"},"vehicle_type_id":"4","last_reported":1708448776,"current_range_meters":800,"station_id":"ce4bhb12rcd13ifvqem0","pricing_plan_id":"cebpf4jnsgd1na2vs0mg"},{"bike_id":"3890df65-cd11-4db8-b9b0-1fcf21aff1fa","system_id":"levelo_inurba_marseille","lat":43.290094,"lon":5.381264,"is_reserved":false,"is_disabled":false,"rental_uris":{"android":"levelo://app?vid=3890df65-cd11-4db8-b9b0-1fcf21aff1fa","ios":"levelo://app?vid=3890df65-cd11-4db8-b9b0-1fcf21aff1fa"},"vehicle_type_id":"4","last_reported":1708448776,"current_range_meters":17200,"station_id":"ce4bh4p2rcd13ifvqe1g","pricing_plan_id":"cebpf4jnsgd1na2vs0mg"},{"bike_id":"f76b1300-56d5-4ca3-b0ba-afb2206bab70","system_id":"levelo_inurba_marseille","lat":43.2901,"lon":5.381269,"is_reserved":false,"is_disabled":false,"rental_uris":{"android":"levelo://app?vid=f76b1300-56d5-4ca3-b0ba-afb2206bab70","ios":"levelo://app?vid=f76b1300-56d5-4ca3-b0ba-afb2206bab70"},"vehicle_type_id":"4","last_reported":1708448776,"current_range_meters":5200,"station_id":"ce4bh4p2rcd13ifvqe1g","pricing_plan_id":"cebpf4jnsgd1na2vs0mg"},{"bike_id":"d7064c78-1a47-43f7-9574-4632e3123919","system_id":"levelo_inurba_marseille","lat":43.288598,"lon":5.3766,"is_reserved":false,"is_disabled":false,"rental_uris":{"android":"levelo://app?vid=d7064c78-1a47-43f7-9574-4632e3123919","ios":"levelo://app?vid=d7064c78-1a47-43f7-9574-4632e3123919"},"vehicle_type_id":"4","last_reported":1708448776,"current_range_meters":21200,"station_id":"","pricing_plan_id":"cebpf4jnsgd1na2vs0mg"},{"bike_id":"037e620b-adf2-4799-86f0-97c2629ea27b","system_id":"levelo_inurba_marseille","lat":43.312609,"lon":5.401662,"is_reserved":false,"is_disabled":false,"rental_uris":{"android":"levelo://app?vid=037e620b-adf2-4799-86f0-97c2629ea27b","ios":"levelo://app?vid=037e620b-adf2-4799-86f0-97c2629ea27b"},"vehicle_type_id":"4","last_reported":1708448776,"current_range_meters":11200,"station_id":"ce4bh092rcd13ifvqd30","pricing_plan_id":"cebpf4jnsgd1na2vs0mg"},{"bike_id":"0be9b304-2fae-494c-ade8-d926b1636f73","system_id":"levelo_inurba_marseille","lat":43.312609,"lon":5.401662,"is_reserved":false,"is_disabled":false,"rental_uris":{"android":"levelo://app?vid=0be9b304-2fae-494c-ade8-d926b1636f73","ios":"levelo://app?vid=0be9b304-2fae-494c-ade8-d926b1636f73"},"vehicle_type_id":"4","last_reported":1708448776,"current_range_meters":7200,"station_id":"ce4bh092rcd13ifvqd30","pricing_plan_id":"cebpf4jnsgd1na2vs0mg"},{"bike_id":"672af493-05ad-4417-a2af-b42054a8c83c","system_id":"levelo_inurba_marseille","lat":43.312609,"lon":5.401662,"is_reserved":false,"is_disabled":false,"rental_uris":{"android":"levelo://app?vid=672af493-05ad-4417-a2af-b42054a8c83c","ios":"levelo://app?vid=672af493-05ad-4417-a2af-b42054a8c83c"},"vehicle_type_id":"4","last_reported":1708448776,"current_range_meters":16400,"station_id":"ce4bh092rcd13ifvqd30","pricing_plan_id":"cebpf4jnsgd1na2vs0mg"},{"bike_id":"b90511cc-89b9-4e61-bc04-80dae37a9024","system_id":"levelo_inurba_marseille","lat":43.312609,"lon":5.401662,"is_reserved":false,"is_disabled":false,"rental_uris":{"android":"levelo://app?vid=b90511cc-89b9-4e61-bc04-80dae37a9024","ios":"levelo://app?vid=b90511cc-89b9-4e61-bc04-80dae37a9024"},"vehicle_type_id":"4","last_reported":1708448776,"current_range_meters":26400,"station_id":"ce4bh092rcd13ifvqd30","pricing_plan_id":"cebpf4jnsgd1na2vs0mg"},{"bike_id":"c4ae7e60-40bb-4235-85a8-50c0521e397d","system_id":"levelo_inurba_marseille","lat":43.312609,"lon":5.401662,"is_reserved":false,"is_disabled":false,"rental_uris":{"android":"levelo://app?vid=c4ae7e60-40bb-4235-85a8-50c0521e397d","ios":"levelo://app?vid=c4ae7e60-40bb-4235-85a8-50c0521e397d"},"vehicle_type_id":"4","last_reported":1708448776,"current_range_meters":18000,"station_id":"ce4bh092rcd13ifvqd30","pricing_plan_id":"cebpf4jnsgd1na2vs0mg"},{"bike_id":"ae12d5d2-6084-4b39-961f-24df250e2743","system_id":"levelo_inurba_marseille","lat":43.312609,"lon":5.401662,"is_reserved":false,"is_disabled":false,"rental_uris":{"android":"levelo://app?vid=ae12d5d2-6084-4b39-961f-24df250e2743","ios":"levelo://app?vid=ae12d5d2-6084-4b39-961f-24df250e2743"},"vehicle_type_id":"4","last_reported":1708448776,"current_range_meters":26400,"station_id":"ce4bh092rcd13ifvqd30","pricing_plan_id":"cebpf4jnsgd1na2vs0mg"},{"bike_id":"a66f91b6-8e90-4115-aa7d-fffe3cb346cc","system_id":"levelo_inurba_marseille","lat":43.309371,"lon":5.401449,"is_reserved":false,"is_disabled":false,"rental_uris":{"android":"levelo://app?vid=a66f91b6-8e90-4115-aa7d-fffe3cb346cc","ios":"levelo://app?vid=a66f91b6-8e90-4115-aa7d-fffe3cb346cc"},"vehicle_type_id":"4","last_reported":1708448776,"current_range_meters":0,"station_id":"ce4bgvp2rcd13ifvqct0","pricing_plan_id":"cebpf4jnsgd1na2vs0mg"},{"bike_id":"254db809-d603-4868-be95-eb61ba19bc37","system_id":"levelo_inurba_marseille","lat":43.337454,"lon":5.374621,"is_reserved":false,"is_disabled":false,"rental_uris":{"android":"levelo://app?vid=254db809-d603-4868-be95-eb61ba19bc37","ios":"levelo://app?vid=254db809-d603-4868-be95-eb61ba19bc37"},"vehicle_type_id":"4","last_reported":1708448776,"current_range_meters":26000,"station_id":"","pricing_plan_id":"cebpf4jnsgd1na2vs0mg"},{"bike_id":"b1c83910-604f-4632-ba4e-8963b40857c4","system_id":"levelo_inurba_marseille","lat":43.309371,"lon":5.401449,"is_reserved":false,"is_disabled":false,"rental_uris":{"android":"levelo://app?vid=b1c83910-604f-4632-ba4e-8963b40857c4","ios":"levelo://app?vid=b1c83910-604f-4632-ba4e-8963b40857c4"},"vehicle_type_id":"4","last_reported":1708448776,"current_range_meters":18800,"station_id":"ce4bgvp2rcd13ifvqct0","pricing_plan_id":"cebpf4jnsgd1na2vs0mg"},{"bike_id":"bee98f28-a687-44a1-a0fc-44985e86dc27","system_id":"levelo_inurba_marseille","lat":43.337538,"lon":5.374521,"is_reserved":false,"is_disabled":false,"rental_uris":{"android":"levelo://app?vid=bee98f28-a687-44a1-a0fc-44985e86dc27","ios":"levelo://app?vid=bee98f28-a687-44a1-a0fc-44985e86dc27"},"vehicle_type_id":"4","last_reported":1708448776,"current_range_meters":11200,"station_id":"","pricing_plan_id":"cebpf4jnsgd1na2vs0mg"},{"bike_id":"412726f3-2ba2-43ca-bb4a-482d212e5a30","system_id":"levelo_inurba_marseille","lat":43.306412,"lon":5.401035,"is_reserved":false,"is_disabled":false,"rental_uris":{"android":"levelo://app?vid=412726f3-2ba2-43ca-bb4a-482d212e5a30","ios":"levelo://app?vid=412726f3-2ba2-43ca-bb4a-482d212e5a30"},"vehicle_type_id":"4","last_reported":1708448776,"current_range_meters":13600,"station_id":"ce4bh112rcd13ifvqda0","pricing_plan_id":"cebpf4jnsgd1na2vs0mg"},{"bike_id":"1ac68a25-0518-4254-be31-65dbadbe4dab","system_id":"levelo_inurba_marseille","lat":43.295196,"lon":5.39397,"is_reserved":false,"is_disabled":false,"rental_uris":{"android":"levelo://app?vid=1ac68a25-0518-4254-be31-65dbadbe4dab","ios":"levelo://app?vid=1ac68a25-0518-4254-be31-65dbadbe4dab"},"vehicle_type_id":"4","last_reported":1708448776,"current_range_meters":3200,"station_id":"ce4bh292rcd13ifvqdf0","pricing_plan_id":"cebpf4jnsgd1na2vs0mg"},{"bike_id":"b93ef850-4d36-43cb-9d70-4b2aeaabd4b9","system_id":"levelo_inurba_marseille","lat":43.30642,"lon":5.401031,"is_reserved":false,"is_disabled":false,"rental_uris":{"android":"levelo://app?vid=b93ef850-4d36-43cb-9d70-4b2aeaabd4b9","ios":"levelo://app?vid=b93ef850-4d36-43cb-9d70-4b2aeaabd4b9"},"vehicle_type_id":"4","last_reported":1708448776,"current_range_meters":3200,"station_id":"ce4bh112rcd13ifvqda0","pricing_plan_id":"cebpf4jnsgd1na2vs0mg"},{"bike_id":"7c6940ed-416e-47db-8844-9ee14e7984f6","system_id":"levelo_inurba_marseille","lat":43.301117,"lon":5.398795,"is_reserved":false,"is_disabled":false,"rental_uris":{"android":"levelo://app?vid=7c6940ed-416e-47db-8844-9ee14e7984f6","ios":"levelo://app?vid=7c6940ed-416e-47db-8844-9ee14e7984f6"},"vehicle_type_id":"4","last_reported":1708448776,"current_range_meters":0,"station_id":"ce4bh0h2rcd13ifvqd40","pricing_plan_id":"cebpf4jnsgd1na2vs0mg"},{"bike_id":"8784692f-2725-426a-adb7-7126f3ad3010","system_id":"levelo_inurba_marseille","lat":43.301117,"lon":5.398795,"is_reserved":false,"is_disabled":false,"rental_uris":{"android":"levelo://app?vid=8784692f-2725-426a-adb7-7126f3ad3010","ios":"levelo://app?vid=8784692f-2725-426a-adb7-7126f3ad3010"},"vehicle_type_id":"4","last_reported":1708448776,"current_range_meters":18400,"station_id":"ce4bh0h2rcd13ifvqd40","pricing_plan_id":"cebpf4jnsgd1na2vs0mg"},{"bike_id":"0f431519-c82f-4ecd-a4f8-d1d1b01ed28b","system_id":"levelo_inurba_marseille","lat":43.301117,"lon":5.398795,"is_reserved":false,"is_disabled":false,"rental_uris":{"android":"levelo://app?vid=0f431519-c82f-4ecd-a4f8-d1d1b01ed28b","ios":"levelo://app?vid=0f431519-c82f-4ecd-a4f8-d1d1b01ed28b"},"vehicle_type_id":"4","last_reported":1708448776,"current_range_meters":27600,"station_id":"ce4bh0h2rcd13ifvqd40","pricing_plan_id":"cebpf4jnsgd1na2vs0mg"},{"bike_id":"ec7a2338-558f-4f06-97e1-f5e93d76affe","system_id":"levelo_inurba_marseille","lat":43.301117,"lon":5.398795,"is_reserved":false,"is_disabled":false,"rental_uris":{"android":"levelo://app?vid=ec7a2338-558f-4f06-97e1-f5e93d76affe","ios":"levelo://app?vid=ec7a2338-558f-4f06-97e1-f5e93d76affe"},"vehicle_type_id":"4","last_reported":1708448776,"current_range_meters":12800,"station_id":"ce4bh0h2rcd13ifvqd40","pricing_plan_id":"cebpf4jnsgd1na2vs0mg"},