{"last_updated":1760724750,"ttl":60,"version":"2.2","data":{"bikes":[{"bike_id":"56e8f168-0239-4dab-a231-9caf80fb776c","system_id":"levelo_inurba_marseille","lat":43.292676,"lon":5.376168,"is_reserved":false,"is_disabled":false,"rental_uris":{"android":"levelo://app?vid=56e8f168-0239-4dab-a231-9caf80fb776c","ios":"levelo://app?vid=56e8f168-0239-4dab-a231-9caf80fb776c"},"vehicle_type_id":"4","last_reported":1760724750,"current_range_meters":2800,"station_id":"","pricing_plan_id":"cebpf4jnsgd1na2vs0mg"},{"bike_id":"6453930e-9e58-48d2-aa64-d24b59840682","system_id":"levelo_inurba_marseille","lat":43.2899,"lon":5.37831,"is_reserved":false,"is_disabled":false,"rental_uris":{"android":"levelo://app?vid=6453930e-9e58-48d2-aa64-d24b59840682","ios":"levelo://app?vid=6453930e-9e58-48d2-aa64-d24b59840682"},"vehicle_type_id":"4","last_reported":1760724750,"current_range_meters":2800,"station_id":"ce4bh9p2rcd13ifvqed0","pricing_plan_id":"cebpf4jnsgd1na2vs0mg"},{"bike_id":"a8681643-a1c2-426c-ad7b-a7627a57f141","system_id":"levelo_inurba_marseille","lat":43.29096,"lon":5.38142,"is_reserved":false,"is_disabled":false,"rental_uris":{"android":"levelo://app?vid=a8681643-a1c2-426c-ad7b-a7627a57f141","ios":"levelo://app?vid=a8681643-a1c2-426c-ad7b-a7627a57f141"},"vehicle_type_id":"4","last_reported":1760724750,"current_range_meters":2800,"station_id":"ce4bh512rcd13ifvqe2g","pricing_plan_id":"cebpf4jnsgd1na2vs0mg"},{"bike_id":"28a70050-8d8a-4ce7-9842-2a3ce9f8ee1d","system_id":"levelo_inurba_marseille","lat":43.292633,"lon":5.38442,"is_reserved":false,"is_disabled":false,"rental_uris":{"android":"levelo://app?vid=28a70050-8d8a-4ce7-9842-2a3ce9f8ee1d","ios":"levelo://app?vid=28a70050-8d8a-4ce7-9842-2a3ce9f8ee1d"},"vehicle_type_id":"4","last_reported":1760724750,"current_range_meters":2800,"station_id":"","pricing_plan_id":"cebpf4jnsgd1na2vs0mg"},{"bike_id":"e7d5ecbf-0c48-4b3e-9f5a-2f033dce6c4e","system_id":"levelo_inurba_marseille","lat":43.28719,"lon":5.37927,"is_reserved":false,"is_disabled":false,"rental_uris":{"android":"levelo://app?vid=e7d5ecbf-0c48-4b3e-9f5a-2f033dce6c4e","ios":"levelo://app?vid=e7d5ecbf-0c48-4b3e-9f5a-2f033dce6c4e"},"vehicle_type_id":"4","last_reported":1760724750,"current_range_meters":2800,"station_id":"ce4bh9p2rcd13ifvqec0","pricing_plan_id":"cebpf4jnsgd1na2vs0mg"},{"bike_id":"4964f183-d8e4-47ac-a041-ef1adc55c873","system_id":"levelo_inurba_marseille","lat":43.32525,"lon":5.41453,"is_reserved":false,"is_disabled":false,"rental_uris":{"android":"levelo://app?vid=4964f183-d8e4-47ac-a041-ef1adc55c873","ios":"levelo://app?vid=4964f183-d8e4-47ac-a041-ef1adc55c873"},"vehicle_type_id":"4","last_reported":1760724750,"current_range_meters":2800,"station_id":"ce4bhq12rcd13ifvqhhg","pricing_plan_id":"cebpf4jnsgd1na2vs0mg"},{"bike_id":"61c1dc5b-4797-4494-b2e8-e5e035a2af2c","system_id":"levelo_inurba_marseille","lat":43.22934,"lon":5.35379,"is_reserved":false,"is_disabled":false,"rental_uris":{"android":"levelo://app?vid=61c1dc5b-4797-4494-b2e8-e5e035a2af2c","ios":"levelo://app?vid=61c1dc5b-4797-4494-b2e8-e5e035a2af2c"},"vehicle_type_id":"4","last_reported":1760724750,"current_range_meters":3200,"station_id":"cpo3532slgdg3j2ikp40","pricing_plan_id":"cebpf4jnsgd1na2vs0mg"},{"bike_id":"b0e3fac0-2cba-43db-8a27-05393f9977ec","system_id":"levelo_inurba_marseille","lat":43.297242,"lon":5.373265,"is_reserved":false,"is_disabled":false,"rental_uris":{"android":"levelo://app?vid=b0e3fac0-2cba-43db-8a27-05393f9977ec","ios":"levelo://app?vid=b0e3fac0-2cba-43db-8a27-05393f9977ec"},"vehicle_type_id":"4","last_reported":1760724750,"current_range_meters":3200,"station_id":"","pricing_plan_id":"cebpf4jnsgd1na2vs0mg"},{"bike_id":"b187f296-360b-4949-b43b-c2a8a228c369","system_id":"levelo_inurba_marseille","lat":43.30954,"lon":5.39026,"is_reserved":false,"is_disabled":false,"rental_uris":{"android":"levelo://app?vid=b187f296-360b-4949-b43b-c2a8a228c369","ios":"levelo://app?vid=b187f296-360b-4949-b43b-c2a8a228c369"},"vehicle_type_id":"4","last_reported":1760724750,"current_range_meters":3200,"station_id":"ce4bgup2rcd13ifvqco0","pricing_plan_id":"cebpf4jnsgd1na2vs0mg"},{"bike_id":"4145d449-92bb-4cb1-a9e8-b98aaa1fab0e","system_id":"levelo_inurba_marseille","lat":43.30539,"lon":5.38436,"is_reserved":false,"is_disabled":false,"rental_uris":{"android":"levelo://app?vid=4145d449-92bb-4cb1-a9e8-b98aaa1fab0e","ios":"levelo://app?vid=4145d449-92bb-4cb1-a9e8-b98aaa1fab0e"},"vehicle_type_id":"4","last_reported":1760724750,"current_range_meters":3200,"station_id":"ce4bgg92rcd13ifvqb30","pricing_plan_id":"cebpf4jnsgd1na2vs0mg"},{"bike_id":"c23f5b9a-c4c4-4eb5-8463-6d5e6b94bd00","system_id":"levelo_inurba_marseille","lat":43.30434,"lon":5.38895,"is_reserved":false,"is_disabled":false,"rental_uris":{"android":"levelo://app?vid=c23f5b9a-c4c4-4eb5-8463-6d5e6b94bd00","ios":"levelo://app?vid=c23f5b9a-c4c4-4eb5-8463-6d5e6b94bd00"},"vehicle_type_id":"4","last_reported":1760724750,"current_range_meters":3200,"station_id":"ce4bgk12rcd13ifvqbi0","pricing_plan_id":"cebpf4jnsgd1na2vs0mg"},{"bike_id":"fdce9775-0a56-4570-ac88-4cac01d15568","system_id":"levelo_inurba_marseille","lat":43.28939,"lon":5.36636,"is_reserved":false,"is_disabled":false,"rental_uris":{"android":"levelo://app?vid=fdce9775-0a56-4570-ac88-4cac01d15568","ios":"levelo://app?vid=fdce9775-0a56-4570-ac88-4cac01d15568"},"vehicle_type_id":"4","last_reported":1760724750,"current_range_meters":3600,"station_id":"ce4bhap2rcd13ifvqek0","pricing_plan_id":"cebpf4jnsgd1na2vs0mg"},{"bike_id":"3edab69d-5ea9-42aa-bc73-69130f15aab5","system_id":"levelo_inurba_marseille","lat":43.2853,"lon":5.44094,"is_reserved":false,"is_disabled":false,"rental_uris":{"android":"levelo://app?vid=3edab69d-5ea9-42aa-bc73-69130f15aab5","ios":"levelo://app?vid=3edab69d-5ea9-42aa-bc73-69130f15aab5"},"vehicle_type_id":"4","last_reported":1760724750,"current_range_meters":3600,"station_id":"st_d3j3df2ikq2c7380ej80","pricing_plan_id":"cebpf4jnsgd1na2vs0mg"},{"bike_id":"9e6daab5-8cc7-439c-af5e-eb7a011380a8","system_id":"levelo_inurba_marseille","lat":43.29133,"lon":5.380868,"is_reserved":false,"is_disabled":false,"rental_uris":{"android":"levelo://app?vid=9e6daab5-8cc7-439c-af5e-eb7a011380a8","ios":"levelo://app?vid=9e6daab5-8cc7-439c-af5e-eb7a011380a8"},"vehicle_type_id":"4","last_reported":1760724750,"current_range_meters":3600,"station_id":"ce4bh512rcd13ifvqe2g","pricing_plan_id":"cebpf4jnsgd1na2vs0mg"},{"bike_id":"de291b7e-f3c9-4d25-9d18-b9efc04404ed","system_id":"levelo_inurba_marseille","lat":43.29575,"lon":5.37501,"is_reserved":false,"is_disabled":false,"rental_uris":{"android":"levelo://app?vid=de291b7e-f3c9-4d25-9d18-b9efc04404ed","ios":"levelo://app?vid=de291b7e-f3c9-4d25-9d18-b9efc04404ed"},"vehicle_type_id":"4","last_reported":1760724750,"current_range_meters":3600,"station_id":"ce4bgh92rcd13ifvqb50","pricing_plan_id":"cebpf4jnsgd1na2vs0mg"},{"bike_id":"6cd16192-c813-4136-876c-ae8ebf20d344","system_id":"levelo_inurba_marseille","lat":43.337645,"lon":5.37477,"is_reserved":false,"is_disabled":false,"rental_uris":{"android":"levelo://app?vid=6cd16192-c813-4136-876c-ae8ebf20d344","ios":"levelo://app?vid=6cd16192-c813-4136-876c-ae8ebf20d344"},"vehicle_type_id":"4","last_reported":1760724750,"current_range_meters":3600,"station_id":"","pricing_plan_id":"cebpf4jnsgd1na2vs0mg"},{"bike_id":"78ca3a0f-a83e-41ce-8238-31a445441a43","system_id":"levelo_inurba_marseille","lat":43.24945,"lon":5.40489,"is_reserved":false,"is_disabled":false,"rental_uris":{"android":"levelo://app?vid=78ca3a0f-a83e-41ce-8238-31a445441a43","ios":"levelo://app?vid=78ca3a0f-a83e-41ce-8238-31a445441a43"},"vehicle_type_id":"4","last_reported":1760724750,"current_range_meters":3600,"station_id":"st_d2ngiaodas8pm72gd1h0","pricing_plan_id":"cebpf4jnsgd1na2vs0mg"},{"bike_id":"ecd9150a-82d1-439a-8ac1-0ab83b979277","system_id":"levelo_inurba_marseille","lat":43.30793,"lon":5.43532,"is_reserved":false,"is_disabled":true,"rental_uris":{"android":"levelo://app?vid=ecd9150a-82d1-439a-8ac1-0ab83b979277","ios":"levelo://app?vid=ecd9150a-82d1-439a-8ac1-0ab83b979277"},"vehicle_type_id":"4","last_reported":1760724750,"current_range_meters":3600,"station_id":"ce4bhph2rcd13ifvqheg","pricing_plan_id":"cebpf4jnsgd1na2vs0mg"},{"bike_id":"22f1cc7b-e649-4d62-bd07-67dd7a35a324","system_id":"levelo_inurba_marseille","lat":43.29898,"lon":5.38149,"is_reserved":false,"is_disabled":false,"rental_uris":{"android":"levelo://app?vid=22f1cc7b-e649-4d62-bd07-67dd7a35a324","ios":"levelo://app?vid=22f1cc7b-e649-4d62-bd07-67dd7a35a324"},"vehicle_type_id":"4","last_reported":1760724750,"current_range_meters":3600,"station_id":"ce4bgj12rcd13ifvqbc0","pricing_plan_id":"cebpf4jnsgd1na2vs0mg"},{"bike_id":"257a6776-5a2c-4980-96bb-2dc9ff3dc279","system_id":"levelo_inurba_marseille","lat":43.31689,"lon":5.40479,"is_reserved":false,"is_disabled":false,"rental_uris":{"android":"levelo://app?vid=257a6776-5a2c-4980-96bb-2dc9ff3dc279","ios":"levelo://app?vid=257a6776-5a2c-4980-96bb-2dc9ff3dc279"},"vehicle_type_id":"4","last_reported":1760724750,"current_range_meters":3600,"station_id":"ce4bh012rcd13ifvqd00","pricing_plan_id":"cebpf4jnsgd1na2vs0mg"},{"bike_id":"5fe3d43a-d60e-4ee9-9cd3-4e6fe21c4948","system_id":"levelo_inurba_marseille","lat":43.27997,"lon":5.4001,"is_reserved":false,"is_disabled":false,"rental_uris":{"android":"levelo://app?vid=5fe3d43a-d60e-4ee9-9cd3-4e6fe21c4948","ios":"levelo://app?vid=5fe3d43a-d60e-4ee9-9cd3-4e6fe21c4948"},"vehicle_type_id":"4","last_reported":1760724750,"current_range_meters":3600,"station_id":"ce4bho92rcd13ifvqh4g","pricing_plan_id":"cebpf4jnsgd1na2vs0mg"},{"bike_id":"072c4232-3f2a-41a5-a815-8c0dd111bc9e","system_id":"levelo_inurba_marseille","lat":43.30087,"lon":5.39094,"is_reserved":false,"is_disabled":false,"rental_uris":{"android":"levelo://app?vid=072c4232-3f2a-41a5-a815-8c0dd111bc9e","ios":"levelo://app?vid=072c4232-3f2a-41a5-a815-8c0dd111bc9e"},"vehicle_type_id":"4","last_reported":1760724750,"current_range_meters":4000,"station_id":"ce4bh192rcd13ifvqdb0","pricing_plan_id":"cebpf4jnsgd1na2vs0mg"},{"bike_id":"ac2f6ef8-1cca-41f5-810d-6444568f3e4e","system_id":"levelo_inurba_marseille","lat":43.29266,"lon":5.38449,"is_reserved":false,"is_disabled":false,"rental_uris":{"android":"levelo://app?vid=ac2f6ef8-1cca-41f5-810d-6444568f3e4e","ios":"levelo://app?vid=ac2f6ef8-1cca-41f5-810d-6444568f3e4e"},"vehicle_type_id":"4","last_reported":1760724750,"current_range_meters":4000,"station_id":"ce4bh692rcd13ifvqea0","pricing_plan_id":"cebpf4jnsgd1na2vs0mg"},{"bike_id":"4bed3db5-afd0-42f0-a702-277bba13692a","system_id":"levelo_inurba_marseille","lat":43.26552,"lon":5.37283,"is_reserved":false,"is_disabled":false,"rental_uris":{"android":"levelo://app?vid=4bed3db5-afd0-42f0-a702-277bba13692a","ios":"levelo://app?vid=4bed3db5-afd0-42f0-a702-277bba13692a"},"vehicle_type_id":"4","last_reported":1760724750,"current_range_meters":4000,"station_id":"ce4bhg12rcd13ifvqf70","pricing_plan_id":"cebpf4jnsgd1na2vs0mg"},{"bike_id":"d68b41be-366f-40d7-a414-434cfe0517a5","system_id":"levelo_inurba_marseille","lat":43.317655,"lon":5.422213,"is_reserved":false,"is_disabled":false,"rental_uris":{"android":"levelo://app?vid=d68b41be-366f-40d7-a414-434cfe0517a5","ios":"levelo://app?vid=d68b41be-366f-40d7-a414-434cfe0517a5"},"vehicle_type_id":"4","last_reported":1760724750,"current_range_meters":4400,"station_id":"","pricing_plan_id":"cebpf4jnsgd1na2vs0mg"},{"bike_id":"b0431c36-9113-4164-880b-86e036bb3ea6","system_id":"levelo_inurba_marseille","lat":43.292664,"lon":5.384512,"is_reserved":false,"is_disabled":false,"rental_uris":{"android":"levelo://app?vid=b0431c36-9113-4164-880b-86e036bb3ea6","ios":"levelo://app?vid=b0431c36-9113-4164-880b-86e036bb3ea6"},"vehicle_type_id":"4","last_reported":1760724750,"current_range_meters":4400,"station_id":"ce4bh692rcd13ifvqea0","pricing_plan_id":"cebpf4jnsgd1na2vs0mg"},{"bike_id":"aad2a146-5ab2-46c5-9d5d-de1bd1671bec","system_id":"levelo_inurba_marseille","lat":43.28042,"lon":5.36951,"is_reserved":false,"is_disabled":false,"rental_uris":{"android":"levelo://app?vid=aad2a146-5ab2-46c5-9d5d-de1bd1671bec","ios":"levelo://app?vid=aad2a146-5ab2-46c5-9d5d-de1bd1671bec"},"vehicle_type_id":"4","last_reported":1760724750,"current_range_meters":4400,"station_id":"ce4bha12rcd13ifvqef0","pricing_plan_id":"cebpf4jnsgd1na2vs0mg"},{"bike_id":"a794a8d7-b0f4-4816-9567-10e9d8cf2529","system_id":"levelo_inurba_marseille","lat":43.27347,"lon":5.39091,"is_reserved":false,"is_disabled":false,"rental_uris":{"android":"levelo://app?vid=a794a8d7-b0f4-4816-9567-10e9d8cf2529","ios":"levelo://app?vid=a794a8d7-b0f4-4816-9567-10e9d8cf2529"},"vehicle_type_id":"4","last_reported":1760724750,"current_range_meters":4800,"station_id":"","pricing_plan_id":"cebpf4jnsgd1na2vs0mg"},{"bike_id":"6e53393b-2541-4632-b4df-5f0114b61fb8","system_id":"levelo_inurba_marseille","lat":43.29271,"lon":5.37635,"is_reserved":false,"is_disabled":false,"rental_uris":{"android":"levelo://app?vid=6e53393b-2541-4632-b4df-5f0114b61fb8","ios":"levelo://app?vid=6e53393b-2541-4632-b4df-5f0114b61fb8"},"vehicle_type_id":"4","last_reported":1760724750,"current_range_meters":4800,"station_id":"ce4bgi12rcd13ifvqb80","pricing_plan_id":"cebpf4jnsgd1na2vs0mg"},{"bike_id":"97da101a-f54f-4387-a5e3-ba87a77d7c4d","system_id":"levelo_inurba_marseille","lat":43.25589,"lon":5.38232,"is_reserved":false,"is_disabled":false,"rental_uris":{"android":"levelo://app?vid=97da101a-f54f-4387-a5e3-ba87a77d7c4d","ios":"levelo://app?vid=97da101a-f54f-4387-a5e3-ba87a77d7c4d"},"vehicle_type_id":"4","last_reported":1760724750,"current_range_meters":4800,"station_id":"ce4bhih2rcd13ifvqfs0","pricing_plan_id":"cebpf4jnsgd1na2vs0mg"},{"bike_id":"5f81f7f1-d1ca-4b83-9891-6694bd42dbc5","system_id":"levelo_inurba_marseille","lat":43.30254,"lon":5.40084,"is_reserved":false,"is_disabled":false,"rental_uris":{"android":"levelo://app?vid=5f81f7f1-d1ca-4b83-9891-6694bd42dbc5","ios":"levelo://app?vid=5f81f7f1-d1ca-4b83-9891-6694bd42dbc5"},"vehicle_type_id":"4","last_reported":1760724750,"current_range_meters":4800,"station_id":"ce4bgvh2rcd13ifvqcs0","pricing_plan_id":"cebpf4jnsgd1na2vs0mg"},{"bike_id":"eb3885db-4c82-435f-8673-adae5a40bb40","system_id":"levelo_inurba_marseille","lat":43.29257,"lon":5.38441,"is_reserved":false,"is_disabled":false,"rental_uris":{"android":"levelo://app?vid=eb3885db-4c82-435f-8673-adae5a40bb40","ios":"levelo://app?vid=eb3885db-4c82-435f-8673-adae5a40bb40"},"vehicle_type_id":"4","last_reported":1760724750,"current_range_meters":4800,"station_id":"ce4bh692rcd13ifvqea0","pricing_plan_id":"cebpf4jnsgd1na2vs0mg"},{"bike_id":"11eeb4e8-d647-421d-b4de-7ea7c2704ead","system_id":"levelo_inurba_marseille","lat":43.29532,"lon":5.38547,"is_reserved":false,"is_disabled":false,"rental_uris":{"android":"levelo://app?vid=11eeb4e8-d647-421d-b4de-7ea7c2704ead","ios":"levelo://app?vid=11eeb4e8-d647-421d-b4de-7ea7c2704ead"},"vehicle_type_id":"4","last_reported":1760724750,"current_range_meters":4800,"station_id":"ce4bgih2rcd13ifvqba0","pricing_plan_id":"cebpf4jnsgd1na2vs0mg"},{"bike_id":"4c2f646e-fde1-4324-b48a-94a6e710dca8","system_id":"levelo_inurba_marseille","lat":43.29076,"lon":5.38137,"is_reserved":false,"is_disabled":false,"rental_uris":{"android":"levelo://app?vid=4c2f646e-fde1-4324-b48a-94a6e710dca8","ios":"levelo://app?vid=4c2f646e-fde1-4324-b48a-94a6e710dca8"},"vehicle_type_id":"4","last_reported":1760724750,"current_range_meters":4800,"station_id":"ce4bh512rcd13ifvqe2g","pricing_plan_id":"cebpf4jnsgd1na2vs0mg"},{"bike_id":"312eb4f1-c610-419f-a1a3-3297f9a7b330","system_id":"levelo_inurba_marseille","lat":43.265785,"lon":5.403219,"is_reserved":false,"is_disabled":false,"rental_uris":{"android":"levelo://app?vid=312eb4f1-c610-419f-a1a3-3297f9a7b330","ios":"levelo://app?vid=312eb4f1-c610-419f-a1a3-3297f9a7b330"},"vehicle_type_id":"4","last_reported":1760724750,"current_range_meters":4800,"station_id":"ce4bhmp2rcd13ifvqgng","pricing_plan_id":"cebpf4jnsgd1na2vs0mg"},{"bike_id":"e122f553-902c-44c9-97a4-2f35754a19de","system_id":"levelo_inurba_marseille","lat":43.28945,"lon":5.36392,"is_reserved":false,"is_disabled":false,"rental_uris":{"android":"levelo://app?vid=e122f553-902c-44c9-97a4-2f35754a19de","ios":"levelo://app?vid=e122f553-902c-44c9-97a4-2f35754a19de"},"vehicle_type_id":"4","last_reported":1760724750,"current_range_meters":5600,"station_id":"ce4bhc92rcd13ifvqetg","pricing_plan_id":"cebpf4jnsgd1na2vs0mg"},{"bike_id":"af96e380-ef8b-412e-8dbe-07ad526806b5","system_id":"levelo_inurba_marseille","lat":43.33772,"lon":5.37436,"is_reserved":false,"is_disabled":false,"rental_uris":{"android":"levelo://app?vid=af96e380-ef8b-412e-8dbe-07ad526806b5","ios":"levelo://app?vid=af96e380-ef8b-412e-8dbe-07ad526806b5"},"vehicle_type_id":"4","last_reported":1760724750,"current_range_meters":5600,"station_id":"","pricing_plan_id":"cebpf4jnsgd1na2vs0mg"},{"bike_id":"f5ab5ff3-806c-40b8-b7e7-743dbb444ec9","system_id":"levelo_inurba_marseille","lat":43.31687,"lon":5.40478,"is_reserved":false,"is_disabled":false,"rental_uris":{"android":"levelo://app?vid=f5ab5ff3-806c-40b8-b7e7-743dbb444ec9","ios":"levelo://app?vid=f5ab5ff3-806c-40b8-b7e7-743dbb444ec9"},"vehicle_type_id":"4","last_reported":1760724750,"current_range_meters":5600,"station_id":"ce4bh012rcd13ifvqd00","pricing_plan_id":"cebpf4jnsgd1na2vs0mg"},{"bike_id":"15c1f9d5-c199-4da8-9d97-2402b825318d","system_id":"levelo_inurba_marseille","lat":43.2977,"lon":5.427817,"is_reserved":false,"is_disabled":false,"rental_uris":{"android":"levelo://app?vid=15c1f9d5-c199-4da8-9d97-2402b825318d","ios":"levelo://app?vid=15c1f9d5-c199-4da8-9d97-2402b825318d"},"vehicle_type_id":"4","last_reported":1760724750,"current_range_meters":5600,"station_id":"st_d3md5207bmas73dh9klg","pricing_plan_id":"cebpf4jnsgd1na2vs0mg"},{"bike_id":"a433a165-6421-471d-b7be-81080a4aab71","system_id":"levelo_inurba_marseille","lat":43.30147,"lon":5.38086,"is_reserved":false,"is_disabled":false,"rental_uris":{"android":"levelo://app?vid=a433a165-6421-471d-b7be-81080a4aab71","ios":"levelo://app?vid=a433a165-6421-471d-b7be-81080a4aab71"},"vehicle_type_id":"4","last_reported":1760724750,"current_range_meters":5600,"station_id":"ce4bgjp2rcd13ifvqbh0","pricing_plan_id":"cebpf4jnsgd1na2vs0mg"},{"bike_id":"29b5980b-54ca-4a56-8fe7-fd8804799cf3","system_id":"levelo_inurba_marseille","lat":43.2851,"lon":5.44137,"is_reserved":false,"is_disabled":false,"rental_uris":{"android":"levelo://app?vid=29b5980b-54ca-4a56-8fe7-fd8804799cf3","ios":"levelo://app?vid=29b5980b-54ca-4a56-8fe7-fd8804799cf3"},"vehicle_type_id":"4","last_reported":1760724750,"current_range_meters":5600,"station_id":"st_d3j3df2ikq2c7380ej80","pricing_plan_id":"cebpf4jnsgd1na2vs0mg"},{"bike_id":"b14f48fc-83c2-43d5-a60c-3d0019cae2de","system_id":"levelo_inurba_marseille","lat":43.21191,"lon":5.35074,"is_reserved":false,"is_disabled":false,"rental_uris":{"android":"levelo://app?vid=b14f48fc-83c2-43d5-a60c-3d0019cae2de","ios":"levelo://app?vid=b14f48fc-83c2-43d5-a60c-3d0019cae2de"},"vehicle_type_id":"4","last_reported":1760724750,"current_range_meters":6000,"station_id":"st_cvj6sg6p6f1abm77japg","pricing_plan_id":"cebpf4jnsgd1na2vs0mg"},{"bike_id":"817e90b6-3500-48bf-9da7-dcd6a192f2f5","system_id":"levelo_inurba_marseille","lat":43.31531,"lon":5.38017,"is_reserved":false,"is_disabled":true,"rental_uris":{"android":"levelo://app?vid=817e90b6-3500-48bf-9da7-dcd6a192f2f5","ios":"levelo://app?vid=817e90b6-3500-48bf-9da7-dcd6a192f2f5"},"vehicle_type_id":"4","last_reported":1760724750,"current_range_meters":6000,"station_id":"ce4bhsp2rcd13ifvqi50","pricing_plan_id":"cebpf4jnsgd1na2vs0mg"},{"bike_id":"386a2090-2da5-49d6-a85c-2b06a3142a02","system_id":"levelo_inurba_marseille","lat":43.29884,"lon":5.38899,"is_reserved":false,"is_disabled":false,"rental_uris":{"android":"levelo://app?vid=386a2090-2da5-49d6-a85c-2b06a3142a02","ios":"levelo://app?vid=386a2090-2da5-49d6-a85c-2b06a3142a02"},"vehicle_type_id":"4","last_reported":1760724750,"current_range_meters":6000,"station_id":"ce4bh392rcd13ifvqdl0","pricing_plan_id":"cebpf4jnsgd1na2vs0mg"},{"bike_id":"6dd76980-addb-4318-a913-b62ec1ac0f76","system_id":"levelo_inurba_marseille","lat":43.280013,"lon":5.400147,"is_reserved":false,"is_disabled":false,"rental_uris":{"android":"levelo://app?vid=6dd76980-addb-4318-a913-b62ec1ac0f76","ios":"levelo://app?vid=6dd76980-addb-4318-a913-b62ec1ac0f76"},"vehicle_type_id":"4","last_reported":1760724750,"current_range_meters":6000,"station_id":"ce4bho92rcd13ifvqh4g","pricing_plan_id":"cebpf4jnsgd1na2vs0mg"},{"bike_id":"7856590a-1572-412a-918e-77843d1b598a","system_id":"levelo_inurba_marseille","lat":43.281005,"lon":5.421795,"is_reserved":false,"is_disabled":false,"rental_uris":{"android":"levelo://app?vid=7856590a-1572-412a-918e-77843d1b598a","ios":"levelo://app?vid=7856590a-1572-412a-918e-77843d1b598a"},"vehicle_type_id":"4","last_reported":1760724750,"current_range_meters":6000,"station_id":"","pricing_plan_id":"cebpf4jnsgd1na2vs0mg"},{"bike_id":"7a63795d-d6ae-4db3-866d-c16b2af002f1","system_id":"levelo_inurba_marseille","lat":43.29972,"lon":5.37545,"is_reserved":false,"is_disabled":false,"rental_uris":{"android":"levelo://app?vid=7a63795d-d6ae-4db3-866d-c16b2af002f1","ios":"levelo://app?vid=7a63795d-d6ae-4db3-866d-c16b2af002f1"},"vehicle_type_id":"4","last_reported":1760724750,"current_range_meters":6000,"station_id":"","pricing_plan_id":"cebpf4jnsgd1na2vs0mg"},{"bike_id":"7cd60634-9322-489f-a4c9-90ff03607b3a","system_id":"levelo_inurba_marseille","lat":43.29511,"lon":5.39052,"is_reserved":false,"is_disabled":false,"rental_uris":{"android":"levelo://app?vid=7cd60634-9322-489f-a4c9-90ff03607b3a","ios":"levelo://app?vid=7cd60634-9322-489f-a4c9-90ff03607b3a"},"vehicle_type_id":"4","last_reported":1760724750,"current_range_meters":6000,"station_id":"ce4bh3p2rcd13ifvqdp0","pricing_plan_id":"cebpf4jnsgd1na2vs0mg"},{"bike_id":"7e444206-20cf-47e2-a819-82c6ab3d59a7","system_id":"levelo_inurba_marseille","lat":43.33747,"lon":5.40681,"is_reserved":false,"is_disabled":false,"rental_uris":{"android":"levelo://app?vid=7e444206-20cf-47e2-a819-82c6ab3d59a7","ios":"levelo://app?vid=7e444206-20cf-47e2-a819-82c6ab3d59a7"},"vehicle_type_id":"4","last_reported":1760724750,"current_range_meters":6000,"station_id":"","pricing_plan_id":"cebpf4jnsgd1na2vs0mg"},{"bike_id":"1dc3768d-0b4e-4859-817c-5a4ee299d7ad","system_id":"levelo_inurba_marseille","lat":43.29712,"lon":5.37894,"is_reserved":false,"is_disabled":false,"rental_uris":{"android":"levelo://app?vid=1dc3768d-0b4e-4859-817c-5a4ee299d7ad","ios":"levelo://app?vid=1dc3768d-0b4e-4859-817c-5a4ee299d7ad"},"vehicle_type_id":"4","last_reported":1760724750,"current_range_meters":6000,"station_id":"","pricing_plan_id":"cebpf4jnsgd1na2vs0mg"},{"bike_id":"cd51446c-04a2-4925-97df-3fd8c4d84e0b","system_id":"levelo_inurba_marseille","lat":43.25819,"lon":5.39436,"is_reserved":false,"is_disabled":false,"rental_uris":{"android":"levelo://app?vid=cd51446c-04a2-4925-97df-3fd8c4d84e0b","ios":"levelo://app?vid=cd51446c-04a2-4925-97df-3fd8c4d84e0b"},"vehicle_type_id":"4","last_reported":1760724750,"current_range_meters":6400,"station_id":"","pricing_plan_id":"cebpf4jnsgd1na2vs0mg"},{"bike_id":"d74641b5-9143-4fbf-9324-ebcf6db7700b","system_id":"levelo_inurba_marseille","lat":43.28485,"lon":5.38555,"is_reserved":false,"is_disabled":false,"rental_uris":{"android":"levelo://app?vid=d74641b5-9143-4fbf-9324-ebcf6db7700b","ios":"levelo://app?vid=d74641b5-9143-4fbf-9324-ebcf6db7700b"},"vehicle_type_id":"4","last_reported":1760724750,"current_range_meters":6400,"station_id":"ce4bh8p2rcd13ifvqeb0","pricing_plan_id":"cebpf4jnsgd1na2vs0mg"},{"bike_id":"0fd39ebc-21c2-4f49-9125-0812ce3f00b9","system_id":"levelo_inurba_marseille","lat":43.27068,"lon":5.42283,"is_reserved":false,"is_disabled":false,"rental_uris":{"android":"levelo://app?vid=0fd39ebc-21c2-4f49-9125-0812ce3f00b9","ios":"levelo://app?vid=0fd39ebc-21c2-4f49-9125-0812ce3f00b9"},"vehicle_type_id":"4","last_reported":1760724750,"current_range_meters":6400,"station_id":"ce4bhk92rcd13ifvqgb0","pricing_plan_id":"cebpf4jnsgd1na2vs0mg"},{"bike_id":"888f88bc-cd09-4de7-990e-0a0e693347d0","system_id":"levelo_inurba_marseille","lat":43.29716,"lon":5.36618,"is_reserved":false,"is_disabled":false,"rental_uris":{"android":"levelo://app?vid=888f88bc-cd09-4de7-990e-0a0e693347d0","ios":"levelo://app?vid=888f88bc-cd09-4de7-990e-0a0e693347d0"},"vehicle_type_id":"4","last_reported":1760724750,"current_range_meters":6400,"station_id":"ce4bgn12rcd13ifvqbt0","pricing_plan_id":"cebpf4jnsgd1na2vs0mg"},{"bike_id":"8b5d1004-a7cf-49e3-9979-f3be8b51a99a","system_id":"levelo_inurba_marseille","lat":43.2606,"lon":5.39399,"is_reserved":false,"is_disabled":false,"rental_uris":{"android":"levelo://app?vid=8b5d1004-a7cf-49e3-9979-f3be8b51a99a","ios":"levelo://app?vid=8b5d1004-a7cf-49e3-9979-f3be8b51a99a"},"vehicle_type_id":"4","last_reported":1760724750,"current_range_meters":6400,"station_id":"ce4bhh92rcd13ifvqfj0","pricing_plan_id":"cebpf4jnsgd1na2vs0mg"},{"bike_id":"93fcaf4b-075b-45a7-aa01-d8dbd66a2f69","system_id":"levelo_inurba_marseille","lat":43.2845,"lon":5.35897,"is_reserved":false,"is_disabled":false,"rental_uris":{"android":"levelo://app?vid=93fcaf4b-075b-45a7-aa01-d8dbd66a2f69","ios":"levelo://app?vid=93fcaf4b-075b-45a7-aa01-d8dbd66a2f69"},"vehicle_type_id":"4","last_reported":1760724750,"current_range_meters":6400,"station_id":"ce4bhah2rcd13ifvqei0","pricing_plan_id":"cebpf4jnsgd1na2vs0mg"},{"bike_id":"df3cd6b7-8f79-4cea-bef3-c7741f2a9e57","system_id":"levelo_inurba_marseille","lat":43.241622,"lon":5.363885,"is_reserved":false,"is_disabled":false,"rental_uris":{"android":"levelo://app?vid=df3cd6b7-8f79-4cea-bef3-c7741f2a9e57","ios":"levelo://app?vid=df3cd6b7-8f79-4cea-bef3-c7741f2a9e57"},"vehicle_type_id":"4","last_reported":1760724750,"current_range_meters":6400,"station_id":"cpo36qri1sfpv3e86is0","pricing_plan_id":"cebpf4jnsgd1na2vs0mg"},{"bike_id":"8f4e5143-1127-445c-9078-6d62b4c56745","system_id":"levelo_inurba_marseille","lat":43.31205,"lon":5.37933,"is_reserved":false,"is_disabled":false,"rental_uris":{"android":"levelo://app?vid=8f4e5143-1127-445c-9078-6d62b4c56745","ios":"levelo://app?vid=8f4e5143-1127-445c-9078-6d62b4c56745"},"vehicle_type_id":"4","last_reported":1760724750,"current_range_meters":6400,"station_id":"","pricing_plan_id":"cebpf4jnsgd1na2vs0mg"},{"bike_id":"662e034f-ec92-417c-a838-68762f3020bc","system_id":"levelo_inurba_marseille","lat":43.30448,"lon":5.36831,"is_reserved":false,"is_disabled":false,"rental_uris":{"android":"levelo://app?vid=662e034f-ec92-417c-a838-68762f3020bc","ios":"levelo://app?vid=662e034f-ec92-417c-a838-68762f3020bc"},"vehicle_type_id":"4","last_reported":1760724750,"current_range_meters":6400,"station_id":"","pricing_plan_id":"cebpf4jnsgd1na2vs0mg"},{"bike_id":"828e43b9-757e-40fc-90fe-dea2d8b6c3b1","system_id":"levelo_inurba_marseille","lat":43.27999,"lon":5.40012,"is_reserved":false,"is_disabled":false,"rental_uris":{"android":"levelo://app?vid=828e43b9-757e-40fc-90fe-dea2d8b6c3b1","ios":"levelo://app?vid=828e43b9-757e-40fc-90fe-dea2d8b6c3b1"},"vehicle_type_id":"4","last_reported":1760724750,"current_range_meters":6400,"station_id":"ce4bho92rcd13ifvqh4g","pricing_plan_id":"cebpf4jnsgd1na2vs0mg"},{"bike_id":"b8bcf54c-302e-490b-8dbe-7726f2a5fe9c","system_id":"levelo_inurba_marseille","lat":43.302517,"lon":5.400712,"is_reserved":false,"is_disabled":false,"rental_uris":{"android":"levelo://app?vid=b8bcf54c-302e-490b-8dbe-7726f2a5fe9c","ios":"levelo://app?vid=b8bcf54c-302e-490b-8dbe-7726f2a5fe9c"},"vehicle_type_id":"4","last_reported":1760724750,"current_range_meters":6400,"station_id":"ce4bgvh2rcd13ifvqcs0","pricing_plan_id":"cebpf4jnsgd1na2vs0mg"},{"bike_id":"1c70599b-f611-471c-964c-78bc32db8188","system_id":"levelo_inurba_marseille","lat":43.29025,"lon":5.38128,"is_reserved":false,"is_disabled":false,"rental_uris":{"android":"levelo://app?vid=1c70599b-f611-471c-964c-78bc32db8188","ios":"levelo://app?vid=1c70599b-f611-471c-964c-78bc32db8188"},"vehicle_type_id":"4","last_reported":1760724750,"current_range_meters":6400,"station_id":"ce4bh4p2rcd13ifvqe1g","pricing_plan_id":"cebpf4jnsgd1na2vs0mg"},{"bike_id":"bc0ac7da-66c8-4334-af98-c44cc036447b","system_id":"levelo_inurba_marseille","lat":43.295312,"lon":5.385547,"is_reserved":false,"is_disabled":false,"rental_uris":{"android":"levelo://app?vid=bc0ac7da-66c8-4334-af98-c44cc036447b","ios":"levelo://app?vid=bc0ac7da-66c8-4334-af98-c44cc036447b"},"vehicle_type_id":"4","last_reported":1760724750,"current_range_meters":6800,"station_id":"ce4bgih2rcd13ifvqba0","pricing_plan_id":"cebpf4jnsgd1na2vs0mg"},{"bike_id":"babff78b-e1f3-4d77-8c32-ed746f3ce280","system_id":"levelo_inurba_marseille","lat":43.32109,"lon":5.36767,"is_reserved":false,"is_disabled":false,"rental_uris":{"android":"levelo://app?vid=babff78b-e1f3-4d77-8c32-ed746f3ce280","ios":"levelo://app?vid=babff78b-e1f3-4d77-8c32-ed746f3ce280"},"vehicle_type_id":"4","last_reported":1760724750,"current_range_meters":6800,"station_id":"ce4bhrh2rcd13ifvqhug","pricing_plan_id":"cebpf4jnsgd1na2vs0mg"},{"bike_id":"be1c4bc2-ea26-4165-ae2c-40ac4665f215","system_id":"levelo_inurba_marseille","lat":43.29411,"lon":5.42869,"is_reserved":false,"is_disabled":true,"rental_uris":{"android":"levelo://app?vid=be1c4bc2-ea26-4165-ae2c-40ac4665f215","ios":"levelo://app?vid=be1c4bc2-ea26-4165-ae2c-40ac4665f215"},"vehicle_type_id":"4","last_reported":1760724750,"current_range_meters":6800,"station_id":"","pricing_plan_id":"cebpf4jnsgd1na2vs0mg"},{"bike_id":"40f228c7-99ca-459f-81db-77fbc09be216","system_id":"levelo_inurba_marseille","lat":43.30796,"lon":5.43532,"is_reserved":false,"is_disabled":false,"rental_uris":{"android":"levelo://app?vid=40f228c7-99ca-459f-81db-77fbc09be216","ios":"levelo://app?vid=40f228c7-99ca-459f-81db-77fbc09be216"},"vehicle_type_id":"4","last_reported":1760724750,"current_range_meters":6800,"station_id":"ce4bhph2rcd13ifvqheg","pricing_plan_id":"cebpf4jnsgd1na2vs0mg"},{"bike_id":"e8b13d6b-3173-4150-b030-ab23ed7277fe","system_id":"levelo_inurba_marseille","lat":43.29075,"lon":5.37179,"is_reserved":false,"is_disabled":false,"rental_uris":{"android":"levelo://app?vid=e8b13d6b-3173-4150-b030-ab23ed7277fe","ios":"levelo://app?vid=e8b13d6b-3173-4150-b030-ab23ed7277fe"},"vehicle_type_id":"4","last_reported":1760724750,"current_range_meters":7200,"station_id":"ce4bh5p2rcd13ifvqe4g","pricing_plan_id":"cebpf4jnsgd1na2vs0mg"},{"bike_id":"1472ce3e-f809-4114-a2a3-ede679135cd2","system_id":"levelo_inurba_marseille","lat":43.27992,"lon":5.40021,"is_reserved":false,"is_disabled":false,"rental_uris":{"android":"levelo://app?vid=1472ce3e-f809-4114-a2a3-ede679135cd2","ios":"levelo://app?vid=1472ce3e-f809-4114-a2a3-ede679135cd2"},"vehicle_type_id":"4","last_reported":1760724750,"current_range_meters":7200,"station_id":"ce4bho92rcd13ifvqh4g","pricing_plan_id":"cebpf4jnsgd1na2vs0mg"},{"bike_id":"47b6a661-48b8-461f-9827-f48295e67bbf","system_id":"levelo_inurba_marseille","lat":43.26311,"lon":5.39841,"is_reserved":false,"is_disabled":false,"rental_uris":{"android":"levelo://app?vid=47b6a661-48b8-461f-9827-f48295e67bbf","ios":"levelo://app?vid=47b6a661-48b8-461f-9827-f48295e67bbf"},"vehicle_type_id":"4","last_reported":1760724750,"current_range_meters":7200,"station_id":"","pricing_plan_id":"cebpf4jnsgd1na2vs0mg"},{"bike_id":"40faaee7-4aea-4846-ae26-acb38846fba0","system_id":"levelo_inurba_marseille","lat":43.29597,"lon":5.38084,"is_reserved":false,"is_disabled":false,"rental_uris":{"android":"levelo://app?vid=40faaee7-4aea-4846-ae26-acb38846fba0","ios":"levelo://app?vid=40faaee7-4aea-4846-ae26-acb38846fba0"},"vehicle_type_id":"4","last_reported":1760724750,"current_range_meters":7200,"station_id":"ce4bgl12rcd13ifvqbo0","pricing_plan_id":"cebpf4jnsgd1na2vs0mg"},{"bike_id":"c871ca87-9ea0-4c82-8f96-1d74fe568265","system_id":"levelo_inurba_marseille","lat":43.28559,"lon":5.41369,"is_reserved":false,"is_disabled":false,"rental_uris":{"android":"levelo://app?vid=c871ca87-9ea0-4c82-8f96-1d74fe568265","ios":"levelo://app?vid=c871ca87-9ea0-4c82-8f96-1d74fe568265"},"vehicle_type_id":"4","last_reported":1760724750,"current_range_meters":7200,"station_id":"","pricing_plan_id":"cebpf4jnsgd1na2vs0mg"},{"bike_id":"cd702760-46fa-47e0-baec-5d0cd2c69095","system_id":"levelo_inurba_marseille","lat":43.303748,"lon":5.424921,"is_reserved":false,"is_disabled":false,"rental_uris":{"android":"levelo://app?vid=cd702760-46fa-47e0-baec-5d0cd2c69095","ios":"levelo://app?vid=cd702760-46fa-47e0-baec-5d0cd2c69095"},"vehicle_type_id":"4","last_reported":1760724750,"current_range_meters":7200,"station_id":"ce4bhoh2rcd13ifvqh6g","pricing_plan_id":"cebpf4jnsgd1na2vs0mg"},{"bike_id":"d0b851f6-d561-4ed9-8c9a-6e79ab4ff8f5","system_id":"levelo_inurba_marseille","lat":43.31993,"lon":5.38164,"is_reserved":false,"is_disabled":false,"rental_uris":{"android":"levelo://app?vid=d0b851f6-d561-4ed9-8c9a-6e79ab4ff8f5","ios":"levelo://app?vid=d0b851f6-d561-4ed9-8c9a-6e79ab4ff8f5"},"vehicle_type_id":"4","last_reported":1760724750,"current_range_meters":7200,"station_id":"ce4bhr12rcd13ifvqhpg","pricing_plan_id":"cebpf4jnsgd1na2vs0mg"},{"bike_id":"c3215214-bcc9-401b-8d3c-c19527f10925","system_id":"levelo_inurba_marseille","lat":43.301299,"lon":5.398683,"is_reserved":false,"is_disabled":false,"rental_uris":{"android":"levelo://app?vid=c3215214-bcc9-401b-8d3c-c19527f10925","ios":"levelo://app?vid=c3215214-bcc9-401b-8d3c-c19527f10925"},"vehicle_type_id":"4","last_reported":1760724750,"current_range_meters":8000,"station_id":"","pricing_plan_id":"cebpf4jnsgd1na2vs0mg"},{"bike_id":"7ab9687b-b9cc-4b83-8f3e-078267b48a58","system_id":"levelo_inurba_marseille","lat":43.29605,"lon":5.38105,"is_reserved":false,"is_disabled":false,"rental_uris":{"android":"levelo://app?vid=7ab9687b-b9cc-4b83-8f3e-078267b48a58","ios":"levelo://app?vid=7ab9687b-b9cc-4b83-8f3e-078267b48a58"},"vehicle_type_id":"4","last_reported":1760724750,"current_range_meters":8000,"station_id":"ce4bgl12rcd13ifvqbo0","pricing_plan_id":"cebpf4jnsgd1na2vs0mg"},{"bike_id":"34a8c781-a2d4-41bd-b8b6-d4c279b52355","system_id":"levelo_inurba_marseille","lat":43.32109,"lon":5.36776,"is_reserved":false,"is_disabled":false,"rental_uris":{"android":"levelo://app?vid=34a8c781-a2d4-41bd-b8b6-d4c279b52355","ios":"levelo://app?vid=34a8c781-a2d4-41bd-b8b6-d4c279b52355"},"vehicle_type_id":"4","last_reported":1760724750,"current_range_meters":8000,"station_id":"ce4bhrh2rcd13ifvqhug","pricing_plan_id":"cebpf4jnsgd1na2vs0mg"},{"bike_id":"0670def4-b15a-4c00-8829-0cd906a61bcb","system_id":"levelo_inurba_marseille","lat":43.3377,"lon":5.37429,"is_reserved":false,"is_disabled":false,"rental_uris":{"android":"levelo://app?vid=0670def4-b15a-4c00-8829-0cd906a61bcb","ios":"levelo://app?vid=0670def4-b15a-4c00-8829-0cd906a61bcb"},"vehicle_type_id":"4","last_reported":1760724750,"current_range_meters":8000,"station_id":"","pricing_plan_id":"cebpf4jnsgd1na2vs0mg"},{"bike_id":"ae04716d-50c3-4ee8-ae26-5ac171e8512c","system_id":"levelo_inurba_marseille","lat":43.297054,"lon":5.366034,"is_reserved":false,"is_disabled":false,"rental_uris":{"android":"levelo://app?vid=ae04716d-50c3-4ee8-ae26-5ac171e8512c","ios":"levelo://app?vid=ae04716d-50c3-4ee8-ae26-5ac171e8512c"},"vehicle_type_id":"4","last_reported":1760724750,"current_range_meters":8000,"station_id":"ce4bgk12rcd13ifvqbj0","pricing_plan_id":"cebpf4jnsgd1na2vs0mg"},{"bike_id":"540d154b-93bd-46fb-b168-78d7619c0198","system_id":"levelo_inurba_marseille","lat":43.292633,"lon":5.384434,"is_reserved":false,"is_disabled":false,"rental_uris":{"android":"levelo://app?vid=540d154b-93bd-46fb-b168-78d7619c0198","ios":"levelo://app?vid=540d154b-93bd-46fb-b168-78d7619c0198"},"vehicle_type_id":"4","last_reported":1760724750,"current_range_meters":8000,"station_id":"ce4bh692rcd13ifvqea0","pricing_plan_id":"cebpf4jnsgd1na2vs0mg"},{"bike_id":"ffe656b1-a744-471b-a2d5-f45c24123edd","system_id":"levelo_inurba_marseille","lat":43.278369,"lon":5.392094,"is_reserved":false,"is_disabled":false,"rental_uris":{"android":"levelo://app?vid=ffe656b1-a744-471b-a2d5-f45c24123edd","ios":"levelo://app?vid=ffe656b1-a744-471b-a2d5-f45c24123edd"},"vehicle_type_id":"4","last_reported":1760724750,"current_range_meters":8000,"station_id":"ce4bhjp2rcd13ifvqga0","pricing_plan_id":"cebpf4jnsgd1na2vs0mg"},{"bike_id":"a2efaec7-8d1a-4ab0-8f19-f32221430a96","system_id":"levelo_inurba_marseille","lat":43.25811,"lon":5.39432,"is_reserved":false,"is_disabled":false,"rental_uris":{"android":"levelo://app?vid=a2efaec7-8d1a-4ab0-8f19-f32221430a96","ios":"levelo://app?vid=a2efaec7-8d1a-4ab0-8f19-f32221430a96"},"vehicle_type_id":"4","last_reported":1760724750,"current_range_meters":8400,"station_id":"ce4bhip2rcd13ifvqft0","pricing_plan_id":"cebpf4jnsgd1na2vs0mg"},{"bike_id":"e257a5c9-b99e-4af1-ac4f-b017f1c8b418","system_id":"levelo_inurba_marseille","lat":43.33759,"lon":5.37438,"is_reserved":false,"is_disabled":false,"rental_uris":{"android":"levelo://app?vid=e257a5c9-b99e-4af1-ac4f-b017f1c8b418","ios":"levelo://app?vid=e257a5c9-b99e-4af1-ac4f-b017f1c8b418"},"vehicle_type_id":"4","last_reported":1760724750,"current_range_meters":8400,"station_id":"","pricing_plan_id":"cebpf4jnsgd1na2vs0mg"},{"bike_id":"8bdd67e9-d0e5-487f-a820-0a65b44d5ad6","system_id":"levelo_inurba_marseille","lat":43.33022,"lon":5.39043,"is_reserved":false,"is_disabled":false,"rental_uris":{"android":"levelo://app?vid=8bdd67e9-d0e5-487f-a820-0a65b44d5ad6","ios":"levelo://app?vid=8bdd67e9-d0e5-487f-a820-0a65b44d5ad6"},"vehicle_type_id":"4","last_reported":1760724750,"current_range_meters":8400,"station_id":"ce4bhr92rcd13ifvqhrg","pricing_plan_id":"cebpf4jnsgd1na2vs0mg"},{"bike_id":"245a030c-0c43-41f8-a4cc-088d55252b06","system_id":"levelo_inurba_marseille","lat":43.24467,"lon":5.36936,"is_reserved":false,"is_disabled":false,"rental_uris":{"android":"levelo://app?vid=245a030c-0c43-41f8-a4cc-088d55252b06","ios":"levelo://app?vid=245a030c-0c43-41f8-a4cc-088d55252b06"},"vehicle_type_id":"4","last_reported":1760724750,"current_range_meters":8400,"station_id":"","pricing_plan_id":"cebpf4jnsgd1na2vs0mg"},{"bike_id":"4eb99181-0c4a-4c19-9bc2-87a3bf003240","system_id":"levelo_inurba_marseille","lat":43.29029,"lon":5.38639,"is_reserved":false,"is_disabled":false,"rental_uris":{"android":"levelo://app?vid=4eb99181-0c4a-4c19-9bc2-87a3bf003240","ios":"levelo://app?vid=4eb99181-0c4a-4c19-9bc2-87a3bf003240"},"vehicle_type_id":"4","last_reported":1760724750,"current_range_meters":8400,"station_id":"ce4bh4p2rcd13ifvqe0g","pricing_plan_id":"cebpf4jnsgd1na2vs0mg"},{"bike_id":"f14ccea6-ff39-4b62-9721-bb5e4f95c5ef","system_id":"levelo_inurba_marseille","lat":43.31359,"lon":5.38495,"is_reserved":false,"is_disabled":false,"rental_uris":{"android":"levelo://app?vid=f14ccea6-ff39-4b62-9721-bb5e4f95c5ef","ios":"levelo://app?vid=f14ccea6-ff39-4b62-9721-bb5e4f95c5ef"},"vehicle_type_id":"4","last_reported":1760724750,"current_range_meters":8400,"station_id":"ce4bgt92rcd13ifvqcf0","pricing_plan_id":"cebpf4jnsgd1na2vs0mg"},{"bike_id":"121f55c8-5a85-4142-a96c-bf52eb873442","system_id":"levelo_inurba_marseille","lat":43.30469,"lon":5.36933,"is_reserved":false,"is_disabled":false,"rental_uris":{"android":"levelo://app?vid=121f55c8-5a85-4142-a96c-bf52eb873442","ios":"levelo://app?vid=121f55c8-5a85-4142-a96c-bf52eb873442"},"vehicle_type_id":"4","last_reported":1760724750,"current_range_meters":8400,"station_id":"","pricing_plan_id":"cebpf4jnsgd1na2vs0mg"},{"bike_id":"16080469-2b22-4538-afbf-552c84649753","system_id":"levelo_inurba_marseille","lat":43.25724,"lon":5.41114,"is_reserved":false,"is_disabled":false,"rental_uris":{"android":"levelo://app?vid=16080469-2b22-4538-afbf-552c84649753","ios":"levelo://app?vid=16080469-2b22-4538-afbf-552c84649753"},"vehicle_type_id":"4","last_reported":1760724750,"current_range_meters":8400,"station_id":"ce4bhkp2rcd13ifvqgd0","pricing_plan_id":"cebpf4jnsgd1na2vs0mg"},{"bike_id":"1122a18d-f0b5-422d-bcb3-49a50076a370","system_id":"levelo_inurba_marseille","lat":43.28005,"lon":5.40006,"is_reserved":false,"is_disabled":false,"rental_uris":{"android":"levelo://app?vid=1122a18d-f0b5-422d-bcb3-49a50076a370","ios":"levelo://app?vid=1122a18d-f0b5-422d-bcb3-49a50076a370"},"vehicle_type_id":"4","last_reported":1760724750,"current_range_meters":8400,"station_id":"ce4bho92rcd13ifvqh4g","pricing_plan_id":"cebpf4jnsgd1na2vs0mg"},{"bike_id":"8f85fd39-127d-4d8d-ba2b-f10956262a44","system_id":"levelo_inurba_marseille","lat":43.29535,"lon":5.38544,"is_reserved":false,"is_disabled":false,"rental_uris":{"android":"levelo://app?vid=8f85fd39-127d-4d8d-ba2b-f10956262a44","ios":"levelo://app?vid=8f85fd39-127d-4d8d-ba2b-f10956262a44"},"vehicle_type_id":"4","last_reported":1760724750,"current_range_meters":8400,"station_id":"ce4bgih2rcd13ifvqba0","pricing_plan_id":"cebpf4jnsgd1na2vs0mg"},{"bike_id":"dc8ddf3d-270e-47e9-afd7-b7e4813c1753","system_id":"levelo_inurba_marseille","lat":43.29965,"lon":5.38492,"is_reserved":false,"is_disabled":false,"rental_uris":{"android":"levelo://app?vid=dc8ddf3d-270e-47e9-afd7-b7e4813c1753","ios":"levelo://app?vid=dc8ddf3d-270e-47e9-afd7-b7e4813c1753"},"vehicle_type_id":"4","last_reported":1760724750,"current_range_meters":8800,"station_id":"ce4bgj92rcd13ifvqbd0","pricing_plan_id":"cebpf4jnsgd1na2vs0mg"},{"bike_id":"07320a45-0425-4d16-8ac1-7b0c2d2028e3","system_id":"levelo_inurba_marseille","lat":43.29529,"lon":5.38551,"is_reserved":false,"is_disabled":false,"rental_uris":{"android":"levelo://app?vid=07320a45-0425-4d16-8ac1-7b0c2d2028e3","ios":"levelo://app?vid=07320a45-0425-4d16-8ac1-7b0c2d2028e3"},"vehicle_type_id":"4","last_reported":1760724750,"current_range_meters":8800,"station_id":"ce4bgih2rcd13ifvqba0","pricing_plan_id":"cebpf4jnsgd1na2vs0mg"},{"bike_id":"26416dae-68db-465d-ba83-72f605f27523","system_id":"levelo_inurba_marseille","lat":43.337444,"lon":5.374475,"is_reserved":false,"is_disabled":false,"rental_uris":{"android":"levelo://app?vid=26416dae-68db-465d-ba83-72f605f27523","ios":"levelo://app?vid=26416dae-68db-465d-ba83-72f605f27523"},"vehicle_type_id":"4","last_reported":1760724750,"current_range_meters":8800,"station_id":"","pricing_plan_id":"cebpf4jnsgd1na2vs0mg"},{"bike_id":"0dfbb457-0049-436a-b8f9-5362fb958d49","system_id":"levelo_inurba_marseille","lat":43.30794,"lon":5.38163,"is_reserved":false,"is_disabled":false,"rental_uris":{"android":"levelo://app?vid=0dfbb457-0049-436a-b8f9-5362fb958d49","ios":"levelo://app?vid=0dfbb457-0049-436a-b8f9-5362fb958d49"},"vehicle_type_id":"4","last_reported":1760724750,"current_range_meters":9200,"station_id":"ce4bgt12rcd13ifvqce0","pricing_plan_id":"cebpf4jnsgd1na2vs0mg"},{"bike_id":"cbcafa6f-2b3e-42cf-96f2-48162fbe27fd","system_id":"levelo_inurba_marseille","lat":43.320465,"lon":5.415401,"is_reserved":false,"is_disabled":false,"rental_uris":{"android":"levelo://app?vid=cbcafa6f-2b3e-42cf-96f2-48162fbe27fd","ios":"levelo://app?vid=cbcafa6f-2b3e-42cf-96f2-48162fbe27fd"},"vehicle_type_id":"4","last_reported":1760724750,"current_range_meters":9200,"station_id":"ce4bhq92rcd13ifvqhkg","pricing_plan_id":"cebpf4jnsgd1na2vs0mg"},{"bike_id":"fbce2445-4b6d-4e4f-86d0-a57c8da449f8","system_id":"levelo_inurba_marseille","lat":43.32286,"lon":5.3828,"is_reserved":false,"is_disabled":false,"rental_uris":{"android":"levelo://app?vid=fbce2445-4b6d-4e4f-86d0-a57c8da449f8","ios":"levelo://app?vid=fbce2445-4b6d-4e4f-86d0-a57c8da449f8"},"vehicle_type_id":"4","last_reported":1760724750,"current_range_meters":9200,"station_id":"ce4bhr12rcd13ifvqhqg","pricing_plan_id":"cebpf4jnsgd1na2vs0mg"},{"bike_id":"0364f1fb-66db-4d58-a480-4c8bd0a576ab","system_id":"levelo_inurba_marseille","lat":43.301544,"lon":5.380468,"is_reserved":false,"is_disabled":false,"rental_uris":{"android":"levelo://app?vid=0364f1fb-66db-4d58-a480-4c8bd0a576ab","ios":"levelo://app?vid=0364f1fb-66db-4d58-a480-4c8bd0a576ab"},"vehicle_type_id":"4","last_reported":1760724750,"current_range_meters":9200,"station_id":"","pricing_plan_id":"cebpf4jnsgd1na2vs0mg"},{"bike_id":"2a5498ee-d604-476f-a7c3-7260eebaa7f3","system_id":"levelo_inurba_marseille","lat":43.29571,"lon":5.37426,"is_reserved":false,"is_disabled":false,"rental_uris":{"android":"levelo://app?vid=2a5498ee-d604-476f-a7c3-7260eebaa7f3","ios":"levelo://app?vid=2a5498ee-d604-476f-a7c3-7260eebaa7f3"},"vehicle_type_id":"4","last_reported":1760724750,"current_range_meters":9200,"station_id":"","pricing_plan_id":"cebpf4jnsgd1na2vs0mg"},{"bike_id":"7e11b922-4418-4ad5-a762-2fe7833bf862","system_id":"levelo_inurba_marseille","lat":43.29532,"lon":5.39029,"is_reserved":false,"is_disabled":false,"rental_uris":{"android":"levelo://app?vid=7e11b922-4418-4ad5-a762-2fe7833bf862","ios":"levelo://app?vid=7e11b922-4418-4ad5-a762-2fe7833bf862"},"vehicle_type_id":"4","last_reported":1760724750,"current_range_meters":9200,"station_id":"ce4bh3p2rcd13ifvqdp0","pricing_plan_id":"cebpf4jnsgd1na2vs0mg"},{"bike_id":"c7bcbf80-8563-4065-9ef7-4eced72a4c59","system_id":"levelo_inurba_marseille","lat":43.29607,"lon":5.38102,"is_reserved":false,"is_disabled":false,"rental_uris":{"android":"levelo://app?vid=c7bcbf80-8563-4065-9ef7-4eced72a4c59","ios":"levelo://app?vid=c7bcbf80-8563-4065-9ef7-4eced72a4c59"},"vehicle_type_id":"4","last_reported":1760724750,"current_range_meters":9200,"station_id":"ce4bgl12rcd13ifvqbo0","pricing_plan_id":"cebpf4jnsgd1na2vs0mg"},{"bike_id":"cad6323f-c6ea-4b3f-bb97-d71360602992","system_id":"levelo_inurba_marseille","lat":43.30286,"lon":5.3771,"is_reserved":false,"is_disabled":false,"rental_uris":{"android":"levelo://app?vid=cad6323f-c6ea-4b3f-bb97-d71360602992","ios":"levelo://app?vid=cad6323f-c6ea-4b3f-bb97-d71360602992"},"vehicle_type_id":"4","last_reported":1760724750,"current_range_meters":9200,"station_id":"ce4bguh2rcd13ifvqcj0","pricing_plan_id":"cebpf4jnsgd1na2vs0mg"},{"bike_id":"5f70c680-5d95-4fd6-9d7e-31bf60cc8ee9","system_id":"levelo_inurba_marseille","lat":43.29619,"lon":5.37733,"is_reserved":false,"is_disabled":false,"rental_uris":{"android":"levelo://app?vid=5f70c680-5d95-4fd6-9d7e-31bf60cc8ee9","ios":"levelo://app?vid=5f70c680-5d95-4fd6-9d7e-31bf60cc8ee9"},"vehicle_type_id":"4","last_reported":1760724750,"current_range_meters":9600,"station_id":"ce4bgi92rcd13ifvqb90","pricing_plan_id":"cebpf4jnsgd1na2vs0mg"},{"bike_id":"9dd1d8fe-c2a8-4a70-a175-61f5f9fe7fd2","system_id":"levelo_inurba_marseille","lat":43.32142,"lon":5.38712,"is_reserved":false,"is_disabled":false,"rental_uris":{"android":"levelo://app?vid=9dd1d8fe-c2a8-4a70-a175-61f5f9fe7fd2","ios":"levelo://app?vid=9dd1d8fe-c2a8-4a70-a175-61f5f9fe7fd2"},"vehicle_type_id":"4","last_reported":1760724750,"current_range_meters":9600,"station_id":"","pricing_plan_id":"cebpf4jnsgd1na2vs0mg"},{"bike_id":"2c8d8491-37a1-4a4e-a42d-e2cfd44f58d6","system_id":"levelo_inurba_marseille","lat":43.285374,"lon":5.440949,"is_reserved":false,"is_disabled":false,"rental_uris":{"android":"levelo://app?vid=2c8d8491-37a1-4a4e-a42d-e2cfd44f58d6","ios":"levelo://app?vid=2c8d8491-37a1-4a4e-a42d-e2cfd44f58d6"},"vehicle_type_id":"4","last_reported":1760724750,"current_range_meters":9600,"station_id":"st_d3j3df2ikq2c7380ej80","pricing_plan_id":"cebpf4jnsgd1na2vs0mg"},{"bike_id":"24d82d64-1145-442f-a9f5-19238b0b39ef","system_id":"levelo_inurba_marseille","lat":43.272133,"lon":5.391866,"is_reserved":false,"is_disabled":false,"rental_uris":{"android":"levelo://app?vid=24d82d64-1145-442f-a9f5-19238b0b39ef","ios":"levelo://app?vid=24d82d64-1145-442f-a9f5-19238b0b39ef"},"vehicle_type_id":"4","last_reported":1760724750,"current_range_meters":9600,"station_id":"","pricing_plan_id":"cebpf4jnsgd1na2vs0mg"},{"bike_id":"542f8d4d-d8ae-4698-965a-f2a89f4cb534","system_id":"levelo_inurba_marseille","lat":43.24546,"lon":5.39524,"is_reserved":false,"is_disabled":false,"rental_uris":{"android":"levelo://app?vid=542f8d4d-d8ae-4698-965a-f2a89f4cb534","ios":"levelo://app?vid=542f8d4d-d8ae-4698-965a-f2a89f4cb534"},"vehicle_type_id":"4","last_reported":1760724750,"current_range_meters":9600,"station_id":"ce4bhlp2rcd13ifvqgjg","pricing_plan_id":"cebpf4jnsgd1na2vs0mg"},{"bike_id":"97186b4f-087d-4a83-b97b-ce0a447658e1","system_id":"levelo_inurba_marseille","lat":43.30947,"lon":5.39035,"is_reserved":false,"is_disabled":false,"rental_uris":{"android":"levelo://app?vid=97186b4f-087d-4a83-b97b-ce0a447658e1","ios":"levelo://app?vid=97186b4f-087d-4a83-b97b-ce0a447658e1"},"vehicle_type_id":"4","last_reported":1760724750,"current_range_meters":9600,"station_id":"ce4bgup2rcd13ifvqco0","pricing_plan_id":"cebpf4jnsgd1na2vs0mg"},{"bike_id":"c8dd217f-2dee-4cf3-9a9f-aa856ae66b4f","system_id":"levelo_inurba_marseille","lat":43.250891,"lon":5.395194,"is_reserved":false,"is_disabled":false,"rental_uris":{"android":"levelo://app?vid=c8dd217f-2dee-4cf3-9a9f-aa856ae66b4f","ios":"levelo://app?vid=c8dd217f-2dee-4cf3-9a9f-aa856ae66b4f"},"vehicle_type_id":"4","last_reported":1760724750,"current_range_meters":9600,"station_id":"ce4bhm12rcd13ifvqgkg","pricing_plan_id":"cebpf4jnsgd1na2vs0mg"},{"bike_id":"edc2b540-f4d1-424e-9002-80823ed0b6b2","system_id":"levelo_inurba_marseille","lat":43.28384,"lon":5.37056,"is_reserved":false,"is_disabled":false,"rental_uris":{"android":"levelo://app?vid=edc2b540-f4d1-424e-9002-80823ed0b6b2","ios":"levelo://app?vid=edc2b540-f4d1-424e-9002-80823ed0b6b2"},"vehicle_type_id":"4","last_reported":1760724750,"current_range_meters":9600,"station_id":"","pricing_plan_id":"cebpf4jnsgd1na2vs0mg"},{"bike_id":"e2ea144e-e922-4929-af31-24846418c51f","system_id":"levelo_inurba_marseille","lat":43.301574,"lon":5.366134,"is_reserved":false,"is_disabled":false,"rental_uris":{"android":"levelo://app?vid=e2ea144e-e922-4929-af31-24846418c51f","ios":"levelo://app?vid=e2ea144e-e922-4929-af31-24846418c51f"},"vehicle_type_id":"4","last_reported":1760724750,"current_range_meters":9600,"station_id":"ce4bgrh2rcd13ifvqc8g","pricing_plan_id":"cebpf4jnsgd1na2vs0mg"},{"bike_id":"70f9d359-8894-4526-860c-59cbf09c3935","system_id":"levelo_inurba_marseille","lat":43.2784,"lon":5.39218,"is_reserved":false,"is_disabled":false,"rental_uris":{"android":"levelo://app?vid=70f9d359-8894-4526-860c-59cbf09c3935","ios":"levelo://app?vid=70f9d359-8894-4526-860c-59cbf09c3935"},"vehicle_type_id":"4","last_reported":1760724750,"current_range_meters":10000,"station_id":"ce4bhjp2rcd13ifvqga0","pricing_plan_id":"cebpf4jnsgd1na2vs0mg"},{"bike_id":"c269fc91-1d51-4ec4-815d-2dd5e659925b","system_id":"levelo_inurba_marseille","lat":43.306274,"lon":5.372259,"is_reserved":false,"is_disabled":false,"rental_uris":{"android":"levelo://app?vid=c269fc91-1d51-4ec4-815d-2dd5e659925b","ios":"levelo://app?vid=c269fc91-1d51-4ec4-815d-2dd5e659925b"},"vehicle_type_id":"4","last_reported":1760724750,"current_range_meters":10000,"station_id":"ce4bgqh2rcd13ifvqc4g","pricing_plan_id":"cebpf4jnsgd1na2vs0mg"},{"bike_id":"416f580b-31c7-4ade-8604-dbd86eb8155f","system_id":"levelo_inurba_marseille","lat":43.28157,"lon":5.4213,"is_reserved":false,"is_disabled":false,"rental_uris":{"android":"levelo://app?vid=416f580b-31c7-4ade-8604-dbd86eb8155f","ios":"levelo://app?vid=416f580b-31c7-4ade-8604-dbd86eb8155f"},"vehicle_type_id":"4","last_reported":1760724750,"current_range_meters":10000,"station_id":"","pricing_plan_id":"cebpf4jnsgd1na2vs0mg"},{"bike_id":"11a2a43d-5e06-43b6-86d3-e67c08469dc1","system_id":"levelo_inurba_marseille","lat":43.2926,"lon":5.38444,"is_reserved":false,"is_disabled":false,"rental_uris":{"android":"levelo://app?vid=11a2a43d-5e06-43b6-86d3-e67c08469dc1","ios":"levelo://app?vid=11a2a43d-5e06-43b6-86d3-e67c08469dc1"},"vehicle_type_id":"4","last_reported":1760724750,"current_range_meters":10000,"station_id":"ce4bh692rcd13ifvqea0","pricing_plan_id":"cebpf4jnsgd1na2vs0mg"},{"bike_id":"fa97ee73-816d-4e2b-bf50-86b6637b1027","system_id":"levelo_inurba_marseille","lat":43.2953,"lon":5.38549,"is_reserved":false,"is_disabled":false,"rental_uris":{"android":"levelo://app?vid=fa97ee73-816d-4e2b-bf50-86b6637b1027","ios":"levelo://app?vid=fa97ee73-816d-4e2b-bf50-86b6637b1027"},"vehicle_type_id":"4","last_reported":1760724750,"current_range_meters":10000,"station_id":"ce4bgih2rcd13ifvqba0","pricing_plan_id":"cebpf4jnsgd1na2vs0mg"},{"bike_id":"891cc84d-00e4-456c-a193-11a9eb3340d6","system_id":"levelo_inurba_marseille","lat":43.28933,"lon":5.3664,"is_reserved":false,"is_disabled":false,"rental_uris":{"android":"levelo://app?vid=891cc84d-00e4-456c-a193-11a9eb3340d6","ios":"levelo://app?vid=891cc84d-00e4-456c-a193-11a9eb3340d6"},"vehicle_type_id":"4","last_reported":1760724750,"current_range_meters":10000,"station_id":"ce4bhap2rcd13ifvqek0","pricing_plan_id":"cebpf4jnsgd1na2vs0mg"},{"bike_id":"aa2f0531-ba42-47ae-b822-f7fd7ce5d4f9","system_id":"levelo_inurba_marseille","lat":43.29964,"lon":5.38499,"is_reserved":false,"is_disabled":false,"rental_uris":{"android":"levelo://app?vid=aa2f0531-ba42-47ae-b822-f7fd7ce5d4f9","ios":"levelo://app?vid=aa2f0531-ba42-47ae-b822-f7fd7ce5d4f9"},"vehicle_type_id":"4","last_reported":1760724750,"current_range_meters":10800,"station_id":"ce4bgj92rcd13ifvqbd0","pricing_plan_id":"cebpf4jnsgd1na2vs0mg"},{"bike_id":"489a9937-29f4-41ff-a4af-8cacb51230c8","system_id":"levelo_inurba_marseille","lat":43.297,"lon":5.3813,"is_reserved":false,"is_disabled":false,"rental_uris":{"android":"levelo://app?vid=489a9937-29f4-41ff-a4af-8cacb51230c8","ios":"levelo://app?vid=489a9937-29f4-41ff-a4af-8cacb51230c8"},"vehicle_type_id":"4","last_reported":1760724750,"current_range_meters":10800,"station_id":"","pricing_plan_id":"cebpf4jnsgd1na2vs0mg"},{"bike_id":"7b6ae639-9bf0-485c-8b10-8dcc3d310ca1","system_id":"levelo_inurba_marseille","lat":43.29973,"lon":5.37181,"is_reserved":false,"is_disabled":false,"rental_uris":{"android":"levelo://app?vid=7b6ae639-9bf0-485c-8b10-8dcc3d310ca1","ios":"levelo://app?vid=7b6ae639-9bf0-485c-8b10-8dcc3d310ca1"},"vehicle_type_id":"4","last_reported":1760724750,"current_range_meters":10800,"station_id":"ce4bgr92rcd13ifvqc7g","pricing_plan_id":"cebpf4jnsgd1na2vs0mg"},{"bike_id":"e4601257-9987-4e30-b78f-04ac07240b86","system_id":"levelo_inurba_marseille","lat":43.28707,"lon":5.37398,"is_reserved":false,"is_disabled":true,"rental_uris":{"android":"levelo://app?vid=e4601257-9987-4e30-b78f-04ac07240b86","ios":"levelo://app?vid=e4601257-9987-4e30-b78f-04ac07240b86"},"vehicle_type_id":"4","last_reported":1760724750,"current_range_meters":10800,"station_id":"ce4bh3p2rcd13ifvqdq0","pricing_plan_id":"cebpf4jnsgd1na2vs0mg"},{"bike_id":"1509f5c6-c00b-42ad-9ec5-b266351865b4","system_id":"levelo_inurba_marseille","lat":43.24666,"lon":5.3817,"is_reserved":false,"is_disabled":false,"rental_uris":{"android":"levelo://app?vid=1509f5c6-c00b-42ad-9ec5-b266351865b4","ios":"levelo://app?vid=1509f5c6-c00b-42ad-9ec5-b266351865b4"},"vehicle_type_id":"4","last_reported":1760724750,"current_range_meters":10800,"station_id":"ce4bhih2rcd13ifvqfr0","pricing_plan_id":"cebpf4jnsgd1na2vs0mg"},{"bike_id":"549b7b41-6fa1-40e1-8b0c-45be316a9962","system_id":"levelo_inurba_marseille","lat":43.30311,"lon":5.36903,"is_reserved":false,"is_disabled":false,"rental_uris":{"android":"levelo://app?vid=549b7b41-6fa1-40e1-8b0c-45be316a9962","ios":"levelo://app?vid=549b7b41-6fa1-40e1-8b0c-45be316a9962"},"vehicle_type_id":"4","last_reported":1760724750,"current_range_meters":10800,"station_id":"ce4bgqh2rcd13ifvqc5g","pricing_plan_id":"cebpf4jnsgd1na2vs0mg"},{"bike_id":"aa8669cc-5cbb-43a2-8956-bed4b615cd6a","system_id":"levelo_inurba_marseille","lat":43.310811,"lon":5.383596,"is_reserved":false,"is_disabled":false,"rental_uris":{"android":"levelo://app?vid=aa8669cc-5cbb-43a2-8956-bed4b615cd6a","ios":"levelo://app?vid=aa8669cc-5cbb-43a2-8956-bed4b615cd6a"},"vehicle_type_id":"4","last_reported":1760724750,"current_range_meters":10800,"station_id":"ce4bh392rcd13ifvqdl0","pricing_plan_id":"cebpf4jnsgd1na2vs0mg"},{"bike_id":"51b0baa3-1d5a-4fcb-9c95-7ee3b51b6777","system_id":"levelo_inurba_marseille","lat":43.3254,"lon":5.41423,"is_reserved":false,"is_disabled":false,"rental_uris":{"android":"levelo://app?vid=51b0baa3-1d5a-4fcb-9c95-7ee3b51b6777","ios":"levelo://app?vid=51b0baa3-1d5a-4fcb-9c95-7ee3b51b6777"},"vehicle_type_id":"4","last_reported":1760724750,"current_range_meters":11200,"station_id":"ce4bhq12rcd13ifvqhhg","pricing_plan_id":"cebpf4jnsgd1na2vs0mg"},{"bike_id":"804e7aea-6ead-4463-8752-530e1640c483","system_id":"levelo_inurba_marseille","lat":43.296035,"lon":5.380958,"is_reserved":false,"is_disabled":false,"rental_uris":{"android":"levelo://app?vid=804e7aea-6ead-4463-8752-530e1640c483","ios":"levelo://app?vid=804e7aea-6ead-4463-8752-530e1640c483"},"vehicle_type_id":"4","last_reported":1760724750,"current_range_meters":11200,"station_id":"ce4bgl12rcd13ifvqbo0","pricing_plan_id":"cebpf4jnsgd1na2vs0mg"},{"bike_id":"4b17a7f2-f197-407a-9042-5c3d5545df61","system_id":"levelo_inurba_marseille","lat":43.30309,"lon":5.39203,"is_reserved":false,"is_disabled":false,"rental_uris":{"android":"levelo://app?vid=4b17a7f2-f197-407a-9042-5c3d5545df61","ios":"levelo://app?vid=4b17a7f2-f197-407a-9042-5c3d5545df61"},"vehicle_type_id":"4","last_reported":1760724750,"current_range_meters":11200,"station_id":"ce4bgkh2rcd13ifvqbk0","pricing_plan_id":"cebpf4jnsgd1na2vs0mg"},{"bike_id":"359889aa-13a6-4047-a204-5fb36af403d0","system_id":"levelo_inurba_marseille","lat":43.29437,"lon":5.39755,"is_reserved":false,"is_disabled":false,"rental_uris":{"android":"levelo://app?vid=359889aa-13a6-4047-a204-5fb36af403d0","ios":"levelo://app?vid=359889aa-13a6-4047-a204-5fb36af403d0"},"vehicle_type_id":"4","last_reported":1760724750,"current_range_meters":11200,"station_id":"ce4bh3h2rcd13ifvqdo0","pricing_plan_id":"cebpf4jnsgd1na2vs0mg"},{"bike_id":"25a833b5-7c03-464a-8c6b-115a49047c03","system_id":"levelo_inurba_marseille","lat":43.29096,"lon":5.38153,"is_reserved":false,"is_disabled":false,"rental_uris":{"android":"levelo://app?vid=25a833b5-7c03-464a-8c6b-115a49047c03","ios":"levelo://app?vid=25a833b5-7c03-464a-8c6b-115a49047c03"},"vehicle_type_id":"4","last_reported":1760724750,"current_range_meters":11200,"station_id":"ce4bh512rcd13ifvqe2g","pricing_plan_id":"cebpf4jnsgd1na2vs0mg"},{"bike_id":"db268304-91ce-4a89-bfb4-1703fda523cc","system_id":"levelo_inurba_marseille","lat":43.29528,"lon":5.3856,"is_reserved":false,"is_disabled":false,"rental_uris":{"android":"levelo://app?vid=db268304-91ce-4a89-bfb4-1703fda523cc","ios":"levelo://app?vid=db268304-91ce-4a89-bfb4-1703fda523cc"},"vehicle_type_id":"4","last_reported":1760724750,"current_range_meters":11200,"station_id":"ce4bgih2rcd13ifvqba0","pricing_plan_id":"cebpf4jnsgd1na2vs0mg"},{"bike_id":"4cbf6a08-fa0c-4fd1-9cff-26a41941b965","system_id":"levelo_inurba_marseille","lat":43.29267,"lon":5.38449,"is_reserved":false,"is_disabled":false,"rental_uris":{"android":"levelo://app?vid=4cbf6a08-fa0c-4fd1-9cff-26a41941b965","ios":"levelo://app?vid=4cbf6a08-fa0c-4fd1-9cff-26a41941b965"},"vehicle_type_id":"4","last_reported":1760724750,"current_range_meters":11200,"station_id":"ce4bh692rcd13ifvqea0","pricing_plan_id":"cebpf4jnsgd1na2vs0mg"},{"bike_id":"2fad9211-819b-4892-bf52-014fbefdb6cb","system_id":"levelo_inurba_marseille","lat":43.301519,"lon":5.373953,"is_reserved":false,"is_disabled":false,"rental_uris":{"android":"levelo://app?vid=2fad9211-819b-4892-bf52-014fbefdb6cb","ios":"levelo://app?vid=2fad9211-819b-4892-bf52-014fbefdb6cb"},"vehicle_type_id":"4","last_reported":1760724750,"current_range_meters":11200,"station_id":"ce4bgs92rcd13ifvqcc0","pricing_plan_id":"cebpf4jnsgd1na2vs0mg"},{"bike_id":"5fe6e873-dba1-40dd-bc65-77de126f2710","system_id":"levelo_inurba_marseille","lat":43.332893,"lon":5.395256,"is_reserved":false,"is_disabled":false,"rental_uris":{"android":"levelo://app?vid=5fe6e873-dba1-40dd-bc65-77de126f2710","ios":"levelo://app?vid=5fe6e873-dba1-40dd-bc65-77de126f2710"},"vehicle_type_id":"4","last_reported":1760724750,"current_range_meters":11200,"station_id":"","pricing_plan_id":"cebpf4jnsgd1na2vs0mg"},{"bike_id":"c5f24827-3f82-41d8-a4e8-d2345768ca45","system_id":"levelo_inurba_marseille","lat":43.284136,"lon":5.349798,"is_reserved":false,"is_disabled":false,"rental_uris":{"android":"levelo://app?vid=c5f24827-3f82-41d8-a4e8-d2345768ca45","ios":"levelo://app?vid=c5f24827-3f82-41d8-a4e8-d2345768ca45"},"vehicle_type_id":"4","last_reported":1760724750,"current_range_meters":11200,"station_id":"ce4bhbh2rcd13ifvqepg","pricing_plan_id":"cebpf4jnsgd1na2vs0mg"},{"bike_id":"2e879a2a-680b-4720-b17e-12aeff164fb3","system_id":"levelo_inurba_marseille","lat":43.29534,"lon":5.38534,"is_reserved":false,"is_disabled":false,"rental_uris":{"android":"levelo://app?vid=2e879a2a-680b-4720-b17e-12aeff164fb3","ios":"levelo://app?vid=2e879a2a-680b-4720-b17e-12aeff164fb3"},"vehicle_type_id":"4","last_reported":1760724750,"current_range_meters":11200,"station_id":"ce4bgih2rcd13ifvqba0","pricing_plan_id":"cebpf4jnsgd1na2vs0mg"},{"bike_id":"69529aab-cd7d-4adf-b8cd-38d28cd23ece","system_id":"levelo_inurba_marseille","lat":43.27814,"lon":5.40728,"is_reserved":false,"is_disabled":false,"rental_uris":{"android":"levelo://app?vid=69529aab-cd7d-4adf-b8cd-38d28cd23ece","ios":"levelo://app?vid=69529aab-cd7d-4adf-b8cd-38d28cd23ece"},"vehicle_type_id":"4","last_reported":1760724750,"current_range_meters":11600,"station_id":"ce4bhnh2rcd13ifvqgtg","pricing_plan_id":"cebpf4jnsgd1na2vs0mg"},{"bike_id":"fcfef5ef-4890-4876-818d-1db245f59f58","system_id":"levelo_inurba_marseille","lat":43.297109,"lon":5.376105,"is_reserved":false,"is_disabled":false,"rental_uris":{"android":"levelo://app?vid=fcfef5ef-4890-4876-818d-1db245f59f58","ios":"levelo://app?vid=fcfef5ef-4890-4876-818d-1db245f59f58"},"vehicle_type_id":"4","last_reported":1760724750,"current_range_meters":11600,"station_id":"","pricing_plan_id":"cebpf4jnsgd1na2vs0mg"},{"bike_id":"0f9c20ae-f80b-4bc4-a84d-e94070c41d3b","system_id":"levelo_inurba_marseille","lat":43.22571,"lon":5.41622,"is_reserved":false,"is_disabled":false,"rental_uris":{"android":"levelo://app?vid=0f9c20ae-f80b-4bc4-a84d-e94070c41d3b","ios":"levelo://app?vid=0f9c20ae-f80b-4bc4-a84d-e94070c41d3b"},"vehicle_type_id":"4","last_reported":1760724750,"current_range_meters":11600,"station_id":"st_d2o4gvlbi1j2169b742g","pricing_plan_id":"cebpf4jnsgd1na2vs0mg"},{"bike_id":"0ba4ff8e-0ad7-4fdb-b8a6-b1bcb8d5be7c","system_id":"levelo_inurba_marseille","lat":43.31173,"lon":5.38711,"is_reserved":false,"is_disabled":false,"rental_uris":{"android":"levelo://app?vid=0ba4ff8e-0ad7-4fdb-b8a6-b1bcb8d5be7c","ios":"levelo://app?vid=0ba4ff8e-0ad7-4fdb-b8a6-b1bcb8d5be7c"},"vehicle_type_id":"4","last_reported":1760724750,"current_range_meters":11600,"station_id":"ce4bgv12rcd13ifvqcp0","pricing_plan_id":"cebpf4jnsgd1na2vs0mg"},{"bike_id":"6e4f7295-079f-4338-9297-4ec3420efee0","system_id":"levelo_inurba_marseille","lat":43.27374,"lon":5.36264,"is_reserved":false,"is_disabled":false,"rental_uris":{"android":"levelo://app?vid=6e4f7295-079f-4338-9297-4ec3420efee0","ios":"levelo://app?vid=6e4f7295-079f-4338-9297-4ec3420efee0"},"vehicle_type_id":"4","last_reported":1760724750,"current_range_meters":11600,"station_id":"ce4bhbh2rcd13ifvqeo0","pricing_plan_id":"cebpf4jnsgd1na2vs0mg"},{"bike_id":"45134845-75ca-4c02-a8ce-a2aa6f6c1a58","system_id":"levelo_inurba_marseille","lat":43.301347,"lon":5.39193,"is_reserved":false,"is_disabled":false,"rental_uris":{"android":"levelo://app?vid=45134845-75ca-4c02-a8ce-a2aa6f6c1a58","ios":"levelo://app?vid=45134845-75ca-4c02-a8ce-a2aa6f6c1a58"},"vehicle_type_id":"4","last_reported":1760724750,"current_range_meters":11600,"station_id":"ce4bh0p2rcd13ifvqd70","pricing_plan_id":"cebpf4jnsgd1na2vs0mg"},{"bike_id":"88f8b8c6-8fb7-4d42-8698-15c327ad801e","system_id":"levelo_inurba_marseille","lat":43.29538,"lon":5.38546,"is_reserved":false,"is_disabled":false,"rental_uris":{"android":"levelo://app?vid=88f8b8c6-8fb7-4d42-8698-15c327ad801e","ios":"levelo://app?vid=88f8b8c6-8fb7-4d42-8698-15c327ad801e"},"vehicle_type_id":"4","last_reported":1760724750,"current_range_meters":11600,"station_id":"ce4bgih2rcd13ifvqba0","pricing_plan_id":"cebpf4jnsgd1na2vs0mg"},{"bike_id":"a817b630-bbed-48d3-97f4-9bd571b9ebab","system_id":"levelo_inurba_marseille","lat":43.29984,"lon":5.37344,"is_reserved":false,"is_disabled":false,"rental_uris":{"android":"levelo://app?vid=a817b630-bbed-48d3-97f4-9bd571b9ebab","ios":"levelo://app?vid=a817b630-bbed-48d3-97f4-9bd571b9ebab"},"vehicle_type_id":"4","last_reported":1760724750,"current_range_meters":11600,"station_id":"","pricing_plan_id":"cebpf4jnsgd1na2vs0mg"},{"bike_id":"efeed3e0-0d89-49c8-88ee-54fc372b67ef","system_id":"levelo_inurba_marseille","lat":43.27504,"lon":5.42451,"is_reserved":false,"is_disabled":true,"rental_uris":{"android":"levelo://app?vid=efeed3e0-0d89-49c8-88ee-54fc372b67ef","ios":"levelo://app?vid=efeed3e0-0d89-49c8-88ee-54fc372b67ef"},"vehicle_type_id":"4","last_reported":1760724750,"current_range_meters":12000,"station_id":"ce4bhn92rcd13ifvqgrg","pricing_plan_id":"cebpf4jnsgd1na2vs0mg"},{"bike_id":"94f60e57-4ea5-4506-9b0b-d49e351bbd01","system_id":"levelo_inurba_marseille","lat":43.29373,"lon":5.383451,"is_reserved":false,"is_disabled":false,"rental_uris":{"android":"levelo://app?vid=94f60e57-4ea5-4506-9b0b-d49e351bbd01","ios":"levelo://app?vid=94f60e57-4ea5-4506-9b0b-d49e351bbd01"},"vehicle_type_id":"4","last_reported":1760724750,"current_range_meters":12000,"station_id":"","pricing_plan_id":"cebpf4jnsgd1na2vs0mg"},{"bike_id":"ea883585-d0e4-4bcb-922c-57b2a3efdeac","system_id":"levelo_inurba_marseille","lat":43.30516,"lon":5.36844,"is_reserved":false,"is_disabled":false,"rental_uris":{"android":"levelo://app?vid=ea883585-d0e4-4bcb-922c-57b2a3efdeac","ios":"levelo://app?vid=ea883585-d0e4-4bcb-922c-57b2a3efdeac"},"vehicle_type_id":"4","last_reported":1760724750,"current_range_meters":12000,"station_id":"","pricing_plan_id":"cebpf4jnsgd1na2vs0mg"},{"bike_id":"152ceacc-c6b6-4fdf-bd0d-9a5e742c5120","system_id":"levelo_inurba_marseille","lat":43.29033,"lon":5.38652,"is_reserved":false,"is_disabled":false,"rental_uris":{"android":"levelo://app?vid=152ceacc-c6b6-4fdf-bd0d-9a5e742c5120","ios":"levelo://app?vid=152ceacc-c6b6-4fdf-bd0d-9a5e742c5120"},"vehicle_type_id":"4","last_reported":1760724750,"current_range_meters":12000,"station_id":"ce4bh4p2rcd13ifvqe0g","pricing_plan_id":"cebpf4jnsgd1na2vs0mg"},{"bike_id":"2f427ffa-023f-4f18-948d-448a449d3df0","system_id":"levelo_inurba_marseille","lat":43.24172,"lon":5.36406,"is_reserved":false,"is_disabled":false,"rental_uris":{"android":"levelo://app?vid=2f427ffa-023f-4f18-948d-448a449d3df0","ios":"levelo://app?vid=2f427ffa-023f-4f18-948d-448a449d3df0"},"vehicle_type_id":"4","last_reported":1760724750,"current_range_meters":12000,"station_id":"cpo36qri1sfpv3e86is0","pricing_plan_id":"cebpf4jnsgd1na2vs0mg"},{"bike_id":"bc7aceda-2be2-4ac0-82bb-9ea1f9d9f933","system_id":"levelo_inurba_marseille","lat":43.29538,"lon":5.38551,"is_reserved":false,"is_disabled":false,"rental_uris":{"android":"levelo://app?vid=bc7aceda-2be2-4ac0-82bb-9ea1f9d9f933","ios":"levelo://app?vid=bc7aceda-2be2-4ac0-82bb-9ea1f9d9f933"},"vehicle_type_id":"4","last_reported":1760724750,"current_range_meters":12000,"station_id":"ce4bgih2rcd13ifvqba0","pricing_plan_id":"cebpf4jnsgd1na2vs0mg"},{"bike_id":"3b2313e9-3460-470f-ab03-b6aeafdc299a","system_id":"levelo_inurba_marseille","lat":43.27996,"lon":5.400158,"is_reserved":false,"is_disabled":false,"rental_uris":{"android":"levelo://app?vid=3b2313e9-3460-470f-ab03-b6aeafdc299a","ios":"levelo://app?vid=3b2313e9-3460-470f-ab03-b6aeafdc299a"},"vehicle_type_id":"4","last_reported":1760724750,"current_range_meters":12000,"station_id":"ce4bho92rcd13ifvqh4g","pricing_plan_id":"cebpf4jnsgd1na2vs0mg"},{"bike_id":"aa97a038-de4a-498d-a4b4-8ec99e18be3a","system_id":"levelo_inurba_marseille","lat":43.30869,"lon":5.39645,"is_reserved":false,"is_disabled":true,"rental_uris":{"android":"levelo://app?vid=aa97a038-de4a-498d-a4b4-8ec99e18be3a","ios":"levelo://app?vid=aa97a038-de4a-498d-a4b4-8ec99e18be3a"},"vehicle_type_id":"4","last_reported":1760724750,"current_range_meters":12000,"station_id":"ce4bh012rcd13ifvqcv0","pricing_plan_id":"cebpf4jnsgd1na2vs0mg"},{"bike_id":"04114b20-6d62-4de1-a89d-c769e52fce4b","system_id":"levelo_inurba_marseille","lat":43.29619,"lon":5.37164,"is_reserved":false,"is_disabled":false,"rental_uris":{"android":"levelo://app?vid=04114b20-6d62-4de1-a89d-c769e52fce4b","ios":"levelo://app?vid=04114b20-6d62-4de1-a89d-c769e52fce4b"},"vehicle_type_id":"4","last_reported":1760724750,"current_range_meters":12400,"station_id":"ce4bgnh2rcd13ifvqc0g","pricing_plan_id":"cebpf4jnsgd1na2vs0mg"},{"bike_id":"c5e45447-2956-450f-bd7e-88aaf308c04d","system_id":"levelo_inurba_marseille","lat":43.28991,"lon":5.36537,"is_reserved":false,"is_disabled":false,"rental_uris":{"android":"levelo://app?vid=c5e45447-2956-450f-bd7e-88aaf308c04d","ios":"levelo://app?vid=c5e45447-2956-450f-bd7e-88aaf308c04d"},"vehicle_type_id":"4","last_reported":1760724750,"current_range_meters":12400,"station_id":"","pricing_plan_id":"cebpf4jnsgd1na2vs0mg"},{"bike_id":"eee6fc5a-a5e6-4f0c-a6a4-97824048b485","system_id":"levelo_inurba_marseille","lat":43.2396,"lon":5.36652,"is_reserved":false,"is_disabled":false,"rental_uris":{"android":"levelo://app?vid=eee6fc5a-a5e6-4f0c-a6a4-97824048b485","ios":"levelo://app?vid=eee6fc5a-a5e6-4f0c-a6a4-97824048b485"},"vehicle_type_id":"4","last_reported":1760724750,"current_range_meters":12400,"station_id":"ce4bhi12rcd13ifvqfp0","pricing_plan_id":"cebpf4jnsgd1na2vs0mg"},{"bike_id":"bfeaff65-9542-4384-a3f7-902ae9a4b803","system_id":"levelo_inurba_marseille","lat":43.26269,"lon":5.39676,"is_reserved":false,"is_disabled":false,"rental_uris":{"android":"levelo://app?vid=bfeaff65-9542-4384-a3f7-902ae9a4b803","ios":"levelo://app?vid=bfeaff65-9542-4384-a3f7-902ae9a4b803"},"vehicle_type_id":"4","last_reported":1760724750,"current_range_meters":12400,"station_id":"","pricing_plan_id":"cebpf4jnsgd1na2vs0mg"},{"bike_id":"93f8d1cc-01c6-4dec-8c9b-aca712fa0898","system_id":"levelo_inurba_marseille","lat":43.292978,"lon":5.374612,"is_reserved":false,"is_disabled":false,"rental_uris":{"android":"levelo://app?vid=93f8d1cc-01c6-4dec-8c9b-aca712fa0898","ios":"levelo://app?vid=93f8d1cc-01c6-4dec-8c9b-aca712fa0898"},"vehicle_type_id":"4","last_reported":1760724750,"current_range_meters":12400,"station_id":"","pricing_plan_id":"cebpf4jnsgd1na2vs0mg"},{"bike_id":"74f805d7-86de-43aa-a59e-ae9504f3849d","system_id":"levelo_inurba_marseille","lat":43.32373,"lon":5.38867,"is_reserved":false,"is_disabled":false,"rental_uris":{"android":"levelo://app?vid=74f805d7-86de-43aa-a59e-ae9504f3849d","ios":"levelo://app?vid=74f805d7-86de-43aa-a59e-ae9504f3849d"},"vehicle_type_id":"4","last_reported":1760724750,"current_range_meters":12400,"station_id":"ce4bhqp2rcd13ifvqhog","pricing_plan_id":"cebpf4jnsgd1na2vs0mg"},{"bike_id":"8dd49e8e-0dde-4547-b697-7979207eeb2d","system_id":"levelo_inurba_marseille","lat":43.29264,"lon":5.38434,"is_reserved":false,"is_disabled":false,"rental_uris":{"android":"levelo://app?vid=8dd49e8e-0dde-4547-b697-7979207eeb2d","ios":"levelo://app?vid=8dd49e8e-0dde-4547-b697-7979207eeb2d"},"vehicle_type_id":"4","last_reported":1760724750,"current_range_meters":12400,"station_id":"ce4bh692rcd13ifvqea0","pricing_plan_id":"cebpf4jnsgd1na2vs0mg"},{"bike_id":"b8853981-0927-4c3e-995f-fe036f740dd9","system_id":"levelo_inurba_marseille","lat":43.29532,"lon":5.38544,"is_reserved":false,"is_disabled":false,"rental_uris":{"android":"levelo://app?vid=b8853981-0927-4c3e-995f-fe036f740dd9","ios":"levelo://app?vid=b8853981-0927-4c3e-995f-fe036f740dd9"},"vehicle_type_id":"4","last_reported":1760724750,"current_range_meters":12400,"station_id":"ce4bgih2rcd13ifvqba0","pricing_plan_id":"cebpf4jnsgd1na2vs0mg"},{"bike_id":"53e45f66-6c88-47d1-a739-fad578ecef73","system_id":"levelo_inurba_marseille","lat":43.237835,"lon":5.366308,"is_reserved":false,"is_disabled":false,"rental_uris":{"android":"levelo://app?vid=53e45f66-6c88-47d1-a739-fad578ecef73","ios":"levelo://app?vid=53e45f66-6c88-47d1-a739-fad578ecef73"},"vehicle_type_id":"4","last_reported":1760724750,"current_range_meters":12400,"station_id":"st_d3nk18o9ro0c73en2l3g","pricing_plan_id":"cebpf4jnsgd1na2vs0mg"},{"bike_id":"59ee4d43-eb61-4aed-a406-b083fa9d27d8","system_id":"levelo_inurba_marseille","lat":43.310671,"lon":5.383481,"is_reserved":false,"is_disabled":true,"rental_uris":{"android":"levelo://app?vid=59ee4d43-eb61-4aed-a406-b083fa9d27d8","ios":"levelo://app?vid=59ee4d43-eb61-4aed-a406-b083fa9d27d8"},"vehicle_type_id":"4","last_reported":1760724750,"current_range_meters":12400,"station_id":"ce4bgv92rcd13ifvqcr0","pricing_plan_id":"cebpf4jnsgd1na2vs0mg"},{"bike_id":"a618d75f-c056-4d7b-8ccd-3fcd16a7d304","system_id":"levelo_inurba_marseille","lat":43.34146,"lon":5.409077,"is_reserved":false,"is_disabled":false,"rental_uris":{"android":"levelo://app?vid=a618d75f-c056-4d7b-8ccd-3fcd16a7d304","ios":"levelo://app?vid=a618d75f-c056-4d7b-8ccd-3fcd16a7d304"},"vehicle_type_id":"4","last_reported":1760724750,"current_range_meters":12400,"station_id":"cki0cbj6b192h4jlfktg","pricing_plan_id":"cebpf4jnsgd1na2vs0mg"},{"bike_id":"c4c8e762-8a26-4257-9d60-d747eb2d8508","system_id":"levelo_inurba_marseille","lat":43.33185,"lon":5.35575,"is_reserved":false,"is_disabled":false,"rental_uris":{"android":"levelo://app?vid=c4c8e762-8a26-4257-9d60-d747eb2d8508","ios":"levelo://app?vid=c4c8e762-8a26-4257-9d60-d747eb2d8508"},"vehicle_type_id":"4","last_reported":1760724750,"current_range_meters":12400,"station_id":"","pricing_plan_id":"cebpf4jnsgd1na2vs0mg"},{"bike_id":"ba2479bd-5a5a-46c2-83c3-00588f4cf74a","system_id":"levelo_inurba_marseille","lat":43.29794,"lon":5.36501,"is_reserved":false,"is_disabled":false,"rental_uris":{"android":"levelo://app?vid=ba2479bd-5a5a-46c2-83c3-00588f4cf74a","ios":"levelo://app?vid=ba2479bd-5a5a-46c2-83c3-00588f4cf74a"},"vehicle_type_id":"4","last_reported":1760724750,"current_range_meters":12800,"station_id":"","pricing_plan_id":"cebpf4jnsgd1na2vs0mg"},{"bike_id":"1ea58d06-2bc8-43e6-9700-ceffc676d32c","system_id":"levelo_inurba_marseille","lat":43.21748,"lon":5.34599,"is_reserved":false,"is_disabled":true,"rental_uris":{"android":"levelo://app?vid=1ea58d06-2bc8-43e6-9700-ceffc676d32c","ios":"levelo://app?vid=1ea58d06-2bc8-43e6-9700-ceffc676d32c"},"vehicle_type_id":"4","last_reported":1760724750,"current_range_meters":12800,"station_id":"cpo36qri1sfpv3e86is0","pricing_plan_id":"cebpf4jnsgd1na2vs0mg"},{"bike_id":"c51b123e-fb39-49e0-b507-c8ad9e4176fe","system_id":"levelo_inurba_marseille","lat":43.2962,"lon":5.37166,"is_reserved":false,"is_disabled":false,"rental_uris":{"android":"levelo://app?vid=c51b123e-fb39-49e0-b507-c8ad9e4176fe","ios":"levelo://app?vid=c51b123e-fb39-49e0-b507-c8ad9e4176fe"},"vehicle_type_id":"4","last_reported":1760724750,"current_range_meters":12800,"station_id":"ce4bgnh2rcd13ifvqc0g","pricing_plan_id":"cebpf4jnsgd1na2vs0mg"},{"bike_id":"d21353f9-39a9-4792-ab22-ad6a7f764db4","system_id":"levelo_inurba_marseille","lat":43.29265,"lon":5.38452,"is_reserved":false,"is_disabled":false,"rental_uris":{"android":"levelo://app?vid=d21353f9-39a9-4792-ab22-ad6a7f764db4","ios":"levelo://app?vid=d21353f9-39a9-4792-ab22-ad6a7f764db4"},"vehicle_type_id":"4","last_reported":1760724750,"current_range_meters":12800,"station_id":"ce4bh692rcd13ifvqea0","pricing_plan_id":"cebpf4jnsgd1na2vs0mg"},{"bike_id":"8b0edc5a-ce79-49c5-b35d-e6b34e7f36e5","system_id":"levelo_inurba_marseille","lat":43.31758,"lon":5.39013,"is_reserved":false,"is_disabled":false,"rental_uris":{"android":"levelo://app?vid=8b0edc5a-ce79-49c5-b35d-e6b34e7f36e5","ios":"levelo://app?vid=8b0edc5a-ce79-49c5-b35d-e6b34e7f36e5"},"vehicle_type_id":"4","last_reported":1760724750,"current_range_meters":13600,"station_id":"ce4bhqp2rcd13ifvqhng","pricing_plan_id":"cebpf4jnsgd1na2vs0mg"},{"bike_id":"88a9e6bf-be89-4056-8d16-38a53a82f324","system_id":"levelo_inurba_marseille","lat":43.24953,"lon":5.404833,"is_reserved":false,"is_disabled":false,"rental_uris":{"android":"levelo://app?vid=88a9e6bf-be89-4056-8d16-38a53a82f324","ios":"levelo://app?vid=88a9e6bf-be89-4056-8d16-38a53a82f324"},"vehicle_type_id":"4","last_reported":1760724750,"current_range_meters":13600,"station_id":"st_d2ngiaodas8pm72gd1h0","pricing_plan_id":"cebpf4jnsgd1na2vs0mg"},{"bike_id":"c59b8baa-64fa-45a9-88c9-66265bdd4c93","system_id":"levelo_inurba_marseille","lat":43.276498,"lon":5.396289,"is_reserved":false,"is_disabled":false,"rental_uris":{"android":"levelo://app?vid=c59b8baa-64fa-45a9-88c9-66265bdd4c93","ios":"levelo://app?vid=c59b8baa-64fa-45a9-88c9-66265bdd4c93"},"vehicle_type_id":"4","last_reported":1760724750,"current_range_meters":13600,"station_id":"ce4bhnh2rcd13ifvqgtg","pricing_plan_id":"cebpf4jnsgd1na2vs0mg"},{"bike_id":"ab8dbe06-49f3-423b-99b1-2274be7ed343","system_id":"levelo_inurba_marseille","lat":43.296929,"lon":5.366104,"is_reserved":false,"is_disabled":true,"rental_uris":{"android":"levelo://app?vid=ab8dbe06-49f3-423b-99b1-2274be7ed343","ios":"levelo://app?vid=ab8dbe06-49f3-423b-99b1-2274be7ed343"},"vehicle_type_id":"4","last_reported":1760724750,"current_range_meters":13600,"station_id":"ce4bgn12rcd13ifvqbt0","pricing_plan_id":"cebpf4jnsgd1na2vs0mg"},{"bike_id":"e77d4904-4310-4a1e-8891-010a5cbe5ca9","system_id":"levelo_inurba_marseille","lat":43.23962,"lon":5.36656,"is_reserved":false,"is_disabled":false,"rental_uris":{"android":"levelo://app?vid=e77d4904-4310-4a1e-8891-010a5cbe5ca9","ios":"levelo://app?vid=e77d4904-4310-4a1e-8891-010a5cbe5ca9"},"vehicle_type_id":"4","last_reported":1760724750,"current_range_meters":14000,"station_id":"ce4bhi12rcd13ifvqfp0","pricing_plan_id":"cebpf4jnsgd1na2vs0mg"},{"bike_id":"379705ce-0213-4187-9878-c494e45a586d","system_id":"levelo_inurba_marseille","lat":43.305338,"lon":5.372606,"is_reserved":false,"is_disabled":false,"rental_uris":{"android":"levelo://app?vid=379705ce-0213-4187-9878-c494e45a586d","ios":"levelo://app?vid=379705ce-0213-4187-9878-c494e45a586d"},"vehicle_type_id":"4","last_reported":1760724750,"current_range_meters":14000,"station_id":"ce4bgqh2rcd13ifvqc4g","pricing_plan_id":"cebpf4jnsgd1na2vs0mg"},{"bike_id":"7e5438c0-f57d-4b8f-b79a-d7ff3814daaa","system_id":"levelo_inurba_marseille","lat":43.28933,"lon":5.38387,"is_reserved":false,"is_disabled":false,"rental_uris":{"android":"levelo://app?vid=7e5438c0-f57d-4b8f-b79a-d7ff3814daaa","ios":"levelo://app?vid=7e5438c0-f57d-4b8f-b79a-d7ff3814daaa"},"vehicle_type_id":"4","last_reported":1760724750,"current_range_meters":14000,"station_id":"ce4bh612rcd13ifvqe6g","pricing_plan_id":"cebpf4jnsgd1na2vs0mg"},{"bike_id":"924ac669-be8b-47aa-9a8e-6f22baf815eb","system_id":"levelo_inurba_marseille","lat":43.33771,"lon":5.37475,"is_reserved":false,"is_disabled":false,"rental_uris":{"android":"levelo://app?vid=924ac669-be8b-47aa-9a8e-6f22baf815eb","ios":"levelo://app?vid=924ac669-be8b-47aa-9a8e-6f22baf815eb"},"vehicle_type_id":"4","last_reported":1760724750,"current_range_meters":14400,"station_id":"","pricing_plan_id":"cebpf4jnsgd1na2vs0mg"},{"bike_id":"e7ad021f-74c4-4bec-aa87-50fcdb266543","system_id":"levelo_inurba_marseille","lat":43.246597,"lon":5.381674,"is_reserved":false,"is_disabled":false,"rental_uris":{"android":"levelo://app?vid=e7ad021f-74c4-4bec-aa87-50fcdb266543","ios":"levelo://app?vid=e7ad021f-74c4-4bec-aa87-50fcdb266543"},"vehicle_type_id":"4","last_reported":1760724750,"current_range_meters":14400,"station_id":"ce4bhih2rcd13ifvqfr0","pricing_plan_id":"cebpf4jnsgd1na2vs0mg"},{"bike_id":"4df48384-0dbc-4526-9f34-2ef4c4a2ca61","system_id":"levelo_inurba_marseille","lat":43.29219,"lon":5.36063,"is_reserved":false,"is_disabled":false,"rental_uris":{"android":"levelo://app?vid=4df48384-0dbc-4526-9f34-2ef4c4a2ca61","ios":"levelo://app?vid=4df48384-0dbc-4526-9f34-2ef4c4a2ca61"},"vehicle_type_id":"4","last_reported":1760724750,"current_range_meters":14400,"station_id":"ce4bhbh2rcd13ifvqeqg","pricing_plan_id":"cebpf4jnsgd1na2vs0mg"},{"bike_id":"4b676340-84a1-434f-989d-aa20b878ac5e","system_id":"levelo_inurba_marseille","lat":43.275015,"lon":5.424484,"is_reserved":false,"is_disabled":false,"rental_uris":{"android":"levelo://app?vid=4b676340-84a1-434f-989d-aa20b878ac5e","ios":"levelo://app?vid=4b676340-84a1-434f-989d-aa20b878ac5e"},"vehicle_type_id":"4","last_reported":1760724750,"current_range_meters":14400,"station_id":"ce4bhn92rcd13ifvqgrg","pricing_plan_id":"cebpf4jnsgd1na2vs0mg"},{"bike_id":"c7396221-6fe0-499d-bb8d-7c4f4cd6e9d8","system_id":"levelo_inurba_marseille","lat":43.27991,"lon":5.40023,"is_reserved":false,"is_disabled":false,"rental_uris":{"android":"levelo://app?vid=c7396221-6fe0-499d-bb8d-7c4f4cd6e9d8","ios":"levelo://app?vid=c7396221-6fe0-499d-bb8d-7c4f4cd6e9d8"},"vehicle_type_id":"4","last_reported":1760724750,"current_range_meters":14400,"station_id":"ce4bho92rcd13ifvqh4g","pricing_plan_id":"cebpf4jnsgd1na2vs0mg"},{"bike_id":"4c435c82-0bc4-4369-80cf-ae9046a83658","system_id":"levelo_inurba_marseille","lat":43.24165,"lon":5.36391,"is_reserved":false,"is_disabled":false,"rental_uris":{"android":"levelo://app?vid=4c435c82-0bc4-4369-80cf-ae9046a83658","ios":"levelo://app?vid=4c435c82-0bc4-4369-80cf-ae9046a83658"},"vehicle_type_id":"4","last_reported":1760724750,"current_range_meters":14400,"station_id":"cpo36qri1sfpv3e86is0","pricing_plan_id":"cebpf4jnsgd1na2vs0mg"},{"bike_id":"8703c725-f126-42f8-88d2-827d1495506b","system_id":"levelo_inurba_marseille","lat":43.303199,"lon":5.404375,"is_reserved":false,"is_disabled":false,"rental_uris":{"android":"levelo://app?vid=8703c725-f126-42f8-88d2-827d1495506b","ios":"levelo://app?vid=8703c725-f126-42f8-88d2-827d1495506b"},"vehicle_type_id":"4","last_reported":1760724750,"current_range_meters":14800,"station_id":"ce4bh012rcd13ifvqd10","pricing_plan_id":"cebpf4jnsgd1na2vs0mg"},{"bike_id":"efb1b814-b2fd-4250-ae81-aaa2e2ffe6ac","system_id":"levelo_inurba_marseille","lat":43.3021,"lon":5.39466,"is_reserved":false,"is_disabled":false,"rental_uris":{"android":"levelo://app?vid=efb1b814-b2fd-4250-ae81-aaa2e2ffe6ac","ios":"levelo://app?vid=efb1b814-b2fd-4250-ae81-aaa2e2ffe6ac"},"vehicle_type_id":"4","last_reported":1760724750,"current_range_meters":14800,"station_id":"ce4bh0p2rcd13ifvqd70","pricing_plan_id":"cebpf4jnsgd1na2vs0mg"},{"bike_id":"6eb2acec-d68e-4c9a-ad73-90879ab30bc2","system_id":"levelo_inurba_marseille","lat":43.315146,"lon":5.373966,"is_reserved":false,"is_disabled":false,"rental_uris":{"android":"levelo://app?vid=6eb2acec-d68e-4c9a-ad73-90879ab30bc2","ios":"levelo://app?vid=6eb2acec-d68e-4c9a-ad73-90879ab30bc2"},"vehicle_type_id":"4","last_reported":1760724750,"current_range_meters":14800,"station_id":"","pricing_plan_id":"cebpf4jnsgd1na2vs0mg"},{"bike_id":"83766457-f22c-4838-8389-91439f35c0f8","system_id":"levelo_inurba_marseille","lat":43.311742,"lon":5.368141,"is_reserved":false,"is_disabled":false,"rental_uris":{"android":"levelo://app?vid=83766457-f22c-4838-8389-91439f35c0f8","ios":"levelo://app?vid=83766457-f22c-4838-8389-91439f35c0f8"},"vehicle_type_id":"4","last_reported":1760724750,"current_range_meters":14800,"station_id":"","pricing_plan_id":"cebpf4jnsgd1na2vs0mg"},{"bike_id":"feda51fd-1bc8-48a9-aa1c-aedad0bf5b91","system_id":"levelo_inurba_marseille","lat":43.27944,"lon":5.41053,"is_reserved":false,"is_disabled":false,"rental_uris":{"android":"levelo://app?vid=feda51fd-1bc8-48a9-aa1c-aedad0bf5b91","ios":"levelo://app?vid=feda51fd-1bc8-48a9-aa1c-aedad0bf5b91"},"vehicle_type_id":"4","last_reported":1760724750,"current_range_meters":14800,"station_id":"ce4bhnp2rcd13ifvqh0g","pricing_plan_id":"cebpf4jnsgd1na2vs0mg"},{"bike_id":"bd3e8f58-4ed1-4500-888e-b18a5ad273ba","system_id":"levelo_inurba_marseille","lat":43.27996,"lon":5.40021,"is_reserved":false,"is_disabled":false,"rental_uris":{"android":"levelo://app?vid=bd3e8f58-4ed1-4500-888e-b18a5ad273ba","ios":"levelo://app?vid=bd3e8f58-4ed1-4500-888e-b18a5ad273ba"},"vehicle_type_id":"4","last_reported":1760724750,"current_range_meters":14800,"station_id":"ce4bho92rcd13ifvqh4g","pricing_plan_id":"cebpf4jnsgd1na2vs0mg"},{"bike_id":"75b02a51-1325-435e-9661-29bb451a696a","system_id":"levelo_inurba_marseille","lat":43.31448,"lon":5.38488,"is_reserved":false,"is_disabled":false,"rental_uris":{"android":"levelo://app?vid=75b02a51-1325-435e-9661-29bb451a696a","ios":"levelo://app?vid=75b02a51-1325-435e-9661-29bb451a696a"},"vehicle_type_id":"4","last_reported":1760724750,"current_range_meters":14800,"station_id":"","pricing_plan_id":"cebpf4jnsgd1na2vs0mg"},{"bike_id":"a563c858-5d0a-476c-84e8-1f41ccfad418","system_id":"levelo_inurba_marseille","lat":43.30308,"lon":5.3921,"is_reserved":false,"is_disabled":false,"rental_uris":{"android":"levelo://app?vid=a563c858-5d0a-476c-84e8-1f41ccfad418","ios":"levelo://app?vid=a563c858-5d0a-476c-84e8-1f41ccfad418"},"vehicle_type_id":"4","last_reported":1760724750,"current_range_meters":14800,"station_id":"ce4bgkh2rcd13ifvqbk0","pricing_plan_id":"cebpf4jnsgd1na2vs0mg"},{"bike_id":"e84bce0b-ced3-4f34-b6ea-9d63a5640007","system_id":"levelo_inurba_marseille","lat":43.279775,"lon":5.387441,"is_reserved":false,"is_disabled":false,"rental_uris":{"android":"levelo://app?vid=e84bce0b-ced3-4f34-b6ea-9d63a5640007","ios":"levelo://app?vid=e84bce0b-ced3-4f34-b6ea-9d63a5640007"},"vehicle_type_id":"4","last_reported":1760724750,"current_range_meters":14800,"station_id":"ce4bhg12rcd13ifvqf80","pricing_plan_id":"cebpf4jnsgd1na2vs0mg"},{"bike_id":"67cdb401-11c3-4ac9-87c9-b4f3b9fb91ad","system_id":"levelo_inurba_marseille","lat":43.29534,"lon":5.38538,"is_reserved":false,"is_disabled":false,"rental_uris":{"android":"levelo://app?vid=67cdb401-11c3-4ac9-87c9-b4f3b9fb91ad","ios":"levelo://app?vid=67cdb401-11c3-4ac9-87c9-b4f3b9fb91ad"},"vehicle_type_id":"4","last_reported":1760724750,"current_range_meters":14800,"station_id":"ce4bgih2rcd13ifvqba0","pricing_plan_id":"cebpf4jnsgd1na2vs0mg"},{"bike_id":"3b9cd492-9385-4432-b30e-64a7d4d7f313","system_id":"levelo_inurba_marseille","lat":43.27995,"lon":5.40006,"is_reserved":false,"is_disabled":false,"rental_uris":{"android":"levelo://app?vid=3b9cd492-9385-4432-b30e-64a7d4d7f313","ios":"levelo://app?vid=3b9cd492-9385-4432-b30e-64a7d4d7f313"},"vehicle_type_id":"4","last_reported":1760724750,"current_range_meters":15200,"station_id":"ce4bho92rcd13ifvqh4g","pricing_plan_id":"cebpf4jnsgd1na2vs0mg"},{"bike_id":"cf38347d-98d8-433c-bdfc-d70e7d03b26d","system_id":"levelo_inurba_marseille","lat":43.31144,"lon":5.37872,"is_reserved":false,"is_disabled":true,"rental_uris":{"android":"levelo://app?vid=cf38347d-98d8-433c-bdfc-d70e7d03b26d","ios":"levelo://app?vid=cf38347d-98d8-433c-bdfc-d70e7d03b26d"},"vehicle_type_id":"4","last_reported":1760724750,"current_range_meters":15200,"station_id":"","pricing_plan_id":"cebpf4jnsgd1na2vs0mg"},{"bike_id":"9f314335-6e5c-4d4b-95d4-fbb104f7769f","system_id":"levelo_inurba_marseille","lat":43.28109,"lon":5.378333,"is_reserved":false,"is_disabled":false,"rental_uris":{"android":"levelo://app?vid=9f314335-6e5c-4d4b-95d4-fbb104f7769f","ios":"levelo://app?vid=9f314335-6e5c-4d4b-95d4-fbb104f7769f"},"vehicle_type_id":"4","last_reported":1760724750,"current_range_meters":15200,"station_id":"ce4bha12rcd13ifvqee0","pricing_plan_id":"cebpf4jnsgd1na2vs0mg"},{"bike_id":"8aa3ec83-557d-4118-b42f-7e9ff74932f2","system_id":"levelo_inurba_marseille","lat":43.24167,"lon":5.36407,"is_reserved":false,"is_disabled":false,"rental_uris":{"android":"levelo://app?vid=8aa3ec83-557d-4118-b42f-7e9ff74932f2","ios":"levelo://app?vid=8aa3ec83-557d-4118-b42f-7e9ff74932f2"},"vehicle_type_id":"4","last_reported":1760724750,"current_range_meters":15200,"station_id":"cpo36qri1sfpv3e86is0","pricing_plan_id":"cebpf4jnsgd1na2vs0mg"},{"bike_id":"d8c29ff5-5a62-475c-8d27-6337b6599513","system_id":"levelo_inurba_marseille","lat":43.25077,"lon":5.39517,"is_reserved":false,"is_disabled":false,"rental_uris":{"android":"levelo://app?vid=d8c29ff5-5a62-475c-8d27-6337b6599513","ios":"levelo://app?vid=d8c29ff5-5a62-475c-8d27-6337b6599513"},"vehicle_type_id":"4","last_reported":1760724750,"current_range_meters":15200,"station_id":"ce4bhm12rcd13ifvqgkg","pricing_plan_id":"cebpf4jnsgd1na2vs0mg"},{"bike_id":"826974dc-3548-435b-9983-540cbaf2bcfa","system_id":"levelo_inurba_marseille","lat":43.295859,"lon":5.38559,"is_reserved":false,"is_disabled":false,"rental_uris":{"android":"levelo://app?vid=826974dc-3548-435b-9983-540cbaf2bcfa","ios":"levelo://app?vid=826974dc-3548-435b-9983-540cbaf2bcfa"},"vehicle_type_id":"4","last_reported":1760724750,"current_range_meters":15200,"station_id":"ce4bhc92rcd13ifvqetg","pricing_plan_id":"cebpf4jnsgd1na2vs0mg"},{"bike_id":"05ba4076-bbbb-4305-b786-3754e19a793a","system_id":"levelo_inurba_marseille","lat":43.29529,"lon":5.38544,"is_reserved":false,"is_disabled":false,"rental_uris":{"android":"levelo://app?vid=05ba4076-bbbb-4305-b786-3754e19a793a","ios":"levelo://app?vid=05ba4076-bbbb-4305-b786-3754e19a793a"},"vehicle_type_id":"4","last_reported":1760724750,"current_range_meters":15200,"station_id":"ce4bgih2rcd13ifvqba0","pricing_plan_id":"cebpf4jnsgd1na2vs0mg"},{"bike_id":"3e813f53-a213-4153-b702-035291652e78","system_id":"levelo_inurba_marseille","lat":43.269005,"lon":5.368008,"is_reserved":false,"is_disabled":false,"rental_uris":{"android":"levelo://app?vid=3e813f53-a213-4153-b702-035291652e78","ios":"levelo://app?vid=3e813f53-a213-4153-b702-035291652e78"},"vehicle_type_id":"4","last_reported":1760724750,"current_range_meters":16000,"station_id":"","pricing_plan_id":"cebpf4jnsgd1na2vs0mg"},{"bike_id":"0b170382-a38a-48fc-b060-b901de311f1a","system_id":"levelo_inurba_marseille","lat":43.33047,"lon":5.39024,"is_reserved":false,"is_disabled":false,"rental_uris":{"android":"levelo://app?vid=0b170382-a38a-48fc-b060-b901de311f1a","ios":"levelo://app?vid=0b170382-a38a-48fc-b060-b901de311f1a"},"vehicle_type_id":"4","last_reported":1760724750,"current_range_meters":16000,"station_id":"ce4bhr92rcd13ifvqhrg","pricing_plan_id":"cebpf4jnsgd1na2vs0mg"},{"bike_id":"11ae752d-4968-431c-ac72-2916de39507e","system_id":"levelo_inurba_marseille","lat":43.29028,"lon":5.37159,"is_reserved":false,"is_disabled":false,"rental_uris":{"android":"levelo://app?vid=11ae752d-4968-431c-ac72-2916de39507e","ios":"levelo://app?vid=11ae752d-4968-431c-ac72-2916de39507e"},"vehicle_type_id":"4","last_reported":1760724750,"current_range_meters":16000,"station_id":"ce4bh5p2rcd13ifvqe4g","pricing_plan_id":"cebpf4jnsgd1na2vs0mg"},{"bike_id":"b3b6c8ff-c0fc-454e-85a4-5d8c72382498","system_id":"levelo_inurba_marseille","lat":43.28002,"lon":5.40011,"is_reserved":false,"is_disabled":false,"rental_uris":{"android":"levelo://app?vid=b3b6c8ff-c0fc-454e-85a4-5d8c72382498","ios":"levelo://app?vid=b3b6c8ff-c0fc-454e-85a4-5d8c72382498"},"vehicle_type_id":"4","last_reported":1760724750,"current_range_meters":16000,"station_id":"ce4bho92rcd13ifvqh4g","pricing_plan_id":"cebpf4jnsgd1na2vs0mg"},{"bike_id":"4b150ed4-2a96-4f05-bf50-dde36c31ec68","system_id":"levelo_inurba_marseille","lat":43.33946,"lon":5.406557,"is_reserved":false,"is_disabled":false,"rental_uris":{"android":"levelo://app?vid=4b150ed4-2a96-4f05-bf50-dde36c31ec68","ios":"levelo://app?vid=4b150ed4-2a96-4f05-bf50-dde36c31ec68"},"vehicle_type_id":"4","last_reported":1760724750,"current_range_meters":16000,"station_id":"","pricing_plan_id":"cebpf4jnsgd1na2vs0mg"},{"bike_id":"df2d3d6e-26dc-4145-b74c-60aa297416fb","system_id":"levelo_inurba_marseille","lat":43.27672,"lon":5.38927,"is_reserved":false,"is_disabled":true,"rental_uris":{"android":"levelo://app?vid=df2d3d6e-26dc-4145-b74c-60aa297416fb","ios":"levelo://app?vid=df2d3d6e-26dc-4145-b74c-60aa297416fb"},"vehicle_type_id":"4","last_reported":1760724750,"current_range_meters":16000,"station_id":"ce4bhi12rcd13ifvqfo0","pricing_plan_id":"cebpf4jnsgd1na2vs0mg"},{"bike_id":"edcb744a-1021-4493-86cd-94aad7a8dbc8","system_id":"levelo_inurba_marseille","lat":43.3064,"lon":5.37371,"is_reserved":false,"is_disabled":false,"rental_uris":{"android":"levelo://app?vid=edcb744a-1021-4493-86cd-94aad7a8dbc8","ios":"levelo://app?vid=edcb744a-1021-4493-86cd-94aad7a8dbc8"},"vehicle_type_id":"4","last_reported":1760724750,"current_range_meters":16000,"station_id":"","pricing_plan_id":"cebpf4jnsgd1na2vs0mg"},{"bike_id":"209b4a35-c63f-41ff-a1e3-05a7df6a6f13","system_id":"levelo_inurba_marseille","lat":43.28358,"lon":5.38106,"is_reserved":false,"is_disabled":false,"rental_uris":{"android":"levelo://app?vid=209b4a35-c63f-41ff-a1e3-05a7df6a6f13","ios":"levelo://app?vid=209b4a35-c63f-41ff-a1e3-05a7df6a6f13"},"vehicle_type_id":"4","last_reported":1760724750,"current_range_meters":16000,"station_id":"ce4bh412rcd13ifvqdr0","pricing_plan_id":"cebpf4jnsgd1na2vs0mg"},{"bike_id":"abc03f92-dca6-4a46-95f2-dfa86561418e","system_id":"levelo_inurba_marseille","lat":43.27912,"lon":5.412575,"is_reserved":false,"is_disabled":false,"rental_uris":{"android":"levelo://app?vid=abc03f92-dca6-4a46-95f2-dfa86561418e","ios":"levelo://app?vid=abc03f92-dca6-4a46-95f2-dfa86561418e"},"vehicle_type_id":"4","last_reported":1760724750,"current_range_meters":16400,"station_id":"","pricing_plan_id":"cebpf4jnsgd1na2vs0mg"},{"bike_id":"95df8dd3-5762-4a85-aabc-48ebea1b878c","system_id":"levelo_inurba_marseille","lat":43.29589,"lon":5.38103,"is_reserved":false,"is_disabled":false,"rental_uris":{"android":"levelo://app?vid=95df8dd3-5762-4a85-aabc-48ebea1b878c","ios":"levelo://app?vid=95df8dd3-5762-4a85-aabc-48ebea1b878c"},"vehicle_type_id":"4","last_reported":1760724750,"current_range_meters":16400,"station_id":"ce4bgl12rcd13ifvqbo0","pricing_plan_id":"cebpf4jnsgd1na2vs0mg"},{"bike_id":"6020b9ee-27ab-4431-b9d5-d588f9b2dac5","system_id":"levelo_inurba_marseille","lat":43.27946,"lon":5.4105,"is_reserved":false,"is_disabled":false,"rental_uris":{"android":"levelo://app?vid=6020b9ee-27ab-4431-b9d5-d588f9b2dac5","ios":"levelo://app?vid=6020b9ee-27ab-4431-b9d5-d588f9b2dac5"},"vehicle_type_id":"4","last_reported":1760724750,"current_range_meters":16400,"station_id":"ce4bhnp2rcd13ifvqh0g","pricing_plan_id":"cebpf4jnsgd1na2vs0mg"},{"bike_id":"c386641d-a1e2-4563-ad85-c2e237fd8077","system_id":"levelo_inurba_marseille","lat":43.29264,"lon":5.38455,"is_reserved":false,"is_disabled":false,"rental_uris":{"android":"levelo://app?vid=c386641d-a1e2-4563-ad85-c2e237fd8077","ios":"levelo://app?vid=c386641d-a1e2-4563-ad85-c2e237fd8077"},"vehicle_type_id":"4","last_reported":1760724750,"current_range_meters":16400,"station_id":"ce4bh692rcd13ifvqea0","pricing_plan_id":"cebpf4jnsgd1na2vs0mg"},{"bike_id":"8c30526d-4d62-49e0-92a1-2ed039e24496","system_id":"levelo_inurba_marseille","lat":43.28706,"lon":5.38418,"is_reserved":false,"is_disabled":false,"rental_uris":{"android":"levelo://app?vid=8c30526d-4d62-49e0-92a1-2ed039e24496","ios":"levelo://app?vid=8c30526d-4d62-49e0-92a1-2ed039e24496"},"vehicle_type_id":"4","last_reported":1760724750,"current_range_meters":16400,"station_id":"","pricing_plan_id":"cebpf4jnsgd1na2vs0mg"},{"bike_id":"931d8666-f428-4995-aff8-622d46a7371b","system_id":"levelo_inurba_marseille","lat":43.24166,"lon":5.36394,"is_reserved":false,"is_disabled":false,"rental_uris":{"android":"levelo://app?vid=931d8666-f428-4995-aff8-622d46a7371b","ios":"levelo://app?vid=931d8666-f428-4995-aff8-622d46a7371b"},"vehicle_type_id":"4","last_reported":1760724750,"current_range_meters":16400,"station_id":"cpo36qri1sfpv3e86is0","pricing_plan_id":"cebpf4jnsgd1na2vs0mg"},{"bike_id":"e082eb77-dff0-4841-8bc1-1b3492c0d507","system_id":"levelo_inurba_marseille","lat":43.27993,"lon":5.41666,"is_reserved":false,"is_disabled":false,"rental_uris":{"android":"levelo://app?vid=e082eb77-dff0-4841-8bc1-1b3492c0d507","ios":"levelo://app?vid=e082eb77-dff0-4841-8bc1-1b3492c0d507"},"vehicle_type_id":"4","last_reported":1760724750,"current_range_meters":16400,"station_id":"ce4bho12rcd13ifvqh1g","pricing_plan_id":"cebpf4jnsgd1na2vs0mg"},{"bike_id":"4b53d028-a82d-4f5f-94bb-cb8d0d6852cd","system_id":"levelo_inurba_marseille","lat":43.299627,"lon":5.384929,"is_reserved":false,"is_disabled":false,"rental_uris":{"android":"levelo://app?vid=4b53d028-a82d-4f5f-94bb-cb8d0d6852cd","ios":"levelo://app?vid=4b53d028-a82d-4f5f-94bb-cb8d0d6852cd"},"vehicle_type_id":"4","last_reported":1760724750,"current_range_meters":16400,"station_id":"ce4bgj92rcd13ifvqbd0","pricing_plan_id":"cebpf4jnsgd1na2vs0mg"},{"bike_id":"b3de5f35-da94-4965-b940-8cd14144ea0b","system_id":"levelo_inurba_marseille","lat":43.28533,"lon":5.44112,"is_reserved":false,"is_disabled":false,"rental_uris":{"android":"levelo://app?vid=b3de5f35-da94-4965-b940-8cd14144ea0b","ios":"levelo://app?vid=b3de5f35-da94-4965-b940-8cd14144ea0b"},"vehicle_type_id":"4","last_reported":1760724750,"current_range_meters":16400,"station_id":"st_d3j3df2ikq2c7380ej80","pricing_plan_id":"cebpf4jnsgd1na2vs0mg"},{"bike_id":"38383ba5-79d9-4179-8273-dc0f21e200c6","system_id":"levelo_inurba_marseille","lat":43.29259,"lon":5.38441,"is_reserved":false,"is_disabled":false,"rental_uris":{"android":"levelo://app?vid=38383ba5-79d9-4179-8273-dc0f21e200c6","ios":"levelo://app?vid=38383ba5-79d9-4179-8273-dc0f21e200c6"},"vehicle_type_id":"4","last_reported":1760724750,"current_range_meters":16400,"station_id":"ce4bh692rcd13ifvqea0","pricing_plan_id":"cebpf4jnsgd1na2vs0mg"},{"bike_id":"ed274910-f967-489e-bcb0-abdaae7a4334","system_id":"levelo_inurba_marseille","lat":43.2927,"lon":5.38444,"is_reserved":false,"is_disabled":false,"rental_uris":{"android":"levelo://app?vid=ed274910-f967-489e-bcb0-abdaae7a4334","ios":"levelo://app?vid=ed274910-f967-489e-bcb0-abdaae7a4334"},"vehicle_type_id":"4","last_reported":1760724750,"current_range_meters":16400,"station_id":"","pricing_plan_id":"cebpf4jnsgd1na2vs0mg"},{"bike_id":"f45711d9-8073-419d-941d-702b9d1eb7af","system_id":"levelo_inurba_marseille","lat":43.29857,"lon":5.39737,"is_reserved":false,"is_disabled":false,"rental_uris":{"android":"levelo://app?vid=f45711d9-8073-419d-941d-702b9d1eb7af","ios":"levelo://app?vid=f45711d9-8073-419d-941d-702b9d1eb7af"},"vehicle_type_id":"4","last_reported":1760724750,"current_range_meters":16400,"station_id":"ce4bh0h2rcd13ifvqd50","pricing_plan_id":"cebpf4jnsgd1na2vs0mg"},{"bike_id":"df699e50-5c68-4319-992b-691d0e6ecb01","system_id":"levelo_inurba_marseille","lat":43.27994,"lon":5.41662,"is_reserved":false,"is_disabled":false,"rental_uris":{"android":"levelo://app?vid=df699e50-5c68-4319-992b-691d0e6ecb01","ios":"levelo://app?vid=df699e50-5c68-4319-992b-691d0e6ecb01"},"vehicle_type_id":"4","last_reported":1760724750,"current_range_meters":16400,"station_id":"ce4bho12rcd13ifvqh1g","pricing_plan_id":"cebpf4jnsgd1na2vs0mg"},{"bike_id":"754a9f91-6a2c-4bba-b8e2-4cfad9907c18","system_id":"levelo_inurba_marseille","lat":43.29274,"lon":5.38452,"is_reserved":false,"is_disabled":false,"rental_uris":{"android":"levelo://app?vid=754a9f91-6a2c-4bba-b8e2-4cfad9907c18","ios":"levelo://app?vid=754a9f91-6a2c-4bba-b8e2-4cfad9907c18"},"vehicle_type_id":"4","last_reported":1760724750,"current_range_meters":16800,"station_id":"ce4bh692rcd13ifvqea0","pricing_plan_id":"cebpf4jnsgd1na2vs0mg"},{"bike_id":"c5c0ba1b-9708-41ae-972b-81066ff5d8e6","system_id":"levelo_inurba_marseille","lat":43.281565,"lon":5.426423,"is_reserved":false,"is_disabled":false,"rental_uris":{"android":"levelo://app?vid=c5c0ba1b-9708-41ae-972b-81066ff5d8e6","ios":"levelo://app?vid=c5c0ba1b-9708-41ae-972b-81066ff5d8e6"},"vehicle_type_id":"4","last_reported":1760724750,"current_range_meters":16800,"station_id":"ce4bhnh2rcd13ifvqgug","pricing_plan_id":"cebpf4jnsgd1na2vs0mg"},{"bike_id":"1d4b6109-0a93-41a9-b70b-514a233df11a","system_id":"levelo_inurba_marseille","lat":43.291872,"lon":5.35815,"is_reserved":false,"is_disabled":false,"rental_uris":{"android":"levelo://app?vid=1d4b6109-0a93-41a9-b70b-514a233df11a","ios":"levelo://app?vid=1d4b6109-0a93-41a9-b70b-514a233df11a"},"vehicle_type_id":"4","last_reported":1760724750,"current_range_meters":16800,"station_id":"","pricing_plan_id":"cebpf4jnsgd1na2vs0mg"},{"bike_id":"6f4ba675-469a-4008-883d-fe5ed1c3fb2a","system_id":"levelo_inurba_marseille","lat":43.2572,"lon":5.41116,"is_reserved":false,"is_disabled":false,"rental_uris":{"android":"levelo://app?vid=6f4ba675-469a-4008-883d-fe5ed1c3fb2a","ios":"levelo://app?vid=6f4ba675-469a-4008-883d-fe5ed1c3fb2a"},