{"last_updated":1690301315,"ttl":30,"version":"2.2","data":{"bikes":[{"bike_id":"07a06af9-96a6-4443-b441-de37bc350bc3","system_id":"levelo_inurba_marseille","lat":43.312239,"lon":5.368562,"is_reserved":false,"is_disabled":false,"rental_uris":{"android":"levelo://app?vid=07a06af9-96a6-4443-b441-de37bc350bc3","ios":"levelo://app?vid=07a06af9-96a6-4443-b441-de37bc350bc3"},"vehicle_type_id":"4","last_reported":1690301321,"current_range_meters":31200,"station_id":"ce4bgl92rcd13ifvqbq0","pricing_plan_id":"free"},{"bike_id":"5e77547c-d891-458d-b1e3-6191fe90366c","system_id":"levelo_inurba_marseille","lat":43.314811,"lon":5.373103,"is_reserved":false,"is_disabled":false,"rental_uris":{"android":"levelo://app?vid=5e77547c-d891-458d-b1e3-6191fe90366c","ios":"levelo://app?vid=5e77547c-d891-458d-b1e3-6191fe90366c"},"vehicle_type_id":"4","last_reported":1690301321,"current_range_meters":27600,"station_id":"ce4bgt12rcd13ifvqcd0","pricing_plan_id":"free"},{"bike_id":"f4a78ee3-d2f6-438f-a34f-f62cbac84bd6","system_id":"levelo_inurba_marseille","lat":43.314811,"lon":5.373103,"is_reserved":false,"is_disabled":false,"rental_uris":{"android":"levelo://app?vid=f4a78ee3-d2f6-438f-a34f-f62cbac84bd6","ios":"levelo://app?vid=f4a78ee3-d2f6-438f-a34f-f62cbac84bd6"},"vehicle_type_id":"4","last_reported":1690301321,"current_range_meters":31200,"station_id":"ce4bgt12rcd13ifvqcd0","pricing_plan_id":"free"},{"bike_id":"4324627c-7995-4661-8092-9394e3b9c2bd","system_id":"levelo_inurba_marseille","lat":43.30737,"lon":5.37173,"is_reserved":false,"is_disabled":false,"rental_uris":{"android":"levelo://app?vid=4324627c-7995-4661-8092-9394e3b9c2bd","ios":"levelo://app?vid=4324627c-7995-4661-8092-9394e3b9c2bd"},"vehicle_type_id":"4","last_reported":1690301321,"current_range_meters":29200,"station_id":"","pricing_plan_id":"free"},{"bike_id":"d38149e5-d86b-4dfe-a45a-144ab159cc3d","system_id":"levelo_inurba_marseille","lat":43.30554,"lon":5.36536,"is_reserved":false,"is_disabled":false,"rental_uris":{"android":"levelo://app?vid=d38149e5-d86b-4dfe-a45a-144ab159cc3d","ios":"levelo://app?vid=d38149e5-d86b-4dfe-a45a-144ab159cc3d"},"vehicle_type_id":"4","last_reported":1690301321,"current_range_meters":16800,"station_id":"ce4bgs12rcd13ifvqcag","pricing_plan_id":"free"},{"bike_id":"8e4d829f-a89d-4cd3-b063-9d57054e5b79","system_id":"levelo_inurba_marseille","lat":43.30527,"lon":5.36543,"is_reserved":false,"is_disabled":false,"rental_uris":{"android":"levelo://app?vid=8e4d829f-a89d-4cd3-b063-9d57054e5b79","ios":"levelo://app?vid=8e4d829f-a89d-4cd3-b063-9d57054e5b79"},"vehicle_type_id":"4","last_reported":1690301321,"current_range_meters":31600,"station_id":"ce4bgs12rcd13ifvqcag","pricing_plan_id":"free"},{"bike_id":"00cf2b33-3d81-4611-9f6d-fbfb1a67ac04","system_id":"levelo_inurba_marseille","lat":43.305989,"lon":5.37225,"is_reserved":false,"is_disabled":false,"rental_uris":{"android":"levelo://app?vid=00cf2b33-3d81-4611-9f6d-fbfb1a67ac04","ios":"levelo://app?vid=00cf2b33-3d81-4611-9f6d-fbfb1a67ac04"},"vehicle_type_id":"4","last_reported":1690301321,"current_range_meters":24400,"station_id":"ce4bgqh2rcd13ifvqc4g","pricing_plan_id":"free"},{"bike_id":"f81a9f99-b219-477d-b3b6-9d3561c38e23","system_id":"levelo_inurba_marseille","lat":43.305989,"lon":5.37225,"is_reserved":false,"is_disabled":false,"rental_uris":{"android":"levelo://app?vid=f81a9f99-b219-477d-b3b6-9d3561c38e23","ios":"levelo://app?vid=f81a9f99-b219-477d-b3b6-9d3561c38e23"},"vehicle_type_id":"4","last_reported":1690301321,"current_range_meters":31600,"station_id":"ce4bgqh2rcd13ifvqc4g","pricing_plan_id":"free"},{"bike_id":"5d417381-956d-4329-9bee-ada065c8f5d9","system_id":"levelo_inurba_marseille","lat":43.305989,"lon":5.37225,"is_reserved":false,"is_disabled":false,"rental_uris":{"android":"levelo://app?vid=5d417381-956d-4329-9bee-ada065c8f5d9","ios":"levelo://app?vid=5d417381-956d-4329-9bee-ada065c8f5d9"},"vehicle_type_id":"4","last_reported":1690301321,"current_range_meters":15600,"station_id":"ce4bgqh2rcd13ifvqc4g","pricing_plan_id":"free"},{"bike_id":"ea3d17a5-f043-47a5-b369-63a0a3f35400","system_id":"levelo_inurba_marseille","lat":43.311125,"lon":5.377624,"is_reserved":false,"is_disabled":false,"rental_uris":{"android":"levelo://app?vid=ea3d17a5-f043-47a5-b369-63a0a3f35400","ios":"levelo://app?vid=ea3d17a5-f043-47a5-b369-63a0a3f35400"},"vehicle_type_id":"4","last_reported":1690301321,"current_range_meters":18800,"station_id":"ce4bgt92rcd13ifvqcg0","pricing_plan_id":"free"},{"bike_id":"d361df2f-7369-4249-bdc1-4c0ea3a2c2c9","system_id":"levelo_inurba_marseille","lat":43.311125,"lon":5.377624,"is_reserved":false,"is_disabled":false,"rental_uris":{"android":"levelo://app?vid=d361df2f-7369-4249-bdc1-4c0ea3a2c2c9","ios":"levelo://app?vid=d361df2f-7369-4249-bdc1-4c0ea3a2c2c9"},"vehicle_type_id":"4","last_reported":1690301321,"current_range_meters":30800,"station_id":"ce4bgt92rcd13ifvqcg0","pricing_plan_id":"free"},{"bike_id":"373aec61-e74a-4dd5-a550-9cc72912d655","system_id":"levelo_inurba_marseille","lat":43.311125,"lon":5.377624,"is_reserved":false,"is_disabled":false,"rental_uris":{"android":"levelo://app?vid=373aec61-e74a-4dd5-a550-9cc72912d655","ios":"levelo://app?vid=373aec61-e74a-4dd5-a550-9cc72912d655"},"vehicle_type_id":"4","last_reported":1690301321,"current_range_meters":27200,"station_id":"ce4bgt92rcd13ifvqcg0","pricing_plan_id":"free"},{"bike_id":"6b926e33-66b3-4013-b123-4872cd3b9629","system_id":"levelo_inurba_marseille","lat":43.32017,"lon":5.37108,"is_reserved":false,"is_disabled":false,"rental_uris":{"android":"levelo://app?vid=6b926e33-66b3-4013-b123-4872cd3b9629","ios":"levelo://app?vid=6b926e33-66b3-4013-b123-4872cd3b9629"},"vehicle_type_id":"4","last_reported":1690301321,"current_range_meters":25200,"station_id":"","pricing_plan_id":"free"},{"bike_id":"fcdd905c-a93c-4600-9205-b97b4f0d29d4","system_id":"levelo_inurba_marseille","lat":43.30802,"lon":5.37654,"is_reserved":false,"is_disabled":false,"rental_uris":{"android":"levelo://app?vid=fcdd905c-a93c-4600-9205-b97b4f0d29d4","ios":"levelo://app?vid=fcdd905c-a93c-4600-9205-b97b4f0d29d4"},"vehicle_type_id":"4","last_reported":1690301321,"current_range_meters":20000,"station_id":"ce4bgv92rcd13ifvqcq0","pricing_plan_id":"free"},{"bike_id":"4daf477b-32bc-4cb1-939f-1c97c9c5d002","system_id":"levelo_inurba_marseille","lat":43.30781,"lon":5.37651,"is_reserved":false,"is_disabled":false,"rental_uris":{"android":"levelo://app?vid=4daf477b-32bc-4cb1-939f-1c97c9c5d002","ios":"levelo://app?vid=4daf477b-32bc-4cb1-939f-1c97c9c5d002"},"vehicle_type_id":"4","last_reported":1690301321,"current_range_meters":7600,"station_id":"ce4bgv92rcd13ifvqcq0","pricing_plan_id":"free"},{"bike_id":"c19dd335-9224-4a79-bd33-bcf4a28673c5","system_id":"levelo_inurba_marseille","lat":43.307819,"lon":5.376564,"is_reserved":false,"is_disabled":false,"rental_uris":{"android":"levelo://app?vid=c19dd335-9224-4a79-bd33-bcf4a28673c5","ios":"levelo://app?vid=c19dd335-9224-4a79-bd33-bcf4a28673c5"},"vehicle_type_id":"4","last_reported":1690301321,"current_range_meters":16800,"station_id":"","pricing_plan_id":"free"},{"bike_id":"33f43664-a318-40a7-9e2f-53bce24311a2","system_id":"levelo_inurba_marseille","lat":43.307945,"lon":5.376487,"is_reserved":false,"is_disabled":false,"rental_uris":{"android":"levelo://app?vid=33f43664-a318-40a7-9e2f-53bce24311a2","ios":"levelo://app?vid=33f43664-a318-40a7-9e2f-53bce24311a2"},"vehicle_type_id":"4","last_reported":1690301321,"current_range_meters":18800,"station_id":"ce4bgv92rcd13ifvqcq0","pricing_plan_id":"free"},{"bike_id":"089a9f37-f4f7-4672-9aec-5117c14a9106","system_id":"levelo_inurba_marseille","lat":43.3032,"lon":5.36897,"is_reserved":false,"is_disabled":false,"rental_uris":{"android":"levelo://app?vid=089a9f37-f4f7-4672-9aec-5117c14a9106","ios":"levelo://app?vid=089a9f37-f4f7-4672-9aec-5117c14a9106"},"vehicle_type_id":"4","last_reported":1690301321,"current_range_meters":4800,"station_id":"ce4bgqh2rcd13ifvqc5g","pricing_plan_id":"free"},{"bike_id":"e100bfdb-54ee-4c59-9ca4-65ca933583b4","system_id":"levelo_inurba_marseille","lat":43.231562,"lon":5.436933,"is_reserved":false,"is_disabled":false,"rental_uris":{"android":"levelo://app?vid=e100bfdb-54ee-4c59-9ca4-65ca933583b4","ios":"levelo://app?vid=e100bfdb-54ee-4c59-9ca4-65ca933583b4"},"vehicle_type_id":"4","last_reported":1690301321,"current_range_meters":20400,"station_id":"ce4bhmp2rcd13ifvqgog","pricing_plan_id":"free"},{"bike_id":"66446a6f-5920-4b7c-a0a6-fb1d364bd4c8","system_id":"levelo_inurba_marseille","lat":43.3153,"lon":5.38034,"is_reserved":false,"is_disabled":false,"rental_uris":{"android":"levelo://app?vid=66446a6f-5920-4b7c-a0a6-fb1d364bd4c8","ios":"levelo://app?vid=66446a6f-5920-4b7c-a0a6-fb1d364bd4c8"},"vehicle_type_id":"4","last_reported":1690301321,"current_range_meters":19200,"station_id":"ce4bhsp2rcd13ifvqi50","pricing_plan_id":"free"},{"bike_id":"cba6002b-8540-45a9-b536-e2fe613089a1","system_id":"levelo_inurba_marseille","lat":43.315289,"lon":5.380349,"is_reserved":false,"is_disabled":false,"rental_uris":{"android":"levelo://app?vid=cba6002b-8540-45a9-b536-e2fe613089a1","ios":"levelo://app?vid=cba6002b-8540-45a9-b536-e2fe613089a1"},"vehicle_type_id":"4","last_reported":1690301321,"current_range_meters":6000,"station_id":"ce4bhsp2rcd13ifvqi50","pricing_plan_id":"free"},{"bike_id":"ea014594-78ec-4a09-8520-a7c5ed43c51b","system_id":"levelo_inurba_marseille","lat":43.31527,"lon":5.38038,"is_reserved":false,"is_disabled":false,"rental_uris":{"android":"levelo://app?vid=ea014594-78ec-4a09-8520-a7c5ed43c51b","ios":"levelo://app?vid=ea014594-78ec-4a09-8520-a7c5ed43c51b"},"vehicle_type_id":"4","last_reported":1690301321,"current_range_meters":22800,"station_id":"ce4bhsp2rcd13ifvqi50","pricing_plan_id":"free"},{"bike_id":"3970c306-b974-4aeb-bfd9-8e64babd6328","system_id":"levelo_inurba_marseille","lat":43.308012,"lon":5.381511,"is_reserved":false,"is_disabled":false,"rental_uris":{"android":"levelo://app?vid=3970c306-b974-4aeb-bfd9-8e64babd6328","ios":"levelo://app?vid=3970c306-b974-4aeb-bfd9-8e64babd6328"},"vehicle_type_id":"4","last_reported":1690301321,"current_range_meters":27200,"station_id":"ce4bgt12rcd13ifvqce0","pricing_plan_id":"free"},{"bike_id":"bf551384-b8bd-499a-af90-ad536d778d77","system_id":"levelo_inurba_marseille","lat":43.308012,"lon":5.381511,"is_reserved":false,"is_disabled":false,"rental_uris":{"android":"levelo://app?vid=bf551384-b8bd-499a-af90-ad536d778d77","ios":"levelo://app?vid=bf551384-b8bd-499a-af90-ad536d778d77"},"vehicle_type_id":"4","last_reported":1690301321,"current_range_meters":18000,"station_id":"ce4bgt12rcd13ifvqce0","pricing_plan_id":"free"},{"bike_id":"ae6722eb-a822-4cd9-bb67-009f756edb21","system_id":"levelo_inurba_marseille","lat":43.304606,"lon":5.379026,"is_reserved":false,"is_disabled":false,"rental_uris":{"android":"levelo://app?vid=ae6722eb-a822-4cd9-bb67-009f756edb21","ios":"levelo://app?vid=ae6722eb-a822-4cd9-bb67-009f756edb21"},"vehicle_type_id":"4","last_reported":1690301321,"current_range_meters":12000,"station_id":"ce4bgup2rcd13ifvqcn0","pricing_plan_id":"free"},{"bike_id":"60309fb2-451b-4433-a53e-e6a9d19d98c7","system_id":"levelo_inurba_marseille","lat":43.304578,"lon":5.379018,"is_reserved":false,"is_disabled":false,"rental_uris":{"android":"levelo://app?vid=60309fb2-451b-4433-a53e-e6a9d19d98c7","ios":"levelo://app?vid=60309fb2-451b-4433-a53e-e6a9d19d98c7"},"vehicle_type_id":"4","last_reported":1690301321,"current_range_meters":16800,"station_id":"","pricing_plan_id":"free"},{"bike_id":"74e31db2-530a-4ad0-b8e9-f0ea59ffb9b8","system_id":"levelo_inurba_marseille","lat":43.302784,"lon":5.377158,"is_reserved":false,"is_disabled":false,"rental_uris":{"android":"levelo://app?vid=74e31db2-530a-4ad0-b8e9-f0ea59ffb9b8","ios":"levelo://app?vid=74e31db2-530a-4ad0-b8e9-f0ea59ffb9b8"},"vehicle_type_id":"4","last_reported":1690301321,"current_range_meters":29600,"station_id":"ce4bguh2rcd13ifvqcj0","pricing_plan_id":"free"},{"bike_id":"f8ebd818-9548-4dbb-ba37-4508a2f3c6c3","system_id":"levelo_inurba_marseille","lat":43.32001,"lon":5.38165,"is_reserved":false,"is_disabled":false,"rental_uris":{"android":"levelo://app?vid=f8ebd818-9548-4dbb-ba37-4508a2f3c6c3","ios":"levelo://app?vid=f8ebd818-9548-4dbb-ba37-4508a2f3c6c3"},"vehicle_type_id":"4","last_reported":1690301321,"current_range_meters":13200,"station_id":"ce4bhr12rcd13ifvqhpg","pricing_plan_id":"free"},{"bike_id":"66eb51b5-1876-42a6-a619-247d2e0cd7f8","system_id":"levelo_inurba_marseille","lat":43.31232,"lon":5.38474,"is_reserved":false,"is_disabled":false,"rental_uris":{"android":"levelo://app?vid=66eb51b5-1876-42a6-a619-247d2e0cd7f8","ios":"levelo://app?vid=66eb51b5-1876-42a6-a619-247d2e0cd7f8"},"vehicle_type_id":"4","last_reported":1690301321,"current_range_meters":0,"station_id":"","pricing_plan_id":"free"},{"bike_id":"49dac21a-6941-4a1b-88cb-5e5eb4cad6d5","system_id":"levelo_inurba_marseille","lat":43.31374,"lon":5.38489,"is_reserved":false,"is_disabled":false,"rental_uris":{"android":"levelo://app?vid=49dac21a-6941-4a1b-88cb-5e5eb4cad6d5","ios":"levelo://app?vid=49dac21a-6941-4a1b-88cb-5e5eb4cad6d5"},"vehicle_type_id":"4","last_reported":1690301321,"current_range_meters":18400,"station_id":"ce4bgt92rcd13ifvqcf0","pricing_plan_id":"free"},{"bike_id":"b5404a6c-b6cd-4e2b-b2cb-6edaaf710406","system_id":"levelo_inurba_marseille","lat":43.2994,"lon":5.36551,"is_reserved":false,"is_disabled":false,"rental_uris":{"android":"levelo://app?vid=b5404a6c-b6cd-4e2b-b2cb-6edaaf710406","ios":"levelo://app?vid=b5404a6c-b6cd-4e2b-b2cb-6edaaf710406"},"vehicle_type_id":"4","last_reported":1690301321,"current_range_meters":22000,"station_id":"ce4bgm92rcd13ifvqbr0","pricing_plan_id":"free"},{"bike_id":"2e7dadb2-c765-4e68-ad24-d47c66d3caf7","system_id":"levelo_inurba_marseille","lat":43.29931,"lon":5.36552,"is_reserved":false,"is_disabled":false,"rental_uris":{"android":"levelo://app?vid=2e7dadb2-c765-4e68-ad24-d47c66d3caf7","ios":"levelo://app?vid=2e7dadb2-c765-4e68-ad24-d47c66d3caf7"},"vehicle_type_id":"4","last_reported":1690301321,"current_range_meters":20000,"station_id":"ce4bgm92rcd13ifvqbr0","pricing_plan_id":"free"},{"bike_id":"54310803-166a-4356-a8ef-505b796f1351","system_id":"levelo_inurba_marseille","lat":43.29931,"lon":5.36541,"is_reserved":false,"is_disabled":false,"rental_uris":{"android":"levelo://app?vid=54310803-166a-4356-a8ef-505b796f1351","ios":"levelo://app?vid=54310803-166a-4356-a8ef-505b796f1351"},"vehicle_type_id":"4","last_reported":1690301321,"current_range_meters":24000,"station_id":"ce4bgm92rcd13ifvqbr0","pricing_plan_id":"free"},{"bike_id":"0ba47e49-858c-42f6-9950-f77b52be1623","system_id":"levelo_inurba_marseille","lat":43.298433,"lon":5.362774,"is_reserved":false,"is_disabled":false,"rental_uris":{"android":"levelo://app?vid=0ba47e49-858c-42f6-9950-f77b52be1623","ios":"levelo://app?vid=0ba47e49-858c-42f6-9950-f77b52be1623"},"vehicle_type_id":"4","last_reported":1690301321,"current_range_meters":32000,"station_id":"ce4bgpp2rcd13ifvqc3g","pricing_plan_id":"free"},{"bike_id":"dfdab113-8555-4922-86c1-16b2e341b0ff","system_id":"levelo_inurba_marseille","lat":43.298433,"lon":5.362774,"is_reserved":false,"is_disabled":false,"rental_uris":{"android":"levelo://app?vid=dfdab113-8555-4922-86c1-16b2e341b0ff","ios":"levelo://app?vid=dfdab113-8555-4922-86c1-16b2e341b0ff"},"vehicle_type_id":"4","last_reported":1690301321,"current_range_meters":31600,"station_id":"ce4bgpp2rcd13ifvqc3g","pricing_plan_id":"free"},{"bike_id":"5a4f1374-64f2-461a-a3f8-ccc33d98682f","system_id":"levelo_inurba_marseille","lat":43.298433,"lon":5.362774,"is_reserved":false,"is_disabled":false,"rental_uris":{"android":"levelo://app?vid=5a4f1374-64f2-461a-a3f8-ccc33d98682f","ios":"levelo://app?vid=5a4f1374-64f2-461a-a3f8-ccc33d98682f"},"vehicle_type_id":"4","last_reported":1690301321,"current_range_meters":20000,"station_id":"ce4bgpp2rcd13ifvqc3g","pricing_plan_id":"free"},{"bike_id":"07929158-2849-4dc2-b8cd-54fb0a0d1b96","system_id":"levelo_inurba_marseille","lat":43.298433,"lon":5.362774,"is_reserved":false,"is_disabled":false,"rental_uris":{"android":"levelo://app?vid=07929158-2849-4dc2-b8cd-54fb0a0d1b96","ios":"levelo://app?vid=07929158-2849-4dc2-b8cd-54fb0a0d1b96"},"vehicle_type_id":"4","last_reported":1690301321,"current_range_meters":28000,"station_id":"ce4bgpp2rcd13ifvqc3g","pricing_plan_id":"free"},{"bike_id":"a1addeb7-6640-45dd-830b-6ab2bcc253ce","system_id":"levelo_inurba_marseille","lat":43.305364,"lon":5.384119,"is_reserved":false,"is_disabled":false,"rental_uris":{"android":"levelo://app?vid=a1addeb7-6640-45dd-830b-6ab2bcc253ce","ios":"levelo://app?vid=a1addeb7-6640-45dd-830b-6ab2bcc253ce"},"vehicle_type_id":"4","last_reported":1690301321,"current_range_meters":23600,"station_id":"ce4bgg92rcd13ifvqb30","pricing_plan_id":"free"},{"bike_id":"b33a8dc6-63fc-4843-9d0a-d370c90de77f","system_id":"levelo_inurba_marseille","lat":43.30544,"lon":5.38427,"is_reserved":false,"is_disabled":false,"rental_uris":{"android":"levelo://app?vid=b33a8dc6-63fc-4843-9d0a-d370c90de77f","ios":"levelo://app?vid=b33a8dc6-63fc-4843-9d0a-d370c90de77f"},"vehicle_type_id":"4","last_reported":1690301321,"current_range_meters":21600,"station_id":"ce4bgg92rcd13ifvqb30","pricing_plan_id":"free"},{"bike_id":"68f62611-e5dd-41e2-9325-c77c77d587da","system_id":"levelo_inurba_marseille","lat":43.298433,"lon":5.362774,"is_reserved":false,"is_disabled":false,"rental_uris":{"android":"levelo://app?vid=68f62611-e5dd-41e2-9325-c77c77d587da","ios":"levelo://app?vid=68f62611-e5dd-41e2-9325-c77c77d587da"},"vehicle_type_id":"4","last_reported":1690301321,"current_range_meters":31200,"station_id":"ce4bgpp2rcd13ifvqc3g","pricing_plan_id":"free"},{"bike_id":"ca768735-188f-44f6-946a-5d527f104a32","system_id":"levelo_inurba_marseille","lat":43.298433,"lon":5.362774,"is_reserved":false,"is_disabled":false,"rental_uris":{"android":"levelo://app?vid=ca768735-188f-44f6-946a-5d527f104a32","ios":"levelo://app?vid=ca768735-188f-44f6-946a-5d527f104a32"},"vehicle_type_id":"4","last_reported":1690301321,"current_range_meters":31600,"station_id":"ce4bgpp2rcd13ifvqc3g","pricing_plan_id":"free"},{"bike_id":"bab34e2d-7f1e-4392-8caf-dac4106078cd","system_id":"levelo_inurba_marseille","lat":43.299243,"lon":5.374807,"is_reserved":false,"is_disabled":false,"rental_uris":{"android":"levelo://app?vid=bab34e2d-7f1e-4392-8caf-dac4106078cd","ios":"levelo://app?vid=bab34e2d-7f1e-4392-8caf-dac4106078cd"},"vehicle_type_id":"4","last_reported":1690301321,"current_range_meters":12400,"station_id":"ce4bgjh2rcd13ifvqbg0","pricing_plan_id":"free"},{"bike_id":"bd9b1934-26a7-48d1-81d4-8ef9b0139b5e","system_id":"levelo_inurba_marseille","lat":43.311722,"lon":5.387247,"is_reserved":false,"is_disabled":false,"rental_uris":{"android":"levelo://app?vid=bd9b1934-26a7-48d1-81d4-8ef9b0139b5e","ios":"levelo://app?vid=bd9b1934-26a7-48d1-81d4-8ef9b0139b5e"},"vehicle_type_id":"4","last_reported":1690301321,"current_range_meters":31200,"station_id":"ce4bgv12rcd13ifvqcp0","pricing_plan_id":"free"},{"bike_id":"50c88390-4bd9-46ac-9b10-17ef47ed6f66","system_id":"levelo_inurba_marseille","lat":43.3015,"lon":5.38079,"is_reserved":false,"is_disabled":false,"rental_uris":{"android":"levelo://app?vid=50c88390-4bd9-46ac-9b10-17ef47ed6f66","ios":"levelo://app?vid=50c88390-4bd9-46ac-9b10-17ef47ed6f66"},"vehicle_type_id":"4","last_reported":1690301321,"current_range_meters":23200,"station_id":"","pricing_plan_id":"free"},{"bike_id":"cd5bfadf-87c6-4927-9d26-a7fab5c6e7ca","system_id":"levelo_inurba_marseille","lat":43.297774,"lon":5.370875,"is_reserved":false,"is_disabled":false,"rental_uris":{"android":"levelo://app?vid=cd5bfadf-87c6-4927-9d26-a7fab5c6e7ca","ios":"levelo://app?vid=cd5bfadf-87c6-4927-9d26-a7fab5c6e7ca"},"vehicle_type_id":"4","last_reported":1690301321,"current_range_meters":4400,"station_id":"ce4bgop2rcd13ifvqc1g","pricing_plan_id":"free"},{"bike_id":"f702ee62-351c-46f9-917a-cdf9a143d989","system_id":"levelo_inurba_marseille","lat":43.297774,"lon":5.370875,"is_reserved":false,"is_disabled":false,"rental_uris":{"android":"levelo://app?vid=f702ee62-351c-46f9-917a-cdf9a143d989","ios":"levelo://app?vid=f702ee62-351c-46f9-917a-cdf9a143d989"},"vehicle_type_id":"4","last_reported":1690301321,"current_range_meters":17600,"station_id":"ce4bgop2rcd13ifvqc1g","pricing_plan_id":"free"},{"bike_id":"d5e19152-5958-44ec-bce8-e631869ba045","system_id":"levelo_inurba_marseille","lat":43.322872,"lon":5.382756,"is_reserved":false,"is_disabled":false,"rental_uris":{"android":"levelo://app?vid=d5e19152-5958-44ec-bce8-e631869ba045","ios":"levelo://app?vid=d5e19152-5958-44ec-bce8-e631869ba045"},"vehicle_type_id":"4","last_reported":1690301321,"current_range_meters":18400,"station_id":"ce4bhr12rcd13ifvqhqg","pricing_plan_id":"free"},{"bike_id":"80c2a667-3815-4a15-9029-98c1fcf3ccdf","system_id":"levelo_inurba_marseille","lat":43.322872,"lon":5.382756,"is_reserved":false,"is_disabled":false,"rental_uris":{"android":"levelo://app?vid=80c2a667-3815-4a15-9029-98c1fcf3ccdf","ios":"levelo://app?vid=80c2a667-3815-4a15-9029-98c1fcf3ccdf"},"vehicle_type_id":"4","last_reported":1690301321,"current_range_meters":12400,"station_id":"ce4bhr12rcd13ifvqhqg","pricing_plan_id":"free"},{"bike_id":"7cc3baf1-c805-4032-aebc-d576eeda97fe","system_id":"levelo_inurba_marseille","lat":43.32291,"lon":5.38272,"is_reserved":false,"is_disabled":false,"rental_uris":{"android":"levelo://app?vid=7cc3baf1-c805-4032-aebc-d576eeda97fe","ios":"levelo://app?vid=7cc3baf1-c805-4032-aebc-d576eeda97fe"},"vehicle_type_id":"4","last_reported":1690301321,"current_range_meters":11600,"station_id":"ce4bhr12rcd13ifvqhqg","pricing_plan_id":"free"},{"bike_id":"14018838-15d4-47d3-b92b-afe97d69edca","system_id":"levelo_inurba_marseille","lat":43.32827,"lon":5.36694,"is_reserved":false,"is_disabled":false,"rental_uris":{"android":"levelo://app?vid=14018838-15d4-47d3-b92b-afe97d69edca","ios":"levelo://app?vid=14018838-15d4-47d3-b92b-afe97d69edca"},"vehicle_type_id":"4","last_reported":1690301321,"current_range_meters":13200,"station_id":"ce4bhs92rcd13ifvqi0g","pricing_plan_id":"free"},{"bike_id":"cf06aece-fddc-431c-b3fe-22afbed173fe","system_id":"levelo_inurba_marseille","lat":43.32829,"lon":5.36693,"is_reserved":false,"is_disabled":false,"rental_uris":{"android":"levelo://app?vid=cf06aece-fddc-431c-b3fe-22afbed173fe","ios":"levelo://app?vid=cf06aece-fddc-431c-b3fe-22afbed173fe"},"vehicle_type_id":"4","last_reported":1690301321,"current_range_meters":27600,"station_id":"ce4bhs92rcd13ifvqi0g","pricing_plan_id":"free"},{"bike_id":"72ca7208-45f8-437b-8356-4e83c77eebbc","system_id":"levelo_inurba_marseille","lat":43.328371,"lon":5.366909,"is_reserved":false,"is_disabled":false,"rental_uris":{"android":"levelo://app?vid=72ca7208-45f8-437b-8356-4e83c77eebbc","ios":"levelo://app?vid=72ca7208-45f8-437b-8356-4e83c77eebbc"},"vehicle_type_id":"4","last_reported":1690301321,"current_range_meters":1600,"station_id":"ce4bhs92rcd13ifvqi0g","pricing_plan_id":"free"},{"bike_id":"cfdae39a-73fc-4708-bfd3-1db42eb43230","system_id":"levelo_inurba_marseille","lat":43.32832,"lon":5.36679,"is_reserved":false,"is_disabled":false,"rental_uris":{"android":"levelo://app?vid=cfdae39a-73fc-4708-bfd3-1db42eb43230","ios":"levelo://app?vid=cfdae39a-73fc-4708-bfd3-1db42eb43230"},"vehicle_type_id":"4","last_reported":1690301321,"current_range_meters":23200,"station_id":"ce4bhs92rcd13ifvqi0g","pricing_plan_id":"free"},{"bike_id":"5446d7a1-aaad-4cdb-989a-32d6b6e1b312","system_id":"levelo_inurba_marseille","lat":43.32833,"lon":5.36689,"is_reserved":false,"is_disabled":false,"rental_uris":{"android":"levelo://app?vid=5446d7a1-aaad-4cdb-989a-32d6b6e1b312","ios":"levelo://app?vid=5446d7a1-aaad-4cdb-989a-32d6b6e1b312"},"vehicle_type_id":"4","last_reported":1690301321,"current_range_meters":12000,"station_id":"ce4bhs92rcd13ifvqi0g","pricing_plan_id":"free"},{"bike_id":"f376f06a-3cdf-4388-ade3-9cb3ea05c059","system_id":"levelo_inurba_marseille","lat":43.297163,"lon":5.365866,"is_reserved":false,"is_disabled":false,"rental_uris":{"android":"levelo://app?vid=f376f06a-3cdf-4388-ade3-9cb3ea05c059","ios":"levelo://app?vid=f376f06a-3cdf-4388-ade3-9cb3ea05c059"},"vehicle_type_id":"4","last_reported":1690301321,"current_range_meters":31600,"station_id":"ce4bgn12rcd13ifvqbt0","pricing_plan_id":"free"},{"bike_id":"817724b5-07f0-4bba-a26a-dbaf5c1ae6eb","system_id":"levelo_inurba_marseille","lat":43.297163,"lon":5.365866,"is_reserved":false,"is_disabled":false,"rental_uris":{"android":"levelo://app?vid=817724b5-07f0-4bba-a26a-dbaf5c1ae6eb","ios":"levelo://app?vid=817724b5-07f0-4bba-a26a-dbaf5c1ae6eb"},"vehicle_type_id":"4","last_reported":1690301321,"current_range_meters":30000,"station_id":"ce4bgn12rcd13ifvqbt0","pricing_plan_id":"free"},{"bike_id":"bdfa132d-c846-428f-8528-cb8eb868fa36","system_id":"levelo_inurba_marseille","lat":43.297163,"lon":5.365866,"is_reserved":false,"is_disabled":false,"rental_uris":{"android":"levelo://app?vid=bdfa132d-c846-428f-8528-cb8eb868fa36","ios":"levelo://app?vid=bdfa132d-c846-428f-8528-cb8eb868fa36"},"vehicle_type_id":"4","last_reported":1690301321,"current_range_meters":24800,"station_id":"ce4bgn12rcd13ifvqbt0","pricing_plan_id":"free"},{"bike_id":"8f69639a-91ab-4807-bc1d-d0e4cac47027","system_id":"levelo_inurba_marseille","lat":43.296131,"lon":5.370791,"is_reserved":false,"is_disabled":false,"rental_uris":{"android":"levelo://app?vid=8f69639a-91ab-4807-bc1d-d0e4cac47027","ios":"levelo://app?vid=8f69639a-91ab-4807-bc1d-d0e4cac47027"},"vehicle_type_id":"4","last_reported":1690301321,"current_range_meters":30000,"station_id":"ce4bgnh2rcd13ifvqc0g","pricing_plan_id":"free"},{"bike_id":"c174ceb5-9103-4f4d-baaa-2ded02b7b8c9","system_id":"levelo_inurba_marseille","lat":43.29599,"lon":5.3673,"is_reserved":false,"is_disabled":false,"rental_uris":{"android":"levelo://app?vid=c174ceb5-9103-4f4d-baaa-2ded02b7b8c9","ios":"levelo://app?vid=c174ceb5-9103-4f4d-baaa-2ded02b7b8c9"},"vehicle_type_id":"4","last_reported":1690301321,"current_range_meters":31200,"station_id":"ce4bgph2rcd13ifvqc2g","pricing_plan_id":"free"},{"bike_id":"184a61e2-49ab-44f3-acf4-9fa5a72112c3","system_id":"levelo_inurba_marseille","lat":43.296131,"lon":5.370791,"is_reserved":false,"is_disabled":false,"rental_uris":{"android":"levelo://app?vid=184a61e2-49ab-44f3-acf4-9fa5a72112c3","ios":"levelo://app?vid=184a61e2-49ab-44f3-acf4-9fa5a72112c3"},"vehicle_type_id":"4","last_reported":1690301321,"current_range_meters":6800,"station_id":"ce4bgnh2rcd13ifvqc0g","pricing_plan_id":"free"},{"bike_id":"86e5903c-909d-4f3f-bf04-63e4754468c4","system_id":"levelo_inurba_marseille","lat":43.296131,"lon":5.370791,"is_reserved":false,"is_disabled":false,"rental_uris":{"android":"levelo://app?vid=86e5903c-909d-4f3f-bf04-63e4754468c4","ios":"levelo://app?vid=86e5903c-909d-4f3f-bf04-63e4754468c4"},"vehicle_type_id":"4","last_reported":1690301321,"current_range_meters":2400,"station_id":"ce4bgnh2rcd13ifvqc0g","pricing_plan_id":"free"},{"bike_id":"90d7a7b5-5e00-4f90-9e38-2e475288145c","system_id":"levelo_inurba_marseille","lat":43.296131,"lon":5.370773,"is_reserved":false,"is_disabled":false,"rental_uris":{"android":"levelo://app?vid=90d7a7b5-5e00-4f90-9e38-2e475288145c","ios":"levelo://app?vid=90d7a7b5-5e00-4f90-9e38-2e475288145c"},"vehicle_type_id":"4","last_reported":1690301321,"current_range_meters":800,"station_id":"ce4bgnh2rcd13ifvqc0g","pricing_plan_id":"free"},{"bike_id":"5a2e44ab-ab5a-4385-bc56-d4f6cf1b191a","system_id":"levelo_inurba_marseille","lat":43.296131,"lon":5.370773,"is_reserved":false,"is_disabled":false,"rental_uris":{"android":"levelo://app?vid=5a2e44ab-ab5a-4385-bc56-d4f6cf1b191a","ios":"levelo://app?vid=5a2e44ab-ab5a-4385-bc56-d4f6cf1b191a"},"vehicle_type_id":"4","last_reported":1690301321,"current_range_meters":24400,"station_id":"ce4bgnh2rcd13ifvqc0g","pricing_plan_id":"free"},{"bike_id":"546b2c51-f5e3-4ede-8385-ab33a35f789c","system_id":"levelo_inurba_marseille","lat":43.2962,"lon":5.3716,"is_reserved":false,"is_disabled":false,"rental_uris":{"android":"levelo://app?vid=546b2c51-f5e3-4ede-8385-ab33a35f789c","ios":"levelo://app?vid=546b2c51-f5e3-4ede-8385-ab33a35f789c"},"vehicle_type_id":"4","last_reported":1690301321,"current_range_meters":4800,"station_id":"","pricing_plan_id":"free"},{"bike_id":"edd9c18a-6126-42c1-bf8f-1f46592aa7d8","system_id":"levelo_inurba_marseille","lat":43.31066,"lon":5.39001,"is_reserved":false,"is_disabled":false,"rental_uris":{"android":"levelo://app?vid=edd9c18a-6126-42c1-bf8f-1f46592aa7d8","ios":"levelo://app?vid=edd9c18a-6126-42c1-bf8f-1f46592aa7d8"},"vehicle_type_id":"4","last_reported":1690301321,"current_range_meters":25200,"station_id":"","pricing_plan_id":"free"},{"bike_id":"529997fc-b8e1-427a-9c1b-7df42456d6b3","system_id":"levelo_inurba_marseille","lat":43.29573,"lon":5.367355,"is_reserved":false,"is_disabled":false,"rental_uris":{"android":"levelo://app?vid=529997fc-b8e1-427a-9c1b-7df42456d6b3","ios":"levelo://app?vid=529997fc-b8e1-427a-9c1b-7df42456d6b3"},"vehicle_type_id":"4","last_reported":1690301321,"current_range_meters":24400,"station_id":"ce4bgph2rcd13ifvqc2g","pricing_plan_id":"free"},{"bike_id":"1948be63-7dea-4593-8edd-9007ba94f1ac","system_id":"levelo_inurba_marseille","lat":43.299028,"lon":5.381509,"is_reserved":false,"is_disabled":false,"rental_uris":{"android":"levelo://app?vid=1948be63-7dea-4593-8edd-9007ba94f1ac","ios":"levelo://app?vid=1948be63-7dea-4593-8edd-9007ba94f1ac"},"vehicle_type_id":"4","last_reported":1690301321,"current_range_meters":29600,"station_id":"ce4bgj12rcd13ifvqbc0","pricing_plan_id":"free"},{"bike_id":"fdbf4329-78c2-414f-ac56-76a9f3604b14","system_id":"levelo_inurba_marseille","lat":43.299028,"lon":5.381509,"is_reserved":false,"is_disabled":false,"rental_uris":{"android":"levelo://app?vid=fdbf4329-78c2-414f-ac56-76a9f3604b14","ios":"levelo://app?vid=fdbf4329-78c2-414f-ac56-76a9f3604b14"},"vehicle_type_id":"4","last_reported":1690301321,"current_range_meters":0,"station_id":"ce4bgj12rcd13ifvqbc0","pricing_plan_id":"free"},{"bike_id":"5db11dfb-aaa9-4b96-84f2-27be425466b0","system_id":"levelo_inurba_marseille","lat":43.29711,"lon":5.37694,"is_reserved":false,"is_disabled":false,"rental_uris":{"android":"levelo://app?vid=5db11dfb-aaa9-4b96-84f2-27be425466b0","ios":"levelo://app?vid=5db11dfb-aaa9-4b96-84f2-27be425466b0"},"vehicle_type_id":"4","last_reported":1690301321,"current_range_meters":30800,"station_id":"ce4bgkh2rcd13ifvqbl0","pricing_plan_id":"free"},{"bike_id":"6d655131-56c4-4b2c-a516-08e20e25b707","system_id":"levelo_inurba_marseille","lat":43.317557,"lon":5.390173,"is_reserved":false,"is_disabled":false,"rental_uris":{"android":"levelo://app?vid=6d655131-56c4-4b2c-a516-08e20e25b707","ios":"levelo://app?vid=6d655131-56c4-4b2c-a516-08e20e25b707"},"vehicle_type_id":"4","last_reported":1690301321,"current_range_meters":30000,"station_id":"ce4bhqp2rcd13ifvqhng","pricing_plan_id":"free"},{"bike_id":"50a6ef4f-52c9-4747-9223-407bc1883781","system_id":"levelo_inurba_marseille","lat":43.317557,"lon":5.390173,"is_reserved":false,"is_disabled":false,"rental_uris":{"android":"levelo://app?vid=50a6ef4f-52c9-4747-9223-407bc1883781","ios":"levelo://app?vid=50a6ef4f-52c9-4747-9223-407bc1883781"},"vehicle_type_id":"4","last_reported":1690301321,"current_range_meters":8000,"station_id":"ce4bhqp2rcd13ifvqhng","pricing_plan_id":"free"},{"bike_id":"ccd1bd69-1109-43e4-81d5-f9e5444cf545","system_id":"levelo_inurba_marseille","lat":43.298037,"lon":5.381066,"is_reserved":false,"is_disabled":false,"rental_uris":{"android":"levelo://app?vid=ccd1bd69-1109-43e4-81d5-f9e5444cf545","ios":"levelo://app?vid=ccd1bd69-1109-43e4-81d5-f9e5444cf545"},"vehicle_type_id":"4","last_reported":1690301321,"current_range_meters":10800,"station_id":"ce4bgip2rcd13ifvqbb0","pricing_plan_id":"free"},{"bike_id":"45f03228-8e46-4693-8bf6-389331ff238f","system_id":"levelo_inurba_marseille","lat":43.295748,"lon":5.37522,"is_reserved":false,"is_disabled":false,"rental_uris":{"android":"levelo://app?vid=45f03228-8e46-4693-8bf6-389331ff238f","ios":"levelo://app?vid=45f03228-8e46-4693-8bf6-389331ff238f"},"vehicle_type_id":"4","last_reported":1690301321,"current_range_meters":3200,"station_id":"ce4bgh92rcd13ifvqb50","pricing_plan_id":"free"},{"bike_id":"251cb2bf-e675-4fc1-b76b-0bbf215506e6","system_id":"levelo_inurba_marseille","lat":43.3042,"lon":5.38882,"is_reserved":false,"is_disabled":false,"rental_uris":{"android":"levelo://app?vid=251cb2bf-e675-4fc1-b76b-0bbf215506e6","ios":"levelo://app?vid=251cb2bf-e675-4fc1-b76b-0bbf215506e6"},"vehicle_type_id":"4","last_reported":1690301321,"current_range_meters":5600,"station_id":"ce4bgk12rcd13ifvqbi0","pricing_plan_id":"free"},{"bike_id":"b2f09ed9-5a8a-471a-ac42-92084e1ceda3","system_id":"levelo_inurba_marseille","lat":43.296263,"lon":5.377094,"is_reserved":false,"is_disabled":false,"rental_uris":{"android":"levelo://app?vid=b2f09ed9-5a8a-471a-ac42-92084e1ceda3","ios":"levelo://app?vid=b2f09ed9-5a8a-471a-ac42-92084e1ceda3"},"vehicle_type_id":"4","last_reported":1690301321,"current_range_meters":28400,"station_id":"ce4bgi92rcd13ifvqb90","pricing_plan_id":"free"},{"bike_id":"3806b316-6c02-41e8-be5e-3624514feab6","system_id":"levelo_inurba_marseille","lat":43.284538,"lon":5.358657,"is_reserved":false,"is_disabled":false,"rental_uris":{"android":"levelo://app?vid=3806b316-6c02-41e8-be5e-3624514feab6","ios":"levelo://app?vid=3806b316-6c02-41e8-be5e-3624514feab6"},"vehicle_type_id":"4","last_reported":1690301321,"current_range_meters":16000,"station_id":"ce4bhah2rcd13ifvqei0","pricing_plan_id":"free"},{"bike_id":"47330516-6380-47a0-be77-1d693fa304e0","system_id":"levelo_inurba_marseille","lat":43.30402,"lon":5.38893,"is_reserved":false,"is_disabled":false,"rental_uris":{"android":"levelo://app?vid=47330516-6380-47a0-be77-1d693fa304e0","ios":"levelo://app?vid=47330516-6380-47a0-be77-1d693fa304e0"},"vehicle_type_id":"4","last_reported":1690301321,"current_range_meters":22400,"station_id":"ce4bgk12rcd13ifvqbi0","pricing_plan_id":"free"},{"bike_id":"57ba8990-85e5-4c7d-9d48-b3b903f8b078","system_id":"levelo_inurba_marseille","lat":43.296263,"lon":5.377094,"is_reserved":false,"is_disabled":false,"rental_uris":{"android":"levelo://app?vid=57ba8990-85e5-4c7d-9d48-b3b903f8b078","ios":"levelo://app?vid=57ba8990-85e5-4c7d-9d48-b3b903f8b078"},"vehicle_type_id":"4","last_reported":1690301321,"current_range_meters":26000,"station_id":"ce4bgi92rcd13ifvqb90","pricing_plan_id":"free"},{"bike_id":"a2216929-1e04-450b-ac78-b02a1b21d13f","system_id":"levelo_inurba_marseille","lat":43.295279,"lon":5.375048,"is_reserved":false,"is_disabled":false,"rental_uris":{"android":"levelo://app?vid=a2216929-1e04-450b-ac78-b02a1b21d13f","ios":"levelo://app?vid=a2216929-1e04-450b-ac78-b02a1b21d13f"},"vehicle_type_id":"4","last_reported":1690301321,"current_range_meters":29600,"station_id":"ce4bgkp2rcd13ifvqbmg","pricing_plan_id":"free"},{"bike_id":"6796d4ec-03bf-4f14-aad0-2eb48d7c78b6","system_id":"levelo_inurba_marseille","lat":43.299717,"lon":5.384845,"is_reserved":false,"is_disabled":false,"rental_uris":{"android":"levelo://app?vid=6796d4ec-03bf-4f14-aad0-2eb48d7c78b6","ios":"levelo://app?vid=6796d4ec-03bf-4f14-aad0-2eb48d7c78b6"},"vehicle_type_id":"4","last_reported":1690301321,"current_range_meters":28400,"station_id":"ce4bgj92rcd13ifvqbd0","pricing_plan_id":"free"},{"bike_id":"38c991c8-77f6-44c4-88df-8712db723226","system_id":"levelo_inurba_marseille","lat":43.29965,"lon":5.3849,"is_reserved":false,"is_disabled":false,"rental_uris":{"android":"levelo://app?vid=38c991c8-77f6-44c4-88df-8712db723226","ios":"levelo://app?vid=38c991c8-77f6-44c4-88df-8712db723226"},"vehicle_type_id":"4","last_reported":1690301321,"current_range_meters":23600,"station_id":"","pricing_plan_id":"free"},{"bike_id":"fb2576f5-9bd8-4648-bacc-c8772e699153","system_id":"levelo_inurba_marseille","lat":43.2966,"lon":5.37941,"is_reserved":false,"is_disabled":false,"rental_uris":{"android":"levelo://app?vid=fb2576f5-9bd8-4648-bacc-c8772e699153","ios":"levelo://app?vid=fb2576f5-9bd8-4648-bacc-c8772e699153"},"vehicle_type_id":"4","last_reported":1690301321,"current_range_meters":30800,"station_id":"","pricing_plan_id":"free"},{"bike_id":"f7599574-7f97-4c07-8aea-8ae5a8e05a97","system_id":"levelo_inurba_marseille","lat":43.32365,"lon":5.38878,"is_reserved":false,"is_disabled":false,"rental_uris":{"android":"levelo://app?vid=f7599574-7f97-4c07-8aea-8ae5a8e05a97","ios":"levelo://app?vid=f7599574-7f97-4c07-8aea-8ae5a8e05a97"},"vehicle_type_id":"4","last_reported":1690301321,"current_range_meters":28800,"station_id":"ce4bhqp2rcd13ifvqhog","pricing_plan_id":"free"},{"bike_id":"ce759cea-e736-4a87-9753-90840d785e7a","system_id":"levelo_inurba_marseille","lat":43.32367,"lon":5.388836,"is_reserved":false,"is_disabled":false,"rental_uris":{"android":"levelo://app?vid=ce759cea-e736-4a87-9753-90840d785e7a","ios":"levelo://app?vid=ce759cea-e736-4a87-9753-90840d785e7a"},"vehicle_type_id":"4","last_reported":1690301321,"current_range_meters":16800,"station_id":"ce4bhqp2rcd13ifvqhog","pricing_plan_id":"free"},{"bike_id":"e3c59db1-acd6-44c6-97f3-35c7602ef342","system_id":"levelo_inurba_marseille","lat":43.3237,"lon":5.38882,"is_reserved":false,"is_disabled":false,"rental_uris":{"android":"levelo://app?vid=e3c59db1-acd6-44c6-97f3-35c7602ef342","ios":"levelo://app?vid=e3c59db1-acd6-44c6-97f3-35c7602ef342"},"vehicle_type_id":"4","last_reported":1690301321,"current_range_meters":2400,"station_id":"ce4bhqp2rcd13ifvqhog","pricing_plan_id":"free"},{"bike_id":"f676830b-6e9a-47b5-a223-b8939336efa5","system_id":"levelo_inurba_marseille","lat":43.32369,"lon":5.38886,"is_reserved":false,"is_disabled":false,"rental_uris":{"android":"levelo://app?vid=f676830b-6e9a-47b5-a223-b8939336efa5","ios":"levelo://app?vid=f676830b-6e9a-47b5-a223-b8939336efa5"},"vehicle_type_id":"4","last_reported":1690301321,"current_range_meters":14400,"station_id":"ce4bhqp2rcd13ifvqhog","pricing_plan_id":"free"},{"bike_id":"3d597439-ec91-47de-b0a2-39af7b383e97","system_id":"levelo_inurba_marseille","lat":43.32368,"lon":5.38887,"is_reserved":false,"is_disabled":false,"rental_uris":{"android":"levelo://app?vid=3d597439-ec91-47de-b0a2-39af7b383e97","ios":"levelo://app?vid=3d597439-ec91-47de-b0a2-39af7b383e97"},"vehicle_type_id":"4","last_reported":1690301321,"current_range_meters":25200,"station_id":"ce4bhqp2rcd13ifvqhog","pricing_plan_id":"free"},{"bike_id":"2e6c815b-830e-4e8c-84d3-1152003ac49a","system_id":"levelo_inurba_marseille","lat":43.29602,"lon":5.381084,"is_reserved":false,"is_disabled":false,"rental_uris":{"android":"levelo://app?vid=2e6c815b-830e-4e8c-84d3-1152003ac49a","ios":"levelo://app?vid=2e6c815b-830e-4e8c-84d3-1152003ac49a"},"vehicle_type_id":"4","last_reported":1690301321,"current_range_meters":14400,"station_id":"ce4bgl12rcd13ifvqbo0","pricing_plan_id":"free"},{"bike_id":"db65cf2f-bfef-4f3e-91c0-45f14c4bf360","system_id":"levelo_inurba_marseille","lat":43.29602,"lon":5.381084,"is_reserved":false,"is_disabled":false,"rental_uris":{"android":"levelo://app?vid=db65cf2f-bfef-4f3e-91c0-45f14c4bf360","ios":"levelo://app?vid=db65cf2f-bfef-4f3e-91c0-45f14c4bf360"},"vehicle_type_id":"4","last_reported":1690301321,"current_range_meters":5200,"station_id":"ce4bgl12rcd13ifvqbo0","pricing_plan_id":"free"},{"bike_id":"9e0e9c82-1428-4234-9b85-6181aa302156","system_id":"levelo_inurba_marseille","lat":43.29602,"lon":5.381084,"is_reserved":false,"is_disabled":false,"rental_uris":{"android":"levelo://app?vid=9e0e9c82-1428-4234-9b85-6181aa302156","ios":"levelo://app?vid=9e0e9c82-1428-4234-9b85-6181aa302156"},"vehicle_type_id":"4","last_reported":1690301321,"current_range_meters":29200,"station_id":"ce4bgl12rcd13ifvqbo0","pricing_plan_id":"free"},{"bike_id":"89b35808-faaa-4593-8583-2ffcbb2db4ca","system_id":"levelo_inurba_marseille","lat":43.295279,"lon":5.375048,"is_reserved":false,"is_disabled":false,"rental_uris":{"android":"levelo://app?vid=89b35808-faaa-4593-8583-2ffcbb2db4ca","ios":"levelo://app?vid=89b35808-faaa-4593-8583-2ffcbb2db4ca"},"vehicle_type_id":"4","last_reported":1690301321,"current_range_meters":2000,"station_id":"ce4bgkp2rcd13ifvqbmg","pricing_plan_id":"free"},{"bike_id":"92a291b9-d4c9-4ba9-967f-30afc7977680","system_id":"levelo_inurba_marseille","lat":43.292749,"lon":5.368398,"is_reserved":false,"is_disabled":false,"rental_uris":{"android":"levelo://app?vid=92a291b9-d4c9-4ba9-967f-30afc7977680","ios":"levelo://app?vid=92a291b9-d4c9-4ba9-967f-30afc7977680"},"vehicle_type_id":"4","last_reported":1690301321,"current_range_meters":25600,"station_id":"ce4bhbp2rcd13ifvqesg","pricing_plan_id":"free"},{"bike_id":"e34a4256-692b-489f-b0d8-a9ae0e71716e","system_id":"levelo_inurba_marseille","lat":43.293002,"lon":5.37151,"is_reserved":false,"is_disabled":false,"rental_uris":{"android":"levelo://app?vid=e34a4256-692b-489f-b0d8-a9ae0e71716e","ios":"levelo://app?vid=e34a4256-692b-489f-b0d8-a9ae0e71716e"},"vehicle_type_id":"4","last_reported":1690301321,"current_range_meters":20400,"station_id":"ce4bgh92rcd13ifvqb40","pricing_plan_id":"free"},{"bike_id":"ab0d2731-5840-40b2-a8ee-b7b63cd38006","system_id":"levelo_inurba_marseille","lat":43.293009,"lon":5.374584,"is_reserved":false,"is_disabled":false,"rental_uris":{"android":"levelo://app?vid=ab0d2731-5840-40b2-a8ee-b7b63cd38006","ios":"levelo://app?vid=ab0d2731-5840-40b2-a8ee-b7b63cd38006"},"vehicle_type_id":"4","last_reported":1690301321,"current_range_meters":3600,"station_id":"ce4bgi12rcd13ifvqb70","pricing_plan_id":"free"},{"bike_id":"359d8b16-8a39-40c9-a30d-1e0de04b998e","system_id":"levelo_inurba_marseille","lat":43.293029,"lon":5.374597,"is_reserved":false,"is_disabled":false,"rental_uris":{"android":"levelo://app?vid=359d8b16-8a39-40c9-a30d-1e0de04b998e","ios":"levelo://app?vid=359d8b16-8a39-40c9-a30d-1e0de04b998e"},"vehicle_type_id":"4","last_reported":1690301321,"current_range_meters":15200,"station_id":"","pricing_plan_id":"free"},{"bike_id":"d19cc8ac-9230-4406-8c94-934df6db4360","system_id":"levelo_inurba_marseille","lat":43.305994,"lon":5.393687,"is_reserved":false,"is_disabled":false,"rental_uris":{"android":"levelo://app?vid=d19cc8ac-9230-4406-8c94-934df6db4360","ios":"levelo://app?vid=d19cc8ac-9230-4406-8c94-934df6db4360"},"vehicle_type_id":"4","last_reported":1690301321,"current_range_meters":30000,"station_id":"ce4bh0p2rcd13ifvqd80","pricing_plan_id":"free"},{"bike_id":"d74f50d6-be91-4273-9bda-25a7f1575734","system_id":"levelo_inurba_marseille","lat":43.305994,"lon":5.393687,"is_reserved":false,"is_disabled":false,"rental_uris":{"android":"levelo://app?vid=d74f50d6-be91-4273-9bda-25a7f1575734","ios":"levelo://app?vid=d74f50d6-be91-4273-9bda-25a7f1575734"},"vehicle_type_id":"4","last_reported":1690301321,"current_range_meters":16400,"station_id":"ce4bh0p2rcd13ifvqd80","pricing_plan_id":"free"},{"bike_id":"0c923167-b5a0-4879-b3fb-78511b51b7f4","system_id":"levelo_inurba_marseille","lat":43.2936,"lon":5.37835,"is_reserved":false,"is_disabled":false,"rental_uris":{"android":"levelo://app?vid=0c923167-b5a0-4879-b3fb-78511b51b7f4","ios":"levelo://app?vid=0c923167-b5a0-4879-b3fb-78511b51b7f4"},"vehicle_type_id":"4","last_reported":1690301321,"current_range_meters":7200,"station_id":"ce4bgjh2rcd13ifvqbf0","pricing_plan_id":"free"},{"bike_id":"7aa79e11-5bff-4eb1-bd1e-8b6d51e70c3c","system_id":"levelo_inurba_marseille","lat":43.2936,"lon":5.37835,"is_reserved":false,"is_disabled":false,"rental_uris":{"android":"levelo://app?vid=7aa79e11-5bff-4eb1-bd1e-8b6d51e70c3c","ios":"levelo://app?vid=7aa79e11-5bff-4eb1-bd1e-8b6d51e70c3c"},"vehicle_type_id":"4","last_reported":1690301321,"current_range_meters":23200,"station_id":"ce4bgjh2rcd13ifvqbf0","pricing_plan_id":"free"},{"bike_id":"22419187-425c-4a46-b1d7-08dcc655ba12","system_id":"levelo_inurba_marseille","lat":43.29262,"lon":5.35972,"is_reserved":false,"is_disabled":false,"rental_uris":{"android":"levelo://app?vid=22419187-425c-4a46-b1d7-08dcc655ba12","ios":"levelo://app?vid=22419187-425c-4a46-b1d7-08dcc655ba12"},"vehicle_type_id":"4","last_reported":1690301321,"current_range_meters":20400,"station_id":"","pricing_plan_id":"free"},{"bike_id":"4ac51e24-a5dc-4740-b529-b1af79b814ee","system_id":"levelo_inurba_marseille","lat":43.30302,"lon":5.3922,"is_reserved":false,"is_disabled":false,"rental_uris":{"android":"levelo://app?vid=4ac51e24-a5dc-4740-b529-b1af79b814ee","ios":"levelo://app?vid=4ac51e24-a5dc-4740-b529-b1af79b814ee"},"vehicle_type_id":"4","last_reported":1690301321,"current_range_meters":12000,"station_id":"ce4bgkh2rcd13ifvqbk0","pricing_plan_id":"free"},{"bike_id":"a3b9340d-deaf-42dc-9a96-3cc3af36dd71","system_id":"levelo_inurba_marseille","lat":43.302992,"lon":5.392136,"is_reserved":false,"is_disabled":false,"rental_uris":{"android":"levelo://app?vid=a3b9340d-deaf-42dc-9a96-3cc3af36dd71","ios":"levelo://app?vid=a3b9340d-deaf-42dc-9a96-3cc3af36dd71"},"vehicle_type_id":"4","last_reported":1690301321,"current_range_meters":26800,"station_id":"ce4bgkh2rcd13ifvqbk0","pricing_plan_id":"free"},{"bike_id":"caee4379-7847-43ac-be4c-18dc95304d0c","system_id":"levelo_inurba_marseille","lat":43.2936,"lon":5.37835,"is_reserved":false,"is_disabled":false,"rental_uris":{"android":"levelo://app?vid=caee4379-7847-43ac-be4c-18dc95304d0c","ios":"levelo://app?vid=caee4379-7847-43ac-be4c-18dc95304d0c"},"vehicle_type_id":"4","last_reported":1690301321,"current_range_meters":28400,"station_id":"ce4bgjh2rcd13ifvqbf0","pricing_plan_id":"free"},{"bike_id":"3016e819-c3d4-4bd1-9c7b-b93864cba77f","system_id":"levelo_inurba_marseille","lat":43.30076,"lon":5.39088,"is_reserved":false,"is_disabled":false,"rental_uris":{"android":"levelo://app?vid=3016e819-c3d4-4bd1-9c7b-b93864cba77f","ios":"levelo://app?vid=3016e819-c3d4-4bd1-9c7b-b93864cba77f"},"vehicle_type_id":"4","last_reported":1690301321,"current_range_meters":22000,"station_id":"ce4bh192rcd13ifvqdb0","pricing_plan_id":"free"},{"bike_id":"3bcf3373-cb37-4707-bf95-690cb8adc128","system_id":"levelo_inurba_marseille","lat":43.298764,"lon":5.388973,"is_reserved":false,"is_disabled":false,"rental_uris":{"android":"levelo://app?vid=3bcf3373-cb37-4707-bf95-690cb8adc128","ios":"levelo://app?vid=3bcf3373-cb37-4707-bf95-690cb8adc128"},"vehicle_type_id":"4","last_reported":1690301321,"current_range_meters":12000,"station_id":"ce4bh392rcd13ifvqdl0","pricing_plan_id":"free"},{"bike_id":"ca127904-c7d3-41ee-a1aa-c16cb7d43472","system_id":"levelo_inurba_marseille","lat":43.298764,"lon":5.388973,"is_reserved":false,"is_disabled":false,"rental_uris":{"android":"levelo://app?vid=ca127904-c7d3-41ee-a1aa-c16cb7d43472","ios":"levelo://app?vid=ca127904-c7d3-41ee-a1aa-c16cb7d43472"},"vehicle_type_id":"4","last_reported":1690301321,"current_range_meters":4800,"station_id":"ce4bh392rcd13ifvqdl0","pricing_plan_id":"free"},{"bike_id":"e88923a2-6e97-401e-8889-b51111dde937","system_id":"levelo_inurba_marseille","lat":43.31331,"lon":5.39686,"is_reserved":false,"is_disabled":false,"rental_uris":{"android":"levelo://app?vid=e88923a2-6e97-401e-8889-b51111dde937","ios":"levelo://app?vid=e88923a2-6e97-401e-8889-b51111dde937"},"vehicle_type_id":"4","last_reported":1690301321,"current_range_meters":31200,"station_id":"ce4bgvp2rcd13ifvqcu0","pricing_plan_id":"free"},{"bike_id":"ab3252be-4795-4244-9de8-0b47ee6eb59e","system_id":"levelo_inurba_marseille","lat":43.30889,"lon":5.39642,"is_reserved":false,"is_disabled":false,"rental_uris":{"android":"levelo://app?vid=ab3252be-4795-4244-9de8-0b47ee6eb59e","ios":"levelo://app?vid=ab3252be-4795-4244-9de8-0b47ee6eb59e"},"vehicle_type_id":"4","last_reported":1690301321,"current_range_meters":4000,"station_id":"","pricing_plan_id":"free"},{"bike_id":"80e0cf5e-1685-4094-84f1-6c6fc5bffeed","system_id":"levelo_inurba_marseille","lat":43.313515,"lon":5.396908,"is_reserved":false,"is_disabled":false,"rental_uris":{"android":"levelo://app?vid=80e0cf5e-1685-4094-84f1-6c6fc5bffeed","ios":"levelo://app?vid=80e0cf5e-1685-4094-84f1-6c6fc5bffeed"},"vehicle_type_id":"4","last_reported":1690301321,"current_range_meters":16000,"station_id":"ce4bgvp2rcd13ifvqcu0","pricing_plan_id":"free"},{"bike_id":"545e3bd0-de4a-4935-a262-23afe08c5b84","system_id":"levelo_inurba_marseille","lat":43.3133,"lon":5.39692,"is_reserved":false,"is_disabled":false,"rental_uris":{"android":"levelo://app?vid=545e3bd0-de4a-4935-a262-23afe08c5b84","ios":"levelo://app?vid=545e3bd0-de4a-4935-a262-23afe08c5b84"},"vehicle_type_id":"4","last_reported":1690301321,"current_range_meters":6000,"station_id":"ce4bgvp2rcd13ifvqcu0","pricing_plan_id":"free"},{"bike_id":"d237fad8-16f5-4054-8cad-b7b6090fd892","system_id":"levelo_inurba_marseille","lat":43.309038,"lon":5.396546,"is_reserved":false,"is_disabled":false,"rental_uris":{"android":"levelo://app?vid=d237fad8-16f5-4054-8cad-b7b6090fd892","ios":"levelo://app?vid=d237fad8-16f5-4054-8cad-b7b6090fd892"},"vehicle_type_id":"4","last_reported":1690301321,"current_range_meters":22400,"station_id":"ce4bh012rcd13ifvqcv0","pricing_plan_id":"free"},{"bike_id":"7ad5182d-ca4c-4dfe-be4f-4e045024c391","system_id":"levelo_inurba_marseille","lat":43.31329,"lon":5.39695,"is_reserved":false,"is_disabled":false,"rental_uris":{"android":"levelo://app?vid=7ad5182d-ca4c-4dfe-be4f-4e045024c391","ios":"levelo://app?vid=7ad5182d-ca4c-4dfe-be4f-4e045024c391"},"vehicle_type_id":"4","last_reported":1690301321,"current_range_meters":15200,"station_id":"ce4bgvp2rcd13ifvqcu0","pricing_plan_id":"free"},{"bike_id":"b3cf8e5e-e669-4d98-b80d-349d0c1666a8","system_id":"levelo_inurba_marseille","lat":43.29529,"lon":5.385581,"is_reserved":false,"is_disabled":false,"rental_uris":{"android":"levelo://app?vid=b3cf8e5e-e669-4d98-b80d-349d0c1666a8","ios":"levelo://app?vid=b3cf8e5e-e669-4d98-b80d-349d0c1666a8"},"vehicle_type_id":"4","last_reported":1690301321,"current_range_meters":8400,"station_id":"ce4bgih2rcd13ifvqba0","pricing_plan_id":"free"},{"bike_id":"02430ba7-9479-4569-9629-d02396aab257","system_id":"levelo_inurba_marseille","lat":43.29534,"lon":5.38541,"is_reserved":false,"is_disabled":false,"rental_uris":{"android":"levelo://app?vid=02430ba7-9479-4569-9629-d02396aab257","ios":"levelo://app?vid=02430ba7-9479-4569-9629-d02396aab257"},"vehicle_type_id":"4","last_reported":1690301321,"current_range_meters":15600,"station_id":"ce4bgih2rcd13ifvqba0","pricing_plan_id":"free"},{"bike_id":"f84d3ad1-5b05-475d-bccc-2b4fce38e3bf","system_id":"levelo_inurba_marseille","lat":43.29529,"lon":5.385581,"is_reserved":false,"is_disabled":false,"rental_uris":{"android":"levelo://app?vid=f84d3ad1-5b05-475d-bccc-2b4fce38e3bf","ios":"levelo://app?vid=f84d3ad1-5b05-475d-bccc-2b4fce38e3bf"},"vehicle_type_id":"4","last_reported":1690301321,"current_range_meters":18000,"station_id":"ce4bgih2rcd13ifvqba0","pricing_plan_id":"free"},{"bike_id":"69e670a4-734e-4fe9-8e33-e80db85560d9","system_id":"levelo_inurba_marseille","lat":43.29531,"lon":5.38545,"is_reserved":false,"is_disabled":false,"rental_uris":{"android":"levelo://app?vid=69e670a4-734e-4fe9-8e33-e80db85560d9","ios":"levelo://app?vid=69e670a4-734e-4fe9-8e33-e80db85560d9"},"vehicle_type_id":"4","last_reported":1690301321,"current_range_meters":28800,"station_id":"ce4bgih2rcd13ifvqba0","pricing_plan_id":"free"},{"bike_id":"5e308025-1861-4195-ac4f-6b3eaa7b7478","system_id":"levelo_inurba_marseille","lat":43.29529,"lon":5.385581,"is_reserved":false,"is_disabled":false,"rental_uris":{"android":"levelo://app?vid=5e308025-1861-4195-ac4f-6b3eaa7b7478","ios":"levelo://app?vid=5e308025-1861-4195-ac4f-6b3eaa7b7478"},"vehicle_type_id":"4","last_reported":1690301321,"current_range_meters":22000,"station_id":"ce4bgih2rcd13ifvqba0","pricing_plan_id":"free"},{"bike_id":"61842bb8-ee40-4d5d-b9c5-d7c16984c525","system_id":"levelo_inurba_marseille","lat":43.29189,"lon":5.3771,"is_reserved":false,"is_disabled":false,"rental_uris":{"android":"levelo://app?vid=61842bb8-ee40-4d5d-b9c5-d7c16984c525","ios":"levelo://app?vid=61842bb8-ee40-4d5d-b9c5-d7c16984c525"},"vehicle_type_id":"4","last_reported":1690301321,"current_range_meters":27200,"station_id":"","pricing_plan_id":"free"},{"bike_id":"48d512ea-3118-424e-a9de-f4b1a67bdb2e","system_id":"levelo_inurba_marseille","lat":43.29523,"lon":5.38553,"is_reserved":false,"is_disabled":false,"rental_uris":{"android":"levelo://app?vid=48d512ea-3118-424e-a9de-f4b1a67bdb2e","ios":"levelo://app?vid=48d512ea-3118-424e-a9de-f4b1a67bdb2e"},"vehicle_type_id":"4","last_reported":1690301321,"current_range_meters":26400,"station_id":"ce4bgih2rcd13ifvqba0","pricing_plan_id":"free"},{"bike_id":"7c0e1aa3-370a-472d-9771-9f80846efe12","system_id":"levelo_inurba_marseille","lat":43.302008,"lon":5.394694,"is_reserved":false,"is_disabled":false,"rental_uris":{"android":"levelo://app?vid=7c0e1aa3-370a-472d-9771-9f80846efe12","ios":"levelo://app?vid=7c0e1aa3-370a-472d-9771-9f80846efe12"},"vehicle_type_id":"4","last_reported":1690301321,"current_range_meters":22800,"station_id":"ce4bh0p2rcd13ifvqd70","pricing_plan_id":"free"},{"bike_id":"909e9ed6-ded6-478e-809f-b828205a41e0","system_id":"levelo_inurba_marseille","lat":43.290624,"lon":5.359245,"is_reserved":false,"is_disabled":false,"rental_uris":{"android":"levelo://app?vid=909e9ed6-ded6-478e-809f-b828205a41e0","ios":"levelo://app?vid=909e9ed6-ded6-478e-809f-b828205a41e0"},"vehicle_type_id":"4","last_reported":1690301321,"current_range_meters":17200,"station_id":"ce4bha92rcd13ifvqeg0","pricing_plan_id":"free"},{"bike_id":"9f7473a4-a787-4b2c-9ca6-fd2afd348f06","system_id":"levelo_inurba_marseille","lat":43.290624,"lon":5.359245,"is_reserved":false,"is_disabled":false,"rental_uris":{"android":"levelo://app?vid=9f7473a4-a787-4b2c-9ca6-fd2afd348f06","ios":"levelo://app?vid=9f7473a4-a787-4b2c-9ca6-fd2afd348f06"},"vehicle_type_id":"4","last_reported":1690301321,"current_range_meters":4400,"station_id":"ce4bha92rcd13ifvqeg0","pricing_plan_id":"free"},{"bike_id":"46f86a79-1241-4a16-9743-e6a320cf854e","system_id":"levelo_inurba_marseille","lat":43.290624,"lon":5.359245,"is_reserved":false,"is_disabled":false,"rental_uris":{"android":"levelo://app?vid=46f86a79-1241-4a16-9743-e6a320cf854e","ios":"levelo://app?vid=46f86a79-1241-4a16-9743-e6a320cf854e"},"vehicle_type_id":"4","last_reported":1690301321,"current_range_meters":29600,"station_id":"ce4bha92rcd13ifvqeg0","pricing_plan_id":"free"},{"bike_id":"89339d2b-c79b-4a24-a9ca-6a5402ef762f","system_id":"levelo_inurba_marseille","lat":43.290624,"lon":5.359245,"is_reserved":false,"is_disabled":false,"rental_uris":{"android":"levelo://app?vid=89339d2b-c79b-4a24-a9ca-6a5402ef762f","ios":"levelo://app?vid=89339d2b-c79b-4a24-a9ca-6a5402ef762f"},"vehicle_type_id":"4","last_reported":1690301321,"current_range_meters":25200,"station_id":"ce4bha92rcd13ifvqeg0","pricing_plan_id":"free"},{"bike_id":"2af4ffa9-6ae8-4c7b-b8bb-d80920cddecc","system_id":"levelo_inurba_marseille","lat":43.290631,"lon":5.359244,"is_reserved":false,"is_disabled":false,"rental_uris":{"android":"levelo://app?vid=2af4ffa9-6ae8-4c7b-b8bb-d80920cddecc","ios":"levelo://app?vid=2af4ffa9-6ae8-4c7b-b8bb-d80920cddecc"},"vehicle_type_id":"4","last_reported":1690301321,"current_range_meters":29600,"station_id":"ce4bha92rcd13ifvqeg0","pricing_plan_id":"free"},{"bike_id":"b12e48b5-1156-48fc-8d05-9347ac207974","system_id":"levelo_inurba_marseille","lat":43.290631,"lon":5.359244,"is_reserved":false,"is_disabled":false,"rental_uris":{"android":"levelo://app?vid=b12e48b5-1156-48fc-8d05-9347ac207974","ios":"levelo://app?vid=b12e48b5-1156-48fc-8d05-9347ac207974"},"vehicle_type_id":"4","last_reported":1690301321,"current_range_meters":15200,"station_id":"ce4bha92rcd13ifvqeg0","pricing_plan_id":"free"},{"bike_id":"6a54b1fb-c7e9-45f6-9d56-d8d2fb16d742","system_id":"levelo_inurba_marseille","lat":43.290631,"lon":5.359244,"is_reserved":false,"is_disabled":false,"rental_uris":{"android":"levelo://app?vid=6a54b1fb-c7e9-45f6-9d56-d8d2fb16d742","ios":"levelo://app?vid=6a54b1fb-c7e9-45f6-9d56-d8d2fb16d742"},"vehicle_type_id":"4","last_reported":1690301321,"current_range_meters":10000,"station_id":"ce4bha92rcd13ifvqeg0","pricing_plan_id":"free"},{"bike_id":"f4e48da5-8b5c-4ebb-90bb-d56d737fad2b","system_id":"levelo_inurba_marseille","lat":43.290631,"lon":5.359244,"is_reserved":false,"is_disabled":false,"rental_uris":{"android":"levelo://app?vid=f4e48da5-8b5c-4ebb-90bb-d56d737fad2b","ios":"levelo://app?vid=f4e48da5-8b5c-4ebb-90bb-d56d737fad2b"},"vehicle_type_id":"4","last_reported":1690301321,"current_range_meters":9600,"station_id":"ce4bha92rcd13ifvqeg0","pricing_plan_id":"free"},{"bike_id":"97e6f8db-5ed2-484a-9e15-606a21853725","system_id":"levelo_inurba_marseille","lat":43.290631,"lon":5.359244,"is_reserved":false,"is_disabled":false,"rental_uris":{"android":"levelo://app?vid=97e6f8db-5ed2-484a-9e15-606a21853725","ios":"levelo://app?vid=97e6f8db-5ed2-484a-9e15-606a21853725"},"vehicle_type_id":"4","last_reported":1690301321,"current_range_meters":29200,"station_id":"ce4bha92rcd13ifvqeg0","pricing_plan_id":"free"},{"bike_id":"13fec149-088b-4abb-99db-32633ae1a174","system_id":"levelo_inurba_marseille","lat":43.290631,"lon":5.359244,"is_reserved":false,"is_disabled":false,"rental_uris":{"android":"levelo://app?vid=13fec149-088b-4abb-99db-32633ae1a174","ios":"levelo://app?vid=13fec149-088b-4abb-99db-32633ae1a174"},"vehicle_type_id":"4","last_reported":1690301321,"current_range_meters":12800,"station_id":"ce4bha92rcd13ifvqeg0","pricing_plan_id":"free"},{"bike_id":"34c6b8c1-4dfa-4083-a4cf-119fb2ad9b9a","system_id":"levelo_inurba_marseille","lat":43.290624,"lon":5.359245,"is_reserved":false,"is_disabled":false,"rental_uris":{"android":"levelo://app?vid=34c6b8c1-4dfa-4083-a4cf-119fb2ad9b9a","ios":"levelo://app?vid=34c6b8c1-4dfa-4083-a4cf-119fb2ad9b9a"},"vehicle_type_id":"4","last_reported":1690301321,"current_range_meters":14800,"station_id":"ce4bha92rcd13ifvqeg0","pricing_plan_id":"free"},{"bike_id":"144d7c2d-de31-415d-8ad7-8cd381e030d1","system_id":"levelo_inurba_marseille","lat":43.290631,"lon":5.359244,"is_reserved":false,"is_disabled":false,"rental_uris":{"android":"levelo://app?vid=144d7c2d-de31-415d-8ad7-8cd381e030d1","ios":"levelo://app?vid=144d7c2d-de31-415d-8ad7-8cd381e030d1"},"vehicle_type_id":"4","last_reported":1690301321,"current_range_meters":30400,"station_id":"ce4bha92rcd13ifvqeg0","pricing_plan_id":"free"},{"bike_id":"473fb113-640f-49c3-b608-8d803c3b1930","system_id":"levelo_inurba_marseille","lat":43.294162,"lon":5.386292,"is_reserved":false,"is_disabled":false,"rental_uris":{"android":"levelo://app?vid=473fb113-640f-49c3-b608-8d803c3b1930","ios":"levelo://app?vid=473fb113-640f-49c3-b608-8d803c3b1930"},"vehicle_type_id":"4","last_reported":1690301321,"current_range_meters":7200,"station_id":"ce4bh2h2rcd13ifvqdh0","pricing_plan_id":"free"},{"bike_id":"d7cd98d7-d656-4289-a609-28e34f002656","system_id":"levelo_inurba_marseille","lat":43.29416,"lon":5.38627,"is_reserved":false,"is_disabled":false,"rental_uris":{"android":"levelo://app?vid=d7cd98d7-d656-4289-a609-28e34f002656","ios":"levelo://app?vid=d7cd98d7-d656-4289-a609-28e34f002656"},"vehicle_type_id":"4","last_reported":1690301321,"current_range_meters":4400,"station_id":"ce4bh2h2rcd13ifvqdh0","pricing_plan_id":"free"},{"bike_id":"9b613c6e-40ee-4994-a1dd-618f6a406455","system_id":"levelo_inurba_marseille","lat":43.28938,"lon":5.36397,"is_reserved":false,"is_disabled":false,"rental_uris":{"android":"levelo://app?vid=9b613c6e-40ee-4994-a1dd-618f6a406455","ios":"levelo://app?vid=9b613c6e-40ee-4994-a1dd-618f6a406455"},"vehicle_type_id":"4","last_reported":1690301321,"current_range_meters":6400,"station_id":"ce4bhc92rcd13ifvqetg","pricing_plan_id":"free"},{"bike_id":"0331460c-54fd-4671-aa4f-eccad2e5e17a","system_id":"levelo_inurba_marseille","lat":43.289468,"lon":5.363719,"is_reserved":false,"is_disabled":false,"rental_uris":{"android":"levelo://app?vid=0331460c-54fd-4671-aa4f-eccad2e5e17a","ios":"levelo://app?vid=0331460c-54fd-4671-aa4f-eccad2e5e17a"},"vehicle_type_id":"4","last_reported":1690301321,"current_range_meters":14800,"station_id":"ce4bhc92rcd13ifvqetg","pricing_plan_id":"free"},{"bike_id":"c384497b-291e-4241-b1c7-07bafd46a57b","system_id":"levelo_inurba_marseille","lat":43.289468,"lon":5.363719,"is_reserved":false,"is_disabled":false,"rental_uris":{"android":"levelo://app?vid=c384497b-291e-4241-b1c7-07bafd46a57b","ios":"levelo://app?vid=c384497b-291e-4241-b1c7-07bafd46a57b"},"vehicle_type_id":"4","last_reported":1690301321,"current_range_meters":8000,"station_id":"ce4bhc92rcd13ifvqetg","pricing_plan_id":"free"},{"bike_id":"1887570b-cb99-486d-b4af-d61f24ab43dc","system_id":"levelo_inurba_marseille","lat":43.304296,"lon":5.397513,"is_reserved":false,"is_disabled":false,"rental_uris":{"android":"levelo://app?vid=1887570b-cb99-486d-b4af-d61f24ab43dc","ios":"levelo://app?vid=1887570b-cb99-486d-b4af-d61f24ab43dc"},"vehicle_type_id":"4","last_reported":1690301321,"current_range_meters":31200,"station_id":"ce4bh092rcd13ifvqd20","pricing_plan_id":"free"},{"bike_id":"148d80fc-2851-4dc6-98ae-45b7e96e57c6","system_id":"levelo_inurba_marseille","lat":43.304296,"lon":5.397513,"is_reserved":false,"is_disabled":false,"rental_uris":{"android":"levelo://app?vid=148d80fc-2851-4dc6-98ae-45b7e96e57c6","ios":"levelo://app?vid=148d80fc-2851-4dc6-98ae-45b7e96e57c6"},"vehicle_type_id":"4","last_reported":1690301321,"current_range_meters":31200,"station_id":"ce4bh092rcd13ifvqd20","pricing_plan_id":"free"},{"bike_id":"9e3e08b7-ab85-431c-976b-59204f3d0da4","system_id":"levelo_inurba_marseille","lat":43.292644,"lon":5.384257,"is_reserved":false,"is_disabled":false,"rental_uris":{"android":"levelo://app?vid=9e3e08b7-ab85-431c-976b-59204f3d0da4","ios":"levelo://app?vid=9e3e08b7-ab85-431c-976b-59204f3d0da4"},"vehicle_type_id":"4","last_reported":1690301321,"current_range_meters":2000,"station_id":"ce4bh692rcd13ifvqea0","pricing_plan_id":"free"},{"bike_id":"fd66f405-0122-4ac8-bc6c-366f1d2ef37a","system_id":"levelo_inurba_marseille","lat":43.292644,"lon":5.384257,"is_reserved":false,"is_disabled":false,"rental_uris":{"android":"levelo://app?vid=fd66f405-0122-4ac8-bc6c-366f1d2ef37a","ios":"levelo://app?vid=fd66f405-0122-4ac8-bc6c-366f1d2ef37a"},"vehicle_type_id":"4","last_reported":1690301321,"current_range_meters":17600,"station_id":"ce4bh692rcd13ifvqea0","pricing_plan_id":"free"},{"bike_id":"dd0f0602-32f6-44cb-be0f-dbb2d1c56dc5","system_id":"levelo_inurba_marseille","lat":43.33048,"lon":5.38905,"is_reserved":false,"is_disabled":false,"rental_uris":{"android":"levelo://app?vid=dd0f0602-32f6-44cb-be0f-dbb2d1c56dc5","ios":"levelo://app?vid=dd0f0602-32f6-44cb-be0f-dbb2d1c56dc5"},"vehicle_type_id":"4","last_reported":1690301321,"current_range_meters":27200,"station_id":"ce4bhr92rcd13ifvqhrg","pricing_plan_id":"free"},{"bike_id":"8fdf7c56-0a0a-48f3-8c5d-53434843cd34","system_id":"levelo_inurba_marseille","lat":43.33041,"lon":5.38916,"is_reserved":false,"is_disabled":false,"rental_uris":{"android":"levelo://app?vid=8fdf7c56-0a0a-48f3-8c5d-53434843cd34","ios":"levelo://app?vid=8fdf7c56-0a0a-48f3-8c5d-53434843cd34"},"vehicle_type_id":"4","last_reported":1690301321,"current_range_meters":24800,"station_id":"ce4bhr92rcd13ifvqhrg","pricing_plan_id":"free"},{"bike_id":"b274740f-b3eb-4ad2-bd0f-941bd13a9fba","system_id":"levelo_inurba_marseille","lat":43.29009,"lon":5.356179,"is_reserved":false,"is_disabled":false,"rental_uris":{"android":"levelo://app?vid=b274740f-b3eb-4ad2-bd0f-941bd13a9fba","ios":"levelo://app?vid=b274740f-b3eb-4ad2-bd0f-941bd13a9fba"},"vehicle_type_id":"4","last_reported":1690301321,"current_range_meters":26800,"station_id":"ce4bhb92rcd13ifvqen0","pricing_plan_id":"free"},{"bike_id":"2b614b85-75a6-46d1-8fb2-f8b4324cdce9","system_id":"levelo_inurba_marseille","lat":43.33048,"lon":5.38908,"is_reserved":false,"is_disabled":false,"rental_uris":{"android":"levelo://app?vid=2b614b85-75a6-46d1-8fb2-f8b4324cdce9","ios":"levelo://app?vid=2b614b85-75a6-46d1-8fb2-f8b4324cdce9"},"vehicle_type_id":"4","last_reported":1690301321,"current_range_meters":24000,"station_id":"ce4bhr92rcd13ifvqhrg","pricing_plan_id":"free"},{"bike_id":"1e5adbc3-f47c-43a1-9cd1-6383bb43f658","system_id":"levelo_inurba_marseille","lat":43.290104,"lon":5.356111,"is_reserved":false,"is_disabled":false,"rental_uris":{"android":"levelo://app?vid=1e5adbc3-f47c-43a1-9cd1-6383bb43f658","ios":"levelo://app?vid=1e5adbc3-f47c-43a1-9cd1-6383bb43f658"},"vehicle_type_id":"4","last_reported":1690301321,"current_range_meters":31600,"station_id":"ce4bhb92rcd13ifvqen0","pricing_plan_id":"free"},{"bike_id":"273ec866-4730-4b75-9d51-249da82965ff","system_id":"levelo_inurba_marseille","lat":43.33042,"lon":5.3892,"is_reserved":false,"is_disabled":false,"rental_uris":{"android":"levelo://app?vid=273ec866-4730-4b75-9d51-249da82965ff","ios":"levelo://app?vid=273ec866-4730-4b75-9d51-249da82965ff"},"vehicle_type_id":"4","last_reported":1690301321,"current_range_meters":19600,"station_id":"ce4bhr92rcd13ifvqhrg","pricing_plan_id":"free"},{"bike_id":"06780769-6c49-42ba-9882-693b562c3a7c","system_id":"levelo_inurba_marseille","lat":43.33046,"lon":5.38915,"is_reserved":false,"is_disabled":false,"rental_uris":{"android":"levelo://app?vid=06780769-6c49-42ba-9882-693b562c3a7c","ios":"levelo://app?vid=06780769-6c49-42ba-9882-693b562c3a7c"},"vehicle_type_id":"4","last_reported":1690301321,"current_range_meters":19600,"station_id":"ce4bhr92rcd13ifvqhrg","pricing_plan_id":"free"},{"bike_id":"e0e41acf-4489-42f8-b133-7935c80c0842","system_id":"levelo_inurba_marseille","lat":43.33045,"lon":5.38917,"is_reserved":false,"is_disabled":false,"rental_uris":{"android":"levelo://app?vid=e0e41acf-4489-42f8-b133-7935c80c0842","ios":"levelo://app?vid=e0e41acf-4489-42f8-b133-7935c80c0842"},"vehicle_type_id":"4","last_reported":1690301321,"current_range_meters":13200,"station_id":"ce4bhr92rcd13ifvqhrg","pricing_plan_id":"free"},{"bike_id":"27da7934-e61b-46f0-ae06-0996fa22be1e","system_id":"levelo_inurba_marseille","lat":43.290104,"lon":5.356111,"is_reserved":false,"is_disabled":false,"rental_uris":{"android":"levelo://app?vid=27da7934-e61b-46f0-ae06-0996fa22be1e","ios":"levelo://app?vid=27da7934-e61b-46f0-ae06-0996fa22be1e"},"vehicle_type_id":"4","last_reported":1690301321,"current_range_meters":19200,"station_id":"ce4bhb92rcd13ifvqen0","pricing_plan_id":"free"},{"bike_id":"9e564bcc-c26e-4e96-b875-8a1cced3cf02","system_id":"levelo_inurba_marseille","lat":43.29006,"lon":5.35604,"is_reserved":false,"is_disabled":false,"rental_uris":{"android":"levelo://app?vid=9e564bcc-c26e-4e96-b875-8a1cced3cf02","ios":"levelo://app?vid=9e564bcc-c26e-4e96-b875-8a1cced3cf02"},"vehicle_type_id":"4","last_reported":1690301321,"current_range_meters":21200,"station_id":"ce4bhb92rcd13ifvqen0","pricing_plan_id":"free"},{"bike_id":"1d451a3b-8bc1-4f00-be2f-9931abfb3d78","system_id":"levelo_inurba_marseille","lat":43.290104,"lon":5.356111,"is_reserved":false,"is_disabled":false,"rental_uris":{"android":"levelo://app?vid=1d451a3b-8bc1-4f00-be2f-9931abfb3d78","ios":"levelo://app?vid=1d451a3b-8bc1-4f00-be2f-9931abfb3d78"},"vehicle_type_id":"4","last_reported":1690301321,"current_range_meters":5200,"station_id":"ce4bhb92rcd13ifvqen0","pricing_plan_id":"free"},{"bike_id":"4246a506-28cb-43ef-811c-16d8bd754c74","system_id":"levelo_inurba_marseille","lat":43.33045,"lon":5.38926,"is_reserved":false,"is_disabled":false,"rental_uris":{"android":"levelo://app?vid=4246a506-28cb-43ef-811c-16d8bd754c74","ios":"levelo://app?vid=4246a506-28cb-43ef-811c-16d8bd754c74"},"vehicle_type_id":"4","last_reported":1690301321,"current_range_meters":29200,"station_id":"ce4bhr92rcd13ifvqhrg","pricing_plan_id":"free"},{"bike_id":"e764b433-b3e0-4e49-ba56-d98b72ddd368","system_id":"levelo_inurba_marseille","lat":43.29004,"lon":5.35607,"is_reserved":false,"is_disabled":false,"rental_uris":{"android":"levelo://app?vid=e764b433-b3e0-4e49-ba56-d98b72ddd368","ios":"levelo://app?vid=e764b433-b3e0-4e49-ba56-d98b72ddd368"},"vehicle_type_id":"4","last_reported":1690301321,"current_range_meters":13200,"station_id":"ce4bhb92rcd13ifvqen0","pricing_plan_id":"free"},{"bike_id":"016752c3-be43-4786-850f-0b6a8c20d095","system_id":"levelo_inurba_marseille","lat":43.29003,"lon":5.3561,"is_reserved":false,"is_disabled":false,"rental_uris":{"android":"levelo://app?vid=016752c3-be43-4786-850f-0b6a8c20d095","ios":"levelo://app?vid=016752c3-be43-4786-850f-0b6a8c20d095"},"vehicle_type_id":"4","last_reported":1690301321,"current_range_meters":20000,"station_id":"ce4bhb92rcd13ifvqen0","pricing_plan_id":"free"},{"bike_id":"d1e223e2-5f4d-4dbb-989a-929ddf91991b","system_id":"levelo_inurba_marseille","lat":43.290104,"lon":5.356111,"is_reserved":false,"is_disabled":false,"rental_uris":{"android":"levelo://app?vid=d1e223e2-5f4d-4dbb-989a-929ddf91991b","ios":"levelo://app?vid=d1e223e2-5f4d-4dbb-989a-929ddf91991b"},"vehicle_type_id":"4","last_reported":1690301321,"current_range_meters":20400,"station_id":"ce4bhb92rcd13ifvqen0","pricing_plan_id":"free"},{"bike_id":"2a4e5bba-2bec-4580-86b3-343e76886a7f","system_id":"levelo_inurba_marseille","lat":43.290104,"lon":5.356111,"is_reserved":false,"is_disabled":false,"rental_uris":{"android":"levelo://app?vid=2a4e5bba-2bec-4580-86b3-343e76886a7f","ios":"levelo://app?vid=2a4e5bba-2bec-4580-86b3-343e76886a7f"},"vehicle_type_id":"4","last_reported":1690301321,"current_range_meters":17600,"station_id":"ce4bhb92rcd13ifvqen0","pricing_plan_id":"free"},{"bike_id":"31fac081-039e-4dd3-834d-69a1d1412756","system_id":"levelo_inurba_marseille","lat":43.290103,"lon":5.356114,"is_reserved":false,"is_disabled":false,"rental_uris":{"android":"levelo://app?vid=31fac081-039e-4dd3-834d-69a1d1412756","ios":"levelo://app?vid=31fac081-039e-4dd3-834d-69a1d1412756"},"vehicle_type_id":"4","last_reported":1690301321,"current_range_meters":12800,"station_id":"ce4bhb92rcd13ifvqen0","pricing_plan_id":"free"},{"bike_id":"42d971ca-2bfa-4889-a5c8-23f85d0c03c4","system_id":"levelo_inurba_marseille","lat":43.29101,"lon":5.38123,"is_reserved":false,"is_disabled":false,"rental_uris":{"android":"levelo://app?vid=42d971ca-2bfa-4889-a5c8-23f85d0c03c4","ios":"levelo://app?vid=42d971ca-2bfa-4889-a5c8-23f85d0c03c4"},"vehicle_type_id":"4","last_reported":1690301321,"current_range_meters":13200,"station_id":"","pricing_plan_id":"free"},{"bike_id":"ce4969f8-0741-441d-8d8c-3e2e10284179","system_id":"levelo_inurba_marseille","lat":43.290995,"lon":5.381361,"is_reserved":false,"is_disabled":false,"rental_uris":{"android":"levelo://app?vid=ce4969f8-0741-441d-8d8c-3e2e10284179","ios":"levelo://app?vid=ce4969f8-0741-441d-8d8c-3e2e10284179"},"vehicle_type_id":"4","last_reported":1690301321,"current_range_meters":17200,"station_id":"ce4bh512rcd13ifvqe2g","pricing_plan_id":"free"},{"bike_id":"f6adeb08-6abb-40cd-ba1d-54dbf14e6e5e","system_id":"levelo_inurba_marseille","lat":43.29789,"lon":5.39328,"is_reserved":false,"is_disabled":false,"rental_uris":{"android":"levelo://app?vid=f6adeb08-6abb-40cd-ba1d-54dbf14e6e5e","ios":"levelo://app?vid=f6adeb08-6abb-40cd-ba1d-54dbf14e6e5e"},"vehicle_type_id":"4","last_reported":1690301321,"current_range_meters":27600,"station_id":"chh1huq6cuj3fo74tm60","pricing_plan_id":"free"},{"bike_id":"0d388cd9-dde9-4e76-ade5-dc906b718d6c","system_id":"levelo_inurba_marseille","lat":43.297815,"lon":5.393548,"is_reserved":false,"is_disabled":false,"rental_uris":{"android":"levelo://app?vid=0d388cd9-dde9-4e76-ade5-dc906b718d6c","ios":"levelo://app?vid=0d388cd9-dde9-4e76-ade5-dc906b718d6c"},"vehicle_type_id":"4","last_reported":1690301321,"current_range_meters":16400,"station_id":"chh1huq6cuj3fo74tm60","pricing_plan_id":"free"},{"bike_id":"019dc654-23e4-44f5-ab71-bb7d2b796be2","system_id":"levelo_inurba_marseille","lat":43.297815,"lon":5.393548,"is_reserved":false,"is_disabled":false,"rental_uris":{"android":"levelo://app?vid=019dc654-23e4-44f5-ab71-bb7d2b796be2","ios":"levelo://app?vid=019dc654-23e4-44f5-ab71-bb7d2b796be2"},"vehicle_type_id":"4","last_reported":1690301321,"current_range_meters":4800,"station_id":"chh1huq6cuj3fo74tm60","pricing_plan_id":"free"},{"bike_id":"24f37026-5b01-4093-9f41-0f47a7f4c0b6","system_id":"levelo_inurba_marseille","lat":43.295169,"lon":5.390426,"is_reserved":false,"is_disabled":false,"rental_uris":{"android":"levelo://app?vid=24f37026-5b01-4093-9f41-0f47a7f4c0b6","ios":"levelo://app?vid=24f37026-5b01-4093-9f41-0f47a7f4c0b6"},"vehicle_type_id":"4","last_reported":1690301321,"current_range_meters":20000,"station_id":"ce4bh3p2rcd13ifvqdp0","pricing_plan_id":"free"},{"bike_id":"96e2056f-5b6e-4881-b474-761d018df99e","system_id":"levelo_inurba_marseille","lat":43.2898,"lon":5.37833,"is_reserved":false,"is_disabled":false,"rental_uris":{"android":"levelo://app?vid=96e2056f-5b6e-4881-b474-761d018df99e","ios":"levelo://app?vid=96e2056f-5b6e-4881-b474-761d018df99e"},"vehicle_type_id":"4","last_reported":1690301321,"current_range_meters":22800,"station_id":"ce4bh9p2rcd13ifvqed0","pricing_plan_id":"free"},{"bike_id":"36a964f7-655f-45e3-a71d-5f62eaca5b28","system_id":"levelo_inurba_marseille","lat":43.29531,"lon":5.39039,"is_reserved":false,"is_disabled":false,"rental_uris":{"android":"levelo://app?vid=36a964f7-655f-45e3-a71d-5f62eaca5b28","ios":"levelo://app?vid=36a964f7-655f-45e3-a71d-5f62eaca5b28"},"vehicle_type_id":"4","last_reported":1690301321,"current_range_meters":16400,"station_id":"ce4bh3p2rcd13ifvqdp0","pricing_plan_id":"free"},{"bike_id":"e30c276a-678a-4258-b377-3c44caff94b2","system_id":"levelo_inurba_marseille","lat":43.289741,"lon":5.378306,"is_reserved":false,"is_disabled":false,"rental_uris":{"android":"levelo://app?vid=e30c276a-678a-4258-b377-3c44caff94b2","ios":"levelo://app?vid=e30c276a-678a-4258-b377-3c44caff94b2"},"vehicle_type_id":"4","last_reported":1690301321,"current_range_meters":2800,"station_id":"ce4bh9p2rcd13ifvqed0","pricing_plan_id":"free"},{"bike_id":"cd9913b4-7e5a-40bd-80a8-4e95a4020454","system_id":"levelo_inurba_marseille","lat":43.29429,"lon":5.38901,"is_reserved":false,"is_disabled":false,"rental_uris":{"android":"levelo://app?vid=cd9913b4-7e5a-40bd-80a8-4e95a4020454","ios":"levelo://app?vid=cd9913b4-7e5a-40bd-80a8-4e95a4020454"},"vehicle_type_id":"4","last_reported":1690301321,"current_range_meters":22800,"station_id":"","pricing_plan_id":"free"},{"bike_id":"8c1d0384-1653-4758-ba42-4419ab651739","system_id":"levelo_inurba_marseille","lat":43.295169,"lon":5.390426,"is_reserved":false,"is_disabled":false,"rental_uris":{"android":"levelo://app?vid=8c1d0384-1653-4758-ba42-4419ab651739","ios":"levelo://app?vid=8c1d0384-1653-4758-ba42-4419ab651739"},"vehicle_type_id":"4","last_reported":1690301321,"current_range_meters":1600,"station_id":"ce4bh3p2rcd13ifvqdp0","pricing_plan_id":"free"},{"bike_id":"e4bb7ca1-e25d-4278-8062-624aad874a33","system_id":"levelo_inurba_marseille","lat":43.30297,"lon":5.39779,"is_reserved":false,"is_disabled":false,"rental_uris":{"android":"levelo://app?vid=e4bb7ca1-e25d-4278-8062-624aad874a33","ios":"levelo://app?vid=e4bb7ca1-e25d-4278-8062-624aad874a33"},"vehicle_type_id":"4","last_reported":1690301321,"current_range_meters":30400,"station_id":"","pricing_plan_id":"free"},{"bike_id":"ca9d201a-71a1-475c-8693-9ecfe47864ad","system_id":"levelo_inurba_marseille","lat":43.312609,"lon":5.401662,"is_reserved":false,"is_disabled":false,"rental_uris":{"android":"levelo://app?vid=ca9d201a-71a1-475c-8693-9ecfe47864ad","ios":"levelo://app?vid=ca9d201a-71a1-475c-8693-9ecfe47864ad"},"vehicle_type_id":"4","last_reported":1690301321,"current_range_meters":18400,"station_id":"ce4bh092rcd13ifvqd30","pricing_plan_id":"free"},{"bike_id":"7d35600e-680d-4e5e-939a-4ff943250806","system_id":"levelo_inurba_marseille","lat":43.231793,"lon":5.400044,"is_reserved":false,"is_disabled":false,"rental_uris":{"android":"levelo://app?vid=7d35600e-680d-4e5e-939a-4ff943250806","ios":"levelo://app?vid=7d35600e-680d-4e5e-939a-4ff943250806"},"vehicle_type_id":"4","last_reported":1690301321,"current_range_meters":22400,"station_id":"ce4bhn12rcd13ifvqgqg","pricing_plan_id":"free"},{"bike_id":"a0e93e9f-7001-4b4c-bdb7-f91c89673e51","system_id":"levelo_inurba_marseille","lat":43.28856,"lon":5.358371,"is_reserved":false,"is_disabled":false,"rental_uris":{"android":"levelo://app?vid=a0e93e9f-7001-4b4c-bdb7-f91c89673e51","ios":"levelo://app?vid=a0e93e9f-7001-4b4c-bdb7-f91c89673e51"},"vehicle_type_id":"4","last_reported":1690301321,"current_range_meters":12800,"station_id":"ce4bhb12rcd13ifvqem0","pricing_plan_id":"free"},{"bike_id":"31d77afd-f17c-45af-b4fb-e1f10649f2ac","system_id":"levelo_inurba_marseille","lat":43.33739,"lon":5.37487,"is_reserved":false,"is_disabled":false,"rental_uris":{"android":"levelo://app?vid=31d77afd-f17c-45af-b4fb-e1f10649f2ac","ios":"levelo://app?vid=31d77afd-f17c-45af-b4fb-e1f10649f2ac"},"vehicle_type_id":"4","last_reported":1690301321,"current_range_meters":29600,"station_id":"","pricing_plan_id":"free"},{"bike_id":"e9138402-fc15-4896-bb4f-c3a40ba5299c","system_id":"levelo_inurba_marseille","lat":43.33741,"lon":5.3749,"is_reserved":false,"is_disabled":false,"rental_uris":{"android":"levelo://app?vid=e9138402-fc15-4896-bb4f-c3a40ba5299c","ios":"levelo://app?vid=e9138402-fc15-4896-bb4f-c3a40ba5299c"},"vehicle_type_id":"4","last_reported":1690301321,"current_range_meters":14400,"station_id":"","pricing_plan_id":"free"},{"bike_id":"f4832a7d-a08c-4c4c-a7c7-6a8e3914171a","system_id":"levelo_inurba_marseille","lat":43.33746,"lon":5.37464,"is_reserved":false,"is_disabled":false,"rental_uris":{"android":"levelo://app?vid=f4832a7d-a08c-4c4c-a7c7-6a8e3914171a","ios":"levelo://app?vid=f4832a7d-a08c-4c4c-a7c7-6a8e3914171a"},"vehicle_type_id":"4","last_reported":1690301321,"current_range_meters":29600,"station_id":"","pricing_plan_id":"free"},{"bike_id":"84426c72-a45e-42ce-89a9-a207a6c14653","system_id":"levelo_inurba_marseille","lat":43.33747,"lon":5.37468,"is_reserved":false,"is_disabled":false,"rental_uris":{"android":"levelo://app?vid=84426c72-a45e-42ce-89a9-a207a6c14653","ios":"levelo://app?vid=84426c72-a45e-42ce-89a9-a207a6c14653"},"vehicle_type_id":"4","last_reported":1690301321,"current_range_meters":24000,"station_id":"","pricing_plan_id":"free"},{"bike_id":"e1b81148-5445-4a37-b8ba-64ec9e162893","system_id":"levelo_inurba_marseille","lat":43.33749,"lon":5.37457,"is_reserved":false,"is_disabled":false,"rental_uris":{"android":"levelo://app?vid=e1b81148-5445-4a37-b8ba-64ec9e162893","ios":"levelo://app?vid=e1b81148-5445-4a37-b8ba-64ec9e162893"},"vehicle_type_id":"4","last_reported":1690301321,"current_range_meters":25200,"station_id":"","pricing_plan_id":"free"},{"bike_id":"2a5f7b8c-72a9-4aeb-bdd5-e2deb926c81c","system_id":"levelo_inurba_marseille","lat":43.291994,"lon":5.392907,"is_reserved":false,"is_disabled":false,"rental_uris":{"android":"levelo://app?vid=2a5f7b8c-72a9-4aeb-bdd5-e2deb926c81c","ios":"levelo://app?vid=2a5f7b8c-72a9-4aeb-bdd5-e2deb926c81c"},"vehicle_type_id":"4","last_reported":1690301321,"current_range_meters":18800,"station_id":"ce4bh192rcd13ifvqdd0","pricing_plan_id":"free"},{"bike_id":"148d6e6e-c682-4bde-bf7f-9c1b887b61db","system_id":"levelo_inurba_marseille","lat":43.30642,"lon":5.401031,"is_reserved":false,"is_disabled":false,"rental_uris":{"android":"levelo://app?vid=148d6e6e-c682-4bde-bf7f-9c1b887b61db","ios":"levelo://app?vid=148d6e6e-c682-4bde-bf7f-9c1b887b61db"},"vehicle_type_id":"4","last_reported":1690301321,"current_range_meters":21200,"station_id":"ce4bh112rcd13ifvqda0","pricing_plan_id":"free"},{"bike_id":"08115743-171b-4e9e-8a34-3f3f17b0935f","system_id":"levelo_inurba_marseille","lat":43.30651,"lon":5.40078,"is_reserved":false,"is_disabled":false,"rental_uris":{"android":"levelo://app?vid=08115743-171b-4e9e-8a34-3f3f17b0935f","ios":"levelo://app?vid=08115743-171b-4e9e-8a34-3f3f17b0935f"},"vehicle_type_id":"4","last_reported":1690301321,"current_range_meters":30400,"station_id":"ce4bh112rcd13ifvqda0","pricing_plan_id":"free"},{"bike_id":"91c5d3f3-de55-416e-ba96-83c70618ab44","system_id":"levelo_inurba_marseille","lat":43.337474,"lon":5.374932,"is_reserved":false,"is_disabled":false,"rental_uris":{"android":"levelo://app?vid=91c5d3f3-de55-416e-ba96-83c70618ab44","ios":"levelo://app?vid=91c5d3f3-de55-416e-ba96-83c70618ab44"},"vehicle_type_id":"4","last_reported":1690301321,"current_range_meters":0,"station_id":"","pricing_plan_id":"free"},{"bike_id":"34746990-9af6-409b-bcba-2bfa3785fb72","system_id":"levelo_inurba_marseille","lat":43.33755,"lon":5.37473,"is_reserved":false,"is_disabled":false,"rental_uris":{"android":"levelo://app?vid=34746990-9af6-409b-bcba-2bfa3785fb72","ios":"levelo://app?vid=34746990-9af6-409b-bcba-2bfa3785fb72"},"vehicle_type_id":"4","last_reported":1690301321,"current_range_meters":0,"station_id":"","pricing_plan_id":"free"},{"bike_id":"023f9f64-74be-4021-b4df-bf84b4d9242b","system_id":"levelo_inurba_marseille","lat":43.33757,"lon":5.37475,"is_reserved":false,"is_disabled":false,"rental_uris":{"android":"levelo://app?vid=023f9f64-74be-4021-b4df-bf84b4d9242b","ios":"levelo://app?vid=023f9f64-74be-4021-b4df-bf84b4d9242b"},"vehicle_type_id":"4","last_reported":1690301321,"current_range_meters":24800,"station_id":"","pricing_plan_id":"free"},{"bike_id":"153ffbbf-1bcb-4450-b505-39d94b305ddc","system_id":"levelo_inurba_marseille","lat":43.33757,"lon":5.37475,"is_reserved":false,"is_disabled":false,"rental_uris":{"android":"levelo://app?vid=153ffbbf-1bcb-4450-b505-39d94b305ddc","ios":"levelo://app?vid=153ffbbf-1bcb-4450-b505-39d94b305ddc"},"vehicle_type_id":"4","last_reported":1690301321,"current_range_meters":12400,"station_id":"","pricing_plan_id":"free"},{"bike_id":"e5f66319-449c-4163-b4e2-5f51e6fef08d","system_id":"levelo_inurba_marseille","lat":43.33758,"lon":5.37469,"is_reserved":false,"is_disabled":false,"rental_uris":{"android":"levelo://app?vid=e5f66319-449c-4163-b4e2-5f51e6fef08d","ios":"levelo://app?vid=e5f66319-449c-4163-b4e2-5f51e6fef08d"},"vehicle_type_id":"4","last_reported":1690301321,"current_range_meters":30800,"station_id":"","pricing_plan_id":"free"},{"bike_id":"3746530a-4639-4ddb-88b5-06f2f5c2fbfd","system_id":"levelo_inurba_marseille","lat":43.33759,"lon":5.37467,"is_reserved":false,"is_disabled":false,"rental_uris":{"android":"levelo://app?vid=3746530a-4639-4ddb-88b5-06f2f5c2fbfd","ios":"levelo://app?vid=3746530a-4639-4ddb-88b5-06f2f5c2fbfd"},"vehicle_type_id":"4","last_reported":1690301321,"current_range_meters":31600,"station_id":"","pricing_plan_id":"free"},{"bike_id":"f2538e92-b853-4637-87b9-30dd9d9a08b9","system_id":"levelo_inurba_marseille","lat":43.30642,"lon":5.401031,"is_reserved":false,"is_disabled":false,"rental_uris":{"android":"levelo://app?vid=f2538e92-b853-4637-87b9-30dd9d9a08b9","ios":"levelo://app?vid=f2538e92-b853-4637-87b9-30dd9d9a08b9"},"vehicle_type_id":"4","last_reported":1690301321,"current_range_meters":31600,"station_id":"ce4bh112rcd13ifvqda0","pricing_plan_id":"free"},{"bike_id":"bbba9b56-f3f5-4c64-bc8b-118bf35453d0","system_id":"levelo_inurba_marseille","lat":43.33757,"lon":5.3748,"is_reserved":false,"is_disabled":false,"rental_uris":{"android":"levelo://app?vid=bbba9b56-f3f5-4c64-bc8b-118bf35453d0","ios":"levelo://app?vid=bbba9b56-f3f5-4c64-bc8b-118bf35453d0"},"vehicle_type_id":"4","last_reported":1690301321,"current_range_meters":14000,"station_id":"","pricing_plan_id":"free"},{"bike_id":"fe1f78d2-f246-48a1-8047-b5480ca67db4","system_id":"levelo_inurba_marseille","lat":43.33758,"lon":5.37475,"is_reserved":false,"is_disabled":false,"rental_uris":{"android":"levelo://app?vid=fe1f78d2-f246-48a1-8047-b5480ca67db4","ios":"levelo://app?vid=fe1f78d2-f246-48a1-8047-b5480ca67db4"},"vehicle_type_id":"4","last_reported":1690301321,"current_range_meters":0,"station_id":"","pricing_plan_id":"free"},{"bike_id":"417f3cd8-86e7-4f94-bf48-3b7ed2d5d1d2","system_id":"levelo_inurba_marseille","lat":43.33757,"lon":5.37487,"is_reserved":false,"is_disabled":false,"rental_uris":{"android":"levelo://app?vid=417f3cd8-86e7-4f94-bf48-3b7ed2d5d1d2","ios":"levelo://app?vid=417f3cd8-86e7-4f94-bf48-3b7ed2d5d1d2"},"vehicle_type_id":"4","last_reported":1690301321,"current_range_meters":7200,"station_id":"","pricing_plan_id":"free"},{"bike_id":"76a3d743-1fe2-4c1f-bf61-b5a18f92b0dd","system_id":"levelo_inurba_marseille","lat":43.3376,"lon":5.37475,"is_reserved":false,"is_disabled":false,"rental_uris":{"android":"levelo://app?vid=76a3d743-1fe2-4c1f-bf61-b5a18f92b0dd","ios":"levelo://app?vid=76a3d743-1fe2-4c1f-bf61-b5a18f92b0dd"},"vehicle_type_id":"4","last_reported":1690301321,"current_range_meters":0,"station_id":"","pricing_plan_id":"free"},{"bike_id":"163fd25e-7d2e-4f4a-bafe-b87248569308","system_id":"levelo_inurba_marseille","lat":43.30637,"lon":5.40087,"is_reserved":false,"is_disabled":false,"rental_uris":{"android":"levelo://app?vid=163fd25e-7d2e-4f4a-bafe-b87248569308","ios":"levelo://app?vid=163fd25e-7d2e-4f4a-bafe-b87248569308"},"vehicle_type_id":"4","last_reported":1690301321,"current_range_meters":400,"station_id":"ce4bh112rcd13ifvqda0","pricing_plan_id":"free"},{"bike_id":"130840a5-e40d-401b-b733-9a7931bc0133","system_id":"levelo_inurba_marseille","lat":43.3376,"lon":5.37483,"is_reserved":false,"is_disabled":false,"rental_uris":{"android":"levelo://app?vid=130840a5-e40d-401b-b733-9a7931bc0133","ios":"levelo://app?vid=130840a5-e40d-401b-b733-9a7931bc0133"},"vehicle_type_id":"4","last_reported":1690301321,"current_range_meters":25200,"station_id":"","pricing_plan_id":"free"},{"bike_id":"d65dfde0-9794-40f8-8bd4-b6f51281b670","system_id":"levelo_inurba_marseille","lat":43.33762,"lon":5.37474,"is_reserved":false,"is_disabled":false,"rental_uris":{"android":"levelo://app?vid=d65dfde0-9794-40f8-8bd4-b6f51281b670","ios":"levelo://app?vid=d65dfde0-9794-40f8-8bd4-b6f51281b670"},"vehicle_type_id":"4","last_reported":1690301321,"current_range_meters":0,"station_id":"","pricing_plan_id":"free"},{"bike_id":"545292b9-fb1a-4a5c-8728-2af68895307a","system_id":"levelo_inurba_marseille","lat":43.33762,"lon":5.37479,"is_reserved":false,"is_disabled":false,"rental_uris":{"android":"levelo://app?vid=545292b9-fb1a-4a5c-8728-2af68895307a","ios":"levelo://app?vid=545292b9-fb1a-4a5c-8728-2af68895307a"},"vehicle_type_id":"4","last_reported":1690301321,"current_range_meters":0,"station_id":"","pricing_plan_id":"free"},{"bike_id":"8a763e71-889a-4f6d-9d12-cc0925af9551","system_id":"levelo_inurba_marseille","lat":43.33763,"lon":5.37484,"is_reserved":false,"is_disabled":false,"rental_uris":{"android":"levelo://app?vid=8a763e71-889a-4f6d-9d12-cc0925af9551","ios":"levelo://app?vid=8a763e71-889a-4f6d-9d12-cc0925af9551"},"vehicle_type_id":"4","last_reported":1690301321,"current_range_meters":11600,"station_id":"","pricing_plan_id":"free"},{"bike_id":"fa49868f-edc9-4393-9ec3-44ab001d23d0","system_id":"levelo_inurba_marseille","lat":43.33765,"lon":5.37475,"is_reserved":false,"is_disabled":false,"rental_uris":{"android":"levelo://app?vid=fa49868f-edc9-4393-9ec3-44ab001d23d0","ios":"levelo://app?vid=fa49868f-edc9-4393-9ec3-44ab001d23d0"},"vehicle_type_id":"4","last_reported":1690301321,"current_range_meters":26000,"station_id":"","pricing_plan_id":"free"},{"bike_id":"bf1280b6-af89-460d-afab-59b80de05708","system_id":"levelo_inurba_marseille","lat":43.30642,"lon":5.401031,"is_reserved":false,"is_disabled":false,"rental_uris":{"android":"levelo://app?vid=bf1280b6-af89-460d-afab-59b80de05708","ios":"levelo://app?vid=bf1280b6-af89-460d-afab-59b80de05708"},"vehicle_type_id":"4","last_reported":1690301321,"current_range_meters":7200,"station_id":"ce4bh112rcd13ifvqda0","pricing_plan_id":"free"},{"bike_id":"eda0a4fa-7fe5-4809-90b8-7f16999e7308","system_id":"levelo_inurba_marseille","lat":43.33762,"lon":5.37497,"is_reserved":false,"is_disabled":false,"rental_uris":{"android":"levelo://app?vid=eda0a4fa-7fe5-4809-90b8-7f16999e7308","ios":"levelo://app?vid=eda0a4fa-7fe5-4809-90b8-7f16999e7308"},"vehicle_type_id":"4","last_reported":1690301321,"current_range_meters":18000,"station_id":"","pricing_plan_id":"free"},{"bike_id":"503b8454-49e4-4ea8-92d1-7490b98d7024","system_id":"levelo_inurba_marseille","lat":43.33762,"lon":5.375039,"is_reserved":false,"is_disabled":false,"rental_uris":{"android":"levelo://app?vid=503b8454-49e4-4ea8-92d1-7490b98d7024","ios":"levelo://app?vid=503b8454-49e4-4ea8-92d1-7490b98d7024"},"vehicle_type_id":"4","last_reported":1690301321,"current_range_meters":28800,"station_id":"","pricing_plan_id":"free"},{"bike_id":"3739d829-8735-4ec8-88ac-619f61a1d81d","system_id":"levelo_inurba_marseille","lat":43.301117,"lon":5.398795,"is_reserved":false,"is_disabled":false,"rental_uris":{"android":"levelo://app?vid=3739d829-8735-4ec8-88ac-619f61a1d81d","ios":"levelo://app?vid=3739d829-8735-4ec8-88ac-619f61a1d81d"},"vehicle_type_id":"4","last_reported":1690301321,"current_range_meters":13600,"station_id":"ce4bh0h2rcd13ifvqd40","pricing_plan_id":"free"},{"bike_id":"22f0da66-1641-40bc-8526-ffd60a6da71d","system_id":"levelo_inurba_marseille","lat":43.33774,"lon":5.37471,"is_reserved":false,"is_disabled":false,"rental_uris":{"android":"levelo://app?vid=22f0da66-1641-40bc-8526-ffd60a6da71d","ios":"levelo://app?vid=22f0da66-1641-40bc-8526-ffd60a6da71d"},"vehicle_type_id":"4","last_reported":1690301321,"current_range_meters":26800,"station_id":"","pricing_plan_id":"free"},{"bike_id":"092d40c9-6852-401e-a561-6fecc2814da1","system_id":"levelo_inurba_marseille","lat":43.30143,"lon":5.39866,"is_reserved":false,"is_disabled":false,"rental_uris":{"android":"levelo://app?vid=092d40c9-6852-401e-a561-6fecc2814da1","ios":"levelo://app?vid=092d40c9-6852-401e-a561-6fecc2814da1"},"vehicle_type_id":"4","last_reported":1690301321,"current_range_meters":31600,"station_id":"ce4bh0h2rcd13ifvqd40","pricing_plan_id":"free"},{"bike_id":"f33d0763-05c1-496d-8bfd-04b9e3404051","system_id":"levelo_inurba_marseille","lat":43.30145,"lon":5.3987,"is_reserved":false,"is_disabled":false,"rental_uris":{"android":"levelo://app?vid=f33d0763-05c1-496d-8bfd-04b9e3404051","ios":"levelo://app?vid=f33d0763-05c1-496d-8bfd-04b9e3404051"},"vehicle_type_id":"4","last_reported":1690301321,"current_range_meters":23600,"station_id":"ce4bh0h2rcd13ifvqd40","pricing_plan_id":"free"},{"bike_id":"0169a43c-a513-4ff2-b6b3-b781b3acf261","system_id":"levelo_inurba_marseille","lat":43.301117,"lon":5.398795,"is_reserved":false,"is_disabled":false,"rental_uris":{"android":"levelo://app?vid=0169a43c-a513-4ff2-b6b3-b781b3acf261","ios":"levelo://app?vid=0169a43c-a513-4ff2-b6b3-b781b3acf261"},"vehicle_type_id":"4","last_reported":1690301321,"current_range_meters":13600,"station_id":"ce4bh0h2rcd13ifvqd40","pricing_plan_id":"free"},{"bike_id":"e24d0e14-a727-495f-a060-9ae04ee7e67e","system_id":"levelo_inurba_marseille","lat":43.301117,"lon":5.398795,"is_reserved":false,"is_disabled":false,"rental_uris":{"android":"levelo://app?vid=e24d0e14-a727-495f-a060-9ae04ee7e67e","ios":"levelo://app?vid=e24d0e14-a727-495f-a060-9ae04ee7e67e"},"vehicle_type_id":"4","last_reported":1690301321,"current_range_meters":18000,"station_id":"ce4bh0h2rcd13ifvqd40","pricing_plan_id":"free"},{"bike_id":"4aca713e-8595-4c2d-a4f9-353d24cc191b","system_id":"levelo_inurba_marseille","lat":43.29875,"lon":5.39724,"is_reserved":false,"is_disabled":false,"rental_uris":{"android":"levelo://app?vid=4aca713e-8595-4c2d-a4f9-353d24cc191b","ios":"levelo://app?vid=4aca713e-8595-4c2d-a4f9-353d24cc191b"},"vehicle_type_id":"4","last_reported":1690301321,"current_range_meters":17600,"station_id":"ce4bh0h2rcd13ifvqd50","pricing_plan_id":"free"},{"bike_id":"8b97db89-8dfc-4639-ab9d-13fc58b342a5","system_id":"levelo_inurba_marseille","lat":43.286591,"lon":5.363346,"is_reserved":false,"is_disabled":false,"rental_uris":{"android":"levelo://app?vid=8b97db89-8dfc-4639-ab9d-13fc58b342a5","ios":"levelo://app?vid=8b97db89-8dfc-4639-ab9d-13fc58b342a5"},"vehicle_type_id":"4","last_reported":1690301321,"current_range_meters":31200,"station_id":"ce4bhah2rcd13ifvqej0","pricing_plan_id":"free"},{"bike_id":"2f58551f-04ec-41fe-a824-8675d2e0f564","system_id":"levelo_inurba_marseille","lat":43.298681,"lon":5.397225,"is_reserved":false,"is_disabled":false,"rental_uris":{"android":"levelo://app?vid=2f58551f-04ec-41fe-a824-8675d2e0f564","ios":"levelo://app?vid=2f58551f-04ec-41fe-a824-8675d2e0f564"},"vehicle_type_id":"4","last_reported":1690301321,"current_range_meters":7200,"station_id":"ce4bh0h2rcd13ifvqd50","pricing_plan_id":"free"},{"bike_id":"92362efa-f1e7-4237-a0c0-f4b3cfbf2f17","system_id":"levelo_inurba_marseille","lat":43.298681,"lon":5.397225,"is_reserved":false,"is_disabled":false,"rental_uris":{"android":"levelo://app?vid=92362efa-f1e7-4237-a0c0-f4b3cfbf2f17","ios":"levelo://app?vid=92362efa-f1e7-4237-a0c0-f4b3cfbf2f17"},"vehicle_type_id":"4","last_reported":1690301321,"current_range_meters":7600,"station_id":"ce4bh0h2rcd13ifvqd50","pricing_plan_id":"free"},{"bike_id":"a9bc5ab6-b8ac-4e79-8158-ed983abb52ae","system_id":"levelo_inurba_marseille","lat":43.292569,"lon":5.409107,"is_reserved":false,"is_disabled":false,"rental_uris":{"android":"levelo://app?vid=a9bc5ab6-b8ac-4e79-8158-ed983abb52ae","ios":"levelo://app?vid=a9bc5ab6-b8ac-4e79-8158-ed983abb52ae"},"vehicle_type_id":"4","last_reported":1690301321,"current_range_meters":25200,"station_id":"ce4bh192rcd13ifvqdc0","pricing_plan_id":"free"},{"bike_id":"2cf00459-6825-4cfd-ac2b-57e4047c1d59","system_id":"levelo_inurba_marseille","lat":43.298681,"lon":5.397225,"is_reserved":false,"is_disabled":false,"rental_uris":{"android":"levelo://app?vid=2cf00459-6825-4cfd-ac2b-57e4047c1d59","ios":"levelo://app?vid=2cf00459-6825-4cfd-ac2b-57e4047c1d59"},"vehicle_type_id":"4","last_reported":1690301321,"current_range_meters":17200,"station_id":"ce4bh0h2rcd13ifvqd50","pricing_plan_id":"free"},{"bike_id":"53f39c6b-1fb4-40d7-902d-ce53b9076aed","system_id":"levelo_inurba_marseille","lat":43.298681,"lon":5.397225,"is_reserved":false,"is_disabled":false,"rental_uris":{"android":"levelo://app?vid=53f39c6b-1fb4-40d7-902d-ce53b9076aed","ios":"levelo://app?vid=53f39c6b-1fb4-40d7-902d-ce53b9076aed"},"vehicle_type_id":"4","last_reported":1690301321,"current_range_meters":5200,"station_id":"ce4bh0h2rcd13ifvqd50","pricing_plan_id":"free"},{"bike_id":"c92b0bed-5aa2-4c24-8b6a-fa2bd31aa89f","system_id":"levelo_inurba_marseille","lat":43.286961,"lon":5.373785,"is_reserved":false,"is_disabled":false,"rental_uris":{"android":"levelo://app?vid=c92b0bed-5aa2-4c24-8b6a-fa2bd31aa89f","ios":"levelo://app?vid=c92b0bed-5aa2-4c24-8b6a-fa2bd31aa89f"},"vehicle_type_id":"4","last_reported":1690301321,"current_range_meters":15200,"station_id":"ce4bh3p2rcd13ifvqdq0","pricing_plan_id":"free"},{"bike_id":"4bd59adc-e390-4fa8-9f2a-ff21f317fe14","system_id":"levelo_inurba_marseille","lat":43.295194,"lon":5.39397,"is_reserved":false,"is_disabled":false,"rental_uris":{"android":"levelo://app?vid=4bd59adc-e390-4fa8-9f2a-ff21f317fe14","ios":"levelo://app?vid=4bd59adc-e390-4fa8-9f2a-ff21f317fe14"},"vehicle_type_id":"4","last_reported":1690301321,"current_range_meters":0,"station_id":"ce4bh292rcd13ifvqdf0","pricing_plan_id":"free"},{"bike_id":"28ea659c-273f-4819-8114-520bb86308f2","system_id":"levelo_inurba_marseille","lat":43.295194,"lon":5.39397,"is_reserved":false,"is_disabled":false,"rental_uris":{"android":"levelo://app?vid=28ea659c-273f-4819-8114-520bb86308f2","ios":"levelo://app?vid=28ea659c-273f-4819-8114-520bb86308f2"},"vehicle_type_id":"4","last_reported":1690301321,"current_range_meters":16000,"station_id":"ce4bh292rcd13ifvqdf0","pricing_plan_id":"free"},{"bike_id":"9cd12a11-6c45-46f2-a007-e68eb7e6b114","system_id":"levelo_inurba_marseille","lat":43.295196,"lon":5.39397,"is_reserved":false,"is_disabled":false,"rental_uris":{"android":"levelo://app?vid=9cd12a11-6c45-46f2-a007-e68eb7e6b114","ios":"levelo://app?vid=9cd12a11-6c45-46f2-a007-e68eb7e6b114"},"vehicle_type_id":"4","last_reported":1690301321,"current_range_meters":8400,"station_id":"ce4bh292rcd13ifvqdf0","pricing_plan_id":"free"},{"bike_id":"23eca4e3-72c1-4bc2-a372-b4d410c44335","system_id":"levelo_inurba_marseille","lat":43.295196,"lon":5.39397,"is_reserved":false,"is_disabled":false,"rental_uris":{"android":"levelo://app?vid=23eca4e3-72c1-4bc2-a372-b4d410c44335","ios":"levelo://app?vid=23eca4e3-72c1-4bc2-a372-b4d410c44335"},"vehicle_type_id":"4","last_reported":1690301321,"current_range_meters":31200,"station_id":"ce4bh292rcd13ifvqdf0","pricing_plan_id":"free"},{"bike_id":"ac1861b7-da57-48e8-be78-07db142437f6","system_id":"levelo_inurba_marseille","lat":43.290336,"lon":5.386425,"is_reserved":false,"is_disabled":false,"rental_uris":{"android":"levelo://app?vid=ac1861b7-da57-48e8-be78-07db142437f6","ios":"levelo://app?vid=ac1861b7-da57-48e8-be78-07db142437f6"},"vehicle_type_id":"4","last_reported":1690301321,"current_range_meters":19600,"station_id":"ce4bh4p2rcd13ifvqe0g","pricing_plan_id":"free"},{"bike_id":"08281d4c-add4-4538-9f54-9b324622f03d","system_id":"levelo_inurba_marseille","lat":43.290345,"lon":5.38646,"is_reserved":false,"is_disabled":false,"rental_uris":{"android":"levelo://app?vid=08281d4c-add4-4538-9f54-9b324622f03d","ios":"levelo://app?vid=08281d4c-add4-4538-9f54-9b324622f03d"},"vehicle_type_id":"4","last_reported":1690301321,"current_range_meters":4400,"station_id":"ce4bh4p2rcd13ifvqe0g","pricing_plan_id":"free"},{"bike_id":"f26a4040-93fc-401b-b7b5-5771a189dd79","system_id":"levelo_inurba_marseille","lat":43.302759,"lon":5.400793,"is_reserved":false,"is_disabled":false,"rental_uris":{"android":"levelo://app?vid=f26a4040-93fc-401b-b7b5-5771a189dd79","ios":"levelo://app?vid=f26a4040-93fc-401b-b7b5-5771a189dd79"},"vehicle_type_id":"4","last_reported":1690301321,"current_range_meters":30400,"station_id":"ce4bgvh2rcd13ifvqcs0","pricing_plan_id":"free"},{"bike_id":"7ea4490e-c26b-4bfe-bf12-937e623dbf05","system_id":"levelo_inurba_marseille","lat":43.31862,"lon":5.40246,"is_reserved":false,"is_disabled":false,"rental_uris":{"android":"levelo://app?vid=7ea4490e-c26b-4bfe-bf12-937e623dbf05","ios":"levelo://app?vid=7ea4490e-c26b-4bfe-bf12-937e623dbf05"},"vehicle_type_id":"4","last_reported":1690301321,"current_range_meters":31200,"station_id":"","pricing_plan_id":"free"},{"bike_id":"fb61ff27-0921-4657-910f-f85fff9114bd","system_id":"levelo_inurba_marseille","lat":43.302759,"lon":5.400793,"is_reserved":false,"is_disabled":false,"rental_uris":{"android":"levelo://app?vid=fb61ff27-0921-4657-910f-f85fff9114bd","ios":"levelo://app?vid=fb61ff27-0921-4657-910f-f85fff9114bd"},"vehicle_type_id":"4","last_reported":1690301321,"current_range_meters":10000,"station_id":"ce4bgvh2rcd13ifvqcs0","pricing_plan_id":"free"},{"bike_id":"1f672b34-f87f-4df1-a36d-56f027232c82","system_id":"levelo_inurba_marseille","lat":43.302759,"lon":5.400793,"is_reserved":false,"is_disabled":false,"rental_uris":{"android":"levelo://app?vid=1f672b34-f87f-4df1-a36d-56f027232c82","ios":"levelo://app?vid=1f672b34-f87f-4df1-a36d-56f027232c82"},"vehicle_type_id":"4","last_reported":1690301321,"current_range_meters":23600,"station_id":"ce4bgvh2rcd13ifvqcs0","pricing_plan_id":"free"},{"bike_id":"550abf34-bfcb-4855-8cf4-31d32755ab9c","system_id":"levelo_inurba_marseille","lat":43.29029,"lon":5.38649,"is_reserved":false,"is_disabled":false,"rental_uris":{"android":"levelo://app?vid=550abf34-bfcb-4855-8cf4-31d32755ab9c","ios":"levelo://app?vid=550abf34-bfcb-4855-8cf4-31d32755ab9c"},"vehicle_type_id":"4","last_reported":1690301321,"current_range_meters":8400,"station_id":"ce4bh4p2rcd13ifvqe0g","pricing_plan_id":"free"},{"bike_id":"52a96571-1645-4e82-bf5b-80052ce0e3f6","system_id":"levelo_inurba_marseille","lat":43.302759,"lon":5.400793,"is_reserved":false,"is_disabled":false,"rental_uris":{"android":"levelo://app?vid=52a96571-1645-4e82-bf5b-80052ce0e3f6","ios":"levelo://app?vid=52a96571-1645-4e82-bf5b-80052ce0e3f6"},"vehicle_type_id":"4","last_reported":1690301321,"current_range_meters":17600,"station_id":"ce4bgvh2rcd13ifvqcs0","pricing_plan_id":"free"},{"bike_id":"d7e763ae-04bb-4a23-8115-6ae97ebe84d9","system_id":"levelo_inurba_marseille","lat":43.302759,"lon":5.400793,"is_reserved":false,"is_disabled":false,"rental_uris":{"android":"levelo://app?vid=d7e763ae-04bb-4a23-8115-6ae97ebe84d9","ios":"levelo://app?vid=d7e763ae-04bb-4a23-8115-6ae97ebe84d9"},"vehicle_type_id":"4","last_reported":1690301321,"current_range_meters":21600,"station_id":"ce4bgvh2rcd13ifvqcs0","pricing_plan_id":"free"},