{"last_updated":1770100620,"ttl":60,"version":"2.2","data":{"bikes":[{"bike_id":"e9a8ad83-a2d5-4795-8073-fda176633ed6","system_id":"levelo_inurba_marseille","lat":43.26684,"lon":5.38275,"is_reserved":false,"is_disabled":false,"rental_uris":{"android":"levelo://app?vid=e9a8ad83-a2d5-4795-8073-fda176633ed6","ios":"levelo://app?vid=e9a8ad83-a2d5-4795-8073-fda176633ed6"},"vehicle_type_id":"4","last_reported":1770100621,"current_range_meters":2800,"station_id":"ce4bhg92rcd13ifvqf90","pricing_plan_id":"cebpf4jnsgd1na2vs0mg"},{"bike_id":"e25162d3-4d5d-419d-b20d-2ec1bcdee6fb","system_id":"levelo_inurba_marseille","lat":43.31055,"lon":5.37175,"is_reserved":false,"is_disabled":false,"rental_uris":{"android":"levelo://app?vid=e25162d3-4d5d-419d-b20d-2ec1bcdee6fb","ios":"levelo://app?vid=e25162d3-4d5d-419d-b20d-2ec1bcdee6fb"},"vehicle_type_id":"4","last_reported":1770100621,"current_range_meters":2800,"station_id":"st_d4kl2rp97mjs73e7tdfg","pricing_plan_id":"cebpf4jnsgd1na2vs0mg"},{"bike_id":"8cb17e9d-6956-4db9-870e-851f50514412","system_id":"levelo_inurba_marseille","lat":43.32115,"lon":5.36773,"is_reserved":false,"is_disabled":false,"rental_uris":{"android":"levelo://app?vid=8cb17e9d-6956-4db9-870e-851f50514412","ios":"levelo://app?vid=8cb17e9d-6956-4db9-870e-851f50514412"},"vehicle_type_id":"4","last_reported":1770100621,"current_range_meters":2800,"station_id":"ce4bhrh2rcd13ifvqhug","pricing_plan_id":"cebpf4jnsgd1na2vs0mg"},{"bike_id":"02767f32-1f14-42e3-b29c-9b62abe184d8","system_id":"levelo_inurba_marseille","lat":43.262267,"lon":5.404533,"is_reserved":false,"is_disabled":false,"rental_uris":{"android":"levelo://app?vid=02767f32-1f14-42e3-b29c-9b62abe184d8","ios":"levelo://app?vid=02767f32-1f14-42e3-b29c-9b62abe184d8"},"vehicle_type_id":"4","last_reported":1770100621,"current_range_meters":3200,"station_id":"ce4bhmh2rcd13ifvqgmg","pricing_plan_id":"cebpf4jnsgd1na2vs0mg"},{"bike_id":"4c24c7c3-8069-406a-b29f-ac66402a555f","system_id":"levelo_inurba_marseille","lat":43.30167,"lon":5.38087,"is_reserved":false,"is_disabled":false,"rental_uris":{"android":"levelo://app?vid=4c24c7c3-8069-406a-b29f-ac66402a555f","ios":"levelo://app?vid=4c24c7c3-8069-406a-b29f-ac66402a555f"},"vehicle_type_id":"4","last_reported":1770100621,"current_range_meters":3200,"station_id":"ce4bgjp2rcd13ifvqbh0","pricing_plan_id":"cebpf4jnsgd1na2vs0mg"},{"bike_id":"3b2a0495-d056-4726-ad48-0a57214f6b42","system_id":"levelo_inurba_marseille","lat":43.31212,"lon":5.36826,"is_reserved":false,"is_disabled":false,"rental_uris":{"android":"levelo://app?vid=3b2a0495-d056-4726-ad48-0a57214f6b42","ios":"levelo://app?vid=3b2a0495-d056-4726-ad48-0a57214f6b42"},"vehicle_type_id":"4","last_reported":1770100621,"current_range_meters":3200,"station_id":"ce4bgl92rcd13ifvqbq0","pricing_plan_id":"cebpf4jnsgd1na2vs0mg"},{"bike_id":"498925b7-5c1b-4bf1-a053-60e9a71a743b","system_id":"levelo_inurba_marseille","lat":43.295402,"lon":5.37502,"is_reserved":false,"is_disabled":false,"rental_uris":{"android":"levelo://app?vid=498925b7-5c1b-4bf1-a053-60e9a71a743b","ios":"levelo://app?vid=498925b7-5c1b-4bf1-a053-60e9a71a743b"},"vehicle_type_id":"4","last_reported":1770100621,"current_range_meters":3600,"station_id":"ce4bgkp2rcd13ifvqbmg","pricing_plan_id":"cebpf4jnsgd1na2vs0mg"},{"bike_id":"20ab15c6-cd2b-4147-ad23-6e4e82e00a52","system_id":"levelo_inurba_marseille","lat":43.26545,"lon":5.37283,"is_reserved":false,"is_disabled":false,"rental_uris":{"android":"levelo://app?vid=20ab15c6-cd2b-4147-ad23-6e4e82e00a52","ios":"levelo://app?vid=20ab15c6-cd2b-4147-ad23-6e4e82e00a52"},"vehicle_type_id":"4","last_reported":1770100621,"current_range_meters":3600,"station_id":"ce4bhg12rcd13ifvqf70","pricing_plan_id":"cebpf4jnsgd1na2vs0mg"},{"bike_id":"a408d5d2-5427-46e8-87f7-6b2377b7fcd5","system_id":"levelo_inurba_marseille","lat":43.25931,"lon":5.40901,"is_reserved":false,"is_disabled":false,"rental_uris":{"android":"levelo://app?vid=a408d5d2-5427-46e8-87f7-6b2377b7fcd5","ios":"levelo://app?vid=a408d5d2-5427-46e8-87f7-6b2377b7fcd5"},"vehicle_type_id":"4","last_reported":1770100621,"current_range_meters":3600,"station_id":"ce4bhm92rcd13ifvqglg","pricing_plan_id":"cebpf4jnsgd1na2vs0mg"},{"bike_id":"6ddb3c6a-28ae-4574-a949-d0f46ca957c2","system_id":"levelo_inurba_marseille","lat":43.28139,"lon":5.42628,"is_reserved":false,"is_disabled":true,"rental_uris":{"android":"levelo://app?vid=6ddb3c6a-28ae-4574-a949-d0f46ca957c2","ios":"levelo://app?vid=6ddb3c6a-28ae-4574-a949-d0f46ca957c2"},"vehicle_type_id":"4","last_reported":1770100621,"current_range_meters":3600,"station_id":"ce4bhnh2rcd13ifvqgug","pricing_plan_id":"cebpf4jnsgd1na2vs0mg"},{"bike_id":"969aaab6-4863-48ee-ae73-cff0fa90d3ee","system_id":"levelo_inurba_marseille","lat":43.31189,"lon":5.36891,"is_reserved":false,"is_disabled":false,"rental_uris":{"android":"levelo://app?vid=969aaab6-4863-48ee-ae73-cff0fa90d3ee","ios":"levelo://app?vid=969aaab6-4863-48ee-ae73-cff0fa90d3ee"},"vehicle_type_id":"4","last_reported":1770100621,"current_range_meters":3600,"station_id":"ce4bgl92rcd13ifvqbq0","pricing_plan_id":"cebpf4jnsgd1na2vs0mg"},{"bike_id":"437958b3-1fc1-421f-a410-c2cb6fec2333","system_id":"levelo_inurba_marseille","lat":43.24803,"lon":5.37438,"is_reserved":false,"is_disabled":false,"rental_uris":{"android":"levelo://app?vid=437958b3-1fc1-421f-a410-c2cb6fec2333","ios":"levelo://app?vid=437958b3-1fc1-421f-a410-c2cb6fec2333"},"vehicle_type_id":"4","last_reported":1770100621,"current_range_meters":3600,"station_id":"ce4bhgh2rcd13ifvqfb0","pricing_plan_id":"cebpf4jnsgd1na2vs0mg"},{"bike_id":"e22e1f26-0b48-4184-a7ce-d50ac63de7a5","system_id":"levelo_inurba_marseille","lat":43.22564,"lon":5.41624,"is_reserved":false,"is_disabled":false,"rental_uris":{"android":"levelo://app?vid=e22e1f26-0b48-4184-a7ce-d50ac63de7a5","ios":"levelo://app?vid=e22e1f26-0b48-4184-a7ce-d50ac63de7a5"},"vehicle_type_id":"4","last_reported":1770100621,"current_range_meters":3600,"station_id":"st_d2o4gvlbi1j2169b742g","pricing_plan_id":"cebpf4jnsgd1na2vs0mg"},{"bike_id":"424d0d3d-de1c-4125-82ac-0faa3cd4c48d","system_id":"levelo_inurba_marseille","lat":43.30964,"lon":5.37157,"is_reserved":false,"is_disabled":false,"rental_uris":{"android":"levelo://app?vid=424d0d3d-de1c-4125-82ac-0faa3cd4c48d","ios":"levelo://app?vid=424d0d3d-de1c-4125-82ac-0faa3cd4c48d"},"vehicle_type_id":"4","last_reported":1770100621,"current_range_meters":3600,"station_id":"","pricing_plan_id":"cebpf4jnsgd1na2vs0mg"},{"bike_id":"a8b33ee5-98b1-4b91-a976-d816491fae12","system_id":"levelo_inurba_marseille","lat":43.26765,"lon":5.39438,"is_reserved":false,"is_disabled":true,"rental_uris":{"android":"levelo://app?vid=a8b33ee5-98b1-4b91-a976-d816491fae12","ios":"levelo://app?vid=a8b33ee5-98b1-4b91-a976-d816491fae12"},"vehicle_type_id":"4","last_reported":1770100621,"current_range_meters":4000,"station_id":"ce4bhh12rcd13ifvqfg0","pricing_plan_id":"cebpf4jnsgd1na2vs0mg"},{"bike_id":"b2cac47f-f549-4e09-b025-5f749d41973b","system_id":"levelo_inurba_marseille","lat":43.2293,"lon":5.35383,"is_reserved":false,"is_disabled":false,"rental_uris":{"android":"levelo://app?vid=b2cac47f-f549-4e09-b025-5f749d41973b","ios":"levelo://app?vid=b2cac47f-f549-4e09-b025-5f749d41973b"},"vehicle_type_id":"4","last_reported":1770100621,"current_range_meters":4000,"station_id":"cpo3532slgdg3j2ikp40","pricing_plan_id":"cebpf4jnsgd1na2vs0mg"},{"bike_id":"c20ed702-3481-4da1-8980-6cf2971f3757","system_id":"levelo_inurba_marseille","lat":43.28474,"lon":5.48397,"is_reserved":false,"is_disabled":false,"rental_uris":{"android":"levelo://app?vid=c20ed702-3481-4da1-8980-6cf2971f3757","ios":"levelo://app?vid=c20ed702-3481-4da1-8980-6cf2971f3757"},"vehicle_type_id":"4","last_reported":1770100621,"current_range_meters":4000,"station_id":"st_d3svhcjqgbts73a3dn0g","pricing_plan_id":"cebpf4jnsgd1na2vs0mg"},{"bike_id":"a1f01d0e-daec-4baf-acde-adf9612a1a61","system_id":"levelo_inurba_marseille","lat":43.26604,"lon":5.39024,"is_reserved":false,"is_disabled":false,"rental_uris":{"android":"levelo://app?vid=a1f01d0e-daec-4baf-acde-adf9612a1a61","ios":"levelo://app?vid=a1f01d0e-daec-4baf-acde-adf9612a1a61"},"vehicle_type_id":"4","last_reported":1770100621,"current_range_meters":4000,"station_id":"","pricing_plan_id":"cebpf4jnsgd1na2vs0mg"},{"bike_id":"27c2ee02-095b-4efa-aefc-348543972b6e","system_id":"levelo_inurba_marseille","lat":43.301002,"lon":5.390819,"is_reserved":false,"is_disabled":true,"rental_uris":{"android":"levelo://app?vid=27c2ee02-095b-4efa-aefc-348543972b6e","ios":"levelo://app?vid=27c2ee02-095b-4efa-aefc-348543972b6e"},"vehicle_type_id":"4","last_reported":1770100621,"current_range_meters":4000,"station_id":"ce4bh192rcd13ifvqdb0","pricing_plan_id":"cebpf4jnsgd1na2vs0mg"},{"bike_id":"7e7cded1-d7df-4b4d-9ff3-49738118bd9d","system_id":"levelo_inurba_marseille","lat":43.25327,"lon":5.42178,"is_reserved":false,"is_disabled":false,"rental_uris":{"android":"levelo://app?vid=7e7cded1-d7df-4b4d-9ff3-49738118bd9d","ios":"levelo://app?vid=7e7cded1-d7df-4b4d-9ff3-49738118bd9d"},"vehicle_type_id":"4","last_reported":1770100621,"current_range_meters":4000,"station_id":"st_d2m65c5bi1j21697t3ng","pricing_plan_id":"cebpf4jnsgd1na2vs0mg"},{"bike_id":"fda17309-67c6-493d-a11a-fed18f5561b2","system_id":"levelo_inurba_marseille","lat":43.250136,"lon":5.389159,"is_reserved":false,"is_disabled":false,"rental_uris":{"android":"levelo://app?vid=fda17309-67c6-493d-a11a-fed18f5561b2","ios":"levelo://app?vid=fda17309-67c6-493d-a11a-fed18f5561b2"},"vehicle_type_id":"4","last_reported":1770100621,"current_range_meters":4000,"station_id":"ce4bhgp2rcd13ifvqfd0","pricing_plan_id":"cebpf4jnsgd1na2vs0mg"},{"bike_id":"1011dc68-4ee9-41c9-ae55-c75059bc4863","system_id":"levelo_inurba_marseille","lat":43.30157,"lon":5.38074,"is_reserved":false,"is_disabled":false,"rental_uris":{"android":"levelo://app?vid=1011dc68-4ee9-41c9-ae55-c75059bc4863","ios":"levelo://app?vid=1011dc68-4ee9-41c9-ae55-c75059bc4863"},"vehicle_type_id":"4","last_reported":1770100621,"current_range_meters":4000,"station_id":"ce4bgjp2rcd13ifvqbh0","pricing_plan_id":"cebpf4jnsgd1na2vs0mg"},{"bike_id":"4e84c079-e70f-4bbb-aa19-0481777478da","system_id":"levelo_inurba_marseille","lat":43.26957,"lon":5.38617,"is_reserved":false,"is_disabled":false,"rental_uris":{"android":"levelo://app?vid=4e84c079-e70f-4bbb-aa19-0481777478da","ios":"levelo://app?vid=4e84c079-e70f-4bbb-aa19-0481777478da"},"vehicle_type_id":"4","last_reported":1770100621,"current_range_meters":4400,"station_id":"ce4bhh92rcd13ifvqfh0","pricing_plan_id":"cebpf4jnsgd1na2vs0mg"},{"bike_id":"132c2e4f-f164-4506-8200-75a72b5316b3","system_id":"levelo_inurba_marseille","lat":43.22565,"lon":5.41617,"is_reserved":false,"is_disabled":false,"rental_uris":{"android":"levelo://app?vid=132c2e4f-f164-4506-8200-75a72b5316b3","ios":"levelo://app?vid=132c2e4f-f164-4506-8200-75a72b5316b3"},"vehicle_type_id":"4","last_reported":1770100621,"current_range_meters":4400,"station_id":"st_d2o4gvlbi1j2169b742g","pricing_plan_id":"cebpf4jnsgd1na2vs0mg"},{"bike_id":"ed02cb4c-388a-4f26-a459-0831f95c479b","system_id":"levelo_inurba_marseille","lat":43.299033,"lon":5.436512,"is_reserved":false,"is_disabled":false,"rental_uris":{"android":"levelo://app?vid=ed02cb4c-388a-4f26-a459-0831f95c479b","ios":"levelo://app?vid=ed02cb4c-388a-4f26-a459-0831f95c479b"},"vehicle_type_id":"4","last_reported":1770100621,"current_range_meters":4400,"station_id":"ce4bhpp2rcd13ifvqhfg","pricing_plan_id":"cebpf4jnsgd1na2vs0mg"},{"bike_id":"97d7ba2a-e0c0-4688-aeb6-9dc8e7c2bb8b","system_id":"levelo_inurba_marseille","lat":43.28184,"lon":5.3498,"is_reserved":false,"is_disabled":false,"rental_uris":{"android":"levelo://app?vid=97d7ba2a-e0c0-4688-aeb6-9dc8e7c2bb8b","ios":"levelo://app?vid=97d7ba2a-e0c0-4688-aeb6-9dc8e7c2bb8b"},"vehicle_type_id":"4","last_reported":1770100621,"current_range_meters":4400,"station_id":"","pricing_plan_id":"cebpf4jnsgd1na2vs0mg"},{"bike_id":"7481b2d9-a077-4efb-aae8-c8d680676399","system_id":"levelo_inurba_marseille","lat":43.283552,"lon":5.381067,"is_reserved":false,"is_disabled":false,"rental_uris":{"android":"levelo://app?vid=7481b2d9-a077-4efb-aae8-c8d680676399","ios":"levelo://app?vid=7481b2d9-a077-4efb-aae8-c8d680676399"},"vehicle_type_id":"4","last_reported":1770100621,"current_range_meters":4400,"station_id":"ce4bh412rcd13ifvqdr0","pricing_plan_id":"cebpf4jnsgd1na2vs0mg"},{"bike_id":"7fe347fa-413c-483b-9c90-03d768296456","system_id":"levelo_inurba_marseille","lat":43.31231,"lon":5.36852,"is_reserved":false,"is_disabled":false,"rental_uris":{"android":"levelo://app?vid=7fe347fa-413c-483b-9c90-03d768296456","ios":"levelo://app?vid=7fe347fa-413c-483b-9c90-03d768296456"},"vehicle_type_id":"4","last_reported":1770100621,"current_range_meters":4400,"station_id":"ce4bgl92rcd13ifvqbq0","pricing_plan_id":"cebpf4jnsgd1na2vs0mg"},{"bike_id":"28e068bb-60a9-42b4-9f96-904466e94f56","system_id":"levelo_inurba_marseille","lat":43.27944,"lon":5.38722,"is_reserved":false,"is_disabled":false,"rental_uris":{"android":"levelo://app?vid=28e068bb-60a9-42b4-9f96-904466e94f56","ios":"levelo://app?vid=28e068bb-60a9-42b4-9f96-904466e94f56"},"vehicle_type_id":"4","last_reported":1770100621,"current_range_meters":4800,"station_id":"ce4bhg12rcd13ifvqf80","pricing_plan_id":"cebpf4jnsgd1na2vs0mg"},{"bike_id":"a83f6d4e-8b41-4f5d-b726-aab40772b3dc","system_id":"levelo_inurba_marseille","lat":43.2718,"lon":5.39219,"is_reserved":false,"is_disabled":true,"rental_uris":{"android":"levelo://app?vid=a83f6d4e-8b41-4f5d-b726-aab40772b3dc","ios":"levelo://app?vid=a83f6d4e-8b41-4f5d-b726-aab40772b3dc"},"vehicle_type_id":"4","last_reported":1770100621,"current_range_meters":4800,"station_id":"ce4bhhp2rcd13ifvqfm0","pricing_plan_id":"cebpf4jnsgd1na2vs0mg"},{"bike_id":"325d9984-4029-4d00-8c76-8002734e01d5","system_id":"levelo_inurba_marseille","lat":43.28029,"lon":5.36947,"is_reserved":false,"is_disabled":false,"rental_uris":{"android":"levelo://app?vid=325d9984-4029-4d00-8c76-8002734e01d5","ios":"levelo://app?vid=325d9984-4029-4d00-8c76-8002734e01d5"},"vehicle_type_id":"4","last_reported":1770100621,"current_range_meters":4800,"station_id":"ce4bha12rcd13ifvqef0","pricing_plan_id":"cebpf4jnsgd1na2vs0mg"},{"bike_id":"448aac68-1f9e-4017-99cd-3bab5b285023","system_id":"levelo_inurba_marseille","lat":43.27387,"lon":5.36262,"is_reserved":false,"is_disabled":false,"rental_uris":{"android":"levelo://app?vid=448aac68-1f9e-4017-99cd-3bab5b285023","ios":"levelo://app?vid=448aac68-1f9e-4017-99cd-3bab5b285023"},"vehicle_type_id":"4","last_reported":1770100621,"current_range_meters":4800,"station_id":"ce4bhbh2rcd13ifvqeo0","pricing_plan_id":"cebpf4jnsgd1na2vs0mg"},{"bike_id":"004217b9-d0df-4be3-b36e-32cfa6b0fb50","system_id":"levelo_inurba_marseille","lat":43.24623,"lon":5.43206,"is_reserved":false,"is_disabled":false,"rental_uris":{"android":"levelo://app?vid=004217b9-d0df-4be3-b36e-32cfa6b0fb50","ios":"levelo://app?vid=004217b9-d0df-4be3-b36e-32cfa6b0fb50"},"vehicle_type_id":"4","last_reported":1770100621,"current_range_meters":4800,"station_id":"st_d2m6c4gdas8pm72e190g","pricing_plan_id":"cebpf4jnsgd1na2vs0mg"},{"bike_id":"3af254c4-2f3a-4454-91c7-e425c101cc55","system_id":"levelo_inurba_marseille","lat":43.3117,"lon":5.38709,"is_reserved":false,"is_disabled":false,"rental_uris":{"android":"levelo://app?vid=3af254c4-2f3a-4454-91c7-e425c101cc55","ios":"levelo://app?vid=3af254c4-2f3a-4454-91c7-e425c101cc55"},"vehicle_type_id":"4","last_reported":1770100621,"current_range_meters":4800,"station_id":"ce4bgv12rcd13ifvqcp0","pricing_plan_id":"cebpf4jnsgd1na2vs0mg"},{"bike_id":"6a131f0d-6128-445c-99a5-319bcf3a622a","system_id":"levelo_inurba_marseille","lat":43.2847,"lon":5.48423,"is_reserved":false,"is_disabled":false,"rental_uris":{"android":"levelo://app?vid=6a131f0d-6128-445c-99a5-319bcf3a622a","ios":"levelo://app?vid=6a131f0d-6128-445c-99a5-319bcf3a622a"},"vehicle_type_id":"4","last_reported":1770100621,"current_range_meters":4800,"station_id":"st_d3svhcjqgbts73a3dn0g","pricing_plan_id":"cebpf4jnsgd1na2vs0mg"},{"bike_id":"9b88fd27-e984-4d47-a1cb-c509cbeae0be","system_id":"levelo_inurba_marseille","lat":43.28006,"lon":5.39996,"is_reserved":false,"is_disabled":false,"rental_uris":{"android":"levelo://app?vid=9b88fd27-e984-4d47-a1cb-c509cbeae0be","ios":"levelo://app?vid=9b88fd27-e984-4d47-a1cb-c509cbeae0be"},"vehicle_type_id":"4","last_reported":1770100621,"current_range_meters":5600,"station_id":"ce4bho92rcd13ifvqh4g","pricing_plan_id":"cebpf4jnsgd1na2vs0mg"},{"bike_id":"dd789ece-b6e4-4c2e-b0c1-877c84b17297","system_id":"levelo_inurba_marseille","lat":43.211936,"lon":5.350708,"is_reserved":false,"is_disabled":false,"rental_uris":{"android":"levelo://app?vid=dd789ece-b6e4-4c2e-b0c1-877c84b17297","ios":"levelo://app?vid=dd789ece-b6e4-4c2e-b0c1-877c84b17297"},"vehicle_type_id":"4","last_reported":1770100621,"current_range_meters":5600,"station_id":"st_cvj6sg6p6f1abm77japg","pricing_plan_id":"cebpf4jnsgd1na2vs0mg"},{"bike_id":"25ba520d-23b6-46f1-92f1-610ce44ef257","system_id":"levelo_inurba_marseille","lat":43.31688,"lon":5.40488,"is_reserved":false,"is_disabled":false,"rental_uris":{"android":"levelo://app?vid=25ba520d-23b6-46f1-92f1-610ce44ef257","ios":"levelo://app?vid=25ba520d-23b6-46f1-92f1-610ce44ef257"},"vehicle_type_id":"4","last_reported":1770100621,"current_range_meters":5600,"station_id":"ce4bh012rcd13ifvqd00","pricing_plan_id":"cebpf4jnsgd1na2vs0mg"},{"bike_id":"225e9d09-83ee-4f1c-a930-a97429c83cb7","system_id":"levelo_inurba_marseille","lat":43.23194,"lon":5.35551,"is_reserved":false,"is_disabled":false,"rental_uris":{"android":"levelo://app?vid=225e9d09-83ee-4f1c-a930-a97429c83cb7","ios":"levelo://app?vid=225e9d09-83ee-4f1c-a930-a97429c83cb7"},"vehicle_type_id":"4","last_reported":1770100621,"current_range_meters":5600,"station_id":"ce4bhu92rcd13ifvqi70","pricing_plan_id":"cebpf4jnsgd1na2vs0mg"},{"bike_id":"91604460-68c0-4492-894c-a238619d1f72","system_id":"levelo_inurba_marseille","lat":43.23195,"lon":5.35538,"is_reserved":false,"is_disabled":false,"rental_uris":{"android":"levelo://app?vid=91604460-68c0-4492-894c-a238619d1f72","ios":"levelo://app?vid=91604460-68c0-4492-894c-a238619d1f72"},"vehicle_type_id":"4","last_reported":1770100621,"current_range_meters":5600,"station_id":"ce4bhu92rcd13ifvqi70","pricing_plan_id":"cebpf4jnsgd1na2vs0mg"},{"bike_id":"b81cf0a9-60ff-4ac2-9c33-32ff258c0032","system_id":"levelo_inurba_marseille","lat":43.28412,"lon":5.34993,"is_reserved":false,"is_disabled":false,"rental_uris":{"android":"levelo://app?vid=b81cf0a9-60ff-4ac2-9c33-32ff258c0032","ios":"levelo://app?vid=b81cf0a9-60ff-4ac2-9c33-32ff258c0032"},"vehicle_type_id":"4","last_reported":1770100621,"current_range_meters":6000,"station_id":"ce4bhbh2rcd13ifvqepg","pricing_plan_id":"cebpf4jnsgd1na2vs0mg"},{"bike_id":"63c588f3-50af-493c-93b7-4826a9a71452","system_id":"levelo_inurba_marseille","lat":43.29844,"lon":5.36286,"is_reserved":false,"is_disabled":false,"rental_uris":{"android":"levelo://app?vid=63c588f3-50af-493c-93b7-4826a9a71452","ios":"levelo://app?vid=63c588f3-50af-493c-93b7-4826a9a71452"},"vehicle_type_id":"4","last_reported":1770100621,"current_range_meters":6000,"station_id":"ce4bgpp2rcd13ifvqc3g","pricing_plan_id":"cebpf4jnsgd1na2vs0mg"},{"bike_id":"0dfee802-42fd-4fdc-b59b-2834c3c17675","system_id":"levelo_inurba_marseille","lat":43.29003,"lon":5.35635,"is_reserved":false,"is_disabled":false,"rental_uris":{"android":"levelo://app?vid=0dfee802-42fd-4fdc-b59b-2834c3c17675","ios":"levelo://app?vid=0dfee802-42fd-4fdc-b59b-2834c3c17675"},"vehicle_type_id":"4","last_reported":1770100621,"current_range_meters":6000,"station_id":"ce4bhb92rcd13ifvqen0","pricing_plan_id":"cebpf4jnsgd1na2vs0mg"},{"bike_id":"d6ff0c2e-1b73-4afa-8f0f-7ada026e25d1","system_id":"levelo_inurba_marseille","lat":43.29489,"lon":5.37613,"is_reserved":false,"is_disabled":false,"rental_uris":{"android":"levelo://app?vid=d6ff0c2e-1b73-4afa-8f0f-7ada026e25d1","ios":"levelo://app?vid=d6ff0c2e-1b73-4afa-8f0f-7ada026e25d1"},"vehicle_type_id":"4","last_reported":1770100621,"current_range_meters":6000,"station_id":"","pricing_plan_id":"cebpf4jnsgd1na2vs0mg"},{"bike_id":"b4b49109-c680-49e7-b78f-0963342a85a5","system_id":"levelo_inurba_marseille","lat":43.3057,"lon":5.36545,"is_reserved":false,"is_disabled":false,"rental_uris":{"android":"levelo://app?vid=b4b49109-c680-49e7-b78f-0963342a85a5","ios":"levelo://app?vid=b4b49109-c680-49e7-b78f-0963342a85a5"},"vehicle_type_id":"4","last_reported":1770100621,"current_range_meters":6000,"station_id":"ce4bgs12rcd13ifvqcag","pricing_plan_id":"cebpf4jnsgd1na2vs0mg"},{"bike_id":"b0d93303-81f2-4939-a8a5-d433286e13fa","system_id":"levelo_inurba_marseille","lat":43.27045,"lon":5.38295,"is_reserved":false,"is_disabled":false,"rental_uris":{"android":"levelo://app?vid=b0d93303-81f2-4939-a8a5-d433286e13fa","ios":"levelo://app?vid=b0d93303-81f2-4939-a8a5-d433286e13fa"},"vehicle_type_id":"4","last_reported":1770100621,"current_range_meters":6000,"station_id":"st_d3n2fo6cfp8s73cte1j0","pricing_plan_id":"cebpf4jnsgd1na2vs0mg"},{"bike_id":"0a6292f7-50dd-43c2-b393-e08dde080051","system_id":"levelo_inurba_marseille","lat":43.26583,"lon":5.38991,"is_reserved":false,"is_disabled":false,"rental_uris":{"android":"levelo://app?vid=0a6292f7-50dd-43c2-b393-e08dde080051","ios":"levelo://app?vid=0a6292f7-50dd-43c2-b393-e08dde080051"},"vehicle_type_id":"4","last_reported":1770100621,"current_range_meters":6000,"station_id":"ce4bhe12rcd13ifvqf30","pricing_plan_id":"cebpf4jnsgd1na2vs0mg"},{"bike_id":"1b7275f2-66dc-49c1-a1cf-6b666c1247c0","system_id":"levelo_inurba_marseille","lat":43.31042,"lon":5.37184,"is_reserved":false,"is_disabled":false,"rental_uris":{"android":"levelo://app?vid=1b7275f2-66dc-49c1-a1cf-6b666c1247c0","ios":"levelo://app?vid=1b7275f2-66dc-49c1-a1cf-6b666c1247c0"},"vehicle_type_id":"4","last_reported":1770100621,"current_range_meters":6000,"station_id":"st_d4kl2rp97mjs73e7tdfg","pricing_plan_id":"cebpf4jnsgd1na2vs0mg"},{"bike_id":"89dacfb9-9707-42fe-a9c8-524d3751d080","system_id":"levelo_inurba_marseille","lat":43.2315,"lon":5.43699,"is_reserved":false,"is_disabled":false,"rental_uris":{"android":"levelo://app?vid=89dacfb9-9707-42fe-a9c8-524d3751d080","ios":"levelo://app?vid=89dacfb9-9707-42fe-a9c8-524d3751d080"},"vehicle_type_id":"4","last_reported":1770100621,"current_range_meters":6400,"station_id":"ce4bhmp2rcd13ifvqgog","pricing_plan_id":"cebpf4jnsgd1na2vs0mg"},{"bike_id":"76154380-766b-4767-81b3-83dc44f40b7b","system_id":"levelo_inurba_marseille","lat":43.33562,"lon":5.37483,"is_reserved":false,"is_disabled":false,"rental_uris":{"android":"levelo://app?vid=76154380-766b-4767-81b3-83dc44f40b7b","ios":"levelo://app?vid=76154380-766b-4767-81b3-83dc44f40b7b"},"vehicle_type_id":"4","last_reported":1770100621,"current_range_meters":6400,"station_id":"st_d46tts09ee8s73dlu43g","pricing_plan_id":"cebpf4jnsgd1na2vs0mg"},{"bike_id":"f8b90001-ffd3-489f-9646-3ea4d3953b76","system_id":"levelo_inurba_marseille","lat":43.27795,"lon":5.4071,"is_reserved":false,"is_disabled":false,"rental_uris":{"android":"levelo://app?vid=f8b90001-ffd3-489f-9646-3ea4d3953b76","ios":"levelo://app?vid=f8b90001-ffd3-489f-9646-3ea4d3953b76"},"vehicle_type_id":"4","last_reported":1770100621,"current_range_meters":6400,"station_id":"ce4bhnh2rcd13ifvqgtg","pricing_plan_id":"cebpf4jnsgd1na2vs0mg"},{"bike_id":"67d94700-218b-4e1b-9b09-f23953a1fdd8","system_id":"levelo_inurba_marseille","lat":43.26192,"lon":5.40444,"is_reserved":false,"is_disabled":false,"rental_uris":{"android":"levelo://app?vid=67d94700-218b-4e1b-9b09-f23953a1fdd8","ios":"levelo://app?vid=67d94700-218b-4e1b-9b09-f23953a1fdd8"},"vehicle_type_id":"4","last_reported":1770100621,"current_range_meters":6400,"station_id":"ce4bhmh2rcd13ifvqgmg","pricing_plan_id":"cebpf4jnsgd1na2vs0mg"},{"bike_id":"ea5a711f-2b73-4543-828e-0dd0db27a325","system_id":"levelo_inurba_marseille","lat":43.28219,"lon":5.3908,"is_reserved":false,"is_disabled":false,"rental_uris":{"android":"levelo://app?vid=ea5a711f-2b73-4543-828e-0dd0db27a325","ios":"levelo://app?vid=ea5a711f-2b73-4543-828e-0dd0db27a325"},"vehicle_type_id":"4","last_reported":1770100621,"current_range_meters":6400,"station_id":"ce4bhn92rcd13ifvqgsg","pricing_plan_id":"cebpf4jnsgd1na2vs0mg"},{"bike_id":"dd31698a-3042-473a-bd53-ac0632646f44","system_id":"levelo_inurba_marseille","lat":43.24469,"lon":5.425339,"is_reserved":false,"is_disabled":false,"rental_uris":{"android":"levelo://app?vid=dd31698a-3042-473a-bd53-ac0632646f44","ios":"levelo://app?vid=dd31698a-3042-473a-bd53-ac0632646f44"},"vehicle_type_id":"4","last_reported":1770100621,"current_range_meters":6400,"station_id":"st_d4a3vfp97mjs738cd8kg","pricing_plan_id":"cebpf4jnsgd1na2vs0mg"},{"bike_id":"1acfb5e8-f632-49ef-8f1b-a9d07688c562","system_id":"levelo_inurba_marseille","lat":43.2707,"lon":5.38317,"is_reserved":false,"is_disabled":false,"rental_uris":{"android":"levelo://app?vid=1acfb5e8-f632-49ef-8f1b-a9d07688c562","ios":"levelo://app?vid=1acfb5e8-f632-49ef-8f1b-a9d07688c562"},"vehicle_type_id":"4","last_reported":1770100621,"current_range_meters":6400,"station_id":"st_d3n2fo6cfp8s73cte1j0","pricing_plan_id":"cebpf4jnsgd1na2vs0mg"},{"bike_id":"4dd6841e-e470-4207-bb73-65a47c0e81c5","system_id":"levelo_inurba_marseille","lat":43.31169,"lon":5.38041,"is_reserved":false,"is_disabled":false,"rental_uris":{"android":"levelo://app?vid=4dd6841e-e470-4207-bb73-65a47c0e81c5","ios":"levelo://app?vid=4dd6841e-e470-4207-bb73-65a47c0e81c5"},"vehicle_type_id":"4","last_reported":1770100621,"current_range_meters":6400,"station_id":"","pricing_plan_id":"cebpf4jnsgd1na2vs0mg"},{"bike_id":"d1786d71-cdac-413b-898f-401144ede37d","system_id":"levelo_inurba_marseille","lat":43.25336,"lon":5.42175,"is_reserved":false,"is_disabled":false,"rental_uris":{"android":"levelo://app?vid=d1786d71-cdac-413b-898f-401144ede37d","ios":"levelo://app?vid=d1786d71-cdac-413b-898f-401144ede37d"},"vehicle_type_id":"4","last_reported":1770100621,"current_range_meters":6400,"station_id":"st_d2m65c5bi1j21697t3ng","pricing_plan_id":"cebpf4jnsgd1na2vs0mg"},{"bike_id":"5dae8e7a-771c-417a-921b-2f019b85b891","system_id":"levelo_inurba_marseille","lat":43.29894,"lon":5.43686,"is_reserved":false,"is_disabled":false,"rental_uris":{"android":"levelo://app?vid=5dae8e7a-771c-417a-921b-2f019b85b891","ios":"levelo://app?vid=5dae8e7a-771c-417a-921b-2f019b85b891"},"vehicle_type_id":"4","last_reported":1770100621,"current_range_meters":6400,"station_id":"ce4bhpp2rcd13ifvqhfg","pricing_plan_id":"cebpf4jnsgd1na2vs0mg"},{"bike_id":"bd4832ab-4826-48ba-b8bd-4c736bb28b7b","system_id":"levelo_inurba_marseille","lat":43.25339,"lon":5.42171,"is_reserved":false,"is_disabled":false,"rental_uris":{"android":"levelo://app?vid=bd4832ab-4826-48ba-b8bd-4c736bb28b7b","ios":"levelo://app?vid=bd4832ab-4826-48ba-b8bd-4c736bb28b7b"},"vehicle_type_id":"4","last_reported":1770100621,"current_range_meters":6400,"station_id":"st_d2m65c5bi1j21697t3ng","pricing_plan_id":"cebpf4jnsgd1na2vs0mg"},{"bike_id":"35d56dec-5dbc-4778-ba90-a317060fb012","system_id":"levelo_inurba_marseille","lat":43.29605,"lon":5.38113,"is_reserved":false,"is_disabled":true,"rental_uris":{"android":"levelo://app?vid=35d56dec-5dbc-4778-ba90-a317060fb012","ios":"levelo://app?vid=35d56dec-5dbc-4778-ba90-a317060fb012"},"vehicle_type_id":"4","last_reported":1770100621,"current_range_meters":6400,"station_id":"ce4bgl12rcd13ifvqbo0","pricing_plan_id":"cebpf4jnsgd1na2vs0mg"},{"bike_id":"fb6d0c92-aa07-41c5-bb64-ff22908e7b14","system_id":"levelo_inurba_marseille","lat":43.33542,"lon":5.37467,"is_reserved":false,"is_disabled":false,"rental_uris":{"android":"levelo://app?vid=fb6d0c92-aa07-41c5-bb64-ff22908e7b14","ios":"levelo://app?vid=fb6d0c92-aa07-41c5-bb64-ff22908e7b14"},"vehicle_type_id":"4","last_reported":1770100621,"current_range_meters":6400,"station_id":"st_d46tts09ee8s73dlu43g","pricing_plan_id":"cebpf4jnsgd1na2vs0mg"},{"bike_id":"6dcbafdd-a1b9-4d04-af91-285dc70eef9b","system_id":"levelo_inurba_marseille","lat":43.21784,"lon":5.34617,"is_reserved":false,"is_disabled":false,"rental_uris":{"android":"levelo://app?vid=6dcbafdd-a1b9-4d04-af91-285dc70eef9b","ios":"levelo://app?vid=6dcbafdd-a1b9-4d04-af91-285dc70eef9b"},"vehicle_type_id":"4","last_reported":1770100621,"current_range_meters":6800,"station_id":"st_cvj6r9ubvosntc0bgbag","pricing_plan_id":"cebpf4jnsgd1na2vs0mg"},{"bike_id":"02b06200-6f0c-4fbe-a288-f34e85c983a1","system_id":"levelo_inurba_marseille","lat":43.23783,"lon":5.36635,"is_reserved":false,"is_disabled":false,"rental_uris":{"android":"levelo://app?vid=02b06200-6f0c-4fbe-a288-f34e85c983a1","ios":"levelo://app?vid=02b06200-6f0c-4fbe-a288-f34e85c983a1"},"vehicle_type_id":"4","last_reported":1770100621,"current_range_meters":6800,"station_id":"st_d3nk18o9ro0c73en2l3g","pricing_plan_id":"cebpf4jnsgd1na2vs0mg"},{"bike_id":"23af0394-5a4b-41c7-a956-1b9443f015ff","system_id":"levelo_inurba_marseille","lat":43.33147,"lon":5.37689,"is_reserved":false,"is_disabled":false,"rental_uris":{"android":"levelo://app?vid=23af0394-5a4b-41c7-a956-1b9443f015ff","ios":"levelo://app?vid=23af0394-5a4b-41c7-a956-1b9443f015ff"},"vehicle_type_id":"4","last_reported":1770100621,"current_range_meters":6800,"station_id":"st_d46cu089ee8s73dldbu0","pricing_plan_id":"cebpf4jnsgd1na2vs0mg"},{"bike_id":"9436c3fb-a74e-4fd5-8b2a-988e84b82382","system_id":"levelo_inurba_marseille","lat":43.24174,"lon":5.39732,"is_reserved":false,"is_disabled":false,"rental_uris":{"android":"levelo://app?vid=9436c3fb-a74e-4fd5-8b2a-988e84b82382","ios":"levelo://app?vid=9436c3fb-a74e-4fd5-8b2a-988e84b82382"},"vehicle_type_id":"4","last_reported":1770100621,"current_range_meters":6800,"station_id":"ce4bhn12rcd13ifvqgpg","pricing_plan_id":"cebpf4jnsgd1na2vs0mg"},{"bike_id":"9a5c42d0-396d-4740-9af5-68ecd2459ec5","system_id":"levelo_inurba_marseille","lat":43.28664,"lon":5.36356,"is_reserved":false,"is_disabled":false,"rental_uris":{"android":"levelo://app?vid=9a5c42d0-396d-4740-9af5-68ecd2459ec5","ios":"levelo://app?vid=9a5c42d0-396d-4740-9af5-68ecd2459ec5"},"vehicle_type_id":"4","last_reported":1770100621,"current_range_meters":6800,"station_id":"ce4bhah2rcd13ifvqej0","pricing_plan_id":"cebpf4jnsgd1na2vs0mg"},{"bike_id":"5ff8ad37-0c92-433c-a2f7-86fa26d95862","system_id":"levelo_inurba_marseille","lat":43.30992,"lon":5.3905,"is_reserved":false,"is_disabled":false,"rental_uris":{"android":"levelo://app?vid=5ff8ad37-0c92-433c-a2f7-86fa26d95862","ios":"levelo://app?vid=5ff8ad37-0c92-433c-a2f7-86fa26d95862"},"vehicle_type_id":"4","last_reported":1770100621,"current_range_meters":6800,"station_id":"ce4bgup2rcd13ifvqco0","pricing_plan_id":"cebpf4jnsgd1na2vs0mg"},{"bike_id":"33155caa-8021-4913-a666-e828c4426fe1","system_id":"levelo_inurba_marseille","lat":43.23203,"lon":5.35557,"is_reserved":false,"is_disabled":false,"rental_uris":{"android":"levelo://app?vid=33155caa-8021-4913-a666-e828c4426fe1","ios":"levelo://app?vid=33155caa-8021-4913-a666-e828c4426fe1"},"vehicle_type_id":"4","last_reported":1770100621,"current_range_meters":6800,"station_id":"ce4bhu92rcd13ifvqi70","pricing_plan_id":"cebpf4jnsgd1na2vs0mg"},{"bike_id":"c04d02e9-4522-4664-80d1-72f19e30f66b","system_id":"levelo_inurba_marseille","lat":43.25286,"lon":5.3859,"is_reserved":false,"is_disabled":false,"rental_uris":{"android":"levelo://app?vid=c04d02e9-4522-4664-80d1-72f19e30f66b","ios":"levelo://app?vid=c04d02e9-4522-4664-80d1-72f19e30f66b"},"vehicle_type_id":"4","last_reported":1770100621,"current_range_meters":6800,"station_id":"","pricing_plan_id":"cebpf4jnsgd1na2vs0mg"},{"bike_id":"39e34071-1f76-445c-91f2-187764720849","system_id":"levelo_inurba_marseille","lat":43.21726,"lon":5.34601,"is_reserved":false,"is_disabled":false,"rental_uris":{"android":"levelo://app?vid=39e34071-1f76-445c-91f2-187764720849","ios":"levelo://app?vid=39e34071-1f76-445c-91f2-187764720849"},"vehicle_type_id":"4","last_reported":1770100621,"current_range_meters":6800,"station_id":"st_cvj6r9ubvosntc0bgbag","pricing_plan_id":"cebpf4jnsgd1na2vs0mg"},{"bike_id":"eee54609-a6c8-4bc7-a936-6a1b442519d3","system_id":"levelo_inurba_marseille","lat":43.31071,"lon":5.37181,"is_reserved":false,"is_disabled":false,"rental_uris":{"android":"levelo://app?vid=eee54609-a6c8-4bc7-a936-6a1b442519d3","ios":"levelo://app?vid=eee54609-a6c8-4bc7-a936-6a1b442519d3"},"vehicle_type_id":"4","last_reported":1770100621,"current_range_meters":7200,"station_id":"st_d4kl2rp97mjs73e7tdfg","pricing_plan_id":"cebpf4jnsgd1na2vs0mg"},{"bike_id":"951d0995-a8f6-4ae6-a137-840b501bd5ea","system_id":"levelo_inurba_marseille","lat":43.23137,"lon":5.43728,"is_reserved":false,"is_disabled":false,"rental_uris":{"android":"levelo://app?vid=951d0995-a8f6-4ae6-a137-840b501bd5ea","ios":"levelo://app?vid=951d0995-a8f6-4ae6-a137-840b501bd5ea"},"vehicle_type_id":"4","last_reported":1770100621,"current_range_meters":7200,"station_id":"ce4bhmp2rcd13ifvqgog","pricing_plan_id":"cebpf4jnsgd1na2vs0mg"},{"bike_id":"51cbf713-f79b-4c2d-9d8b-9a1117324cc6","system_id":"levelo_inurba_marseille","lat":43.29013,"lon":5.35618,"is_reserved":false,"is_disabled":false,"rental_uris":{"android":"levelo://app?vid=51cbf713-f79b-4c2d-9d8b-9a1117324cc6","ios":"levelo://app?vid=51cbf713-f79b-4c2d-9d8b-9a1117324cc6"},"vehicle_type_id":"4","last_reported":1770100621,"current_range_meters":7200,"station_id":"ce4bhb92rcd13ifvqen0","pricing_plan_id":"cebpf4jnsgd1na2vs0mg"},{"bike_id":"2c0bc4db-f557-470b-bd8a-9520318620b0","system_id":"levelo_inurba_marseille","lat":43.28412,"lon":5.35002,"is_reserved":false,"is_disabled":false,"rental_uris":{"android":"levelo://app?vid=2c0bc4db-f557-470b-bd8a-9520318620b0","ios":"levelo://app?vid=2c0bc4db-f557-470b-bd8a-9520318620b0"},"vehicle_type_id":"4","last_reported":1770100621,"current_range_meters":7200,"station_id":"ce4bhbh2rcd13ifvqepg","pricing_plan_id":"cebpf4jnsgd1na2vs0mg"},{"bike_id":"3b15ef1d-d491-4377-b134-a5b139ed4414","system_id":"levelo_inurba_marseille","lat":43.29398,"lon":5.37399,"is_reserved":false,"is_disabled":false,"rental_uris":{"android":"levelo://app?vid=3b15ef1d-d491-4377-b134-a5b139ed4414","ios":"levelo://app?vid=3b15ef1d-d491-4377-b134-a5b139ed4414"},"vehicle_type_id":"4","last_reported":1770100621,"current_range_meters":7200,"station_id":"","pricing_plan_id":"cebpf4jnsgd1na2vs0mg"},{"bike_id":"cef9edb7-4d2e-4ab7-9675-6b816e961933","system_id":"levelo_inurba_marseille","lat":43.241803,"lon":5.397209,"is_reserved":false,"is_disabled":false,"rental_uris":{"android":"levelo://app?vid=cef9edb7-4d2e-4ab7-9675-6b816e961933","ios":"levelo://app?vid=cef9edb7-4d2e-4ab7-9675-6b816e961933"},"vehicle_type_id":"4","last_reported":1770100621,"current_range_meters":7200,"station_id":"ce4bhn12rcd13ifvqgpg","pricing_plan_id":"cebpf4jnsgd1na2vs0mg"},{"bike_id":"4a771d56-bef5-40d9-9698-3cb3fd37451c","system_id":"levelo_inurba_marseille","lat":43.31489,"lon":5.37319,"is_reserved":false,"is_disabled":false,"rental_uris":{"android":"levelo://app?vid=4a771d56-bef5-40d9-9698-3cb3fd37451c","ios":"levelo://app?vid=4a771d56-bef5-40d9-9698-3cb3fd37451c"},"vehicle_type_id":"4","last_reported":1770100621,"current_range_meters":7200,"station_id":"ce4bgt12rcd13ifvqcd0","pricing_plan_id":"cebpf4jnsgd1na2vs0mg"},{"bike_id":"582c3be5-0588-4468-afbe-c0c50f7108ab","system_id":"levelo_inurba_marseille","lat":43.28859,"lon":5.35862,"is_reserved":false,"is_disabled":false,"rental_uris":{"android":"levelo://app?vid=582c3be5-0588-4468-afbe-c0c50f7108ab","ios":"levelo://app?vid=582c3be5-0588-4468-afbe-c0c50f7108ab"},"vehicle_type_id":"4","last_reported":1770100621,"current_range_meters":7200,"station_id":"ce4bhb12rcd13ifvqem0","pricing_plan_id":"cebpf4jnsgd1na2vs0mg"},{"bike_id":"34e4497e-004e-4d33-b563-df43c3f1dff0","system_id":"levelo_inurba_marseille","lat":43.29162,"lon":5.38831,"is_reserved":false,"is_disabled":false,"rental_uris":{"android":"levelo://app?vid=34e4497e-004e-4d33-b563-df43c3f1dff0","ios":"levelo://app?vid=34e4497e-004e-4d33-b563-df43c3f1dff0"},"vehicle_type_id":"4","last_reported":1770100621,"current_range_meters":7200,"station_id":"ce4bh4p2rcd13ifvqe0g","pricing_plan_id":"cebpf4jnsgd1na2vs0mg"},{"bike_id":"2f25b7b9-d174-4d17-8b3c-765baa967eaf","system_id":"levelo_inurba_marseille","lat":43.34115,"lon":5.40682,"is_reserved":false,"is_disabled":false,"rental_uris":{"android":"levelo://app?vid=2f25b7b9-d174-4d17-8b3c-765baa967eaf","ios":"levelo://app?vid=2f25b7b9-d174-4d17-8b3c-765baa967eaf"},"vehicle_type_id":"4","last_reported":1770100621,"current_range_meters":7200,"station_id":"","pricing_plan_id":"cebpf4jnsgd1na2vs0mg"},{"bike_id":"c5cba592-c8ea-4299-867c-e35aceae73bc","system_id":"levelo_inurba_marseille","lat":43.31758,"lon":5.39023,"is_reserved":false,"is_disabled":false,"rental_uris":{"android":"levelo://app?vid=c5cba592-c8ea-4299-867c-e35aceae73bc","ios":"levelo://app?vid=c5cba592-c8ea-4299-867c-e35aceae73bc"},"vehicle_type_id":"4","last_reported":1770100621,"current_range_meters":7200,"station_id":"ce4bhqp2rcd13ifvqhng","pricing_plan_id":"cebpf4jnsgd1na2vs0mg"},{"bike_id":"1311e5ee-00c9-4eaf-b716-b26e62b15c29","system_id":"levelo_inurba_marseille","lat":43.3064,"lon":5.4009,"is_reserved":false,"is_disabled":false,"rental_uris":{"android":"levelo://app?vid=1311e5ee-00c9-4eaf-b716-b26e62b15c29","ios":"levelo://app?vid=1311e5ee-00c9-4eaf-b716-b26e62b15c29"},"vehicle_type_id":"4","last_reported":1770100621,"current_range_meters":7200,"station_id":"ce4bh112rcd13ifvqda0","pricing_plan_id":"cebpf4jnsgd1na2vs0mg"},{"bike_id":"e5039c56-5199-4176-914c-6032a6fc6ed3","system_id":"levelo_inurba_marseille","lat":43.24811,"lon":5.37458,"is_reserved":false,"is_disabled":false,"rental_uris":{"android":"levelo://app?vid=e5039c56-5199-4176-914c-6032a6fc6ed3","ios":"levelo://app?vid=e5039c56-5199-4176-914c-6032a6fc6ed3"},"vehicle_type_id":"4","last_reported":1770100621,"current_range_meters":7200,"station_id":"ce4bhgh2rcd13ifvqfb0","pricing_plan_id":"cebpf4jnsgd1na2vs0mg"},{"bike_id":"f8e7e4d9-f87a-42a2-9144-b6886b943f25","system_id":"levelo_inurba_marseille","lat":43.24993,"lon":5.38941,"is_reserved":false,"is_disabled":false,"rental_uris":{"android":"levelo://app?vid=f8e7e4d9-f87a-42a2-9144-b6886b943f25","ios":"levelo://app?vid=f8e7e4d9-f87a-42a2-9144-b6886b943f25"},"vehicle_type_id":"4","last_reported":1770100621,"current_range_meters":8000,"station_id":"ce4bhgp2rcd13ifvqfd0","pricing_plan_id":"cebpf4jnsgd1na2vs0mg"},{"bike_id":"f29c9eca-7f54-4755-b637-531b69f02ad6","system_id":"levelo_inurba_marseille","lat":43.26289,"lon":5.39848,"is_reserved":false,"is_disabled":false,"rental_uris":{"android":"levelo://app?vid=f29c9eca-7f54-4755-b637-531b69f02ad6","ios":"levelo://app?vid=f29c9eca-7f54-4755-b637-531b69f02ad6"},"vehicle_type_id":"4","last_reported":1770100621,"current_range_meters":8000,"station_id":"","pricing_plan_id":"cebpf4jnsgd1na2vs0mg"},{"bike_id":"62e27a91-d1f4-4b1a-b2a6-3405a804b362","system_id":"levelo_inurba_marseille","lat":43.27078,"lon":5.42296,"is_reserved":false,"is_disabled":false,"rental_uris":{"android":"levelo://app?vid=62e27a91-d1f4-4b1a-b2a6-3405a804b362","ios":"levelo://app?vid=62e27a91-d1f4-4b1a-b2a6-3405a804b362"},"vehicle_type_id":"4","last_reported":1770100621,"current_range_meters":8000,"station_id":"ce4bhk92rcd13ifvqgb0","pricing_plan_id":"cebpf4jnsgd1na2vs0mg"},{"bike_id":"67949cb0-ad73-42aa-8494-c2a7d6735f87","system_id":"levelo_inurba_marseille","lat":43.31225,"lon":5.36878,"is_reserved":false,"is_disabled":false,"rental_uris":{"android":"levelo://app?vid=67949cb0-ad73-42aa-8494-c2a7d6735f87","ios":"levelo://app?vid=67949cb0-ad73-42aa-8494-c2a7d6735f87"},"vehicle_type_id":"4","last_reported":1770100621,"current_range_meters":8000,"station_id":"ce4bgl92rcd13ifvqbq0","pricing_plan_id":"cebpf4jnsgd1na2vs0mg"},{"bike_id":"dca930cd-8edd-4084-aa6f-af5fb496ef62","system_id":"levelo_inurba_marseille","lat":43.25335,"lon":5.42171,"is_reserved":false,"is_disabled":false,"rental_uris":{"android":"levelo://app?vid=dca930cd-8edd-4084-aa6f-af5fb496ef62","ios":"levelo://app?vid=dca930cd-8edd-4084-aa6f-af5fb496ef62"},"vehicle_type_id":"4","last_reported":1770100621,"current_range_meters":8000,"station_id":"st_d2m65c5bi1j21697t3ng","pricing_plan_id":"cebpf4jnsgd1na2vs0mg"},{"bike_id":"db4a7c18-fb00-49e4-812f-82d588271c3d","system_id":"levelo_inurba_marseille","lat":43.298889,"lon":5.375109,"is_reserved":false,"is_disabled":false,"rental_uris":{"android":"levelo://app?vid=db4a7c18-fb00-49e4-812f-82d588271c3d","ios":"levelo://app?vid=db4a7c18-fb00-49e4-812f-82d588271c3d"},"vehicle_type_id":"4","last_reported":1770100621,"current_range_meters":8000,"station_id":"ce4bgjh2rcd13ifvqbg0","pricing_plan_id":"cebpf4jnsgd1na2vs0mg"},{"bike_id":"68d2a9d1-2044-4f9c-8e7b-e4d9640d90af","system_id":"levelo_inurba_marseille","lat":43.2971,"lon":5.37957,"is_reserved":false,"is_disabled":false,"rental_uris":{"android":"levelo://app?vid=68d2a9d1-2044-4f9c-8e7b-e4d9640d90af","ios":"levelo://app?vid=68d2a9d1-2044-4f9c-8e7b-e4d9640d90af"},"vehicle_type_id":"4","last_reported":1770100621,"current_range_meters":8000,"station_id":"","pricing_plan_id":"cebpf4jnsgd1na2vs0mg"},{"bike_id":"c255d9ca-6ba6-4a87-a9e1-dc73c79573d7","system_id":"levelo_inurba_marseille","lat":43.27502,"lon":5.42441,"is_reserved":false,"is_disabled":false,"rental_uris":{"android":"levelo://app?vid=c255d9ca-6ba6-4a87-a9e1-dc73c79573d7","ios":"levelo://app?vid=c255d9ca-6ba6-4a87-a9e1-dc73c79573d7"},"vehicle_type_id":"4","last_reported":1770100621,"current_range_meters":8000,"station_id":"ce4bhn92rcd13ifvqgrg","pricing_plan_id":"cebpf4jnsgd1na2vs0mg"},{"bike_id":"6ddf7e79-fc33-436a-9f2e-0297899e5607","system_id":"levelo_inurba_marseille","lat":43.28496,"lon":5.48363,"is_reserved":false,"is_disabled":false,"rental_uris":{"android":"levelo://app?vid=6ddf7e79-fc33-436a-9f2e-0297899e5607","ios":"levelo://app?vid=6ddf7e79-fc33-436a-9f2e-0297899e5607"},"vehicle_type_id":"4","last_reported":1770100621,"current_range_meters":8000,"station_id":"st_d3svhcjqgbts73a3dn0g","pricing_plan_id":"cebpf4jnsgd1na2vs0mg"},{"bike_id":"be616c8a-7d9f-44f2-9914-b719781dfdee","system_id":"levelo_inurba_marseille","lat":43.23974,"lon":5.36636,"is_reserved":false,"is_disabled":false,"rental_uris":{"android":"levelo://app?vid=be616c8a-7d9f-44f2-9914-b719781dfdee","ios":"levelo://app?vid=be616c8a-7d9f-44f2-9914-b719781dfdee"},"vehicle_type_id":"4","last_reported":1770100621,"current_range_meters":8000,"station_id":"ce4bhi12rcd13ifvqfp0","pricing_plan_id":"cebpf4jnsgd1na2vs0mg"},{"bike_id":"37c558c9-e355-4c5f-95d4-4edef0566b9c","system_id":"levelo_inurba_marseille","lat":43.24657,"lon":5.38167,"is_reserved":false,"is_disabled":false,"rental_uris":{"android":"levelo://app?vid=37c558c9-e355-4c5f-95d4-4edef0566b9c","ios":"levelo://app?vid=37c558c9-e355-4c5f-95d4-4edef0566b9c"},"vehicle_type_id":"4","last_reported":1770100621,"current_range_meters":8000,"station_id":"ce4bhih2rcd13ifvqfr0","pricing_plan_id":"cebpf4jnsgd1na2vs0mg"},{"bike_id":"549d637b-91c5-48ec-83fa-865a463b6a4b","system_id":"levelo_inurba_marseille","lat":43.23242,"lon":5.35518,"is_reserved":false,"is_disabled":false,"rental_uris":{"android":"levelo://app?vid=549d637b-91c5-48ec-83fa-865a463b6a4b","ios":"levelo://app?vid=549d637b-91c5-48ec-83fa-865a463b6a4b"},"vehicle_type_id":"4","last_reported":1770100621,"current_range_meters":8000,"station_id":"ce4bhu92rcd13ifvqi70","pricing_plan_id":"cebpf4jnsgd1na2vs0mg"},{"bike_id":"e9c5afc7-c303-4df3-a0d1-811595814b02","system_id":"levelo_inurba_marseille","lat":43.24074,"lon":5.3777,"is_reserved":false,"is_disabled":false,"rental_uris":{"android":"levelo://app?vid=e9c5afc7-c303-4df3-a0d1-811595814b02","ios":"levelo://app?vid=e9c5afc7-c303-4df3-a0d1-811595814b02"},"vehicle_type_id":"4","last_reported":1770100621,"current_range_meters":8000,"station_id":"ce4bhnp2rcd13ifvqgvg","pricing_plan_id":"cebpf4jnsgd1na2vs0mg"},{"bike_id":"deb9e4eb-a481-4dbd-9838-7e21c4114a77","system_id":"levelo_inurba_marseille","lat":43.24646,"lon":5.38902,"is_reserved":false,"is_disabled":false,"rental_uris":{"android":"levelo://app?vid=deb9e4eb-a481-4dbd-9838-7e21c4114a77","ios":"levelo://app?vid=deb9e4eb-a481-4dbd-9838-7e21c4114a77"},"vehicle_type_id":"4","last_reported":1770100621,"current_range_meters":8000,"station_id":"ce4bhg12rcd13ifvqf60","pricing_plan_id":"cebpf4jnsgd1na2vs0mg"},{"bike_id":"71a7614c-8b3d-437e-a07f-6655ea820dce","system_id":"levelo_inurba_marseille","lat":43.301528,"lon":5.38075,"is_reserved":false,"is_disabled":false,"rental_uris":{"android":"levelo://app?vid=71a7614c-8b3d-437e-a07f-6655ea820dce","ios":"levelo://app?vid=71a7614c-8b3d-437e-a07f-6655ea820dce"},"vehicle_type_id":"4","last_reported":1770100621,"current_range_meters":8000,"station_id":"ce4bgjp2rcd13ifvqbh0","pricing_plan_id":"cebpf4jnsgd1na2vs0mg"},{"bike_id":"032d1622-f10e-4e31-9323-899def03e537","system_id":"levelo_inurba_marseille","lat":43.31046,"lon":5.37184,"is_reserved":false,"is_disabled":true,"rental_uris":{"android":"levelo://app?vid=032d1622-f10e-4e31-9323-899def03e537","ios":"levelo://app?vid=032d1622-f10e-4e31-9323-899def03e537"},"vehicle_type_id":"4","last_reported":1770100621,"current_range_meters":8000,"station_id":"st_d4kl2rp97mjs73e7tdfg","pricing_plan_id":"cebpf4jnsgd1na2vs0mg"},{"bike_id":"8300bb2e-96f4-4e9e-92a9-a4d1e04694a4","system_id":"levelo_inurba_marseille","lat":43.23127,"lon":5.43728,"is_reserved":false,"is_disabled":false,"rental_uris":{"android":"levelo://app?vid=8300bb2e-96f4-4e9e-92a9-a4d1e04694a4","ios":"levelo://app?vid=8300bb2e-96f4-4e9e-92a9-a4d1e04694a4"},"vehicle_type_id":"4","last_reported":1770100621,"current_range_meters":8400,"station_id":"ce4bhmp2rcd13ifvqgog","pricing_plan_id":"cebpf4jnsgd1na2vs0mg"},{"bike_id":"1d8a59d0-04ce-4e1d-8b77-0ea73c9d3164","system_id":"levelo_inurba_marseille","lat":43.25798,"lon":5.3944,"is_reserved":false,"is_disabled":false,"rental_uris":{"android":"levelo://app?vid=1d8a59d0-04ce-4e1d-8b77-0ea73c9d3164","ios":"levelo://app?vid=1d8a59d0-04ce-4e1d-8b77-0ea73c9d3164"},"vehicle_type_id":"4","last_reported":1770100621,"current_range_meters":8400,"station_id":"ce4bhip2rcd13ifvqft0","pricing_plan_id":"cebpf4jnsgd1na2vs0mg"},{"bike_id":"9c2508a9-b968-4bec-819a-5127bc67b58d","system_id":"levelo_inurba_marseille","lat":43.28412,"lon":5.37516,"is_reserved":false,"is_disabled":true,"rental_uris":{"android":"levelo://app?vid=9c2508a9-b968-4bec-819a-5127bc67b58d","ios":"levelo://app?vid=9c2508a9-b968-4bec-819a-5127bc67b58d"},"vehicle_type_id":"4","last_reported":1770100621,"current_range_meters":8400,"station_id":"ce4bh412rcd13ifvqds0","pricing_plan_id":"cebpf4jnsgd1na2vs0mg"},{"bike_id":"fd4003f9-ae57-43d9-af54-09e855d38b22","system_id":"levelo_inurba_marseille","lat":43.28511,"lon":5.44121,"is_reserved":false,"is_disabled":false,"rental_uris":{"android":"levelo://app?vid=fd4003f9-ae57-43d9-af54-09e855d38b22","ios":"levelo://app?vid=fd4003f9-ae57-43d9-af54-09e855d38b22"},"vehicle_type_id":"4","last_reported":1770100621,"current_range_meters":8400,"station_id":"st_d3j3df2ikq2c7380ej80","pricing_plan_id":"cebpf4jnsgd1na2vs0mg"},{"bike_id":"eacab8c5-ae8d-4933-89ca-bb8acaba05e8","system_id":"levelo_inurba_marseille","lat":43.24799,"lon":5.37448,"is_reserved":false,"is_disabled":false,"rental_uris":{"android":"levelo://app?vid=eacab8c5-ae8d-4933-89ca-bb8acaba05e8","ios":"levelo://app?vid=eacab8c5-ae8d-4933-89ca-bb8acaba05e8"},"vehicle_type_id":"4","last_reported":1770100621,"current_range_meters":8400,"station_id":"ce4bhgh2rcd13ifvqfb0","pricing_plan_id":"cebpf4jnsgd1na2vs0mg"},{"bike_id":"18538e1c-2d10-4799-89f8-99aa8d86c164","system_id":"levelo_inurba_marseille","lat":43.3128,"lon":5.40173,"is_reserved":false,"is_disabled":false,"rental_uris":{"android":"levelo://app?vid=18538e1c-2d10-4799-89f8-99aa8d86c164","ios":"levelo://app?vid=18538e1c-2d10-4799-89f8-99aa8d86c164"},"vehicle_type_id":"4","last_reported":1770100621,"current_range_meters":8400,"station_id":"ce4bh092rcd13ifvqd30","pricing_plan_id":"cebpf4jnsgd1na2vs0mg"},{"bike_id":"c3ba0fed-3d29-4191-b8a3-c899b1e9e5ad","system_id":"levelo_inurba_marseille","lat":43.25594,"lon":5.38213,"is_reserved":false,"is_disabled":false,"rental_uris":{"android":"levelo://app?vid=c3ba0fed-3d29-4191-b8a3-c899b1e9e5ad","ios":"levelo://app?vid=c3ba0fed-3d29-4191-b8a3-c899b1e9e5ad"},"vehicle_type_id":"4","last_reported":1770100621,"current_range_meters":8400,"station_id":"ce4bhih2rcd13ifvqfs0","pricing_plan_id":"cebpf4jnsgd1na2vs0mg"},{"bike_id":"bc05a65d-563d-445c-a4c3-de287896e1a2","system_id":"levelo_inurba_marseille","lat":43.25332,"lon":5.42186,"is_reserved":false,"is_disabled":false,"rental_uris":{"android":"levelo://app?vid=bc05a65d-563d-445c-a4c3-de287896e1a2","ios":"levelo://app?vid=bc05a65d-563d-445c-a4c3-de287896e1a2"},"vehicle_type_id":"4","last_reported":1770100621,"current_range_meters":8400,"station_id":"st_d2m65c5bi1j21697t3ng","pricing_plan_id":"cebpf4jnsgd1na2vs0mg"},{"bike_id":"fd64f2be-4c58-41ef-bf52-b25e9567334c","system_id":"levelo_inurba_marseille","lat":43.31685,"lon":5.40502,"is_reserved":false,"is_disabled":false,"rental_uris":{"android":"levelo://app?vid=fd64f2be-4c58-41ef-bf52-b25e9567334c","ios":"levelo://app?vid=fd64f2be-4c58-41ef-bf52-b25e9567334c"},"vehicle_type_id":"4","last_reported":1770100621,"current_range_meters":8400,"station_id":"ce4bh012rcd13ifvqd00","pricing_plan_id":"cebpf4jnsgd1na2vs0mg"},{"bike_id":"c4e10906-6463-414c-9928-65ddc65de4aa","system_id":"levelo_inurba_marseille","lat":43.29488,"lon":5.43309,"is_reserved":false,"is_disabled":false,"rental_uris":{"android":"levelo://app?vid=c4e10906-6463-414c-9928-65ddc65de4aa","ios":"levelo://app?vid=c4e10906-6463-414c-9928-65ddc65de4aa"},"vehicle_type_id":"4","last_reported":1770100621,"current_range_meters":8400,"station_id":"st_d3j5ugp08ojc73fj9d10","pricing_plan_id":"cebpf4jnsgd1na2vs0mg"},{"bike_id":"18d1a03c-71f9-47bc-804b-7e0c3eef0ad0","system_id":"levelo_inurba_marseille","lat":43.30127,"lon":5.43141,"is_reserved":false,"is_disabled":false,"rental_uris":{"android":"levelo://app?vid=18d1a03c-71f9-47bc-804b-7e0c3eef0ad0","ios":"levelo://app?vid=18d1a03c-71f9-47bc-804b-7e0c3eef0ad0"},"vehicle_type_id":"4","last_reported":1770100621,"current_range_meters":8400,"station_id":"st_d3js3co5814s73ftftug","pricing_plan_id":"cebpf4jnsgd1na2vs0mg"},{"bike_id":"9d0f3991-1256-474f-b1e5-fa83df22d0e8","system_id":"levelo_inurba_marseille","lat":43.29521,"lon":5.39036,"is_reserved":false,"is_disabled":false,"rental_uris":{"android":"levelo://app?vid=9d0f3991-1256-474f-b1e5-fa83df22d0e8","ios":"levelo://app?vid=9d0f3991-1256-474f-b1e5-fa83df22d0e8"},"vehicle_type_id":"4","last_reported":1770100621,"current_range_meters":8400,"station_id":"ce4bh3p2rcd13ifvqdp0","pricing_plan_id":"cebpf4jnsgd1na2vs0mg"},{"bike_id":"5c37faea-b09d-4cd8-b78d-a80f4e1f5f36","system_id":"levelo_inurba_marseille","lat":43.29741,"lon":5.37694,"is_reserved":false,"is_disabled":false,"rental_uris":{"android":"levelo://app?vid=5c37faea-b09d-4cd8-b78d-a80f4e1f5f36","ios":"levelo://app?vid=5c37faea-b09d-4cd8-b78d-a80f4e1f5f36"},"vehicle_type_id":"4","last_reported":1770100621,"current_range_meters":8400,"station_id":"ce4bgkh2rcd13ifvqbl0","pricing_plan_id":"cebpf4jnsgd1na2vs0mg"},{"bike_id":"bcbaa8a6-886f-4091-ae26-8ec7b68ef274","system_id":"levelo_inurba_marseille","lat":43.23768,"lon":5.36637,"is_reserved":false,"is_disabled":false,"rental_uris":{"android":"levelo://app?vid=bcbaa8a6-886f-4091-ae26-8ec7b68ef274","ios":"levelo://app?vid=bcbaa8a6-886f-4091-ae26-8ec7b68ef274"},"vehicle_type_id":"4","last_reported":1770100621,"current_range_meters":8400,"station_id":"st_d3nk18o9ro0c73en2l3g","pricing_plan_id":"cebpf4jnsgd1na2vs0mg"},{"bike_id":"d20253eb-890a-4b8f-b739-12fa8e5a3bc2","system_id":"levelo_inurba_marseille","lat":43.24172,"lon":5.39725,"is_reserved":false,"is_disabled":false,"rental_uris":{"android":"levelo://app?vid=d20253eb-890a-4b8f-b739-12fa8e5a3bc2","ios":"levelo://app?vid=d20253eb-890a-4b8f-b739-12fa8e5a3bc2"},"vehicle_type_id":"4","last_reported":1770100621,"current_range_meters":8400,"station_id":"ce4bhn12rcd13ifvqgpg","pricing_plan_id":"cebpf4jnsgd1na2vs0mg"},{"bike_id":"11ce3852-2c52-44a1-ae2a-a6687fe91ff5","system_id":"levelo_inurba_marseille","lat":43.295735,"lon":5.39974,"is_reserved":false,"is_disabled":false,"rental_uris":{"android":"levelo://app?vid=11ce3852-2c52-44a1-ae2a-a6687fe91ff5","ios":"levelo://app?vid=11ce3852-2c52-44a1-ae2a-a6687fe91ff5"},"vehicle_type_id":"4","last_reported":1770100621,"current_range_meters":8400,"station_id":"ce4bh312rcd13ifvqdj0","pricing_plan_id":"cebpf4jnsgd1na2vs0mg"},{"bike_id":"6648b726-248a-4235-8962-e02d3f57c3f3","system_id":"levelo_inurba_marseille","lat":43.25032,"lon":5.38955,"is_reserved":false,"is_disabled":false,"rental_uris":{"android":"levelo://app?vid=6648b726-248a-4235-8962-e02d3f57c3f3","ios":"levelo://app?vid=6648b726-248a-4235-8962-e02d3f57c3f3"},"vehicle_type_id":"4","last_reported":1770100621,"current_range_meters":8400,"station_id":"ce4bhgp2rcd13ifvqfd0","pricing_plan_id":"cebpf4jnsgd1na2vs0mg"},{"bike_id":"1e18de4d-43f8-4d9b-8e22-41974ddf36d0","system_id":"levelo_inurba_marseille","lat":43.33541,"lon":5.37476,"is_reserved":false,"is_disabled":false,"rental_uris":{"android":"levelo://app?vid=1e18de4d-43f8-4d9b-8e22-41974ddf36d0","ios":"levelo://app?vid=1e18de4d-43f8-4d9b-8e22-41974ddf36d0"},"vehicle_type_id":"4","last_reported":1770100621,"current_range_meters":8400,"station_id":"st_d46tts09ee8s73dlu43g","pricing_plan_id":"cebpf4jnsgd1na2vs0mg"},{"bike_id":"daa78333-34b3-465a-a380-48c596d26926","system_id":"levelo_inurba_marseille","lat":43.32485,"lon":5.38316,"is_reserved":false,"is_disabled":false,"rental_uris":{"android":"levelo://app?vid=daa78333-34b3-465a-a380-48c596d26926","ios":"levelo://app?vid=daa78333-34b3-465a-a380-48c596d26926"},"vehicle_type_id":"4","last_reported":1770100621,"current_range_meters":8400,"station_id":"st_d4asgbiv49dc73anf9m0","pricing_plan_id":"cebpf4jnsgd1na2vs0mg"},{"bike_id":"9cbcf585-a58e-4938-b69e-d4c3022c57ef","system_id":"levelo_inurba_marseille","lat":43.24071,"lon":5.37741,"is_reserved":false,"is_disabled":false,"rental_uris":{"android":"levelo://app?vid=9cbcf585-a58e-4938-b69e-d4c3022c57ef","ios":"levelo://app?vid=9cbcf585-a58e-4938-b69e-d4c3022c57ef"},"vehicle_type_id":"4","last_reported":1770100621,"current_range_meters":8400,"station_id":"ce4bhnp2rcd13ifvqgvg","pricing_plan_id":"cebpf4jnsgd1na2vs0mg"},{"bike_id":"7409e760-85b4-4fbe-9ac1-c71657f4de83","system_id":"levelo_inurba_marseille","lat":43.24985,"lon":5.38949,"is_reserved":false,"is_disabled":false,"rental_uris":{"android":"levelo://app?vid=7409e760-85b4-4fbe-9ac1-c71657f4de83","ios":"levelo://app?vid=7409e760-85b4-4fbe-9ac1-c71657f4de83"},"vehicle_type_id":"4","last_reported":1770100621,"current_range_meters":8400,"station_id":"ce4bhgp2rcd13ifvqfd0","pricing_plan_id":"cebpf4jnsgd1na2vs0mg"},{"bike_id":"151047fe-b117-41cf-9416-4f91d0d3c1a9","system_id":"levelo_inurba_marseille","lat":43.31856,"lon":5.36908,"is_reserved":false,"is_disabled":false,"rental_uris":{"android":"levelo://app?vid=151047fe-b117-41cf-9416-4f91d0d3c1a9","ios":"levelo://app?vid=151047fe-b117-41cf-9416-4f91d0d3c1a9"},"vehicle_type_id":"4","last_reported":1770100621,"current_range_meters":8800,"station_id":"","pricing_plan_id":"cebpf4jnsgd1na2vs0mg"},{"bike_id":"7a3ab416-3169-4a70-9520-aa7a2761d05e","system_id":"levelo_inurba_marseille","lat":43.29791,"lon":5.39336,"is_reserved":false,"is_disabled":false,"rental_uris":{"android":"levelo://app?vid=7a3ab416-3169-4a70-9520-aa7a2761d05e","ios":"levelo://app?vid=7a3ab416-3169-4a70-9520-aa7a2761d05e"},"vehicle_type_id":"4","last_reported":1770100621,"current_range_meters":8800,"station_id":"chh1huq6cuj3fo74tm60","pricing_plan_id":"cebpf4jnsgd1na2vs0mg"},{"bike_id":"93f9be1b-1043-40be-9004-86fca21c0b1c","system_id":"levelo_inurba_marseille","lat":43.29625,"lon":5.40606,"is_reserved":false,"is_disabled":false,"rental_uris":{"android":"levelo://app?vid=93f9be1b-1043-40be-9004-86fca21c0b1c","ios":"levelo://app?vid=93f9be1b-1043-40be-9004-86fca21c0b1c"},"vehicle_type_id":"4","last_reported":1770100621,"current_range_meters":8800,"station_id":"ce4bh0h2rcd13ifvqd60","pricing_plan_id":"cebpf4jnsgd1na2vs0mg"},{"bike_id":"cc7be9e8-a1a0-4f68-8d42-c70d6cdd5d6b","system_id":"levelo_inurba_marseille","lat":43.29562,"lon":5.42278,"is_reserved":false,"is_disabled":false,"rental_uris":{"android":"levelo://app?vid=cc7be9e8-a1a0-4f68-8d42-c70d6cdd5d6b","ios":"levelo://app?vid=cc7be9e8-a1a0-4f68-8d42-c70d6cdd5d6b"},"vehicle_type_id":"4","last_reported":1770100621,"current_range_meters":8800,"station_id":"ce4bhph2rcd13ifvqhdg","pricing_plan_id":"cebpf4jnsgd1na2vs0mg"},{"bike_id":"5d2a7df9-4ddf-4885-8075-b7755ef05fb8","system_id":"levelo_inurba_marseille","lat":43.23037,"lon":5.40286,"is_reserved":false,"is_disabled":false,"rental_uris":{"android":"levelo://app?vid=5d2a7df9-4ddf-4885-8075-b7755ef05fb8","ios":"levelo://app?vid=5d2a7df9-4ddf-4885-8075-b7755ef05fb8"},"vehicle_type_id":"4","last_reported":1770100621,"current_range_meters":8800,"station_id":"","pricing_plan_id":"cebpf4jnsgd1na2vs0mg"},{"bike_id":"f59113ec-0ceb-43dc-9188-4297667cf23d","system_id":"levelo_inurba_marseille","lat":43.22899,"lon":5.35394,"is_reserved":false,"is_disabled":false,"rental_uris":{"android":"levelo://app?vid=f59113ec-0ceb-43dc-9188-4297667cf23d","ios":"levelo://app?vid=f59113ec-0ceb-43dc-9188-4297667cf23d"},"vehicle_type_id":"4","last_reported":1770100621,"current_range_meters":8800,"station_id":"cpo3532slgdg3j2ikp40","pricing_plan_id":"cebpf4jnsgd1na2vs0mg"},{"bike_id":"658d0b20-6292-4d6c-85b2-b3938e69fd12","system_id":"levelo_inurba_marseille","lat":43.28266,"lon":5.38577,"is_reserved":false,"is_disabled":false,"rental_uris":{"android":"levelo://app?vid=658d0b20-6292-4d6c-85b2-b3938e69fd12","ios":"levelo://app?vid=658d0b20-6292-4d6c-85b2-b3938e69fd12"},"vehicle_type_id":"4","last_reported":1770100621,"current_range_meters":8800,"station_id":"","pricing_plan_id":"cebpf4jnsgd1na2vs0mg"},{"bike_id":"530b3fec-7af4-45eb-bf12-cc02b58eae44","system_id":"levelo_inurba_marseille","lat":43.24679,"lon":5.38147,"is_reserved":false,"is_disabled":false,"rental_uris":{"android":"levelo://app?vid=530b3fec-7af4-45eb-bf12-cc02b58eae44","ios":"levelo://app?vid=530b3fec-7af4-45eb-bf12-cc02b58eae44"},"vehicle_type_id":"4","last_reported":1770100621,"current_range_meters":8800,"station_id":"ce4bhih2rcd13ifvqfr0","pricing_plan_id":"cebpf4jnsgd1na2vs0mg"},{"bike_id":"0a1a4fac-a633-40a5-b071-9c8ca90e85c5","system_id":"levelo_inurba_marseille","lat":43.29063,"lon":5.37158,"is_reserved":false,"is_disabled":false,"rental_uris":{"android":"levelo://app?vid=0a1a4fac-a633-40a5-b071-9c8ca90e85c5","ios":"levelo://app?vid=0a1a4fac-a633-40a5-b071-9c8ca90e85c5"},"vehicle_type_id":"4","last_reported":1770100621,"current_range_meters":8800,"station_id":"ce4bh5p2rcd13ifvqe4g","pricing_plan_id":"cebpf4jnsgd1na2vs0mg"},{"bike_id":"5b3811ef-5681-4c18-aac4-a62920f9a85c","system_id":"levelo_inurba_marseille","lat":43.28475,"lon":5.51505,"is_reserved":false,"is_disabled":false,"rental_uris":{"android":"levelo://app?vid=5b3811ef-5681-4c18-aac4-a62920f9a85c","ios":"levelo://app?vid=5b3811ef-5681-4c18-aac4-a62920f9a85c"},"vehicle_type_id":"4","last_reported":1770100621,"current_range_meters":8800,"station_id":"","pricing_plan_id":"cebpf4jnsgd1na2vs0mg"},{"bike_id":"444b7964-d637-4bc2-bbcf-ca0cd5725763","system_id":"levelo_inurba_marseille","lat":43.27308,"lon":5.39075,"is_reserved":false,"is_disabled":true,"rental_uris":{"android":"levelo://app?vid=444b7964-d637-4bc2-bbcf-ca0cd5725763","ios":"levelo://app?vid=444b7964-d637-4bc2-bbcf-ca0cd5725763"},"vehicle_type_id":"4","last_reported":1770100621,"current_range_meters":8800,"station_id":"ce4bhgp2rcd13ifvqfe0","pricing_plan_id":"cebpf4jnsgd1na2vs0mg"},{"bike_id":"1bff195f-878b-4a6e-8675-61979ef9dcf7","system_id":"levelo_inurba_marseille","lat":43.23197,"lon":5.35558,"is_reserved":false,"is_disabled":false,"rental_uris":{"android":"levelo://app?vid=1bff195f-878b-4a6e-8675-61979ef9dcf7","ios":"levelo://app?vid=1bff195f-878b-4a6e-8675-61979ef9dcf7"},"vehicle_type_id":"4","last_reported":1770100621,"current_range_meters":8800,"station_id":"ce4bhu92rcd13ifvqi70","pricing_plan_id":"cebpf4jnsgd1na2vs0mg"},{"bike_id":"e078e22f-f8c6-477b-8623-9d513f4aa97b","system_id":"levelo_inurba_marseille","lat":43.2745,"lon":5.3941,"is_reserved":false,"is_disabled":false,"rental_uris":{"android":"levelo://app?vid=e078e22f-f8c6-477b-8623-9d513f4aa97b","ios":"levelo://app?vid=e078e22f-f8c6-477b-8623-9d513f4aa97b"},"vehicle_type_id":"4","last_reported":1770100621,"current_range_meters":8800,"station_id":"ce4bhdp2rcd13ifvqf20","pricing_plan_id":"cebpf4jnsgd1na2vs0mg"},{"bike_id":"8c57b3f8-4314-4c54-b880-d076bee033fb","system_id":"levelo_inurba_marseille","lat":43.23143,"lon":5.43741,"is_reserved":false,"is_disabled":false,"rental_uris":{"android":"levelo://app?vid=8c57b3f8-4314-4c54-b880-d076bee033fb","ios":"levelo://app?vid=8c57b3f8-4314-4c54-b880-d076bee033fb"},"vehicle_type_id":"4","last_reported":1770100621,"current_range_meters":9200,"station_id":"ce4bhmp2rcd13ifvqgog","pricing_plan_id":"cebpf4jnsgd1na2vs0mg"},{"bike_id":"90cafb22-43f6-47bb-9e80-c8fa9891709f","system_id":"levelo_inurba_marseille","lat":43.26206,"lon":5.37924,"is_reserved":false,"is_disabled":false,"rental_uris":{"android":"levelo://app?vid=90cafb22-43f6-47bb-9e80-c8fa9891709f","ios":"levelo://app?vid=90cafb22-43f6-47bb-9e80-c8fa9891709f"},"vehicle_type_id":"4","last_reported":1770100621,"current_range_meters":9200,"station_id":"ce4bhjp2rcd13ifvqg90","pricing_plan_id":"cebpf4jnsgd1na2vs0mg"},{"bike_id":"7f77f6a6-911c-44cf-97f5-71224b3633e0","system_id":"levelo_inurba_marseille","lat":43.252404,"lon":5.380215,"is_reserved":false,"is_disabled":false,"rental_uris":{"android":"levelo://app?vid=7f77f6a6-911c-44cf-97f5-71224b3633e0","ios":"levelo://app?vid=7f77f6a6-911c-44cf-97f5-71224b3633e0"},"vehicle_type_id":"4","last_reported":1770100621,"current_range_meters":9200,"station_id":"","pricing_plan_id":"cebpf4jnsgd1na2vs0mg"},{"bike_id":"ba3390f5-14ed-4160-abcf-8bea19885613","system_id":"levelo_inurba_marseille","lat":43.28467,"lon":5.48417,"is_reserved":false,"is_disabled":false,"rental_uris":{"android":"levelo://app?vid=ba3390f5-14ed-4160-abcf-8bea19885613","ios":"levelo://app?vid=ba3390f5-14ed-4160-abcf-8bea19885613"},"vehicle_type_id":"4","last_reported":1770100621,"current_range_meters":9200,"station_id":"st_d3svhcjqgbts73a3dn0g","pricing_plan_id":"cebpf4jnsgd1na2vs0mg"},{"bike_id":"ef30bb24-f45f-400c-9967-a2a3b2da1488","system_id":"levelo_inurba_marseille","lat":43.28295,"lon":5.39445,"is_reserved":false,"is_disabled":false,"rental_uris":{"android":"levelo://app?vid=ef30bb24-f45f-400c-9967-a2a3b2da1488","ios":"levelo://app?vid=ef30bb24-f45f-400c-9967-a2a3b2da1488"},"vehicle_type_id":"4","last_reported":1770100621,"current_range_meters":9200,"station_id":"","pricing_plan_id":"cebpf4jnsgd1na2vs0mg"},{"bike_id":"454ec198-d273-438b-b7dc-8d61915cb03a","system_id":"levelo_inurba_marseille","lat":43.23153,"lon":5.43714,"is_reserved":false,"is_disabled":false,"rental_uris":{"android":"levelo://app?vid=454ec198-d273-438b-b7dc-8d61915cb03a","ios":"levelo://app?vid=454ec198-d273-438b-b7dc-8d61915cb03a"},"vehicle_type_id":"4","last_reported":1770100621,"current_range_meters":9200,"station_id":"ce4bhmp2rcd13ifvqgog","pricing_plan_id":"cebpf4jnsgd1na2vs0mg"},{"bike_id":"fba83296-cf08-4ba9-8267-d1dc13133a44","system_id":"levelo_inurba_marseille","lat":43.26227,"lon":5.40448,"is_reserved":false,"is_disabled":false,"rental_uris":{"android":"levelo://app?vid=fba83296-cf08-4ba9-8267-d1dc13133a44","ios":"levelo://app?vid=fba83296-cf08-4ba9-8267-d1dc13133a44"},"vehicle_type_id":"4","last_reported":1770100621,"current_range_meters":9200,"station_id":"ce4bhmh2rcd13ifvqgmg","pricing_plan_id":"cebpf4jnsgd1na2vs0mg"},{"bike_id":"d816c230-753b-427e-ba21-d87ce2d24807","system_id":"levelo_inurba_marseille","lat":43.27859,"lon":5.40751,"is_reserved":false,"is_disabled":false,"rental_uris":{"android":"levelo://app?vid=d816c230-753b-427e-ba21-d87ce2d24807","ios":"levelo://app?vid=d816c230-753b-427e-ba21-d87ce2d24807"},"vehicle_type_id":"4","last_reported":1770100621,"current_range_meters":9200,"station_id":"","pricing_plan_id":"cebpf4jnsgd1na2vs0mg"},{"bike_id":"4c7f8a28-857e-4592-bbe1-acfc605592d3","system_id":"levelo_inurba_marseille","lat":43.29228,"lon":5.42519,"is_reserved":false,"is_disabled":false,"rental_uris":{"android":"levelo://app?vid=4c7f8a28-857e-4592-bbe1-acfc605592d3","ios":"levelo://app?vid=4c7f8a28-857e-4592-bbe1-acfc605592d3"},"vehicle_type_id":"4","last_reported":1770100621,"current_range_meters":9200,"station_id":"","pricing_plan_id":"cebpf4jnsgd1na2vs0mg"},{"bike_id":"ccad5bb8-727e-4e27-b0cc-7b2f496ea109","system_id":"levelo_inurba_marseille","lat":43.29559,"lon":5.42267,"is_reserved":false,"is_disabled":false,"rental_uris":{"android":"levelo://app?vid=ccad5bb8-727e-4e27-b0cc-7b2f496ea109","ios":"levelo://app?vid=ccad5bb8-727e-4e27-b0cc-7b2f496ea109"},"vehicle_type_id":"4","last_reported":1770100621,"current_range_meters":9200,"station_id":"ce4bhph2rcd13ifvqhdg","pricing_plan_id":"cebpf4jnsgd1na2vs0mg"},{"bike_id":"43b4dd52-5f40-488a-8ef1-ee614ae1c61c","system_id":"levelo_inurba_marseille","lat":43.33597,"lon":5.41056,"is_reserved":false,"is_disabled":false,"rental_uris":{"android":"levelo://app?vid=43b4dd52-5f40-488a-8ef1-ee614ae1c61c","ios":"levelo://app?vid=43b4dd52-5f40-488a-8ef1-ee614ae1c61c"},"vehicle_type_id":"4","last_reported":1770100621,"current_range_meters":9200,"station_id":"ce4bhqh2rcd13ifvqhmg","pricing_plan_id":"cebpf4jnsgd1na2vs0mg"},{"bike_id":"5396fda1-c3a0-4d51-8ba0-cfe497a166d7","system_id":"levelo_inurba_marseille","lat":43.26557,"lon":5.38986,"is_reserved":false,"is_disabled":false,"rental_uris":{"android":"levelo://app?vid=5396fda1-c3a0-4d51-8ba0-cfe497a166d7","ios":"levelo://app?vid=5396fda1-c3a0-4d51-8ba0-cfe497a166d7"},"vehicle_type_id":"4","last_reported":1770100621,"current_range_meters":9200,"station_id":"ce4bhe12rcd13ifvqf30","pricing_plan_id":"cebpf4jnsgd1na2vs0mg"},{"bike_id":"53ffb5c2-3e2a-4a17-b03a-29d28fb95024","system_id":"levelo_inurba_marseille","lat":43.29901,"lon":5.43643,"is_reserved":false,"is_disabled":false,"rental_uris":{"android":"levelo://app?vid=53ffb5c2-3e2a-4a17-b03a-29d28fb95024","ios":"levelo://app?vid=53ffb5c2-3e2a-4a17-b03a-29d28fb95024"},"vehicle_type_id":"4","last_reported":1770100621,"current_range_meters":9200,"station_id":"ce4bhpp2rcd13ifvqhfg","pricing_plan_id":"cebpf4jnsgd1na2vs0mg"},{"bike_id":"472dd500-7ce2-4ab2-9541-63aa135c9dab","system_id":"levelo_inurba_marseille","lat":43.28939,"lon":5.38405,"is_reserved":false,"is_disabled":false,"rental_uris":{"android":"levelo://app?vid=472dd500-7ce2-4ab2-9541-63aa135c9dab","ios":"levelo://app?vid=472dd500-7ce2-4ab2-9541-63aa135c9dab"},"vehicle_type_id":"4","last_reported":1770100621,"current_range_meters":9200,"station_id":"ce4bh612rcd13ifvqe6g","pricing_plan_id":"cebpf4jnsgd1na2vs0mg"},{"bike_id":"8e312380-e745-433d-90b9-ff07a309073d","system_id":"levelo_inurba_marseille","lat":43.24806,"lon":5.37449,"is_reserved":false,"is_disabled":false,"rental_uris":{"android":"levelo://app?vid=8e312380-e745-433d-90b9-ff07a309073d","ios":"levelo://app?vid=8e312380-e745-433d-90b9-ff07a309073d"},"vehicle_type_id":"4","last_reported":1770100621,"current_range_meters":9600,"station_id":"ce4bhgh2rcd13ifvqfb0","pricing_plan_id":"cebpf4jnsgd1na2vs0mg"},{"bike_id":"98fce53e-2f71-43cb-b9de-a1e78e7dc72e","system_id":"levelo_inurba_marseille","lat":43.23192,"lon":5.40016,"is_reserved":false,"is_disabled":false,"rental_uris":{"android":"levelo://app?vid=98fce53e-2f71-43cb-b9de-a1e78e7dc72e","ios":"levelo://app?vid=98fce53e-2f71-43cb-b9de-a1e78e7dc72e"},"vehicle_type_id":"4","last_reported":1770100621,"current_range_meters":9600,"station_id":"ce4bhn12rcd13ifvqgqg","pricing_plan_id":"cebpf4jnsgd1na2vs0mg"},{"bike_id":"5d99751a-fe2a-4574-bfe2-fc1ebdb20e65","system_id":"levelo_inurba_marseille","lat":43.27645,"lon":5.3889,"is_reserved":false,"is_disabled":false,"rental_uris":{"android":"levelo://app?vid=5d99751a-fe2a-4574-bfe2-fc1ebdb20e65","ios":"levelo://app?vid=5d99751a-fe2a-4574-bfe2-fc1ebdb20e65"},"vehicle_type_id":"4","last_reported":1770100621,"current_range_meters":9600,"station_id":"ce4bhi12rcd13ifvqfo0","pricing_plan_id":"cebpf4jnsgd1na2vs0mg"},{"bike_id":"aaf22886-8931-43f5-890d-fc99243945fc","system_id":"levelo_inurba_marseille","lat":43.24133,"lon":5.39739,"is_reserved":false,"is_disabled":false,"rental_uris":{"android":"levelo://app?vid=aaf22886-8931-43f5-890d-fc99243945fc","ios":"levelo://app?vid=aaf22886-8931-43f5-890d-fc99243945fc"},"vehicle_type_id":"4","last_reported":1770100621,"current_range_meters":9600,"station_id":"","pricing_plan_id":"cebpf4jnsgd1na2vs0mg"},{"bike_id":"242256f5-f0bd-4204-9565-2087ceacdda5","system_id":"levelo_inurba_marseille","lat":43.2256,"lon":5.41634,"is_reserved":false,"is_disabled":false,"rental_uris":{"android":"levelo://app?vid=242256f5-f0bd-4204-9565-2087ceacdda5","ios":"levelo://app?vid=242256f5-f0bd-4204-9565-2087ceacdda5"},"vehicle_type_id":"4","last_reported":1770100621,"current_range_meters":9600,"station_id":"st_d2o4gvlbi1j2169b742g","pricing_plan_id":"cebpf4jnsgd1na2vs0mg"},{"bike_id":"1e8e9674-1c9d-4b4a-8906-b7f2a758e267","system_id":"levelo_inurba_marseille","lat":43.279569,"lon":5.410394,"is_reserved":false,"is_disabled":false,"rental_uris":{"android":"levelo://app?vid=1e8e9674-1c9d-4b4a-8906-b7f2a758e267","ios":"levelo://app?vid=1e8e9674-1c9d-4b4a-8906-b7f2a758e267"},"vehicle_type_id":"4","last_reported":1770100621,"current_range_meters":9600,"station_id":"","pricing_plan_id":"cebpf4jnsgd1na2vs0mg"},{"bike_id":"690873c6-b2ac-40e0-b0d4-0053a858a212","system_id":"levelo_inurba_marseille","lat":43.29572,"lon":5.36721,"is_reserved":false,"is_disabled":false,"rental_uris":{"android":"levelo://app?vid=690873c6-b2ac-40e0-b0d4-0053a858a212","ios":"levelo://app?vid=690873c6-b2ac-40e0-b0d4-0053a858a212"},"vehicle_type_id":"4","last_reported":1770100621,"current_range_meters":9600,"station_id":"ce4bgph2rcd13ifvqc2g","pricing_plan_id":"cebpf4jnsgd1na2vs0mg"},{"bike_id":"d8713cd3-8269-4863-9601-8c0f629eacef","system_id":"levelo_inurba_marseille","lat":43.24667,"lon":5.38167,"is_reserved":false,"is_disabled":false,"rental_uris":{"android":"levelo://app?vid=d8713cd3-8269-4863-9601-8c0f629eacef","ios":"levelo://app?vid=d8713cd3-8269-4863-9601-8c0f629eacef"},"vehicle_type_id":"4","last_reported":1770100621,"current_range_meters":9600,"station_id":"ce4bhih2rcd13ifvqfr0","pricing_plan_id":"cebpf4jnsgd1na2vs0mg"},{"bike_id":"b886faeb-2ae5-4849-a4c7-c906741f8bf1","system_id":"levelo_inurba_marseille","lat":43.26574,"lon":5.40319,"is_reserved":false,"is_disabled":false,"rental_uris":{"android":"levelo://app?vid=b886faeb-2ae5-4849-a4c7-c906741f8bf1","ios":"levelo://app?vid=b886faeb-2ae5-4849-a4c7-c906741f8bf1"},"vehicle_type_id":"4","last_reported":1770100621,"current_range_meters":9600,"station_id":"ce4bhmp2rcd13ifvqgng","pricing_plan_id":"cebpf4jnsgd1na2vs0mg"},{"bike_id":"128c25e0-a9f7-4b25-a528-c9d67b1546c5","system_id":"levelo_inurba_marseille","lat":43.24043,"lon":5.37813,"is_reserved":false,"is_disabled":false,"rental_uris":{"android":"levelo://app?vid=128c25e0-a9f7-4b25-a528-c9d67b1546c5","ios":"levelo://app?vid=128c25e0-a9f7-4b25-a528-c9d67b1546c5"},"vehicle_type_id":"4","last_reported":1770100621,"current_range_meters":9600,"station_id":"","pricing_plan_id":"cebpf4jnsgd1na2vs0mg"},{"bike_id":"7b793a30-28c3-4eb5-ac8e-8cd3e2927b5a","system_id":"levelo_inurba_marseille","lat":43.27062,"lon":5.38314,"is_reserved":false,"is_disabled":false,"rental_uris":{"android":"levelo://app?vid=7b793a30-28c3-4eb5-ac8e-8cd3e2927b5a","ios":"levelo://app?vid=7b793a30-28c3-4eb5-ac8e-8cd3e2927b5a"},"vehicle_type_id":"4","last_reported":1770100621,"current_range_meters":9600,"station_id":"st_d3n2fo6cfp8s73cte1j0","pricing_plan_id":"cebpf4jnsgd1na2vs0mg"},{"bike_id":"712b2105-12ab-4b36-9f42-9da37842b22b","system_id":"levelo_inurba_marseille","lat":43.30491,"lon":5.4118,"is_reserved":false,"is_disabled":false,"rental_uris":{"android":"levelo://app?vid=712b2105-12ab-4b36-9f42-9da37842b22b","ios":"levelo://app?vid=712b2105-12ab-4b36-9f42-9da37842b22b"},"vehicle_type_id":"4","last_reported":1770100621,"current_range_meters":9600,"station_id":"","pricing_plan_id":"cebpf4jnsgd1na2vs0mg"},{"bike_id":"3afa3bf7-a924-41ff-b30b-de57271f87f3","system_id":"levelo_inurba_marseille","lat":43.28602,"lon":5.37073,"is_reserved":false,"is_disabled":false,"rental_uris":{"android":"levelo://app?vid=3afa3bf7-a924-41ff-b30b-de57271f87f3","ios":"levelo://app?vid=3afa3bf7-a924-41ff-b30b-de57271f87f3"},"vehicle_type_id":"4","last_reported":1770100621,"current_range_meters":9600,"station_id":"ce4bht12rcd13ifvqi60","pricing_plan_id":"cebpf4jnsgd1na2vs0mg"},{"bike_id":"ad5f37b2-1697-403a-ad52-0873e7f385a2","system_id":"levelo_inurba_marseille","lat":43.28885,"lon":5.42533,"is_reserved":false,"is_disabled":false,"rental_uris":{"android":"levelo://app?vid=ad5f37b2-1697-403a-ad52-0873e7f385a2","ios":"levelo://app?vid=ad5f37b2-1697-403a-ad52-0873e7f385a2"},"vehicle_type_id":"4","last_reported":1770100621,"current_range_meters":9600,"station_id":"st_d3b462108ojc7389ooeg","pricing_plan_id":"cebpf4jnsgd1na2vs0mg"},{"bike_id":"ba4985de-a6c4-4691-a8fe-1342759bda21","system_id":"levelo_inurba_marseille","lat":43.28271,"lon":5.35074,"is_reserved":false,"is_disabled":false,"rental_uris":{"android":"levelo://app?vid=ba4985de-a6c4-4691-a8fe-1342759bda21","ios":"levelo://app?vid=ba4985de-a6c4-4691-a8fe-1342759bda21"},"vehicle_type_id":"4","last_reported":1770100621,"current_range_meters":9600,"station_id":"ce4bhbp2rcd13ifvqerg","pricing_plan_id":"cebpf4jnsgd1na2vs0mg"},{"bike_id":"3152a477-f17d-4450-9261-17b357c04f41","system_id":"levelo_inurba_marseille","lat":43.299832,"lon":5.374117,"is_reserved":false,"is_disabled":false,"rental_uris":{"android":"levelo://app?vid=3152a477-f17d-4450-9261-17b357c04f41","ios":"levelo://app?vid=3152a477-f17d-4450-9261-17b357c04f41"},"vehicle_type_id":"4","last_reported":1770100621,"current_range_meters":9600,"station_id":"","pricing_plan_id":"cebpf4jnsgd1na2vs0mg"},{"bike_id":"1a8cbd53-f3cd-463e-8c24-fde20404b7ee","system_id":"levelo_inurba_marseille","lat":43.25572,"lon":5.38249,"is_reserved":false,"is_disabled":false,"rental_uris":{"android":"levelo://app?vid=1a8cbd53-f3cd-463e-8c24-fde20404b7ee","ios":"levelo://app?vid=1a8cbd53-f3cd-463e-8c24-fde20404b7ee"},"vehicle_type_id":"4","last_reported":1770100621,"current_range_meters":9600,"station_id":"ce4bhih2rcd13ifvqfs0","pricing_plan_id":"cebpf4jnsgd1na2vs0mg"},{"bike_id":"5ffc162c-3876-4a49-af02-3661f44effbb","system_id":"levelo_inurba_marseille","lat":43.28477,"lon":5.48406,"is_reserved":false,"is_disabled":false,"rental_uris":{"android":"levelo://app?vid=5ffc162c-3876-4a49-af02-3661f44effbb","ios":"levelo://app?vid=5ffc162c-3876-4a49-af02-3661f44effbb"},"vehicle_type_id":"4","last_reported":1770100621,"current_range_meters":9600,"station_id":"st_d3svhcjqgbts73a3dn0g","pricing_plan_id":"cebpf4jnsgd1na2vs0mg"},{"bike_id":"41efee0d-caa2-45b0-863d-489d81dde529","system_id":"levelo_inurba_marseille","lat":43.28511,"lon":5.44096,"is_reserved":false,"is_disabled":false,"rental_uris":{"android":"levelo://app?vid=41efee0d-caa2-45b0-863d-489d81dde529","ios":"levelo://app?vid=41efee0d-caa2-45b0-863d-489d81dde529"},"vehicle_type_id":"4","last_reported":1770100621,"current_range_meters":9600,"station_id":"st_d3j3df2ikq2c7380ej80","pricing_plan_id":"cebpf4jnsgd1na2vs0mg"},{"bike_id":"c056efdd-bfd4-4d90-a2c4-30f136ba140c","system_id":"levelo_inurba_marseille","lat":43.30569,"lon":5.381989,"is_reserved":false,"is_disabled":false,"rental_uris":{"android":"levelo://app?vid=c056efdd-bfd4-4d90-a2c4-30f136ba140c","ios":"levelo://app?vid=c056efdd-bfd4-4d90-a2c4-30f136ba140c"},"vehicle_type_id":"4","last_reported":1770100621,"current_range_meters":10000,"station_id":"st_d46tts09ee8s73dlu43g","pricing_plan_id":"cebpf4jnsgd1na2vs0mg"},{"bike_id":"6736fee1-ac9e-424d-ace1-8d4d602952e3","system_id":"levelo_inurba_marseille","lat":43.27845,"lon":5.39207,"is_reserved":false,"is_disabled":false,"rental_uris":{"android":"levelo://app?vid=6736fee1-ac9e-424d-ace1-8d4d602952e3","ios":"levelo://app?vid=6736fee1-ac9e-424d-ace1-8d4d602952e3"},"vehicle_type_id":"4","last_reported":1770100621,"current_range_meters":10000,"station_id":"ce4bhjp2rcd13ifvqga0","pricing_plan_id":"cebpf4jnsgd1na2vs0mg"},{"bike_id":"2c3840aa-2138-4e4d-964e-399ef9e41f22","system_id":"levelo_inurba_marseille","lat":43.262251,"lon":5.40451,"is_reserved":false,"is_disabled":false,"rental_uris":{"android":"levelo://app?vid=2c3840aa-2138-4e4d-964e-399ef9e41f22","ios":"levelo://app?vid=2c3840aa-2138-4e4d-964e-399ef9e41f22"},"vehicle_type_id":"4","last_reported":1770100621,"current_range_meters":10000,"station_id":"ce4bhmh2rcd13ifvqgmg","pricing_plan_id":"cebpf4jnsgd1na2vs0mg"},{"bike_id":"3496e3d5-ade9-4ef3-89c7-6224a9796381","system_id":"levelo_inurba_marseille","lat":43.23207,"lon":5.35552,"is_reserved":false,"is_disabled":false,"rental_uris":{"android":"levelo://app?vid=3496e3d5-ade9-4ef3-89c7-6224a9796381","ios":"levelo://app?vid=3496e3d5-ade9-4ef3-89c7-6224a9796381"},"vehicle_type_id":"4","last_reported":1770100621,"current_range_meters":10000,"station_id":"ce4bhu92rcd13ifvqi70","pricing_plan_id":"cebpf4jnsgd1na2vs0mg"},{"bike_id":"5892fc85-7848-4ac6-9041-3115ffbc60b4","system_id":"levelo_inurba_marseille","lat":43.2469,"lon":5.38166,"is_reserved":false,"is_disabled":false,"rental_uris":{"android":"levelo://app?vid=5892fc85-7848-4ac6-9041-3115ffbc60b4","ios":"levelo://app?vid=5892fc85-7848-4ac6-9041-3115ffbc60b4"},"vehicle_type_id":"4","last_reported":1770100621,"current_range_meters":10000,"station_id":"ce4bhih2rcd13ifvqfr0","pricing_plan_id":"cebpf4jnsgd1na2vs0mg"},{"bike_id":"4045e8b3-7e71-4f40-b637-4ca10cada01a","system_id":"levelo_inurba_marseille","lat":43.27655,"lon":5.36068,"is_reserved":false,"is_disabled":false,"rental_uris":{"android":"levelo://app?vid=4045e8b3-7e71-4f40-b637-4ca10cada01a","ios":"levelo://app?vid=4045e8b3-7e71-4f40-b637-4ca10cada01a"},"vehicle_type_id":"4","last_reported":1770100621,"current_range_meters":10000,"station_id":"ce4bgj92rcd13ifvqbe0","pricing_plan_id":"cebpf4jnsgd1na2vs0mg"},{"bike_id":"819bbb49-1fb2-45d8-a99d-98aa00328543","system_id":"levelo_inurba_marseille","lat":43.28565,"lon":5.39492,"is_reserved":false,"is_disabled":false,"rental_uris":{"android":"levelo://app?vid=819bbb49-1fb2-45d8-a99d-98aa00328543","ios":"levelo://app?vid=819bbb49-1fb2-45d8-a99d-98aa00328543"},"vehicle_type_id":"4","last_reported":1770100621,"current_range_meters":10000,"station_id":"ce4bh292rcd13ifvqdg0","pricing_plan_id":"cebpf4jnsgd1na2vs0mg"},{"bike_id":"15b7d625-95d6-48b2-bd3c-37b6ba529106","system_id":"levelo_inurba_marseille","lat":43.29543,"lon":5.38542,"is_reserved":false,"is_disabled":false,"rental_uris":{"android":"levelo://app?vid=15b7d625-95d6-48b2-bd3c-37b6ba529106","ios":"levelo://app?vid=15b7d625-95d6-48b2-bd3c-37b6ba529106"},"vehicle_type_id":"4","last_reported":1770100621,"current_range_meters":10000,"station_id":"ce4bgih2rcd13ifvqba0","pricing_plan_id":"cebpf4jnsgd1na2vs0mg"},{"bike_id":"004ad0e8-4f97-43dd-982d-40e061c25a37","system_id":"levelo_inurba_marseille","lat":43.299482,"lon":5.372009,"is_reserved":false,"is_disabled":false,"rental_uris":{"android":"levelo://app?vid=004ad0e8-4f97-43dd-982d-40e061c25a37","ios":"levelo://app?vid=004ad0e8-4f97-43dd-982d-40e061c25a37"},"vehicle_type_id":"4","last_reported":1770100621,"current_range_meters":10000,"station_id":"ce4bgr92rcd13ifvqc7g","pricing_plan_id":"cebpf4jnsgd1na2vs0mg"},{"bike_id":"345ecbc5-072b-4642-a5d9-7234ba98d433","system_id":"levelo_inurba_marseille","lat":43.30194,"lon":5.36593,"is_reserved":false,"is_disabled":false,"rental_uris":{"android":"levelo://app?vid=345ecbc5-072b-4642-a5d9-7234ba98d433","ios":"levelo://app?vid=345ecbc5-072b-4642-a5d9-7234ba98d433"},"vehicle_type_id":"4","last_reported":1770100621,"current_range_meters":10000,"station_id":"ce4bgrh2rcd13ifvqc8g","pricing_plan_id":"cebpf4jnsgd1na2vs0mg"},{"bike_id":"ca4aadfd-0881-4ee0-aede-7f51434adca7","system_id":"levelo_inurba_marseille","lat":43.29279,"lon":5.36844,"is_reserved":false,"is_disabled":false,"rental_uris":{"android":"levelo://app?vid=ca4aadfd-0881-4ee0-aede-7f51434adca7","ios":"levelo://app?vid=ca4aadfd-0881-4ee0-aede-7f51434adca7"},"vehicle_type_id":"4","last_reported":1770100621,"current_range_meters":10000,"station_id":"ce4bhbp2rcd13ifvqesg","pricing_plan_id":"cebpf4jnsgd1na2vs0mg"},{"bike_id":"a5eda67a-1af7-4789-9b16-aa7217c90cd3","system_id":"levelo_inurba_marseille","lat":43.23708,"lon":5.40134,"is_reserved":false,"is_disabled":false,"rental_uris":{"android":"levelo://app?vid=a5eda67a-1af7-4789-9b16-aa7217c90cd3","ios":"levelo://app?vid=a5eda67a-1af7-4789-9b16-aa7217c90cd3"},"vehicle_type_id":"4","last_reported":1770100621,"current_range_meters":10000,"station_id":"","pricing_plan_id":"cebpf4jnsgd1na2vs0mg"},{"bike_id":"400e1065-c764-47f1-8d66-0ec68fdc82cc","system_id":"levelo_inurba_marseille","lat":43.27848,"lon":5.39198,"is_reserved":false,"is_disabled":false,"rental_uris":{"android":"levelo://app?vid=400e1065-c764-47f1-8d66-0ec68fdc82cc","ios":"levelo://app?vid=400e1065-c764-47f1-8d66-0ec68fdc82cc"},"vehicle_type_id":"4","last_reported":1770100621,"current_range_meters":10000,"station_id":"ce4bhjp2rcd13ifvqga0","pricing_plan_id":"cebpf4jnsgd1na2vs0mg"},{"bike_id":"d25c30ce-208a-4865-aa8f-61a37bd60365","system_id":"levelo_inurba_marseille","lat":43.29556,"lon":5.38162,"is_reserved":false,"is_disabled":false,"rental_uris":{"android":"levelo://app?vid=d25c30ce-208a-4865-aa8f-61a37bd60365","ios":"levelo://app?vid=d25c30ce-208a-4865-aa8f-61a37bd60365"},"vehicle_type_id":"4","last_reported":1770100621,"current_range_meters":10000,"station_id":"ce4bgl12rcd13ifvqbo0","pricing_plan_id":"cebpf4jnsgd1na2vs0mg"},{"bike_id":"13c5095d-9f5c-4fa9-b65d-77811e98ae59","system_id":"levelo_inurba_marseille","lat":43.25003,"lon":5.38929,"is_reserved":false,"is_disabled":false,"rental_uris":{"android":"levelo://app?vid=13c5095d-9f5c-4fa9-b65d-77811e98ae59","ios":"levelo://app?vid=13c5095d-9f5c-4fa9-b65d-77811e98ae59"},"vehicle_type_id":"4","last_reported":1770100621,"current_range_meters":10000,"station_id":"ce4bhgp2rcd13ifvqfd0","pricing_plan_id":"cebpf4jnsgd1na2vs0mg"},{"bike_id":"b3a54eab-b946-460c-8d1b-dbc0ce5bc3c5","system_id":"levelo_inurba_marseille","lat":43.281645,"lon":5.426409,"is_reserved":false,"is_disabled":false,"rental_uris":{"android":"levelo://app?vid=b3a54eab-b946-460c-8d1b-dbc0ce5bc3c5","ios":"levelo://app?vid=b3a54eab-b946-460c-8d1b-dbc0ce5bc3c5"},"vehicle_type_id":"4","last_reported":1770100621,"current_range_meters":10000,"station_id":"ce4bhnh2rcd13ifvqgug","pricing_plan_id":"cebpf4jnsgd1na2vs0mg"},{"bike_id":"364883e5-5bab-413b-9d9d-162730d9f009","system_id":"levelo_inurba_marseille","lat":43.29732,"lon":5.42875,"is_reserved":false,"is_disabled":false,"rental_uris":{"android":"levelo://app?vid=364883e5-5bab-413b-9d9d-162730d9f009","ios":"levelo://app?vid=364883e5-5bab-413b-9d9d-162730d9f009"},"vehicle_type_id":"4","last_reported":1770100621,"current_range_meters":10800,"station_id":"","pricing_plan_id":"cebpf4jnsgd1na2vs0mg"},{"bike_id":"ee720516-c0a6-4a6d-b75c-2f6af221c8b1","system_id":"levelo_inurba_marseille","lat":43.28153,"lon":5.42643,"is_reserved":false,"is_disabled":false,"rental_uris":{"android":"levelo://app?vid=ee720516-c0a6-4a6d-b75c-2f6af221c8b1","ios":"levelo://app?vid=ee720516-c0a6-4a6d-b75c-2f6af221c8b1"},"vehicle_type_id":"4","last_reported":1770100621,"current_range_meters":10800,"station_id":"ce4bhnh2rcd13ifvqgug","pricing_plan_id":"cebpf4jnsgd1na2vs0mg"},{"bike_id":"7474cc46-e774-4837-bc18-94e82ed24bdd","system_id":"levelo_inurba_marseille","lat":43.25337,"lon":5.42164,"is_reserved":false,"is_disabled":false,"rental_uris":{"android":"levelo://app?vid=7474cc46-e774-4837-bc18-94e82ed24bdd","ios":"levelo://app?vid=7474cc46-e774-4837-bc18-94e82ed24bdd"},"vehicle_type_id":"4","last_reported":1770100621,"current_range_meters":10800,"station_id":"st_d2m65c5bi1j21697t3ng","pricing_plan_id":"cebpf4jnsgd1na2vs0mg"},{"bike_id":"9d79ec10-3ed1-4035-8609-ff591e4f54d3","system_id":"levelo_inurba_marseille","lat":43.25601,"lon":5.38218,"is_reserved":false,"is_disabled":false,"rental_uris":{"android":"levelo://app?vid=9d79ec10-3ed1-4035-8609-ff591e4f54d3","ios":"levelo://app?vid=9d79ec10-3ed1-4035-8609-ff591e4f54d3"},"vehicle_type_id":"4","last_reported":1770100621,"current_range_meters":10800,"station_id":"ce4bhih2rcd13ifvqfs0","pricing_plan_id":"cebpf4jnsgd1na2vs0mg"},{"bike_id":"9a41c992-8ec6-4c5f-9787-da9fbb815a48","system_id":"levelo_inurba_marseille","lat":43.25577,"lon":5.38237,"is_reserved":false,"is_disabled":false,"rental_uris":{"android":"levelo://app?vid=9a41c992-8ec6-4c5f-9787-da9fbb815a48","ios":"levelo://app?vid=9a41c992-8ec6-4c5f-9787-da9fbb815a48"},"vehicle_type_id":"4","last_reported":1770100621,"current_range_meters":10800,"station_id":"ce4bhih2rcd13ifvqfs0","pricing_plan_id":"cebpf4jnsgd1na2vs0mg"},{"bike_id":"aac75649-992d-4184-9b4b-aa55d768573a","system_id":"levelo_inurba_marseille","lat":43.29085,"lon":5.38173,"is_reserved":false,"is_disabled":false,"rental_uris":{"android":"levelo://app?vid=aac75649-992d-4184-9b4b-aa55d768573a","ios":"levelo://app?vid=aac75649-992d-4184-9b4b-aa55d768573a"},"vehicle_type_id":"4","last_reported":1770100621,"current_range_meters":10800,"station_id":"ce4bh512rcd13ifvqe2g","pricing_plan_id":"cebpf4jnsgd1na2vs0mg"},{"bike_id":"71a40a8c-08a9-44cb-8509-6619010401bc","system_id":"levelo_inurba_marseille","lat":43.26218,"lon":5.40454,"is_reserved":false,"is_disabled":false,"rental_uris":{"android":"levelo://app?vid=71a40a8c-08a9-44cb-8509-6619010401bc","ios":"levelo://app?vid=71a40a8c-08a9-44cb-8509-6619010401bc"},"vehicle_type_id":"4","last_reported":1770100621,"current_range_meters":10800,"station_id":"ce4bhmh2rcd13ifvqgmg","pricing_plan_id":"cebpf4jnsgd1na2vs0mg"},{"bike_id":"ef4aafd7-31d8-4f9b-97f1-b8af2e53c15d","system_id":"levelo_inurba_marseille","lat":43.29913,"lon":5.43662,"is_reserved":false,"is_disabled":false,"rental_uris":{"android":"levelo://app?vid=ef4aafd7-31d8-4f9b-97f1-b8af2e53c15d","ios":"levelo://app?vid=ef4aafd7-31d8-4f9b-97f1-b8af2e53c15d"},"vehicle_type_id":"4","last_reported":1770100621,"current_range_meters":10800,"station_id":"ce4bhpp2rcd13ifvqhfg","pricing_plan_id":"cebpf4jnsgd1na2vs0mg"},{"bike_id":"4cb6ba0c-f0d8-4e55-93b6-81b0d6233dc5","system_id":"levelo_inurba_marseille","lat":43.24667,"lon":5.38176,"is_reserved":false,"is_disabled":false,"rental_uris":{"android":"levelo://app?vid=4cb6ba0c-f0d8-4e55-93b6-81b0d6233dc5","ios":"levelo://app?vid=4cb6ba0c-f0d8-4e55-93b6-81b0d6233dc5"},"vehicle_type_id":"4","last_reported":1770100621,"current_range_meters":10800,"station_id":"ce4bhih2rcd13ifvqfr0","pricing_plan_id":"cebpf4jnsgd1na2vs0mg"},{"bike_id":"e4e7345a-ada3-4cee-b09a-8b0e1366f3ea","system_id":"levelo_inurba_marseille","lat":43.2828,"lon":5.3506,"is_reserved":false,"is_disabled":false,"rental_uris":{"android":"levelo://app?vid=e4e7345a-ada3-4cee-b09a-8b0e1366f3ea","ios":"levelo://app?vid=e4e7345a-ada3-4cee-b09a-8b0e1366f3ea"},"vehicle_type_id":"4","last_reported":1770100621,"current_range_meters":10800,"station_id":"ce4bhbp2rcd13ifvqerg","pricing_plan_id":"cebpf4jnsgd1na2vs0mg"},{"bike_id":"da4d19a5-63fa-471e-bc87-bb23db14643b","system_id":"levelo_inurba_marseille","lat":43.29545,"lon":5.42524,"is_reserved":false,"is_disabled":false,"rental_uris":{"android":"levelo://app?vid=da4d19a5-63fa-471e-bc87-bb23db14643b","ios":"levelo://app?vid=da4d19a5-63fa-471e-bc87-bb23db14643b"},"vehicle_type_id":"4","last_reported":1770100621,"current_range_meters":10800,"station_id":"","pricing_plan_id":"cebpf4jnsgd1na2vs0mg"},{"bike_id":"988afa8e-d306-4003-baf9-728102144f56","system_id":"levelo_inurba_marseille","lat":43.26768,"lon":5.38305,"is_reserved":false,"is_disabled":false,"rental_uris":{"android":"levelo://app?vid=988afa8e-d306-4003-baf9-728102144f56","ios":"levelo://app?vid=988afa8e-d306-4003-baf9-728102144f56"},"vehicle_type_id":"4","last_reported":1770100621,"current_range_meters":11200,"station_id":"","pricing_plan_id":"cebpf4jnsgd1na2vs0mg"},{"bike_id":"d72c8d0b-6864-4eb2-b074-4484e5b3c2c1","system_id":"levelo_inurba_marseille","lat":43.28478,"lon":5.48393,"is_reserved":false,"is_disabled":false,"rental_uris":{"android":"levelo://app?vid=d72c8d0b-6864-4eb2-b074-4484e5b3c2c1","ios":"levelo://app?vid=d72c8d0b-6864-4eb2-b074-4484e5b3c2c1"},"vehicle_type_id":"4","last_reported":1770100621,"current_range_meters":11200,"station_id":"st_d3svhcjqgbts73a3dn0g","pricing_plan_id":"cebpf4jnsgd1na2vs0mg"},{"bike_id":"f9ad9062-2178-497b-9573-21beda4d4fc7","system_id":"levelo_inurba_marseille","lat":43.29546,"lon":5.37503,"is_reserved":false,"is_disabled":false,"rental_uris":{"android":"levelo://app?vid=f9ad9062-2178-497b-9573-21beda4d4fc7","ios":"levelo://app?vid=f9ad9062-2178-497b-9573-21beda4d4fc7"},"vehicle_type_id":"4","last_reported":1770100621,"current_range_meters":11200,"station_id":"ce4bgkp2rcd13ifvqbmg","pricing_plan_id":"cebpf4jnsgd1na2vs0mg"},{"bike_id":"3e96821d-f8a2-4961-8893-311448c3de36","system_id":"levelo_inurba_marseille","lat":43.240823,"lon":5.377454,"is_reserved":false,"is_disabled":false,"rental_uris":{"android":"levelo://app?vid=3e96821d-f8a2-4961-8893-311448c3de36","ios":"levelo://app?vid=3e96821d-f8a2-4961-8893-311448c3de36"},"vehicle_type_id":"4","last_reported":1770100621,"current_range_meters":11200,"station_id":"ce4bhnp2rcd13ifvqgvg","pricing_plan_id":"cebpf4jnsgd1na2vs0mg"},{"bike_id":"d9a7c62d-5a89-4428-8045-bb25d6d131f6","system_id":"levelo_inurba_marseille","lat":43.23725,"lon":5.36602,"is_reserved":false,"is_disabled":false,"rental_uris":{"android":"levelo://app?vid=d9a7c62d-5a89-4428-8045-bb25d6d131f6","ios":"levelo://app?vid=d9a7c62d-5a89-4428-8045-bb25d6d131f6"},"vehicle_type_id":"4","last_reported":1770100621,"current_range_meters":11200,"station_id":"st_d3nk18o9ro0c73en2l3g","pricing_plan_id":"cebpf4jnsgd1na2vs0mg"},{"bike_id":"a5c1703c-0b2d-4e6b-b820-25e716f1e211","system_id":"levelo_inurba_marseille","lat":43.28498,"lon":5.4838,"is_reserved":false,"is_disabled":false,"rental_uris":{"android":"levelo://app?vid=a5c1703c-0b2d-4e6b-b820-25e716f1e211","ios":"levelo://app?vid=a5c1703c-0b2d-4e6b-b820-25e716f1e211"},"vehicle_type_id":"4","last_reported":1770100621,"current_range_meters":11200,"station_id":"st_d3svhcjqgbts73a3dn0g","pricing_plan_id":"cebpf4jnsgd1na2vs0mg"},{"bike_id":"e1373658-45f1-4089-ac45-796cb05f8b8c","system_id":"levelo_inurba_marseille","lat":43.30179,"lon":5.38094,"is_reserved":false,"is_disabled":false,"rental_uris":{"android":"levelo://app?vid=e1373658-45f1-4089-ac45-796cb05f8b8c","ios":"levelo://app?vid=e1373658-45f1-4089-ac45-796cb05f8b8c"},"vehicle_type_id":"4","last_reported":1770100621,"current_range_meters":11200,"station_id":"ce4bgjp2rcd13ifvqbh0","pricing_plan_id":"cebpf4jnsgd1na2vs0mg"},{"bike_id":"6be43c1f-db2c-43c9-a648-234cc72c5193","system_id":"levelo_inurba_marseille","lat":43.3155,"lon":5.40669,"is_reserved":false,"is_disabled":false,"rental_uris":{"android":"levelo://app?vid=6be43c1f-db2c-43c9-a648-234cc72c5193","ios":"levelo://app?vid=6be43c1f-db2c-43c9-a648-234cc72c5193"},"vehicle_type_id":"4","last_reported":1770100621,"current_range_meters":11200,"station_id":"","pricing_plan_id":"cebpf4jnsgd1na2vs0mg"},{"bike_id":"108ace72-5b99-4209-9177-0be2c457ba5a","system_id":"levelo_inurba_marseille","lat":43.29445,"lon":5.39762,"is_reserved":false,"is_disabled":false,"rental_uris":{"android":"levelo://app?vid=108ace72-5b99-4209-9177-0be2c457ba5a","ios":"levelo://app?vid=108ace72-5b99-4209-9177-0be2c457ba5a"},"vehicle_type_id":"4","last_reported":1770100621,"current_range_meters":11600,"station_id":"ce4bh3h2rcd13ifvqdo0","pricing_plan_id":"cebpf4jnsgd1na2vs0mg"},{"bike_id":"aeeb2360-ba75-463e-8e93-cf5197ea77ba","system_id":"levelo_inurba_marseille","lat":43.25715,"lon":5.41113,"is_reserved":false,"is_disabled":false,"rental_uris":{"android":"levelo://app?vid=aeeb2360-ba75-463e-8e93-cf5197ea77ba","ios":"levelo://app?vid=aeeb2360-ba75-463e-8e93-cf5197ea77ba"},"vehicle_type_id":"4","last_reported":1770100621,"current_range_meters":11600,"station_id":"ce4bhkp2rcd13ifvqgd0","pricing_plan_id":"cebpf4jnsgd1na2vs0mg"},{"bike_id":"e3f2f3b6-1b40-4c00-a11e-dc04d2fd2a8a","system_id":"levelo_inurba_marseille","lat":43.29046,"lon":5.37583,"is_reserved":false,"is_disabled":false,"rental_uris":{"android":"levelo://app?vid=e3f2f3b6-1b40-4c00-a11e-dc04d2fd2a8a","ios":"levelo://app?vid=e3f2f3b6-1b40-4c00-a11e-dc04d2fd2a8a"},"vehicle_type_id":"4","last_reported":1770100621,"current_range_meters":11600,"station_id":"ce4bh692rcd13ifvqe90","pricing_plan_id":"cebpf4jnsgd1na2vs0mg"},{"bike_id":"7247a3b3-b51c-42f9-97b1-4e7e82eb7fcd","system_id":"levelo_inurba_marseille","lat":43.23374,"lon":5.41244,"is_reserved":false,"is_disabled":false,"rental_uris":{"android":"levelo://app?vid=7247a3b3-b51c-42f9-97b1-4e7e82eb7fcd","ios":"levelo://app?vid=7247a3b3-b51c-42f9-97b1-4e7e82eb7fcd"},"vehicle_type_id":"4","last_reported":1770100621,"current_range_meters":11600,"station_id":"","pricing_plan_id":"cebpf4jnsgd1na2vs0mg"},{"bike_id":"f899c285-0913-4257-ac0a-63189fdf11cb","system_id":"levelo_inurba_marseille","lat":43.298657,"lon":5.397259,"is_reserved":false,"is_disabled":false,"rental_uris":{"android":"levelo://app?vid=f899c285-0913-4257-ac0a-63189fdf11cb","ios":"levelo://app?vid=f899c285-0913-4257-ac0a-63189fdf11cb"},"vehicle_type_id":"4","last_reported":1770100621,"current_range_meters":11600,"station_id":"ce4bh0h2rcd13ifvqd50","pricing_plan_id":"cebpf4jnsgd1na2vs0mg"},{"bike_id":"09f49787-1891-46ef-bef4-d9baa903f9d9","system_id":"levelo_inurba_marseille","lat":43.2801,"lon":5.40031,"is_reserved":false,"is_disabled":false,"rental_uris":{"android":"levelo://app?vid=09f49787-1891-46ef-bef4-d9baa903f9d9","ios":"levelo://app?vid=09f49787-1891-46ef-bef4-d9baa903f9d9"},"vehicle_type_id":"4","last_reported":1770100621,"current_range_meters":11600,"station_id":"ce4bho92rcd13ifvqh4g","pricing_plan_id":"cebpf4jnsgd1na2vs0mg"},{"bike_id":"88cfaba8-1b61-4329-93dd-97b00dd43caf","system_id":"levelo_inurba_marseille","lat":43.24159,"lon":5.39744,"is_reserved":false,"is_disabled":false,"rental_uris":{"android":"levelo://app?vid=88cfaba8-1b61-4329-93dd-97b00dd43caf","ios":"levelo://app?vid=88cfaba8-1b61-4329-93dd-97b00dd43caf"},"vehicle_type_id":"4","last_reported":1770100621,"current_range_meters":11600,"station_id":"ce4bhn12rcd13ifvqgpg","pricing_plan_id":"cebpf4jnsgd1na2vs0mg"},{"bike_id":"591d8b48-b2ec-40d7-9f54-04b3fc3165eb","system_id":"levelo_inurba_marseille","lat":43.28621,"lon":5.35141,"is_reserved":false,"is_disabled":false,"rental_uris":{"android":"levelo://app?vid=591d8b48-b2ec-40d7-9f54-04b3fc3165eb","ios":"levelo://app?vid=591d8b48-b2ec-40d7-9f54-04b3fc3165eb"},"vehicle_type_id":"4","last_reported":1770100621,"current_range_meters":11600,"station_id":"ce4bhch2rcd13ifvqeug","pricing_plan_id":"cebpf4jnsgd1na2vs0mg"},{"bike_id":"a8839309-ab14-4796-a840-d72f207433dc","system_id":"levelo_inurba_marseille","lat":43.28479,"lon":5.3856,"is_reserved":false,"is_disabled":false,"rental_uris":{"android":"levelo://app?vid=a8839309-ab14-4796-a840-d72f207433dc","ios":"levelo://app?vid=a8839309-ab14-4796-a840-d72f207433dc"},"vehicle_type_id":"4","last_reported":1770100621,"current_range_meters":11600,"station_id":"ce4bh8p2rcd13ifvqeb0","pricing_plan_id":"cebpf4jnsgd1na2vs0mg"},{"bike_id":"ceee7d7c-f4a5-4081-bff6-fcabbd261f70","system_id":"levelo_inurba_marseille","lat":43.3063,"lon":5.40074,"is_reserved":false,"is_disabled":false,"rental_uris":{"android":"levelo://app?vid=ceee7d7c-f4a5-4081-bff6-fcabbd261f70","ios":"levelo://app?vid=ceee7d7c-f4a5-4081-bff6-fcabbd261f70"},"vehicle_type_id":"4","last_reported":1770100621,"current_range_meters":12000,"station_id":"ce4bh112rcd13ifvqda0","pricing_plan_id":"cebpf4jnsgd1na2vs0mg"},{"bike_id":"24d7cfb6-6700-4d5c-8310-80e1d0d50cdd","system_id":"levelo_inurba_marseille","lat":43.31203,"lon":5.36891,"is_reserved":false,"is_disabled":false,"rental_uris":{"android":"levelo://app?vid=24d7cfb6-6700-4d5c-8310-80e1d0d50cdd","ios":"levelo://app?vid=24d7cfb6-6700-4d5c-8310-80e1d0d50cdd"},"vehicle_type_id":"4","last_reported":1770100621,"current_range_meters":12000,"station_id":"ce4bgl92rcd13ifvqbq0","pricing_plan_id":"cebpf4jnsgd1na2vs0mg"},{"bike_id":"e3d260b3-ef59-492b-acd4-df0defadd9b1","system_id":"levelo_inurba_marseille","lat":43.28404,"lon":5.34979,"is_reserved":false,"is_disabled":false,"rental_uris":{"android":"levelo://app?vid=e3d260b3-ef59-492b-acd4-df0defadd9b1","ios":"levelo://app?vid=e3d260b3-ef59-492b-acd4-df0defadd9b1"},"vehicle_type_id":"4","last_reported":1770100621,"current_range_meters":12000,"station_id":"ce4bhbh2rcd13ifvqepg","pricing_plan_id":"cebpf4jnsgd1na2vs0mg"},{"bike_id":"6c1ec52b-6c99-4c6f-9f38-a3baa19d29a7","system_id":"levelo_inurba_marseille","lat":43.28961,"lon":5.38382,"is_reserved":false,"is_disabled":false,"rental_uris":{"android":"levelo://app?vid=6c1ec52b-6c99-4c6f-9f38-a3baa19d29a7","ios":"levelo://app?vid=6c1ec52b-6c99-4c6f-9f38-a3baa19d29a7"},"vehicle_type_id":"4","last_reported":1770100621,"current_range_meters":12000,"station_id":"ce4bh612rcd13ifvqe6g","pricing_plan_id":"cebpf4jnsgd1na2vs0mg"},{"bike_id":"7b2df10f-d97d-4068-9983-8f53d0a78517","system_id":"levelo_inurba_marseille","lat":43.28864,"lon":5.42516,"is_reserved":false,"is_disabled":false,"rental_uris":{"android":"levelo://app?vid=7b2df10f-d97d-4068-9983-8f53d0a78517","ios":"levelo://app?vid=7b2df10f-d97d-4068-9983-8f53d0a78517"},"vehicle_type_id":"4","last_reported":1770100621,"current_range_meters":12000,"station_id":"st_d3b462108ojc7389ooeg","pricing_plan_id":"cebpf4jnsgd1na2vs0mg"},{"bike_id":"dc19917d-161e-4763-9182-226d303389cf","system_id":"levelo_inurba_marseille","lat":43.245488,"lon":5.395192,"is_reserved":false,"is_disabled":false,"rental_uris":{"android":"levelo://app?vid=dc19917d-161e-4763-9182-226d303389cf","ios":"levelo://app?vid=dc19917d-161e-4763-9182-226d303389cf"},"vehicle_type_id":"4","last_reported":1770100621,"current_range_meters":12000,"station_id":"ce4bhlp2rcd13ifvqgjg","pricing_plan_id":"cebpf4jnsgd1na2vs0mg"},{"bike_id":"c1e71f14-e91f-49b0-9bb2-6c712963da21","system_id":"levelo_inurba_marseille","lat":43.29898,"lon":5.43668,"is_reserved":false,"is_disabled":false,"rental_uris":{"android":"levelo://app?vid=c1e71f14-e91f-49b0-9bb2-6c712963da21","ios":"levelo://app?vid=c1e71f14-e91f-49b0-9bb2-6c712963da21"},"vehicle_type_id":"4","last_reported":1770100621,"current_range_meters":12000,"station_id":"ce4bhpp2rcd13ifvqhfg","pricing_plan_id":"cebpf4jnsgd1na2vs0mg"},{"bike_id":"840a679e-64bd-4af2-bd81-1d09dfeeb68a","system_id":"levelo_inurba_marseille","lat":43.29584,"lon":5.36747,"is_reserved":false,"is_disabled":false,"rental_uris":{"android":"levelo://app?vid=840a679e-64bd-4af2-bd81-1d09dfeeb68a","ios":"levelo://app?vid=840a679e-64bd-4af2-bd81-1d09dfeeb68a"},"vehicle_type_id":"4","last_reported":1770100621,"current_range_meters":12400,"station_id":"ce4bgph2rcd13ifvqc2g","pricing_plan_id":"cebpf4jnsgd1na2vs0mg"},{"bike_id":"626974d3-ace9-41dd-9dbe-f4621ca953aa","system_id":"levelo_inurba_marseille","lat":43.29459,"lon":5.40983,"is_reserved":false,"is_disabled":false,"rental_uris":{"android":"levelo://app?vid=626974d3-ace9-41dd-9dbe-f4621ca953aa","ios":"levelo://app?vid=626974d3-ace9-41dd-9dbe-f4621ca953aa"},"vehicle_type_id":"4","last_reported":1770100621,"current_range_meters":12400,"station_id":"","pricing_plan_id":"cebpf4jnsgd1na2vs0mg"},{"bike_id":"73b6626a-125d-4b63-8d66-3e6a9851d390","system_id":"levelo_inurba_marseille","lat":43.22565,"lon":5.41638,"is_reserved":false,"is_disabled":false,"rental_uris":{"android":"levelo://app?vid=73b6626a-125d-4b63-8d66-3e6a9851d390","ios":"levelo://app?vid=73b6626a-125d-4b63-8d66-3e6a9851d390"},"vehicle_type_id":"4","last_reported":1770100621,"current_range_meters":12400,"station_id":"st_d2o4gvlbi1j2169b742g","pricing_plan_id":"cebpf4jnsgd1na2vs0mg"},