{"last_updated":1712408778,"ttl":30,"version":"2.2","data":{"bikes":[{"bike_id":"bd92f93d-cfc4-4c38-8f28-5c9687eb14d0","system_id":"levelo_inurba_marseille","lat":43.31341,"lon":5.367098,"is_reserved":false,"is_disabled":false,"rental_uris":{"android":"levelo://app?vid=bd92f93d-cfc4-4c38-8f28-5c9687eb14d0","ios":"levelo://app?vid=bd92f93d-cfc4-4c38-8f28-5c9687eb14d0"},"vehicle_type_id":"4","last_reported":1712408778,"current_range_meters":25200,"station_id":"ce4bgr92rcd13ifvqc6g","pricing_plan_id":"cebpf4jnsgd1na2vs0mg"},{"bike_id":"45945caa-5128-4b73-aecb-97b54b5ce6f9","system_id":"levelo_inurba_marseille","lat":43.31341,"lon":5.367098,"is_reserved":false,"is_disabled":false,"rental_uris":{"android":"levelo://app?vid=45945caa-5128-4b73-aecb-97b54b5ce6f9","ios":"levelo://app?vid=45945caa-5128-4b73-aecb-97b54b5ce6f9"},"vehicle_type_id":"4","last_reported":1712408778,"current_range_meters":31200,"station_id":"ce4bgr92rcd13ifvqc6g","pricing_plan_id":"cebpf4jnsgd1na2vs0mg"},{"bike_id":"78338f29-a120-4532-89c7-de02a275ac0b","system_id":"levelo_inurba_marseille","lat":43.31341,"lon":5.367098,"is_reserved":false,"is_disabled":false,"rental_uris":{"android":"levelo://app?vid=78338f29-a120-4532-89c7-de02a275ac0b","ios":"levelo://app?vid=78338f29-a120-4532-89c7-de02a275ac0b"},"vehicle_type_id":"4","last_reported":1712408778,"current_range_meters":31600,"station_id":"ce4bgr92rcd13ifvqc6g","pricing_plan_id":"cebpf4jnsgd1na2vs0mg"},{"bike_id":"f78e8fb6-eae3-4366-9703-89542b95594d","system_id":"levelo_inurba_marseille","lat":43.31341,"lon":5.367098,"is_reserved":false,"is_disabled":false,"rental_uris":{"android":"levelo://app?vid=f78e8fb6-eae3-4366-9703-89542b95594d","ios":"levelo://app?vid=f78e8fb6-eae3-4366-9703-89542b95594d"},"vehicle_type_id":"4","last_reported":1712408778,"current_range_meters":29200,"station_id":"ce4bgr92rcd13ifvqc6g","pricing_plan_id":"cebpf4jnsgd1na2vs0mg"},{"bike_id":"f8cb903f-2a0a-4087-8295-1e0c2ed34c4e","system_id":"levelo_inurba_marseille","lat":43.31341,"lon":5.367098,"is_reserved":false,"is_disabled":false,"rental_uris":{"android":"levelo://app?vid=f8cb903f-2a0a-4087-8295-1e0c2ed34c4e","ios":"levelo://app?vid=f8cb903f-2a0a-4087-8295-1e0c2ed34c4e"},"vehicle_type_id":"4","last_reported":1712408778,"current_range_meters":24400,"station_id":"ce4bgr92rcd13ifvqc6g","pricing_plan_id":"cebpf4jnsgd1na2vs0mg"},{"bike_id":"fa7c0c22-94bc-47d0-86fd-21059f5776d5","system_id":"levelo_inurba_marseille","lat":43.31341,"lon":5.367098,"is_reserved":false,"is_disabled":false,"rental_uris":{"android":"levelo://app?vid=fa7c0c22-94bc-47d0-86fd-21059f5776d5","ios":"levelo://app?vid=fa7c0c22-94bc-47d0-86fd-21059f5776d5"},"vehicle_type_id":"4","last_reported":1712408778,"current_range_meters":28400,"station_id":"ce4bgr92rcd13ifvqc6g","pricing_plan_id":"cebpf4jnsgd1na2vs0mg"},{"bike_id":"b1051b96-f9db-4e22-9114-9f5ece26613d","system_id":"levelo_inurba_marseille","lat":43.312239,"lon":5.368562,"is_reserved":false,"is_disabled":false,"rental_uris":{"android":"levelo://app?vid=b1051b96-f9db-4e22-9114-9f5ece26613d","ios":"levelo://app?vid=b1051b96-f9db-4e22-9114-9f5ece26613d"},"vehicle_type_id":"4","last_reported":1712408778,"current_range_meters":14400,"station_id":"ce4bgl92rcd13ifvqbq0","pricing_plan_id":"cebpf4jnsgd1na2vs0mg"},{"bike_id":"ef2c2bc2-4657-46d3-866f-063cfcc33795","system_id":"levelo_inurba_marseille","lat":43.309076,"lon":5.368465,"is_reserved":false,"is_disabled":false,"rental_uris":{"android":"levelo://app?vid=ef2c2bc2-4657-46d3-866f-063cfcc33795","ios":"levelo://app?vid=ef2c2bc2-4657-46d3-866f-063cfcc33795"},"vehicle_type_id":"4","last_reported":1712408778,"current_range_meters":8800,"station_id":"ce4bgn92rcd13ifvqbvg","pricing_plan_id":"cebpf4jnsgd1na2vs0mg"},{"bike_id":"aaad8479-238c-4fbe-8b7e-6dc71ee6acd5","system_id":"levelo_inurba_marseille","lat":43.314811,"lon":5.373103,"is_reserved":false,"is_disabled":false,"rental_uris":{"android":"levelo://app?vid=aaad8479-238c-4fbe-8b7e-6dc71ee6acd5","ios":"levelo://app?vid=aaad8479-238c-4fbe-8b7e-6dc71ee6acd5"},"vehicle_type_id":"4","last_reported":1712408778,"current_range_meters":0,"station_id":"ce4bgt12rcd13ifvqcd0","pricing_plan_id":"cebpf4jnsgd1na2vs0mg"},{"bike_id":"22d43c96-54f3-400e-be25-5f4a249aacf1","system_id":"levelo_inurba_marseille","lat":43.30899,"lon":5.3719,"is_reserved":false,"is_disabled":false,"rental_uris":{"android":"levelo://app?vid=22d43c96-54f3-400e-be25-5f4a249aacf1","ios":"levelo://app?vid=22d43c96-54f3-400e-be25-5f4a249aacf1"},"vehicle_type_id":"4","last_reported":1712408778,"current_range_meters":12000,"station_id":"","pricing_plan_id":"cebpf4jnsgd1na2vs0mg"},{"bike_id":"7adadef1-28e6-471d-bf03-1a0696e1326f","system_id":"levelo_inurba_marseille","lat":43.305989,"lon":5.37225,"is_reserved":false,"is_disabled":false,"rental_uris":{"android":"levelo://app?vid=7adadef1-28e6-471d-bf03-1a0696e1326f","ios":"levelo://app?vid=7adadef1-28e6-471d-bf03-1a0696e1326f"},"vehicle_type_id":"4","last_reported":1712408778,"current_range_meters":14800,"station_id":"ce4bgqh2rcd13ifvqc4g","pricing_plan_id":"cebpf4jnsgd1na2vs0mg"},{"bike_id":"47153484-6ab6-492b-aeff-9e4c10110bcb","system_id":"levelo_inurba_marseille","lat":43.305706,"lon":5.365654,"is_reserved":false,"is_disabled":false,"rental_uris":{"android":"levelo://app?vid=47153484-6ab6-492b-aeff-9e4c10110bcb","ios":"levelo://app?vid=47153484-6ab6-492b-aeff-9e4c10110bcb"},"vehicle_type_id":"4","last_reported":1712408778,"current_range_meters":23200,"station_id":"ce4bgs12rcd13ifvqcag","pricing_plan_id":"cebpf4jnsgd1na2vs0mg"},{"bike_id":"7a086450-7933-41fb-8ae6-c173316284a2","system_id":"levelo_inurba_marseille","lat":43.305706,"lon":5.365654,"is_reserved":false,"is_disabled":false,"rental_uris":{"android":"levelo://app?vid=7a086450-7933-41fb-8ae6-c173316284a2","ios":"levelo://app?vid=7a086450-7933-41fb-8ae6-c173316284a2"},"vehicle_type_id":"4","last_reported":1712408778,"current_range_meters":6400,"station_id":"ce4bgs12rcd13ifvqcag","pricing_plan_id":"cebpf4jnsgd1na2vs0mg"},{"bike_id":"4437c7a3-5b1c-452f-a217-f07ffc065cac","system_id":"levelo_inurba_marseille","lat":43.305706,"lon":5.365654,"is_reserved":false,"is_disabled":false,"rental_uris":{"android":"levelo://app?vid=4437c7a3-5b1c-452f-a217-f07ffc065cac","ios":"levelo://app?vid=4437c7a3-5b1c-452f-a217-f07ffc065cac"},"vehicle_type_id":"4","last_reported":1712408778,"current_range_meters":9200,"station_id":"ce4bgs12rcd13ifvqcag","pricing_plan_id":"cebpf4jnsgd1na2vs0mg"},{"bike_id":"8c7b03b2-8378-4e83-968d-fa3ff900cf56","system_id":"levelo_inurba_marseille","lat":43.30537,"lon":5.367345,"is_reserved":false,"is_disabled":false,"rental_uris":{"android":"levelo://app?vid=8c7b03b2-8378-4e83-968d-fa3ff900cf56","ios":"levelo://app?vid=8c7b03b2-8378-4e83-968d-fa3ff900cf56"},"vehicle_type_id":"4","last_reported":1712408778,"current_range_meters":8400,"station_id":"ce4bgrp2rcd13ifvqc9g","pricing_plan_id":"cebpf4jnsgd1na2vs0mg"},{"bike_id":"7a755b56-7767-47ee-848d-588ab4eacc60","system_id":"levelo_inurba_marseille","lat":43.305706,"lon":5.365654,"is_reserved":false,"is_disabled":false,"rental_uris":{"android":"levelo://app?vid=7a755b56-7767-47ee-848d-588ab4eacc60","ios":"levelo://app?vid=7a755b56-7767-47ee-848d-588ab4eacc60"},"vehicle_type_id":"4","last_reported":1712408778,"current_range_meters":4400,"station_id":"ce4bgs12rcd13ifvqcag","pricing_plan_id":"cebpf4jnsgd1na2vs0mg"},{"bike_id":"b1dc5edf-af26-4b36-a1d9-1c649dd1b703","system_id":"levelo_inurba_marseille","lat":43.306,"lon":5.3722,"is_reserved":false,"is_disabled":false,"rental_uris":{"android":"levelo://app?vid=b1dc5edf-af26-4b36-a1d9-1c649dd1b703","ios":"levelo://app?vid=b1dc5edf-af26-4b36-a1d9-1c649dd1b703"},"vehicle_type_id":"4","last_reported":1712408778,"current_range_meters":0,"station_id":"ce4bgqh2rcd13ifvqc4g","pricing_plan_id":"cebpf4jnsgd1na2vs0mg"},{"bike_id":"1b05ade6-9376-492d-b178-916e293dc5b1","system_id":"levelo_inurba_marseille","lat":43.305989,"lon":5.37225,"is_reserved":false,"is_disabled":false,"rental_uris":{"android":"levelo://app?vid=1b05ade6-9376-492d-b178-916e293dc5b1","ios":"levelo://app?vid=1b05ade6-9376-492d-b178-916e293dc5b1"},"vehicle_type_id":"4","last_reported":1712408778,"current_range_meters":20800,"station_id":"ce4bgqh2rcd13ifvqc4g","pricing_plan_id":"cebpf4jnsgd1na2vs0mg"},{"bike_id":"bbfed310-f5ca-41c8-bf3a-f83cd6959697","system_id":"levelo_inurba_marseille","lat":43.313254,"lon":5.37881,"is_reserved":false,"is_disabled":false,"rental_uris":{"android":"levelo://app?vid=bbfed310-f5ca-41c8-bf3a-f83cd6959697","ios":"levelo://app?vid=bbfed310-f5ca-41c8-bf3a-f83cd6959697"},"vehicle_type_id":"4","last_reported":1712408778,"current_range_meters":1200,"station_id":"","pricing_plan_id":"cebpf4jnsgd1na2vs0mg"},{"bike_id":"9e971677-61b1-4aff-b6ae-f54d181d81c6","system_id":"levelo_inurba_marseille","lat":43.308012,"lon":5.381511,"is_reserved":false,"is_disabled":false,"rental_uris":{"android":"levelo://app?vid=9e971677-61b1-4aff-b6ae-f54d181d81c6","ios":"levelo://app?vid=9e971677-61b1-4aff-b6ae-f54d181d81c6"},"vehicle_type_id":"4","last_reported":1712408778,"current_range_meters":19200,"station_id":"ce4bgt12rcd13ifvqce0","pricing_plan_id":"cebpf4jnsgd1na2vs0mg"},{"bike_id":"9efe8554-2505-4091-a0c3-87ca33007964","system_id":"levelo_inurba_marseille","lat":43.308012,"lon":5.381511,"is_reserved":false,"is_disabled":false,"rental_uris":{"android":"levelo://app?vid=9efe8554-2505-4091-a0c3-87ca33007964","ios":"levelo://app?vid=9efe8554-2505-4091-a0c3-87ca33007964"},"vehicle_type_id":"4","last_reported":1712408778,"current_range_meters":8000,"station_id":"ce4bgt12rcd13ifvqce0","pricing_plan_id":"cebpf4jnsgd1na2vs0mg"},{"bike_id":"6b249f4b-5e80-4800-acc9-da9a800d8ddb","system_id":"levelo_inurba_marseille","lat":43.284793,"lon":5.384113,"is_reserved":false,"is_disabled":false,"rental_uris":{"android":"levelo://app?vid=6b249f4b-5e80-4800-acc9-da9a800d8ddb","ios":"levelo://app?vid=6b249f4b-5e80-4800-acc9-da9a800d8ddb"},"vehicle_type_id":"4","last_reported":1712408778,"current_range_meters":2000,"station_id":"ce4bh512rcd13ifvqe3g","pricing_plan_id":"cebpf4jnsgd1na2vs0mg"},{"bike_id":"092bd9f7-a206-4f71-9625-77f71fc7ab05","system_id":"levelo_inurba_marseille","lat":43.304606,"lon":5.379026,"is_reserved":false,"is_disabled":false,"rental_uris":{"android":"levelo://app?vid=092bd9f7-a206-4f71-9625-77f71fc7ab05","ios":"levelo://app?vid=092bd9f7-a206-4f71-9625-77f71fc7ab05"},"vehicle_type_id":"4","last_reported":1712408778,"current_range_meters":400,"station_id":"ce4bgup2rcd13ifvqcn0","pricing_plan_id":"cebpf4jnsgd1na2vs0mg"},{"bike_id":"98281cc0-2ee7-44f2-8d75-a4846c6f4047","system_id":"levelo_inurba_marseille","lat":43.31075,"lon":5.38346,"is_reserved":false,"is_disabled":false,"rental_uris":{"android":"levelo://app?vid=98281cc0-2ee7-44f2-8d75-a4846c6f4047","ios":"levelo://app?vid=98281cc0-2ee7-44f2-8d75-a4846c6f4047"},"vehicle_type_id":"4","last_reported":1712408778,"current_range_meters":0,"station_id":"ce4bgv92rcd13ifvqcr0","pricing_plan_id":"cebpf4jnsgd1na2vs0mg"},{"bike_id":"4eca8582-1b3b-4390-817f-e9b1adebf443","system_id":"levelo_inurba_marseille","lat":43.310733,"lon":5.383475,"is_reserved":false,"is_disabled":false,"rental_uris":{"android":"levelo://app?vid=4eca8582-1b3b-4390-817f-e9b1adebf443","ios":"levelo://app?vid=4eca8582-1b3b-4390-817f-e9b1adebf443"},"vehicle_type_id":"4","last_reported":1712408778,"current_range_meters":29600,"station_id":"ce4bgv92rcd13ifvqcr0","pricing_plan_id":"cebpf4jnsgd1na2vs0mg"},{"bike_id":"ed1b50d7-16ab-4f29-a8af-14b173f1b067","system_id":"levelo_inurba_marseille","lat":43.310804,"lon":5.38359,"is_reserved":false,"is_disabled":false,"rental_uris":{"android":"levelo://app?vid=ed1b50d7-16ab-4f29-a8af-14b173f1b067","ios":"levelo://app?vid=ed1b50d7-16ab-4f29-a8af-14b173f1b067"},"vehicle_type_id":"4","last_reported":1712408778,"current_range_meters":0,"station_id":"ce4bgv92rcd13ifvqcr0","pricing_plan_id":"cebpf4jnsgd1na2vs0mg"},{"bike_id":"e1a2f22e-172e-4382-bc0d-80804f971052","system_id":"levelo_inurba_marseille","lat":43.301429,"lon":5.37413,"is_reserved":false,"is_disabled":false,"rental_uris":{"android":"levelo://app?vid=e1a2f22e-172e-4382-bc0d-80804f971052","ios":"levelo://app?vid=e1a2f22e-172e-4382-bc0d-80804f971052"},"vehicle_type_id":"4","last_reported":1712408778,"current_range_meters":4800,"station_id":"ce4bgs92rcd13ifvqcc0","pricing_plan_id":"cebpf4jnsgd1na2vs0mg"},{"bike_id":"149560a7-b8c5-4ec7-9803-5a8f2f407831","system_id":"levelo_inurba_marseille","lat":43.302784,"lon":5.377158,"is_reserved":false,"is_disabled":false,"rental_uris":{"android":"levelo://app?vid=149560a7-b8c5-4ec7-9803-5a8f2f407831","ios":"levelo://app?vid=149560a7-b8c5-4ec7-9803-5a8f2f407831"},"vehicle_type_id":"4","last_reported":1712408778,"current_range_meters":31600,"station_id":"ce4bguh2rcd13ifvqcj0","pricing_plan_id":"cebpf4jnsgd1na2vs0mg"},{"bike_id":"19bfcd94-5c72-4d00-99b5-466f03a08eb2","system_id":"levelo_inurba_marseille","lat":43.302784,"lon":5.377158,"is_reserved":false,"is_disabled":false,"rental_uris":{"android":"levelo://app?vid=19bfcd94-5c72-4d00-99b5-466f03a08eb2","ios":"levelo://app?vid=19bfcd94-5c72-4d00-99b5-466f03a08eb2"},"vehicle_type_id":"4","last_reported":1712408778,"current_range_meters":20400,"station_id":"ce4bguh2rcd13ifvqcj0","pricing_plan_id":"cebpf4jnsgd1na2vs0mg"},{"bike_id":"c4f2aee7-184d-4a6b-b382-b7d5128484ab","system_id":"levelo_inurba_marseille","lat":43.30143,"lon":5.37413,"is_reserved":false,"is_disabled":false,"rental_uris":{"android":"levelo://app?vid=c4f2aee7-184d-4a6b-b382-b7d5128484ab","ios":"levelo://app?vid=c4f2aee7-184d-4a6b-b382-b7d5128484ab"},"vehicle_type_id":"4","last_reported":1712408778,"current_range_meters":15600,"station_id":"ce4bgs92rcd13ifvqcc0","pricing_plan_id":"cebpf4jnsgd1na2vs0mg"},{"bike_id":"5e4f05d8-e44e-4ac9-ac44-dad77203c509","system_id":"levelo_inurba_marseille","lat":43.32416,"lon":5.37395,"is_reserved":false,"is_disabled":false,"rental_uris":{"android":"levelo://app?vid=5e4f05d8-e44e-4ac9-ac44-dad77203c509","ios":"levelo://app?vid=5e4f05d8-e44e-4ac9-ac44-dad77203c509"},"vehicle_type_id":"4","last_reported":1712408778,"current_range_meters":26400,"station_id":"","pricing_plan_id":"cebpf4jnsgd1na2vs0mg"},{"bike_id":"6920eb6a-6545-46c8-ab6f-a7e0189a9542","system_id":"levelo_inurba_marseille","lat":43.319954,"lon":5.381507,"is_reserved":false,"is_disabled":false,"rental_uris":{"android":"levelo://app?vid=6920eb6a-6545-46c8-ab6f-a7e0189a9542","ios":"levelo://app?vid=6920eb6a-6545-46c8-ab6f-a7e0189a9542"},"vehicle_type_id":"4","last_reported":1712408778,"current_range_meters":4000,"station_id":"ce4bhr12rcd13ifvqhpg","pricing_plan_id":"cebpf4jnsgd1na2vs0mg"},{"bike_id":"541efd28-de0e-4d93-b371-801c70947fea","system_id":"levelo_inurba_marseille","lat":43.313571,"lon":5.384829,"is_reserved":false,"is_disabled":false,"rental_uris":{"android":"levelo://app?vid=541efd28-de0e-4d93-b371-801c70947fea","ios":"levelo://app?vid=541efd28-de0e-4d93-b371-801c70947fea"},"vehicle_type_id":"4","last_reported":1712408778,"current_range_meters":10000,"station_id":"ce4bgt92rcd13ifvqcf0","pricing_plan_id":"cebpf4jnsgd1na2vs0mg"},{"bike_id":"8c06428c-92d2-4cfd-8a1d-af29d52b0019","system_id":"levelo_inurba_marseille","lat":43.299724,"lon":5.371829,"is_reserved":false,"is_disabled":false,"rental_uris":{"android":"levelo://app?vid=8c06428c-92d2-4cfd-8a1d-af29d52b0019","ios":"levelo://app?vid=8c06428c-92d2-4cfd-8a1d-af29d52b0019"},"vehicle_type_id":"4","last_reported":1712408778,"current_range_meters":18400,"station_id":"ce4bgr92rcd13ifvqc7g","pricing_plan_id":"cebpf4jnsgd1na2vs0mg"},{"bike_id":"6b7b7133-edea-4558-ae7c-039faecca6d7","system_id":"levelo_inurba_marseille","lat":43.284214,"lon":5.349706,"is_reserved":false,"is_disabled":false,"rental_uris":{"android":"levelo://app?vid=6b7b7133-edea-4558-ae7c-039faecca6d7","ios":"levelo://app?vid=6b7b7133-edea-4558-ae7c-039faecca6d7"},"vehicle_type_id":"4","last_reported":1712408778,"current_range_meters":11600,"station_id":"ce4bhbh2rcd13ifvqepg","pricing_plan_id":"cebpf4jnsgd1na2vs0mg"},{"bike_id":"aaf86ed3-73e8-45aa-bd20-5d58d57fc4fd","system_id":"levelo_inurba_marseille","lat":43.299724,"lon":5.371829,"is_reserved":false,"is_disabled":false,"rental_uris":{"android":"levelo://app?vid=aaf86ed3-73e8-45aa-bd20-5d58d57fc4fd","ios":"levelo://app?vid=aaf86ed3-73e8-45aa-bd20-5d58d57fc4fd"},"vehicle_type_id":"4","last_reported":1712408778,"current_range_meters":18400,"station_id":"ce4bgr92rcd13ifvqc7g","pricing_plan_id":"cebpf4jnsgd1na2vs0mg"},{"bike_id":"ec403a2d-e941-42de-9869-3c67f581d4a0","system_id":"levelo_inurba_marseille","lat":43.29857,"lon":5.36292,"is_reserved":false,"is_disabled":false,"rental_uris":{"android":"levelo://app?vid=ec403a2d-e941-42de-9869-3c67f581d4a0","ios":"levelo://app?vid=ec403a2d-e941-42de-9869-3c67f581d4a0"},"vehicle_type_id":"4","last_reported":1712408778,"current_range_meters":23200,"station_id":"ce4bgpp2rcd13ifvqc3g","pricing_plan_id":"cebpf4jnsgd1na2vs0mg"},{"bike_id":"842e8194-48f6-401c-b397-083a04d0f060","system_id":"levelo_inurba_marseille","lat":43.298433,"lon":5.362774,"is_reserved":false,"is_disabled":false,"rental_uris":{"android":"levelo://app?vid=842e8194-48f6-401c-b397-083a04d0f060","ios":"levelo://app?vid=842e8194-48f6-401c-b397-083a04d0f060"},"vehicle_type_id":"4","last_reported":1712408778,"current_range_meters":31200,"station_id":"ce4bgpp2rcd13ifvqc3g","pricing_plan_id":"cebpf4jnsgd1na2vs0mg"},{"bike_id":"9e3a8986-ceb4-422a-8dd6-225796e3aa43","system_id":"levelo_inurba_marseille","lat":43.29849,"lon":5.36276,"is_reserved":false,"is_disabled":false,"rental_uris":{"android":"levelo://app?vid=9e3a8986-ceb4-422a-8dd6-225796e3aa43","ios":"levelo://app?vid=9e3a8986-ceb4-422a-8dd6-225796e3aa43"},"vehicle_type_id":"4","last_reported":1712408778,"current_range_meters":2000,"station_id":"ce4bgpp2rcd13ifvqc3g","pricing_plan_id":"cebpf4jnsgd1na2vs0mg"},{"bike_id":"ed27a1ba-a8df-4443-a47e-2b168810cfe3","system_id":"levelo_inurba_marseille","lat":43.29847,"lon":5.3627,"is_reserved":false,"is_disabled":false,"rental_uris":{"android":"levelo://app?vid=ed27a1ba-a8df-4443-a47e-2b168810cfe3","ios":"levelo://app?vid=ed27a1ba-a8df-4443-a47e-2b168810cfe3"},"vehicle_type_id":"4","last_reported":1712408778,"current_range_meters":3600,"station_id":"ce4bgpp2rcd13ifvqc3g","pricing_plan_id":"cebpf4jnsgd1na2vs0mg"},{"bike_id":"45aa253a-2f09-4637-b97e-2f416e1e5925","system_id":"levelo_inurba_marseille","lat":43.29846,"lon":5.36273,"is_reserved":false,"is_disabled":false,"rental_uris":{"android":"levelo://app?vid=45aa253a-2f09-4637-b97e-2f416e1e5925","ios":"levelo://app?vid=45aa253a-2f09-4637-b97e-2f416e1e5925"},"vehicle_type_id":"4","last_reported":1712408778,"current_range_meters":10800,"station_id":"ce4bgpp2rcd13ifvqc3g","pricing_plan_id":"cebpf4jnsgd1na2vs0mg"},{"bike_id":"21ab9371-38e6-4e1b-8503-d666a462d780","system_id":"levelo_inurba_marseille","lat":43.298433,"lon":5.362774,"is_reserved":false,"is_disabled":false,"rental_uris":{"android":"levelo://app?vid=21ab9371-38e6-4e1b-8503-d666a462d780","ios":"levelo://app?vid=21ab9371-38e6-4e1b-8503-d666a462d780"},"vehicle_type_id":"4","last_reported":1712408778,"current_range_meters":31200,"station_id":"ce4bgpp2rcd13ifvqc3g","pricing_plan_id":"cebpf4jnsgd1na2vs0mg"},{"bike_id":"9e248219-fc7c-4fee-93bc-e20b49f130d5","system_id":"levelo_inurba_marseille","lat":43.29841,"lon":5.36269,"is_reserved":false,"is_disabled":false,"rental_uris":{"android":"levelo://app?vid=9e248219-fc7c-4fee-93bc-e20b49f130d5","ios":"levelo://app?vid=9e248219-fc7c-4fee-93bc-e20b49f130d5"},"vehicle_type_id":"4","last_reported":1712408778,"current_range_meters":14400,"station_id":"ce4bgpp2rcd13ifvqc3g","pricing_plan_id":"cebpf4jnsgd1na2vs0mg"},{"bike_id":"104ae435-92bf-4bdd-8377-d1ed1b42a6ac","system_id":"levelo_inurba_marseille","lat":43.299243,"lon":5.37481,"is_reserved":false,"is_disabled":false,"rental_uris":{"android":"levelo://app?vid=104ae435-92bf-4bdd-8377-d1ed1b42a6ac","ios":"levelo://app?vid=104ae435-92bf-4bdd-8377-d1ed1b42a6ac"},"vehicle_type_id":"4","last_reported":1712408778,"current_range_meters":1600,"station_id":"ce4bgjh2rcd13ifvqbg0","pricing_plan_id":"cebpf4jnsgd1na2vs0mg"},{"bike_id":"a68df2b0-1fa0-4860-b9b4-34f6cfc2ddc4","system_id":"levelo_inurba_marseille","lat":43.299243,"lon":5.37481,"is_reserved":false,"is_disabled":false,"rental_uris":{"android":"levelo://app?vid=a68df2b0-1fa0-4860-b9b4-34f6cfc2ddc4","ios":"levelo://app?vid=a68df2b0-1fa0-4860-b9b4-34f6cfc2ddc4"},"vehicle_type_id":"4","last_reported":1712408778,"current_range_meters":10800,"station_id":"ce4bgjh2rcd13ifvqbg0","pricing_plan_id":"cebpf4jnsgd1na2vs0mg"},{"bike_id":"3895e79b-114e-4cfd-a5fd-297063bc1c4b","system_id":"levelo_inurba_marseille","lat":43.297794,"lon":5.370888,"is_reserved":false,"is_disabled":false,"rental_uris":{"android":"levelo://app?vid=3895e79b-114e-4cfd-a5fd-297063bc1c4b","ios":"levelo://app?vid=3895e79b-114e-4cfd-a5fd-297063bc1c4b"},"vehicle_type_id":"4","last_reported":1712408778,"current_range_meters":10800,"station_id":"ce4bgop2rcd13ifvqc1g","pricing_plan_id":"cebpf4jnsgd1na2vs0mg"},{"bike_id":"27d84a8c-3e1d-42cc-8b8f-a1cd38a0d6e2","system_id":"levelo_inurba_marseille","lat":43.322872,"lon":5.382756,"is_reserved":false,"is_disabled":false,"rental_uris":{"android":"levelo://app?vid=27d84a8c-3e1d-42cc-8b8f-a1cd38a0d6e2","ios":"levelo://app?vid=27d84a8c-3e1d-42cc-8b8f-a1cd38a0d6e2"},"vehicle_type_id":"4","last_reported":1712408778,"current_range_meters":10400,"station_id":"ce4bhr12rcd13ifvqhqg","pricing_plan_id":"cebpf4jnsgd1na2vs0mg"},{"bike_id":"f9cbb650-aadf-49f6-a3e7-b397f3d0f9e2","system_id":"levelo_inurba_marseille","lat":43.322872,"lon":5.382756,"is_reserved":false,"is_disabled":false,"rental_uris":{"android":"levelo://app?vid=f9cbb650-aadf-49f6-a3e7-b397f3d0f9e2","ios":"levelo://app?vid=f9cbb650-aadf-49f6-a3e7-b397f3d0f9e2"},"vehicle_type_id":"4","last_reported":1712408778,"current_range_meters":6400,"station_id":"ce4bhr12rcd13ifvqhqg","pricing_plan_id":"cebpf4jnsgd1na2vs0mg"},{"bike_id":"9341832e-29cc-450d-89c4-a72177065648","system_id":"levelo_inurba_marseille","lat":43.322872,"lon":5.382756,"is_reserved":false,"is_disabled":false,"rental_uris":{"android":"levelo://app?vid=9341832e-29cc-450d-89c4-a72177065648","ios":"levelo://app?vid=9341832e-29cc-450d-89c4-a72177065648"},"vehicle_type_id":"4","last_reported":1712408778,"current_range_meters":15200,"station_id":"ce4bhr12rcd13ifvqhqg","pricing_plan_id":"cebpf4jnsgd1na2vs0mg"},{"bike_id":"5f3b4b36-aea9-4aeb-bd06-2084946bf6e4","system_id":"levelo_inurba_marseille","lat":43.322872,"lon":5.382756,"is_reserved":false,"is_disabled":false,"rental_uris":{"android":"levelo://app?vid=5f3b4b36-aea9-4aeb-bd06-2084946bf6e4","ios":"levelo://app?vid=5f3b4b36-aea9-4aeb-bd06-2084946bf6e4"},"vehicle_type_id":"4","last_reported":1712408778,"current_range_meters":9600,"station_id":"ce4bhr12rcd13ifvqhqg","pricing_plan_id":"cebpf4jnsgd1na2vs0mg"},{"bike_id":"18651e73-a960-43da-bdae-371146c35a92","system_id":"levelo_inurba_marseille","lat":43.322872,"lon":5.382756,"is_reserved":false,"is_disabled":false,"rental_uris":{"android":"levelo://app?vid=18651e73-a960-43da-bdae-371146c35a92","ios":"levelo://app?vid=18651e73-a960-43da-bdae-371146c35a92"},"vehicle_type_id":"4","last_reported":1712408778,"current_range_meters":31200,"station_id":"ce4bhr12rcd13ifvqhqg","pricing_plan_id":"cebpf4jnsgd1na2vs0mg"},{"bike_id":"12868420-cd43-4d41-9cd6-9b5eadd40bbb","system_id":"levelo_inurba_marseille","lat":43.322872,"lon":5.382756,"is_reserved":false,"is_disabled":false,"rental_uris":{"android":"levelo://app?vid=12868420-cd43-4d41-9cd6-9b5eadd40bbb","ios":"levelo://app?vid=12868420-cd43-4d41-9cd6-9b5eadd40bbb"},"vehicle_type_id":"4","last_reported":1712408778,"current_range_meters":31200,"station_id":"ce4bhr12rcd13ifvqhqg","pricing_plan_id":"cebpf4jnsgd1na2vs0mg"},{"bike_id":"79a09dc1-a136-4553-b035-ca9b20a658e5","system_id":"levelo_inurba_marseille","lat":43.30181,"lon":5.3818,"is_reserved":false,"is_disabled":false,"rental_uris":{"android":"levelo://app?vid=79a09dc1-a136-4553-b035-ca9b20a658e5","ios":"levelo://app?vid=79a09dc1-a136-4553-b035-ca9b20a658e5"},"vehicle_type_id":"4","last_reported":1712408778,"current_range_meters":13200,"station_id":"","pricing_plan_id":"cebpf4jnsgd1na2vs0mg"},{"bike_id":"4880062c-5ee4-44f5-b902-422f2ccb835c","system_id":"levelo_inurba_marseille","lat":43.297163,"lon":5.365866,"is_reserved":false,"is_disabled":false,"rental_uris":{"android":"levelo://app?vid=4880062c-5ee4-44f5-b902-422f2ccb835c","ios":"levelo://app?vid=4880062c-5ee4-44f5-b902-422f2ccb835c"},"vehicle_type_id":"4","last_reported":1712408778,"current_range_meters":0,"station_id":"ce4bgn12rcd13ifvqbt0","pricing_plan_id":"cebpf4jnsgd1na2vs0mg"},{"bike_id":"22c2ad36-b3fa-4edd-ac75-f0fed4bea540","system_id":"levelo_inurba_marseille","lat":43.299724,"lon":5.371829,"is_reserved":false,"is_disabled":false,"rental_uris":{"android":"levelo://app?vid=22c2ad36-b3fa-4edd-ac75-f0fed4bea540","ios":"levelo://app?vid=22c2ad36-b3fa-4edd-ac75-f0fed4bea540"},"vehicle_type_id":"4","last_reported":1712408778,"current_range_meters":16800,"station_id":"ce4bgr92rcd13ifvqc7g","pricing_plan_id":"cebpf4jnsgd1na2vs0mg"},{"bike_id":"597e7197-7cbc-4b76-9522-0c116a73b667","system_id":"levelo_inurba_marseille","lat":43.296131,"lon":5.370791,"is_reserved":false,"is_disabled":false,"rental_uris":{"android":"levelo://app?vid=597e7197-7cbc-4b76-9522-0c116a73b667","ios":"levelo://app?vid=597e7197-7cbc-4b76-9522-0c116a73b667"},"vehicle_type_id":"4","last_reported":1712408778,"current_range_meters":8000,"station_id":"ce4bgnh2rcd13ifvqc0g","pricing_plan_id":"cebpf4jnsgd1na2vs0mg"},{"bike_id":"c2eb51a6-15fc-491e-bd32-9cbd3635d9be","system_id":"levelo_inurba_marseille","lat":43.29573,"lon":5.367355,"is_reserved":false,"is_disabled":false,"rental_uris":{"android":"levelo://app?vid=c2eb51a6-15fc-491e-bd32-9cbd3635d9be","ios":"levelo://app?vid=c2eb51a6-15fc-491e-bd32-9cbd3635d9be"},"vehicle_type_id":"4","last_reported":1712408778,"current_range_meters":12800,"station_id":"ce4bgph2rcd13ifvqc2g","pricing_plan_id":"cebpf4jnsgd1na2vs0mg"},{"bike_id":"4d4032de-cc9a-4f07-b081-42d2904e4c52","system_id":"levelo_inurba_marseille","lat":43.29573,"lon":5.367355,"is_reserved":false,"is_disabled":false,"rental_uris":{"android":"levelo://app?vid=4d4032de-cc9a-4f07-b081-42d2904e4c52","ios":"levelo://app?vid=4d4032de-cc9a-4f07-b081-42d2904e4c52"},"vehicle_type_id":"4","last_reported":1712408778,"current_range_meters":12800,"station_id":"ce4bgph2rcd13ifvqc2g","pricing_plan_id":"cebpf4jnsgd1na2vs0mg"},{"bike_id":"10bdb7ae-d5e6-49a1-95e3-66aff6b59daf","system_id":"levelo_inurba_marseille","lat":43.29583,"lon":5.367411,"is_reserved":false,"is_disabled":false,"rental_uris":{"android":"levelo://app?vid=10bdb7ae-d5e6-49a1-95e3-66aff6b59daf","ios":"levelo://app?vid=10bdb7ae-d5e6-49a1-95e3-66aff6b59daf"},"vehicle_type_id":"4","last_reported":1712408778,"current_range_meters":0,"station_id":"ce4bgph2rcd13ifvqc2g","pricing_plan_id":"cebpf4jnsgd1na2vs0mg"},{"bike_id":"e3406edb-ffff-44c2-8344-c218241ecd67","system_id":"levelo_inurba_marseille","lat":43.29573,"lon":5.367355,"is_reserved":false,"is_disabled":false,"rental_uris":{"android":"levelo://app?vid=e3406edb-ffff-44c2-8344-c218241ecd67","ios":"levelo://app?vid=e3406edb-ffff-44c2-8344-c218241ecd67"},"vehicle_type_id":"4","last_reported":1712408778,"current_range_meters":1200,"station_id":"ce4bgph2rcd13ifvqc2g","pricing_plan_id":"cebpf4jnsgd1na2vs0mg"},{"bike_id":"640b0b26-0f6a-4613-8354-dce55a22fb46","system_id":"levelo_inurba_marseille","lat":43.29573,"lon":5.367355,"is_reserved":false,"is_disabled":false,"rental_uris":{"android":"levelo://app?vid=640b0b26-0f6a-4613-8354-dce55a22fb46","ios":"levelo://app?vid=640b0b26-0f6a-4613-8354-dce55a22fb46"},"vehicle_type_id":"4","last_reported":1712408778,"current_range_meters":25600,"station_id":"ce4bgph2rcd13ifvqc2g","pricing_plan_id":"cebpf4jnsgd1na2vs0mg"},{"bike_id":"c63e6afd-d39b-4b45-8e48-f9fc84f3be7b","system_id":"levelo_inurba_marseille","lat":43.31341,"lon":5.367098,"is_reserved":false,"is_disabled":false,"rental_uris":{"android":"levelo://app?vid=c63e6afd-d39b-4b45-8e48-f9fc84f3be7b","ios":"levelo://app?vid=c63e6afd-d39b-4b45-8e48-f9fc84f3be7b"},"vehicle_type_id":"4","last_reported":1712408778,"current_range_meters":31200,"station_id":"ce4bgr92rcd13ifvqc6g","pricing_plan_id":"cebpf4jnsgd1na2vs0mg"},{"bike_id":"67b8339d-b04a-4f7a-ad57-5b21cf4d4a49","system_id":"levelo_inurba_marseille","lat":43.309589,"lon":5.390258,"is_reserved":false,"is_disabled":false,"rental_uris":{"android":"levelo://app?vid=67b8339d-b04a-4f7a-ad57-5b21cf4d4a49","ios":"levelo://app?vid=67b8339d-b04a-4f7a-ad57-5b21cf4d4a49"},"vehicle_type_id":"4","last_reported":1712408778,"current_range_meters":2800,"station_id":"ce4bgup2rcd13ifvqco0","pricing_plan_id":"cebpf4jnsgd1na2vs0mg"},{"bike_id":"51a4b5fe-181d-4684-9f36-7d7828b8bf87","system_id":"levelo_inurba_marseille","lat":43.311722,"lon":5.387247,"is_reserved":false,"is_disabled":false,"rental_uris":{"android":"levelo://app?vid=51a4b5fe-181d-4684-9f36-7d7828b8bf87","ios":"levelo://app?vid=51a4b5fe-181d-4684-9f36-7d7828b8bf87"},"vehicle_type_id":"4","last_reported":1712408778,"current_range_meters":6800,"station_id":"ce4bgv12rcd13ifvqcp0","pricing_plan_id":"cebpf4jnsgd1na2vs0mg"},{"bike_id":"3b829895-eea0-43aa-900b-e3afa20a292c","system_id":"levelo_inurba_marseille","lat":43.317557,"lon":5.390173,"is_reserved":false,"is_disabled":false,"rental_uris":{"android":"levelo://app?vid=3b829895-eea0-43aa-900b-e3afa20a292c","ios":"levelo://app?vid=3b829895-eea0-43aa-900b-e3afa20a292c"},"vehicle_type_id":"4","last_reported":1712408778,"current_range_meters":14000,"station_id":"ce4bhqp2rcd13ifvqhng","pricing_plan_id":"cebpf4jnsgd1na2vs0mg"},{"bike_id":"3bb369b2-dce5-41aa-bcfc-b91a8e98a9e8","system_id":"levelo_inurba_marseille","lat":43.295748,"lon":5.37522,"is_reserved":false,"is_disabled":false,"rental_uris":{"android":"levelo://app?vid=3bb369b2-dce5-41aa-bcfc-b91a8e98a9e8","ios":"levelo://app?vid=3bb369b2-dce5-41aa-bcfc-b91a8e98a9e8"},"vehicle_type_id":"4","last_reported":1712408778,"current_range_meters":0,"station_id":"ce4bgh92rcd13ifvqb50","pricing_plan_id":"cebpf4jnsgd1na2vs0mg"},{"bike_id":"f7af2e49-8675-494d-85f7-54ff69ebfc36","system_id":"levelo_inurba_marseille","lat":43.298037,"lon":5.381066,"is_reserved":false,"is_disabled":false,"rental_uris":{"android":"levelo://app?vid=f7af2e49-8675-494d-85f7-54ff69ebfc36","ios":"levelo://app?vid=f7af2e49-8675-494d-85f7-54ff69ebfc36"},"vehicle_type_id":"4","last_reported":1712408778,"current_range_meters":3200,"station_id":"ce4bgip2rcd13ifvqbb0","pricing_plan_id":"cebpf4jnsgd1na2vs0mg"},{"bike_id":"1fab5c46-0249-45d0-b66d-53e023628c25","system_id":"levelo_inurba_marseille","lat":43.295748,"lon":5.37522,"is_reserved":false,"is_disabled":false,"rental_uris":{"android":"levelo://app?vid=1fab5c46-0249-45d0-b66d-53e023628c25","ios":"levelo://app?vid=1fab5c46-0249-45d0-b66d-53e023628c25"},"vehicle_type_id":"4","last_reported":1712408778,"current_range_meters":0,"station_id":"ce4bgh92rcd13ifvqb50","pricing_plan_id":"cebpf4jnsgd1na2vs0mg"},{"bike_id":"f5d611ae-ce4a-427c-9347-f9b5e9c8defd","system_id":"levelo_inurba_marseille","lat":43.295748,"lon":5.37522,"is_reserved":false,"is_disabled":false,"rental_uris":{"android":"levelo://app?vid=f5d611ae-ce4a-427c-9347-f9b5e9c8defd","ios":"levelo://app?vid=f5d611ae-ce4a-427c-9347-f9b5e9c8defd"},"vehicle_type_id":"4","last_reported":1712408778,"current_range_meters":0,"station_id":"ce4bgh92rcd13ifvqb50","pricing_plan_id":"cebpf4jnsgd1na2vs0mg"},{"bike_id":"ad1f7864-53a4-4894-81b1-66acfde3d9a5","system_id":"levelo_inurba_marseille","lat":43.292749,"lon":5.368402,"is_reserved":false,"is_disabled":false,"rental_uris":{"android":"levelo://app?vid=ad1f7864-53a4-4894-81b1-66acfde3d9a5","ios":"levelo://app?vid=ad1f7864-53a4-4894-81b1-66acfde3d9a5"},"vehicle_type_id":"4","last_reported":1712408778,"current_range_meters":25600,"station_id":"ce4bhbp2rcd13ifvqesg","pricing_plan_id":"cebpf4jnsgd1na2vs0mg"},{"bike_id":"1c2a3be4-ddcd-4f72-918d-b3798b6895ab","system_id":"levelo_inurba_marseille","lat":43.286961,"lon":5.373785,"is_reserved":false,"is_disabled":false,"rental_uris":{"android":"levelo://app?vid=1c2a3be4-ddcd-4f72-918d-b3798b6895ab","ios":"levelo://app?vid=1c2a3be4-ddcd-4f72-918d-b3798b6895ab"},"vehicle_type_id":"4","last_reported":1712408778,"current_range_meters":17200,"station_id":"ce4bh3p2rcd13ifvqdq0","pricing_plan_id":"cebpf4jnsgd1na2vs0mg"},{"bike_id":"86a73532-faae-4c50-8b9a-b399f3eaeb36","system_id":"levelo_inurba_marseille","lat":43.304274,"lon":5.388873,"is_reserved":false,"is_disabled":false,"rental_uris":{"android":"levelo://app?vid=86a73532-faae-4c50-8b9a-b399f3eaeb36","ios":"levelo://app?vid=86a73532-faae-4c50-8b9a-b399f3eaeb36"},"vehicle_type_id":"4","last_reported":1712408778,"current_range_meters":0,"station_id":"ce4bgk12rcd13ifvqbi0","pricing_plan_id":"cebpf4jnsgd1na2vs0mg"},{"bike_id":"bca21c7d-bd08-4111-a7a2-b239b4802ef3","system_id":"levelo_inurba_marseille","lat":43.29569,"lon":5.37517,"is_reserved":false,"is_disabled":false,"rental_uris":{"android":"levelo://app?vid=bca21c7d-bd08-4111-a7a2-b239b4802ef3","ios":"levelo://app?vid=bca21c7d-bd08-4111-a7a2-b239b4802ef3"},"vehicle_type_id":"4","last_reported":1712408778,"current_range_meters":16000,"station_id":"ce4bgh92rcd13ifvqb50","pricing_plan_id":"cebpf4jnsgd1na2vs0mg"},{"bike_id":"32f4b770-ec38-407d-b3cf-aa5fdadb8c99","system_id":"levelo_inurba_marseille","lat":43.296277,"lon":5.377108,"is_reserved":false,"is_disabled":false,"rental_uris":{"android":"levelo://app?vid=32f4b770-ec38-407d-b3cf-aa5fdadb8c99","ios":"levelo://app?vid=32f4b770-ec38-407d-b3cf-aa5fdadb8c99"},"vehicle_type_id":"4","last_reported":1712408778,"current_range_meters":0,"station_id":"ce4bgi92rcd13ifvqb90","pricing_plan_id":"cebpf4jnsgd1na2vs0mg"},{"bike_id":"4a05d206-95fc-4d0c-b225-450778fa57ac","system_id":"levelo_inurba_marseille","lat":43.29978,"lon":5.38489,"is_reserved":false,"is_disabled":false,"rental_uris":{"android":"levelo://app?vid=4a05d206-95fc-4d0c-b225-450778fa57ac","ios":"levelo://app?vid=4a05d206-95fc-4d0c-b225-450778fa57ac"},"vehicle_type_id":"4","last_reported":1712408778,"current_range_meters":0,"station_id":"ce4bgj92rcd13ifvqbd0","pricing_plan_id":"cebpf4jnsgd1na2vs0mg"},{"bike_id":"9747e17f-2160-4259-a864-82e14f06d429","system_id":"levelo_inurba_marseille","lat":43.295279,"lon":5.375048,"is_reserved":false,"is_disabled":false,"rental_uris":{"android":"levelo://app?vid=9747e17f-2160-4259-a864-82e14f06d429","ios":"levelo://app?vid=9747e17f-2160-4259-a864-82e14f06d429"},"vehicle_type_id":"4","last_reported":1712408778,"current_range_meters":0,"station_id":"ce4bgkp2rcd13ifvqbmg","pricing_plan_id":"cebpf4jnsgd1na2vs0mg"},{"bike_id":"987d0676-a1cb-45c3-ab53-3afb80b2673b","system_id":"levelo_inurba_marseille","lat":43.3236,"lon":5.38877,"is_reserved":false,"is_disabled":false,"rental_uris":{"android":"levelo://app?vid=987d0676-a1cb-45c3-ab53-3afb80b2673b","ios":"levelo://app?vid=987d0676-a1cb-45c3-ab53-3afb80b2673b"},"vehicle_type_id":"4","last_reported":1712408778,"current_range_meters":8400,"station_id":"ce4bhqp2rcd13ifvqhog","pricing_plan_id":"cebpf4jnsgd1na2vs0mg"},{"bike_id":"ef95e66e-e894-4c47-af3b-a3b6eb491c17","system_id":"levelo_inurba_marseille","lat":43.3236,"lon":5.388818,"is_reserved":false,"is_disabled":false,"rental_uris":{"android":"levelo://app?vid=ef95e66e-e894-4c47-af3b-a3b6eb491c17","ios":"levelo://app?vid=ef95e66e-e894-4c47-af3b-a3b6eb491c17"},"vehicle_type_id":"4","last_reported":1712408778,"current_range_meters":30800,"station_id":"ce4bhqp2rcd13ifvqhog","pricing_plan_id":"cebpf4jnsgd1na2vs0mg"},{"bike_id":"ca489e1a-76bb-408d-a414-6afa997460b0","system_id":"levelo_inurba_marseille","lat":43.323629,"lon":5.388801,"is_reserved":false,"is_disabled":false,"rental_uris":{"android":"levelo://app?vid=ca489e1a-76bb-408d-a414-6afa997460b0","ios":"levelo://app?vid=ca489e1a-76bb-408d-a414-6afa997460b0"},"vehicle_type_id":"4","last_reported":1712408778,"current_range_meters":30800,"station_id":"ce4bhqp2rcd13ifvqhog","pricing_plan_id":"cebpf4jnsgd1na2vs0mg"},{"bike_id":"cd93fb89-8201-4e6f-a051-31d7e592475f","system_id":"levelo_inurba_marseille","lat":43.323634,"lon":5.388806,"is_reserved":false,"is_disabled":false,"rental_uris":{"android":"levelo://app?vid=cd93fb89-8201-4e6f-a051-31d7e592475f","ios":"levelo://app?vid=cd93fb89-8201-4e6f-a051-31d7e592475f"},"vehicle_type_id":"4","last_reported":1712408778,"current_range_meters":17200,"station_id":"ce4bhqp2rcd13ifvqhog","pricing_plan_id":"cebpf4jnsgd1na2vs0mg"},{"bike_id":"c7c8d46c-5a4a-4cca-ac41-95e7db9cc197","system_id":"levelo_inurba_marseille","lat":43.323633,"lon":5.388809,"is_reserved":false,"is_disabled":false,"rental_uris":{"android":"levelo://app?vid=c7c8d46c-5a4a-4cca-ac41-95e7db9cc197","ios":"levelo://app?vid=c7c8d46c-5a4a-4cca-ac41-95e7db9cc197"},"vehicle_type_id":"4","last_reported":1712408778,"current_range_meters":29200,"station_id":"ce4bhqp2rcd13ifvqhog","pricing_plan_id":"cebpf4jnsgd1na2vs0mg"},{"bike_id":"941a5afb-594d-47ec-8c61-fec50f33c0ee","system_id":"levelo_inurba_marseille","lat":43.32364,"lon":5.38884,"is_reserved":false,"is_disabled":false,"rental_uris":{"android":"levelo://app?vid=941a5afb-594d-47ec-8c61-fec50f33c0ee","ios":"levelo://app?vid=941a5afb-594d-47ec-8c61-fec50f33c0ee"},"vehicle_type_id":"4","last_reported":1712408778,"current_range_meters":28800,"station_id":"ce4bhqp2rcd13ifvqhog","pricing_plan_id":"cebpf4jnsgd1na2vs0mg"},{"bike_id":"8c53dfd4-294b-4745-8a22-fdf2bf20f21b","system_id":"levelo_inurba_marseille","lat":43.32368,"lon":5.38882,"is_reserved":false,"is_disabled":false,"rental_uris":{"android":"levelo://app?vid=8c53dfd4-294b-4745-8a22-fdf2bf20f21b","ios":"levelo://app?vid=8c53dfd4-294b-4745-8a22-fdf2bf20f21b"},"vehicle_type_id":"4","last_reported":1712408778,"current_range_meters":24000,"station_id":"ce4bhqp2rcd13ifvqhog","pricing_plan_id":"cebpf4jnsgd1na2vs0mg"},{"bike_id":"37fc82cd-0cd0-4c3a-9077-88f5dbd83964","system_id":"levelo_inurba_marseille","lat":43.32368,"lon":5.38883,"is_reserved":false,"is_disabled":false,"rental_uris":{"android":"levelo://app?vid=37fc82cd-0cd0-4c3a-9077-88f5dbd83964","ios":"levelo://app?vid=37fc82cd-0cd0-4c3a-9077-88f5dbd83964"},"vehicle_type_id":"4","last_reported":1712408778,"current_range_meters":18400,"station_id":"ce4bhqp2rcd13ifvqhog","pricing_plan_id":"cebpf4jnsgd1na2vs0mg"},{"bike_id":"ce5ca7b0-ef34-42d5-9b4d-a5c2e9b13507","system_id":"levelo_inurba_marseille","lat":43.32367,"lon":5.388836,"is_reserved":false,"is_disabled":false,"rental_uris":{"android":"levelo://app?vid=ce5ca7b0-ef34-42d5-9b4d-a5c2e9b13507","ios":"levelo://app?vid=ce5ca7b0-ef34-42d5-9b4d-a5c2e9b13507"},"vehicle_type_id":"4","last_reported":1712408778,"current_range_meters":28800,"station_id":"ce4bhqp2rcd13ifvqhog","pricing_plan_id":"cebpf4jnsgd1na2vs0mg"},{"bike_id":"41405296-cc57-4517-995e-a1d8f1fd6e67","system_id":"levelo_inurba_marseille","lat":43.32367,"lon":5.388836,"is_reserved":false,"is_disabled":false,"rental_uris":{"android":"levelo://app?vid=41405296-cc57-4517-995e-a1d8f1fd6e67","ios":"levelo://app?vid=41405296-cc57-4517-995e-a1d8f1fd6e67"},"vehicle_type_id":"4","last_reported":1712408778,"current_range_meters":16800,"station_id":"ce4bhqp2rcd13ifvqhog","pricing_plan_id":"cebpf4jnsgd1na2vs0mg"},{"bike_id":"6e407cc6-9ee8-4d04-9322-de65530ca067","system_id":"levelo_inurba_marseille","lat":43.29602,"lon":5.381084,"is_reserved":false,"is_disabled":false,"rental_uris":{"android":"levelo://app?vid=6e407cc6-9ee8-4d04-9322-de65530ca067","ios":"levelo://app?vid=6e407cc6-9ee8-4d04-9322-de65530ca067"},"vehicle_type_id":"4","last_reported":1712408778,"current_range_meters":19600,"station_id":"ce4bgl12rcd13ifvqbo0","pricing_plan_id":"cebpf4jnsgd1na2vs0mg"},{"bike_id":"30543461-91d0-48ad-b358-58b9b077ad54","system_id":"levelo_inurba_marseille","lat":43.33159,"lon":5.37472,"is_reserved":false,"is_disabled":false,"rental_uris":{"android":"levelo://app?vid=30543461-91d0-48ad-b358-58b9b077ad54","ios":"levelo://app?vid=30543461-91d0-48ad-b358-58b9b077ad54"},"vehicle_type_id":"4","last_reported":1712408778,"current_range_meters":24800,"station_id":"","pricing_plan_id":"cebpf4jnsgd1na2vs0mg"},{"bike_id":"55533e5d-3c1b-4d1e-9b3b-3c0e568b504b","system_id":"levelo_inurba_marseille","lat":43.29601,"lon":5.381084,"is_reserved":false,"is_disabled":false,"rental_uris":{"android":"levelo://app?vid=55533e5d-3c1b-4d1e-9b3b-3c0e568b504b","ios":"levelo://app?vid=55533e5d-3c1b-4d1e-9b3b-3c0e568b504b"},"vehicle_type_id":"4","last_reported":1712408778,"current_range_meters":21600,"station_id":"ce4bgl12rcd13ifvqbo0","pricing_plan_id":"cebpf4jnsgd1na2vs0mg"},{"bike_id":"46c287c8-add0-4ed4-bb47-cddb3d4b0b2e","system_id":"levelo_inurba_marseille","lat":43.293681,"lon":5.374454,"is_reserved":false,"is_disabled":false,"rental_uris":{"android":"levelo://app?vid=46c287c8-add0-4ed4-bb47-cddb3d4b0b2e","ios":"levelo://app?vid=46c287c8-add0-4ed4-bb47-cddb3d4b0b2e"},"vehicle_type_id":"4","last_reported":1712408778,"current_range_meters":23600,"station_id":"ce4bgi12rcd13ifvqb70","pricing_plan_id":"cebpf4jnsgd1na2vs0mg"},{"bike_id":"0f6c5a2c-9be4-4405-88c7-b8e1adc65538","system_id":"levelo_inurba_marseille","lat":43.292749,"lon":5.368402,"is_reserved":false,"is_disabled":false,"rental_uris":{"android":"levelo://app?vid=0f6c5a2c-9be4-4405-88c7-b8e1adc65538","ios":"levelo://app?vid=0f6c5a2c-9be4-4405-88c7-b8e1adc65538"},"vehicle_type_id":"4","last_reported":1712408778,"current_range_meters":29200,"station_id":"ce4bhbp2rcd13ifvqesg","pricing_plan_id":"cebpf4jnsgd1na2vs0mg"},{"bike_id":"65bfceab-dbbc-466b-a87d-1d57c92cbd08","system_id":"levelo_inurba_marseille","lat":43.29306,"lon":5.37177,"is_reserved":false,"is_disabled":false,"rental_uris":{"android":"levelo://app?vid=65bfceab-dbbc-466b-a87d-1d57c92cbd08","ios":"levelo://app?vid=65bfceab-dbbc-466b-a87d-1d57c92cbd08"},"vehicle_type_id":"4","last_reported":1712408778,"current_range_meters":0,"station_id":"ce4bgh92rcd13ifvqb40","pricing_plan_id":"cebpf4jnsgd1na2vs0mg"},{"bike_id":"7991b26f-08e1-4179-a718-ba0c52332cf8","system_id":"levelo_inurba_marseille","lat":43.292331,"lon":5.368478,"is_reserved":false,"is_disabled":false,"rental_uris":{"android":"levelo://app?vid=7991b26f-08e1-4179-a718-ba0c52332cf8","ios":"levelo://app?vid=7991b26f-08e1-4179-a718-ba0c52332cf8"},"vehicle_type_id":"4","last_reported":1712408778,"current_range_meters":6800,"station_id":"ce4bhbp2rcd13ifvqesg","pricing_plan_id":"cebpf4jnsgd1na2vs0mg"},{"bike_id":"ee2589dd-2418-41f7-83ec-16355cce51fc","system_id":"levelo_inurba_marseille","lat":43.292311,"lon":5.360731,"is_reserved":false,"is_disabled":false,"rental_uris":{"android":"levelo://app?vid=ee2589dd-2418-41f7-83ec-16355cce51fc","ios":"levelo://app?vid=ee2589dd-2418-41f7-83ec-16355cce51fc"},"vehicle_type_id":"4","last_reported":1712408778,"current_range_meters":6400,"station_id":"ce4bhbh2rcd13ifvqeqg","pricing_plan_id":"cebpf4jnsgd1na2vs0mg"},{"bike_id":"ef572ef4-0397-4b9b-8ad9-76a307505bb4","system_id":"levelo_inurba_marseille","lat":43.292311,"lon":5.360731,"is_reserved":false,"is_disabled":false,"rental_uris":{"android":"levelo://app?vid=ef572ef4-0397-4b9b-8ad9-76a307505bb4","ios":"levelo://app?vid=ef572ef4-0397-4b9b-8ad9-76a307505bb4"},"vehicle_type_id":"4","last_reported":1712408778,"current_range_meters":30800,"station_id":"ce4bhbh2rcd13ifvqeqg","pricing_plan_id":"cebpf4jnsgd1na2vs0mg"},{"bike_id":"2555246a-c5c2-4037-8188-20601638dc97","system_id":"levelo_inurba_marseille","lat":43.29231,"lon":5.36072,"is_reserved":false,"is_disabled":false,"rental_uris":{"android":"levelo://app?vid=2555246a-c5c2-4037-8188-20601638dc97","ios":"levelo://app?vid=2555246a-c5c2-4037-8188-20601638dc97"},"vehicle_type_id":"4","last_reported":1712408778,"current_range_meters":10400,"station_id":"","pricing_plan_id":"cebpf4jnsgd1na2vs0mg"},{"bike_id":"70791c16-b0df-4b85-9d4c-5a64b7aa8117","system_id":"levelo_inurba_marseille","lat":43.292311,"lon":5.360731,"is_reserved":false,"is_disabled":false,"rental_uris":{"android":"levelo://app?vid=70791c16-b0df-4b85-9d4c-5a64b7aa8117","ios":"levelo://app?vid=70791c16-b0df-4b85-9d4c-5a64b7aa8117"},"vehicle_type_id":"4","last_reported":1712408778,"current_range_meters":18400,"station_id":"ce4bhbh2rcd13ifvqeqg","pricing_plan_id":"cebpf4jnsgd1na2vs0mg"},{"bike_id":"f6511c10-29b2-43b4-8e0b-abd56c04eec1","system_id":"levelo_inurba_marseille","lat":43.284214,"lon":5.349706,"is_reserved":false,"is_disabled":false,"rental_uris":{"android":"levelo://app?vid=f6511c10-29b2-43b4-8e0b-abd56c04eec1","ios":"levelo://app?vid=f6511c10-29b2-43b4-8e0b-abd56c04eec1"},"vehicle_type_id":"4","last_reported":1712408778,"current_range_meters":7200,"station_id":"ce4bhbh2rcd13ifvqepg","pricing_plan_id":"cebpf4jnsgd1na2vs0mg"},{"bike_id":"821fbbca-1fbe-46fd-b670-f2e70a4d5f4b","system_id":"levelo_inurba_marseille","lat":43.284219,"lon":5.3497,"is_reserved":false,"is_disabled":false,"rental_uris":{"android":"levelo://app?vid=821fbbca-1fbe-46fd-b670-f2e70a4d5f4b","ios":"levelo://app?vid=821fbbca-1fbe-46fd-b670-f2e70a4d5f4b"},"vehicle_type_id":"4","last_reported":1712408778,"current_range_meters":21600,"station_id":"ce4bhbh2rcd13ifvqepg","pricing_plan_id":"cebpf4jnsgd1na2vs0mg"},{"bike_id":"3e8974fe-7d81-4f24-b483-45ef65426b3d","system_id":"levelo_inurba_marseille","lat":43.292178,"lon":5.360056,"is_reserved":false,"is_disabled":false,"rental_uris":{"android":"levelo://app?vid=3e8974fe-7d81-4f24-b483-45ef65426b3d","ios":"levelo://app?vid=3e8974fe-7d81-4f24-b483-45ef65426b3d"},"vehicle_type_id":"4","last_reported":1712408778,"current_range_meters":24400,"station_id":"ce4bhbh2rcd13ifvqeo0","pricing_plan_id":"cebpf4jnsgd1na2vs0mg"},{"bike_id":"589051ea-c4dd-47dc-926b-59aecdbb01cb","system_id":"levelo_inurba_marseille","lat":43.292005,"lon":5.357875,"is_reserved":false,"is_disabled":false,"rental_uris":{"android":"levelo://app?vid=589051ea-c4dd-47dc-926b-59aecdbb01cb","ios":"levelo://app?vid=589051ea-c4dd-47dc-926b-59aecdbb01cb"},"vehicle_type_id":"4","last_reported":1712408778,"current_range_meters":6800,"station_id":"ce4bhb12rcd13ifvqel0","pricing_plan_id":"cebpf4jnsgd1na2vs0mg"},{"bike_id":"a94ab50b-746f-4b04-98d2-a06e6ad020df","system_id":"levelo_inurba_marseille","lat":43.291994,"lon":5.357886,"is_reserved":false,"is_disabled":false,"rental_uris":{"android":"levelo://app?vid=a94ab50b-746f-4b04-98d2-a06e6ad020df","ios":"levelo://app?vid=a94ab50b-746f-4b04-98d2-a06e6ad020df"},"vehicle_type_id":"4","last_reported":1712408778,"current_range_meters":28400,"station_id":"ce4bhb12rcd13ifvqel0","pricing_plan_id":"cebpf4jnsgd1na2vs0mg"},{"bike_id":"0ea6cdf9-e233-4a57-9917-3a5f083c790f","system_id":"levelo_inurba_marseille","lat":43.29198,"lon":5.35797,"is_reserved":false,"is_disabled":false,"rental_uris":{"android":"levelo://app?vid=0ea6cdf9-e233-4a57-9917-3a5f083c790f","ios":"levelo://app?vid=0ea6cdf9-e233-4a57-9917-3a5f083c790f"},"vehicle_type_id":"4","last_reported":1712408778,"current_range_meters":10000,"station_id":"ce4bhih2rcd13ifvqfs0","pricing_plan_id":"cebpf4jnsgd1na2vs0mg"},{"bike_id":"ce96f582-bb1e-4444-9a38-bf1b87b2e173","system_id":"levelo_inurba_marseille","lat":43.313291,"lon":5.396838,"is_reserved":false,"is_disabled":false,"rental_uris":{"android":"levelo://app?vid=ce96f582-bb1e-4444-9a38-bf1b87b2e173","ios":"levelo://app?vid=ce96f582-bb1e-4444-9a38-bf1b87b2e173"},"vehicle_type_id":"4","last_reported":1712408778,"current_range_meters":1600,"station_id":"ce4bgvp2rcd13ifvqcu0","pricing_plan_id":"cebpf4jnsgd1na2vs0mg"},{"bike_id":"3c13f25f-242c-4c9a-bc84-ac6bc82adefe","system_id":"levelo_inurba_marseille","lat":43.313291,"lon":5.396838,"is_reserved":false,"is_disabled":false,"rental_uris":{"android":"levelo://app?vid=3c13f25f-242c-4c9a-bc84-ac6bc82adefe","ios":"levelo://app?vid=3c13f25f-242c-4c9a-bc84-ac6bc82adefe"},"vehicle_type_id":"4","last_reported":1712408778,"current_range_meters":7200,"station_id":"ce4bgvp2rcd13ifvqcu0","pricing_plan_id":"cebpf4jnsgd1na2vs0mg"},{"bike_id":"17497b66-ca45-4809-8066-cba2fd9d7703","system_id":"levelo_inurba_marseille","lat":43.26681,"lon":5.382694,"is_reserved":false,"is_disabled":false,"rental_uris":{"android":"levelo://app?vid=17497b66-ca45-4809-8066-cba2fd9d7703","ios":"levelo://app?vid=17497b66-ca45-4809-8066-cba2fd9d7703"},"vehicle_type_id":"4","last_reported":1712408778,"current_range_meters":20000,"station_id":"ce4bhg92rcd13ifvqf90","pricing_plan_id":"cebpf4jnsgd1na2vs0mg"},{"bike_id":"ca01e377-1db9-4cb4-b000-59b60b7cd638","system_id":"levelo_inurba_marseille","lat":43.313291,"lon":5.396838,"is_reserved":false,"is_disabled":false,"rental_uris":{"android":"levelo://app?vid=ca01e377-1db9-4cb4-b000-59b60b7cd638","ios":"levelo://app?vid=ca01e377-1db9-4cb4-b000-59b60b7cd638"},"vehicle_type_id":"4","last_reported":1712408778,"current_range_meters":6000,"station_id":"ce4bgvp2rcd13ifvqcu0","pricing_plan_id":"cebpf4jnsgd1na2vs0mg"},{"bike_id":"b22b2d94-df32-4b0b-970c-cc041d4aaecc","system_id":"levelo_inurba_marseille","lat":43.29536,"lon":5.38543,"is_reserved":false,"is_disabled":false,"rental_uris":{"android":"levelo://app?vid=b22b2d94-df32-4b0b-970c-cc041d4aaecc","ios":"levelo://app?vid=b22b2d94-df32-4b0b-970c-cc041d4aaecc"},"vehicle_type_id":"4","last_reported":1712408778,"current_range_meters":1600,"station_id":"ce4bgih2rcd13ifvqba0","pricing_plan_id":"cebpf4jnsgd1na2vs0mg"},{"bike_id":"af4cd244-7991-4143-95be-460b0a5254db","system_id":"levelo_inurba_marseille","lat":43.29529,"lon":5.385581,"is_reserved":false,"is_disabled":false,"rental_uris":{"android":"levelo://app?vid=af4cd244-7991-4143-95be-460b0a5254db","ios":"levelo://app?vid=af4cd244-7991-4143-95be-460b0a5254db"},"vehicle_type_id":"4","last_reported":1712408778,"current_range_meters":2400,"station_id":"ce4bgih2rcd13ifvqba0","pricing_plan_id":"cebpf4jnsgd1na2vs0mg"},{"bike_id":"f3edbc25-44f0-420c-ada6-0a8a78ec809a","system_id":"levelo_inurba_marseille","lat":43.29529,"lon":5.385581,"is_reserved":false,"is_disabled":false,"rental_uris":{"android":"levelo://app?vid=f3edbc25-44f0-420c-ada6-0a8a78ec809a","ios":"levelo://app?vid=f3edbc25-44f0-420c-ada6-0a8a78ec809a"},"vehicle_type_id":"4","last_reported":1712408778,"current_range_meters":0,"station_id":"ce4bgih2rcd13ifvqba0","pricing_plan_id":"cebpf4jnsgd1na2vs0mg"},{"bike_id":"215da82b-e790-4cb9-8143-cbf8b49f537b","system_id":"levelo_inurba_marseille","lat":43.29529,"lon":5.385581,"is_reserved":false,"is_disabled":false,"rental_uris":{"android":"levelo://app?vid=215da82b-e790-4cb9-8143-cbf8b49f537b","ios":"levelo://app?vid=215da82b-e790-4cb9-8143-cbf8b49f537b"},"vehicle_type_id":"4","last_reported":1712408778,"current_range_meters":2800,"station_id":"ce4bgih2rcd13ifvqba0","pricing_plan_id":"cebpf4jnsgd1na2vs0mg"},{"bike_id":"7a50b89f-cc4d-41ee-b65e-c45f68a76123","system_id":"levelo_inurba_marseille","lat":43.27618,"lon":5.361009,"is_reserved":false,"is_disabled":false,"rental_uris":{"android":"levelo://app?vid=7a50b89f-cc4d-41ee-b65e-c45f68a76123","ios":"levelo://app?vid=7a50b89f-cc4d-41ee-b65e-c45f68a76123"},"vehicle_type_id":"4","last_reported":1712408778,"current_range_meters":23600,"station_id":"ce4bgj92rcd13ifvqbe0","pricing_plan_id":"cebpf4jnsgd1na2vs0mg"},{"bike_id":"d4d52d90-18c8-4a54-b38f-988eb051d07a","system_id":"levelo_inurba_marseille","lat":43.294162,"lon":5.386292,"is_reserved":false,"is_disabled":false,"rental_uris":{"android":"levelo://app?vid=d4d52d90-18c8-4a54-b38f-988eb051d07a","ios":"levelo://app?vid=d4d52d90-18c8-4a54-b38f-988eb051d07a"},"vehicle_type_id":"4","last_reported":1712408778,"current_range_meters":15200,"station_id":"ce4bh2h2rcd13ifvqdh0","pricing_plan_id":"cebpf4jnsgd1na2vs0mg"},{"bike_id":"929fc598-604c-4168-8cbd-6f5161398f86","system_id":"levelo_inurba_marseille","lat":43.294153,"lon":5.386305,"is_reserved":false,"is_disabled":false,"rental_uris":{"android":"levelo://app?vid=929fc598-604c-4168-8cbd-6f5161398f86","ios":"levelo://app?vid=929fc598-604c-4168-8cbd-6f5161398f86"},"vehicle_type_id":"4","last_reported":1712408778,"current_range_meters":13200,"station_id":"ce4bh2h2rcd13ifvqdh0","pricing_plan_id":"cebpf4jnsgd1na2vs0mg"},{"bike_id":"72b208f4-e1a1-48f1-a10a-c42351a9872b","system_id":"levelo_inurba_marseille","lat":43.289184,"lon":5.366408,"is_reserved":false,"is_disabled":false,"rental_uris":{"android":"levelo://app?vid=72b208f4-e1a1-48f1-a10a-c42351a9872b","ios":"levelo://app?vid=72b208f4-e1a1-48f1-a10a-c42351a9872b"},"vehicle_type_id":"4","last_reported":1712408778,"current_range_meters":30000,"station_id":"ce4bhap2rcd13ifvqek0","pricing_plan_id":"cebpf4jnsgd1na2vs0mg"},{"bike_id":"15a83ed2-901d-479a-9b1e-4dbce5cbb104","system_id":"levelo_inurba_marseille","lat":43.289184,"lon":5.366408,"is_reserved":false,"is_disabled":false,"rental_uris":{"android":"levelo://app?vid=15a83ed2-901d-479a-9b1e-4dbce5cbb104","ios":"levelo://app?vid=15a83ed2-901d-479a-9b1e-4dbce5cbb104"},"vehicle_type_id":"4","last_reported":1712408778,"current_range_meters":20400,"station_id":"ce4bhap2rcd13ifvqek0","pricing_plan_id":"cebpf4jnsgd1na2vs0mg"},{"bike_id":"afaff1c5-92ee-48af-9858-8b2283dac4b4","system_id":"levelo_inurba_marseille","lat":43.294236,"lon":5.38659,"is_reserved":false,"is_disabled":false,"rental_uris":{"android":"levelo://app?vid=afaff1c5-92ee-48af-9858-8b2283dac4b4","ios":"levelo://app?vid=afaff1c5-92ee-48af-9858-8b2283dac4b4"},"vehicle_type_id":"4","last_reported":1712408778,"current_range_meters":14000,"station_id":"ce4bh2h2rcd13ifvqdh0","pricing_plan_id":"cebpf4jnsgd1na2vs0mg"},{"bike_id":"f040e63d-8515-44cd-b5cc-e70ad4d35077","system_id":"levelo_inurba_marseille","lat":43.289468,"lon":5.363719,"is_reserved":false,"is_disabled":false,"rental_uris":{"android":"levelo://app?vid=f040e63d-8515-44cd-b5cc-e70ad4d35077","ios":"levelo://app?vid=f040e63d-8515-44cd-b5cc-e70ad4d35077"},"vehicle_type_id":"4","last_reported":1712408778,"current_range_meters":20400,"station_id":"ce4bhc92rcd13ifvqetg","pricing_plan_id":"cebpf4jnsgd1na2vs0mg"},{"bike_id":"008cb153-01d8-461f-aeb4-f11edfdb4d44","system_id":"levelo_inurba_marseille","lat":43.290451,"lon":5.356015,"is_reserved":false,"is_disabled":false,"rental_uris":{"android":"levelo://app?vid=008cb153-01d8-461f-aeb4-f11edfdb4d44","ios":"levelo://app?vid=008cb153-01d8-461f-aeb4-f11edfdb4d44"},"vehicle_type_id":"4","last_reported":1712408778,"current_range_meters":28800,"station_id":"ce4bhch2rcd13ifvqeug","pricing_plan_id":"cebpf4jnsgd1na2vs0mg"},{"bike_id":"adf1d853-ab2d-46f4-8ad2-493872181639","system_id":"levelo_inurba_marseille","lat":43.305706,"lon":5.365654,"is_reserved":false,"is_disabled":false,"rental_uris":{"android":"levelo://app?vid=adf1d853-ab2d-46f4-8ad2-493872181639","ios":"levelo://app?vid=adf1d853-ab2d-46f4-8ad2-493872181639"},"vehicle_type_id":"4","last_reported":1712408778,"current_range_meters":8000,"station_id":"ce4bgs12rcd13ifvqcag","pricing_plan_id":"cebpf4jnsgd1na2vs0mg"},{"bike_id":"137daf39-b6d5-4240-bcf3-f65bd24036d8","system_id":"levelo_inurba_marseille","lat":43.292644,"lon":5.384257,"is_reserved":false,"is_disabled":false,"rental_uris":{"android":"levelo://app?vid=137daf39-b6d5-4240-bcf3-f65bd24036d8","ios":"levelo://app?vid=137daf39-b6d5-4240-bcf3-f65bd24036d8"},"vehicle_type_id":"4","last_reported":1712408778,"current_range_meters":28000,"station_id":"ce4bh692rcd13ifvqea0","pricing_plan_id":"cebpf4jnsgd1na2vs0mg"},{"bike_id":"3eaf8a43-3367-46d8-a477-d35d2b96ee88","system_id":"levelo_inurba_marseille","lat":43.290104,"lon":5.356111,"is_reserved":false,"is_disabled":false,"rental_uris":{"android":"levelo://app?vid=3eaf8a43-3367-46d8-a477-d35d2b96ee88","ios":"levelo://app?vid=3eaf8a43-3367-46d8-a477-d35d2b96ee88"},"vehicle_type_id":"4","last_reported":1712408778,"current_range_meters":29600,"station_id":"ce4bhb92rcd13ifvqen0","pricing_plan_id":"cebpf4jnsgd1na2vs0mg"},{"bike_id":"3bab6736-9ff8-474b-80c4-2d380e50d8c2","system_id":"levelo_inurba_marseille","lat":43.290103,"lon":5.356114,"is_reserved":false,"is_disabled":false,"rental_uris":{"android":"levelo://app?vid=3bab6736-9ff8-474b-80c4-2d380e50d8c2","ios":"levelo://app?vid=3bab6736-9ff8-474b-80c4-2d380e50d8c2"},"vehicle_type_id":"4","last_reported":1712408778,"current_range_meters":6400,"station_id":"ce4bhb92rcd13ifvqen0","pricing_plan_id":"cebpf4jnsgd1na2vs0mg"},{"bike_id":"51b587e2-ed5e-4481-8788-ffcaeb66bcc2","system_id":"levelo_inurba_marseille","lat":43.290103,"lon":5.356114,"is_reserved":false,"is_disabled":false,"rental_uris":{"android":"levelo://app?vid=51b587e2-ed5e-4481-8788-ffcaeb66bcc2","ios":"levelo://app?vid=51b587e2-ed5e-4481-8788-ffcaeb66bcc2"},"vehicle_type_id":"4","last_reported":1712408778,"current_range_meters":10000,"station_id":"ce4bhb92rcd13ifvqen0","pricing_plan_id":"cebpf4jnsgd1na2vs0mg"},{"bike_id":"6b61da68-ca4b-4859-b2f6-5508198a3c3f","system_id":"levelo_inurba_marseille","lat":43.290104,"lon":5.356111,"is_reserved":false,"is_disabled":false,"rental_uris":{"android":"levelo://app?vid=6b61da68-ca4b-4859-b2f6-5508198a3c3f","ios":"levelo://app?vid=6b61da68-ca4b-4859-b2f6-5508198a3c3f"},"vehicle_type_id":"4","last_reported":1712408778,"current_range_meters":30800,"station_id":"ce4bhb92rcd13ifvqen0","pricing_plan_id":"cebpf4jnsgd1na2vs0mg"},{"bike_id":"34104d0c-9bc2-4625-8dd8-8a2f278348b2","system_id":"levelo_inurba_marseille","lat":43.290104,"lon":5.356111,"is_reserved":false,"is_disabled":false,"rental_uris":{"android":"levelo://app?vid=34104d0c-9bc2-4625-8dd8-8a2f278348b2","ios":"levelo://app?vid=34104d0c-9bc2-4625-8dd8-8a2f278348b2"},"vehicle_type_id":"4","last_reported":1712408778,"current_range_meters":22000,"station_id":"ce4bhb92rcd13ifvqen0","pricing_plan_id":"cebpf4jnsgd1na2vs0mg"},{"bike_id":"91ef7db5-a3ab-4b10-85b1-426b8185c641","system_id":"levelo_inurba_marseille","lat":43.290995,"lon":5.381361,"is_reserved":false,"is_disabled":false,"rental_uris":{"android":"levelo://app?vid=91ef7db5-a3ab-4b10-85b1-426b8185c641","ios":"levelo://app?vid=91ef7db5-a3ab-4b10-85b1-426b8185c641"},"vehicle_type_id":"4","last_reported":1712408778,"current_range_meters":12800,"station_id":"ce4bh512rcd13ifvqe2g","pricing_plan_id":"cebpf4jnsgd1na2vs0mg"},{"bike_id":"7ea80fbd-5d75-4e40-aad2-2513edc4d801","system_id":"levelo_inurba_marseille","lat":43.290995,"lon":5.381361,"is_reserved":false,"is_disabled":false,"rental_uris":{"android":"levelo://app?vid=7ea80fbd-5d75-4e40-aad2-2513edc4d801","ios":"levelo://app?vid=7ea80fbd-5d75-4e40-aad2-2513edc4d801"},"vehicle_type_id":"4","last_reported":1712408778,"current_range_meters":400,"station_id":"ce4bh512rcd13ifvqe2g","pricing_plan_id":"cebpf4jnsgd1na2vs0mg"},{"bike_id":"cd1ad660-68c0-41eb-b79b-0ae97ceee3fc","system_id":"levelo_inurba_marseille","lat":43.290995,"lon":5.381361,"is_reserved":false,"is_disabled":false,"rental_uris":{"android":"levelo://app?vid=cd1ad660-68c0-41eb-b79b-0ae97ceee3fc","ios":"levelo://app?vid=cd1ad660-68c0-41eb-b79b-0ae97ceee3fc"},"vehicle_type_id":"4","last_reported":1712408778,"current_range_meters":10800,"station_id":"ce4bh512rcd13ifvqe2g","pricing_plan_id":"cebpf4jnsgd1na2vs0mg"},{"bike_id":"8a2253b3-5896-42c8-808f-815eaaf617d5","system_id":"levelo_inurba_marseille","lat":43.273125,"lon":5.390731,"is_reserved":false,"is_disabled":false,"rental_uris":{"android":"levelo://app?vid=8a2253b3-5896-42c8-808f-815eaaf617d5","ios":"levelo://app?vid=8a2253b3-5896-42c8-808f-815eaaf617d5"},"vehicle_type_id":"4","last_reported":1712408778,"current_range_meters":12400,"station_id":"ce4bhgp2rcd13ifvqfe0","pricing_plan_id":"cebpf4jnsgd1na2vs0mg"},{"bike_id":"2adea0a6-0d86-45e5-ba5c-e39df735f868","system_id":"levelo_inurba_marseille","lat":43.279975,"lon":5.40009,"is_reserved":false,"is_disabled":false,"rental_uris":{"android":"levelo://app?vid=2adea0a6-0d86-45e5-ba5c-e39df735f868","ios":"levelo://app?vid=2adea0a6-0d86-45e5-ba5c-e39df735f868"},"vehicle_type_id":"4","last_reported":1712408778,"current_range_meters":19200,"station_id":"ce4bho92rcd13ifvqh4g","pricing_plan_id":"cebpf4jnsgd1na2vs0mg"},{"bike_id":"18f00e72-24ce-4098-9172-9c0ef691a5b6","system_id":"levelo_inurba_marseille","lat":43.29535,"lon":5.39051,"is_reserved":false,"is_disabled":false,"rental_uris":{"android":"levelo://app?vid=18f00e72-24ce-4098-9172-9c0ef691a5b6","ios":"levelo://app?vid=18f00e72-24ce-4098-9172-9c0ef691a5b6"},"vehicle_type_id":"4","last_reported":1712408778,"current_range_meters":0,"station_id":"","pricing_plan_id":"cebpf4jnsgd1na2vs0mg"},{"bike_id":"03420a97-229e-48e8-9a95-3ffc9a63ae9f","system_id":"levelo_inurba_marseille","lat":43.33025,"lon":5.39035,"is_reserved":false,"is_disabled":false,"rental_uris":{"android":"levelo://app?vid=03420a97-229e-48e8-9a95-3ffc9a63ae9f","ios":"levelo://app?vid=03420a97-229e-48e8-9a95-3ffc9a63ae9f"},"vehicle_type_id":"4","last_reported":1712408778,"current_range_meters":0,"station_id":"ce4bhr92rcd13ifvqhrg","pricing_plan_id":"cebpf4jnsgd1na2vs0mg"},{"bike_id":"c335a38a-fce8-4385-b008-f1b42b3e9ac9","system_id":"levelo_inurba_marseille","lat":43.330442,"lon":5.389148,"is_reserved":false,"is_disabled":false,"rental_uris":{"android":"levelo://app?vid=c335a38a-fce8-4385-b008-f1b42b3e9ac9","ios":"levelo://app?vid=c335a38a-fce8-4385-b008-f1b42b3e9ac9"},"vehicle_type_id":"4","last_reported":1712408778,"current_range_meters":31200,"station_id":"ce4bhr92rcd13ifvqhrg","pricing_plan_id":"cebpf4jnsgd1na2vs0mg"},{"bike_id":"9f61a25e-f451-42ea-b9c7-8842fee8e338","system_id":"levelo_inurba_marseille","lat":43.286039,"lon":5.370679,"is_reserved":false,"is_disabled":false,"rental_uris":{"android":"levelo://app?vid=9f61a25e-f451-42ea-b9c7-8842fee8e338","ios":"levelo://app?vid=9f61a25e-f451-42ea-b9c7-8842fee8e338"},"vehicle_type_id":"4","last_reported":1712408778,"current_range_meters":13200,"station_id":"ce4bht12rcd13ifvqi60","pricing_plan_id":"cebpf4jnsgd1na2vs0mg"},{"bike_id":"a6d35766-e0a9-48f8-93fa-e416dc84cf89","system_id":"levelo_inurba_marseille","lat":43.330442,"lon":5.389148,"is_reserved":false,"is_disabled":false,"rental_uris":{"android":"levelo://app?vid=a6d35766-e0a9-48f8-93fa-e416dc84cf89","ios":"levelo://app?vid=a6d35766-e0a9-48f8-93fa-e416dc84cf89"},"vehicle_type_id":"4","last_reported":1712408778,"current_range_meters":4000,"station_id":"ce4bhr92rcd13ifvqhrg","pricing_plan_id":"cebpf4jnsgd1na2vs0mg"},{"bike_id":"1dce9aa1-5232-4b74-8ce2-5f74a5bbde23","system_id":"levelo_inurba_marseille","lat":43.33113,"lon":5.38923,"is_reserved":false,"is_disabled":false,"rental_uris":{"android":"levelo://app?vid=1dce9aa1-5232-4b74-8ce2-5f74a5bbde23","ios":"levelo://app?vid=1dce9aa1-5232-4b74-8ce2-5f74a5bbde23"},"vehicle_type_id":"4","last_reported":1712408778,"current_range_meters":17200,"station_id":"","pricing_plan_id":"cebpf4jnsgd1na2vs0mg"},{"bike_id":"29a0d463-0b5a-4dee-856d-01c0581c56b4","system_id":"levelo_inurba_marseille","lat":43.33023,"lon":5.39056,"is_reserved":false,"is_disabled":false,"rental_uris":{"android":"levelo://app?vid=29a0d463-0b5a-4dee-856d-01c0581c56b4","ios":"levelo://app?vid=29a0d463-0b5a-4dee-856d-01c0581c56b4"},"vehicle_type_id":"4","last_reported":1712408778,"current_range_meters":2800,"station_id":"ce4bhr92rcd13ifvqhrg","pricing_plan_id":"cebpf4jnsgd1na2vs0mg"},{"bike_id":"3b87a693-8ce6-42e3-8ed8-1fbf50b15285","system_id":"levelo_inurba_marseille","lat":43.33659,"lon":5.37508,"is_reserved":false,"is_disabled":false,"rental_uris":{"android":"levelo://app?vid=3b87a693-8ce6-42e3-8ed8-1fbf50b15285","ios":"levelo://app?vid=3b87a693-8ce6-42e3-8ed8-1fbf50b15285"},"vehicle_type_id":"4","last_reported":1712408778,"current_range_meters":0,"station_id":"","pricing_plan_id":"cebpf4jnsgd1na2vs0mg"},{"bike_id":"ca4800b6-6f4e-4137-aaaf-b6f5a8fb3ec6","system_id":"levelo_inurba_marseille","lat":43.28856,"lon":5.358371,"is_reserved":false,"is_disabled":false,"rental_uris":{"android":"levelo://app?vid=ca4800b6-6f4e-4137-aaaf-b6f5a8fb3ec6","ios":"levelo://app?vid=ca4800b6-6f4e-4137-aaaf-b6f5a8fb3ec6"},"vehicle_type_id":"4","last_reported":1712408778,"current_range_meters":12800,"station_id":"ce4bhb12rcd13ifvqem0","pricing_plan_id":"cebpf4jnsgd1na2vs0mg"},{"bike_id":"1a5d92bb-534c-4bb6-b544-af2876615d84","system_id":"levelo_inurba_marseille","lat":43.2901,"lon":5.381269,"is_reserved":false,"is_disabled":false,"rental_uris":{"android":"levelo://app?vid=1a5d92bb-534c-4bb6-b544-af2876615d84","ios":"levelo://app?vid=1a5d92bb-534c-4bb6-b544-af2876615d84"},"vehicle_type_id":"4","last_reported":1712408778,"current_range_meters":800,"station_id":"ce4bh4p2rcd13ifvqe1g","pricing_plan_id":"cebpf4jnsgd1na2vs0mg"},{"bike_id":"9281da35-351e-480e-936d-e7b2d11e4876","system_id":"levelo_inurba_marseille","lat":43.337091,"lon":5.374566,"is_reserved":false,"is_disabled":false,"rental_uris":{"android":"levelo://app?vid=9281da35-351e-480e-936d-e7b2d11e4876","ios":"levelo://app?vid=9281da35-351e-480e-936d-e7b2d11e4876"},"vehicle_type_id":"4","last_reported":1712408778,"current_range_meters":30000,"station_id":"","pricing_plan_id":"cebpf4jnsgd1na2vs0mg"},{"bike_id":"65858324-ebeb-4f02-bddb-2bcfe71207cc","system_id":"levelo_inurba_marseille","lat":43.309371,"lon":5.401449,"is_reserved":false,"is_disabled":false,"rental_uris":{"android":"levelo://app?vid=65858324-ebeb-4f02-bddb-2bcfe71207cc","ios":"levelo://app?vid=65858324-ebeb-4f02-bddb-2bcfe71207cc"},"vehicle_type_id":"4","last_reported":1712408778,"current_range_meters":2800,"station_id":"ce4bgvp2rcd13ifvqct0","pricing_plan_id":"cebpf4jnsgd1na2vs0mg"},{"bike_id":"979ae432-9ff5-4588-908b-a7c2ac444746","system_id":"levelo_inurba_marseille","lat":43.33757,"lon":5.37464,"is_reserved":false,"is_disabled":false,"rental_uris":{"android":"levelo://app?vid=979ae432-9ff5-4588-908b-a7c2ac444746","ios":"levelo://app?vid=979ae432-9ff5-4588-908b-a7c2ac444746"},"vehicle_type_id":"4","last_reported":1712408778,"current_range_meters":29200,"station_id":"","pricing_plan_id":"cebpf4jnsgd1na2vs0mg"},{"bike_id":"f72f795f-19ad-4612-8b3c-9026f6fb3bb1","system_id":"levelo_inurba_marseille","lat":43.306412,"lon":5.401035,"is_reserved":false,"is_disabled":false,"rental_uris":{"android":"levelo://app?vid=f72f795f-19ad-4612-8b3c-9026f6fb3bb1","ios":"levelo://app?vid=f72f795f-19ad-4612-8b3c-9026f6fb3bb1"},"vehicle_type_id":"4","last_reported":1712408778,"current_range_meters":8000,"station_id":"ce4bh112rcd13ifvqda0","pricing_plan_id":"cebpf4jnsgd1na2vs0mg"},{"bike_id":"32b7a2d7-d304-4b5c-b97b-d6f9fda4565f","system_id":"levelo_inurba_marseille","lat":43.33776,"lon":5.37428,"is_reserved":false,"is_disabled":false,"rental_uris":{"android":"levelo://app?vid=32b7a2d7-d304-4b5c-b97b-d6f9fda4565f","ios":"levelo://app?vid=32b7a2d7-d304-4b5c-b97b-d6f9fda4565f"},"vehicle_type_id":"4","last_reported":1712408778,"current_range_meters":7600,"station_id":"","pricing_plan_id":"cebpf4jnsgd1na2vs0mg"},{"bike_id":"593a4c69-87cc-4700-9886-b856772fa593","system_id":"levelo_inurba_marseille","lat":43.301117,"lon":5.398795,"is_reserved":false,"is_disabled":false,"rental_uris":{"android":"levelo://app?vid=593a4c69-87cc-4700-9886-b856772fa593","ios":"levelo://app?vid=593a4c69-87cc-4700-9886-b856772fa593"},"vehicle_type_id":"4","last_reported":1712408778,"current_range_meters":10000,"station_id":"ce4bh0h2rcd13ifvqd40","pricing_plan_id":"cebpf4jnsgd1na2vs0mg"},{"bike_id":"b62d9640-f25a-49ba-8b82-65e3836042f0","system_id":"levelo_inurba_marseille","lat":43.28727,"lon":5.36078,"is_reserved":false,"is_disabled":false,"rental_uris":{"android":"levelo://app?vid=b62d9640-f25a-49ba-8b82-65e3836042f0","ios":"levelo://app?vid=b62d9640-f25a-49ba-8b82-65e3836042f0"},"vehicle_type_id":"4","last_reported":1712408778,"current_range_meters":14000,"station_id":"cki0cbj6b192h4jlfktg","pricing_plan_id":"cebpf4jnsgd1na2vs0mg"},{"bike_id":"176af191-a381-45cc-9b22-130b84dcca6a","system_id":"levelo_inurba_marseille","lat":43.28727,"lon":5.36078,"is_reserved":false,"is_disabled":false,"rental_uris":{"android":"levelo://app?vid=176af191-a381-45cc-9b22-130b84dcca6a","ios":"levelo://app?vid=176af191-a381-45cc-9b22-130b84dcca6a"},"vehicle_type_id":"4","last_reported":1712408778,"current_range_meters":21200,"station_id":"cki0cbj6b192h4jlfktg","pricing_plan_id":"cebpf4jnsgd1na2vs0mg"},{"bike_id":"86c07aa0-fede-4040-8d09-9d4de896cd8d","system_id":"levelo_inurba_marseille","lat":43.298681,"lon":5.397225,"is_reserved":false,"is_disabled":false,"rental_uris":{"android":"levelo://app?vid=86c07aa0-fede-4040-8d09-9d4de896cd8d","ios":"levelo://app?vid=86c07aa0-fede-4040-8d09-9d4de896cd8d"},"vehicle_type_id":"4","last_reported":1712408778,"current_range_meters":1600,"station_id":"ce4bh0h2rcd13ifvqd50","pricing_plan_id":"cebpf4jnsgd1na2vs0mg"},{"bike_id":"63cc2a92-64b9-4ca8-8d18-d47da138d0d5","system_id":"levelo_inurba_marseille","lat":43.295194,"lon":5.39397,"is_reserved":false,"is_disabled":false,"rental_uris":{"android":"levelo://app?vid=63cc2a92-64b9-4ca8-8d18-d47da138d0d5","ios":"levelo://app?vid=63cc2a92-64b9-4ca8-8d18-d47da138d0d5"},"vehicle_type_id":"4","last_reported":1712408778,"current_range_meters":0,"station_id":"ce4bh292rcd13ifvqdf0","pricing_plan_id":"cebpf4jnsgd1na2vs0mg"},{"bike_id":"e5f0c2ac-a63b-49c4-8302-cdeea681357c","system_id":"levelo_inurba_marseille","lat":43.290188,"lon":5.38623,"is_reserved":false,"is_disabled":false,"rental_uris":{"android":"levelo://app?vid=e5f0c2ac-a63b-49c4-8302-cdeea681357c","ios":"levelo://app?vid=e5f0c2ac-a63b-49c4-8302-cdeea681357c"},"vehicle_type_id":"4","last_reported":1712408778,"current_range_meters":14400,"station_id":"","pricing_plan_id":"cebpf4jnsgd1na2vs0mg"},{"bike_id":"1e5f865f-9d64-44b4-9b2a-d74920ffc083","system_id":"levelo_inurba_marseille","lat":43.302759,"lon":5.400793,"is_reserved":false,"is_disabled":false,"rental_uris":{"android":"levelo://app?vid=1e5f865f-9d64-44b4-9b2a-d74920ffc083","ios":"levelo://app?vid=1e5f865f-9d64-44b4-9b2a-d74920ffc083"},"vehicle_type_id":"4","last_reported":1712408778,"current_range_meters":0,"station_id":"ce4bgvh2rcd13ifvqcs0","pricing_plan_id":"cebpf4jnsgd1na2vs0mg"},{"bike_id":"5621a998-7275-489d-bb12-74f055c3f4aa","system_id":"levelo_inurba_marseille","lat":43.286039,"lon":5.370681,"is_reserved":false,"is_disabled":false,"rental_uris":{"android":"levelo://app?vid=5621a998-7275-489d-bb12-74f055c3f4aa","ios":"levelo://app?vid=5621a998-7275-489d-bb12-74f055c3f4aa"},"vehicle_type_id":"4","last_reported":1712408778,"current_range_meters":14000,"station_id":"ce4bht12rcd13ifvqi60","pricing_plan_id":"cebpf4jnsgd1na2vs0mg"},{"bike_id":"75572a64-f912-41e0-bb72-58ebdcb6eeac","system_id":"levelo_inurba_marseille","lat":43.286039,"lon":5.370681,"is_reserved":false,"is_disabled":false,"rental_uris":{"android":"levelo://app?vid=75572a64-f912-41e0-bb72-58ebdcb6eeac","ios":"levelo://app?vid=75572a64-f912-41e0-bb72-58ebdcb6eeac"},"vehicle_type_id":"4","last_reported":1712408778,"current_range_meters":5600,"station_id":"ce4bht12rcd13ifvqi60","pricing_plan_id":"cebpf4jnsgd1na2vs0mg"},{"bike_id":"cd9bf42c-3e73-491d-9ee4-7da7e2fc10fa","system_id":"levelo_inurba_marseille","lat":43.287168,"lon":5.379275,"is_reserved":false,"is_disabled":false,"rental_uris":{"android":"levelo://app?vid=cd9bf42c-3e73-491d-9ee4-7da7e2fc10fa","ios":"levelo://app?vid=cd9bf42c-3e73-491d-9ee4-7da7e2fc10fa"},"vehicle_type_id":"4","last_reported":1712408778,"current_range_meters":27200,"station_id":"ce4bh9p2rcd13ifvqec0","pricing_plan_id":"cebpf4jnsgd1na2vs0mg"},{"bike_id":"b3c87509-271e-4578-89fc-ea36c578f75c","system_id":"levelo_inurba_marseille","lat":43.297946,"lon":5.404063,"is_reserved":false,"is_disabled":false,"rental_uris":{"android":"levelo://app?vid=b3c87509-271e-4578-89fc-ea36c578f75c","ios":"levelo://app?vid=b3c87509-271e-4578-89fc-ea36c578f75c"},"vehicle_type_id":"4","last_reported":1712408778,"current_range_meters":7200,"station_id":"ce4bh112rcd13ifvqd90","pricing_plan_id":"cebpf4jnsgd1na2vs0mg"},{"bike_id":"e3e7a66c-0d12-442b-a40a-46f03322c963","system_id":"levelo_inurba_marseille","lat":43.316828,"lon":5.404723,"is_reserved":false,"is_disabled":false,"rental_uris":{"android":"levelo://app?vid=e3e7a66c-0d12-442b-a40a-46f03322c963","ios":"levelo://app?vid=e3e7a66c-0d12-442b-a40a-46f03322c963"},"vehicle_type_id":"4","last_reported":1712408778,"current_range_meters":22800,"station_id":"ce4bh012rcd13ifvqd00","pricing_plan_id":"cebpf4jnsgd1na2vs0mg"},{"bike_id":"62ba3afa-80a8-45f2-842a-f4717291368c","system_id":"levelo_inurba_marseille","lat":43.291994,"lon":5.392907,"is_reserved":false,"is_disabled":false,"rental_uris":{"android":"levelo://app?vid=62ba3afa-80a8-45f2-842a-f4717291368c","ios":"levelo://app?vid=62ba3afa-80a8-45f2-842a-f4717291368c"},"vehicle_type_id":"4","last_reported":1712408778,"current_range_meters":0,"station_id":"ce4bh192rcd13ifvqdd0","pricing_plan_id":"cebpf4jnsgd1na2vs0mg"},{"bike_id":"7b499c58-ccd2-4d89-ab1d-c0d227ac475b","system_id":"levelo_inurba_marseille","lat":43.284534,"lon":5.358662,"is_reserved":false,"is_disabled":false,"rental_uris":{"android":"levelo://app?vid=7b499c58-ccd2-4d89-ab1d-c0d227ac475b","ios":"levelo://app?vid=7b499c58-ccd2-4d89-ab1d-c0d227ac475b"},"vehicle_type_id":"4","last_reported":1712408778,"current_range_meters":0,"station_id":"ce4bhah2rcd13ifvqei0","pricing_plan_id":"cebpf4jnsgd1na2vs0mg"},{"bike_id":"a71a1634-f931-4408-8b72-0d062142e805","system_id":"levelo_inurba_marseille","lat":43.286387,"lon":5.351234,"is_reserved":false,"is_disabled":false,"rental_uris":{"android":"levelo://app?vid=a71a1634-f931-4408-8b72-0d062142e805","ios":"levelo://app?vid=a71a1634-f931-4408-8b72-0d062142e805"},"vehicle_type_id":"4","last_reported":1712408778,"current_range_meters":13600,"station_id":"ce4bhch2rcd13ifvqeug","pricing_plan_id":"cebpf4jnsgd1na2vs0mg"},{"bike_id":"bd46ebbb-6da5-46a5-8ec9-c21032a2f62d","system_id":"levelo_inurba_marseille","lat":43.294314,"lon":5.397498,"is_reserved":false,"is_disabled":false,"rental_uris":{"android":"levelo://app?vid=bd46ebbb-6da5-46a5-8ec9-c21032a2f62d","ios":"levelo://app?vid=bd46ebbb-6da5-46a5-8ec9-c21032a2f62d"},"vehicle_type_id":"4","last_reported":1712408778,"current_range_meters":27600,"station_id":"ce4bh3h2rcd13ifvqdo0","pricing_plan_id":"cebpf4jnsgd1na2vs0mg"},{"bike_id":"5eaf97e2-7ad3-4f59-87a1-ec9e29e77340","system_id":"levelo_inurba_marseille","lat":43.28623,"lon":5.3511,"is_reserved":false,"is_disabled":false,"rental_uris":{"android":"levelo://app?vid=5eaf97e2-7ad3-4f59-87a1-ec9e29e77340","ios":"levelo://app?vid=5eaf97e2-7ad3-4f59-87a1-ec9e29e77340"},"vehicle_type_id":"4","last_reported":1712408778,"current_range_meters":23600,"station_id":"ce4bhch2rcd13ifvqeug","pricing_plan_id":"cebpf4jnsgd1na2vs0mg"},{"bike_id":"3abd5683-1570-49a7-8c63-900f5cd3282e","system_id":"levelo_inurba_marseille","lat":43.286204,"lon":5.351113,"is_reserved":false,"is_disabled":false,"rental_uris":{"android":"levelo://app?vid=3abd5683-1570-49a7-8c63-900f5cd3282e","ios":"levelo://app?vid=3abd5683-1570-49a7-8c63-900f5cd3282e"},"vehicle_type_id":"4","last_reported":1712408778,"current_range_meters":20400,"station_id":"ce4bhch2rcd13ifvqeug","pricing_plan_id":"cebpf4jnsgd1na2vs0mg"},{"bike_id":"e4ae577e-505f-45ea-92c0-6f597ed17374","system_id":"levelo_inurba_marseille","lat":43.28621,"lon":5.35109,"is_reserved":false,"is_disabled":false,"rental_uris":{"android":"levelo://app?vid=e4ae577e-505f-45ea-92c0-6f597ed17374","ios":"levelo://app?vid=e4ae577e-505f-45ea-92c0-6f597ed17374"},"vehicle_type_id":"4","last_reported":1712408778,"current_range_meters":2000,"station_id":"ce4bhch2rcd13ifvqeug","pricing_plan_id":"cebpf4jnsgd1na2vs0mg"},{"bike_id":"7dfce84e-f7e2-4bb9-a0fe-abb20cf5ea65","system_id":"levelo_inurba_marseille","lat":43.2862,"lon":5.3511,"is_reserved":false,"is_disabled":false,"rental_uris":{"android":"levelo://app?vid=7dfce84e-f7e2-4bb9-a0fe-abb20cf5ea65","ios":"levelo://app?vid=7dfce84e-f7e2-4bb9-a0fe-abb20cf5ea65"},"vehicle_type_id":"4","last_reported":1712408778,"current_range_meters":2800,"station_id":"ce4bhch2rcd13ifvqeug","pricing_plan_id":"cebpf4jnsgd1na2vs0mg"},{"bike_id":"1f44890b-5d76-4584-bee0-aa9c97a24f48","system_id":"levelo_inurba_marseille","lat":43.286194,"lon":5.351097,"is_reserved":false,"is_disabled":false,"rental_uris":{"android":"levelo://app?vid=1f44890b-5d76-4584-bee0-aa9c97a24f48","ios":"levelo://app?vid=1f44890b-5d76-4584-bee0-aa9c97a24f48"},"vehicle_type_id":"4","last_reported":1712408778,"current_range_meters":24800,"station_id":"ce4bhch2rcd13ifvqeug","pricing_plan_id":"cebpf4jnsgd1na2vs0mg"},{"bike_id":"2466ba66-4eee-49ae-92bb-bdfa8f90241e","system_id":"levelo_inurba_marseille","lat":43.28618,"lon":5.35114,"is_reserved":false,"is_disabled":false,"rental_uris":{"android":"levelo://app?vid=2466ba66-4eee-49ae-92bb-bdfa8f90241e","ios":"levelo://app?vid=2466ba66-4eee-49ae-92bb-bdfa8f90241e"},"vehicle_type_id":"4","last_reported":1712408778,"current_range_meters":9200,"station_id":"ce4bhch2rcd13ifvqeug","pricing_plan_id":"cebpf4jnsgd1na2vs0mg"},{"bike_id":"72950446-5d6c-4b9d-8bdc-0534b259d78c","system_id":"levelo_inurba_marseille","lat":43.286178,"lon":5.3511,"is_reserved":false,"is_disabled":false,"rental_uris":{"android":"levelo://app?vid=72950446-5d6c-4b9d-8bdc-0534b259d78c","ios":"levelo://app?vid=72950446-5d6c-4b9d-8bdc-0534b259d78c"},"vehicle_type_id":"4","last_reported":1712408778,"current_range_meters":18400,"station_id":"ce4bhch2rcd13ifvqeug","pricing_plan_id":"cebpf4jnsgd1na2vs0mg"},{"bike_id":"ef3aa5b4-3d69-457d-aaa2-53882b437fb2","system_id":"levelo_inurba_marseille","lat":43.28618,"lon":5.35106,"is_reserved":false,"is_disabled":false,"rental_uris":{"android":"levelo://app?vid=ef3aa5b4-3d69-457d-aaa2-53882b437fb2","ios":"levelo://app?vid=ef3aa5b4-3d69-457d-aaa2-53882b437fb2"},"vehicle_type_id":"4","last_reported":1712408778,"current_range_meters":2800,"station_id":"ce4bhch2rcd13ifvqeug","pricing_plan_id":"cebpf4jnsgd1na2vs0mg"},{"bike_id":"651f48a6-a9de-452d-a3ab-5ffea7b75373","system_id":"levelo_inurba_marseille","lat":43.28618,"lon":5.35105,"is_reserved":false,"is_disabled":false,"rental_uris":{"android":"levelo://app?vid=651f48a6-a9de-452d-a3ab-5ffea7b75373","ios":"levelo://app?vid=651f48a6-a9de-452d-a3ab-5ffea7b75373"},"vehicle_type_id":"4","last_reported":1712408778,"current_range_meters":24400,"station_id":"ce4bhch2rcd13ifvqeug","pricing_plan_id":"cebpf4jnsgd1na2vs0mg"},{"bike_id":"60b308dc-bdbb-44bf-ba89-4a92098c8d08","system_id":"levelo_inurba_marseille","lat":43.28617,"lon":5.35107,"is_reserved":false,"is_disabled":false,"rental_uris":{"android":"levelo://app?vid=60b308dc-bdbb-44bf-ba89-4a92098c8d08","ios":"levelo://app?vid=60b308dc-bdbb-44bf-ba89-4a92098c8d08"},"vehicle_type_id":"4","last_reported":1712408778,"current_range_meters":10000,"station_id":"ce4bhch2rcd13ifvqeug","pricing_plan_id":"cebpf4jnsgd1na2vs0mg"},{"bike_id":"7bfebc42-b461-48ba-985b-52281040aea3","system_id":"levelo_inurba_marseille","lat":43.28617,"lon":5.35105,"is_reserved":false,"is_disabled":false,"rental_uris":{"android":"levelo://app?vid=7bfebc42-b461-48ba-985b-52281040aea3","ios":"levelo://app?vid=7bfebc42-b461-48ba-985b-52281040aea3"},"vehicle_type_id":"4","last_reported":1712408778,"current_range_meters":8000,"station_id":"ce4bhch2rcd13ifvqeug","pricing_plan_id":"cebpf4jnsgd1na2vs0mg"},{"bike_id":"1c8c60be-0b4b-46b4-82b2-46a1056e75e0","system_id":"levelo_inurba_marseille","lat":43.28617,"lon":5.35105,"is_reserved":false,"is_disabled":false,"rental_uris":{"android":"levelo://app?vid=1c8c60be-0b4b-46b4-82b2-46a1056e75e0","ios":"levelo://app?vid=1c8c60be-0b4b-46b4-82b2-46a1056e75e0"},"vehicle_type_id":"4","last_reported":1712408778,"current_range_meters":0,"station_id":"ce4bhch2rcd13ifvqeug","pricing_plan_id":"cebpf4jnsgd1na2vs0mg"},{"bike_id":"741c02ec-1270-4661-8245-99e5541baec3","system_id":"levelo_inurba_marseille","lat":43.286155,"lon":5.351056,"is_reserved":false,"is_disabled":false,"rental_uris":{"android":"levelo://app?vid=741c02ec-1270-4661-8245-99e5541baec3","ios":"levelo://app?vid=741c02ec-1270-4661-8245-99e5541baec3"},"vehicle_type_id":"4","last_reported":1712408778,"current_range_meters":800,"station_id":"ce4bhch2rcd13ifvqeug","pricing_plan_id":"cebpf4jnsgd1na2vs0mg"},{"bike_id":"d1614cfc-ab02-493f-9303-94c0aee169c0","system_id":"levelo_inurba_marseille","lat":43.28616,"lon":5.35104,"is_reserved":false,"is_disabled":false,"rental_uris":{"android":"levelo://app?vid=d1614cfc-ab02-493f-9303-94c0aee169c0","ios":"levelo://app?vid=d1614cfc-ab02-493f-9303-94c0aee169c0"},"vehicle_type_id":"4","last_reported":1712408778,"current_range_meters":31200,"station_id":"ce4bhch2rcd13ifvqeug","pricing_plan_id":"cebpf4jnsgd1na2vs0mg"},{"bike_id":"15fa8a69-44d1-48a5-830d-b1bda745d53e","system_id":"levelo_inurba_marseille","lat":43.28614,"lon":5.35109,"is_reserved":false,"is_disabled":false,"rental_uris":{"android":"levelo://app?vid=15fa8a69-44d1-48a5-830d-b1bda745d53e","ios":"levelo://app?vid=15fa8a69-44d1-48a5-830d-b1bda745d53e"},"vehicle_type_id":"4","last_reported":1712408778,"current_range_meters":26400,"station_id":"ce4bhch2rcd13ifvqeug","pricing_plan_id":"cebpf4jnsgd1na2vs0mg"},{"bike_id":"7ebaab5f-993f-4bf0-a29c-28e7f6e723b3","system_id":"levelo_inurba_marseille","lat":43.28614,"lon":5.35106,"is_reserved":false,"is_disabled":false,"rental_uris":{"android":"levelo://app?vid=7ebaab5f-993f-4bf0-a29c-28e7f6e723b3","ios":"levelo://app?vid=7ebaab5f-993f-4bf0-a29c-28e7f6e723b3"},"vehicle_type_id":"4","last_reported":1712408778,"current_range_meters":10400,"station_id":"ce4bhch2rcd13ifvqeug","pricing_plan_id":"cebpf4jnsgd1na2vs0mg"},{"bike_id":"731995c1-ef4e-427f-8d1d-625e49b468cf","system_id":"levelo_inurba_marseille","lat":43.28615,"lon":5.35101,"is_reserved":false,"is_disabled":false,"rental_uris":{"android":"levelo://app?vid=731995c1-ef4e-427f-8d1d-625e49b468cf","ios":"levelo://app?vid=731995c1-ef4e-427f-8d1d-625e49b468cf"},"vehicle_type_id":"4","last_reported":1712408778,"current_range_meters":7200,"station_id":"ce4bhch2rcd13ifvqeug","pricing_plan_id":"cebpf4jnsgd1na2vs0mg"},{"bike_id":"7ec2cb30-42bf-4655-874b-9fbccdc0ba25","system_id":"levelo_inurba_marseille","lat":43.28614,"lon":5.35101,"is_reserved":false,"is_disabled":false,"rental_uris":{"android":"levelo://app?vid=7ec2cb30-42bf-4655-874b-9fbccdc0ba25","ios":"levelo://app?vid=7ec2cb30-42bf-4655-874b-9fbccdc0ba25"},"vehicle_type_id":"4","last_reported":1712408778,"current_range_meters":14000,"station_id":"ce4bhch2rcd13ifvqeug","pricing_plan_id":"cebpf4jnsgd1na2vs0mg"},{"bike_id":"b1fc98fb-5b8c-4645-9de4-b12a5cb8bcfe","system_id":"levelo_inurba_marseille","lat":43.285848,"lon":5.350787,"is_reserved":false,"is_disabled":false,"rental_uris":{"android":"levelo://app?vid=b1fc98fb-5b8c-4645-9de4-b12a5cb8bcfe","ios":"levelo://app?vid=b1fc98fb-5b8c-4645-9de4-b12a5cb8bcfe"},"vehicle_type_id":"4","last_reported":1712408778,"current_range_meters":16800,"station_id":"ce4bhch2rcd13ifvqeug","pricing_plan_id":"cebpf4jnsgd1na2vs0mg"},{"bike_id":"e5fd84a8-5228-4c9c-b67b-8332905fe962","system_id":"levelo_inurba_marseille","lat":43.28613,"lon":5.35103,"is_reserved":false,"is_disabled":false,"rental_uris":{"android":"levelo://app?vid=e5fd84a8-5228-4c9c-b67b-8332905fe962","ios":"levelo://app?vid=e5fd84a8-5228-4c9c-b67b-8332905fe962"},"vehicle_type_id":"4","last_reported":1712408778,"current_range_meters":20800,"station_id":"ce4bhch2rcd13ifvqeug","pricing_plan_id":"cebpf4jnsgd1na2vs0mg"},{"bike_id":"1bac264e-98b2-4bce-8009-94c9dcc5ed97","system_id":"levelo_inurba_marseille","lat":43.2861,"lon":5.35102,"is_reserved":false,"is_disabled":false,"rental_uris":{"android":"levelo://app?vid=1bac264e-98b2-4bce-8009-94c9dcc5ed97","ios":"levelo://app?vid=1bac264e-98b2-4bce-8009-94c9dcc5ed97"},"vehicle_type_id":"4","last_reported":1712408778,"current_range_meters":20000,"station_id":"ce4bhch2rcd13ifvqeug","pricing_plan_id":"cebpf4jnsgd1na2vs0mg"},{"bike_id":"96ca3027-828f-4d64-a93c-46d3675158e6","system_id":"levelo_inurba_marseille","lat":43.286043,"lon":5.351157,"is_reserved":false,"is_disabled":false,"rental_uris":{"android":"levelo://app?vid=96ca3027-828f-4d64-a93c-46d3675158e6","ios":"levelo://app?vid=96ca3027-828f-4d64-a93c-46d3675158e6"},"vehicle_type_id":"4","last_reported":1712408778,"current_range_meters":8800,"station_id":"ce4bhch2rcd13ifvqeug","pricing_plan_id":"cebpf4jnsgd1na2vs0mg"},{"bike_id":"453b607b-0917-4ecb-9429-3ce4d3a24dd8","system_id":"levelo_inurba_marseille","lat":43.28606,"lon":5.35102,"is_reserved":false,"is_disabled":false,"rental_uris":{"android":"levelo://app?vid=453b607b-0917-4ecb-9429-3ce4d3a24dd8","ios":"levelo://app?vid=453b607b-0917-4ecb-9429-3ce4d3a24dd8"},"vehicle_type_id":"4","last_reported":1712408778,"current_range_meters":14000,"station_id":"ce4bhch2rcd13ifvqeug","pricing_plan_id":"cebpf4jnsgd1na2vs0mg"},{"bike_id":"51c8fccb-0839-4ac0-ba95-9fd2151bd0a3","system_id":"levelo_inurba_marseille","lat":43.283998,"lon":5.375062,"is_reserved":false,"is_disabled":false,"rental_uris":{"android":"levelo://app?vid=51c8fccb-0839-4ac0-ba95-9fd2151bd0a3","ios":"levelo://app?vid=51c8fccb-0839-4ac0-ba95-9fd2151bd0a3"},"vehicle_type_id":"4","last_reported":1712408778,"current_range_meters":11200,"station_id":"ce4bh412rcd13ifvqds0","pricing_plan_id":"cebpf4jnsgd1na2vs0mg"},{"bike_id":"595a6f2a-c37b-4b5a-ac38-75acc6f59f6f","system_id":"levelo_inurba_marseille","lat":43.28414,"lon":5.37515,"is_reserved":false,"is_disabled":false,"rental_uris":{"android":"levelo://app?vid=595a6f2a-c37b-4b5a-ac38-75acc6f59f6f","ios":"levelo://app?vid=595a6f2a-c37b-4b5a-ac38-75acc6f59f6f"},"vehicle_type_id":"4","last_reported":1712408778,"current_range_meters":31200,"station_id":"ce4bh412rcd13ifvqds0","pricing_plan_id":"cebpf4jnsgd1na2vs0mg"},{"bike_id":"1df90605-a9da-4df5-b322-1199075f6f16","system_id":"levelo_inurba_marseille","lat":43.283998,"lon":5.375062,"is_reserved":false,"is_disabled":false,"rental_uris":{"android":"levelo://app?vid=1df90605-a9da-4df5-b322-1199075f6f16","ios":"levelo://app?vid=1df90605-a9da-4df5-b322-1199075f6f16"},"vehicle_type_id":"4","last_reported":1712408778,"current_range_meters":31200,"station_id":"ce4bh412rcd13ifvqds0","pricing_plan_id":"cebpf4jnsgd1na2vs0mg"},{"bike_id":"f261e14b-7f66-4dc4-9e85-352b98a9f87e","system_id":"levelo_inurba_marseille","lat":43.286595,"lon":5.386795,"is_reserved":false,"is_disabled":false,"rental_uris":{"android":"levelo://app?vid=f261e14b-7f66-4dc4-9e85-352b98a9f87e","ios":"levelo://app?vid=f261e14b-7f66-4dc4-9e85-352b98a9f87e"},"vehicle_type_id":"4","last_reported":1712408778,"current_range_meters":0,"station_id":"ce4bh492rcd13ifvqdug","pricing_plan_id":"cebpf4jnsgd1na2vs0mg"},{"bike_id":"f9f9f4c3-b063-4c70-9cc1-da4201180327","system_id":"levelo_inurba_marseille","lat":43.285235,"lon":5.351485,"is_reserved":false,"is_disabled":false,"rental_uris":{"android":"levelo://app?vid=f9f9f4c3-b063-4c70-9cc1-da4201180327","ios":"levelo://app?vid=f9f9f4c3-b063-4c70-9cc1-da4201180327"},"vehicle_type_id":"4","last_reported":1712408778,"current_range_meters":2400,"station_id":"ce4bhbp2rcd13ifvqerg","pricing_plan_id":"cebpf4jnsgd1na2vs0mg"},{"bike_id":"1f86b126-2b85-4d9d-b815-43d5a7a3bd81","system_id":"levelo_inurba_marseille","lat":43.318912,"lon":5.407341,"is_reserved":false,"is_disabled":false,"rental_uris":{"android":"levelo://app?vid=1f86b126-2b85-4d9d-b815-43d5a7a3bd81","ios":"levelo://app?vid=1f86b126-2b85-4d9d-b815-43d5a7a3bd81"},"vehicle_type_id":"4","last_reported":1712408778,"current_range_meters":7600,"station_id":"ce4bhq12rcd13ifvqhig","pricing_plan_id":"cebpf4jnsgd1na2vs0mg"},{"bike_id":"c5c0d990-19bb-4244-9804-bfc36259b72b","system_id":"levelo_inurba_marseille","lat":43.33717,"lon":5.391857,"is_reserved":false,"is_disabled":false,"rental_uris":{"android":"levelo://app?vid=c5c0d990-19bb-4244-9804-bfc36259b72b","ios":"levelo://app?vid=c5c0d990-19bb-4244-9804-bfc36259b72b"},"vehicle_type_id":"4","last_reported":1712408778,"current_range_meters":24400,"station_id":"ce4bhr92rcd13ifvqhsg","pricing_plan_id":"cebpf4jnsgd1na2vs0mg"},{"bike_id":"d35834c0-96ea-4ba3-9ddd-be7d9bd65bde","system_id":"levelo_inurba_marseille","lat":43.323464,"lon":5.406297,"is_reserved":false,"is_disabled":false,"rental_uris":{"android":"levelo://app?vid=d35834c0-96ea-4ba3-9ddd-be7d9bd65bde","ios":"levelo://app?vid=d35834c0-96ea-4ba3-9ddd-be7d9bd65bde"},"vehicle_type_id":"4","last_reported":1712408778,"current_range_meters":29200,"station_id":"ce4bhq92rcd13ifvqhjg","pricing_plan_id":"cebpf4jnsgd1na2vs0mg"},{"bike_id":"bcb08162-fa7d-4372-b05e-9e8be2db2285","system_id":"levelo_inurba_marseille","lat":43.323464,"lon":5.406297,"is_reserved":false,"is_disabled":false,"rental_uris":{"android":"levelo://app?vid=bcb08162-fa7d-4372-b05e-9e8be2db2285","ios":"levelo://app?vid=bcb08162-fa7d-4372-b05e-9e8be2db2285"},"vehicle_type_id":"4","last_reported":1712408778,"current_range_meters":31200,"station_id":"ce4bhq92rcd13ifvqhjg","pricing_plan_id":"cebpf4jnsgd1na2vs0mg"},{"bike_id":"ec19f8ce-c9ee-450b-a419-773231f14327","system_id":"levelo_inurba_marseille","lat":43.337168,"lon":5.391825,"is_reserved":false,"is_disabled":false,"rental_uris":{"android":"levelo://app?vid=ec19f8ce-c9ee-450b-a419-773231f14327","ios":"levelo://app?vid=ec19f8ce-c9ee-450b-a419-773231f14327"},"vehicle_type_id":"4","last_reported":1712408778,"current_range_meters":31200,"station_id":"ce4bhr92rcd13ifvqhsg","pricing_plan_id":"cebpf4jnsgd1na2vs0mg"},{"bike_id":"e76e4a64-f734-4e7b-a2e0-975011aa301c","system_id":"levelo_inurba_marseille","lat":43.337168,"lon":5.391825,"is_reserved":false,"is_disabled":false,"rental_uris":{"android":"levelo://app?vid=e76e4a64-f734-4e7b-a2e0-975011aa301c","ios":"levelo://app?vid=e76e4a64-f734-4e7b-a2e0-975011aa301c"},"vehicle_type_id":"4","last_reported":1712408778,"current_range_meters":16800,"station_id":"ce4bhr92rcd13ifvqhsg","pricing_plan_id":"cebpf4jnsgd1na2vs0mg"},{"bike_id":"f2b2d2bc-38ab-4854-b6c8-5f74d2e7c2c3","system_id":"levelo_inurba_marseille","lat":43.323464,"lon":5.406297,"is_reserved":false,"is_disabled":false,"rental_uris":{"android":"levelo://app?vid=f2b2d2bc-38ab-4854-b6c8-5f74d2e7c2c3","ios":"levelo://app?vid=f2b2d2bc-38ab-4854-b6c8-5f74d2e7c2c3"},"vehicle_type_id":"4","last_reported":1712408778,"current_range_meters":12800,"station_id":"ce4bhq92rcd13ifvqhjg","pricing_plan_id":"cebpf4jnsgd1na2vs0mg"},{"bike_id":"148fe042-3107-4025-9bec-cdff82c33d5e","system_id":"levelo_inurba_marseille","lat":43.323464,"lon":5.406297,"is_reserved":false,"is_disabled":false,"rental_uris":{"android":"levelo://app?vid=148fe042-3107-4025-9bec-cdff82c33d5e","ios":"levelo://app?vid=148fe042-3107-4025-9bec-cdff82c33d5e"},"vehicle_type_id":"4","last_reported":1712408778,"current_range_meters":24800,"station_id":"ce4bhq92rcd13ifvqhjg","pricing_plan_id":"cebpf4jnsgd1na2vs0mg"},{"bike_id":"5c371ace-8815-47a2-98e4-6b9611565400","system_id":"levelo_inurba_marseille","lat":43.3235,"lon":5.40628,"is_reserved":false,"is_disabled":false,"rental_uris":{"android":"levelo://app?vid=5c371ace-8815-47a2-98e4-6b9611565400","ios":"levelo://app?vid=5c371ace-8815-47a2-98e4-6b9611565400"},"vehicle_type_id":"4","last_reported":1712408778,"current_range_meters":5200,"station_id":"ce4bhq92rcd13ifvqhjg","pricing_plan_id":"cebpf4jnsgd1na2vs0mg"},{"bike_id":"00794e69-f6b6-45d6-843b-9b061fc6d6be","system_id":"levelo_inurba_marseille","lat":43.287884,"lon":5.391435,"is_reserved":false,"is_disabled":false,"rental_uris":{"android":"levelo://app?vid=00794e69-f6b6-45d6-843b-9b061fc6d6be","ios":"levelo://app?vid=00794e69-f6b6-45d6-843b-9b061fc6d6be"},"vehicle_type_id":"4","last_reported":1712408778,"current_range_meters":5200,"station_id":"","pricing_plan_id":"cebpf4jnsgd1na2vs0mg"},{"bike_id":"7a791365-6714-48bd-944e-68657d4e0445","system_id":"levelo_inurba_marseille","lat":43.284793,"lon":5.384113,"is_reserved":false,"is_disabled":false,"rental_uris":{"android":"levelo://app?vid=7a791365-6714-48bd-944e-68657d4e0445","ios":"levelo://app?vid=7a791365-6714-48bd-944e-68657d4e0445"},"vehicle_type_id":"4","last_reported":1712408778,"current_range_meters":20000,"station_id":"ce4bh512rcd13ifvqe3g","pricing_plan_id":"cebpf4jnsgd1na2vs0mg"},{"bike_id":"ea4fc89b-c745-4cbd-8a10-b28947b6a1db","system_id":"levelo_inurba_marseille","lat":43.288497,"lon":5.393089,"is_reserved":false,"is_disabled":false,"rental_uris":{"android":"levelo://app?vid=ea4fc89b-c745-4cbd-8a10-b28947b6a1db","ios":"levelo://app?vid=ea4fc89b-c745-4cbd-8a10-b28947b6a1db"},"vehicle_type_id":"4","last_reported":1712408778,"current_range_meters":4800,"station_id":"ce4bh2p2rcd13ifvqdi0","pricing_plan_id":"cebpf4jnsgd1na2vs0mg"},{"bike_id":"538aca99-0a60-42ee-b511-f7950728b4c0","system_id":"levelo_inurba_marseille","lat":43.288497,"lon":5.393089,"is_reserved":false,"is_disabled":false,"rental_uris":{"android":"levelo://app?vid=538aca99-0a60-42ee-b511-f7950728b4c0","ios":"levelo://app?vid=538aca99-0a60-42ee-b511-f7950728b4c0"},"vehicle_type_id":"4","last_reported":1712408778,"current_range_meters":0,"station_id":"ce4bh2p2rcd13ifvqdi0","pricing_plan_id":"cebpf4jnsgd1na2vs0mg"},{"bike_id":"719dcd02-4db4-4de0-a06c-9ba7cf56269b","system_id":"levelo_inurba_marseille","lat":43.284343,"lon":5.349795,"is_reserved":false,"is_disabled":false,"rental_uris":{"android":"levelo://app?vid=719dcd02-4db4-4de0-a06c-9ba7cf56269b","ios":"levelo://app?vid=719dcd02-4db4-4de0-a06c-9ba7cf56269b"},"vehicle_type_id":"4","last_reported":1712408778,"current_range_meters":4800,"station_id":"ce4bhbh2rcd13ifvqepg","pricing_plan_id":"cebpf4jnsgd1na2vs0mg"},{"bike_id":"c636032c-cfa4-4786-8b0d-60e4c418e4a3","system_id":"levelo_inurba_marseille","lat":43.28429,"lon":5.34994,"is_reserved":false,"is_disabled":false,"rental_uris":{"android":"levelo://app?vid=c636032c-cfa4-4786-8b0d-60e4c418e4a3","ios":"levelo://app?vid=c636032c-cfa4-4786-8b0d-60e4c418e4a3"},"vehicle_type_id":"4","last_reported":1712408778,"current_range_meters":11600,"station_id":"ce4bhbh2rcd13ifvqepg","pricing_plan_id":"cebpf4jnsgd1na2vs0mg"},{"bike_id":"62a265d1-8834-4f07-aec5-6e63284e4704","system_id":"levelo_inurba_marseille","lat":43.28429,"lon":5.34986,"is_reserved":false,"is_disabled":false,"rental_uris":{"android":"levelo://app?vid=62a265d1-8834-4f07-aec5-6e63284e4704","ios":"levelo://app?vid=62a265d1-8834-4f07-aec5-6e63284e4704"},"vehicle_type_id":"4","last_reported":1712408778,"current_range_meters":10800,"station_id":"ce4bhbh2rcd13ifvqepg","pricing_plan_id":"cebpf4jnsgd1na2vs0mg"},{"bike_id":"8023571b-7b6b-4bad-9756-f4f2978e5bc5","system_id":"levelo_inurba_marseille","lat":43.284219,"lon":5.3497,"is_reserved":false,"is_disabled":false,"rental_uris":{"android":"levelo://app?vid=8023571b-7b6b-4bad-9756-f4f2978e5bc5","ios":"levelo://app?vid=8023571b-7b6b-4bad-9756-f4f2978e5bc5"},"vehicle_type_id":"4","last_reported":1712408778,"current_range_meters":12800,"station_id":"ce4bhbh2rcd13ifvqepg","pricing_plan_id":"cebpf4jnsgd1na2vs0mg"},{"bike_id":"9ed78da7-e9be-47da-b365-70c2cc6942d4","system_id":"levelo_inurba_marseille","lat":43.284217,"lon":5.349697,"is_reserved":false,"is_disabled":false,"rental_uris":{"android":"levelo://app?vid=9ed78da7-e9be-47da-b365-70c2cc6942d4","ios":"levelo://app?vid=9ed78da7-e9be-47da-b365-70c2cc6942d4"},"vehicle_type_id":"4","last_reported":1712408778,"current_range_meters":31200,"station_id":"ce4bhbh2rcd13ifvqepg","pricing_plan_id":"cebpf4jnsgd1na2vs0mg"},{"bike_id":"74c7cb56-6657-4d64-9130-b76843f0594b","system_id":"levelo_inurba_marseille","lat":43.284188,"lon":5.350031,"is_reserved":false,"is_disabled":false,"rental_uris":{"android":"levelo://app?vid=74c7cb56-6657-4d64-9130-b76843f0594b","ios":"levelo://app?vid=74c7cb56-6657-4d64-9130-b76843f0594b"},"vehicle_type_id":"4","last_reported":1712408778,"current_range_meters":18000,"station_id":"ce4bhbh2rcd13ifvqepg","pricing_plan_id":"cebpf4jnsgd1na2vs0mg"},{"bike_id":"24a6cd38-e095-4ad1-b5fe-5dd25fbac559","system_id":"levelo_inurba_marseille","lat":43.284217,"lon":5.349697,"is_reserved":false,"is_disabled":false,"rental_uris":{"android":"levelo://app?vid=24a6cd38-e095-4ad1-b5fe-5dd25fbac559","ios":"levelo://app?vid=24a6cd38-e095-4ad1-b5fe-5dd25fbac559"},"vehicle_type_id":"4","last_reported":1712408778,"current_range_meters":31600,"station_id":"ce4bhbh2rcd13ifvqepg","pricing_plan_id":"cebpf4jnsgd1na2vs0mg"},{"bike_id":"a5d6011e-381c-4885-bc25-4cffe6dc6c39","system_id":"levelo_inurba_marseille","lat":43.284214,"lon":5.349706,"is_reserved":false,"is_disabled":false,"rental_uris":{"android":"levelo://app?vid=a5d6011e-381c-4885-bc25-4cffe6dc6c39","ios":"levelo://app?vid=a5d6011e-381c-4885-bc25-4cffe6dc6c39"},"vehicle_type_id":"4","last_reported":1712408778,"current_range_meters":30000,"station_id":"ce4bhbh2rcd13ifvqepg","pricing_plan_id":"cebpf4jnsgd1na2vs0mg"},{"bike_id":"11e466c1-ce6c-4577-a77f-0f70d6ee3c4e","system_id":"levelo_inurba_marseille","lat":43.28423,"lon":5.34988,"is_reserved":false,"is_disabled":false,"rental_uris":{"android":"levelo://app?vid=11e466c1-ce6c-4577-a77f-0f70d6ee3c4e","ios":"levelo://app?vid=11e466c1-ce6c-4577-a77f-0f70d6ee3c4e"},"vehicle_type_id":"4","last_reported":1712408778,"current_range_meters":16000,"station_id":"ce4bhbh2rcd13ifvqepg","pricing_plan_id":"cebpf4jnsgd1na2vs0mg"},{"bike_id":"aba7328b-2269-4b8a-b586-b31d67c47c41","system_id":"levelo_inurba_marseille","lat":43.284219,"lon":5.3497,"is_reserved":false,"is_disabled":false,"rental_uris":{"android":"levelo://app?vid=aba7328b-2269-4b8a-b586-b31d67c47c41","ios":"levelo://app?vid=aba7328b-2269-4b8a-b586-b31d67c47c41"},"vehicle_type_id":"4","last_reported":1712408778,"current_range_meters":4800,"station_id":"ce4bhbh2rcd13ifvqepg","pricing_plan_id":"cebpf4jnsgd1na2vs0mg"},{"bike_id":"a1897dc5-05bd-4413-a8c8-1f887415a32c","system_id":"levelo_inurba_marseille","lat":43.28422,"lon":5.3499,"is_reserved":false,"is_disabled":false,"rental_uris":{"android":"levelo://app?vid=a1897dc5-05bd-4413-a8c8-1f887415a32c","ios":"levelo://app?vid=a1897dc5-05bd-4413-a8c8-1f887415a32c"},"vehicle_type_id":"4","last_reported":1712408778,"current_range_meters":20800,"station_id":"ce4bhbh2rcd13ifvqepg","pricing_plan_id":"cebpf4jnsgd1na2vs0mg"},{"bike_id":"4042e741-1cba-4e4a-90c5-f2b0d7a8d024","system_id":"levelo_inurba_marseille","lat":43.284227,"lon":5.349869,"is_reserved":false,"is_disabled":false,"rental_uris":{"android":"levelo://app?vid=4042e741-1cba-4e4a-90c5-f2b0d7a8d024","ios":"levelo://app?vid=4042e741-1cba-4e4a-90c5-f2b0d7a8d024"},"vehicle_type_id":"4","last_reported":1712408778,"current_range_meters":6800,"station_id":"ce4bhbh2rcd13ifvqepg","pricing_plan_id":"cebpf4jnsgd1na2vs0mg"},{"bike_id":"006cea23-9849-4bd9-8159-7eac2da36164","system_id":"levelo_inurba_marseille","lat":43.284214,"lon":5.349706,"is_reserved":false,"is_disabled":false,"rental_uris":{"android":"levelo://app?vid=006cea23-9849-4bd9-8159-7eac2da36164","ios":"levelo://app?vid=006cea23-9849-4bd9-8159-7eac2da36164"},"vehicle_type_id":"4","last_reported":1712408778,"current_range_meters":9200,"station_id":"ce4bhbh2rcd13ifvqepg","pricing_plan_id":"cebpf4jnsgd1na2vs0mg"},{"bike_id":"09eb833e-ea46-4957-98e9-09a92ef77301","system_id":"levelo_inurba_marseille","lat":43.284214,"lon":5.349706,"is_reserved":false,"is_disabled":false,"rental_uris":{"android":"levelo://app?vid=09eb833e-ea46-4957-98e9-09a92ef77301","ios":"levelo://app?vid=09eb833e-ea46-4957-98e9-09a92ef77301"},"vehicle_type_id":"4","last_reported":1712408778,"current_range_meters":8000,"station_id":"ce4bhbh2rcd13ifvqepg","pricing_plan_id":"cebpf4jnsgd1na2vs0mg"},{"bike_id":"3a7332d9-b211-468b-ab34-1ac33a06f451","system_id":"levelo_inurba_marseille","lat":43.284217,"lon":5.349697,"is_reserved":false,"is_disabled":false,"rental_uris":{"android":"levelo://app?vid=3a7332d9-b211-468b-ab34-1ac33a06f451","ios":"levelo://app?vid=3a7332d9-b211-468b-ab34-1ac33a06f451"},"vehicle_type_id":"4","last_reported":1712408778,"current_range_meters":23600,"station_id":"ce4bhbh2rcd13ifvqepg","pricing_plan_id":"cebpf4jnsgd1na2vs0mg"},{"bike_id":"22d667f9-da73-42cf-889d-7a87cc9e9815","system_id":"levelo_inurba_marseille","lat":43.284219,"lon":5.3497,"is_reserved":false,"is_disabled":false,"rental_uris":{"android":"levelo://app?vid=22d667f9-da73-42cf-889d-7a87cc9e9815","ios":"levelo://app?vid=22d667f9-da73-42cf-889d-7a87cc9e9815"},"vehicle_type_id":"4","last_reported":1712408778,"current_range_meters":22800,"station_id":"ce4bhbh2rcd13ifvqepg","pricing_plan_id":"cebpf4jnsgd1na2vs0mg"},