{"last_updated":1702400806,"ttl":30,"version":"2.2","data":{"bikes":[{"bike_id":"eec14819-ec7e-4ba2-b105-a957666e0cb3","system_id":"levelo_inurba_marseille","lat":43.305712,"lon":5.365641,"is_reserved":false,"is_disabled":false,"rental_uris":{"android":"levelo://app?vid=eec14819-ec7e-4ba2-b105-a957666e0cb3","ios":"levelo://app?vid=eec14819-ec7e-4ba2-b105-a957666e0cb3"},"vehicle_type_id":"4","last_reported":1702400806,"current_range_meters":28800,"station_id":"ce4bgs12rcd13ifvqcag","pricing_plan_id":"free"},{"bike_id":"955e4ab2-16e5-44e8-a986-a2f50ff96c06","system_id":"levelo_inurba_marseille","lat":43.305382,"lon":5.365389,"is_reserved":false,"is_disabled":false,"rental_uris":{"android":"levelo://app?vid=955e4ab2-16e5-44e8-a986-a2f50ff96c06","ios":"levelo://app?vid=955e4ab2-16e5-44e8-a986-a2f50ff96c06"},"vehicle_type_id":"4","last_reported":1702400806,"current_range_meters":30400,"station_id":"","pricing_plan_id":"free"},{"bike_id":"2cc7c1dd-b9e3-4cff-b0c3-61ce8bfb624c","system_id":"levelo_inurba_marseille","lat":43.305706,"lon":5.365654,"is_reserved":false,"is_disabled":false,"rental_uris":{"android":"levelo://app?vid=2cc7c1dd-b9e3-4cff-b0c3-61ce8bfb624c","ios":"levelo://app?vid=2cc7c1dd-b9e3-4cff-b0c3-61ce8bfb624c"},"vehicle_type_id":"4","last_reported":1702400806,"current_range_meters":16400,"station_id":"ce4bgs12rcd13ifvqcag","pricing_plan_id":"free"},{"bike_id":"dc68debd-6203-4696-b9a5-55eea857c5a0","system_id":"levelo_inurba_marseille","lat":43.31718,"lon":5.37699,"is_reserved":false,"is_disabled":false,"rental_uris":{"android":"levelo://app?vid=dc68debd-6203-4696-b9a5-55eea857c5a0","ios":"levelo://app?vid=dc68debd-6203-4696-b9a5-55eea857c5a0"},"vehicle_type_id":"4","last_reported":1702400806,"current_range_meters":27200,"station_id":"ce4bgth2rcd13ifvqch0","pricing_plan_id":"free"},{"bike_id":"8f81567e-2bb9-4924-a767-22ab3d053b21","system_id":"levelo_inurba_marseille","lat":43.303162,"lon":5.373917,"is_reserved":false,"is_disabled":false,"rental_uris":{"android":"levelo://app?vid=8f81567e-2bb9-4924-a767-22ab3d053b21","ios":"levelo://app?vid=8f81567e-2bb9-4924-a767-22ab3d053b21"},"vehicle_type_id":"4","last_reported":1702400806,"current_range_meters":0,"station_id":"","pricing_plan_id":"free"},{"bike_id":"07b8c697-0531-4e84-9f67-850109596542","system_id":"levelo_inurba_marseille","lat":43.30143,"lon":5.37413,"is_reserved":false,"is_disabled":false,"rental_uris":{"android":"levelo://app?vid=07b8c697-0531-4e84-9f67-850109596542","ios":"levelo://app?vid=07b8c697-0531-4e84-9f67-850109596542"},"vehicle_type_id":"4","last_reported":1702400806,"current_range_meters":6800,"station_id":"ce4bgs92rcd13ifvqcc0","pricing_plan_id":"free"},{"bike_id":"601f4282-03fe-44ab-8c03-95394a05b49b","system_id":"levelo_inurba_marseille","lat":43.29992,"lon":5.3684,"is_reserved":false,"is_disabled":false,"rental_uris":{"android":"levelo://app?vid=601f4282-03fe-44ab-8c03-95394a05b49b","ios":"levelo://app?vid=601f4282-03fe-44ab-8c03-95394a05b49b"},"vehicle_type_id":"4","last_reported":1702400806,"current_range_meters":0,"station_id":"ce4bgip2rcd13ifvqbb0","pricing_plan_id":"free"},{"bike_id":"77a6c46d-d898-4e4f-8846-efa91689c7f0","system_id":"levelo_inurba_marseille","lat":43.302006,"lon":5.38065,"is_reserved":false,"is_disabled":false,"rental_uris":{"android":"levelo://app?vid=77a6c46d-d898-4e4f-8846-efa91689c7f0","ios":"levelo://app?vid=77a6c46d-d898-4e4f-8846-efa91689c7f0"},"vehicle_type_id":"4","last_reported":1702400806,"current_range_meters":0,"station_id":"","pricing_plan_id":"free"},{"bike_id":"5e878091-cdf0-425c-804c-bec19994e681","system_id":"levelo_inurba_marseille","lat":43.297794,"lon":5.370888,"is_reserved":false,"is_disabled":false,"rental_uris":{"android":"levelo://app?vid=5e878091-cdf0-425c-804c-bec19994e681","ios":"levelo://app?vid=5e878091-cdf0-425c-804c-bec19994e681"},"vehicle_type_id":"4","last_reported":1702400806,"current_range_meters":6800,"station_id":"ce4bgop2rcd13ifvqc1g","pricing_plan_id":"free"},{"bike_id":"fcc3a406-8219-4d19-a1b2-f9d5a2feeb13","system_id":"levelo_inurba_marseille","lat":43.322872,"lon":5.382756,"is_reserved":false,"is_disabled":false,"rental_uris":{"android":"levelo://app?vid=fcc3a406-8219-4d19-a1b2-f9d5a2feeb13","ios":"levelo://app?vid=fcc3a406-8219-4d19-a1b2-f9d5a2feeb13"},"vehicle_type_id":"4","last_reported":1702400806,"current_range_meters":28000,"station_id":"ce4bhr12rcd13ifvqhqg","pricing_plan_id":"free"},{"bike_id":"04b330e5-aa5b-455c-8b43-4a869b4c9a43","system_id":"levelo_inurba_marseille","lat":43.322872,"lon":5.382756,"is_reserved":false,"is_disabled":false,"rental_uris":{"android":"levelo://app?vid=04b330e5-aa5b-455c-8b43-4a869b4c9a43","ios":"levelo://app?vid=04b330e5-aa5b-455c-8b43-4a869b4c9a43"},"vehicle_type_id":"4","last_reported":1702400806,"current_range_meters":11200,"station_id":"ce4bhr12rcd13ifvqhqg","pricing_plan_id":"free"},{"bike_id":"ef62d099-880c-48b4-a857-30e56a94bd16","system_id":"levelo_inurba_marseille","lat":43.32288,"lon":5.38271,"is_reserved":false,"is_disabled":false,"rental_uris":{"android":"levelo://app?vid=ef62d099-880c-48b4-a857-30e56a94bd16","ios":"levelo://app?vid=ef62d099-880c-48b4-a857-30e56a94bd16"},"vehicle_type_id":"4","last_reported":1702400806,"current_range_meters":6800,"station_id":"ce4bhr12rcd13ifvqhqg","pricing_plan_id":"free"},{"bike_id":"7a878ee5-6910-45dd-b3bd-722059d35da7","system_id":"levelo_inurba_marseille","lat":43.29787,"lon":5.37679,"is_reserved":false,"is_disabled":false,"rental_uris":{"android":"levelo://app?vid=7a878ee5-6910-45dd-b3bd-722059d35da7","ios":"levelo://app?vid=7a878ee5-6910-45dd-b3bd-722059d35da7"},"vehicle_type_id":"4","last_reported":1702400806,"current_range_meters":12400,"station_id":"","pricing_plan_id":"free"},{"bike_id":"d999c5d2-307e-4bcd-b46c-bf4603e5182c","system_id":"levelo_inurba_marseille","lat":43.298037,"lon":5.381066,"is_reserved":false,"is_disabled":false,"rental_uris":{"android":"levelo://app?vid=d999c5d2-307e-4bcd-b46c-bf4603e5182c","ios":"levelo://app?vid=d999c5d2-307e-4bcd-b46c-bf4603e5182c"},"vehicle_type_id":"4","last_reported":1702400806,"current_range_meters":800,"station_id":"ce4bgip2rcd13ifvqbb0","pricing_plan_id":"free"},{"bike_id":"4cf801f3-4fb8-4acf-953a-9f1b058e8b6d","system_id":"levelo_inurba_marseille","lat":43.299707,"lon":5.384859,"is_reserved":false,"is_disabled":false,"rental_uris":{"android":"levelo://app?vid=4cf801f3-4fb8-4acf-953a-9f1b058e8b6d","ios":"levelo://app?vid=4cf801f3-4fb8-4acf-953a-9f1b058e8b6d"},"vehicle_type_id":"4","last_reported":1702400806,"current_range_meters":0,"station_id":"ce4bgj92rcd13ifvqbd0","pricing_plan_id":"free"},{"bike_id":"8e406837-e4ca-4e42-9572-8d3b42955a5e","system_id":"levelo_inurba_marseille","lat":43.299724,"lon":5.384848,"is_reserved":false,"is_disabled":false,"rental_uris":{"android":"levelo://app?vid=8e406837-e4ca-4e42-9572-8d3b42955a5e","ios":"levelo://app?vid=8e406837-e4ca-4e42-9572-8d3b42955a5e"},"vehicle_type_id":"4","last_reported":1702400806,"current_range_meters":0,"station_id":"ce4bgj92rcd13ifvqbd0","pricing_plan_id":"free"},{"bike_id":"5aa1e9f8-834d-4e92-9586-88cc815e8ffe","system_id":"levelo_inurba_marseille","lat":43.299717,"lon":5.384845,"is_reserved":false,"is_disabled":false,"rental_uris":{"android":"levelo://app?vid=5aa1e9f8-834d-4e92-9586-88cc815e8ffe","ios":"levelo://app?vid=5aa1e9f8-834d-4e92-9586-88cc815e8ffe"},"vehicle_type_id":"4","last_reported":1702400806,"current_range_meters":1600,"station_id":"ce4bgj92rcd13ifvqbd0","pricing_plan_id":"free"},{"bike_id":"c08f8722-80df-4684-81d4-ec7797af0f85","system_id":"levelo_inurba_marseille","lat":43.32367,"lon":5.38895,"is_reserved":false,"is_disabled":false,"rental_uris":{"android":"levelo://app?vid=c08f8722-80df-4684-81d4-ec7797af0f85","ios":"levelo://app?vid=c08f8722-80df-4684-81d4-ec7797af0f85"},"vehicle_type_id":"4","last_reported":1702400806,"current_range_meters":25600,"station_id":"ce4bhqp2rcd13ifvqhog","pricing_plan_id":"free"},{"bike_id":"980baa01-33e0-4775-9d60-a4261ea5f18a","system_id":"levelo_inurba_marseille","lat":43.300852,"lon":5.390859,"is_reserved":false,"is_disabled":false,"rental_uris":{"android":"levelo://app?vid=980baa01-33e0-4775-9d60-a4261ea5f18a","ios":"levelo://app?vid=980baa01-33e0-4775-9d60-a4261ea5f18a"},"vehicle_type_id":"4","last_reported":1702400806,"current_range_meters":19200,"station_id":"ce4bh192rcd13ifvqdb0","pricing_plan_id":"free"},{"bike_id":"3e1ec29c-d7d5-4ab9-9523-bf220f6188a7","system_id":"levelo_inurba_marseille","lat":43.291675,"lon":5.371583,"is_reserved":false,"is_disabled":false,"rental_uris":{"android":"levelo://app?vid=3e1ec29c-d7d5-4ab9-9523-bf220f6188a7","ios":"levelo://app?vid=3e1ec29c-d7d5-4ab9-9523-bf220f6188a7"},"vehicle_type_id":"4","last_reported":1702400806,"current_range_meters":7200,"station_id":"ce4bha92rcd13ifvqeh0","pricing_plan_id":"free"},{"bike_id":"9043a1cc-9a78-4d4f-83ca-616caae96ba0","system_id":"levelo_inurba_marseille","lat":43.29867,"lon":5.38903,"is_reserved":false,"is_disabled":false,"rental_uris":{"android":"levelo://app?vid=9043a1cc-9a78-4d4f-83ca-616caae96ba0","ios":"levelo://app?vid=9043a1cc-9a78-4d4f-83ca-616caae96ba0"},"vehicle_type_id":"4","last_reported":1702400806,"current_range_meters":6000,"station_id":"","pricing_plan_id":"free"},{"bike_id":"b979be4a-1a3c-42e4-b8f1-6e88ece06245","system_id":"levelo_inurba_marseille","lat":43.313291,"lon":5.396838,"is_reserved":false,"is_disabled":false,"rental_uris":{"android":"levelo://app?vid=b979be4a-1a3c-42e4-b8f1-6e88ece06245","ios":"levelo://app?vid=b979be4a-1a3c-42e4-b8f1-6e88ece06245"},"vehicle_type_id":"4","last_reported":1702400806,"current_range_meters":5600,"station_id":"ce4bgvp2rcd13ifvqcu0","pricing_plan_id":"free"},{"bike_id":"7a429760-18ad-4983-8cdf-331e19791fba","system_id":"levelo_inurba_marseille","lat":43.313291,"lon":5.396838,"is_reserved":false,"is_disabled":false,"rental_uris":{"android":"levelo://app?vid=7a429760-18ad-4983-8cdf-331e19791fba","ios":"levelo://app?vid=7a429760-18ad-4983-8cdf-331e19791fba"},"vehicle_type_id":"4","last_reported":1702400806,"current_range_meters":14000,"station_id":"ce4bgvp2rcd13ifvqcu0","pricing_plan_id":"free"},{"bike_id":"6531a93b-e120-4690-b42b-56b4bbbd8a30","system_id":"levelo_inurba_marseille","lat":43.313291,"lon":5.396838,"is_reserved":false,"is_disabled":false,"rental_uris":{"android":"levelo://app?vid=6531a93b-e120-4690-b42b-56b4bbbd8a30","ios":"levelo://app?vid=6531a93b-e120-4690-b42b-56b4bbbd8a30"},"vehicle_type_id":"4","last_reported":1702400806,"current_range_meters":14400,"station_id":"ce4bgvp2rcd13ifvqcu0","pricing_plan_id":"free"},{"bike_id":"10e00824-d87c-40ac-b9b7-63eb06b113e2","system_id":"levelo_inurba_marseille","lat":43.313291,"lon":5.396838,"is_reserved":false,"is_disabled":false,"rental_uris":{"android":"levelo://app?vid=10e00824-d87c-40ac-b9b7-63eb06b113e2","ios":"levelo://app?vid=10e00824-d87c-40ac-b9b7-63eb06b113e2"},"vehicle_type_id":"4","last_reported":1702400806,"current_range_meters":13200,"station_id":"ce4bgvp2rcd13ifvqcu0","pricing_plan_id":"free"},{"bike_id":"306342c5-b97d-46b1-b650-2d6de57a74fa","system_id":"levelo_inurba_marseille","lat":43.29416,"lon":5.38629,"is_reserved":false,"is_disabled":false,"rental_uris":{"android":"levelo://app?vid=306342c5-b97d-46b1-b650-2d6de57a74fa","ios":"levelo://app?vid=306342c5-b97d-46b1-b650-2d6de57a74fa"},"vehicle_type_id":"4","last_reported":1702400806,"current_range_meters":0,"station_id":"ce4bh2h2rcd13ifvqdh0","pricing_plan_id":"free"},{"bike_id":"9a5b7c98-fed8-403f-9447-a56023081b61","system_id":"levelo_inurba_marseille","lat":43.294162,"lon":5.386292,"is_reserved":false,"is_disabled":false,"rental_uris":{"android":"levelo://app?vid=9a5b7c98-fed8-403f-9447-a56023081b61","ios":"levelo://app?vid=9a5b7c98-fed8-403f-9447-a56023081b61"},"vehicle_type_id":"4","last_reported":1702400806,"current_range_meters":16800,"station_id":"ce4bh2h2rcd13ifvqdh0","pricing_plan_id":"free"},{"bike_id":"7837ae0a-24f9-46e1-a30a-4f7f63a4ceed","system_id":"levelo_inurba_marseille","lat":43.289184,"lon":5.366408,"is_reserved":false,"is_disabled":false,"rental_uris":{"android":"levelo://app?vid=7837ae0a-24f9-46e1-a30a-4f7f63a4ceed","ios":"levelo://app?vid=7837ae0a-24f9-46e1-a30a-4f7f63a4ceed"},"vehicle_type_id":"4","last_reported":1702400806,"current_range_meters":16400,"station_id":"ce4bhap2rcd13ifvqek0","pricing_plan_id":"free"},{"bike_id":"2f370ae7-3cfd-4855-a494-bba48f8c6264","system_id":"levelo_inurba_marseille","lat":43.289184,"lon":5.366408,"is_reserved":false,"is_disabled":false,"rental_uris":{"android":"levelo://app?vid=2f370ae7-3cfd-4855-a494-bba48f8c6264","ios":"levelo://app?vid=2f370ae7-3cfd-4855-a494-bba48f8c6264"},"vehicle_type_id":"4","last_reported":1702400806,"current_range_meters":20000,"station_id":"ce4bhap2rcd13ifvqek0","pricing_plan_id":"free"},{"bike_id":"74cd969f-17d8-442e-9242-f3edc2f89a0d","system_id":"levelo_inurba_marseille","lat":43.29265,"lon":5.384473,"is_reserved":false,"is_disabled":false,"rental_uris":{"android":"levelo://app?vid=74cd969f-17d8-442e-9242-f3edc2f89a0d","ios":"levelo://app?vid=74cd969f-17d8-442e-9242-f3edc2f89a0d"},"vehicle_type_id":"4","last_reported":1702400806,"current_range_meters":28000,"station_id":"ce4bh692rcd13ifvqea0","pricing_plan_id":"free"},{"bike_id":"90212e5a-f930-4ba5-ad39-37ea8f52571a","system_id":"levelo_inurba_marseille","lat":43.33041,"lon":5.38918,"is_reserved":false,"is_disabled":false,"rental_uris":{"android":"levelo://app?vid=90212e5a-f930-4ba5-ad39-37ea8f52571a","ios":"levelo://app?vid=90212e5a-f930-4ba5-ad39-37ea8f52571a"},"vehicle_type_id":"4","last_reported":1702400806,"current_range_meters":26000,"station_id":"ce4bhr92rcd13ifvqhrg","pricing_plan_id":"free"},{"bike_id":"b759538c-75fc-4ccb-9b73-2031bf78f0fa","system_id":"levelo_inurba_marseille","lat":43.330442,"lon":5.389148,"is_reserved":false,"is_disabled":false,"rental_uris":{"android":"levelo://app?vid=b759538c-75fc-4ccb-9b73-2031bf78f0fa","ios":"levelo://app?vid=b759538c-75fc-4ccb-9b73-2031bf78f0fa"},"vehicle_type_id":"4","last_reported":1702400806,"current_range_meters":17600,"station_id":"ce4bhr92rcd13ifvqhrg","pricing_plan_id":"free"},{"bike_id":"62e94a04-2220-4204-a03b-cf7d6d909360","system_id":"levelo_inurba_marseille","lat":43.330442,"lon":5.389148,"is_reserved":false,"is_disabled":false,"rental_uris":{"android":"levelo://app?vid=62e94a04-2220-4204-a03b-cf7d6d909360","ios":"levelo://app?vid=62e94a04-2220-4204-a03b-cf7d6d909360"},"vehicle_type_id":"4","last_reported":1702400806,"current_range_meters":31200,"station_id":"ce4bhr92rcd13ifvqhrg","pricing_plan_id":"free"},{"bike_id":"e3e04cb1-f60f-4cda-b4b7-76a6acf9cfbd","system_id":"levelo_inurba_marseille","lat":43.31016,"lon":5.40072,"is_reserved":false,"is_disabled":false,"rental_uris":{"android":"levelo://app?vid=e3e04cb1-f60f-4cda-b4b7-76a6acf9cfbd","ios":"levelo://app?vid=e3e04cb1-f60f-4cda-b4b7-76a6acf9cfbd"},"vehicle_type_id":"4","last_reported":1702400806,"current_range_meters":17600,"station_id":"ce4bh092rcd13ifvqd30","pricing_plan_id":"free"},{"bike_id":"c53f389d-7b96-4acb-a1e6-83dc3ffdbf72","system_id":"levelo_inurba_marseille","lat":43.28856,"lon":5.358371,"is_reserved":false,"is_disabled":false,"rental_uris":{"android":"levelo://app?vid=c53f389d-7b96-4acb-a1e6-83dc3ffdbf72","ios":"levelo://app?vid=c53f389d-7b96-4acb-a1e6-83dc3ffdbf72"},"vehicle_type_id":"4","last_reported":1702400806,"current_range_meters":0,"station_id":"ce4bhb12rcd13ifvqem0","pricing_plan_id":"free"},{"bike_id":"da90a6f7-9ae3-4ed5-a07e-9eaa6ea9f5b5","system_id":"levelo_inurba_marseille","lat":43.290094,"lon":5.381264,"is_reserved":false,"is_disabled":false,"rental_uris":{"android":"levelo://app?vid=da90a6f7-9ae3-4ed5-a07e-9eaa6ea9f5b5","ios":"levelo://app?vid=da90a6f7-9ae3-4ed5-a07e-9eaa6ea9f5b5"},"vehicle_type_id":"4","last_reported":1702400806,"current_range_meters":9600,"station_id":"ce4bh4p2rcd13ifvqe1g","pricing_plan_id":"free"},{"bike_id":"65df907b-3f57-4910-a269-41a53c03a0dc","system_id":"levelo_inurba_marseille","lat":43.309371,"lon":5.401449,"is_reserved":false,"is_disabled":false,"rental_uris":{"android":"levelo://app?vid=65df907b-3f57-4910-a269-41a53c03a0dc","ios":"levelo://app?vid=65df907b-3f57-4910-a269-41a53c03a0dc"},"vehicle_type_id":"4","last_reported":1702400806,"current_range_meters":20000,"station_id":"ce4bgvp2rcd13ifvqct0","pricing_plan_id":"free"},{"bike_id":"5befec94-3dff-462d-9c10-db9ad9e63c1a","system_id":"levelo_inurba_marseille","lat":43.312609,"lon":5.401662,"is_reserved":false,"is_disabled":false,"rental_uris":{"android":"levelo://app?vid=5befec94-3dff-462d-9c10-db9ad9e63c1a","ios":"levelo://app?vid=5befec94-3dff-462d-9c10-db9ad9e63c1a"},"vehicle_type_id":"4","last_reported":1702400806,"current_range_meters":4400,"station_id":"ce4bh092rcd13ifvqd30","pricing_plan_id":"free"},{"bike_id":"6785d326-91d7-4e97-8145-3d4dc2e9ab90","system_id":"levelo_inurba_marseille","lat":43.312772,"lon":5.401664,"is_reserved":false,"is_disabled":false,"rental_uris":{"android":"levelo://app?vid=6785d326-91d7-4e97-8145-3d4dc2e9ab90","ios":"levelo://app?vid=6785d326-91d7-4e97-8145-3d4dc2e9ab90"},"vehicle_type_id":"4","last_reported":1702400806,"current_range_meters":3600,"station_id":"ce4bh092rcd13ifvqd30","pricing_plan_id":"free"},{"bike_id":"c7b07a26-000b-4e91-b1fe-673e47fe3078","system_id":"levelo_inurba_marseille","lat":43.312609,"lon":5.401662,"is_reserved":false,"is_disabled":false,"rental_uris":{"android":"levelo://app?vid=c7b07a26-000b-4e91-b1fe-673e47fe3078","ios":"levelo://app?vid=c7b07a26-000b-4e91-b1fe-673e47fe3078"},"vehicle_type_id":"4","last_reported":1702400806,"current_range_meters":800,"station_id":"ce4bh092rcd13ifvqd30","pricing_plan_id":"free"},{"bike_id":"09da826b-1109-48d6-a40e-dcff0086848c","system_id":"levelo_inurba_marseille","lat":43.309371,"lon":5.401449,"is_reserved":false,"is_disabled":false,"rental_uris":{"android":"levelo://app?vid=09da826b-1109-48d6-a40e-dcff0086848c","ios":"levelo://app?vid=09da826b-1109-48d6-a40e-dcff0086848c"},"vehicle_type_id":"4","last_reported":1702400806,"current_range_meters":2800,"station_id":"ce4bgvp2rcd13ifvqct0","pricing_plan_id":"free"},{"bike_id":"67a71298-f781-4402-8d03-cdb5dd11acae","system_id":"levelo_inurba_marseille","lat":43.33755,"lon":5.37462,"is_reserved":false,"is_disabled":false,"rental_uris":{"android":"levelo://app?vid=67a71298-f781-4402-8d03-cdb5dd11acae","ios":"levelo://app?vid=67a71298-f781-4402-8d03-cdb5dd11acae"},"vehicle_type_id":"4","last_reported":1702400806,"current_range_meters":28400,"station_id":"","pricing_plan_id":"free"},{"bike_id":"a69ca607-a11e-4577-bc5a-1d931c46c050","system_id":"levelo_inurba_marseille","lat":43.30633,"lon":5.401738,"is_reserved":false,"is_disabled":false,"rental_uris":{"android":"levelo://app?vid=a69ca607-a11e-4577-bc5a-1d931c46c050","ios":"levelo://app?vid=a69ca607-a11e-4577-bc5a-1d931c46c050"},"vehicle_type_id":"4","last_reported":1702400806,"current_range_meters":8000,"station_id":"","pricing_plan_id":"free"},{"bike_id":"b4cd87ce-f5bb-41af-9bb2-c3f248c3d8bc","system_id":"levelo_inurba_marseille","lat":43.286593,"lon":5.363346,"is_reserved":false,"is_disabled":false,"rental_uris":{"android":"levelo://app?vid=b4cd87ce-f5bb-41af-9bb2-c3f248c3d8bc","ios":"levelo://app?vid=b4cd87ce-f5bb-41af-9bb2-c3f248c3d8bc"},"vehicle_type_id":"4","last_reported":1702400806,"current_range_meters":24800,"station_id":"ce4bhah2rcd13ifvqej0","pricing_plan_id":"free"},{"bike_id":"5c4f1781-ee7a-418d-90fa-4ce11e7881b7","system_id":"levelo_inurba_marseille","lat":43.298681,"lon":5.397225,"is_reserved":false,"is_disabled":false,"rental_uris":{"android":"levelo://app?vid=5c4f1781-ee7a-418d-90fa-4ce11e7881b7","ios":"levelo://app?vid=5c4f1781-ee7a-418d-90fa-4ce11e7881b7"},"vehicle_type_id":"4","last_reported":1702400806,"current_range_meters":6000,"station_id":"ce4bh0h2rcd13ifvqd50","pricing_plan_id":"free"},{"bike_id":"e568fec6-bf85-41ea-9008-05145e45df31","system_id":"levelo_inurba_marseille","lat":43.286593,"lon":5.363346,"is_reserved":false,"is_disabled":false,"rental_uris":{"android":"levelo://app?vid=e568fec6-bf85-41ea-9008-05145e45df31","ios":"levelo://app?vid=e568fec6-bf85-41ea-9008-05145e45df31"},"vehicle_type_id":"4","last_reported":1702400806,"current_range_meters":20800,"station_id":"ce4bhah2rcd13ifvqej0","pricing_plan_id":"free"},{"bike_id":"e3091bcd-86d8-4d70-a60d-fc9ea17d3666","system_id":"levelo_inurba_marseille","lat":43.286593,"lon":5.363346,"is_reserved":false,"is_disabled":false,"rental_uris":{"android":"levelo://app?vid=e3091bcd-86d8-4d70-a60d-fc9ea17d3666","ios":"levelo://app?vid=e3091bcd-86d8-4d70-a60d-fc9ea17d3666"},"vehicle_type_id":"4","last_reported":1702400806,"current_range_meters":31600,"station_id":"ce4bhah2rcd13ifvqej0","pricing_plan_id":"free"},{"bike_id":"116e59b5-5650-4ff4-9cbe-0bd4e36be36e","system_id":"levelo_inurba_marseille","lat":43.289307,"lon":5.38406,"is_reserved":false,"is_disabled":false,"rental_uris":{"android":"levelo://app?vid=116e59b5-5650-4ff4-9cbe-0bd4e36be36e","ios":"levelo://app?vid=116e59b5-5650-4ff4-9cbe-0bd4e36be36e"},"vehicle_type_id":"4","last_reported":1702400806,"current_range_meters":7600,"station_id":"ce4bh612rcd13ifvqe6g","pricing_plan_id":"free"},{"bike_id":"d8b74025-3527-47a2-beb6-7e94eef5c6be","system_id":"levelo_inurba_marseille","lat":43.29027,"lon":5.386475,"is_reserved":false,"is_disabled":false,"rental_uris":{"android":"levelo://app?vid=d8b74025-3527-47a2-beb6-7e94eef5c6be","ios":"levelo://app?vid=d8b74025-3527-47a2-beb6-7e94eef5c6be"},"vehicle_type_id":"4","last_reported":1702400806,"current_range_meters":400,"station_id":"ce4bh4p2rcd13ifvqe0g","pricing_plan_id":"free"},{"bike_id":"a1ed5b70-b15a-4170-8345-2380c5095759","system_id":"levelo_inurba_marseille","lat":43.302759,"lon":5.400793,"is_reserved":false,"is_disabled":false,"rental_uris":{"android":"levelo://app?vid=a1ed5b70-b15a-4170-8345-2380c5095759","ios":"levelo://app?vid=a1ed5b70-b15a-4170-8345-2380c5095759"},"vehicle_type_id":"4","last_reported":1702400806,"current_range_meters":21200,"station_id":"ce4bgvh2rcd13ifvqcs0","pricing_plan_id":"free"},{"bike_id":"dd55c571-beb8-4144-9eee-a018fae0dfc2","system_id":"levelo_inurba_marseille","lat":43.286039,"lon":5.370681,"is_reserved":false,"is_disabled":false,"rental_uris":{"android":"levelo://app?vid=dd55c571-beb8-4144-9eee-a018fae0dfc2","ios":"levelo://app?vid=dd55c571-beb8-4144-9eee-a018fae0dfc2"},"vehicle_type_id":"4","last_reported":1702400806,"current_range_meters":22400,"station_id":"ce4bht12rcd13ifvqi60","pricing_plan_id":"free"},{"bike_id":"9115154f-8856-4157-935f-d3326a511e75","system_id":"levelo_inurba_marseille","lat":43.286039,"lon":5.370679,"is_reserved":false,"is_disabled":false,"rental_uris":{"android":"levelo://app?vid=9115154f-8856-4157-935f-d3326a511e75","ios":"levelo://app?vid=9115154f-8856-4157-935f-d3326a511e75"},"vehicle_type_id":"4","last_reported":1702400806,"current_range_meters":31200,"station_id":"ce4bht12rcd13ifvqi60","pricing_plan_id":"free"},{"bike_id":"789b3cfc-bf22-40c9-9330-b7289618f17c","system_id":"levelo_inurba_marseille","lat":43.287184,"lon":5.37937,"is_reserved":false,"is_disabled":false,"rental_uris":{"android":"levelo://app?vid=789b3cfc-bf22-40c9-9330-b7289618f17c","ios":"levelo://app?vid=789b3cfc-bf22-40c9-9330-b7289618f17c"},"vehicle_type_id":"4","last_reported":1702400806,"current_range_meters":4800,"station_id":"ce4bh9p2rcd13ifvqec0","pricing_plan_id":"free"},{"bike_id":"6258c8cb-6995-40d0-a8e0-4e96858d273c","system_id":"levelo_inurba_marseille","lat":43.287045,"lon":5.37941,"is_reserved":false,"is_disabled":false,"rental_uris":{"android":"levelo://app?vid=6258c8cb-6995-40d0-a8e0-4e96858d273c","ios":"levelo://app?vid=6258c8cb-6995-40d0-a8e0-4e96858d273c"},"vehicle_type_id":"4","last_reported":1702400806,"current_range_meters":21200,"station_id":"ce4bh9p2rcd13ifvqec0","pricing_plan_id":"free"},{"bike_id":"9c8bb44c-1559-40eb-86cf-3ec00d6d1747","system_id":"levelo_inurba_marseille","lat":43.33666,"lon":5.38581,"is_reserved":false,"is_disabled":false,"rental_uris":{"android":"levelo://app?vid=9c8bb44c-1559-40eb-86cf-3ec00d6d1747","ios":"levelo://app?vid=9c8bb44c-1559-40eb-86cf-3ec00d6d1747"},"vehicle_type_id":"4","last_reported":1702400806,"current_range_meters":0,"station_id":"","pricing_plan_id":"free"},{"bike_id":"672ca658-1f83-4753-bad2-b7c0b8175c46","system_id":"levelo_inurba_marseille","lat":43.291994,"lon":5.392907,"is_reserved":false,"is_disabled":false,"rental_uris":{"android":"levelo://app?vid=672ca658-1f83-4753-bad2-b7c0b8175c46","ios":"levelo://app?vid=672ca658-1f83-4753-bad2-b7c0b8175c46"},"vehicle_type_id":"4","last_reported":1702400806,"current_range_meters":30000,"station_id":"ce4bh192rcd13ifvqdd0","pricing_plan_id":"free"},{"bike_id":"13854115-cf0c-4ba2-b9ef-fdb950bb729a","system_id":"levelo_inurba_marseille","lat":43.284538,"lon":5.358657,"is_reserved":false,"is_disabled":false,"rental_uris":{"android":"levelo://app?vid=13854115-cf0c-4ba2-b9ef-fdb950bb729a","ios":"levelo://app?vid=13854115-cf0c-4ba2-b9ef-fdb950bb729a"},"vehicle_type_id":"4","last_reported":1702400806,"current_range_meters":24000,"station_id":"ce4bhah2rcd13ifvqei0","pricing_plan_id":"free"},{"bike_id":"36ecea5b-25d5-45fc-8e08-0e74777d7747","system_id":"levelo_inurba_marseille","lat":43.284534,"lon":5.358662,"is_reserved":false,"is_disabled":false,"rental_uris":{"android":"levelo://app?vid=36ecea5b-25d5-45fc-8e08-0e74777d7747","ios":"levelo://app?vid=36ecea5b-25d5-45fc-8e08-0e74777d7747"},"vehicle_type_id":"4","last_reported":1702400806,"current_range_meters":6400,"station_id":"ce4bhah2rcd13ifvqei0","pricing_plan_id":"free"},{"bike_id":"7579b130-de1b-42b4-928a-3bb35e043876","system_id":"levelo_inurba_marseille","lat":43.28616,"lon":5.35106,"is_reserved":false,"is_disabled":false,"rental_uris":{"android":"levelo://app?vid=7579b130-de1b-42b4-928a-3bb35e043876","ios":"levelo://app?vid=7579b130-de1b-42b4-928a-3bb35e043876"},"vehicle_type_id":"4","last_reported":1702400806,"current_range_meters":8000,"station_id":"ce4bhch2rcd13ifvqeug","pricing_plan_id":"free"},{"bike_id":"4780680a-ab92-400d-855b-2744676f0e82","system_id":"levelo_inurba_marseille","lat":43.285848,"lon":5.350787,"is_reserved":false,"is_disabled":false,"rental_uris":{"android":"levelo://app?vid=4780680a-ab92-400d-855b-2744676f0e82","ios":"levelo://app?vid=4780680a-ab92-400d-855b-2744676f0e82"},"vehicle_type_id":"4","last_reported":1702400806,"current_range_meters":4000,"station_id":"ce4bhch2rcd13ifvqeug","pricing_plan_id":"free"},{"bike_id":"8e927208-c196-4ca6-b5a3-68d28df8843d","system_id":"levelo_inurba_marseille","lat":43.28615,"lon":5.35102,"is_reserved":false,"is_disabled":false,"rental_uris":{"android":"levelo://app?vid=8e927208-c196-4ca6-b5a3-68d28df8843d","ios":"levelo://app?vid=8e927208-c196-4ca6-b5a3-68d28df8843d"},"vehicle_type_id":"4","last_reported":1702400806,"current_range_meters":18800,"station_id":"ce4bhch2rcd13ifvqeug","pricing_plan_id":"free"},{"bike_id":"a49c5c64-bff0-47bf-af2c-aa258506df4f","system_id":"levelo_inurba_marseille","lat":43.323464,"lon":5.406297,"is_reserved":false,"is_disabled":false,"rental_uris":{"android":"levelo://app?vid=a49c5c64-bff0-47bf-af2c-aa258506df4f","ios":"levelo://app?vid=a49c5c64-bff0-47bf-af2c-aa258506df4f"},"vehicle_type_id":"4","last_reported":1702400806,"current_range_meters":6000,"station_id":"ce4bhq92rcd13ifvqhjg","pricing_plan_id":"free"},{"bike_id":"b2957cea-309e-4e2a-88fe-0b9b821a888f","system_id":"levelo_inurba_marseille","lat":43.288497,"lon":5.393089,"is_reserved":false,"is_disabled":false,"rental_uris":{"android":"levelo://app?vid=b2957cea-309e-4e2a-88fe-0b9b821a888f","ios":"levelo://app?vid=b2957cea-309e-4e2a-88fe-0b9b821a888f"},"vehicle_type_id":"4","last_reported":1702400806,"current_range_meters":800,"station_id":"ce4bh2p2rcd13ifvqdi0","pricing_plan_id":"free"},{"bike_id":"c2d33e82-b4e7-4d9a-a8eb-4e2905d24ffe","system_id":"levelo_inurba_marseille","lat":43.284219,"lon":5.3497,"is_reserved":false,"is_disabled":false,"rental_uris":{"android":"levelo://app?vid=c2d33e82-b4e7-4d9a-a8eb-4e2905d24ffe","ios":"levelo://app?vid=c2d33e82-b4e7-4d9a-a8eb-4e2905d24ffe"},"vehicle_type_id":"4","last_reported":1702400806,"current_range_meters":18800,"station_id":"ce4bhbh2rcd13ifvqepg","pricing_plan_id":"free"},{"bike_id":"5593b66a-ae02-43e6-be57-86ef973075c6","system_id":"levelo_inurba_marseille","lat":43.283502,"lon":5.386471,"is_reserved":false,"is_disabled":false,"rental_uris":{"android":"levelo://app?vid=5593b66a-ae02-43e6-be57-86ef973075c6","ios":"levelo://app?vid=5593b66a-ae02-43e6-be57-86ef973075c6"},"vehicle_type_id":"4","last_reported":1702400806,"current_range_meters":23200,"station_id":"ce4bh492rcd13ifvqdvg","pricing_plan_id":"free"},{"bike_id":"1ac2ac58-afac-45ff-b22e-c8ea9d4c4002","system_id":"levelo_inurba_marseille","lat":43.28058,"lon":5.36907,"is_reserved":false,"is_disabled":false,"rental_uris":{"android":"levelo://app?vid=1ac2ac58-afac-45ff-b22e-c8ea9d4c4002","ios":"levelo://app?vid=1ac2ac58-afac-45ff-b22e-c8ea9d4c4002"},"vehicle_type_id":"4","last_reported":1702400806,"current_range_meters":23600,"station_id":"ce4bha12rcd13ifvqef0","pricing_plan_id":"free"},{"bike_id":"c83f7a20-74e5-415e-a680-1d522ead0d33","system_id":"levelo_inurba_marseille","lat":43.282754,"lon":5.350519,"is_reserved":false,"is_disabled":false,"rental_uris":{"android":"levelo://app?vid=c83f7a20-74e5-415e-a680-1d522ead0d33","ios":"levelo://app?vid=c83f7a20-74e5-415e-a680-1d522ead0d33"},"vehicle_type_id":"4","last_reported":1702400806,"current_range_meters":17200,"station_id":"ce4bhbp2rcd13ifvqerg","pricing_plan_id":"free"},{"bike_id":"dcec71ec-5de8-4b2b-aafa-4f98e65ab55f","system_id":"levelo_inurba_marseille","lat":43.280382,"lon":5.369291,"is_reserved":false,"is_disabled":false,"rental_uris":{"android":"levelo://app?vid=dcec71ec-5de8-4b2b-aafa-4f98e65ab55f","ios":"levelo://app?vid=dcec71ec-5de8-4b2b-aafa-4f98e65ab55f"},"vehicle_type_id":"4","last_reported":1702400806,"current_range_meters":8800,"station_id":"ce4bha12rcd13ifvqef0","pricing_plan_id":"free"},{"bike_id":"9d74a900-d6bf-4d61-b9b0-481bf786c12b","system_id":"levelo_inurba_marseille","lat":43.280382,"lon":5.369291,"is_reserved":false,"is_disabled":false,"rental_uris":{"android":"levelo://app?vid=9d74a900-d6bf-4d61-b9b0-481bf786c12b","ios":"levelo://app?vid=9d74a900-d6bf-4d61-b9b0-481bf786c12b"},"vehicle_type_id":"4","last_reported":1702400806,"current_range_meters":13200,"station_id":"ce4bha12rcd13ifvqef0","pricing_plan_id":"free"},{"bike_id":"77bcf935-df4d-43cf-8822-f2c4c808b542","system_id":"levelo_inurba_marseille","lat":43.28573,"lon":5.394992,"is_reserved":false,"is_disabled":false,"rental_uris":{"android":"levelo://app?vid=77bcf935-df4d-43cf-8822-f2c4c808b542","ios":"levelo://app?vid=77bcf935-df4d-43cf-8822-f2c4c808b542"},"vehicle_type_id":"4","last_reported":1702400806,"current_range_meters":23600,"station_id":"ce4bh292rcd13ifvqdg0","pricing_plan_id":"free"},{"bike_id":"6b0ee9e7-0460-4ebe-bc21-a472bcdd4971","system_id":"levelo_inurba_marseille","lat":43.278664,"lon":5.355848,"is_reserved":false,"is_disabled":false,"rental_uris":{"android":"levelo://app?vid=6b0ee9e7-0460-4ebe-bc21-a472bcdd4971","ios":"levelo://app?vid=6b0ee9e7-0460-4ebe-bc21-a472bcdd4971"},"vehicle_type_id":"4","last_reported":1702400806,"current_range_meters":27600,"station_id":"ce4bhbp2rcd13ifvqerg","pricing_plan_id":"free"},{"bike_id":"560a1697-1411-407d-9bb9-5a3aa71fad93","system_id":"levelo_inurba_marseille","lat":43.287154,"lon":5.399979,"is_reserved":false,"is_disabled":false,"rental_uris":{"android":"levelo://app?vid=560a1697-1411-407d-9bb9-5a3aa71fad93","ios":"levelo://app?vid=560a1697-1411-407d-9bb9-5a3aa71fad93"},"vehicle_type_id":"4","last_reported":1702400806,"current_range_meters":27600,"station_id":"ce4bho92rcd13ifvqh3g","pricing_plan_id":"free"},{"bike_id":"7efad1da-02f5-4d3a-bc1f-166af404abd3","system_id":"levelo_inurba_marseille","lat":43.303837,"lon":5.418724,"is_reserved":false,"is_disabled":false,"rental_uris":{"android":"levelo://app?vid=7efad1da-02f5-4d3a-bc1f-166af404abd3","ios":"levelo://app?vid=7efad1da-02f5-4d3a-bc1f-166af404abd3"},"vehicle_type_id":"4","last_reported":1702400806,"current_range_meters":4400,"station_id":"ce4bhop2rcd13ifvqh7g","pricing_plan_id":"free"},{"bike_id":"16479d81-4844-484b-a8e0-ad1522d56482","system_id":"levelo_inurba_marseille","lat":43.278399,"lon":5.392139,"is_reserved":false,"is_disabled":false,"rental_uris":{"android":"levelo://app?vid=16479d81-4844-484b-a8e0-ad1522d56482","ios":"levelo://app?vid=16479d81-4844-484b-a8e0-ad1522d56482"},"vehicle_type_id":"4","last_reported":1702400806,"current_range_meters":10400,"station_id":"ce4bhjp2rcd13ifvqga0","pricing_plan_id":"free"},{"bike_id":"36c12b12-b05c-4fb1-ac38-b28eabbb3cf5","system_id":"levelo_inurba_marseille","lat":43.275625,"lon":5.384392,"is_reserved":false,"is_disabled":false,"rental_uris":{"android":"levelo://app?vid=36c12b12-b05c-4fb1-ac38-b28eabbb3cf5","ios":"levelo://app?vid=36c12b12-b05c-4fb1-ac38-b28eabbb3cf5"},"vehicle_type_id":"4","last_reported":1702400806,"current_range_meters":30400,"station_id":"ce4bhh92rcd13ifvqfi0","pricing_plan_id":"free"},{"bike_id":"d3efbba7-a47b-4d19-b44b-4ee810d318d9","system_id":"levelo_inurba_marseille","lat":43.273609,"lon":5.362708,"is_reserved":false,"is_disabled":false,"rental_uris":{"android":"levelo://app?vid=d3efbba7-a47b-4d19-b44b-4ee810d318d9","ios":"levelo://app?vid=d3efbba7-a47b-4d19-b44b-4ee810d318d9"},"vehicle_type_id":"4","last_reported":1702400806,"current_range_meters":8000,"station_id":"ce4bhbh2rcd13ifvqeo0","pricing_plan_id":"free"},{"bike_id":"2e64504e-9f09-4d9a-95f0-8bf822c2f3e6","system_id":"levelo_inurba_marseille","lat":43.276769,"lon":5.388787,"is_reserved":false,"is_disabled":false,"rental_uris":{"android":"levelo://app?vid=2e64504e-9f09-4d9a-95f0-8bf822c2f3e6","ios":"levelo://app?vid=2e64504e-9f09-4d9a-95f0-8bf822c2f3e6"},"vehicle_type_id":"4","last_reported":1702400806,"current_range_meters":0,"station_id":"ce4bhi12rcd13ifvqfo0","pricing_plan_id":"free"},{"bike_id":"71396406-af00-4acf-aed8-305e8ddac11b","system_id":"levelo_inurba_marseille","lat":43.279952,"lon":5.400085,"is_reserved":false,"is_disabled":false,"rental_uris":{"android":"levelo://app?vid=71396406-af00-4acf-aed8-305e8ddac11b","ios":"levelo://app?vid=71396406-af00-4acf-aed8-305e8ddac11b"},"vehicle_type_id":"4","last_reported":1702400806,"current_range_meters":16000,"station_id":"ce4bho92rcd13ifvqh4g","pricing_plan_id":"free"},{"bike_id":"b1c028eb-0fe1-4afa-b35c-b9783a0e9537","system_id":"levelo_inurba_marseille","lat":43.31723,"lon":5.42405,"is_reserved":false,"is_disabled":false,"rental_uris":{"android":"levelo://app?vid=b1c028eb-0fe1-4afa-b35c-b9783a0e9537","ios":"levelo://app?vid=b1c028eb-0fe1-4afa-b35c-b9783a0e9537"},"vehicle_type_id":"4","last_reported":1702400806,"current_range_meters":5200,"station_id":"ce4bhp92rcd13ifvqhbg","pricing_plan_id":"free"},{"bike_id":"46c0a165-38ed-47fe-90ca-da8697267e19","system_id":"levelo_inurba_marseille","lat":43.304096,"lon":5.425385,"is_reserved":false,"is_disabled":false,"rental_uris":{"android":"levelo://app?vid=46c0a165-38ed-47fe-90ca-da8697267e19","ios":"levelo://app?vid=46c0a165-38ed-47fe-90ca-da8697267e19"},"vehicle_type_id":"4","last_reported":1702400806,"current_range_meters":3600,"station_id":"ce4bhoh2rcd13ifvqh6g","pricing_plan_id":"free"},{"bike_id":"d7a6c85d-a811-4fa8-800a-8c7d7fbad1e5","system_id":"levelo_inurba_marseille","lat":43.2719,"lon":5.39261,"is_reserved":false,"is_disabled":false,"rental_uris":{"android":"levelo://app?vid=d7a6c85d-a811-4fa8-800a-8c7d7fbad1e5","ios":"levelo://app?vid=d7a6c85d-a811-4fa8-800a-8c7d7fbad1e5"},"vehicle_type_id":"4","last_reported":1702400806,"current_range_meters":0,"station_id":"","pricing_plan_id":"free"},{"bike_id":"3d1dd080-2b6b-4653-89fd-415b71bb3e63","system_id":"levelo_inurba_marseille","lat":43.278128,"lon":5.407195,"is_reserved":false,"is_disabled":false,"rental_uris":{"android":"levelo://app?vid=3d1dd080-2b6b-4653-89fd-415b71bb3e63","ios":"levelo://app?vid=3d1dd080-2b6b-4653-89fd-415b71bb3e63"},"vehicle_type_id":"4","last_reported":1702400806,"current_range_meters":12800,"station_id":"ce4bhnh2rcd13ifvqgtg","pricing_plan_id":"free"},{"bike_id":"cf7f52f5-3e93-45fd-86ad-8d3866ec58ea","system_id":"levelo_inurba_marseille","lat":43.278128,"lon":5.407195,"is_reserved":false,"is_disabled":false,"rental_uris":{"android":"levelo://app?vid=cf7f52f5-3e93-45fd-86ad-8d3866ec58ea","ios":"levelo://app?vid=cf7f52f5-3e93-45fd-86ad-8d3866ec58ea"},"vehicle_type_id":"4","last_reported":1702400806,"current_range_meters":27600,"station_id":"ce4bhnh2rcd13ifvqgtg","pricing_plan_id":"free"},{"bike_id":"fa4b76ad-94e4-40d5-add4-799dda2f53a9","system_id":"levelo_inurba_marseille","lat":43.27946,"lon":5.410558,"is_reserved":false,"is_disabled":false,"rental_uris":{"android":"levelo://app?vid=fa4b76ad-94e4-40d5-add4-799dda2f53a9","ios":"levelo://app?vid=fa4b76ad-94e4-40d5-add4-799dda2f53a9"},"vehicle_type_id":"4","last_reported":1702400806,"current_range_meters":25200,"station_id":"","pricing_plan_id":"free"},{"bike_id":"e6bcf1d4-2fc5-4ee2-baf5-d4d743c3e99a","system_id":"levelo_inurba_marseille","lat":43.265714,"lon":5.372891,"is_reserved":false,"is_disabled":false,"rental_uris":{"android":"levelo://app?vid=e6bcf1d4-2fc5-4ee2-baf5-d4d743c3e99a","ios":"levelo://app?vid=e6bcf1d4-2fc5-4ee2-baf5-d4d743c3e99a"},"vehicle_type_id":"4","last_reported":1702400806,"current_range_meters":9600,"station_id":"ce4bhg12rcd13ifvqf70","pricing_plan_id":"free"},{"bike_id":"8ade1368-187f-46dc-878a-a6c69150e599","system_id":"levelo_inurba_marseille","lat":43.267966,"lon":5.393976,"is_reserved":false,"is_disabled":false,"rental_uris":{"android":"levelo://app?vid=8ade1368-187f-46dc-878a-a6c69150e599","ios":"levelo://app?vid=8ade1368-187f-46dc-878a-a6c69150e599"},"vehicle_type_id":"4","last_reported":1702400806,"current_range_meters":24800,"station_id":"ce4bhh12rcd13ifvqfg0","pricing_plan_id":"free"},{"bike_id":"83fa8fe7-6272-4f64-b4b1-67bf27f93286","system_id":"levelo_inurba_marseille","lat":43.265714,"lon":5.372891,"is_reserved":false,"is_disabled":false,"rental_uris":{"android":"levelo://app?vid=83fa8fe7-6272-4f64-b4b1-67bf27f93286","ios":"levelo://app?vid=83fa8fe7-6272-4f64-b4b1-67bf27f93286"},"vehicle_type_id":"4","last_reported":1702400806,"current_range_meters":5200,"station_id":"ce4bhg12rcd13ifvqf70","pricing_plan_id":"free"},{"bike_id":"ffe919ba-a1a3-422d-98b5-34b9d651a8fb","system_id":"levelo_inurba_marseille","lat":43.267966,"lon":5.393976,"is_reserved":false,"is_disabled":false,"rental_uris":{"android":"levelo://app?vid=ffe919ba-a1a3-422d-98b5-34b9d651a8fb","ios":"levelo://app?vid=ffe919ba-a1a3-422d-98b5-34b9d651a8fb"},"vehicle_type_id":"4","last_reported":1702400806,"current_range_meters":22000,"station_id":"ce4bhh12rcd13ifvqfg0","pricing_plan_id":"free"},{"bike_id":"5001a798-b727-45c4-bf4f-acd4a989fbcb","system_id":"levelo_inurba_marseille","lat":43.308051,"lon":5.43527,"is_reserved":false,"is_disabled":false,"rental_uris":{"android":"levelo://app?vid=5001a798-b727-45c4-bf4f-acd4a989fbcb","ios":"levelo://app?vid=5001a798-b727-45c4-bf4f-acd4a989fbcb"},"vehicle_type_id":"4","last_reported":1702400806,"current_range_meters":27200,"station_id":"ce4bhph2rcd13ifvqheg","pricing_plan_id":"free"},{"bike_id":"e77f140d-72ac-4dfa-855f-09df3fd15b0e","system_id":"levelo_inurba_marseille","lat":43.308051,"lon":5.43527,"is_reserved":false,"is_disabled":false,"rental_uris":{"android":"levelo://app?vid=e77f140d-72ac-4dfa-855f-09df3fd15b0e","ios":"levelo://app?vid=e77f140d-72ac-4dfa-855f-09df3fd15b0e"},"vehicle_type_id":"4","last_reported":1702400806,"current_range_meters":20000,"station_id":"ce4bhph2rcd13ifvqheg","pricing_plan_id":"free"},{"bike_id":"14bc19f9-c5ac-4814-b202-5604c65f25d1","system_id":"levelo_inurba_marseille","lat":43.308006,"lon":5.435284,"is_reserved":false,"is_disabled":false,"rental_uris":{"android":"levelo://app?vid=14bc19f9-c5ac-4814-b202-5604c65f25d1","ios":"levelo://app?vid=14bc19f9-c5ac-4814-b202-5604c65f25d1"},"vehicle_type_id":"4","last_reported":1702400806,"current_range_meters":16800,"station_id":"ce4bhph2rcd13ifvqheg","pricing_plan_id":"free"},{"bike_id":"c050d394-588c-4510-a319-e4ea7c35b427","system_id":"levelo_inurba_marseille","lat":43.26949,"lon":5.40262,"is_reserved":false,"is_disabled":false,"rental_uris":{"android":"levelo://app?vid=c050d394-588c-4510-a319-e4ea7c35b427","ios":"levelo://app?vid=c050d394-588c-4510-a319-e4ea7c35b427"},"vehicle_type_id":"4","last_reported":1702400806,"current_range_meters":800,"station_id":"cjm6bp8fraef2m0cb0m0","pricing_plan_id":"free"},{"bike_id":"9456d233-6151-49af-9380-2f127d7b6010","system_id":"levelo_inurba_marseille","lat":43.261782,"lon":5.374515,"is_reserved":false,"is_disabled":false,"rental_uris":{"android":"levelo://app?vid=9456d233-6151-49af-9380-2f127d7b6010","ios":"levelo://app?vid=9456d233-6151-49af-9380-2f127d7b6010"},"vehicle_type_id":"4","last_reported":1702400806,"current_range_meters":17600,"station_id":"ce4bhgp2rcd13ifvqfc0","pricing_plan_id":"free"},{"bike_id":"7dcc0d71-2ad6-4b3c-92e0-a1f941b95477","system_id":"levelo_inurba_marseille","lat":43.317104,"lon":5.436818,"is_reserved":false,"is_disabled":false,"rental_uris":{"android":"levelo://app?vid=7dcc0d71-2ad6-4b3c-92e0-a1f941b95477","ios":"levelo://app?vid=7dcc0d71-2ad6-4b3c-92e0-a1f941b95477"},"vehicle_type_id":"4","last_reported":1702400806,"current_range_meters":28000,"station_id":"ce4bhp92rcd13ifvqhcg","pricing_plan_id":"free"},{"bike_id":"79429237-2a0a-4455-841f-d9d86533ca02","system_id":"levelo_inurba_marseille","lat":43.298768,"lon":5.43643,"is_reserved":false,"is_disabled":false,"rental_uris":{"android":"levelo://app?vid=79429237-2a0a-4455-841f-d9d86533ca02","ios":"levelo://app?vid=79429237-2a0a-4455-841f-d9d86533ca02"},"vehicle_type_id":"4","last_reported":1702400806,"current_range_meters":18800,"station_id":"ce4bhpp2rcd13ifvqhfg","pricing_plan_id":"free"},{"bike_id":"c6fd12df-9f3a-4af6-97ac-045eea3df2d1","system_id":"levelo_inurba_marseille","lat":43.298768,"lon":5.43643,"is_reserved":false,"is_disabled":false,"rental_uris":{"android":"levelo://app?vid=c6fd12df-9f3a-4af6-97ac-045eea3df2d1","ios":"levelo://app?vid=c6fd12df-9f3a-4af6-97ac-045eea3df2d1"},"vehicle_type_id":"4","last_reported":1702400806,"current_range_meters":26000,"station_id":"ce4bhpp2rcd13ifvqhfg","pricing_plan_id":"free"},{"bike_id":"235022d6-adac-403e-ab42-df342d30e20f","system_id":"levelo_inurba_marseille","lat":43.281548,"lon":5.42643,"is_reserved":false,"is_disabled":false,"rental_uris":{"android":"levelo://app?vid=235022d6-adac-403e-ab42-df342d30e20f","ios":"levelo://app?vid=235022d6-adac-403e-ab42-df342d30e20f"},"vehicle_type_id":"4","last_reported":1702400806,"current_range_meters":24000,"station_id":"ce4bhnh2rcd13ifvqgug","pricing_plan_id":"free"},{"bike_id":"6c4b5fc0-7ee8-4746-860e-1af3ac3082ed","system_id":"levelo_inurba_marseille","lat":43.281548,"lon":5.42643,"is_reserved":false,"is_disabled":false,"rental_uris":{"android":"levelo://app?vid=6c4b5fc0-7ee8-4746-860e-1af3ac3082ed","ios":"levelo://app?vid=6c4b5fc0-7ee8-4746-860e-1af3ac3082ed"},"vehicle_type_id":"4","last_reported":1702400806,"current_range_meters":6400,"station_id":"ce4bhnh2rcd13ifvqgug","pricing_plan_id":"free"},{"bike_id":"13ed3294-9691-41e5-8025-ea99b980a4dc","system_id":"levelo_inurba_marseille","lat":43.281548,"lon":5.42643,"is_reserved":false,"is_disabled":false,"rental_uris":{"android":"levelo://app?vid=13ed3294-9691-41e5-8025-ea99b980a4dc","ios":"levelo://app?vid=13ed3294-9691-41e5-8025-ea99b980a4dc"},"vehicle_type_id":"4","last_reported":1702400806,"current_range_meters":15200,"station_id":"ce4bhnh2rcd13ifvqgug","pricing_plan_id":"free"},{"bike_id":"8df7d674-46f0-4733-9b92-59e823d5aa91","system_id":"levelo_inurba_marseille","lat":43.281548,"lon":5.42643,"is_reserved":false,"is_disabled":false,"rental_uris":{"android":"levelo://app?vid=8df7d674-46f0-4733-9b92-59e823d5aa91","ios":"levelo://app?vid=8df7d674-46f0-4733-9b92-59e823d5aa91"},"vehicle_type_id":"4","last_reported":1702400806,"current_range_meters":14400,"station_id":"ce4bhnh2rcd13ifvqgug","pricing_plan_id":"free"},{"bike_id":"e5fdc1e2-c381-4f98-9c9e-e6c42af79a80","system_id":"levelo_inurba_marseille","lat":43.2607,"lon":5.393983,"is_reserved":false,"is_disabled":false,"rental_uris":{"android":"levelo://app?vid=e5fdc1e2-c381-4f98-9c9e-e6c42af79a80","ios":"levelo://app?vid=e5fdc1e2-c381-4f98-9c9e-e6c42af79a80"},"vehicle_type_id":"4","last_reported":1702400806,"current_range_meters":7600,"station_id":"ce4bhh92rcd13ifvqfj0","pricing_plan_id":"free"},{"bike_id":"cf79e03d-56cf-45eb-826d-8e68b0de265e","system_id":"levelo_inurba_marseille","lat":43.25576,"lon":5.38234,"is_reserved":false,"is_disabled":false,"rental_uris":{"android":"levelo://app?vid=cf79e03d-56cf-45eb-826d-8e68b0de265e","ios":"levelo://app?vid=cf79e03d-56cf-45eb-826d-8e68b0de265e"},"vehicle_type_id":"4","last_reported":1702400806,"current_range_meters":10000,"station_id":"ce4bhih2rcd13ifvqfs0","pricing_plan_id":"free"},{"bike_id":"6b33ae48-a430-49fb-90dd-8a1d2f80306d","system_id":"levelo_inurba_marseille","lat":43.25575,"lon":5.3823,"is_reserved":false,"is_disabled":false,"rental_uris":{"android":"levelo://app?vid=6b33ae48-a430-49fb-90dd-8a1d2f80306d","ios":"levelo://app?vid=6b33ae48-a430-49fb-90dd-8a1d2f80306d"},"vehicle_type_id":"4","last_reported":1702400806,"current_range_meters":20000,"station_id":"ce4bhih2rcd13ifvqfs0","pricing_plan_id":"free"},{"bike_id":"1d1ed9c6-9789-4f26-ab80-f140cebcce0b","system_id":"levelo_inurba_marseille","lat":43.25575,"lon":5.38233,"is_reserved":false,"is_disabled":false,"rental_uris":{"android":"levelo://app?vid=1d1ed9c6-9789-4f26-ab80-f140cebcce0b","ios":"levelo://app?vid=1d1ed9c6-9789-4f26-ab80-f140cebcce0b"},"vehicle_type_id":"4","last_reported":1702400806,"current_range_meters":21600,"station_id":"ce4bhih2rcd13ifvqfs0","pricing_plan_id":"free"},{"bike_id":"58467938-fcf7-416c-bd8f-992e59489db0","system_id":"levelo_inurba_marseille","lat":43.258224,"lon":5.394369,"is_reserved":false,"is_disabled":false,"rental_uris":{"android":"levelo://app?vid=58467938-fcf7-416c-bd8f-992e59489db0","ios":"levelo://app?vid=58467938-fcf7-416c-bd8f-992e59489db0"},"vehicle_type_id":"4","last_reported":1702400806,"current_range_meters":6000,"station_id":"ce4bhip2rcd13ifvqft0","pricing_plan_id":"free"},{"bike_id":"17f1f24d-c57a-4f85-82e0-6b8d007a6532","system_id":"levelo_inurba_marseille","lat":43.259013,"lon":5.409301,"is_reserved":false,"is_disabled":false,"rental_uris":{"android":"levelo://app?vid=17f1f24d-c57a-4f85-82e0-6b8d007a6532","ios":"levelo://app?vid=17f1f24d-c57a-4f85-82e0-6b8d007a6532"},"vehicle_type_id":"4","last_reported":1702400806,"current_range_meters":0,"station_id":"ce4bhm92rcd13ifvqglg","pricing_plan_id":"free"},{"bike_id":"2cf55c64-dadd-4e44-9469-d36266dcfb89","system_id":"levelo_inurba_marseille","lat":43.2479,"lon":5.374457,"is_reserved":false,"is_disabled":false,"rental_uris":{"android":"levelo://app?vid=2cf55c64-dadd-4e44-9469-d36266dcfb89","ios":"levelo://app?vid=2cf55c64-dadd-4e44-9469-d36266dcfb89"},"vehicle_type_id":"4","last_reported":1702400806,"current_range_meters":22000,"station_id":"ce4bhgh2rcd13ifvqfb0","pricing_plan_id":"free"},{"bike_id":"cecddc1d-1779-474d-af0f-02edd6a8f969","system_id":"levelo_inurba_marseille","lat":43.24693,"lon":5.382096,"is_reserved":false,"is_disabled":false,"rental_uris":{"android":"levelo://app?vid=cecddc1d-1779-474d-af0f-02edd6a8f969","ios":"levelo://app?vid=cecddc1d-1779-474d-af0f-02edd6a8f969"},"vehicle_type_id":"4","last_reported":1702400806,"current_range_meters":8400,"station_id":"ce4bhih2rcd13ifvqfr0","pricing_plan_id":"free"},{"bike_id":"0addf908-c2e5-408e-b8fd-abc6bd2a38c0","system_id":"levelo_inurba_marseille","lat":43.24663,"lon":5.38164,"is_reserved":false,"is_disabled":false,"rental_uris":{"android":"levelo://app?vid=0addf908-c2e5-408e-b8fd-abc6bd2a38c0","ios":"levelo://app?vid=0addf908-c2e5-408e-b8fd-abc6bd2a38c0"},"vehicle_type_id":"4","last_reported":1702400806,"current_range_meters":14000,"station_id":"ce4bhih2rcd13ifvqfr0","pricing_plan_id":"free"},{"bike_id":"b7644562-ab82-45de-ae3b-0436066b691f","system_id":"levelo_inurba_marseille","lat":43.246467,"lon":5.388984,"is_reserved":false,"is_disabled":false,"rental_uris":{"android":"levelo://app?vid=b7644562-ab82-45de-ae3b-0436066b691f","ios":"levelo://app?vid=b7644562-ab82-45de-ae3b-0436066b691f"},"vehicle_type_id":"4","last_reported":1702400806,"current_range_meters":25200,"station_id":"ce4bhg12rcd13ifvqf60","pricing_plan_id":"free"},{"bike_id":"d0783254-5352-43bf-874c-d2a05f613a85","system_id":"levelo_inurba_marseille","lat":43.243884,"lon":5.370736,"is_reserved":false,"is_disabled":false,"rental_uris":{"android":"levelo://app?vid=d0783254-5352-43bf-874c-d2a05f613a85","ios":"levelo://app?vid=d0783254-5352-43bf-874c-d2a05f613a85"},"vehicle_type_id":"4","last_reported":1702400806,"current_range_meters":5200,"station_id":"ce4bhhh2rcd13ifvqfk0","pricing_plan_id":"free"},{"bike_id":"e5f8a3f9-ad33-4c96-8f80-c9bb436ceb1b","system_id":"levelo_inurba_marseille","lat":43.235802,"lon":5.410483,"is_reserved":false,"is_disabled":false,"rental_uris":{"android":"levelo://app?vid=e5f8a3f9-ad33-4c96-8f80-c9bb436ceb1b","ios":"levelo://app?vid=e5f8a3f9-ad33-4c96-8f80-c9bb436ceb1b"},"vehicle_type_id":"4","last_reported":1702400806,"current_range_meters":14800,"station_id":"","pricing_plan_id":"free"},{"bike_id":"cbc2927c-6269-4362-a708-f04183187904","system_id":"levelo_inurba_marseille","lat":43.231793,"lon":5.400044,"is_reserved":false,"is_disabled":false,"rental_uris":{"android":"levelo://app?vid=cbc2927c-6269-4362-a708-f04183187904","ios":"levelo://app?vid=cbc2927c-6269-4362-a708-f04183187904"},"vehicle_type_id":"4","last_reported":1702400806,"current_range_meters":31200,"station_id":"ce4bhn12rcd13ifvqgqg","pricing_plan_id":"free"},{"bike_id":"2ac59d81-e335-498c-a943-1eabaaaf42b9","system_id":"levelo_inurba_marseille","lat":43.231793,"lon":5.400044,"is_reserved":false,"is_disabled":false,"rental_uris":{"android":"levelo://app?vid=2ac59d81-e335-498c-a943-1eabaaaf42b9","ios":"levelo://app?vid=2ac59d81-e335-498c-a943-1eabaaaf42b9"},"vehicle_type_id":"4","last_reported":1702400806,"current_range_meters":32000,"station_id":"ce4bhn12rcd13ifvqgqg","pricing_plan_id":"free"},{"bike_id":"785d889a-ddbe-4d05-aa30-31dad772363f","system_id":"levelo_inurba_marseille","lat":43.231794,"lon":5.400052,"is_reserved":false,"is_disabled":false,"rental_uris":{"android":"levelo://app?vid=785d889a-ddbe-4d05-aa30-31dad772363f","ios":"levelo://app?vid=785d889a-ddbe-4d05-aa30-31dad772363f"},"vehicle_type_id":"4","last_reported":1702400806,"current_range_meters":20400,"station_id":"ce4bhn12rcd13ifvqgqg","pricing_plan_id":"free"},{"bike_id":"3b6acbeb-fcf2-4d7f-83a0-ba4dc62f4887","system_id":"levelo_inurba_marseille","lat":43.231794,"lon":5.400052,"is_reserved":false,"is_disabled":false,"rental_uris":{"android":"levelo://app?vid=3b6acbeb-fcf2-4d7f-83a0-ba4dc62f4887","ios":"levelo://app?vid=3b6acbeb-fcf2-4d7f-83a0-ba4dc62f4887"},"vehicle_type_id":"4","last_reported":1702400806,"current_range_meters":2400,"station_id":"ce4bhn12rcd13ifvqgqg","pricing_plan_id":"free"},{"bike_id":"5b630b40-ff29-4dd6-a19d-40fab0f10db9","system_id":"levelo_inurba_marseille","lat":43.231794,"lon":5.400052,"is_reserved":false,"is_disabled":false,"rental_uris":{"android":"levelo://app?vid=5b630b40-ff29-4dd6-a19d-40fab0f10db9","ios":"levelo://app?vid=5b630b40-ff29-4dd6-a19d-40fab0f10db9"},"vehicle_type_id":"4","last_reported":1702400806,"current_range_meters":16000,"station_id":"ce4bhn12rcd13ifvqgqg","pricing_plan_id":"free"},{"bike_id":"cc2ab831-c515-4a7c-9e3c-12671627e21c","system_id":"levelo_inurba_marseille","lat":43.231793,"lon":5.400044,"is_reserved":false,"is_disabled":false,"rental_uris":{"android":"levelo://app?vid=cc2ab831-c515-4a7c-9e3c-12671627e21c","ios":"levelo://app?vid=cc2ab831-c515-4a7c-9e3c-12671627e21c"},"vehicle_type_id":"4","last_reported":1702400806,"current_range_meters":20400,"station_id":"ce4bhn12rcd13ifvqgqg","pricing_plan_id":"free"}]}}