{"last_updated":1687043168,"ttl":30,"version":"2.2","data":{"bikes":[{"bike_id":"aa5f2b33-9796-4342-9890-4a1c681add18","system_id":"levelo_inurba_marseille","lat":43.314811,"lon":5.373103,"is_reserved":false,"is_disabled":false,"rental_uris":{"android":"levelo://app?vid=aa5f2b33-9796-4342-9890-4a1c681add18","ios":"levelo://app?vid=aa5f2b33-9796-4342-9890-4a1c681add18"},"vehicle_type_id":"4","last_reported":1687043169,"current_range_meters":16000,"station_id":"ce4bgt12rcd13ifvqcd0","pricing_plan_id":"free"},{"bike_id":"4d6a94cc-c9b4-4347-b940-adf8a33efb7e","system_id":"levelo_inurba_marseille","lat":43.314811,"lon":5.373104,"is_reserved":false,"is_disabled":false,"rental_uris":{"android":"levelo://app?vid=4d6a94cc-c9b4-4347-b940-adf8a33efb7e","ios":"levelo://app?vid=4d6a94cc-c9b4-4347-b940-adf8a33efb7e"},"vehicle_type_id":"4","last_reported":1687043169,"current_range_meters":19200,"station_id":"ce4bgt12rcd13ifvqcd0","pricing_plan_id":"free"},{"bike_id":"94983d95-fa15-43f8-b326-d25e9e2ac099","system_id":"levelo_inurba_marseille","lat":43.30612,"lon":5.3723,"is_reserved":false,"is_disabled":false,"rental_uris":{"android":"levelo://app?vid=94983d95-fa15-43f8-b326-d25e9e2ac099","ios":"levelo://app?vid=94983d95-fa15-43f8-b326-d25e9e2ac099"},"vehicle_type_id":"4","last_reported":1687043169,"current_range_meters":18400,"station_id":"ce4bgqh2rcd13ifvqc4g","pricing_plan_id":"free"},{"bike_id":"9c746439-937e-436d-8c66-cb90c42aae7f","system_id":"levelo_inurba_marseille","lat":43.31168,"lon":5.37746,"is_reserved":false,"is_disabled":false,"rental_uris":{"android":"levelo://app?vid=9c746439-937e-436d-8c66-cb90c42aae7f","ios":"levelo://app?vid=9c746439-937e-436d-8c66-cb90c42aae7f"},"vehicle_type_id":"4","last_reported":1687043169,"current_range_meters":28000,"station_id":"","pricing_plan_id":"free"},{"bike_id":"82c5dcfa-1932-40d6-acc1-c0c583793d8b","system_id":"levelo_inurba_marseille","lat":43.311125,"lon":5.377624,"is_reserved":false,"is_disabled":false,"rental_uris":{"android":"levelo://app?vid=82c5dcfa-1932-40d6-acc1-c0c583793d8b","ios":"levelo://app?vid=82c5dcfa-1932-40d6-acc1-c0c583793d8b"},"vehicle_type_id":"4","last_reported":1687043169,"current_range_meters":28800,"station_id":"ce4bgt92rcd13ifvqcg0","pricing_plan_id":"free"},{"bike_id":"ff809a52-c8c8-4c17-b4f9-30f22a540c0a","system_id":"levelo_inurba_marseille","lat":43.311125,"lon":5.377624,"is_reserved":false,"is_disabled":false,"rental_uris":{"android":"levelo://app?vid=ff809a52-c8c8-4c17-b4f9-30f22a540c0a","ios":"levelo://app?vid=ff809a52-c8c8-4c17-b4f9-30f22a540c0a"},"vehicle_type_id":"4","last_reported":1687043169,"current_range_meters":28800,"station_id":"ce4bgt92rcd13ifvqcg0","pricing_plan_id":"free"},{"bike_id":"2424216c-0462-4ad0-b127-d0366c91b61c","system_id":"levelo_inurba_marseille","lat":43.31708,"lon":5.37716,"is_reserved":false,"is_disabled":false,"rental_uris":{"android":"levelo://app?vid=2424216c-0462-4ad0-b127-d0366c91b61c","ios":"levelo://app?vid=2424216c-0462-4ad0-b127-d0366c91b61c"},"vehicle_type_id":"4","last_reported":1687043169,"current_range_meters":30800,"station_id":"ce4bgth2rcd13ifvqch0","pricing_plan_id":"free"},{"bike_id":"fbf7f121-825b-46b2-88eb-fe1565ad7f4e","system_id":"levelo_inurba_marseille","lat":43.317075,"lon":5.377367,"is_reserved":false,"is_disabled":false,"rental_uris":{"android":"levelo://app?vid=fbf7f121-825b-46b2-88eb-fe1565ad7f4e","ios":"levelo://app?vid=fbf7f121-825b-46b2-88eb-fe1565ad7f4e"},"vehicle_type_id":"4","last_reported":1687043169,"current_range_meters":16400,"station_id":"ce4bgth2rcd13ifvqch0","pricing_plan_id":"free"},{"bike_id":"9995f459-fa59-416d-8a8e-7899ff978c5c","system_id":"levelo_inurba_marseille","lat":43.317075,"lon":5.377367,"is_reserved":false,"is_disabled":false,"rental_uris":{"android":"levelo://app?vid=9995f459-fa59-416d-8a8e-7899ff978c5c","ios":"levelo://app?vid=9995f459-fa59-416d-8a8e-7899ff978c5c"},"vehicle_type_id":"4","last_reported":1687043169,"current_range_meters":22000,"station_id":"ce4bgth2rcd13ifvqch0","pricing_plan_id":"free"},{"bike_id":"3bbb518e-9a83-40f5-84e5-3a5e60f17226","system_id":"levelo_inurba_marseille","lat":43.317075,"lon":5.377367,"is_reserved":false,"is_disabled":false,"rental_uris":{"android":"levelo://app?vid=3bbb518e-9a83-40f5-84e5-3a5e60f17226","ios":"levelo://app?vid=3bbb518e-9a83-40f5-84e5-3a5e60f17226"},"vehicle_type_id":"4","last_reported":1687043169,"current_range_meters":12000,"station_id":"ce4bgth2rcd13ifvqch0","pricing_plan_id":"free"},{"bike_id":"0db3308e-a308-4e01-b972-880bec556f3d","system_id":"levelo_inurba_marseille","lat":43.317075,"lon":5.377367,"is_reserved":false,"is_disabled":false,"rental_uris":{"android":"levelo://app?vid=0db3308e-a308-4e01-b972-880bec556f3d","ios":"levelo://app?vid=0db3308e-a308-4e01-b972-880bec556f3d"},"vehicle_type_id":"4","last_reported":1687043169,"current_range_meters":24800,"station_id":"ce4bgth2rcd13ifvqch0","pricing_plan_id":"free"},{"bike_id":"54105187-4d93-4d9f-90b5-aa0b4942a62d","system_id":"levelo_inurba_marseille","lat":43.315289,"lon":5.380349,"is_reserved":false,"is_disabled":false,"rental_uris":{"android":"levelo://app?vid=54105187-4d93-4d9f-90b5-aa0b4942a62d","ios":"levelo://app?vid=54105187-4d93-4d9f-90b5-aa0b4942a62d"},"vehicle_type_id":"4","last_reported":1687043169,"current_range_meters":0,"station_id":"ce4bhsp2rcd13ifvqi50","pricing_plan_id":"free"},{"bike_id":"8d51db3c-ddf0-4868-a42f-0868b9c8ed86","system_id":"levelo_inurba_marseille","lat":43.31537,"lon":5.38024,"is_reserved":false,"is_disabled":false,"rental_uris":{"android":"levelo://app?vid=8d51db3c-ddf0-4868-a42f-0868b9c8ed86","ios":"levelo://app?vid=8d51db3c-ddf0-4868-a42f-0868b9c8ed86"},"vehicle_type_id":"4","last_reported":1687043169,"current_range_meters":6400,"station_id":"ce4bhsp2rcd13ifvqi50","pricing_plan_id":"free"},{"bike_id":"ae33307b-fcd5-479b-9ae1-9002ed226c6e","system_id":"levelo_inurba_marseille","lat":43.308012,"lon":5.381511,"is_reserved":false,"is_disabled":false,"rental_uris":{"android":"levelo://app?vid=ae33307b-fcd5-479b-9ae1-9002ed226c6e","ios":"levelo://app?vid=ae33307b-fcd5-479b-9ae1-9002ed226c6e"},"vehicle_type_id":"4","last_reported":1687043169,"current_range_meters":31200,"station_id":"ce4bgt12rcd13ifvqce0","pricing_plan_id":"free"},{"bike_id":"3974a690-d1e6-42c5-add6-cffb31c91b71","system_id":"levelo_inurba_marseille","lat":43.308012,"lon":5.381511,"is_reserved":false,"is_disabled":false,"rental_uris":{"android":"levelo://app?vid=3974a690-d1e6-42c5-add6-cffb31c91b71","ios":"levelo://app?vid=3974a690-d1e6-42c5-add6-cffb31c91b71"},"vehicle_type_id":"4","last_reported":1687043169,"current_range_meters":10000,"station_id":"ce4bgt12rcd13ifvqce0","pricing_plan_id":"free"},{"bike_id":"b05dad50-0197-4544-a415-ef3f823f99bf","system_id":"levelo_inurba_marseille","lat":43.308012,"lon":5.381511,"is_reserved":false,"is_disabled":false,"rental_uris":{"android":"levelo://app?vid=b05dad50-0197-4544-a415-ef3f823f99bf","ios":"levelo://app?vid=b05dad50-0197-4544-a415-ef3f823f99bf"},"vehicle_type_id":"4","last_reported":1687043169,"current_range_meters":1600,"station_id":"ce4bgt12rcd13ifvqce0","pricing_plan_id":"free"},{"bike_id":"d815316b-c507-41ea-a341-91074263b59e","system_id":"levelo_inurba_marseille","lat":43.3046,"lon":5.37896,"is_reserved":false,"is_disabled":false,"rental_uris":{"android":"levelo://app?vid=d815316b-c507-41ea-a341-91074263b59e","ios":"levelo://app?vid=d815316b-c507-41ea-a341-91074263b59e"},"vehicle_type_id":"4","last_reported":1687043169,"current_range_meters":17600,"station_id":"ce4bgup2rcd13ifvqcn0","pricing_plan_id":"free"},{"bike_id":"43fc693e-f2a9-4aec-8fd9-d094bb02cb70","system_id":"levelo_inurba_marseille","lat":43.304606,"lon":5.379026,"is_reserved":false,"is_disabled":false,"rental_uris":{"android":"levelo://app?vid=43fc693e-f2a9-4aec-8fd9-d094bb02cb70","ios":"levelo://app?vid=43fc693e-f2a9-4aec-8fd9-d094bb02cb70"},"vehicle_type_id":"4","last_reported":1687043169,"current_range_meters":19600,"station_id":"ce4bgup2rcd13ifvqcn0","pricing_plan_id":"free"},{"bike_id":"5003c2fa-8578-4b5b-aee0-bf9c6a52e3f5","system_id":"levelo_inurba_marseille","lat":43.31996,"lon":5.38156,"is_reserved":false,"is_disabled":false,"rental_uris":{"android":"levelo://app?vid=5003c2fa-8578-4b5b-aee0-bf9c6a52e3f5","ios":"levelo://app?vid=5003c2fa-8578-4b5b-aee0-bf9c6a52e3f5"},"vehicle_type_id":"4","last_reported":1687043169,"current_range_meters":0,"station_id":"ce4bhr12rcd13ifvqhpg","pricing_plan_id":"free"},{"bike_id":"3c3aa989-db63-4017-86a4-556c2b8f3d59","system_id":"levelo_inurba_marseille","lat":43.319935,"lon":5.381699,"is_reserved":false,"is_disabled":false,"rental_uris":{"android":"levelo://app?vid=3c3aa989-db63-4017-86a4-556c2b8f3d59","ios":"levelo://app?vid=3c3aa989-db63-4017-86a4-556c2b8f3d59"},"vehicle_type_id":"4","last_reported":1687043169,"current_range_meters":20800,"station_id":"ce4bhr12rcd13ifvqhpg","pricing_plan_id":"free"},{"bike_id":"ff5743b0-24ef-4cf5-8c04-45314bcb6ae2","system_id":"levelo_inurba_marseille","lat":43.319935,"lon":5.381699,"is_reserved":false,"is_disabled":false,"rental_uris":{"android":"levelo://app?vid=ff5743b0-24ef-4cf5-8c04-45314bcb6ae2","ios":"levelo://app?vid=ff5743b0-24ef-4cf5-8c04-45314bcb6ae2"},"vehicle_type_id":"4","last_reported":1687043169,"current_range_meters":29600,"station_id":"ce4bhr12rcd13ifvqhpg","pricing_plan_id":"free"},{"bike_id":"b7a04f58-67ae-402c-8dcd-236991a1864e","system_id":"levelo_inurba_marseille","lat":43.30172,"lon":5.37635,"is_reserved":false,"is_disabled":false,"rental_uris":{"android":"levelo://app?vid=b7a04f58-67ae-402c-8dcd-236991a1864e","ios":"levelo://app?vid=b7a04f58-67ae-402c-8dcd-236991a1864e"},"vehicle_type_id":"4","last_reported":1687043169,"current_range_meters":10800,"station_id":"","pricing_plan_id":"free"},{"bike_id":"b7083e8c-e5cc-4d91-a23f-7d1a82d7f611","system_id":"levelo_inurba_marseille","lat":43.31362,"lon":5.38486,"is_reserved":false,"is_disabled":false,"rental_uris":{"android":"levelo://app?vid=b7083e8c-e5cc-4d91-a23f-7d1a82d7f611","ios":"levelo://app?vid=b7083e8c-e5cc-4d91-a23f-7d1a82d7f611"},"vehicle_type_id":"4","last_reported":1687043169,"current_range_meters":6800,"station_id":"ce4bgt92rcd13ifvqcf0","pricing_plan_id":"free"},{"bike_id":"924521ee-c5b9-4d2a-8d21-8dc1ab275713","system_id":"levelo_inurba_marseille","lat":43.313571,"lon":5.384829,"is_reserved":false,"is_disabled":false,"rental_uris":{"android":"levelo://app?vid=924521ee-c5b9-4d2a-8d21-8dc1ab275713","ios":"levelo://app?vid=924521ee-c5b9-4d2a-8d21-8dc1ab275713"},"vehicle_type_id":"4","last_reported":1687043169,"current_range_meters":20400,"station_id":"ce4bgt92rcd13ifvqcf0","pricing_plan_id":"free"},{"bike_id":"6e28bd5a-93e6-42b5-b6f5-0c239ef2e7f7","system_id":"levelo_inurba_marseille","lat":43.313571,"lon":5.384829,"is_reserved":false,"is_disabled":false,"rental_uris":{"android":"levelo://app?vid=6e28bd5a-93e6-42b5-b6f5-0c239ef2e7f7","ios":"levelo://app?vid=6e28bd5a-93e6-42b5-b6f5-0c239ef2e7f7"},"vehicle_type_id":"4","last_reported":1687043169,"current_range_meters":24000,"station_id":"ce4bgt92rcd13ifvqcf0","pricing_plan_id":"free"},{"bike_id":"be9b30f3-9373-4cea-afa6-196e414e5e56","system_id":"levelo_inurba_marseille","lat":43.31356,"lon":5.38495,"is_reserved":false,"is_disabled":false,"rental_uris":{"android":"levelo://app?vid=be9b30f3-9373-4cea-afa6-196e414e5e56","ios":"levelo://app?vid=be9b30f3-9373-4cea-afa6-196e414e5e56"},"vehicle_type_id":"4","last_reported":1687043169,"current_range_meters":26000,"station_id":"ce4bgt92rcd13ifvqcf0","pricing_plan_id":"free"},{"bike_id":"71500408-18a8-4462-a538-479ec487d429","system_id":"levelo_inurba_marseille","lat":43.31359,"lon":5.38495,"is_reserved":false,"is_disabled":false,"rental_uris":{"android":"levelo://app?vid=71500408-18a8-4462-a538-479ec487d429","ios":"levelo://app?vid=71500408-18a8-4462-a538-479ec487d429"},"vehicle_type_id":"4","last_reported":1687043169,"current_range_meters":30800,"station_id":"ce4bgt92rcd13ifvqcf0","pricing_plan_id":"free"},{"bike_id":"a37eae01-9c97-4166-a85a-f4f3ab945240","system_id":"levelo_inurba_marseille","lat":43.31365,"lon":5.385,"is_reserved":false,"is_disabled":false,"rental_uris":{"android":"levelo://app?vid=a37eae01-9c97-4166-a85a-f4f3ab945240","ios":"levelo://app?vid=a37eae01-9c97-4166-a85a-f4f3ab945240"},"vehicle_type_id":"4","last_reported":1687043169,"current_range_meters":30400,"station_id":"ce4bgt92rcd13ifvqcf0","pricing_plan_id":"free"},{"bike_id":"47851bed-6dee-4f60-a6d5-7a8303bf4d46","system_id":"levelo_inurba_marseille","lat":43.31364,"lon":5.38501,"is_reserved":false,"is_disabled":false,"rental_uris":{"android":"levelo://app?vid=47851bed-6dee-4f60-a6d5-7a8303bf4d46","ios":"levelo://app?vid=47851bed-6dee-4f60-a6d5-7a8303bf4d46"},"vehicle_type_id":"4","last_reported":1687043169,"current_range_meters":2800,"station_id":"ce4bgt92rcd13ifvqcf0","pricing_plan_id":"free"},{"bike_id":"b50ba2f7-d5f2-4418-a133-9c573d2a7e86","system_id":"levelo_inurba_marseille","lat":43.31361,"lon":5.38502,"is_reserved":false,"is_disabled":false,"rental_uris":{"android":"levelo://app?vid=b50ba2f7-d5f2-4418-a133-9c573d2a7e86","ios":"levelo://app?vid=b50ba2f7-d5f2-4418-a133-9c573d2a7e86"},"vehicle_type_id":"4","last_reported":1687043169,"current_range_meters":23600,"station_id":"ce4bgt92rcd13ifvqcf0","pricing_plan_id":"free"},{"bike_id":"9f2a96b0-ee04-4dc0-bb33-b97070d5fcbc","system_id":"levelo_inurba_marseille","lat":43.31365,"lon":5.38504,"is_reserved":false,"is_disabled":false,"rental_uris":{"android":"levelo://app?vid=9f2a96b0-ee04-4dc0-bb33-b97070d5fcbc","ios":"levelo://app?vid=9f2a96b0-ee04-4dc0-bb33-b97070d5fcbc"},"vehicle_type_id":"4","last_reported":1687043169,"current_range_meters":30400,"station_id":"ce4bgt92rcd13ifvqcf0","pricing_plan_id":"free"},{"bike_id":"330412da-b9eb-49fa-9ba0-9288ee9ddd31","system_id":"levelo_inurba_marseille","lat":43.30049,"lon":5.37529,"is_reserved":false,"is_disabled":false,"rental_uris":{"android":"levelo://app?vid=330412da-b9eb-49fa-9ba0-9288ee9ddd31","ios":"levelo://app?vid=330412da-b9eb-49fa-9ba0-9288ee9ddd31"},"vehicle_type_id":"4","last_reported":1687043169,"current_range_meters":17200,"station_id":"","pricing_plan_id":"free"},{"bike_id":"4c6fe108-c6e9-4795-8fdd-5b04ebdc1bfd","system_id":"levelo_inurba_marseille","lat":43.311722,"lon":5.387247,"is_reserved":false,"is_disabled":false,"rental_uris":{"android":"levelo://app?vid=4c6fe108-c6e9-4795-8fdd-5b04ebdc1bfd","ios":"levelo://app?vid=4c6fe108-c6e9-4795-8fdd-5b04ebdc1bfd"},"vehicle_type_id":"4","last_reported":1687043169,"current_range_meters":14400,"station_id":"ce4bgv12rcd13ifvqcp0","pricing_plan_id":"free"},{"bike_id":"61b51836-0193-4418-8e0b-fe395a24719c","system_id":"levelo_inurba_marseille","lat":43.299243,"lon":5.374807,"is_reserved":false,"is_disabled":false,"rental_uris":{"android":"levelo://app?vid=61b51836-0193-4418-8e0b-fe395a24719c","ios":"levelo://app?vid=61b51836-0193-4418-8e0b-fe395a24719c"},"vehicle_type_id":"4","last_reported":1687043169,"current_range_meters":19600,"station_id":"ce4bgjh2rcd13ifvqbg0","pricing_plan_id":"free"},{"bike_id":"4e010148-4e47-4069-bfbb-8be4d30e441f","system_id":"levelo_inurba_marseille","lat":43.311722,"lon":5.387247,"is_reserved":false,"is_disabled":false,"rental_uris":{"android":"levelo://app?vid=4e010148-4e47-4069-bfbb-8be4d30e441f","ios":"levelo://app?vid=4e010148-4e47-4069-bfbb-8be4d30e441f"},"vehicle_type_id":"4","last_reported":1687043169,"current_range_meters":29200,"station_id":"ce4bgv12rcd13ifvqcp0","pricing_plan_id":"free"},{"bike_id":"a2cd33b7-aa8a-4b25-b79e-5a99f5e94b93","system_id":"levelo_inurba_marseille","lat":43.311722,"lon":5.387247,"is_reserved":false,"is_disabled":false,"rental_uris":{"android":"levelo://app?vid=a2cd33b7-aa8a-4b25-b79e-5a99f5e94b93","ios":"levelo://app?vid=a2cd33b7-aa8a-4b25-b79e-5a99f5e94b93"},"vehicle_type_id":"4","last_reported":1687043169,"current_range_meters":29600,"station_id":"ce4bgv12rcd13ifvqcp0","pricing_plan_id":"free"},{"bike_id":"b05591fa-9e46-4baf-b228-45559387bd5c","system_id":"levelo_inurba_marseille","lat":43.311722,"lon":5.387247,"is_reserved":false,"is_disabled":false,"rental_uris":{"android":"levelo://app?vid=b05591fa-9e46-4baf-b228-45559387bd5c","ios":"levelo://app?vid=b05591fa-9e46-4baf-b228-45559387bd5c"},"vehicle_type_id":"4","last_reported":1687043169,"current_range_meters":22400,"station_id":"ce4bgv12rcd13ifvqcp0","pricing_plan_id":"free"},{"bike_id":"a2043dc6-9540-4935-8e38-a45af09088ba","system_id":"levelo_inurba_marseille","lat":43.297794,"lon":5.370888,"is_reserved":false,"is_disabled":false,"rental_uris":{"android":"levelo://app?vid=a2043dc6-9540-4935-8e38-a45af09088ba","ios":"levelo://app?vid=a2043dc6-9540-4935-8e38-a45af09088ba"},"vehicle_type_id":"4","last_reported":1687043169,"current_range_meters":4800,"station_id":"ce4bgop2rcd13ifvqc1g","pricing_plan_id":"free"},{"bike_id":"c425ddc1-98fb-4f5b-a30e-e4f1e90290b1","system_id":"levelo_inurba_marseille","lat":43.328371,"lon":5.366909,"is_reserved":false,"is_disabled":false,"rental_uris":{"android":"levelo://app?vid=c425ddc1-98fb-4f5b-a30e-e4f1e90290b1","ios":"levelo://app?vid=c425ddc1-98fb-4f5b-a30e-e4f1e90290b1"},"vehicle_type_id":"4","last_reported":1687043169,"current_range_meters":8800,"station_id":"ce4bhs92rcd13ifvqi0g","pricing_plan_id":"free"},{"bike_id":"176f4894-d7fc-460e-aa5d-7c8c1e206dc3","system_id":"levelo_inurba_marseille","lat":43.297163,"lon":5.365866,"is_reserved":false,"is_disabled":false,"rental_uris":{"android":"levelo://app?vid=176f4894-d7fc-460e-aa5d-7c8c1e206dc3","ios":"levelo://app?vid=176f4894-d7fc-460e-aa5d-7c8c1e206dc3"},"vehicle_type_id":"4","last_reported":1687043169,"current_range_meters":14000,"station_id":"ce4bgn12rcd13ifvqbt0","pricing_plan_id":"free"},{"bike_id":"88d0330c-5bb0-4a19-9b65-d4683b42e015","system_id":"levelo_inurba_marseille","lat":43.29683,"lon":5.36046,"is_reserved":false,"is_disabled":false,"rental_uris":{"android":"levelo://app?vid=88d0330c-5bb0-4a19-9b65-d4683b42e015","ios":"levelo://app?vid=88d0330c-5bb0-4a19-9b65-d4683b42e015"},"vehicle_type_id":"4","last_reported":1687043169,"current_range_meters":4800,"station_id":"ce4bgpp2rcd13ifvqc3g","pricing_plan_id":"free"},{"bike_id":"24f41ca5-b432-4feb-a0c8-a15026b97306","system_id":"levelo_inurba_marseille","lat":43.296131,"lon":5.370773,"is_reserved":false,"is_disabled":false,"rental_uris":{"android":"levelo://app?vid=24f41ca5-b432-4feb-a0c8-a15026b97306","ios":"levelo://app?vid=24f41ca5-b432-4feb-a0c8-a15026b97306"},"vehicle_type_id":"4","last_reported":1687043169,"current_range_meters":14400,"station_id":"ce4bgnh2rcd13ifvqc0g","pricing_plan_id":"free"},{"bike_id":"0091cf51-1e99-47dd-afa8-81f920a3340e","system_id":"levelo_inurba_marseille","lat":43.309589,"lon":5.390258,"is_reserved":false,"is_disabled":false,"rental_uris":{"android":"levelo://app?vid=0091cf51-1e99-47dd-afa8-81f920a3340e","ios":"levelo://app?vid=0091cf51-1e99-47dd-afa8-81f920a3340e"},"vehicle_type_id":"4","last_reported":1687043169,"current_range_meters":18800,"station_id":"ce4bgup2rcd13ifvqco0","pricing_plan_id":"free"},{"bike_id":"d5de72ab-84bd-4696-acdf-5093e90042cb","system_id":"levelo_inurba_marseille","lat":43.309589,"lon":5.390258,"is_reserved":false,"is_disabled":false,"rental_uris":{"android":"levelo://app?vid=d5de72ab-84bd-4696-acdf-5093e90042cb","ios":"levelo://app?vid=d5de72ab-84bd-4696-acdf-5093e90042cb"},"vehicle_type_id":"4","last_reported":1687043169,"current_range_meters":6000,"station_id":"ce4bgup2rcd13ifvqco0","pricing_plan_id":"free"},{"bike_id":"4a10882c-7152-4233-bc08-3e7673adbd38","system_id":"levelo_inurba_marseille","lat":43.317557,"lon":5.390173,"is_reserved":false,"is_disabled":false,"rental_uris":{"android":"levelo://app?vid=4a10882c-7152-4233-bc08-3e7673adbd38","ios":"levelo://app?vid=4a10882c-7152-4233-bc08-3e7673adbd38"},"vehicle_type_id":"4","last_reported":1687043169,"current_range_meters":25600,"station_id":"ce4bhqp2rcd13ifvqhng","pricing_plan_id":"free"},{"bike_id":"250c8a96-8498-4211-b8f3-1b00a8d1fbaf","system_id":"levelo_inurba_marseille","lat":43.296477,"lon":5.37768,"is_reserved":false,"is_disabled":false,"rental_uris":{"android":"levelo://app?vid=250c8a96-8498-4211-b8f3-1b00a8d1fbaf","ios":"levelo://app?vid=250c8a96-8498-4211-b8f3-1b00a8d1fbaf"},"vehicle_type_id":"4","last_reported":1687043169,"current_range_meters":14800,"station_id":"","pricing_plan_id":"free"},{"bike_id":"bfd4cea7-f003-4bd7-9d28-85492b0296ac","system_id":"levelo_inurba_marseille","lat":43.304278,"lon":5.388868,"is_reserved":false,"is_disabled":false,"rental_uris":{"android":"levelo://app?vid=bfd4cea7-f003-4bd7-9d28-85492b0296ac","ios":"levelo://app?vid=bfd4cea7-f003-4bd7-9d28-85492b0296ac"},"vehicle_type_id":"4","last_reported":1687043169,"current_range_meters":2400,"station_id":"ce4bgk12rcd13ifvqbi0","pricing_plan_id":"free"},{"bike_id":"eb56f040-d7e3-440c-9d05-82afe187dd21","system_id":"levelo_inurba_marseille","lat":43.299717,"lon":5.384845,"is_reserved":false,"is_disabled":false,"rental_uris":{"android":"levelo://app?vid=eb56f040-d7e3-440c-9d05-82afe187dd21","ios":"levelo://app?vid=eb56f040-d7e3-440c-9d05-82afe187dd21"},"vehicle_type_id":"4","last_reported":1687043169,"current_range_meters":30800,"station_id":"ce4bgj92rcd13ifvqbd0","pricing_plan_id":"free"},{"bike_id":"2c9ad911-25e0-4222-8751-d809dfadd582","system_id":"levelo_inurba_marseille","lat":43.32368,"lon":5.38854,"is_reserved":false,"is_disabled":false,"rental_uris":{"android":"levelo://app?vid=2c9ad911-25e0-4222-8751-d809dfadd582","ios":"levelo://app?vid=2c9ad911-25e0-4222-8751-d809dfadd582"},"vehicle_type_id":"4","last_reported":1687043169,"current_range_meters":24000,"station_id":"ce4bhqp2rcd13ifvqhog","pricing_plan_id":"free"},{"bike_id":"6bf2229b-f534-4647-b322-42cb17c0e26c","system_id":"levelo_inurba_marseille","lat":43.32368,"lon":5.38876,"is_reserved":false,"is_disabled":false,"rental_uris":{"android":"levelo://app?vid=6bf2229b-f534-4647-b322-42cb17c0e26c","ios":"levelo://app?vid=6bf2229b-f534-4647-b322-42cb17c0e26c"},"vehicle_type_id":"4","last_reported":1687043169,"current_range_meters":17600,"station_id":"ce4bhqp2rcd13ifvqhog","pricing_plan_id":"free"},{"bike_id":"a5d34394-8ea3-4622-ac56-bc8a8abe2d11","system_id":"levelo_inurba_marseille","lat":43.32367,"lon":5.388836,"is_reserved":false,"is_disabled":false,"rental_uris":{"android":"levelo://app?vid=a5d34394-8ea3-4622-ac56-bc8a8abe2d11","ios":"levelo://app?vid=a5d34394-8ea3-4622-ac56-bc8a8abe2d11"},"vehicle_type_id":"4","last_reported":1687043169,"current_range_meters":1200,"station_id":"ce4bhqp2rcd13ifvqhog","pricing_plan_id":"free"},{"bike_id":"994ffda2-4c5a-4608-9f56-696508fcf4bd","system_id":"levelo_inurba_marseille","lat":43.32367,"lon":5.388836,"is_reserved":false,"is_disabled":false,"rental_uris":{"android":"levelo://app?vid=994ffda2-4c5a-4608-9f56-696508fcf4bd","ios":"levelo://app?vid=994ffda2-4c5a-4608-9f56-696508fcf4bd"},"vehicle_type_id":"4","last_reported":1687043169,"current_range_meters":20800,"station_id":"ce4bhqp2rcd13ifvqhog","pricing_plan_id":"free"},{"bike_id":"c25bbca6-334a-48c9-b2aa-c69eb97c9d81","system_id":"levelo_inurba_marseille","lat":43.32367,"lon":5.388836,"is_reserved":false,"is_disabled":false,"rental_uris":{"android":"levelo://app?vid=c25bbca6-334a-48c9-b2aa-c69eb97c9d81","ios":"levelo://app?vid=c25bbca6-334a-48c9-b2aa-c69eb97c9d81"},"vehicle_type_id":"4","last_reported":1687043169,"current_range_meters":12800,"station_id":"ce4bhqp2rcd13ifvqhog","pricing_plan_id":"free"},{"bike_id":"bd5e051b-6414-4247-b6a0-72183ead9f6c","system_id":"levelo_inurba_marseille","lat":43.31982,"lon":5.3919,"is_reserved":false,"is_disabled":false,"rental_uris":{"android":"levelo://app?vid=bd5e051b-6414-4247-b6a0-72183ead9f6c","ios":"levelo://app?vid=bd5e051b-6414-4247-b6a0-72183ead9f6c"},"vehicle_type_id":"4","last_reported":1687043169,"current_range_meters":8400,"station_id":"","pricing_plan_id":"free"},{"bike_id":"dd952219-698a-44a9-bbb8-56a8a24206f5","system_id":"levelo_inurba_marseille","lat":43.292749,"lon":5.368398,"is_reserved":false,"is_disabled":false,"rental_uris":{"android":"levelo://app?vid=dd952219-698a-44a9-bbb8-56a8a24206f5","ios":"levelo://app?vid=dd952219-698a-44a9-bbb8-56a8a24206f5"},"vehicle_type_id":"4","last_reported":1687043169,"current_range_meters":20800,"station_id":"ce4bhbp2rcd13ifvqesg","pricing_plan_id":"free"},{"bike_id":"b938ea97-b4d8-474b-b30c-05421f58286f","system_id":"levelo_inurba_marseille","lat":43.293009,"lon":5.374584,"is_reserved":false,"is_disabled":false,"rental_uris":{"android":"levelo://app?vid=b938ea97-b4d8-474b-b30c-05421f58286f","ios":"levelo://app?vid=b938ea97-b4d8-474b-b30c-05421f58286f"},"vehicle_type_id":"4","last_reported":1687043169,"current_range_meters":17600,"station_id":"ce4bgi12rcd13ifvqb70","pricing_plan_id":"free"},{"bike_id":"6d1c6fb2-26ff-4c29-b3eb-ecffde9a108a","system_id":"levelo_inurba_marseille","lat":43.30596,"lon":5.39359,"is_reserved":false,"is_disabled":false,"rental_uris":{"android":"levelo://app?vid=6d1c6fb2-26ff-4c29-b3eb-ecffde9a108a","ios":"levelo://app?vid=6d1c6fb2-26ff-4c29-b3eb-ecffde9a108a"},"vehicle_type_id":"4","last_reported":1687043169,"current_range_meters":8400,"station_id":"ce4bh0p2rcd13ifvqd80","pricing_plan_id":"free"},{"bike_id":"483b5078-af06-4c64-8807-7ff712ebc304","system_id":"levelo_inurba_marseille","lat":43.30309,"lon":5.39194,"is_reserved":false,"is_disabled":false,"rental_uris":{"android":"levelo://app?vid=483b5078-af06-4c64-8807-7ff712ebc304","ios":"levelo://app?vid=483b5078-af06-4c64-8807-7ff712ebc304"},"vehicle_type_id":"4","last_reported":1687043169,"current_range_meters":8000,"station_id":"ce4bgkh2rcd13ifvqbk0","pricing_plan_id":"free"},{"bike_id":"86f64ec7-a049-4b1d-ab57-af64db6d6a73","system_id":"levelo_inurba_marseille","lat":43.30085,"lon":5.390856,"is_reserved":false,"is_disabled":false,"rental_uris":{"android":"levelo://app?vid=86f64ec7-a049-4b1d-ab57-af64db6d6a73","ios":"levelo://app?vid=86f64ec7-a049-4b1d-ab57-af64db6d6a73"},"vehicle_type_id":"4","last_reported":1687043169,"current_range_meters":11200,"station_id":"ce4bh192rcd13ifvqdb0","pricing_plan_id":"free"},{"bike_id":"6ad02c3f-9282-490b-916e-655e0f69881b","system_id":"levelo_inurba_marseille","lat":43.292663,"lon":5.376389,"is_reserved":false,"is_disabled":false,"rental_uris":{"android":"levelo://app?vid=6ad02c3f-9282-490b-916e-655e0f69881b","ios":"levelo://app?vid=6ad02c3f-9282-490b-916e-655e0f69881b"},"vehicle_type_id":"4","last_reported":1687043169,"current_range_meters":29600,"station_id":"ce4bgi12rcd13ifvqb80","pricing_plan_id":"free"},{"bike_id":"7a277aaa-9d22-45cc-9515-23c84393317c","system_id":"levelo_inurba_marseille","lat":43.291671,"lon":5.371575,"is_reserved":false,"is_disabled":false,"rental_uris":{"android":"levelo://app?vid=7a277aaa-9d22-45cc-9515-23c84393317c","ios":"levelo://app?vid=7a277aaa-9d22-45cc-9515-23c84393317c"},"vehicle_type_id":"4","last_reported":1687043169,"current_range_meters":13200,"station_id":"ce4bha92rcd13ifvqeh0","pricing_plan_id":"free"},{"bike_id":"2b0aedbb-f6c9-4026-8f50-60792a4d6c25","system_id":"levelo_inurba_marseille","lat":43.305994,"lon":5.393687,"is_reserved":false,"is_disabled":false,"rental_uris":{"android":"levelo://app?vid=2b0aedbb-f6c9-4026-8f50-60792a4d6c25","ios":"levelo://app?vid=2b0aedbb-f6c9-4026-8f50-60792a4d6c25"},"vehicle_type_id":"4","last_reported":1687043169,"current_range_meters":20400,"station_id":"ce4bh0p2rcd13ifvqd80","pricing_plan_id":"free"},{"bike_id":"2c2bd094-5ccd-443b-8115-70615c977b46","system_id":"levelo_inurba_marseille","lat":43.313291,"lon":5.396838,"is_reserved":false,"is_disabled":false,"rental_uris":{"android":"levelo://app?vid=2c2bd094-5ccd-443b-8115-70615c977b46","ios":"levelo://app?vid=2c2bd094-5ccd-443b-8115-70615c977b46"},"vehicle_type_id":"4","last_reported":1687043169,"current_range_meters":24400,"station_id":"ce4bgvp2rcd13ifvqcu0","pricing_plan_id":"free"},{"bike_id":"279e04c7-e537-4d5f-b788-544376849e28","system_id":"levelo_inurba_marseille","lat":43.313291,"lon":5.396838,"is_reserved":false,"is_disabled":false,"rental_uris":{"android":"levelo://app?vid=279e04c7-e537-4d5f-b788-544376849e28","ios":"levelo://app?vid=279e04c7-e537-4d5f-b788-544376849e28"},"vehicle_type_id":"4","last_reported":1687043169,"current_range_meters":2000,"station_id":"ce4bgvp2rcd13ifvqcu0","pricing_plan_id":"free"},{"bike_id":"2062b11c-a9c7-48c7-81d6-71a310c44278","system_id":"levelo_inurba_marseille","lat":43.309038,"lon":5.396546,"is_reserved":false,"is_disabled":false,"rental_uris":{"android":"levelo://app?vid=2062b11c-a9c7-48c7-81d6-71a310c44278","ios":"levelo://app?vid=2062b11c-a9c7-48c7-81d6-71a310c44278"},"vehicle_type_id":"4","last_reported":1687043169,"current_range_meters":5600,"station_id":"ce4bh012rcd13ifvqcv0","pricing_plan_id":"free"},{"bike_id":"1743d1fe-ee02-459e-ac0d-6c270c98c590","system_id":"levelo_inurba_marseille","lat":43.290624,"lon":5.359245,"is_reserved":false,"is_disabled":false,"rental_uris":{"android":"levelo://app?vid=1743d1fe-ee02-459e-ac0d-6c270c98c590","ios":"levelo://app?vid=1743d1fe-ee02-459e-ac0d-6c270c98c590"},"vehicle_type_id":"4","last_reported":1687043169,"current_range_meters":6800,"station_id":"ce4bha92rcd13ifvqeg0","pricing_plan_id":"free"},{"bike_id":"88950928-f9de-4116-a4f7-2573e4140727","system_id":"levelo_inurba_marseille","lat":43.290631,"lon":5.359244,"is_reserved":false,"is_disabled":false,"rental_uris":{"android":"levelo://app?vid=88950928-f9de-4116-a4f7-2573e4140727","ios":"levelo://app?vid=88950928-f9de-4116-a4f7-2573e4140727"},"vehicle_type_id":"4","last_reported":1687043169,"current_range_meters":25600,"station_id":"ce4bha92rcd13ifvqeg0","pricing_plan_id":"free"},{"bike_id":"91100496-f576-4884-b771-ad2c302f1412","system_id":"levelo_inurba_marseille","lat":43.289184,"lon":5.366408,"is_reserved":false,"is_disabled":false,"rental_uris":{"android":"levelo://app?vid=91100496-f576-4884-b771-ad2c302f1412","ios":"levelo://app?vid=91100496-f576-4884-b771-ad2c302f1412"},"vehicle_type_id":"4","last_reported":1687043169,"current_range_meters":14400,"station_id":"ce4bhap2rcd13ifvqek0","pricing_plan_id":"free"},{"bike_id":"ce57122e-07e1-4e99-997c-9062fd9f2ef4","system_id":"levelo_inurba_marseille","lat":43.304296,"lon":5.397513,"is_reserved":false,"is_disabled":false,"rental_uris":{"android":"levelo://app?vid=ce57122e-07e1-4e99-997c-9062fd9f2ef4","ios":"levelo://app?vid=ce57122e-07e1-4e99-997c-9062fd9f2ef4"},"vehicle_type_id":"4","last_reported":1687043169,"current_range_meters":1600,"station_id":"ce4bh092rcd13ifvqd20","pricing_plan_id":"free"},{"bike_id":"38eb09af-7166-42b9-865e-84246929498f","system_id":"levelo_inurba_marseille","lat":43.292642,"lon":5.384254,"is_reserved":false,"is_disabled":false,"rental_uris":{"android":"levelo://app?vid=38eb09af-7166-42b9-865e-84246929498f","ios":"levelo://app?vid=38eb09af-7166-42b9-865e-84246929498f"},"vehicle_type_id":"4","last_reported":1687043169,"current_range_meters":31200,"station_id":"ce4bh692rcd13ifvqea0","pricing_plan_id":"free"},{"bike_id":"7a19f85c-3a1e-497c-ac40-4aee991e94ff","system_id":"levelo_inurba_marseille","lat":43.330442,"lon":5.389148,"is_reserved":false,"is_disabled":false,"rental_uris":{"android":"levelo://app?vid=7a19f85c-3a1e-497c-ac40-4aee991e94ff","ios":"levelo://app?vid=7a19f85c-3a1e-497c-ac40-4aee991e94ff"},"vehicle_type_id":"4","last_reported":1687043169,"current_range_meters":31200,"station_id":"ce4bhr92rcd13ifvqhrg","pricing_plan_id":"free"},{"bike_id":"46a8e731-9ddb-4ace-907b-cbe70799f0ca","system_id":"levelo_inurba_marseille","lat":43.330442,"lon":5.389148,"is_reserved":false,"is_disabled":false,"rental_uris":{"android":"levelo://app?vid=46a8e731-9ddb-4ace-907b-cbe70799f0ca","ios":"levelo://app?vid=46a8e731-9ddb-4ace-907b-cbe70799f0ca"},"vehicle_type_id":"4","last_reported":1687043169,"current_range_meters":30400,"station_id":"ce4bhr92rcd13ifvqhrg","pricing_plan_id":"free"},{"bike_id":"af779039-8539-4a60-9c5e-b3e41fc1f3ab","system_id":"levelo_inurba_marseille","lat":43.33046,"lon":5.38915,"is_reserved":false,"is_disabled":false,"rental_uris":{"android":"levelo://app?vid=af779039-8539-4a60-9c5e-b3e41fc1f3ab","ios":"levelo://app?vid=af779039-8539-4a60-9c5e-b3e41fc1f3ab"},"vehicle_type_id":"4","last_reported":1687043169,"current_range_meters":19600,"station_id":"ce4bhr92rcd13ifvqhrg","pricing_plan_id":"free"},{"bike_id":"40e59e64-9295-42a0-9590-a684a2d1ed78","system_id":"levelo_inurba_marseille","lat":43.330442,"lon":5.389148,"is_reserved":false,"is_disabled":false,"rental_uris":{"android":"levelo://app?vid=40e59e64-9295-42a0-9590-a684a2d1ed78","ios":"levelo://app?vid=40e59e64-9295-42a0-9590-a684a2d1ed78"},"vehicle_type_id":"4","last_reported":1687043169,"current_range_meters":19600,"station_id":"ce4bhr92rcd13ifvqhrg","pricing_plan_id":"free"},{"bike_id":"95c066a4-e4d6-47f9-9ac2-324b145985cd","system_id":"levelo_inurba_marseille","lat":43.330442,"lon":5.389148,"is_reserved":false,"is_disabled":false,"rental_uris":{"android":"levelo://app?vid=95c066a4-e4d6-47f9-9ac2-324b145985cd","ios":"levelo://app?vid=95c066a4-e4d6-47f9-9ac2-324b145985cd"},"vehicle_type_id":"4","last_reported":1687043169,"current_range_meters":14800,"station_id":"ce4bhr92rcd13ifvqhrg","pricing_plan_id":"free"},{"bike_id":"a6fa5d2e-257b-4d29-b15b-ced973c9f431","system_id":"levelo_inurba_marseille","lat":43.330454,"lon":5.389209,"is_reserved":false,"is_disabled":false,"rental_uris":{"android":"levelo://app?vid=a6fa5d2e-257b-4d29-b15b-ced973c9f431","ios":"levelo://app?vid=a6fa5d2e-257b-4d29-b15b-ced973c9f431"},"vehicle_type_id":"4","last_reported":1687043169,"current_range_meters":4800,"station_id":"","pricing_plan_id":"free"},{"bike_id":"b9b44b37-7edf-4ab6-8685-17eb58a26dbc","system_id":"levelo_inurba_marseille","lat":43.29525,"lon":5.3904,"is_reserved":false,"is_disabled":false,"rental_uris":{"android":"levelo://app?vid=b9b44b37-7edf-4ab6-8685-17eb58a26dbc","ios":"levelo://app?vid=b9b44b37-7edf-4ab6-8685-17eb58a26dbc"},"vehicle_type_id":"4","last_reported":1687043169,"current_range_meters":30000,"station_id":"ce4bh3p2rcd13ifvqdp0","pricing_plan_id":"free"},{"bike_id":"c1aa97af-f0d2-4d47-a764-d8554f3b2a0e","system_id":"levelo_inurba_marseille","lat":43.29031,"lon":5.38116,"is_reserved":false,"is_disabled":false,"rental_uris":{"android":"levelo://app?vid=c1aa97af-f0d2-4d47-a764-d8554f3b2a0e","ios":"levelo://app?vid=c1aa97af-f0d2-4d47-a764-d8554f3b2a0e"},"vehicle_type_id":"4","last_reported":1687043169,"current_range_meters":31200,"station_id":"ce4bh4p2rcd13ifvqe1g","pricing_plan_id":"free"},{"bike_id":"cbe14383-b435-4a6a-8577-5c18ba89ff5e","system_id":"levelo_inurba_marseille","lat":43.28856,"lon":5.358371,"is_reserved":false,"is_disabled":false,"rental_uris":{"android":"levelo://app?vid=cbe14383-b435-4a6a-8577-5c18ba89ff5e","ios":"levelo://app?vid=cbe14383-b435-4a6a-8577-5c18ba89ff5e"},"vehicle_type_id":"4","last_reported":1687043169,"current_range_meters":14400,"station_id":"ce4bhb12rcd13ifvqem0","pricing_plan_id":"free"},{"bike_id":"fbeda08f-464e-44c1-838a-5e883cb2c90e","system_id":"levelo_inurba_marseille","lat":43.2885,"lon":5.35841,"is_reserved":false,"is_disabled":false,"rental_uris":{"android":"levelo://app?vid=fbeda08f-464e-44c1-838a-5e883cb2c90e","ios":"levelo://app?vid=fbeda08f-464e-44c1-838a-5e883cb2c90e"},"vehicle_type_id":"4","last_reported":1687043169,"current_range_meters":29600,"station_id":"ce4bhb12rcd13ifvqem0","pricing_plan_id":"free"},{"bike_id":"2c61e288-c6ea-42a7-a7e6-3adc41ce6c8c","system_id":"levelo_inurba_marseille","lat":43.28849,"lon":5.35829,"is_reserved":false,"is_disabled":false,"rental_uris":{"android":"levelo://app?vid=2c61e288-c6ea-42a7-a7e6-3adc41ce6c8c","ios":"levelo://app?vid=2c61e288-c6ea-42a7-a7e6-3adc41ce6c8c"},"vehicle_type_id":"4","last_reported":1687043169,"current_range_meters":27600,"station_id":"ce4bhb12rcd13ifvqem0","pricing_plan_id":"free"},{"bike_id":"5d670bdf-8a30-4f11-9f44-e2f3cc59b612","system_id":"levelo_inurba_marseille","lat":43.28842,"lon":5.35856,"is_reserved":false,"is_disabled":false,"rental_uris":{"android":"levelo://app?vid=5d670bdf-8a30-4f11-9f44-e2f3cc59b612","ios":"levelo://app?vid=5d670bdf-8a30-4f11-9f44-e2f3cc59b612"},"vehicle_type_id":"4","last_reported":1687043169,"current_range_meters":18400,"station_id":"ce4bhb12rcd13ifvqem0","pricing_plan_id":"free"},{"bike_id":"c0fb8083-e02d-4dec-b1b9-fa095e6c5b75","system_id":"levelo_inurba_marseille","lat":43.337396,"lon":5.374526,"is_reserved":false,"is_disabled":false,"rental_uris":{"android":"levelo://app?vid=c0fb8083-e02d-4dec-b1b9-fa095e6c5b75","ios":"levelo://app?vid=c0fb8083-e02d-4dec-b1b9-fa095e6c5b75"},"vehicle_type_id":"4","last_reported":1687043169,"current_range_meters":0,"station_id":"ce4bhp92rcd13ifvqhag","pricing_plan_id":"free"},{"bike_id":"9fc2d521-b395-4924-8b62-ed7954c12a57","system_id":"levelo_inurba_marseille","lat":43.30642,"lon":5.401031,"is_reserved":false,"is_disabled":false,"rental_uris":{"android":"levelo://app?vid=9fc2d521-b395-4924-8b62-ed7954c12a57","ios":"levelo://app?vid=9fc2d521-b395-4924-8b62-ed7954c12a57"},"vehicle_type_id":"4","last_reported":1687043169,"current_range_meters":25600,"station_id":"ce4bh112rcd13ifvqda0","pricing_plan_id":"free"},{"bike_id":"41a8749b-6d93-4d1b-8e52-c5f60f65ae7c","system_id":"levelo_inurba_marseille","lat":43.33752,"lon":5.37443,"is_reserved":false,"is_disabled":false,"rental_uris":{"android":"levelo://app?vid=41a8749b-6d93-4d1b-8e52-c5f60f65ae7c","ios":"levelo://app?vid=41a8749b-6d93-4d1b-8e52-c5f60f65ae7c"},"vehicle_type_id":"4","last_reported":1687043169,"current_range_meters":29200,"station_id":"","pricing_plan_id":"free"},{"bike_id":"0a863b74-b1d7-4a4d-b636-8de9698db32b","system_id":"levelo_inurba_marseille","lat":43.30642,"lon":5.401031,"is_reserved":false,"is_disabled":false,"rental_uris":{"android":"levelo://app?vid=0a863b74-b1d7-4a4d-b636-8de9698db32b","ios":"levelo://app?vid=0a863b74-b1d7-4a4d-b636-8de9698db32b"},"vehicle_type_id":"4","last_reported":1687043169,"current_range_meters":13600,"station_id":"ce4bh112rcd13ifvqda0","pricing_plan_id":"free"},{"bike_id":"3493321d-0890-4291-a8ea-6b2c391d8855","system_id":"levelo_inurba_marseille","lat":43.301117,"lon":5.398795,"is_reserved":false,"is_disabled":false,"rental_uris":{"android":"levelo://app?vid=3493321d-0890-4291-a8ea-6b2c391d8855","ios":"levelo://app?vid=3493321d-0890-4291-a8ea-6b2c391d8855"},"vehicle_type_id":"4","last_reported":1687043169,"current_range_meters":8800,"station_id":"ce4bh0h2rcd13ifvqd40","pricing_plan_id":"free"},{"bike_id":"94ebb041-c526-4e40-b871-f4c0d29cc1de","system_id":"levelo_inurba_marseille","lat":43.301117,"lon":5.398795,"is_reserved":false,"is_disabled":false,"rental_uris":{"android":"levelo://app?vid=94ebb041-c526-4e40-b871-f4c0d29cc1de","ios":"levelo://app?vid=94ebb041-c526-4e40-b871-f4c0d29cc1de"},"vehicle_type_id":"4","last_reported":1687043169,"current_range_meters":3200,"station_id":"ce4bh0h2rcd13ifvqd40","pricing_plan_id":"free"},{"bike_id":"9f360811-6b61-43c1-aa2c-be545695506d","system_id":"levelo_inurba_marseille","lat":43.301117,"lon":5.398795,"is_reserved":false,"is_disabled":false,"rental_uris":{"android":"levelo://app?vid=9f360811-6b61-43c1-aa2c-be545695506d","ios":"levelo://app?vid=9f360811-6b61-43c1-aa2c-be545695506d"},"vehicle_type_id":"4","last_reported":1687043169,"current_range_meters":25200,"station_id":"ce4bh0h2rcd13ifvqd40","pricing_plan_id":"free"},{"bike_id":"416a8fbb-a253-4839-a02e-62f8fdcf2e24","system_id":"levelo_inurba_marseille","lat":43.29871,"lon":5.3972,"is_reserved":false,"is_disabled":false,"rental_uris":{"android":"levelo://app?vid=416a8fbb-a253-4839-a02e-62f8fdcf2e24","ios":"levelo://app?vid=416a8fbb-a253-4839-a02e-62f8fdcf2e24"},"vehicle_type_id":"4","last_reported":1687043169,"current_range_meters":6000,"station_id":"","pricing_plan_id":"free"},{"bike_id":"07010885-1443-4b8f-94a8-c3881f0295d6","system_id":"levelo_inurba_marseille","lat":43.286591,"lon":5.363346,"is_reserved":false,"is_disabled":false,"rental_uris":{"android":"levelo://app?vid=07010885-1443-4b8f-94a8-c3881f0295d6","ios":"levelo://app?vid=07010885-1443-4b8f-94a8-c3881f0295d6"},"vehicle_type_id":"4","last_reported":1687043169,"current_range_meters":4400,"station_id":"ce4bhah2rcd13ifvqej0","pricing_plan_id":"free"},{"bike_id":"c785f083-7452-4d1b-ae2d-f5afd58be341","system_id":"levelo_inurba_marseille","lat":43.298681,"lon":5.397225,"is_reserved":false,"is_disabled":false,"rental_uris":{"android":"levelo://app?vid=c785f083-7452-4d1b-ae2d-f5afd58be341","ios":"levelo://app?vid=c785f083-7452-4d1b-ae2d-f5afd58be341"},"vehicle_type_id":"4","last_reported":1687043169,"current_range_meters":20400,"station_id":"ce4bh0h2rcd13ifvqd50","pricing_plan_id":"free"},{"bike_id":"93369fd3-5575-41cd-a635-fc72f719be1a","system_id":"levelo_inurba_marseille","lat":43.286591,"lon":5.363346,"is_reserved":false,"is_disabled":false,"rental_uris":{"android":"levelo://app?vid=93369fd3-5575-41cd-a635-fc72f719be1a","ios":"levelo://app?vid=93369fd3-5575-41cd-a635-fc72f719be1a"},"vehicle_type_id":"4","last_reported":1687043169,"current_range_meters":25600,"station_id":"ce4bhah2rcd13ifvqej0","pricing_plan_id":"free"},{"bike_id":"7772b93e-f56a-4d7d-9c2f-6ebee52e74bd","system_id":"levelo_inurba_marseille","lat":43.286591,"lon":5.363346,"is_reserved":false,"is_disabled":false,"rental_uris":{"android":"levelo://app?vid=7772b93e-f56a-4d7d-9c2f-6ebee52e74bd","ios":"levelo://app?vid=7772b93e-f56a-4d7d-9c2f-6ebee52e74bd"},"vehicle_type_id":"4","last_reported":1687043169,"current_range_meters":19600,"station_id":"ce4bhah2rcd13ifvqej0","pricing_plan_id":"free"},{"bike_id":"363358b6-1711-4e58-99d3-4183c9c5eb18","system_id":"levelo_inurba_marseille","lat":43.302759,"lon":5.400793,"is_reserved":false,"is_disabled":false,"rental_uris":{"android":"levelo://app?vid=363358b6-1711-4e58-99d3-4183c9c5eb18","ios":"levelo://app?vid=363358b6-1711-4e58-99d3-4183c9c5eb18"},"vehicle_type_id":"4","last_reported":1687043169,"current_range_meters":22800,"station_id":"ce4bgvh2rcd13ifvqcs0","pricing_plan_id":"free"},{"bike_id":"b9d11a7a-8b84-44d9-9906-bfd0c7fdc492","system_id":"levelo_inurba_marseille","lat":43.302759,"lon":5.400793,"is_reserved":false,"is_disabled":false,"rental_uris":{"android":"levelo://app?vid=b9d11a7a-8b84-44d9-9906-bfd0c7fdc492","ios":"levelo://app?vid=b9d11a7a-8b84-44d9-9906-bfd0c7fdc492"},"vehicle_type_id":"4","last_reported":1687043169,"current_range_meters":22000,"station_id":"ce4bgvh2rcd13ifvqcs0","pricing_plan_id":"free"},{"bike_id":"fe7f77cd-afb3-467b-99a3-1518357b1863","system_id":"levelo_inurba_marseille","lat":43.302759,"lon":5.400793,"is_reserved":false,"is_disabled":false,"rental_uris":{"android":"levelo://app?vid=fe7f77cd-afb3-467b-99a3-1518357b1863","ios":"levelo://app?vid=fe7f77cd-afb3-467b-99a3-1518357b1863"},"vehicle_type_id":"4","last_reported":1687043169,"current_range_meters":26800,"station_id":"ce4bgvh2rcd13ifvqcs0","pricing_plan_id":"free"},{"bike_id":"23ed75f5-98f9-4078-b293-962b7f6d8657","system_id":"levelo_inurba_marseille","lat":43.302759,"lon":5.400793,"is_reserved":false,"is_disabled":false,"rental_uris":{"android":"levelo://app?vid=23ed75f5-98f9-4078-b293-962b7f6d8657","ios":"levelo://app?vid=23ed75f5-98f9-4078-b293-962b7f6d8657"},"vehicle_type_id":"4","last_reported":1687043169,"current_range_meters":25600,"station_id":"ce4bgvh2rcd13ifvqcs0","pricing_plan_id":"free"},{"bike_id":"c16cd8a2-f45f-40d1-aaac-a94463da4f69","system_id":"levelo_inurba_marseille","lat":43.302759,"lon":5.400793,"is_reserved":false,"is_disabled":false,"rental_uris":{"android":"levelo://app?vid=c16cd8a2-f45f-40d1-aaac-a94463da4f69","ios":"levelo://app?vid=c16cd8a2-f45f-40d1-aaac-a94463da4f69"},"vehicle_type_id":"4","last_reported":1687043169,"current_range_meters":12000,"station_id":"ce4bgvh2rcd13ifvqcs0","pricing_plan_id":"free"},{"bike_id":"8f392288-48e8-4530-bc9b-7a4bd7128a0b","system_id":"levelo_inurba_marseille","lat":43.302759,"lon":5.400793,"is_reserved":false,"is_disabled":false,"rental_uris":{"android":"levelo://app?vid=8f392288-48e8-4530-bc9b-7a4bd7128a0b","ios":"levelo://app?vid=8f392288-48e8-4530-bc9b-7a4bd7128a0b"},"vehicle_type_id":"4","last_reported":1687043169,"current_range_meters":14400,"station_id":"ce4bgvh2rcd13ifvqcs0","pricing_plan_id":"free"},{"bike_id":"2948e002-dfbf-4e12-a6e4-4a434e73c2e4","system_id":"levelo_inurba_marseille","lat":43.287184,"lon":5.37937,"is_reserved":false,"is_disabled":false,"rental_uris":{"android":"levelo://app?vid=2948e002-dfbf-4e12-a6e4-4a434e73c2e4","ios":"levelo://app?vid=2948e002-dfbf-4e12-a6e4-4a434e73c2e4"},"vehicle_type_id":"4","last_reported":1687043169,"current_range_meters":14400,"station_id":"ce4bh9p2rcd13ifvqec0","pricing_plan_id":"free"},{"bike_id":"b71e7d6e-5885-48f3-a4c0-7ad4139c1086","system_id":"levelo_inurba_marseille","lat":43.291994,"lon":5.392907,"is_reserved":false,"is_disabled":false,"rental_uris":{"android":"levelo://app?vid=b71e7d6e-5885-48f3-a4c0-7ad4139c1086","ios":"levelo://app?vid=b71e7d6e-5885-48f3-a4c0-7ad4139c1086"},"vehicle_type_id":"4","last_reported":1687043169,"current_range_meters":30000,"station_id":"ce4bh192rcd13ifvqdd0","pricing_plan_id":"free"},{"bike_id":"40ee7897-9f20-4598-b053-ab97deabba9c","system_id":"levelo_inurba_marseille","lat":43.291994,"lon":5.392907,"is_reserved":false,"is_disabled":false,"rental_uris":{"android":"levelo://app?vid=40ee7897-9f20-4598-b053-ab97deabba9c","ios":"levelo://app?vid=40ee7897-9f20-4598-b053-ab97deabba9c"},"vehicle_type_id":"4","last_reported":1687043169,"current_range_meters":31200,"station_id":"ce4bh192rcd13ifvqdd0","pricing_plan_id":"free"},{"bike_id":"a278104e-0224-471b-bf69-08650d5c2d32","system_id":"levelo_inurba_marseille","lat":43.29189,"lon":5.39325,"is_reserved":false,"is_disabled":false,"rental_uris":{"android":"levelo://app?vid=a278104e-0224-471b-bf69-08650d5c2d32","ios":"levelo://app?vid=a278104e-0224-471b-bf69-08650d5c2d32"},"vehicle_type_id":"4","last_reported":1687043169,"current_range_meters":14400,"station_id":"","pricing_plan_id":"free"},{"bike_id":"39c93b65-9c2c-4549-98f2-8cd2003b086a","system_id":"levelo_inurba_marseille","lat":43.284534,"lon":5.358662,"is_reserved":false,"is_disabled":false,"rental_uris":{"android":"levelo://app?vid=39c93b65-9c2c-4549-98f2-8cd2003b086a","ios":"levelo://app?vid=39c93b65-9c2c-4549-98f2-8cd2003b086a"},"vehicle_type_id":"4","last_reported":1687043169,"current_range_meters":10400,"station_id":"ce4bhah2rcd13ifvqei0","pricing_plan_id":"free"},{"bike_id":"003a321a-14a1-4f8f-a67a-c4042c0fa0cc","system_id":"levelo_inurba_marseille","lat":43.284534,"lon":5.358662,"is_reserved":false,"is_disabled":false,"rental_uris":{"android":"levelo://app?vid=003a321a-14a1-4f8f-a67a-c4042c0fa0cc","ios":"levelo://app?vid=003a321a-14a1-4f8f-a67a-c4042c0fa0cc"},"vehicle_type_id":"4","last_reported":1687043169,"current_range_meters":6400,"station_id":"ce4bhah2rcd13ifvqei0","pricing_plan_id":"free"},{"bike_id":"ff30f783-ec47-425f-b8ee-47edd928e37b","system_id":"levelo_inurba_marseille","lat":43.284534,"lon":5.358662,"is_reserved":false,"is_disabled":false,"rental_uris":{"android":"levelo://app?vid=ff30f783-ec47-425f-b8ee-47edd928e37b","ios":"levelo://app?vid=ff30f783-ec47-425f-b8ee-47edd928e37b"},"vehicle_type_id":"4","last_reported":1687043169,"current_range_meters":30400,"station_id":"ce4bhah2rcd13ifvqei0","pricing_plan_id":"free"},{"bike_id":"6d9e43eb-65ac-4c02-a5d9-a28328f0519e","system_id":"levelo_inurba_marseille","lat":43.284534,"lon":5.358662,"is_reserved":false,"is_disabled":false,"rental_uris":{"android":"levelo://app?vid=6d9e43eb-65ac-4c02-a5d9-a28328f0519e","ios":"levelo://app?vid=6d9e43eb-65ac-4c02-a5d9-a28328f0519e"},"vehicle_type_id":"4","last_reported":1687043169,"current_range_meters":28000,"station_id":"ce4bhah2rcd13ifvqei0","pricing_plan_id":"free"},{"bike_id":"b2ff0b6d-72fc-418b-b378-9f3c02cc230c","system_id":"levelo_inurba_marseille","lat":43.29569,"lon":5.39964,"is_reserved":false,"is_disabled":false,"rental_uris":{"android":"levelo://app?vid=b2ff0b6d-72fc-418b-b378-9f3c02cc230c","ios":"levelo://app?vid=b2ff0b6d-72fc-418b-b378-9f3c02cc230c"},"vehicle_type_id":"4","last_reported":1687043169,"current_range_meters":31200,"station_id":"ce4bh312rcd13ifvqdj0","pricing_plan_id":"free"},{"bike_id":"21ce4222-4b8c-4160-8b44-d500cdc7e84e","system_id":"levelo_inurba_marseille","lat":43.295713,"lon":5.399639,"is_reserved":false,"is_disabled":false,"rental_uris":{"android":"levelo://app?vid=21ce4222-4b8c-4160-8b44-d500cdc7e84e","ios":"levelo://app?vid=21ce4222-4b8c-4160-8b44-d500cdc7e84e"},"vehicle_type_id":"4","last_reported":1687043169,"current_range_meters":22800,"station_id":"ce4bh312rcd13ifvqdj0","pricing_plan_id":"free"},{"bike_id":"dd6b45c9-9fcf-4490-b512-3b548e681d97","system_id":"levelo_inurba_marseille","lat":43.295713,"lon":5.399639,"is_reserved":false,"is_disabled":false,"rental_uris":{"android":"levelo://app?vid=dd6b45c9-9fcf-4490-b512-3b548e681d97","ios":"levelo://app?vid=dd6b45c9-9fcf-4490-b512-3b548e681d97"},"vehicle_type_id":"4","last_reported":1687043169,"current_range_meters":12800,"station_id":"ce4bh312rcd13ifvqdj0","pricing_plan_id":"free"},{"bike_id":"43275ef6-770c-4f0e-926c-1c3aecd7abec","system_id":"levelo_inurba_marseille","lat":43.287909,"lon":5.390554,"is_reserved":false,"is_disabled":false,"rental_uris":{"android":"levelo://app?vid=43275ef6-770c-4f0e-926c-1c3aecd7abec","ios":"levelo://app?vid=43275ef6-770c-4f0e-926c-1c3aecd7abec"},"vehicle_type_id":"4","last_reported":1687043169,"current_range_meters":14800,"station_id":"","pricing_plan_id":"free"},{"bike_id":"16e5fedd-6e86-436a-a0a2-72c7cd60a6ea","system_id":"levelo_inurba_marseille","lat":43.323464,"lon":5.406297,"is_reserved":false,"is_disabled":false,"rental_uris":{"android":"levelo://app?vid=16e5fedd-6e86-436a-a0a2-72c7cd60a6ea","ios":"levelo://app?vid=16e5fedd-6e86-436a-a0a2-72c7cd60a6ea"},"vehicle_type_id":"4","last_reported":1687043169,"current_range_meters":30000,"station_id":"ce4bhq92rcd13ifvqhjg","pricing_plan_id":"free"},{"bike_id":"c7781349-d557-419d-98b4-3ddfa72dd2de","system_id":"levelo_inurba_marseille","lat":43.284793,"lon":5.384113,"is_reserved":false,"is_disabled":false,"rental_uris":{"android":"levelo://app?vid=c7781349-d557-419d-98b4-3ddfa72dd2de","ios":"levelo://app?vid=c7781349-d557-419d-98b4-3ddfa72dd2de"},"vehicle_type_id":"4","last_reported":1687043169,"current_range_meters":2400,"station_id":"ce4bh512rcd13ifvqe3g","pricing_plan_id":"free"},{"bike_id":"7a5f22c7-1808-4dfb-a364-c3dbfd94dba0","system_id":"levelo_inurba_marseille","lat":43.284787,"lon":5.384116,"is_reserved":false,"is_disabled":false,"rental_uris":{"android":"levelo://app?vid=7a5f22c7-1808-4dfb-a364-c3dbfd94dba0","ios":"levelo://app?vid=7a5f22c7-1808-4dfb-a364-c3dbfd94dba0"},"vehicle_type_id":"4","last_reported":1687043169,"current_range_meters":27200,"station_id":"ce4bh512rcd13ifvqe3g","pricing_plan_id":"free"},{"bike_id":"00f59bac-28fd-48fe-bc48-d3e691046967","system_id":"levelo_inurba_marseille","lat":43.284793,"lon":5.384119,"is_reserved":false,"is_disabled":false,"rental_uris":{"android":"levelo://app?vid=00f59bac-28fd-48fe-bc48-d3e691046967","ios":"levelo://app?vid=00f59bac-28fd-48fe-bc48-d3e691046967"},"vehicle_type_id":"4","last_reported":1687043169,"current_range_meters":22400,"station_id":"ce4bh512rcd13ifvqe3g","pricing_plan_id":"free"},{"bike_id":"24da4910-878a-4118-af75-3e1917a83657","system_id":"levelo_inurba_marseille","lat":43.288497,"lon":5.393089,"is_reserved":false,"is_disabled":false,"rental_uris":{"android":"levelo://app?vid=24da4910-878a-4118-af75-3e1917a83657","ios":"levelo://app?vid=24da4910-878a-4118-af75-3e1917a83657"},"vehicle_type_id":"4","last_reported":1687043169,"current_range_meters":8400,"station_id":"ce4bh2p2rcd13ifvqdi0","pricing_plan_id":"free"},{"bike_id":"3a266e6e-fe88-41b0-9be6-58f1c8f40621","system_id":"levelo_inurba_marseille","lat":43.288497,"lon":5.393089,"is_reserved":false,"is_disabled":false,"rental_uris":{"android":"levelo://app?vid=3a266e6e-fe88-41b0-9be6-58f1c8f40621","ios":"levelo://app?vid=3a266e6e-fe88-41b0-9be6-58f1c8f40621"},"vehicle_type_id":"4","last_reported":1687043169,"current_range_meters":14400,"station_id":"ce4bh2p2rcd13ifvqdi0","pricing_plan_id":"free"},{"bike_id":"ca5466e4-eb4d-49d9-a501-ff9ad0f19717","system_id":"levelo_inurba_marseille","lat":43.28364,"lon":5.38102,"is_reserved":false,"is_disabled":false,"rental_uris":{"android":"levelo://app?vid=ca5466e4-eb4d-49d9-a501-ff9ad0f19717","ios":"levelo://app?vid=ca5466e4-eb4d-49d9-a501-ff9ad0f19717"},"vehicle_type_id":"4","last_reported":1687043169,"current_range_meters":4000,"station_id":"ce4bh412rcd13ifvqdr0","pricing_plan_id":"free"},{"bike_id":"2624dea4-b888-4a15-b6de-a118c235a0f3","system_id":"levelo_inurba_marseille","lat":43.288501,"lon":5.393087,"is_reserved":false,"is_disabled":false,"rental_uris":{"android":"levelo://app?vid=2624dea4-b888-4a15-b6de-a118c235a0f3","ios":"levelo://app?vid=2624dea4-b888-4a15-b6de-a118c235a0f3"},"vehicle_type_id":"4","last_reported":1687043169,"current_range_meters":21200,"station_id":"ce4bh2p2rcd13ifvqdi0","pricing_plan_id":"free"},{"bike_id":"954ca34b-1082-44f1-8ef9-0ff6cc9681e4","system_id":"levelo_inurba_marseille","lat":43.2836,"lon":5.38095,"is_reserved":false,"is_disabled":false,"rental_uris":{"android":"levelo://app?vid=954ca34b-1082-44f1-8ef9-0ff6cc9681e4","ios":"levelo://app?vid=954ca34b-1082-44f1-8ef9-0ff6cc9681e4"},"vehicle_type_id":"4","last_reported":1687043169,"current_range_meters":23600,"station_id":"ce4bh412rcd13ifvqdr0","pricing_plan_id":"free"},{"bike_id":"6af4632e-3559-4b25-a22d-a6bf6d1a93fc","system_id":"levelo_inurba_marseille","lat":43.283498,"lon":5.380948,"is_reserved":false,"is_disabled":false,"rental_uris":{"android":"levelo://app?vid=6af4632e-3559-4b25-a22d-a6bf6d1a93fc","ios":"levelo://app?vid=6af4632e-3559-4b25-a22d-a6bf6d1a93fc"},"vehicle_type_id":"4","last_reported":1687043169,"current_range_meters":24000,"station_id":"ce4bh412rcd13ifvqdr0","pricing_plan_id":"free"},{"bike_id":"8bf16c9a-9651-4047-a369-2c6cea25961c","system_id":"levelo_inurba_marseille","lat":43.288497,"lon":5.393089,"is_reserved":false,"is_disabled":false,"rental_uris":{"android":"levelo://app?vid=8bf16c9a-9651-4047-a369-2c6cea25961c","ios":"levelo://app?vid=8bf16c9a-9651-4047-a369-2c6cea25961c"},"vehicle_type_id":"4","last_reported":1687043169,"current_range_meters":31200,"station_id":"ce4bh2p2rcd13ifvqdi0","pricing_plan_id":"free"},{"bike_id":"ca24b25f-8e14-4304-b506-a5b6a7978dc4","system_id":"levelo_inurba_marseille","lat":43.283498,"lon":5.380948,"is_reserved":false,"is_disabled":false,"rental_uris":{"android":"levelo://app?vid=ca24b25f-8e14-4304-b506-a5b6a7978dc4","ios":"levelo://app?vid=ca24b25f-8e14-4304-b506-a5b6a7978dc4"},"vehicle_type_id":"4","last_reported":1687043169,"current_range_meters":23600,"station_id":"ce4bh412rcd13ifvqdr0","pricing_plan_id":"free"},{"bike_id":"e268a5db-b5b5-4f63-b9ec-0fcc87a33f6f","system_id":"levelo_inurba_marseille","lat":43.28355,"lon":5.38102,"is_reserved":false,"is_disabled":false,"rental_uris":{"android":"levelo://app?vid=e268a5db-b5b5-4f63-b9ec-0fcc87a33f6f","ios":"levelo://app?vid=e268a5db-b5b5-4f63-b9ec-0fcc87a33f6f"},"vehicle_type_id":"4","last_reported":1687043169,"current_range_meters":6800,"station_id":"ce4bh412rcd13ifvqdr0","pricing_plan_id":"free"},{"bike_id":"00b4d942-d645-4a17-a320-9c02b5ecca68","system_id":"levelo_inurba_marseille","lat":43.288497,"lon":5.393089,"is_reserved":false,"is_disabled":false,"rental_uris":{"android":"levelo://app?vid=00b4d942-d645-4a17-a320-9c02b5ecca68","ios":"levelo://app?vid=00b4d942-d645-4a17-a320-9c02b5ecca68"},"vehicle_type_id":"4","last_reported":1687043169,"current_range_meters":24000,"station_id":"ce4bh2p2rcd13ifvqdi0","pricing_plan_id":"free"},{"bike_id":"485fbe80-7791-47a3-874c-0d57ca2838f7","system_id":"levelo_inurba_marseille","lat":43.28347,"lon":5.38097,"is_reserved":false,"is_disabled":false,"rental_uris":{"android":"levelo://app?vid=485fbe80-7791-47a3-874c-0d57ca2838f7","ios":"levelo://app?vid=485fbe80-7791-47a3-874c-0d57ca2838f7"},"vehicle_type_id":"4","last_reported":1687043169,"current_range_meters":22000,"station_id":"ce4bh412rcd13ifvqdr0","pricing_plan_id":"free"},{"bike_id":"0aef9730-18b9-4440-a3f2-333dec009a79","system_id":"levelo_inurba_marseille","lat":43.28346,"lon":5.38107,"is_reserved":false,"is_disabled":false,"rental_uris":{"android":"levelo://app?vid=0aef9730-18b9-4440-a3f2-333dec009a79","ios":"levelo://app?vid=0aef9730-18b9-4440-a3f2-333dec009a79"},"vehicle_type_id":"4","last_reported":1687043169,"current_range_meters":31200,"station_id":"ce4bh412rcd13ifvqdr0","pricing_plan_id":"free"},{"bike_id":"34fd0f70-e946-483f-b9f8-b28b28c5ffe1","system_id":"levelo_inurba_marseille","lat":43.284219,"lon":5.3497,"is_reserved":false,"is_disabled":false,"rental_uris":{"android":"levelo://app?vid=34fd0f70-e946-483f-b9f8-b28b28c5ffe1","ios":"levelo://app?vid=34fd0f70-e946-483f-b9f8-b28b28c5ffe1"},"vehicle_type_id":"4","last_reported":1687043169,"current_range_meters":16400,"station_id":"ce4bhbh2rcd13ifvqepg","pricing_plan_id":"free"},{"bike_id":"f5bea615-ccaa-4deb-a010-dd2da91bcff8","system_id":"levelo_inurba_marseille","lat":43.289363,"lon":5.396322,"is_reserved":false,"is_disabled":false,"rental_uris":{"android":"levelo://app?vid=f5bea615-ccaa-4deb-a010-dd2da91bcff8","ios":"levelo://app?vid=f5bea615-ccaa-4deb-a010-dd2da91bcff8"},"vehicle_type_id":"4","last_reported":1687043169,"current_range_meters":29600,"station_id":"ce4bh3h2rcd13ifvqdn0","pricing_plan_id":"free"},{"bike_id":"7258b29c-3a4a-4760-9b6f-13710f3f396f","system_id":"levelo_inurba_marseille","lat":43.289363,"lon":5.396322,"is_reserved":false,"is_disabled":false,"rental_uris":{"android":"levelo://app?vid=7258b29c-3a4a-4760-9b6f-13710f3f396f","ios":"levelo://app?vid=7258b29c-3a4a-4760-9b6f-13710f3f396f"},"vehicle_type_id":"4","last_reported":1687043169,"current_range_meters":28400,"station_id":"ce4bh3h2rcd13ifvqdn0","pricing_plan_id":"free"},{"bike_id":"c6f21430-3eb9-41a9-9ad1-438610c8b356","system_id":"levelo_inurba_marseille","lat":43.289363,"lon":5.396322,"is_reserved":false,"is_disabled":false,"rental_uris":{"android":"levelo://app?vid=c6f21430-3eb9-41a9-9ad1-438610c8b356","ios":"levelo://app?vid=c6f21430-3eb9-41a9-9ad1-438610c8b356"},"vehicle_type_id":"4","last_reported":1687043169,"current_range_meters":29200,"station_id":"ce4bh3h2rcd13ifvqdn0","pricing_plan_id":"free"},{"bike_id":"1f24386c-f4de-4f2b-bb8a-d54495b1f62e","system_id":"levelo_inurba_marseille","lat":43.29311,"lon":5.40122,"is_reserved":false,"is_disabled":false,"rental_uris":{"android":"levelo://app?vid=1f24386c-f4de-4f2b-bb8a-d54495b1f62e","ios":"levelo://app?vid=1f24386c-f4de-4f2b-bb8a-d54495b1f62e"},"vehicle_type_id":"4","last_reported":1687043169,"current_range_meters":28800,"station_id":"","pricing_plan_id":"free"},{"bike_id":"5b547079-e052-4ea0-b611-159bb5365335","system_id":"levelo_inurba_marseille","lat":43.292724,"lon":5.401131,"is_reserved":false,"is_disabled":false,"rental_uris":{"android":"levelo://app?vid=5b547079-e052-4ea0-b611-159bb5365335","ios":"levelo://app?vid=5b547079-e052-4ea0-b611-159bb5365335"},"vehicle_type_id":"4","last_reported":1687043169,"current_range_meters":0,"station_id":"ce4bh312rcd13ifvqdk0","pricing_plan_id":"free"},{"bike_id":"71a0cae8-1174-4f1f-bdba-db6f0e39e92a","system_id":"levelo_inurba_marseille","lat":43.29269,"lon":5.4011,"is_reserved":false,"is_disabled":false,"rental_uris":{"android":"levelo://app?vid=71a0cae8-1174-4f1f-bdba-db6f0e39e92a","ios":"levelo://app?vid=71a0cae8-1174-4f1f-bdba-db6f0e39e92a"},"vehicle_type_id":"4","last_reported":1687043169,"current_range_meters":17200,"station_id":"ce4bh312rcd13ifvqdk0","pricing_plan_id":"free"},{"bike_id":"03d23822-fa75-4885-86b9-308be61965b0","system_id":"levelo_inurba_marseille","lat":43.282744,"lon":5.350533,"is_reserved":false,"is_disabled":false,"rental_uris":{"android":"levelo://app?vid=03d23822-fa75-4885-86b9-308be61965b0","ios":"levelo://app?vid=03d23822-fa75-4885-86b9-308be61965b0"},"vehicle_type_id":"4","last_reported":1687043169,"current_range_meters":29200,"station_id":"ce4bhbp2rcd13ifvqerg","pricing_plan_id":"free"},{"bike_id":"a3187aa5-f2ff-4915-9b76-10c9aa306cf9","system_id":"levelo_inurba_marseille","lat":43.282744,"lon":5.350533,"is_reserved":false,"is_disabled":false,"rental_uris":{"android":"levelo://app?vid=a3187aa5-f2ff-4915-9b76-10c9aa306cf9","ios":"levelo://app?vid=a3187aa5-f2ff-4915-9b76-10c9aa306cf9"},"vehicle_type_id":"4","last_reported":1687043169,"current_range_meters":22800,"station_id":"ce4bhbp2rcd13ifvqerg","pricing_plan_id":"free"},{"bike_id":"7fd76e0f-7b9d-4b7f-a99b-fe56dae574f3","system_id":"levelo_inurba_marseille","lat":43.283502,"lon":5.386471,"is_reserved":false,"is_disabled":false,"rental_uris":{"android":"levelo://app?vid=7fd76e0f-7b9d-4b7f-a99b-fe56dae574f3","ios":"levelo://app?vid=7fd76e0f-7b9d-4b7f-a99b-fe56dae574f3"},"vehicle_type_id":"4","last_reported":1687043169,"current_range_meters":8000,"station_id":"ce4bh492rcd13ifvqdvg","pricing_plan_id":"free"},{"bike_id":"49ea07cb-ac3e-4b8c-8c0d-3e1de304e4ad","system_id":"levelo_inurba_marseille","lat":43.28039,"lon":5.369297,"is_reserved":false,"is_disabled":false,"rental_uris":{"android":"levelo://app?vid=49ea07cb-ac3e-4b8c-8c0d-3e1de304e4ad","ios":"levelo://app?vid=49ea07cb-ac3e-4b8c-8c0d-3e1de304e4ad"},"vehicle_type_id":"4","last_reported":1687043169,"current_range_meters":4800,"station_id":"ce4bha12rcd13ifvqef0","pricing_plan_id":"free"},{"bike_id":"3873764c-8088-4104-9dff-d803ad5b6e5e","system_id":"levelo_inurba_marseille","lat":43.28352,"lon":5.38624,"is_reserved":false,"is_disabled":false,"rental_uris":{"android":"levelo://app?vid=3873764c-8088-4104-9dff-d803ad5b6e5e","ios":"levelo://app?vid=3873764c-8088-4104-9dff-d803ad5b6e5e"},"vehicle_type_id":"4","last_reported":1687043169,"current_range_meters":26800,"station_id":"ce4bh492rcd13ifvqdvg","pricing_plan_id":"free"},{"bike_id":"32c84e20-4726-4674-87ba-2b5ef7e1f362","system_id":"levelo_inurba_marseille","lat":43.28039,"lon":5.369297,"is_reserved":false,"is_disabled":false,"rental_uris":{"android":"levelo://app?vid=32c84e20-4726-4674-87ba-2b5ef7e1f362","ios":"levelo://app?vid=32c84e20-4726-4674-87ba-2b5ef7e1f362"},"vehicle_type_id":"4","last_reported":1687043169,"current_range_meters":26800,"station_id":"ce4bha12rcd13ifvqef0","pricing_plan_id":"free"},{"bike_id":"5466ae6a-fab2-4b3c-bc20-f26a798490f0","system_id":"levelo_inurba_marseille","lat":43.28039,"lon":5.369297,"is_reserved":false,"is_disabled":false,"rental_uris":{"android":"levelo://app?vid=5466ae6a-fab2-4b3c-bc20-f26a798490f0","ios":"levelo://app?vid=5466ae6a-fab2-4b3c-bc20-f26a798490f0"},"vehicle_type_id":"4","last_reported":1687043169,"current_range_meters":22000,"station_id":"ce4bha12rcd13ifvqef0","pricing_plan_id":"free"},{"bike_id":"7faff9b3-2be6-451e-91d4-3d776192ce59","system_id":"levelo_inurba_marseille","lat":43.28341,"lon":5.38626,"is_reserved":false,"is_disabled":false,"rental_uris":{"android":"levelo://app?vid=7faff9b3-2be6-451e-91d4-3d776192ce59","ios":"levelo://app?vid=7faff9b3-2be6-451e-91d4-3d776192ce59"},"vehicle_type_id":"4","last_reported":1687043169,"current_range_meters":31200,"station_id":"ce4bh492rcd13ifvqdvg","pricing_plan_id":"free"},{"bike_id":"2df0399b-2c7a-4f5d-86a5-c6c96d24e54b","system_id":"levelo_inurba_marseille","lat":43.29045,"lon":5.3995,"is_reserved":false,"is_disabled":false,"rental_uris":{"android":"levelo://app?vid=2df0399b-2c7a-4f5d-86a5-c6c96d24e54b","ios":"levelo://app?vid=2df0399b-2c7a-4f5d-86a5-c6c96d24e54b"},"vehicle_type_id":"4","last_reported":1687043169,"current_range_meters":9200,"station_id":"ce4bh392rcd13ifvqdm0","pricing_plan_id":"free"},{"bike_id":"24d8c596-6f26-479e-b590-2e6f43206cd2","system_id":"levelo_inurba_marseille","lat":43.29045,"lon":5.39954,"is_reserved":false,"is_disabled":false,"rental_uris":{"android":"levelo://app?vid=24d8c596-6f26-479e-b590-2e6f43206cd2","ios":"levelo://app?vid=24d8c596-6f26-479e-b590-2e6f43206cd2"},"vehicle_type_id":"4","last_reported":1687043169,"current_range_meters":14800,"station_id":"ce4bh392rcd13ifvqdm0","pricing_plan_id":"free"},{"bike_id":"5830a0d0-7406-4969-8a8f-c7979d4ad845","system_id":"levelo_inurba_marseille","lat":43.29043,"lon":5.39953,"is_reserved":false,"is_disabled":false,"rental_uris":{"android":"levelo://app?vid=5830a0d0-7406-4969-8a8f-c7979d4ad845","ios":"levelo://app?vid=5830a0d0-7406-4969-8a8f-c7979d4ad845"},"vehicle_type_id":"4","last_reported":1687043169,"current_range_meters":19200,"station_id":"ce4bh392rcd13ifvqdm0","pricing_plan_id":"free"},{"bike_id":"79f0dd2c-821d-4f48-9f14-7832bdfb56df","system_id":"levelo_inurba_marseille","lat":43.29044,"lon":5.39957,"is_reserved":false,"is_disabled":false,"rental_uris":{"android":"levelo://app?vid=79f0dd2c-821d-4f48-9f14-7832bdfb56df","ios":"levelo://app?vid=79f0dd2c-821d-4f48-9f14-7832bdfb56df"},"vehicle_type_id":"4","last_reported":1687043169,"current_range_meters":31200,"station_id":"ce4bh392rcd13ifvqdm0","pricing_plan_id":"free"},{"bike_id":"4904d3ff-1924-4653-96b7-936e0f5c4f7e","system_id":"levelo_inurba_marseille","lat":43.29043,"lon":5.39957,"is_reserved":false,"is_disabled":false,"rental_uris":{"android":"levelo://app?vid=4904d3ff-1924-4653-96b7-936e0f5c4f7e","ios":"levelo://app?vid=4904d3ff-1924-4653-96b7-936e0f5c4f7e"},"vehicle_type_id":"4","last_reported":1687043169,"current_range_meters":15200,"station_id":"ce4bh392rcd13ifvqdm0","pricing_plan_id":"free"},{"bike_id":"9a24e0f9-7080-438f-9549-e9d03ec0cbbf","system_id":"levelo_inurba_marseille","lat":43.29042,"lon":5.39965,"is_reserved":false,"is_disabled":false,"rental_uris":{"android":"levelo://app?vid=9a24e0f9-7080-438f-9549-e9d03ec0cbbf","ios":"levelo://app?vid=9a24e0f9-7080-438f-9549-e9d03ec0cbbf"},"vehicle_type_id":"4","last_reported":1687043169,"current_range_meters":17600,"station_id":"ce4bh392rcd13ifvqdm0","pricing_plan_id":"free"},{"bike_id":"da9f688d-a4e9-489a-ae3d-832198cf7005","system_id":"levelo_inurba_marseille","lat":43.28112,"lon":5.37838,"is_reserved":false,"is_disabled":false,"rental_uris":{"android":"levelo://app?vid=da9f688d-a4e9-489a-ae3d-832198cf7005","ios":"levelo://app?vid=da9f688d-a4e9-489a-ae3d-832198cf7005"},"vehicle_type_id":"4","last_reported":1687043169,"current_range_meters":0,"station_id":"ce4bha12rcd13ifvqee0","pricing_plan_id":"free"},{"bike_id":"615c2ec7-20ec-44d0-a173-cb46cad47ef2","system_id":"levelo_inurba_marseille","lat":43.28106,"lon":5.3783,"is_reserved":false,"is_disabled":false,"rental_uris":{"android":"levelo://app?vid=615c2ec7-20ec-44d0-a173-cb46cad47ef2","ios":"levelo://app?vid=615c2ec7-20ec-44d0-a173-cb46cad47ef2"},"vehicle_type_id":"4","last_reported":1687043169,"current_range_meters":18800,"station_id":"ce4bha12rcd13ifvqee0","pricing_plan_id":"free"},{"bike_id":"5ff08e2c-5ed6-464b-b02f-a3bbaf06fd14","system_id":"levelo_inurba_marseille","lat":43.28103,"lon":5.3783,"is_reserved":false,"is_disabled":false,"rental_uris":{"android":"levelo://app?vid=5ff08e2c-5ed6-464b-b02f-a3bbaf06fd14","ios":"levelo://app?vid=5ff08e2c-5ed6-464b-b02f-a3bbaf06fd14"},"vehicle_type_id":"4","last_reported":1687043169,"current_range_meters":5600,"station_id":"ce4bha12rcd13ifvqee0","pricing_plan_id":"free"},{"bike_id":"0c8200be-f0df-49da-b035-d4aabb52fe78","system_id":"levelo_inurba_marseille","lat":43.281044,"lon":5.378308,"is_reserved":false,"is_disabled":false,"rental_uris":{"android":"levelo://app?vid=0c8200be-f0df-49da-b035-d4aabb52fe78","ios":"levelo://app?vid=0c8200be-f0df-49da-b035-d4aabb52fe78"},"vehicle_type_id":"4","last_reported":1687043169,"current_range_meters":28000,"station_id":"ce4bha12rcd13ifvqee0","pricing_plan_id":"free"},{"bike_id":"d50e6d5f-5007-48b5-993b-448805bf0810","system_id":"levelo_inurba_marseille","lat":43.281044,"lon":5.378308,"is_reserved":false,"is_disabled":false,"rental_uris":{"android":"levelo://app?vid=d50e6d5f-5007-48b5-993b-448805bf0810","ios":"levelo://app?vid=d50e6d5f-5007-48b5-993b-448805bf0810"},"vehicle_type_id":"4","last_reported":1687043169,"current_range_meters":28800,"station_id":"ce4bha12rcd13ifvqee0","pricing_plan_id":"free"},{"bike_id":"3a2372a3-6844-44b7-9fe9-44dfd5e93320","system_id":"levelo_inurba_marseille","lat":43.281,"lon":5.37834,"is_reserved":false,"is_disabled":false,"rental_uris":{"android":"levelo://app?vid=3a2372a3-6844-44b7-9fe9-44dfd5e93320","ios":"levelo://app?vid=3a2372a3-6844-44b7-9fe9-44dfd5e93320"},"vehicle_type_id":"4","last_reported":1687043169,"current_range_meters":12000,"station_id":"ce4bha12rcd13ifvqee0","pricing_plan_id":"free"},{"bike_id":"9706f054-9b2f-4180-a217-3e3e66527398","system_id":"levelo_inurba_marseille","lat":43.296263,"lon":5.40601,"is_reserved":false,"is_disabled":false,"rental_uris":{"android":"levelo://app?vid=9706f054-9b2f-4180-a217-3e3e66527398","ios":"levelo://app?vid=9706f054-9b2f-4180-a217-3e3e66527398"},"vehicle_type_id":"4","last_reported":1687043169,"current_range_meters":16000,"station_id":"ce4bh0h2rcd13ifvqd60","pricing_plan_id":"free"},{"bike_id":"a60a7fab-0ccf-491e-8bb8-990f1321af05","system_id":"levelo_inurba_marseille","lat":43.29025,"lon":5.39976,"is_reserved":false,"is_disabled":false,"rental_uris":{"android":"levelo://app?vid=a60a7fab-0ccf-491e-8bb8-990f1321af05","ios":"levelo://app?vid=a60a7fab-0ccf-491e-8bb8-990f1321af05"},"vehicle_type_id":"4","last_reported":1687043169,"current_range_meters":31200,"station_id":"ce4bh392rcd13ifvqdm0","pricing_plan_id":"free"},{"bike_id":"94cbf57a-4fa0-4675-b434-98a14fdccac1","system_id":"levelo_inurba_marseille","lat":43.296263,"lon":5.40601,"is_reserved":false,"is_disabled":false,"rental_uris":{"android":"levelo://app?vid=94cbf57a-4fa0-4675-b434-98a14fdccac1","ios":"levelo://app?vid=94cbf57a-4fa0-4675-b434-98a14fdccac1"},"vehicle_type_id":"4","last_reported":1687043169,"current_range_meters":22000,"station_id":"ce4bh0h2rcd13ifvqd60","pricing_plan_id":"free"},{"bike_id":"6576cb4b-d303-40f1-a1e8-fc85b0216c23","system_id":"levelo_inurba_marseille","lat":43.28092,"lon":5.37831,"is_reserved":false,"is_disabled":false,"rental_uris":{"android":"levelo://app?vid=6576cb4b-d303-40f1-a1e8-fc85b0216c23","ios":"levelo://app?vid=6576cb4b-d303-40f1-a1e8-fc85b0216c23"},"vehicle_type_id":"4","last_reported":1687043169,"current_range_meters":25200,"station_id":"ce4bha12rcd13ifvqee0","pricing_plan_id":"free"},{"bike_id":"c9818828-954c-4234-9bfd-13bd5586d05a","system_id":"levelo_inurba_marseille","lat":43.284462,"lon":5.392121,"is_reserved":false,"is_disabled":false,"rental_uris":{"android":"levelo://app?vid=c9818828-954c-4234-9bfd-13bd5586d05a","ios":"levelo://app?vid=c9818828-954c-4234-9bfd-13bd5586d05a"},"vehicle_type_id":"4","last_reported":1687043169,"current_range_meters":30800,"station_id":"ce4bhoh2rcd13ifvqh5g","pricing_plan_id":"free"},{"bike_id":"2be7a316-f93c-45da-8438-5cb46c89de6d","system_id":"levelo_inurba_marseille","lat":43.284462,"lon":5.392121,"is_reserved":false,"is_disabled":false,"rental_uris":{"android":"levelo://app?vid=2be7a316-f93c-45da-8438-5cb46c89de6d","ios":"levelo://app?vid=2be7a316-f93c-45da-8438-5cb46c89de6d"},"vehicle_type_id":"4","last_reported":1687043169,"current_range_meters":20800,"station_id":"ce4bhoh2rcd13ifvqh5g","pricing_plan_id":"free"},{"bike_id":"c3a07ce2-7b58-493d-8920-7e500fe39b19","system_id":"levelo_inurba_marseille","lat":43.284462,"lon":5.392121,"is_reserved":false,"is_disabled":false,"rental_uris":{"android":"levelo://app?vid=c3a07ce2-7b58-493d-8920-7e500fe39b19","ios":"levelo://app?vid=c3a07ce2-7b58-493d-8920-7e500fe39b19"},"vehicle_type_id":"4","last_reported":1687043169,"current_range_meters":24800,"station_id":"ce4bhoh2rcd13ifvqh5g","pricing_plan_id":"free"},{"bike_id":"f1de0abe-852e-4ee2-892c-40ab74dab12c","system_id":"levelo_inurba_marseille","lat":43.284462,"lon":5.392121,"is_reserved":false,"is_disabled":false,"rental_uris":{"android":"levelo://app?vid=f1de0abe-852e-4ee2-892c-40ab74dab12c","ios":"levelo://app?vid=f1de0abe-852e-4ee2-892c-40ab74dab12c"},"vehicle_type_id":"4","last_reported":1687043169,"current_range_meters":14800,"station_id":"ce4bhoh2rcd13ifvqh5g","pricing_plan_id":"free"},{"bike_id":"4bd99dd6-7c92-442e-b1e1-497307492261","system_id":"levelo_inurba_marseille","lat":43.28573,"lon":5.394992,"is_reserved":false,"is_disabled":false,"rental_uris":{"android":"levelo://app?vid=4bd99dd6-7c92-442e-b1e1-497307492261","ios":"levelo://app?vid=4bd99dd6-7c92-442e-b1e1-497307492261"},"vehicle_type_id":"4","last_reported":1687043169,"current_range_meters":26400,"station_id":"ce4bh292rcd13ifvqdg0","pricing_plan_id":"free"},{"bike_id":"faf71b86-25e7-4d56-8b01-c764c8436f9e","system_id":"levelo_inurba_marseille","lat":43.28573,"lon":5.394992,"is_reserved":false,"is_disabled":false,"rental_uris":{"android":"levelo://app?vid=faf71b86-25e7-4d56-8b01-c764c8436f9e","ios":"levelo://app?vid=faf71b86-25e7-4d56-8b01-c764c8436f9e"},"vehicle_type_id":"4","last_reported":1687043169,"current_range_meters":24400,"station_id":"ce4bh292rcd13ifvqdg0","pricing_plan_id":"free"},{"bike_id":"675cba75-2536-4873-a427-a612758c5a7f","system_id":"levelo_inurba_marseille","lat":43.28573,"lon":5.394992,"is_reserved":false,"is_disabled":false,"rental_uris":{"android":"levelo://app?vid=675cba75-2536-4873-a427-a612758c5a7f","ios":"levelo://app?vid=675cba75-2536-4873-a427-a612758c5a7f"},"vehicle_type_id":"4","last_reported":1687043169,"current_range_meters":31200,"station_id":"ce4bh292rcd13ifvqdg0","pricing_plan_id":"free"},{"bike_id":"f03d7b98-4921-4d54-a88e-59e059089282","system_id":"levelo_inurba_marseille","lat":43.27906,"lon":5.38008,"is_reserved":false,"is_disabled":false,"rental_uris":{"android":"levelo://app?vid=f03d7b98-4921-4d54-a88e-59e059089282","ios":"levelo://app?vid=f03d7b98-4921-4d54-a88e-59e059089282"},"vehicle_type_id":"4","last_reported":1687043169,"current_range_meters":800,"station_id":"","pricing_plan_id":"free"},{"bike_id":"74f75e0c-ec02-4f51-8858-e5f248a14ad6","system_id":"levelo_inurba_marseille","lat":43.28708,"lon":5.39982,"is_reserved":false,"is_disabled":false,"rental_uris":{"android":"levelo://app?vid=74f75e0c-ec02-4f51-8858-e5f248a14ad6","ios":"levelo://app?vid=74f75e0c-ec02-4f51-8858-e5f248a14ad6"},"vehicle_type_id":"4","last_reported":1687043169,"current_range_meters":10000,"station_id":"ce4bho92rcd13ifvqh3g","pricing_plan_id":"free"},{"bike_id":"ef0e182a-9cf1-4374-b42e-e32a691528d0","system_id":"levelo_inurba_marseille","lat":43.287154,"lon":5.399979,"is_reserved":false,"is_disabled":false,"rental_uris":{"android":"levelo://app?vid=ef0e182a-9cf1-4374-b42e-e32a691528d0","ios":"levelo://app?vid=ef0e182a-9cf1-4374-b42e-e32a691528d0"},"vehicle_type_id":"4","last_reported":1687043169,"current_range_meters":14400,"station_id":"ce4bho92rcd13ifvqh3g","pricing_plan_id":"free"},{"bike_id":"904b75a0-7d1f-40f9-9247-10099c55691e","system_id":"levelo_inurba_marseille","lat":43.27895,"lon":5.38012,"is_reserved":false,"is_disabled":false,"rental_uris":{"android":"levelo://app?vid=904b75a0-7d1f-40f9-9247-10099c55691e","ios":"levelo://app?vid=904b75a0-7d1f-40f9-9247-10099c55691e"},"vehicle_type_id":"4","last_reported":1687043169,"current_range_meters":3200,"station_id":"","pricing_plan_id":"free"},{"bike_id":"6477cfdc-834f-4b42-8e34-8eda8c2c04da","system_id":"levelo_inurba_marseille","lat":43.287154,"lon":5.399979,"is_reserved":false,"is_disabled":false,"rental_uris":{"android":"levelo://app?vid=6477cfdc-834f-4b42-8e34-8eda8c2c04da","ios":"levelo://app?vid=6477cfdc-834f-4b42-8e34-8eda8c2c04da"},"vehicle_type_id":"4","last_reported":1687043169,"current_range_meters":13200,"station_id":"ce4bho92rcd13ifvqh3g","pricing_plan_id":"free"},{"bike_id":"d8c65610-530f-4dc9-a7f7-dd0f519631e7","system_id":"levelo_inurba_marseille","lat":43.287154,"lon":5.399979,"is_reserved":false,"is_disabled":false,"rental_uris":{"android":"levelo://app?vid=d8c65610-530f-4dc9-a7f7-dd0f519631e7","ios":"levelo://app?vid=d8c65610-530f-4dc9-a7f7-dd0f519631e7"},"vehicle_type_id":"4","last_reported":1687043169,"current_range_meters":24400,"station_id":"ce4bho92rcd13ifvqh3g","pricing_plan_id":"free"},{"bike_id":"bb243ad1-2d80-4496-ad6c-3fa1d031aa95","system_id":"levelo_inurba_marseille","lat":43.299579,"lon":5.413255,"is_reserved":false,"is_disabled":false,"rental_uris":{"android":"levelo://app?vid=bb243ad1-2d80-4496-ad6c-3fa1d031aa95","ios":"levelo://app?vid=bb243ad1-2d80-4496-ad6c-3fa1d031aa95"},"vehicle_type_id":"4","last_reported":1687043169,"current_range_meters":27200,"station_id":"ce4bhp12rcd13ifvqh9g","pricing_plan_id":"free"},{"bike_id":"8d5c0076-8046-46e9-aed4-fe35de9af008","system_id":"levelo_inurba_marseille","lat":43.279742,"lon":5.38744,"is_reserved":false,"is_disabled":false,"rental_uris":{"android":"levelo://app?vid=8d5c0076-8046-46e9-aed4-fe35de9af008","ios":"levelo://app?vid=8d5c0076-8046-46e9-aed4-fe35de9af008"},"vehicle_type_id":"4","last_reported":1687043169,"current_range_meters":3600,"station_id":"ce4bhg12rcd13ifvqf80","pricing_plan_id":"free"},{"bike_id":"609ce7b6-091d-4086-be69-622120cd53c0","system_id":"levelo_inurba_marseille","lat":43.279742,"lon":5.38744,"is_reserved":false,"is_disabled":false,"rental_uris":{"android":"levelo://app?vid=609ce7b6-091d-4086-be69-622120cd53c0","ios":"levelo://app?vid=609ce7b6-091d-4086-be69-622120cd53c0"},"vehicle_type_id":"4","last_reported":1687043169,"current_range_meters":400,"station_id":"ce4bhg12rcd13ifvqf80","pricing_plan_id":"free"},{"bike_id":"96a0f352-6eb8-4382-8b70-596aef5b5fdf","system_id":"levelo_inurba_marseille","lat":43.27974,"lon":5.38734,"is_reserved":false,"is_disabled":false,"rental_uris":{"android":"levelo://app?vid=96a0f352-6eb8-4382-8b70-596aef5b5fdf","ios":"levelo://app?vid=96a0f352-6eb8-4382-8b70-596aef5b5fdf"},"vehicle_type_id":"4","last_reported":1687043169,"current_range_meters":15200,"station_id":"ce4bhg12rcd13ifvqf80","pricing_plan_id":"free"},{"bike_id":"ba14f8f0-7ff0-4fef-ac88-2b41a6ea7500","system_id":"levelo_inurba_marseille","lat":43.279742,"lon":5.38744,"is_reserved":false,"is_disabled":false,"rental_uris":{"android":"levelo://app?vid=ba14f8f0-7ff0-4fef-ac88-2b41a6ea7500","ios":"levelo://app?vid=ba14f8f0-7ff0-4fef-ac88-2b41a6ea7500"},"vehicle_type_id":"4","last_reported":1687043169,"current_range_meters":26000,"station_id":"ce4bhg12rcd13ifvqf80","pricing_plan_id":"free"},{"bike_id":"f09a98b5-7bb9-4d97-ab71-f6605a0d4418","system_id":"levelo_inurba_marseille","lat":43.279742,"lon":5.38744,"is_reserved":false,"is_disabled":false,"rental_uris":{"android":"levelo://app?vid=f09a98b5-7bb9-4d97-ab71-f6605a0d4418","ios":"levelo://app?vid=f09a98b5-7bb9-4d97-ab71-f6605a0d4418"},"vehicle_type_id":"4","last_reported":1687043169,"current_range_meters":30000,"station_id":"ce4bhg12rcd13ifvqf80","pricing_plan_id":"free"},{"bike_id":"984dc6e0-5830-495f-8cf2-d783ea570542","system_id":"levelo_inurba_marseille","lat":43.292571,"lon":5.409107,"is_reserved":false,"is_disabled":false,"rental_uris":{"android":"levelo://app?vid=984dc6e0-5830-495f-8cf2-d783ea570542","ios":"levelo://app?vid=984dc6e0-5830-495f-8cf2-d783ea570542"},"vehicle_type_id":"4","last_reported":1687043169,"current_range_meters":0,"station_id":"ce4bh192rcd13ifvqdc0","pricing_plan_id":"free"},{"bike_id":"b92b8729-067b-4574-bbb2-25e998705fe1","system_id":"levelo_inurba_marseille","lat":43.29257,"lon":5.40899,"is_reserved":false,"is_disabled":false,"rental_uris":{"android":"levelo://app?vid=b92b8729-067b-4574-bbb2-25e998705fe1","ios":"levelo://app?vid=b92b8729-067b-4574-bbb2-25e998705fe1"},"vehicle_type_id":"4","last_reported":1687043169,"current_range_meters":21200,"station_id":"ce4bh192rcd13ifvqdc0","pricing_plan_id":"free"},{"bike_id":"1229b5be-112f-4dc7-80e1-107e2de32cca","system_id":"levelo_inurba_marseille","lat":43.292571,"lon":5.409107,"is_reserved":false,"is_disabled":false,"rental_uris":{"android":"levelo://app?vid=1229b5be-112f-4dc7-80e1-107e2de32cca","ios":"levelo://app?vid=1229b5be-112f-4dc7-80e1-107e2de32cca"},"vehicle_type_id":"4","last_reported":1687043169,"current_range_meters":31200,"station_id":"ce4bh192rcd13ifvqdc0","pricing_plan_id":"free"},{"bike_id":"b1790f63-7525-466a-ba74-a78226fd9255","system_id":"levelo_inurba_marseille","lat":43.292571,"lon":5.409107,"is_reserved":false,"is_disabled":false,"rental_uris":{"android":"levelo://app?vid=b1790f63-7525-466a-ba74-a78226fd9255","ios":"levelo://app?vid=b1790f63-7525-466a-ba74-a78226fd9255"},"vehicle_type_id":"4","last_reported":1687043169,"current_range_meters":31200,"station_id":"ce4bh192rcd13ifvqdc0","pricing_plan_id":"free"},{"bike_id":"30087af2-8969-4959-aae2-81a757e0a246","system_id":"levelo_inurba_marseille","lat":43.292571,"lon":5.409107,"is_reserved":false,"is_disabled":false,"rental_uris":{"android":"levelo://app?vid=30087af2-8969-4959-aae2-81a757e0a246","ios":"levelo://app?vid=30087af2-8969-4959-aae2-81a757e0a246"},"vehicle_type_id":"4","last_reported":1687043169,"current_range_meters":27200,"station_id":"ce4bh192rcd13ifvqdc0","pricing_plan_id":"free"},{"bike_id":"af7077dc-f72a-4cbf-9437-124c707c6f61","system_id":"levelo_inurba_marseille","lat":43.292571,"lon":5.409107,"is_reserved":false,"is_disabled":false,"rental_uris":{"android":"levelo://app?vid=af7077dc-f72a-4cbf-9437-124c707c6f61","ios":"levelo://app?vid=af7077dc-f72a-4cbf-9437-124c707c6f61"},"vehicle_type_id":"4","last_reported":1687043169,"current_range_meters":31200,"station_id":"ce4bh192rcd13ifvqdc0","pricing_plan_id":"free"},{"bike_id":"7b937e75-75c6-4ec6-92de-2aed1a98d090","system_id":"levelo_inurba_marseille","lat":43.292571,"lon":5.409107,"is_reserved":false,"is_disabled":false,"rental_uris":{"android":"levelo://app?vid=7b937e75-75c6-4ec6-92de-2aed1a98d090","ios":"levelo://app?vid=7b937e75-75c6-4ec6-92de-2aed1a98d090"},"vehicle_type_id":"4","last_reported":1687043169,"current_range_meters":30000,"station_id":"ce4bh192rcd13ifvqdc0","pricing_plan_id":"free"},{"bike_id":"3afa5abb-0a64-479c-888a-cf99465cd00a","system_id":"levelo_inurba_marseille","lat":43.27825,"lon":5.38911,"is_reserved":false,"is_disabled":false,"rental_uris":{"android":"levelo://app?vid=3afa5abb-0a64-479c-888a-cf99465cd00a","ios":"levelo://app?vid=3afa5abb-0a64-479c-888a-cf99465cd00a"},"vehicle_type_id":"4","last_reported":1687043169,"current_range_meters":2000,"station_id":"","pricing_plan_id":"free"},{"bike_id":"6dd86767-0514-4a67-abcf-a2c29475d6c9","system_id":"levelo_inurba_marseille","lat":43.280784,"lon":5.396622,"is_reserved":false,"is_disabled":false,"rental_uris":{"android":"levelo://app?vid=6dd86767-0514-4a67-abcf-a2c29475d6c9","ios":"levelo://app?vid=6dd86767-0514-4a67-abcf-a2c29475d6c9"},"vehicle_type_id":"4","last_reported":1687043169,"current_range_meters":18800,"station_id":"ce4bho12rcd13ifvqh2g","pricing_plan_id":"free"},{"bike_id":"1d9f308d-1141-466e-8c26-e1fffc23ffc6","system_id":"levelo_inurba_marseille","lat":43.280784,"lon":5.396622,"is_reserved":false,"is_disabled":false,"rental_uris":{"android":"levelo://app?vid=1d9f308d-1141-466e-8c26-e1fffc23ffc6","ios":"levelo://app?vid=1d9f308d-1141-466e-8c26-e1fffc23ffc6"},"vehicle_type_id":"4","last_reported":1687043169,"current_range_meters":8800,"station_id":"ce4bho12rcd13ifvqh2g","pricing_plan_id":"free"},{"bike_id":"5177b267-7966-4148-9d61-71c78e6768b2","system_id":"levelo_inurba_marseille","lat":43.280784,"lon":5.396622,"is_reserved":false,"is_disabled":false,"rental_uris":{"android":"levelo://app?vid=5177b267-7966-4148-9d61-71c78e6768b2","ios":"levelo://app?vid=5177b267-7966-4148-9d61-71c78e6768b2"},"vehicle_type_id":"4","last_reported":1687043169,"current_range_meters":31200,"station_id":"ce4bho12rcd13ifvqh2g","pricing_plan_id":"free"},{"bike_id":"3c002f32-63ba-4229-9562-f4b5d8c9153d","system_id":"levelo_inurba_marseille","lat":43.280784,"lon":5.396622,"is_reserved":false,"is_disabled":false,"rental_uris":{"android":"levelo://app?vid=3c002f32-63ba-4229-9562-f4b5d8c9153d","ios":"levelo://app?vid=3c002f32-63ba-4229-9562-f4b5d8c9153d"},"vehicle_type_id":"4","last_reported":1687043169,"current_range_meters":22400,"station_id":"ce4bho12rcd13ifvqh2g","pricing_plan_id":"free"},{"bike_id":"f7cb4d63-724b-4985-aa4a-5b18a2747f97","system_id":"levelo_inurba_marseille","lat":43.280784,"lon":5.396622,"is_reserved":false,"is_disabled":false,"rental_uris":{"android":"levelo://app?vid=f7cb4d63-724b-4985-aa4a-5b18a2747f97","ios":"levelo://app?vid=f7cb4d63-724b-4985-aa4a-5b18a2747f97"},"vehicle_type_id":"4","last_reported":1687043169,"current_range_meters":31200,"station_id":"ce4bho12rcd13ifvqh2g","pricing_plan_id":"free"},{"bike_id":"abeaaa29-552c-48d5-8eae-df9095bd8858","system_id":"levelo_inurba_marseille","lat":43.280784,"lon":5.396622,"is_reserved":false,"is_disabled":false,"rental_uris":{"android":"levelo://app?vid=abeaaa29-552c-48d5-8eae-df9095bd8858","ios":"levelo://app?vid=abeaaa29-552c-48d5-8eae-df9095bd8858"},"vehicle_type_id":"4","last_reported":1687043169,"current_range_meters":31200,"station_id":"ce4bho12rcd13ifvqh2g","pricing_plan_id":"free"},{"bike_id":"e2fe0f59-ca89-4b24-9d32-319bd5d2c86f","system_id":"levelo_inurba_marseille","lat":43.278401,"lon":5.392152,"is_reserved":false,"is_disabled":false,"rental_uris":{"android":"levelo://app?vid=e2fe0f59-ca89-4b24-9d32-319bd5d2c86f","ios":"levelo://app?vid=e2fe0f59-ca89-4b24-9d32-319bd5d2c86f"},"vehicle_type_id":"4","last_reported":1687043169,"current_range_meters":21600,"station_id":"ce4bhjp2rcd13ifvqga0","pricing_plan_id":"free"},{"bike_id":"387099f2-43b9-461d-a897-b7cc2dd56240","system_id":"levelo_inurba_marseille","lat":43.278401,"lon":5.392152,"is_reserved":false,"is_disabled":false,"rental_uris":{"android":"levelo://app?vid=387099f2-43b9-461d-a897-b7cc2dd56240","ios":"levelo://app?vid=387099f2-43b9-461d-a897-b7cc2dd56240"},"vehicle_type_id":"4","last_reported":1687043169,"current_range_meters":7600,"station_id":"ce4bhjp2rcd13ifvqga0","pricing_plan_id":"free"},{"bike_id":"472fe5d6-4cf8-4f3e-b388-d3028c9ddaf9","system_id":"levelo_inurba_marseille","lat":43.278401,"lon":5.392152,"is_reserved":false,"is_disabled":false,"rental_uris":{"android":"levelo://app?vid=472fe5d6-4cf8-4f3e-b388-d3028c9ddaf9","ios":"levelo://app?vid=472fe5d6-4cf8-4f3e-b388-d3028c9ddaf9"},"vehicle_type_id":"4","last_reported":1687043169,"current_range_meters":28400,"station_id":"ce4bhjp2rcd13ifvqga0","pricing_plan_id":"free"},{"bike_id":"98c10f3a-f691-4ccc-a521-a3aeae059080","system_id":"levelo_inurba_marseille","lat":43.278399,"lon":5.392139,"is_reserved":false,"is_disabled":false,"rental_uris":{"android":"levelo://app?vid=98c10f3a-f691-4ccc-a521-a3aeae059080","ios":"levelo://app?vid=98c10f3a-f691-4ccc-a521-a3aeae059080"},"vehicle_type_id":"4","last_reported":1687043169,"current_range_meters":30800,"station_id":"ce4bhjp2rcd13ifvqga0","pricing_plan_id":"free"},{"bike_id":"d442c82a-92ee-4b09-9d33-167236f43a11","system_id":"levelo_inurba_marseille","lat":43.278399,"lon":5.392139,"is_reserved":false,"is_disabled":false,"rental_uris":{"android":"levelo://app?vid=d442c82a-92ee-4b09-9d33-167236f43a11","ios":"levelo://app?vid=d442c82a-92ee-4b09-9d33-167236f43a11"},"vehicle_type_id":"4","last_reported":1687043169,"current_range_meters":17200,"station_id":"ce4bhjp2rcd13ifvqga0","pricing_plan_id":"free"},{"bike_id":"317145fc-c4ed-4869-837b-af398ce6aaab","system_id":"levelo_inurba_marseille","lat":43.278399,"lon":5.392139,"is_reserved":false,"is_disabled":false,"rental_uris":{"android":"levelo://app?vid=317145fc-c4ed-4869-837b-af398ce6aaab","ios":"levelo://app?vid=317145fc-c4ed-4869-837b-af398ce6aaab"},"vehicle_type_id":"4","last_reported":1687043169,"current_range_meters":18000,"station_id":"ce4bhjp2rcd13ifvqga0","pricing_plan_id":"free"},{"bike_id":"3a372097-9ea3-4b97-b30d-21f9dec09acb","system_id":"levelo_inurba_marseille","lat":43.278401,"lon":5.392152,"is_reserved":false,"is_disabled":false,"rental_uris":{"android":"levelo://app?vid=3a372097-9ea3-4b97-b30d-21f9dec09acb","ios":"levelo://app?vid=3a372097-9ea3-4b97-b30d-21f9dec09acb"},"vehicle_type_id":"4","last_reported":1687043169,"current_range_meters":31200,"station_id":"ce4bhjp2rcd13ifvqga0","pricing_plan_id":"free"},{"bike_id":"b8105b16-1089-40b8-8f49-b4ccce94c850","system_id":"levelo_inurba_marseille","lat":43.273613,"lon":5.362705,"is_reserved":false,"is_disabled":false,"rental_uris":{"android":"levelo://app?vid=b8105b16-1089-40b8-8f49-b4ccce94c850","ios":"levelo://app?vid=b8105b16-1089-40b8-8f49-b4ccce94c850"},"vehicle_type_id":"4","last_reported":1687043169,"current_range_meters":8800,"station_id":"ce4bhbh2rcd13ifvqeo0","pricing_plan_id":"free"},{"bike_id":"323e6482-d461-4bb4-a7bb-94ed1dea928d","system_id":"levelo_inurba_marseille","lat":43.273609,"lon":5.362708,"is_reserved":false,"is_disabled":false,"rental_uris":{"android":"levelo://app?vid=323e6482-d461-4bb4-a7bb-94ed1dea928d","ios":"levelo://app?vid=323e6482-d461-4bb4-a7bb-94ed1dea928d"},"vehicle_type_id":"4","last_reported":1687043169,"current_range_meters":23600,"station_id":"ce4bhbh2rcd13ifvqeo0","pricing_plan_id":"free"},{"bike_id":"a8e425f3-3249-43f1-9ee3-e3741a5ada1c","system_id":"levelo_inurba_marseille","lat":43.273609,"lon":5.362708,"is_reserved":false,"is_disabled":false,"rental_uris":{"android":"levelo://app?vid=a8e425f3-3249-43f1-9ee3-e3741a5ada1c","ios":"levelo://app?vid=a8e425f3-3249-43f1-9ee3-e3741a5ada1c"},"vehicle_type_id":"4","last_reported":1687043169,"current_range_meters":22000,"station_id":"ce4bhbh2rcd13ifvqeo0","pricing_plan_id":"free"},{"bike_id":"712ee7cd-0a24-44ca-9027-c4718d9daba4","system_id":"levelo_inurba_marseille","lat":43.273609,"lon":5.362708,"is_reserved":false,"is_disabled":false,"rental_uris":{"android":"levelo://app?vid=712ee7cd-0a24-44ca-9027-c4718d9daba4","ios":"levelo://app?vid=712ee7cd-0a24-44ca-9027-c4718d9daba4"},"vehicle_type_id":"4","last_reported":1687043169,"current_range_meters":31200,"station_id":"ce4bhbh2rcd13ifvqeo0","pricing_plan_id":"free"},{"bike_id":"ba3fdd24-48a4-4d96-9d85-a07d078f66b1","system_id":"levelo_inurba_marseille","lat":43.273613,"lon":5.362705,"is_reserved":false,"is_disabled":false,"rental_uris":{"android":"levelo://app?vid=ba3fdd24-48a4-4d96-9d85-a07d078f66b1","ios":"levelo://app?vid=ba3fdd24-48a4-4d96-9d85-a07d078f66b1"},"vehicle_type_id":"4","last_reported":1687043169,"current_range_meters":31200,"station_id":"ce4bhbh2rcd13ifvqeo0","pricing_plan_id":"free"},{"bike_id":"320fdb4a-d49c-45a5-9c05-8fbba8fbcad4","system_id":"levelo_inurba_marseille","lat":43.273609,"lon":5.362708,"is_reserved":false,"is_disabled":false,"rental_uris":{"android":"levelo://app?vid=320fdb4a-d49c-45a5-9c05-8fbba8fbcad4","ios":"levelo://app?vid=320fdb4a-d49c-45a5-9c05-8fbba8fbcad4"},"vehicle_type_id":"4","last_reported":1687043169,"current_range_meters":25600,"station_id":"ce4bhbh2rcd13ifvqeo0","pricing_plan_id":"free"},{"bike_id":"fa92151e-cad2-480d-8647-42e953d4ae43","system_id":"levelo_inurba_marseille","lat":43.336134,"lon":5.410341,"is_reserved":false,"is_disabled":false,"rental_uris":{"android":"levelo://app?vid=fa92151e-cad2-480d-8647-42e953d4ae43","ios":"levelo://app?vid=fa92151e-cad2-480d-8647-42e953d4ae43"},"vehicle_type_id":"4","last_reported":1687043169,"current_range_meters":15600,"station_id":"ce4bhqh2rcd13ifvqhmg","pricing_plan_id":"free"},{"bike_id":"605e99ef-31e2-473a-b14b-90bfb9d35464","system_id":"levelo_inurba_marseille","lat":43.31721,"lon":5.424,"is_reserved":false,"is_disabled":false,"rental_uris":{"android":"levelo://app?vid=605e99ef-31e2-473a-b14b-90bfb9d35464","ios":"levelo://app?vid=605e99ef-31e2-473a-b14b-90bfb9d35464"},"vehicle_type_id":"4","last_reported":1687043169,"current_range_meters":21600,"station_id":"ce4bhp92rcd13ifvqhbg","pricing_plan_id":"free"},{"bike_id":"c830d109-c9c0-4db8-b175-463387695a69","system_id":"levelo_inurba_marseille","lat":43.310785,"lon":5.424305,"is_reserved":false,"is_disabled":false,"rental_uris":{"android":"levelo://app?vid=c830d109-c9c0-4db8-b175-463387695a69","ios":"levelo://app?vid=c830d109-c9c0-4db8-b175-463387695a69"},"vehicle_type_id":"4","last_reported":1687043169,"current_range_meters":24800,"station_id":"ce4bhp92rcd13ifvqhag","pricing_plan_id":"free"},{"bike_id":"3d1f0bf2-a175-4923-9b10-a667ae75f12c","system_id":"levelo_inurba_marseille","lat":43.295511,"lon":5.422926,"is_reserved":false,"is_disabled":false,"rental_uris":{"android":"levelo://app?vid=3d1f0bf2-a175-4923-9b10-a667ae75f12c","ios":"levelo://app?vid=3d1f0bf2-a175-4923-9b10-a667ae75f12c"},"vehicle_type_id":"4","last_reported":1687043169,"current_range_meters":18000,"station_id":"ce4bhph2rcd13ifvqhdg","pricing_plan_id":"free"},{"bike_id":"2f884bb2-b62e-4a7c-885f-88ff5e5bb03d","system_id":"levelo_inurba_marseille","lat":43.2733,"lon":5.39086,"is_reserved":false,"is_disabled":false,"rental_uris":{"android":"levelo://app?vid=2f884bb2-b62e-4a7c-885f-88ff5e5bb03d","ios":"levelo://app?vid=2f884bb2-b62e-4a7c-885f-88ff5e5bb03d"},"vehicle_type_id":"4","last_reported":1687043169,"current_range_meters":6800,"station_id":"ce4bhgp2rcd13ifvqfe0","pricing_plan_id":"free"},{"bike_id":"f82c4e0b-ce86-4de4-962b-f266d6ba506e","system_id":"levelo_inurba_marseille","lat":43.273125,"lon":5.390731,"is_reserved":false,"is_disabled":false,"rental_uris":{"android":"levelo://app?vid=f82c4e0b-ce86-4de4-962b-f266d6ba506e","ios":"levelo://app?vid=f82c4e0b-ce86-4de4-962b-f266d6ba506e"},"vehicle_type_id":"4","last_reported":1687043169,"current_range_meters":28800,"station_id":"ce4bhgp2rcd13ifvqfe0","pricing_plan_id":"free"},{"bike_id":"6275aaca-a354-407f-be44-df40f2969d44","system_id":"levelo_inurba_marseille","lat":43.27322,"lon":5.39086,"is_reserved":false,"is_disabled":false,"rental_uris":{"android":"levelo://app?vid=6275aaca-a354-407f-be44-df40f2969d44","ios":"levelo://app?vid=6275aaca-a354-407f-be44-df40f2969d44"},"vehicle_type_id":"4","last_reported":1687043169,"current_range_meters":31200,"station_id":"ce4bhgp2rcd13ifvqfe0","pricing_plan_id":"free"},{"bike_id":"cfba2fbe-9ed5-423f-b411-8d6c38451715","system_id":"levelo_inurba_marseille","lat":43.27314,"lon":5.39077,"is_reserved":false,"is_disabled":false,"rental_uris":{"android":"levelo://app?vid=cfba2fbe-9ed5-423f-b411-8d6c38451715","ios":"levelo://app?vid=cfba2fbe-9ed5-423f-b411-8d6c38451715"},"vehicle_type_id":"4","last_reported":1687043169,"current_range_meters":31200,"station_id":"ce4bhgp2rcd13ifvqfe0","pricing_plan_id":"free"},{"bike_id":"a3c0b230-1ef1-4747-bc7a-9cae75611082","system_id":"levelo_inurba_marseille","lat":43.27424,"lon":5.39407,"is_reserved":false,"is_disabled":false,"rental_uris":{"android":"levelo://app?vid=a3c0b230-1ef1-4747-bc7a-9cae75611082","ios":"levelo://app?vid=a3c0b230-1ef1-4747-bc7a-9cae75611082"},"vehicle_type_id":"4","last_reported":1687043169,"current_range_meters":8400,"station_id":"","pricing_plan_id":"free"},{"bike_id":"eccf7542-747e-4ae3-bde2-55f7842b0215","system_id":"levelo_inurba_marseille","lat":43.27423,"lon":5.39406,"is_reserved":false,"is_disabled":false,"rental_uris":{"android":"levelo://app?vid=eccf7542-747e-4ae3-bde2-55f7842b0215","ios":"levelo://app?vid=eccf7542-747e-4ae3-bde2-55f7842b0215"},"vehicle_type_id":"4","last_reported":1687043169,"current_range_meters":19200,"station_id":"","pricing_plan_id":"free"},{"bike_id":"fd004265-97c0-4e5d-a8c0-7c32e75a8929","system_id":"levelo_inurba_marseille","lat":43.27421,"lon":5.39401,"is_reserved":false,"is_disabled":false,"rental_uris":{"android":"levelo://app?vid=fd004265-97c0-4e5d-a8c0-7c32e75a8929","ios":"levelo://app?vid=fd004265-97c0-4e5d-a8c0-7c32e75a8929"},"vehicle_type_id":"4","last_reported":1687043169,"current_range_meters":8400,"station_id":"","pricing_plan_id":"free"},{"bike_id":"bb8b0633-db3e-4ae1-bd7d-1df19195d0f4","system_id":"levelo_inurba_marseille","lat":43.27424,"lon":5.39414,"is_reserved":false,"is_disabled":false,"rental_uris":{"android":"levelo://app?vid=bb8b0633-db3e-4ae1-bd7d-1df19195d0f4","ios":"levelo://app?vid=bb8b0633-db3e-4ae1-bd7d-1df19195d0f4"},"vehicle_type_id":"4","last_reported":1687043169,"current_range_meters":0,"station_id":"","pricing_plan_id":"free"},{"bike_id":"6bba4975-69cd-477a-a154-292c2c0d32ba","system_id":"levelo_inurba_marseille","lat":43.27419,"lon":5.39405,"is_reserved":false,"is_disabled":false,"rental_uris":{"android":"levelo://app?vid=6bba4975-69cd-477a-a154-292c2c0d32ba","ios":"levelo://app?vid=6bba4975-69cd-477a-a154-292c2c0d32ba"},"vehicle_type_id":"4","last_reported":1687043169,"current_range_meters":8400,"station_id":"","pricing_plan_id":"free"},{"bike_id":"f4145a71-75db-4c87-af3d-a754bbfdfb41","system_id":"levelo_inurba_marseille","lat":43.304096,"lon":5.425385,"is_reserved":false,"is_disabled":false,"rental_uris":{"android":"levelo://app?vid=f4145a71-75db-4c87-af3d-a754bbfdfb41","ios":"levelo://app?vid=f4145a71-75db-4c87-af3d-a754bbfdfb41"},"vehicle_type_id":"4","last_reported":1687043169,"current_range_meters":22800,"station_id":"ce4bhoh2rcd13ifvqh6g","pricing_plan_id":"free"},{"bike_id":"c7c208a7-5834-4cc7-b9ad-617762a9327b","system_id":"levelo_inurba_marseille","lat":43.295523,"lon":5.422926,"is_reserved":false,"is_disabled":false,"rental_uris":{"android":"levelo://app?vid=c7c208a7-5834-4cc7-b9ad-617762a9327b","ios":"levelo://app?vid=c7c208a7-5834-4cc7-b9ad-617762a9327b"},"vehicle_type_id":"4","last_reported":1687043169,"current_range_meters":29200,"station_id":"ce4bhph2rcd13ifvqhdg","pricing_plan_id":"free"},{"bike_id":"17b54309-3065-4be1-a8b9-b08272f5856d","system_id":"levelo_inurba_marseille","lat":43.29544,"lon":5.42278,"is_reserved":false,"is_disabled":false,"rental_uris":{"android":"levelo://app?vid=17b54309-3065-4be1-a8b9-b08272f5856d","ios":"levelo://app?vid=17b54309-3065-4be1-a8b9-b08272f5856d"},"vehicle_type_id":"4","last_reported":1687043169,"current_range_meters":24800,"station_id":"ce4bhph2rcd13ifvqhdg","pricing_plan_id":"free"},{"bike_id":"036339f8-e04e-4939-9552-b325f958423e","system_id":"levelo_inurba_marseille","lat":43.295511,"lon":5.422926,"is_reserved":false,"is_disabled":false,"rental_uris":{"android":"levelo://app?vid=036339f8-e04e-4939-9552-b325f958423e","ios":"levelo://app?vid=036339f8-e04e-4939-9552-b325f958423e"},"vehicle_type_id":"4","last_reported":1687043169,"current_range_meters":7200,"station_id":"ce4bhph2rcd13ifvqhdg","pricing_plan_id":"free"},{"bike_id":"7d6aa1dd-d339-4470-b5fa-4fce1ac81d3f","system_id":"levelo_inurba_marseille","lat":43.295523,"lon":5.422926,"is_reserved":false,"is_disabled":false,"rental_uris":{"android":"levelo://app?vid=7d6aa1dd-d339-4470-b5fa-4fce1ac81d3f","ios":"levelo://app?vid=7d6aa1dd-d339-4470-b5fa-4fce1ac81d3f"},"vehicle_type_id":"4","last_reported":1687043169,"current_range_meters":22800,"station_id":"ce4bhph2rcd13ifvqhdg","pricing_plan_id":"free"},{"bike_id":"37b79acc-993d-4825-ba69-0bc41aa1e66b","system_id":"levelo_inurba_marseille","lat":43.295511,"lon":5.422926,"is_reserved":false,"is_disabled":false,"rental_uris":{"android":"levelo://app?vid=37b79acc-993d-4825-ba69-0bc41aa1e66b","ios":"levelo://app?vid=37b79acc-993d-4825-ba69-0bc41aa1e66b"},"vehicle_type_id":"4","last_reported":1687043169,"current_range_meters":23600,"station_id":"ce4bhph2rcd13ifvqhdg","pricing_plan_id":"free"},{"bike_id":"03c63a22-5af4-4731-b58c-68faf2f7a292","system_id":"levelo_inurba_marseille","lat":43.27152,"lon":5.3899,"is_reserved":false,"is_disabled":false,"rental_uris":{"android":"levelo://app?vid=03c63a22-5af4-4731-b58c-68faf2f7a292","ios":"levelo://app?vid=03c63a22-5af4-4731-b58c-68faf2f7a292"},"vehicle_type_id":"4","last_reported":1687043169,"current_range_meters":30400,"station_id":"","pricing_plan_id":"free"},{"bike_id":"24077aae-22cf-4e9b-87d1-9ebb83667652","system_id":"levelo_inurba_marseille","lat":43.27816,"lon":5.40698,"is_reserved":false,"is_disabled":false,"rental_uris":{"android":"levelo://app?vid=24077aae-22cf-4e9b-87d1-9ebb83667652","ios":"levelo://app?vid=24077aae-22cf-4e9b-87d1-9ebb83667652"},"vehicle_type_id":"4","last_reported":1687043169,"current_range_meters":28800,"station_id":"ce4bhnh2rcd13ifvqgtg","pricing_plan_id":"free"},{"bike_id":"f63ec399-f461-4132-a7fc-d6ce0f8d97e8","system_id":"levelo_inurba_marseille","lat":43.27811,"lon":5.40702,"is_reserved":false,"is_disabled":false,"rental_uris":{"android":"levelo://app?vid=f63ec399-f461-4132-a7fc-d6ce0f8d97e8","ios":"levelo://app?vid=f63ec399-f461-4132-a7fc-d6ce0f8d97e8"},"vehicle_type_id":"4","last_reported":1687043169,"current_range_meters":18800,"station_id":"ce4bhnh2rcd13ifvqgtg","pricing_plan_id":"free"},