{"last_updated":1707286157,"ttl":30,"version":"2.2","data":{"bikes":[{"bike_id":"59cd6250-33cc-4c31-9214-9a1eb2dcd8a1","system_id":"levelo_inurba_marseille","lat":43.312239,"lon":5.368562,"is_reserved":false,"is_disabled":false,"rental_uris":{"android":"levelo://app?vid=59cd6250-33cc-4c31-9214-9a1eb2dcd8a1","ios":"levelo://app?vid=59cd6250-33cc-4c31-9214-9a1eb2dcd8a1"},"vehicle_type_id":"4","last_reported":1707286157,"current_range_meters":26400,"station_id":"ce4bgl92rcd13ifvqbq0","pricing_plan_id":"free"},{"bike_id":"b7cbf241-99ad-4667-bfdc-e1b540af997f","system_id":"levelo_inurba_marseille","lat":43.312239,"lon":5.368562,"is_reserved":false,"is_disabled":false,"rental_uris":{"android":"levelo://app?vid=b7cbf241-99ad-4667-bfdc-e1b540af997f","ios":"levelo://app?vid=b7cbf241-99ad-4667-bfdc-e1b540af997f"},"vehicle_type_id":"4","last_reported":1707286157,"current_range_meters":18400,"station_id":"ce4bgl92rcd13ifvqbq0","pricing_plan_id":"free"},{"bike_id":"c00c0a83-fef6-4c5f-a74e-943444e998ea","system_id":"levelo_inurba_marseille","lat":43.312239,"lon":5.368562,"is_reserved":false,"is_disabled":false,"rental_uris":{"android":"levelo://app?vid=c00c0a83-fef6-4c5f-a74e-943444e998ea","ios":"levelo://app?vid=c00c0a83-fef6-4c5f-a74e-943444e998ea"},"vehicle_type_id":"4","last_reported":1707286157,"current_range_meters":31200,"station_id":"ce4bgl92rcd13ifvqbq0","pricing_plan_id":"free"},{"bike_id":"b5fb8a72-f57f-4ca1-b1fd-28f2be128d30","system_id":"levelo_inurba_marseille","lat":43.309076,"lon":5.368465,"is_reserved":false,"is_disabled":false,"rental_uris":{"android":"levelo://app?vid=b5fb8a72-f57f-4ca1-b1fd-28f2be128d30","ios":"levelo://app?vid=b5fb8a72-f57f-4ca1-b1fd-28f2be128d30"},"vehicle_type_id":"4","last_reported":1707286157,"current_range_meters":13200,"station_id":"ce4bgn92rcd13ifvqbvg","pricing_plan_id":"free"},{"bike_id":"81ffb959-a468-41c0-906c-06ce6a19a00c","system_id":"levelo_inurba_marseille","lat":43.314811,"lon":5.373103,"is_reserved":false,"is_disabled":false,"rental_uris":{"android":"levelo://app?vid=81ffb959-a468-41c0-906c-06ce6a19a00c","ios":"levelo://app?vid=81ffb959-a468-41c0-906c-06ce6a19a00c"},"vehicle_type_id":"4","last_reported":1707286157,"current_range_meters":2000,"station_id":"ce4bgt12rcd13ifvqcd0","pricing_plan_id":"free"},{"bike_id":"185c938e-074e-46e5-8274-77854520727c","system_id":"levelo_inurba_marseille","lat":43.314811,"lon":5.373103,"is_reserved":false,"is_disabled":false,"rental_uris":{"android":"levelo://app?vid=185c938e-074e-46e5-8274-77854520727c","ios":"levelo://app?vid=185c938e-074e-46e5-8274-77854520727c"},"vehicle_type_id":"4","last_reported":1707286157,"current_range_meters":11600,"station_id":"ce4bgt12rcd13ifvqcd0","pricing_plan_id":"free"},{"bike_id":"6ff729ae-7775-4ab7-a73b-bfc39cc4fc29","system_id":"levelo_inurba_marseille","lat":43.314811,"lon":5.373103,"is_reserved":false,"is_disabled":false,"rental_uris":{"android":"levelo://app?vid=6ff729ae-7775-4ab7-a73b-bfc39cc4fc29","ios":"levelo://app?vid=6ff729ae-7775-4ab7-a73b-bfc39cc4fc29"},"vehicle_type_id":"4","last_reported":1707286157,"current_range_meters":29600,"station_id":"ce4bgt12rcd13ifvqcd0","pricing_plan_id":"free"},{"bike_id":"301d6924-64f1-494e-aeec-2c1126c0b01e","system_id":"levelo_inurba_marseille","lat":43.314811,"lon":5.373103,"is_reserved":false,"is_disabled":false,"rental_uris":{"android":"levelo://app?vid=301d6924-64f1-494e-aeec-2c1126c0b01e","ios":"levelo://app?vid=301d6924-64f1-494e-aeec-2c1126c0b01e"},"vehicle_type_id":"4","last_reported":1707286157,"current_range_meters":11600,"station_id":"ce4bgt12rcd13ifvqcd0","pricing_plan_id":"free"},{"bike_id":"3cabe903-972e-4e8b-a54a-f37bcc8aa291","system_id":"levelo_inurba_marseille","lat":43.314811,"lon":5.373103,"is_reserved":false,"is_disabled":false,"rental_uris":{"android":"levelo://app?vid=3cabe903-972e-4e8b-a54a-f37bcc8aa291","ios":"levelo://app?vid=3cabe903-972e-4e8b-a54a-f37bcc8aa291"},"vehicle_type_id":"4","last_reported":1707286157,"current_range_meters":24800,"station_id":"ce4bgt12rcd13ifvqcd0","pricing_plan_id":"free"},{"bike_id":"b8654060-9a7d-4fc9-a496-75c04ce8a098","system_id":"levelo_inurba_marseille","lat":43.314811,"lon":5.373104,"is_reserved":false,"is_disabled":false,"rental_uris":{"android":"levelo://app?vid=b8654060-9a7d-4fc9-a496-75c04ce8a098","ios":"levelo://app?vid=b8654060-9a7d-4fc9-a496-75c04ce8a098"},"vehicle_type_id":"4","last_reported":1707286157,"current_range_meters":29600,"station_id":"ce4bgt12rcd13ifvqcd0","pricing_plan_id":"free"},{"bike_id":"d9239fd6-734d-4df0-a20b-1c1ccdf8ad76","system_id":"levelo_inurba_marseille","lat":43.309039,"lon":5.371797,"is_reserved":false,"is_disabled":false,"rental_uris":{"android":"levelo://app?vid=d9239fd6-734d-4df0-a20b-1c1ccdf8ad76","ios":"levelo://app?vid=d9239fd6-734d-4df0-a20b-1c1ccdf8ad76"},"vehicle_type_id":"4","last_reported":1707286157,"current_range_meters":22000,"station_id":"ce4bguh2rcd13ifvqckg","pricing_plan_id":"free"},{"bike_id":"b972ce81-b0cd-46ec-86f6-716f0e0e512e","system_id":"levelo_inurba_marseille","lat":43.309039,"lon":5.371797,"is_reserved":false,"is_disabled":false,"rental_uris":{"android":"levelo://app?vid=b972ce81-b0cd-46ec-86f6-716f0e0e512e","ios":"levelo://app?vid=b972ce81-b0cd-46ec-86f6-716f0e0e512e"},"vehicle_type_id":"4","last_reported":1707286157,"current_range_meters":31200,"station_id":"ce4bguh2rcd13ifvqckg","pricing_plan_id":"free"},{"bike_id":"94b11693-b685-4900-83d4-7f445e5507fb","system_id":"levelo_inurba_marseille","lat":43.309034,"lon":5.371783,"is_reserved":false,"is_disabled":false,"rental_uris":{"android":"levelo://app?vid=94b11693-b685-4900-83d4-7f445e5507fb","ios":"levelo://app?vid=94b11693-b685-4900-83d4-7f445e5507fb"},"vehicle_type_id":"4","last_reported":1707286157,"current_range_meters":24800,"station_id":"ce4bguh2rcd13ifvqckg","pricing_plan_id":"free"},{"bike_id":"5aff45cc-3a72-4eca-968a-43931686da94","system_id":"levelo_inurba_marseille","lat":43.305368,"lon":5.367343,"is_reserved":false,"is_disabled":false,"rental_uris":{"android":"levelo://app?vid=5aff45cc-3a72-4eca-968a-43931686da94","ios":"levelo://app?vid=5aff45cc-3a72-4eca-968a-43931686da94"},"vehicle_type_id":"4","last_reported":1707286157,"current_range_meters":25600,"station_id":"ce4bgrp2rcd13ifvqc9g","pricing_plan_id":"free"},{"bike_id":"d8687bb9-b373-40f4-b59e-ad4daea2cca3","system_id":"levelo_inurba_marseille","lat":43.311131,"lon":5.377651,"is_reserved":false,"is_disabled":false,"rental_uris":{"android":"levelo://app?vid=d8687bb9-b373-40f4-b59e-ad4daea2cca3","ios":"levelo://app?vid=d8687bb9-b373-40f4-b59e-ad4daea2cca3"},"vehicle_type_id":"4","last_reported":1707286157,"current_range_meters":10000,"station_id":"ce4bgt92rcd13ifvqcg0","pricing_plan_id":"free"},{"bike_id":"945d788d-96b5-44ac-a0a1-609629e3c82b","system_id":"levelo_inurba_marseille","lat":43.307945,"lon":5.376487,"is_reserved":false,"is_disabled":false,"rental_uris":{"android":"levelo://app?vid=945d788d-96b5-44ac-a0a1-609629e3c82b","ios":"levelo://app?vid=945d788d-96b5-44ac-a0a1-609629e3c82b"},"vehicle_type_id":"4","last_reported":1707286157,"current_range_meters":31200,"station_id":"ce4bgv92rcd13ifvqcq0","pricing_plan_id":"free"},{"bike_id":"0c466ccc-d747-4327-be86-c3896d0bbba3","system_id":"levelo_inurba_marseille","lat":43.317075,"lon":5.377367,"is_reserved":false,"is_disabled":false,"rental_uris":{"android":"levelo://app?vid=0c466ccc-d747-4327-be86-c3896d0bbba3","ios":"levelo://app?vid=0c466ccc-d747-4327-be86-c3896d0bbba3"},"vehicle_type_id":"4","last_reported":1707286157,"current_range_meters":31200,"station_id":"ce4bgth2rcd13ifvqch0","pricing_plan_id":"free"},{"bike_id":"5b391b90-f487-4a67-bdc7-199637723a01","system_id":"levelo_inurba_marseille","lat":43.303046,"lon":5.368981,"is_reserved":false,"is_disabled":false,"rental_uris":{"android":"levelo://app?vid=5b391b90-f487-4a67-bdc7-199637723a01","ios":"levelo://app?vid=5b391b90-f487-4a67-bdc7-199637723a01"},"vehicle_type_id":"4","last_reported":1707286157,"current_range_meters":12800,"station_id":"ce4bgqh2rcd13ifvqc5g","pricing_plan_id":"free"},{"bike_id":"44d074c1-d2db-47c6-8e3d-855ef42b92aa","system_id":"levelo_inurba_marseille","lat":43.315293,"lon":5.380349,"is_reserved":false,"is_disabled":false,"rental_uris":{"android":"levelo://app?vid=44d074c1-d2db-47c6-8e3d-855ef42b92aa","ios":"levelo://app?vid=44d074c1-d2db-47c6-8e3d-855ef42b92aa"},"vehicle_type_id":"4","last_reported":1707286157,"current_range_meters":31200,"station_id":"ce4bhsp2rcd13ifvqi50","pricing_plan_id":"free"},{"bike_id":"c3eb0486-c9f1-4610-978a-c48f7af8fd75","system_id":"levelo_inurba_marseille","lat":43.315293,"lon":5.380349,"is_reserved":false,"is_disabled":false,"rental_uris":{"android":"levelo://app?vid=c3eb0486-c9f1-4610-978a-c48f7af8fd75","ios":"levelo://app?vid=c3eb0486-c9f1-4610-978a-c48f7af8fd75"},"vehicle_type_id":"4","last_reported":1707286157,"current_range_meters":9600,"station_id":"ce4bhsp2rcd13ifvqi50","pricing_plan_id":"free"},{"bike_id":"9efd3344-443a-4334-ad8d-1b872ffa0de9","system_id":"levelo_inurba_marseille","lat":43.315293,"lon":5.380349,"is_reserved":false,"is_disabled":false,"rental_uris":{"android":"levelo://app?vid=9efd3344-443a-4334-ad8d-1b872ffa0de9","ios":"levelo://app?vid=9efd3344-443a-4334-ad8d-1b872ffa0de9"},"vehicle_type_id":"4","last_reported":1707286157,"current_range_meters":27600,"station_id":"ce4bhsp2rcd13ifvqi50","pricing_plan_id":"free"},{"bike_id":"86bb28d6-8524-4639-af6f-d6b0f34c19c9","system_id":"levelo_inurba_marseille","lat":43.308012,"lon":5.381511,"is_reserved":false,"is_disabled":false,"rental_uris":{"android":"levelo://app?vid=86bb28d6-8524-4639-af6f-d6b0f34c19c9","ios":"levelo://app?vid=86bb28d6-8524-4639-af6f-d6b0f34c19c9"},"vehicle_type_id":"4","last_reported":1707286157,"current_range_meters":27600,"station_id":"ce4bgt12rcd13ifvqce0","pricing_plan_id":"free"},{"bike_id":"768ee79b-4859-4b64-bd45-453a1a04904b","system_id":"levelo_inurba_marseille","lat":43.308012,"lon":5.381511,"is_reserved":false,"is_disabled":false,"rental_uris":{"android":"levelo://app?vid=768ee79b-4859-4b64-bd45-453a1a04904b","ios":"levelo://app?vid=768ee79b-4859-4b64-bd45-453a1a04904b"},"vehicle_type_id":"4","last_reported":1707286157,"current_range_meters":9600,"station_id":"ce4bgt12rcd13ifvqce0","pricing_plan_id":"free"},{"bike_id":"a394aba6-316e-493c-898e-32b69ac36ef0","system_id":"levelo_inurba_marseille","lat":43.308624,"lon":5.381811,"is_reserved":false,"is_disabled":false,"rental_uris":{"android":"levelo://app?vid=a394aba6-316e-493c-898e-32b69ac36ef0","ios":"levelo://app?vid=a394aba6-316e-493c-898e-32b69ac36ef0"},"vehicle_type_id":"4","last_reported":1707286157,"current_range_meters":15200,"station_id":"","pricing_plan_id":"free"},{"bike_id":"865a35c8-2198-4db9-a276-e68a3c05438a","system_id":"levelo_inurba_marseille","lat":43.301429,"lon":5.37413,"is_reserved":false,"is_disabled":false,"rental_uris":{"android":"levelo://app?vid=865a35c8-2198-4db9-a276-e68a3c05438a","ios":"levelo://app?vid=865a35c8-2198-4db9-a276-e68a3c05438a"},"vehicle_type_id":"4","last_reported":1707286157,"current_range_meters":25200,"station_id":"ce4bgs92rcd13ifvqcc0","pricing_plan_id":"free"},{"bike_id":"ae7f3ccf-c42b-4761-84dc-fc19dda7b38e","system_id":"levelo_inurba_marseille","lat":43.304606,"lon":5.379026,"is_reserved":false,"is_disabled":false,"rental_uris":{"android":"levelo://app?vid=ae7f3ccf-c42b-4761-84dc-fc19dda7b38e","ios":"levelo://app?vid=ae7f3ccf-c42b-4761-84dc-fc19dda7b38e"},"vehicle_type_id":"4","last_reported":1707286157,"current_range_meters":22000,"station_id":"ce4bgup2rcd13ifvqcn0","pricing_plan_id":"free"},{"bike_id":"452a4734-f9ca-4cbf-982a-bae7f98dc284","system_id":"levelo_inurba_marseille","lat":43.304606,"lon":5.379026,"is_reserved":false,"is_disabled":false,"rental_uris":{"android":"levelo://app?vid=452a4734-f9ca-4cbf-982a-bae7f98dc284","ios":"levelo://app?vid=452a4734-f9ca-4cbf-982a-bae7f98dc284"},"vehicle_type_id":"4","last_reported":1707286157,"current_range_meters":7600,"station_id":"ce4bgup2rcd13ifvqcn0","pricing_plan_id":"free"},{"bike_id":"1beaac9e-d1d8-4c34-bb23-e2b7a868410b","system_id":"levelo_inurba_marseille","lat":43.304695,"lon":5.37906,"is_reserved":false,"is_disabled":false,"rental_uris":{"android":"levelo://app?vid=1beaac9e-d1d8-4c34-bb23-e2b7a868410b","ios":"levelo://app?vid=1beaac9e-d1d8-4c34-bb23-e2b7a868410b"},"vehicle_type_id":"4","last_reported":1707286157,"current_range_meters":21600,"station_id":"ce4bgup2rcd13ifvqcn0","pricing_plan_id":"free"},{"bike_id":"05b66696-a3db-4937-a468-207cce5f37f9","system_id":"levelo_inurba_marseille","lat":43.304606,"lon":5.379026,"is_reserved":false,"is_disabled":false,"rental_uris":{"android":"levelo://app?vid=05b66696-a3db-4937-a468-207cce5f37f9","ios":"levelo://app?vid=05b66696-a3db-4937-a468-207cce5f37f9"},"vehicle_type_id":"4","last_reported":1707286157,"current_range_meters":27200,"station_id":"ce4bgup2rcd13ifvqcn0","pricing_plan_id":"free"},{"bike_id":"50e7bf74-d237-46a0-81c0-33fca01fd415","system_id":"levelo_inurba_marseille","lat":43.304606,"lon":5.379026,"is_reserved":false,"is_disabled":false,"rental_uris":{"android":"levelo://app?vid=50e7bf74-d237-46a0-81c0-33fca01fd415","ios":"levelo://app?vid=50e7bf74-d237-46a0-81c0-33fca01fd415"},"vehicle_type_id":"4","last_reported":1707286157,"current_range_meters":20800,"station_id":"ce4bgup2rcd13ifvqcn0","pricing_plan_id":"free"},{"bike_id":"eb66fd9c-bbe0-4afc-8446-e691051fa117","system_id":"levelo_inurba_marseille","lat":43.304606,"lon":5.379026,"is_reserved":false,"is_disabled":false,"rental_uris":{"android":"levelo://app?vid=eb66fd9c-bbe0-4afc-8446-e691051fa117","ios":"levelo://app?vid=eb66fd9c-bbe0-4afc-8446-e691051fa117"},"vehicle_type_id":"4","last_reported":1707286157,"current_range_meters":24000,"station_id":"ce4bgup2rcd13ifvqcn0","pricing_plan_id":"free"},{"bike_id":"547b314d-a738-414e-b329-e6aa1631d7e4","system_id":"levelo_inurba_marseille","lat":43.304606,"lon":5.379026,"is_reserved":false,"is_disabled":false,"rental_uris":{"android":"levelo://app?vid=547b314d-a738-414e-b329-e6aa1631d7e4","ios":"levelo://app?vid=547b314d-a738-414e-b329-e6aa1631d7e4"},"vehicle_type_id":"4","last_reported":1707286157,"current_range_meters":31600,"station_id":"ce4bgup2rcd13ifvqcn0","pricing_plan_id":"free"},{"bike_id":"505789c3-ba00-43e2-a279-c8cda3d886be","system_id":"levelo_inurba_marseille","lat":43.30462,"lon":5.37902,"is_reserved":false,"is_disabled":false,"rental_uris":{"android":"levelo://app?vid=505789c3-ba00-43e2-a279-c8cda3d886be","ios":"levelo://app?vid=505789c3-ba00-43e2-a279-c8cda3d886be"},"vehicle_type_id":"4","last_reported":1707286157,"current_range_meters":0,"station_id":"ce4bgup2rcd13ifvqcn0","pricing_plan_id":"free"},{"bike_id":"6e9f69e0-56bf-4fb2-9165-b14b0f587ea2","system_id":"levelo_inurba_marseille","lat":43.30465,"lon":5.37907,"is_reserved":false,"is_disabled":false,"rental_uris":{"android":"levelo://app?vid=6e9f69e0-56bf-4fb2-9165-b14b0f587ea2","ios":"levelo://app?vid=6e9f69e0-56bf-4fb2-9165-b14b0f587ea2"},"vehicle_type_id":"4","last_reported":1707286157,"current_range_meters":1600,"station_id":"ce4bgup2rcd13ifvqcn0","pricing_plan_id":"free"},{"bike_id":"e21e2dce-83fa-451e-985f-5bf751f708c1","system_id":"levelo_inurba_marseille","lat":43.30463,"lon":5.37906,"is_reserved":false,"is_disabled":false,"rental_uris":{"android":"levelo://app?vid=e21e2dce-83fa-451e-985f-5bf751f708c1","ios":"levelo://app?vid=e21e2dce-83fa-451e-985f-5bf751f708c1"},"vehicle_type_id":"4","last_reported":1707286157,"current_range_meters":16400,"station_id":"ce4bgup2rcd13ifvqcn0","pricing_plan_id":"free"},{"bike_id":"8355781b-c426-4509-98d3-a2b9d6849b0c","system_id":"levelo_inurba_marseille","lat":43.30466,"lon":5.3791,"is_reserved":false,"is_disabled":false,"rental_uris":{"android":"levelo://app?vid=8355781b-c426-4509-98d3-a2b9d6849b0c","ios":"levelo://app?vid=8355781b-c426-4509-98d3-a2b9d6849b0c"},"vehicle_type_id":"4","last_reported":1707286157,"current_range_meters":8400,"station_id":"ce4bgup2rcd13ifvqcn0","pricing_plan_id":"free"},{"bike_id":"7ad410c4-8a83-40ab-8a50-d11c69e14397","system_id":"levelo_inurba_marseille","lat":43.30465,"lon":5.3791,"is_reserved":false,"is_disabled":false,"rental_uris":{"android":"levelo://app?vid=7ad410c4-8a83-40ab-8a50-d11c69e14397","ios":"levelo://app?vid=7ad410c4-8a83-40ab-8a50-d11c69e14397"},"vehicle_type_id":"4","last_reported":1707286157,"current_range_meters":22000,"station_id":"ce4bgup2rcd13ifvqcn0","pricing_plan_id":"free"},{"bike_id":"9fa72c90-1619-4bbe-a0d0-52c83bcdfbc0","system_id":"levelo_inurba_marseille","lat":43.304606,"lon":5.379026,"is_reserved":false,"is_disabled":false,"rental_uris":{"android":"levelo://app?vid=9fa72c90-1619-4bbe-a0d0-52c83bcdfbc0","ios":"levelo://app?vid=9fa72c90-1619-4bbe-a0d0-52c83bcdfbc0"},"vehicle_type_id":"4","last_reported":1707286157,"current_range_meters":30400,"station_id":"ce4bgup2rcd13ifvqcn0","pricing_plan_id":"free"},{"bike_id":"355aea79-6b35-434f-8af1-3e2a000e365c","system_id":"levelo_inurba_marseille","lat":43.30465,"lon":5.37912,"is_reserved":false,"is_disabled":false,"rental_uris":{"android":"levelo://app?vid=355aea79-6b35-434f-8af1-3e2a000e365c","ios":"levelo://app?vid=355aea79-6b35-434f-8af1-3e2a000e365c"},"vehicle_type_id":"4","last_reported":1707286157,"current_range_meters":20800,"station_id":"ce4bgup2rcd13ifvqcn0","pricing_plan_id":"free"},{"bike_id":"7da4ef4e-60b4-4610-beb7-874107e8d544","system_id":"levelo_inurba_marseille","lat":43.30461,"lon":5.37909,"is_reserved":false,"is_disabled":false,"rental_uris":{"android":"levelo://app?vid=7da4ef4e-60b4-4610-beb7-874107e8d544","ios":"levelo://app?vid=7da4ef4e-60b4-4610-beb7-874107e8d544"},"vehicle_type_id":"4","last_reported":1707286157,"current_range_meters":23200,"station_id":"ce4bgup2rcd13ifvqcn0","pricing_plan_id":"free"},{"bike_id":"254d9d89-df1a-4be5-bc1d-27c1e807ef45","system_id":"levelo_inurba_marseille","lat":43.304606,"lon":5.379026,"is_reserved":false,"is_disabled":false,"rental_uris":{"android":"levelo://app?vid=254d9d89-df1a-4be5-bc1d-27c1e807ef45","ios":"levelo://app?vid=254d9d89-df1a-4be5-bc1d-27c1e807ef45"},"vehicle_type_id":"4","last_reported":1707286157,"current_range_meters":22800,"station_id":"ce4bgup2rcd13ifvqcn0","pricing_plan_id":"free"},{"bike_id":"97f71f75-d414-4d74-9636-20377fab8590","system_id":"levelo_inurba_marseille","lat":43.324771,"lon":5.36557,"is_reserved":false,"is_disabled":false,"rental_uris":{"android":"levelo://app?vid=97f71f75-d414-4d74-9636-20377fab8590","ios":"levelo://app?vid=97f71f75-d414-4d74-9636-20377fab8590"},"vehicle_type_id":"4","last_reported":1707286157,"current_range_meters":29200,"station_id":"ce4bhs12rcd13ifvqhvg","pricing_plan_id":"free"},{"bike_id":"5e3f4117-bf71-4295-8fac-b33a9c44e6b6","system_id":"levelo_inurba_marseille","lat":43.324771,"lon":5.36557,"is_reserved":false,"is_disabled":false,"rental_uris":{"android":"levelo://app?vid=5e3f4117-bf71-4295-8fac-b33a9c44e6b6","ios":"levelo://app?vid=5e3f4117-bf71-4295-8fac-b33a9c44e6b6"},"vehicle_type_id":"4","last_reported":1707286157,"current_range_meters":21600,"station_id":"ce4bhs12rcd13ifvqhvg","pricing_plan_id":"free"},{"bike_id":"38cd9f06-2496-4cc3-975c-dabe34e3b5eb","system_id":"levelo_inurba_marseille","lat":43.324771,"lon":5.36557,"is_reserved":false,"is_disabled":false,"rental_uris":{"android":"levelo://app?vid=38cd9f06-2496-4cc3-975c-dabe34e3b5eb","ios":"levelo://app?vid=38cd9f06-2496-4cc3-975c-dabe34e3b5eb"},"vehicle_type_id":"4","last_reported":1707286157,"current_range_meters":0,"station_id":"ce4bhs12rcd13ifvqhvg","pricing_plan_id":"free"},{"bike_id":"edf45dfe-91d7-407a-b7d3-81c40bcf1454","system_id":"levelo_inurba_marseille","lat":43.310734,"lon":5.383487,"is_reserved":false,"is_disabled":false,"rental_uris":{"android":"levelo://app?vid=edf45dfe-91d7-407a-b7d3-81c40bcf1454","ios":"levelo://app?vid=edf45dfe-91d7-407a-b7d3-81c40bcf1454"},"vehicle_type_id":"4","last_reported":1707286157,"current_range_meters":24000,"station_id":"ce4bgv92rcd13ifvqcr0","pricing_plan_id":"free"},{"bike_id":"7c20e289-a25a-40af-994e-4d7947cbd0b5","system_id":"levelo_inurba_marseille","lat":43.310761,"lon":5.383542,"is_reserved":false,"is_disabled":false,"rental_uris":{"android":"levelo://app?vid=7c20e289-a25a-40af-994e-4d7947cbd0b5","ios":"levelo://app?vid=7c20e289-a25a-40af-994e-4d7947cbd0b5"},"vehicle_type_id":"4","last_reported":1707286157,"current_range_meters":0,"station_id":"ce4bgv92rcd13ifvqcr0","pricing_plan_id":"free"},{"bike_id":"06d72d4d-ac8e-4612-a868-dafc6a0102af","system_id":"levelo_inurba_marseille","lat":43.302784,"lon":5.377158,"is_reserved":false,"is_disabled":false,"rental_uris":{"android":"levelo://app?vid=06d72d4d-ac8e-4612-a868-dafc6a0102af","ios":"levelo://app?vid=06d72d4d-ac8e-4612-a868-dafc6a0102af"},"vehicle_type_id":"4","last_reported":1707286157,"current_range_meters":21200,"station_id":"ce4bguh2rcd13ifvqcj0","pricing_plan_id":"free"},{"bike_id":"3106843b-1650-4531-b7ce-61f0153e2d4c","system_id":"levelo_inurba_marseille","lat":43.301429,"lon":5.37413,"is_reserved":false,"is_disabled":false,"rental_uris":{"android":"levelo://app?vid=3106843b-1650-4531-b7ce-61f0153e2d4c","ios":"levelo://app?vid=3106843b-1650-4531-b7ce-61f0153e2d4c"},"vehicle_type_id":"4","last_reported":1707286157,"current_range_meters":28400,"station_id":"ce4bgs92rcd13ifvqcc0","pricing_plan_id":"free"},{"bike_id":"698ca7f2-da7a-426a-9368-27db32dd2254","system_id":"levelo_inurba_marseille","lat":43.302784,"lon":5.377158,"is_reserved":false,"is_disabled":false,"rental_uris":{"android":"levelo://app?vid=698ca7f2-da7a-426a-9368-27db32dd2254","ios":"levelo://app?vid=698ca7f2-da7a-426a-9368-27db32dd2254"},"vehicle_type_id":"4","last_reported":1707286157,"current_range_meters":27200,"station_id":"ce4bguh2rcd13ifvqcj0","pricing_plan_id":"free"},{"bike_id":"0d3c945e-f2a0-463d-8ca6-51fe4d15e086","system_id":"levelo_inurba_marseille","lat":43.301429,"lon":5.37413,"is_reserved":false,"is_disabled":false,"rental_uris":{"android":"levelo://app?vid=0d3c945e-f2a0-463d-8ca6-51fe4d15e086","ios":"levelo://app?vid=0d3c945e-f2a0-463d-8ca6-51fe4d15e086"},"vehicle_type_id":"4","last_reported":1707286157,"current_range_meters":22400,"station_id":"ce4bgs92rcd13ifvqcc0","pricing_plan_id":"free"},{"bike_id":"5283c74b-358f-4802-9fb8-0203d5d3767e","system_id":"levelo_inurba_marseille","lat":43.30143,"lon":5.37413,"is_reserved":false,"is_disabled":false,"rental_uris":{"android":"levelo://app?vid=5283c74b-358f-4802-9fb8-0203d5d3767e","ios":"levelo://app?vid=5283c74b-358f-4802-9fb8-0203d5d3767e"},"vehicle_type_id":"4","last_reported":1707286157,"current_range_meters":31600,"station_id":"ce4bgs92rcd13ifvqcc0","pricing_plan_id":"free"},{"bike_id":"3f9c5cf8-8aad-4164-a224-a82f0f9f3c71","system_id":"levelo_inurba_marseille","lat":43.302728,"lon":5.377201,"is_reserved":false,"is_disabled":false,"rental_uris":{"android":"levelo://app?vid=3f9c5cf8-8aad-4164-a224-a82f0f9f3c71","ios":"levelo://app?vid=3f9c5cf8-8aad-4164-a224-a82f0f9f3c71"},"vehicle_type_id":"4","last_reported":1707286157,"current_range_meters":17200,"station_id":"ce4bguh2rcd13ifvqcj0","pricing_plan_id":"free"},{"bike_id":"8a1cea21-deb8-45a2-86b1-4039f73a830c","system_id":"levelo_inurba_marseille","lat":43.301429,"lon":5.37413,"is_reserved":false,"is_disabled":false,"rental_uris":{"android":"levelo://app?vid=8a1cea21-deb8-45a2-86b1-4039f73a830c","ios":"levelo://app?vid=8a1cea21-deb8-45a2-86b1-4039f73a830c"},"vehicle_type_id":"4","last_reported":1707286157,"current_range_meters":31200,"station_id":"ce4bgs92rcd13ifvqcc0","pricing_plan_id":"free"},{"bike_id":"0cb3acb3-cfe2-4f0a-b15e-388f38d786f4","system_id":"levelo_inurba_marseille","lat":43.30143,"lon":5.37413,"is_reserved":false,"is_disabled":false,"rental_uris":{"android":"levelo://app?vid=0cb3acb3-cfe2-4f0a-b15e-388f38d786f4","ios":"levelo://app?vid=0cb3acb3-cfe2-4f0a-b15e-388f38d786f4"},"vehicle_type_id":"4","last_reported":1707286157,"current_range_meters":31600,"station_id":"ce4bgs92rcd13ifvqcc0","pricing_plan_id":"free"},{"bike_id":"2cd7b4a2-f279-4b57-ab17-4d8c41a9951e","system_id":"levelo_inurba_marseille","lat":43.30143,"lon":5.37413,"is_reserved":false,"is_disabled":false,"rental_uris":{"android":"levelo://app?vid=2cd7b4a2-f279-4b57-ab17-4d8c41a9951e","ios":"levelo://app?vid=2cd7b4a2-f279-4b57-ab17-4d8c41a9951e"},"vehicle_type_id":"4","last_reported":1707286157,"current_range_meters":29200,"station_id":"ce4bgs92rcd13ifvqcc0","pricing_plan_id":"free"},{"bike_id":"4505dd3b-e70e-4db9-b95e-a6d146ab3434","system_id":"levelo_inurba_marseille","lat":43.319935,"lon":5.381699,"is_reserved":false,"is_disabled":false,"rental_uris":{"android":"levelo://app?vid=4505dd3b-e70e-4db9-b95e-a6d146ab3434","ios":"levelo://app?vid=4505dd3b-e70e-4db9-b95e-a6d146ab3434"},"vehicle_type_id":"4","last_reported":1707286157,"current_range_meters":12400,"station_id":"ce4bhr12rcd13ifvqhpg","pricing_plan_id":"free"},{"bike_id":"0abbaad6-12a6-4f04-8257-739b9ff8f24b","system_id":"levelo_inurba_marseille","lat":43.319935,"lon":5.381699,"is_reserved":false,"is_disabled":false,"rental_uris":{"android":"levelo://app?vid=0abbaad6-12a6-4f04-8257-739b9ff8f24b","ios":"levelo://app?vid=0abbaad6-12a6-4f04-8257-739b9ff8f24b"},"vehicle_type_id":"4","last_reported":1707286157,"current_range_meters":7200,"station_id":"ce4bhr12rcd13ifvqhpg","pricing_plan_id":"free"},{"bike_id":"12ce1b51-e513-48d4-8826-d38689553faa","system_id":"levelo_inurba_marseille","lat":43.319935,"lon":5.381699,"is_reserved":false,"is_disabled":false,"rental_uris":{"android":"levelo://app?vid=12ce1b51-e513-48d4-8826-d38689553faa","ios":"levelo://app?vid=12ce1b51-e513-48d4-8826-d38689553faa"},"vehicle_type_id":"4","last_reported":1707286157,"current_range_meters":24000,"station_id":"ce4bhr12rcd13ifvqhpg","pricing_plan_id":"free"},{"bike_id":"ccf2a241-3d64-4fde-891f-1d3d7e7db1c1","system_id":"levelo_inurba_marseille","lat":43.319935,"lon":5.381699,"is_reserved":false,"is_disabled":false,"rental_uris":{"android":"levelo://app?vid=ccf2a241-3d64-4fde-891f-1d3d7e7db1c1","ios":"levelo://app?vid=ccf2a241-3d64-4fde-891f-1d3d7e7db1c1"},"vehicle_type_id":"4","last_reported":1707286157,"current_range_meters":24400,"station_id":"ce4bhr12rcd13ifvqhpg","pricing_plan_id":"free"},{"bike_id":"6ec3f119-1396-4f2b-bc37-fafe9f44fa4b","system_id":"levelo_inurba_marseille","lat":43.319935,"lon":5.381699,"is_reserved":false,"is_disabled":false,"rental_uris":{"android":"levelo://app?vid=6ec3f119-1396-4f2b-bc37-fafe9f44fa4b","ios":"levelo://app?vid=6ec3f119-1396-4f2b-bc37-fafe9f44fa4b"},"vehicle_type_id":"4","last_reported":1707286157,"current_range_meters":18000,"station_id":"ce4bhr12rcd13ifvqhpg","pricing_plan_id":"free"},{"bike_id":"cd1697dc-c996-412f-9980-2785b058e155","system_id":"levelo_inurba_marseille","lat":43.319935,"lon":5.381699,"is_reserved":false,"is_disabled":false,"rental_uris":{"android":"levelo://app?vid=cd1697dc-c996-412f-9980-2785b058e155","ios":"levelo://app?vid=cd1697dc-c996-412f-9980-2785b058e155"},"vehicle_type_id":"4","last_reported":1707286157,"current_range_meters":15600,"station_id":"ce4bhr12rcd13ifvqhpg","pricing_plan_id":"free"},{"bike_id":"3b3ba378-a266-417c-9c43-cb829e6481c7","system_id":"levelo_inurba_marseille","lat":43.319935,"lon":5.381699,"is_reserved":false,"is_disabled":false,"rental_uris":{"android":"levelo://app?vid=3b3ba378-a266-417c-9c43-cb829e6481c7","ios":"levelo://app?vid=3b3ba378-a266-417c-9c43-cb829e6481c7"},"vehicle_type_id":"4","last_reported":1707286157,"current_range_meters":3600,"station_id":"ce4bhr12rcd13ifvqhpg","pricing_plan_id":"free"},{"bike_id":"1c25a4cd-9cf0-4c3b-88f3-a47ab8939f20","system_id":"levelo_inurba_marseille","lat":43.319941,"lon":5.381607,"is_reserved":false,"is_disabled":false,"rental_uris":{"android":"levelo://app?vid=1c25a4cd-9cf0-4c3b-88f3-a47ab8939f20","ios":"levelo://app?vid=1c25a4cd-9cf0-4c3b-88f3-a47ab8939f20"},"vehicle_type_id":"4","last_reported":1707286157,"current_range_meters":12800,"station_id":"ce4bhr12rcd13ifvqhpg","pricing_plan_id":"free"},{"bike_id":"cd930c75-f2d0-49f4-a962-1ba9d506628f","system_id":"levelo_inurba_marseille","lat":43.319935,"lon":5.381699,"is_reserved":false,"is_disabled":false,"rental_uris":{"android":"levelo://app?vid=cd930c75-f2d0-49f4-a962-1ba9d506628f","ios":"levelo://app?vid=cd930c75-f2d0-49f4-a962-1ba9d506628f"},"vehicle_type_id":"4","last_reported":1707286157,"current_range_meters":16000,"station_id":"ce4bhr12rcd13ifvqhpg","pricing_plan_id":"free"},{"bike_id":"50527666-905e-48d3-b0d9-2780ed491453","system_id":"levelo_inurba_marseille","lat":43.313571,"lon":5.384829,"is_reserved":false,"is_disabled":false,"rental_uris":{"android":"levelo://app?vid=50527666-905e-48d3-b0d9-2780ed491453","ios":"levelo://app?vid=50527666-905e-48d3-b0d9-2780ed491453"},"vehicle_type_id":"4","last_reported":1707286157,"current_range_meters":27600,"station_id":"ce4bgt92rcd13ifvqcf0","pricing_plan_id":"free"},{"bike_id":"f0464d13-46a9-40fd-9a4d-e0dd7f0a33e8","system_id":"levelo_inurba_marseille","lat":43.313571,"lon":5.384829,"is_reserved":false,"is_disabled":false,"rental_uris":{"android":"levelo://app?vid=f0464d13-46a9-40fd-9a4d-e0dd7f0a33e8","ios":"levelo://app?vid=f0464d13-46a9-40fd-9a4d-e0dd7f0a33e8"},"vehicle_type_id":"4","last_reported":1707286157,"current_range_meters":12400,"station_id":"ce4bgt92rcd13ifvqcf0","pricing_plan_id":"free"},{"bike_id":"c5f6cdc2-6857-49fc-b328-71a5e97cb386","system_id":"levelo_inurba_marseille","lat":43.313571,"lon":5.384829,"is_reserved":false,"is_disabled":false,"rental_uris":{"android":"levelo://app?vid=c5f6cdc2-6857-49fc-b328-71a5e97cb386","ios":"levelo://app?vid=c5f6cdc2-6857-49fc-b328-71a5e97cb386"},"vehicle_type_id":"4","last_reported":1707286157,"current_range_meters":18400,"station_id":"ce4bgt92rcd13ifvqcf0","pricing_plan_id":"free"},{"bike_id":"0cc56f98-4c75-454d-bdf5-4c86ab4dd103","system_id":"levelo_inurba_marseille","lat":43.313571,"lon":5.384829,"is_reserved":false,"is_disabled":false,"rental_uris":{"android":"levelo://app?vid=0cc56f98-4c75-454d-bdf5-4c86ab4dd103","ios":"levelo://app?vid=0cc56f98-4c75-454d-bdf5-4c86ab4dd103"},"vehicle_type_id":"4","last_reported":1707286157,"current_range_meters":21200,"station_id":"ce4bgt92rcd13ifvqcf0","pricing_plan_id":"free"},{"bike_id":"c3ccd7f1-5557-4491-8c98-611ac8d78c62","system_id":"levelo_inurba_marseille","lat":43.313571,"lon":5.384829,"is_reserved":false,"is_disabled":false,"rental_uris":{"android":"levelo://app?vid=c3ccd7f1-5557-4491-8c98-611ac8d78c62","ios":"levelo://app?vid=c3ccd7f1-5557-4491-8c98-611ac8d78c62"},"vehicle_type_id":"4","last_reported":1707286157,"current_range_meters":22800,"station_id":"ce4bgt92rcd13ifvqcf0","pricing_plan_id":"free"},{"bike_id":"efc61b0c-df87-4e70-8118-edca778d83e8","system_id":"levelo_inurba_marseille","lat":43.313571,"lon":5.384829,"is_reserved":false,"is_disabled":false,"rental_uris":{"android":"levelo://app?vid=efc61b0c-df87-4e70-8118-edca778d83e8","ios":"levelo://app?vid=efc61b0c-df87-4e70-8118-edca778d83e8"},"vehicle_type_id":"4","last_reported":1707286157,"current_range_meters":1600,"station_id":"ce4bgt92rcd13ifvqcf0","pricing_plan_id":"free"},{"bike_id":"aa2daeb2-6e2c-44e2-a71a-635c5683cc13","system_id":"levelo_inurba_marseille","lat":43.313571,"lon":5.384829,"is_reserved":false,"is_disabled":false,"rental_uris":{"android":"levelo://app?vid=aa2daeb2-6e2c-44e2-a71a-635c5683cc13","ios":"levelo://app?vid=aa2daeb2-6e2c-44e2-a71a-635c5683cc13"},"vehicle_type_id":"4","last_reported":1707286157,"current_range_meters":31200,"station_id":"ce4bgt92rcd13ifvqcf0","pricing_plan_id":"free"},{"bike_id":"4380035e-b8d6-42f7-90b7-b0784cb5205e","system_id":"levelo_inurba_marseille","lat":43.313571,"lon":5.384829,"is_reserved":false,"is_disabled":false,"rental_uris":{"android":"levelo://app?vid=4380035e-b8d6-42f7-90b7-b0784cb5205e","ios":"levelo://app?vid=4380035e-b8d6-42f7-90b7-b0784cb5205e"},"vehicle_type_id":"4","last_reported":1707286157,"current_range_meters":17200,"station_id":"ce4bgt92rcd13ifvqcf0","pricing_plan_id":"free"},{"bike_id":"a0fdb0de-f985-4692-8e62-3b9211ee337b","system_id":"levelo_inurba_marseille","lat":43.313571,"lon":5.384829,"is_reserved":false,"is_disabled":false,"rental_uris":{"android":"levelo://app?vid=a0fdb0de-f985-4692-8e62-3b9211ee337b","ios":"levelo://app?vid=a0fdb0de-f985-4692-8e62-3b9211ee337b"},"vehicle_type_id":"4","last_reported":1707286157,"current_range_meters":31600,"station_id":"ce4bgt92rcd13ifvqcf0","pricing_plan_id":"free"},{"bike_id":"c296969d-2eb2-46f0-8d1c-d054b0c44ad2","system_id":"levelo_inurba_marseille","lat":43.313571,"lon":5.384829,"is_reserved":false,"is_disabled":false,"rental_uris":{"android":"levelo://app?vid=c296969d-2eb2-46f0-8d1c-d054b0c44ad2","ios":"levelo://app?vid=c296969d-2eb2-46f0-8d1c-d054b0c44ad2"},"vehicle_type_id":"4","last_reported":1707286157,"current_range_meters":8400,"station_id":"ce4bgt92rcd13ifvqcf0","pricing_plan_id":"free"},{"bike_id":"d2d18818-2bc1-4ad2-a03e-0c8f8509a789","system_id":"levelo_inurba_marseille","lat":43.313571,"lon":5.384829,"is_reserved":false,"is_disabled":false,"rental_uris":{"android":"levelo://app?vid=d2d18818-2bc1-4ad2-a03e-0c8f8509a789","ios":"levelo://app?vid=d2d18818-2bc1-4ad2-a03e-0c8f8509a789"},"vehicle_type_id":"4","last_reported":1707286157,"current_range_meters":17600,"station_id":"ce4bgt92rcd13ifvqcf0","pricing_plan_id":"free"},{"bike_id":"d73908e2-2bfd-489b-804e-d4e95fac72d2","system_id":"levelo_inurba_marseille","lat":43.326525,"lon":5.36078,"is_reserved":false,"is_disabled":false,"rental_uris":{"android":"levelo://app?vid=d73908e2-2bfd-489b-804e-d4e95fac72d2","ios":"levelo://app?vid=d73908e2-2bfd-489b-804e-d4e95fac72d2"},"vehicle_type_id":"4","last_reported":1707286157,"current_range_meters":11600,"station_id":"","pricing_plan_id":"free"},{"bike_id":"e1f95890-2e91-4648-a5ba-997623c1f437","system_id":"levelo_inurba_marseille","lat":43.305364,"lon":5.384119,"is_reserved":false,"is_disabled":false,"rental_uris":{"android":"levelo://app?vid=e1f95890-2e91-4648-a5ba-997623c1f437","ios":"levelo://app?vid=e1f95890-2e91-4648-a5ba-997623c1f437"},"vehicle_type_id":"4","last_reported":1707286157,"current_range_meters":30400,"station_id":"ce4bgg92rcd13ifvqb30","pricing_plan_id":"free"},{"bike_id":"372a8bf8-91b9-4abe-822f-817acd7e57e0","system_id":"levelo_inurba_marseille","lat":43.305364,"lon":5.384119,"is_reserved":false,"is_disabled":false,"rental_uris":{"android":"levelo://app?vid=372a8bf8-91b9-4abe-822f-817acd7e57e0","ios":"levelo://app?vid=372a8bf8-91b9-4abe-822f-817acd7e57e0"},"vehicle_type_id":"4","last_reported":1707286157,"current_range_meters":16000,"station_id":"ce4bgg92rcd13ifvqb30","pricing_plan_id":"free"},{"bike_id":"821c419a-c2e6-42b8-9c75-829332e7bae9","system_id":"levelo_inurba_marseille","lat":43.31177,"lon":5.38707,"is_reserved":false,"is_disabled":false,"rental_uris":{"android":"levelo://app?vid=821c419a-c2e6-42b8-9c75-829332e7bae9","ios":"levelo://app?vid=821c419a-c2e6-42b8-9c75-829332e7bae9"},"vehicle_type_id":"4","last_reported":1707286157,"current_range_meters":2800,"station_id":"ce4bgv12rcd13ifvqcp0","pricing_plan_id":"free"},{"bike_id":"0a7a6941-c18a-4bb9-a7fc-dd9c9e77b2c4","system_id":"levelo_inurba_marseille","lat":43.311722,"lon":5.387247,"is_reserved":false,"is_disabled":false,"rental_uris":{"android":"levelo://app?vid=0a7a6941-c18a-4bb9-a7fc-dd9c9e77b2c4","ios":"levelo://app?vid=0a7a6941-c18a-4bb9-a7fc-dd9c9e77b2c4"},"vehicle_type_id":"4","last_reported":1707286157,"current_range_meters":31200,"station_id":"ce4bgv12rcd13ifvqcp0","pricing_plan_id":"free"},{"bike_id":"f6c05301-bf66-4241-984b-cd382463b5ff","system_id":"levelo_inurba_marseille","lat":43.299243,"lon":5.37481,"is_reserved":false,"is_disabled":false,"rental_uris":{"android":"levelo://app?vid=f6c05301-bf66-4241-984b-cd382463b5ff","ios":"levelo://app?vid=f6c05301-bf66-4241-984b-cd382463b5ff"},"vehicle_type_id":"4","last_reported":1707286157,"current_range_meters":27600,"station_id":"ce4bgjh2rcd13ifvqbg0","pricing_plan_id":"free"},{"bike_id":"a6be166a-e1f3-4327-ace1-0262da7aa811","system_id":"levelo_inurba_marseille","lat":43.311722,"lon":5.387247,"is_reserved":false,"is_disabled":false,"rental_uris":{"android":"levelo://app?vid=a6be166a-e1f3-4327-ace1-0262da7aa811","ios":"levelo://app?vid=a6be166a-e1f3-4327-ace1-0262da7aa811"},"vehicle_type_id":"4","last_reported":1707286157,"current_range_meters":30400,"station_id":"ce4bgv12rcd13ifvqcp0","pricing_plan_id":"free"},{"bike_id":"bafa7d75-7cba-4955-a2c5-84d95e807989","system_id":"levelo_inurba_marseille","lat":43.311722,"lon":5.387247,"is_reserved":false,"is_disabled":false,"rental_uris":{"android":"levelo://app?vid=bafa7d75-7cba-4955-a2c5-84d95e807989","ios":"levelo://app?vid=bafa7d75-7cba-4955-a2c5-84d95e807989"},"vehicle_type_id":"4","last_reported":1707286157,"current_range_meters":23200,"station_id":"ce4bgv12rcd13ifvqcp0","pricing_plan_id":"free"},{"bike_id":"9126dfde-73df-437c-86ec-588579186802","system_id":"levelo_inurba_marseille","lat":43.299243,"lon":5.374807,"is_reserved":false,"is_disabled":false,"rental_uris":{"android":"levelo://app?vid=9126dfde-73df-437c-86ec-588579186802","ios":"levelo://app?vid=9126dfde-73df-437c-86ec-588579186802"},"vehicle_type_id":"4","last_reported":1707286157,"current_range_meters":28800,"station_id":"ce4bgjh2rcd13ifvqbg0","pricing_plan_id":"free"},{"bike_id":"251db69b-0529-447c-ab49-508126bf452a","system_id":"levelo_inurba_marseille","lat":43.311722,"lon":5.387247,"is_reserved":false,"is_disabled":false,"rental_uris":{"android":"levelo://app?vid=251db69b-0529-447c-ab49-508126bf452a","ios":"levelo://app?vid=251db69b-0529-447c-ab49-508126bf452a"},"vehicle_type_id":"4","last_reported":1707286157,"current_range_meters":21200,"station_id":"ce4bgv12rcd13ifvqcp0","pricing_plan_id":"free"},{"bike_id":"068825c3-0e30-4039-9991-0f25d2c61d15","system_id":"levelo_inurba_marseille","lat":43.32789,"lon":5.36689,"is_reserved":false,"is_disabled":false,"rental_uris":{"android":"levelo://app?vid=068825c3-0e30-4039-9991-0f25d2c61d15","ios":"levelo://app?vid=068825c3-0e30-4039-9991-0f25d2c61d15"},"vehicle_type_id":"4","last_reported":1707286157,"current_range_meters":13200,"station_id":"","pricing_plan_id":"free"},{"bike_id":"aeda78ec-de39-407e-8a5b-89262fd5c123","system_id":"levelo_inurba_marseille","lat":43.322872,"lon":5.382756,"is_reserved":false,"is_disabled":false,"rental_uris":{"android":"levelo://app?vid=aeda78ec-de39-407e-8a5b-89262fd5c123","ios":"levelo://app?vid=aeda78ec-de39-407e-8a5b-89262fd5c123"},"vehicle_type_id":"4","last_reported":1707286157,"current_range_meters":28800,"station_id":"ce4bhr12rcd13ifvqhqg","pricing_plan_id":"free"},{"bike_id":"2e7d1277-a3ec-4c37-831b-c0b641935959","system_id":"levelo_inurba_marseille","lat":43.32815,"lon":5.36685,"is_reserved":false,"is_disabled":false,"rental_uris":{"android":"levelo://app?vid=2e7d1277-a3ec-4c37-831b-c0b641935959","ios":"levelo://app?vid=2e7d1277-a3ec-4c37-831b-c0b641935959"},"vehicle_type_id":"4","last_reported":1707286157,"current_range_meters":9200,"station_id":"ce4bhs92rcd13ifvqi0g","pricing_plan_id":"free"},{"bike_id":"1900e2ea-9239-49b1-933e-57903fa99707","system_id":"levelo_inurba_marseille","lat":43.32826,"lon":5.36695,"is_reserved":false,"is_disabled":false,"rental_uris":{"android":"levelo://app?vid=1900e2ea-9239-49b1-933e-57903fa99707","ios":"levelo://app?vid=1900e2ea-9239-49b1-933e-57903fa99707"},"vehicle_type_id":"4","last_reported":1707286157,"current_range_meters":400,"station_id":"ce4bhs92rcd13ifvqi0g","pricing_plan_id":"free"},{"bike_id":"a7f79efb-1544-4a9c-90b1-63c97e52bce2","system_id":"levelo_inurba_marseille","lat":43.3283,"lon":5.366747,"is_reserved":false,"is_disabled":false,"rental_uris":{"android":"levelo://app?vid=a7f79efb-1544-4a9c-90b1-63c97e52bce2","ios":"levelo://app?vid=a7f79efb-1544-4a9c-90b1-63c97e52bce2"},"vehicle_type_id":"4","last_reported":1707286157,"current_range_meters":8400,"station_id":"ce4bhs92rcd13ifvqi0g","pricing_plan_id":"free"},{"bike_id":"46ffd311-8d24-4a9c-a424-d0bccfd813b8","system_id":"levelo_inurba_marseille","lat":43.328313,"lon":5.366804,"is_reserved":false,"is_disabled":false,"rental_uris":{"android":"levelo://app?vid=46ffd311-8d24-4a9c-a424-d0bccfd813b8","ios":"levelo://app?vid=46ffd311-8d24-4a9c-a424-d0bccfd813b8"},"vehicle_type_id":"4","last_reported":1707286157,"current_range_meters":2400,"station_id":"ce4bhs92rcd13ifvqi0g","pricing_plan_id":"free"},{"bike_id":"36243836-0b62-45d5-b00e-078a5c9e3add","system_id":"levelo_inurba_marseille","lat":43.32832,"lon":5.3668,"is_reserved":false,"is_disabled":false,"rental_uris":{"android":"levelo://app?vid=36243836-0b62-45d5-b00e-078a5c9e3add","ios":"levelo://app?vid=36243836-0b62-45d5-b00e-078a5c9e3add"},"vehicle_type_id":"4","last_reported":1707286157,"current_range_meters":3200,"station_id":"ce4bhs92rcd13ifvqi0g","pricing_plan_id":"free"},{"bike_id":"6a5b4a9f-7323-472e-b759-8dae709cba6c","system_id":"levelo_inurba_marseille","lat":43.32832,"lon":5.366773,"is_reserved":false,"is_disabled":false,"rental_uris":{"android":"levelo://app?vid=6a5b4a9f-7323-472e-b759-8dae709cba6c","ios":"levelo://app?vid=6a5b4a9f-7323-472e-b759-8dae709cba6c"},"vehicle_type_id":"4","last_reported":1707286157,"current_range_meters":12000,"station_id":"ce4bhs92rcd13ifvqi0g","pricing_plan_id":"free"},{"bike_id":"e9931e11-7f7d-405e-b611-f5c0a6974b86","system_id":"levelo_inurba_marseille","lat":43.32832,"lon":5.366719,"is_reserved":false,"is_disabled":false,"rental_uris":{"android":"levelo://app?vid=e9931e11-7f7d-405e-b611-f5c0a6974b86","ios":"levelo://app?vid=e9931e11-7f7d-405e-b611-f5c0a6974b86"},"vehicle_type_id":"4","last_reported":1707286157,"current_range_meters":10000,"station_id":"ce4bhs92rcd13ifvqi0g","pricing_plan_id":"free"},{"bike_id":"6cd6b889-8d57-4573-b2a2-aa0a2c9636a8","system_id":"levelo_inurba_marseille","lat":43.328324,"lon":5.36678,"is_reserved":false,"is_disabled":false,"rental_uris":{"android":"levelo://app?vid=6cd6b889-8d57-4573-b2a2-aa0a2c9636a8","ios":"levelo://app?vid=6cd6b889-8d57-4573-b2a2-aa0a2c9636a8"},"vehicle_type_id":"4","last_reported":1707286157,"current_range_meters":0,"station_id":"ce4bhs92rcd13ifvqi0g","pricing_plan_id":"free"},{"bike_id":"655782ea-adc5-4c9e-a8c7-608dca9d4db8","system_id":"levelo_inurba_marseille","lat":43.328371,"lon":5.366912,"is_reserved":false,"is_disabled":false,"rental_uris":{"android":"levelo://app?vid=655782ea-adc5-4c9e-a8c7-608dca9d4db8","ios":"levelo://app?vid=655782ea-adc5-4c9e-a8c7-608dca9d4db8"},"vehicle_type_id":"4","last_reported":1707286157,"current_range_meters":19200,"station_id":"ce4bhs92rcd13ifvqi0g","pricing_plan_id":"free"},{"bike_id":"9b0a4bf5-7772-4462-8865-6d166c0535db","system_id":"levelo_inurba_marseille","lat":43.297163,"lon":5.365866,"is_reserved":false,"is_disabled":false,"rental_uris":{"android":"levelo://app?vid=9b0a4bf5-7772-4462-8865-6d166c0535db","ios":"levelo://app?vid=9b0a4bf5-7772-4462-8865-6d166c0535db"},"vehicle_type_id":"4","last_reported":1707286157,"current_range_meters":31600,"station_id":"ce4bgn12rcd13ifvqbt0","pricing_plan_id":"free"},{"bike_id":"5f636556-7634-45b1-b4d6-8d99363a760b","system_id":"levelo_inurba_marseille","lat":43.297163,"lon":5.365866,"is_reserved":false,"is_disabled":false,"rental_uris":{"android":"levelo://app?vid=5f636556-7634-45b1-b4d6-8d99363a760b","ios":"levelo://app?vid=5f636556-7634-45b1-b4d6-8d99363a760b"},"vehicle_type_id":"4","last_reported":1707286157,"current_range_meters":3200,"station_id":"ce4bgn12rcd13ifvqbt0","pricing_plan_id":"free"},{"bike_id":"0ef7c872-c80f-4c92-a9da-b9f44db54e36","system_id":"levelo_inurba_marseille","lat":43.297107,"lon":5.365988,"is_reserved":false,"is_disabled":false,"rental_uris":{"android":"levelo://app?vid=0ef7c872-c80f-4c92-a9da-b9f44db54e36","ios":"levelo://app?vid=0ef7c872-c80f-4c92-a9da-b9f44db54e36"},"vehicle_type_id":"4","last_reported":1707286157,"current_range_meters":23600,"station_id":"ce4bgn12rcd13ifvqbt0","pricing_plan_id":"free"},{"bike_id":"bf32d37b-ab8d-4e30-99bc-6ccd614e7615","system_id":"levelo_inurba_marseille","lat":43.297163,"lon":5.365866,"is_reserved":false,"is_disabled":false,"rental_uris":{"android":"levelo://app?vid=bf32d37b-ab8d-4e30-99bc-6ccd614e7615","ios":"levelo://app?vid=bf32d37b-ab8d-4e30-99bc-6ccd614e7615"},"vehicle_type_id":"4","last_reported":1707286157,"current_range_meters":5200,"station_id":"ce4bgn12rcd13ifvqbt0","pricing_plan_id":"free"},{"bike_id":"5dcc0231-58ba-4645-aea0-03b36e644385","system_id":"levelo_inurba_marseille","lat":43.29723,"lon":5.37688,"is_reserved":false,"is_disabled":false,"rental_uris":{"android":"levelo://app?vid=5dcc0231-58ba-4645-aea0-03b36e644385","ios":"levelo://app?vid=5dcc0231-58ba-4645-aea0-03b36e644385"},"vehicle_type_id":"4","last_reported":1707286157,"current_range_meters":26800,"station_id":"ce4bgkh2rcd13ifvqbl0","pricing_plan_id":"free"},{"bike_id":"6169779d-3aaf-4296-b402-8e07922c045c","system_id":"levelo_inurba_marseille","lat":43.296935,"lon":5.376544,"is_reserved":false,"is_disabled":false,"rental_uris":{"android":"levelo://app?vid=6169779d-3aaf-4296-b402-8e07922c045c","ios":"levelo://app?vid=6169779d-3aaf-4296-b402-8e07922c045c"},"vehicle_type_id":"4","last_reported":1707286157,"current_range_meters":25600,"station_id":"ce4bgkh2rcd13ifvqbl0","pricing_plan_id":"free"},{"bike_id":"9f5bdafc-0e53-409b-b1af-62260588b168","system_id":"levelo_inurba_marseille","lat":43.305364,"lon":5.384119,"is_reserved":false,"is_disabled":false,"rental_uris":{"android":"levelo://app?vid=9f5bdafc-0e53-409b-b1af-62260588b168","ios":"levelo://app?vid=9f5bdafc-0e53-409b-b1af-62260588b168"},"vehicle_type_id":"4","last_reported":1707286157,"current_range_meters":2400,"station_id":"ce4bgg92rcd13ifvqb30","pricing_plan_id":"free"},{"bike_id":"b393e380-9b9a-4239-8934-e30e3f7bac4e","system_id":"levelo_inurba_marseille","lat":43.317386,"lon":5.390004,"is_reserved":false,"is_disabled":false,"rental_uris":{"android":"levelo://app?vid=b393e380-9b9a-4239-8934-e30e3f7bac4e","ios":"levelo://app?vid=b393e380-9b9a-4239-8934-e30e3f7bac4e"},"vehicle_type_id":"4","last_reported":1707286157,"current_range_meters":13600,"station_id":"ce4bhqp2rcd13ifvqhng","pricing_plan_id":"free"},{"bike_id":"6cad973f-9e99-4e8b-8fca-b29a3c3064fc","system_id":"levelo_inurba_marseille","lat":43.317575,"lon":5.390124,"is_reserved":false,"is_disabled":false,"rental_uris":{"android":"levelo://app?vid=6cad973f-9e99-4e8b-8fca-b29a3c3064fc","ios":"levelo://app?vid=6cad973f-9e99-4e8b-8fca-b29a3c3064fc"},"vehicle_type_id":"4","last_reported":1707286157,"current_range_meters":2800,"station_id":"ce4bhqp2rcd13ifvqhng","pricing_plan_id":"free"},{"bike_id":"9268b101-79ac-4bcb-b66b-b3aa5eb7916b","system_id":"levelo_inurba_marseille","lat":43.317563,"lon":5.390133,"is_reserved":false,"is_disabled":false,"rental_uris":{"android":"levelo://app?vid=9268b101-79ac-4bcb-b66b-b3aa5eb7916b","ios":"levelo://app?vid=9268b101-79ac-4bcb-b66b-b3aa5eb7916b"},"vehicle_type_id":"4","last_reported":1707286157,"current_range_meters":15200,"station_id":"ce4bhqp2rcd13ifvqhng","pricing_plan_id":"free"},{"bike_id":"3ccd3931-8811-4b7f-a846-c32a0a6915a2","system_id":"levelo_inurba_marseille","lat":43.317557,"lon":5.390173,"is_reserved":false,"is_disabled":false,"rental_uris":{"android":"levelo://app?vid=3ccd3931-8811-4b7f-a846-c32a0a6915a2","ios":"levelo://app?vid=3ccd3931-8811-4b7f-a846-c32a0a6915a2"},"vehicle_type_id":"4","last_reported":1707286157,"current_range_meters":26000,"station_id":"ce4bhqp2rcd13ifvqhng","pricing_plan_id":"free"},{"bike_id":"cff55c77-7ebe-4284-bc48-2fbd9d0bf89e","system_id":"levelo_inurba_marseille","lat":43.317586,"lon":5.390145,"is_reserved":false,"is_disabled":false,"rental_uris":{"android":"levelo://app?vid=cff55c77-7ebe-4284-bc48-2fbd9d0bf89e","ios":"levelo://app?vid=cff55c77-7ebe-4284-bc48-2fbd9d0bf89e"},"vehicle_type_id":"4","last_reported":1707286157,"current_range_meters":15200,"station_id":"ce4bhqp2rcd13ifvqhng","pricing_plan_id":"free"},{"bike_id":"cd483cf2-ddf7-4bc2-8846-13c380942b93","system_id":"levelo_inurba_marseille","lat":43.317584,"lon":5.390154,"is_reserved":false,"is_disabled":false,"rental_uris":{"android":"levelo://app?vid=cd483cf2-ddf7-4bc2-8846-13c380942b93","ios":"levelo://app?vid=cd483cf2-ddf7-4bc2-8846-13c380942b93"},"vehicle_type_id":"4","last_reported":1707286157,"current_range_meters":19200,"station_id":"ce4bhqp2rcd13ifvqhng","pricing_plan_id":"free"},{"bike_id":"d77e875b-0143-4bd6-9685-9bc384c23965","system_id":"levelo_inurba_marseille","lat":43.317557,"lon":5.390173,"is_reserved":false,"is_disabled":false,"rental_uris":{"android":"levelo://app?vid=d77e875b-0143-4bd6-9685-9bc384c23965","ios":"levelo://app?vid=d77e875b-0143-4bd6-9685-9bc384c23965"},"vehicle_type_id":"4","last_reported":1707286157,"current_range_meters":8800,"station_id":"ce4bhqp2rcd13ifvqhng","pricing_plan_id":"free"},{"bike_id":"8236458b-34ca-49b5-ab60-c4f12ac61945","system_id":"levelo_inurba_marseille","lat":43.317533,"lon":5.390178,"is_reserved":false,"is_disabled":false,"rental_uris":{"android":"levelo://app?vid=8236458b-34ca-49b5-ab60-c4f12ac61945","ios":"levelo://app?vid=8236458b-34ca-49b5-ab60-c4f12ac61945"},"vehicle_type_id":"4","last_reported":1707286157,"current_range_meters":13600,"station_id":"ce4bhqp2rcd13ifvqhng","pricing_plan_id":"free"},{"bike_id":"3c453d5b-83dd-4499-9d12-a38d59d5c115","system_id":"levelo_inurba_marseille","lat":43.317621,"lon":5.390146,"is_reserved":false,"is_disabled":false,"rental_uris":{"android":"levelo://app?vid=3c453d5b-83dd-4499-9d12-a38d59d5c115","ios":"levelo://app?vid=3c453d5b-83dd-4499-9d12-a38d59d5c115"},"vehicle_type_id":"4","last_reported":1707286157,"current_range_meters":19200,"station_id":"ce4bhqp2rcd13ifvqhng","pricing_plan_id":"free"},{"bike_id":"f9e71f25-83c3-4ad2-95f8-b63267492ced","system_id":"levelo_inurba_marseille","lat":43.317557,"lon":5.390173,"is_reserved":false,"is_disabled":false,"rental_uris":{"android":"levelo://app?vid=f9e71f25-83c3-4ad2-95f8-b63267492ced","ios":"levelo://app?vid=f9e71f25-83c3-4ad2-95f8-b63267492ced"},"vehicle_type_id":"4","last_reported":1707286157,"current_range_meters":26000,"station_id":"ce4bhqp2rcd13ifvqhng","pricing_plan_id":"free"},{"bike_id":"acfb1a76-9d92-4e60-b5a5-bb928051e624","system_id":"levelo_inurba_marseille","lat":43.317557,"lon":5.390173,"is_reserved":false,"is_disabled":false,"rental_uris":{"android":"levelo://app?vid=acfb1a76-9d92-4e60-b5a5-bb928051e624","ios":"levelo://app?vid=acfb1a76-9d92-4e60-b5a5-bb928051e624"},"vehicle_type_id":"4","last_reported":1707286157,"current_range_meters":28800,"station_id":"ce4bhqp2rcd13ifvqhng","pricing_plan_id":"free"},{"bike_id":"211f186d-35fc-4407-a75f-a4e75d95c601","system_id":"levelo_inurba_marseille","lat":43.317588,"lon":5.390202,"is_reserved":false,"is_disabled":false,"rental_uris":{"android":"levelo://app?vid=211f186d-35fc-4407-a75f-a4e75d95c601","ios":"levelo://app?vid=211f186d-35fc-4407-a75f-a4e75d95c601"},"vehicle_type_id":"4","last_reported":1707286157,"current_range_meters":400,"station_id":"ce4bhqp2rcd13ifvqhng","pricing_plan_id":"free"},{"bike_id":"353a8076-fe4e-4941-bf3d-10e08d5bd46a","system_id":"levelo_inurba_marseille","lat":43.317534,"lon":5.390264,"is_reserved":false,"is_disabled":false,"rental_uris":{"android":"levelo://app?vid=353a8076-fe4e-4941-bf3d-10e08d5bd46a","ios":"levelo://app?vid=353a8076-fe4e-4941-bf3d-10e08d5bd46a"},"vehicle_type_id":"4","last_reported":1707286157,"current_range_meters":1200,"station_id":"ce4bhqp2rcd13ifvqhng","pricing_plan_id":"free"},{"bike_id":"fe162ff4-7146-43be-b6da-f95d3d40fc11","system_id":"levelo_inurba_marseille","lat":43.304274,"lon":5.388873,"is_reserved":false,"is_disabled":false,"rental_uris":{"android":"levelo://app?vid=fe162ff4-7146-43be-b6da-f95d3d40fc11","ios":"levelo://app?vid=fe162ff4-7146-43be-b6da-f95d3d40fc11"},"vehicle_type_id":"4","last_reported":1707286157,"current_range_meters":28000,"station_id":"ce4bgk12rcd13ifvqbi0","pricing_plan_id":"free"},{"bike_id":"612b47ea-b0fa-4bad-8be5-90be90f6dc75","system_id":"levelo_inurba_marseille","lat":43.296277,"lon":5.377108,"is_reserved":false,"is_disabled":false,"rental_uris":{"android":"levelo://app?vid=612b47ea-b0fa-4bad-8be5-90be90f6dc75","ios":"levelo://app?vid=612b47ea-b0fa-4bad-8be5-90be90f6dc75"},"vehicle_type_id":"4","last_reported":1707286157,"current_range_meters":6800,"station_id":"ce4bgi92rcd13ifvqb90","pricing_plan_id":"free"},{"bike_id":"ed5d3f68-f6ae-4628-a68b-31e6c4c8b97c","system_id":"levelo_inurba_marseille","lat":43.32358,"lon":5.388781,"is_reserved":false,"is_disabled":false,"rental_uris":{"android":"levelo://app?vid=ed5d3f68-f6ae-4628-a68b-31e6c4c8b97c","ios":"levelo://app?vid=ed5d3f68-f6ae-4628-a68b-31e6c4c8b97c"},"vehicle_type_id":"4","last_reported":1707286157,"current_range_meters":0,"station_id":"ce4bhqp2rcd13ifvqhog","pricing_plan_id":"free"},{"bike_id":"e46e8ff3-6efb-422c-88bb-36c5e9ce66e4","system_id":"levelo_inurba_marseille","lat":43.323698,"lon":5.388756,"is_reserved":false,"is_disabled":false,"rental_uris":{"android":"levelo://app?vid=e46e8ff3-6efb-422c-88bb-36c5e9ce66e4","ios":"levelo://app?vid=e46e8ff3-6efb-422c-88bb-36c5e9ce66e4"},"vehicle_type_id":"4","last_reported":1707286157,"current_range_meters":10400,"station_id":"ce4bhqp2rcd13ifvqhog","pricing_plan_id":"free"},{"bike_id":"b2180001-e57d-42eb-b057-d6791a6c5f13","system_id":"levelo_inurba_marseille","lat":43.32366,"lon":5.38882,"is_reserved":false,"is_disabled":false,"rental_uris":{"android":"levelo://app?vid=b2180001-e57d-42eb-b057-d6791a6c5f13","ios":"levelo://app?vid=b2180001-e57d-42eb-b057-d6791a6c5f13"},"vehicle_type_id":"4","last_reported":1707286157,"current_range_meters":8400,"station_id":"ce4bhqp2rcd13ifvqhog","pricing_plan_id":"free"},{"bike_id":"2699b29a-e584-4936-892c-96f311fc0314","system_id":"levelo_inurba_marseille","lat":43.323642,"lon":5.388852,"is_reserved":false,"is_disabled":false,"rental_uris":{"android":"levelo://app?vid=2699b29a-e584-4936-892c-96f311fc0314","ios":"levelo://app?vid=2699b29a-e584-4936-892c-96f311fc0314"},"vehicle_type_id":"4","last_reported":1707286157,"current_range_meters":5200,"station_id":"ce4bhqp2rcd13ifvqhog","pricing_plan_id":"free"},{"bike_id":"27e7d923-81e0-4c18-9a4b-aeb5de43f55c","system_id":"levelo_inurba_marseille","lat":43.32364,"lon":5.388862,"is_reserved":false,"is_disabled":false,"rental_uris":{"android":"levelo://app?vid=27e7d923-81e0-4c18-9a4b-aeb5de43f55c","ios":"levelo://app?vid=27e7d923-81e0-4c18-9a4b-aeb5de43f55c"},"vehicle_type_id":"4","last_reported":1707286157,"current_range_meters":16800,"station_id":"ce4bhqp2rcd13ifvqhog","pricing_plan_id":"free"},{"bike_id":"606777c4-4d1f-4822-a9c7-ca190e9d7ac9","system_id":"levelo_inurba_marseille","lat":43.323711,"lon":5.388803,"is_reserved":false,"is_disabled":false,"rental_uris":{"android":"levelo://app?vid=606777c4-4d1f-4822-a9c7-ca190e9d7ac9","ios":"levelo://app?vid=606777c4-4d1f-4822-a9c7-ca190e9d7ac9"},"vehicle_type_id":"4","last_reported":1707286157,"current_range_meters":1200,"station_id":"ce4bhqp2rcd13ifvqhog","pricing_plan_id":"free"},{"bike_id":"ff7066c7-aa1b-4d2c-a675-1a72e0d147ce","system_id":"levelo_inurba_marseille","lat":43.32367,"lon":5.388853,"is_reserved":false,"is_disabled":false,"rental_uris":{"android":"levelo://app?vid=ff7066c7-aa1b-4d2c-a675-1a72e0d147ce","ios":"levelo://app?vid=ff7066c7-aa1b-4d2c-a675-1a72e0d147ce"},"vehicle_type_id":"4","last_reported":1707286157,"current_range_meters":6000,"station_id":"ce4bhqp2rcd13ifvqhog","pricing_plan_id":"free"},{"bike_id":"593326ed-2cc1-41f5-9d97-b4674f983682","system_id":"levelo_inurba_marseille","lat":43.32367,"lon":5.388836,"is_reserved":false,"is_disabled":false,"rental_uris":{"android":"levelo://app?vid=593326ed-2cc1-41f5-9d97-b4674f983682","ios":"levelo://app?vid=593326ed-2cc1-41f5-9d97-b4674f983682"},"vehicle_type_id":"4","last_reported":1707286157,"current_range_meters":6800,"station_id":"ce4bhqp2rcd13ifvqhog","pricing_plan_id":"free"},{"bike_id":"26ce984c-202f-4a89-8429-6f375f206542","system_id":"levelo_inurba_marseille","lat":43.292749,"lon":5.368402,"is_reserved":false,"is_disabled":false,"rental_uris":{"android":"levelo://app?vid=26ce984c-202f-4a89-8429-6f375f206542","ios":"levelo://app?vid=26ce984c-202f-4a89-8429-6f375f206542"},"vehicle_type_id":"4","last_reported":1707286157,"current_range_meters":20800,"station_id":"ce4bhbp2rcd13ifvqesg","pricing_plan_id":"free"},{"bike_id":"7f9c8a85-7606-4041-8b10-e1b75872ef39","system_id":"levelo_inurba_marseille","lat":43.29453,"lon":5.37882,"is_reserved":false,"is_disabled":false,"rental_uris":{"android":"levelo://app?vid=7f9c8a85-7606-4041-8b10-e1b75872ef39","ios":"levelo://app?vid=7f9c8a85-7606-4041-8b10-e1b75872ef39"},"vehicle_type_id":"4","last_reported":1707286157,"current_range_meters":11200,"station_id":"","pricing_plan_id":"free"},{"bike_id":"58ce6322-a791-48f0-8bcc-95a1314180fc","system_id":"levelo_inurba_marseille","lat":43.29543,"lon":5.38168,"is_reserved":false,"is_disabled":false,"rental_uris":{"android":"levelo://app?vid=58ce6322-a791-48f0-8bcc-95a1314180fc","ios":"levelo://app?vid=58ce6322-a791-48f0-8bcc-95a1314180fc"},"vehicle_type_id":"4","last_reported":1707286157,"current_range_meters":3600,"station_id":"","pricing_plan_id":"free"},{"bike_id":"2f20df9d-c0d4-40c6-8e1c-f0b527fc4d2b","system_id":"levelo_inurba_marseille","lat":43.293009,"lon":5.374584,"is_reserved":false,"is_disabled":false,"rental_uris":{"android":"levelo://app?vid=2f20df9d-c0d4-40c6-8e1c-f0b527fc4d2b","ios":"levelo://app?vid=2f20df9d-c0d4-40c6-8e1c-f0b527fc4d2b"},"vehicle_type_id":"4","last_reported":1707286157,"current_range_meters":23600,"station_id":"ce4bgi12rcd13ifvqb70","pricing_plan_id":"free"},{"bike_id":"5b08f849-ad6d-481e-8168-8f7391220200","system_id":"levelo_inurba_marseille","lat":43.2936,"lon":5.37835,"is_reserved":false,"is_disabled":false,"rental_uris":{"android":"levelo://app?vid=5b08f849-ad6d-481e-8168-8f7391220200","ios":"levelo://app?vid=5b08f849-ad6d-481e-8168-8f7391220200"},"vehicle_type_id":"4","last_reported":1707286157,"current_range_meters":10800,"station_id":"ce4bgjh2rcd13ifvqbf0","pricing_plan_id":"free"},{"bike_id":"b04dd554-0166-432f-ab9d-a2c71c399796","system_id":"levelo_inurba_marseille","lat":43.300852,"lon":5.390859,"is_reserved":false,"is_disabled":false,"rental_uris":{"android":"levelo://app?vid=b04dd554-0166-432f-ab9d-a2c71c399796","ios":"levelo://app?vid=b04dd554-0166-432f-ab9d-a2c71c399796"},"vehicle_type_id":"4","last_reported":1707286157,"current_range_meters":3200,"station_id":"ce4bh192rcd13ifvqdb0","pricing_plan_id":"free"},{"bike_id":"076e11d3-b893-4659-8a3e-2e65ad4714d5","system_id":"levelo_inurba_marseille","lat":43.292311,"lon":5.360731,"is_reserved":false,"is_disabled":false,"rental_uris":{"android":"levelo://app?vid=076e11d3-b893-4659-8a3e-2e65ad4714d5","ios":"levelo://app?vid=076e11d3-b893-4659-8a3e-2e65ad4714d5"},"vehicle_type_id":"4","last_reported":1707286157,"current_range_meters":23600,"station_id":"ce4bhbh2rcd13ifvqeqg","pricing_plan_id":"free"},{"bike_id":"18f20878-46b8-4e5a-8cd4-2422f76199ce","system_id":"levelo_inurba_marseille","lat":43.292311,"lon":5.360731,"is_reserved":false,"is_disabled":false,"rental_uris":{"android":"levelo://app?vid=18f20878-46b8-4e5a-8cd4-2422f76199ce","ios":"levelo://app?vid=18f20878-46b8-4e5a-8cd4-2422f76199ce"},"vehicle_type_id":"4","last_reported":1707286157,"current_range_meters":22400,"station_id":"ce4bhbh2rcd13ifvqeqg","pricing_plan_id":"free"},{"bike_id":"546eab85-6b56-41ac-8240-c931d47da608","system_id":"levelo_inurba_marseille","lat":43.292227,"lon":5.36062,"is_reserved":false,"is_disabled":false,"rental_uris":{"android":"levelo://app?vid=546eab85-6b56-41ac-8240-c931d47da608","ios":"levelo://app?vid=546eab85-6b56-41ac-8240-c931d47da608"},"vehicle_type_id":"4","last_reported":1707286157,"current_range_meters":30400,"station_id":"ce4bhbh2rcd13ifvqeqg","pricing_plan_id":"free"},{"bike_id":"4aaa2a19-5636-4d91-b4ca-22e034135509","system_id":"levelo_inurba_marseille","lat":43.292186,"lon":5.360504,"is_reserved":false,"is_disabled":false,"rental_uris":{"android":"levelo://app?vid=4aaa2a19-5636-4d91-b4ca-22e034135509","ios":"levelo://app?vid=4aaa2a19-5636-4d91-b4ca-22e034135509"},"vehicle_type_id":"4","last_reported":1707286157,"current_range_meters":25200,"station_id":"ce4bhbh2rcd13ifvqeqg","pricing_plan_id":"free"},{"bike_id":"91f9c204-647d-47cf-95d9-a3c161a49a97","system_id":"levelo_inurba_marseille","lat":43.29267,"lon":5.37614,"is_reserved":false,"is_disabled":false,"rental_uris":{"android":"levelo://app?vid=91f9c204-647d-47cf-95d9-a3c161a49a97","ios":"levelo://app?vid=91f9c204-647d-47cf-95d9-a3c161a49a97"},"vehicle_type_id":"4","last_reported":1707286157,"current_range_meters":17200,"station_id":"","pricing_plan_id":"free"},{"bike_id":"b816b4e1-eb71-44bb-9588-73f92e3feaca","system_id":"levelo_inurba_marseille","lat":43.298764,"lon":5.388973,"is_reserved":false,"is_disabled":false,"rental_uris":{"android":"levelo://app?vid=b816b4e1-eb71-44bb-9588-73f92e3feaca","ios":"levelo://app?vid=b816b4e1-eb71-44bb-9588-73f92e3feaca"},"vehicle_type_id":"4","last_reported":1707286157,"current_range_meters":21200,"station_id":"ce4bh392rcd13ifvqdl0","pricing_plan_id":"free"},{"bike_id":"8fc6a1a4-1eed-4bd2-986f-bf8aaffb25d7","system_id":"levelo_inurba_marseille","lat":43.291675,"lon":5.371583,"is_reserved":false,"is_disabled":false,"rental_uris":{"android":"levelo://app?vid=8fc6a1a4-1eed-4bd2-986f-bf8aaffb25d7","ios":"levelo://app?vid=8fc6a1a4-1eed-4bd2-986f-bf8aaffb25d7"},"vehicle_type_id":"4","last_reported":1707286157,"current_range_meters":16800,"station_id":"ce4bha92rcd13ifvqeh0","pricing_plan_id":"free"},{"bike_id":"7296550d-7099-4d81-b51c-0a988cf01c62","system_id":"levelo_inurba_marseille","lat":43.309038,"lon":5.396546,"is_reserved":false,"is_disabled":false,"rental_uris":{"android":"levelo://app?vid=7296550d-7099-4d81-b51c-0a988cf01c62","ios":"levelo://app?vid=7296550d-7099-4d81-b51c-0a988cf01c62"},"vehicle_type_id":"4","last_reported":1707286157,"current_range_meters":31600,"station_id":"ce4bh012rcd13ifvqcv0","pricing_plan_id":"free"},{"bike_id":"4b9c3788-97d7-4b6c-8457-21aa016e72f5","system_id":"levelo_inurba_marseille","lat":43.30885,"lon":5.396291,"is_reserved":false,"is_disabled":false,"rental_uris":{"android":"levelo://app?vid=4b9c3788-97d7-4b6c-8457-21aa016e72f5","ios":"levelo://app?vid=4b9c3788-97d7-4b6c-8457-21aa016e72f5"},"vehicle_type_id":"4","last_reported":1707286157,"current_range_meters":13600,"station_id":"ce4bh012rcd13ifvqcv0","pricing_plan_id":"free"},{"bike_id":"9a89fdd1-0694-4c19-8e97-3a095dff1c1c","system_id":"levelo_inurba_marseille","lat":43.309047,"lon":5.396551,"is_reserved":false,"is_disabled":false,"rental_uris":{"android":"levelo://app?vid=9a89fdd1-0694-4c19-8e97-3a095dff1c1c","ios":"levelo://app?vid=9a89fdd1-0694-4c19-8e97-3a095dff1c1c"},"vehicle_type_id":"4","last_reported":1707286157,"current_range_meters":28800,"station_id":"ce4bh012rcd13ifvqcv0","pricing_plan_id":"free"},{"bike_id":"032546c2-ea62-4fa6-aa9a-7efc3903f8e9","system_id":"levelo_inurba_marseille","lat":43.309047,"lon":5.396551,"is_reserved":false,"is_disabled":false,"rental_uris":{"android":"levelo://app?vid=032546c2-ea62-4fa6-aa9a-7efc3903f8e9","ios":"levelo://app?vid=032546c2-ea62-4fa6-aa9a-7efc3903f8e9"},"vehicle_type_id":"4","last_reported":1707286157,"current_range_meters":2800,"station_id":"ce4bh012rcd13ifvqcv0","pricing_plan_id":"free"},{"bike_id":"14df372c-ae81-43b7-98bc-132f7fd24a0f","system_id":"levelo_inurba_marseille","lat":43.291994,"lon":5.357886,"is_reserved":false,"is_disabled":false,"rental_uris":{"android":"levelo://app?vid=14df372c-ae81-43b7-98bc-132f7fd24a0f","ios":"levelo://app?vid=14df372c-ae81-43b7-98bc-132f7fd24a0f"},"vehicle_type_id":"4","last_reported":1707286157,"current_range_meters":20400,"station_id":"ce4bhb12rcd13ifvqel0","pricing_plan_id":"free"},{"bike_id":"03c08798-ec50-436a-b0de-385feee0e95e","system_id":"levelo_inurba_marseille","lat":43.309038,"lon":5.396546,"is_reserved":false,"is_disabled":false,"rental_uris":{"android":"levelo://app?vid=03c08798-ec50-436a-b0de-385feee0e95e","ios":"levelo://app?vid=03c08798-ec50-436a-b0de-385feee0e95e"},"vehicle_type_id":"4","last_reported":1707286157,"current_range_meters":31600,"station_id":"ce4bh012rcd13ifvqcv0","pricing_plan_id":"free"},{"bike_id":"26cdc491-516a-4ad0-ac1f-3e177ebc32aa","system_id":"levelo_inurba_marseille","lat":43.308859,"lon":5.396369,"is_reserved":false,"is_disabled":false,"rental_uris":{"android":"levelo://app?vid=26cdc491-516a-4ad0-ac1f-3e177ebc32aa","ios":"levelo://app?vid=26cdc491-516a-4ad0-ac1f-3e177ebc32aa"},"vehicle_type_id":"4","last_reported":1707286157,"current_range_meters":6800,"station_id":"ce4bh012rcd13ifvqcv0","pricing_plan_id":"free"},{"bike_id":"758d2b83-af7f-47ce-bf19-07e89f5993d8","system_id":"levelo_inurba_marseille","lat":43.309038,"lon":5.396546,"is_reserved":false,"is_disabled":false,"rental_uris":{"android":"levelo://app?vid=758d2b83-af7f-47ce-bf19-07e89f5993d8","ios":"levelo://app?vid=758d2b83-af7f-47ce-bf19-07e89f5993d8"},"vehicle_type_id":"4","last_reported":1707286157,"current_range_meters":31600,"station_id":"ce4bh012rcd13ifvqcv0","pricing_plan_id":"free"},{"bike_id":"37861716-6d5c-4ec8-be0a-fdf775ed8bb1","system_id":"levelo_inurba_marseille","lat":43.313291,"lon":5.396838,"is_reserved":false,"is_disabled":false,"rental_uris":{"android":"levelo://app?vid=37861716-6d5c-4ec8-be0a-fdf775ed8bb1","ios":"levelo://app?vid=37861716-6d5c-4ec8-be0a-fdf775ed8bb1"},"vehicle_type_id":"4","last_reported":1707286157,"current_range_meters":31200,"station_id":"ce4bgvp2rcd13ifvqcu0","pricing_plan_id":"free"},{"bike_id":"2d2b9665-f7bd-45c2-8e4d-7a05625e05fe","system_id":"levelo_inurba_marseille","lat":43.291994,"lon":5.357886,"is_reserved":false,"is_disabled":false,"rental_uris":{"android":"levelo://app?vid=2d2b9665-f7bd-45c2-8e4d-7a05625e05fe","ios":"levelo://app?vid=2d2b9665-f7bd-45c2-8e4d-7a05625e05fe"},"vehicle_type_id":"4","last_reported":1707286157,"current_range_meters":16800,"station_id":"ce4bhb12rcd13ifvqel0","pricing_plan_id":"free"},{"bike_id":"82dc8a1e-76da-473e-b690-67166da9b9e5","system_id":"levelo_inurba_marseille","lat":43.31325,"lon":5.39687,"is_reserved":false,"is_disabled":false,"rental_uris":{"android":"levelo://app?vid=82dc8a1e-76da-473e-b690-67166da9b9e5","ios":"levelo://app?vid=82dc8a1e-76da-473e-b690-67166da9b9e5"},"vehicle_type_id":"4","last_reported":1707286157,"current_range_meters":17600,"station_id":"ce4bgvp2rcd13ifvqcu0","pricing_plan_id":"free"},{"bike_id":"23da3993-b5bc-47e8-9bc5-72c2327f71a2","system_id":"levelo_inurba_marseille","lat":43.308883,"lon":5.396406,"is_reserved":false,"is_disabled":false,"rental_uris":{"android":"levelo://app?vid=23da3993-b5bc-47e8-9bc5-72c2327f71a2","ios":"levelo://app?vid=23da3993-b5bc-47e8-9bc5-72c2327f71a2"},"vehicle_type_id":"4","last_reported":1707286157,"current_range_meters":28800,"station_id":"","pricing_plan_id":"free"},{"bike_id":"7773ee55-e6bb-48c4-9ca2-616d3d2c500d","system_id":"levelo_inurba_marseille","lat":43.309038,"lon":5.396546,"is_reserved":false,"is_disabled":false,"rental_uris":{"android":"levelo://app?vid=7773ee55-e6bb-48c4-9ca2-616d3d2c500d","ios":"levelo://app?vid=7773ee55-e6bb-48c4-9ca2-616d3d2c500d"},"vehicle_type_id":"4","last_reported":1707286157,"current_range_meters":31600,"station_id":"ce4bh012rcd13ifvqcv0","pricing_plan_id":"free"},{"bike_id":"299a444c-10bf-4fb8-ba8b-6ec7135ecd00","system_id":"levelo_inurba_marseille","lat":43.31325,"lon":5.39688,"is_reserved":false,"is_disabled":false,"rental_uris":{"android":"levelo://app?vid=299a444c-10bf-4fb8-ba8b-6ec7135ecd00","ios":"levelo://app?vid=299a444c-10bf-4fb8-ba8b-6ec7135ecd00"},"vehicle_type_id":"4","last_reported":1707286157,"current_range_meters":22800,"station_id":"ce4bgvp2rcd13ifvqcu0","pricing_plan_id":"free"},{"bike_id":"6d436c31-e76c-4d61-9de3-9549ec74cb3f","system_id":"levelo_inurba_marseille","lat":43.31326,"lon":5.39688,"is_reserved":false,"is_disabled":false,"rental_uris":{"android":"levelo://app?vid=6d436c31-e76c-4d61-9de3-9549ec74cb3f","ios":"levelo://app?vid=6d436c31-e76c-4d61-9de3-9549ec74cb3f"},"vehicle_type_id":"4","last_reported":1707286157,"current_range_meters":4400,"station_id":"ce4bgvp2rcd13ifvqcu0","pricing_plan_id":"free"},{"bike_id":"d9b37291-f53f-4731-8d0d-013598d0279a","system_id":"levelo_inurba_marseille","lat":43.313291,"lon":5.396838,"is_reserved":false,"is_disabled":false,"rental_uris":{"android":"levelo://app?vid=d9b37291-f53f-4731-8d0d-013598d0279a","ios":"levelo://app?vid=d9b37291-f53f-4731-8d0d-013598d0279a"},"vehicle_type_id":"4","last_reported":1707286157,"current_range_meters":15600,"station_id":"ce4bgvp2rcd13ifvqcu0","pricing_plan_id":"free"},{"bike_id":"a6509c96-19a6-4859-af4b-1a5ab9e55e3d","system_id":"levelo_inurba_marseille","lat":43.313291,"lon":5.396838,"is_reserved":false,"is_disabled":false,"rental_uris":{"android":"levelo://app?vid=a6509c96-19a6-4859-af4b-1a5ab9e55e3d","ios":"levelo://app?vid=a6509c96-19a6-4859-af4b-1a5ab9e55e3d"},"vehicle_type_id":"4","last_reported":1707286157,"current_range_meters":30400,"station_id":"ce4bgvp2rcd13ifvqcu0","pricing_plan_id":"free"},{"bike_id":"d35e5a1f-caa2-40a6-acc0-a0667c5b74de","system_id":"levelo_inurba_marseille","lat":43.313291,"lon":5.396838,"is_reserved":false,"is_disabled":false,"rental_uris":{"android":"levelo://app?vid=d35e5a1f-caa2-40a6-acc0-a0667c5b74de","ios":"levelo://app?vid=d35e5a1f-caa2-40a6-acc0-a0667c5b74de"},"vehicle_type_id":"4","last_reported":1707286157,"current_range_meters":25200,"station_id":"ce4bgvp2rcd13ifvqcu0","pricing_plan_id":"free"},{"bike_id":"07c67f88-8ba6-4863-b6df-51738a8fec36","system_id":"levelo_inurba_marseille","lat":43.313291,"lon":5.396838,"is_reserved":false,"is_disabled":false,"rental_uris":{"android":"levelo://app?vid=07c67f88-8ba6-4863-b6df-51738a8fec36","ios":"levelo://app?vid=07c67f88-8ba6-4863-b6df-51738a8fec36"},"vehicle_type_id":"4","last_reported":1707286157,"current_range_meters":2400,"station_id":"ce4bgvp2rcd13ifvqcu0","pricing_plan_id":"free"},{"bike_id":"ea71deee-398e-4e01-85f0-eaee953bf8cd","system_id":"levelo_inurba_marseille","lat":43.308882,"lon":5.396443,"is_reserved":false,"is_disabled":false,"rental_uris":{"android":"levelo://app?vid=ea71deee-398e-4e01-85f0-eaee953bf8cd","ios":"levelo://app?vid=ea71deee-398e-4e01-85f0-eaee953bf8cd"},"vehicle_type_id":"4","last_reported":1707286157,"current_range_meters":18800,"station_id":"ce4bh012rcd13ifvqcv0","pricing_plan_id":"free"},{"bike_id":"a5694600-38e4-4956-8e0a-9ad71ee47efb","system_id":"levelo_inurba_marseille","lat":43.313258,"lon":5.39691,"is_reserved":false,"is_disabled":false,"rental_uris":{"android":"levelo://app?vid=a5694600-38e4-4956-8e0a-9ad71ee47efb","ios":"levelo://app?vid=a5694600-38e4-4956-8e0a-9ad71ee47efb"},"vehicle_type_id":"4","last_reported":1707286157,"current_range_meters":800,"station_id":"ce4bgvp2rcd13ifvqcu0","pricing_plan_id":"free"},{"bike_id":"cae6e38f-86c4-4e74-9d64-756bf1585643","system_id":"levelo_inurba_marseille","lat":43.313291,"lon":5.396838,"is_reserved":false,"is_disabled":false,"rental_uris":{"android":"levelo://app?vid=cae6e38f-86c4-4e74-9d64-756bf1585643","ios":"levelo://app?vid=cae6e38f-86c4-4e74-9d64-756bf1585643"},"vehicle_type_id":"4","last_reported":1707286157,"current_range_meters":20000,"station_id":"ce4bgvp2rcd13ifvqcu0","pricing_plan_id":"free"},{"bike_id":"35fd7146-df89-47c9-9fcf-1688399ada99","system_id":"levelo_inurba_marseille","lat":43.309038,"lon":5.396546,"is_reserved":false,"is_disabled":false,"rental_uris":{"android":"levelo://app?vid=35fd7146-df89-47c9-9fcf-1688399ada99","ios":"levelo://app?vid=35fd7146-df89-47c9-9fcf-1688399ada99"},"vehicle_type_id":"4","last_reported":1707286157,"current_range_meters":26000,"station_id":"ce4bh012rcd13ifvqcv0","pricing_plan_id":"free"},{"bike_id":"5595d1f6-720f-4471-9e3d-e0255729bbee","system_id":"levelo_inurba_marseille","lat":43.313291,"lon":5.396838,"is_reserved":false,"is_disabled":false,"rental_uris":{"android":"levelo://app?vid=5595d1f6-720f-4471-9e3d-e0255729bbee","ios":"levelo://app?vid=5595d1f6-720f-4471-9e3d-e0255729bbee"},"vehicle_type_id":"4","last_reported":1707286157,"current_range_meters":29600,"station_id":"ce4bgvp2rcd13ifvqcu0","pricing_plan_id":"free"},{"bike_id":"f991e405-a4f6-4610-be1c-ad78edc49358","system_id":"levelo_inurba_marseille","lat":43.313291,"lon":5.396838,"is_reserved":false,"is_disabled":false,"rental_uris":{"android":"levelo://app?vid=f991e405-a4f6-4610-be1c-ad78edc49358","ios":"levelo://app?vid=f991e405-a4f6-4610-be1c-ad78edc49358"},"vehicle_type_id":"4","last_reported":1707286157,"current_range_meters":4800,"station_id":"ce4bgvp2rcd13ifvqcu0","pricing_plan_id":"free"},{"bike_id":"2756ba24-58d8-4f25-a280-98864d46ccb8","system_id":"levelo_inurba_marseille","lat":43.309047,"lon":5.396551,"is_reserved":false,"is_disabled":false,"rental_uris":{"android":"levelo://app?vid=2756ba24-58d8-4f25-a280-98864d46ccb8","ios":"levelo://app?vid=2756ba24-58d8-4f25-a280-98864d46ccb8"},"vehicle_type_id":"4","last_reported":1707286157,"current_range_meters":7200,"station_id":"ce4bh012rcd13ifvqcv0","pricing_plan_id":"free"},{"bike_id":"c0f3e4d9-3ac1-48a0-8f12-6fe148c7f075","system_id":"levelo_inurba_marseille","lat":43.313294,"lon":5.396916,"is_reserved":false,"is_disabled":false,"rental_uris":{"android":"levelo://app?vid=c0f3e4d9-3ac1-48a0-8f12-6fe148c7f075","ios":"levelo://app?vid=c0f3e4d9-3ac1-48a0-8f12-6fe148c7f075"},"vehicle_type_id":"4","last_reported":1707286157,"current_range_meters":18000,"station_id":"ce4bgvp2rcd13ifvqcu0","pricing_plan_id":"free"},{"bike_id":"e96b3918-97aa-4346-b961-a7ce5d6d3524","system_id":"levelo_inurba_marseille","lat":43.291994,"lon":5.357886,"is_reserved":false,"is_disabled":false,"rental_uris":{"android":"levelo://app?vid=e96b3918-97aa-4346-b961-a7ce5d6d3524","ios":"levelo://app?vid=e96b3918-97aa-4346-b961-a7ce5d6d3524"},"vehicle_type_id":"4","last_reported":1707286157,"current_range_meters":24800,"station_id":"ce4bhb12rcd13ifvqel0","pricing_plan_id":"free"},{"bike_id":"705d1191-6ff5-4196-ad40-7fa1a244fc42","system_id":"levelo_inurba_marseille","lat":43.309038,"lon":5.396546,"is_reserved":false,"is_disabled":false,"rental_uris":{"android":"levelo://app?vid=705d1191-6ff5-4196-ad40-7fa1a244fc42","ios":"levelo://app?vid=705d1191-6ff5-4196-ad40-7fa1a244fc42"},"vehicle_type_id":"4","last_reported":1707286157,"current_range_meters":16400,"station_id":"ce4bh012rcd13ifvqcv0","pricing_plan_id":"free"},{"bike_id":"e0dcd070-b172-4bb0-b285-26a55b6353b7","system_id":"levelo_inurba_marseille","lat":43.313291,"lon":5.396838,"is_reserved":false,"is_disabled":false,"rental_uris":{"android":"levelo://app?vid=e0dcd070-b172-4bb0-b285-26a55b6353b7","ios":"levelo://app?vid=e0dcd070-b172-4bb0-b285-26a55b6353b7"},"vehicle_type_id":"4","last_reported":1707286157,"current_range_meters":22400,"station_id":"ce4bgvp2rcd13ifvqcu0","pricing_plan_id":"free"},{"bike_id":"6ff4414e-1536-41bd-926d-71c79dfc563e","system_id":"levelo_inurba_marseille","lat":43.31329,"lon":5.39694,"is_reserved":false,"is_disabled":false,"rental_uris":{"android":"levelo://app?vid=6ff4414e-1536-41bd-926d-71c79dfc563e","ios":"levelo://app?vid=6ff4414e-1536-41bd-926d-71c79dfc563e"},"vehicle_type_id":"4","last_reported":1707286157,"current_range_meters":29600,"station_id":"ce4bgvp2rcd13ifvqcu0","pricing_plan_id":"free"},{"bike_id":"dd2bb48a-1a28-49e0-a92a-4b79c31be3e4","system_id":"levelo_inurba_marseille","lat":43.313291,"lon":5.396838,"is_reserved":false,"is_disabled":false,"rental_uris":{"android":"levelo://app?vid=dd2bb48a-1a28-49e0-a92a-4b79c31be3e4","ios":"levelo://app?vid=dd2bb48a-1a28-49e0-a92a-4b79c31be3e4"},"vehicle_type_id":"4","last_reported":1707286157,"current_range_meters":31200,"station_id":"ce4bgvp2rcd13ifvqcu0","pricing_plan_id":"free"},{"bike_id":"d121a669-59c1-436a-bdf3-5f745c0bad8a","system_id":"levelo_inurba_marseille","lat":43.313291,"lon":5.396838,"is_reserved":false,"is_disabled":false,"rental_uris":{"android":"levelo://app?vid=d121a669-59c1-436a-bdf3-5f745c0bad8a","ios":"levelo://app?vid=d121a669-59c1-436a-bdf3-5f745c0bad8a"},"vehicle_type_id":"4","last_reported":1707286157,"current_range_meters":10800,"station_id":"ce4bgvp2rcd13ifvqcu0","pricing_plan_id":"free"},{"bike_id":"2b593266-fa57-48e1-abe3-84e731e5edd5","system_id":"levelo_inurba_marseille","lat":43.31329,"lon":5.39696,"is_reserved":false,"is_disabled":false,"rental_uris":{"android":"levelo://app?vid=2b593266-fa57-48e1-abe3-84e731e5edd5","ios":"levelo://app?vid=2b593266-fa57-48e1-abe3-84e731e5edd5"},"vehicle_type_id":"4","last_reported":1707286157,"current_range_meters":24400,"station_id":"ce4bgvp2rcd13ifvqcu0","pricing_plan_id":"free"},{"bike_id":"6380ac98-63bb-4f18-bc74-ef83b4082bd6","system_id":"levelo_inurba_marseille","lat":43.291994,"lon":5.357886,"is_reserved":false,"is_disabled":false,"rental_uris":{"android":"levelo://app?vid=6380ac98-63bb-4f18-bc74-ef83b4082bd6","ios":"levelo://app?vid=6380ac98-63bb-4f18-bc74-ef83b4082bd6"},"vehicle_type_id":"4","last_reported":1707286157,"current_range_meters":18000,"station_id":"ce4bhb12rcd13ifvqel0","pricing_plan_id":"free"},{"bike_id":"8b58acf4-6aab-4148-99f8-f06877ffc913","system_id":"levelo_inurba_marseille","lat":43.313291,"lon":5.396838,"is_reserved":false,"is_disabled":false,"rental_uris":{"android":"levelo://app?vid=8b58acf4-6aab-4148-99f8-f06877ffc913","ios":"levelo://app?vid=8b58acf4-6aab-4148-99f8-f06877ffc913"},"vehicle_type_id":"4","last_reported":1707286157,"current_range_meters":3200,"station_id":"ce4bgvp2rcd13ifvqcu0","pricing_plan_id":"free"},{"bike_id":"0c7b6894-87eb-443c-9da3-dc9be332ca2d","system_id":"levelo_inurba_marseille","lat":43.313291,"lon":5.396838,"is_reserved":false,"is_disabled":false,"rental_uris":{"android":"levelo://app?vid=0c7b6894-87eb-443c-9da3-dc9be332ca2d","ios":"levelo://app?vid=0c7b6894-87eb-443c-9da3-dc9be332ca2d"},"vehicle_type_id":"4","last_reported":1707286157,"current_range_meters":31200,"station_id":"ce4bgvp2rcd13ifvqcu0","pricing_plan_id":"free"},{"bike_id":"09617d66-2ed8-44c4-b671-49f9c8eea35c","system_id":"levelo_inurba_marseille","lat":43.302008,"lon":5.394694,"is_reserved":false,"is_disabled":false,"rental_uris":{"android":"levelo://app?vid=09617d66-2ed8-44c4-b671-49f9c8eea35c","ios":"levelo://app?vid=09617d66-2ed8-44c4-b671-49f9c8eea35c"},"vehicle_type_id":"4","last_reported":1707286157,"current_range_meters":26800,"station_id":"ce4bh0p2rcd13ifvqd70","pricing_plan_id":"free"},{"bike_id":"5df12e7f-0e4e-416f-8a8a-457d67375289","system_id":"levelo_inurba_marseille","lat":43.29073,"lon":5.3754,"is_reserved":false,"is_disabled":false,"rental_uris":{"android":"levelo://app?vid=5df12e7f-0e4e-416f-8a8a-457d67375289","ios":"levelo://app?vid=5df12e7f-0e4e-416f-8a8a-457d67375289"},"vehicle_type_id":"4","last_reported":1707286157,"current_range_meters":19600,"station_id":"","pricing_plan_id":"free"},{"bike_id":"ac5f2814-db31-4612-91c1-2d9a55ef1033","system_id":"levelo_inurba_marseille","lat":43.302008,"lon":5.394694,"is_reserved":false,"is_disabled":false,"rental_uris":{"android":"levelo://app?vid=ac5f2814-db31-4612-91c1-2d9a55ef1033","ios":"levelo://app?vid=ac5f2814-db31-4612-91c1-2d9a55ef1033"},"vehicle_type_id":"4","last_reported":1707286157,"current_range_meters":31200,"station_id":"ce4bh0p2rcd13ifvqd70","pricing_plan_id":"free"},{"bike_id":"dd240afd-e090-469a-8e7d-7e3759871178","system_id":"levelo_inurba_marseille","lat":43.290624,"lon":5.359245,"is_reserved":false,"is_disabled":false,"rental_uris":{"android":"levelo://app?vid=dd240afd-e090-469a-8e7d-7e3759871178","ios":"levelo://app?vid=dd240afd-e090-469a-8e7d-7e3759871178"},"vehicle_type_id":"4","last_reported":1707286157,"current_range_meters":30000,"station_id":"ce4bha92rcd13ifvqeg0","pricing_plan_id":"free"},{"bike_id":"3e54dcf5-1ecd-40fa-8a9d-765b4df05722","system_id":"levelo_inurba_marseille","lat":43.290631,"lon":5.359244,"is_reserved":false,"is_disabled":false,"rental_uris":{"android":"levelo://app?vid=3e54dcf5-1ecd-40fa-8a9d-765b4df05722","ios":"levelo://app?vid=3e54dcf5-1ecd-40fa-8a9d-765b4df05722"},"vehicle_type_id":"4","last_reported":1707286157,"current_range_meters":26400,"station_id":"ce4bha92rcd13ifvqeg0","pricing_plan_id":"free"},{"bike_id":"7badf922-188e-407c-8fd8-26a05574b0d1","system_id":"levelo_inurba_marseille","lat":43.289468,"lon":5.363719,"is_reserved":false,"is_disabled":false,"rental_uris":{"android":"levelo://app?vid=7badf922-188e-407c-8fd8-26a05574b0d1","ios":"levelo://app?vid=7badf922-188e-407c-8fd8-26a05574b0d1"},"vehicle_type_id":"4","last_reported":1707286157,"current_range_meters":26800,"station_id":"ce4bhc92rcd13ifvqetg","pricing_plan_id":"free"},{"bike_id":"f484df80-1942-48de-a070-fad1d5b3f203","system_id":"levelo_inurba_marseille","lat":43.289468,"lon":5.363719,"is_reserved":false,"is_disabled":false,"rental_uris":{"android":"levelo://app?vid=f484df80-1942-48de-a070-fad1d5b3f203","ios":"levelo://app?vid=f484df80-1942-48de-a070-fad1d5b3f203"},"vehicle_type_id":"4","last_reported":1707286157,"current_range_meters":13200,"station_id":"ce4bhc92rcd13ifvqetg","pricing_plan_id":"free"},{"bike_id":"b86807f9-26e5-45cd-98f6-efd84e4ec1ec","system_id":"levelo_inurba_marseille","lat":43.289468,"lon":5.363719,"is_reserved":false,"is_disabled":false,"rental_uris":{"android":"levelo://app?vid=b86807f9-26e5-45cd-98f6-efd84e4ec1ec","ios":"levelo://app?vid=b86807f9-26e5-45cd-98f6-efd84e4ec1ec"},"vehicle_type_id":"4","last_reported":1707286157,"current_range_meters":17200,"station_id":"ce4bhc92rcd13ifvqetg","pricing_plan_id":"free"},{"bike_id":"a64df828-4635-4065-9244-8ab575bacf00","system_id":"levelo_inurba_marseille","lat":43.289409,"lon":5.363932,"is_reserved":false,"is_disabled":false,"rental_uris":{"android":"levelo://app?vid=a64df828-4635-4065-9244-8ab575bacf00","ios":"levelo://app?vid=a64df828-4635-4065-9244-8ab575bacf00"},"vehicle_type_id":"4","last_reported":1707286157,"current_range_meters":18800,"station_id":"ce4bhc92rcd13ifvqetg","pricing_plan_id":"free"},{"bike_id":"1b8862f7-e38d-463d-9d00-fc56947d9974","system_id":"levelo_inurba_marseille","lat":43.289468,"lon":5.363719,"is_reserved":false,"is_disabled":false,"rental_uris":{"android":"levelo://app?vid=1b8862f7-e38d-463d-9d00-fc56947d9974","ios":"levelo://app?vid=1b8862f7-e38d-463d-9d00-fc56947d9974"},"vehicle_type_id":"4","last_reported":1707286157,"current_range_meters":3600,"station_id":"ce4bhc92rcd13ifvqetg","pricing_plan_id":"free"},{"bike_id":"91c9cf7c-7ce9-4579-8dfb-c9938702c617","system_id":"levelo_inurba_marseille","lat":43.289468,"lon":5.363719,"is_reserved":false,"is_disabled":false,"rental_uris":{"android":"levelo://app?vid=91c9cf7c-7ce9-4579-8dfb-c9938702c617","ios":"levelo://app?vid=91c9cf7c-7ce9-4579-8dfb-c9938702c617"},"vehicle_type_id":"4","last_reported":1707286157,"current_range_meters":6000,"station_id":"ce4bhc92rcd13ifvqetg","pricing_plan_id":"free"},{"bike_id":"664bd840-2464-467a-952a-872b346c6767","system_id":"levelo_inurba_marseille","lat":43.289468,"lon":5.363719,"is_reserved":false,"is_disabled":false,"rental_uris":{"android":"levelo://app?vid=664bd840-2464-467a-952a-872b346c6767","ios":"levelo://app?vid=664bd840-2464-467a-952a-872b346c6767"},"vehicle_type_id":"4","last_reported":1707286157,"current_range_meters":27200,"station_id":"ce4bhc92rcd13ifvqetg","pricing_plan_id":"free"},{"bike_id":"ac467921-3829-469f-8fb1-614341d6dcb4","system_id":"levelo_inurba_marseille","lat":43.289468,"lon":5.363719,"is_reserved":false,"is_disabled":false,"rental_uris":{"android":"levelo://app?vid=ac467921-3829-469f-8fb1-614341d6dcb4","ios":"levelo://app?vid=ac467921-3829-469f-8fb1-614341d6dcb4"},"vehicle_type_id":"4","last_reported":1707286157,"current_range_meters":4800,"station_id":"ce4bhc92rcd13ifvqetg","pricing_plan_id":"free"},{"bike_id":"63a927a1-ddfa-4193-8ff4-a8d4900208d2","system_id":"levelo_inurba_marseille","lat":43.289468,"lon":5.363719,"is_reserved":false,"is_disabled":false,"rental_uris":{"android":"levelo://app?vid=63a927a1-ddfa-4193-8ff4-a8d4900208d2","ios":"levelo://app?vid=63a927a1-ddfa-4193-8ff4-a8d4900208d2"},"vehicle_type_id":"4","last_reported":1707286157,"current_range_meters":16400,"station_id":"ce4bhc92rcd13ifvqetg","pricing_plan_id":"free"},{"bike_id":"36312ae2-0da6-4fcf-852b-b4fd57b404ad","system_id":"levelo_inurba_marseille","lat":43.30431,"lon":5.39743,"is_reserved":false,"is_disabled":false,"rental_uris":{"android":"levelo://app?vid=36312ae2-0da6-4fcf-852b-b4fd57b404ad","ios":"levelo://app?vid=36312ae2-0da6-4fcf-852b-b4fd57b404ad"},"vehicle_type_id":"4","last_reported":1707286157,"current_range_meters":400,"station_id":"ce4bh092rcd13ifvqd20","pricing_plan_id":"free"},{"bike_id":"40737a6d-40e5-40e2-b424-56f727e75dd2","system_id":"levelo_inurba_marseille","lat":43.292642,"lon":5.384254,"is_reserved":false,"is_disabled":false,"rental_uris":{"android":"levelo://app?vid=40737a6d-40e5-40e2-b424-56f727e75dd2","ios":"levelo://app?vid=40737a6d-40e5-40e2-b424-56f727e75dd2"},"vehicle_type_id":"4","last_reported":1707286157,"current_range_meters":30800,"station_id":"ce4bh692rcd13ifvqea0","pricing_plan_id":"free"},{"bike_id":"f8315f6b-90c0-4e0f-9be9-89368967b342","system_id":"levelo_inurba_marseille","lat":43.304253,"lon":5.397533,"is_reserved":false,"is_disabled":false,"rental_uris":{"android":"levelo://app?vid=f8315f6b-90c0-4e0f-9be9-89368967b342","ios":"levelo://app?vid=f8315f6b-90c0-4e0f-9be9-89368967b342"},"vehicle_type_id":"4","last_reported":1707286157,"current_range_meters":15600,"station_id":"ce4bh092rcd13ifvqd20","pricing_plan_id":"free"},{"bike_id":"fe4b5684-8fa3-4fc6-8e1b-d8387c987f06","system_id":"levelo_inurba_marseille","lat":43.304211,"lon":5.397528,"is_reserved":false,"is_disabled":false,"rental_uris":{"android":"levelo://app?vid=fe4b5684-8fa3-4fc6-8e1b-d8387c987f06","ios":"levelo://app?vid=fe4b5684-8fa3-4fc6-8e1b-d8387c987f06"},"vehicle_type_id":"4","last_reported":1707286157,"current_range_meters":19600,"station_id":"ce4bh092rcd13ifvqd20","pricing_plan_id":"free"},{"bike_id":"84b61a5c-1dcc-429d-9d49-457cd4e4d0a6","system_id":"levelo_inurba_marseille","lat":43.304212,"lon":5.397534,"is_reserved":false,"is_disabled":false,"rental_uris":{"android":"levelo://app?vid=84b61a5c-1dcc-429d-9d49-457cd4e4d0a6","ios":"levelo://app?vid=84b61a5c-1dcc-429d-9d49-457cd4e4d0a6"},"vehicle_type_id":"4","last_reported":1707286157,"current_range_meters":25200,"station_id":"ce4bh092rcd13ifvqd20","pricing_plan_id":"free"},{"bike_id":"5cc58902-61df-47c5-ab1e-22b22abfff79","system_id":"levelo_inurba_marseille","lat":43.290104,"lon":5.356111,"is_reserved":false,"is_disabled":false,"rental_uris":{"android":"levelo://app?vid=5cc58902-61df-47c5-ab1e-22b22abfff79","ios":"levelo://app?vid=5cc58902-61df-47c5-ab1e-22b22abfff79"},"vehicle_type_id":"4","last_reported":1707286157,"current_range_meters":30400,"station_id":"ce4bhb92rcd13ifvqen0","pricing_plan_id":"free"},{"bike_id":"6a7e6ef3-bf37-467e-bd8b-f62bd961d7e4","system_id":"levelo_inurba_marseille","lat":43.290104,"lon":5.356111,"is_reserved":false,"is_disabled":false,"rental_uris":{"android":"levelo://app?vid=6a7e6ef3-bf37-467e-bd8b-f62bd961d7e4","ios":"levelo://app?vid=6a7e6ef3-bf37-467e-bd8b-f62bd961d7e4"},"vehicle_type_id":"4","last_reported":1707286157,"current_range_meters":14400,"station_id":"ce4bhb92rcd13ifvqen0","pricing_plan_id":"free"},{"bike_id":"b19edd4e-c4d7-404a-962f-7e55bab06181","system_id":"levelo_inurba_marseille","lat":43.290103,"lon":5.356114,"is_reserved":false,"is_disabled":false,"rental_uris":{"android":"levelo://app?vid=b19edd4e-c4d7-404a-962f-7e55bab06181","ios":"levelo://app?vid=b19edd4e-c4d7-404a-962f-7e55bab06181"},"vehicle_type_id":"4","last_reported":1707286157,"current_range_meters":30000,"station_id":"ce4bhb92rcd13ifvqen0","pricing_plan_id":"free"},{"bike_id":"f8eea4f0-6147-4b00-b0a4-28f9b4ebdb84","system_id":"levelo_inurba_marseille","lat":43.290104,"lon":5.356111,"is_reserved":false,"is_disabled":false,"rental_uris":{"android":"levelo://app?vid=f8eea4f0-6147-4b00-b0a4-28f9b4ebdb84","ios":"levelo://app?vid=f8eea4f0-6147-4b00-b0a4-28f9b4ebdb84"},"vehicle_type_id":"4","last_reported":1707286157,"current_range_meters":21200,"station_id":"ce4bhb92rcd13ifvqen0","pricing_plan_id":"free"},{"bike_id":"0a5b5de9-a118-459e-a39b-9ec121008213","system_id":"levelo_inurba_marseille","lat":43.290103,"lon":5.356114,"is_reserved":false,"is_disabled":false,"rental_uris":{"android":"levelo://app?vid=0a5b5de9-a118-459e-a39b-9ec121008213","ios":"levelo://app?vid=0a5b5de9-a118-459e-a39b-9ec121008213"},"vehicle_type_id":"4","last_reported":1707286157,"current_range_meters":27200,"station_id":"ce4bhb92rcd13ifvqen0","pricing_plan_id":"free"},{"bike_id":"fb251d90-5471-4340-b1e0-843bee9c44a3","system_id":"levelo_inurba_marseille","lat":43.290104,"lon":5.356111,"is_reserved":false,"is_disabled":false,"rental_uris":{"android":"levelo://app?vid=fb251d90-5471-4340-b1e0-843bee9c44a3","ios":"levelo://app?vid=fb251d90-5471-4340-b1e0-843bee9c44a3"},"vehicle_type_id":"4","last_reported":1707286157,"current_range_meters":31200,"station_id":"ce4bhb92rcd13ifvqen0","pricing_plan_id":"free"},{"bike_id":"06eff9e9-2bca-42db-ada3-dbd7835d6ef6","system_id":"levelo_inurba_marseille","lat":43.290103,"lon":5.356114,"is_reserved":false,"is_disabled":false,"rental_uris":{"android":"levelo://app?vid=06eff9e9-2bca-42db-ada3-dbd7835d6ef6","ios":"levelo://app?vid=06eff9e9-2bca-42db-ada3-dbd7835d6ef6"},"vehicle_type_id":"4","last_reported":1707286157,"current_range_meters":22400,"station_id":"ce4bhb92rcd13ifvqen0","pricing_plan_id":"free"},{"bike_id":"9542efb3-2df3-45d9-bf71-83146880d169","system_id":"levelo_inurba_marseille","lat":43.297869,"lon":5.393362,"is_reserved":false,"is_disabled":false,"rental_uris":{"android":"levelo://app?vid=9542efb3-2df3-45d9-bf71-83146880d169","ios":"levelo://app?vid=9542efb3-2df3-45d9-bf71-83146880d169"},"vehicle_type_id":"4","last_reported":1707286157,"current_range_meters":31200,"station_id":"chh1huq6cuj3fo74tm60","pricing_plan_id":"free"},{"bike_id":"ba771297-a93d-41f8-8b63-633913ea0d45","system_id":"levelo_inurba_marseille","lat":43.29791,"lon":5.39345,"is_reserved":false,"is_disabled":false,"rental_uris":{"android":"levelo://app?vid=ba771297-a93d-41f8-8b63-633913ea0d45","ios":"levelo://app?vid=ba771297-a93d-41f8-8b63-633913ea0d45"},"vehicle_type_id":"4","last_reported":1707286157,"current_range_meters":30400,"station_id":"chh1huq6cuj3fo74tm60","pricing_plan_id":"free"},{"bike_id":"b5c14bc8-0bdf-48a6-9a9f-af1b4756e3aa","system_id":"levelo_inurba_marseille","lat":43.297815,"lon":5.393548,"is_reserved":false,"is_disabled":false,"rental_uris":{"android":"levelo://app?vid=b5c14bc8-0bdf-48a6-9a9f-af1b4756e3aa","ios":"levelo://app?vid=b5c14bc8-0bdf-48a6-9a9f-af1b4756e3aa"},"vehicle_type_id":"4","last_reported":1707286157,"current_range_meters":30000,"station_id":"chh1huq6cuj3fo74tm60","pricing_plan_id":"free"},{"bike_id":"42a65a4e-b12c-4dda-8f00-bcd7e91b44ab","system_id":"levelo_inurba_marseille","lat":43.297815,"lon":5.393548,"is_reserved":false,"is_disabled":false,"rental_uris":{"android":"levelo://app?vid=42a65a4e-b12c-4dda-8f00-bcd7e91b44ab","ios":"levelo://app?vid=42a65a4e-b12c-4dda-8f00-bcd7e91b44ab"},"vehicle_type_id":"4","last_reported":1707286157,"current_range_meters":22400,"station_id":"chh1huq6cuj3fo74tm60","pricing_plan_id":"free"},{"bike_id":"e3cdd8db-1a8c-42b0-8a1d-74e27724a81e","system_id":"levelo_inurba_marseille","lat":43.33021,"lon":5.39038,"is_reserved":false,"is_disabled":false,"rental_uris":{"android":"levelo://app?vid=e3cdd8db-1a8c-42b0-8a1d-74e27724a81e","ios":"levelo://app?vid=e3cdd8db-1a8c-42b0-8a1d-74e27724a81e"},"vehicle_type_id":"4","last_reported":1707286157,"current_range_meters":27600,"station_id":"ce4bhr92rcd13ifvqhrg","pricing_plan_id":"free"},{"bike_id":"557d0534-afdc-4b41-a18d-6391e7d73a8a","system_id":"levelo_inurba_marseille","lat":43.330236,"lon":5.390356,"is_reserved":false,"is_disabled":false,"rental_uris":{"android":"levelo://app?vid=557d0534-afdc-4b41-a18d-6391e7d73a8a","ios":"levelo://app?vid=557d0534-afdc-4b41-a18d-6391e7d73a8a"},"vehicle_type_id":"4","last_reported":1707286157,"current_range_meters":10000,"station_id":"ce4bhr92rcd13ifvqhrg","pricing_plan_id":"free"},{"bike_id":"8ca3da1e-5def-4150-85c1-93059ad4ca52","system_id":"levelo_inurba_marseille","lat":43.330194,"lon":5.390418,"is_reserved":false,"is_disabled":false,"rental_uris":{"android":"levelo://app?vid=8ca3da1e-5def-4150-85c1-93059ad4ca52","ios":"levelo://app?vid=8ca3da1e-5def-4150-85c1-93059ad4ca52"},"vehicle_type_id":"4","last_reported":1707286157,"current_range_meters":28000,"station_id":"ce4bhr92rcd13ifvqhrg","pricing_plan_id":"free"},{"bike_id":"7d9c88cc-b379-4f7e-afa0-885a9a44585d","system_id":"levelo_inurba_marseille","lat":43.330231,"lon":5.39037,"is_reserved":false,"is_disabled":false,"rental_uris":{"android":"levelo://app?vid=7d9c88cc-b379-4f7e-afa0-885a9a44585d","ios":"levelo://app?vid=7d9c88cc-b379-4f7e-afa0-885a9a44585d"},"vehicle_type_id":"4","last_reported":1707286157,"current_range_meters":17600,"station_id":"ce4bhr92rcd13ifvqhrg","pricing_plan_id":"free"},{"bike_id":"9f74ab4e-9d60-4afa-867a-49240bd6e097","system_id":"levelo_inurba_marseille","lat":43.330175,"lon":5.39045,"is_reserved":false,"is_disabled":false,"rental_uris":{"android":"levelo://app?vid=9f74ab4e-9d60-4afa-867a-49240bd6e097","ios":"levelo://app?vid=9f74ab4e-9d60-4afa-867a-49240bd6e097"},"vehicle_type_id":"4","last_reported":1707286157,"current_range_meters":16000,"station_id":"ce4bhr92rcd13ifvqhrg","pricing_plan_id":"free"},{"bike_id":"191e5a48-25eb-42b2-aa0f-b63755aec4fc","system_id":"levelo_inurba_marseille","lat":43.33019,"lon":5.390439,"is_reserved":false,"is_disabled":false,"rental_uris":{"android":"levelo://app?vid=191e5a48-25eb-42b2-aa0f-b63755aec4fc","ios":"levelo://app?vid=191e5a48-25eb-42b2-aa0f-b63755aec4fc"},"vehicle_type_id":"4","last_reported":1707286157,"current_range_meters":13600,"station_id":"ce4bhr92rcd13ifvqhrg","pricing_plan_id":"free"},{"bike_id":"397db575-5859-4e88-b680-c446f72b852d","system_id":"levelo_inurba_marseille","lat":43.330442,"lon":5.389148,"is_reserved":false,"is_disabled":false,"rental_uris":{"android":"levelo://app?vid=397db575-5859-4e88-b680-c446f72b852d","ios":"levelo://app?vid=397db575-5859-4e88-b680-c446f72b852d"},"vehicle_type_id":"4","last_reported":1707286157,"current_range_meters":1600,"station_id":"ce4bhr92rcd13ifvqhrg","pricing_plan_id":"free"},{"bike_id":"62ca35d7-f049-4885-9fd9-beb6af1eb797","system_id":"levelo_inurba_marseille","lat":43.33025,"lon":5.39036,"is_reserved":false,"is_disabled":false,"rental_uris":{"android":"levelo://app?vid=62ca35d7-f049-4885-9fd9-beb6af1eb797","ios":"levelo://app?vid=62ca35d7-f049-4885-9fd9-beb6af1eb797"},"vehicle_type_id":"4","last_reported":1707286157,"current_range_meters":10400,"station_id":"ce4bhr92rcd13ifvqhrg","pricing_plan_id":"free"},{"bike_id":"06ced9ff-aabf-4848-85ce-05b03fc64dd8","system_id":"levelo_inurba_marseille","lat":43.289743,"lon":5.378304,"is_reserved":false,"is_disabled":false,"rental_uris":{"android":"levelo://app?vid=06ced9ff-aabf-4848-85ce-05b03fc64dd8","ios":"levelo://app?vid=06ced9ff-aabf-4848-85ce-05b03fc64dd8"},"vehicle_type_id":"4","last_reported":1707286157,"current_range_meters":30000,"station_id":"ce4bh9p2rcd13ifvqed0","pricing_plan_id":"free"},{"bike_id":"ba7895df-fdf0-43d4-b40a-e7e64d29137d","system_id":"levelo_inurba_marseille","lat":43.330442,"lon":5.389148,"is_reserved":false,"is_disabled":false,"rental_uris":{"android":"levelo://app?vid=ba7895df-fdf0-43d4-b40a-e7e64d29137d","ios":"levelo://app?vid=ba7895df-fdf0-43d4-b40a-e7e64d29137d"},"vehicle_type_id":"4","last_reported":1707286157,"current_range_meters":22000,"station_id":"ce4bhr92rcd13ifvqhrg","pricing_plan_id":"free"},{"bike_id":"2e111dff-3c6a-45c9-9e51-8ccb512570b2","system_id":"levelo_inurba_marseille","lat":43.330235,"lon":5.39041,"is_reserved":false,"is_disabled":false,"rental_uris":{"android":"levelo://app?vid=2e111dff-3c6a-45c9-9e51-8ccb512570b2","ios":"levelo://app?vid=2e111dff-3c6a-45c9-9e51-8ccb512570b2"},"vehicle_type_id":"4","last_reported":1707286157,"current_range_meters":29200,"station_id":"ce4bhr92rcd13ifvqhrg","pricing_plan_id":"free"},{"bike_id":"fd72c297-d0df-4a2c-b38e-6177668e633b","system_id":"levelo_inurba_marseille","lat":43.330261,"lon":5.390386,"is_reserved":false,"is_disabled":false,"rental_uris":{"android":"levelo://app?vid=fd72c297-d0df-4a2c-b38e-6177668e633b","ios":"levelo://app?vid=fd72c297-d0df-4a2c-b38e-6177668e633b"},"vehicle_type_id":"4","last_reported":1707286157,"current_range_meters":2000,"station_id":"ce4bhr92rcd13ifvqhrg","pricing_plan_id":"free"},{"bike_id":"032d7c05-8682-4e73-a56c-0bfd99c51140","system_id":"levelo_inurba_marseille","lat":43.295169,"lon":5.390426,"is_reserved":false,"is_disabled":false,"rental_uris":{"android":"levelo://app?vid=032d7c05-8682-4e73-a56c-0bfd99c51140","ios":"levelo://app?vid=032d7c05-8682-4e73-a56c-0bfd99c51140"},"vehicle_type_id":"4","last_reported":1707286157,"current_range_meters":30000,"station_id":"ce4bh3p2rcd13ifvqdp0","pricing_plan_id":"free"},{"bike_id":"9be19af2-00eb-4adf-afc6-6b25dc013c2f","system_id":"levelo_inurba_marseille","lat":43.330226,"lon":5.390445,"is_reserved":false,"is_disabled":false,"rental_uris":{"android":"levelo://app?vid=9be19af2-00eb-4adf-afc6-6b25dc013c2f","ios":"levelo://app?vid=9be19af2-00eb-4adf-afc6-6b25dc013c2f"},"vehicle_type_id":"4","last_reported":1707286157,"current_range_meters":2000,"station_id":"ce4bhr92rcd13ifvqhrg","pricing_plan_id":"free"},{"bike_id":"5cf52488-0a4f-45ea-867d-bde7992eca16","system_id":"levelo_inurba_marseille","lat":43.28853,"lon":5.3586,"is_reserved":false,"is_disabled":false,"rental_uris":{"android":"levelo://app?vid=5cf52488-0a4f-45ea-867d-bde7992eca16","ios":"levelo://app?vid=5cf52488-0a4f-45ea-867d-bde7992eca16"},"vehicle_type_id":"4","last_reported":1707286157,"current_range_meters":1200,"station_id":"ce4bhb12rcd13ifvqem0","pricing_plan_id":"free"},{"bike_id":"5aea5c0b-6c60-4bd1-ba81-193e83f97619","system_id":"levelo_inurba_marseille","lat":43.288537,"lon":5.358521,"is_reserved":false,"is_disabled":false,"rental_uris":{"android":"levelo://app?vid=5aea5c0b-6c60-4bd1-ba81-193e83f97619","ios":"levelo://app?vid=5aea5c0b-6c60-4bd1-ba81-193e83f97619"},"vehicle_type_id":"4","last_reported":1707286157,"current_range_meters":25200,"station_id":"ce4bhb12rcd13ifvqem0","pricing_plan_id":"free"},{"bike_id":"3bc60c29-f220-44f4-8da6-6672ecf9952f","system_id":"levelo_inurba_marseille","lat":43.288536,"lon":5.358451,"is_reserved":false,"is_disabled":false,"rental_uris":{"android":"levelo://app?vid=3bc60c29-f220-44f4-8da6-6672ecf9952f","ios":"levelo://app?vid=3bc60c29-f220-44f4-8da6-6672ecf9952f"},"vehicle_type_id":"4","last_reported":1707286157,"current_range_meters":10400,"station_id":"ce4bhb12rcd13ifvqem0","pricing_plan_id":"free"},{"bike_id":"46cccd01-deeb-42ea-bed8-44e0859906a8","system_id":"levelo_inurba_marseille","lat":43.288514,"lon":5.358536,"is_reserved":false,"is_disabled":false,"rental_uris":{"android":"levelo://app?vid=46cccd01-deeb-42ea-bed8-44e0859906a8","ios":"levelo://app?vid=46cccd01-deeb-42ea-bed8-44e0859906a8"},"vehicle_type_id":"4","last_reported":1707286157,"current_range_meters":0,"station_id":"ce4bhb12rcd13ifvqem0","pricing_plan_id":"free"},{"bike_id":"f70399b3-d72a-4908-bad7-bd4c0d6cddd3","system_id":"levelo_inurba_marseille","lat":43.288519,"lon":5.358501,"is_reserved":false,"is_disabled":false,"rental_uris":{"android":"levelo://app?vid=f70399b3-d72a-4908-bad7-bd4c0d6cddd3","ios":"levelo://app?vid=f70399b3-d72a-4908-bad7-bd4c0d6cddd3"},"vehicle_type_id":"4","last_reported":1707286157,"current_range_meters":18800,"station_id":"ce4bhb12rcd13ifvqem0","pricing_plan_id":"free"},{"bike_id":"d4d9d635-cddc-4b39-aa81-ad9c18aee1a9","system_id":"levelo_inurba_marseille","lat":43.28856,"lon":5.358371,"is_reserved":false,"is_disabled":false,"rental_uris":{"android":"levelo://app?vid=d4d9d635-cddc-4b39-aa81-ad9c18aee1a9","ios":"levelo://app?vid=d4d9d635-cddc-4b39-aa81-ad9c18aee1a9"},"vehicle_type_id":"4","last_reported":1707286157,"current_range_meters":5200,"station_id":"ce4bhb12rcd13ifvqem0","pricing_plan_id":"free"},