{"last_updated":1762712011,"ttl":60,"version":"2.2","data":{"bikes":[{"bike_id":"71797dc3-6552-442e-8fa4-5fb49456e8bb","system_id":"levelo_inurba_marseille","lat":43.30297,"lon":5.39202,"is_reserved":false,"is_disabled":true,"rental_uris":{"android":"levelo://app?vid=71797dc3-6552-442e-8fa4-5fb49456e8bb","ios":"levelo://app?vid=71797dc3-6552-442e-8fa4-5fb49456e8bb"},"vehicle_type_id":"4","last_reported":1762712011,"current_range_meters":2800,"station_id":"ce4bgkh2rcd13ifvqbk0","pricing_plan_id":"cebpf4jnsgd1na2vs0mg"},{"bike_id":"b9d796cd-4069-46b7-8bdd-a6a57c6a6ce3","system_id":"levelo_inurba_marseille","lat":43.3014,"lon":5.38777,"is_reserved":false,"is_disabled":false,"rental_uris":{"android":"levelo://app?vid=b9d796cd-4069-46b7-8bdd-a6a57c6a6ce3","ios":"levelo://app?vid=b9d796cd-4069-46b7-8bdd-a6a57c6a6ce3"},"vehicle_type_id":"4","last_reported":1762712011,"current_range_meters":2800,"station_id":"ce4bghh2rcd13ifvqb60","pricing_plan_id":"cebpf4jnsgd1na2vs0mg"},{"bike_id":"1e69bc94-31f9-4fff-b32b-464fb03bb94e","system_id":"levelo_inurba_marseille","lat":43.2799,"lon":5.38742,"is_reserved":false,"is_disabled":true,"rental_uris":{"android":"levelo://app?vid=1e69bc94-31f9-4fff-b32b-464fb03bb94e","ios":"levelo://app?vid=1e69bc94-31f9-4fff-b32b-464fb03bb94e"},"vehicle_type_id":"4","last_reported":1762712011,"current_range_meters":2800,"station_id":"ce4bhg12rcd13ifvqf80","pricing_plan_id":"cebpf4jnsgd1na2vs0mg"},{"bike_id":"5320233e-1cbd-4dc0-aa4e-b8ce6c545386","system_id":"levelo_inurba_marseille","lat":43.22558,"lon":5.41636,"is_reserved":false,"is_disabled":false,"rental_uris":{"android":"levelo://app?vid=5320233e-1cbd-4dc0-aa4e-b8ce6c545386","ios":"levelo://app?vid=5320233e-1cbd-4dc0-aa4e-b8ce6c545386"},"vehicle_type_id":"4","last_reported":1762712011,"current_range_meters":2800,"station_id":"st_d2o4gvlbi1j2169b742g","pricing_plan_id":"cebpf4jnsgd1na2vs0mg"},{"bike_id":"4fa93e58-ad51-41bb-b7cd-c71dad4e22b9","system_id":"levelo_inurba_marseille","lat":43.21191,"lon":5.35077,"is_reserved":false,"is_disabled":true,"rental_uris":{"android":"levelo://app?vid=4fa93e58-ad51-41bb-b7cd-c71dad4e22b9","ios":"levelo://app?vid=4fa93e58-ad51-41bb-b7cd-c71dad4e22b9"},"vehicle_type_id":"4","last_reported":1762712011,"current_range_meters":2800,"station_id":"st_cvj6sg6p6f1abm77japg","pricing_plan_id":"cebpf4jnsgd1na2vs0mg"},{"bike_id":"cf48568c-1823-4111-abbe-b139961c368b","system_id":"levelo_inurba_marseille","lat":43.240772,"lon":5.377524,"is_reserved":false,"is_disabled":false,"rental_uris":{"android":"levelo://app?vid=cf48568c-1823-4111-abbe-b139961c368b","ios":"levelo://app?vid=cf48568c-1823-4111-abbe-b139961c368b"},"vehicle_type_id":"4","last_reported":1762712011,"current_range_meters":2800,"station_id":"ce4bhnp2rcd13ifvqgvg","pricing_plan_id":"cebpf4jnsgd1na2vs0mg"},{"bike_id":"ccc3c0ae-d321-406f-a613-29f9bf56b8ef","system_id":"levelo_inurba_marseille","lat":43.22934,"lon":5.35381,"is_reserved":false,"is_disabled":false,"rental_uris":{"android":"levelo://app?vid=ccc3c0ae-d321-406f-a613-29f9bf56b8ef","ios":"levelo://app?vid=ccc3c0ae-d321-406f-a613-29f9bf56b8ef"},"vehicle_type_id":"4","last_reported":1762712011,"current_range_meters":2800,"station_id":"cpo3532slgdg3j2ikp40","pricing_plan_id":"cebpf4jnsgd1na2vs0mg"},{"bike_id":"d151ff79-4f3d-488f-ab83-2269f7906bf1","system_id":"levelo_inurba_marseille","lat":43.2883,"lon":5.35849,"is_reserved":false,"is_disabled":false,"rental_uris":{"android":"levelo://app?vid=d151ff79-4f3d-488f-ab83-2269f7906bf1","ios":"levelo://app?vid=d151ff79-4f3d-488f-ab83-2269f7906bf1"},"vehicle_type_id":"4","last_reported":1762712011,"current_range_meters":2800,"station_id":"ce4bhb12rcd13ifvqem0","pricing_plan_id":"cebpf4jnsgd1na2vs0mg"},{"bike_id":"84f4a0e3-ea9f-44bb-98e4-8dc79d6baa29","system_id":"levelo_inurba_marseille","lat":43.24648,"lon":5.388985,"is_reserved":false,"is_disabled":false,"rental_uris":{"android":"levelo://app?vid=84f4a0e3-ea9f-44bb-98e4-8dc79d6baa29","ios":"levelo://app?vid=84f4a0e3-ea9f-44bb-98e4-8dc79d6baa29"},"vehicle_type_id":"4","last_reported":1762712011,"current_range_meters":2800,"station_id":"ce4bhg12rcd13ifvqf60","pricing_plan_id":"cebpf4jnsgd1na2vs0mg"},{"bike_id":"f064d69e-1646-445f-a064-2e1f73882071","system_id":"levelo_inurba_marseille","lat":43.33142,"lon":5.37693,"is_reserved":false,"is_disabled":false,"rental_uris":{"android":"levelo://app?vid=f064d69e-1646-445f-a064-2e1f73882071","ios":"levelo://app?vid=f064d69e-1646-445f-a064-2e1f73882071"},"vehicle_type_id":"4","last_reported":1762712011,"current_range_meters":2800,"station_id":"st_d46cu089ee8s73dldbu0","pricing_plan_id":"cebpf4jnsgd1na2vs0mg"},{"bike_id":"dbd7b8b3-b976-450d-8e79-43bd74ca660d","system_id":"levelo_inurba_marseille","lat":43.295544,"lon":5.422917,"is_reserved":false,"is_disabled":false,"rental_uris":{"android":"levelo://app?vid=dbd7b8b3-b976-450d-8e79-43bd74ca660d","ios":"levelo://app?vid=dbd7b8b3-b976-450d-8e79-43bd74ca660d"},"vehicle_type_id":"4","last_reported":1762712011,"current_range_meters":3200,"station_id":"ce4bhph2rcd13ifvqhdg","pricing_plan_id":"cebpf4jnsgd1na2vs0mg"},{"bike_id":"46fbb5eb-95b0-47a1-9499-73b52b087549","system_id":"levelo_inurba_marseille","lat":43.29529,"lon":5.38557,"is_reserved":false,"is_disabled":false,"rental_uris":{"android":"levelo://app?vid=46fbb5eb-95b0-47a1-9499-73b52b087549","ios":"levelo://app?vid=46fbb5eb-95b0-47a1-9499-73b52b087549"},"vehicle_type_id":"4","last_reported":1762712011,"current_range_meters":3200,"station_id":"ce4bgih2rcd13ifvqba0","pricing_plan_id":"cebpf4jnsgd1na2vs0mg"},{"bike_id":"ca5649c9-59f1-4f52-a555-7400b2143da8","system_id":"levelo_inurba_marseille","lat":43.225325,"lon":5.348343,"is_reserved":false,"is_disabled":false,"rental_uris":{"android":"levelo://app?vid=ca5649c9-59f1-4f52-a555-7400b2143da8","ios":"levelo://app?vid=ca5649c9-59f1-4f52-a555-7400b2143da8"},"vehicle_type_id":"4","last_reported":1762712011,"current_range_meters":3200,"station_id":"","pricing_plan_id":"cebpf4jnsgd1na2vs0mg"},{"bike_id":"137e94a9-d9b7-45f7-acb1-1b2f7e4df032","system_id":"levelo_inurba_marseille","lat":43.29604,"lon":5.38102,"is_reserved":false,"is_disabled":false,"rental_uris":{"android":"levelo://app?vid=137e94a9-d9b7-45f7-acb1-1b2f7e4df032","ios":"levelo://app?vid=137e94a9-d9b7-45f7-acb1-1b2f7e4df032"},"vehicle_type_id":"4","last_reported":1762712011,"current_range_meters":3200,"station_id":"ce4bgl12rcd13ifvqbo0","pricing_plan_id":"cebpf4jnsgd1na2vs0mg"},{"bike_id":"f5d2272d-8d75-4267-906e-d5d9c342cd35","system_id":"levelo_inurba_marseille","lat":43.26937,"lon":5.40254,"is_reserved":false,"is_disabled":false,"rental_uris":{"android":"levelo://app?vid=f5d2272d-8d75-4267-906e-d5d9c342cd35","ios":"levelo://app?vid=f5d2272d-8d75-4267-906e-d5d9c342cd35"},"vehicle_type_id":"4","last_reported":1762712011,"current_range_meters":3200,"station_id":"cjm6bp8fraef2m0cb0m0","pricing_plan_id":"cebpf4jnsgd1na2vs0mg"},{"bike_id":"bab182a0-c03b-4bf3-b853-bf377d7366d6","system_id":"levelo_inurba_marseille","lat":43.30127,"lon":5.387876,"is_reserved":false,"is_disabled":false,"rental_uris":{"android":"levelo://app?vid=bab182a0-c03b-4bf3-b853-bf377d7366d6","ios":"levelo://app?vid=bab182a0-c03b-4bf3-b853-bf377d7366d6"},"vehicle_type_id":"4","last_reported":1762712011,"current_range_meters":3200,"station_id":"","pricing_plan_id":"cebpf4jnsgd1na2vs0mg"},{"bike_id":"960ecc61-3b27-4ba4-9468-024e06aa765a","system_id":"levelo_inurba_marseille","lat":43.303041,"lon":5.392173,"is_reserved":false,"is_disabled":false,"rental_uris":{"android":"levelo://app?vid=960ecc61-3b27-4ba4-9468-024e06aa765a","ios":"levelo://app?vid=960ecc61-3b27-4ba4-9468-024e06aa765a"},"vehicle_type_id":"4","last_reported":1762712011,"current_range_meters":3600,"station_id":"ce4bgkh2rcd13ifvqbk0","pricing_plan_id":"cebpf4jnsgd1na2vs0mg"},{"bike_id":"846b6c4b-1c4a-4a9a-9470-1fcf775aab85","system_id":"levelo_inurba_marseille","lat":43.28698,"lon":5.37381,"is_reserved":false,"is_disabled":false,"rental_uris":{"android":"levelo://app?vid=846b6c4b-1c4a-4a9a-9470-1fcf775aab85","ios":"levelo://app?vid=846b6c4b-1c4a-4a9a-9470-1fcf775aab85"},"vehicle_type_id":"4","last_reported":1762712011,"current_range_meters":3600,"station_id":"ce4bh3p2rcd13ifvqdq0","pricing_plan_id":"cebpf4jnsgd1na2vs0mg"},{"bike_id":"0654eb57-9895-4847-8803-3caae6d17b47","system_id":"levelo_inurba_marseille","lat":43.2253,"lon":5.34837,"is_reserved":false,"is_disabled":false,"rental_uris":{"android":"levelo://app?vid=0654eb57-9895-4847-8803-3caae6d17b47","ios":"levelo://app?vid=0654eb57-9895-4847-8803-3caae6d17b47"},"vehicle_type_id":"4","last_reported":1762712011,"current_range_meters":3600,"station_id":"","pricing_plan_id":"cebpf4jnsgd1na2vs0mg"},{"bike_id":"73b0fdd1-7ebd-4734-8aa9-ac97785e3102","system_id":"levelo_inurba_marseille","lat":43.303049,"lon":5.392096,"is_reserved":false,"is_disabled":false,"rental_uris":{"android":"levelo://app?vid=73b0fdd1-7ebd-4734-8aa9-ac97785e3102","ios":"levelo://app?vid=73b0fdd1-7ebd-4734-8aa9-ac97785e3102"},"vehicle_type_id":"4","last_reported":1762712011,"current_range_meters":3600,"station_id":"ce4bgkh2rcd13ifvqbk0","pricing_plan_id":"cebpf4jnsgd1na2vs0mg"},{"bike_id":"224569b9-f377-4b34-9a13-f95795992c8b","system_id":"levelo_inurba_marseille","lat":43.28449,"lon":5.39198,"is_reserved":false,"is_disabled":false,"rental_uris":{"android":"levelo://app?vid=224569b9-f377-4b34-9a13-f95795992c8b","ios":"levelo://app?vid=224569b9-f377-4b34-9a13-f95795992c8b"},"vehicle_type_id":"4","last_reported":1762712011,"current_range_meters":3600,"station_id":"ce4bhoh2rcd13ifvqh5g","pricing_plan_id":"cebpf4jnsgd1na2vs0mg"},{"bike_id":"45539b52-e5c9-49b6-85a7-e30d01e90d60","system_id":"levelo_inurba_marseille","lat":43.29244,"lon":5.38437,"is_reserved":false,"is_disabled":true,"rental_uris":{"android":"levelo://app?vid=45539b52-e5c9-49b6-85a7-e30d01e90d60","ios":"levelo://app?vid=45539b52-e5c9-49b6-85a7-e30d01e90d60"},"vehicle_type_id":"4","last_reported":1762712011,"current_range_meters":3600,"station_id":"ce4bh692rcd13ifvqea0","pricing_plan_id":"cebpf4jnsgd1na2vs0mg"},{"bike_id":"ec5ac57e-a7ae-4c70-842f-51abe4665844","system_id":"levelo_inurba_marseille","lat":43.292019,"lon":5.393168,"is_reserved":false,"is_disabled":false,"rental_uris":{"android":"levelo://app?vid=ec5ac57e-a7ae-4c70-842f-51abe4665844","ios":"levelo://app?vid=ec5ac57e-a7ae-4c70-842f-51abe4665844"},"vehicle_type_id":"4","last_reported":1762712011,"current_range_meters":3600,"station_id":"ce4bh192rcd13ifvqdd0","pricing_plan_id":"cebpf4jnsgd1na2vs0mg"},{"bike_id":"a0ea519d-554f-42a0-93a3-d4c181552c78","system_id":"levelo_inurba_marseille","lat":43.31273,"lon":5.37774,"is_reserved":false,"is_disabled":false,"rental_uris":{"android":"levelo://app?vid=a0ea519d-554f-42a0-93a3-d4c181552c78","ios":"levelo://app?vid=a0ea519d-554f-42a0-93a3-d4c181552c78"},"vehicle_type_id":"4","last_reported":1762712011,"current_range_meters":3600,"station_id":"","pricing_plan_id":"cebpf4jnsgd1na2vs0mg"},{"bike_id":"7f1d5e1a-ff66-4907-8506-06736c2d3208","system_id":"levelo_inurba_marseille","lat":43.25824,"lon":5.39439,"is_reserved":false,"is_disabled":false,"rental_uris":{"android":"levelo://app?vid=7f1d5e1a-ff66-4907-8506-06736c2d3208","ios":"levelo://app?vid=7f1d5e1a-ff66-4907-8506-06736c2d3208"},"vehicle_type_id":"4","last_reported":1762712011,"current_range_meters":4000,"station_id":"ce4bhip2rcd13ifvqft0","pricing_plan_id":"cebpf4jnsgd1na2vs0mg"},{"bike_id":"9deaf2a3-5df7-4dbe-aa8a-05daadbd216f","system_id":"levelo_inurba_marseille","lat":43.2293,"lon":5.35373,"is_reserved":false,"is_disabled":false,"rental_uris":{"android":"levelo://app?vid=9deaf2a3-5df7-4dbe-aa8a-05daadbd216f","ios":"levelo://app?vid=9deaf2a3-5df7-4dbe-aa8a-05daadbd216f"},"vehicle_type_id":"4","last_reported":1762712011,"current_range_meters":4000,"station_id":"cpo3532slgdg3j2ikp40","pricing_plan_id":"cebpf4jnsgd1na2vs0mg"},{"bike_id":"64921815-0d90-47e2-95b6-b5073223f3e6","system_id":"levelo_inurba_marseille","lat":43.2885,"lon":5.39307,"is_reserved":false,"is_disabled":false,"rental_uris":{"android":"levelo://app?vid=64921815-0d90-47e2-95b6-b5073223f3e6","ios":"levelo://app?vid=64921815-0d90-47e2-95b6-b5073223f3e6"},"vehicle_type_id":"4","last_reported":1762712011,"current_range_meters":4000,"station_id":"ce4bh2p2rcd13ifvqdi0","pricing_plan_id":"cebpf4jnsgd1na2vs0mg"},{"bike_id":"a00bf54f-a9af-497e-aad0-36ccd3047d0c","system_id":"levelo_inurba_marseille","lat":43.297126,"lon":5.379838,"is_reserved":false,"is_disabled":false,"rental_uris":{"android":"levelo://app?vid=a00bf54f-a9af-497e-aad0-36ccd3047d0c","ios":"levelo://app?vid=a00bf54f-a9af-497e-aad0-36ccd3047d0c"},"vehicle_type_id":"4","last_reported":1762712011,"current_range_meters":4000,"station_id":"ce4bgip2rcd13ifvqbb0","pricing_plan_id":"cebpf4jnsgd1na2vs0mg"},{"bike_id":"1e26ad5b-88eb-4d2f-9ec4-09d8e90d73b4","system_id":"levelo_inurba_marseille","lat":43.30302,"lon":5.40422,"is_reserved":false,"is_disabled":false,"rental_uris":{"android":"levelo://app?vid=1e26ad5b-88eb-4d2f-9ec4-09d8e90d73b4","ios":"levelo://app?vid=1e26ad5b-88eb-4d2f-9ec4-09d8e90d73b4"},"vehicle_type_id":"4","last_reported":1762712011,"current_range_meters":4000,"station_id":"ce4bh012rcd13ifvqd10","pricing_plan_id":"cebpf4jnsgd1na2vs0mg"},{"bike_id":"f4c80c42-35c9-4adb-b25c-9395fd733bbc","system_id":"levelo_inurba_marseille","lat":43.309509,"lon":5.39023,"is_reserved":false,"is_disabled":false,"rental_uris":{"android":"levelo://app?vid=f4c80c42-35c9-4adb-b25c-9395fd733bbc","ios":"levelo://app?vid=f4c80c42-35c9-4adb-b25c-9395fd733bbc"},"vehicle_type_id":"4","last_reported":1762712011,"current_range_meters":4000,"station_id":"ce4bgup2rcd13ifvqco0","pricing_plan_id":"cebpf4jnsgd1na2vs0mg"},{"bike_id":"452c1541-4e39-448f-bb33-8924b33ef654","system_id":"levelo_inurba_marseille","lat":43.29191,"lon":5.39324,"is_reserved":false,"is_disabled":false,"rental_uris":{"android":"levelo://app?vid=452c1541-4e39-448f-bb33-8924b33ef654","ios":"levelo://app?vid=452c1541-4e39-448f-bb33-8924b33ef654"},"vehicle_type_id":"4","last_reported":1762712011,"current_range_meters":4000,"station_id":"ce4bh192rcd13ifvqdd0","pricing_plan_id":"cebpf4jnsgd1na2vs0mg"},{"bike_id":"e88dfb4f-0061-4eb1-b11b-aed4b3c65357","system_id":"levelo_inurba_marseille","lat":43.307752,"lon":5.376495,"is_reserved":false,"is_disabled":false,"rental_uris":{"android":"levelo://app?vid=e88dfb4f-0061-4eb1-b11b-aed4b3c65357","ios":"levelo://app?vid=e88dfb4f-0061-4eb1-b11b-aed4b3c65357"},"vehicle_type_id":"4","last_reported":1762712011,"current_range_meters":4000,"station_id":"ce4bgr92rcd13ifvqc7g","pricing_plan_id":"cebpf4jnsgd1na2vs0mg"},{"bike_id":"590a4c07-8ca4-4e4d-8751-46c9db908a72","system_id":"levelo_inurba_marseille","lat":43.27034,"lon":5.38761,"is_reserved":false,"is_disabled":false,"rental_uris":{"android":"levelo://app?vid=590a4c07-8ca4-4e4d-8751-46c9db908a72","ios":"levelo://app?vid=590a4c07-8ca4-4e4d-8751-46c9db908a72"},"vehicle_type_id":"4","last_reported":1762712011,"current_range_meters":4400,"station_id":"","pricing_plan_id":"cebpf4jnsgd1na2vs0mg"},{"bike_id":"5c17ed12-8897-4f84-bbfc-85419a7f8038","system_id":"levelo_inurba_marseille","lat":43.2709,"lon":5.39474,"is_reserved":false,"is_disabled":false,"rental_uris":{"android":"levelo://app?vid=5c17ed12-8897-4f84-bbfc-85419a7f8038","ios":"levelo://app?vid=5c17ed12-8897-4f84-bbfc-85419a7f8038"},"vehicle_type_id":"4","last_reported":1762712011,"current_range_meters":4400,"station_id":"","pricing_plan_id":"cebpf4jnsgd1na2vs0mg"},{"bike_id":"b076bb49-79d0-4050-9df8-96e0b7cc4c1d","system_id":"levelo_inurba_marseille","lat":43.29279,"lon":5.36846,"is_reserved":false,"is_disabled":false,"rental_uris":{"android":"levelo://app?vid=b076bb49-79d0-4050-9df8-96e0b7cc4c1d","ios":"levelo://app?vid=b076bb49-79d0-4050-9df8-96e0b7cc4c1d"},"vehicle_type_id":"4","last_reported":1762712011,"current_range_meters":4400,"station_id":"ce4bhbp2rcd13ifvqesg","pricing_plan_id":"cebpf4jnsgd1na2vs0mg"},{"bike_id":"5223422f-2a17-4a87-a33b-28a40e9a9482","system_id":"levelo_inurba_marseille","lat":43.29283,"lon":5.36847,"is_reserved":false,"is_disabled":false,"rental_uris":{"android":"levelo://app?vid=5223422f-2a17-4a87-a33b-28a40e9a9482","ios":"levelo://app?vid=5223422f-2a17-4a87-a33b-28a40e9a9482"},"vehicle_type_id":"4","last_reported":1762712011,"current_range_meters":4400,"station_id":"ce4bhbp2rcd13ifvqesg","pricing_plan_id":"cebpf4jnsgd1na2vs0mg"},{"bike_id":"d098a764-c001-4ca1-82b7-4b6fc72bec98","system_id":"levelo_inurba_marseille","lat":43.30326,"lon":5.40429,"is_reserved":false,"is_disabled":false,"rental_uris":{"android":"levelo://app?vid=d098a764-c001-4ca1-82b7-4b6fc72bec98","ios":"levelo://app?vid=d098a764-c001-4ca1-82b7-4b6fc72bec98"},"vehicle_type_id":"4","last_reported":1762712011,"current_range_meters":4800,"station_id":"ce4bh012rcd13ifvqd10","pricing_plan_id":"cebpf4jnsgd1na2vs0mg"},{"bike_id":"d2c38f6b-f11a-4efd-83c1-ee097a200694","system_id":"levelo_inurba_marseille","lat":43.28417,"lon":5.37505,"is_reserved":false,"is_disabled":false,"rental_uris":{"android":"levelo://app?vid=d2c38f6b-f11a-4efd-83c1-ee097a200694","ios":"levelo://app?vid=d2c38f6b-f11a-4efd-83c1-ee097a200694"},"vehicle_type_id":"4","last_reported":1762712011,"current_range_meters":4800,"station_id":"ce4bh412rcd13ifvqds0","pricing_plan_id":"cebpf4jnsgd1na2vs0mg"},{"bike_id":"26aad628-bd01-4664-890e-ba85447bad9f","system_id":"levelo_inurba_marseille","lat":43.303332,"lon":5.40429,"is_reserved":false,"is_disabled":true,"rental_uris":{"android":"levelo://app?vid=26aad628-bd01-4664-890e-ba85447bad9f","ios":"levelo://app?vid=26aad628-bd01-4664-890e-ba85447bad9f"},"vehicle_type_id":"4","last_reported":1762712011,"current_range_meters":4800,"station_id":"ce4bh012rcd13ifvqd10","pricing_plan_id":"cebpf4jnsgd1na2vs0mg"},{"bike_id":"05937874-c253-4c0f-be0c-298676fad6ed","system_id":"levelo_inurba_marseille","lat":43.28613,"lon":5.35107,"is_reserved":false,"is_disabled":false,"rental_uris":{"android":"levelo://app?vid=05937874-c253-4c0f-be0c-298676fad6ed","ios":"levelo://app?vid=05937874-c253-4c0f-be0c-298676fad6ed"},"vehicle_type_id":"4","last_reported":1762712011,"current_range_meters":4800,"station_id":"ce4bhch2rcd13ifvqeug","pricing_plan_id":"cebpf4jnsgd1na2vs0mg"},{"bike_id":"6c6f65b3-0314-4d51-ad33-575d2b20e8f4","system_id":"levelo_inurba_marseille","lat":43.21738,"lon":5.34608,"is_reserved":false,"is_disabled":true,"rental_uris":{"android":"levelo://app?vid=6c6f65b3-0314-4d51-ad33-575d2b20e8f4","ios":"levelo://app?vid=6c6f65b3-0314-4d51-ad33-575d2b20e8f4"},"vehicle_type_id":"4","last_reported":1762712011,"current_range_meters":4800,"station_id":"st_cvj6r9ubvosntc0bgbag","pricing_plan_id":"cebpf4jnsgd1na2vs0mg"},{"bike_id":"b05048b6-3636-4628-97b9-678771374061","system_id":"levelo_inurba_marseille","lat":43.30451,"lon":5.36744,"is_reserved":false,"is_disabled":true,"rental_uris":{"android":"levelo://app?vid=b05048b6-3636-4628-97b9-678771374061","ios":"levelo://app?vid=b05048b6-3636-4628-97b9-678771374061"},"vehicle_type_id":"4","last_reported":1762712011,"current_range_meters":4800,"station_id":"","pricing_plan_id":"cebpf4jnsgd1na2vs0mg"},{"bike_id":"b1928360-803f-46d9-aad7-080c57d58b73","system_id":"levelo_inurba_marseille","lat":43.310027,"lon":5.383136,"is_reserved":false,"is_disabled":false,"rental_uris":{"android":"levelo://app?vid=b1928360-803f-46d9-aad7-080c57d58b73","ios":"levelo://app?vid=b1928360-803f-46d9-aad7-080c57d58b73"},"vehicle_type_id":"4","last_reported":1762712011,"current_range_meters":4800,"station_id":"ce4bgv92rcd13ifvqcr0","pricing_plan_id":"cebpf4jnsgd1na2vs0mg"},{"bike_id":"9f0933f5-159a-4b72-a8a8-f7e22084f40d","system_id":"levelo_inurba_marseille","lat":43.29306,"lon":5.37455,"is_reserved":false,"is_disabled":false,"rental_uris":{"android":"levelo://app?vid=9f0933f5-159a-4b72-a8a8-f7e22084f40d","ios":"levelo://app?vid=9f0933f5-159a-4b72-a8a8-f7e22084f40d"},"vehicle_type_id":"4","last_reported":1762712011,"current_range_meters":4800,"station_id":"ce4bgi12rcd13ifvqb70","pricing_plan_id":"cebpf4jnsgd1na2vs0mg"},{"bike_id":"ca79c8a7-6236-409d-8e77-bc780d3b08f0","system_id":"levelo_inurba_marseille","lat":43.29058,"lon":5.35904,"is_reserved":false,"is_disabled":false,"rental_uris":{"android":"levelo://app?vid=ca79c8a7-6236-409d-8e77-bc780d3b08f0","ios":"levelo://app?vid=ca79c8a7-6236-409d-8e77-bc780d3b08f0"},"vehicle_type_id":"4","last_reported":1762712011,"current_range_meters":4800,"station_id":"ce4bha92rcd13ifvqeg0","pricing_plan_id":"cebpf4jnsgd1na2vs0mg"},{"bike_id":"d13f7aac-3326-47eb-8c83-0485dd333747","system_id":"levelo_inurba_marseille","lat":43.304728,"lon":5.392701,"is_reserved":false,"is_disabled":false,"rental_uris":{"android":"levelo://app?vid=d13f7aac-3326-47eb-8c83-0485dd333747","ios":"levelo://app?vid=d13f7aac-3326-47eb-8c83-0485dd333747"},"vehicle_type_id":"4","last_reported":1762712011,"current_range_meters":4800,"station_id":"","pricing_plan_id":"cebpf4jnsgd1na2vs0mg"},{"bike_id":"549cd593-1672-463b-931a-93ed20086de4","system_id":"levelo_inurba_marseille","lat":43.30579,"lon":5.39349,"is_reserved":false,"is_disabled":false,"rental_uris":{"android":"levelo://app?vid=549cd593-1672-463b-931a-93ed20086de4","ios":"levelo://app?vid=549cd593-1672-463b-931a-93ed20086de4"},"vehicle_type_id":"4","last_reported":1762712011,"current_range_meters":5600,"station_id":"ce4bh0p2rcd13ifvqd80","pricing_plan_id":"cebpf4jnsgd1na2vs0mg"},{"bike_id":"78b4c311-b3d0-4884-b0da-6082785efb0e","system_id":"levelo_inurba_marseille","lat":43.28485,"lon":5.48384,"is_reserved":false,"is_disabled":false,"rental_uris":{"android":"levelo://app?vid=78b4c311-b3d0-4884-b0da-6082785efb0e","ios":"levelo://app?vid=78b4c311-b3d0-4884-b0da-6082785efb0e"},"vehicle_type_id":"4","last_reported":1762712011,"current_range_meters":5600,"station_id":"","pricing_plan_id":"cebpf4jnsgd1na2vs0mg"},{"bike_id":"152f8a5d-6698-490f-91c0-5e6e0b918ff8","system_id":"levelo_inurba_marseille","lat":43.32481,"lon":5.36574,"is_reserved":false,"is_disabled":false,"rental_uris":{"android":"levelo://app?vid=152f8a5d-6698-490f-91c0-5e6e0b918ff8","ios":"levelo://app?vid=152f8a5d-6698-490f-91c0-5e6e0b918ff8"},"vehicle_type_id":"4","last_reported":1762712011,"current_range_meters":5600,"station_id":"ce4bhs12rcd13ifvqhvg","pricing_plan_id":"cebpf4jnsgd1na2vs0mg"},{"bike_id":"533d8c9a-be7d-4569-9443-68f2bdd6df08","system_id":"levelo_inurba_marseille","lat":43.286682,"lon":5.386724,"is_reserved":false,"is_disabled":false,"rental_uris":{"android":"levelo://app?vid=533d8c9a-be7d-4569-9443-68f2bdd6df08","ios":"levelo://app?vid=533d8c9a-be7d-4569-9443-68f2bdd6df08"},"vehicle_type_id":"4","last_reported":1762712011,"current_range_meters":5600,"station_id":"ce4bh492rcd13ifvqdug","pricing_plan_id":"cebpf4jnsgd1na2vs0mg"},{"bike_id":"a77cd884-7438-4db7-92ce-52e3989fba0f","system_id":"levelo_inurba_marseille","lat":43.25913,"lon":5.40902,"is_reserved":false,"is_disabled":false,"rental_uris":{"android":"levelo://app?vid=a77cd884-7438-4db7-92ce-52e3989fba0f","ios":"levelo://app?vid=a77cd884-7438-4db7-92ce-52e3989fba0f"},"vehicle_type_id":"4","last_reported":1762712011,"current_range_meters":5600,"station_id":"ce4bhm92rcd13ifvqglg","pricing_plan_id":"cebpf4jnsgd1na2vs0mg"},{"bike_id":"4e46764b-172e-4219-94b9-7bd84d6dcb0b","system_id":"levelo_inurba_marseille","lat":43.28575,"lon":5.39492,"is_reserved":false,"is_disabled":false,"rental_uris":{"android":"levelo://app?vid=4e46764b-172e-4219-94b9-7bd84d6dcb0b","ios":"levelo://app?vid=4e46764b-172e-4219-94b9-7bd84d6dcb0b"},"vehicle_type_id":"4","last_reported":1762712011,"current_range_meters":5600,"station_id":"ce4bh292rcd13ifvqdg0","pricing_plan_id":"cebpf4jnsgd1na2vs0mg"},{"bike_id":"d50e7376-490b-4475-bb3d-471dfbdf3a35","system_id":"levelo_inurba_marseille","lat":43.21745,"lon":5.34606,"is_reserved":false,"is_disabled":false,"rental_uris":{"android":"levelo://app?vid=d50e7376-490b-4475-bb3d-471dfbdf3a35","ios":"levelo://app?vid=d50e7376-490b-4475-bb3d-471dfbdf3a35"},"vehicle_type_id":"4","last_reported":1762712011,"current_range_meters":5600,"station_id":"","pricing_plan_id":"cebpf4jnsgd1na2vs0mg"},{"bike_id":"5320d673-8f17-42b0-b637-4e20de7189dd","system_id":"levelo_inurba_marseille","lat":43.29953,"lon":5.36562,"is_reserved":false,"is_disabled":true,"rental_uris":{"android":"levelo://app?vid=5320d673-8f17-42b0-b637-4e20de7189dd","ios":"levelo://app?vid=5320d673-8f17-42b0-b637-4e20de7189dd"},"vehicle_type_id":"4","last_reported":1762712011,"current_range_meters":6000,"station_id":"ce4bgm92rcd13ifvqbr0","pricing_plan_id":"cebpf4jnsgd1na2vs0mg"},{"bike_id":"9dda5635-a624-436d-9b12-22fb00320230","system_id":"levelo_inurba_marseille","lat":43.29322,"lon":5.37155,"is_reserved":false,"is_disabled":false,"rental_uris":{"android":"levelo://app?vid=9dda5635-a624-436d-9b12-22fb00320230","ios":"levelo://app?vid=9dda5635-a624-436d-9b12-22fb00320230"},"vehicle_type_id":"4","last_reported":1762712011,"current_range_meters":6000,"station_id":"","pricing_plan_id":"cebpf4jnsgd1na2vs0mg"},{"bike_id":"29957527-d4ee-49a7-b561-7e1ae2c0cee5","system_id":"levelo_inurba_marseille","lat":43.29765,"lon":5.42774,"is_reserved":false,"is_disabled":false,"rental_uris":{"android":"levelo://app?vid=29957527-d4ee-49a7-b561-7e1ae2c0cee5","ios":"levelo://app?vid=29957527-d4ee-49a7-b561-7e1ae2c0cee5"},"vehicle_type_id":"4","last_reported":1762712011,"current_range_meters":6000,"station_id":"st_d3md5207bmas73dh9klg","pricing_plan_id":"cebpf4jnsgd1na2vs0mg"},{"bike_id":"42ffc309-6178-47b6-ab94-85dcc0e3c0c8","system_id":"levelo_inurba_marseille","lat":43.29865,"lon":5.39741,"is_reserved":false,"is_disabled":false,"rental_uris":{"android":"levelo://app?vid=42ffc309-6178-47b6-ab94-85dcc0e3c0c8","ios":"levelo://app?vid=42ffc309-6178-47b6-ab94-85dcc0e3c0c8"},"vehicle_type_id":"4","last_reported":1762712011,"current_range_meters":6000,"station_id":"ce4bh0h2rcd13ifvqd50","pricing_plan_id":"cebpf4jnsgd1na2vs0mg"},{"bike_id":"099046ce-9f58-49ca-b110-6d22cb9ff48f","system_id":"levelo_inurba_marseille","lat":43.28938,"lon":5.36641,"is_reserved":false,"is_disabled":false,"rental_uris":{"android":"levelo://app?vid=099046ce-9f58-49ca-b110-6d22cb9ff48f","ios":"levelo://app?vid=099046ce-9f58-49ca-b110-6d22cb9ff48f"},"vehicle_type_id":"4","last_reported":1762712011,"current_range_meters":6000,"station_id":"ce4bhap2rcd13ifvqek0","pricing_plan_id":"cebpf4jnsgd1na2vs0mg"},{"bike_id":"add2af16-1f02-4753-8a1e-2890a4c56787","system_id":"levelo_inurba_marseille","lat":43.290338,"lon":5.386329,"is_reserved":false,"is_disabled":false,"rental_uris":{"android":"levelo://app?vid=add2af16-1f02-4753-8a1e-2890a4c56787","ios":"levelo://app?vid=add2af16-1f02-4753-8a1e-2890a4c56787"},"vehicle_type_id":"4","last_reported":1762712011,"current_range_meters":6000,"station_id":"","pricing_plan_id":"cebpf4jnsgd1na2vs0mg"},{"bike_id":"ee31cebd-a9c9-4f15-ab96-a7cd4fc2eda7","system_id":"levelo_inurba_marseille","lat":43.2991,"lon":5.38151,"is_reserved":false,"is_disabled":false,"rental_uris":{"android":"levelo://app?vid=ee31cebd-a9c9-4f15-ab96-a7cd4fc2eda7","ios":"levelo://app?vid=ee31cebd-a9c9-4f15-ab96-a7cd4fc2eda7"},"vehicle_type_id":"4","last_reported":1762712011,"current_range_meters":6000,"station_id":"ce4bgj12rcd13ifvqbc0","pricing_plan_id":"cebpf4jnsgd1na2vs0mg"},{"bike_id":"c6dc0a74-3172-4942-8148-0964cb9f4bfa","system_id":"levelo_inurba_marseille","lat":43.26939,"lon":5.40262,"is_reserved":false,"is_disabled":false,"rental_uris":{"android":"levelo://app?vid=c6dc0a74-3172-4942-8148-0964cb9f4bfa","ios":"levelo://app?vid=c6dc0a74-3172-4942-8148-0964cb9f4bfa"},"vehicle_type_id":"4","last_reported":1762712011,"current_range_meters":6000,"station_id":"cjm6bp8fraef2m0cb0m0","pricing_plan_id":"cebpf4jnsgd1na2vs0mg"},{"bike_id":"95565d88-4e0c-4b5d-b6d1-9a4c73bcb1f1","system_id":"levelo_inurba_marseille","lat":43.33756,"lon":5.37418,"is_reserved":false,"is_disabled":false,"rental_uris":{"android":"levelo://app?vid=95565d88-4e0c-4b5d-b6d1-9a4c73bcb1f1","ios":"levelo://app?vid=95565d88-4e0c-4b5d-b6d1-9a4c73bcb1f1"},"vehicle_type_id":"4","last_reported":1762712011,"current_range_meters":6000,"station_id":"","pricing_plan_id":"cebpf4jnsgd1na2vs0mg"},{"bike_id":"7bf6bc91-d593-4c49-a8ea-3bf6b510d01c","system_id":"levelo_inurba_marseille","lat":43.28704,"lon":5.39997,"is_reserved":false,"is_disabled":false,"rental_uris":{"android":"levelo://app?vid=7bf6bc91-d593-4c49-a8ea-3bf6b510d01c","ios":"levelo://app?vid=7bf6bc91-d593-4c49-a8ea-3bf6b510d01c"},"vehicle_type_id":"4","last_reported":1762712011,"current_range_meters":6400,"station_id":"ce4bho92rcd13ifvqh3g","pricing_plan_id":"cebpf4jnsgd1na2vs0mg"},{"bike_id":"382f597e-181c-4839-b1de-04339df9aa55","system_id":"levelo_inurba_marseille","lat":43.26802,"lon":5.40246,"is_reserved":false,"is_disabled":true,"rental_uris":{"android":"levelo://app?vid=382f597e-181c-4839-b1de-04339df9aa55","ios":"levelo://app?vid=382f597e-181c-4839-b1de-04339df9aa55"},"vehicle_type_id":"4","last_reported":1762712011,"current_range_meters":6400,"station_id":"ce501612rcd8frsf0b60","pricing_plan_id":"cebpf4jnsgd1na2vs0mg"},{"bike_id":"b4f3e2c3-b646-4e1c-b01e-391ad05e0328","system_id":"levelo_inurba_marseille","lat":43.28054,"lon":5.36946,"is_reserved":false,"is_disabled":false,"rental_uris":{"android":"levelo://app?vid=b4f3e2c3-b646-4e1c-b01e-391ad05e0328","ios":"levelo://app?vid=b4f3e2c3-b646-4e1c-b01e-391ad05e0328"},"vehicle_type_id":"4","last_reported":1762712011,"current_range_meters":6400,"station_id":"ce4bha12rcd13ifvqef0","pricing_plan_id":"cebpf4jnsgd1na2vs0mg"},{"bike_id":"d60c655d-c217-4a4c-98d3-6144bc8fd771","system_id":"levelo_inurba_marseille","lat":43.2845,"lon":5.39204,"is_reserved":false,"is_disabled":false,"rental_uris":{"android":"levelo://app?vid=d60c655d-c217-4a4c-98d3-6144bc8fd771","ios":"levelo://app?vid=d60c655d-c217-4a4c-98d3-6144bc8fd771"},"vehicle_type_id":"4","last_reported":1762712011,"current_range_meters":6400,"station_id":"ce4bhoh2rcd13ifvqh5g","pricing_plan_id":"cebpf4jnsgd1na2vs0mg"},{"bike_id":"44485505-8f18-4eab-bcdc-0d50bcdccc8f","system_id":"levelo_inurba_marseille","lat":43.278283,"lon":5.392087,"is_reserved":false,"is_disabled":false,"rental_uris":{"android":"levelo://app?vid=44485505-8f18-4eab-bcdc-0d50bcdccc8f","ios":"levelo://app?vid=44485505-8f18-4eab-bcdc-0d50bcdccc8f"},"vehicle_type_id":"4","last_reported":1762712011,"current_range_meters":6400,"station_id":"ce4bhjp2rcd13ifvqga0","pricing_plan_id":"cebpf4jnsgd1na2vs0mg"},{"bike_id":"84a52735-459d-4dd4-ac24-d2f20030bbf2","system_id":"levelo_inurba_marseille","lat":43.27995,"lon":5.41661,"is_reserved":false,"is_disabled":false,"rental_uris":{"android":"levelo://app?vid=84a52735-459d-4dd4-ac24-d2f20030bbf2","ios":"levelo://app?vid=84a52735-459d-4dd4-ac24-d2f20030bbf2"},"vehicle_type_id":"4","last_reported":1762712011,"current_range_meters":6400,"station_id":"ce4bho12rcd13ifvqh1g","pricing_plan_id":"cebpf4jnsgd1na2vs0mg"},{"bike_id":"c3d92383-a21a-4257-84a1-4edbe4f24ff9","system_id":"levelo_inurba_marseille","lat":43.26491,"lon":5.40938,"is_reserved":false,"is_disabled":false,"rental_uris":{"android":"levelo://app?vid=c3d92383-a21a-4257-84a1-4edbe4f24ff9","ios":"levelo://app?vid=c3d92383-a21a-4257-84a1-4edbe4f24ff9"},"vehicle_type_id":"4","last_reported":1762712011,"current_range_meters":6400,"station_id":"","pricing_plan_id":"cebpf4jnsgd1na2vs0mg"},{"bike_id":"536f8472-f184-4a36-835d-ba9309d48445","system_id":"levelo_inurba_marseille","lat":43.305946,"lon":5.39395,"is_reserved":false,"is_disabled":false,"rental_uris":{"android":"levelo://app?vid=536f8472-f184-4a36-835d-ba9309d48445","ios":"levelo://app?vid=536f8472-f184-4a36-835d-ba9309d48445"},"vehicle_type_id":"4","last_reported":1762712011,"current_range_meters":6400,"station_id":"ce4bho92rcd13ifvqh3g","pricing_plan_id":"cebpf4jnsgd1na2vs0mg"},{"bike_id":"86e24b5e-424a-4397-bfb3-92a09cdcf7cb","system_id":"levelo_inurba_marseille","lat":43.29594,"lon":5.381,"is_reserved":false,"is_disabled":false,"rental_uris":{"android":"levelo://app?vid=86e24b5e-424a-4397-bfb3-92a09cdcf7cb","ios":"levelo://app?vid=86e24b5e-424a-4397-bfb3-92a09cdcf7cb"},"vehicle_type_id":"4","last_reported":1762712011,"current_range_meters":6400,"station_id":"ce4bgl12rcd13ifvqbo0","pricing_plan_id":"cebpf4jnsgd1na2vs0mg"},{"bike_id":"bbf4d01f-53c7-4861-88cb-f79b104424c4","system_id":"levelo_inurba_marseille","lat":43.32373,"lon":5.38877,"is_reserved":false,"is_disabled":false,"rental_uris":{"android":"levelo://app?vid=bbf4d01f-53c7-4861-88cb-f79b104424c4","ios":"levelo://app?vid=bbf4d01f-53c7-4861-88cb-f79b104424c4"},"vehicle_type_id":"4","last_reported":1762712011,"current_range_meters":6400,"station_id":"ce4bhqp2rcd13ifvqhog","pricing_plan_id":"cebpf4jnsgd1na2vs0mg"},{"bike_id":"d2b9b702-7f96-40a9-902a-b50d4309c214","system_id":"levelo_inurba_marseille","lat":43.30197,"lon":5.36612,"is_reserved":false,"is_disabled":false,"rental_uris":{"android":"levelo://app?vid=d2b9b702-7f96-40a9-902a-b50d4309c214","ios":"levelo://app?vid=d2b9b702-7f96-40a9-902a-b50d4309c214"},"vehicle_type_id":"4","last_reported":1762712011,"current_range_meters":6800,"station_id":"ce4bgrh2rcd13ifvqc8g","pricing_plan_id":"cebpf4jnsgd1na2vs0mg"},{"bike_id":"9184ba39-fdaa-49e7-acb6-c14b6c204d8e","system_id":"levelo_inurba_marseille","lat":43.30318,"lon":5.40436,"is_reserved":false,"is_disabled":false,"rental_uris":{"android":"levelo://app?vid=9184ba39-fdaa-49e7-acb6-c14b6c204d8e","ios":"levelo://app?vid=9184ba39-fdaa-49e7-acb6-c14b6c204d8e"},"vehicle_type_id":"4","last_reported":1762712011,"current_range_meters":6800,"station_id":"ce4bh012rcd13ifvqd10","pricing_plan_id":"cebpf4jnsgd1na2vs0mg"},{"bike_id":"f363c5ea-b0d5-4b42-bac4-449e94bf9898","system_id":"levelo_inurba_marseille","lat":43.28666,"lon":5.386655,"is_reserved":false,"is_disabled":false,"rental_uris":{"android":"levelo://app?vid=f363c5ea-b0d5-4b42-bac4-449e94bf9898","ios":"levelo://app?vid=f363c5ea-b0d5-4b42-bac4-449e94bf9898"},"vehicle_type_id":"4","last_reported":1762712011,"current_range_meters":6800,"station_id":"ce4bh492rcd13ifvqdug","pricing_plan_id":"cebpf4jnsgd1na2vs0mg"},{"bike_id":"d510b29d-06c6-4a67-8cee-2182097a14e2","system_id":"levelo_inurba_marseille","lat":43.292675,"lon":5.376195,"is_reserved":false,"is_disabled":true,"rental_uris":{"android":"levelo://app?vid=d510b29d-06c6-4a67-8cee-2182097a14e2","ios":"levelo://app?vid=d510b29d-06c6-4a67-8cee-2182097a14e2"},"vehicle_type_id":"4","last_reported":1762712011,"current_range_meters":6800,"station_id":"ce4bgi12rcd13ifvqb80","pricing_plan_id":"cebpf4jnsgd1na2vs0mg"},{"bike_id":"9f611ac1-6f6a-4437-9025-ea87f35606a4","system_id":"levelo_inurba_marseille","lat":43.28552,"lon":5.37785,"is_reserved":false,"is_disabled":false,"rental_uris":{"android":"levelo://app?vid=9f611ac1-6f6a-4437-9025-ea87f35606a4","ios":"levelo://app?vid=9f611ac1-6f6a-4437-9025-ea87f35606a4"},"vehicle_type_id":"4","last_reported":1762712011,"current_range_meters":6800,"station_id":"","pricing_plan_id":"cebpf4jnsgd1na2vs0mg"},{"bike_id":"cd36fb7c-4385-47bd-96a8-f8889a6e3476","system_id":"levelo_inurba_marseille","lat":43.298963,"lon":5.436698,"is_reserved":false,"is_disabled":false,"rental_uris":{"android":"levelo://app?vid=cd36fb7c-4385-47bd-96a8-f8889a6e3476","ios":"levelo://app?vid=cd36fb7c-4385-47bd-96a8-f8889a6e3476"},"vehicle_type_id":"4","last_reported":1762712011,"current_range_meters":6800,"station_id":"ce4bhpp2rcd13ifvqhfg","pricing_plan_id":"cebpf4jnsgd1na2vs0mg"},{"bike_id":"6bdb3a33-a48d-46d4-b6ff-e6738dd53272","system_id":"levelo_inurba_marseille","lat":43.25333,"lon":5.42165,"is_reserved":false,"is_disabled":false,"rental_uris":{"android":"levelo://app?vid=6bdb3a33-a48d-46d4-b6ff-e6738dd53272","ios":"levelo://app?vid=6bdb3a33-a48d-46d4-b6ff-e6738dd53272"},"vehicle_type_id":"4","last_reported":1762712011,"current_range_meters":6800,"station_id":"st_d2m65c5bi1j21697t3ng","pricing_plan_id":"cebpf4jnsgd1na2vs0mg"},{"bike_id":"bf4fdc3a-2e3a-4cc9-8420-31626ac80003","system_id":"levelo_inurba_marseille","lat":43.290438,"lon":5.375718,"is_reserved":false,"is_disabled":false,"rental_uris":{"android":"levelo://app?vid=bf4fdc3a-2e3a-4cc9-8420-31626ac80003","ios":"levelo://app?vid=bf4fdc3a-2e3a-4cc9-8420-31626ac80003"},"vehicle_type_id":"4","last_reported":1762712011,"current_range_meters":6800,"station_id":"ce4bh692rcd13ifvqe90","pricing_plan_id":"cebpf4jnsgd1na2vs0mg"},{"bike_id":"ab0e43cb-a956-4182-86da-4951f4b56d3d","system_id":"levelo_inurba_marseille","lat":43.33598,"lon":5.41031,"is_reserved":false,"is_disabled":false,"rental_uris":{"android":"levelo://app?vid=ab0e43cb-a956-4182-86da-4951f4b56d3d","ios":"levelo://app?vid=ab0e43cb-a956-4182-86da-4951f4b56d3d"},"vehicle_type_id":"4","last_reported":1762712011,"current_range_meters":6800,"station_id":"ce4bhqh2rcd13ifvqhmg","pricing_plan_id":"cebpf4jnsgd1na2vs0mg"},{"bike_id":"59736966-d2af-4cbc-8ac5-e955aeb2f190","system_id":"levelo_inurba_marseille","lat":43.28863,"lon":5.42513,"is_reserved":false,"is_disabled":false,"rental_uris":{"android":"levelo://app?vid=59736966-d2af-4cbc-8ac5-e955aeb2f190","ios":"levelo://app?vid=59736966-d2af-4cbc-8ac5-e955aeb2f190"},"vehicle_type_id":"4","last_reported":1762712011,"current_range_meters":6800,"station_id":"st_d3b462108ojc7389ooeg","pricing_plan_id":"cebpf4jnsgd1na2vs0mg"},{"bike_id":"33c55ef3-f133-4ad9-8902-78ba36612b34","system_id":"levelo_inurba_marseille","lat":43.28833,"lon":5.35838,"is_reserved":false,"is_disabled":true,"rental_uris":{"android":"levelo://app?vid=33c55ef3-f133-4ad9-8902-78ba36612b34","ios":"levelo://app?vid=33c55ef3-f133-4ad9-8902-78ba36612b34"},"vehicle_type_id":"4","last_reported":1762712011,"current_range_meters":6800,"station_id":"ce4bhb12rcd13ifvqem0","pricing_plan_id":"cebpf4jnsgd1na2vs0mg"},{"bike_id":"3b294fa9-3f9f-4381-a2a8-e3592d375a68","system_id":"levelo_inurba_marseille","lat":43.26693,"lon":5.39708,"is_reserved":false,"is_disabled":false,"rental_uris":{"android":"levelo://app?vid=3b294fa9-3f9f-4381-a2a8-e3592d375a68","ios":"levelo://app?vid=3b294fa9-3f9f-4381-a2a8-e3592d375a68"},"vehicle_type_id":"4","last_reported":1762712011,"current_range_meters":6800,"station_id":"","pricing_plan_id":"cebpf4jnsgd1na2vs0mg"},{"bike_id":"910cc3ae-7ba4-48e5-a244-931e2df10a06","system_id":"levelo_inurba_marseille","lat":43.27104,"lon":5.39283,"is_reserved":false,"is_disabled":false,"rental_uris":{"android":"levelo://app?vid=910cc3ae-7ba4-48e5-a244-931e2df10a06","ios":"levelo://app?vid=910cc3ae-7ba4-48e5-a244-931e2df10a06"},"vehicle_type_id":"4","last_reported":1762712011,"current_range_meters":6800,"station_id":"","pricing_plan_id":"cebpf4jnsgd1na2vs0mg"},{"bike_id":"2d40df95-0ed4-4d72-8506-f0747e37b79c","system_id":"levelo_inurba_marseille","lat":43.26679,"lon":5.39806,"is_reserved":false,"is_disabled":false,"rental_uris":{"android":"levelo://app?vid=2d40df95-0ed4-4d72-8506-f0747e37b79c","ios":"levelo://app?vid=2d40df95-0ed4-4d72-8506-f0747e37b79c"},"vehicle_type_id":"4","last_reported":1762712011,"current_range_meters":6800,"station_id":"","pricing_plan_id":"cebpf4jnsgd1na2vs0mg"},{"bike_id":"2a48cb86-9e42-4d36-8226-17635612f2c0","system_id":"levelo_inurba_marseille","lat":43.308807,"lon":5.396507,"is_reserved":false,"is_disabled":false,"rental_uris":{"android":"levelo://app?vid=2a48cb86-9e42-4d36-8226-17635612f2c0","ios":"levelo://app?vid=2a48cb86-9e42-4d36-8226-17635612f2c0"},"vehicle_type_id":"4","last_reported":1762712011,"current_range_meters":6800,"station_id":"ce4bh012rcd13ifvqcv0","pricing_plan_id":"cebpf4jnsgd1na2vs0mg"},{"bike_id":"60ca5100-3a68-4446-a3f5-282b61fe4c13","system_id":"levelo_inurba_marseille","lat":43.29573,"lon":5.39983,"is_reserved":false,"is_disabled":false,"rental_uris":{"android":"levelo://app?vid=60ca5100-3a68-4446-a3f5-282b61fe4c13","ios":"levelo://app?vid=60ca5100-3a68-4446-a3f5-282b61fe4c13"},"vehicle_type_id":"4","last_reported":1762712011,"current_range_meters":7200,"station_id":"ce4bh312rcd13ifvqdj0","pricing_plan_id":"cebpf4jnsgd1na2vs0mg"},{"bike_id":"b9b835fc-f242-4745-9659-98dc5b1d9432","system_id":"levelo_inurba_marseille","lat":43.2998,"lon":5.37187,"is_reserved":false,"is_disabled":false,"rental_uris":{"android":"levelo://app?vid=b9b835fc-f242-4745-9659-98dc5b1d9432","ios":"levelo://app?vid=b9b835fc-f242-4745-9659-98dc5b1d9432"},"vehicle_type_id":"4","last_reported":1762712011,"current_range_meters":7200,"station_id":"ce4bgr92rcd13ifvqc7g","pricing_plan_id":"cebpf4jnsgd1na2vs0mg"},{"bike_id":"321d43c2-a97c-419e-a110-a172b4ee23e9","system_id":"levelo_inurba_marseille","lat":43.26158,"lon":5.417791,"is_reserved":false,"is_disabled":false,"rental_uris":{"android":"levelo://app?vid=321d43c2-a97c-419e-a110-a172b4ee23e9","ios":"levelo://app?vid=321d43c2-a97c-419e-a110-a172b4ee23e9"},"vehicle_type_id":"4","last_reported":1762712011,"current_range_meters":7200,"station_id":"","pricing_plan_id":"cebpf4jnsgd1na2vs0mg"},{"bike_id":"5b30bd29-9b18-49b6-9605-823572b00cef","system_id":"levelo_inurba_marseille","lat":43.29961,"lon":5.41321,"is_reserved":false,"is_disabled":false,"rental_uris":{"android":"levelo://app?vid=5b30bd29-9b18-49b6-9605-823572b00cef","ios":"levelo://app?vid=5b30bd29-9b18-49b6-9605-823572b00cef"},"vehicle_type_id":"4","last_reported":1762712011,"current_range_meters":7200,"station_id":"ce4bhp12rcd13ifvqh9g","pricing_plan_id":"cebpf4jnsgd1na2vs0mg"},{"bike_id":"a98eb5f7-2b78-4fcd-8cc1-f9604b535f51","system_id":"levelo_inurba_marseille","lat":43.30226,"lon":5.39425,"is_reserved":false,"is_disabled":true,"rental_uris":{"android":"levelo://app?vid=a98eb5f7-2b78-4fcd-8cc1-f9604b535f51","ios":"levelo://app?vid=a98eb5f7-2b78-4fcd-8cc1-f9604b535f51"},"vehicle_type_id":"4","last_reported":1762712011,"current_range_meters":7200,"station_id":"ce4bh0p2rcd13ifvqd70","pricing_plan_id":"cebpf4jnsgd1na2vs0mg"},{"bike_id":"2c356532-fc3e-4f54-a56a-59ec215a368d","system_id":"levelo_inurba_marseille","lat":43.26031,"lon":5.37544,"is_reserved":false,"is_disabled":false,"rental_uris":{"android":"levelo://app?vid=2c356532-fc3e-4f54-a56a-59ec215a368d","ios":"levelo://app?vid=2c356532-fc3e-4f54-a56a-59ec215a368d"},"vehicle_type_id":"4","last_reported":1762712011,"current_range_meters":7200,"station_id":"ce4bhgh2rcd13ifvqfa0","pricing_plan_id":"cebpf4jnsgd1na2vs0mg"},{"bike_id":"520caf29-dd19-46b0-86ac-bb3f03c62fc3","system_id":"levelo_inurba_marseille","lat":43.29278,"lon":5.40126,"is_reserved":false,"is_disabled":false,"rental_uris":{"android":"levelo://app?vid=520caf29-dd19-46b0-86ac-bb3f03c62fc3","ios":"levelo://app?vid=520caf29-dd19-46b0-86ac-bb3f03c62fc3"},"vehicle_type_id":"4","last_reported":1762712011,"current_range_meters":7200,"station_id":"ce4bh312rcd13ifvqdk0","pricing_plan_id":"cebpf4jnsgd1na2vs0mg"},{"bike_id":"51385a83-6189-4238-83b4-9d915d245d26","system_id":"levelo_inurba_marseille","lat":43.27998,"lon":5.41668,"is_reserved":false,"is_disabled":false,"rental_uris":{"android":"levelo://app?vid=51385a83-6189-4238-83b4-9d915d245d26","ios":"levelo://app?vid=51385a83-6189-4238-83b4-9d915d245d26"},"vehicle_type_id":"4","last_reported":1762712011,"current_range_meters":7200,"station_id":"ce4bho12rcd13ifvqh1g","pricing_plan_id":"cebpf4jnsgd1na2vs0mg"},{"bike_id":"1339ef90-7056-4f6c-97e9-32c4fa532151","system_id":"levelo_inurba_marseille","lat":43.24042,"lon":5.3773,"is_reserved":false,"is_disabled":false,"rental_uris":{"android":"levelo://app?vid=1339ef90-7056-4f6c-97e9-32c4fa532151","ios":"levelo://app?vid=1339ef90-7056-4f6c-97e9-32c4fa532151"},"vehicle_type_id":"4","last_reported":1762712011,"current_range_meters":7200,"station_id":"ce4bhnp2rcd13ifvqgvg","pricing_plan_id":"cebpf4jnsgd1na2vs0mg"},{"bike_id":"22ea6527-1b4f-4381-9f81-bf2a895d0734","system_id":"levelo_inurba_marseille","lat":43.26226,"lon":5.40456,"is_reserved":false,"is_disabled":false,"rental_uris":{"android":"levelo://app?vid=22ea6527-1b4f-4381-9f81-bf2a895d0734","ios":"levelo://app?vid=22ea6527-1b4f-4381-9f81-bf2a895d0734"},"vehicle_type_id":"4","last_reported":1762712011,"current_range_meters":8000,"station_id":"ce4bhmh2rcd13ifvqgmg","pricing_plan_id":"cebpf4jnsgd1na2vs0mg"},{"bike_id":"dce6c1e6-7f1a-4c82-96b4-8ba2a1930222","system_id":"levelo_inurba_marseille","lat":43.28355,"lon":5.39935,"is_reserved":false,"is_disabled":false,"rental_uris":{"android":"levelo://app?vid=dce6c1e6-7f1a-4c82-96b4-8ba2a1930222","ios":"levelo://app?vid=dce6c1e6-7f1a-4c82-96b4-8ba2a1930222"},"vehicle_type_id":"4","last_reported":1762712011,"current_range_meters":8000,"station_id":"","pricing_plan_id":"cebpf4jnsgd1na2vs0mg"},{"bike_id":"b1e11136-1133-48cc-aad9-8398a171ca9f","system_id":"levelo_inurba_marseille","lat":43.282314,"lon":5.39068,"is_reserved":false,"is_disabled":false,"rental_uris":{"android":"levelo://app?vid=b1e11136-1133-48cc-aad9-8398a171ca9f","ios":"levelo://app?vid=b1e11136-1133-48cc-aad9-8398a171ca9f"},"vehicle_type_id":"4","last_reported":1762712011,"current_range_meters":8000,"station_id":"ce4bhn92rcd13ifvqgsg","pricing_plan_id":"cebpf4jnsgd1na2vs0mg"},{"bike_id":"55422c22-eece-4aa9-8eca-71bdcd648e06","system_id":"levelo_inurba_marseille","lat":43.29595,"lon":5.38102,"is_reserved":false,"is_disabled":false,"rental_uris":{"android":"levelo://app?vid=55422c22-eece-4aa9-8eca-71bdcd648e06","ios":"levelo://app?vid=55422c22-eece-4aa9-8eca-71bdcd648e06"},"vehicle_type_id":"4","last_reported":1762712011,"current_range_meters":8000,"station_id":"ce4bgl12rcd13ifvqbo0","pricing_plan_id":"cebpf4jnsgd1na2vs0mg"},{"bike_id":"82a3c5ab-7139-4821-b916-747b72e1bbf2","system_id":"levelo_inurba_marseille","lat":43.30961,"lon":5.39041,"is_reserved":false,"is_disabled":false,"rental_uris":{"android":"levelo://app?vid=82a3c5ab-7139-4821-b916-747b72e1bbf2","ios":"levelo://app?vid=82a3c5ab-7139-4821-b916-747b72e1bbf2"},"vehicle_type_id":"4","last_reported":1762712011,"current_range_meters":8000,"station_id":"ce4bgup2rcd13ifvqco0","pricing_plan_id":"cebpf4jnsgd1na2vs0mg"},{"bike_id":"fa83ca19-a597-403d-9e40-373d1d9ee7a3","system_id":"levelo_inurba_marseille","lat":43.2987,"lon":5.39736,"is_reserved":false,"is_disabled":false,"rental_uris":{"android":"levelo://app?vid=fa83ca19-a597-403d-9e40-373d1d9ee7a3","ios":"levelo://app?vid=fa83ca19-a597-403d-9e40-373d1d9ee7a3"},"vehicle_type_id":"4","last_reported":1762712011,"current_range_meters":8000,"station_id":"ce4bh0h2rcd13ifvqd50","pricing_plan_id":"cebpf4jnsgd1na2vs0mg"},{"bike_id":"eebc5784-c52f-4fc2-8365-58506d90e59c","system_id":"levelo_inurba_marseille","lat":43.29962,"lon":5.37166,"is_reserved":false,"is_disabled":false,"rental_uris":{"android":"levelo://app?vid=eebc5784-c52f-4fc2-8365-58506d90e59c","ios":"levelo://app?vid=eebc5784-c52f-4fc2-8365-58506d90e59c"},"vehicle_type_id":"4","last_reported":1762712011,"current_range_meters":8000,"station_id":"ce4bgr92rcd13ifvqc7g","pricing_plan_id":"cebpf4jnsgd1na2vs0mg"},{"bike_id":"2078c561-2370-4ed4-ae92-e75ba3b0af2e","system_id":"levelo_inurba_marseille","lat":43.29252,"lon":5.409,"is_reserved":false,"is_disabled":false,"rental_uris":{"android":"levelo://app?vid=2078c561-2370-4ed4-ae92-e75ba3b0af2e","ios":"levelo://app?vid=2078c561-2370-4ed4-ae92-e75ba3b0af2e"},"vehicle_type_id":"4","last_reported":1762712011,"current_range_meters":8000,"station_id":"ce4bh192rcd13ifvqdc0","pricing_plan_id":"cebpf4jnsgd1na2vs0mg"},{"bike_id":"d7803813-07b2-4e8f-96b7-5d6bdc475702","system_id":"levelo_inurba_marseille","lat":43.29294,"lon":5.3745,"is_reserved":false,"is_disabled":false,"rental_uris":{"android":"levelo://app?vid=d7803813-07b2-4e8f-96b7-5d6bdc475702","ios":"levelo://app?vid=d7803813-07b2-4e8f-96b7-5d6bdc475702"},"vehicle_type_id":"4","last_reported":1762712011,"current_range_meters":8000,"station_id":"ce4bgi12rcd13ifvqb70","pricing_plan_id":"cebpf4jnsgd1na2vs0mg"},{"bike_id":"76fac608-1184-49da-941d-7da5b297ff5f","system_id":"levelo_inurba_marseille","lat":43.22533,"lon":5.348348,"is_reserved":false,"is_disabled":false,"rental_uris":{"android":"levelo://app?vid=76fac608-1184-49da-941d-7da5b297ff5f","ios":"levelo://app?vid=76fac608-1184-49da-941d-7da5b297ff5f"},"vehicle_type_id":"4","last_reported":1762712011,"current_range_meters":8000,"station_id":"","pricing_plan_id":"cebpf4jnsgd1na2vs0mg"},{"bike_id":"5125590e-b656-481a-bd72-5ede6bd3a625","system_id":"levelo_inurba_marseille","lat":43.2867,"lon":5.38664,"is_reserved":false,"is_disabled":false,"rental_uris":{"android":"levelo://app?vid=5125590e-b656-481a-bd72-5ede6bd3a625","ios":"levelo://app?vid=5125590e-b656-481a-bd72-5ede6bd3a625"},"vehicle_type_id":"4","last_reported":1762712011,"current_range_meters":8000,"station_id":"ce4bh492rcd13ifvqdug","pricing_plan_id":"cebpf4jnsgd1na2vs0mg"},{"bike_id":"340e8a32-adb0-4aee-b515-55c03e7c5032","system_id":"levelo_inurba_marseille","lat":43.30945,"lon":5.39037,"is_reserved":false,"is_disabled":false,"rental_uris":{"android":"levelo://app?vid=340e8a32-adb0-4aee-b515-55c03e7c5032","ios":"levelo://app?vid=340e8a32-adb0-4aee-b515-55c03e7c5032"},"vehicle_type_id":"4","last_reported":1762712011,"current_range_meters":8000,"station_id":"ce4bgup2rcd13ifvqco0","pricing_plan_id":"cebpf4jnsgd1na2vs0mg"},{"bike_id":"d16b128d-6ba7-45fb-896f-c2e2472be7fc","system_id":"levelo_inurba_marseille","lat":43.28409,"lon":5.37501,"is_reserved":false,"is_disabled":false,"rental_uris":{"android":"levelo://app?vid=d16b128d-6ba7-45fb-896f-c2e2472be7fc","ios":"levelo://app?vid=d16b128d-6ba7-45fb-896f-c2e2472be7fc"},"vehicle_type_id":"4","last_reported":1762712011,"current_range_meters":8000,"station_id":"ce4bh412rcd13ifvqds0","pricing_plan_id":"cebpf4jnsgd1na2vs0mg"},{"bike_id":"d2991a60-dcfa-4252-8f9d-bfff4b1dc433","system_id":"levelo_inurba_marseille","lat":43.310826,"lon":5.370969,"is_reserved":false,"is_disabled":false,"rental_uris":{"android":"levelo://app?vid=d2991a60-dcfa-4252-8f9d-bfff4b1dc433","ios":"levelo://app?vid=d2991a60-dcfa-4252-8f9d-bfff4b1dc433"},"vehicle_type_id":"4","last_reported":1762712011,"current_range_meters":8000,"station_id":"","pricing_plan_id":"cebpf4jnsgd1na2vs0mg"},{"bike_id":"b0c85de4-4949-440b-9fc8-d237b1e9634a","system_id":"levelo_inurba_marseille","lat":43.29253,"lon":5.38443,"is_reserved":false,"is_disabled":false,"rental_uris":{"android":"levelo://app?vid=b0c85de4-4949-440b-9fc8-d237b1e9634a","ios":"levelo://app?vid=b0c85de4-4949-440b-9fc8-d237b1e9634a"},"vehicle_type_id":"4","last_reported":1762712011,"current_range_meters":8000,"station_id":"ce4bh692rcd13ifvqea0","pricing_plan_id":"cebpf4jnsgd1na2vs0mg"},{"bike_id":"e450deb8-309d-4937-82fe-392d05b86b2f","system_id":"levelo_inurba_marseille","lat":43.29893,"lon":5.39751,"is_reserved":false,"is_disabled":false,"rental_uris":{"android":"levelo://app?vid=e450deb8-309d-4937-82fe-392d05b86b2f","ios":"levelo://app?vid=e450deb8-309d-4937-82fe-392d05b86b2f"},"vehicle_type_id":"4","last_reported":1762712011,"current_range_meters":8400,"station_id":"ce4bh0h2rcd13ifvqd50","pricing_plan_id":"cebpf4jnsgd1na2vs0mg"},{"bike_id":"99f2ea0a-7c72-440f-bfcf-af329d8d0c40","system_id":"levelo_inurba_marseille","lat":43.29883,"lon":5.39719,"is_reserved":false,"is_disabled":false,"rental_uris":{"android":"levelo://app?vid=99f2ea0a-7c72-440f-bfcf-af329d8d0c40","ios":"levelo://app?vid=99f2ea0a-7c72-440f-bfcf-af329d8d0c40"},"vehicle_type_id":"4","last_reported":1762712011,"current_range_meters":8400,"station_id":"ce4bh0h2rcd13ifvqd50","pricing_plan_id":"cebpf4jnsgd1na2vs0mg"},{"bike_id":"96b18da2-837b-41c2-b296-8e00dbb45c69","system_id":"levelo_inurba_marseille","lat":43.29512,"lon":5.37499,"is_reserved":false,"is_disabled":false,"rental_uris":{"android":"levelo://app?vid=96b18da2-837b-41c2-b296-8e00dbb45c69","ios":"levelo://app?vid=96b18da2-837b-41c2-b296-8e00dbb45c69"},"vehicle_type_id":"4","last_reported":1762712011,"current_range_meters":8400,"station_id":"ce4bgkp2rcd13ifvqbmg","pricing_plan_id":"cebpf4jnsgd1na2vs0mg"},{"bike_id":"825a1957-d327-49da-97b3-2485c79c40e7","system_id":"levelo_inurba_marseille","lat":43.21761,"lon":5.346,"is_reserved":false,"is_disabled":true,"rental_uris":{"android":"levelo://app?vid=825a1957-d327-49da-97b3-2485c79c40e7","ios":"levelo://app?vid=825a1957-d327-49da-97b3-2485c79c40e7"},"vehicle_type_id":"4","last_reported":1762712011,"current_range_meters":8400,"station_id":"st_cvj6r9ubvosntc0bgbag","pricing_plan_id":"cebpf4jnsgd1na2vs0mg"},{"bike_id":"e45f6d33-43ea-4a7a-9654-1c929a0cd42a","system_id":"levelo_inurba_marseille","lat":43.2926,"lon":5.38432,"is_reserved":false,"is_disabled":false,"rental_uris":{"android":"levelo://app?vid=e45f6d33-43ea-4a7a-9654-1c929a0cd42a","ios":"levelo://app?vid=e45f6d33-43ea-4a7a-9654-1c929a0cd42a"},"vehicle_type_id":"4","last_reported":1762712011,"current_range_meters":8400,"station_id":"ce4bh692rcd13ifvqea0","pricing_plan_id":"cebpf4jnsgd1na2vs0mg"},{"bike_id":"cba3e69c-93a1-4d79-bc9c-e5985c3ce704","system_id":"levelo_inurba_marseille","lat":43.25725,"lon":5.4111,"is_reserved":false,"is_disabled":false,"rental_uris":{"android":"levelo://app?vid=cba3e69c-93a1-4d79-bc9c-e5985c3ce704","ios":"levelo://app?vid=cba3e69c-93a1-4d79-bc9c-e5985c3ce704"},"vehicle_type_id":"4","last_reported":1762712011,"current_range_meters":8400,"station_id":"ce4bhkp2rcd13ifvqgd0","pricing_plan_id":"cebpf4jnsgd1na2vs0mg"},{"bike_id":"1be21833-91d1-471f-953b-69491b101f76","system_id":"levelo_inurba_marseille","lat":43.29972,"lon":5.3719,"is_reserved":false,"is_disabled":false,"rental_uris":{"android":"levelo://app?vid=1be21833-91d1-471f-953b-69491b101f76","ios":"levelo://app?vid=1be21833-91d1-471f-953b-69491b101f76"},"vehicle_type_id":"4","last_reported":1762712011,"current_range_meters":8400,"station_id":"ce4bgr92rcd13ifvqc7g","pricing_plan_id":"cebpf4jnsgd1na2vs0mg"},{"bike_id":"f54299dc-3ad8-4d40-b17e-b898abbc5034","system_id":"levelo_inurba_marseille","lat":43.28277,"lon":5.35059,"is_reserved":false,"is_disabled":true,"rental_uris":{"android":"levelo://app?vid=f54299dc-3ad8-4d40-b17e-b898abbc5034","ios":"levelo://app?vid=f54299dc-3ad8-4d40-b17e-b898abbc5034"},"vehicle_type_id":"4","last_reported":1762712011,"current_range_meters":8400,"station_id":"ce4bhbp2rcd13ifvqerg","pricing_plan_id":"cebpf4jnsgd1na2vs0mg"},{"bike_id":"32b63ec1-dcb6-4225-b2b3-43dbc67504f6","system_id":"levelo_inurba_marseille","lat":43.295306,"lon":5.385386,"is_reserved":false,"is_disabled":false,"rental_uris":{"android":"levelo://app?vid=32b63ec1-dcb6-4225-b2b3-43dbc67504f6","ios":"levelo://app?vid=32b63ec1-dcb6-4225-b2b3-43dbc67504f6"},"vehicle_type_id":"4","last_reported":1762712011,"current_range_meters":8400,"station_id":"ce4bgih2rcd13ifvqba0","pricing_plan_id":"cebpf4jnsgd1na2vs0mg"},{"bike_id":"2eb48f07-abd2-41de-a7da-dd505426e3ed","system_id":"levelo_inurba_marseille","lat":43.25218,"lon":5.3804,"is_reserved":false,"is_disabled":false,"rental_uris":{"android":"levelo://app?vid=2eb48f07-abd2-41de-a7da-dd505426e3ed","ios":"levelo://app?vid=2eb48f07-abd2-41de-a7da-dd505426e3ed"},"vehicle_type_id":"4","last_reported":1762712011,"current_range_meters":8400,"station_id":"","pricing_plan_id":"cebpf4jnsgd1na2vs0mg"},{"bike_id":"53ca8b77-f904-4e8a-b112-59c12a9cf69b","system_id":"levelo_inurba_marseille","lat":43.29169,"lon":5.38606,"is_reserved":false,"is_disabled":false,"rental_uris":{"android":"levelo://app?vid=53ca8b77-f904-4e8a-b112-59c12a9cf69b","ios":"levelo://app?vid=53ca8b77-f904-4e8a-b112-59c12a9cf69b"},"vehicle_type_id":"4","last_reported":1762712011,"current_range_meters":8400,"station_id":"","pricing_plan_id":"cebpf4jnsgd1na2vs0mg"},{"bike_id":"48bfc02c-df06-413f-a642-f28369b4c0dd","system_id":"levelo_inurba_marseille","lat":43.29531,"lon":5.37499,"is_reserved":false,"is_disabled":false,"rental_uris":{"android":"levelo://app?vid=48bfc02c-df06-413f-a642-f28369b4c0dd","ios":"levelo://app?vid=48bfc02c-df06-413f-a642-f28369b4c0dd"},"vehicle_type_id":"4","last_reported":1762712011,"current_range_meters":8400,"station_id":"ce4bgkp2rcd13ifvqbmg","pricing_plan_id":"cebpf4jnsgd1na2vs0mg"},{"bike_id":"870a9ad1-db35-4ab0-bc9a-84476efc6571","system_id":"levelo_inurba_marseille","lat":43.3278,"lon":5.4265,"is_reserved":false,"is_disabled":false,"rental_uris":{"android":"levelo://app?vid=870a9ad1-db35-4ab0-bc9a-84476efc6571","ios":"levelo://app?vid=870a9ad1-db35-4ab0-bc9a-84476efc6571"},"vehicle_type_id":"4","last_reported":1762712011,"current_range_meters":8400,"station_id":"","pricing_plan_id":"cebpf4jnsgd1na2vs0mg"},{"bike_id":"3cb4351e-e86f-4ed5-9de9-ae626f8125cd","system_id":"levelo_inurba_marseille","lat":43.30169,"lon":5.38815,"is_reserved":false,"is_disabled":false,"rental_uris":{"android":"levelo://app?vid=3cb4351e-e86f-4ed5-9de9-ae626f8125cd","ios":"levelo://app?vid=3cb4351e-e86f-4ed5-9de9-ae626f8125cd"},"vehicle_type_id":"4","last_reported":1762712011,"current_range_meters":8800,"station_id":"ce4bghh2rcd13ifvqb60","pricing_plan_id":"cebpf4jnsgd1na2vs0mg"},{"bike_id":"896c40fe-c4e1-425f-8e49-201dadbdb19d","system_id":"levelo_inurba_marseille","lat":43.2909,"lon":5.38136,"is_reserved":false,"is_disabled":false,"rental_uris":{"android":"levelo://app?vid=896c40fe-c4e1-425f-8e49-201dadbdb19d","ios":"levelo://app?vid=896c40fe-c4e1-425f-8e49-201dadbdb19d"},"vehicle_type_id":"4","last_reported":1762712011,"current_range_meters":8800,"station_id":"ce4bh512rcd13ifvqe2g","pricing_plan_id":"cebpf4jnsgd1na2vs0mg"},{"bike_id":"f4860a0b-8c38-436f-9de0-b4f9a824670d","system_id":"levelo_inurba_marseille","lat":43.2926,"lon":5.38429,"is_reserved":false,"is_disabled":false,"rental_uris":{"android":"levelo://app?vid=f4860a0b-8c38-436f-9de0-b4f9a824670d","ios":"levelo://app?vid=f4860a0b-8c38-436f-9de0-b4f9a824670d"},"vehicle_type_id":"4","last_reported":1762712011,"current_range_meters":8800,"station_id":"ce4bh692rcd13ifvqea0","pricing_plan_id":"cebpf4jnsgd1na2vs0mg"},{"bike_id":"4f7db020-266e-46ac-ab4d-30611e12645e","system_id":"levelo_inurba_marseille","lat":43.287,"lon":5.37389,"is_reserved":false,"is_disabled":false,"rental_uris":{"android":"levelo://app?vid=4f7db020-266e-46ac-ab4d-30611e12645e","ios":"levelo://app?vid=4f7db020-266e-46ac-ab4d-30611e12645e"},"vehicle_type_id":"4","last_reported":1762712011,"current_range_meters":8800,"station_id":"ce4bh3p2rcd13ifvqdq0","pricing_plan_id":"cebpf4jnsgd1na2vs0mg"},{"bike_id":"0283e573-4cb8-445f-bcf8-077728ce1268","system_id":"levelo_inurba_marseille","lat":43.27919,"lon":5.41044,"is_reserved":false,"is_disabled":false,"rental_uris":{"android":"levelo://app?vid=0283e573-4cb8-445f-bcf8-077728ce1268","ios":"levelo://app?vid=0283e573-4cb8-445f-bcf8-077728ce1268"},"vehicle_type_id":"4","last_reported":1762712011,"current_range_meters":8800,"station_id":"ce4bhnp2rcd13ifvqh0g","pricing_plan_id":"cebpf4jnsgd1na2vs0mg"},{"bike_id":"6e516340-9641-4325-9cd8-46780776c1ed","system_id":"levelo_inurba_marseille","lat":43.30561,"lon":5.3673,"is_reserved":false,"is_disabled":true,"rental_uris":{"android":"levelo://app?vid=6e516340-9641-4325-9cd8-46780776c1ed","ios":"levelo://app?vid=6e516340-9641-4325-9cd8-46780776c1ed"},"vehicle_type_id":"4","last_reported":1762712011,"current_range_meters":8800,"station_id":"ce4bgrp2rcd13ifvqc9g","pricing_plan_id":"cebpf4jnsgd1na2vs0mg"},{"bike_id":"8dbe6a5f-c306-4760-b627-acaa1e3ffafa","system_id":"levelo_inurba_marseille","lat":43.28627,"lon":5.35105,"is_reserved":false,"is_disabled":false,"rental_uris":{"android":"levelo://app?vid=8dbe6a5f-c306-4760-b627-acaa1e3ffafa","ios":"levelo://app?vid=8dbe6a5f-c306-4760-b627-acaa1e3ffafa"},"vehicle_type_id":"4","last_reported":1762712011,"current_range_meters":8800,"station_id":"ce4bhch2rcd13ifvqeug","pricing_plan_id":"cebpf4jnsgd1na2vs0mg"},{"bike_id":"ae7d26d8-fc4b-44bf-a212-2922d1680c4e","system_id":"levelo_inurba_marseille","lat":43.29269,"lon":5.38451,"is_reserved":false,"is_disabled":false,"rental_uris":{"android":"levelo://app?vid=ae7d26d8-fc4b-44bf-a212-2922d1680c4e","ios":"levelo://app?vid=ae7d26d8-fc4b-44bf-a212-2922d1680c4e"},"vehicle_type_id":"4","last_reported":1762712011,"current_range_meters":8800,"station_id":"ce4bh692rcd13ifvqea0","pricing_plan_id":"cebpf4jnsgd1na2vs0mg"},{"bike_id":"cf673477-a61f-4da4-8a76-fe54343e980e","system_id":"levelo_inurba_marseille","lat":43.30816,"lon":5.4352,"is_reserved":false,"is_disabled":true,"rental_uris":{"android":"levelo://app?vid=cf673477-a61f-4da4-8a76-fe54343e980e","ios":"levelo://app?vid=cf673477-a61f-4da4-8a76-fe54343e980e"},"vehicle_type_id":"4","last_reported":1762712011,"current_range_meters":8800,"station_id":"","pricing_plan_id":"cebpf4jnsgd1na2vs0mg"},{"bike_id":"c1a8951c-0b8b-4e04-9556-ddc347871e56","system_id":"levelo_inurba_marseille","lat":43.33688,"lon":5.35564,"is_reserved":false,"is_disabled":false,"rental_uris":{"android":"levelo://app?vid=c1a8951c-0b8b-4e04-9556-ddc347871e56","ios":"levelo://app?vid=c1a8951c-0b8b-4e04-9556-ddc347871e56"},"vehicle_type_id":"4","last_reported":1762712011,"current_range_meters":8800,"station_id":"","pricing_plan_id":"cebpf4jnsgd1na2vs0mg"},{"bike_id":"0a8bf318-8d77-437c-8632-03238a9b368e","system_id":"levelo_inurba_marseille","lat":43.30621,"lon":5.37229,"is_reserved":false,"is_disabled":false,"rental_uris":{"android":"levelo://app?vid=0a8bf318-8d77-437c-8632-03238a9b368e","ios":"levelo://app?vid=0a8bf318-8d77-437c-8632-03238a9b368e"},"vehicle_type_id":"4","last_reported":1762712011,"current_range_meters":8800,"station_id":"ce4bgqh2rcd13ifvqc4g","pricing_plan_id":"cebpf4jnsgd1na2vs0mg"},{"bike_id":"c9c0218e-5898-4ead-bb0c-afbef39d8a26","system_id":"levelo_inurba_marseille","lat":43.24996,"lon":5.38931,"is_reserved":false,"is_disabled":false,"rental_uris":{"android":"levelo://app?vid=c9c0218e-5898-4ead-bb0c-afbef39d8a26","ios":"levelo://app?vid=c9c0218e-5898-4ead-bb0c-afbef39d8a26"},"vehicle_type_id":"4","last_reported":1762712011,"current_range_meters":9200,"station_id":"ce4bhgp2rcd13ifvqfd0","pricing_plan_id":"cebpf4jnsgd1na2vs0mg"},{"bike_id":"a5882802-4645-4ee0-8985-b7ec4fdb2d53","system_id":"levelo_inurba_marseille","lat":43.240693,"lon":5.377644,"is_reserved":false,"is_disabled":false,"rental_uris":{"android":"levelo://app?vid=a5882802-4645-4ee0-8985-b7ec4fdb2d53","ios":"levelo://app?vid=a5882802-4645-4ee0-8985-b7ec4fdb2d53"},"vehicle_type_id":"4","last_reported":1762712011,"current_range_meters":9200,"station_id":"ce4bhi12rcd13ifvqfp0","pricing_plan_id":"cebpf4jnsgd1na2vs0mg"},{"bike_id":"0ccc8cba-e1d8-4841-8275-fe00cb862efc","system_id":"levelo_inurba_marseille","lat":43.28841,"lon":5.39323,"is_reserved":false,"is_disabled":false,"rental_uris":{"android":"levelo://app?vid=0ccc8cba-e1d8-4841-8275-fe00cb862efc","ios":"levelo://app?vid=0ccc8cba-e1d8-4841-8275-fe00cb862efc"},"vehicle_type_id":"4","last_reported":1762712011,"current_range_meters":9200,"station_id":"ce4bh2p2rcd13ifvqdi0","pricing_plan_id":"cebpf4jnsgd1na2vs0mg"},{"bike_id":"db3d3c9f-fdae-49c0-91c9-bc09c870fa24","system_id":"levelo_inurba_marseille","lat":43.30917,"lon":5.36853,"is_reserved":false,"is_disabled":false,"rental_uris":{"android":"levelo://app?vid=db3d3c9f-fdae-49c0-91c9-bc09c870fa24","ios":"levelo://app?vid=db3d3c9f-fdae-49c0-91c9-bc09c870fa24"},"vehicle_type_id":"4","last_reported":1762712011,"current_range_meters":9200,"station_id":"ce4bgn92rcd13ifvqbvg","pricing_plan_id":"cebpf4jnsgd1na2vs0mg"},{"bike_id":"15db09df-59b0-446a-87c5-e354a3319258","system_id":"levelo_inurba_marseille","lat":43.28475,"lon":5.48389,"is_reserved":false,"is_disabled":false,"rental_uris":{"android":"levelo://app?vid=15db09df-59b0-446a-87c5-e354a3319258","ios":"levelo://app?vid=15db09df-59b0-446a-87c5-e354a3319258"},"vehicle_type_id":"4","last_reported":1762712011,"current_range_meters":9200,"station_id":"","pricing_plan_id":"cebpf4jnsgd1na2vs0mg"},{"bike_id":"fec91c3a-85e6-40ff-973e-d2a33b3b293e","system_id":"levelo_inurba_marseille","lat":43.24953,"lon":5.40488,"is_reserved":false,"is_disabled":false,"rental_uris":{"android":"levelo://app?vid=fec91c3a-85e6-40ff-973e-d2a33b3b293e","ios":"levelo://app?vid=fec91c3a-85e6-40ff-973e-d2a33b3b293e"},"vehicle_type_id":"4","last_reported":1762712011,"current_range_meters":9200,"station_id":"st_d2ngiaodas8pm72gd1h0","pricing_plan_id":"cebpf4jnsgd1na2vs0mg"},{"bike_id":"2a656360-f08b-4647-abda-12c77f79208c","system_id":"levelo_inurba_marseille","lat":43.28722,"lon":5.37933,"is_reserved":false,"is_disabled":false,"rental_uris":{"android":"levelo://app?vid=2a656360-f08b-4647-abda-12c77f79208c","ios":"levelo://app?vid=2a656360-f08b-4647-abda-12c77f79208c"},"vehicle_type_id":"4","last_reported":1762712011,"current_range_meters":9200,"station_id":"ce4bh9p2rcd13ifvqec0","pricing_plan_id":"cebpf4jnsgd1na2vs0mg"},{"bike_id":"e4d3b7cf-657b-4e9c-b7d4-254357ebc4f2","system_id":"levelo_inurba_marseille","lat":43.28941,"lon":5.38387,"is_reserved":false,"is_disabled":false,"rental_uris":{"android":"levelo://app?vid=e4d3b7cf-657b-4e9c-b7d4-254357ebc4f2","ios":"levelo://app?vid=e4d3b7cf-657b-4e9c-b7d4-254357ebc4f2"},"vehicle_type_id":"4","last_reported":1762712011,"current_range_meters":9200,"station_id":"ce4bh612rcd13ifvqe6g","pricing_plan_id":"cebpf4jnsgd1na2vs0mg"},{"bike_id":"c8a65cef-eea2-4ac5-a0c3-e8f028947130","system_id":"levelo_inurba_marseille","lat":43.27808,"lon":5.40708,"is_reserved":false,"is_disabled":false,"rental_uris":{"android":"levelo://app?vid=c8a65cef-eea2-4ac5-a0c3-e8f028947130","ios":"levelo://app?vid=c8a65cef-eea2-4ac5-a0c3-e8f028947130"},"vehicle_type_id":"4","last_reported":1762712011,"current_range_meters":9200,"station_id":"ce4bhnh2rcd13ifvqgtg","pricing_plan_id":"cebpf4jnsgd1na2vs0mg"},{"bike_id":"21dcb4e2-bef4-415f-aa59-cd0b9e2cb07b","system_id":"levelo_inurba_marseille","lat":43.22823,"lon":5.43484,"is_reserved":false,"is_disabled":false,"rental_uris":{"android":"levelo://app?vid=21dcb4e2-bef4-415f-aa59-cd0b9e2cb07b","ios":"levelo://app?vid=21dcb4e2-bef4-415f-aa59-cd0b9e2cb07b"},"vehicle_type_id":"4","last_reported":1762712011,"current_range_meters":9200,"station_id":"","pricing_plan_id":"cebpf4jnsgd1na2vs0mg"},{"bike_id":"19c5fd82-2aab-4b5b-9f07-9fddb8ea96a2","system_id":"levelo_inurba_marseille","lat":43.284163,"lon":5.375046,"is_reserved":false,"is_disabled":false,"rental_uris":{"android":"levelo://app?vid=19c5fd82-2aab-4b5b-9f07-9fddb8ea96a2","ios":"levelo://app?vid=19c5fd82-2aab-4b5b-9f07-9fddb8ea96a2"},"vehicle_type_id":"4","last_reported":1762712011,"current_range_meters":9200,"station_id":"ce4bh412rcd13ifvqds0","pricing_plan_id":"cebpf4jnsgd1na2vs0mg"},{"bike_id":"9b54ead1-ca6b-4a0d-8cc9-a299e8f5378f","system_id":"levelo_inurba_marseille","lat":43.25334,"lon":5.42176,"is_reserved":false,"is_disabled":false,"rental_uris":{"android":"levelo://app?vid=9b54ead1-ca6b-4a0d-8cc9-a299e8f5378f","ios":"levelo://app?vid=9b54ead1-ca6b-4a0d-8cc9-a299e8f5378f"},"vehicle_type_id":"4","last_reported":1762712011,"current_range_meters":9600,"station_id":"st_d2m65c5bi1j21697t3ng","pricing_plan_id":"cebpf4jnsgd1na2vs0mg"},{"bike_id":"6fb9aaeb-fd54-4120-8c7f-cb19a69f6629","system_id":"levelo_inurba_marseille","lat":43.23567,"lon":5.37453,"is_reserved":false,"is_disabled":false,"rental_uris":{"android":"levelo://app?vid=6fb9aaeb-fd54-4120-8c7f-cb19a69f6629","ios":"levelo://app?vid=6fb9aaeb-fd54-4120-8c7f-cb19a69f6629"},"vehicle_type_id":"4","last_reported":1762712011,"current_range_meters":9600,"station_id":"","pricing_plan_id":"cebpf4jnsgd1na2vs0mg"},{"bike_id":"d32acf6f-21aa-4fbf-bed6-33d296ca0f9f","system_id":"levelo_inurba_marseille","lat":43.21732,"lon":5.34636,"is_reserved":false,"is_disabled":true,"rental_uris":{"android":"levelo://app?vid=d32acf6f-21aa-4fbf-bed6-33d296ca0f9f","ios":"levelo://app?vid=d32acf6f-21aa-4fbf-bed6-33d296ca0f9f"},"vehicle_type_id":"4","last_reported":1762712011,"current_range_meters":9600,"station_id":"st_cvj6r9ubvosntc0bgbag","pricing_plan_id":"cebpf4jnsgd1na2vs0mg"},{"bike_id":"596188eb-72db-49b8-ad39-95c154941fc6","system_id":"levelo_inurba_marseille","lat":43.29966,"lon":5.38496,"is_reserved":false,"is_disabled":false,"rental_uris":{"android":"levelo://app?vid=596188eb-72db-49b8-ad39-95c154941fc6","ios":"levelo://app?vid=596188eb-72db-49b8-ad39-95c154941fc6"},"vehicle_type_id":"4","last_reported":1762712011,"current_range_meters":9600,"station_id":"ce4bgj92rcd13ifvqbd0","pricing_plan_id":"cebpf4jnsgd1na2vs0mg"},{"bike_id":"28c5cc9e-e2be-4842-b0cc-eca3bb9f9d3e","system_id":"levelo_inurba_marseille","lat":43.292311,"lon":5.364797,"is_reserved":false,"is_disabled":false,"rental_uris":{"android":"levelo://app?vid=28c5cc9e-e2be-4842-b0cc-eca3bb9f9d3e","ios":"levelo://app?vid=28c5cc9e-e2be-4842-b0cc-eca3bb9f9d3e"},"vehicle_type_id":"4","last_reported":1762712011,"current_range_meters":9600,"station_id":"","pricing_plan_id":"cebpf4jnsgd1na2vs0mg"},{"bike_id":"011885d6-b9a2-42f0-8ecf-f03890eae760","system_id":"levelo_inurba_marseille","lat":43.3063,"lon":5.37225,"is_reserved":false,"is_disabled":false,"rental_uris":{"android":"levelo://app?vid=011885d6-b9a2-42f0-8ecf-f03890eae760","ios":"levelo://app?vid=011885d6-b9a2-42f0-8ecf-f03890eae760"},"vehicle_type_id":"4","last_reported":1762712011,"current_range_meters":9600,"station_id":"ce4bgqh2rcd13ifvqc4g","pricing_plan_id":"cebpf4jnsgd1na2vs0mg"},{"bike_id":"7f1560c8-13ef-49dd-9347-bcd38cfb31c5","system_id":"levelo_inurba_marseille","lat":43.25822,"lon":5.39432,"is_reserved":false,"is_disabled":false,"rental_uris":{"android":"levelo://app?vid=7f1560c8-13ef-49dd-9347-bcd38cfb31c5","ios":"levelo://app?vid=7f1560c8-13ef-49dd-9347-bcd38cfb31c5"},"vehicle_type_id":"4","last_reported":1762712011,"current_range_meters":9600,"station_id":"ce4bhip2rcd13ifvqft0","pricing_plan_id":"cebpf4jnsgd1na2vs0mg"},{"bike_id":"96ebd95e-43d7-4dda-805b-d986b86e7c3f","system_id":"levelo_inurba_marseille","lat":43.29245,"lon":5.38443,"is_reserved":false,"is_disabled":false,"rental_uris":{"android":"levelo://app?vid=96ebd95e-43d7-4dda-805b-d986b86e7c3f","ios":"levelo://app?vid=96ebd95e-43d7-4dda-805b-d986b86e7c3f"},"vehicle_type_id":"4","last_reported":1762712011,"current_range_meters":9600,"station_id":"ce4bh692rcd13ifvqea0","pricing_plan_id":"cebpf4jnsgd1na2vs0mg"},{"bike_id":"3b5a6196-4700-4ee0-a587-c1dc29303170","system_id":"levelo_inurba_marseille","lat":43.27824,"lon":5.40713,"is_reserved":false,"is_disabled":false,"rental_uris":{"android":"levelo://app?vid=3b5a6196-4700-4ee0-a587-c1dc29303170","ios":"levelo://app?vid=3b5a6196-4700-4ee0-a587-c1dc29303170"},"vehicle_type_id":"4","last_reported":1762712011,"current_range_meters":9600,"station_id":"ce4bhnh2rcd13ifvqgtg","pricing_plan_id":"cebpf4jnsgd1na2vs0mg"},{"bike_id":"54f3b063-b951-4e97-aa9c-845253facccf","system_id":"levelo_inurba_marseille","lat":43.290264,"lon":5.386467,"is_reserved":false,"is_disabled":false,"rental_uris":{"android":"levelo://app?vid=54f3b063-b951-4e97-aa9c-845253facccf","ios":"levelo://app?vid=54f3b063-b951-4e97-aa9c-845253facccf"},"vehicle_type_id":"4","last_reported":1762712011,"current_range_meters":10000,"station_id":"ce4bh4p2rcd13ifvqe0g","pricing_plan_id":"cebpf4jnsgd1na2vs0mg"},{"bike_id":"a295ba32-0f8c-4040-97e9-6718d320f978","system_id":"levelo_inurba_marseille","lat":43.225311,"lon":5.348363,"is_reserved":false,"is_disabled":false,"rental_uris":{"android":"levelo://app?vid=a295ba32-0f8c-4040-97e9-6718d320f978","ios":"levelo://app?vid=a295ba32-0f8c-4040-97e9-6718d320f978"},"vehicle_type_id":"4","last_reported":1762712011,"current_range_meters":10000,"station_id":"","pricing_plan_id":"cebpf4jnsgd1na2vs0mg"},{"bike_id":"eb065fb6-a7b4-445c-9804-c12cff9878db","system_id":"levelo_inurba_marseille","lat":43.30871,"lon":5.39632,"is_reserved":false,"is_disabled":false,"rental_uris":{"android":"levelo://app?vid=eb065fb6-a7b4-445c-9804-c12cff9878db","ios":"levelo://app?vid=eb065fb6-a7b4-445c-9804-c12cff9878db"},"vehicle_type_id":"4","last_reported":1762712011,"current_range_meters":10000,"station_id":"ce4bh012rcd13ifvqcv0","pricing_plan_id":"cebpf4jnsgd1na2vs0mg"},{"bike_id":"f4c682e4-ce49-4cf3-812a-723ed825aea0","system_id":"levelo_inurba_marseille","lat":43.31324,"lon":5.39695,"is_reserved":false,"is_disabled":false,"rental_uris":{"android":"levelo://app?vid=f4c682e4-ce49-4cf3-812a-723ed825aea0","ios":"levelo://app?vid=f4c682e4-ce49-4cf3-812a-723ed825aea0"},"vehicle_type_id":"4","last_reported":1762712011,"current_range_meters":10000,"station_id":"ce4bgvp2rcd13ifvqcu0","pricing_plan_id":"cebpf4jnsgd1na2vs0mg"},{"bike_id":"f47ec199-1317-4e40-a550-9c8108dad808","system_id":"levelo_inurba_marseille","lat":43.27961,"lon":5.43608,"is_reserved":false,"is_disabled":false,"rental_uris":{"android":"levelo://app?vid=f47ec199-1317-4e40-a550-9c8108dad808","ios":"levelo://app?vid=f47ec199-1317-4e40-a550-9c8108dad808"},"vehicle_type_id":"4","last_reported":1762712011,"current_range_meters":10000,"station_id":"","pricing_plan_id":"cebpf4jnsgd1na2vs0mg"},{"bike_id":"9e0f4e21-48c3-491b-a9cd-bc6558f96fbb","system_id":"levelo_inurba_marseille","lat":43.302582,"lon":5.400824,"is_reserved":false,"is_disabled":false,"rental_uris":{"android":"levelo://app?vid=9e0f4e21-48c3-491b-a9cd-bc6558f96fbb","ios":"levelo://app?vid=9e0f4e21-48c3-491b-a9cd-bc6558f96fbb"},"vehicle_type_id":"4","last_reported":1762712011,"current_range_meters":10000,"station_id":"ce4bgvh2rcd13ifvqcs0","pricing_plan_id":"cebpf4jnsgd1na2vs0mg"},{"bike_id":"e196242a-3e46-4463-8c7f-4fd161b5afa1","system_id":"levelo_inurba_marseille","lat":43.29302,"lon":5.37157,"is_reserved":false,"is_disabled":false,"rental_uris":{"android":"levelo://app?vid=e196242a-3e46-4463-8c7f-4fd161b5afa1","ios":"levelo://app?vid=e196242a-3e46-4463-8c7f-4fd161b5afa1"},"vehicle_type_id":"4","last_reported":1762712011,"current_range_meters":10000,"station_id":"ce4bgh92rcd13ifvqb40","pricing_plan_id":"cebpf4jnsgd1na2vs0mg"},{"bike_id":"f6cb61b1-a934-404a-809a-d3835cb24148","system_id":"levelo_inurba_marseille","lat":43.30099,"lon":5.39075,"is_reserved":false,"is_disabled":false,"rental_uris":{"android":"levelo://app?vid=f6cb61b1-a934-404a-809a-d3835cb24148","ios":"levelo://app?vid=f6cb61b1-a934-404a-809a-d3835cb24148"},"vehicle_type_id":"4","last_reported":1762712011,"current_range_meters":10800,"station_id":"ce4bh192rcd13ifvqdb0","pricing_plan_id":"cebpf4jnsgd1na2vs0mg"},{"bike_id":"3c6ac483-c31e-4f0d-b45d-e64d2207e4f3","system_id":"levelo_inurba_marseille","lat":43.246609,"lon":5.381587,"is_reserved":false,"is_disabled":false,"rental_uris":{"android":"levelo://app?vid=3c6ac483-c31e-4f0d-b45d-e64d2207e4f3","ios":"levelo://app?vid=3c6ac483-c31e-4f0d-b45d-e64d2207e4f3"},"vehicle_type_id":"4","last_reported":1762712011,"current_range_meters":10800,"station_id":"","pricing_plan_id":"cebpf4jnsgd1na2vs0mg"},{"bike_id":"33a0cec5-86f2-4e3c-a472-42817818518d","system_id":"levelo_inurba_marseille","lat":43.292945,"lon":5.374493,"is_reserved":false,"is_disabled":false,"rental_uris":{"android":"levelo://app?vid=33a0cec5-86f2-4e3c-a472-42817818518d","ios":"levelo://app?vid=33a0cec5-86f2-4e3c-a472-42817818518d"},"vehicle_type_id":"4","last_reported":1762712011,"current_range_meters":10800,"station_id":"ce4bgi12rcd13ifvqb70","pricing_plan_id":"cebpf4jnsgd1na2vs0mg"},{"bike_id":"06b572d6-d95a-4f1a-9a9a-b316897ad6d5","system_id":"levelo_inurba_marseille","lat":43.29545,"lon":5.3752,"is_reserved":false,"is_disabled":false,"rental_uris":{"android":"levelo://app?vid=06b572d6-d95a-4f1a-9a9a-b316897ad6d5","ios":"levelo://app?vid=06b572d6-d95a-4f1a-9a9a-b316897ad6d5"},"vehicle_type_id":"4","last_reported":1762712011,"current_range_meters":10800,"station_id":"ce4bgkp2rcd13ifvqbmg","pricing_plan_id":"cebpf4jnsgd1na2vs0mg"},{"bike_id":"a815df45-1872-4563-b3ef-eada7196b9a9","system_id":"levelo_inurba_marseille","lat":43.28034,"lon":5.36951,"is_reserved":false,"is_disabled":false,"rental_uris":{"android":"levelo://app?vid=a815df45-1872-4563-b3ef-eada7196b9a9","ios":"levelo://app?vid=a815df45-1872-4563-b3ef-eada7196b9a9"},"vehicle_type_id":"4","last_reported":1762712011,"current_range_meters":10800,"station_id":"ce4bha12rcd13ifvqef0","pricing_plan_id":"cebpf4jnsgd1na2vs0mg"},{"bike_id":"bcb7664a-39c2-46f8-930f-41cebd3d0b86","system_id":"levelo_inurba_marseille","lat":43.21191,"lon":5.35089,"is_reserved":false,"is_disabled":true,"rental_uris":{"android":"levelo://app?vid=bcb7664a-39c2-46f8-930f-41cebd3d0b86","ios":"levelo://app?vid=bcb7664a-39c2-46f8-930f-41cebd3d0b86"},"vehicle_type_id":"4","last_reported":1762712011,"current_range_meters":10800,"station_id":"st_cvj6sg6p6f1abm77japg","pricing_plan_id":"cebpf4jnsgd1na2vs0mg"},{"bike_id":"ac1012d0-7872-4c6e-85e6-fc8eaff39396","system_id":"levelo_inurba_marseille","lat":43.28454,"lon":5.35907,"is_reserved":false,"is_disabled":true,"rental_uris":{"android":"levelo://app?vid=ac1012d0-7872-4c6e-85e6-fc8eaff39396","ios":"levelo://app?vid=ac1012d0-7872-4c6e-85e6-fc8eaff39396"},"vehicle_type_id":"4","last_reported":1762712011,"current_range_meters":10800,"station_id":"ce4bhah2rcd13ifvqei0","pricing_plan_id":"cebpf4jnsgd1na2vs0mg"},{"bike_id":"f48f8926-092b-4366-b477-e5f03ba66b63","system_id":"levelo_inurba_marseille","lat":43.290319,"lon":5.386457,"is_reserved":false,"is_disabled":false,"rental_uris":{"android":"levelo://app?vid=f48f8926-092b-4366-b477-e5f03ba66b63","ios":"levelo://app?vid=f48f8926-092b-4366-b477-e5f03ba66b63"},"vehicle_type_id":"4","last_reported":1762712011,"current_range_meters":10800,"station_id":"ce4bh4p2rcd13ifvqe0g","pricing_plan_id":"cebpf4jnsgd1na2vs0mg"},{"bike_id":"f8b94d25-64d9-4fa4-8eb0-62cfd4b2af8b","system_id":"levelo_inurba_marseille","lat":43.3059,"lon":5.39345,"is_reserved":false,"is_disabled":false,"rental_uris":{"android":"levelo://app?vid=f8b94d25-64d9-4fa4-8eb0-62cfd4b2af8b","ios":"levelo://app?vid=f8b94d25-64d9-4fa4-8eb0-62cfd4b2af8b"},"vehicle_type_id":"4","last_reported":1762712011,"current_range_meters":10800,"station_id":"ce4bh0p2rcd13ifvqd80","pricing_plan_id":"cebpf4jnsgd1na2vs0mg"},{"bike_id":"67efb670-bce5-4049-8122-c2052c82e196","system_id":"levelo_inurba_marseille","lat":43.29543,"lon":5.38552,"is_reserved":false,"is_disabled":false,"rental_uris":{"android":"levelo://app?vid=67efb670-bce5-4049-8122-c2052c82e196","ios":"levelo://app?vid=67efb670-bce5-4049-8122-c2052c82e196"},"vehicle_type_id":"4","last_reported":1762712011,"current_range_meters":11200,"station_id":"ce4bgih2rcd13ifvqba0","pricing_plan_id":"cebpf4jnsgd1na2vs0mg"},{"bike_id":"90e75491-f300-4cd4-95d9-4fcce675996b","system_id":"levelo_inurba_marseille","lat":43.28402,"lon":5.37468,"is_reserved":false,"is_disabled":true,"rental_uris":{"android":"levelo://app?vid=90e75491-f300-4cd4-95d9-4fcce675996b","ios":"levelo://app?vid=90e75491-f300-4cd4-95d9-4fcce675996b"},"vehicle_type_id":"4","last_reported":1762712011,"current_range_meters":11200,"station_id":"ce4bh412rcd13ifvqds0","pricing_plan_id":"cebpf4jnsgd1na2vs0mg"},{"bike_id":"317822ad-eebe-4d49-be47-de3738a7f974","system_id":"levelo_inurba_marseille","lat":43.331531,"lon":5.376956,"is_reserved":false,"is_disabled":false,"rental_uris":{"android":"levelo://app?vid=317822ad-eebe-4d49-be47-de3738a7f974","ios":"levelo://app?vid=317822ad-eebe-4d49-be47-de3738a7f974"},"vehicle_type_id":"4","last_reported":1762712011,"current_range_meters":11200,"station_id":"st_d46cu089ee8s73dldbu0","pricing_plan_id":"cebpf4jnsgd1na2vs0mg"},{"bike_id":"9104b884-a442-47e5-a4ac-968f9aa44120","system_id":"levelo_inurba_marseille","lat":43.289294,"lon":5.384061,"is_reserved":false,"is_disabled":false,"rental_uris":{"android":"levelo://app?vid=9104b884-a442-47e5-a4ac-968f9aa44120","ios":"levelo://app?vid=9104b884-a442-47e5-a4ac-968f9aa44120"},"vehicle_type_id":"4","last_reported":1762712011,"current_range_meters":11200,"station_id":"","pricing_plan_id":"cebpf4jnsgd1na2vs0mg"},{"bike_id":"9247ec75-2bdd-4bed-a043-9462e3d86f7b","system_id":"levelo_inurba_marseille","lat":43.28682,"lon":5.37367,"is_reserved":false,"is_disabled":false,"rental_uris":{"android":"levelo://app?vid=9247ec75-2bdd-4bed-a043-9462e3d86f7b","ios":"levelo://app?vid=9247ec75-2bdd-4bed-a043-9462e3d86f7b"},"vehicle_type_id":"4","last_reported":1762712011,"current_range_meters":11200,"station_id":"ce4bh3p2rcd13ifvqdq0","pricing_plan_id":"cebpf4jnsgd1na2vs0mg"},{"bike_id":"63d30812-700e-441e-9d99-f15a237c026e","system_id":"levelo_inurba_marseille","lat":43.30607,"lon":5.37231,"is_reserved":false,"is_disabled":false,"rental_uris":{"android":"levelo://app?vid=63d30812-700e-441e-9d99-f15a237c026e","ios":"levelo://app?vid=63d30812-700e-441e-9d99-f15a237c026e"},"vehicle_type_id":"4","last_reported":1762712011,"current_range_meters":11200,"station_id":"ce4bgqh2rcd13ifvqc4g","pricing_plan_id":"cebpf4jnsgd1na2vs0mg"},{"bike_id":"742bba46-7343-4778-9e68-316ecf290b67","system_id":"levelo_inurba_marseille","lat":43.309051,"lon":5.368381,"is_reserved":false,"is_disabled":false,"rental_uris":{"android":"levelo://app?vid=742bba46-7343-4778-9e68-316ecf290b67","ios":"levelo://app?vid=742bba46-7343-4778-9e68-316ecf290b67"},"vehicle_type_id":"4","last_reported":1762712011,"current_range_meters":11200,"station_id":"ce4bgn92rcd13ifvqbvg","pricing_plan_id":"cebpf4jnsgd1na2vs0mg"},{"bike_id":"33934821-bb3f-4fcb-b888-2da30727e56e","system_id":"levelo_inurba_marseille","lat":43.2533,"lon":5.42161,"is_reserved":false,"is_disabled":false,"rental_uris":{"android":"levelo://app?vid=33934821-bb3f-4fcb-b888-2da30727e56e","ios":"levelo://app?vid=33934821-bb3f-4fcb-b888-2da30727e56e"},"vehicle_type_id":"4","last_reported":1762712011,"current_range_meters":11200,"station_id":"st_d2m65c5bi1j21697t3ng","pricing_plan_id":"cebpf4jnsgd1na2vs0mg"},{"bike_id":"006d14f8-9a06-4925-922f-d8b06400da2d","system_id":"levelo_inurba_marseille","lat":43.28931,"lon":5.3839,"is_reserved":false,"is_disabled":false,"rental_uris":{"android":"levelo://app?vid=006d14f8-9a06-4925-922f-d8b06400da2d","ios":"levelo://app?vid=006d14f8-9a06-4925-922f-d8b06400da2d"},"vehicle_type_id":"4","last_reported":1762712011,"current_range_meters":11600,"station_id":"ce4bh612rcd13ifvqe6g","pricing_plan_id":"cebpf4jnsgd1na2vs0mg"},{"bike_id":"86e75951-1ab6-4a80-ad31-0280313ff696","system_id":"levelo_inurba_marseille","lat":43.30182,"lon":5.366107,"is_reserved":false,"is_disabled":false,"rental_uris":{"android":"levelo://app?vid=86e75951-1ab6-4a80-ad31-0280313ff696","ios":"levelo://app?vid=86e75951-1ab6-4a80-ad31-0280313ff696"},"vehicle_type_id":"4","last_reported":1762712011,"current_range_meters":11600,"station_id":"ce4bgrh2rcd13ifvqc8g","pricing_plan_id":"cebpf4jnsgd1na2vs0mg"},{"bike_id":"61a72d0e-7530-4bfe-a071-573c27c4b8aa","system_id":"levelo_inurba_marseille","lat":43.31071,"lon":5.38352,"is_reserved":false,"is_disabled":false,"rental_uris":{"android":"levelo://app?vid=61a72d0e-7530-4bfe-a071-573c27c4b8aa","ios":"levelo://app?vid=61a72d0e-7530-4bfe-a071-573c27c4b8aa"},"vehicle_type_id":"4","last_reported":1762712011,"current_range_meters":11600,"station_id":"ce4bgv92rcd13ifvqcr0","pricing_plan_id":"cebpf4jnsgd1na2vs0mg"},{"bike_id":"6199e56c-f956-47a4-a044-e3277198394e","system_id":"levelo_inurba_marseille","lat":43.29028,"lon":5.38624,"is_reserved":false,"is_disabled":false,"rental_uris":{"android":"levelo://app?vid=6199e56c-f956-47a4-a044-e3277198394e","ios":"levelo://app?vid=6199e56c-f956-47a4-a044-e3277198394e"},"vehicle_type_id":"4","last_reported":1762712011,"current_range_meters":11600,"station_id":"ce4bh4p2rcd13ifvqe0g","pricing_plan_id":"cebpf4jnsgd1na2vs0mg"},{"bike_id":"93284a1c-afbf-49f5-b952-7e8704cbb35f","system_id":"levelo_inurba_marseille","lat":43.28081,"lon":5.39656,"is_reserved":false,"is_disabled":false,"rental_uris":{"android":"levelo://app?vid=93284a1c-afbf-49f5-b952-7e8704cbb35f","ios":"levelo://app?vid=93284a1c-afbf-49f5-b952-7e8704cbb35f"},"vehicle_type_id":"4","last_reported":1762712011,"current_range_meters":11600,"station_id":"ce4bho12rcd13ifvqh2g","pricing_plan_id":"cebpf4jnsgd1na2vs0mg"},{"bike_id":"7461b7b8-6b21-4ab6-a08e-8124474d5e97","system_id":"levelo_inurba_marseille","lat":43.30148,"lon":5.37425,"is_reserved":false,"is_disabled":false,"rental_uris":{"android":"levelo://app?vid=7461b7b8-6b21-4ab6-a08e-8124474d5e97","ios":"levelo://app?vid=7461b7b8-6b21-4ab6-a08e-8124474d5e97"},"vehicle_type_id":"4","last_reported":1762712011,"current_range_meters":11600,"station_id":"ce4bgs92rcd13ifvqcc0","pricing_plan_id":"cebpf4jnsgd1na2vs0mg"},{"bike_id":"5997c6b0-b0f4-4848-a8f1-63ca201df211","system_id":"levelo_inurba_marseille","lat":43.33905,"lon":5.4157,"is_reserved":false,"is_disabled":false,"rental_uris":{"android":"levelo://app?vid=5997c6b0-b0f4-4848-a8f1-63ca201df211","ios":"levelo://app?vid=5997c6b0-b0f4-4848-a8f1-63ca201df211"},"vehicle_type_id":"4","last_reported":1762712011,"current_range_meters":11600,"station_id":"","pricing_plan_id":"cebpf4jnsgd1na2vs0mg"},{"bike_id":"0962aeb9-4289-4770-8de0-044b74c68b28","system_id":"levelo_inurba_marseille","lat":43.30159,"lon":5.37418,"is_reserved":false,"is_disabled":false,"rental_uris":{"android":"levelo://app?vid=0962aeb9-4289-4770-8de0-044b74c68b28","ios":"levelo://app?vid=0962aeb9-4289-4770-8de0-044b74c68b28"},"vehicle_type_id":"4","last_reported":1762712011,"current_range_meters":12000,"station_id":"ce4bgs92rcd13ifvqcc0","pricing_plan_id":"cebpf4jnsgd1na2vs0mg"},{"bike_id":"68e2a4eb-9515-41fd-aa1c-8497e40ac482","system_id":"levelo_inurba_marseille","lat":43.299146,"lon":5.381374,"is_reserved":false,"is_disabled":true,"rental_uris":{"android":"levelo://app?vid=68e2a4eb-9515-41fd-aa1c-8497e40ac482","ios":"levelo://app?vid=68e2a4eb-9515-41fd-aa1c-8497e40ac482"},"vehicle_type_id":"4","last_reported":1762712011,"current_range_meters":12000,"station_id":"ce4bgj12rcd13ifvqbc0","pricing_plan_id":"cebpf4jnsgd1na2vs0mg"},{"bike_id":"40965074-3498-4c19-84e7-c80f98ee19c0","system_id":"levelo_inurba_marseille","lat":43.297,"lon":5.37704,"is_reserved":false,"is_disabled":false,"rental_uris":{"android":"levelo://app?vid=40965074-3498-4c19-84e7-c80f98ee19c0","ios":"levelo://app?vid=40965074-3498-4c19-84e7-c80f98ee19c0"},"vehicle_type_id":"4","last_reported":1762712011,"current_range_meters":12000,"station_id":"ce4bgkh2rcd13ifvqbl0","pricing_plan_id":"cebpf4jnsgd1na2vs0mg"},{"bike_id":"679253a5-b71a-442d-82e2-ab1132f11eb3","system_id":"levelo_inurba_marseille","lat":43.29442,"lon":5.39749,"is_reserved":false,"is_disabled":false,"rental_uris":{"android":"levelo://app?vid=679253a5-b71a-442d-82e2-ab1132f11eb3","ios":"levelo://app?vid=679253a5-b71a-442d-82e2-ab1132f11eb3"},"vehicle_type_id":"4","last_reported":1762712011,"current_range_meters":12000,"station_id":"ce4bh3h2rcd13ifvqdo0","pricing_plan_id":"cebpf4jnsgd1na2vs0mg"},{"bike_id":"35ed8210-e075-48c9-bd28-fe22f73453bc","system_id":"levelo_inurba_marseille","lat":43.260189,"lon":5.417466,"is_reserved":false,"is_disabled":false,"rental_uris":{"android":"levelo://app?vid=35ed8210-e075-48c9-bd28-fe22f73453bc","ios":"levelo://app?vid=35ed8210-e075-48c9-bd28-fe22f73453bc"},"vehicle_type_id":"4","last_reported":1762712011,"current_range_meters":12000,"station_id":"","pricing_plan_id":"cebpf4jnsgd1na2vs0mg"},{"bike_id":"d43b8ef6-2e72-4d7f-9e67-274e449ab2e2","system_id":"levelo_inurba_marseille","lat":43.28716,"lon":5.36088,"is_reserved":false,"is_disabled":false,"rental_uris":{"android":"levelo://app?vid=d43b8ef6-2e72-4d7f-9e67-274e449ab2e2","ios":"levelo://app?vid=d43b8ef6-2e72-4d7f-9e67-274e449ab2e2"},"vehicle_type_id":"4","last_reported":1762712011,"current_range_meters":12000,"station_id":"ce4bh3p2rcd13ifvqdq0","pricing_plan_id":"cebpf4jnsgd1na2vs0mg"},{"bike_id":"f70f0a8c-7b50-4ada-91d4-a277ebf65c03","system_id":"levelo_inurba_marseille","lat":43.31165,"lon":5.3872,"is_reserved":false,"is_disabled":false,"rental_uris":{"android":"levelo://app?vid=f70f0a8c-7b50-4ada-91d4-a277ebf65c03","ios":"levelo://app?vid=f70f0a8c-7b50-4ada-91d4-a277ebf65c03"},"vehicle_type_id":"4","last_reported":1762712011,"current_range_meters":12400,"station_id":"ce4bgv12rcd13ifvqcp0","pricing_plan_id":"cebpf4jnsgd1na2vs0mg"},{"bike_id":"fee4f445-bba8-4be4-a3da-4decf51271b2","system_id":"levelo_inurba_marseille","lat":43.31822,"lon":5.40711,"is_reserved":false,"is_disabled":false,"rental_uris":{"android":"levelo://app?vid=fee4f445-bba8-4be4-a3da-4decf51271b2","ios":"levelo://app?vid=fee4f445-bba8-4be4-a3da-4decf51271b2"},"vehicle_type_id":"4","last_reported":1762712011,"current_range_meters":12400,"station_id":"","pricing_plan_id":"cebpf4jnsgd1na2vs0mg"},{"bike_id":"f9e21c59-c5f4-4ccf-86eb-afe442efe560","system_id":"levelo_inurba_marseille","lat":43.29107,"lon":5.38148,"is_reserved":false,"is_disabled":false,"rental_uris":{"android":"levelo://app?vid=f9e21c59-c5f4-4ccf-86eb-afe442efe560","ios":"levelo://app?vid=f9e21c59-c5f4-4ccf-86eb-afe442efe560"},"vehicle_type_id":"4","last_reported":1762712011,"current_range_meters":12400,"station_id":"ce4bh512rcd13ifvqe2g","pricing_plan_id":"cebpf4jnsgd1na2vs0mg"},{"bike_id":"e655bbfc-cf85-4720-a36e-14d23aa89e90","system_id":"levelo_inurba_marseille","lat":43.296808,"lon":5.372862,"is_reserved":false,"is_disabled":false,"rental_uris":{"android":"levelo://app?vid=e655bbfc-cf85-4720-a36e-14d23aa89e90","ios":"levelo://app?vid=e655bbfc-cf85-4720-a36e-14d23aa89e90"},"vehicle_type_id":"4","last_reported":1762712011,"current_range_meters":12400,"station_id":"ce4bgk12rcd13ifvqbj0","pricing_plan_id":"cebpf4jnsgd1na2vs0mg"},{"bike_id":"1893b67a-6115-43d6-8c4b-c502dd2a5e88","system_id":"levelo_inurba_marseille","lat":43.29974,"lon":5.38483,"is_reserved":false,"is_disabled":false,"rental_uris":{"android":"levelo://app?vid=1893b67a-6115-43d6-8c4b-c502dd2a5e88","ios":"levelo://app?vid=1893b67a-6115-43d6-8c4b-c502dd2a5e88"},"vehicle_type_id":"4","last_reported":1762712011,"current_range_meters":12400,"station_id":"ce4bgj92rcd13ifvqbd0","pricing_plan_id":"cebpf4jnsgd1na2vs0mg"},{"bike_id":"0c05f950-5c38-473d-8501-a2115d71888e","system_id":"levelo_inurba_marseille","lat":43.29608,"lon":5.38092,"is_reserved":false,"is_disabled":false,"rental_uris":{"android":"levelo://app?vid=0c05f950-5c38-473d-8501-a2115d71888e","ios":"levelo://app?vid=0c05f950-5c38-473d-8501-a2115d71888e"},"vehicle_type_id":"4","last_reported":1762712011,"current_range_meters":12400,"station_id":"ce4bgl12rcd13ifvqbo0","pricing_plan_id":"cebpf4jnsgd1na2vs0mg"},{"bike_id":"d2e046d4-72db-4d99-814c-2e3865425cb8","system_id":"levelo_inurba_marseille","lat":43.28564,"lon":5.39487,"is_reserved":false,"is_disabled":false,"rental_uris":{"android":"levelo://app?vid=d2e046d4-72db-4d99-814c-2e3865425cb8","ios":"levelo://app?vid=d2e046d4-72db-4d99-814c-2e3865425cb8"},"vehicle_type_id":"4","last_reported":1762712011,"current_range_meters":12400,"station_id":"ce4bh292rcd13ifvqdg0","pricing_plan_id":"cebpf4jnsgd1na2vs0mg"},{"bike_id":"98a850cc-53c2-4014-98f7-042c47c8231b","system_id":"levelo_inurba_marseille","lat":43.31227,"lon":5.37407,"is_reserved":false,"is_disabled":false,"rental_uris":{"android":"levelo://app?vid=98a850cc-53c2-4014-98f7-042c47c8231b","ios":"levelo://app?vid=98a850cc-53c2-4014-98f7-042c47c8231b"},"vehicle_type_id":"4","last_reported":1762712011,"current_range_meters":12400,"station_id":"","pricing_plan_id":"cebpf4jnsgd1na2vs0mg"},{"bike_id":"4eac3eb9-9ac1-4ff6-ad57-ed359befeed2","system_id":"levelo_inurba_marseille","lat":43.22864,"lon":5.40232,"is_reserved":false,"is_disabled":false,"rental_uris":{"android":"levelo://app?vid=4eac3eb9-9ac1-4ff6-ad57-ed359befeed2","ios":"levelo://app?vid=4eac3eb9-9ac1-4ff6-ad57-ed359befeed2"},"vehicle_type_id":"4","last_reported":1762712011,"current_range_meters":12400,"station_id":"","pricing_plan_id":"cebpf4jnsgd1na2vs0mg"},{"bike_id":"6b483040-c055-4d1f-b14c-36769e065ae1","system_id":"levelo_inurba_marseille","lat":43.31072,"lon":5.38357,"is_reserved":false,"is_disabled":false,"rental_uris":{"android":"levelo://app?vid=6b483040-c055-4d1f-b14c-36769e065ae1","ios":"levelo://app?vid=6b483040-c055-4d1f-b14c-36769e065ae1"},"vehicle_type_id":"4","last_reported":1762712011,"current_range_meters":12400,"station_id":"ce4bgv92rcd13ifvqcr0","pricing_plan_id":"cebpf4jnsgd1na2vs0mg"},{"bike_id":"f6990166-8c3b-4c66-8f62-880bad0dfa4b","system_id":"levelo_inurba_marseille","lat":43.2257,"lon":5.41625,"is_reserved":false,"is_disabled":false,"rental_uris":{"android":"levelo://app?vid=f6990166-8c3b-4c66-8f62-880bad0dfa4b","ios":"levelo://app?vid=f6990166-8c3b-4c66-8f62-880bad0dfa4b"},"vehicle_type_id":"4","last_reported":1762712011,"current_range_meters":12400,"station_id":"st_d2o4gvlbi1j2169b742g","pricing_plan_id":"cebpf4jnsgd1na2vs0mg"},{"bike_id":"f982843f-08f2-4bee-b644-21bdc1982921","system_id":"levelo_inurba_marseille","lat":43.27576,"lon":5.38431,"is_reserved":false,"is_disabled":false,"rental_uris":{"android":"levelo://app?vid=f982843f-08f2-4bee-b644-21bdc1982921","ios":"levelo://app?vid=f982843f-08f2-4bee-b644-21bdc1982921"},"vehicle_type_id":"4","last_reported":1762712011,"current_range_meters":12400,"station_id":"ce4bhh92rcd13ifvqfi0","pricing_plan_id":"cebpf4jnsgd1na2vs0mg"},{"bike_id":"296b35f4-bf34-48bd-a614-0084f905815f","system_id":"levelo_inurba_marseille","lat":43.29934,"lon":5.36383,"is_reserved":false,"is_disabled":false,"rental_uris":{"android":"levelo://app?vid=296b35f4-bf34-48bd-a614-0084f905815f","ios":"levelo://app?vid=296b35f4-bf34-48bd-a614-0084f905815f"},"vehicle_type_id":"4","last_reported":1762712011,"current_range_meters":12400,"station_id":"","pricing_plan_id":"cebpf4jnsgd1na2vs0mg"},{"bike_id":"07a21d9a-0455-405a-a9a8-84e011504cb1","system_id":"levelo_inurba_marseille","lat":43.29249,"lon":5.38437,"is_reserved":false,"is_disabled":false,"rental_uris":{"android":"levelo://app?vid=07a21d9a-0455-405a-a9a8-84e011504cb1","ios":"levelo://app?vid=07a21d9a-0455-405a-a9a8-84e011504cb1"},"vehicle_type_id":"4","last_reported":1762712011,"current_range_meters":12400,"station_id":"ce4bh692rcd13ifvqea0","pricing_plan_id":"cebpf4jnsgd1na2vs0mg"},{"bike_id":"d8a2355e-a776-4b85-8a3e-22368796688d","system_id":"levelo_inurba_marseille","lat":43.30799,"lon":5.36842,"is_reserved":false,"is_disabled":false,"rental_uris":{"android":"levelo://app?vid=d8a2355e-a776-4b85-8a3e-22368796688d","ios":"levelo://app?vid=d8a2355e-a776-4b85-8a3e-22368796688d"},"vehicle_type_id":"4","last_reported":1762712011,"current_range_meters":12400,"station_id":"","pricing_plan_id":"cebpf4jnsgd1na2vs0mg"},{"bike_id":"5f51530e-ad6d-4525-9dbe-df8ccdff7435","system_id":"levelo_inurba_marseille","lat":43.31607,"lon":5.382,"is_reserved":false,"is_disabled":false,"rental_uris":{"android":"levelo://app?vid=5f51530e-ad6d-4525-9dbe-df8ccdff7435","ios":"levelo://app?vid=5f51530e-ad6d-4525-9dbe-df8ccdff7435"},"vehicle_type_id":"4","last_reported":1762712011,"current_range_meters":12400,"station_id":"","pricing_plan_id":"cebpf4jnsgd1na2vs0mg"},{"bike_id":"dcb3a940-33b3-4203-88d9-1084cf68a01e","system_id":"levelo_inurba_marseille","lat":43.24633,"lon":5.43143,"is_reserved":false,"is_disabled":false,"rental_uris":{"android":"levelo://app?vid=dcb3a940-33b3-4203-88d9-1084cf68a01e","ios":"levelo://app?vid=dcb3a940-33b3-4203-88d9-1084cf68a01e"},"vehicle_type_id":"4","last_reported":1762712011,"current_range_meters":12800,"station_id":"st_d2m6c4gdas8pm72e190g","pricing_plan_id":"cebpf4jnsgd1na2vs0mg"},{"bike_id":"8743170b-97c5-4638-8da3-974090acedaa","system_id":"levelo_inurba_marseille","lat":43.241778,"lon":5.397286,"is_reserved":false,"is_disabled":false,"rental_uris":{"android":"levelo://app?vid=8743170b-97c5-4638-8da3-974090acedaa","ios":"levelo://app?vid=8743170b-97c5-4638-8da3-974090acedaa"},"vehicle_type_id":"4","last_reported":1762712011,"current_range_meters":12800,"station_id":"ce4bhn12rcd13ifvqgpg","pricing_plan_id":"cebpf4jnsgd1na2vs0mg"},{"bike_id":"64220773-febf-419a-86a1-b28112b1666e","system_id":"levelo_inurba_marseille","lat":43.2872,"lon":5.36083,"is_reserved":false,"is_disabled":false,"rental_uris":{"android":"levelo://app?vid=64220773-febf-419a-86a1-b28112b1666e","ios":"levelo://app?vid=64220773-febf-419a-86a1-b28112b1666e"},"vehicle_type_id":"4","last_reported":1762712011,"current_range_meters":12800,"station_id":"cki0cbj6b192h4jlfktg","pricing_plan_id":"cebpf4jnsgd1na2vs0mg"},{"bike_id":"a6883ff0-f607-46ba-a664-f3fb248008fc","system_id":"levelo_inurba_marseille","lat":43.2509,"lon":5.39522,"is_reserved":false,"is_disabled":false,"rental_uris":{"android":"levelo://app?vid=a6883ff0-f607-46ba-a664-f3fb248008fc","ios":"levelo://app?vid=a6883ff0-f607-46ba-a664-f3fb248008fc"},"vehicle_type_id":"4","last_reported":1762712011,"current_range_meters":13600,"station_id":"ce4bhm12rcd13ifvqgkg","pricing_plan_id":"cebpf4jnsgd1na2vs0mg"},{"bike_id":"780c4098-3a0d-4341-844f-224d615263f0","system_id":"levelo_inurba_marseille","lat":43.28932,"lon":5.36635,"is_reserved":false,"is_disabled":false,"rental_uris":{"android":"levelo://app?vid=780c4098-3a0d-4341-844f-224d615263f0","ios":"levelo://app?vid=780c4098-3a0d-4341-844f-224d615263f0"},"vehicle_type_id":"4","last_reported":1762712011,"current_range_meters":13600,"station_id":"ce4bhap2rcd13ifvqek0","pricing_plan_id":"cebpf4jnsgd1na2vs0mg"},{"bike_id":"f08621f1-92b2-4985-8a3a-96dd283a7c2b","system_id":"levelo_inurba_marseille","lat":43.31354,"lon":5.37932,"is_reserved":false,"is_disabled":false,"rental_uris":{"android":"levelo://app?vid=f08621f1-92b2-4985-8a3a-96dd283a7c2b","ios":"levelo://app?vid=f08621f1-92b2-4985-8a3a-96dd283a7c2b"},"vehicle_type_id":"4","last_reported":1762712011,"current_range_meters":13600,"station_id":"","pricing_plan_id":"cebpf4jnsgd1na2vs0mg"},{"bike_id":"9509d5e6-b8a8-46f7-9700-739b3469c31e","system_id":"levelo_inurba_marseille","lat":43.28574,"lon":5.39497,"is_reserved":false,"is_disabled":false,"rental_uris":{"android":"levelo://app?vid=9509d5e6-b8a8-46f7-9700-739b3469c31e","ios":"levelo://app?vid=9509d5e6-b8a8-46f7-9700-739b3469c31e"},"vehicle_type_id":"4","last_reported":1762712011,"current_range_meters":13600,"station_id":"ce4bh292rcd13ifvqdg0","pricing_plan_id":"cebpf4jnsgd1na2vs0mg"},{"bike_id":"819643e0-75a1-4796-afef-8e5f318a5dda","system_id":"levelo_inurba_marseille","lat":43.308698,"lon":5.36833,"is_reserved":false,"is_disabled":false,"rental_uris":{"android":"levelo://app?vid=819643e0-75a1-4796-afef-8e5f318a5dda","ios":"levelo://app?vid=819643e0-75a1-4796-afef-8e5f318a5dda"},"vehicle_type_id":"4","last_reported":1762712011,"current_range_meters":13600,"station_id":"ce4bgn92rcd13ifvqbvg","pricing_plan_id":"cebpf4jnsgd1na2vs0mg"},{"bike_id":"0b73cb0d-aefc-423a-99ff-99fae100ab87","system_id":"levelo_inurba_marseille","lat":43.29248,"lon":5.40912,"is_reserved":false,"is_disabled":false,"rental_uris":{"android":"levelo://app?vid=0b73cb0d-aefc-423a-99ff-99fae100ab87","ios":"levelo://app?vid=0b73cb0d-aefc-423a-99ff-99fae100ab87"},"vehicle_type_id":"4","last_reported":1762712011,"current_range_meters":14000,"station_id":"ce4bh192rcd13ifvqdc0","pricing_plan_id":"cebpf4jnsgd1na2vs0mg"},{"bike_id":"1e40bf4a-2a1a-44b7-b08a-f8e06a146d4c","system_id":"levelo_inurba_marseille","lat":43.28022,"lon":5.36971,"is_reserved":false,"is_disabled":false,"rental_uris":{"android":"levelo://app?vid=1e40bf4a-2a1a-44b7-b08a-f8e06a146d4c","ios":"levelo://app?vid=1e40bf4a-2a1a-44b7-b08a-f8e06a146d4c"},"vehicle_type_id":"4","last_reported":1762712011,"current_range_meters":14000,"station_id":"ce4bha12rcd13ifvqef0","pricing_plan_id":"cebpf4jnsgd1na2vs0mg"},{"bike_id":"7fbd3ed3-e2c8-4cd0-b856-50c991664ce2","system_id":"levelo_inurba_marseille","lat":43.30139,"lon":5.38781,"is_reserved":false,"is_disabled":false,"rental_uris":{"android":"levelo://app?vid=7fbd3ed3-e2c8-4cd0-b856-50c991664ce2","ios":"levelo://app?vid=7fbd3ed3-e2c8-4cd0-b856-50c991664ce2"},"vehicle_type_id":"4","last_reported":1762712011,"current_range_meters":14000,"station_id":"ce4bghh2rcd13ifvqb60","pricing_plan_id":"cebpf4jnsgd1na2vs0mg"},{"bike_id":"cf3fad49-046a-418c-a0e4-11a51c8369b9","system_id":"levelo_inurba_marseille","lat":43.29521,"lon":5.39411,"is_reserved":false,"is_disabled":false,"rental_uris":{"android":"levelo://app?vid=cf3fad49-046a-418c-a0e4-11a51c8369b9","ios":"levelo://app?vid=cf3fad49-046a-418c-a0e4-11a51c8369b9"},"vehicle_type_id":"4","last_reported":1762712011,"current_range_meters":14000,"station_id":"ce4bh292rcd13ifvqdf0","pricing_plan_id":"cebpf4jnsgd1na2vs0mg"},{"bike_id":"5f083e95-15b9-4672-b444-1d2b76083002","system_id":"levelo_inurba_marseille","lat":43.2997,"lon":5.37155,"is_reserved":false,"is_disabled":false,"rental_uris":{"android":"levelo://app?vid=5f083e95-15b9-4672-b444-1d2b76083002","ios":"levelo://app?vid=5f083e95-15b9-4672-b444-1d2b76083002"},