{"last_updated":1730448727,"ttl":60,"version":"2.2","data":{"bikes":[{"bike_id":"e53a6469-e69d-4cd7-bb6e-bf50b394fbf1","system_id":"levelo_inurba_marseille","lat":43.30467,"lon":5.37894,"is_reserved":false,"is_disabled":false,"rental_uris":{"android":"levelo://app?vid=e53a6469-e69d-4cd7-bb6e-bf50b394fbf1","ios":"levelo://app?vid=e53a6469-e69d-4cd7-bb6e-bf50b394fbf1"},"vehicle_type_id":"4","last_reported":1730448727,"current_range_meters":39200,"station_id":"ce4bgup2rcd13ifvqcn0","pricing_plan_id":"cebpf4jnsgd1na2vs0mg"},{"bike_id":"4619a927-69f6-4e40-aea7-50e83b0fe185","system_id":"levelo_inurba_marseille","lat":43.32487,"lon":5.36564,"is_reserved":false,"is_disabled":false,"rental_uris":{"android":"levelo://app?vid=4619a927-69f6-4e40-aea7-50e83b0fe185","ios":"levelo://app?vid=4619a927-69f6-4e40-aea7-50e83b0fe185"},"vehicle_type_id":"4","last_reported":1730448727,"current_range_meters":14400,"station_id":"ce4bhs12rcd13ifvqhvg","pricing_plan_id":"cebpf4jnsgd1na2vs0mg"},{"bike_id":"5f91fdb1-af44-4e60-814c-d84487ed3693","system_id":"levelo_inurba_marseille","lat":43.24665,"lon":5.3817,"is_reserved":false,"is_disabled":false,"rental_uris":{"android":"levelo://app?vid=5f91fdb1-af44-4e60-814c-d84487ed3693","ios":"levelo://app?vid=5f91fdb1-af44-4e60-814c-d84487ed3693"},"vehicle_type_id":"4","last_reported":1730448727,"current_range_meters":36000,"station_id":"ce4bhih2rcd13ifvqfr0","pricing_plan_id":"cebpf4jnsgd1na2vs0mg"},{"bike_id":"e3924428-a085-40f6-a0c3-a6a5f32fffb8","system_id":"levelo_inurba_marseille","lat":43.28692,"lon":5.39977,"is_reserved":false,"is_disabled":false,"rental_uris":{"android":"levelo://app?vid=e3924428-a085-40f6-a0c3-a6a5f32fffb8","ios":"levelo://app?vid=e3924428-a085-40f6-a0c3-a6a5f32fffb8"},"vehicle_type_id":"4","last_reported":1730448727,"current_range_meters":8400,"station_id":"ce4bho92rcd13ifvqh3g","pricing_plan_id":"cebpf4jnsgd1na2vs0mg"},{"bike_id":"ce3179b7-2a80-420b-a76e-f00650962be4","system_id":"levelo_inurba_marseille","lat":43.29609,"lon":5.37701,"is_reserved":false,"is_disabled":false,"rental_uris":{"android":"levelo://app?vid=ce3179b7-2a80-420b-a76e-f00650962be4","ios":"levelo://app?vid=ce3179b7-2a80-420b-a76e-f00650962be4"},"vehicle_type_id":"4","last_reported":1730448727,"current_range_meters":23200,"station_id":"ce4bgi92rcd13ifvqb90","pricing_plan_id":"cebpf4jnsgd1na2vs0mg"},{"bike_id":"fd279faa-6b4c-4e2e-8577-0669e4dbcaa0","system_id":"levelo_inurba_marseille","lat":43.24174,"lon":5.39719,"is_reserved":false,"is_disabled":false,"rental_uris":{"android":"levelo://app?vid=fd279faa-6b4c-4e2e-8577-0669e4dbcaa0","ios":"levelo://app?vid=fd279faa-6b4c-4e2e-8577-0669e4dbcaa0"},"vehicle_type_id":"4","last_reported":1730448727,"current_range_meters":31200,"station_id":"ce4bhn12rcd13ifvqgpg","pricing_plan_id":"cebpf4jnsgd1na2vs0mg"},{"bike_id":"641cbb44-6505-428a-a278-5b8b97cf4cf1","system_id":"levelo_inurba_marseille","lat":43.29183,"lon":5.40856,"is_reserved":false,"is_disabled":false,"rental_uris":{"android":"levelo://app?vid=641cbb44-6505-428a-a278-5b8b97cf4cf1","ios":"levelo://app?vid=641cbb44-6505-428a-a278-5b8b97cf4cf1"},"vehicle_type_id":"4","last_reported":1730448727,"current_range_meters":25600,"station_id":"","pricing_plan_id":"cebpf4jnsgd1na2vs0mg"},{"bike_id":"b564d8bc-2b59-43dd-ad25-39bd7cd1e42e","system_id":"levelo_inurba_marseille","lat":43.31712,"lon":5.3776,"is_reserved":false,"is_disabled":false,"rental_uris":{"android":"levelo://app?vid=b564d8bc-2b59-43dd-ad25-39bd7cd1e42e","ios":"levelo://app?vid=b564d8bc-2b59-43dd-ad25-39bd7cd1e42e"},"vehicle_type_id":"4","last_reported":1730448727,"current_range_meters":8800,"station_id":"ce4bgth2rcd13ifvqch0","pricing_plan_id":"cebpf4jnsgd1na2vs0mg"},{"bike_id":"93eee5c3-4fd6-41b7-85b5-39825b20f412","system_id":"levelo_inurba_marseille","lat":43.300935,"lon":5.39091,"is_reserved":false,"is_disabled":false,"rental_uris":{"android":"levelo://app?vid=93eee5c3-4fd6-41b7-85b5-39825b20f412","ios":"levelo://app?vid=93eee5c3-4fd6-41b7-85b5-39825b20f412"},"vehicle_type_id":"4","last_reported":1730448727,"current_range_meters":34000,"station_id":"ce4bh192rcd13ifvqdb0","pricing_plan_id":"cebpf4jnsgd1na2vs0mg"},{"bike_id":"3ddf0fb6-815e-44c7-9ea2-d3e6fcff8a34","system_id":"levelo_inurba_marseille","lat":43.2903,"lon":5.38137,"is_reserved":false,"is_disabled":false,"rental_uris":{"android":"levelo://app?vid=3ddf0fb6-815e-44c7-9ea2-d3e6fcff8a34","ios":"levelo://app?vid=3ddf0fb6-815e-44c7-9ea2-d3e6fcff8a34"},"vehicle_type_id":"4","last_reported":1730448727,"current_range_meters":38000,"station_id":"ce4bh4p2rcd13ifvqe1g","pricing_plan_id":"cebpf4jnsgd1na2vs0mg"},{"bike_id":"5afa0068-76a2-456a-bbe0-b3dc1b6b60f8","system_id":"levelo_inurba_marseille","lat":43.30935,"lon":5.40145,"is_reserved":false,"is_disabled":false,"rental_uris":{"android":"levelo://app?vid=5afa0068-76a2-456a-bbe0-b3dc1b6b60f8","ios":"levelo://app?vid=5afa0068-76a2-456a-bbe0-b3dc1b6b60f8"},"vehicle_type_id":"4","last_reported":1730448727,"current_range_meters":39200,"station_id":"ce4bgvp2rcd13ifvqct0","pricing_plan_id":"cebpf4jnsgd1na2vs0mg"},{"bike_id":"4424acf5-4fee-49ab-bce1-1a1e11ee7af5","system_id":"levelo_inurba_marseille","lat":43.25116,"lon":5.40319,"is_reserved":false,"is_disabled":false,"rental_uris":{"android":"levelo://app?vid=4424acf5-4fee-49ab-bce1-1a1e11ee7af5","ios":"levelo://app?vid=4424acf5-4fee-49ab-bce1-1a1e11ee7af5"},"vehicle_type_id":"4","last_reported":1730448727,"current_range_meters":16000,"station_id":"ce4bhlh2rcd13ifvqgig","pricing_plan_id":"cebpf4jnsgd1na2vs0mg"},{"bike_id":"a4627486-a087-47d1-bdea-e9476cd49986","system_id":"levelo_inurba_marseille","lat":43.23191,"lon":5.35541,"is_reserved":false,"is_disabled":false,"rental_uris":{"android":"levelo://app?vid=a4627486-a087-47d1-bdea-e9476cd49986","ios":"levelo://app?vid=a4627486-a087-47d1-bdea-e9476cd49986"},"vehicle_type_id":"4","last_reported":1730448727,"current_range_meters":32800,"station_id":"ce4bhu92rcd13ifvqi70","pricing_plan_id":"cebpf4jnsgd1na2vs0mg"},{"bike_id":"55dab1c5-8299-4ba5-b0e5-ab02ab9376bc","system_id":"levelo_inurba_marseille","lat":43.24177,"lon":5.39734,"is_reserved":false,"is_disabled":false,"rental_uris":{"android":"levelo://app?vid=55dab1c5-8299-4ba5-b0e5-ab02ab9376bc","ios":"levelo://app?vid=55dab1c5-8299-4ba5-b0e5-ab02ab9376bc"},"vehicle_type_id":"4","last_reported":1730448727,"current_range_meters":39200,"station_id":"ce4bhn12rcd13ifvqgpg","pricing_plan_id":"cebpf4jnsgd1na2vs0mg"},{"bike_id":"509a9bdc-ca48-4855-8040-748bb9b3087b","system_id":"levelo_inurba_marseille","lat":43.25942,"lon":5.40902,"is_reserved":false,"is_disabled":false,"rental_uris":{"android":"levelo://app?vid=509a9bdc-ca48-4855-8040-748bb9b3087b","ios":"levelo://app?vid=509a9bdc-ca48-4855-8040-748bb9b3087b"},"vehicle_type_id":"4","last_reported":1730448727,"current_range_meters":28000,"station_id":"ce4bhm92rcd13ifvqglg","pricing_plan_id":"cebpf4jnsgd1na2vs0mg"},{"bike_id":"28de8f4a-fa68-498a-9818-fa5670986c33","system_id":"levelo_inurba_marseille","lat":43.2933,"lon":5.3767,"is_reserved":false,"is_disabled":false,"rental_uris":{"android":"levelo://app?vid=28de8f4a-fa68-498a-9818-fa5670986c33","ios":"levelo://app?vid=28de8f4a-fa68-498a-9818-fa5670986c33"},"vehicle_type_id":"4","last_reported":1730448727,"current_range_meters":10000,"station_id":"","pricing_plan_id":"cebpf4jnsgd1na2vs0mg"},{"bike_id":"b58d7959-be24-4558-8014-49895e2f8ed4","system_id":"levelo_inurba_marseille","lat":43.23156,"lon":5.4371,"is_reserved":false,"is_disabled":false,"rental_uris":{"android":"levelo://app?vid=b58d7959-be24-4558-8014-49895e2f8ed4","ios":"levelo://app?vid=b58d7959-be24-4558-8014-49895e2f8ed4"},"vehicle_type_id":"4","last_reported":1730448727,"current_range_meters":12000,"station_id":"ce4bhmp2rcd13ifvqgog","pricing_plan_id":"cebpf4jnsgd1na2vs0mg"},{"bike_id":"a9057597-6b6f-4141-99a4-e986f9303eb5","system_id":"levelo_inurba_marseille","lat":43.24175,"lon":5.3972,"is_reserved":false,"is_disabled":false,"rental_uris":{"android":"levelo://app?vid=a9057597-6b6f-4141-99a4-e986f9303eb5","ios":"levelo://app?vid=a9057597-6b6f-4141-99a4-e986f9303eb5"},"vehicle_type_id":"4","last_reported":1730448727,"current_range_meters":6800,"station_id":"ce4bhn12rcd13ifvqgpg","pricing_plan_id":"cebpf4jnsgd1na2vs0mg"},{"bike_id":"95e63777-c35a-48e8-bb1d-690c2ef772fc","system_id":"levelo_inurba_marseille","lat":43.26208,"lon":5.37447,"is_reserved":false,"is_disabled":false,"rental_uris":{"android":"levelo://app?vid=95e63777-c35a-48e8-bb1d-690c2ef772fc","ios":"levelo://app?vid=95e63777-c35a-48e8-bb1d-690c2ef772fc"},"vehicle_type_id":"4","last_reported":1730448727,"current_range_meters":14000,"station_id":"ce4bhgp2rcd13ifvqfc0","pricing_plan_id":"cebpf4jnsgd1na2vs0mg"},{"bike_id":"efbe383f-83c6-4df5-ac1f-ffa8f2e0197b","system_id":"levelo_inurba_marseille","lat":43.31335,"lon":5.39699,"is_reserved":false,"is_disabled":false,"rental_uris":{"android":"levelo://app?vid=efbe383f-83c6-4df5-ac1f-ffa8f2e0197b","ios":"levelo://app?vid=efbe383f-83c6-4df5-ac1f-ffa8f2e0197b"},"vehicle_type_id":"4","last_reported":1730448727,"current_range_meters":10800,"station_id":"ce4bgvp2rcd13ifvqcu0","pricing_plan_id":"cebpf4jnsgd1na2vs0mg"},{"bike_id":"9acf314e-3e6b-4d93-8e5f-f80dbd50572c","system_id":"levelo_inurba_marseille","lat":43.306044,"lon":5.393676,"is_reserved":false,"is_disabled":false,"rental_uris":{"android":"levelo://app?vid=9acf314e-3e6b-4d93-8e5f-f80dbd50572c","ios":"levelo://app?vid=9acf314e-3e6b-4d93-8e5f-f80dbd50572c"},"vehicle_type_id":"4","last_reported":1730448727,"current_range_meters":18800,"station_id":"ce4bh0p2rcd13ifvqd80","pricing_plan_id":"cebpf4jnsgd1na2vs0mg"},{"bike_id":"d0560f7e-a02f-4617-8275-a4db66dcdcff","system_id":"levelo_inurba_marseille","lat":43.3032,"lon":5.40452,"is_reserved":false,"is_disabled":false,"rental_uris":{"android":"levelo://app?vid=d0560f7e-a02f-4617-8275-a4db66dcdcff","ios":"levelo://app?vid=d0560f7e-a02f-4617-8275-a4db66dcdcff"},"vehicle_type_id":"4","last_reported":1730448727,"current_range_meters":8400,"station_id":"ce4bh012rcd13ifvqd10","pricing_plan_id":"cebpf4jnsgd1na2vs0mg"},{"bike_id":"8115db3b-29e1-45ec-85fa-cacba4738ff5","system_id":"levelo_inurba_marseille","lat":43.30095,"lon":5.39077,"is_reserved":false,"is_disabled":false,"rental_uris":{"android":"levelo://app?vid=8115db3b-29e1-45ec-85fa-cacba4738ff5","ios":"levelo://app?vid=8115db3b-29e1-45ec-85fa-cacba4738ff5"},"vehicle_type_id":"4","last_reported":1730448727,"current_range_meters":32400,"station_id":"ce4bh192rcd13ifvqdb0","pricing_plan_id":"cebpf4jnsgd1na2vs0mg"},{"bike_id":"6458471e-37f5-4325-ad1e-b551f3950175","system_id":"levelo_inurba_marseille","lat":43.30945,"lon":5.39024,"is_reserved":false,"is_disabled":false,"rental_uris":{"android":"levelo://app?vid=6458471e-37f5-4325-ad1e-b551f3950175","ios":"levelo://app?vid=6458471e-37f5-4325-ad1e-b551f3950175"},"vehicle_type_id":"4","last_reported":1730448727,"current_range_meters":38800,"station_id":"ce4bgup2rcd13ifvqco0","pricing_plan_id":"cebpf4jnsgd1na2vs0mg"},{"bike_id":"48ab66bb-3507-4079-b82e-162e808be427","system_id":"levelo_inurba_marseille","lat":43.30074,"lon":5.38655,"is_reserved":false,"is_disabled":false,"rental_uris":{"android":"levelo://app?vid=48ab66bb-3507-4079-b82e-162e808be427","ios":"levelo://app?vid=48ab66bb-3507-4079-b82e-162e808be427"},"vehicle_type_id":"4","last_reported":1730448727,"current_range_meters":24000,"station_id":"ce4bghh2rcd13ifvqb60","pricing_plan_id":"cebpf4jnsgd1na2vs0mg"},{"bike_id":"90ca8d0a-6768-48be-b64d-0ae3dd3c8e17","system_id":"levelo_inurba_marseille","lat":43.30351,"lon":5.41875,"is_reserved":false,"is_disabled":false,"rental_uris":{"android":"levelo://app?vid=90ca8d0a-6768-48be-b64d-0ae3dd3c8e17","ios":"levelo://app?vid=90ca8d0a-6768-48be-b64d-0ae3dd3c8e17"},"vehicle_type_id":"4","last_reported":1730448727,"current_range_meters":39200,"station_id":"ce4bhop2rcd13ifvqh7g","pricing_plan_id":"cebpf4jnsgd1na2vs0mg"},{"bike_id":"cbe4a0a6-ecb2-4885-accd-0ebdc6514d1c","system_id":"levelo_inurba_marseille","lat":43.24179,"lon":5.39721,"is_reserved":false,"is_disabled":false,"rental_uris":{"android":"levelo://app?vid=cbe4a0a6-ecb2-4885-accd-0ebdc6514d1c","ios":"levelo://app?vid=cbe4a0a6-ecb2-4885-accd-0ebdc6514d1c"},"vehicle_type_id":"4","last_reported":1730448727,"current_range_meters":22400,"station_id":"ce4bhn12rcd13ifvqgpg","pricing_plan_id":"cebpf4jnsgd1na2vs0mg"},{"bike_id":"6e22be8d-9b1b-4ffb-b21b-11c4c6cbdeb1","system_id":"levelo_inurba_marseille","lat":43.3026,"lon":5.40075,"is_reserved":false,"is_disabled":false,"rental_uris":{"android":"levelo://app?vid=6e22be8d-9b1b-4ffb-b21b-11c4c6cbdeb1","ios":"levelo://app?vid=6e22be8d-9b1b-4ffb-b21b-11c4c6cbdeb1"},"vehicle_type_id":"4","last_reported":1730448727,"current_range_meters":30000,"station_id":"ce4bgvh2rcd13ifvqcs0","pricing_plan_id":"cebpf4jnsgd1na2vs0mg"},{"bike_id":"276c9587-13b1-4ed9-a5c3-41b5dd9ac5c5","system_id":"levelo_inurba_marseille","lat":43.25833,"lon":5.39434,"is_reserved":false,"is_disabled":false,"rental_uris":{"android":"levelo://app?vid=276c9587-13b1-4ed9-a5c3-41b5dd9ac5c5","ios":"levelo://app?vid=276c9587-13b1-4ed9-a5c3-41b5dd9ac5c5"},"vehicle_type_id":"4","last_reported":1730448727,"current_range_meters":37600,"station_id":"ce4bhip2rcd13ifvqft0","pricing_plan_id":"cebpf4jnsgd1na2vs0mg"},{"bike_id":"902a84d5-56ca-468a-a9e6-146ab5c6eab3","system_id":"levelo_inurba_marseille","lat":43.25091,"lon":5.39517,"is_reserved":false,"is_disabled":false,"rental_uris":{"android":"levelo://app?vid=902a84d5-56ca-468a-a9e6-146ab5c6eab3","ios":"levelo://app?vid=902a84d5-56ca-468a-a9e6-146ab5c6eab3"},"vehicle_type_id":"4","last_reported":1730448727,"current_range_meters":18000,"station_id":"ce4bhm12rcd13ifvqgkg","pricing_plan_id":"cebpf4jnsgd1na2vs0mg"},{"bike_id":"c809b9c7-4e9f-4d82-ae25-fbc4e7e19952","system_id":"levelo_inurba_marseille","lat":43.32289,"lon":5.38262,"is_reserved":false,"is_disabled":false,"rental_uris":{"android":"levelo://app?vid=c809b9c7-4e9f-4d82-ae25-fbc4e7e19952","ios":"levelo://app?vid=c809b9c7-4e9f-4d82-ae25-fbc4e7e19952"},"vehicle_type_id":"4","last_reported":1730448727,"current_range_meters":28400,"station_id":"ce4bhr12rcd13ifvqhqg","pricing_plan_id":"cebpf4jnsgd1na2vs0mg"},{"bike_id":"98e591af-1b37-4791-81f8-0a1125c50536","system_id":"levelo_inurba_marseille","lat":43.262,"lon":5.37927,"is_reserved":false,"is_disabled":false,"rental_uris":{"android":"levelo://app?vid=98e591af-1b37-4791-81f8-0a1125c50536","ios":"levelo://app?vid=98e591af-1b37-4791-81f8-0a1125c50536"},"vehicle_type_id":"4","last_reported":1730448727,"current_range_meters":39200,"station_id":"ce4bhjp2rcd13ifvqg90","pricing_plan_id":"cebpf4jnsgd1na2vs0mg"},{"bike_id":"26bba1f9-66ab-4140-9d48-433793d5e552","system_id":"levelo_inurba_marseille","lat":43.31358,"lon":5.38496,"is_reserved":false,"is_disabled":false,"rental_uris":{"android":"levelo://app?vid=26bba1f9-66ab-4140-9d48-433793d5e552","ios":"levelo://app?vid=26bba1f9-66ab-4140-9d48-433793d5e552"},"vehicle_type_id":"4","last_reported":1730448727,"current_range_meters":32400,"station_id":"ce4bgt92rcd13ifvqcf0","pricing_plan_id":"cebpf4jnsgd1na2vs0mg"},{"bike_id":"8dcb35f5-ba75-4535-9d1e-405df1afcbbc","system_id":"levelo_inurba_marseille","lat":43.33025,"lon":5.39048,"is_reserved":false,"is_disabled":false,"rental_uris":{"android":"levelo://app?vid=8dcb35f5-ba75-4535-9d1e-405df1afcbbc","ios":"levelo://app?vid=8dcb35f5-ba75-4535-9d1e-405df1afcbbc"},"vehicle_type_id":"4","last_reported":1730448727,"current_range_meters":38000,"station_id":"ce4bhr92rcd13ifvqhrg","pricing_plan_id":"cebpf4jnsgd1na2vs0mg"},{"bike_id":"1a020b1c-269c-428b-8ea2-22e5289fe3e1","system_id":"levelo_inurba_marseille","lat":43.23962,"lon":5.36627,"is_reserved":false,"is_disabled":false,"rental_uris":{"android":"levelo://app?vid=1a020b1c-269c-428b-8ea2-22e5289fe3e1","ios":"levelo://app?vid=1a020b1c-269c-428b-8ea2-22e5289fe3e1"},"vehicle_type_id":"4","last_reported":1730448727,"current_range_meters":2000,"station_id":"ce4bhi12rcd13ifvqfp0","pricing_plan_id":"cebpf4jnsgd1na2vs0mg"},{"bike_id":"7b305f29-d680-4b81-ab86-c3c2de5fb7e5","system_id":"levelo_inurba_marseille","lat":43.30536,"lon":5.38436,"is_reserved":false,"is_disabled":false,"rental_uris":{"android":"levelo://app?vid=7b305f29-d680-4b81-ab86-c3c2de5fb7e5","ios":"levelo://app?vid=7b305f29-d680-4b81-ab86-c3c2de5fb7e5"},"vehicle_type_id":"4","last_reported":1730448727,"current_range_meters":38800,"station_id":"ce4bgg92rcd13ifvqb30","pricing_plan_id":"cebpf4jnsgd1na2vs0mg"},{"bike_id":"60d9d657-3ec8-40ef-b87b-c6f9930662bd","system_id":"levelo_inurba_marseille","lat":43.31484,"lon":5.373,"is_reserved":false,"is_disabled":false,"rental_uris":{"android":"levelo://app?vid=60d9d657-3ec8-40ef-b87b-c6f9930662bd","ios":"levelo://app?vid=60d9d657-3ec8-40ef-b87b-c6f9930662bd"},"vehicle_type_id":"4","last_reported":1730448727,"current_range_meters":34000,"station_id":"ce4bgt12rcd13ifvqcd0","pricing_plan_id":"cebpf4jnsgd1na2vs0mg"},{"bike_id":"a18d5401-b8ed-4e3a-81c3-f977e14bb45f","system_id":"levelo_inurba_marseille","lat":43.28942,"lon":5.36639,"is_reserved":false,"is_disabled":false,"rental_uris":{"android":"levelo://app?vid=a18d5401-b8ed-4e3a-81c3-f977e14bb45f","ios":"levelo://app?vid=a18d5401-b8ed-4e3a-81c3-f977e14bb45f"},"vehicle_type_id":"4","last_reported":1730448727,"current_range_meters":29600,"station_id":"ce4bhap2rcd13ifvqek0","pricing_plan_id":"cebpf4jnsgd1na2vs0mg"},{"bike_id":"fbd58830-60eb-4716-8ded-0e4783dbbf7e","system_id":"levelo_inurba_marseille","lat":43.24071,"lon":5.37758,"is_reserved":false,"is_disabled":false,"rental_uris":{"android":"levelo://app?vid=fbd58830-60eb-4716-8ded-0e4783dbbf7e","ios":"levelo://app?vid=fbd58830-60eb-4716-8ded-0e4783dbbf7e"},"vehicle_type_id":"4","last_reported":1730448727,"current_range_meters":2800,"station_id":"ce4bhnp2rcd13ifvqgvg","pricing_plan_id":"cebpf4jnsgd1na2vs0mg"},{"bike_id":"4326d167-08ff-4bbe-b22d-8af37149490d","system_id":"levelo_inurba_marseille","lat":43.28098,"lon":5.37855,"is_reserved":false,"is_disabled":false,"rental_uris":{"android":"levelo://app?vid=4326d167-08ff-4bbe-b22d-8af37149490d","ios":"levelo://app?vid=4326d167-08ff-4bbe-b22d-8af37149490d"},"vehicle_type_id":"4","last_reported":1730448727,"current_range_meters":39200,"station_id":"ce4bha12rcd13ifvqee0","pricing_plan_id":"cebpf4jnsgd1na2vs0mg"},{"bike_id":"bcab986f-928c-401a-83b8-9fe0b6fa35d2","system_id":"levelo_inurba_marseille","lat":43.30952,"lon":5.39039,"is_reserved":false,"is_disabled":false,"rental_uris":{"android":"levelo://app?vid=bcab986f-928c-401a-83b8-9fe0b6fa35d2","ios":"levelo://app?vid=bcab986f-928c-401a-83b8-9fe0b6fa35d2"},"vehicle_type_id":"4","last_reported":1730448727,"current_range_meters":30400,"station_id":"ce4bgup2rcd13ifvqco0","pricing_plan_id":"cebpf4jnsgd1na2vs0mg"},{"bike_id":"ee30699b-cd46-479d-82bf-f7ee7df9a7b1","system_id":"levelo_inurba_marseille","lat":43.281507,"lon":5.426373,"is_reserved":false,"is_disabled":false,"rental_uris":{"android":"levelo://app?vid=ee30699b-cd46-479d-82bf-f7ee7df9a7b1","ios":"levelo://app?vid=ee30699b-cd46-479d-82bf-f7ee7df9a7b1"},"vehicle_type_id":"4","last_reported":1730448727,"current_range_meters":39200,"station_id":"ce4bhnh2rcd13ifvqgug","pricing_plan_id":"cebpf4jnsgd1na2vs0mg"},{"bike_id":"6145c9dc-5b52-4909-8b3e-d43a8dd315dc","system_id":"levelo_inurba_marseille","lat":43.27175,"lon":5.4099,"is_reserved":false,"is_disabled":false,"rental_uris":{"android":"levelo://app?vid=6145c9dc-5b52-4909-8b3e-d43a8dd315dc","ios":"levelo://app?vid=6145c9dc-5b52-4909-8b3e-d43a8dd315dc"},"vehicle_type_id":"4","last_reported":1730448727,"current_range_meters":6400,"station_id":"ce4bhl12rcd13ifvqgf0","pricing_plan_id":"cebpf4jnsgd1na2vs0mg"},{"bike_id":"ed6c65ea-1f64-4f92-b80e-ae6c5e5f3f45","system_id":"levelo_inurba_marseille","lat":43.292666,"lon":5.384412,"is_reserved":false,"is_disabled":false,"rental_uris":{"android":"levelo://app?vid=ed6c65ea-1f64-4f92-b80e-ae6c5e5f3f45","ios":"levelo://app?vid=ed6c65ea-1f64-4f92-b80e-ae6c5e5f3f45"},"vehicle_type_id":"4","last_reported":1730448727,"current_range_meters":36400,"station_id":"ce4bhb92rcd13ifvqen0","pricing_plan_id":"cebpf4jnsgd1na2vs0mg"},{"bike_id":"aeea1237-3887-42d7-be21-0e7463630790","system_id":"levelo_inurba_marseille","lat":43.23718,"lon":5.40195,"is_reserved":false,"is_disabled":false,"rental_uris":{"android":"levelo://app?vid=aeea1237-3887-42d7-be21-0e7463630790","ios":"levelo://app?vid=aeea1237-3887-42d7-be21-0e7463630790"},"vehicle_type_id":"4","last_reported":1730448727,"current_range_meters":15200,"station_id":"","pricing_plan_id":"cebpf4jnsgd1na2vs0mg"},{"bike_id":"66b5e339-d925-491c-ba42-89ebe2b6d2eb","system_id":"levelo_inurba_marseille","lat":43.31759,"lon":5.39014,"is_reserved":false,"is_disabled":false,"rental_uris":{"android":"levelo://app?vid=66b5e339-d925-491c-ba42-89ebe2b6d2eb","ios":"levelo://app?vid=66b5e339-d925-491c-ba42-89ebe2b6d2eb"},"vehicle_type_id":"4","last_reported":1730448727,"current_range_meters":39200,"station_id":"ce4bhqp2rcd13ifvqhng","pricing_plan_id":"cebpf4jnsgd1na2vs0mg"},{"bike_id":"6164d29c-0bd4-4200-b18e-0e61665fdcb7","system_id":"levelo_inurba_marseille","lat":43.25103,"lon":5.40325,"is_reserved":false,"is_disabled":false,"rental_uris":{"android":"levelo://app?vid=6164d29c-0bd4-4200-b18e-0e61665fdcb7","ios":"levelo://app?vid=6164d29c-0bd4-4200-b18e-0e61665fdcb7"},"vehicle_type_id":"4","last_reported":1730448727,"current_range_meters":8000,"station_id":"ce4bhlh2rcd13ifvqgig","pricing_plan_id":"cebpf4jnsgd1na2vs0mg"},{"bike_id":"dbb3664d-95d4-40c8-b22a-26e10147011f","system_id":"levelo_inurba_marseille","lat":43.2927,"lon":5.40144,"is_reserved":false,"is_disabled":false,"rental_uris":{"android":"levelo://app?vid=dbb3664d-95d4-40c8-b22a-26e10147011f","ios":"levelo://app?vid=dbb3664d-95d4-40c8-b22a-26e10147011f"},"vehicle_type_id":"4","last_reported":1730448727,"current_range_meters":12400,"station_id":"ce4bh312rcd13ifvqdk0","pricing_plan_id":"cebpf4jnsgd1na2vs0mg"},{"bike_id":"15279d15-7fec-4497-99b5-ea531da5ea5a","system_id":"levelo_inurba_marseille","lat":43.29255,"lon":5.409,"is_reserved":false,"is_disabled":false,"rental_uris":{"android":"levelo://app?vid=15279d15-7fec-4497-99b5-ea531da5ea5a","ios":"levelo://app?vid=15279d15-7fec-4497-99b5-ea531da5ea5a"},"vehicle_type_id":"4","last_reported":1730448727,"current_range_meters":38800,"station_id":"ce4bh192rcd13ifvqdc0","pricing_plan_id":"cebpf4jnsgd1na2vs0mg"},{"bike_id":"44e27d21-4c64-416a-95eb-3e3c655974f1","system_id":"levelo_inurba_marseille","lat":43.31172,"lon":5.38727,"is_reserved":false,"is_disabled":false,"rental_uris":{"android":"levelo://app?vid=44e27d21-4c64-416a-95eb-3e3c655974f1","ios":"levelo://app?vid=44e27d21-4c64-416a-95eb-3e3c655974f1"},"vehicle_type_id":"4","last_reported":1730448727,"current_range_meters":38800,"station_id":"ce4bgv12rcd13ifvqcp0","pricing_plan_id":"cebpf4jnsgd1na2vs0mg"},{"bike_id":"b0377714-7a30-49ee-b6c1-7ca6811d5925","system_id":"levelo_inurba_marseille","lat":43.32478,"lon":5.36553,"is_reserved":false,"is_disabled":false,"rental_uris":{"android":"levelo://app?vid=b0377714-7a30-49ee-b6c1-7ca6811d5925","ios":"levelo://app?vid=b0377714-7a30-49ee-b6c1-7ca6811d5925"},"vehicle_type_id":"4","last_reported":1730448727,"current_range_meters":28800,"station_id":"ce4bhs12rcd13ifvqhvg","pricing_plan_id":"cebpf4jnsgd1na2vs0mg"},{"bike_id":"69355a51-41a5-4455-b14c-61dd7df03e2c","system_id":"levelo_inurba_marseille","lat":43.33726,"lon":5.39175,"is_reserved":false,"is_disabled":false,"rental_uris":{"android":"levelo://app?vid=69355a51-41a5-4455-b14c-61dd7df03e2c","ios":"levelo://app?vid=69355a51-41a5-4455-b14c-61dd7df03e2c"},"vehicle_type_id":"4","last_reported":1730448727,"current_range_meters":39200,"station_id":"ce4bhr92rcd13ifvqhsg","pricing_plan_id":"cebpf4jnsgd1na2vs0mg"},{"bike_id":"06239fa7-fcb9-483b-8f5d-2b248cf6014d","system_id":"levelo_inurba_marseille","lat":43.29023,"lon":5.38148,"is_reserved":false,"is_disabled":false,"rental_uris":{"android":"levelo://app?vid=06239fa7-fcb9-483b-8f5d-2b248cf6014d","ios":"levelo://app?vid=06239fa7-fcb9-483b-8f5d-2b248cf6014d"},"vehicle_type_id":"4","last_reported":1730448727,"current_range_meters":36800,"station_id":"ce4bh4p2rcd13ifvqe1g","pricing_plan_id":"cebpf4jnsgd1na2vs0mg"},{"bike_id":"b8812829-13c4-4cd9-8648-e8f45673a8cb","system_id":"levelo_inurba_marseille","lat":43.30416,"lon":5.41279,"is_reserved":false,"is_disabled":false,"rental_uris":{"android":"levelo://app?vid=b8812829-13c4-4cd9-8648-e8f45673a8cb","ios":"levelo://app?vid=b8812829-13c4-4cd9-8648-e8f45673a8cb"},"vehicle_type_id":"4","last_reported":1730448727,"current_range_meters":6800,"station_id":"ce4bhop2rcd13ifvqh8g","pricing_plan_id":"cebpf4jnsgd1na2vs0mg"},{"bike_id":"5940a52e-340c-4ac5-bfa3-4f03ece7e337","system_id":"levelo_inurba_marseille","lat":43.31172,"lon":5.38718,"is_reserved":false,"is_disabled":false,"rental_uris":{"android":"levelo://app?vid=5940a52e-340c-4ac5-bfa3-4f03ece7e337","ios":"levelo://app?vid=5940a52e-340c-4ac5-bfa3-4f03ece7e337"},"vehicle_type_id":"4","last_reported":1730448727,"current_range_meters":26800,"station_id":"ce4bgv12rcd13ifvqcp0","pricing_plan_id":"cebpf4jnsgd1na2vs0mg"},{"bike_id":"829a7a18-00d5-4cbc-8bfe-0dc54e4c23fb","system_id":"levelo_inurba_marseille","lat":43.29979,"lon":5.38475,"is_reserved":false,"is_disabled":false,"rental_uris":{"android":"levelo://app?vid=829a7a18-00d5-4cbc-8bfe-0dc54e4c23fb","ios":"levelo://app?vid=829a7a18-00d5-4cbc-8bfe-0dc54e4c23fb"},"vehicle_type_id":"4","last_reported":1730448727,"current_range_meters":28800,"station_id":"ce4bgj92rcd13ifvqbd0","pricing_plan_id":"cebpf4jnsgd1na2vs0mg"},{"bike_id":"b11fca02-772a-477e-86dd-47371d89328f","system_id":"levelo_inurba_marseille","lat":43.30286,"lon":5.37717,"is_reserved":false,"is_disabled":false,"rental_uris":{"android":"levelo://app?vid=b11fca02-772a-477e-86dd-47371d89328f","ios":"levelo://app?vid=b11fca02-772a-477e-86dd-47371d89328f"},"vehicle_type_id":"4","last_reported":1730448727,"current_range_meters":39200,"station_id":"ce4bguh2rcd13ifvqcj0","pricing_plan_id":"cebpf4jnsgd1na2vs0mg"},{"bike_id":"211c8490-2d66-4e96-b61e-18961f304bcf","system_id":"levelo_inurba_marseille","lat":43.29269,"lon":5.40144,"is_reserved":false,"is_disabled":false,"rental_uris":{"android":"levelo://app?vid=211c8490-2d66-4e96-b61e-18961f304bcf","ios":"levelo://app?vid=211c8490-2d66-4e96-b61e-18961f304bcf"},"vehicle_type_id":"4","last_reported":1730448727,"current_range_meters":37600,"station_id":"ce4bh312rcd13ifvqdk0","pricing_plan_id":"cebpf4jnsgd1na2vs0mg"},{"bike_id":"0d386634-2e45-4f6d-b152-f6a6855eb133","system_id":"levelo_inurba_marseille","lat":43.26197,"lon":5.37449,"is_reserved":false,"is_disabled":false,"rental_uris":{"android":"levelo://app?vid=0d386634-2e45-4f6d-b152-f6a6855eb133","ios":"levelo://app?vid=0d386634-2e45-4f6d-b152-f6a6855eb133"},"vehicle_type_id":"4","last_reported":1730448727,"current_range_meters":30400,"station_id":"ce4bhgp2rcd13ifvqfc0","pricing_plan_id":"cebpf4jnsgd1na2vs0mg"},{"bike_id":"5ffe4d6f-d593-4657-869c-6133497adc0f","system_id":"levelo_inurba_marseille","lat":43.26931,"lon":5.40258,"is_reserved":false,"is_disabled":false,"rental_uris":{"android":"levelo://app?vid=5ffe4d6f-d593-4657-869c-6133497adc0f","ios":"levelo://app?vid=5ffe4d6f-d593-4657-869c-6133497adc0f"},"vehicle_type_id":"4","last_reported":1730448727,"current_range_meters":34800,"station_id":"cjm6bp8fraef2m0cb0m0","pricing_plan_id":"cebpf4jnsgd1na2vs0mg"},{"bike_id":"aeb3962c-066d-4d28-9248-940e050be19a","system_id":"levelo_inurba_marseille","lat":43.25117,"lon":5.40322,"is_reserved":false,"is_disabled":false,"rental_uris":{"android":"levelo://app?vid=aeb3962c-066d-4d28-9248-940e050be19a","ios":"levelo://app?vid=aeb3962c-066d-4d28-9248-940e050be19a"},"vehicle_type_id":"4","last_reported":1730448727,"current_range_meters":8000,"station_id":"ce4bhlh2rcd13ifvqgig","pricing_plan_id":"cebpf4jnsgd1na2vs0mg"},{"bike_id":"a3532ce9-83c4-4e4f-80b1-34680b043682","system_id":"levelo_inurba_marseille","lat":43.31277,"lon":5.40168,"is_reserved":false,"is_disabled":false,"rental_uris":{"android":"levelo://app?vid=a3532ce9-83c4-4e4f-80b1-34680b043682","ios":"levelo://app?vid=a3532ce9-83c4-4e4f-80b1-34680b043682"},"vehicle_type_id":"4","last_reported":1730448727,"current_range_meters":38400,"station_id":"ce4bh092rcd13ifvqd30","pricing_plan_id":"cebpf4jnsgd1na2vs0mg"},{"bike_id":"ff9ca723-b878-4ddf-bebd-a6694ec12a82","system_id":"levelo_inurba_marseille","lat":43.25115,"lon":5.40329,"is_reserved":false,"is_disabled":false,"rental_uris":{"android":"levelo://app?vid=ff9ca723-b878-4ddf-bebd-a6694ec12a82","ios":"levelo://app?vid=ff9ca723-b878-4ddf-bebd-a6694ec12a82"},"vehicle_type_id":"4","last_reported":1730448727,"current_range_meters":8400,"station_id":"ce4bhlh2rcd13ifvqgig","pricing_plan_id":"cebpf4jnsgd1na2vs0mg"},{"bike_id":"b8296e76-0447-46c0-be06-c578170cf1bc","system_id":"levelo_inurba_marseille","lat":43.31366,"lon":5.385,"is_reserved":false,"is_disabled":false,"rental_uris":{"android":"levelo://app?vid=b8296e76-0447-46c0-be06-c578170cf1bc","ios":"levelo://app?vid=b8296e76-0447-46c0-be06-c578170cf1bc"},"vehicle_type_id":"4","last_reported":1730448727,"current_range_meters":39200,"station_id":"ce4bgt92rcd13ifvqcf0","pricing_plan_id":"cebpf4jnsgd1na2vs0mg"},{"bike_id":"5a63124a-aee8-434c-b0ac-506155e9b15f","system_id":"levelo_inurba_marseille","lat":43.31133,"lon":5.40126,"is_reserved":false,"is_disabled":false,"rental_uris":{"android":"levelo://app?vid=5a63124a-aee8-434c-b0ac-506155e9b15f","ios":"levelo://app?vid=5a63124a-aee8-434c-b0ac-506155e9b15f"},"vehicle_type_id":"4","last_reported":1730448727,"current_range_meters":13600,"station_id":"ce4bh092rcd13ifvqd30","pricing_plan_id":"cebpf4jnsgd1na2vs0mg"},{"bike_id":"5c8a5bb5-a198-4a3b-92e7-8543db03156f","system_id":"levelo_inurba_marseille","lat":43.31706,"lon":5.37772,"is_reserved":false,"is_disabled":false,"rental_uris":{"android":"levelo://app?vid=5c8a5bb5-a198-4a3b-92e7-8543db03156f","ios":"levelo://app?vid=5c8a5bb5-a198-4a3b-92e7-8543db03156f"},"vehicle_type_id":"4","last_reported":1730448727,"current_range_meters":39200,"station_id":"ce4bgth2rcd13ifvqch0","pricing_plan_id":"cebpf4jnsgd1na2vs0mg"},{"bike_id":"a916599f-804e-4508-947b-869589ac73c6","system_id":"levelo_inurba_marseille","lat":43.29046,"lon":5.35917,"is_reserved":false,"is_disabled":false,"rental_uris":{"android":"levelo://app?vid=a916599f-804e-4508-947b-869589ac73c6","ios":"levelo://app?vid=a916599f-804e-4508-947b-869589ac73c6"},"vehicle_type_id":"4","last_reported":1730448727,"current_range_meters":31200,"station_id":"ce4bha92rcd13ifvqeg0","pricing_plan_id":"cebpf4jnsgd1na2vs0mg"},{"bike_id":"0ec0d2cb-5362-4973-a924-a30377225e0a","system_id":"levelo_inurba_marseille","lat":43.32659,"lon":5.40994,"is_reserved":false,"is_disabled":false,"rental_uris":{"android":"levelo://app?vid=0ec0d2cb-5362-4973-a924-a30377225e0a","ios":"levelo://app?vid=0ec0d2cb-5362-4973-a924-a30377225e0a"},"vehicle_type_id":"4","last_reported":1730448727,"current_range_meters":39200,"station_id":"ce4bhpp2rcd13ifvqhgg","pricing_plan_id":"cebpf4jnsgd1na2vs0mg"},{"bike_id":"c0bb82be-4216-4dbc-94da-43d3ec0e1ad1","system_id":"levelo_inurba_marseille","lat":43.29253,"lon":5.40915,"is_reserved":false,"is_disabled":false,"rental_uris":{"android":"levelo://app?vid=c0bb82be-4216-4dbc-94da-43d3ec0e1ad1","ios":"levelo://app?vid=c0bb82be-4216-4dbc-94da-43d3ec0e1ad1"},"vehicle_type_id":"4","last_reported":1730448727,"current_range_meters":29600,"station_id":"ce4bh192rcd13ifvqdc0","pricing_plan_id":"cebpf4jnsgd1na2vs0mg"},{"bike_id":"05b66808-27ba-48de-8c25-fa6353c85930","system_id":"levelo_inurba_marseille","lat":43.27098,"lon":5.40404,"is_reserved":false,"is_disabled":false,"rental_uris":{"android":"levelo://app?vid=05b66808-27ba-48de-8c25-fa6353c85930","ios":"levelo://app?vid=05b66808-27ba-48de-8c25-fa6353c85930"},"vehicle_type_id":"4","last_reported":1730448727,"current_range_meters":11600,"station_id":"ce4bhjp2rcd13ifvqga0","pricing_plan_id":"cebpf4jnsgd1na2vs0mg"},{"bike_id":"9daca46e-b450-4f6e-8fa7-dc74aa35a5dd","system_id":"levelo_inurba_marseille","lat":43.23103,"lon":5.40065,"is_reserved":false,"is_disabled":false,"rental_uris":{"android":"levelo://app?vid=9daca46e-b450-4f6e-8fa7-dc74aa35a5dd","ios":"levelo://app?vid=9daca46e-b450-4f6e-8fa7-dc74aa35a5dd"},"vehicle_type_id":"4","last_reported":1730448727,"current_range_meters":21600,"station_id":"ce4bhn12rcd13ifvqgqg","pricing_plan_id":"cebpf4jnsgd1na2vs0mg"},{"bike_id":"04f93812-282d-4818-9838-0b9a9090b64b","system_id":"levelo_inurba_marseille","lat":43.3248,"lon":5.36569,"is_reserved":false,"is_disabled":false,"rental_uris":{"android":"levelo://app?vid=04f93812-282d-4818-9838-0b9a9090b64b","ios":"levelo://app?vid=04f93812-282d-4818-9838-0b9a9090b64b"},"vehicle_type_id":"4","last_reported":1730448727,"current_range_meters":32000,"station_id":"ce4bhs12rcd13ifvqhvg","pricing_plan_id":"cebpf4jnsgd1na2vs0mg"},{"bike_id":"8d6faa9d-f2d2-4424-a082-d0813e9c1a90","system_id":"levelo_inurba_marseille","lat":43.30151,"lon":5.38079,"is_reserved":false,"is_disabled":false,"rental_uris":{"android":"levelo://app?vid=8d6faa9d-f2d2-4424-a082-d0813e9c1a90","ios":"levelo://app?vid=8d6faa9d-f2d2-4424-a082-d0813e9c1a90"},"vehicle_type_id":"4","last_reported":1730448727,"current_range_meters":28400,"station_id":"ce4bgjp2rcd13ifvqbh0","pricing_plan_id":"cebpf4jnsgd1na2vs0mg"},{"bike_id":"ed9aa993-8003-4cbf-9aaf-8a3f2e010645","system_id":"levelo_inurba_marseille","lat":43.24169,"lon":5.36398,"is_reserved":false,"is_disabled":false,"rental_uris":{"android":"levelo://app?vid=ed9aa993-8003-4cbf-9aaf-8a3f2e010645","ios":"levelo://app?vid=ed9aa993-8003-4cbf-9aaf-8a3f2e010645"},"vehicle_type_id":"4","last_reported":1730448727,"current_range_meters":6800,"station_id":"cpo36qri1sfpv3e86is0","pricing_plan_id":"cebpf4jnsgd1na2vs0mg"},{"bike_id":"33a098b5-2f3f-4957-af96-675614306bdc","system_id":"levelo_inurba_marseille","lat":43.2828,"lon":5.39023,"is_reserved":false,"is_disabled":false,"rental_uris":{"android":"levelo://app?vid=33a098b5-2f3f-4957-af96-675614306bdc","ios":"levelo://app?vid=33a098b5-2f3f-4957-af96-675614306bdc"},"vehicle_type_id":"4","last_reported":1730448727,"current_range_meters":16800,"station_id":"","pricing_plan_id":"cebpf4jnsgd1na2vs0mg"},{"bike_id":"1dbe4eeb-ba44-496f-b143-5ace694d82ca","system_id":"levelo_inurba_marseille","lat":43.3234,"lon":5.40621,"is_reserved":false,"is_disabled":false,"rental_uris":{"android":"levelo://app?vid=1dbe4eeb-ba44-496f-b143-5ace694d82ca","ios":"levelo://app?vid=1dbe4eeb-ba44-496f-b143-5ace694d82ca"},"vehicle_type_id":"4","last_reported":1730448727,"current_range_meters":4400,"station_id":"ce4bhq92rcd13ifvqhjg","pricing_plan_id":"cebpf4jnsgd1na2vs0mg"},{"bike_id":"9005cd98-0e62-4ffa-9085-e5960542e52e","system_id":"levelo_inurba_marseille","lat":43.30104,"lon":5.39095,"is_reserved":false,"is_disabled":false,"rental_uris":{"android":"levelo://app?vid=9005cd98-0e62-4ffa-9085-e5960542e52e","ios":"levelo://app?vid=9005cd98-0e62-4ffa-9085-e5960542e52e"},"vehicle_type_id":"4","last_reported":1730448727,"current_range_meters":11600,"station_id":"ce4bh192rcd13ifvqdb0","pricing_plan_id":"cebpf4jnsgd1na2vs0mg"},{"bike_id":"a8594471-923b-4371-82a5-d750e1a3d991","system_id":"levelo_inurba_marseille","lat":43.31531,"lon":5.380324,"is_reserved":false,"is_disabled":false,"rental_uris":{"android":"levelo://app?vid=a8594471-923b-4371-82a5-d750e1a3d991","ios":"levelo://app?vid=a8594471-923b-4371-82a5-d750e1a3d991"},"vehicle_type_id":"4","last_reported":1730448727,"current_range_meters":9600,"station_id":"ce4bhsp2rcd13ifvqi50","pricing_plan_id":"cebpf4jnsgd1na2vs0mg"},{"bike_id":"18523ad7-955d-42dc-abaf-2865bf277e38","system_id":"levelo_inurba_marseille","lat":43.30545,"lon":5.38432,"is_reserved":false,"is_disabled":false,"rental_uris":{"android":"levelo://app?vid=18523ad7-955d-42dc-abaf-2865bf277e38","ios":"levelo://app?vid=18523ad7-955d-42dc-abaf-2865bf277e38"},"vehicle_type_id":"4","last_reported":1730448727,"current_range_meters":38800,"station_id":"ce4bgg92rcd13ifvqb30","pricing_plan_id":"cebpf4jnsgd1na2vs0mg"},{"bike_id":"b4374be5-c859-4dd7-b0da-f39f616816e6","system_id":"levelo_inurba_marseille","lat":43.30148,"lon":5.38077,"is_reserved":false,"is_disabled":false,"rental_uris":{"android":"levelo://app?vid=b4374be5-c859-4dd7-b0da-f39f616816e6","ios":"levelo://app?vid=b4374be5-c859-4dd7-b0da-f39f616816e6"},"vehicle_type_id":"4","last_reported":1730448727,"current_range_meters":38000,"station_id":"ce4bgjp2rcd13ifvqbh0","pricing_plan_id":"cebpf4jnsgd1na2vs0mg"},{"bike_id":"a0e3f3da-7c15-4cc6-b660-e90d2af5bffc","system_id":"levelo_inurba_marseille","lat":43.30425,"lon":5.39753,"is_reserved":false,"is_disabled":false,"rental_uris":{"android":"levelo://app?vid=a0e3f3da-7c15-4cc6-b660-e90d2af5bffc","ios":"levelo://app?vid=a0e3f3da-7c15-4cc6-b660-e90d2af5bffc"},"vehicle_type_id":"4","last_reported":1730448727,"current_range_meters":39200,"station_id":"ce4bh092rcd13ifvqd20","pricing_plan_id":"cebpf4jnsgd1na2vs0mg"},{"bike_id":"ed24b092-1aee-46ef-9a05-6f2fb390575a","system_id":"levelo_inurba_marseille","lat":43.28074,"lon":5.39658,"is_reserved":false,"is_disabled":false,"rental_uris":{"android":"levelo://app?vid=ed24b092-1aee-46ef-9a05-6f2fb390575a","ios":"levelo://app?vid=ed24b092-1aee-46ef-9a05-6f2fb390575a"},"vehicle_type_id":"4","last_reported":1730448727,"current_range_meters":38800,"station_id":"ce4bho12rcd13ifvqh2g","pricing_plan_id":"cebpf4jnsgd1na2vs0mg"},{"bike_id":"740fc89b-8aeb-4711-8e98-c31ebac4a78e","system_id":"levelo_inurba_marseille","lat":43.30923,"lon":5.40145,"is_reserved":false,"is_disabled":false,"rental_uris":{"android":"levelo://app?vid=740fc89b-8aeb-4711-8e98-c31ebac4a78e","ios":"levelo://app?vid=740fc89b-8aeb-4711-8e98-c31ebac4a78e"},"vehicle_type_id":"4","last_reported":1730448727,"current_range_meters":24400,"station_id":"ce4bgvp2rcd13ifvqct0","pricing_plan_id":"cebpf4jnsgd1na2vs0mg"},{"bike_id":"522f8355-359b-4cb9-ae39-9376a33ed212","system_id":"levelo_inurba_marseille","lat":43.32041,"lon":5.41552,"is_reserved":false,"is_disabled":false,"rental_uris":{"android":"levelo://app?vid=522f8355-359b-4cb9-ae39-9376a33ed212","ios":"levelo://app?vid=522f8355-359b-4cb9-ae39-9376a33ed212"},"vehicle_type_id":"4","last_reported":1730448727,"current_range_meters":39200,"station_id":"ce4bhq92rcd13ifvqhkg","pricing_plan_id":"cebpf4jnsgd1na2vs0mg"},{"bike_id":"902ff681-0cc9-4ebd-a1e6-af586b332fdf","system_id":"levelo_inurba_marseille","lat":43.31996,"lon":5.38165,"is_reserved":false,"is_disabled":false,"rental_uris":{"android":"levelo://app?vid=902ff681-0cc9-4ebd-a1e6-af586b332fdf","ios":"levelo://app?vid=902ff681-0cc9-4ebd-a1e6-af586b332fdf"},"vehicle_type_id":"4","last_reported":1730448727,"current_range_meters":24000,"station_id":"ce4bgqh2rcd13ifvqc4g","pricing_plan_id":"cebpf4jnsgd1na2vs0mg"},{"bike_id":"9bcfd29c-2881-4d89-97f3-691436c9a98e","system_id":"levelo_inurba_marseille","lat":43.30138,"lon":5.38791,"is_reserved":false,"is_disabled":false,"rental_uris":{"android":"levelo://app?vid=9bcfd29c-2881-4d89-97f3-691436c9a98e","ios":"levelo://app?vid=9bcfd29c-2881-4d89-97f3-691436c9a98e"},"vehicle_type_id":"4","last_reported":1730448727,"current_range_meters":33600,"station_id":"ce4bghh2rcd13ifvqb60","pricing_plan_id":"cebpf4jnsgd1na2vs0mg"},{"bike_id":"559b1e5a-3db3-4bca-bf89-ab584de0d653","system_id":"levelo_inurba_marseille","lat":43.28352,"lon":5.38117,"is_reserved":false,"is_disabled":false,"rental_uris":{"android":"levelo://app?vid=559b1e5a-3db3-4bca-bf89-ab584de0d653","ios":"levelo://app?vid=559b1e5a-3db3-4bca-bf89-ab584de0d653"},"vehicle_type_id":"4","last_reported":1730448727,"current_range_meters":39200,"station_id":"ce4bh412rcd13ifvqdr0","pricing_plan_id":"cebpf4jnsgd1na2vs0mg"},{"bike_id":"84b3858e-724d-4a51-abdd-a1c7708d404b","system_id":"levelo_inurba_marseille","lat":43.295,"lon":5.38109,"is_reserved":false,"is_disabled":false,"rental_uris":{"android":"levelo://app?vid=84b3858e-724d-4a51-abdd-a1c7708d404b","ios":"levelo://app?vid=84b3858e-724d-4a51-abdd-a1c7708d404b"},"vehicle_type_id":"4","last_reported":1730448727,"current_range_meters":18000,"station_id":"","pricing_plan_id":"cebpf4jnsgd1na2vs0mg"},{"bike_id":"0eac5a1d-d684-45e0-be5d-a22f3e11c4ca","system_id":"levelo_inurba_marseille","lat":43.23958,"lon":5.36637,"is_reserved":false,"is_disabled":false,"rental_uris":{"android":"levelo://app?vid=0eac5a1d-d684-45e0-be5d-a22f3e11c4ca","ios":"levelo://app?vid=0eac5a1d-d684-45e0-be5d-a22f3e11c4ca"},"vehicle_type_id":"4","last_reported":1730448727,"current_range_meters":8400,"station_id":"ce4bhi12rcd13ifvqfp0","pricing_plan_id":"cebpf4jnsgd1na2vs0mg"},{"bike_id":"ee343481-2f8a-4358-bb0a-ffd40b9c29e3","system_id":"levelo_inurba_marseille","lat":43.307869,"lon":5.376526,"is_reserved":false,"is_disabled":false,"rental_uris":{"android":"levelo://app?vid=ee343481-2f8a-4358-bb0a-ffd40b9c29e3","ios":"levelo://app?vid=ee343481-2f8a-4358-bb0a-ffd40b9c29e3"},"vehicle_type_id":"4","last_reported":1730448727,"current_range_meters":19200,"station_id":"ce4bgv92rcd13ifvqcq0","pricing_plan_id":"cebpf4jnsgd1na2vs0mg"},{"bike_id":"feec31f7-f541-4b4a-8d78-683a102bedff","system_id":"levelo_inurba_marseille","lat":43.29518,"lon":5.3941,"is_reserved":false,"is_disabled":false,"rental_uris":{"android":"levelo://app?vid=feec31f7-f541-4b4a-8d78-683a102bedff","ios":"levelo://app?vid=feec31f7-f541-4b4a-8d78-683a102bedff"},"vehicle_type_id":"4","last_reported":1730448727,"current_range_meters":39200,"station_id":"ce4bh292rcd13ifvqdf0","pricing_plan_id":"cebpf4jnsgd1na2vs0mg"},{"bike_id":"143cb3a1-fb90-4ab8-b444-61ab40035e31","system_id":"levelo_inurba_marseille","lat":43.29548,"lon":5.42285,"is_reserved":false,"is_disabled":false,"rental_uris":{"android":"levelo://app?vid=143cb3a1-fb90-4ab8-b444-61ab40035e31","ios":"levelo://app?vid=143cb3a1-fb90-4ab8-b444-61ab40035e31"},"vehicle_type_id":"4","last_reported":1730448727,"current_range_meters":38400,"station_id":"ce4bhph2rcd13ifvqhdg","pricing_plan_id":"cebpf4jnsgd1na2vs0mg"},{"bike_id":"e7455684-044d-4070-800d-296081e8ada6","system_id":"levelo_inurba_marseille","lat":43.29782,"lon":5.37118,"is_reserved":false,"is_disabled":false,"rental_uris":{"android":"levelo://app?vid=e7455684-044d-4070-800d-296081e8ada6","ios":"levelo://app?vid=e7455684-044d-4070-800d-296081e8ada6"},"vehicle_type_id":"4","last_reported":1730448727,"current_range_meters":12800,"station_id":"ce4bgop2rcd13ifvqc1g","pricing_plan_id":"cebpf4jnsgd1na2vs0mg"},{"bike_id":"3bae9340-aae2-47c4-82c5-5c0d7349f14b","system_id":"levelo_inurba_marseille","lat":43.308,"lon":5.43523,"is_reserved":false,"is_disabled":false,"rental_uris":{"android":"levelo://app?vid=3bae9340-aae2-47c4-82c5-5c0d7349f14b","ios":"levelo://app?vid=3bae9340-aae2-47c4-82c5-5c0d7349f14b"},"vehicle_type_id":"4","last_reported":1730448727,"current_range_meters":32800,"station_id":"ce4bhph2rcd13ifvqheg","pricing_plan_id":"cebpf4jnsgd1na2vs0mg"},{"bike_id":"5e952f6b-9aee-4257-81cc-27b4ae171e24","system_id":"levelo_inurba_marseille","lat":43.22936,"lon":5.35377,"is_reserved":false,"is_disabled":false,"rental_uris":{"android":"levelo://app?vid=5e952f6b-9aee-4257-81cc-27b4ae171e24","ios":"levelo://app?vid=5e952f6b-9aee-4257-81cc-27b4ae171e24"},"vehicle_type_id":"4","last_reported":1730448727,"current_range_meters":38400,"station_id":"cpo3532slgdg3j2ikp40","pricing_plan_id":"cebpf4jnsgd1na2vs0mg"},{"bike_id":"0138cae8-cd2d-4286-8c35-4be877496209","system_id":"levelo_inurba_marseille","lat":43.29626,"lon":5.37159,"is_reserved":false,"is_disabled":false,"rental_uris":{"android":"levelo://app?vid=0138cae8-cd2d-4286-8c35-4be877496209","ios":"levelo://app?vid=0138cae8-cd2d-4286-8c35-4be877496209"},"vehicle_type_id":"4","last_reported":1730448727,"current_range_meters":36800,"station_id":"","pricing_plan_id":"cebpf4jnsgd1na2vs0mg"},{"bike_id":"6c4aa949-a9bc-4bae-aed4-d4a6bbdcda6b","system_id":"levelo_inurba_marseille","lat":43.25106,"lon":5.40325,"is_reserved":false,"is_disabled":false,"rental_uris":{"android":"levelo://app?vid=6c4aa949-a9bc-4bae-aed4-d4a6bbdcda6b","ios":"levelo://app?vid=6c4aa949-a9bc-4bae-aed4-d4a6bbdcda6b"},"vehicle_type_id":"4","last_reported":1730448727,"current_range_meters":20000,"station_id":"ce4bhlh2rcd13ifvqgig","pricing_plan_id":"cebpf4jnsgd1na2vs0mg"},{"bike_id":"be1537d4-96de-4c7c-9533-cac734bf1678","system_id":"levelo_inurba_marseille","lat":43.31369,"lon":5.38496,"is_reserved":false,"is_disabled":false,"rental_uris":{"android":"levelo://app?vid=be1537d4-96de-4c7c-9533-cac734bf1678","ios":"levelo://app?vid=be1537d4-96de-4c7c-9533-cac734bf1678"},"vehicle_type_id":"4","last_reported":1730448727,"current_range_meters":38800,"station_id":"ce4bgt92rcd13ifvqcf0","pricing_plan_id":"cebpf4jnsgd1na2vs0mg"},{"bike_id":"a2cc0ac2-acf2-4a90-ae1d-70eccf67b2f9","system_id":"levelo_inurba_marseille","lat":43.30157,"lon":5.38082,"is_reserved":false,"is_disabled":false,"rental_uris":{"android":"levelo://app?vid=a2cc0ac2-acf2-4a90-ae1d-70eccf67b2f9","ios":"levelo://app?vid=a2cc0ac2-acf2-4a90-ae1d-70eccf67b2f9"},"vehicle_type_id":"4","last_reported":1730448727,"current_range_meters":33200,"station_id":"ce4bgjp2rcd13ifvqbh0","pricing_plan_id":"cebpf4jnsgd1na2vs0mg"},{"bike_id":"eeac2bd8-5b89-4fe0-81b1-b56296b76965","system_id":"levelo_inurba_marseille","lat":43.30588,"lon":5.3724,"is_reserved":false,"is_disabled":false,"rental_uris":{"android":"levelo://app?vid=eeac2bd8-5b89-4fe0-81b1-b56296b76965","ios":"levelo://app?vid=eeac2bd8-5b89-4fe0-81b1-b56296b76965"},"vehicle_type_id":"4","last_reported":1730448727,"current_range_meters":30000,"station_id":"ce4bgqh2rcd13ifvqc4g","pricing_plan_id":"cebpf4jnsgd1na2vs0mg"},{"bike_id":"7f0aabdd-0ee7-4286-a5de-404f19d21648","system_id":"levelo_inurba_marseille","lat":43.29972,"lon":5.38486,"is_reserved":false,"is_disabled":false,"rental_uris":{"android":"levelo://app?vid=7f0aabdd-0ee7-4286-a5de-404f19d21648","ios":"levelo://app?vid=7f0aabdd-0ee7-4286-a5de-404f19d21648"},"vehicle_type_id":"4","last_reported":1730448727,"current_range_meters":14400,"station_id":"ce4bgj92rcd13ifvqbd0","pricing_plan_id":"cebpf4jnsgd1na2vs0mg"},{"bike_id":"6fe32f11-8a7c-490d-80ff-c403d76c9094","system_id":"levelo_inurba_marseille","lat":43.30912,"lon":5.391185,"is_reserved":false,"is_disabled":false,"rental_uris":{"android":"levelo://app?vid=6fe32f11-8a7c-490d-80ff-c403d76c9094","ios":"levelo://app?vid=6fe32f11-8a7c-490d-80ff-c403d76c9094"},"vehicle_type_id":"4","last_reported":1730448727,"current_range_meters":20000,"station_id":"ce4bgup2rcd13ifvqco0","pricing_plan_id":"cebpf4jnsgd1na2vs0mg"},{"bike_id":"67510012-1cba-484e-acef-2ad6017acb8f","system_id":"levelo_inurba_marseille","lat":43.27946,"lon":5.4104,"is_reserved":false,"is_disabled":false,"rental_uris":{"android":"levelo://app?vid=67510012-1cba-484e-acef-2ad6017acb8f","ios":"levelo://app?vid=67510012-1cba-484e-acef-2ad6017acb8f"},"vehicle_type_id":"4","last_reported":1730448727,"current_range_meters":28400,"station_id":"ce4bhnp2rcd13ifvqh0g","pricing_plan_id":"cebpf4jnsgd1na2vs0mg"},{"bike_id":"432245c8-aae7-4413-a01a-f97683516aa8","system_id":"levelo_inurba_marseille","lat":43.31274,"lon":5.4017,"is_reserved":false,"is_disabled":false,"rental_uris":{"android":"levelo://app?vid=432245c8-aae7-4413-a01a-f97683516aa8","ios":"levelo://app?vid=432245c8-aae7-4413-a01a-f97683516aa8"},"vehicle_type_id":"4","last_reported":1730448727,"current_range_meters":39200,"station_id":"ce4bh092rcd13ifvqd30","pricing_plan_id":"cebpf4jnsgd1na2vs0mg"},{"bike_id":"b647ad8c-5239-4792-a303-51c2978d56fb","system_id":"levelo_inurba_marseille","lat":43.33619,"lon":5.41031,"is_reserved":false,"is_disabled":false,"rental_uris":{"android":"levelo://app?vid=b647ad8c-5239-4792-a303-51c2978d56fb","ios":"levelo://app?vid=b647ad8c-5239-4792-a303-51c2978d56fb"},"vehicle_type_id":"4","last_reported":1730448727,"current_range_meters":38800,"station_id":"ce4bhqh2rcd13ifvqhmg","pricing_plan_id":"cebpf4jnsgd1na2vs0mg"},{"bike_id":"cd506133-45e2-421c-adbd-9501e6e43795","system_id":"levelo_inurba_marseille","lat":43.28041,"lon":5.36948,"is_reserved":false,"is_disabled":false,"rental_uris":{"android":"levelo://app?vid=cd506133-45e2-421c-adbd-9501e6e43795","ios":"levelo://app?vid=cd506133-45e2-421c-adbd-9501e6e43795"},"vehicle_type_id":"4","last_reported":1730448727,"current_range_meters":33600,"station_id":"ce4bha12rcd13ifvqef0","pricing_plan_id":"cebpf4jnsgd1na2vs0mg"},{"bike_id":"84eb234f-5cef-4e43-995c-c2a6c7272b1a","system_id":"levelo_inurba_marseille","lat":43.27942,"lon":5.41044,"is_reserved":false,"is_disabled":false,"rental_uris":{"android":"levelo://app?vid=84eb234f-5cef-4e43-995c-c2a6c7272b1a","ios":"levelo://app?vid=84eb234f-5cef-4e43-995c-c2a6c7272b1a"},"vehicle_type_id":"4","last_reported":1730448727,"current_range_meters":26800,"station_id":"ce4bhnp2rcd13ifvqh0g","pricing_plan_id":"cebpf4jnsgd1na2vs0mg"},{"bike_id":"55e5680f-c574-40e1-b1dd-d8ced146e6c5","system_id":"levelo_inurba_marseille","lat":43.33605,"lon":5.41035,"is_reserved":false,"is_disabled":false,"rental_uris":{"android":"levelo://app?vid=55e5680f-c574-40e1-b1dd-d8ced146e6c5","ios":"levelo://app?vid=55e5680f-c574-40e1-b1dd-d8ced146e6c5"},"vehicle_type_id":"4","last_reported":1730448727,"current_range_meters":24000,"station_id":"ce4bhqh2rcd13ifvqhmg","pricing_plan_id":"cebpf4jnsgd1na2vs0mg"},{"bike_id":"994a3104-8c9f-4bba-911d-69cf23f07195","system_id":"levelo_inurba_marseille","lat":43.28698,"lon":5.39976,"is_reserved":false,"is_disabled":false,"rental_uris":{"android":"levelo://app?vid=994a3104-8c9f-4bba-911d-69cf23f07195","ios":"levelo://app?vid=994a3104-8c9f-4bba-911d-69cf23f07195"},"vehicle_type_id":"4","last_reported":1730448727,"current_range_meters":30400,"station_id":"ce4bho92rcd13ifvqh3g","pricing_plan_id":"cebpf4jnsgd1na2vs0mg"},{"bike_id":"45ec955f-9396-45b9-aaaa-a47c5dee2e6f","system_id":"levelo_inurba_marseille","lat":43.28851,"lon":5.35849,"is_reserved":false,"is_disabled":false,"rental_uris":{"android":"levelo://app?vid=45ec955f-9396-45b9-aaaa-a47c5dee2e6f","ios":"levelo://app?vid=45ec955f-9396-45b9-aaaa-a47c5dee2e6f"},"vehicle_type_id":"4","last_reported":1730448727,"current_range_meters":38800,"station_id":"ce4bhb12rcd13ifvqem0","pricing_plan_id":"cebpf4jnsgd1na2vs0mg"},{"bike_id":"72100d00-7614-4dd4-85dd-77f4108ab8ba","system_id":"levelo_inurba_marseille","lat":43.28616,"lon":5.35102,"is_reserved":false,"is_disabled":false,"rental_uris":{"android":"levelo://app?vid=72100d00-7614-4dd4-85dd-77f4108ab8ba","ios":"levelo://app?vid=72100d00-7614-4dd4-85dd-77f4108ab8ba"},"vehicle_type_id":"4","last_reported":1730448727,"current_range_meters":32000,"station_id":"ce4bhch2rcd13ifvqeug","pricing_plan_id":"cebpf4jnsgd1na2vs0mg"},{"bike_id":"34091808-bf35-4316-8726-23f709e5cb3e","system_id":"levelo_inurba_marseille","lat":43.3117,"lon":5.38719,"is_reserved":false,"is_disabled":false,"rental_uris":{"android":"levelo://app?vid=34091808-bf35-4316-8726-23f709e5cb3e","ios":"levelo://app?vid=34091808-bf35-4316-8726-23f709e5cb3e"},"vehicle_type_id":"4","last_reported":1730448727,"current_range_meters":33600,"station_id":"ce4bgv12rcd13ifvqcp0","pricing_plan_id":"cebpf4jnsgd1na2vs0mg"},{"bike_id":"5c8c7370-3ebd-4391-a59e-b152ec6d65bf","system_id":"levelo_inurba_marseille","lat":43.27207,"lon":5.39182,"is_reserved":false,"is_disabled":false,"rental_uris":{"android":"levelo://app?vid=5c8c7370-3ebd-4391-a59e-b152ec6d65bf","ios":"levelo://app?vid=5c8c7370-3ebd-4391-a59e-b152ec6d65bf"},"vehicle_type_id":"4","last_reported":1730448727,"current_range_meters":24000,"station_id":"ce4bhhp2rcd13ifvqfm0","pricing_plan_id":"cebpf4jnsgd1na2vs0mg"},{"bike_id":"655e5c84-6957-4a22-898b-b606bb7480d4","system_id":"levelo_inurba_marseille","lat":43.22933,"lon":5.35378,"is_reserved":false,"is_disabled":false,"rental_uris":{"android":"levelo://app?vid=655e5c84-6957-4a22-898b-b606bb7480d4","ios":"levelo://app?vid=655e5c84-6957-4a22-898b-b606bb7480d4"},"vehicle_type_id":"4","last_reported":1730448727,"current_range_meters":27600,"station_id":"cpo3532slgdg3j2ikp40","pricing_plan_id":"cebpf4jnsgd1na2vs0mg"},{"bike_id":"a0f5f9e5-b7c4-42ff-aa1e-24ee683f2054","system_id":"levelo_inurba_marseille","lat":43.30417,"lon":5.41281,"is_reserved":false,"is_disabled":false,"rental_uris":{"android":"levelo://app?vid=a0f5f9e5-b7c4-42ff-aa1e-24ee683f2054","ios":"levelo://app?vid=a0f5f9e5-b7c4-42ff-aa1e-24ee683f2054"},"vehicle_type_id":"4","last_reported":1730448727,"current_range_meters":28800,"station_id":"ce4bhop2rcd13ifvqh8g","pricing_plan_id":"cebpf4jnsgd1na2vs0mg"},{"bike_id":"6fcec503-f142-4416-aaf8-bfdd2cdc1519","system_id":"levelo_inurba_marseille","lat":43.29694,"lon":5.37292,"is_reserved":false,"is_disabled":false,"rental_uris":{"android":"levelo://app?vid=6fcec503-f142-4416-aaf8-bfdd2cdc1519","ios":"levelo://app?vid=6fcec503-f142-4416-aaf8-bfdd2cdc1519"},"vehicle_type_id":"4","last_reported":1730448727,"current_range_meters":8000,"station_id":"ce4bgk12rcd13ifvqbj0","pricing_plan_id":"cebpf4jnsgd1na2vs0mg"},{"bike_id":"0c0d9948-f25a-4658-8710-9891497017b1","system_id":"levelo_inurba_marseille","lat":43.30321,"lon":5.40444,"is_reserved":false,"is_disabled":false,"rental_uris":{"android":"levelo://app?vid=0c0d9948-f25a-4658-8710-9891497017b1","ios":"levelo://app?vid=0c0d9948-f25a-4658-8710-9891497017b1"},"vehicle_type_id":"4","last_reported":1730448727,"current_range_meters":22800,"station_id":"ce4bh012rcd13ifvqd10","pricing_plan_id":"cebpf4jnsgd1na2vs0mg"},{"bike_id":"aaba3d43-eb81-4033-90d6-d4f77595aa51","system_id":"levelo_inurba_marseille","lat":43.3107,"lon":5.38356,"is_reserved":false,"is_disabled":false,"rental_uris":{"android":"levelo://app?vid=aaba3d43-eb81-4033-90d6-d4f77595aa51","ios":"levelo://app?vid=aaba3d43-eb81-4033-90d6-d4f77595aa51"},"vehicle_type_id":"4","last_reported":1730448727,"current_range_meters":23200,"station_id":"ce4bgv92rcd13ifvqcr0","pricing_plan_id":"cebpf4jnsgd1na2vs0mg"},{"bike_id":"f59d2b6c-416a-4366-a550-e13b80f20d82","system_id":"levelo_inurba_marseille","lat":43.31752,"lon":5.39017,"is_reserved":false,"is_disabled":false,"rental_uris":{"android":"levelo://app?vid=f59d2b6c-416a-4366-a550-e13b80f20d82","ios":"levelo://app?vid=f59d2b6c-416a-4366-a550-e13b80f20d82"},"vehicle_type_id":"4","last_reported":1730448727,"current_range_meters":39200,"station_id":"ce4bhqp2rcd13ifvqhng","pricing_plan_id":"cebpf4jnsgd1na2vs0mg"},{"bike_id":"10a39549-6c40-4fe4-9f11-5a7ec6c8f705","system_id":"levelo_inurba_marseille","lat":43.25084,"lon":5.39517,"is_reserved":false,"is_disabled":false,"rental_uris":{"android":"levelo://app?vid=10a39549-6c40-4fe4-9f11-5a7ec6c8f705","ios":"levelo://app?vid=10a39549-6c40-4fe4-9f11-5a7ec6c8f705"},"vehicle_type_id":"4","last_reported":1730448727,"current_range_meters":27200,"station_id":"ce4bhm12rcd13ifvqgkg","pricing_plan_id":"cebpf4jnsgd1na2vs0mg"},{"bike_id":"13dd447d-a43f-4bf5-bbfb-10286ab2cf91","system_id":"levelo_inurba_marseille","lat":43.27944,"lon":5.4104,"is_reserved":false,"is_disabled":false,"rental_uris":{"android":"levelo://app?vid=13dd447d-a43f-4bf5-bbfb-10286ab2cf91","ios":"levelo://app?vid=13dd447d-a43f-4bf5-bbfb-10286ab2cf91"},"vehicle_type_id":"4","last_reported":1730448727,"current_range_meters":24000,"station_id":"ce4bhnp2rcd13ifvqh0g","pricing_plan_id":"cebpf4jnsgd1na2vs0mg"},{"bike_id":"c88a035e-705f-42fc-924e-415c7ebf209c","system_id":"levelo_inurba_marseille","lat":43.30654,"lon":5.40087,"is_reserved":false,"is_disabled":false,"rental_uris":{"android":"levelo://app?vid=c88a035e-705f-42fc-924e-415c7ebf209c","ios":"levelo://app?vid=c88a035e-705f-42fc-924e-415c7ebf209c"},"vehicle_type_id":"4","last_reported":1730448727,"current_range_meters":9600,"station_id":"ce4bh112rcd13ifvqda0","pricing_plan_id":"cebpf4jnsgd1na2vs0mg"},{"bike_id":"675ef837-3778-4396-a626-7eaa12a01d82","system_id":"levelo_inurba_marseille","lat":43.31268,"lon":5.40167,"is_reserved":false,"is_disabled":false,"rental_uris":{"android":"levelo://app?vid=675ef837-3778-4396-a626-7eaa12a01d82","ios":"levelo://app?vid=675ef837-3778-4396-a626-7eaa12a01d82"},"vehicle_type_id":"4","last_reported":1730448727,"current_range_meters":29600,"station_id":"ce4bh092rcd13ifvqd30","pricing_plan_id":"cebpf4jnsgd1na2vs0mg"},{"bike_id":"58ee512a-5b9d-4328-9629-943a2b99b29f","system_id":"levelo_inurba_marseille","lat":43.30891,"lon":5.37195,"is_reserved":false,"is_disabled":false,"rental_uris":{"android":"levelo://app?vid=58ee512a-5b9d-4328-9629-943a2b99b29f","ios":"levelo://app?vid=58ee512a-5b9d-4328-9629-943a2b99b29f"},"vehicle_type_id":"4","last_reported":1730448727,"current_range_meters":26800,"station_id":"ce4bguh2rcd13ifvqckg","pricing_plan_id":"cebpf4jnsgd1na2vs0mg"},{"bike_id":"49766241-4db4-4015-b3eb-214db8f5235e","system_id":"levelo_inurba_marseille","lat":43.25084,"lon":5.39513,"is_reserved":false,"is_disabled":false,"rental_uris":{"android":"levelo://app?vid=49766241-4db4-4015-b3eb-214db8f5235e","ios":"levelo://app?vid=49766241-4db4-4015-b3eb-214db8f5235e"},"vehicle_type_id":"4","last_reported":1730448727,"current_range_meters":24800,"station_id":"ce4bhm12rcd13ifvqgkg","pricing_plan_id":"cebpf4jnsgd1na2vs0mg"},{"bike_id":"8f55f6cc-0b54-4d5f-9029-aa15dfd6d9b0","system_id":"levelo_inurba_marseille","lat":43.3161,"lon":5.39059,"is_reserved":false,"is_disabled":false,"rental_uris":{"android":"levelo://app?vid=8f55f6cc-0b54-4d5f-9029-aa15dfd6d9b0","ios":"levelo://app?vid=8f55f6cc-0b54-4d5f-9029-aa15dfd6d9b0"},"vehicle_type_id":"4","last_reported":1730448727,"current_range_meters":6000,"station_id":"","pricing_plan_id":"cebpf4jnsgd1na2vs0mg"},{"bike_id":"82fc33c9-8df5-4ecc-84d7-15cbf03ea71f","system_id":"levelo_inurba_marseille","lat":43.25114,"lon":5.40318,"is_reserved":false,"is_disabled":false,"rental_uris":{"android":"levelo://app?vid=82fc33c9-8df5-4ecc-84d7-15cbf03ea71f","ios":"levelo://app?vid=82fc33c9-8df5-4ecc-84d7-15cbf03ea71f"},"vehicle_type_id":"4","last_reported":1730448727,"current_range_meters":39200,"station_id":"ce4bhlh2rcd13ifvqgig","pricing_plan_id":"cebpf4jnsgd1na2vs0mg"},{"bike_id":"0e9b4ad1-4e02-458f-add5-570d6a61eeb8","system_id":"levelo_inurba_marseille","lat":43.29267,"lon":5.40897,"is_reserved":false,"is_disabled":false,"rental_uris":{"android":"levelo://app?vid=0e9b4ad1-4e02-458f-add5-570d6a61eeb8","ios":"levelo://app?vid=0e9b4ad1-4e02-458f-add5-570d6a61eeb8"},"vehicle_type_id":"4","last_reported":1730448727,"current_range_meters":36800,"station_id":"ce4bh192rcd13ifvqdc0","pricing_plan_id":"cebpf4jnsgd1na2vs0mg"},{"bike_id":"8fd30a5f-a396-4231-8970-73591b09f503","system_id":"levelo_inurba_marseille","lat":43.272042,"lon":5.4103,"is_reserved":false,"is_disabled":false,"rental_uris":{"android":"levelo://app?vid=8fd30a5f-a396-4231-8970-73591b09f503","ios":"levelo://app?vid=8fd30a5f-a396-4231-8970-73591b09f503"},"vehicle_type_id":"4","last_reported":1730448727,"current_range_meters":2000,"station_id":"ce4bhl12rcd13ifvqgf0","pricing_plan_id":"cebpf4jnsgd1na2vs0mg"},{"bike_id":"8cb9f7c4-5be9-4a25-8d4a-485de9647b9d","system_id":"levelo_inurba_marseille","lat":43.31078,"lon":5.4243,"is_reserved":false,"is_disabled":false,"rental_uris":{"android":"levelo://app?vid=8cb9f7c4-5be9-4a25-8d4a-485de9647b9d","ios":"levelo://app?vid=8cb9f7c4-5be9-4a25-8d4a-485de9647b9d"},"vehicle_type_id":"4","last_reported":1730448727,"current_range_meters":39200,"station_id":"ce4bhp92rcd13ifvqhag","pricing_plan_id":"cebpf4jnsgd1na2vs0mg"},{"bike_id":"bd83eb18-96ea-43b1-b4e8-3ff2663a3999","system_id":"levelo_inurba_marseille","lat":43.30953,"lon":5.39037,"is_reserved":false,"is_disabled":false,"rental_uris":{"android":"levelo://app?vid=bd83eb18-96ea-43b1-b4e8-3ff2663a3999","ios":"levelo://app?vid=bd83eb18-96ea-43b1-b4e8-3ff2663a3999"},"vehicle_type_id":"4","last_reported":1730448727,"current_range_meters":39200,"station_id":"ce4bgup2rcd13ifvqco0","pricing_plan_id":"cebpf4jnsgd1na2vs0mg"},{"bike_id":"ca211adf-b79e-4c48-88b9-6f08fbad3c50","system_id":"levelo_inurba_marseille","lat":43.313672,"lon":5.384972,"is_reserved":false,"is_disabled":false,"rental_uris":{"android":"levelo://app?vid=ca211adf-b79e-4c48-88b9-6f08fbad3c50","ios":"levelo://app?vid=ca211adf-b79e-4c48-88b9-6f08fbad3c50"},"vehicle_type_id":"4","last_reported":1730448727,"current_range_meters":39200,"station_id":"ce4bgt92rcd13ifvqcf0","pricing_plan_id":"cebpf4jnsgd1na2vs0mg"},{"bike_id":"db9b80b1-c6d8-4ef2-9727-ca0f0b9498a1","system_id":"levelo_inurba_marseille","lat":43.33726,"lon":5.39178,"is_reserved":false,"is_disabled":false,"rental_uris":{"android":"levelo://app?vid=db9b80b1-c6d8-4ef2-9727-ca0f0b9498a1","ios":"levelo://app?vid=db9b80b1-c6d8-4ef2-9727-ca0f0b9498a1"},"vehicle_type_id":"4","last_reported":1730448727,"current_range_meters":39200,"station_id":"ce4bhr92rcd13ifvqhsg","pricing_plan_id":"cebpf4jnsgd1na2vs0mg"},{"bike_id":"2e875e0f-bc43-4631-ba8b-be93cdfa892d","system_id":"levelo_inurba_marseille","lat":43.31277,"lon":5.40172,"is_reserved":false,"is_disabled":false,"rental_uris":{"android":"levelo://app?vid=2e875e0f-bc43-4631-ba8b-be93cdfa892d","ios":"levelo://app?vid=2e875e0f-bc43-4631-ba8b-be93cdfa892d"},"vehicle_type_id":"4","last_reported":1730448727,"current_range_meters":5600,"station_id":"ce4bh092rcd13ifvqd30","pricing_plan_id":"cebpf4jnsgd1na2vs0mg"},{"bike_id":"5e5714f5-9a0c-4fb7-8337-508e938e2d5b","system_id":"levelo_inurba_marseille","lat":43.27177,"lon":5.40994,"is_reserved":false,"is_disabled":false,"rental_uris":{"android":"levelo://app?vid=5e5714f5-9a0c-4fb7-8337-508e938e2d5b","ios":"levelo://app?vid=5e5714f5-9a0c-4fb7-8337-508e938e2d5b"},"vehicle_type_id":"4","last_reported":1730448727,"current_range_meters":32400,"station_id":"ce4bhl12rcd13ifvqgf0","pricing_plan_id":"cebpf4jnsgd1na2vs0mg"},{"bike_id":"7c60a97c-fef2-465a-b33a-19dca78d1dba","system_id":"levelo_inurba_marseille","lat":43.30148,"lon":5.38078,"is_reserved":false,"is_disabled":false,"rental_uris":{"android":"levelo://app?vid=7c60a97c-fef2-465a-b33a-19dca78d1dba","ios":"levelo://app?vid=7c60a97c-fef2-465a-b33a-19dca78d1dba"},"vehicle_type_id":"4","last_reported":1730448727,"current_range_meters":30000,"station_id":"ce4bgjp2rcd13ifvqbh0","pricing_plan_id":"cebpf4jnsgd1na2vs0mg"},{"bike_id":"2d69fbca-7b47-4dac-81b7-65c924e55db7","system_id":"levelo_inurba_marseille","lat":43.29027,"lon":5.39994,"is_reserved":false,"is_disabled":false,"rental_uris":{"android":"levelo://app?vid=2d69fbca-7b47-4dac-81b7-65c924e55db7","ios":"levelo://app?vid=2d69fbca-7b47-4dac-81b7-65c924e55db7"},"vehicle_type_id":"4","last_reported":1730448727,"current_range_meters":31200,"station_id":"ce4bh392rcd13ifvqdm0","pricing_plan_id":"cebpf4jnsgd1na2vs0mg"},{"bike_id":"c52a23bd-b8fa-4e87-8fba-eaba32edd6b9","system_id":"levelo_inurba_marseille","lat":43.28698,"lon":5.3998,"is_reserved":false,"is_disabled":false,"rental_uris":{"android":"levelo://app?vid=c52a23bd-b8fa-4e87-8fba-eaba32edd6b9","ios":"levelo://app?vid=c52a23bd-b8fa-4e87-8fba-eaba32edd6b9"},"vehicle_type_id":"4","last_reported":1730448727,"current_range_meters":23200,"station_id":"ce4bho92rcd13ifvqh3g","pricing_plan_id":"cebpf4jnsgd1na2vs0mg"},{"bike_id":"4eba5925-18cb-4e40-b63a-242a72ae1cdf","system_id":"levelo_inurba_marseille","lat":43.30209,"lon":5.39472,"is_reserved":false,"is_disabled":false,"rental_uris":{"android":"levelo://app?vid=4eba5925-18cb-4e40-b63a-242a72ae1cdf","ios":"levelo://app?vid=4eba5925-18cb-4e40-b63a-242a72ae1cdf"},"vehicle_type_id":"4","last_reported":1730448727,"current_range_meters":38800,"station_id":"ce4bh0p2rcd13ifvqd70","pricing_plan_id":"cebpf4jnsgd1na2vs0mg"},{"bike_id":"72a34d7e-9407-49af-be3c-e7015b219001","system_id":"levelo_inurba_marseille","lat":43.33606,"lon":5.41034,"is_reserved":false,"is_disabled":false,"rental_uris":{"android":"levelo://app?vid=72a34d7e-9407-49af-be3c-e7015b219001","ios":"levelo://app?vid=72a34d7e-9407-49af-be3c-e7015b219001"},"vehicle_type_id":"4","last_reported":1730448727,"current_range_meters":30400,"station_id":"ce4bhqh2rcd13ifvqhmg","pricing_plan_id":"cebpf4jnsgd1na2vs0mg"},{"bike_id":"e774631b-ad90-4388-b9e5-795e1ebd992c","system_id":"levelo_inurba_marseille","lat":43.23962,"lon":5.36635,"is_reserved":false,"is_disabled":false,"rental_uris":{"android":"levelo://app?vid=e774631b-ad90-4388-b9e5-795e1ebd992c","ios":"levelo://app?vid=e774631b-ad90-4388-b9e5-795e1ebd992c"},"vehicle_type_id":"4","last_reported":1730448727,"current_range_meters":28800,"station_id":"ce4bhi12rcd13ifvqfp0","pricing_plan_id":"cebpf4jnsgd1na2vs0mg"},{"bike_id":"abdde34f-eef5-4d3b-8d74-e86baa873556","system_id":"levelo_inurba_marseille","lat":43.296325,"lon":5.40599,"is_reserved":false,"is_disabled":false,"rental_uris":{"android":"levelo://app?vid=abdde34f-eef5-4d3b-8d74-e86baa873556","ios":"levelo://app?vid=abdde34f-eef5-4d3b-8d74-e86baa873556"},"vehicle_type_id":"4","last_reported":1730448727,"current_range_meters":33600,"station_id":"ce4bh0h2rcd13ifvqd60","pricing_plan_id":"cebpf4jnsgd1na2vs0mg"},{"bike_id":"5b1beb29-08c3-4517-96e1-89c4b727e0c3","system_id":"levelo_inurba_marseille","lat":43.23197,"lon":5.35547,"is_reserved":false,"is_disabled":false,"rental_uris":{"android":"levelo://app?vid=5b1beb29-08c3-4517-96e1-89c4b727e0c3","ios":"levelo://app?vid=5b1beb29-08c3-4517-96e1-89c4b727e0c3"},"vehicle_type_id":"4","last_reported":1730448727,"current_range_meters":30400,"station_id":"ce4bhu92rcd13ifvqi70","pricing_plan_id":"cebpf4jnsgd1na2vs0mg"},{"bike_id":"5490c8fa-94fb-4bb6-ba1c-a35def655112","system_id":"levelo_inurba_marseille","lat":43.31276,"lon":5.40169,"is_reserved":false,"is_disabled":false,"rental_uris":{"android":"levelo://app?vid=5490c8fa-94fb-4bb6-ba1c-a35def655112","ios":"levelo://app?vid=5490c8fa-94fb-4bb6-ba1c-a35def655112"},"vehicle_type_id":"4","last_reported":1730448727,"current_range_meters":31200,"station_id":"ce4bh092rcd13ifvqd30","pricing_plan_id":"cebpf4jnsgd1na2vs0mg"},{"bike_id":"d8de5714-58af-4d06-95fa-16cf8ce84d6a","system_id":"levelo_inurba_marseille","lat":43.30779,"lon":5.37649,"is_reserved":false,"is_disabled":false,"rental_uris":{"android":"levelo://app?vid=d8de5714-58af-4d06-95fa-16cf8ce84d6a","ios":"levelo://app?vid=d8de5714-58af-4d06-95fa-16cf8ce84d6a"},"vehicle_type_id":"4","last_reported":1730448727,"current_range_meters":36400,"station_id":"ce4bgv92rcd13ifvqcq0","pricing_plan_id":"cebpf4jnsgd1na2vs0mg"},{"bike_id":"c98470d7-5247-4c9b-9990-4c8a4dc7b4eb","system_id":"levelo_inurba_marseille","lat":43.28618,"lon":5.35099,"is_reserved":false,"is_disabled":false,"rental_uris":{"android":"levelo://app?vid=c98470d7-5247-4c9b-9990-4c8a4dc7b4eb","ios":"levelo://app?vid=c98470d7-5247-4c9b-9990-4c8a4dc7b4eb"},"vehicle_type_id":"4","last_reported":1730448727,"current_range_meters":35200,"station_id":"ce4bhch2rcd13ifvqeug","pricing_plan_id":"cebpf4jnsgd1na2vs0mg"},{"bike_id":"788033dd-8c9d-41b9-98cf-3e4f690c4925","system_id":"levelo_inurba_marseille","lat":43.29011,"lon":5.38134,"is_reserved":false,"is_disabled":false,"rental_uris":{"android":"levelo://app?vid=788033dd-8c9d-41b9-98cf-3e4f690c4925","ios":"levelo://app?vid=788033dd-8c9d-41b9-98cf-3e4f690c4925"},"vehicle_type_id":"4","last_reported":1730448727,"current_range_meters":36400,"station_id":"ce4bh4p2rcd13ifvqe1g","pricing_plan_id":"cebpf4jnsgd1na2vs0mg"},{"bike_id":"f99547b6-e0b7-4a86-b4bb-f600f8ca5cb2","system_id":"levelo_inurba_marseille","lat":43.24171,"lon":5.36399,"is_reserved":false,"is_disabled":false,"rental_uris":{"android":"levelo://app?vid=f99547b6-e0b7-4a86-b4bb-f600f8ca5cb2","ios":"levelo://app?vid=f99547b6-e0b7-4a86-b4bb-f600f8ca5cb2"},"vehicle_type_id":"4","last_reported":1730448727,"current_range_meters":7200,"station_id":"cpo36qri1sfpv3e86is0","pricing_plan_id":"cebpf4jnsgd1na2vs0mg"},{"bike_id":"e6a6d45a-e190-43cb-8101-dd964c389a88","system_id":"levelo_inurba_marseille","lat":43.28417,"lon":5.34995,"is_reserved":false,"is_disabled":false,"rental_uris":{"android":"levelo://app?vid=e6a6d45a-e190-43cb-8101-dd964c389a88","ios":"levelo://app?vid=e6a6d45a-e190-43cb-8101-dd964c389a88"},"vehicle_type_id":"4","last_reported":1730448727,"current_range_meters":39200,"station_id":"ce4bhbh2rcd13ifvqepg","pricing_plan_id":"cebpf4jnsgd1na2vs0mg"},{"bike_id":"7f2c9760-527c-4cd4-a04e-40d5f81e7b52","system_id":"levelo_inurba_marseille","lat":43.30552,"lon":5.38429,"is_reserved":false,"is_disabled":false,"rental_uris":{"android":"levelo://app?vid=7f2c9760-527c-4cd4-a04e-40d5f81e7b52","ios":"levelo://app?vid=7f2c9760-527c-4cd4-a04e-40d5f81e7b52"},"vehicle_type_id":"4","last_reported":1730448727,"current_range_meters":36400,"station_id":"ce4bgg92rcd13ifvqb30","pricing_plan_id":"cebpf4jnsgd1na2vs0mg"},{"bike_id":"0be85cde-714a-4bef-9878-5aeed2007d8e","system_id":"levelo_inurba_marseille","lat":43.26938,"lon":5.40252,"is_reserved":false,"is_disabled":false,"rental_uris":{"android":"levelo://app?vid=0be85cde-714a-4bef-9878-5aeed2007d8e","ios":"levelo://app?vid=0be85cde-714a-4bef-9878-5aeed2007d8e"},"vehicle_type_id":"4","last_reported":1730448727,"current_range_meters":17600,"station_id":"cjm6bp8fraef2m0cb0m0","pricing_plan_id":"cebpf4jnsgd1na2vs0mg"},{"bike_id":"794d23c0-def7-4557-a69a-112ea268f585","system_id":"levelo_inurba_marseille","lat":43.23191,"lon":5.35556,"is_reserved":false,"is_disabled":false,"rental_uris":{"android":"levelo://app?vid=794d23c0-def7-4557-a69a-112ea268f585","ios":"levelo://app?vid=794d23c0-def7-4557-a69a-112ea268f585"},"vehicle_type_id":"4","last_reported":1730448727,"current_range_meters":38800,"station_id":"ce4bhu92rcd13ifvqi70","pricing_plan_id":"cebpf4jnsgd1na2vs0mg"},{"bike_id":"bf270bd9-ff02-420d-aa18-553f49a4ab89","system_id":"levelo_inurba_marseille","lat":43.29631,"lon":5.40594,"is_reserved":false,"is_disabled":false,"rental_uris":{"android":"levelo://app?vid=bf270bd9-ff02-420d-aa18-553f49a4ab89","ios":"levelo://app?vid=bf270bd9-ff02-420d-aa18-553f49a4ab89"},"vehicle_type_id":"4","last_reported":1730448727,"current_range_meters":33600,"station_id":"ce4bh0h2rcd13ifvqd60","pricing_plan_id":"cebpf4jnsgd1na2vs0mg"},{"bike_id":"73840abb-6496-4c2f-bc09-72b83004c31f","system_id":"levelo_inurba_marseille","lat":43.31995,"lon":5.38145,"is_reserved":false,"is_disabled":false,"rental_uris":{"android":"levelo://app?vid=73840abb-6496-4c2f-bc09-72b83004c31f","ios":"levelo://app?vid=73840abb-6496-4c2f-bc09-72b83004c31f"},"vehicle_type_id":"4","last_reported":1730448727,"current_range_meters":18000,"station_id":"ce4bhr12rcd13ifvqhpg","pricing_plan_id":"cebpf4jnsgd1na2vs0mg"},{"bike_id":"5b47bee9-f12b-4463-a9ea-9906df86d508","system_id":"levelo_inurba_marseille","lat":43.27946,"lon":5.41049,"is_reserved":false,"is_disabled":false,"rental_uris":{"android":"levelo://app?vid=5b47bee9-f12b-4463-a9ea-9906df86d508","ios":"levelo://app?vid=5b47bee9-f12b-4463-a9ea-9906df86d508"},"vehicle_type_id":"4","last_reported":1730448727,"current_range_meters":9600,"station_id":"ce4bhnp2rcd13ifvqh0g","pricing_plan_id":"cebpf4jnsgd1na2vs0mg"},{"bike_id":"c9fe9305-e5b5-403a-8ac6-ee784523647c","system_id":"levelo_inurba_marseille","lat":43.23429,"lon":5.3594,"is_reserved":false,"is_disabled":false,"rental_uris":{"android":"levelo://app?vid=c9fe9305-e5b5-403a-8ac6-ee784523647c","ios":"levelo://app?vid=c9fe9305-e5b5-403a-8ac6-ee784523647c"},"vehicle_type_id":"4","last_reported":1730448727,"current_range_meters":24000,"station_id":"","pricing_plan_id":"cebpf4jnsgd1na2vs0mg"},{"bike_id":"972cf12a-4f44-428a-92a8-7d6c69f353a3","system_id":"levelo_inurba_marseille","lat":43.30154,"lon":5.38081,"is_reserved":false,"is_disabled":false,"rental_uris":{"android":"levelo://app?vid=972cf12a-4f44-428a-92a8-7d6c69f353a3","ios":"levelo://app?vid=972cf12a-4f44-428a-92a8-7d6c69f353a3"},"vehicle_type_id":"4","last_reported":1730448727,"current_range_meters":24800,"station_id":"ce4bgjp2rcd13ifvqbh0","pricing_plan_id":"cebpf4jnsgd1na2vs0mg"},{"bike_id":"a6c79ad0-6eac-42d1-9ed7-69d080828ec6","system_id":"levelo_inurba_marseille","lat":43.279,"lon":5.38016,"is_reserved":false,"is_disabled":false,"rental_uris":{"android":"levelo://app?vid=a6c79ad0-6eac-42d1-9ed7-69d080828ec6","ios":"levelo://app?vid=a6c79ad0-6eac-42d1-9ed7-69d080828ec6"},"vehicle_type_id":"4","last_reported":1730448727,"current_range_meters":36400,"station_id":"ce4bhf92rcd13ifvqf50","pricing_plan_id":"cebpf4jnsgd1na2vs0mg"},{"bike_id":"a59a010e-116f-4fac-839d-1cd69180aa90","system_id":"levelo_inurba_marseille","lat":43.30948,"lon":5.39043,"is_reserved":false,"is_disabled":false,"rental_uris":{"android":"levelo://app?vid=a59a010e-116f-4fac-839d-1cd69180aa90","ios":"levelo://app?vid=a59a010e-116f-4fac-839d-1cd69180aa90"},"vehicle_type_id":"4","last_reported":1730448727,"current_range_meters":4400,"station_id":"ce4bgup2rcd13ifvqco0","pricing_plan_id":"cebpf4jnsgd1na2vs0mg"},{"bike_id":"84cd1be0-1fec-424a-8354-fde26bc18cd1","system_id":"levelo_inurba_marseille","lat":43.25084,"lon":5.39515,"is_reserved":false,"is_disabled":false,"rental_uris":{"android":"levelo://app?vid=84cd1be0-1fec-424a-8354-fde26bc18cd1","ios":"levelo://app?vid=84cd1be0-1fec-424a-8354-fde26bc18cd1"},"vehicle_type_id":"4","last_reported":1730448727,"current_range_meters":5600,"station_id":"ce4bhm12rcd13ifvqgkg","pricing_plan_id":"cebpf4jnsgd1na2vs0mg"},{"bike_id":"2ee4cb11-79db-4be3-bdb3-ee3e0aec136e","system_id":"levelo_inurba_marseille","lat":43.29437,"lon":5.39761,"is_reserved":false,"is_disabled":false,"rental_uris":{"android":"levelo://app?vid=2ee4cb11-79db-4be3-bdb3-ee3e0aec136e","ios":"levelo://app?vid=2ee4cb11-79db-4be3-bdb3-ee3e0aec136e"},"vehicle_type_id":"4","last_reported":1730448727,"current_range_meters":28800,"station_id":"ce4bh3h2rcd13ifvqdo0","pricing_plan_id":"cebpf4jnsgd1na2vs0mg"},{"bike_id":"60223806-a44d-4bd3-a685-de2b36919390","system_id":"levelo_inurba_marseille","lat":43.27566,"lon":5.38413,"is_reserved":false,"is_disabled":false,"rental_uris":{"android":"levelo://app?vid=60223806-a44d-4bd3-a685-de2b36919390","ios":"levelo://app?vid=60223806-a44d-4bd3-a685-de2b36919390"},"vehicle_type_id":"4","last_reported":1730448727,"current_range_meters":12800,"station_id":"ce4bhh92rcd13ifvqfi0","pricing_plan_id":"cebpf4jnsgd1na2vs0mg"},{"bike_id":"3d8c54e0-b8b0-4f3c-8415-8e80f18df626","system_id":"levelo_inurba_marseille","lat":43.29009,"lon":5.35614,"is_reserved":false,"is_disabled":false,"rental_uris":{"android":"levelo://app?vid=3d8c54e0-b8b0-4f3c-8415-8e80f18df626","ios":"levelo://app?vid=3d8c54e0-b8b0-4f3c-8415-8e80f18df626"},"vehicle_type_id":"4","last_reported":1730448727,"current_range_meters":39200,"station_id":"ce4bhb92rcd13ifvqen0","pricing_plan_id":"cebpf4jnsgd1na2vs0mg"},{"bike_id":"7e57f650-9611-43e9-8e9d-0037a90a6037","system_id":"levelo_inurba_marseille","lat":43.30933,"lon":5.40143,"is_reserved":false,"is_disabled":false,"rental_uris":{"android":"levelo://app?vid=7e57f650-9611-43e9-8e9d-0037a90a6037","ios":"levelo://app?vid=7e57f650-9611-43e9-8e9d-0037a90a6037"},"vehicle_type_id":"4","last_reported":1730448727,"current_range_meters":17600,"station_id":"ce4bgvp2rcd13ifvqct0","pricing_plan_id":"cebpf4jnsgd1na2vs0mg"},{"bike_id":"26de7c19-4534-4738-9b0d-5022f29b8b7a","system_id":"levelo_inurba_marseille","lat":43.305426,"lon":5.384298,"is_reserved":false,"is_disabled":false,"rental_uris":{"android":"levelo://app?vid=26de7c19-4534-4738-9b0d-5022f29b8b7a","ios":"levelo://app?vid=26de7c19-4534-4738-9b0d-5022f29b8b7a"},"vehicle_type_id":"4","last_reported":1730448727,"current_range_meters":38800,"station_id":"ce4bgg92rcd13ifvqb30","pricing_plan_id":"cebpf4jnsgd1na2vs0mg"},{"bike_id":"86974205-f656-457f-8477-0714ccf9136f","system_id":"levelo_inurba_marseille","lat":43.31326,"lon":5.397,"is_reserved":false,"is_disabled":false,"rental_uris":{"android":"levelo://app?vid=86974205-f656-457f-8477-0714ccf9136f","ios":"levelo://app?vid=86974205-f656-457f-8477-0714ccf9136f"},"vehicle_type_id":"4","last_reported":1730448727,"current_range_meters":38800,"station_id":"ce4bgvp2rcd13ifvqcu0","pricing_plan_id":"cebpf4jnsgd1na2vs0mg"},{"bike_id":"cbebda8f-2155-4801-864e-b9895dcaf8bb","system_id":"levelo_inurba_marseille","lat":43.28857,"lon":5.35841,"is_reserved":false,"is_disabled":false,"rental_uris":{"android":"levelo://app?vid=cbebda8f-2155-4801-864e-b9895dcaf8bb","ios":"levelo://app?vid=cbebda8f-2155-4801-864e-b9895dcaf8bb"},"vehicle_type_id":"4","last_reported":1730448727,"current_range_meters":38800,"station_id":"ce4bhb12rcd13ifvqem0","pricing_plan_id":"cebpf4jnsgd1na2vs0mg"},{"bike_id":"29c539ff-09c2-47df-8157-a6be4e1fc22d","system_id":"levelo_inurba_marseille","lat":43.32057,"lon":5.41538,"is_reserved":false,"is_disabled":false,"rental_uris":{"android":"levelo://app?vid=29c539ff-09c2-47df-8157-a6be4e1fc22d","ios":"levelo://app?vid=29c539ff-09c2-47df-8157-a6be4e1fc22d"},"vehicle_type_id":"4","last_reported":1730448727,"current_range_meters":38400,"station_id":"ce4bhq92rcd13ifvqhkg","pricing_plan_id":"cebpf4jnsgd1na2vs0mg"},{"bike_id":"ab226aa8-03f1-4a65-bdd9-846428a9c4e9","system_id":"levelo_inurba_marseille","lat":43.28075,"lon":5.39659,"is_reserved":false,"is_disabled":false,"rental_uris":{"android":"levelo://app?vid=ab226aa8-03f1-4a65-bdd9-846428a9c4e9","ios":"levelo://app?vid=ab226aa8-03f1-4a65-bdd9-846428a9c4e9"},"vehicle_type_id":"4","last_reported":1730448727,"current_range_meters":36800,"station_id":"ce4bho12rcd13ifvqh2g","pricing_plan_id":"cebpf4jnsgd1na2vs0mg"},{"bike_id":"181ed6c7-7294-4f06-b52b-78add519245b","system_id":"levelo_inurba_marseille","lat":43.30413,"lon":5.41289,"is_reserved":false,"is_disabled":false,"rental_uris":{"android":"levelo://app?vid=181ed6c7-7294-4f06-b52b-78add519245b","ios":"levelo://app?vid=181ed6c7-7294-4f06-b52b-78add519245b"},"vehicle_type_id":"4","last_reported":1730448727,"current_range_meters":36400,"station_id":"ce4bhop2rcd13ifvqh8g","pricing_plan_id":"cebpf4jnsgd1na2vs0mg"},{"bike_id":"30514b68-f146-4b5d-b222-45696243c2e4","system_id":"levelo_inurba_marseille","lat":43.25088,"lon":5.39517,"is_reserved":false,"is_disabled":false,"rental_uris":{"android":"levelo://app?vid=30514b68-f146-4b5d-b222-45696243c2e4","ios":"levelo://app?vid=30514b68-f146-4b5d-b222-45696243c2e4"},"vehicle_type_id":"4","last_reported":1730448727,"current_range_meters":24800,"station_id":"ce4bhm12rcd13ifvqgkg","pricing_plan_id":"cebpf4jnsgd1na2vs0mg"},{"bike_id":"901c09b1-7d23-450b-a699-85fb678b973a","system_id":"levelo_inurba_marseille","lat":43.255921,"lon":5.382293,"is_reserved":false,"is_disabled":false,"rental_uris":{"android":"levelo://app?vid=901c09b1-7d23-450b-a699-85fb678b973a","ios":"levelo://app?vid=901c09b1-7d23-450b-a699-85fb678b973a"},"vehicle_type_id":"4","last_reported":1730448727,"current_range_meters":38800,"station_id":"ce4bhh92rcd13ifvqfh0","pricing_plan_id":"cebpf4jnsgd1na2vs0mg"},{"bike_id":"a4a6605d-e8e9-45b4-afdf-2a91286651dd","system_id":"levelo_inurba_marseille","lat":43.29564,"lon":5.37541,"is_reserved":false,"is_disabled":false,"rental_uris":{"android":"levelo://app?vid=a4a6605d-e8e9-45b4-afdf-2a91286651dd","ios":"levelo://app?vid=a4a6605d-e8e9-45b4-afdf-2a91286651dd"},"vehicle_type_id":"4","last_reported":1730448727,"current_range_meters":36400,"station_id":"ce4bgh92rcd13ifvqb50","pricing_plan_id":"cebpf4jnsgd1na2vs0mg"},{"bike_id":"30cd3637-5231-4451-8b17-3902824e2d98","system_id":"levelo_inurba_marseille","lat":43.31438,"lon":5.39301,"is_reserved":false,"is_disabled":false,"rental_uris":{"android":"levelo://app?vid=30cd3637-5231-4451-8b17-3902824e2d98","ios":"levelo://app?vid=30cd3637-5231-4451-8b17-3902824e2d98"},"vehicle_type_id":"4","last_reported":1730448727,"current_range_meters":17600,"station_id":"","pricing_plan_id":"cebpf4jnsgd1na2vs0mg"},{"bike_id":"d517cfa4-5fae-49bc-8524-21e72e9dbc74","system_id":"levelo_inurba_marseille","lat":43.30272,"lon":5.377,"is_reserved":false,"is_disabled":false,"rental_uris":{"android":"levelo://app?vid=d517cfa4-5fae-49bc-8524-21e72e9dbc74","ios":"levelo://app?vid=d517cfa4-5fae-49bc-8524-21e72e9dbc74"},"vehicle_type_id":"4","last_reported":1730448727,"current_range_meters":32400,"station_id":"ce4bguh2rcd13ifvqcj0","pricing_plan_id":"cebpf4jnsgd1na2vs0mg"},{"bike_id":"9d04037d-5912-4748-a04e-79b7cb2358b9","system_id":"levelo_inurba_marseille","lat":43.309,"lon":5.36856,"is_reserved":false,"is_disabled":false,"rental_uris":{"android":"levelo://app?vid=9d04037d-5912-4748-a04e-79b7cb2358b9","ios":"levelo://app?vid=9d04037d-5912-4748-a04e-79b7cb2358b9"},"vehicle_type_id":"4","last_reported":1730448727,"current_range_meters":8000,"station_id":"ce4bgn92rcd13ifvqbvg","pricing_plan_id":"cebpf4jnsgd1na2vs0mg"},{"bike_id":"1a42306b-60a4-428c-be70-5356ee634902","system_id":"levelo_inurba_marseille","lat":43.29255,"lon":5.40905,"is_reserved":false,"is_disabled":false,"rental_uris":{"android":"levelo://app?vid=1a42306b-60a4-428c-be70-5356ee634902","ios":"levelo://app?vid=1a42306b-60a4-428c-be70-5356ee634902"},"vehicle_type_id":"4","last_reported":1730448727,"current_range_meters":39200,"station_id":"ce4bh192rcd13ifvqdc0","pricing_plan_id":"cebpf4jnsgd1na2vs0mg"},{"bike_id":"e8c4e24f-476f-443e-b5f0-ef78d7e0d75f","system_id":"levelo_inurba_marseille","lat":43.31277,"lon":5.40165,"is_reserved":false,"is_disabled":false,"rental_uris":{"android":"levelo://app?vid=e8c4e24f-476f-443e-b5f0-ef78d7e0d75f","ios":"levelo://app?vid=e8c4e24f-476f-443e-b5f0-ef78d7e0d75f"},"vehicle_type_id":"4","last_reported":1730448727,"current_range_meters":8000,"station_id":"ce4bh092rcd13ifvqd30","pricing_plan_id":"cebpf4jnsgd1na2vs0mg"},{"bike_id":"a80fd775-ae61-4dd1-b6ce-acd78cfbc172","system_id":"levelo_inurba_marseille","lat":43.28472,"lon":5.38415,"is_reserved":false,"is_disabled":false,"rental_uris":{"android":"levelo://app?vid=a80fd775-ae61-4dd1-b6ce-acd78cfbc172","ios":"levelo://app?vid=a80fd775-ae61-4dd1-b6ce-acd78cfbc172"},"vehicle_type_id":"4","last_reported":1730448727,"current_range_meters":16000,"station_id":"ce4bh512rcd13ifvqe3g","pricing_plan_id":"cebpf4jnsgd1na2vs0mg"},{"bike_id":"df167e9b-f340-4140-9da7-d071fc2afcaf","system_id":"levelo_inurba_marseille","lat":43.27997,"lon":5.40015,"is_reserved":false,"is_disabled":false,"rental_uris":{"android":"levelo://app?vid=df167e9b-f340-4140-9da7-d071fc2afcaf","ios":"levelo://app?vid=df167e9b-f340-4140-9da7-d071fc2afcaf"},"vehicle_type_id":"4","last_reported":1730448727,"current_range_meters":37600,"station_id":"ce4bho92rcd13ifvqh4g","pricing_plan_id":"cebpf4jnsgd1na2vs0mg"},{"bike_id":"7b5505f9-f56e-4e69-998d-40fff5149598","system_id":"levelo_inurba_marseille","lat":43.30461,"lon":5.37909,"is_reserved":false,"is_disabled":false,"rental_uris":{"android":"levelo://app?vid=7b5505f9-f56e-4e69-998d-40fff5149598","ios":"levelo://app?vid=7b5505f9-f56e-4e69-998d-40fff5149598"},"vehicle_type_id":"4","last_reported":1730448727,"current_range_meters":38800,"station_id":"ce4bgup2rcd13ifvqcn0","pricing_plan_id":"cebpf4jnsgd1na2vs0mg"},{"bike_id":"f221aab7-1d6f-4b38-9b62-97b3a1fc5f0e","system_id":"levelo_inurba_marseille","lat":43.3149,"lon":5.37299,"is_reserved":false,"is_disabled":false,"rental_uris":{"android":"levelo://app?vid=f221aab7-1d6f-4b38-9b62-97b3a1fc5f0e","ios":"levelo://app?vid=f221aab7-1d6f-4b38-9b62-97b3a1fc5f0e"},"vehicle_type_id":"4","last_reported":1730448727,"current_range_meters":32000,"station_id":"ce4bgt12rcd13ifvqcd0","pricing_plan_id":"cebpf4jnsgd1na2vs0mg"},{"bike_id":"d477fc85-5003-425a-93c8-d0a0d4de8e18","system_id":"levelo_inurba_marseille","lat":43.3064,"lon":5.40077,"is_reserved":false,"is_disabled":false,"rental_uris":{"android":"levelo://app?vid=d477fc85-5003-425a-93c8-d0a0d4de8e18","ios":"levelo://app?vid=d477fc85-5003-425a-93c8-d0a0d4de8e18"},"vehicle_type_id":"4","last_reported":1730448727,"current_range_meters":8000,"station_id":"ce4bh112rcd13ifvqda0","pricing_plan_id":"cebpf4jnsgd1na2vs0mg"},{"bike_id":"9412f2f8-102e-4df0-9659-cb838f0551c8","system_id":"levelo_inurba_marseille","lat":43.30472,"lon":5.37913,"is_reserved":false,"is_disabled":false,"rental_uris":{"android":"levelo://app?vid=9412f2f8-102e-4df0-9659-cb838f0551c8","ios":"levelo://app?vid=9412f2f8-102e-4df0-9659-cb838f0551c8"},"vehicle_type_id":"4","last_reported":1730448727,"current_range_meters":25600,"station_id":"ce4bgup2rcd13ifvqcn0","pricing_plan_id":"cebpf4jnsgd1na2vs0mg"},{"bike_id":"58748d2a-dff2-4bfe-ba69-a9beed25e62c","system_id":"levelo_inurba_marseille","lat":43.27109,"lon":5.39445,"is_reserved":false,"is_disabled":false,"rental_uris":{"android":"levelo://app?vid=58748d2a-dff2-4bfe-ba69-a9beed25e62c","ios":"levelo://app?vid=58748d2a-dff2-4bfe-ba69-a9beed25e62c"},"vehicle_type_id":"4","last_reported":1730448727,"current_range_meters":24000,"station_id":"","pricing_plan_id":"cebpf4jnsgd1na2vs0mg"},{"bike_id":"08ed22d7-663d-413b-8e4a-a32596a7792f","system_id":"levelo_inurba_marseille","lat":43.32486,"lon":5.41569,"is_reserved":false,"is_disabled":false,"rental_uris":{"android":"levelo://app?vid=08ed22d7-663d-413b-8e4a-a32596a7792f","ios":"levelo://app?vid=08ed22d7-663d-413b-8e4a-a32596a7792f"},"vehicle_type_id":"4","last_reported":1730448727,"current_range_meters":37600,"station_id":"","pricing_plan_id":"cebpf4jnsgd1na2vs0mg"},{"bike_id":"55db49d4-5a48-49c8-9207-c7b4fb027811","system_id":"levelo_inurba_marseille","lat":43.25004,"lon":5.38914,"is_reserved":false,"is_disabled":false,"rental_uris":{"android":"levelo://app?vid=55db49d4-5a48-49c8-9207-c7b4fb027811","ios":"levelo://app?vid=55db49d4-5a48-49c8-9207-c7b4fb027811"},"vehicle_type_id":"4","last_reported":1730448727,"current_range_meters":28000,"station_id":"ce4bhgp2rcd13ifvqfd0","pricing_plan_id":"cebpf4jnsgd1na2vs0mg"},{"bike_id":"df7d8286-be6c-47f0-8973-2c9835f4f391","system_id":"levelo_inurba_marseille","lat":43.25091,"lon":5.39518,"is_reserved":false,"is_disabled":false,"rental_uris":{"android":"levelo://app?vid=df7d8286-be6c-47f0-8973-2c9835f4f391","ios":"levelo://app?vid=df7d8286-be6c-47f0-8973-2c9835f4f391"},"vehicle_type_id":"4","last_reported":1730448727,"current_range_meters":30400,"station_id":"ce4bhm12rcd13ifvqgkg","pricing_plan_id":"cebpf4jnsgd1na2vs0mg"},{"bike_id":"1385fa14-04b9-4ff3-80ac-cb1451ed0689","system_id":"levelo_inurba_marseille","lat":43.29842,"lon":5.36267,"is_reserved":false,"is_disabled":false,"rental_uris":{"android":"levelo://app?vid=1385fa14-04b9-4ff3-80ac-cb1451ed0689","ios":"levelo://app?vid=1385fa14-04b9-4ff3-80ac-cb1451ed0689"},"vehicle_type_id":"4","last_reported":1730448727,"current_range_meters":22000,"station_id":"ce4bgpp2rcd13ifvqc3g","pricing_plan_id":"cebpf4jnsgd1na2vs0mg"},{"bike_id":"ee1e6520-0943-4916-a847-ba41df37bfcc","system_id":"levelo_inurba_marseille","lat":43.2843,"lon":5.39206,"is_reserved":false,"is_disabled":false,"rental_uris":{"android":"levelo://app?vid=ee1e6520-0943-4916-a847-ba41df37bfcc","ios":"levelo://app?vid=ee1e6520-0943-4916-a847-ba41df37bfcc"},"vehicle_type_id":"4","last_reported":1730448727,"current_range_meters":36800,"station_id":"ce4bhoh2rcd13ifvqh5g","pricing_plan_id":"cebpf4jnsgd1na2vs0mg"},{"bike_id":"c557ff30-64af-48d0-84c0-028a6bb21719","system_id":"levelo_inurba_marseille","lat":43.28711,"lon":5.39975,"is_reserved":false,"is_disabled":false,"rental_uris":{"android":"levelo://app?vid=c557ff30-64af-48d0-84c0-028a6bb21719","ios":"levelo://app?vid=c557ff30-64af-48d0-84c0-028a6bb21719"},"vehicle_type_id":"4","last_reported":1730448727,"current_range_meters":6800,"station_id":"ce4bho92rcd13ifvqh3g","pricing_plan_id":"cebpf4jnsgd1na2vs0mg"},{"bike_id":"7761dfd7-5811-407a-97cf-83e9d6d36c83","system_id":"levelo_inurba_marseille","lat":43.23185,"lon":5.39987,"is_reserved":false,"is_disabled":false,"rental_uris":{"android":"levelo://app?vid=7761dfd7-5811-407a-97cf-83e9d6d36c83","ios":"levelo://app?vid=7761dfd7-5811-407a-97cf-83e9d6d36c83"},"vehicle_type_id":"4","last_reported":1730448727,"current_range_meters":39200,"station_id":"ce4bhn12rcd13ifvqgqg","pricing_plan_id":"cebpf4jnsgd1na2vs0mg"},{"bike_id":"d8c25686-4239-4497-b0e3-3a072f978eef","system_id":"levelo_inurba_marseille","lat":43.30134,"lon":5.39854,"is_reserved":false,"is_disabled":false,"rental_uris":{"android":"levelo://app?vid=d8c25686-4239-4497-b0e3-3a072f978eef","ios":"levelo://app?vid=d8c25686-4239-4497-b0e3-3a072f978eef"},"vehicle_type_id":"4","last_reported":1730448727,"current_range_meters":8800,"station_id":"ce4bh0h2rcd13ifvqd40","pricing_plan_id":"cebpf4jnsgd1na2vs0mg"},{"bike_id":"2d5f30fb-dc37-443b-9a56-36153515d399","system_id":"levelo_inurba_marseille","lat":43.29423,"lon":5.38613,"is_reserved":false,"is_disabled":false,"rental_uris":{"android":"levelo://app?vid=2d5f30fb-dc37-443b-9a56-36153515d399","ios":"levelo://app?vid=2d5f30fb-dc37-443b-9a56-36153515d399"},"vehicle_type_id":"4","last_reported":1730448727,"current_range_meters":38400,"station_id":"ce4bh2h2rcd13ifvqdh0","pricing_plan_id":"cebpf4jnsgd1na2vs0mg"},{"bike_id":"94279a57-03c0-47b7-abe3-7226e86fd3b0","system_id":"levelo_inurba_marseille","lat":43.27616,"lon":5.36103,"is_reserved":false,"is_disabled":false,"rental_uris":{"android":"levelo://app?vid=94279a57-03c0-47b7-abe3-7226e86fd3b0","ios":"levelo://app?vid=94279a57-03c0-47b7-abe3-7226e86fd3b0"},"vehicle_type_id":"4","last_reported":1730448727,"current_range_meters":26000,"station_id":"ce4bgj92rcd13ifvqbe0","pricing_plan_id":"cebpf4jnsgd1na2vs0mg"},{"bike_id":"2ebcca13-e2b6-477b-8fd5-fd9ae3cb9525","system_id":"levelo_inurba_marseille","lat":43.29973,"lon":5.38487,"is_reserved":false,"is_disabled":false,"rental_uris":{"android":"levelo://app?vid=2ebcca13-e2b6-477b-8fd5-fd9ae3cb9525","ios":"levelo://app?vid=2ebcca13-e2b6-477b-8fd5-fd9ae3cb9525"},"vehicle_type_id":"4","last_reported":1730448727,"current_range_meters":33200,"station_id":"ce4bgj92rcd13ifvqbd0","pricing_plan_id":"cebpf4jnsgd1na2vs0mg"},{"bike_id":"864a552f-87dd-464a-977f-d7ea2d5d0d29","system_id":"levelo_inurba_marseille","lat":43.27622,"lon":5.36107,"is_reserved":false,"is_disabled":false,"rental_uris":{"android":"levelo://app?vid=864a552f-87dd-464a-977f-d7ea2d5d0d29","ios":"levelo://app?vid=864a552f-87dd-464a-977f-d7ea2d5d0d29"},"vehicle_type_id":"4","last_reported":1730448727,"current_range_meters":22800,"station_id":"ce4bgj92rcd13ifvqbe0","pricing_plan_id":"cebpf4jnsgd1na2vs0mg"},{"bike_id":"4e6ade64-3290-48c0-8e76-3a7fbd4aef0b","system_id":"levelo_inurba_marseille","lat":43.276219,"lon":5.361052,"is_reserved":false,"is_disabled":false,"rental_uris":{"android":"levelo://app?vid=4e6ade64-3290-48c0-8e76-3a7fbd4aef0b","ios":"levelo://app?vid=4e6ade64-3290-48c0-8e76-3a7fbd4aef0b"},"vehicle_type_id":"4","last_reported":1730448727,"current_range_meters":36800,"station_id":"ce4bgj92rcd13ifvqbe0","pricing_plan_id":"cebpf4jnsgd1na2vs0mg"},{"bike_id":"aeedb895-a2ea-4354-bad3-f097cd5e2eb2","system_id":"levelo_inurba_marseille","lat":43.28615,"lon":5.35109,"is_reserved":false,"is_disabled":false,"rental_uris":{"android":"levelo://app?vid=aeedb895-a2ea-4354-bad3-f097cd5e2eb2","ios":"levelo://app?vid=aeedb895-a2ea-4354-bad3-f097cd5e2eb2"},"vehicle_type_id":"4","last_reported":1730448727,"current_range_meters":28400,"station_id":"ce4bhch2rcd13ifvqeug","pricing_plan_id":"cebpf4jnsgd1na2vs0mg"},{"bike_id":"a59de3a1-b5ee-4992-95d5-92d91d1b8221","system_id":"levelo_inurba_marseille","lat":43.25868,"lon":5.39903,"is_reserved":false,"is_disabled":false,"rental_uris":{"android":"levelo://app?vid=a59de3a1-b5ee-4992-95d5-92d91d1b8221","ios":"levelo://app?vid=a59de3a1-b5ee-4992-95d5-92d91d1b8221"},"vehicle_type_id":"4","last_reported":1730448727,"current_range_meters":33200,"station_id":"ce4bhl92rcd13ifvqghg","pricing_plan_id":"cebpf4jnsgd1na2vs0mg"},{"bike_id":"2fef1376-b4b7-4fde-ac1c-cfaca346ee4e","system_id":"levelo_inurba_marseille","lat":43.30216,"lon":5.39477,"is_reserved":false,"is_disabled":false,"rental_uris":{"android":"levelo://app?vid=2fef1376-b4b7-4fde-ac1c-cfaca346ee4e","ios":"levelo://app?vid=2fef1376-b4b7-4fde-ac1c-cfaca346ee4e"},"vehicle_type_id":"4","last_reported":1730448727,"current_range_meters":26000,"station_id":"ce4bh0p2rcd13ifvqd70","pricing_plan_id":"cebpf4jnsgd1na2vs0mg"},{"bike_id":"8a0bd193-24fa-4c05-a2cd-1d9d504a375a","system_id":"levelo_inurba_marseille","lat":43.32364,"lon":5.38891,"is_reserved":false,"is_disabled":false,"rental_uris":{"android":"levelo://app?vid=8a0bd193-24fa-4c05-a2cd-1d9d504a375a","ios":"levelo://app?vid=8a0bd193-24fa-4c05-a2cd-1d9d504a375a"},"vehicle_type_id":"4","last_reported":1730448727,"current_range_meters":34800,"station_id":"ce4bhqp2rcd13ifvqhog","pricing_plan_id":"cebpf4jnsgd1na2vs0mg"},{"bike_id":"ce7a9679-1309-4337-a277-05901a838b7d","system_id":"levelo_inurba_marseille","lat":43.29358,"lon":5.43437,"is_reserved":false,"is_disabled":false,"rental_uris":{"android":"levelo://app?vid=ce7a9679-1309-4337-a277-05901a838b7d","ios":"levelo://app?vid=ce7a9679-1309-4337-a277-05901a838b7d"},"vehicle_type_id":"4","last_reported":1730448727,"current_range_meters":17600,"station_id":"","pricing_plan_id":"cebpf4jnsgd1na2vs0mg"},{"bike_id":"ac200c22-3599-445f-94c7-c1edd12af94b","system_id":"levelo_inurba_marseille","lat":43.23146,"lon":5.43715,"is_reserved":false,"is_disabled":false,"rental_uris":{"android":"levelo://app?vid=ac200c22-3599-445f-94c7-c1edd12af94b","ios":"levelo://app?vid=ac200c22-3599-445f-94c7-c1edd12af94b"},"vehicle_type_id":"4","last_reported":1730448727,"current_range_meters":25200,"station_id":"ce4bhmp2rcd13ifvqgog","pricing_plan_id":"cebpf4jnsgd1na2vs0mg"},{"bike_id":"742e3b39-99d0-477f-8dff-13676bdb1f4a","system_id":"levelo_inurba_marseille","lat":43.27069,"lon":5.42275,"is_reserved":false,"is_disabled":false,"rental_uris":{"android":"levelo://app?vid=742e3b39-99d0-477f-8dff-13676bdb1f4a","ios":"levelo://app?vid=742e3b39-99d0-477f-8dff-13676bdb1f4a"},"vehicle_type_id":"4","last_reported":1730448727,"current_range_meters":37600,"station_id":"ce4bhk92rcd13ifvqgb0","pricing_plan_id":"cebpf4jnsgd1na2vs0mg"},{"bike_id":"dcb8f151-5f72-4ce7-a41b-c8f44dd67b21","system_id":"levelo_inurba_marseille","lat":43.31361,"lon":5.38491,"is_reserved":false,"is_disabled":false,"rental_uris":{"android":"levelo://app?vid=dcb8f151-5f72-4ce7-a41b-c8f44dd67b21","ios":"levelo://app?vid=dcb8f151-5f72-4ce7-a41b-c8f44dd67b21"},"vehicle_type_id":"4","last_reported":1730448727,"current_range_meters":39200,"station_id":"ce4bgt92rcd13ifvqcf0","pricing_plan_id":"cebpf4jnsgd1na2vs0mg"},{"bike_id":"0327b2c3-a953-4a00-af49-25eb8099bcbf","system_id":"levelo_inurba_marseille","lat":43.31328,"lon":5.39692,"is_reserved":false,"is_disabled":false,"rental_uris":{"android":"levelo://app?vid=0327b2c3-a953-4a00-af49-25eb8099bcbf","ios":"levelo://app?vid=0327b2c3-a953-4a00-af49-25eb8099bcbf"},"vehicle_type_id":"4","last_reported":1730448727,"current_range_meters":39200,"station_id":"ce4bgvp2rcd13ifvqcu0","pricing_plan_id":"cebpf4jnsgd1na2vs0mg"},{"bike_id":"c4a6f998-92c9-40ef-844d-2b4720ad1720","system_id":"levelo_inurba_marseille","lat":43.24808,"lon":5.37448,"is_reserved":false,"is_disabled":false,"rental_uris":{"android":"levelo://app?vid=c4a6f998-92c9-40ef-844d-2b4720ad1720","ios":"levelo://app?vid=c4a6f998-92c9-40ef-844d-2b4720ad1720"},"vehicle_type_id":"4","last_reported":1730448727,"current_range_meters":10000,"station_id":"ce4bhgh2rcd13ifvqfb0","pricing_plan_id":"cebpf4jnsgd1na2vs0mg"},{"bike_id":"e77b4950-473d-4369-a632-dcbb9b43c024","system_id":"levelo_inurba_marseille","lat":43.26208,"lon":5.37442,"is_reserved":false,"is_disabled":false,"rental_uris":{"android":"levelo://app?vid=e77b4950-473d-4369-a632-dcbb9b43c024","ios":"levelo://app?vid=e77b4950-473d-4369-a632-dcbb9b43c024"},"vehicle_type_id":"4","last_reported":1730448727,"current_range_meters":28400,"station_id":"ce4bhgp2rcd13ifvqfc0","pricing_plan_id":"cebpf4jnsgd1na2vs0mg"},{"bike_id":"86008901-30ea-4421-9db2-a092ed66c428","system_id":"levelo_inurba_marseille","lat":43.25729,"lon":5.41109,"is_reserved":false,"is_disabled":false,"rental_uris":{"android":"levelo://app?vid=86008901-30ea-4421-9db2-a092ed66c428","ios":"levelo://app?vid=86008901-30ea-4421-9db2-a092ed66c428"},"vehicle_type_id":"4","last_reported":1730448727,"current_range_meters":6000,"station_id":"ce4bhkp2rcd13ifvqgd0","pricing_plan_id":"cebpf4jnsgd1na2vs0mg"},{"bike_id":"02ab60dd-f0a9-4f4d-bede-c1ec3ee07738","system_id":"levelo_inurba_marseille","lat":43.24164,"lon":5.36391,"is_reserved":false,"is_disabled":false,"rental_uris":{"android":"levelo://app?vid=02ab60dd-f0a9-4f4d-bede-c1ec3ee07738","ios":"levelo://app?vid=02ab60dd-f0a9-4f4d-bede-c1ec3ee07738"},"vehicle_type_id":"4","last_reported":1730448727,"current_range_meters":3200,"station_id":"cpo36qri1sfpv3e86is0","pricing_plan_id":"cebpf4jnsgd1na2vs0mg"},{"bike_id":"62d64370-de99-4731-a255-892887cfdcb6","system_id":"levelo_inurba_marseille","lat":43.30883,"lon":5.39631,"is_reserved":false,"is_disabled":false,"rental_uris":{"android":"levelo://app?vid=62d64370-de99-4731-a255-892887cfdcb6","ios":"levelo://app?vid=62d64370-de99-4731-a255-892887cfdcb6"},"vehicle_type_id":"4","last_reported":1730448727,"current_range_meters":34000,"station_id":"ce4bh012rcd13ifvqcv0","pricing_plan_id":"cebpf4jnsgd1na2vs0mg"},{"bike_id":"fc980a8b-57a0-4178-a4f7-51cea77885db","system_id":"levelo_inurba_marseille","lat":43.24072,"lon":5.37757,"is_reserved":false,"is_disabled":false,"rental_uris":{"android":"levelo://app?vid=fc980a8b-57a0-4178-a4f7-51cea77885db","ios":"levelo://app?vid=fc980a8b-57a0-4178-a4f7-51cea77885db"},"vehicle_type_id":"4","last_reported":1730448727,"current_range_meters":33600,"station_id":"ce4bhnp2rcd13ifvqgvg","pricing_plan_id":"cebpf4jnsgd1na2vs0mg"},{"bike_id":"fd0ae1a9-4d1e-4f1c-a2b4-548f0e463019","system_id":"levelo_inurba_marseille","lat":43.33603,"lon":5.41028,"is_reserved":false,"is_disabled":false,"rental_uris":{"android":"levelo://app?vid=fd0ae1a9-4d1e-4f1c-a2b4-548f0e463019","ios":"levelo://app?vid=fd0ae1a9-4d1e-4f1c-a2b4-548f0e463019"},"vehicle_type_id":"4","last_reported":1730448727,"current_range_meters":36800,"station_id":"ce4bhqh2rcd13ifvqhmg","pricing_plan_id":"cebpf4jnsgd1na2vs0mg"},{"bike_id":"7e3dbc4c-5f27-4ffa-8668-1430fc0867c5","system_id":"levelo_inurba_marseille","lat":43.24173,"lon":5.39734,"is_reserved":false,"is_disabled":false,"rental_uris":{"android":"levelo://app?vid=7e3dbc4c-5f27-4ffa-8668-1430fc0867c5","ios":"levelo://app?vid=7e3dbc4c-5f27-4ffa-8668-1430fc0867c5"},"vehicle_type_id":"4","last_reported":1730448727,"current_range_meters":36400,"station_id":"ce4bhn12rcd13ifvqgpg","pricing_plan_id":"cebpf4jnsgd1na2vs0mg"},{"bike_id":"fbde52e9-8726-408a-bf0b-ba4f4be3c36c","system_id":"levelo_inurba_marseille","lat":43.31527,"lon":5.38038,"is_reserved":false,"is_disabled":false,"rental_uris":{"android":"levelo://app?vid=fbde52e9-8726-408a-bf0b-ba4f4be3c36c","ios":"levelo://app?vid=fbde52e9-8726-408a-bf0b-ba4f4be3c36c"},"vehicle_type_id":"4","last_reported":1730448727,"current_range_meters":19200,"station_id":"ce4bhsp2rcd13ifvqi50","pricing_plan_id":"cebpf4jnsgd1na2vs0mg"},{"bike_id":"ed31565a-2795-4671-afc3-af3496847884","system_id":"levelo_inurba_marseille","lat":43.285675,"lon":5.394975,"is_reserved":false,"is_disabled":false,"rental_uris":{"android":"levelo://app?vid=ed31565a-2795-4671-afc3-af3496847884","ios":"levelo://app?vid=ed31565a-2795-4671-afc3-af3496847884"},"vehicle_type_id":"4","last_reported":1730448727,"current_range_meters":36800,"station_id":"ce4bh292rcd13ifvqdg0","pricing_plan_id":"cebpf4jnsgd1na2vs0mg"},{"bike_id":"f3fb2077-ffb8-4b0b-ab91-95fe67c6bc9a","system_id":"levelo_inurba_marseille","lat":43.29039,"lon":5.39956,"is_reserved":false,"is_disabled":false,"rental_uris":{"android":"levelo://app?vid=f3fb2077-ffb8-4b0b-ab91-95fe67c6bc9a","ios":"levelo://app?vid=f3fb2077-ffb8-4b0b-ab91-95fe67c6bc9a"},"vehicle_type_id":"4","last_reported":1730448727,"current_range_meters":38800,"station_id":"ce4bh392rcd13ifvqdm0","pricing_plan_id":"cebpf4jnsgd1na2vs0mg"},{"bike_id":"ae31f7aa-ec14-4090-9ea9-479b30ff0ee5","system_id":"levelo_inurba_marseille","lat":43.33606,"lon":5.41026,"is_reserved":false,"is_disabled":false,"rental_uris":{"android":"levelo://app?vid=ae31f7aa-ec14-4090-9ea9-479b30ff0ee5","ios":"levelo://app?vid=ae31f7aa-ec14-4090-9ea9-479b30ff0ee5"},"vehicle_type_id":"4","last_reported":1730448727,"current_range_meters":38800,"station_id":"ce4bhqh2rcd13ifvqhmg","pricing_plan_id":"cebpf4jnsgd1na2vs0mg"},