{"last_updated":1733310508,"ttl":60,"version":"2.2","data":{"bikes":[{"bike_id":"c7c9b1ea-ff41-428b-948e-6be817148a30","system_id":"levelo_inurba_marseille","lat":43.27495,"lon":5.42446,"is_reserved":false,"is_disabled":false,"rental_uris":{"android":"levelo://app?vid=c7c9b1ea-ff41-428b-948e-6be817148a30","ios":"levelo://app?vid=c7c9b1ea-ff41-428b-948e-6be817148a30"},"vehicle_type_id":"4","last_reported":1733310509,"current_range_meters":26800,"station_id":"ce4bhn92rcd13ifvqgrg","pricing_plan_id":"cebpf4jnsgd1na2vs0mg"},{"bike_id":"a8c54cdd-59b5-425d-a6a5-7b45b1e88baa","system_id":"levelo_inurba_marseille","lat":43.3056,"lon":5.36525,"is_reserved":false,"is_disabled":false,"rental_uris":{"android":"levelo://app?vid=a8c54cdd-59b5-425d-a6a5-7b45b1e88baa","ios":"levelo://app?vid=a8c54cdd-59b5-425d-a6a5-7b45b1e88baa"},"vehicle_type_id":"4","last_reported":1733310509,"current_range_meters":22400,"station_id":"ce4bgs12rcd13ifvqcag","pricing_plan_id":"cebpf4jnsgd1na2vs0mg"},{"bike_id":"d77e9780-89c4-4f0b-badc-5aeacd4cea34","system_id":"levelo_inurba_marseille","lat":43.33602,"lon":5.41031,"is_reserved":false,"is_disabled":false,"rental_uris":{"android":"levelo://app?vid=d77e9780-89c4-4f0b-badc-5aeacd4cea34","ios":"levelo://app?vid=d77e9780-89c4-4f0b-badc-5aeacd4cea34"},"vehicle_type_id":"4","last_reported":1733310509,"current_range_meters":36800,"station_id":"ce4bhqh2rcd13ifvqhmg","pricing_plan_id":"cebpf4jnsgd1na2vs0mg"},{"bike_id":"df479c2c-35ac-44ad-b9d6-81c89ed769ce","system_id":"levelo_inurba_marseille","lat":43.29699,"lon":5.37054,"is_reserved":false,"is_disabled":true,"rental_uris":{"android":"levelo://app?vid=df479c2c-35ac-44ad-b9d6-81c89ed769ce","ios":"levelo://app?vid=df479c2c-35ac-44ad-b9d6-81c89ed769ce"},"vehicle_type_id":"4","last_reported":1733310509,"current_range_meters":0,"station_id":"","pricing_plan_id":"cebpf4jnsgd1na2vs0mg"},{"bike_id":"8e029eaf-e104-4c5d-858d-6cd39de73d09","system_id":"levelo_inurba_marseille","lat":43.24167,"lon":5.36393,"is_reserved":false,"is_disabled":false,"rental_uris":{"android":"levelo://app?vid=8e029eaf-e104-4c5d-858d-6cd39de73d09","ios":"levelo://app?vid=8e029eaf-e104-4c5d-858d-6cd39de73d09"},"vehicle_type_id":"4","last_reported":1733310509,"current_range_meters":9600,"station_id":"cpo36qri1sfpv3e86is0","pricing_plan_id":"cebpf4jnsgd1na2vs0mg"},{"bike_id":"fd85f247-bc9f-4512-8957-89e7641ccdee","system_id":"levelo_inurba_marseille","lat":43.32476,"lon":5.36575,"is_reserved":false,"is_disabled":false,"rental_uris":{"android":"levelo://app?vid=fd85f247-bc9f-4512-8957-89e7641ccdee","ios":"levelo://app?vid=fd85f247-bc9f-4512-8957-89e7641ccdee"},"vehicle_type_id":"4","last_reported":1733310509,"current_range_meters":34800,"station_id":"ce4bhs12rcd13ifvqhvg","pricing_plan_id":"cebpf4jnsgd1na2vs0mg"},{"bike_id":"1f9f7e49-03f6-438e-93a1-6d78696bc154","system_id":"levelo_inurba_marseille","lat":43.25089,"lon":5.39526,"is_reserved":false,"is_disabled":false,"rental_uris":{"android":"levelo://app?vid=1f9f7e49-03f6-438e-93a1-6d78696bc154","ios":"levelo://app?vid=1f9f7e49-03f6-438e-93a1-6d78696bc154"},"vehicle_type_id":"4","last_reported":1733310509,"current_range_meters":28800,"station_id":"ce4bhm12rcd13ifvqgkg","pricing_plan_id":"cebpf4jnsgd1na2vs0mg"},{"bike_id":"759ec0f9-7c00-4343-91dd-be7b6e2cf7e0","system_id":"levelo_inurba_marseille","lat":43.27674,"lon":5.38935,"is_reserved":false,"is_disabled":true,"rental_uris":{"android":"levelo://app?vid=759ec0f9-7c00-4343-91dd-be7b6e2cf7e0","ios":"levelo://app?vid=759ec0f9-7c00-4343-91dd-be7b6e2cf7e0"},"vehicle_type_id":"4","last_reported":1733310509,"current_range_meters":29600,"station_id":"ce4bhi12rcd13ifvqfo0","pricing_plan_id":"cebpf4jnsgd1na2vs0mg"},{"bike_id":"51b51fa2-c31e-4579-91e7-095efd534359","system_id":"levelo_inurba_marseille","lat":43.23198,"lon":5.35546,"is_reserved":false,"is_disabled":false,"rental_uris":{"android":"levelo://app?vid=51b51fa2-c31e-4579-91e7-095efd534359","ios":"levelo://app?vid=51b51fa2-c31e-4579-91e7-095efd534359"},"vehicle_type_id":"4","last_reported":1733310509,"current_range_meters":39200,"station_id":"ce4bhu92rcd13ifvqi70","pricing_plan_id":"cebpf4jnsgd1na2vs0mg"},{"bike_id":"ee740d39-6a63-4212-b5dd-af34bd91e031","system_id":"levelo_inurba_marseille","lat":43.27811,"lon":5.40706,"is_reserved":false,"is_disabled":false,"rental_uris":{"android":"levelo://app?vid=ee740d39-6a63-4212-b5dd-af34bd91e031","ios":"levelo://app?vid=ee740d39-6a63-4212-b5dd-af34bd91e031"},"vehicle_type_id":"4","last_reported":1733310509,"current_range_meters":31200,"station_id":"ce4bhnh2rcd13ifvqgtg","pricing_plan_id":"cebpf4jnsgd1na2vs0mg"},{"bike_id":"be407bbe-d1ce-48de-8db2-09114af9efd7","system_id":"levelo_inurba_marseille","lat":43.32364,"lon":5.36759,"is_reserved":false,"is_disabled":false,"rental_uris":{"android":"levelo://app?vid=be407bbe-d1ce-48de-8db2-09114af9efd7","ios":"levelo://app?vid=be407bbe-d1ce-48de-8db2-09114af9efd7"},"vehicle_type_id":"4","last_reported":1733310509,"current_range_meters":35200,"station_id":"ce4bhsh2rcd13ifvqi2g","pricing_plan_id":"cebpf4jnsgd1na2vs0mg"},{"bike_id":"cb16add6-7784-4ce1-9466-336edf1b5cce","system_id":"levelo_inurba_marseille","lat":43.28151,"lon":5.42639,"is_reserved":false,"is_disabled":false,"rental_uris":{"android":"levelo://app?vid=cb16add6-7784-4ce1-9466-336edf1b5cce","ios":"levelo://app?vid=cb16add6-7784-4ce1-9466-336edf1b5cce"},"vehicle_type_id":"4","last_reported":1733310509,"current_range_meters":12400,"station_id":"ce4bhnh2rcd13ifvqgug","pricing_plan_id":"cebpf4jnsgd1na2vs0mg"},{"bike_id":"d7d56744-7933-4a02-bc9c-ae58ef8af206","system_id":"levelo_inurba_marseille","lat":43.27495,"lon":5.42454,"is_reserved":false,"is_disabled":false,"rental_uris":{"android":"levelo://app?vid=d7d56744-7933-4a02-bc9c-ae58ef8af206","ios":"levelo://app?vid=d7d56744-7933-4a02-bc9c-ae58ef8af206"},"vehicle_type_id":"4","last_reported":1733310509,"current_range_meters":25200,"station_id":"ce4bhn92rcd13ifvqgrg","pricing_plan_id":"cebpf4jnsgd1na2vs0mg"},{"bike_id":"071dbb75-0c9e-4582-8e25-7a5c2599ad9d","system_id":"levelo_inurba_marseille","lat":43.28481,"lon":5.38413,"is_reserved":false,"is_disabled":false,"rental_uris":{"android":"levelo://app?vid=071dbb75-0c9e-4582-8e25-7a5c2599ad9d","ios":"levelo://app?vid=071dbb75-0c9e-4582-8e25-7a5c2599ad9d"},"vehicle_type_id":"4","last_reported":1733310509,"current_range_meters":20400,"station_id":"ce4bh512rcd13ifvqe3g","pricing_plan_id":"cebpf4jnsgd1na2vs0mg"},{"bike_id":"8bd642b2-0279-44c7-9ee2-fc3b57332c83","system_id":"levelo_inurba_marseille","lat":43.27455,"lon":5.40073,"is_reserved":false,"is_disabled":true,"rental_uris":{"android":"levelo://app?vid=8bd642b2-0279-44c7-9ee2-fc3b57332c83","ios":"levelo://app?vid=8bd642b2-0279-44c7-9ee2-fc3b57332c83"},"vehicle_type_id":"4","last_reported":1733310509,"current_range_meters":0,"station_id":"","pricing_plan_id":"cebpf4jnsgd1na2vs0mg"},{"bike_id":"377cecde-5a62-4012-96f6-a6c6965bd36e","system_id":"levelo_inurba_marseille","lat":43.30779,"lon":5.36845,"is_reserved":false,"is_disabled":false,"rental_uris":{"android":"levelo://app?vid=377cecde-5a62-4012-96f6-a6c6965bd36e","ios":"levelo://app?vid=377cecde-5a62-4012-96f6-a6c6965bd36e"},"vehicle_type_id":"4","last_reported":1733310509,"current_range_meters":27200,"station_id":"","pricing_plan_id":"cebpf4jnsgd1na2vs0mg"},{"bike_id":"b02904f4-1eb8-4367-98d1-01cd35fb268e","system_id":"levelo_inurba_marseille","lat":43.30435,"lon":5.389,"is_reserved":false,"is_disabled":false,"rental_uris":{"android":"levelo://app?vid=b02904f4-1eb8-4367-98d1-01cd35fb268e","ios":"levelo://app?vid=b02904f4-1eb8-4367-98d1-01cd35fb268e"},"vehicle_type_id":"4","last_reported":1733310509,"current_range_meters":38000,"station_id":"ce4bgk12rcd13ifvqbi0","pricing_plan_id":"cebpf4jnsgd1na2vs0mg"},{"bike_id":"ab4ec4be-9f6e-4c60-97d8-25eb522e5410","system_id":"levelo_inurba_marseille","lat":43.25938,"lon":5.40901,"is_reserved":false,"is_disabled":false,"rental_uris":{"android":"levelo://app?vid=ab4ec4be-9f6e-4c60-97d8-25eb522e5410","ios":"levelo://app?vid=ab4ec4be-9f6e-4c60-97d8-25eb522e5410"},"vehicle_type_id":"4","last_reported":1733310509,"current_range_meters":32800,"station_id":"ce4bhm92rcd13ifvqglg","pricing_plan_id":"cebpf4jnsgd1na2vs0mg"},{"bike_id":"60455433-2e10-4db3-afb0-e7815633fb4f","system_id":"levelo_inurba_marseille","lat":43.26681,"lon":5.38263,"is_reserved":false,"is_disabled":false,"rental_uris":{"android":"levelo://app?vid=60455433-2e10-4db3-afb0-e7815633fb4f","ios":"levelo://app?vid=60455433-2e10-4db3-afb0-e7815633fb4f"},"vehicle_type_id":"4","last_reported":1733310509,"current_range_meters":38800,"station_id":"ce4bhg92rcd13ifvqf90","pricing_plan_id":"cebpf4jnsgd1na2vs0mg"},{"bike_id":"dac5e254-1536-4087-a738-b9cdc35c9c7f","system_id":"levelo_inurba_marseille","lat":43.30552,"lon":5.36536,"is_reserved":false,"is_disabled":false,"rental_uris":{"android":"levelo://app?vid=dac5e254-1536-4087-a738-b9cdc35c9c7f","ios":"levelo://app?vid=dac5e254-1536-4087-a738-b9cdc35c9c7f"},"vehicle_type_id":"4","last_reported":1733310509,"current_range_meters":16800,"station_id":"ce4bgs12rcd13ifvqcag","pricing_plan_id":"cebpf4jnsgd1na2vs0mg"},{"bike_id":"d15b9d53-9298-4d4a-b72d-f9d65f1d0b7f","system_id":"levelo_inurba_marseille","lat":43.29611,"lon":5.37726,"is_reserved":false,"is_disabled":false,"rental_uris":{"android":"levelo://app?vid=d15b9d53-9298-4d4a-b72d-f9d65f1d0b7f","ios":"levelo://app?vid=d15b9d53-9298-4d4a-b72d-f9d65f1d0b7f"},"vehicle_type_id":"4","last_reported":1733310509,"current_range_meters":37600,"station_id":"ce4bgi92rcd13ifvqb90","pricing_plan_id":"cebpf4jnsgd1na2vs0mg"},{"bike_id":"28b52837-d828-49e4-b4be-cfbac010c328","system_id":"levelo_inurba_marseille","lat":43.33728,"lon":5.39186,"is_reserved":false,"is_disabled":false,"rental_uris":{"android":"levelo://app?vid=28b52837-d828-49e4-b4be-cfbac010c328","ios":"levelo://app?vid=28b52837-d828-49e4-b4be-cfbac010c328"},"vehicle_type_id":"4","last_reported":1733310509,"current_range_meters":36800,"station_id":"ce4bhr92rcd13ifvqhsg","pricing_plan_id":"cebpf4jnsgd1na2vs0mg"},{"bike_id":"b3f478ac-3b05-4edf-bdbf-76399090f8e9","system_id":"levelo_inurba_marseille","lat":43.29994,"lon":5.37639,"is_reserved":false,"is_disabled":true,"rental_uris":{"android":"levelo://app?vid=b3f478ac-3b05-4edf-bdbf-76399090f8e9","ios":"levelo://app?vid=b3f478ac-3b05-4edf-bdbf-76399090f8e9"},"vehicle_type_id":"4","last_reported":1733310509,"current_range_meters":0,"station_id":"","pricing_plan_id":"cebpf4jnsgd1na2vs0mg"},{"bike_id":"c3587c28-5435-41c6-a9b7-aa468e6b19aa","system_id":"levelo_inurba_marseille","lat":43.29746,"lon":5.37916,"is_reserved":false,"is_disabled":true,"rental_uris":{"android":"levelo://app?vid=c3587c28-5435-41c6-a9b7-aa468e6b19aa","ios":"levelo://app?vid=c3587c28-5435-41c6-a9b7-aa468e6b19aa"},"vehicle_type_id":"4","last_reported":1733310509,"current_range_meters":0,"station_id":"","pricing_plan_id":"cebpf4jnsgd1na2vs0mg"},{"bike_id":"75c4f34a-89f4-4145-a2e2-7dafbc1cdf90","system_id":"levelo_inurba_marseille","lat":43.29011,"lon":5.37251,"is_reserved":false,"is_disabled":true,"rental_uris":{"android":"levelo://app?vid=75c4f34a-89f4-4145-a2e2-7dafbc1cdf90","ios":"levelo://app?vid=75c4f34a-89f4-4145-a2e2-7dafbc1cdf90"},"vehicle_type_id":"4","last_reported":1733310509,"current_range_meters":0,"station_id":"","pricing_plan_id":"cebpf4jnsgd1na2vs0mg"},{"bike_id":"9f203353-623e-4a8e-891c-de4a2cfb786e","system_id":"levelo_inurba_marseille","lat":43.26201,"lon":5.37923,"is_reserved":false,"is_disabled":false,"rental_uris":{"android":"levelo://app?vid=9f203353-623e-4a8e-891c-de4a2cfb786e","ios":"levelo://app?vid=9f203353-623e-4a8e-891c-de4a2cfb786e"},"vehicle_type_id":"4","last_reported":1733310509,"current_range_meters":39200,"station_id":"ce4bhjp2rcd13ifvqg90","pricing_plan_id":"cebpf4jnsgd1na2vs0mg"},{"bike_id":"e8d9fcd3-6c4c-4c2e-a87e-41c5e4dfa6d0","system_id":"levelo_inurba_marseille","lat":43.25438,"lon":5.38158,"is_reserved":false,"is_disabled":true,"rental_uris":{"android":"levelo://app?vid=e8d9fcd3-6c4c-4c2e-a87e-41c5e4dfa6d0","ios":"levelo://app?vid=e8d9fcd3-6c4c-4c2e-a87e-41c5e4dfa6d0"},"vehicle_type_id":"4","last_reported":1733310509,"current_range_meters":0,"station_id":"","pricing_plan_id":"cebpf4jnsgd1na2vs0mg"},{"bike_id":"e7c2b082-ef91-42b1-9ef0-9e4329cee9cb","system_id":"levelo_inurba_marseille","lat":43.2992,"lon":5.40347,"is_reserved":false,"is_disabled":true,"rental_uris":{"android":"levelo://app?vid=e7c2b082-ef91-42b1-9ef0-9e4329cee9cb","ios":"levelo://app?vid=e7c2b082-ef91-42b1-9ef0-9e4329cee9cb"},"vehicle_type_id":"4","last_reported":1733310509,"current_range_meters":0,"station_id":"","pricing_plan_id":"cebpf4jnsgd1na2vs0mg"},{"bike_id":"b0fd6e58-89f4-4e96-8d88-2bdfbaeed00e","system_id":"levelo_inurba_marseille","lat":43.32485,"lon":5.36566,"is_reserved":false,"is_disabled":false,"rental_uris":{"android":"levelo://app?vid=b0fd6e58-89f4-4e96-8d88-2bdfbaeed00e","ios":"levelo://app?vid=b0fd6e58-89f4-4e96-8d88-2bdfbaeed00e"},"vehicle_type_id":"4","last_reported":1733310509,"current_range_meters":27600,"station_id":"ce4bhs12rcd13ifvqhvg","pricing_plan_id":"cebpf4jnsgd1na2vs0mg"},{"bike_id":"71492a05-f297-4feb-bf13-5b4304c08adb","system_id":"levelo_inurba_marseille","lat":43.27373,"lon":5.3626,"is_reserved":false,"is_disabled":false,"rental_uris":{"android":"levelo://app?vid=71492a05-f297-4feb-bf13-5b4304c08adb","ios":"levelo://app?vid=71492a05-f297-4feb-bf13-5b4304c08adb"},"vehicle_type_id":"4","last_reported":1733310509,"current_range_meters":36000,"station_id":"ce4bhbh2rcd13ifvqeo0","pricing_plan_id":"cebpf4jnsgd1na2vs0mg"},{"bike_id":"c6b083b4-fa7e-462c-8ad0-abeffc85410a","system_id":"levelo_inurba_marseille","lat":43.26199,"lon":5.37933,"is_reserved":false,"is_disabled":false,"rental_uris":{"android":"levelo://app?vid=c6b083b4-fa7e-462c-8ad0-abeffc85410a","ios":"levelo://app?vid=c6b083b4-fa7e-462c-8ad0-abeffc85410a"},"vehicle_type_id":"4","last_reported":1733310509,"current_range_meters":36000,"station_id":"ce4bhjp2rcd13ifvqg90","pricing_plan_id":"cebpf4jnsgd1na2vs0mg"},{"bike_id":"23ec25c2-2bbe-44ce-bcff-21eb1c09301e","system_id":"levelo_inurba_marseille","lat":43.2668,"lon":5.38267,"is_reserved":false,"is_disabled":false,"rental_uris":{"android":"levelo://app?vid=23ec25c2-2bbe-44ce-bcff-21eb1c09301e","ios":"levelo://app?vid=23ec25c2-2bbe-44ce-bcff-21eb1c09301e"},"vehicle_type_id":"4","last_reported":1733310509,"current_range_meters":29600,"station_id":"ce4bhg92rcd13ifvqf90","pricing_plan_id":"cebpf4jnsgd1na2vs0mg"},{"bike_id":"1239aa71-3633-48b2-a08c-2d446d14c723","system_id":"levelo_inurba_marseille","lat":43.31062,"lon":5.38352,"is_reserved":false,"is_disabled":true,"rental_uris":{"android":"levelo://app?vid=1239aa71-3633-48b2-a08c-2d446d14c723","ios":"levelo://app?vid=1239aa71-3633-48b2-a08c-2d446d14c723"},"vehicle_type_id":"4","last_reported":1733310509,"current_range_meters":27600,"station_id":"ce4bgv92rcd13ifvqcr0","pricing_plan_id":"cebpf4jnsgd1na2vs0mg"},{"bike_id":"e12bdda5-dc2c-4545-bb40-fff311effa17","system_id":"levelo_inurba_marseille","lat":43.2981,"lon":5.38105,"is_reserved":false,"is_disabled":true,"rental_uris":{"android":"levelo://app?vid=e12bdda5-dc2c-4545-bb40-fff311effa17","ios":"levelo://app?vid=e12bdda5-dc2c-4545-bb40-fff311effa17"},"vehicle_type_id":"4","last_reported":1733310509,"current_range_meters":0,"station_id":"ce4bgip2rcd13ifvqbb0","pricing_plan_id":"cebpf4jnsgd1na2vs0mg"},{"bike_id":"2f3968e7-9336-4ee4-ba78-8e92c0a818cc","system_id":"levelo_inurba_marseille","lat":43.31322,"lon":5.36647,"is_reserved":false,"is_disabled":true,"rental_uris":{"android":"levelo://app?vid=2f3968e7-9336-4ee4-ba78-8e92c0a818cc","ios":"levelo://app?vid=2f3968e7-9336-4ee4-ba78-8e92c0a818cc"},"vehicle_type_id":"4","last_reported":1733310509,"current_range_meters":3200,"station_id":"","pricing_plan_id":"cebpf4jnsgd1na2vs0mg"},{"bike_id":"16bea42d-3248-41fd-8b51-39fb3d7ec2c4","system_id":"levelo_inurba_marseille","lat":43.26471,"lon":5.38525,"is_reserved":false,"is_disabled":true,"rental_uris":{"android":"levelo://app?vid=16bea42d-3248-41fd-8b51-39fb3d7ec2c4","ios":"levelo://app?vid=16bea42d-3248-41fd-8b51-39fb3d7ec2c4"},"vehicle_type_id":"4","last_reported":1733310509,"current_range_meters":0,"station_id":"","pricing_plan_id":"cebpf4jnsgd1na2vs0mg"},{"bike_id":"54660884-8ef8-4b30-aaba-82ac6b4a18bd","system_id":"levelo_inurba_marseille","lat":43.32481,"lon":5.36566,"is_reserved":false,"is_disabled":false,"rental_uris":{"android":"levelo://app?vid=54660884-8ef8-4b30-aaba-82ac6b4a18bd","ios":"levelo://app?vid=54660884-8ef8-4b30-aaba-82ac6b4a18bd"},"vehicle_type_id":"4","last_reported":1733310509,"current_range_meters":38800,"station_id":"ce4bhs12rcd13ifvqhvg","pricing_plan_id":"cebpf4jnsgd1na2vs0mg"},{"bike_id":"8aa77435-38a9-471a-8b27-546833cee6d3","system_id":"levelo_inurba_marseille","lat":43.26059,"lon":5.39391,"is_reserved":false,"is_disabled":false,"rental_uris":{"android":"levelo://app?vid=8aa77435-38a9-471a-8b27-546833cee6d3","ios":"levelo://app?vid=8aa77435-38a9-471a-8b27-546833cee6d3"},"vehicle_type_id":"4","last_reported":1733310509,"current_range_meters":24000,"station_id":"ce4bhh92rcd13ifvqfj0","pricing_plan_id":"cebpf4jnsgd1na2vs0mg"},{"bike_id":"94beccb6-7cca-4902-9a3f-962b4643fdab","system_id":"levelo_inurba_marseille","lat":43.27204,"lon":5.39187,"is_reserved":false,"is_disabled":false,"rental_uris":{"android":"levelo://app?vid=94beccb6-7cca-4902-9a3f-962b4643fdab","ios":"levelo://app?vid=94beccb6-7cca-4902-9a3f-962b4643fdab"},"vehicle_type_id":"4","last_reported":1733310509,"current_range_meters":30800,"station_id":"ce4bhhp2rcd13ifvqfm0","pricing_plan_id":"cebpf4jnsgd1na2vs0mg"},{"bike_id":"821691cd-59d3-4afe-b792-90aa565a871f","system_id":"levelo_inurba_marseille","lat":43.27063,"lon":5.40255,"is_reserved":false,"is_disabled":false,"rental_uris":{"android":"levelo://app?vid=821691cd-59d3-4afe-b792-90aa565a871f","ios":"levelo://app?vid=821691cd-59d3-4afe-b792-90aa565a871f"},"vehicle_type_id":"4","last_reported":1733310509,"current_range_meters":25200,"station_id":"ce4bhk92rcd13ifvqgc0","pricing_plan_id":"cebpf4jnsgd1na2vs0mg"},{"bike_id":"11a023d4-4edc-4402-8005-f083a16c9b67","system_id":"levelo_inurba_marseille","lat":43.30566,"lon":5.36685,"is_reserved":false,"is_disabled":false,"rental_uris":{"android":"levelo://app?vid=11a023d4-4edc-4402-8005-f083a16c9b67","ios":"levelo://app?vid=11a023d4-4edc-4402-8005-f083a16c9b67"},"vehicle_type_id":"4","last_reported":1733310509,"current_range_meters":37600,"station_id":"","pricing_plan_id":"cebpf4jnsgd1na2vs0mg"},{"bike_id":"934d1a4d-5b76-4bd4-9b08-440e387a9db9","system_id":"levelo_inurba_marseille","lat":43.30888,"lon":5.37193,"is_reserved":false,"is_disabled":false,"rental_uris":{"android":"levelo://app?vid=934d1a4d-5b76-4bd4-9b08-440e387a9db9","ios":"levelo://app?vid=934d1a4d-5b76-4bd4-9b08-440e387a9db9"},"vehicle_type_id":"4","last_reported":1733310509,"current_range_meters":16400,"station_id":"ce4bguh2rcd13ifvqckg","pricing_plan_id":"cebpf4jnsgd1na2vs0mg"},{"bike_id":"571b5aaf-134a-4ac8-b3e6-7a15c89e8a3c","system_id":"levelo_inurba_marseille","lat":43.3136,"lon":5.36706,"is_reserved":false,"is_disabled":false,"rental_uris":{"android":"levelo://app?vid=571b5aaf-134a-4ac8-b3e6-7a15c89e8a3c","ios":"levelo://app?vid=571b5aaf-134a-4ac8-b3e6-7a15c89e8a3c"},"vehicle_type_id":"4","last_reported":1733310509,"current_range_meters":38800,"station_id":"ce4bgr92rcd13ifvqc6g","pricing_plan_id":"cebpf4jnsgd1na2vs0mg"},{"bike_id":"146a3b2d-72be-4f9c-a7f8-04adccaef506","system_id":"levelo_inurba_marseille","lat":43.27499,"lon":5.42439,"is_reserved":false,"is_disabled":false,"rental_uris":{"android":"levelo://app?vid=146a3b2d-72be-4f9c-a7f8-04adccaef506","ios":"levelo://app?vid=146a3b2d-72be-4f9c-a7f8-04adccaef506"},"vehicle_type_id":"4","last_reported":1733310509,"current_range_meters":29600,"station_id":"ce4bhn92rcd13ifvqgrg","pricing_plan_id":"cebpf4jnsgd1na2vs0mg"},{"bike_id":"5997b14f-1bfc-4b69-bf27-5203c80434a5","system_id":"levelo_inurba_marseille","lat":43.28346,"lon":5.38626,"is_reserved":false,"is_disabled":true,"rental_uris":{"android":"levelo://app?vid=5997b14f-1bfc-4b69-bf27-5203c80434a5","ios":"levelo://app?vid=5997b14f-1bfc-4b69-bf27-5203c80434a5"},"vehicle_type_id":"4","last_reported":1733310509,"current_range_meters":4000,"station_id":"ce4bh492rcd13ifvqdvg","pricing_plan_id":"cebpf4jnsgd1na2vs0mg"},{"bike_id":"7a0b75c4-d43d-4938-8dcd-c77f8e25878e","system_id":"levelo_inurba_marseille","lat":43.27055,"lon":5.40259,"is_reserved":false,"is_disabled":false,"rental_uris":{"android":"levelo://app?vid=7a0b75c4-d43d-4938-8dcd-c77f8e25878e","ios":"levelo://app?vid=7a0b75c4-d43d-4938-8dcd-c77f8e25878e"},"vehicle_type_id":"4","last_reported":1733310509,"current_range_meters":28800,"station_id":"ce4bhk92rcd13ifvqgc0","pricing_plan_id":"cebpf4jnsgd1na2vs0mg"},{"bike_id":"5a50557a-331c-47f8-82cc-e12807c908db","system_id":"levelo_inurba_marseille","lat":43.33023,"lon":5.39034,"is_reserved":false,"is_disabled":false,"rental_uris":{"android":"levelo://app?vid=5a50557a-331c-47f8-82cc-e12807c908db","ios":"levelo://app?vid=5a50557a-331c-47f8-82cc-e12807c908db"},"vehicle_type_id":"4","last_reported":1733310509,"current_range_meters":24400,"station_id":"ce4bhr92rcd13ifvqhrg","pricing_plan_id":"cebpf4jnsgd1na2vs0mg"},{"bike_id":"47185a4c-7d7b-46e4-a46f-d8e6ec87723e","system_id":"levelo_inurba_marseille","lat":43.25933,"lon":5.40909,"is_reserved":false,"is_disabled":false,"rental_uris":{"android":"levelo://app?vid=47185a4c-7d7b-46e4-a46f-d8e6ec87723e","ios":"levelo://app?vid=47185a4c-7d7b-46e4-a46f-d8e6ec87723e"},"vehicle_type_id":"4","last_reported":1733310509,"current_range_meters":29600,"station_id":"ce4bhm92rcd13ifvqglg","pricing_plan_id":"cebpf4jnsgd1na2vs0mg"},{"bike_id":"98394d0a-ecb0-4f4c-9d65-dfeb565ec90f","system_id":"levelo_inurba_marseille","lat":43.30549,"lon":5.36562,"is_reserved":false,"is_disabled":false,"rental_uris":{"android":"levelo://app?vid=98394d0a-ecb0-4f4c-9d65-dfeb565ec90f","ios":"levelo://app?vid=98394d0a-ecb0-4f4c-9d65-dfeb565ec90f"},"vehicle_type_id":"4","last_reported":1733310509,"current_range_meters":22800,"station_id":"ce4bgs12rcd13ifvqcag","pricing_plan_id":"cebpf4jnsgd1na2vs0mg"},{"bike_id":"8376aa61-cb4a-4f36-9312-c60ae2c054c1","system_id":"levelo_inurba_marseille","lat":43.29581,"lon":5.36744,"is_reserved":false,"is_disabled":false,"rental_uris":{"android":"levelo://app?vid=8376aa61-cb4a-4f36-9312-c60ae2c054c1","ios":"levelo://app?vid=8376aa61-cb4a-4f36-9312-c60ae2c054c1"},"vehicle_type_id":"4","last_reported":1733310509,"current_range_meters":28800,"station_id":"ce4bgph2rcd13ifvqc2g","pricing_plan_id":"cebpf4jnsgd1na2vs0mg"},{"bike_id":"ef8dccf7-5c02-4648-910c-2c64ce488a65","system_id":"levelo_inurba_marseille","lat":43.28142,"lon":5.42797,"is_reserved":false,"is_disabled":false,"rental_uris":{"android":"levelo://app?vid=ef8dccf7-5c02-4648-910c-2c64ce488a65","ios":"levelo://app?vid=ef8dccf7-5c02-4648-910c-2c64ce488a65"},"vehicle_type_id":"4","last_reported":1733310509,"current_range_meters":10800,"station_id":"","pricing_plan_id":"cebpf4jnsgd1na2vs0mg"},{"bike_id":"c89aef91-1a14-4aed-8423-0be9b4f086c5","system_id":"levelo_inurba_marseille","lat":43.337444,"lon":5.374475,"is_reserved":false,"is_disabled":false,"rental_uris":{"android":"levelo://app?vid=c89aef91-1a14-4aed-8423-0be9b4f086c5","ios":"levelo://app?vid=c89aef91-1a14-4aed-8423-0be9b4f086c5"},"vehicle_type_id":"4","last_reported":1733310509,"current_range_meters":24800,"station_id":"","pricing_plan_id":"cebpf4jnsgd1na2vs0mg"},{"bike_id":"b73386f2-fa04-4fae-98be-ff0e17efea9c","system_id":"levelo_inurba_marseille","lat":43.32366,"lon":5.38874,"is_reserved":false,"is_disabled":false,"rental_uris":{"android":"levelo://app?vid=b73386f2-fa04-4fae-98be-ff0e17efea9c","ios":"levelo://app?vid=b73386f2-fa04-4fae-98be-ff0e17efea9c"},"vehicle_type_id":"4","last_reported":1733310509,"current_range_meters":8000,"station_id":"ce4bhqp2rcd13ifvqhog","pricing_plan_id":"cebpf4jnsgd1na2vs0mg"},{"bike_id":"5986a34f-9c4d-4bab-ab88-070157c13d38","system_id":"levelo_inurba_marseille","lat":43.23965,"lon":5.36632,"is_reserved":false,"is_disabled":false,"rental_uris":{"android":"levelo://app?vid=5986a34f-9c4d-4bab-ab88-070157c13d38","ios":"levelo://app?vid=5986a34f-9c4d-4bab-ab88-070157c13d38"},"vehicle_type_id":"4","last_reported":1733310509,"current_range_meters":28400,"station_id":"ce4bhi12rcd13ifvqfp0","pricing_plan_id":"cebpf4jnsgd1na2vs0mg"},{"bike_id":"45ff3798-a743-4ffc-962c-fbce8ce4e073","system_id":"levelo_inurba_marseille","lat":43.23151,"lon":5.43715,"is_reserved":false,"is_disabled":false,"rental_uris":{"android":"levelo://app?vid=45ff3798-a743-4ffc-962c-fbce8ce4e073","ios":"levelo://app?vid=45ff3798-a743-4ffc-962c-fbce8ce4e073"},"vehicle_type_id":"4","last_reported":1733310509,"current_range_meters":39200,"station_id":"ce4bhmp2rcd13ifvqgog","pricing_plan_id":"cebpf4jnsgd1na2vs0mg"},{"bike_id":"a183cac1-604d-4a80-9b65-f9ec9b210937","system_id":"levelo_inurba_marseille","lat":43.26195,"lon":5.3793,"is_reserved":false,"is_disabled":false,"rental_uris":{"android":"levelo://app?vid=a183cac1-604d-4a80-9b65-f9ec9b210937","ios":"levelo://app?vid=a183cac1-604d-4a80-9b65-f9ec9b210937"},"vehicle_type_id":"4","last_reported":1733310509,"current_range_meters":14000,"station_id":"ce4bhjp2rcd13ifvqg90","pricing_plan_id":"cebpf4jnsgd1na2vs0mg"},{"bike_id":"10361c36-e89f-4c68-8c9f-7afa488feabe","system_id":"levelo_inurba_marseille","lat":43.27204,"lon":5.39184,"is_reserved":false,"is_disabled":false,"rental_uris":{"android":"levelo://app?vid=10361c36-e89f-4c68-8c9f-7afa488feabe","ios":"levelo://app?vid=10361c36-e89f-4c68-8c9f-7afa488feabe"},"vehicle_type_id":"4","last_reported":1733310509,"current_range_meters":25600,"station_id":"ce4bhhp2rcd13ifvqfm0","pricing_plan_id":"cebpf4jnsgd1na2vs0mg"},{"bike_id":"8afb2c6b-2ac1-4bd9-bd4b-f614642b0e17","system_id":"levelo_inurba_marseille","lat":43.30529,"lon":5.36706,"is_reserved":false,"is_disabled":false,"rental_uris":{"android":"levelo://app?vid=8afb2c6b-2ac1-4bd9-bd4b-f614642b0e17","ios":"levelo://app?vid=8afb2c6b-2ac1-4bd9-bd4b-f614642b0e17"},"vehicle_type_id":"4","last_reported":1733310509,"current_range_meters":39200,"station_id":"ce4bgrp2rcd13ifvqc9g","pricing_plan_id":"cebpf4jnsgd1na2vs0mg"},{"bike_id":"cdfe6590-4984-4014-86c8-6dd70747c27a","system_id":"levelo_inurba_marseille","lat":43.29737,"lon":5.37434,"is_reserved":false,"is_disabled":true,"rental_uris":{"android":"levelo://app?vid=cdfe6590-4984-4014-86c8-6dd70747c27a","ios":"levelo://app?vid=cdfe6590-4984-4014-86c8-6dd70747c27a"},"vehicle_type_id":"4","last_reported":1733310509,"current_range_meters":0,"station_id":"","pricing_plan_id":"cebpf4jnsgd1na2vs0mg"},{"bike_id":"e3ce015b-8256-4482-8102-dd089f29efd4","system_id":"levelo_inurba_marseille","lat":43.26802,"lon":5.40265,"is_reserved":false,"is_disabled":false,"rental_uris":{"android":"levelo://app?vid=e3ce015b-8256-4482-8102-dd089f29efd4","ios":"levelo://app?vid=e3ce015b-8256-4482-8102-dd089f29efd4"},"vehicle_type_id":"4","last_reported":1733310509,"current_range_meters":38400,"station_id":"ce501612rcd8frsf0b60","pricing_plan_id":"cebpf4jnsgd1na2vs0mg"},{"bike_id":"a597326f-3194-416f-870a-bb660333f9fc","system_id":"levelo_inurba_marseille","lat":43.33721,"lon":5.39183,"is_reserved":false,"is_disabled":false,"rental_uris":{"android":"levelo://app?vid=a597326f-3194-416f-870a-bb660333f9fc","ios":"levelo://app?vid=a597326f-3194-416f-870a-bb660333f9fc"},"vehicle_type_id":"4","last_reported":1733310509,"current_range_meters":38800,"station_id":"ce4bhr92rcd13ifvqhsg","pricing_plan_id":"cebpf4jnsgd1na2vs0mg"},{"bike_id":"0a9295df-0090-4b13-af97-8f7151eb66d8","system_id":"levelo_inurba_marseille","lat":43.24081,"lon":5.37749,"is_reserved":false,"is_disabled":false,"rental_uris":{"android":"levelo://app?vid=0a9295df-0090-4b13-af97-8f7151eb66d8","ios":"levelo://app?vid=0a9295df-0090-4b13-af97-8f7151eb66d8"},"vehicle_type_id":"4","last_reported":1733310509,"current_range_meters":28800,"station_id":"ce4bhnp2rcd13ifvqgvg","pricing_plan_id":"cebpf4jnsgd1na2vs0mg"},{"bike_id":"987a5ab4-d60c-480c-94b6-7cab38975402","system_id":"levelo_inurba_marseille","lat":43.29748,"lon":5.37971,"is_reserved":false,"is_disabled":true,"rental_uris":{"android":"levelo://app?vid=987a5ab4-d60c-480c-94b6-7cab38975402","ios":"levelo://app?vid=987a5ab4-d60c-480c-94b6-7cab38975402"},"vehicle_type_id":"4","last_reported":1733310509,"current_range_meters":0,"station_id":"","pricing_plan_id":"cebpf4jnsgd1na2vs0mg"},{"bike_id":"2c4596ad-0ad9-4016-b92b-0093349de2b4","system_id":"levelo_inurba_marseille","lat":43.30755,"lon":5.38187,"is_reserved":false,"is_disabled":true,"rental_uris":{"android":"levelo://app?vid=2c4596ad-0ad9-4016-b92b-0093349de2b4","ios":"levelo://app?vid=2c4596ad-0ad9-4016-b92b-0093349de2b4"},"vehicle_type_id":"4","last_reported":1733310509,"current_range_meters":0,"station_id":"","pricing_plan_id":"cebpf4jnsgd1na2vs0mg"},{"bike_id":"4c50cfef-44f5-4acf-845e-6e627fcc246e","system_id":"levelo_inurba_marseille","lat":43.26685,"lon":5.38267,"is_reserved":false,"is_disabled":false,"rental_uris":{"android":"levelo://app?vid=4c50cfef-44f5-4acf-845e-6e627fcc246e","ios":"levelo://app?vid=4c50cfef-44f5-4acf-845e-6e627fcc246e"},"vehicle_type_id":"4","last_reported":1733310509,"current_range_meters":38800,"station_id":"ce4bhg92rcd13ifvqf90","pricing_plan_id":"cebpf4jnsgd1na2vs0mg"},{"bike_id":"1f28300c-d8be-4d08-b5ea-d3aadf1e301d","system_id":"levelo_inurba_marseille","lat":43.26263,"lon":5.42092,"is_reserved":false,"is_disabled":false,"rental_uris":{"android":"levelo://app?vid=1f28300c-d8be-4d08-b5ea-d3aadf1e301d","ios":"levelo://app?vid=1f28300c-d8be-4d08-b5ea-d3aadf1e301d"},"vehicle_type_id":"4","last_reported":1733310509,"current_range_meters":14000,"station_id":"","pricing_plan_id":"cebpf4jnsgd1na2vs0mg"},{"bike_id":"b7ab8c01-033f-4395-8276-23c850ad3d02","system_id":"levelo_inurba_marseille","lat":43.30329,"lon":5.36607,"is_reserved":false,"is_disabled":true,"rental_uris":{"android":"levelo://app?vid=b7ab8c01-033f-4395-8276-23c850ad3d02","ios":"levelo://app?vid=b7ab8c01-033f-4395-8276-23c850ad3d02"},"vehicle_type_id":"4","last_reported":1733310509,"current_range_meters":0,"station_id":"","pricing_plan_id":"cebpf4jnsgd1na2vs0mg"},{"bike_id":"1f47baec-2cb9-4756-b011-a6ad764aff05","system_id":"levelo_inurba_marseille","lat":43.27208,"lon":5.39191,"is_reserved":false,"is_disabled":false,"rental_uris":{"android":"levelo://app?vid=1f47baec-2cb9-4756-b011-a6ad764aff05","ios":"levelo://app?vid=1f47baec-2cb9-4756-b011-a6ad764aff05"},"vehicle_type_id":"4","last_reported":1733310509,"current_range_meters":18800,"station_id":"ce4bhhp2rcd13ifvqfm0","pricing_plan_id":"cebpf4jnsgd1na2vs0mg"},{"bike_id":"448f4f89-9a58-46b1-bbb3-4f6d63973d81","system_id":"levelo_inurba_marseille","lat":43.26185,"lon":5.42067,"is_reserved":false,"is_disabled":false,"rental_uris":{"android":"levelo://app?vid=448f4f89-9a58-46b1-bbb3-4f6d63973d81","ios":"levelo://app?vid=448f4f89-9a58-46b1-bbb3-4f6d63973d81"},"vehicle_type_id":"4","last_reported":1733310509,"current_range_meters":23200,"station_id":"","pricing_plan_id":"cebpf4jnsgd1na2vs0mg"},{"bike_id":"071ce7a4-69cb-4975-b68b-00ebf04131da","system_id":"levelo_inurba_marseille","lat":43.32364,"lon":5.38888,"is_reserved":false,"is_disabled":false,"rental_uris":{"android":"levelo://app?vid=071ce7a4-69cb-4975-b68b-00ebf04131da","ios":"levelo://app?vid=071ce7a4-69cb-4975-b68b-00ebf04131da"},"vehicle_type_id":"4","last_reported":1733310509,"current_range_meters":7200,"station_id":"ce4bhqp2rcd13ifvqhog","pricing_plan_id":"cebpf4jnsgd1na2vs0mg"},{"bike_id":"62039b2b-e25c-4eb7-a7b5-63675d853e8e","system_id":"levelo_inurba_marseille","lat":43.31698,"lon":5.37724,"is_reserved":false,"is_disabled":false,"rental_uris":{"android":"levelo://app?vid=62039b2b-e25c-4eb7-a7b5-63675d853e8e","ios":"levelo://app?vid=62039b2b-e25c-4eb7-a7b5-63675d853e8e"},"vehicle_type_id":"4","last_reported":1733310509,"current_range_meters":26000,"station_id":"ce4bgth2rcd13ifvqch0","pricing_plan_id":"cebpf4jnsgd1na2vs0mg"},{"bike_id":"157f2edb-6b05-4592-b54a-e2b9f9a18ced","system_id":"levelo_inurba_marseille","lat":43.27497,"lon":5.42446,"is_reserved":false,"is_disabled":false,"rental_uris":{"android":"levelo://app?vid=157f2edb-6b05-4592-b54a-e2b9f9a18ced","ios":"levelo://app?vid=157f2edb-6b05-4592-b54a-e2b9f9a18ced"},"vehicle_type_id":"4","last_reported":1733310509,"current_range_meters":13600,"station_id":"ce4bhn92rcd13ifvqgrg","pricing_plan_id":"cebpf4jnsgd1na2vs0mg"},{"bike_id":"45e31251-3177-4909-ad0b-3a24a97959a4","system_id":"levelo_inurba_marseille","lat":43.23182,"lon":5.39986,"is_reserved":false,"is_disabled":false,"rental_uris":{"android":"levelo://app?vid=45e31251-3177-4909-ad0b-3a24a97959a4","ios":"levelo://app?vid=45e31251-3177-4909-ad0b-3a24a97959a4"},"vehicle_type_id":"4","last_reported":1733310509,"current_range_meters":32800,"station_id":"ce4bhn12rcd13ifvqgqg","pricing_plan_id":"cebpf4jnsgd1na2vs0mg"},{"bike_id":"766d6f23-808a-4065-94ff-90a59adfd356","system_id":"levelo_inurba_marseille","lat":43.27809,"lon":5.40705,"is_reserved":false,"is_disabled":true,"rental_uris":{"android":"levelo://app?vid=766d6f23-808a-4065-94ff-90a59adfd356","ios":"levelo://app?vid=766d6f23-808a-4065-94ff-90a59adfd356"},"vehicle_type_id":"4","last_reported":1733310509,"current_range_meters":16800,"station_id":"ce4bhnh2rcd13ifvqgtg","pricing_plan_id":"cebpf4jnsgd1na2vs0mg"},{"bike_id":"6cc6805f-c0ca-4585-bdf1-b5a0339762b0","system_id":"levelo_inurba_marseille","lat":43.290167,"lon":5.42796,"is_reserved":false,"is_disabled":true,"rental_uris":{"android":"levelo://app?vid=6cc6805f-c0ca-4585-bdf1-b5a0339762b0","ios":"levelo://app?vid=6cc6805f-c0ca-4585-bdf1-b5a0339762b0"},"vehicle_type_id":"4","last_reported":1733310509,"current_range_meters":0,"station_id":"","pricing_plan_id":"cebpf4jnsgd1na2vs0mg"},{"bike_id":"3d2d7f34-d54a-4dd6-b08f-2b5b0de1d96e","system_id":"levelo_inurba_marseille","lat":43.30421,"lon":5.41288,"is_reserved":false,"is_disabled":false,"rental_uris":{"android":"levelo://app?vid=3d2d7f34-d54a-4dd6-b08f-2b5b0de1d96e","ios":"levelo://app?vid=3d2d7f34-d54a-4dd6-b08f-2b5b0de1d96e"},"vehicle_type_id":"4","last_reported":1733310509,"current_range_meters":37600,"station_id":"ce4bhop2rcd13ifvqh8g","pricing_plan_id":"cebpf4jnsgd1na2vs0mg"},{"bike_id":"8d1c8b92-79bb-4181-b0d2-5e94db1a14d0","system_id":"levelo_inurba_marseille","lat":43.30013,"lon":5.38263,"is_reserved":false,"is_disabled":true,"rental_uris":{"android":"levelo://app?vid=8d1c8b92-79bb-4181-b0d2-5e94db1a14d0","ios":"levelo://app?vid=8d1c8b92-79bb-4181-b0d2-5e94db1a14d0"},"vehicle_type_id":"4","last_reported":1733310509,"current_range_meters":0,"station_id":"","pricing_plan_id":"cebpf4jnsgd1na2vs0mg"},{"bike_id":"9ce77ab6-d985-4c67-b0a5-56a892314fed","system_id":"levelo_inurba_marseille","lat":43.32474,"lon":5.36565,"is_reserved":false,"is_disabled":false,"rental_uris":{"android":"levelo://app?vid=9ce77ab6-d985-4c67-b0a5-56a892314fed","ios":"levelo://app?vid=9ce77ab6-d985-4c67-b0a5-56a892314fed"},"vehicle_type_id":"4","last_reported":1733310509,"current_range_meters":14400,"station_id":"ce4bhs12rcd13ifvqhvg","pricing_plan_id":"cebpf4jnsgd1na2vs0mg"},{"bike_id":"19cfdf6d-ca6b-4c7e-bb84-8f5ead0e52b7","system_id":"levelo_inurba_marseille","lat":43.30416,"lon":5.39748,"is_reserved":false,"is_disabled":true,"rental_uris":{"android":"levelo://app?vid=19cfdf6d-ca6b-4c7e-bb84-8f5ead0e52b7","ios":"levelo://app?vid=19cfdf6d-ca6b-4c7e-bb84-8f5ead0e52b7"},"vehicle_type_id":"4","last_reported":1733310509,"current_range_meters":0,"station_id":"ce4bh092rcd13ifvqd20","pricing_plan_id":"cebpf4jnsgd1na2vs0mg"},{"bike_id":"74e4d653-164b-4ab1-936c-51aea0069fcd","system_id":"levelo_inurba_marseille","lat":43.3055,"lon":5.36557,"is_reserved":false,"is_disabled":false,"rental_uris":{"android":"levelo://app?vid=74e4d653-164b-4ab1-936c-51aea0069fcd","ios":"levelo://app?vid=74e4d653-164b-4ab1-936c-51aea0069fcd"},"vehicle_type_id":"4","last_reported":1733310509,"current_range_meters":22000,"station_id":"ce4bgs12rcd13ifvqcag","pricing_plan_id":"cebpf4jnsgd1na2vs0mg"},{"bike_id":"41956bee-e948-497a-bae6-38094a830b04","system_id":"levelo_inurba_marseille","lat":43.29532,"lon":5.39051,"is_reserved":false,"is_disabled":false,"rental_uris":{"android":"levelo://app?vid=41956bee-e948-497a-bae6-38094a830b04","ios":"levelo://app?vid=41956bee-e948-497a-bae6-38094a830b04"},"vehicle_type_id":"4","last_reported":1733310509,"current_range_meters":20000,"station_id":"ce4bh3p2rcd13ifvqdp0","pricing_plan_id":"cebpf4jnsgd1na2vs0mg"},{"bike_id":"fc5487e4-5ea2-4f86-9b4e-be3ec08dba94","system_id":"levelo_inurba_marseille","lat":43.26196,"lon":5.37931,"is_reserved":false,"is_disabled":false,"rental_uris":{"android":"levelo://app?vid=fc5487e4-5ea2-4f86-9b4e-be3ec08dba94","ios":"levelo://app?vid=fc5487e4-5ea2-4f86-9b4e-be3ec08dba94"},"vehicle_type_id":"4","last_reported":1733310509,"current_range_meters":24000,"station_id":"ce4bhjp2rcd13ifvqg90","pricing_plan_id":"cebpf4jnsgd1na2vs0mg"},{"bike_id":"e319d0b1-e2b6-436c-8a0c-551a1f8e57bd","system_id":"levelo_inurba_marseille","lat":43.27173,"lon":5.40994,"is_reserved":false,"is_disabled":false,"rental_uris":{"android":"levelo://app?vid=e319d0b1-e2b6-436c-8a0c-551a1f8e57bd","ios":"levelo://app?vid=e319d0b1-e2b6-436c-8a0c-551a1f8e57bd"},"vehicle_type_id":"4","last_reported":1733310509,"current_range_meters":22400,"station_id":"ce4bhl12rcd13ifvqgf0","pricing_plan_id":"cebpf4jnsgd1na2vs0mg"},{"bike_id":"c9a4a5a9-7de7-4484-96b8-d51e221c4dd9","system_id":"levelo_inurba_marseille","lat":43.26679,"lon":5.38264,"is_reserved":false,"is_disabled":false,"rental_uris":{"android":"levelo://app?vid=c9a4a5a9-7de7-4484-96b8-d51e221c4dd9","ios":"levelo://app?vid=c9a4a5a9-7de7-4484-96b8-d51e221c4dd9"},"vehicle_type_id":"4","last_reported":1733310509,"current_range_meters":36400,"station_id":"ce4bhg92rcd13ifvqf90","pricing_plan_id":"cebpf4jnsgd1na2vs0mg"},{"bike_id":"1ca0aca0-4ca4-4bf8-9b1d-054345c3a341","system_id":"levelo_inurba_marseille","lat":43.28884,"lon":5.39997,"is_reserved":false,"is_disabled":false,"rental_uris":{"android":"levelo://app?vid=1ca0aca0-4ca4-4bf8-9b1d-054345c3a341","ios":"levelo://app?vid=1ca0aca0-4ca4-4bf8-9b1d-054345c3a341"},"vehicle_type_id":"4","last_reported":1733310509,"current_range_meters":28400,"station_id":"","pricing_plan_id":"cebpf4jnsgd1na2vs0mg"},{"bike_id":"1f4af703-ccfd-48bd-b4f8-5dd214f910ce","system_id":"levelo_inurba_marseille","lat":43.23152,"lon":5.43705,"is_reserved":false,"is_disabled":false,"rental_uris":{"android":"levelo://app?vid=1f4af703-ccfd-48bd-b4f8-5dd214f910ce","ios":"levelo://app?vid=1f4af703-ccfd-48bd-b4f8-5dd214f910ce"},"vehicle_type_id":"4","last_reported":1733310509,"current_range_meters":39200,"station_id":"ce4bhmp2rcd13ifvqgog","pricing_plan_id":"cebpf4jnsgd1na2vs0mg"},{"bike_id":"1a1835e4-d5d5-488d-8b05-634caea58fd1","system_id":"levelo_inurba_marseille","lat":43.26684,"lon":5.3829,"is_reserved":false,"is_disabled":true,"rental_uris":{"android":"levelo://app?vid=1a1835e4-d5d5-488d-8b05-634caea58fd1","ios":"levelo://app?vid=1a1835e4-d5d5-488d-8b05-634caea58fd1"},"vehicle_type_id":"4","last_reported":1733310509,"current_range_meters":32800,"station_id":"ce4bhg92rcd13ifvqf90","pricing_plan_id":"cebpf4jnsgd1na2vs0mg"},{"bike_id":"6d3a8a42-5044-43eb-ac76-5a069db92939","system_id":"levelo_inurba_marseille","lat":43.29737,"lon":5.37683,"is_reserved":false,"is_disabled":false,"rental_uris":{"android":"levelo://app?vid=6d3a8a42-5044-43eb-ac76-5a069db92939","ios":"levelo://app?vid=6d3a8a42-5044-43eb-ac76-5a069db92939"},"vehicle_type_id":"4","last_reported":1733310509,"current_range_meters":38800,"station_id":"ce4bgkh2rcd13ifvqbl0","pricing_plan_id":"cebpf4jnsgd1na2vs0mg"},{"bike_id":"2fa5d278-b6d4-4c15-88ec-450f37c9c65d","system_id":"levelo_inurba_marseille","lat":43.27053,"lon":5.40265,"is_reserved":false,"is_disabled":false,"rental_uris":{"android":"levelo://app?vid=2fa5d278-b6d4-4c15-88ec-450f37c9c65d","ios":"levelo://app?vid=2fa5d278-b6d4-4c15-88ec-450f37c9c65d"},"vehicle_type_id":"4","last_reported":1733310509,"current_range_meters":16400,"station_id":"ce4bhk92rcd13ifvqgc0","pricing_plan_id":"cebpf4jnsgd1na2vs0mg"},{"bike_id":"f97a7499-62cf-4968-93df-dddf550d4df2","system_id":"levelo_inurba_marseille","lat":43.25577,"lon":5.38237,"is_reserved":false,"is_disabled":false,"rental_uris":{"android":"levelo://app?vid=f97a7499-62cf-4968-93df-dddf550d4df2","ios":"levelo://app?vid=f97a7499-62cf-4968-93df-dddf550d4df2"},"vehicle_type_id":"4","last_reported":1733310509,"current_range_meters":38800,"station_id":"ce4bhih2rcd13ifvqfs0","pricing_plan_id":"cebpf4jnsgd1na2vs0mg"},{"bike_id":"9c77a68d-2e99-44e9-b903-950fb6644d35","system_id":"levelo_inurba_marseille","lat":43.25265,"lon":5.39465,"is_reserved":false,"is_disabled":true,"rental_uris":{"android":"levelo://app?vid=9c77a68d-2e99-44e9-b903-950fb6644d35","ios":"levelo://app?vid=9c77a68d-2e99-44e9-b903-950fb6644d35"},"vehicle_type_id":"4","last_reported":1733310509,"current_range_meters":0,"station_id":"","pricing_plan_id":"cebpf4jnsgd1na2vs0mg"},{"bike_id":"31407874-5722-499e-a393-8ac04d973b9f","system_id":"levelo_inurba_marseille","lat":43.30213,"lon":5.39468,"is_reserved":false,"is_disabled":false,"rental_uris":{"android":"levelo://app?vid=31407874-5722-499e-a393-8ac04d973b9f","ios":"levelo://app?vid=31407874-5722-499e-a393-8ac04d973b9f"},"vehicle_type_id":"4","last_reported":1733310509,"current_range_meters":16800,"station_id":"ce4bh0p2rcd13ifvqd70","pricing_plan_id":"cebpf4jnsgd1na2vs0mg"},{"bike_id":"623e2380-54c9-4f29-9e80-a136df361ee0","system_id":"levelo_inurba_marseille","lat":43.29553,"lon":5.42286,"is_reserved":false,"is_disabled":false,"rental_uris":{"android":"levelo://app?vid=623e2380-54c9-4f29-9e80-a136df361ee0","ios":"levelo://app?vid=623e2380-54c9-4f29-9e80-a136df361ee0"},"vehicle_type_id":"4","last_reported":1733310509,"current_range_meters":18000,"station_id":"ce4bhph2rcd13ifvqhdg","pricing_plan_id":"cebpf4jnsgd1na2vs0mg"},{"bike_id":"730bc638-560e-49fe-921f-52f129ddf37e","system_id":"levelo_inurba_marseille","lat":43.2558,"lon":5.38231,"is_reserved":false,"is_disabled":false,"rental_uris":{"android":"levelo://app?vid=730bc638-560e-49fe-921f-52f129ddf37e","ios":"levelo://app?vid=730bc638-560e-49fe-921f-52f129ddf37e"},"vehicle_type_id":"4","last_reported":1733310509,"current_range_meters":9600,"station_id":"ce4bhih2rcd13ifvqfs0","pricing_plan_id":"cebpf4jnsgd1na2vs0mg"},{"bike_id":"83985555-c848-4b28-808f-8a7e7cf8519e","system_id":"levelo_inurba_marseille","lat":43.28115,"lon":5.43992,"is_reserved":false,"is_disabled":true,"rental_uris":{"android":"levelo://app?vid=83985555-c848-4b28-808f-8a7e7cf8519e","ios":"levelo://app?vid=83985555-c848-4b28-808f-8a7e7cf8519e"},"vehicle_type_id":"4","last_reported":1733310509,"current_range_meters":0,"station_id":"","pricing_plan_id":"cebpf4jnsgd1na2vs0mg"},{"bike_id":"903ec8f1-f4c3-441f-a117-ff7454fcb959","system_id":"levelo_inurba_marseille","lat":43.294642,"lon":5.394029,"is_reserved":false,"is_disabled":true,"rental_uris":{"android":"levelo://app?vid=903ec8f1-f4c3-441f-a117-ff7454fcb959","ios":"levelo://app?vid=903ec8f1-f4c3-441f-a117-ff7454fcb959"},"vehicle_type_id":"4","last_reported":1733310509,"current_range_meters":0,"station_id":"","pricing_plan_id":"cebpf4jnsgd1na2vs0mg"},{"bike_id":"07a60b7f-80b7-470a-9515-22fa33d21dee","system_id":"levelo_inurba_marseille","lat":43.30267,"lon":5.39651,"is_reserved":false,"is_disabled":true,"rental_uris":{"android":"levelo://app?vid=07a60b7f-80b7-470a-9515-22fa33d21dee","ios":"levelo://app?vid=07a60b7f-80b7-470a-9515-22fa33d21dee"},"vehicle_type_id":"4","last_reported":1733310509,"current_range_meters":0,"station_id":"","pricing_plan_id":"cebpf4jnsgd1na2vs0mg"},{"bike_id":"941eeae1-8936-4a86-b31a-ea87d84b2048","system_id":"levelo_inurba_marseille","lat":43.28054,"lon":5.35634,"is_reserved":false,"is_disabled":true,"rental_uris":{"android":"levelo://app?vid=941eeae1-8936-4a86-b31a-ea87d84b2048","ios":"levelo://app?vid=941eeae1-8936-4a86-b31a-ea87d84b2048"},"vehicle_type_id":"4","last_reported":1733310509,"current_range_meters":800,"station_id":"","pricing_plan_id":"cebpf4jnsgd1na2vs0mg"},{"bike_id":"cb405331-5424-4e39-a835-9a9e9242f34c","system_id":"levelo_inurba_marseille","lat":43.30537,"lon":5.36527,"is_reserved":false,"is_disabled":false,"rental_uris":{"android":"levelo://app?vid=cb405331-5424-4e39-a835-9a9e9242f34c","ios":"levelo://app?vid=cb405331-5424-4e39-a835-9a9e9242f34c"},"vehicle_type_id":"4","last_reported":1733310509,"current_range_meters":26800,"station_id":"ce4bgs12rcd13ifvqcag","pricing_plan_id":"cebpf4jnsgd1na2vs0mg"},{"bike_id":"736804a0-d604-4593-9605-60df46271ddd","system_id":"levelo_inurba_marseille","lat":43.31365,"lon":5.36701,"is_reserved":false,"is_disabled":false,"rental_uris":{"android":"levelo://app?vid=736804a0-d604-4593-9605-60df46271ddd","ios":"levelo://app?vid=736804a0-d604-4593-9605-60df46271ddd"},"vehicle_type_id":"4","last_reported":1733310509,"current_range_meters":15200,"station_id":"ce4bgr92rcd13ifvqc6g","pricing_plan_id":"cebpf4jnsgd1na2vs0mg"},{"bike_id":"f9e732c2-dd63-456c-ba19-4b46d2f76009","system_id":"levelo_inurba_marseille","lat":43.3044,"lon":5.38894,"is_reserved":false,"is_disabled":true,"rental_uris":{"android":"levelo://app?vid=f9e732c2-dd63-456c-ba19-4b46d2f76009","ios":"levelo://app?vid=f9e732c2-dd63-456c-ba19-4b46d2f76009"},"vehicle_type_id":"4","last_reported":1733310509,"current_range_meters":35200,"station_id":"ce4bgk12rcd13ifvqbi0","pricing_plan_id":"cebpf4jnsgd1na2vs0mg"},{"bike_id":"d968385f-de2b-44eb-96a8-54efc707caa9","system_id":"levelo_inurba_marseille","lat":43.23202,"lon":5.35542,"is_reserved":false,"is_disabled":false,"rental_uris":{"android":"levelo://app?vid=d968385f-de2b-44eb-96a8-54efc707caa9","ios":"levelo://app?vid=d968385f-de2b-44eb-96a8-54efc707caa9"},"vehicle_type_id":"4","last_reported":1733310509,"current_range_meters":38800,"station_id":"ce4bhu92rcd13ifvqi70","pricing_plan_id":"cebpf4jnsgd1na2vs0mg"},{"bike_id":"081a8591-542e-49e8-9f34-aa4400ceacb3","system_id":"levelo_inurba_marseille","lat":43.29845,"lon":5.3626,"is_reserved":false,"is_disabled":false,"rental_uris":{"android":"levelo://app?vid=081a8591-542e-49e8-9f34-aa4400ceacb3","ios":"levelo://app?vid=081a8591-542e-49e8-9f34-aa4400ceacb3"},"vehicle_type_id":"4","last_reported":1733310509,"current_range_meters":38800,"station_id":"ce4bgpp2rcd13ifvqc3g","pricing_plan_id":"cebpf4jnsgd1na2vs0mg"},{"bike_id":"f36cd602-20d9-469f-b5fe-e86ee05aa676","system_id":"levelo_inurba_marseille","lat":43.29622,"lon":5.37153,"is_reserved":false,"is_disabled":false,"rental_uris":{"android":"levelo://app?vid=f36cd602-20d9-469f-b5fe-e86ee05aa676","ios":"levelo://app?vid=f36cd602-20d9-469f-b5fe-e86ee05aa676"},"vehicle_type_id":"4","last_reported":1733310509,"current_range_meters":37600,"station_id":"ce4bgnh2rcd13ifvqc0g","pricing_plan_id":"cebpf4jnsgd1na2vs0mg"},{"bike_id":"e218f52a-3c8a-490a-99d9-5af7196625b0","system_id":"levelo_inurba_marseille","lat":43.23195,"lon":5.35545,"is_reserved":false,"is_disabled":false,"rental_uris":{"android":"levelo://app?vid=e218f52a-3c8a-490a-99d9-5af7196625b0","ios":"levelo://app?vid=e218f52a-3c8a-490a-99d9-5af7196625b0"},"vehicle_type_id":"4","last_reported":1733310509,"current_range_meters":39200,"station_id":"ce4bhu92rcd13ifvqi70","pricing_plan_id":"cebpf4jnsgd1na2vs0mg"},{"bike_id":"506c09f4-6c9b-4fb3-996c-4c7f86dd75a8","system_id":"levelo_inurba_marseille","lat":43.25494,"lon":5.3764,"is_reserved":false,"is_disabled":true,"rental_uris":{"android":"levelo://app?vid=506c09f4-6c9b-4fb3-996c-4c7f86dd75a8","ios":"levelo://app?vid=506c09f4-6c9b-4fb3-996c-4c7f86dd75a8"},"vehicle_type_id":"4","last_reported":1733310509,"current_range_meters":0,"station_id":"","pricing_plan_id":"cebpf4jnsgd1na2vs0mg"},{"bike_id":"fd0f5468-0b07-4fb4-a17c-422c3034ac71","system_id":"levelo_inurba_marseille","lat":43.32219,"lon":5.41255,"is_reserved":false,"is_disabled":false,"rental_uris":{"android":"levelo://app?vid=fd0f5468-0b07-4fb4-a17c-422c3034ac71","ios":"levelo://app?vid=fd0f5468-0b07-4fb4-a17c-422c3034ac71"},"vehicle_type_id":"4","last_reported":1733310509,"current_range_meters":38800,"station_id":"","pricing_plan_id":"cebpf4jnsgd1na2vs0mg"},{"bike_id":"9202c63e-372c-4469-a5c1-8e35757d1940","system_id":"levelo_inurba_marseille","lat":43.30053,"lon":5.38832,"is_reserved":false,"is_disabled":true,"rental_uris":{"android":"levelo://app?vid=9202c63e-372c-4469-a5c1-8e35757d1940","ios":"levelo://app?vid=9202c63e-372c-4469-a5c1-8e35757d1940"},"vehicle_type_id":"4","last_reported":1733310509,"current_range_meters":0,"station_id":"","pricing_plan_id":"cebpf4jnsgd1na2vs0mg"},{"bike_id":"238a9584-1ddb-4e83-99a1-2480e465351c","system_id":"levelo_inurba_marseille","lat":43.33605,"lon":5.41018,"is_reserved":false,"is_disabled":false,"rental_uris":{"android":"levelo://app?vid=238a9584-1ddb-4e83-99a1-2480e465351c","ios":"levelo://app?vid=238a9584-1ddb-4e83-99a1-2480e465351c"},"vehicle_type_id":"4","last_reported":1733310509,"current_range_meters":27200,"station_id":"ce4bhqh2rcd13ifvqhmg","pricing_plan_id":"cebpf4jnsgd1na2vs0mg"},{"bike_id":"6e35a628-141c-4055-81a3-e64bed2ed5b9","system_id":"levelo_inurba_marseille","lat":43.30531,"lon":5.3669,"is_reserved":false,"is_disabled":false,"rental_uris":{"android":"levelo://app?vid=6e35a628-141c-4055-81a3-e64bed2ed5b9","ios":"levelo://app?vid=6e35a628-141c-4055-81a3-e64bed2ed5b9"},"vehicle_type_id":"4","last_reported":1733310509,"current_range_meters":38800,"station_id":"ce4bgrp2rcd13ifvqc9g","pricing_plan_id":"cebpf4jnsgd1na2vs0mg"},{"bike_id":"00b58867-2501-41e2-9199-8eb34c853624","system_id":"levelo_inurba_marseille","lat":43.28371,"lon":5.38637,"is_reserved":false,"is_disabled":false,"rental_uris":{"android":"levelo://app?vid=00b58867-2501-41e2-9199-8eb34c853624","ios":"levelo://app?vid=00b58867-2501-41e2-9199-8eb34c853624"},"vehicle_type_id":"4","last_reported":1733310509,"current_range_meters":37600,"station_id":"ce4bh492rcd13ifvqdvg","pricing_plan_id":"cebpf4jnsgd1na2vs0mg"},{"bike_id":"b694d290-fe93-4eed-a7f8-193bb7150712","system_id":"levelo_inurba_marseille","lat":43.29444,"lon":5.39748,"is_reserved":false,"is_disabled":false,"rental_uris":{"android":"levelo://app?vid=b694d290-fe93-4eed-a7f8-193bb7150712","ios":"levelo://app?vid=b694d290-fe93-4eed-a7f8-193bb7150712"},"vehicle_type_id":"4","last_reported":1733310509,"current_range_meters":36000,"station_id":"ce4bh3h2rcd13ifvqdo0","pricing_plan_id":"cebpf4jnsgd1na2vs0mg"},{"bike_id":"3297dc17-ad0d-4af9-95bb-d2968a0e3b8f","system_id":"levelo_inurba_marseille","lat":43.30552,"lon":5.36535,"is_reserved":false,"is_disabled":false,"rental_uris":{"android":"levelo://app?vid=3297dc17-ad0d-4af9-95bb-d2968a0e3b8f","ios":"levelo://app?vid=3297dc17-ad0d-4af9-95bb-d2968a0e3b8f"},"vehicle_type_id":"4","last_reported":1733310509,"current_range_meters":27200,"station_id":"ce4bgs12rcd13ifvqcag","pricing_plan_id":"cebpf4jnsgd1na2vs0mg"},{"bike_id":"cf3e6ea0-09ff-406c-b357-28a6a6117f94","system_id":"levelo_inurba_marseille","lat":43.22932,"lon":5.35376,"is_reserved":false,"is_disabled":false,"rental_uris":{"android":"levelo://app?vid=cf3e6ea0-09ff-406c-b357-28a6a6117f94","ios":"levelo://app?vid=cf3e6ea0-09ff-406c-b357-28a6a6117f94"},"vehicle_type_id":"4","last_reported":1733310509,"current_range_meters":37600,"station_id":"cpo3532slgdg3j2ikp40","pricing_plan_id":"cebpf4jnsgd1na2vs0mg"},{"bike_id":"fa2480ed-4a82-4d24-b711-b8712ed3e4fc","system_id":"levelo_inurba_marseille","lat":43.28151,"lon":5.42641,"is_reserved":false,"is_disabled":false,"rental_uris":{"android":"levelo://app?vid=fa2480ed-4a82-4d24-b711-b8712ed3e4fc","ios":"levelo://app?vid=fa2480ed-4a82-4d24-b711-b8712ed3e4fc"},"vehicle_type_id":"4","last_reported":1733310509,"current_range_meters":37600,"station_id":"ce4bhnh2rcd13ifvqgug","pricing_plan_id":"cebpf4jnsgd1na2vs0mg"},{"bike_id":"33b6defc-0259-40c1-8c7c-b5f4200fa144","system_id":"levelo_inurba_marseille","lat":43.23964,"lon":5.36633,"is_reserved":false,"is_disabled":false,"rental_uris":{"android":"levelo://app?vid=33b6defc-0259-40c1-8c7c-b5f4200fa144","ios":"levelo://app?vid=33b6defc-0259-40c1-8c7c-b5f4200fa144"},"vehicle_type_id":"4","last_reported":1733310509,"current_range_meters":14400,"station_id":"ce4bhi12rcd13ifvqfp0","pricing_plan_id":"cebpf4jnsgd1na2vs0mg"},{"bike_id":"66ac9341-b94a-4082-a9d6-1bfcd193bc67","system_id":"levelo_inurba_marseille","lat":43.30539,"lon":5.36535,"is_reserved":false,"is_disabled":false,"rental_uris":{"android":"levelo://app?vid=66ac9341-b94a-4082-a9d6-1bfcd193bc67","ios":"levelo://app?vid=66ac9341-b94a-4082-a9d6-1bfcd193bc67"},"vehicle_type_id":"4","last_reported":1733310509,"current_range_meters":30800,"station_id":"ce4bgs12rcd13ifvqcag","pricing_plan_id":"cebpf4jnsgd1na2vs0mg"},{"bike_id":"719e509a-25e4-4b1b-9830-f708d85d7593","system_id":"levelo_inurba_marseille","lat":43.29283,"lon":5.37397,"is_reserved":false,"is_disabled":true,"rental_uris":{"android":"levelo://app?vid=719e509a-25e4-4b1b-9830-f708d85d7593","ios":"levelo://app?vid=719e509a-25e4-4b1b-9830-f708d85d7593"},"vehicle_type_id":"4","last_reported":1733310509,"current_range_meters":0,"station_id":"","pricing_plan_id":"cebpf4jnsgd1na2vs0mg"},{"bike_id":"34990873-3196-4058-b006-4ffbc0216fdf","system_id":"levelo_inurba_marseille","lat":43.23197,"lon":5.35545,"is_reserved":false,"is_disabled":false,"rental_uris":{"android":"levelo://app?vid=34990873-3196-4058-b006-4ffbc0216fdf","ios":"levelo://app?vid=34990873-3196-4058-b006-4ffbc0216fdf"},"vehicle_type_id":"4","last_reported":1733310509,"current_range_meters":39200,"station_id":"ce4bhu92rcd13ifvqi70","pricing_plan_id":"cebpf4jnsgd1na2vs0mg"},{"bike_id":"235e4433-937e-41f8-a4d6-6889c27bd8c1","system_id":"levelo_inurba_marseille","lat":43.31071,"lon":5.38345,"is_reserved":false,"is_disabled":false,"rental_uris":{"android":"levelo://app?vid=235e4433-937e-41f8-a4d6-6889c27bd8c1","ios":"levelo://app?vid=235e4433-937e-41f8-a4d6-6889c27bd8c1"},"vehicle_type_id":"4","last_reported":1733310509,"current_range_meters":20000,"station_id":"ce4bgv92rcd13ifvqcr0","pricing_plan_id":"cebpf4jnsgd1na2vs0mg"},{"bike_id":"c35bc4cc-64b7-48ea-a11c-7e0b5723d768","system_id":"levelo_inurba_marseille","lat":43.29528,"lon":5.37507,"is_reserved":false,"is_disabled":false,"rental_uris":{"android":"levelo://app?vid=c35bc4cc-64b7-48ea-a11c-7e0b5723d768","ios":"levelo://app?vid=c35bc4cc-64b7-48ea-a11c-7e0b5723d768"},"vehicle_type_id":"4","last_reported":1733310509,"current_range_meters":20800,"station_id":"ce4bgkp2rcd13ifvqbmg","pricing_plan_id":"cebpf4jnsgd1na2vs0mg"},{"bike_id":"c0b0668b-9f20-44f3-b7e1-3963df177deb","system_id":"levelo_inurba_marseille","lat":43.26029,"lon":5.3755,"is_reserved":false,"is_disabled":false,"rental_uris":{"android":"levelo://app?vid=c0b0668b-9f20-44f3-b7e1-3963df177deb","ios":"levelo://app?vid=c0b0668b-9f20-44f3-b7e1-3963df177deb"},"vehicle_type_id":"4","last_reported":1733310509,"current_range_meters":38800,"station_id":"ce4bhgh2rcd13ifvqfa0","pricing_plan_id":"cebpf4jnsgd1na2vs0mg"},{"bike_id":"7eeb5ac6-a3ab-4724-a0d1-17bed7e385e6","system_id":"levelo_inurba_marseille","lat":43.28001,"lon":5.4166,"is_reserved":false,"is_disabled":false,"rental_uris":{"android":"levelo://app?vid=7eeb5ac6-a3ab-4724-a0d1-17bed7e385e6","ios":"levelo://app?vid=7eeb5ac6-a3ab-4724-a0d1-17bed7e385e6"},"vehicle_type_id":"4","last_reported":1733310509,"current_range_meters":23200,"station_id":"ce4bho12rcd13ifvqh1g","pricing_plan_id":"cebpf4jnsgd1na2vs0mg"},{"bike_id":"48f7fad5-9736-4854-ad66-3ac0235f4d2f","system_id":"levelo_inurba_marseille","lat":43.27055,"lon":5.40251,"is_reserved":false,"is_disabled":false,"rental_uris":{"android":"levelo://app?vid=48f7fad5-9736-4854-ad66-3ac0235f4d2f","ios":"levelo://app?vid=48f7fad5-9736-4854-ad66-3ac0235f4d2f"},"vehicle_type_id":"4","last_reported":1733310509,"current_range_meters":19200,"station_id":"ce4bhk92rcd13ifvqgc0","pricing_plan_id":"cebpf4jnsgd1na2vs0mg"},{"bike_id":"e623e7dc-9b49-45c8-ad86-90432817ae38","system_id":"levelo_inurba_marseille","lat":43.25723,"lon":5.41105,"is_reserved":false,"is_disabled":false,"rental_uris":{"android":"levelo://app?vid=e623e7dc-9b49-45c8-ad86-90432817ae38","ios":"levelo://app?vid=e623e7dc-9b49-45c8-ad86-90432817ae38"},"vehicle_type_id":"4","last_reported":1733310509,"current_range_meters":18800,"station_id":"ce4bhkp2rcd13ifvqgd0","pricing_plan_id":"cebpf4jnsgd1na2vs0mg"},{"bike_id":"3d8b8cc0-bc86-4be5-b1b3-97410f835a6f","system_id":"levelo_inurba_marseille","lat":43.30541,"lon":5.36715,"is_reserved":false,"is_disabled":false,"rental_uris":{"android":"levelo://app?vid=3d8b8cc0-bc86-4be5-b1b3-97410f835a6f","ios":"levelo://app?vid=3d8b8cc0-bc86-4be5-b1b3-97410f835a6f"},"vehicle_type_id":"4","last_reported":1733310509,"current_range_meters":24800,"station_id":"ce4bgrp2rcd13ifvqc9g","pricing_plan_id":"cebpf4jnsgd1na2vs0mg"},{"bike_id":"c87271e1-c298-4aa7-afae-6f231e4689b3","system_id":"levelo_inurba_marseille","lat":43.29923,"lon":5.37473,"is_reserved":false,"is_disabled":false,"rental_uris":{"android":"levelo://app?vid=c87271e1-c298-4aa7-afae-6f231e4689b3","ios":"levelo://app?vid=c87271e1-c298-4aa7-afae-6f231e4689b3"},"vehicle_type_id":"4","last_reported":1733310509,"current_range_meters":38000,"station_id":"ce4bgjh2rcd13ifvqbg0","pricing_plan_id":"cebpf4jnsgd1na2vs0mg"},{"bike_id":"4f89d38c-fb0e-4b90-85f8-81cc1c302775","system_id":"levelo_inurba_marseille","lat":43.29725,"lon":5.37702,"is_reserved":false,"is_disabled":false,"rental_uris":{"android":"levelo://app?vid=4f89d38c-fb0e-4b90-85f8-81cc1c302775","ios":"levelo://app?vid=4f89d38c-fb0e-4b90-85f8-81cc1c302775"},"vehicle_type_id":"4","last_reported":1733310509,"current_range_meters":34000,"station_id":"ce4bgkh2rcd13ifvqbl0","pricing_plan_id":"cebpf4jnsgd1na2vs0mg"},{"bike_id":"38c9802a-44d4-43b4-a98f-381ac535f302","system_id":"levelo_inurba_marseille","lat":43.32481,"lon":5.36561,"is_reserved":false,"is_disabled":false,"rental_uris":{"android":"levelo://app?vid=38c9802a-44d4-43b4-a98f-381ac535f302","ios":"levelo://app?vid=38c9802a-44d4-43b4-a98f-381ac535f302"},"vehicle_type_id":"4","last_reported":1733310509,"current_range_meters":35600,"station_id":"ce4bhs12rcd13ifvqhvg","pricing_plan_id":"cebpf4jnsgd1na2vs0mg"},{"bike_id":"85738504-4b02-4b23-9e1a-606c13a5f776","system_id":"levelo_inurba_marseille","lat":43.30151,"lon":5.38097,"is_reserved":false,"is_disabled":false,"rental_uris":{"android":"levelo://app?vid=85738504-4b02-4b23-9e1a-606c13a5f776","ios":"levelo://app?vid=85738504-4b02-4b23-9e1a-606c13a5f776"},"vehicle_type_id":"4","last_reported":1733310509,"current_range_meters":27600,"station_id":"ce4bgjp2rcd13ifvqbh0","pricing_plan_id":"cebpf4jnsgd1na2vs0mg"},{"bike_id":"0b0ff45f-b0f5-43d3-944d-7ce6714713b4","system_id":"levelo_inurba_marseille","lat":43.33762,"lon":5.3744,"is_reserved":false,"is_disabled":false,"rental_uris":{"android":"levelo://app?vid=0b0ff45f-b0f5-43d3-944d-7ce6714713b4","ios":"levelo://app?vid=0b0ff45f-b0f5-43d3-944d-7ce6714713b4"},"vehicle_type_id":"4","last_reported":1733310509,"current_range_meters":36000,"station_id":"","pricing_plan_id":"cebpf4jnsgd1na2vs0mg"},{"bike_id":"04acd6cf-39e7-4978-a379-93c734ba69f3","system_id":"levelo_inurba_marseille","lat":43.31637,"lon":5.38234,"is_reserved":false,"is_disabled":false,"rental_uris":{"android":"levelo://app?vid=04acd6cf-39e7-4978-a379-93c734ba69f3","ios":"levelo://app?vid=04acd6cf-39e7-4978-a379-93c734ba69f3"},"vehicle_type_id":"4","last_reported":1733310509,"current_range_meters":38000,"station_id":"","pricing_plan_id":"cebpf4jnsgd1na2vs0mg"},{"bike_id":"8ad79486-ce31-4353-9a76-589a64898f91","system_id":"levelo_inurba_marseille","lat":43.26563,"lon":5.38975,"is_reserved":false,"is_disabled":false,"rental_uris":{"android":"levelo://app?vid=8ad79486-ce31-4353-9a76-589a64898f91","ios":"levelo://app?vid=8ad79486-ce31-4353-9a76-589a64898f91"},"vehicle_type_id":"4","last_reported":1733310509,"current_range_meters":38800,"station_id":"ce4bhe12rcd13ifvqf30","pricing_plan_id":"cebpf4jnsgd1na2vs0mg"},{"bike_id":"3647332a-9aff-427a-b253-a9b387f4293e","system_id":"levelo_inurba_marseille","lat":43.32055,"lon":5.41526,"is_reserved":false,"is_disabled":false,"rental_uris":{"android":"levelo://app?vid=3647332a-9aff-427a-b253-a9b387f4293e","ios":"levelo://app?vid=3647332a-9aff-427a-b253-a9b387f4293e"},"vehicle_type_id":"4","last_reported":1733310509,"current_range_meters":39200,"station_id":"ce4bhq92rcd13ifvqhkg","pricing_plan_id":"cebpf4jnsgd1na2vs0mg"},{"bike_id":"79c8ea6d-5102-4a1e-b941-afdabc095945","system_id":"levelo_inurba_marseille","lat":43.29077,"lon":5.38338,"is_reserved":false,"is_disabled":true,"rental_uris":{"android":"levelo://app?vid=79c8ea6d-5102-4a1e-b941-afdabc095945","ios":"levelo://app?vid=79c8ea6d-5102-4a1e-b941-afdabc095945"},"vehicle_type_id":"4","last_reported":1733310509,"current_range_meters":20800,"station_id":"","pricing_plan_id":"cebpf4jnsgd1na2vs0mg"},{"bike_id":"84a2915d-c6ef-4af0-8c6d-2fcd615fa6c7","system_id":"levelo_inurba_marseille","lat":43.33334,"lon":5.42011,"is_reserved":false,"is_disabled":true,"rental_uris":{"android":"levelo://app?vid=84a2915d-c6ef-4af0-8c6d-2fcd615fa6c7","ios":"levelo://app?vid=84a2915d-c6ef-4af0-8c6d-2fcd615fa6c7"},"vehicle_type_id":"4","last_reported":1733310509,"current_range_meters":0,"station_id":"","pricing_plan_id":"cebpf4jnsgd1na2vs0mg"},{"bike_id":"82366f5e-8ef5-48c0-b7e7-af98e44f9fea","system_id":"levelo_inurba_marseille","lat":43.31483,"lon":5.37305,"is_reserved":false,"is_disabled":false,"rental_uris":{"android":"levelo://app?vid=82366f5e-8ef5-48c0-b7e7-af98e44f9fea","ios":"levelo://app?vid=82366f5e-8ef5-48c0-b7e7-af98e44f9fea"},"vehicle_type_id":"4","last_reported":1733310509,"current_range_meters":24000,"station_id":"ce4bgt12rcd13ifvqcd0","pricing_plan_id":"cebpf4jnsgd1na2vs0mg"},{"bike_id":"c4b369ea-85f0-47aa-a8c7-7688ab4e53ce","system_id":"levelo_inurba_marseille","lat":43.27214,"lon":5.39206,"is_reserved":false,"is_disabled":false,"rental_uris":{"android":"levelo://app?vid=c4b369ea-85f0-47aa-a8c7-7688ab4e53ce","ios":"levelo://app?vid=c4b369ea-85f0-47aa-a8c7-7688ab4e53ce"},"vehicle_type_id":"4","last_reported":1733310509,"current_range_meters":38000,"station_id":"ce4bhhp2rcd13ifvqfm0","pricing_plan_id":"cebpf4jnsgd1na2vs0mg"},{"bike_id":"1f3491f0-7911-4ef6-949b-178332ea511b","system_id":"levelo_inurba_marseille","lat":43.27934,"lon":5.38758,"is_reserved":false,"is_disabled":true,"rental_uris":{"android":"levelo://app?vid=1f3491f0-7911-4ef6-949b-178332ea511b","ios":"levelo://app?vid=1f3491f0-7911-4ef6-949b-178332ea511b"},"vehicle_type_id":"4","last_reported":1733310509,"current_range_meters":19600,"station_id":"ce4bhg12rcd13ifvqf80","pricing_plan_id":"cebpf4jnsgd1na2vs0mg"},{"bike_id":"4364f563-d5ac-4797-b43e-4519ca8b19a8","system_id":"levelo_inurba_marseille","lat":43.30558,"lon":5.36726,"is_reserved":false,"is_disabled":false,"rental_uris":{"android":"levelo://app?vid=4364f563-d5ac-4797-b43e-4519ca8b19a8","ios":"levelo://app?vid=4364f563-d5ac-4797-b43e-4519ca8b19a8"},"vehicle_type_id":"4","last_reported":1733310509,"current_range_meters":30800,"station_id":"ce4bgrp2rcd13ifvqc9g","pricing_plan_id":"cebpf4jnsgd1na2vs0mg"},{"bike_id":"427d7497-fe79-4531-b7d6-69d2614ceec1","system_id":"levelo_inurba_marseille","lat":43.29172,"lon":5.38486,"is_reserved":false,"is_disabled":true,"rental_uris":{"android":"levelo://app?vid=427d7497-fe79-4531-b7d6-69d2614ceec1","ios":"levelo://app?vid=427d7497-fe79-4531-b7d6-69d2614ceec1"},"vehicle_type_id":"4","last_reported":1733310509,"current_range_meters":6000,"station_id":"","pricing_plan_id":"cebpf4jnsgd1na2vs0mg"},{"bike_id":"5ecf7364-2bad-450c-8536-214f937acc52","system_id":"levelo_inurba_marseille","lat":43.3204,"lon":5.41562,"is_reserved":false,"is_disabled":false,"rental_uris":{"android":"levelo://app?vid=5ecf7364-2bad-450c-8536-214f937acc52","ios":"levelo://app?vid=5ecf7364-2bad-450c-8536-214f937acc52"},"vehicle_type_id":"4","last_reported":1733310509,"current_range_meters":38800,"station_id":"ce4bhq92rcd13ifvqhkg","pricing_plan_id":"cebpf4jnsgd1na2vs0mg"},{"bike_id":"d08cbdef-fa5f-4eaa-9a1b-d4e2d436791f","system_id":"levelo_inurba_marseille","lat":43.32481,"lon":5.36556,"is_reserved":false,"is_disabled":false,"rental_uris":{"android":"levelo://app?vid=d08cbdef-fa5f-4eaa-9a1b-d4e2d436791f","ios":"levelo://app?vid=d08cbdef-fa5f-4eaa-9a1b-d4e2d436791f"},"vehicle_type_id":"4","last_reported":1733310509,"current_range_meters":38800,"station_id":"ce4bhs12rcd13ifvqhvg","pricing_plan_id":"cebpf4jnsgd1na2vs0mg"},{"bike_id":"de696e80-e597-4278-9c47-583b808dc09d","system_id":"levelo_inurba_marseille","lat":43.29435,"lon":5.39754,"is_reserved":false,"is_disabled":false,"rental_uris":{"android":"levelo://app?vid=de696e80-e597-4278-9c47-583b808dc09d","ios":"levelo://app?vid=de696e80-e597-4278-9c47-583b808dc09d"},"vehicle_type_id":"4","last_reported":1733310509,"current_range_meters":12800,"station_id":"ce4bh3h2rcd13ifvqdo0","pricing_plan_id":"cebpf4jnsgd1na2vs0mg"},{"bike_id":"a4b9e425-64b8-4ce2-a5ab-5fcc5d1230a4","system_id":"levelo_inurba_marseille","lat":43.3211,"lon":5.36781,"is_reserved":false,"is_disabled":false,"rental_uris":{"android":"levelo://app?vid=a4b9e425-64b8-4ce2-a5ab-5fcc5d1230a4","ios":"levelo://app?vid=a4b9e425-64b8-4ce2-a5ab-5fcc5d1230a4"},"vehicle_type_id":"4","last_reported":1733310509,"current_range_meters":38800,"station_id":"ce4bhrh2rcd13ifvqhug","pricing_plan_id":"cebpf4jnsgd1na2vs0mg"},{"bike_id":"c8382b14-cd3f-4b33-b9fe-141a4758bc67","system_id":"levelo_inurba_marseille","lat":43.30289,"lon":5.37702,"is_reserved":false,"is_disabled":false,"rental_uris":{"android":"levelo://app?vid=c8382b14-cd3f-4b33-b9fe-141a4758bc67","ios":"levelo://app?vid=c8382b14-cd3f-4b33-b9fe-141a4758bc67"},"vehicle_type_id":"4","last_reported":1733310509,"current_range_meters":33200,"station_id":"ce4bguh2rcd13ifvqcj0","pricing_plan_id":"cebpf4jnsgd1na2vs0mg"},{"bike_id":"3abebed7-0396-4197-8537-118f812c5e7e","system_id":"levelo_inurba_marseille","lat":43.28414,"lon":5.37519,"is_reserved":false,"is_disabled":true,"rental_uris":{"android":"levelo://app?vid=3abebed7-0396-4197-8537-118f812c5e7e","ios":"levelo://app?vid=3abebed7-0396-4197-8537-118f812c5e7e"},"vehicle_type_id":"4","last_reported":1733310509,"current_range_meters":800,"station_id":"ce4bh412rcd13ifvqds0","pricing_plan_id":"cebpf4jnsgd1na2vs0mg"},{"bike_id":"124e256b-6755-4adb-956b-3d5fbbcf671d","system_id":"levelo_inurba_marseille","lat":43.29793,"lon":5.3934,"is_reserved":false,"is_disabled":true,"rental_uris":{"android":"levelo://app?vid=124e256b-6755-4adb-956b-3d5fbbcf671d","ios":"levelo://app?vid=124e256b-6755-4adb-956b-3d5fbbcf671d"},"vehicle_type_id":"4","last_reported":1733310509,"current_range_meters":0,"station_id":"chh1huq6cuj3fo74tm60","pricing_plan_id":"cebpf4jnsgd1na2vs0mg"},{"bike_id":"2ff33279-7bc5-4201-bbb4-369f33a86de5","system_id":"levelo_inurba_marseille","lat":43.32673,"lon":5.40966,"is_reserved":false,"is_disabled":false,"rental_uris":{"android":"levelo://app?vid=2ff33279-7bc5-4201-bbb4-369f33a86de5","ios":"levelo://app?vid=2ff33279-7bc5-4201-bbb4-369f33a86de5"},"vehicle_type_id":"4","last_reported":1733310509,"current_range_meters":33600,"station_id":"ce4bhpp2rcd13ifvqhgg","pricing_plan_id":"cebpf4jnsgd1na2vs0mg"},{"bike_id":"c2d8a1c2-d166-4a36-b32f-beec95c93bd5","system_id":"levelo_inurba_marseille","lat":43.33756,"lon":5.37459,"is_reserved":false,"is_disabled":false,"rental_uris":{"android":"levelo://app?vid=c2d8a1c2-d166-4a36-b32f-beec95c93bd5","ios":"levelo://app?vid=c2d8a1c2-d166-4a36-b32f-beec95c93bd5"},"vehicle_type_id":"4","last_reported":1733310509,"current_range_meters":14000,"station_id":"","pricing_plan_id":"cebpf4jnsgd1na2vs0mg"},{"bike_id":"f60cd7eb-4c08-47cb-b7a6-71cc99eeeda7","system_id":"levelo_inurba_marseille","lat":43.24994,"lon":5.38917,"is_reserved":false,"is_disabled":false,"rental_uris":{"android":"levelo://app?vid=f60cd7eb-4c08-47cb-b7a6-71cc99eeeda7","ios":"levelo://app?vid=f60cd7eb-4c08-47cb-b7a6-71cc99eeeda7"},"vehicle_type_id":"4","last_reported":1733310509,"current_range_meters":38800,"station_id":"ce4bhgp2rcd13ifvqfd0","pricing_plan_id":"cebpf4jnsgd1na2vs0mg"},{"bike_id":"8830c08f-c268-499b-b7a5-e0504b24aab5","system_id":"levelo_inurba_marseille","lat":43.32483,"lon":5.36572,"is_reserved":false,"is_disabled":false,"rental_uris":{"android":"levelo://app?vid=8830c08f-c268-499b-b7a5-e0504b24aab5","ios":"levelo://app?vid=8830c08f-c268-499b-b7a5-e0504b24aab5"},"vehicle_type_id":"4","last_reported":1733310509,"current_range_meters":25200,"station_id":"ce4bhs12rcd13ifvqhvg","pricing_plan_id":"cebpf4jnsgd1na2vs0mg"},{"bike_id":"4d423fd5-9ac6-4dc1-a151-fec8cb0ea8c7","system_id":"levelo_inurba_marseille","lat":43.27493,"lon":5.42454,"is_reserved":false,"is_disabled":false,"rental_uris":{"android":"levelo://app?vid=4d423fd5-9ac6-4dc1-a151-fec8cb0ea8c7","ios":"levelo://app?vid=4d423fd5-9ac6-4dc1-a151-fec8cb0ea8c7"},"vehicle_type_id":"4","last_reported":1733310509,"current_range_meters":31200,"station_id":"ce4bhn92rcd13ifvqgrg","pricing_plan_id":"cebpf4jnsgd1na2vs0mg"},{"bike_id":"34e0f5bd-019b-4037-a6d8-20958b6a77d7","system_id":"levelo_inurba_marseille","lat":43.31493,"lon":5.3731,"is_reserved":false,"is_disabled":false,"rental_uris":{"android":"levelo://app?vid=34e0f5bd-019b-4037-a6d8-20958b6a77d7","ios":"levelo://app?vid=34e0f5bd-019b-4037-a6d8-20958b6a77d7"},"vehicle_type_id":"4","last_reported":1733310509,"current_range_meters":38800,"station_id":"ce4bgt12rcd13ifvqcd0","pricing_plan_id":"cebpf4jnsgd1na2vs0mg"},{"bike_id":"76bef7d1-6cf6-472a-ad41-60b0e0c50c8e","system_id":"levelo_inurba_marseille","lat":43.337444,"lon":5.374475,"is_reserved":false,"is_disabled":false,"rental_uris":{"android":"levelo://app?vid=76bef7d1-6cf6-472a-ad41-60b0e0c50c8e","ios":"levelo://app?vid=76bef7d1-6cf6-472a-ad41-60b0e0c50c8e"},"vehicle_type_id":"4","last_reported":1733310509,"current_range_meters":27200,"station_id":"","pricing_plan_id":"cebpf4jnsgd1na2vs0mg"},{"bike_id":"96f032e7-29e8-42f4-8ba4-083b724a3bb5","system_id":"levelo_inurba_marseille","lat":43.26931,"lon":5.40258,"is_reserved":false,"is_disabled":false,"rental_uris":{"android":"levelo://app?vid=96f032e7-29e8-42f4-8ba4-083b724a3bb5","ios":"levelo://app?vid=96f032e7-29e8-42f4-8ba4-083b724a3bb5"},"vehicle_type_id":"4","last_reported":1733310509,"current_range_meters":18800,"station_id":"cjm6bp8fraef2m0cb0m0","pricing_plan_id":"cebpf4jnsgd1na2vs0mg"},{"bike_id":"25fd4769-2801-48a7-9e06-b0bd7edb3ae2","system_id":"levelo_inurba_marseille","lat":43.30217,"lon":5.39463,"is_reserved":false,"is_disabled":false,"rental_uris":{"android":"levelo://app?vid=25fd4769-2801-48a7-9e06-b0bd7edb3ae2","ios":"levelo://app?vid=25fd4769-2801-48a7-9e06-b0bd7edb3ae2"},"vehicle_type_id":"4","last_reported":1733310509,"current_range_meters":31200,"station_id":"","pricing_plan_id":"cebpf4jnsgd1na2vs0mg"},{"bike_id":"77a9ae3f-f49b-490e-bc0d-4fabf83debf7","system_id":"levelo_inurba_marseille","lat":43.30418,"lon":5.41277,"is_reserved":false,"is_disabled":false,"rental_uris":{"android":"levelo://app?vid=77a9ae3f-f49b-490e-bc0d-4fabf83debf7","ios":"levelo://app?vid=77a9ae3f-f49b-490e-bc0d-4fabf83debf7"},"vehicle_type_id":"4","last_reported":1733310509,"current_range_meters":19200,"station_id":"ce4bhop2rcd13ifvqh8g","pricing_plan_id":"cebpf4jnsgd1na2vs0mg"},{"bike_id":"6dbea27e-894c-46af-a584-52904944ff21","system_id":"levelo_inurba_marseille","lat":43.32307,"lon":5.37563,"is_reserved":false,"is_disabled":false,"rental_uris":{"android":"levelo://app?vid=6dbea27e-894c-46af-a584-52904944ff21","ios":"levelo://app?vid=6dbea27e-894c-46af-a584-52904944ff21"},"vehicle_type_id":"4","last_reported":1733310509,"current_range_meters":8000,"station_id":"","pricing_plan_id":"cebpf4jnsgd1na2vs0mg"},{"bike_id":"57e0f190-7f16-4931-934d-384b1700b76f","system_id":"levelo_inurba_marseille","lat":43.33096,"lon":5.36233,"is_reserved":false,"is_disabled":true,"rental_uris":{"android":"levelo://app?vid=57e0f190-7f16-4931-934d-384b1700b76f","ios":"levelo://app?vid=57e0f190-7f16-4931-934d-384b1700b76f"},"vehicle_type_id":"4","last_reported":1733310509,"current_range_meters":0,"station_id":"","pricing_plan_id":"cebpf4jnsgd1na2vs0mg"},{"bike_id":"5e160b8e-5c83-4423-b051-bd2cf577003d","system_id":"levelo_inurba_marseille","lat":43.23201,"lon":5.35547,"is_reserved":false,"is_disabled":false,"rental_uris":{"android":"levelo://app?vid=5e160b8e-5c83-4423-b051-bd2cf577003d","ios":"levelo://app?vid=5e160b8e-5c83-4423-b051-bd2cf577003d"},"vehicle_type_id":"4","last_reported":1733310509,"current_range_meters":39200,"station_id":"ce4bhu92rcd13ifvqi70","pricing_plan_id":"cebpf4jnsgd1na2vs0mg"},{"bike_id":"fe22b0f1-4409-493b-92e7-efe79b2e56cf","system_id":"levelo_inurba_marseille","lat":43.27068,"lon":5.42274,"is_reserved":false,"is_disabled":false,"rental_uris":{"android":"levelo://app?vid=fe22b0f1-4409-493b-92e7-efe79b2e56cf","ios":"levelo://app?vid=fe22b0f1-4409-493b-92e7-efe79b2e56cf"},"vehicle_type_id":"4","last_reported":1733310509,"current_range_meters":38800,"station_id":"ce4bhk92rcd13ifvqgb0","pricing_plan_id":"cebpf4jnsgd1na2vs0mg"},{"bike_id":"0b115fbc-2a1c-4284-9549-50ec6c5705b3","system_id":"levelo_inurba_marseille","lat":43.33024,"lon":5.3903,"is_reserved":false,"is_disabled":false,"rental_uris":{"android":"levelo://app?vid=0b115fbc-2a1c-4284-9549-50ec6c5705b3","ios":"levelo://app?vid=0b115fbc-2a1c-4284-9549-50ec6c5705b3"},"vehicle_type_id":"4","last_reported":1733310509,"current_range_meters":38800,"station_id":"ce4bhr92rcd13ifvqhrg","pricing_plan_id":"cebpf4jnsgd1na2vs0mg"},{"bike_id":"6adf327d-9f32-4f7b-82b4-34627f90c9f4","system_id":"levelo_inurba_marseille","lat":43.25862,"lon":5.39901,"is_reserved":false,"is_disabled":false,"rental_uris":{"android":"levelo://app?vid=6adf327d-9f32-4f7b-82b4-34627f90c9f4","ios":"levelo://app?vid=6adf327d-9f32-4f7b-82b4-34627f90c9f4"},"vehicle_type_id":"4","last_reported":1733310509,"current_range_meters":13600,"station_id":"ce4bhl92rcd13ifvqghg","pricing_plan_id":"cebpf4jnsgd1na2vs0mg"},{"bike_id":"40ccdb7c-f2aa-4789-ae08-2d416ef863c4","system_id":"levelo_inurba_marseille","lat":43.29267,"lon":5.36835,"is_reserved":false,"is_disabled":true,"rental_uris":{"android":"levelo://app?vid=40ccdb7c-f2aa-4789-ae08-2d416ef863c4","ios":"levelo://app?vid=40ccdb7c-f2aa-4789-ae08-2d416ef863c4"},"vehicle_type_id":"4","last_reported":1733310509,"current_range_meters":18000,"station_id":"ce4bhbp2rcd13ifvqesg","pricing_plan_id":"cebpf4jnsgd1na2vs0mg"},{"bike_id":"1cf1ab79-3e56-4f6b-9a0a-ec97516b276b","system_id":"levelo_inurba_marseille","lat":43.27998,"lon":5.40014,"is_reserved":false,"is_disabled":false,"rental_uris":{"android":"levelo://app?vid=1cf1ab79-3e56-4f6b-9a0a-ec97516b276b","ios":"levelo://app?vid=1cf1ab79-3e56-4f6b-9a0a-ec97516b276b"},"vehicle_type_id":"4","last_reported":1733310509,"current_range_meters":11200,"station_id":"ce4bho92rcd13ifvqh4g","pricing_plan_id":"cebpf4jnsgd1na2vs0mg"},{"bike_id":"a13e45b5-3d49-49bc-af49-fbd12d53a877","system_id":"levelo_inurba_marseille","lat":43.3053,"lon":5.36527,"is_reserved":false,"is_disabled":true,"rental_uris":{"android":"levelo://app?vid=a13e45b5-3d49-49bc-af49-fbd12d53a877","ios":"levelo://app?vid=a13e45b5-3d49-49bc-af49-fbd12d53a877"},"vehicle_type_id":"4","last_reported":1733310509,"current_range_meters":19200,"station_id":"ce4bgs12rcd13ifvqcag","pricing_plan_id":"cebpf4jnsgd1na2vs0mg"},{"bike_id":"d2cacea6-dc09-4bb5-9e24-b3f0026fab56","system_id":"levelo_inurba_marseille","lat":43.305277,"lon":5.36706,"is_reserved":false,"is_disabled":false,"rental_uris":{"android":"levelo://app?vid=d2cacea6-dc09-4bb5-9e24-b3f0026fab56","ios":"levelo://app?vid=d2cacea6-dc09-4bb5-9e24-b3f0026fab56"},"vehicle_type_id":"4","last_reported":1733310509,"current_range_meters":30400,"station_id":"ce4bgrp2rcd13ifvqc9g","pricing_plan_id":"cebpf4jnsgd1na2vs0mg"},{"bike_id":"f8bcc820-9a1c-492a-9f26-6a6b26934b17","system_id":"levelo_inurba_marseille","lat":43.28605,"lon":5.3706,"is_reserved":false,"is_disabled":true,"rental_uris":{"android":"levelo://app?vid=f8bcc820-9a1c-492a-9f26-6a6b26934b17","ios":"levelo://app?vid=f8bcc820-9a1c-492a-9f26-6a6b26934b17"},"vehicle_type_id":"4","last_reported":1733310509,"current_range_meters":38800,"station_id":"ce4bht12rcd13ifvqi60","pricing_plan_id":"cebpf4jnsgd1na2vs0mg"},{"bike_id":"30c2a233-5277-4a6f-836c-7a929f2611ee","system_id":"levelo_inurba_marseille","lat":43.29516,"lon":5.39062,"is_reserved":false,"is_disabled":false,"rental_uris":{"android":"levelo://app?vid=30c2a233-5277-4a6f-836c-7a929f2611ee","ios":"levelo://app?vid=30c2a233-5277-4a6f-836c-7a929f2611ee"},"vehicle_type_id":"4","last_reported":1733310509,"current_range_meters":31200,"station_id":"ce4bh3p2rcd13ifvqdp0","pricing_plan_id":"cebpf4jnsgd1na2vs0mg"},{"bike_id":"f13ccf34-34de-4eba-9c2e-108df28d336e","system_id":"levelo_inurba_marseille","lat":43.30672,"lon":5.373,"is_reserved":false,"is_disabled":false,"rental_uris":{"android":"levelo://app?vid=f13ccf34-34de-4eba-9c2e-108df28d336e","ios":"levelo://app?vid=f13ccf34-34de-4eba-9c2e-108df28d336e"},"vehicle_type_id":"4","last_reported":1733310509,"current_range_meters":26800,"station_id":"","pricing_plan_id":"cebpf4jnsgd1na2vs0mg"},{"bike_id":"3a9149f3-357c-4d0a-859b-18382ef024a5","system_id":"levelo_inurba_marseille","lat":43.32111,"lon":5.3678,"is_reserved":false,"is_disabled":false,"rental_uris":{"android":"levelo://app?vid=3a9149f3-357c-4d0a-859b-18382ef024a5","ios":"levelo://app?vid=3a9149f3-357c-4d0a-859b-18382ef024a5"},"vehicle_type_id":"4","last_reported":1733310509,"current_range_meters":28000,"station_id":"ce4bhrh2rcd13ifvqhug","pricing_plan_id":"cebpf4jnsgd1na2vs0mg"},{"bike_id":"cba4e405-5f98-4b9e-871f-cc4713f22644","system_id":"levelo_inurba_marseille","lat":43.27485,"lon":5.42446,"is_reserved":false,"is_disabled":false,"rental_uris":{"android":"levelo://app?vid=cba4e405-5f98-4b9e-871f-cc4713f22644","ios":"levelo://app?vid=cba4e405-5f98-4b9e-871f-cc4713f22644"},"vehicle_type_id":"4","last_reported":1733310509,"current_range_meters":23200,"station_id":"ce4bhn92rcd13ifvqgrg","pricing_plan_id":"cebpf4jnsgd1na2vs0mg"},{"bike_id":"4b1425b3-d14e-4b37-978d-05ce07410545","system_id":"levelo_inurba_marseille","lat":43.33761,"lon":5.3742,"is_reserved":false,"is_disabled":false,"rental_uris":{"android":"levelo://app?vid=4b1425b3-d14e-4b37-978d-05ce07410545","ios":"levelo://app?vid=4b1425b3-d14e-4b37-978d-05ce07410545"},"vehicle_type_id":"4","last_reported":1733310509,"current_range_meters":36800,"station_id":"","pricing_plan_id":"cebpf4jnsgd1na2vs0mg"},{"bike_id":"576ba945-c557-43e3-a30b-450284bba5f2","system_id":"levelo_inurba_marseille","lat":43.28147,"lon":5.42638,"is_reserved":false,"is_disabled":false,"rental_uris":{"android":"levelo://app?vid=576ba945-c557-43e3-a30b-450284bba5f2","ios":"levelo://app?vid=576ba945-c557-43e3-a30b-450284bba5f2"},"vehicle_type_id":"4","last_reported":1733310509,"current_range_meters":28800,"station_id":"ce4bhnh2rcd13ifvqgug","pricing_plan_id":"cebpf4jnsgd1na2vs0mg"},{"bike_id":"8ed65e6c-4bd7-425c-b3b6-6b20614b3f1a","system_id":"levelo_inurba_marseille","lat":43.32492,"lon":5.36555,"is_reserved":false,"is_disabled":false,"rental_uris":{"android":"levelo://app?vid=8ed65e6c-4bd7-425c-b3b6-6b20614b3f1a","ios":"levelo://app?vid=8ed65e6c-4bd7-425c-b3b6-6b20614b3f1a"},"vehicle_type_id":"4","last_reported":1733310509,"current_range_meters":37600,"station_id":"ce4bhs12rcd13ifvqhvg","pricing_plan_id":"cebpf4jnsgd1na2vs0mg"},{"bike_id":"da6a7a1d-e653-4950-af8c-8137b06f7d40","system_id":"levelo_inurba_marseille","lat":43.3004,"lon":5.37551,"is_reserved":false,"is_disabled":true,"rental_uris":{"android":"levelo://app?vid=da6a7a1d-e653-4950-af8c-8137b06f7d40","ios":"levelo://app?vid=da6a7a1d-e653-4950-af8c-8137b06f7d40"},"vehicle_type_id":"4","last_reported":1733310509,"current_range_meters":0,"station_id":"","pricing_plan_id":"cebpf4jnsgd1na2vs0mg"},{"bike_id":"f08bee3a-32f4-4c65-aeaf-d34b548f8c1b","system_id":"levelo_inurba_marseille","lat":43.31759,"lon":5.39026,"is_reserved":false,"is_disabled":false,"rental_uris":{"android":"levelo://app?vid=f08bee3a-32f4-4c65-aeaf-d34b548f8c1b","ios":"levelo://app?vid=f08bee3a-32f4-4c65-aeaf-d34b548f8c1b"},"vehicle_type_id":"4","last_reported":1733310509,"current_range_meters":38000,"station_id":"ce4bhqp2rcd13ifvqhng","pricing_plan_id":"cebpf4jnsgd1na2vs0mg"},{"bike_id":"fd105c82-4171-4291-9f54-b4a492c8122c","system_id":"levelo_inurba_marseille","lat":43.25945,"lon":5.40906,"is_reserved":false,"is_disabled":false,"rental_uris":{"android":"levelo://app?vid=fd105c82-4171-4291-9f54-b4a492c8122c","ios":"levelo://app?vid=fd105c82-4171-4291-9f54-b4a492c8122c"},"vehicle_type_id":"4","last_reported":1733310509,"current_range_meters":23200,"station_id":"ce4bhm92rcd13ifvqglg","pricing_plan_id":"cebpf4jnsgd1na2vs0mg"},{"bike_id":"7ab26df3-581f-4927-b8df-f74f48acb7cd","system_id":"levelo_inurba_marseille","lat":43.28433,"lon":5.39184,"is_reserved":false,"is_disabled":true,"rental_uris":{"android":"levelo://app?vid=7ab26df3-581f-4927-b8df-f74f48acb7cd","ios":"levelo://app?vid=7ab26df3-581f-4927-b8df-f74f48acb7cd"},"vehicle_type_id":"4","last_reported":1733310509,"current_range_meters":14000,"station_id":"ce4bhoh2rcd13ifvqh5g","pricing_plan_id":"cebpf4jnsgd1na2vs0mg"},{"bike_id":"5ed53b2e-be7b-4a02-b08f-228938789762","system_id":"levelo_inurba_marseille","lat":43.29628,"lon":5.3771,"is_reserved":false,"is_disabled":false,"rental_uris":{"android":"levelo://app?vid=5ed53b2e-be7b-4a02-b08f-228938789762","ios":"levelo://app?vid=5ed53b2e-be7b-4a02-b08f-228938789762"},"vehicle_type_id":"4","last_reported":1733310509,"current_range_meters":37600,"station_id":"ce4bgi92rcd13ifvqb90","pricing_plan_id":"cebpf4jnsgd1na2vs0mg"},{"bike_id":"b314e948-2a77-40d4-be0f-5b067a6c2769","system_id":"levelo_inurba_marseille","lat":43.32481,"lon":5.3656,"is_reserved":false,"is_disabled":false,"rental_uris":{"android":"levelo://app?vid=b314e948-2a77-40d4-be0f-5b067a6c2769","ios":"levelo://app?vid=b314e948-2a77-40d4-be0f-5b067a6c2769"},"vehicle_type_id":"4","last_reported":1733310509,"current_range_meters":7200,"station_id":"ce4bhs12rcd13ifvqhvg","pricing_plan_id":"cebpf4jnsgd1na2vs0mg"},{"bike_id":"2c8d2315-19d2-4238-b092-c433752488b6","system_id":"levelo_inurba_marseille","lat":43.29368,"lon":5.37861,"is_reserved":false,"is_disabled":true,"rental_uris":{"android":"levelo://app?vid=2c8d2315-19d2-4238-b092-c433752488b6","ios":"levelo://app?vid=2c8d2315-19d2-4238-b092-c433752488b6"},"vehicle_type_id":"4","last_reported":1733310509,"current_range_meters":38800,"station_id":"ce4bgjh2rcd13ifvqbf0","pricing_plan_id":"cebpf4jnsgd1na2vs0mg"},{"bike_id":"923d3b93-07e6-4f72-bab3-f36273ed77ed","system_id":"levelo_inurba_marseille","lat":43.30157,"lon":5.38073,"is_reserved":false,"is_disabled":false,"rental_uris":{"android":"levelo://app?vid=923d3b93-07e6-4f72-bab3-f36273ed77ed","ios":"levelo://app?vid=923d3b93-07e6-4f72-bab3-f36273ed77ed"},"vehicle_type_id":"4","last_reported":1733310509,"current_range_meters":33600,"station_id":"ce4bgjp2rcd13ifvqbh0","pricing_plan_id":"cebpf4jnsgd1na2vs0mg"},{"bike_id":"2774a781-bbc5-40d4-845a-4af26e3e9c27","system_id":"levelo_inurba_marseille","lat":43.29374,"lon":5.37861,"is_reserved":false,"is_disabled":true,"rental_uris":{"android":"levelo://app?vid=2774a781-bbc5-40d4-845a-4af26e3e9c27","ios":"levelo://app?vid=2774a781-bbc5-40d4-845a-4af26e3e9c27"},"vehicle_type_id":"4","last_reported":1733310509,"current_range_meters":35600,"station_id":"ce4bgjh2rcd13ifvqbf0","pricing_plan_id":"cebpf4jnsgd1na2vs0mg"},{"bike_id":"0ab9d44a-3de2-4f33-8f4b-4bd793d5ab63","system_id":"levelo_inurba_marseille","lat":43.27213,"lon":5.39188,"is_reserved":false,"is_disabled":false,"rental_uris":{"android":"levelo://app?vid=0ab9d44a-3de2-4f33-8f4b-4bd793d5ab63","ios":"levelo://app?vid=0ab9d44a-3de2-4f33-8f4b-4bd793d5ab63"},"vehicle_type_id":"4","last_reported":1733310509,"current_range_meters":37600,"station_id":"ce4bhhp2rcd13ifvqfm0","pricing_plan_id":"cebpf4jnsgd1na2vs0mg"},{"bike_id":"a7d200d4-64b9-43cc-9393-2b4729764e2c","system_id":"levelo_inurba_marseille","lat":43.2937,"lon":5.37856,"is_reserved":false,"is_disabled":false,"rental_uris":{"android":"levelo://app?vid=a7d200d4-64b9-43cc-9393-2b4729764e2c","ios":"levelo://app?vid=a7d200d4-64b9-43cc-9393-2b4729764e2c"},"vehicle_type_id":"4","last_reported":1733310509,"current_range_meters":38800,"station_id":"ce4bgjh2rcd13ifvqbf0","pricing_plan_id":"cebpf4jnsgd1na2vs0mg"},{"bike_id":"3e02cb10-c985-4886-b7a1-be6e0793414c","system_id":"levelo_inurba_marseille","lat":43.33764,"lon":5.37451,"is_reserved":false,"is_disabled":false,"rental_uris":{"android":"levelo://app?vid=3e02cb10-c985-4886-b7a1-be6e0793414c","ios":"levelo://app?vid=3e02cb10-c985-4886-b7a1-be6e0793414c"},"vehicle_type_id":"4","last_reported":1733310509,"current_range_meters":9600,"station_id":"","pricing_plan_id":"cebpf4jnsgd1na2vs0mg"},{"bike_id":"fe594fc4-83b4-4bec-8445-9ed4df0cad70","system_id":"levelo_inurba_marseille","lat":43.27179,"lon":5.40994,"is_reserved":false,"is_disabled":false,"rental_uris":{"android":"levelo://app?vid=fe594fc4-83b4-4bec-8445-9ed4df0cad70","ios":"levelo://app?vid=fe594fc4-83b4-4bec-8445-9ed4df0cad70"},"vehicle_type_id":"4","last_reported":1733310509,"current_range_meters":32400,"station_id":"ce4bhl12rcd13ifvqgf0","pricing_plan_id":"cebpf4jnsgd1na2vs0mg"},{"bike_id":"0c3f9311-6bbb-4a0f-b67e-9759ac2851f7","system_id":"levelo_inurba_marseille","lat":43.30094,"lon":5.39076,"is_reserved":false,"is_disabled":false,"rental_uris":{"android":"levelo://app?vid=0c3f9311-6bbb-4a0f-b67e-9759ac2851f7","ios":"levelo://app?vid=0c3f9311-6bbb-4a0f-b67e-9759ac2851f7"},"vehicle_type_id":"4","last_reported":1733310509,"current_range_meters":35200,"station_id":"ce4bh192rcd13ifvqdb0","pricing_plan_id":"cebpf4jnsgd1na2vs0mg"},{"bike_id":"b9679d2f-9e2a-44b6-9cbe-7d235511e737","system_id":"levelo_inurba_marseille","lat":43.3015,"lon":5.38089,"is_reserved":false,"is_disabled":false,"rental_uris":{"android":"levelo://app?vid=b9679d2f-9e2a-44b6-9cbe-7d235511e737","ios":"levelo://app?vid=b9679d2f-9e2a-44b6-9cbe-7d235511e737"},"vehicle_type_id":"4","last_reported":1733310509,"current_range_meters":14800,"station_id":"ce4bgjp2rcd13ifvqbh0","pricing_plan_id":"cebpf4jnsgd1na2vs0mg"},{"bike_id":"0f9b8963-2ffe-4577-9013-69502622904a","system_id":"levelo_inurba_marseille","lat":43.27909,"lon":5.38014,"is_reserved":false,"is_disabled":false,"rental_uris":{"android":"levelo://app?vid=0f9b8963-2ffe-4577-9013-69502622904a","ios":"levelo://app?vid=0f9b8963-2ffe-4577-9013-69502622904a"},"vehicle_type_id":"4","last_reported":1733310509,"current_range_meters":23200,"station_id":"ce4bhf92rcd13ifvqf50","pricing_plan_id":"cebpf4jnsgd1na2vs0mg"},{"bike_id":"3fda9884-10d6-4375-aadc-ef56d0ef5881","system_id":"levelo_inurba_marseille","lat":43.27498,"lon":5.42448,"is_reserved":false,"is_disabled":false,"rental_uris":{"android":"levelo://app?vid=3fda9884-10d6-4375-aadc-ef56d0ef5881","ios":"levelo://app?vid=3fda9884-10d6-4375-aadc-ef56d0ef5881"},"vehicle_type_id":"4","last_reported":1733310509,"current_range_meters":32400,"station_id":"ce4bhn92rcd13ifvqgrg","pricing_plan_id":"cebpf4jnsgd1na2vs0mg"},{"bike_id":"64a2f2d3-c0c8-4087-876c-7ce392a834dc","system_id":"levelo_inurba_marseille","lat":43.30554,"lon":5.36532,"is_reserved":false,"is_disabled":false,"rental_uris":{"android":"levelo://app?vid=64a2f2d3-c0c8-4087-876c-7ce392a834dc","ios":"levelo://app?vid=64a2f2d3-c0c8-4087-876c-7ce392a834dc"},"vehicle_type_id":"4","last_reported":1733310509,"current_range_meters":4000,"station_id":"ce4bgs12rcd13ifvqcag","pricing_plan_id":"cebpf4jnsgd1na2vs0mg"},{"bike_id":"4d449c9e-d8ff-451a-8479-2c844d0db8a2","system_id":"levelo_inurba_marseille","lat":43.30553,"lon":5.36526,"is_reserved":false,"is_disabled":false,"rental_uris":{"android":"levelo://app?vid=4d449c9e-d8ff-451a-8479-2c844d0db8a2","ios":"levelo://app?vid=4d449c9e-d8ff-451a-8479-2c844d0db8a2"},"vehicle_type_id":"4","last_reported":1733310509,"current_range_meters":36400,"station_id":"ce4bgs12rcd13ifvqcag","pricing_plan_id":"cebpf4jnsgd1na2vs0mg"},{"bike_id":"afee990f-b1ca-4562-adf0-5c85af5d126c","system_id":"levelo_inurba_marseille","lat":43.2603,"lon":5.37548,"is_reserved":false,"is_disabled":false,"rental_uris":{"android":"levelo://app?vid=afee990f-b1ca-4562-adf0-5c85af5d126c","ios":"levelo://app?vid=afee990f-b1ca-4562-adf0-5c85af5d126c"},"vehicle_type_id":"4","last_reported":1733310509,"current_range_meters":30000,"station_id":"ce4bhgh2rcd13ifvqfa0","pricing_plan_id":"cebpf4jnsgd1na2vs0mg"},{"bike_id":"d8e3b232-57f9-4442-a6bf-993d4e806d2e","system_id":"levelo_inurba_marseille","lat":43.27325,"lon":5.39093,"is_reserved":false,"is_disabled":false,"rental_uris":{"android":"levelo://app?vid=d8e3b232-57f9-4442-a6bf-993d4e806d2e","ios":"levelo://app?vid=d8e3b232-57f9-4442-a6bf-993d4e806d2e"},"vehicle_type_id":"4","last_reported":1733310509,"current_range_meters":38800,"station_id":"ce4bhgp2rcd13ifvqfe0","pricing_plan_id":"cebpf4jnsgd1na2vs0mg"},{"bike_id":"f2c12737-2891-4c95-a70a-11838f086cfd","system_id":"levelo_inurba_marseille","lat":43.28269,"lon":5.3506,"is_reserved":false,"is_disabled":false,"rental_uris":{"android":"levelo://app?vid=f2c12737-2891-4c95-a70a-11838f086cfd","ios":"levelo://app?vid=f2c12737-2891-4c95-a70a-11838f086cfd"},"vehicle_type_id":"4","last_reported":1733310509,"current_range_meters":38000,"station_id":"ce4bhbp2rcd13ifvqerg","pricing_plan_id":"cebpf4jnsgd1na2vs0mg"},{"bike_id":"be8cd377-bf58-414c-876c-45495911bc5b","system_id":"levelo_inurba_marseille","lat":43.28692,"lon":5.41076,"is_reserved":false,"is_disabled":true,"rental_uris":{"android":"levelo://app?vid=be8cd377-bf58-414c-876c-45495911bc5b","ios":"levelo://app?vid=be8cd377-bf58-414c-876c-45495911bc5b"},"vehicle_type_id":"4","last_reported":1733310509,"current_range_meters":9600,"station_id":"","pricing_plan_id":"cebpf4jnsgd1na2vs0mg"},{"bike_id":"b4ba6be9-8f9d-4e53-b9bc-5461ab513aa4","system_id":"levelo_inurba_marseille","lat":43.3078,"lon":5.36846,"is_reserved":false,"is_disabled":false,"rental_uris":{"android":"levelo://app?vid=b4ba6be9-8f9d-4e53-b9bc-5461ab513aa4","ios":"levelo://app?vid=b4ba6be9-8f9d-4e53-b9bc-5461ab513aa4"},"vehicle_type_id":"4","last_reported":1733310509,"current_range_meters":26000,"station_id":"","pricing_plan_id":"cebpf4jnsgd1na2vs0mg"},{"bike_id":"785c1952-09b9-47ca-a69e-52dff44de0cc","system_id":"levelo_inurba_marseille","lat":43.30145,"lon":5.38081,"is_reserved":false,"is_disabled":false,"rental_uris":{"android":"levelo://app?vid=785c1952-09b9-47ca-a69e-52dff44de0cc","ios":"levelo://app?vid=785c1952-09b9-47ca-a69e-52dff44de0cc"},"vehicle_type_id":"4","last_reported":1733310509,"current_range_meters":38800,"station_id":"ce4bgjp2rcd13ifvqbh0","pricing_plan_id":"cebpf4jnsgd1na2vs0mg"},{"bike_id":"0770995c-964d-42cb-80de-55f4fd5ee79a","system_id":"levelo_inurba_marseille","lat":43.337444,"lon":5.374475,"is_reserved":false,"is_disabled":false,"rental_uris":{"android":"levelo://app?vid=0770995c-964d-42cb-80de-55f4fd5ee79a","ios":"levelo://app?vid=0770995c-964d-42cb-80de-55f4fd5ee79a"},"vehicle_type_id":"4","last_reported":1733310509,"current_range_meters":28000,"station_id":"","pricing_plan_id":"cebpf4jnsgd1na2vs0mg"},{"bike_id":"ab74d258-8d56-4ed9-9cb7-57ae1639ee73","system_id":"levelo_inurba_marseille","lat":43.26312,"lon":5.40146,"is_reserved":false,"is_disabled":true,"rental_uris":{"android":"levelo://app?vid=ab74d258-8d56-4ed9-9cb7-57ae1639ee73","ios":"levelo://app?vid=ab74d258-8d56-4ed9-9cb7-57ae1639ee73"},"vehicle_type_id":"4","last_reported":1733310509,"current_range_meters":0,"station_id":"","pricing_plan_id":"cebpf4jnsgd1na2vs0mg"},{"bike_id":"8bbb9b85-57d3-49b0-b570-a848b3723897","system_id":"levelo_inurba_marseille","lat":43.33758,"lon":5.37443,"is_reserved":false,"is_disabled":false,"rental_uris":{"android":"levelo://app?vid=8bbb9b85-57d3-49b0-b570-a848b3723897","ios":"levelo://app?vid=8bbb9b85-57d3-49b0-b570-a848b3723897"},"vehicle_type_id":"4","last_reported":1733310509,"current_range_meters":12000,"station_id":"","pricing_plan_id":"cebpf4jnsgd1na2vs0mg"},{"bike_id":"53448c35-fd7b-470d-93f4-914eba620da6","system_id":"levelo_inurba_marseille","lat":43.2848,"lon":5.38419,"is_reserved":false,"is_disabled":true,"rental_uris":{"android":"levelo://app?vid=53448c35-fd7b-470d-93f4-914eba620da6","ios":"levelo://app?vid=53448c35-fd7b-470d-93f4-914eba620da6"},"vehicle_type_id":"4","last_reported":1733310509,"current_range_meters":0,"station_id":"ce4bh512rcd13ifvqe3g","pricing_plan_id":"cebpf4jnsgd1na2vs0mg"},{"bike_id":"856273c8-d528-453a-8d07-904829f899a4","system_id":"levelo_inurba_marseille","lat":43.32483,"lon":5.36569,"is_reserved":false,"is_disabled":false,"rental_uris":{"android":"levelo://app?vid=856273c8-d528-453a-8d07-904829f899a4","ios":"levelo://app?vid=856273c8-d528-453a-8d07-904829f899a4"},"vehicle_type_id":"4","last_reported":1733310509,"current_range_meters":35200,"station_id":"ce4bhs12rcd13ifvqhvg","pricing_plan_id":"cebpf4jnsgd1na2vs0mg"},{"bike_id":"1e3b244b-01f0-4705-b4bb-7d9321766018","system_id":"levelo_inurba_marseille","lat":43.25939,"lon":5.40904,"is_reserved":false,"is_disabled":false,"rental_uris":{"android":"levelo://app?vid=1e3b244b-01f0-4705-b4bb-7d9321766018","ios":"levelo://app?vid=1e3b244b-01f0-4705-b4bb-7d9321766018"},"vehicle_type_id":"4","last_reported":1733310509,"current_range_meters":19200,"station_id":"ce4bhm92rcd13ifvqglg","pricing_plan_id":"cebpf4jnsgd1na2vs0mg"},{"bike_id":"0fa26af9-c06f-4b84-81e6-82d46c154255","system_id":"levelo_inurba_marseille","lat":43.26035,"lon":5.37548,"is_reserved":false,"is_disabled":false,"rental_uris":{"android":"levelo://app?vid=0fa26af9-c06f-4b84-81e6-82d46c154255","ios":"levelo://app?vid=0fa26af9-c06f-4b84-81e6-82d46c154255"},"vehicle_type_id":"4","last_reported":1733310509,"current_range_meters":28800,"station_id":"ce4bhgh2rcd13ifvqfa0","pricing_plan_id":"cebpf4jnsgd1na2vs0mg"},{"bike_id":"cf83515d-2450-4a70-bdcc-4e63d356604a","system_id":"levelo_inurba_marseille","lat":43.26504,"lon":5.39534,"is_reserved":false,"is_disabled":false,"rental_uris":{"android":"levelo://app?vid=cf83515d-2450-4a70-bdcc-4e63d356604a","ios":"levelo://app?vid=cf83515d-2450-4a70-bdcc-4e63d356604a"},"vehicle_type_id":"4","last_reported":1733310509,"current_range_meters":36800,"station_id":"ce4bhi12rcd13ifvqfq0","pricing_plan_id":"cebpf4jnsgd1na2vs0mg"},{"bike_id":"26fa3ce5-c9bd-48dd-9442-1900b160fe28","system_id":"levelo_inurba_marseille","lat":43.26948,"lon":5.38635,"is_reserved":false,"is_disabled":false,"rental_uris":{"android":"levelo://app?vid=26fa3ce5-c9bd-48dd-9442-1900b160fe28","ios":"levelo://app?vid=26fa3ce5-c9bd-48dd-9442-1900b160fe28"},"vehicle_type_id":"4","last_reported":1733310509,"current_range_meters":22800,"station_id":"ce4bhh92rcd13ifvqfh0","pricing_plan_id":"cebpf4jnsgd1na2vs0mg"},{"bike_id":"d3f4ca1c-daf2-48fd-8282-538091691784","system_id":"levelo_inurba_marseille","lat":43.30313,"lon":5.36916,"is_reserved":false,"is_disabled":false,"rental_uris":{"android":"levelo://app?vid=d3f4ca1c-daf2-48fd-8282-538091691784","ios":"levelo://app?vid=d3f4ca1c-daf2-48fd-8282-538091691784"},"vehicle_type_id":"4","last_reported":1733310509,"current_range_meters":34000,"station_id":"ce4bgqh2rcd13ifvqc5g","pricing_plan_id":"cebpf4jnsgd1na2vs0mg"},{"bike_id":"a64d3e56-4093-4d3d-9a45-844538edcdee","system_id":"levelo_inurba_marseille","lat":43.30917,"lon":5.36828,"is_reserved":false,"is_disabled":false,"rental_uris":{"android":"levelo://app?vid=a64d3e56-4093-4d3d-9a45-844538edcdee","ios":"levelo://app?vid=a64d3e56-4093-4d3d-9a45-844538edcdee"},"vehicle_type_id":"4","last_reported":1733310509,"current_range_meters":38800,"station_id":"ce4bgn92rcd13ifvqbvg","pricing_plan_id":"cebpf4jnsgd1na2vs0mg"},{"bike_id":"c84f3c55-dd4c-43c7-a714-6054312202fa","system_id":"levelo_inurba_marseille","lat":43.24811,"lon":5.37457,"is_reserved":false,"is_disabled":false,"rental_uris":{"android":"levelo://app?vid=c84f3c55-dd4c-43c7-a714-6054312202fa","ios":"levelo://app?vid=c84f3c55-dd4c-43c7-a714-6054312202fa"},"vehicle_type_id":"4","last_reported":1733310509,"current_range_meters":12000,"station_id":"ce4bhgh2rcd13ifvqfb0","pricing_plan_id":"cebpf4jnsgd1na2vs0mg"},{"bike_id":"ab5c321a-cea0-4987-812f-2edfcd8830c5","system_id":"levelo_inurba_marseille","lat":43.27206,"lon":5.39172,"is_reserved":false,"is_disabled":false,"rental_uris":{"android":"levelo://app?vid=ab5c321a-cea0-4987-812f-2edfcd8830c5","ios":"levelo://app?vid=ab5c321a-cea0-4987-812f-2edfcd8830c5"},"vehicle_type_id":"4","last_reported":1733310509,"current_range_meters":38800,"station_id":"ce4bhhp2rcd13ifvqfm0","pricing_plan_id":"cebpf4jnsgd1na2vs0mg"},{"bike_id":"48693a2a-393c-462a-8603-b8ab0f6ea0be","system_id":"levelo_inurba_marseille","lat":43.28855,"lon":5.39329,"is_reserved":false,"is_disabled":true,"rental_uris":{"android":"levelo://app?vid=48693a2a-393c-462a-8603-b8ab0f6ea0be","ios":"levelo://app?vid=48693a2a-393c-462a-8603-b8ab0f6ea0be"},"vehicle_type_id":"4","last_reported":1733310509,"current_range_meters":38800,"station_id":"ce4bh2p2rcd13ifvqdi0","pricing_plan_id":"cebpf4jnsgd1na2vs0mg"},{"bike_id":"ab4c21d4-a275-4527-bec0-e4890ed042ae","system_id":"levelo_inurba_marseille","lat":43.29671,"lon":5.36883,"is_reserved":false,"is_disabled":true,"rental_uris":{"android":"levelo://app?vid=ab4c21d4-a275-4527-bec0-e4890ed042ae","ios":"levelo://app?vid=ab4c21d4-a275-4527-bec0-e4890ed042ae"},"vehicle_type_id":"4","last_reported":1733310509,"current_range_meters":0,"station_id":"","pricing_plan_id":"cebpf4jnsgd1na2vs0mg"},{"bike_id":"42897af2-9dd3-4f7b-8840-70d82ae7eab9","system_id":"levelo_inurba_marseille","lat":43.28624,"lon":5.39889,"is_reserved":false,"is_disabled":false,"rental_uris":{"android":"levelo://app?vid=42897af2-9dd3-4f7b-8840-70d82ae7eab9","ios":"levelo://app?vid=42897af2-9dd3-4f7b-8840-70d82ae7eab9"},"vehicle_type_id":"4","last_reported":1733310509,"current_range_meters":23200,"station_id":"ce4bhgp2rcd13ifvqfd0","pricing_plan_id":"cebpf4jnsgd1na2vs0mg"},{"bike_id":"794f71ae-3e4a-48f3-a0c0-f04aecf4c7dc","system_id":"levelo_inurba_marseille","lat":43.28657,"lon":5.36341,"is_reserved":false,"is_disabled":true,"rental_uris":{"android":"levelo://app?vid=794f71ae-3e4a-48f3-a0c0-f04aecf4c7dc","ios":"levelo://app?vid=794f71ae-3e4a-48f3-a0c0-f04aecf4c7dc"},"vehicle_type_id":"4","last_reported":1733310509,"current_range_meters":20400,"station_id":"ce4bhah2rcd13ifvqej0","pricing_plan_id":"cebpf4jnsgd1na2vs0mg"},{"bike_id":"5703be11-03c6-42c9-ac7c-00ef144215c3","system_id":"levelo_inurba_marseille","lat":43.2962,"lon":5.37164,"is_reserved":false,"is_disabled":false,"rental_uris":{"android":"levelo://app?vid=5703be11-03c6-42c9-ac7c-00ef144215c3","ios":"levelo://app?vid=5703be11-03c6-42c9-ac7c-00ef144215c3"},"vehicle_type_id":"4","last_reported":1733310509,"current_range_meters":25600,"station_id":"ce4bgnh2rcd13ifvqc0g","pricing_plan_id":"cebpf4jnsgd1na2vs0mg"},{"bike_id":"f7e0f85b-df2d-488b-8e46-1cfe25a71773","system_id":"levelo_inurba_marseille","lat":43.3236,"lon":5.36766,"is_reserved":false,"is_disabled":false,"rental_uris":{"android":"levelo://app?vid=f7e0f85b-df2d-488b-8e46-1cfe25a71773","ios":"levelo://app?vid=f7e0f85b-df2d-488b-8e46-1cfe25a71773"},"vehicle_type_id":"4","last_reported":1733310509,"current_range_meters":33200,"station_id":"ce4bhsh2rcd13ifvqi2g","pricing_plan_id":"cebpf4jnsgd1na2vs0mg"},{"bike_id":"bb84fda8-4bfc-4579-a3eb-ba35aad1f1e9","system_id":"levelo_inurba_marseille","lat":43.31445,"lon":5.37422,"is_reserved":false,"is_disabled":false,"rental_uris":{"android":"levelo://app?vid=bb84fda8-4bfc-4579-a3eb-ba35aad1f1e9","ios":"levelo://app?vid=bb84fda8-4bfc-4579-a3eb-ba35aad1f1e9"},"vehicle_type_id":"4","last_reported":1733310509,"current_range_meters":14000,"station_id":"","pricing_plan_id":"cebpf4jnsgd1na2vs0mg"},