{"last_updated":1704298145,"ttl":30,"version":"2.2","data":{"bikes":[{"bike_id":"8337351c-d687-461c-9249-f0b210ad98b7","system_id":"levelo_inurba_marseille","lat":43.313555,"lon":5.367019,"is_reserved":false,"is_disabled":false,"rental_uris":{"android":"levelo://app?vid=8337351c-d687-461c-9249-f0b210ad98b7","ios":"levelo://app?vid=8337351c-d687-461c-9249-f0b210ad98b7"},"vehicle_type_id":"4","last_reported":1704298145,"current_range_meters":17600,"station_id":"ce4bgr92rcd13ifvqc6g","pricing_plan_id":"free"},{"bike_id":"3a5a8258-3bb9-47e5-9a89-458e232ebb9d","system_id":"levelo_inurba_marseille","lat":43.313567,"lon":5.367074,"is_reserved":false,"is_disabled":false,"rental_uris":{"android":"levelo://app?vid=3a5a8258-3bb9-47e5-9a89-458e232ebb9d","ios":"levelo://app?vid=3a5a8258-3bb9-47e5-9a89-458e232ebb9d"},"vehicle_type_id":"4","last_reported":1704298145,"current_range_meters":28400,"station_id":"ce4bgr92rcd13ifvqc6g","pricing_plan_id":"free"},{"bike_id":"45d4351e-1998-4853-82fe-4bf7b4bcfec8","system_id":"levelo_inurba_marseille","lat":43.312239,"lon":5.368562,"is_reserved":false,"is_disabled":false,"rental_uris":{"android":"levelo://app?vid=45d4351e-1998-4853-82fe-4bf7b4bcfec8","ios":"levelo://app?vid=45d4351e-1998-4853-82fe-4bf7b4bcfec8"},"vehicle_type_id":"4","last_reported":1704298145,"current_range_meters":16800,"station_id":"ce4bgl92rcd13ifvqbq0","pricing_plan_id":"free"},{"bike_id":"d2f517b1-a95e-4258-bb24-1821041c0f5a","system_id":"levelo_inurba_marseille","lat":43.312239,"lon":5.368562,"is_reserved":false,"is_disabled":false,"rental_uris":{"android":"levelo://app?vid=d2f517b1-a95e-4258-bb24-1821041c0f5a","ios":"levelo://app?vid=d2f517b1-a95e-4258-bb24-1821041c0f5a"},"vehicle_type_id":"4","last_reported":1704298145,"current_range_meters":20400,"station_id":"ce4bgl92rcd13ifvqbq0","pricing_plan_id":"free"},{"bike_id":"8943d2ea-4f69-42f6-8425-64e1da865862","system_id":"levelo_inurba_marseille","lat":43.309076,"lon":5.368465,"is_reserved":false,"is_disabled":false,"rental_uris":{"android":"levelo://app?vid=8943d2ea-4f69-42f6-8425-64e1da865862","ios":"levelo://app?vid=8943d2ea-4f69-42f6-8425-64e1da865862"},"vehicle_type_id":"4","last_reported":1704298145,"current_range_meters":16400,"station_id":"ce4bgn92rcd13ifvqbvg","pricing_plan_id":"free"},{"bike_id":"4fbbe6ef-578c-43b8-ae05-6f1edf72f3f5","system_id":"levelo_inurba_marseille","lat":43.309076,"lon":5.368465,"is_reserved":false,"is_disabled":false,"rental_uris":{"android":"levelo://app?vid=4fbbe6ef-578c-43b8-ae05-6f1edf72f3f5","ios":"levelo://app?vid=4fbbe6ef-578c-43b8-ae05-6f1edf72f3f5"},"vehicle_type_id":"4","last_reported":1704298145,"current_range_meters":22800,"station_id":"ce4bgn92rcd13ifvqbvg","pricing_plan_id":"free"},{"bike_id":"f6820b54-84c0-43f6-a2c1-592971d9b437","system_id":"levelo_inurba_marseille","lat":43.309076,"lon":5.368465,"is_reserved":false,"is_disabled":false,"rental_uris":{"android":"levelo://app?vid=f6820b54-84c0-43f6-a2c1-592971d9b437","ios":"levelo://app?vid=f6820b54-84c0-43f6-a2c1-592971d9b437"},"vehicle_type_id":"4","last_reported":1704298145,"current_range_meters":23600,"station_id":"ce4bgn92rcd13ifvqbvg","pricing_plan_id":"free"},{"bike_id":"7f3c9769-b17e-45a5-bef1-cff146855625","system_id":"levelo_inurba_marseille","lat":43.309076,"lon":5.368465,"is_reserved":false,"is_disabled":false,"rental_uris":{"android":"levelo://app?vid=7f3c9769-b17e-45a5-bef1-cff146855625","ios":"levelo://app?vid=7f3c9769-b17e-45a5-bef1-cff146855625"},"vehicle_type_id":"4","last_reported":1704298145,"current_range_meters":30800,"station_id":"ce4bgn92rcd13ifvqbvg","pricing_plan_id":"free"},{"bike_id":"0e8ece81-5a89-4693-b9c5-06816dd909c1","system_id":"levelo_inurba_marseille","lat":43.309076,"lon":5.368465,"is_reserved":false,"is_disabled":false,"rental_uris":{"android":"levelo://app?vid=0e8ece81-5a89-4693-b9c5-06816dd909c1","ios":"levelo://app?vid=0e8ece81-5a89-4693-b9c5-06816dd909c1"},"vehicle_type_id":"4","last_reported":1704298145,"current_range_meters":31200,"station_id":"ce4bgn92rcd13ifvqbvg","pricing_plan_id":"free"},{"bike_id":"3d10cac9-e276-4769-b09e-c0e841c5d3a0","system_id":"levelo_inurba_marseille","lat":43.314811,"lon":5.373103,"is_reserved":false,"is_disabled":false,"rental_uris":{"android":"levelo://app?vid=3d10cac9-e276-4769-b09e-c0e841c5d3a0","ios":"levelo://app?vid=3d10cac9-e276-4769-b09e-c0e841c5d3a0"},"vehicle_type_id":"4","last_reported":1704298145,"current_range_meters":19200,"station_id":"ce4bgt12rcd13ifvqcd0","pricing_plan_id":"free"},{"bike_id":"4714a5c4-a8cc-4065-a2b1-3d373b1e795a","system_id":"levelo_inurba_marseille","lat":43.314811,"lon":5.373104,"is_reserved":false,"is_disabled":false,"rental_uris":{"android":"levelo://app?vid=4714a5c4-a8cc-4065-a2b1-3d373b1e795a","ios":"levelo://app?vid=4714a5c4-a8cc-4065-a2b1-3d373b1e795a"},"vehicle_type_id":"4","last_reported":1704298145,"current_range_meters":23600,"station_id":"ce4bgt12rcd13ifvqcd0","pricing_plan_id":"free"},{"bike_id":"ee87bfb0-0e4d-4eab-a5e3-0db3e7ca63fd","system_id":"levelo_inurba_marseille","lat":43.309039,"lon":5.371797,"is_reserved":false,"is_disabled":false,"rental_uris":{"android":"levelo://app?vid=ee87bfb0-0e4d-4eab-a5e3-0db3e7ca63fd","ios":"levelo://app?vid=ee87bfb0-0e4d-4eab-a5e3-0db3e7ca63fd"},"vehicle_type_id":"4","last_reported":1704298145,"current_range_meters":23600,"station_id":"ce4bguh2rcd13ifvqckg","pricing_plan_id":"free"},{"bike_id":"18d2a3ab-5b4a-4f0e-95fe-d5f02966369e","system_id":"levelo_inurba_marseille","lat":43.305368,"lon":5.367343,"is_reserved":false,"is_disabled":false,"rental_uris":{"android":"levelo://app?vid=18d2a3ab-5b4a-4f0e-95fe-d5f02966369e","ios":"levelo://app?vid=18d2a3ab-5b4a-4f0e-95fe-d5f02966369e"},"vehicle_type_id":"4","last_reported":1704298145,"current_range_meters":0,"station_id":"ce4bgrp2rcd13ifvqc9g","pricing_plan_id":"free"},{"bike_id":"71fab07a-e09a-43a7-ae6e-e1b39f3c534d","system_id":"levelo_inurba_marseille","lat":43.305706,"lon":5.365654,"is_reserved":false,"is_disabled":false,"rental_uris":{"android":"levelo://app?vid=71fab07a-e09a-43a7-ae6e-e1b39f3c534d","ios":"levelo://app?vid=71fab07a-e09a-43a7-ae6e-e1b39f3c534d"},"vehicle_type_id":"4","last_reported":1704298145,"current_range_meters":12000,"station_id":"ce4bgs12rcd13ifvqcag","pricing_plan_id":"free"},{"bike_id":"98e018eb-c5a9-453a-9839-3144125f5acd","system_id":"levelo_inurba_marseille","lat":43.305368,"lon":5.367343,"is_reserved":false,"is_disabled":false,"rental_uris":{"android":"levelo://app?vid=98e018eb-c5a9-453a-9839-3144125f5acd","ios":"levelo://app?vid=98e018eb-c5a9-453a-9839-3144125f5acd"},"vehicle_type_id":"4","last_reported":1704298145,"current_range_meters":26000,"station_id":"ce4bgrp2rcd13ifvqc9g","pricing_plan_id":"free"},{"bike_id":"450d26f8-8e50-4faf-8249-5269b1160e83","system_id":"levelo_inurba_marseille","lat":43.305706,"lon":5.365654,"is_reserved":false,"is_disabled":false,"rental_uris":{"android":"levelo://app?vid=450d26f8-8e50-4faf-8249-5269b1160e83","ios":"levelo://app?vid=450d26f8-8e50-4faf-8249-5269b1160e83"},"vehicle_type_id":"4","last_reported":1704298145,"current_range_meters":29600,"station_id":"ce4bgs12rcd13ifvqcag","pricing_plan_id":"free"},{"bike_id":"4553956e-5345-4f1a-8642-5bc9c0e34e14","system_id":"levelo_inurba_marseille","lat":43.305989,"lon":5.37225,"is_reserved":false,"is_disabled":false,"rental_uris":{"android":"levelo://app?vid=4553956e-5345-4f1a-8642-5bc9c0e34e14","ios":"levelo://app?vid=4553956e-5345-4f1a-8642-5bc9c0e34e14"},"vehicle_type_id":"4","last_reported":1704298145,"current_range_meters":26800,"station_id":"ce4bgqh2rcd13ifvqc4g","pricing_plan_id":"free"},{"bike_id":"87cffe01-336b-4b08-b822-0a87da4f74c8","system_id":"levelo_inurba_marseille","lat":43.305989,"lon":5.37225,"is_reserved":false,"is_disabled":false,"rental_uris":{"android":"levelo://app?vid=87cffe01-336b-4b08-b822-0a87da4f74c8","ios":"levelo://app?vid=87cffe01-336b-4b08-b822-0a87da4f74c8"},"vehicle_type_id":"4","last_reported":1704298145,"current_range_meters":9200,"station_id":"ce4bgqh2rcd13ifvqc4g","pricing_plan_id":"free"},{"bike_id":"c4c84eb3-206b-441f-9297-155d4520173d","system_id":"levelo_inurba_marseille","lat":43.311131,"lon":5.377651,"is_reserved":false,"is_disabled":false,"rental_uris":{"android":"levelo://app?vid=c4c84eb3-206b-441f-9297-155d4520173d","ios":"levelo://app?vid=c4c84eb3-206b-441f-9297-155d4520173d"},"vehicle_type_id":"4","last_reported":1704298145,"current_range_meters":19600,"station_id":"ce4bgt92rcd13ifvqcg0","pricing_plan_id":"free"},{"bike_id":"d31766e6-9985-4530-9870-f414d30574ef","system_id":"levelo_inurba_marseille","lat":43.311131,"lon":5.377651,"is_reserved":false,"is_disabled":false,"rental_uris":{"android":"levelo://app?vid=d31766e6-9985-4530-9870-f414d30574ef","ios":"levelo://app?vid=d31766e6-9985-4530-9870-f414d30574ef"},"vehicle_type_id":"4","last_reported":1704298145,"current_range_meters":5200,"station_id":"ce4bgt92rcd13ifvqcg0","pricing_plan_id":"free"},{"bike_id":"81f6976a-b3fd-4e68-a432-91da735ab64c","system_id":"levelo_inurba_marseille","lat":43.31113,"lon":5.37771,"is_reserved":false,"is_disabled":false,"rental_uris":{"android":"levelo://app?vid=81f6976a-b3fd-4e68-a432-91da735ab64c","ios":"levelo://app?vid=81f6976a-b3fd-4e68-a432-91da735ab64c"},"vehicle_type_id":"4","last_reported":1704298145,"current_range_meters":28800,"station_id":"ce4bgt92rcd13ifvqcg0","pricing_plan_id":"free"},{"bike_id":"bbd3ec65-2fb2-45f3-a8c4-9315db400b73","system_id":"levelo_inurba_marseille","lat":43.311131,"lon":5.377651,"is_reserved":false,"is_disabled":false,"rental_uris":{"android":"levelo://app?vid=bbd3ec65-2fb2-45f3-a8c4-9315db400b73","ios":"levelo://app?vid=bbd3ec65-2fb2-45f3-a8c4-9315db400b73"},"vehicle_type_id":"4","last_reported":1704298145,"current_range_meters":3600,"station_id":"ce4bgt92rcd13ifvqcg0","pricing_plan_id":"free"},{"bike_id":"c2775606-fc04-48a8-8700-1cc14f96a7e9","system_id":"levelo_inurba_marseille","lat":43.310707,"lon":5.378743,"is_reserved":false,"is_disabled":false,"rental_uris":{"android":"levelo://app?vid=c2775606-fc04-48a8-8700-1cc14f96a7e9","ios":"levelo://app?vid=c2775606-fc04-48a8-8700-1cc14f96a7e9"},"vehicle_type_id":"4","last_reported":1704298145,"current_range_meters":16800,"station_id":"","pricing_plan_id":"free"},{"bike_id":"c4e90871-bb94-4085-82dc-ccbd997a22ca","system_id":"levelo_inurba_marseille","lat":43.31522,"lon":5.379089,"is_reserved":false,"is_disabled":false,"rental_uris":{"android":"levelo://app?vid=c4e90871-bb94-4085-82dc-ccbd997a22ca","ios":"levelo://app?vid=c4e90871-bb94-4085-82dc-ccbd997a22ca"},"vehicle_type_id":"4","last_reported":1704298145,"current_range_meters":22800,"station_id":"","pricing_plan_id":"free"},{"bike_id":"9176c737-9868-4d7d-a6c8-f73d8ef3d871","system_id":"levelo_inurba_marseille","lat":43.301939,"lon":5.366286,"is_reserved":false,"is_disabled":false,"rental_uris":{"android":"levelo://app?vid=9176c737-9868-4d7d-a6c8-f73d8ef3d871","ios":"levelo://app?vid=9176c737-9868-4d7d-a6c8-f73d8ef3d871"},"vehicle_type_id":"4","last_reported":1704298145,"current_range_meters":24800,"station_id":"ce4bgrh2rcd13ifvqc8g","pricing_plan_id":"free"},{"bike_id":"4a9311c4-4db5-4367-b1f7-d435bd185033","system_id":"levelo_inurba_marseille","lat":43.31903,"lon":5.3792,"is_reserved":false,"is_disabled":false,"rental_uris":{"android":"levelo://app?vid=4a9311c4-4db5-4367-b1f7-d435bd185033","ios":"levelo://app?vid=4a9311c4-4db5-4367-b1f7-d435bd185033"},"vehicle_type_id":"4","last_reported":1704298145,"current_range_meters":10400,"station_id":"","pricing_plan_id":"free"},{"bike_id":"5a08a2ed-f59d-4079-b5e4-2586a890c227","system_id":"levelo_inurba_marseille","lat":43.308012,"lon":5.381511,"is_reserved":false,"is_disabled":false,"rental_uris":{"android":"levelo://app?vid=5a08a2ed-f59d-4079-b5e4-2586a890c227","ios":"levelo://app?vid=5a08a2ed-f59d-4079-b5e4-2586a890c227"},"vehicle_type_id":"4","last_reported":1704298145,"current_range_meters":20400,"station_id":"ce4bgt12rcd13ifvqce0","pricing_plan_id":"free"},{"bike_id":"8b0c95da-c695-4150-abe3-e95d5ae267b8","system_id":"levelo_inurba_marseille","lat":43.308012,"lon":5.381511,"is_reserved":false,"is_disabled":false,"rental_uris":{"android":"levelo://app?vid=8b0c95da-c695-4150-abe3-e95d5ae267b8","ios":"levelo://app?vid=8b0c95da-c695-4150-abe3-e95d5ae267b8"},"vehicle_type_id":"4","last_reported":1704298145,"current_range_meters":25200,"station_id":"ce4bgt12rcd13ifvqce0","pricing_plan_id":"free"},{"bike_id":"b4d7e71a-aa9f-44e6-98e1-feb176edd3a8","system_id":"levelo_inurba_marseille","lat":43.308012,"lon":5.381511,"is_reserved":false,"is_disabled":false,"rental_uris":{"android":"levelo://app?vid=b4d7e71a-aa9f-44e6-98e1-feb176edd3a8","ios":"levelo://app?vid=b4d7e71a-aa9f-44e6-98e1-feb176edd3a8"},"vehicle_type_id":"4","last_reported":1704298145,"current_range_meters":10800,"station_id":"ce4bgt12rcd13ifvqce0","pricing_plan_id":"free"},{"bike_id":"5377074b-30e2-4d67-825b-9deb3b1dbed3","system_id":"levelo_inurba_marseille","lat":43.304708,"lon":5.379039,"is_reserved":false,"is_disabled":false,"rental_uris":{"android":"levelo://app?vid=5377074b-30e2-4d67-825b-9deb3b1dbed3","ios":"levelo://app?vid=5377074b-30e2-4d67-825b-9deb3b1dbed3"},"vehicle_type_id":"4","last_reported":1704298145,"current_range_meters":6800,"station_id":"","pricing_plan_id":"free"},{"bike_id":"0e26b052-7c93-4167-9144-08278ad2e248","system_id":"levelo_inurba_marseille","lat":43.304606,"lon":5.379026,"is_reserved":false,"is_disabled":false,"rental_uris":{"android":"levelo://app?vid=0e26b052-7c93-4167-9144-08278ad2e248","ios":"levelo://app?vid=0e26b052-7c93-4167-9144-08278ad2e248"},"vehicle_type_id":"4","last_reported":1704298145,"current_range_meters":24800,"station_id":"ce4bgup2rcd13ifvqcn0","pricing_plan_id":"free"},{"bike_id":"985ca8e3-907a-4e63-8e80-810aba023629","system_id":"levelo_inurba_marseille","lat":43.304606,"lon":5.379026,"is_reserved":false,"is_disabled":false,"rental_uris":{"android":"levelo://app?vid=985ca8e3-907a-4e63-8e80-810aba023629","ios":"levelo://app?vid=985ca8e3-907a-4e63-8e80-810aba023629"},"vehicle_type_id":"4","last_reported":1704298145,"current_range_meters":22400,"station_id":"ce4bgup2rcd13ifvqcn0","pricing_plan_id":"free"},{"bike_id":"dbf03377-24b6-4fc4-8b30-947789b9798c","system_id":"levelo_inurba_marseille","lat":43.304606,"lon":5.379026,"is_reserved":false,"is_disabled":false,"rental_uris":{"android":"levelo://app?vid=dbf03377-24b6-4fc4-8b30-947789b9798c","ios":"levelo://app?vid=dbf03377-24b6-4fc4-8b30-947789b9798c"},"vehicle_type_id":"4","last_reported":1704298145,"current_range_meters":18000,"station_id":"ce4bgup2rcd13ifvqcn0","pricing_plan_id":"free"},{"bike_id":"b884f105-5d0a-4ca4-853f-b8ea8664e838","system_id":"levelo_inurba_marseille","lat":43.304606,"lon":5.379026,"is_reserved":false,"is_disabled":false,"rental_uris":{"android":"levelo://app?vid=b884f105-5d0a-4ca4-853f-b8ea8664e838","ios":"levelo://app?vid=b884f105-5d0a-4ca4-853f-b8ea8664e838"},"vehicle_type_id":"4","last_reported":1704298145,"current_range_meters":27200,"station_id":"ce4bgup2rcd13ifvqcn0","pricing_plan_id":"free"},{"bike_id":"88998c4d-7e30-4219-a90f-3f53bde7de64","system_id":"levelo_inurba_marseille","lat":43.30463,"lon":5.37904,"is_reserved":false,"is_disabled":false,"rental_uris":{"android":"levelo://app?vid=88998c4d-7e30-4219-a90f-3f53bde7de64","ios":"levelo://app?vid=88998c4d-7e30-4219-a90f-3f53bde7de64"},"vehicle_type_id":"4","last_reported":1704298145,"current_range_meters":23200,"station_id":"ce4bgup2rcd13ifvqcn0","pricing_plan_id":"free"},{"bike_id":"66d37b81-6b82-4a50-9a95-64b4cef5aa8b","system_id":"levelo_inurba_marseille","lat":43.304606,"lon":5.379026,"is_reserved":false,"is_disabled":false,"rental_uris":{"android":"levelo://app?vid=66d37b81-6b82-4a50-9a95-64b4cef5aa8b","ios":"levelo://app?vid=66d37b81-6b82-4a50-9a95-64b4cef5aa8b"},"vehicle_type_id":"4","last_reported":1704298145,"current_range_meters":13600,"station_id":"ce4bgup2rcd13ifvqcn0","pricing_plan_id":"free"},{"bike_id":"03cec6ba-2ddf-4056-ba6b-f6a36c219bd1","system_id":"levelo_inurba_marseille","lat":43.304606,"lon":5.379026,"is_reserved":false,"is_disabled":false,"rental_uris":{"android":"levelo://app?vid=03cec6ba-2ddf-4056-ba6b-f6a36c219bd1","ios":"levelo://app?vid=03cec6ba-2ddf-4056-ba6b-f6a36c219bd1"},"vehicle_type_id":"4","last_reported":1704298145,"current_range_meters":25600,"station_id":"ce4bgup2rcd13ifvqcn0","pricing_plan_id":"free"},{"bike_id":"aa82fa74-600b-467f-9a64-363a885a2b7a","system_id":"levelo_inurba_marseille","lat":43.304606,"lon":5.379026,"is_reserved":false,"is_disabled":false,"rental_uris":{"android":"levelo://app?vid=aa82fa74-600b-467f-9a64-363a885a2b7a","ios":"levelo://app?vid=aa82fa74-600b-467f-9a64-363a885a2b7a"},"vehicle_type_id":"4","last_reported":1704298145,"current_range_meters":25200,"station_id":"ce4bgup2rcd13ifvqcn0","pricing_plan_id":"free"},{"bike_id":"e6c86afa-e1a5-4439-9325-63e21e7d89d0","system_id":"levelo_inurba_marseille","lat":43.304606,"lon":5.379026,"is_reserved":false,"is_disabled":false,"rental_uris":{"android":"levelo://app?vid=e6c86afa-e1a5-4439-9325-63e21e7d89d0","ios":"levelo://app?vid=e6c86afa-e1a5-4439-9325-63e21e7d89d0"},"vehicle_type_id":"4","last_reported":1704298145,"current_range_meters":23200,"station_id":"ce4bgup2rcd13ifvqcn0","pricing_plan_id":"free"},{"bike_id":"068776d2-749d-4f9e-9247-321d117de711","system_id":"levelo_inurba_marseille","lat":43.304606,"lon":5.379026,"is_reserved":false,"is_disabled":false,"rental_uris":{"android":"levelo://app?vid=068776d2-749d-4f9e-9247-321d117de711","ios":"levelo://app?vid=068776d2-749d-4f9e-9247-321d117de711"},"vehicle_type_id":"4","last_reported":1704298145,"current_range_meters":6800,"station_id":"ce4bgup2rcd13ifvqcn0","pricing_plan_id":"free"},{"bike_id":"688569fa-81a1-4322-8300-c299ae5152f3","system_id":"levelo_inurba_marseille","lat":43.324771,"lon":5.36557,"is_reserved":false,"is_disabled":false,"rental_uris":{"android":"levelo://app?vid=688569fa-81a1-4322-8300-c299ae5152f3","ios":"levelo://app?vid=688569fa-81a1-4322-8300-c299ae5152f3"},"vehicle_type_id":"4","last_reported":1704298145,"current_range_meters":17200,"station_id":"ce4bhs12rcd13ifvqhvg","pricing_plan_id":"free"},{"bike_id":"05033d6b-820d-4c0f-b542-b0a5c6766086","system_id":"levelo_inurba_marseille","lat":43.30288,"lon":5.37699,"is_reserved":false,"is_disabled":false,"rental_uris":{"android":"levelo://app?vid=05033d6b-820d-4c0f-b542-b0a5c6766086","ios":"levelo://app?vid=05033d6b-820d-4c0f-b542-b0a5c6766086"},"vehicle_type_id":"4","last_reported":1704298145,"current_range_meters":18800,"station_id":"","pricing_plan_id":"free"},{"bike_id":"63cbeba6-6cfe-40ba-8a9c-acc9281d0118","system_id":"levelo_inurba_marseille","lat":43.302781,"lon":5.377024,"is_reserved":false,"is_disabled":false,"rental_uris":{"android":"levelo://app?vid=63cbeba6-6cfe-40ba-8a9c-acc9281d0118","ios":"levelo://app?vid=63cbeba6-6cfe-40ba-8a9c-acc9281d0118"},"vehicle_type_id":"4","last_reported":1704298145,"current_range_meters":14800,"station_id":"","pricing_plan_id":"free"},{"bike_id":"8e2648c3-aa96-435d-9a05-b3af318bb590","system_id":"levelo_inurba_marseille","lat":43.30143,"lon":5.37413,"is_reserved":false,"is_disabled":false,"rental_uris":{"android":"levelo://app?vid=8e2648c3-aa96-435d-9a05-b3af318bb590","ios":"levelo://app?vid=8e2648c3-aa96-435d-9a05-b3af318bb590"},"vehicle_type_id":"4","last_reported":1704298145,"current_range_meters":27200,"station_id":"ce4bgs92rcd13ifvqcc0","pricing_plan_id":"free"},{"bike_id":"bfa46d25-9cf5-421a-8946-8a4d57d0f05f","system_id":"levelo_inurba_marseille","lat":43.319935,"lon":5.381699,"is_reserved":false,"is_disabled":false,"rental_uris":{"android":"levelo://app?vid=bfa46d25-9cf5-421a-8946-8a4d57d0f05f","ios":"levelo://app?vid=bfa46d25-9cf5-421a-8946-8a4d57d0f05f"},"vehicle_type_id":"4","last_reported":1704298145,"current_range_meters":4800,"station_id":"ce4bhr12rcd13ifvqhpg","pricing_plan_id":"free"},{"bike_id":"442c1b48-0c9d-41d7-80ff-51493b8682d0","system_id":"levelo_inurba_marseille","lat":43.319935,"lon":5.381699,"is_reserved":false,"is_disabled":false,"rental_uris":{"android":"levelo://app?vid=442c1b48-0c9d-41d7-80ff-51493b8682d0","ios":"levelo://app?vid=442c1b48-0c9d-41d7-80ff-51493b8682d0"},"vehicle_type_id":"4","last_reported":1704298145,"current_range_meters":17200,"station_id":"ce4bhr12rcd13ifvqhpg","pricing_plan_id":"free"},{"bike_id":"b62f7e97-88c8-4a74-8382-38c249f9cf26","system_id":"levelo_inurba_marseille","lat":43.319935,"lon":5.381699,"is_reserved":false,"is_disabled":false,"rental_uris":{"android":"levelo://app?vid=b62f7e97-88c8-4a74-8382-38c249f9cf26","ios":"levelo://app?vid=b62f7e97-88c8-4a74-8382-38c249f9cf26"},"vehicle_type_id":"4","last_reported":1704298145,"current_range_meters":6800,"station_id":"ce4bhr12rcd13ifvqhpg","pricing_plan_id":"free"},{"bike_id":"e388d662-e42d-48f6-ac48-4c849b51325d","system_id":"levelo_inurba_marseille","lat":43.313571,"lon":5.384829,"is_reserved":false,"is_disabled":false,"rental_uris":{"android":"levelo://app?vid=e388d662-e42d-48f6-ac48-4c849b51325d","ios":"levelo://app?vid=e388d662-e42d-48f6-ac48-4c849b51325d"},"vehicle_type_id":"4","last_reported":1704298145,"current_range_meters":27200,"station_id":"ce4bgt92rcd13ifvqcf0","pricing_plan_id":"free"},{"bike_id":"453efdba-7928-4bb8-9ff2-bf4024b4d8b1","system_id":"levelo_inurba_marseille","lat":43.313571,"lon":5.384829,"is_reserved":false,"is_disabled":false,"rental_uris":{"android":"levelo://app?vid=453efdba-7928-4bb8-9ff2-bf4024b4d8b1","ios":"levelo://app?vid=453efdba-7928-4bb8-9ff2-bf4024b4d8b1"},"vehicle_type_id":"4","last_reported":1704298145,"current_range_meters":30000,"station_id":"ce4bgt92rcd13ifvqcf0","pricing_plan_id":"free"},{"bike_id":"17504bde-947a-4cd6-98b3-9a4c66aca99b","system_id":"levelo_inurba_marseille","lat":43.313827,"lon":5.385007,"is_reserved":false,"is_disabled":false,"rental_uris":{"android":"levelo://app?vid=17504bde-947a-4cd6-98b3-9a4c66aca99b","ios":"levelo://app?vid=17504bde-947a-4cd6-98b3-9a4c66aca99b"},"vehicle_type_id":"4","last_reported":1704298145,"current_range_meters":16800,"station_id":"ce4bgt92rcd13ifvqcf0","pricing_plan_id":"free"},{"bike_id":"a930e640-78e8-4b58-8411-c4ec23c37477","system_id":"levelo_inurba_marseille","lat":43.299222,"lon":5.365554,"is_reserved":false,"is_disabled":false,"rental_uris":{"android":"levelo://app?vid=a930e640-78e8-4b58-8411-c4ec23c37477","ios":"levelo://app?vid=a930e640-78e8-4b58-8411-c4ec23c37477"},"vehicle_type_id":"4","last_reported":1704298145,"current_range_meters":0,"station_id":"ce4bgm92rcd13ifvqbr0","pricing_plan_id":"free"},{"bike_id":"4c131df3-ec3c-4a8b-bf97-f1e154bdf545","system_id":"levelo_inurba_marseille","lat":43.299724,"lon":5.371829,"is_reserved":false,"is_disabled":false,"rental_uris":{"android":"levelo://app?vid=4c131df3-ec3c-4a8b-bf97-f1e154bdf545","ios":"levelo://app?vid=4c131df3-ec3c-4a8b-bf97-f1e154bdf545"},"vehicle_type_id":"4","last_reported":1704298145,"current_range_meters":0,"station_id":"ce4bgr92rcd13ifvqc7g","pricing_plan_id":"free"},{"bike_id":"12a0d63a-4e4d-4d94-b2a3-b38549fd5f19","system_id":"levelo_inurba_marseille","lat":43.296131,"lon":5.370791,"is_reserved":false,"is_disabled":false,"rental_uris":{"android":"levelo://app?vid=12a0d63a-4e4d-4d94-b2a3-b38549fd5f19","ios":"levelo://app?vid=12a0d63a-4e4d-4d94-b2a3-b38549fd5f19"},"vehicle_type_id":"4","last_reported":1704298145,"current_range_meters":22800,"station_id":"ce4bgnh2rcd13ifvqc0g","pricing_plan_id":"free"},{"bike_id":"bffb5c2c-1071-4450-8044-8f026a2546c6","system_id":"levelo_inurba_marseille","lat":43.305364,"lon":5.384119,"is_reserved":false,"is_disabled":false,"rental_uris":{"android":"levelo://app?vid=bffb5c2c-1071-4450-8044-8f026a2546c6","ios":"levelo://app?vid=bffb5c2c-1071-4450-8044-8f026a2546c6"},"vehicle_type_id":"4","last_reported":1704298145,"current_range_meters":14000,"station_id":"ce4bgg92rcd13ifvqb30","pricing_plan_id":"free"},{"bike_id":"8d9f2485-7f64-45a5-8bce-c4222310099f","system_id":"levelo_inurba_marseille","lat":43.311722,"lon":5.387247,"is_reserved":false,"is_disabled":false,"rental_uris":{"android":"levelo://app?vid=8d9f2485-7f64-45a5-8bce-c4222310099f","ios":"levelo://app?vid=8d9f2485-7f64-45a5-8bce-c4222310099f"},"vehicle_type_id":"4","last_reported":1704298145,"current_range_meters":25600,"station_id":"ce4bgv12rcd13ifvqcp0","pricing_plan_id":"free"},{"bike_id":"e9697669-c4b8-4189-8d40-38bde8da7cea","system_id":"levelo_inurba_marseille","lat":43.297774,"lon":5.370875,"is_reserved":false,"is_disabled":false,"rental_uris":{"android":"levelo://app?vid=e9697669-c4b8-4189-8d40-38bde8da7cea","ios":"levelo://app?vid=e9697669-c4b8-4189-8d40-38bde8da7cea"},"vehicle_type_id":"4","last_reported":1704298145,"current_range_meters":23600,"station_id":"ce4bgop2rcd13ifvqc1g","pricing_plan_id":"free"},{"bike_id":"9820b2e3-c049-4b63-a954-ee054538312b","system_id":"levelo_inurba_marseille","lat":43.322872,"lon":5.382756,"is_reserved":false,"is_disabled":false,"rental_uris":{"android":"levelo://app?vid=9820b2e3-c049-4b63-a954-ee054538312b","ios":"levelo://app?vid=9820b2e3-c049-4b63-a954-ee054538312b"},"vehicle_type_id":"4","last_reported":1704298145,"current_range_meters":26800,"station_id":"ce4bhr12rcd13ifvqhqg","pricing_plan_id":"free"},{"bike_id":"a4681f96-0fa7-4c4a-9480-96bee555c303","system_id":"levelo_inurba_marseille","lat":43.297163,"lon":5.365866,"is_reserved":false,"is_disabled":false,"rental_uris":{"android":"levelo://app?vid=a4681f96-0fa7-4c4a-9480-96bee555c303","ios":"levelo://app?vid=a4681f96-0fa7-4c4a-9480-96bee555c303"},"vehicle_type_id":"4","last_reported":1704298145,"current_range_meters":26000,"station_id":"ce4bgn12rcd13ifvqbt0","pricing_plan_id":"free"},{"bike_id":"c5a634af-b290-473a-8cd3-bc8d8ff92abc","system_id":"levelo_inurba_marseille","lat":43.297163,"lon":5.365866,"is_reserved":false,"is_disabled":false,"rental_uris":{"android":"levelo://app?vid=c5a634af-b290-473a-8cd3-bc8d8ff92abc","ios":"levelo://app?vid=c5a634af-b290-473a-8cd3-bc8d8ff92abc"},"vehicle_type_id":"4","last_reported":1704298145,"current_range_meters":24800,"station_id":"ce4bgn12rcd13ifvqbt0","pricing_plan_id":"free"},{"bike_id":"5f74c51c-6210-4ad0-865c-d637c18269b9","system_id":"levelo_inurba_marseille","lat":43.32833,"lon":5.36692,"is_reserved":false,"is_disabled":false,"rental_uris":{"android":"levelo://app?vid=5f74c51c-6210-4ad0-865c-d637c18269b9","ios":"levelo://app?vid=5f74c51c-6210-4ad0-865c-d637c18269b9"},"vehicle_type_id":"4","last_reported":1704298145,"current_range_meters":28000,"station_id":"ce4bhs92rcd13ifvqi0g","pricing_plan_id":"free"},{"bike_id":"e1dec535-009e-4235-8b85-15d568d18b97","system_id":"levelo_inurba_marseille","lat":43.328371,"lon":5.366909,"is_reserved":false,"is_disabled":false,"rental_uris":{"android":"levelo://app?vid=e1dec535-009e-4235-8b85-15d568d18b97","ios":"levelo://app?vid=e1dec535-009e-4235-8b85-15d568d18b97"},"vehicle_type_id":"4","last_reported":1704298145,"current_range_meters":15600,"station_id":"ce4bhs92rcd13ifvqi0g","pricing_plan_id":"free"},{"bike_id":"370cccf7-c9ba-46c2-819b-c8e8cacc4c21","system_id":"levelo_inurba_marseille","lat":43.3277,"lon":5.37458,"is_reserved":false,"is_disabled":false,"rental_uris":{"android":"levelo://app?vid=370cccf7-c9ba-46c2-819b-c8e8cacc4c21","ios":"levelo://app?vid=370cccf7-c9ba-46c2-819b-c8e8cacc4c21"},"vehicle_type_id":"4","last_reported":1704298145,"current_range_meters":4400,"station_id":"","pricing_plan_id":"free"},{"bike_id":"297c5617-fdb6-4b26-b10a-f52218f5f8e2","system_id":"levelo_inurba_marseille","lat":43.2968,"lon":5.37291,"is_reserved":false,"is_disabled":false,"rental_uris":{"android":"levelo://app?vid=297c5617-fdb6-4b26-b10a-f52218f5f8e2","ios":"levelo://app?vid=297c5617-fdb6-4b26-b10a-f52218f5f8e2"},"vehicle_type_id":"4","last_reported":1704298145,"current_range_meters":29600,"station_id":"ce4bgk12rcd13ifvqbj0","pricing_plan_id":"free"},{"bike_id":"d5aadf2d-1c96-4d52-a7c7-edfcb8cc05e8","system_id":"levelo_inurba_marseille","lat":43.29578,"lon":5.36746,"is_reserved":false,"is_disabled":false,"rental_uris":{"android":"levelo://app?vid=d5aadf2d-1c96-4d52-a7c7-edfcb8cc05e8","ios":"levelo://app?vid=d5aadf2d-1c96-4d52-a7c7-edfcb8cc05e8"},"vehicle_type_id":"4","last_reported":1704298145,"current_range_meters":0,"station_id":"ce4bgph2rcd13ifvqc2g","pricing_plan_id":"free"},{"bike_id":"6eacc72b-8ddd-461e-8ac1-22d6fdd7653d","system_id":"levelo_inurba_marseille","lat":43.296921,"lon":5.376579,"is_reserved":false,"is_disabled":false,"rental_uris":{"android":"levelo://app?vid=6eacc72b-8ddd-461e-8ac1-22d6fdd7653d","ios":"levelo://app?vid=6eacc72b-8ddd-461e-8ac1-22d6fdd7653d"},"vehicle_type_id":"4","last_reported":1704298145,"current_range_meters":20800,"station_id":"ce4bgkh2rcd13ifvqbl0","pricing_plan_id":"free"},{"bike_id":"0ff0a826-0990-4bbc-a4d7-89eb32c82874","system_id":"levelo_inurba_marseille","lat":43.299028,"lon":5.381509,"is_reserved":false,"is_disabled":false,"rental_uris":{"android":"levelo://app?vid=0ff0a826-0990-4bbc-a4d7-89eb32c82874","ios":"levelo://app?vid=0ff0a826-0990-4bbc-a4d7-89eb32c82874"},"vehicle_type_id":"4","last_reported":1704298145,"current_range_meters":24000,"station_id":"ce4bgj12rcd13ifvqbc0","pricing_plan_id":"free"},{"bike_id":"b90fa2cc-e30c-4543-a21c-618b60740cdc","system_id":"levelo_inurba_marseille","lat":43.296921,"lon":5.376579,"is_reserved":false,"is_disabled":false,"rental_uris":{"android":"levelo://app?vid=b90fa2cc-e30c-4543-a21c-618b60740cdc","ios":"levelo://app?vid=b90fa2cc-e30c-4543-a21c-618b60740cdc"},"vehicle_type_id":"4","last_reported":1704298145,"current_range_meters":12000,"station_id":"ce4bgkh2rcd13ifvqbl0","pricing_plan_id":"free"},{"bike_id":"7f3ff74a-0192-448e-8355-4a2943302130","system_id":"levelo_inurba_marseille","lat":43.299028,"lon":5.381509,"is_reserved":false,"is_disabled":false,"rental_uris":{"android":"levelo://app?vid=7f3ff74a-0192-448e-8355-4a2943302130","ios":"levelo://app?vid=7f3ff74a-0192-448e-8355-4a2943302130"},"vehicle_type_id":"4","last_reported":1704298145,"current_range_meters":13200,"station_id":"ce4bgj12rcd13ifvqbc0","pricing_plan_id":"free"},{"bike_id":"acc1cc75-4520-4bf6-9600-e4ccbf0bfa3b","system_id":"levelo_inurba_marseille","lat":43.309589,"lon":5.390258,"is_reserved":false,"is_disabled":false,"rental_uris":{"android":"levelo://app?vid=acc1cc75-4520-4bf6-9600-e4ccbf0bfa3b","ios":"levelo://app?vid=acc1cc75-4520-4bf6-9600-e4ccbf0bfa3b"},"vehicle_type_id":"4","last_reported":1704298145,"current_range_meters":24400,"station_id":"ce4bgup2rcd13ifvqco0","pricing_plan_id":"free"},{"bike_id":"a9b18b0f-4e24-408c-bcb9-f93329a5aa1d","system_id":"levelo_inurba_marseille","lat":43.298037,"lon":5.381066,"is_reserved":false,"is_disabled":false,"rental_uris":{"android":"levelo://app?vid=a9b18b0f-4e24-408c-bcb9-f93329a5aa1d","ios":"levelo://app?vid=a9b18b0f-4e24-408c-bcb9-f93329a5aa1d"},"vehicle_type_id":"4","last_reported":1704298145,"current_range_meters":30800,"station_id":"ce4bgip2rcd13ifvqbb0","pricing_plan_id":"free"},{"bike_id":"485907e4-7d38-4df5-9b9c-6ae6365d5555","system_id":"levelo_inurba_marseille","lat":43.298037,"lon":5.381066,"is_reserved":false,"is_disabled":false,"rental_uris":{"android":"levelo://app?vid=485907e4-7d38-4df5-9b9c-6ae6365d5555","ios":"levelo://app?vid=485907e4-7d38-4df5-9b9c-6ae6365d5555"},"vehicle_type_id":"4","last_reported":1704298145,"current_range_meters":0,"station_id":"ce4bgip2rcd13ifvqbb0","pricing_plan_id":"free"},{"bike_id":"ee2874e9-039b-4c36-8991-7ebcae62a5fe","system_id":"levelo_inurba_marseille","lat":43.298037,"lon":5.381066,"is_reserved":false,"is_disabled":false,"rental_uris":{"android":"levelo://app?vid=ee2874e9-039b-4c36-8991-7ebcae62a5fe","ios":"levelo://app?vid=ee2874e9-039b-4c36-8991-7ebcae62a5fe"},"vehicle_type_id":"4","last_reported":1704298145,"current_range_meters":24000,"station_id":"ce4bgip2rcd13ifvqbb0","pricing_plan_id":"free"},{"bike_id":"d60802d6-4f47-444a-b234-883690eec05b","system_id":"levelo_inurba_marseille","lat":43.33062,"lon":5.3627,"is_reserved":false,"is_disabled":false,"rental_uris":{"android":"levelo://app?vid=d60802d6-4f47-444a-b234-883690eec05b","ios":"levelo://app?vid=d60802d6-4f47-444a-b234-883690eec05b"},"vehicle_type_id":"4","last_reported":1704298145,"current_range_meters":11200,"station_id":"","pricing_plan_id":"free"},{"bike_id":"75ea993b-6320-49bb-a6f5-9ee6578ce319","system_id":"levelo_inurba_marseille","lat":43.299717,"lon":5.384845,"is_reserved":false,"is_disabled":false,"rental_uris":{"android":"levelo://app?vid=75ea993b-6320-49bb-a6f5-9ee6578ce319","ios":"levelo://app?vid=75ea993b-6320-49bb-a6f5-9ee6578ce319"},"vehicle_type_id":"4","last_reported":1704298145,"current_range_meters":22000,"station_id":"ce4bgj92rcd13ifvqbd0","pricing_plan_id":"free"},{"bike_id":"5e29f3ea-5e2b-4e4b-8d89-2ae4038437e5","system_id":"levelo_inurba_marseille","lat":43.299707,"lon":5.384859,"is_reserved":false,"is_disabled":false,"rental_uris":{"android":"levelo://app?vid=5e29f3ea-5e2b-4e4b-8d89-2ae4038437e5","ios":"levelo://app?vid=5e29f3ea-5e2b-4e4b-8d89-2ae4038437e5"},"vehicle_type_id":"4","last_reported":1704298145,"current_range_meters":12800,"station_id":"ce4bgj92rcd13ifvqbd0","pricing_plan_id":"free"},{"bike_id":"7119845d-00aa-4d9f-be8c-fc97d41f1380","system_id":"levelo_inurba_marseille","lat":43.297594,"lon":5.381134,"is_reserved":false,"is_disabled":false,"rental_uris":{"android":"levelo://app?vid=7119845d-00aa-4d9f-be8c-fc97d41f1380","ios":"levelo://app?vid=7119845d-00aa-4d9f-be8c-fc97d41f1380"},"vehicle_type_id":"4","last_reported":1704298145,"current_range_meters":0,"station_id":"ce4bgip2rcd13ifvqbb0","pricing_plan_id":"free"},{"bike_id":"02d837c4-9668-45cf-a687-c99791a774b7","system_id":"levelo_inurba_marseille","lat":43.29974,"lon":5.38489,"is_reserved":false,"is_disabled":false,"rental_uris":{"android":"levelo://app?vid=02d837c4-9668-45cf-a687-c99791a774b7","ios":"levelo://app?vid=02d837c4-9668-45cf-a687-c99791a774b7"},"vehicle_type_id":"4","last_reported":1704298145,"current_range_meters":6400,"station_id":"ce4bgj92rcd13ifvqbd0","pricing_plan_id":"free"},{"bike_id":"ea69bd70-45fb-4dfb-9fd7-5a6cb4eefeee","system_id":"levelo_inurba_marseille","lat":43.301355,"lon":5.387935,"is_reserved":false,"is_disabled":false,"rental_uris":{"android":"levelo://app?vid=ea69bd70-45fb-4dfb-9fd7-5a6cb4eefeee","ios":"levelo://app?vid=ea69bd70-45fb-4dfb-9fd7-5a6cb4eefeee"},"vehicle_type_id":"4","last_reported":1704298145,"current_range_meters":29200,"station_id":"","pricing_plan_id":"free"},{"bike_id":"72c167da-a4b1-4690-a69c-dba56aa67da4","system_id":"levelo_inurba_marseille","lat":43.32367,"lon":5.388836,"is_reserved":false,"is_disabled":false,"rental_uris":{"android":"levelo://app?vid=72c167da-a4b1-4690-a69c-dba56aa67da4","ios":"levelo://app?vid=72c167da-a4b1-4690-a69c-dba56aa67da4"},"vehicle_type_id":"4","last_reported":1704298145,"current_range_meters":13200,"station_id":"ce4bhqp2rcd13ifvqhog","pricing_plan_id":"free"},{"bike_id":"a082d93e-a2f1-41b2-af8f-b1546d9caff3","system_id":"levelo_inurba_marseille","lat":43.304274,"lon":5.388873,"is_reserved":false,"is_disabled":false,"rental_uris":{"android":"levelo://app?vid=a082d93e-a2f1-41b2-af8f-b1546d9caff3","ios":"levelo://app?vid=a082d93e-a2f1-41b2-af8f-b1546d9caff3"},"vehicle_type_id":"4","last_reported":1704298145,"current_range_meters":0,"station_id":"ce4bgk12rcd13ifvqbi0","pricing_plan_id":"free"},{"bike_id":"421c60a0-de73-45ed-aca1-11aee42e697c","system_id":"levelo_inurba_marseille","lat":43.29602,"lon":5.381084,"is_reserved":false,"is_disabled":false,"rental_uris":{"android":"levelo://app?vid=421c60a0-de73-45ed-aca1-11aee42e697c","ios":"levelo://app?vid=421c60a0-de73-45ed-aca1-11aee42e697c"},"vehicle_type_id":"4","last_reported":1704298145,"current_range_meters":15200,"station_id":"ce4bgl12rcd13ifvqbo0","pricing_plan_id":"free"},{"bike_id":"926b066b-560f-449d-b13e-e4ae35b0f7e9","system_id":"levelo_inurba_marseille","lat":43.292749,"lon":5.368402,"is_reserved":false,"is_disabled":false,"rental_uris":{"android":"levelo://app?vid=926b066b-560f-449d-b13e-e4ae35b0f7e9","ios":"levelo://app?vid=926b066b-560f-449d-b13e-e4ae35b0f7e9"},"vehicle_type_id":"4","last_reported":1704298145,"current_range_meters":0,"station_id":"ce4bhbp2rcd13ifvqesg","pricing_plan_id":"free"},{"bike_id":"47f87abd-c5f2-44e6-884a-cc4b1aa5c74d","system_id":"levelo_inurba_marseille","lat":43.305994,"lon":5.393687,"is_reserved":false,"is_disabled":false,"rental_uris":{"android":"levelo://app?vid=47f87abd-c5f2-44e6-884a-cc4b1aa5c74d","ios":"levelo://app?vid=47f87abd-c5f2-44e6-884a-cc4b1aa5c74d"},"vehicle_type_id":"4","last_reported":1704298145,"current_range_meters":9200,"station_id":"ce4bh0p2rcd13ifvqd80","pricing_plan_id":"free"},{"bike_id":"90ba6b71-9541-4b54-943c-a0ed280947e5","system_id":"levelo_inurba_marseille","lat":43.305994,"lon":5.393687,"is_reserved":false,"is_disabled":false,"rental_uris":{"android":"levelo://app?vid=90ba6b71-9541-4b54-943c-a0ed280947e5","ios":"levelo://app?vid=90ba6b71-9541-4b54-943c-a0ed280947e5"},"vehicle_type_id":"4","last_reported":1704298145,"current_range_meters":13200,"station_id":"ce4bh0p2rcd13ifvqd80","pricing_plan_id":"free"},{"bike_id":"00dbf8f5-64e2-4f8b-9bca-61c2fcff7a92","system_id":"levelo_inurba_marseille","lat":43.2936,"lon":5.37835,"is_reserved":false,"is_disabled":false,"rental_uris":{"android":"levelo://app?vid=00dbf8f5-64e2-4f8b-9bca-61c2fcff7a92","ios":"levelo://app?vid=00dbf8f5-64e2-4f8b-9bca-61c2fcff7a92"},"vehicle_type_id":"4","last_reported":1704298145,"current_range_meters":22000,"station_id":"ce4bgjh2rcd13ifvqbf0","pricing_plan_id":"free"},{"bike_id":"c909948f-7fce-4134-bf5b-47e292534682","system_id":"levelo_inurba_marseille","lat":43.2936,"lon":5.37835,"is_reserved":false,"is_disabled":false,"rental_uris":{"android":"levelo://app?vid=c909948f-7fce-4134-bf5b-47e292534682","ios":"levelo://app?vid=c909948f-7fce-4134-bf5b-47e292534682"},"vehicle_type_id":"4","last_reported":1704298145,"current_range_meters":14800,"station_id":"ce4bgjh2rcd13ifvqbf0","pricing_plan_id":"free"},{"bike_id":"870d7ef7-7af0-452c-8636-10ac28ab29e5","system_id":"levelo_inurba_marseille","lat":43.29222,"lon":5.36055,"is_reserved":false,"is_disabled":false,"rental_uris":{"android":"levelo://app?vid=870d7ef7-7af0-452c-8636-10ac28ab29e5","ios":"levelo://app?vid=870d7ef7-7af0-452c-8636-10ac28ab29e5"},"vehicle_type_id":"4","last_reported":1704298145,"current_range_meters":0,"station_id":"ce4bhbh2rcd13ifvqeqg","pricing_plan_id":"free"},{"bike_id":"bee0d25e-5928-4166-a427-6e32ca8691d8","system_id":"levelo_inurba_marseille","lat":43.292595,"lon":5.37618,"is_reserved":false,"is_disabled":false,"rental_uris":{"android":"levelo://app?vid=bee0d25e-5928-4166-a427-6e32ca8691d8","ios":"levelo://app?vid=bee0d25e-5928-4166-a427-6e32ca8691d8"},"vehicle_type_id":"4","last_reported":1704298145,"current_range_meters":15200,"station_id":"","pricing_plan_id":"free"},{"bike_id":"c922619e-7f3b-42ac-9c81-78e1de5966a9","system_id":"levelo_inurba_marseille","lat":43.29876,"lon":5.38902,"is_reserved":false,"is_disabled":false,"rental_uris":{"android":"levelo://app?vid=c922619e-7f3b-42ac-9c81-78e1de5966a9","ios":"levelo://app?vid=c922619e-7f3b-42ac-9c81-78e1de5966a9"},"vehicle_type_id":"4","last_reported":1704298145,"current_range_meters":18800,"station_id":"","pricing_plan_id":"free"},{"bike_id":"d19de365-5c1d-45fd-a30b-4b310ae94f68","system_id":"levelo_inurba_marseille","lat":43.29871,"lon":5.388977,"is_reserved":false,"is_disabled":false,"rental_uris":{"android":"levelo://app?vid=d19de365-5c1d-45fd-a30b-4b310ae94f68","ios":"levelo://app?vid=d19de365-5c1d-45fd-a30b-4b310ae94f68"},"vehicle_type_id":"4","last_reported":1704298145,"current_range_meters":13200,"station_id":"","pricing_plan_id":"free"},{"bike_id":"0be72a79-67f5-4d62-97ea-1e17dabae9e2","system_id":"levelo_inurba_marseille","lat":43.298768,"lon":5.43643,"is_reserved":false,"is_disabled":false,"rental_uris":{"android":"levelo://app?vid=0be72a79-67f5-4d62-97ea-1e17dabae9e2","ios":"levelo://app?vid=0be72a79-67f5-4d62-97ea-1e17dabae9e2"},"vehicle_type_id":"4","last_reported":1704298145,"current_range_meters":22800,"station_id":"ce4bhpp2rcd13ifvqhfg","pricing_plan_id":"free"},{"bike_id":"247d3ddd-e96d-4297-aea2-7c0ff64d8c99","system_id":"levelo_inurba_marseille","lat":43.298689,"lon":5.389108,"is_reserved":false,"is_disabled":false,"rental_uris":{"android":"levelo://app?vid=247d3ddd-e96d-4297-aea2-7c0ff64d8c99","ios":"levelo://app?vid=247d3ddd-e96d-4297-aea2-7c0ff64d8c99"},"vehicle_type_id":"4","last_reported":1704298145,"current_range_meters":22800,"station_id":"","pricing_plan_id":"free"},{"bike_id":"845ae39d-e43d-40f4-a171-a5100dae710d","system_id":"levelo_inurba_marseille","lat":43.29529,"lon":5.385581,"is_reserved":false,"is_disabled":false,"rental_uris":{"android":"levelo://app?vid=845ae39d-e43d-40f4-a171-a5100dae710d","ios":"levelo://app?vid=845ae39d-e43d-40f4-a171-a5100dae710d"},"vehicle_type_id":"4","last_reported":1704298145,"current_range_meters":16000,"station_id":"ce4bgih2rcd13ifvqba0","pricing_plan_id":"free"},{"bike_id":"b57b07fd-7ef0-405a-b173-d314ace2c892","system_id":"levelo_inurba_marseille","lat":43.29529,"lon":5.385581,"is_reserved":false,"is_disabled":false,"rental_uris":{"android":"levelo://app?vid=b57b07fd-7ef0-405a-b173-d314ace2c892","ios":"levelo://app?vid=b57b07fd-7ef0-405a-b173-d314ace2c892"},"vehicle_type_id":"4","last_reported":1704298145,"current_range_meters":15200,"station_id":"ce4bgih2rcd13ifvqba0","pricing_plan_id":"free"},{"bike_id":"da64c4ef-e9c9-4af7-aba6-4cf29e034f1d","system_id":"levelo_inurba_marseille","lat":43.313291,"lon":5.396838,"is_reserved":false,"is_disabled":false,"rental_uris":{"android":"levelo://app?vid=da64c4ef-e9c9-4af7-aba6-4cf29e034f1d","ios":"levelo://app?vid=da64c4ef-e9c9-4af7-aba6-4cf29e034f1d"},"vehicle_type_id":"4","last_reported":1704298145,"current_range_meters":800,"station_id":"ce4bgvp2rcd13ifvqcu0","pricing_plan_id":"free"},{"bike_id":"2d502cab-a63a-4158-804d-de646107efe9","system_id":"levelo_inurba_marseille","lat":43.290779,"lon":5.371482,"is_reserved":false,"is_disabled":false,"rental_uris":{"android":"levelo://app?vid=2d502cab-a63a-4158-804d-de646107efe9","ios":"levelo://app?vid=2d502cab-a63a-4158-804d-de646107efe9"},"vehicle_type_id":"4","last_reported":1704298145,"current_range_meters":23600,"station_id":"ce4bh5p2rcd13ifvqe4g","pricing_plan_id":"free"},{"bike_id":"4075a4d2-860a-469d-8a89-5fa6877e8b05","system_id":"levelo_inurba_marseille","lat":43.294153,"lon":5.386305,"is_reserved":false,"is_disabled":false,"rental_uris":{"android":"levelo://app?vid=4075a4d2-860a-469d-8a89-5fa6877e8b05","ios":"levelo://app?vid=4075a4d2-860a-469d-8a89-5fa6877e8b05"},"vehicle_type_id":"4","last_reported":1704298145,"current_range_meters":17200,"station_id":"ce4bh2h2rcd13ifvqdh0","pricing_plan_id":"free"},{"bike_id":"3e459365-7301-44d6-9ada-9f59f8918428","system_id":"levelo_inurba_marseille","lat":43.294153,"lon":5.386305,"is_reserved":false,"is_disabled":false,"rental_uris":{"android":"levelo://app?vid=3e459365-7301-44d6-9ada-9f59f8918428","ios":"levelo://app?vid=3e459365-7301-44d6-9ada-9f59f8918428"},"vehicle_type_id":"4","last_reported":1704298145,"current_range_meters":24800,"station_id":"ce4bh2h2rcd13ifvqdh0","pricing_plan_id":"free"},{"bike_id":"3f0d385c-6052-4b31-b673-877e9709ce86","system_id":"levelo_inurba_marseille","lat":43.294162,"lon":5.386292,"is_reserved":false,"is_disabled":false,"rental_uris":{"android":"levelo://app?vid=3f0d385c-6052-4b31-b673-877e9709ce86","ios":"levelo://app?vid=3f0d385c-6052-4b31-b673-877e9709ce86"},"vehicle_type_id":"4","last_reported":1704298145,"current_range_meters":22000,"station_id":"ce4bh2h2rcd13ifvqdh0","pricing_plan_id":"free"},{"bike_id":"5b9a60e5-149b-4118-9d2c-010638b40305","system_id":"levelo_inurba_marseille","lat":43.294162,"lon":5.386292,"is_reserved":false,"is_disabled":false,"rental_uris":{"android":"levelo://app?vid=5b9a60e5-149b-4118-9d2c-010638b40305","ios":"levelo://app?vid=5b9a60e5-149b-4118-9d2c-010638b40305"},"vehicle_type_id":"4","last_reported":1704298145,"current_range_meters":4800,"station_id":"ce4bh2h2rcd13ifvqdh0","pricing_plan_id":"free"},{"bike_id":"0c437dcb-5577-4cd3-8d8c-ab3cd599e1f1","system_id":"levelo_inurba_marseille","lat":43.292574,"lon":5.383278,"is_reserved":false,"is_disabled":false,"rental_uris":{"android":"levelo://app?vid=0c437dcb-5577-4cd3-8d8c-ab3cd599e1f1","ios":"levelo://app?vid=0c437dcb-5577-4cd3-8d8c-ab3cd599e1f1"},"vehicle_type_id":"4","last_reported":1704298145,"current_range_meters":21600,"station_id":"","pricing_plan_id":"free"},{"bike_id":"b6a53a7e-7c21-4300-b69e-da0deb3fc1e4","system_id":"levelo_inurba_marseille","lat":43.289184,"lon":5.366408,"is_reserved":false,"is_disabled":false,"rental_uris":{"android":"levelo://app?vid=b6a53a7e-7c21-4300-b69e-da0deb3fc1e4","ios":"levelo://app?vid=b6a53a7e-7c21-4300-b69e-da0deb3fc1e4"},"vehicle_type_id":"4","last_reported":1704298145,"current_range_meters":8000,"station_id":"ce4bhap2rcd13ifvqek0","pricing_plan_id":"free"},{"bike_id":"f36792f0-3eb7-4c5d-b19b-81a089d33a55","system_id":"levelo_inurba_marseille","lat":43.292644,"lon":5.384257,"is_reserved":false,"is_disabled":false,"rental_uris":{"android":"levelo://app?vid=f36792f0-3eb7-4c5d-b19b-81a089d33a55","ios":"levelo://app?vid=f36792f0-3eb7-4c5d-b19b-81a089d33a55"},"vehicle_type_id":"4","last_reported":1704298145,"current_range_meters":18000,"station_id":"ce4bh692rcd13ifvqea0","pricing_plan_id":"free"},{"bike_id":"bda902b0-aed4-4db1-a0d9-f1005ac9faa4","system_id":"levelo_inurba_marseille","lat":43.290942,"lon":5.38127,"is_reserved":false,"is_disabled":false,"rental_uris":{"android":"levelo://app?vid=bda902b0-aed4-4db1-a0d9-f1005ac9faa4","ios":"levelo://app?vid=bda902b0-aed4-4db1-a0d9-f1005ac9faa4"},"vehicle_type_id":"4","last_reported":1704298145,"current_range_meters":18400,"station_id":"ce4bh512rcd13ifvqe2g","pricing_plan_id":"free"},{"bike_id":"10247770-883b-40dc-a0ae-be2ee7faed9a","system_id":"levelo_inurba_marseille","lat":43.29783,"lon":5.39331,"is_reserved":false,"is_disabled":false,"rental_uris":{"android":"levelo://app?vid=10247770-883b-40dc-a0ae-be2ee7faed9a","ios":"levelo://app?vid=10247770-883b-40dc-a0ae-be2ee7faed9a"},"vehicle_type_id":"4","last_reported":1704298145,"current_range_meters":4800,"station_id":"chh1huq6cuj3fo74tm60","pricing_plan_id":"free"},{"bike_id":"ff20ee98-fdbb-43c0-9c87-e46643f5ed83","system_id":"levelo_inurba_marseille","lat":43.29783,"lon":5.39335,"is_reserved":false,"is_disabled":false,"rental_uris":{"android":"levelo://app?vid=ff20ee98-fdbb-43c0-9c87-e46643f5ed83","ios":"levelo://app?vid=ff20ee98-fdbb-43c0-9c87-e46643f5ed83"},"vehicle_type_id":"4","last_reported":1704298145,"current_range_meters":22400,"station_id":"chh1huq6cuj3fo74tm60","pricing_plan_id":"free"},{"bike_id":"bf3b2303-9585-4d46-b399-7e9f76a6c32f","system_id":"levelo_inurba_marseille","lat":43.297815,"lon":5.393548,"is_reserved":false,"is_disabled":false,"rental_uris":{"android":"levelo://app?vid=bf3b2303-9585-4d46-b399-7e9f76a6c32f","ios":"levelo://app?vid=bf3b2303-9585-4d46-b399-7e9f76a6c32f"},"vehicle_type_id":"4","last_reported":1704298145,"current_range_meters":29200,"station_id":"chh1huq6cuj3fo74tm60","pricing_plan_id":"free"},{"bike_id":"1c6e55bf-6b0c-4848-96ae-9e712df180c6","system_id":"levelo_inurba_marseille","lat":43.33018,"lon":5.39032,"is_reserved":false,"is_disabled":false,"rental_uris":{"android":"levelo://app?vid=1c6e55bf-6b0c-4848-96ae-9e712df180c6","ios":"levelo://app?vid=1c6e55bf-6b0c-4848-96ae-9e712df180c6"},"vehicle_type_id":"4","last_reported":1704298145,"current_range_meters":1600,"station_id":"","pricing_plan_id":"free"},{"bike_id":"b9f1870d-91b7-4991-8da2-fb88515c5d8e","system_id":"levelo_inurba_marseille","lat":43.330442,"lon":5.389148,"is_reserved":false,"is_disabled":false,"rental_uris":{"android":"levelo://app?vid=b9f1870d-91b7-4991-8da2-fb88515c5d8e","ios":"levelo://app?vid=b9f1870d-91b7-4991-8da2-fb88515c5d8e"},"vehicle_type_id":"4","last_reported":1704298145,"current_range_meters":18400,"station_id":"ce4bhr92rcd13ifvqhrg","pricing_plan_id":"free"},{"bike_id":"a45508dc-3e20-4dc2-a3f2-c48092cac22d","system_id":"levelo_inurba_marseille","lat":43.3302,"lon":5.3904,"is_reserved":false,"is_disabled":false,"rental_uris":{"android":"levelo://app?vid=a45508dc-3e20-4dc2-a3f2-c48092cac22d","ios":"levelo://app?vid=a45508dc-3e20-4dc2-a3f2-c48092cac22d"},"vehicle_type_id":"4","last_reported":1704298145,"current_range_meters":6800,"station_id":"","pricing_plan_id":"free"},{"bike_id":"b4dc5f58-d698-47e4-9d04-a65a1aac924a","system_id":"levelo_inurba_marseille","lat":43.33022,"lon":5.3904,"is_reserved":false,"is_disabled":false,"rental_uris":{"android":"levelo://app?vid=b4dc5f58-d698-47e4-9d04-a65a1aac924a","ios":"levelo://app?vid=b4dc5f58-d698-47e4-9d04-a65a1aac924a"},"vehicle_type_id":"4","last_reported":1704298145,"current_range_meters":13200,"station_id":"","pricing_plan_id":"free"},{"bike_id":"2a6911e4-99f7-4853-9039-ac05cf0c6d2a","system_id":"levelo_inurba_marseille","lat":43.33027,"lon":5.39038,"is_reserved":false,"is_disabled":false,"rental_uris":{"android":"levelo://app?vid=2a6911e4-99f7-4853-9039-ac05cf0c6d2a","ios":"levelo://app?vid=2a6911e4-99f7-4853-9039-ac05cf0c6d2a"},"vehicle_type_id":"4","last_reported":1704298145,"current_range_meters":10000,"station_id":"","pricing_plan_id":"free"},{"bike_id":"a4544299-4117-4ba4-98ad-2dcd1cebe1e8","system_id":"levelo_inurba_marseille","lat":43.33023,"lon":5.39044,"is_reserved":false,"is_disabled":false,"rental_uris":{"android":"levelo://app?vid=a4544299-4117-4ba4-98ad-2dcd1cebe1e8","ios":"levelo://app?vid=a4544299-4117-4ba4-98ad-2dcd1cebe1e8"},"vehicle_type_id":"4","last_reported":1704298145,"current_range_meters":24400,"station_id":"","pricing_plan_id":"free"},{"bike_id":"1c0749a0-eb1e-4d88-9c18-6692e00349ca","system_id":"levelo_inurba_marseille","lat":43.295169,"lon":5.390426,"is_reserved":false,"is_disabled":false,"rental_uris":{"android":"levelo://app?vid=1c0749a0-eb1e-4d88-9c18-6692e00349ca","ios":"levelo://app?vid=1c0749a0-eb1e-4d88-9c18-6692e00349ca"},"vehicle_type_id":"4","last_reported":1704298145,"current_range_meters":17600,"station_id":"ce4bh3p2rcd13ifvqdp0","pricing_plan_id":"free"},{"bike_id":"c473dc02-8994-4174-a9e4-3a30dad995ff","system_id":"levelo_inurba_marseille","lat":43.33743,"lon":5.37439,"is_reserved":false,"is_disabled":false,"rental_uris":{"android":"levelo://app?vid=c473dc02-8994-4174-a9e4-3a30dad995ff","ios":"levelo://app?vid=c473dc02-8994-4174-a9e4-3a30dad995ff"},"vehicle_type_id":"4","last_reported":1704298145,"current_range_meters":31200,"station_id":"","pricing_plan_id":"free"},{"bike_id":"2c0d1c7a-52d6-45c8-b950-66774576aada","system_id":"levelo_inurba_marseille","lat":43.3375,"lon":5.3744,"is_reserved":false,"is_disabled":false,"rental_uris":{"android":"levelo://app?vid=2c0d1c7a-52d6-45c8-b950-66774576aada","ios":"levelo://app?vid=2c0d1c7a-52d6-45c8-b950-66774576aada"},"vehicle_type_id":"4","last_reported":1704298145,"current_range_meters":29600,"station_id":"","pricing_plan_id":"free"},{"bike_id":"8436be69-9835-4bbb-8e22-574227ba5ba1","system_id":"levelo_inurba_marseille","lat":43.33759,"lon":5.37453,"is_reserved":false,"is_disabled":false,"rental_uris":{"android":"levelo://app?vid=8436be69-9835-4bbb-8e22-574227ba5ba1","ios":"levelo://app?vid=8436be69-9835-4bbb-8e22-574227ba5ba1"},"vehicle_type_id":"4","last_reported":1704298145,"current_range_meters":30800,"station_id":"","pricing_plan_id":"free"},{"bike_id":"1cbd6909-480f-46a3-8b89-e515564a4c87","system_id":"levelo_inurba_marseille","lat":43.30642,"lon":5.401031,"is_reserved":false,"is_disabled":false,"rental_uris":{"android":"levelo://app?vid=1cbd6909-480f-46a3-8b89-e515564a4c87","ios":"levelo://app?vid=1cbd6909-480f-46a3-8b89-e515564a4c87"},"vehicle_type_id":"4","last_reported":1704298145,"current_range_meters":15600,"station_id":"ce4bh112rcd13ifvqda0","pricing_plan_id":"free"},{"bike_id":"51a0a8a3-3639-466d-9d13-8d456b066d7e","system_id":"levelo_inurba_marseille","lat":43.306412,"lon":5.401035,"is_reserved":false,"is_disabled":false,"rental_uris":{"android":"levelo://app?vid=51a0a8a3-3639-466d-9d13-8d456b066d7e","ios":"levelo://app?vid=51a0a8a3-3639-466d-9d13-8d456b066d7e"},"vehicle_type_id":"4","last_reported":1704298145,"current_range_meters":30400,"station_id":"ce4bh112rcd13ifvqda0","pricing_plan_id":"free"},{"bike_id":"428d3ba6-f4df-40a8-9af3-6cc94cd66e04","system_id":"levelo_inurba_marseille","lat":43.301117,"lon":5.398795,"is_reserved":false,"is_disabled":false,"rental_uris":{"android":"levelo://app?vid=428d3ba6-f4df-40a8-9af3-6cc94cd66e04","ios":"levelo://app?vid=428d3ba6-f4df-40a8-9af3-6cc94cd66e04"},"vehicle_type_id":"4","last_reported":1704298145,"current_range_meters":7600,"station_id":"ce4bh0h2rcd13ifvqd40","pricing_plan_id":"free"},{"bike_id":"6778684a-0384-4957-902e-41f5ea71a498","system_id":"levelo_inurba_marseille","lat":43.301117,"lon":5.398795,"is_reserved":false,"is_disabled":false,"rental_uris":{"android":"levelo://app?vid=6778684a-0384-4957-902e-41f5ea71a498","ios":"levelo://app?vid=6778684a-0384-4957-902e-41f5ea71a498"},"vehicle_type_id":"4","last_reported":1704298145,"current_range_meters":17600,"station_id":"ce4bh0h2rcd13ifvqd40","pricing_plan_id":"free"},{"bike_id":"7c76d4d5-ac57-4d51-a062-3d765e0f22a5","system_id":"levelo_inurba_marseille","lat":43.286961,"lon":5.373785,"is_reserved":false,"is_disabled":false,"rental_uris":{"android":"levelo://app?vid=7c76d4d5-ac57-4d51-a062-3d765e0f22a5","ios":"levelo://app?vid=7c76d4d5-ac57-4d51-a062-3d765e0f22a5"},"vehicle_type_id":"4","last_reported":1704298145,"current_range_meters":21200,"station_id":"ce4bh3p2rcd13ifvqdq0","pricing_plan_id":"free"},{"bike_id":"f303f43e-9c24-4602-bdb2-6fa990aa4da6","system_id":"levelo_inurba_marseille","lat":43.298681,"lon":5.397225,"is_reserved":false,"is_disabled":false,"rental_uris":{"android":"levelo://app?vid=f303f43e-9c24-4602-bdb2-6fa990aa4da6","ios":"levelo://app?vid=f303f43e-9c24-4602-bdb2-6fa990aa4da6"},"vehicle_type_id":"4","last_reported":1704298145,"current_range_meters":30400,"station_id":"ce4bh0h2rcd13ifvqd50","pricing_plan_id":"free"},{"bike_id":"70e04e61-65b1-425a-b8c2-2cb1e2eee435","system_id":"levelo_inurba_marseille","lat":43.298681,"lon":5.397225,"is_reserved":false,"is_disabled":false,"rental_uris":{"android":"levelo://app?vid=70e04e61-65b1-425a-b8c2-2cb1e2eee435","ios":"levelo://app?vid=70e04e61-65b1-425a-b8c2-2cb1e2eee435"},"vehicle_type_id":"4","last_reported":1704298145,"current_range_meters":2800,"station_id":"ce4bh0h2rcd13ifvqd50","pricing_plan_id":"free"},{"bike_id":"f6e8273d-2071-44f2-a792-2d5af4128367","system_id":"levelo_inurba_marseille","lat":43.298681,"lon":5.397225,"is_reserved":false,"is_disabled":false,"rental_uris":{"android":"levelo://app?vid=f6e8273d-2071-44f2-a792-2d5af4128367","ios":"levelo://app?vid=f6e8273d-2071-44f2-a792-2d5af4128367"},"vehicle_type_id":"4","last_reported":1704298145,"current_range_meters":18000,"station_id":"ce4bh0h2rcd13ifvqd50","pricing_plan_id":"free"},{"bike_id":"8e730135-a779-4d75-9d52-797f5d47a6b6","system_id":"levelo_inurba_marseille","lat":43.298681,"lon":5.397225,"is_reserved":false,"is_disabled":false,"rental_uris":{"android":"levelo://app?vid=8e730135-a779-4d75-9d52-797f5d47a6b6","ios":"levelo://app?vid=8e730135-a779-4d75-9d52-797f5d47a6b6"},"vehicle_type_id":"4","last_reported":1704298145,"current_range_meters":4800,"station_id":"ce4bh0h2rcd13ifvqd50","pricing_plan_id":"free"},{"bike_id":"35eb067a-34ce-4053-93a5-894ea7d21efa","system_id":"levelo_inurba_marseille","lat":43.286961,"lon":5.373785,"is_reserved":false,"is_disabled":false,"rental_uris":{"android":"levelo://app?vid=35eb067a-34ce-4053-93a5-894ea7d21efa","ios":"levelo://app?vid=35eb067a-34ce-4053-93a5-894ea7d21efa"},"vehicle_type_id":"4","last_reported":1704298145,"current_range_meters":10400,"station_id":"ce4bh3p2rcd13ifvqdq0","pricing_plan_id":"free"},{"bike_id":"b5a5fb62-8c46-47e9-80ca-300775cf9441","system_id":"levelo_inurba_marseille","lat":43.298681,"lon":5.397225,"is_reserved":false,"is_disabled":false,"rental_uris":{"android":"levelo://app?vid=b5a5fb62-8c46-47e9-80ca-300775cf9441","ios":"levelo://app?vid=b5a5fb62-8c46-47e9-80ca-300775cf9441"},"vehicle_type_id":"4","last_reported":1704298145,"current_range_meters":16800,"station_id":"ce4bh0h2rcd13ifvqd50","pricing_plan_id":"free"},{"bike_id":"b896c28b-8222-419c-94f7-2c9bc6c4b90e","system_id":"levelo_inurba_marseille","lat":43.286593,"lon":5.363346,"is_reserved":false,"is_disabled":false,"rental_uris":{"android":"levelo://app?vid=b896c28b-8222-419c-94f7-2c9bc6c4b90e","ios":"levelo://app?vid=b896c28b-8222-419c-94f7-2c9bc6c4b90e"},"vehicle_type_id":"4","last_reported":1704298145,"current_range_meters":8800,"station_id":"ce4bhah2rcd13ifvqej0","pricing_plan_id":"free"},{"bike_id":"e21abbd1-07c1-468b-a6bb-d8f44d038c58","system_id":"levelo_inurba_marseille","lat":43.298681,"lon":5.397225,"is_reserved":false,"is_disabled":false,"rental_uris":{"android":"levelo://app?vid=e21abbd1-07c1-468b-a6bb-d8f44d038c58","ios":"levelo://app?vid=e21abbd1-07c1-468b-a6bb-d8f44d038c58"},"vehicle_type_id":"4","last_reported":1704298145,"current_range_meters":4400,"station_id":"ce4bh0h2rcd13ifvqd50","pricing_plan_id":"free"},{"bike_id":"12596249-d049-4099-9f5e-be9ed79f8390","system_id":"levelo_inurba_marseille","lat":43.286961,"lon":5.373785,"is_reserved":false,"is_disabled":false,"rental_uris":{"android":"levelo://app?vid=12596249-d049-4099-9f5e-be9ed79f8390","ios":"levelo://app?vid=12596249-d049-4099-9f5e-be9ed79f8390"},"vehicle_type_id":"4","last_reported":1704298145,"current_range_meters":29600,"station_id":"ce4bh3p2rcd13ifvqdq0","pricing_plan_id":"free"},{"bike_id":"7f2365ad-4054-4aef-9d6a-277241efe940","system_id":"levelo_inurba_marseille","lat":43.289307,"lon":5.38406,"is_reserved":false,"is_disabled":false,"rental_uris":{"android":"levelo://app?vid=7f2365ad-4054-4aef-9d6a-277241efe940","ios":"levelo://app?vid=7f2365ad-4054-4aef-9d6a-277241efe940"},"vehicle_type_id":"4","last_reported":1704298145,"current_range_meters":18000,"station_id":"ce4bh612rcd13ifvqe6g","pricing_plan_id":"free"},{"bike_id":"5d11992a-27f5-46b4-a25b-eeb79abb101e","system_id":"levelo_inurba_marseille","lat":43.290345,"lon":5.38646,"is_reserved":false,"is_disabled":false,"rental_uris":{"android":"levelo://app?vid=5d11992a-27f5-46b4-a25b-eeb79abb101e","ios":"levelo://app?vid=5d11992a-27f5-46b4-a25b-eeb79abb101e"},"vehicle_type_id":"4","last_reported":1704298145,"current_range_meters":25200,"station_id":"ce4bh4p2rcd13ifvqe0g","pricing_plan_id":"free"},{"bike_id":"b0926c09-774d-43ff-8230-69d05db7714e","system_id":"levelo_inurba_marseille","lat":43.302759,"lon":5.400793,"is_reserved":false,"is_disabled":false,"rental_uris":{"android":"levelo://app?vid=b0926c09-774d-43ff-8230-69d05db7714e","ios":"levelo://app?vid=b0926c09-774d-43ff-8230-69d05db7714e"},"vehicle_type_id":"4","last_reported":1704298145,"current_range_meters":15200,"station_id":"ce4bgvh2rcd13ifvqcs0","pricing_plan_id":"free"},{"bike_id":"0175dd92-510d-4136-904c-4d56a2c46f3d","system_id":"levelo_inurba_marseille","lat":43.286039,"lon":5.370679,"is_reserved":false,"is_disabled":false,"rental_uris":{"android":"levelo://app?vid=0175dd92-510d-4136-904c-4d56a2c46f3d","ios":"levelo://app?vid=0175dd92-510d-4136-904c-4d56a2c46f3d"},"vehicle_type_id":"4","last_reported":1704298145,"current_range_meters":21600,"station_id":"ce4bht12rcd13ifvqi60","pricing_plan_id":"free"},{"bike_id":"2af292cf-5bb0-4ffb-b627-40b0d390345c","system_id":"levelo_inurba_marseille","lat":43.286039,"lon":5.370679,"is_reserved":false,"is_disabled":false,"rental_uris":{"android":"levelo://app?vid=2af292cf-5bb0-4ffb-b627-40b0d390345c","ios":"levelo://app?vid=2af292cf-5bb0-4ffb-b627-40b0d390345c"},"vehicle_type_id":"4","last_reported":1704298145,"current_range_meters":11200,"station_id":"ce4bht12rcd13ifvqi60","pricing_plan_id":"free"},{"bike_id":"81639372-482c-4a45-b75d-400bd1daddad","system_id":"levelo_inurba_marseille","lat":43.287184,"lon":5.37937,"is_reserved":false,"is_disabled":false,"rental_uris":{"android":"levelo://app?vid=81639372-482c-4a45-b75d-400bd1daddad","ios":"levelo://app?vid=81639372-482c-4a45-b75d-400bd1daddad"},"vehicle_type_id":"4","last_reported":1704298145,"current_range_meters":23200,"station_id":"ce4bh9p2rcd13ifvqec0","pricing_plan_id":"free"},{"bike_id":"887091cd-5e20-4792-9733-1f989557148e","system_id":"levelo_inurba_marseille","lat":43.316828,"lon":5.404723,"is_reserved":false,"is_disabled":false,"rental_uris":{"android":"levelo://app?vid=887091cd-5e20-4792-9733-1f989557148e","ios":"levelo://app?vid=887091cd-5e20-4792-9733-1f989557148e"},"vehicle_type_id":"4","last_reported":1704298145,"current_range_meters":2400,"station_id":"ce4bh012rcd13ifvqd00","pricing_plan_id":"free"},{"bike_id":"f5d82a7d-de2f-4fa0-98f2-fd2ed421d124","system_id":"levelo_inurba_marseille","lat":43.285856,"lon":5.350771,"is_reserved":false,"is_disabled":false,"rental_uris":{"android":"levelo://app?vid=f5d82a7d-de2f-4fa0-98f2-fd2ed421d124","ios":"levelo://app?vid=f5d82a7d-de2f-4fa0-98f2-fd2ed421d124"},"vehicle_type_id":"4","last_reported":1704298145,"current_range_meters":4400,"station_id":"ce4bhch2rcd13ifvqeug","pricing_plan_id":"free"},{"bike_id":"86c8a6f8-a1d2-4a7a-b4bc-f34be3f89fe4","system_id":"levelo_inurba_marseille","lat":43.294314,"lon":5.397498,"is_reserved":false,"is_disabled":false,"rental_uris":{"android":"levelo://app?vid=86c8a6f8-a1d2-4a7a-b4bc-f34be3f89fe4","ios":"levelo://app?vid=86c8a6f8-a1d2-4a7a-b4bc-f34be3f89fe4"},"vehicle_type_id":"4","last_reported":1704298145,"current_range_meters":1600,"station_id":"ce4bh3h2rcd13ifvqdo0","pricing_plan_id":"free"},{"bike_id":"5ab4916f-bad6-4b6a-a0d9-d65c70a2170e","system_id":"levelo_inurba_marseille","lat":43.283998,"lon":5.375062,"is_reserved":false,"is_disabled":false,"rental_uris":{"android":"levelo://app?vid=5ab4916f-bad6-4b6a-a0d9-d65c70a2170e","ios":"levelo://app?vid=5ab4916f-bad6-4b6a-a0d9-d65c70a2170e"},"vehicle_type_id":"4","last_reported":1704298145,"current_range_meters":31200,"station_id":"ce4bh412rcd13ifvqds0","pricing_plan_id":"free"},{"bike_id":"ad2a5991-3832-4a27-9d86-9b301a0c299d","system_id":"levelo_inurba_marseille","lat":43.295713,"lon":5.399639,"is_reserved":false,"is_disabled":false,"rental_uris":{"android":"levelo://app?vid=ad2a5991-3832-4a27-9d86-9b301a0c299d","ios":"levelo://app?vid=ad2a5991-3832-4a27-9d86-9b301a0c299d"},"vehicle_type_id":"4","last_reported":1704298145,"current_range_meters":10800,"station_id":"ce4bh312rcd13ifvqdj0","pricing_plan_id":"free"},{"bike_id":"2a275a79-954d-4501-aeae-8545ac33dcdf","system_id":"levelo_inurba_marseille","lat":43.284077,"lon":5.375051,"is_reserved":false,"is_disabled":false,"rental_uris":{"android":"levelo://app?vid=2a275a79-954d-4501-aeae-8545ac33dcdf","ios":"levelo://app?vid=2a275a79-954d-4501-aeae-8545ac33dcdf"},"vehicle_type_id":"4","last_reported":1704298145,"current_range_meters":22400,"station_id":"ce4bh412rcd13ifvqds0","pricing_plan_id":"free"},{"bike_id":"384794dd-3609-4fb2-9636-508b09f06d89","system_id":"levelo_inurba_marseille","lat":43.28668,"lon":5.38668,"is_reserved":false,"is_disabled":false,"rental_uris":{"android":"levelo://app?vid=384794dd-3609-4fb2-9636-508b09f06d89","ios":"levelo://app?vid=384794dd-3609-4fb2-9636-508b09f06d89"},"vehicle_type_id":"4","last_reported":1704298145,"current_range_meters":18400,"station_id":"ce4bh492rcd13ifvqdug","pricing_plan_id":"free"},{"bike_id":"cd69a79e-1d8d-4852-8c0b-4e922bc35892","system_id":"levelo_inurba_marseille","lat":43.286595,"lon":5.386795,"is_reserved":false,"is_disabled":false,"rental_uris":{"android":"levelo://app?vid=cd69a79e-1d8d-4852-8c0b-4e922bc35892","ios":"levelo://app?vid=cd69a79e-1d8d-4852-8c0b-4e922bc35892"},"vehicle_type_id":"4","last_reported":1704298145,"current_range_meters":11200,"station_id":"ce4bh492rcd13ifvqdug","pricing_plan_id":"free"},{"bike_id":"541c20ee-763f-4697-b50a-7c17d2dbd70d","system_id":"levelo_inurba_marseille","lat":43.323464,"lon":5.406297,"is_reserved":false,"is_disabled":false,"rental_uris":{"android":"levelo://app?vid=541c20ee-763f-4697-b50a-7c17d2dbd70d","ios":"levelo://app?vid=541c20ee-763f-4697-b50a-7c17d2dbd70d"},"vehicle_type_id":"4","last_reported":1704298145,"current_range_meters":27200,"station_id":"ce4bhq92rcd13ifvqhjg","pricing_plan_id":"free"},{"bike_id":"a98304e0-e3a2-4748-90c0-981767c54353","system_id":"levelo_inurba_marseille","lat":43.283494,"lon":5.380945,"is_reserved":false,"is_disabled":false,"rental_uris":{"android":"levelo://app?vid=a98304e0-e3a2-4748-90c0-981767c54353","ios":"levelo://app?vid=a98304e0-e3a2-4748-90c0-981767c54353"},"vehicle_type_id":"4","last_reported":1704298145,"current_range_meters":30400,"station_id":"ce4bh412rcd13ifvqdr0","pricing_plan_id":"free"},{"bike_id":"4cc32faf-c266-4535-bdff-c42098dbefc9","system_id":"levelo_inurba_marseille","lat":43.321906,"lon":5.407856,"is_reserved":false,"is_disabled":false,"rental_uris":{"android":"levelo://app?vid=4cc32faf-c266-4535-bdff-c42098dbefc9","ios":"levelo://app?vid=4cc32faf-c266-4535-bdff-c42098dbefc9"},"vehicle_type_id":"4","last_reported":1704298145,"current_range_meters":19200,"station_id":"","pricing_plan_id":"free"},{"bike_id":"21c5f497-be48-40b8-a41f-5fddcbccb9a8","system_id":"levelo_inurba_marseille","lat":43.289363,"lon":5.396322,"is_reserved":false,"is_disabled":false,"rental_uris":{"android":"levelo://app?vid=21c5f497-be48-40b8-a41f-5fddcbccb9a8","ios":"levelo://app?vid=21c5f497-be48-40b8-a41f-5fddcbccb9a8"},"vehicle_type_id":"4","last_reported":1704298145,"current_range_meters":18000,"station_id":"ce4bh3h2rcd13ifvqdn0","pricing_plan_id":"free"},{"bike_id":"d1409c29-6588-4e2d-b710-1469be853e96","system_id":"levelo_inurba_marseille","lat":43.292724,"lon":5.401131,"is_reserved":false,"is_disabled":false,"rental_uris":{"android":"levelo://app?vid=d1409c29-6588-4e2d-b710-1469be853e96","ios":"levelo://app?vid=d1409c29-6588-4e2d-b710-1469be853e96"},"vehicle_type_id":"4","last_reported":1704298145,"current_range_meters":6000,"station_id":"ce4bh312rcd13ifvqdk0","pricing_plan_id":"free"},{"bike_id":"82c25bf4-53f6-408d-a536-902ba669b811","system_id":"levelo_inurba_marseille","lat":43.292724,"lon":5.401131,"is_reserved":false,"is_disabled":false,"rental_uris":{"android":"levelo://app?vid=82c25bf4-53f6-408d-a536-902ba669b811","ios":"levelo://app?vid=82c25bf4-53f6-408d-a536-902ba669b811"},"vehicle_type_id":"4","last_reported":1704298145,"current_range_meters":12000,"station_id":"ce4bh312rcd13ifvqdk0","pricing_plan_id":"free"},{"bike_id":"fe6cb77b-8ab4-4271-8c19-533d2ba30560","system_id":"levelo_inurba_marseille","lat":43.282707,"lon":5.350703,"is_reserved":false,"is_disabled":false,"rental_uris":{"android":"levelo://app?vid=fe6cb77b-8ab4-4271-8c19-533d2ba30560","ios":"levelo://app?vid=fe6cb77b-8ab4-4271-8c19-533d2ba30560"},"vehicle_type_id":"4","last_reported":1704298145,"current_range_meters":4800,"station_id":"ce4bhbp2rcd13ifvqerg","pricing_plan_id":"free"},{"bike_id":"ef97aa5a-e3f7-40bd-9e67-237bf7855f3b","system_id":"levelo_inurba_marseille","lat":43.290412,"lon":5.399633,"is_reserved":false,"is_disabled":false,"rental_uris":{"android":"levelo://app?vid=ef97aa5a-e3f7-40bd-9e67-237bf7855f3b","ios":"levelo://app?vid=ef97aa5a-e3f7-40bd-9e67-237bf7855f3b"},"vehicle_type_id":"4","last_reported":1704298145,"current_range_meters":16000,"station_id":"ce4bh392rcd13ifvqdm0","pricing_plan_id":"free"},{"bike_id":"700d9111-ca41-4dca-ab79-42edfaa435a8","system_id":"levelo_inurba_marseille","lat":43.29041,"lon":5.399634,"is_reserved":false,"is_disabled":false,"rental_uris":{"android":"levelo://app?vid=700d9111-ca41-4dca-ab79-42edfaa435a8","ios":"levelo://app?vid=700d9111-ca41-4dca-ab79-42edfaa435a8"},"vehicle_type_id":"4","last_reported":1704298145,"current_range_meters":15200,"station_id":"ce4bh392rcd13ifvqdm0","pricing_plan_id":"free"},{"bike_id":"7188518e-999d-4a9c-b0ee-72ed71cd3af5","system_id":"levelo_inurba_marseille","lat":43.281044,"lon":5.378308,"is_reserved":false,"is_disabled":false,"rental_uris":{"android":"levelo://app?vid=7188518e-999d-4a9c-b0ee-72ed71cd3af5","ios":"levelo://app?vid=7188518e-999d-4a9c-b0ee-72ed71cd3af5"},"vehicle_type_id":"4","last_reported":1704298145,"current_range_meters":23600,"station_id":"ce4bha12rcd13ifvqee0","pricing_plan_id":"free"},{"bike_id":"53c82db5-f1ba-4b3a-a30d-9bacb99aae38","system_id":"levelo_inurba_marseille","lat":43.29601,"lon":5.381084,"is_reserved":false,"is_disabled":false,"rental_uris":{"android":"levelo://app?vid=53c82db5-f1ba-4b3a-a30d-9bacb99aae38","ios":"levelo://app?vid=53c82db5-f1ba-4b3a-a30d-9bacb99aae38"},"vehicle_type_id":"4","last_reported":1704298145,"current_range_meters":14400,"station_id":"ce4bgl12rcd13ifvqbo0","pricing_plan_id":"free"},{"bike_id":"16fa1853-8ac9-42ad-92b7-f748f3f15a4a","system_id":"levelo_inurba_marseille","lat":43.29041,"lon":5.399634,"is_reserved":false,"is_disabled":false,"rental_uris":{"android":"levelo://app?vid=16fa1853-8ac9-42ad-92b7-f748f3f15a4a","ios":"levelo://app?vid=16fa1853-8ac9-42ad-92b7-f748f3f15a4a"},"vehicle_type_id":"4","last_reported":1704298145,"current_range_meters":27200,"station_id":"ce4bh392rcd13ifvqdm0","pricing_plan_id":"free"},{"bike_id":"a4eb3120-4634-4fc5-a331-bf81c67ce87c","system_id":"levelo_inurba_marseille","lat":43.284462,"lon":5.392121,"is_reserved":false,"is_disabled":false,"rental_uris":{"android":"levelo://app?vid=a4eb3120-4634-4fc5-a331-bf81c67ce87c","ios":"levelo://app?vid=a4eb3120-4634-4fc5-a331-bf81c67ce87c"},"vehicle_type_id":"4","last_reported":1704298145,"current_range_meters":23600,"station_id":"ce4bhoh2rcd13ifvqh5g","pricing_plan_id":"free"},{"bike_id":"e12d229b-8c8b-498e-abb8-b8936440b26e","system_id":"levelo_inurba_marseille","lat":43.284462,"lon":5.392121,"is_reserved":false,"is_disabled":false,"rental_uris":{"android":"levelo://app?vid=e12d229b-8c8b-498e-abb8-b8936440b26e","ios":"levelo://app?vid=e12d229b-8c8b-498e-abb8-b8936440b26e"},"vehicle_type_id":"4","last_reported":1704298145,"current_range_meters":3600,"station_id":"ce4bhoh2rcd13ifvqh5g","pricing_plan_id":"free"},{"bike_id":"e69b4d55-a64d-4cb3-94d1-8d64a6bf7958","system_id":"levelo_inurba_marseille","lat":43.284462,"lon":5.392121,"is_reserved":false,"is_disabled":false,"rental_uris":{"android":"levelo://app?vid=e69b4d55-a64d-4cb3-94d1-8d64a6bf7958","ios":"levelo://app?vid=e69b4d55-a64d-4cb3-94d1-8d64a6bf7958"},"vehicle_type_id":"4","last_reported":1704298145,"current_range_meters":14800,"station_id":"ce4bhoh2rcd13ifvqh5g","pricing_plan_id":"free"},{"bike_id":"323b26af-4458-4933-acda-65a5526c154f","system_id":"levelo_inurba_marseille","lat":43.28573,"lon":5.394992,"is_reserved":false,"is_disabled":false,"rental_uris":{"android":"levelo://app?vid=323b26af-4458-4933-acda-65a5526c154f","ios":"levelo://app?vid=323b26af-4458-4933-acda-65a5526c154f"},"vehicle_type_id":"4","last_reported":1704298145,"current_range_meters":5600,"station_id":"ce4bh292rcd13ifvqdg0","pricing_plan_id":"free"},{"bike_id":"5477ac4d-a0fe-4505-88b0-8b16a8c1629c","system_id":"levelo_inurba_marseille","lat":43.28573,"lon":5.394992,"is_reserved":false,"is_disabled":false,"rental_uris":{"android":"levelo://app?vid=5477ac4d-a0fe-4505-88b0-8b16a8c1629c","ios":"levelo://app?vid=5477ac4d-a0fe-4505-88b0-8b16a8c1629c"},"vehicle_type_id":"4","last_reported":1704298145,"current_range_meters":14800,"station_id":"ce4bh292rcd13ifvqdg0","pricing_plan_id":"free"},{"bike_id":"1b388849-2476-4bc8-a56d-7ce92d9a55b7","system_id":"levelo_inurba_marseille","lat":43.326605,"lon":5.409903,"is_reserved":false,"is_disabled":false,"rental_uris":{"android":"levelo://app?vid=1b388849-2476-4bc8-a56d-7ce92d9a55b7","ios":"levelo://app?vid=1b388849-2476-4bc8-a56d-7ce92d9a55b7"},"vehicle_type_id":"4","last_reported":1704298145,"current_range_meters":30800,"station_id":"ce4bhpp2rcd13ifvqhgg","pricing_plan_id":"free"},{"bike_id":"5acb9355-89a2-47b3-87c4-a4f17bb5357e","system_id":"levelo_inurba_marseille","lat":43.279087,"lon":5.380114,"is_reserved":false,"is_disabled":false,"rental_uris":{"android":"levelo://app?vid=5acb9355-89a2-47b3-87c4-a4f17bb5357e","ios":"levelo://app?vid=5acb9355-89a2-47b3-87c4-a4f17bb5357e"},"vehicle_type_id":"4","last_reported":1704298145,"current_range_meters":25600,"station_id":"ce4bhf92rcd13ifvqf50","pricing_plan_id":"free"},{"bike_id":"3639dce5-acb9-4edd-91cf-bb701110515f","system_id":"levelo_inurba_marseille","lat":43.287154,"lon":5.399979,"is_reserved":false,"is_disabled":false,"rental_uris":{"android":"levelo://app?vid=3639dce5-acb9-4edd-91cf-bb701110515f","ios":"levelo://app?vid=3639dce5-acb9-4edd-91cf-bb701110515f"},"vehicle_type_id":"4","last_reported":1704298145,"current_range_meters":1200,"station_id":"ce4bho92rcd13ifvqh3g","pricing_plan_id":"free"},{"bike_id":"36176871-6889-4fc9-9b9e-3941cddddf51","system_id":"levelo_inurba_marseille","lat":43.287154,"lon":5.399979,"is_reserved":false,"is_disabled":false,"rental_uris":{"android":"levelo://app?vid=36176871-6889-4fc9-9b9e-3941cddddf51","ios":"levelo://app?vid=36176871-6889-4fc9-9b9e-3941cddddf51"},"vehicle_type_id":"4","last_reported":1704298145,"current_range_meters":0,"station_id":"ce4bho92rcd13ifvqh3g","pricing_plan_id":"free"},{"bike_id":"6e8c1f28-086b-46f7-8204-d5b2382e344d","system_id":"levelo_inurba_marseille","lat":43.287154,"lon":5.399979,"is_reserved":false,"is_disabled":false,"rental_uris":{"android":"levelo://app?vid=6e8c1f28-086b-46f7-8204-d5b2382e344d","ios":"levelo://app?vid=6e8c1f28-086b-46f7-8204-d5b2382e344d"},"vehicle_type_id":"4","last_reported":1704298145,"current_range_meters":1200,"station_id":"ce4bho92rcd13ifvqh3g","pricing_plan_id":"free"},{"bike_id":"1d7d0b44-395f-4e21-af9d-8af1ed86a5aa","system_id":"levelo_inurba_marseille","lat":43.299579,"lon":5.413255,"is_reserved":false,"is_disabled":false,"rental_uris":{"android":"levelo://app?vid=1d7d0b44-395f-4e21-af9d-8af1ed86a5aa","ios":"levelo://app?vid=1d7d0b44-395f-4e21-af9d-8af1ed86a5aa"},"vehicle_type_id":"4","last_reported":1704298145,"current_range_meters":26400,"station_id":"ce4bhp12rcd13ifvqh9g","pricing_plan_id":"free"},{"bike_id":"c8cb32f9-d2fb-406e-8147-e0d8ea5056e0","system_id":"levelo_inurba_marseille","lat":43.303837,"lon":5.418724,"is_reserved":false,"is_disabled":false,"rental_uris":{"android":"levelo://app?vid=c8cb32f9-d2fb-406e-8147-e0d8ea5056e0","ios":"levelo://app?vid=c8cb32f9-d2fb-406e-8147-e0d8ea5056e0"},"vehicle_type_id":"4","last_reported":1704298145,"current_range_meters":18800,"station_id":"ce4bhop2rcd13ifvqh7g","pricing_plan_id":"free"},{"bike_id":"671f6544-8ba5-4ff1-ba13-151bfa4b1c7f","system_id":"levelo_inurba_marseille","lat":43.278401,"lon":5.392152,"is_reserved":false,"is_disabled":false,"rental_uris":{"android":"levelo://app?vid=671f6544-8ba5-4ff1-ba13-151bfa4b1c7f","ios":"levelo://app?vid=671f6544-8ba5-4ff1-ba13-151bfa4b1c7f"},"vehicle_type_id":"4","last_reported":1704298145,"current_range_meters":0,"station_id":"ce4bhjp2rcd13ifvqga0","pricing_plan_id":"free"},{"bike_id":"95b4375b-a1a8-4788-bdf9-5245b47e35c5","system_id":"levelo_inurba_marseille","lat":43.273613,"lon":5.362705,"is_reserved":false,"is_disabled":false,"rental_uris":{"android":"levelo://app?vid=95b4375b-a1a8-4788-bdf9-5245b47e35c5","ios":"levelo://app?vid=95b4375b-a1a8-4788-bdf9-5245b47e35c5"},"vehicle_type_id":"4","last_reported":1704298145,"current_range_meters":24400,"station_id":"ce4bhbh2rcd13ifvqeo0","pricing_plan_id":"free"},{"bike_id":"fb61eef1-7106-4832-a215-009485565f72","system_id":"levelo_inurba_marseille","lat":43.275625,"lon":5.384392,"is_reserved":false,"is_disabled":false,"rental_uris":{"android":"levelo://app?vid=fb61eef1-7106-4832-a215-009485565f72","ios":"levelo://app?vid=fb61eef1-7106-4832-a215-009485565f72"},"vehicle_type_id":"4","last_reported":1704298145,"current_range_meters":12800,"station_id":"ce4bhh92rcd13ifvqfi0","pricing_plan_id":"free"},{"bike_id":"18690fce-3180-4151-915b-304db4b33073","system_id":"levelo_inurba_marseille","lat":43.276771,"lon":5.388799,"is_reserved":false,"is_disabled":false,"rental_uris":{"android":"levelo://app?vid=18690fce-3180-4151-915b-304db4b33073","ios":"levelo://app?vid=18690fce-3180-4151-915b-304db4b33073"},"vehicle_type_id":"4","last_reported":1704298145,"current_range_meters":19200,"station_id":"ce4bhi12rcd13ifvqfo0","pricing_plan_id":"free"},{"bike_id":"5e3452d0-bbc8-463b-8852-ec98e809d5a0","system_id":"levelo_inurba_marseille","lat":43.317121,"lon":5.423936,"is_reserved":false,"is_disabled":false,"rental_uris":{"android":"levelo://app?vid=5e3452d0-bbc8-463b-8852-ec98e809d5a0","ios":"levelo://app?vid=5e3452d0-bbc8-463b-8852-ec98e809d5a0"},"vehicle_type_id":"4","last_reported":1704298145,"current_range_meters":31200,"station_id":"ce4bhp92rcd13ifvqhbg","pricing_plan_id":"free"},{"bike_id":"d77951a7-3cab-4a7a-920c-f716d44755f3","system_id":"levelo_inurba_marseille","lat":43.317121,"lon":5.423936,"is_reserved":false,"is_disabled":false,"rental_uris":{"android":"levelo://app?vid=d77951a7-3cab-4a7a-920c-f716d44755f3","ios":"levelo://app?vid=d77951a7-3cab-4a7a-920c-f716d44755f3"},"vehicle_type_id":"4","last_reported":1704298145,"current_range_meters":20400,"station_id":"ce4bhp92rcd13ifvqhbg","pricing_plan_id":"free"},{"bike_id":"fde37104-e5d4-467c-aac0-ca05377fa20f","system_id":"levelo_inurba_marseille","lat":43.340804,"lon":5.410219,"is_reserved":false,"is_disabled":false,"rental_uris":{"android":"levelo://app?vid=fde37104-e5d4-467c-aac0-ca05377fa20f","ios":"levelo://app?vid=fde37104-e5d4-467c-aac0-ca05377fa20f"},"vehicle_type_id":"4","last_reported":1704298145,"current_range_meters":24000,"station_id":"ce4bhqh2rcd13ifvqhlg","pricing_plan_id":"free"},{"bike_id":"e920f369-09be-4ca3-951b-777826d116a5","system_id":"levelo_inurba_marseille","lat":43.340804,"lon":5.410219,"is_reserved":false,"is_disabled":false,"rental_uris":{"android":"levelo://app?vid=e920f369-09be-4ca3-951b-777826d116a5","ios":"levelo://app?vid=e920f369-09be-4ca3-951b-777826d116a5"},"vehicle_type_id":"4","last_reported":1704298145,"current_range_meters":30400,"station_id":"ce4bhqh2rcd13ifvqhlg","pricing_plan_id":"free"},{"bike_id":"2c1ed782-491e-4c52-8799-f108c7ac3a0d","system_id":"levelo_inurba_marseille","lat":43.250966,"lon":5.395186,"is_reserved":false,"is_disabled":false,"rental_uris":{"android":"levelo://app?vid=2c1ed782-491e-4c52-8799-f108c7ac3a0d","ios":"levelo://app?vid=2c1ed782-491e-4c52-8799-f108c7ac3a0d"},"vehicle_type_id":"4","last_reported":1704298145,"current_range_meters":24000,"station_id":"ce4bhm12rcd13ifvqgkg","pricing_plan_id":"free"},{"bike_id":"80514927-1566-4f1d-8fa1-c2b0908e41d0","system_id":"levelo_inurba_marseille","lat":43.304096,"lon":5.425385,"is_reserved":false,"is_disabled":false,"rental_uris":{"android":"levelo://app?vid=80514927-1566-4f1d-8fa1-c2b0908e41d0","ios":"levelo://app?vid=80514927-1566-4f1d-8fa1-c2b0908e41d0"},"vehicle_type_id":"4","last_reported":1704298145,"current_range_meters":0,"station_id":"ce4bhoh2rcd13ifvqh6g","pricing_plan_id":"free"},{"bike_id":"0dbcf3e4-4bb1-4a12-ae9b-69c10c293eb6","system_id":"levelo_inurba_marseille","lat":43.304096,"lon":5.425385,"is_reserved":false,"is_disabled":false,"rental_uris":{"android":"levelo://app?vid=0dbcf3e4-4bb1-4a12-ae9b-69c10c293eb6","ios":"levelo://app?vid=0dbcf3e4-4bb1-4a12-ae9b-69c10c293eb6"},"vehicle_type_id":"4","last_reported":1704298145,"current_range_meters":29200,"station_id":"ce4bhoh2rcd13ifvqh6g","pricing_plan_id":"free"},{"bike_id":"a46aa693-d0de-4a70-8442-0b6b40401993","system_id":"levelo_inurba_marseille","lat":43.272116,"lon":5.391763,"is_reserved":false,"is_disabled":false,"rental_uris":{"android":"levelo://app?vid=a46aa693-d0de-4a70-8442-0b6b40401993","ios":"levelo://app?vid=a46aa693-d0de-4a70-8442-0b6b40401993"},"vehicle_type_id":"4","last_reported":1704298145,"current_range_meters":12000,"station_id":"ce4bhhp2rcd13ifvqfm0","pricing_plan_id":"free"},{"bike_id":"61794575-1c81-4f3e-abeb-00b1f6cf29ad","system_id":"levelo_inurba_marseille","lat":43.272116,"lon":5.391747,"is_reserved":false,"is_disabled":false,"rental_uris":{"android":"levelo://app?vid=61794575-1c81-4f3e-abeb-00b1f6cf29ad","ios":"levelo://app?vid=61794575-1c81-4f3e-abeb-00b1f6cf29ad"},"vehicle_type_id":"4","last_reported":1704298145,"current_range_meters":25200,"station_id":"ce4bhhp2rcd13ifvqfm0","pricing_plan_id":"free"},{"bike_id":"0640b4bd-f89d-4d12-b34c-b9c0b25193fb","system_id":"levelo_inurba_marseille","lat":43.272116,"lon":5.391747,"is_reserved":false,"is_disabled":false,"rental_uris":{"android":"levelo://app?vid=0640b4bd-f89d-4d12-b34c-b9c0b25193fb","ios":"levelo://app?vid=0640b4bd-f89d-4d12-b34c-b9c0b25193fb"},"vehicle_type_id":"4","last_reported":1704298145,"current_range_meters":28800,"station_id":"ce4bhhp2rcd13ifvqfm0","pricing_plan_id":"free"},{"bike_id":"3d565df6-c728-4293-ba6a-37551d8f8856","system_id":"levelo_inurba_marseille","lat":43.279465,"lon":5.410561,"is_reserved":false,"is_disabled":false,"rental_uris":{"android":"levelo://app?vid=3d565df6-c728-4293-ba6a-37551d8f8856","ios":"levelo://app?vid=3d565df6-c728-4293-ba6a-37551d8f8856"},"vehicle_type_id":"4","last_reported":1704298145,"current_range_meters":13600,"station_id":"ce4bhnp2rcd13ifvqh0g","pricing_plan_id":"free"},{"bike_id":"f7655d05-a37a-4bf1-a7c7-0fcfd1e8693a","system_id":"levelo_inurba_marseille","lat":43.279465,"lon":5.410561,"is_reserved":false,"is_disabled":false,"rental_uris":{"android":"levelo://app?vid=f7655d05-a37a-4bf1-a7c7-0fcfd1e8693a","ios":"levelo://app?vid=f7655d05-a37a-4bf1-a7c7-0fcfd1e8693a"},"vehicle_type_id":"4","last_reported":1704298145,"current_range_meters":27200,"station_id":"ce4bhnp2rcd13ifvqh0g","pricing_plan_id":"free"},{"bike_id":"8efa8d03-54c1-4959-9d8c-73a20fcfda69","system_id":"levelo_inurba_marseille","lat":43.269319,"lon":5.389397,"is_reserved":false,"is_disabled":false,"rental_uris":{"android":"levelo://app?vid=8efa8d03-54c1-4959-9d8c-73a20fcfda69","ios":"levelo://app?vid=8efa8d03-54c1-4959-9d8c-73a20fcfda69"},"vehicle_type_id":"4","last_reported":1704298145,"current_range_meters":22400,"station_id":"ce4bhhh2rcd13ifvqfl0","pricing_plan_id":"free"},{"bike_id":"397d9cb1-b76a-4b0e-ade0-553e9559bb93","system_id":"levelo_inurba_marseille","lat":43.269319,"lon":5.389397,"is_reserved":false,"is_disabled":false,"rental_uris":{"android":"levelo://app?vid=397d9cb1-b76a-4b0e-ade0-553e9559bb93","ios":"levelo://app?vid=397d9cb1-b76a-4b0e-ade0-553e9559bb93"},"vehicle_type_id":"4","last_reported":1704298145,"current_range_meters":14400,"station_id":"ce4bhhh2rcd13ifvqfl0","pricing_plan_id":"free"},{"bike_id":"d4fc07e4-ccf5-4ad4-a1a0-b40d93146876","system_id":"levelo_inurba_marseille","lat":43.26929,"lon":5.3893,"is_reserved":false,"is_disabled":false,"rental_uris":{"android":"levelo://app?vid=d4fc07e4-ccf5-4ad4-a1a0-b40d93146876","ios":"levelo://app?vid=d4fc07e4-ccf5-4ad4-a1a0-b40d93146876"},"vehicle_type_id":"4","last_reported":1704298145,"current_range_meters":31200,"station_id":"ce4bhhh2rcd13ifvqfl0","pricing_plan_id":"free"},{"bike_id":"3e0a583d-bde7-4d9e-b19b-3ff3a6c8d44c","system_id":"levelo_inurba_marseille","lat":43.269319,"lon":5.389397,"is_reserved":false,"is_disabled":false,"rental_uris":{"android":"levelo://app?vid=3e0a583d-bde7-4d9e-b19b-3ff3a6c8d44c","ios":"levelo://app?vid=3e0a583d-bde7-4d9e-b19b-3ff3a6c8d44c"},"vehicle_type_id":"4","last_reported":1704298145,"current_range_meters":26400,"station_id":"ce4bhhh2rcd13ifvqfl0","pricing_plan_id":"free"},{"bike_id":"1b1059ed-fd1d-4381-9472-0cb6808d2bf9","system_id":"levelo_inurba_marseille","lat":43.265714,"lon":5.372891,"is_reserved":false,"is_disabled":false,"rental_uris":{"android":"levelo://app?vid=1b1059ed-fd1d-4381-9472-0cb6808d2bf9","ios":"levelo://app?vid=1b1059ed-fd1d-4381-9472-0cb6808d2bf9"},"vehicle_type_id":"4","last_reported":1704298145,"current_range_meters":30000,"station_id":"ce4bhg12rcd13ifvqf70","pricing_plan_id":"free"},{"bike_id":"41f160ee-9d8e-4960-8721-b5dc7ef09b3a","system_id":"levelo_inurba_marseille","lat":43.289307,"lon":5.38406,"is_reserved":false,"is_disabled":false,"rental_uris":{"android":"levelo://app?vid=41f160ee-9d8e-4960-8721-b5dc7ef09b3a","ios":"levelo://app?vid=41f160ee-9d8e-4960-8721-b5dc7ef09b3a"},"vehicle_type_id":"4","last_reported":1704298145,"current_range_meters":28000,"station_id":"ce4bh612rcd13ifvqe6g","pricing_plan_id":"free"},{"bike_id":"2ebf2c8c-6bba-4a91-b191-987de8554349","system_id":"levelo_inurba_marseille","lat":43.281044,"lon":5.378308,"is_reserved":false,"is_disabled":false,"rental_uris":{"android":"levelo://app?vid=2ebf2c8c-6bba-4a91-b191-987de8554349","ios":"levelo://app?vid=2ebf2c8c-6bba-4a91-b191-987de8554349"},"vehicle_type_id":"4","last_reported":1704298145,"current_range_meters":28800,"station_id":"ce4bha12rcd13ifvqee0","pricing_plan_id":"free"},{"bike_id":"c34efe65-8334-4f57-a1e0-dd1720f1fdfb","system_id":"levelo_inurba_marseille","lat":43.267966,"lon":5.393976,"is_reserved":false,"is_disabled":false,"rental_uris":{"android":"levelo://app?vid=c34efe65-8334-4f57-a1e0-dd1720f1fdfb","ios":"levelo://app?vid=c34efe65-8334-4f57-a1e0-dd1720f1fdfb"},"vehicle_type_id":"4","last_reported":1704298145,"current_range_meters":15600,"station_id":"ce4bhh12rcd13ifvqfg0","pricing_plan_id":"free"},{"bike_id":"e15f4839-d309-4c8e-9d1d-563184182858","system_id":"levelo_inurba_marseille","lat":43.27996,"lon":5.416624,"is_reserved":false,"is_disabled":false,"rental_uris":{"android":"levelo://app?vid=e15f4839-d309-4c8e-9d1d-563184182858","ios":"levelo://app?vid=e15f4839-d309-4c8e-9d1d-563184182858"},"vehicle_type_id":"4","last_reported":1704298145,"current_range_meters":19600,"station_id":"ce4bho12rcd13ifvqh1g","pricing_plan_id":"free"},{"bike_id":"c7570391-77c0-4934-8f66-462cdf05b333","system_id":"levelo_inurba_marseille","lat":43.27996,"lon":5.416624,"is_reserved":false,"is_disabled":false,"rental_uris":{"android":"levelo://app?vid=c7570391-77c0-4934-8f66-462cdf05b333","ios":"levelo://app?vid=c7570391-77c0-4934-8f66-462cdf05b333"},"vehicle_type_id":"4","last_reported":1704298145,"current_range_meters":28000,"station_id":"ce4bho12rcd13ifvqh1g","pricing_plan_id":"free"},{"bike_id":"decd5786-0673-4eaa-891d-982bb9381d58","system_id":"levelo_inurba_marseille","lat":43.265714,"lon":5.372891,"is_reserved":false,"is_disabled":false,"rental_uris":{"android":"levelo://app?vid=decd5786-0673-4eaa-891d-982bb9381d58","ios":"levelo://app?vid=decd5786-0673-4eaa-891d-982bb9381d58"},"vehicle_type_id":"4","last_reported":1704298145,"current_range_meters":23200,"station_id":"ce4bhg12rcd13ifvqf70","pricing_plan_id":"free"},{"bike_id":"ceb9398a-6456-4da5-b6ad-be4e52602499","system_id":"levelo_inurba_marseille","lat":43.267966,"lon":5.393976,"is_reserved":false,"is_disabled":false,"rental_uris":{"android":"levelo://app?vid=ceb9398a-6456-4da5-b6ad-be4e52602499","ios":"levelo://app?vid=ceb9398a-6456-4da5-b6ad-be4e52602499"},"vehicle_type_id":"4","last_reported":1704298145,"current_range_meters":31200,"station_id":"ce4bhh12rcd13ifvqfg0","pricing_plan_id":"free"},{"bike_id":"c8467f24-6510-4c95-bdcd-ca858533e184","system_id":"levelo_inurba_marseille","lat":43.27996,"lon":5.416624,"is_reserved":false,"is_disabled":false,"rental_uris":{"android":"levelo://app?vid=c8467f24-6510-4c95-bdcd-ca858533e184","ios":"levelo://app?vid=c8467f24-6510-4c95-bdcd-ca858533e184"},"vehicle_type_id":"4","last_reported":1704298145,"current_range_meters":6400,"station_id":"ce4bho12rcd13ifvqh1g","pricing_plan_id":"free"},{"bike_id":"4e7b82a4-f271-4a72-bdbd-460d1cfbd58d","system_id":"levelo_inurba_marseille","lat":43.27181,"lon":5.404997,"is_reserved":false,"is_disabled":false,"rental_uris":{"android":"levelo://app?vid=4e7b82a4-f271-4a72-bdbd-460d1cfbd58d","ios":"levelo://app?vid=4e7b82a4-f271-4a72-bdbd-460d1cfbd58d"},"vehicle_type_id":"4","last_reported":1704298145,"current_range_meters":1200,"station_id":"ce4bhl12rcd13ifvqgf0","pricing_plan_id":"free"},{"bike_id":"e7c9ecba-33b1-453a-8003-a8e1ec8d62a3","system_id":"levelo_inurba_marseille","lat":43.308051,"lon":5.43527,"is_reserved":false,"is_disabled":false,"rental_uris":{"android":"levelo://app?vid=e7c9ecba-33b1-453a-8003-a8e1ec8d62a3","ios":"levelo://app?vid=e7c9ecba-33b1-453a-8003-a8e1ec8d62a3"},"vehicle_type_id":"4","last_reported":1704298145,"current_range_meters":31200,"station_id":"ce4bhph2rcd13ifvqheg","pricing_plan_id":"free"},{"bike_id":"c8a147d9-7221-45e7-ac71-c22f39bea382","system_id":"levelo_inurba_marseille","lat":43.308051,"lon":5.43527,"is_reserved":false,"is_disabled":false,"rental_uris":{"android":"levelo://app?vid=c8a147d9-7221-45e7-ac71-c22f39bea382","ios":"levelo://app?vid=c8a147d9-7221-45e7-ac71-c22f39bea382"},"vehicle_type_id":"4","last_reported":1704298145,"current_range_meters":1200,"station_id":"ce4bhph2rcd13ifvqheg","pricing_plan_id":"free"},{"bike_id":"30ed2cb3-897e-4788-bee2-d0718a634754","system_id":"levelo_inurba_marseille","lat":43.308051,"lon":5.43527,"is_reserved":false,"is_disabled":false,"rental_uris":{"android":"levelo://app?vid=30ed2cb3-897e-4788-bee2-d0718a634754","ios":"levelo://app?vid=30ed2cb3-897e-4788-bee2-d0718a634754"},"vehicle_type_id":"4","last_reported":1704298145,"current_range_meters":2000,"station_id":"ce4bhph2rcd13ifvqheg","pricing_plan_id":"free"},{"bike_id":"c62b2a0f-c08a-48b3-a4da-6797b655a53d","system_id":"levelo_inurba_marseille","lat":43.265571,"lon":5.390032,"is_reserved":false,"is_disabled":false,"rental_uris":{"android":"levelo://app?vid=c62b2a0f-c08a-48b3-a4da-6797b655a53d","ios":"levelo://app?vid=c62b2a0f-c08a-48b3-a4da-6797b655a53d"},"vehicle_type_id":"4","last_reported":1704298145,"current_range_meters":24800,"station_id":"ce4bhe12rcd13ifvqf30","pricing_plan_id":"free"},{"bike_id":"c7918ad4-e6f7-464e-bbe0-bb57459983c0","system_id":"levelo_inurba_marseille","lat":43.265571,"lon":5.390032,"is_reserved":false,"is_disabled":false,"rental_uris":{"android":"levelo://app?vid=c7918ad4-e6f7-464e-bbe0-bb57459983c0","ios":"levelo://app?vid=c7918ad4-e6f7-464e-bbe0-bb57459983c0"},"vehicle_type_id":"4","last_reported":1704298145,"current_range_meters":18000,"station_id":"ce4bhe12rcd13ifvqf30","pricing_plan_id":"free"},{"bike_id":"0e5f6766-0a7f-4027-8517-fd48c17c7ec9","system_id":"levelo_inurba_marseille","lat":43.26949,"lon":5.40262,"is_reserved":false,"is_disabled":false,"rental_uris":{"android":"levelo://app?vid=0e5f6766-0a7f-4027-8517-fd48c17c7ec9","ios":"levelo://app?vid=0e5f6766-0a7f-4027-8517-fd48c17c7ec9"},"vehicle_type_id":"4","last_reported":1704298145,"current_range_meters":29200,"station_id":"cjm6bp8fraef2m0cb0m0","pricing_plan_id":"free"},{"bike_id":"dac5ea74-92f7-462e-b536-31f322bb01c0","system_id":"levelo_inurba_marseille","lat":43.331893,"lon":5.431791,"is_reserved":false,"is_disabled":false,"rental_uris":{"android":"levelo://app?vid=dac5ea74-92f7-462e-b536-31f322bb01c0","ios":"levelo://app?vid=dac5ea74-92f7-462e-b536-31f322bb01c0"},"vehicle_type_id":"4","last_reported":1704298145,"current_range_meters":0,"station_id":"","pricing_plan_id":"free"},{"bike_id":"d94fd28c-141b-4f93-9e40-c9948eefc1f0","system_id":"levelo_inurba_marseille","lat":43.261782,"lon":5.374515,"is_reserved":false,"is_disabled":false,"rental_uris":{"android":"levelo://app?vid=d94fd28c-141b-4f93-9e40-c9948eefc1f0","ios":"levelo://app?vid=d94fd28c-141b-4f93-9e40-c9948eefc1f0"},"vehicle_type_id":"4","last_reported":1704298145,"current_range_meters":10400,"station_id":"ce4bhgp2rcd13ifvqfc0","pricing_plan_id":"free"},{"bike_id":"d538b785-0390-4740-8f46-555cd221000b","system_id":"levelo_inurba_marseille","lat":43.261782,"lon":5.374515,"is_reserved":false,"is_disabled":false,"rental_uris":{"android":"levelo://app?vid=d538b785-0390-4740-8f46-555cd221000b","ios":"levelo://app?vid=d538b785-0390-4740-8f46-555cd221000b"},"vehicle_type_id":"4","last_reported":1704298145,"current_range_meters":30400,"station_id":"ce4bhgp2rcd13ifvqfc0","pricing_plan_id":"free"},{"bike_id":"a3856c02-83b2-424a-8de2-25198868578b","system_id":"levelo_inurba_marseille","lat":43.31711,"lon":5.43707,"is_reserved":false,"is_disabled":false,"rental_uris":{"android":"levelo://app?vid=a3856c02-83b2-424a-8de2-25198868578b","ios":"levelo://app?vid=a3856c02-83b2-424a-8de2-25198868578b"},"vehicle_type_id":"4","last_reported":1704298145,"current_range_meters":31200,"station_id":"ce4bhp92rcd13ifvqhcg","pricing_plan_id":"free"},{"bike_id":"92428b0f-c87a-4962-8b77-d9a6678adb8c","system_id":"levelo_inurba_marseille","lat":43.31713,"lon":5.43712,"is_reserved":false,"is_disabled":false,"rental_uris":{"android":"levelo://app?vid=92428b0f-c87a-4962-8b77-d9a6678adb8c","ios":"levelo://app?vid=92428b0f-c87a-4962-8b77-d9a6678adb8c"},"vehicle_type_id":"4","last_reported":1704298145,"current_range_meters":26800,"station_id":"ce4bhp92rcd13ifvqhcg","pricing_plan_id":"free"},{"bike_id":"54dcc996-de52-4111-88df-d58f1904f1d9","system_id":"levelo_inurba_marseille","lat":43.271368,"lon":5.40928,"is_reserved":false,"is_disabled":false,"rental_uris":{"android":"levelo://app?vid=54dcc996-de52-4111-88df-d58f1904f1d9","ios":"levelo://app?vid=54dcc996-de52-4111-88df-d58f1904f1d9"},"vehicle_type_id":"4","last_reported":1704298145,"current_range_meters":26000,"station_id":"ce4bhl12rcd13ifvqgf0","pricing_plan_id":"free"},{"bike_id":"97fe6c20-6307-4ffc-8ef6-0d39a81e3339","system_id":"levelo_inurba_marseille","lat":43.271763,"lon":5.40995,"is_reserved":false,"is_disabled":false,"rental_uris":{"android":"levelo://app?vid=97fe6c20-6307-4ffc-8ef6-0d39a81e3339","ios":"levelo://app?vid=97fe6c20-6307-4ffc-8ef6-0d39a81e3339"},"vehicle_type_id":"4","last_reported":1704298145,"current_range_meters":29200,"station_id":"ce4bhl12rcd13ifvqgf0","pricing_plan_id":"free"},{"bike_id":"6fbe6fb7-c793-4236-85f1-f5e492d9abf4","system_id":"levelo_inurba_marseille","lat":43.26801,"lon":5.40255,"is_reserved":false,"is_disabled":false,"rental_uris":{"android":"levelo://app?vid=6fbe6fb7-c793-4236-85f1-f5e492d9abf4","ios":"levelo://app?vid=6fbe6fb7-c793-4236-85f1-f5e492d9abf4"},"vehicle_type_id":"4","last_reported":1704298145,"current_range_meters":14800,"station_id":"ce501612rcd8frsf0b60","pricing_plan_id":"free"},{"bike_id":"598ac2c5-f424-4042-9adf-e58ac82c6efd","system_id":"levelo_inurba_marseille","lat":43.267959,"lon":5.402687,"is_reserved":false,"is_disabled":false,"rental_uris":{"android":"levelo://app?vid=598ac2c5-f424-4042-9adf-e58ac82c6efd","ios":"levelo://app?vid=598ac2c5-f424-4042-9adf-e58ac82c6efd"},"vehicle_type_id":"4","last_reported":1704298145,"current_range_meters":22000,"station_id":"ce501612rcd8frsf0b60","pricing_plan_id":"free"},{"bike_id":"0c002464-94df-4b3b-9448-3d2496fb485a","system_id":"levelo_inurba_marseille","lat":43.2651,"lon":5.39469,"is_reserved":false,"is_disabled":false,"rental_uris":{"android":"levelo://app?vid=0c002464-94df-4b3b-9448-3d2496fb485a","ios":"levelo://app?vid=0c002464-94df-4b3b-9448-3d2496fb485a"},"vehicle_type_id":"4","last_reported":1704298145,"current_range_meters":14400,"station_id":"ce4bhi12rcd13ifvqfq0","pricing_plan_id":"free"},{"bike_id":"8e625f0e-04bb-4cef-ad4f-bf5becaa60ed","system_id":"levelo_inurba_marseille","lat":43.2651,"lon":5.39469,"is_reserved":false,"is_disabled":false,"rental_uris":{"android":"levelo://app?vid=8e625f0e-04bb-4cef-ad4f-bf5becaa60ed","ios":"levelo://app?vid=8e625f0e-04bb-4cef-ad4f-bf5becaa60ed"},"vehicle_type_id":"4","last_reported":1704298145,"current_range_meters":28400,"station_id":"ce4bhi12rcd13ifvqfq0","pricing_plan_id":"free"},{"bike_id":"9e79ebbd-8b93-4b65-ab2b-5fb82f1c880a","system_id":"levelo_inurba_marseille","lat":43.29892,"lon":5.4366,"is_reserved":false,"is_disabled":false,"rental_uris":{"android":"levelo://app?vid=9e79ebbd-8b93-4b65-ab2b-5fb82f1c880a","ios":"levelo://app?vid=9e79ebbd-8b93-4b65-ab2b-5fb82f1c880a"},"vehicle_type_id":"4","last_reported":1704298145,"current_range_meters":27600,"station_id":"ce4bhpp2rcd13ifvqhfg","pricing_plan_id":"free"},{"bike_id":"8f11ba04-eec0-4df9-96e8-fe3b5f598f50","system_id":"levelo_inurba_marseille","lat":43.28153,"lon":5.42638,"is_reserved":false,"is_disabled":false,"rental_uris":{"android":"levelo://app?vid=8f11ba04-eec0-4df9-96e8-fe3b5f598f50","ios":"levelo://app?vid=8f11ba04-eec0-4df9-96e8-fe3b5f598f50"},"vehicle_type_id":"4","last_reported":1704298145,"current_range_meters":16000,"station_id":"ce4bhnh2rcd13ifvqgug","pricing_plan_id":"free"},{"bike_id":"1bacb750-8387-4675-a445-77f7232c32e9","system_id":"levelo_inurba_marseille","lat":43.281548,"lon":5.42643,"is_reserved":false,"is_disabled":false,"rental_uris":{"android":"levelo://app?vid=1bacb750-8387-4675-a445-77f7232c32e9","ios":"levelo://app?vid=1bacb750-8387-4675-a445-77f7232c32e9"},"vehicle_type_id":"4","last_reported":1704298145,"current_range_meters":22000,"station_id":"ce4bhnh2rcd13ifvqgug","pricing_plan_id":"free"},{"bike_id":"9a04d653-18d4-4789-adf8-a79eda64d1d2","system_id":"levelo_inurba_marseille","lat":43.28157,"lon":5.42645,"is_reserved":false,"is_disabled":false,"rental_uris":{"android":"levelo://app?vid=9a04d653-18d4-4789-adf8-a79eda64d1d2","ios":"levelo://app?vid=9a04d653-18d4-4789-adf8-a79eda64d1d2"},"vehicle_type_id":"4","last_reported":1704298145,"current_range_meters":2800,"station_id":"ce4bhnh2rcd13ifvqgug","pricing_plan_id":"free"},{"bike_id":"37ac300b-a0ec-4809-a71b-87d97a6e8db2","system_id":"levelo_inurba_marseille","lat":43.28154,"lon":5.4265,"is_reserved":false,"is_disabled":false,"rental_uris":{"android":"levelo://app?vid=37ac300b-a0ec-4809-a71b-87d97a6e8db2","ios":"levelo://app?vid=37ac300b-a0ec-4809-a71b-87d97a6e8db2"},"vehicle_type_id":"4","last_reported":1704298145,"current_range_meters":8400,"station_id":"ce4bhnh2rcd13ifvqgug","pricing_plan_id":"free"},{"bike_id":"7be442ed-0e08-4561-8dd6-4c7c61e18b77","system_id":"levelo_inurba_marseille","lat":43.28151,"lon":5.42649,"is_reserved":false,"is_disabled":false,"rental_uris":{"android":"levelo://app?vid=7be442ed-0e08-4561-8dd6-4c7c61e18b77","ios":"levelo://app?vid=7be442ed-0e08-4561-8dd6-4c7c61e18b77"},"vehicle_type_id":"4","last_reported":1704298145,"current_range_meters":14800,"station_id":"ce4bhnh2rcd13ifvqgug","pricing_plan_id":"free"},{"bike_id":"239866bf-d593-439b-8f00-008a123dffd7","system_id":"levelo_inurba_marseille","lat":43.28148,"lon":5.4265,"is_reserved":false,"is_disabled":false,"rental_uris":{"android":"levelo://app?vid=239866bf-d593-439b-8f00-008a123dffd7","ios":"levelo://app?vid=239866bf-d593-439b-8f00-008a123dffd7"},"vehicle_type_id":"4","last_reported":1704298145,"current_range_meters":31200,"station_id":"ce4bhnh2rcd13ifvqgug","pricing_plan_id":"free"},{"bike_id":"fa698155-561e-44e1-b890-be410044430f","system_id":"levelo_inurba_marseille","lat":43.2607,"lon":5.393983,"is_reserved":false,"is_disabled":false,"rental_uris":{"android":"levelo://app?vid=fa698155-561e-44e1-b890-be410044430f","ios":"levelo://app?vid=fa698155-561e-44e1-b890-be410044430f"},"vehicle_type_id":"4","last_reported":1704298145,"current_range_meters":31200,"station_id":"ce4bhh92rcd13ifvqfj0","pricing_plan_id":"free"},{"bike_id":"611dd717-5b72-4cd3-a125-b8c65260aef5","system_id":"levelo_inurba_marseille","lat":43.2607,"lon":5.393983,"is_reserved":false,"is_disabled":false,"rental_uris":{"android":"levelo://app?vid=611dd717-5b72-4cd3-a125-b8c65260aef5","ios":"levelo://app?vid=611dd717-5b72-4cd3-a125-b8c65260aef5"},"vehicle_type_id":"4","last_reported":1704298145,"current_range_meters":30400,"station_id":"ce4bhh92rcd13ifvqfj0","pricing_plan_id":"free"},{"bike_id":"0fb04355-2d9f-421b-876c-e386ead11ca9","system_id":"levelo_inurba_marseille","lat":43.2607,"lon":5.393983,"is_reserved":false,"is_disabled":false,"rental_uris":{"android":"levelo://app?vid=0fb04355-2d9f-421b-876c-e386ead11ca9","ios":"levelo://app?vid=0fb04355-2d9f-421b-876c-e386ead11ca9"},"vehicle_type_id":"4","last_reported":1704298145,"current_range_meters":21600,"station_id":"ce4bhh92rcd13ifvqfj0","pricing_plan_id":"free"},{"bike_id":"e2f8fc87-7968-41da-a9a6-e8ae302140a9","system_id":"levelo_inurba_marseille","lat":43.2607,"lon":5.393983,"is_reserved":false,"is_disabled":false,"rental_uris":{"android":"levelo://app?vid=e2f8fc87-7968-41da-a9a6-e8ae302140a9","ios":"levelo://app?vid=e2f8fc87-7968-41da-a9a6-e8ae302140a9"},"vehicle_type_id":"4","last_reported":1704298145,"current_range_meters":18400,"station_id":"ce4bhh92rcd13ifvqfj0","pricing_plan_id":"free"},