{"last_updated":1730664553,"ttl":60,"version":"2.2","data":{"bikes":[{"bike_id":"daa5500f-6039-4d77-bf02-00710b3acec6","system_id":"levelo_inurba_marseille","lat":43.2593,"lon":5.40909,"is_reserved":false,"is_disabled":false,"rental_uris":{"android":"levelo://app?vid=daa5500f-6039-4d77-bf02-00710b3acec6","ios":"levelo://app?vid=daa5500f-6039-4d77-bf02-00710b3acec6"},"vehicle_type_id":"4","last_reported":1730664553,"current_range_meters":3200,"station_id":"ce4bhm92rcd13ifvqglg","pricing_plan_id":"cebpf4jnsgd1na2vs0mg"},{"bike_id":"18db7a38-fb1c-4f2b-a7d3-41ca5532cc0b","system_id":"levelo_inurba_marseille","lat":43.32333,"lon":5.40622,"is_reserved":false,"is_disabled":false,"rental_uris":{"android":"levelo://app?vid=18db7a38-fb1c-4f2b-a7d3-41ca5532cc0b","ios":"levelo://app?vid=18db7a38-fb1c-4f2b-a7d3-41ca5532cc0b"},"vehicle_type_id":"4","last_reported":1730664553,"current_range_meters":17200,"station_id":"ce4bhq92rcd13ifvqhjg","pricing_plan_id":"cebpf4jnsgd1na2vs0mg"},{"bike_id":"9a615e3b-e7c3-4a82-9ab2-1b5377f93530","system_id":"levelo_inurba_marseille","lat":43.30242,"lon":5.40051,"is_reserved":false,"is_disabled":false,"rental_uris":{"android":"levelo://app?vid=9a615e3b-e7c3-4a82-9ab2-1b5377f93530","ios":"levelo://app?vid=9a615e3b-e7c3-4a82-9ab2-1b5377f93530"},"vehicle_type_id":"4","last_reported":1730664553,"current_range_meters":37600,"station_id":"ce4bgvh2rcd13ifvqcs0","pricing_plan_id":"cebpf4jnsgd1na2vs0mg"},{"bike_id":"d00abb61-0e57-498d-9b2a-8beda63b6fef","system_id":"levelo_inurba_marseille","lat":43.30899,"lon":5.39631,"is_reserved":false,"is_disabled":false,"rental_uris":{"android":"levelo://app?vid=d00abb61-0e57-498d-9b2a-8beda63b6fef","ios":"levelo://app?vid=d00abb61-0e57-498d-9b2a-8beda63b6fef"},"vehicle_type_id":"4","last_reported":1730664553,"current_range_meters":38800,"station_id":"ce4bh012rcd13ifvqcv0","pricing_plan_id":"cebpf4jnsgd1na2vs0mg"},{"bike_id":"e1a738f4-d190-4319-951b-0640d9a57607","system_id":"levelo_inurba_marseille","lat":43.33021,"lon":5.39038,"is_reserved":false,"is_disabled":false,"rental_uris":{"android":"levelo://app?vid=e1a738f4-d190-4319-951b-0640d9a57607","ios":"levelo://app?vid=e1a738f4-d190-4319-951b-0640d9a57607"},"vehicle_type_id":"4","last_reported":1730664553,"current_range_meters":9200,"station_id":"ce4bhr92rcd13ifvqhrg","pricing_plan_id":"cebpf4jnsgd1na2vs0mg"},{"bike_id":"ff701166-5c5e-4664-8d58-8ace7b751740","system_id":"levelo_inurba_marseille","lat":43.27427,"lon":5.39416,"is_reserved":false,"is_disabled":false,"rental_uris":{"android":"levelo://app?vid=ff701166-5c5e-4664-8d58-8ace7b751740","ios":"levelo://app?vid=ff701166-5c5e-4664-8d58-8ace7b751740"},"vehicle_type_id":"4","last_reported":1730664553,"current_range_meters":3200,"station_id":"ce4bhdp2rcd13ifvqf20","pricing_plan_id":"cebpf4jnsgd1na2vs0mg"},{"bike_id":"84cd346e-b95a-41f9-83f2-f8ac21466dd6","system_id":"levelo_inurba_marseille","lat":43.29523,"lon":5.39401,"is_reserved":false,"is_disabled":false,"rental_uris":{"android":"levelo://app?vid=84cd346e-b95a-41f9-83f2-f8ac21466dd6","ios":"levelo://app?vid=84cd346e-b95a-41f9-83f2-f8ac21466dd6"},"vehicle_type_id":"4","last_reported":1730664553,"current_range_meters":38800,"station_id":"ce4bh292rcd13ifvqdf0","pricing_plan_id":"cebpf4jnsgd1na2vs0mg"},{"bike_id":"1400481a-d64a-45f2-94ac-6b422dab62e4","system_id":"levelo_inurba_marseille","lat":43.31333,"lon":5.39701,"is_reserved":false,"is_disabled":false,"rental_uris":{"android":"levelo://app?vid=1400481a-d64a-45f2-94ac-6b422dab62e4","ios":"levelo://app?vid=1400481a-d64a-45f2-94ac-6b422dab62e4"},"vehicle_type_id":"4","last_reported":1730664553,"current_range_meters":26000,"station_id":"ce4bgvp2rcd13ifvqcu0","pricing_plan_id":"cebpf4jnsgd1na2vs0mg"},{"bike_id":"ce3d3c04-2e04-4e5b-8089-c287bde13233","system_id":"levelo_inurba_marseille","lat":43.283264,"lon":5.384878,"is_reserved":false,"is_disabled":false,"rental_uris":{"android":"levelo://app?vid=ce3d3c04-2e04-4e5b-8089-c287bde13233","ios":"levelo://app?vid=ce3d3c04-2e04-4e5b-8089-c287bde13233"},"vehicle_type_id":"4","last_reported":1730664553,"current_range_meters":12400,"station_id":"ce4bhg12rcd13ifvqf80","pricing_plan_id":"cebpf4jnsgd1na2vs0mg"},{"bike_id":"fcd81767-2dc7-4408-b5a4-0eadcf4a175a","system_id":"levelo_inurba_marseille","lat":43.31752,"lon":5.39019,"is_reserved":false,"is_disabled":false,"rental_uris":{"android":"levelo://app?vid=fcd81767-2dc7-4408-b5a4-0eadcf4a175a","ios":"levelo://app?vid=fcd81767-2dc7-4408-b5a4-0eadcf4a175a"},"vehicle_type_id":"4","last_reported":1730664553,"current_range_meters":38800,"station_id":"ce4bhqp2rcd13ifvqhng","pricing_plan_id":"cebpf4jnsgd1na2vs0mg"},{"bike_id":"f000d6ee-3311-4e0f-8f93-4332274a3604","system_id":"levelo_inurba_marseille","lat":43.258252,"lon":5.394409,"is_reserved":false,"is_disabled":false,"rental_uris":{"android":"levelo://app?vid=f000d6ee-3311-4e0f-8f93-4332274a3604","ios":"levelo://app?vid=f000d6ee-3311-4e0f-8f93-4332274a3604"},"vehicle_type_id":"4","last_reported":1730664553,"current_range_meters":39200,"station_id":"ce4bhip2rcd13ifvqft0","pricing_plan_id":"cebpf4jnsgd1na2vs0mg"},{"bike_id":"ac6007e9-3662-42df-bfad-f48b7dd146f0","system_id":"levelo_inurba_marseille","lat":43.26488,"lon":5.3955,"is_reserved":false,"is_disabled":false,"rental_uris":{"android":"levelo://app?vid=ac6007e9-3662-42df-bfad-f48b7dd146f0","ios":"levelo://app?vid=ac6007e9-3662-42df-bfad-f48b7dd146f0"},"vehicle_type_id":"4","last_reported":1730664553,"current_range_meters":25200,"station_id":"ce4bhi12rcd13ifvqfq0","pricing_plan_id":"cebpf4jnsgd1na2vs0mg"},{"bike_id":"9d595e5c-d7f5-4c7a-bb7a-8c04bcf3ac7b","system_id":"levelo_inurba_marseille","lat":43.30886,"lon":5.39639,"is_reserved":false,"is_disabled":false,"rental_uris":{"android":"levelo://app?vid=9d595e5c-d7f5-4c7a-bb7a-8c04bcf3ac7b","ios":"levelo://app?vid=9d595e5c-d7f5-4c7a-bb7a-8c04bcf3ac7b"},"vehicle_type_id":"4","last_reported":1730664553,"current_range_meters":26800,"station_id":"ce4bh012rcd13ifvqcv0","pricing_plan_id":"cebpf4jnsgd1na2vs0mg"},{"bike_id":"38e520d4-7fa0-4038-8595-0c1445c11904","system_id":"levelo_inurba_marseille","lat":43.28044,"lon":5.36947,"is_reserved":false,"is_disabled":false,"rental_uris":{"android":"levelo://app?vid=38e520d4-7fa0-4038-8595-0c1445c11904","ios":"levelo://app?vid=38e520d4-7fa0-4038-8595-0c1445c11904"},"vehicle_type_id":"4","last_reported":1730664553,"current_range_meters":38800,"station_id":"ce4bha12rcd13ifvqef0","pricing_plan_id":"cebpf4jnsgd1na2vs0mg"},{"bike_id":"e4935a4c-15a1-4229-8d0d-7012e6200225","system_id":"levelo_inurba_marseille","lat":43.29195,"lon":5.39319,"is_reserved":false,"is_disabled":false,"rental_uris":{"android":"levelo://app?vid=e4935a4c-15a1-4229-8d0d-7012e6200225","ios":"levelo://app?vid=e4935a4c-15a1-4229-8d0d-7012e6200225"},"vehicle_type_id":"4","last_reported":1730664553,"current_range_meters":38800,"station_id":"ce4bh192rcd13ifvqdd0","pricing_plan_id":"cebpf4jnsgd1na2vs0mg"},{"bike_id":"49ce53ac-492a-40b0-a1bc-36c7a67f4dbe","system_id":"levelo_inurba_marseille","lat":43.28715,"lon":5.37931,"is_reserved":false,"is_disabled":false,"rental_uris":{"android":"levelo://app?vid=49ce53ac-492a-40b0-a1bc-36c7a67f4dbe","ios":"levelo://app?vid=49ce53ac-492a-40b0-a1bc-36c7a67f4dbe"},"vehicle_type_id":"4","last_reported":1730664553,"current_range_meters":12000,"station_id":"ce4bh9p2rcd13ifvqec0","pricing_plan_id":"cebpf4jnsgd1na2vs0mg"},{"bike_id":"98976bc5-0c3c-4b6a-a85c-7ad74b2e8072","system_id":"levelo_inurba_marseille","lat":43.30806,"lon":5.43522,"is_reserved":false,"is_disabled":false,"rental_uris":{"android":"levelo://app?vid=98976bc5-0c3c-4b6a-a85c-7ad74b2e8072","ios":"levelo://app?vid=98976bc5-0c3c-4b6a-a85c-7ad74b2e8072"},"vehicle_type_id":"4","last_reported":1730664553,"current_range_meters":30000,"station_id":"ce4bhph2rcd13ifvqheg","pricing_plan_id":"cebpf4jnsgd1na2vs0mg"},{"bike_id":"fbd6f12e-4146-479b-a10b-04c322fea23c","system_id":"levelo_inurba_marseille","lat":43.29791,"lon":5.38107,"is_reserved":false,"is_disabled":false,"rental_uris":{"android":"levelo://app?vid=fbd6f12e-4146-479b-a10b-04c322fea23c","ios":"levelo://app?vid=fbd6f12e-4146-479b-a10b-04c322fea23c"},"vehicle_type_id":"4","last_reported":1730664553,"current_range_meters":39200,"station_id":"ce4bgip2rcd13ifvqbb0","pricing_plan_id":"cebpf4jnsgd1na2vs0mg"},{"bike_id":"4147bbfb-4b14-4aca-b782-8ec6c0473609","system_id":"levelo_inurba_marseille","lat":43.23602,"lon":5.40348,"is_reserved":false,"is_disabled":false,"rental_uris":{"android":"levelo://app?vid=4147bbfb-4b14-4aca-b782-8ec6c0473609","ios":"levelo://app?vid=4147bbfb-4b14-4aca-b782-8ec6c0473609"},"vehicle_type_id":"4","last_reported":1730664553,"current_range_meters":19200,"station_id":"","pricing_plan_id":"cebpf4jnsgd1na2vs0mg"},{"bike_id":"818f2237-bf01-41ef-a10b-d4c766b1daef","system_id":"levelo_inurba_marseille","lat":43.29027,"lon":5.3812,"is_reserved":false,"is_disabled":false,"rental_uris":{"android":"levelo://app?vid=818f2237-bf01-41ef-a10b-d4c766b1daef","ios":"levelo://app?vid=818f2237-bf01-41ef-a10b-d4c766b1daef"},"vehicle_type_id":"4","last_reported":1730664553,"current_range_meters":16800,"station_id":"ce4bh4p2rcd13ifvqe1g","pricing_plan_id":"cebpf4jnsgd1na2vs0mg"},{"bike_id":"a7be9d61-2449-41f7-b32e-d421abf02af0","system_id":"levelo_inurba_marseille","lat":43.28933,"lon":5.36393,"is_reserved":false,"is_disabled":false,"rental_uris":{"android":"levelo://app?vid=a7be9d61-2449-41f7-b32e-d421abf02af0","ios":"levelo://app?vid=a7be9d61-2449-41f7-b32e-d421abf02af0"},"vehicle_type_id":"4","last_reported":1730664553,"current_range_meters":20000,"station_id":"ce4bhc92rcd13ifvqetg","pricing_plan_id":"cebpf4jnsgd1na2vs0mg"},{"bike_id":"951a86b0-34d7-49cf-8185-35e052067ac1","system_id":"levelo_inurba_marseille","lat":43.28667,"lon":5.38664,"is_reserved":false,"is_disabled":false,"rental_uris":{"android":"levelo://app?vid=951a86b0-34d7-49cf-8185-35e052067ac1","ios":"levelo://app?vid=951a86b0-34d7-49cf-8185-35e052067ac1"},"vehicle_type_id":"4","last_reported":1730664553,"current_range_meters":38800,"station_id":"ce4bh492rcd13ifvqdug","pricing_plan_id":"cebpf4jnsgd1na2vs0mg"},{"bike_id":"085e82ad-9804-47b6-9ba5-6bbb40aaef5b","system_id":"levelo_inurba_marseille","lat":43.30888,"lon":5.39644,"is_reserved":false,"is_disabled":false,"rental_uris":{"android":"levelo://app?vid=085e82ad-9804-47b6-9ba5-6bbb40aaef5b","ios":"levelo://app?vid=085e82ad-9804-47b6-9ba5-6bbb40aaef5b"},"vehicle_type_id":"4","last_reported":1730664553,"current_range_meters":38800,"station_id":"ce4bh012rcd13ifvqcv0","pricing_plan_id":"cebpf4jnsgd1na2vs0mg"},{"bike_id":"f7f470a4-662b-44d1-9646-66da0b4bd3d8","system_id":"levelo_inurba_marseille","lat":43.29047,"lon":5.35919,"is_reserved":false,"is_disabled":false,"rental_uris":{"android":"levelo://app?vid=f7f470a4-662b-44d1-9646-66da0b4bd3d8","ios":"levelo://app?vid=f7f470a4-662b-44d1-9646-66da0b4bd3d8"},"vehicle_type_id":"4","last_reported":1730664553,"current_range_meters":18800,"station_id":"ce4bha92rcd13ifvqeg0","pricing_plan_id":"cebpf4jnsgd1na2vs0mg"},{"bike_id":"99697db6-5237-4bbb-8a95-43fff28caf08","system_id":"levelo_inurba_marseille","lat":43.27207,"lon":5.39175,"is_reserved":false,"is_disabled":false,"rental_uris":{"android":"levelo://app?vid=99697db6-5237-4bbb-8a95-43fff28caf08","ios":"levelo://app?vid=99697db6-5237-4bbb-8a95-43fff28caf08"},"vehicle_type_id":"4","last_reported":1730664553,"current_range_meters":32000,"station_id":"ce4bhhp2rcd13ifvqfm0","pricing_plan_id":"cebpf4jnsgd1na2vs0mg"},{"bike_id":"d29f2b08-7147-4e4d-a021-d30c74e59c61","system_id":"levelo_inurba_marseille","lat":43.29708,"lon":5.37689,"is_reserved":false,"is_disabled":false,"rental_uris":{"android":"levelo://app?vid=d29f2b08-7147-4e4d-a021-d30c74e59c61","ios":"levelo://app?vid=d29f2b08-7147-4e4d-a021-d30c74e59c61"},"vehicle_type_id":"4","last_reported":1730664553,"current_range_meters":33200,"station_id":"ce4bgkh2rcd13ifvqbl0","pricing_plan_id":"cebpf4jnsgd1na2vs0mg"},{"bike_id":"7a58bdc6-5db2-4543-b33d-6202d289b688","system_id":"levelo_inurba_marseille","lat":43.33731,"lon":5.39186,"is_reserved":false,"is_disabled":false,"rental_uris":{"android":"levelo://app?vid=7a58bdc6-5db2-4543-b33d-6202d289b688","ios":"levelo://app?vid=7a58bdc6-5db2-4543-b33d-6202d289b688"},"vehicle_type_id":"4","last_reported":1730664553,"current_range_meters":27600,"station_id":"ce4bhr92rcd13ifvqhsg","pricing_plan_id":"cebpf4jnsgd1na2vs0mg"},{"bike_id":"199d375f-a68b-4b66-abb5-ba773fd75a7c","system_id":"levelo_inurba_marseille","lat":43.31689,"lon":5.40476,"is_reserved":false,"is_disabled":false,"rental_uris":{"android":"levelo://app?vid=199d375f-a68b-4b66-abb5-ba773fd75a7c","ios":"levelo://app?vid=199d375f-a68b-4b66-abb5-ba773fd75a7c"},"vehicle_type_id":"4","last_reported":1730664553,"current_range_meters":39200,"station_id":"ce4bh012rcd13ifvqd00","pricing_plan_id":"cebpf4jnsgd1na2vs0mg"},{"bike_id":"bda216a2-3893-41a6-9f78-0b1e26f9cb98","system_id":"levelo_inurba_marseille","lat":43.33612,"lon":5.41026,"is_reserved":false,"is_disabled":false,"rental_uris":{"android":"levelo://app?vid=bda216a2-3893-41a6-9f78-0b1e26f9cb98","ios":"levelo://app?vid=bda216a2-3893-41a6-9f78-0b1e26f9cb98"},"vehicle_type_id":"4","last_reported":1730664553,"current_range_meters":22000,"station_id":"ce4bhqh2rcd13ifvqhmg","pricing_plan_id":"cebpf4jnsgd1na2vs0mg"},{"bike_id":"358014e6-fd06-48f2-a0cc-777e685d1418","system_id":"levelo_inurba_marseille","lat":43.31224,"lon":5.36857,"is_reserved":false,"is_disabled":false,"rental_uris":{"android":"levelo://app?vid=358014e6-fd06-48f2-a0cc-777e685d1418","ios":"levelo://app?vid=358014e6-fd06-48f2-a0cc-777e685d1418"},"vehicle_type_id":"4","last_reported":1730664553,"current_range_meters":36400,"station_id":"ce4bgl92rcd13ifvqbq0","pricing_plan_id":"cebpf4jnsgd1na2vs0mg"},{"bike_id":"faaea291-7e92-4233-a8ec-bc3a58ff723f","system_id":"levelo_inurba_marseille","lat":43.28728,"lon":5.3609,"is_reserved":false,"is_disabled":false,"rental_uris":{"android":"levelo://app?vid=faaea291-7e92-4233-a8ec-bc3a58ff723f","ios":"levelo://app?vid=faaea291-7e92-4233-a8ec-bc3a58ff723f"},"vehicle_type_id":"4","last_reported":1730664553,"current_range_meters":11200,"station_id":"cki0cbj6b192h4jlfktg","pricing_plan_id":"cebpf4jnsgd1na2vs0mg"},{"bike_id":"1f7feafc-8065-42d3-af01-fe45b90edb39","system_id":"levelo_inurba_marseille","lat":43.24997,"lon":5.38928,"is_reserved":false,"is_disabled":false,"rental_uris":{"android":"levelo://app?vid=1f7feafc-8065-42d3-af01-fe45b90edb39","ios":"levelo://app?vid=1f7feafc-8065-42d3-af01-fe45b90edb39"},"vehicle_type_id":"4","last_reported":1730664553,"current_range_meters":9600,"station_id":"ce4bhgp2rcd13ifvqfd0","pricing_plan_id":"cebpf4jnsgd1na2vs0mg"},{"bike_id":"baea6945-ac3f-4195-a6a4-4b887db0844f","system_id":"levelo_inurba_marseille","lat":43.27075,"lon":5.42275,"is_reserved":false,"is_disabled":false,"rental_uris":{"android":"levelo://app?vid=baea6945-ac3f-4195-a6a4-4b887db0844f","ios":"levelo://app?vid=baea6945-ac3f-4195-a6a4-4b887db0844f"},"vehicle_type_id":"4","last_reported":1730664553,"current_range_meters":38000,"station_id":"ce4bhk92rcd13ifvqgb0","pricing_plan_id":"cebpf4jnsgd1na2vs0mg"},{"bike_id":"598535da-1e32-42e0-bd65-4ba25549dd70","system_id":"levelo_inurba_marseille","lat":43.3144,"lon":5.37366,"is_reserved":false,"is_disabled":false,"rental_uris":{"android":"levelo://app?vid=598535da-1e32-42e0-bd65-4ba25549dd70","ios":"levelo://app?vid=598535da-1e32-42e0-bd65-4ba25549dd70"},"vehicle_type_id":"4","last_reported":1730664553,"current_range_meters":28800,"station_id":"","pricing_plan_id":"cebpf4jnsgd1na2vs0mg"},{"bike_id":"2378f453-72a7-4eb2-ab3b-946285d406fd","system_id":"levelo_inurba_marseille","lat":43.29219,"lon":5.37715,"is_reserved":false,"is_disabled":false,"rental_uris":{"android":"levelo://app?vid=2378f453-72a7-4eb2-ab3b-946285d406fd","ios":"levelo://app?vid=2378f453-72a7-4eb2-ab3b-946285d406fd"},"vehicle_type_id":"4","last_reported":1730664553,"current_range_meters":11200,"station_id":"ce4bgi12rcd13ifvqb70","pricing_plan_id":"cebpf4jnsgd1na2vs0mg"},{"bike_id":"69c5828b-16b5-4e21-9a89-eb78828b437f","system_id":"levelo_inurba_marseille","lat":43.27074,"lon":5.42281,"is_reserved":false,"is_disabled":false,"rental_uris":{"android":"levelo://app?vid=69c5828b-16b5-4e21-9a89-eb78828b437f","ios":"levelo://app?vid=69c5828b-16b5-4e21-9a89-eb78828b437f"},"vehicle_type_id":"4","last_reported":1730664553,"current_range_meters":3200,"station_id":"ce4bhk92rcd13ifvqgb0","pricing_plan_id":"cebpf4jnsgd1na2vs0mg"},{"bike_id":"45e37847-060c-4fbe-958a-f63e7f57fa30","system_id":"levelo_inurba_marseille","lat":43.27069,"lon":5.42277,"is_reserved":false,"is_disabled":false,"rental_uris":{"android":"levelo://app?vid=45e37847-060c-4fbe-958a-f63e7f57fa30","ios":"levelo://app?vid=45e37847-060c-4fbe-958a-f63e7f57fa30"},"vehicle_type_id":"4","last_reported":1730664553,"current_range_meters":23200,"station_id":"ce4bhk92rcd13ifvqgb0","pricing_plan_id":"cebpf4jnsgd1na2vs0mg"},{"bike_id":"9f223478-460e-4c61-b4f2-20e23bd73f46","system_id":"levelo_inurba_marseille","lat":43.29532,"lon":5.39408,"is_reserved":false,"is_disabled":false,"rental_uris":{"android":"levelo://app?vid=9f223478-460e-4c61-b4f2-20e23bd73f46","ios":"levelo://app?vid=9f223478-460e-4c61-b4f2-20e23bd73f46"},"vehicle_type_id":"4","last_reported":1730664553,"current_range_meters":38800,"station_id":"ce4bh292rcd13ifvqdf0","pricing_plan_id":"cebpf4jnsgd1na2vs0mg"},{"bike_id":"9c6a4c09-d997-448d-8062-9335e03a26ba","system_id":"levelo_inurba_marseille","lat":43.29232,"lon":5.37736,"is_reserved":false,"is_disabled":false,"rental_uris":{"android":"levelo://app?vid=9c6a4c09-d997-448d-8062-9335e03a26ba","ios":"levelo://app?vid=9c6a4c09-d997-448d-8062-9335e03a26ba"},"vehicle_type_id":"4","last_reported":1730664553,"current_range_meters":38400,"station_id":"ce4bgi12rcd13ifvqb70","pricing_plan_id":"cebpf4jnsgd1na2vs0mg"},{"bike_id":"8c0eb2b5-3b07-4476-8d7b-9509e4791f89","system_id":"levelo_inurba_marseille","lat":43.30297,"lon":5.39209,"is_reserved":false,"is_disabled":false,"rental_uris":{"android":"levelo://app?vid=8c0eb2b5-3b07-4476-8d7b-9509e4791f89","ios":"levelo://app?vid=8c0eb2b5-3b07-4476-8d7b-9509e4791f89"},"vehicle_type_id":"4","last_reported":1730664553,"current_range_meters":38800,"station_id":"ce4bgkh2rcd13ifvqbk0","pricing_plan_id":"cebpf4jnsgd1na2vs0mg"},{"bike_id":"c89ab191-b07a-439c-a401-b85e67263211","system_id":"levelo_inurba_marseille","lat":43.28932,"lon":5.38399,"is_reserved":false,"is_disabled":false,"rental_uris":{"android":"levelo://app?vid=c89ab191-b07a-439c-a401-b85e67263211","ios":"levelo://app?vid=c89ab191-b07a-439c-a401-b85e67263211"},"vehicle_type_id":"4","last_reported":1730664553,"current_range_meters":22400,"station_id":"ce4bh612rcd13ifvqe6g","pricing_plan_id":"cebpf4jnsgd1na2vs0mg"},{"bike_id":"cb20430f-4fe0-4720-9a16-bf6b41da9b14","system_id":"levelo_inurba_marseille","lat":43.29415,"lon":5.38626,"is_reserved":false,"is_disabled":false,"rental_uris":{"android":"levelo://app?vid=cb20430f-4fe0-4720-9a16-bf6b41da9b14","ios":"levelo://app?vid=cb20430f-4fe0-4720-9a16-bf6b41da9b14"},"vehicle_type_id":"4","last_reported":1730664553,"current_range_meters":35200,"station_id":"ce4bh2h2rcd13ifvqdh0","pricing_plan_id":"cebpf4jnsgd1na2vs0mg"},{"bike_id":"7d1f25df-2b68-4f01-83bc-2906849b2161","system_id":"levelo_inurba_marseille","lat":43.29274,"lon":5.38452,"is_reserved":false,"is_disabled":false,"rental_uris":{"android":"levelo://app?vid=7d1f25df-2b68-4f01-83bc-2906849b2161","ios":"levelo://app?vid=7d1f25df-2b68-4f01-83bc-2906849b2161"},"vehicle_type_id":"4","last_reported":1730664553,"current_range_meters":19600,"station_id":"ce4bh692rcd13ifvqea0","pricing_plan_id":"cebpf4jnsgd1na2vs0mg"},{"bike_id":"a90da372-14a2-4c12-9544-f51bf7459731","system_id":"levelo_inurba_marseille","lat":43.30258,"lon":5.40071,"is_reserved":false,"is_disabled":false,"rental_uris":{"android":"levelo://app?vid=a90da372-14a2-4c12-9544-f51bf7459731","ios":"levelo://app?vid=a90da372-14a2-4c12-9544-f51bf7459731"},"vehicle_type_id":"4","last_reported":1730664553,"current_range_meters":38400,"station_id":"ce4bgvh2rcd13ifvqcs0","pricing_plan_id":"cebpf4jnsgd1na2vs0mg"},{"bike_id":"6ed71df9-9717-4ae2-92c9-2a4bddd7b946","system_id":"levelo_inurba_marseille","lat":43.3361,"lon":5.41037,"is_reserved":false,"is_disabled":false,"rental_uris":{"android":"levelo://app?vid=6ed71df9-9717-4ae2-92c9-2a4bddd7b946","ios":"levelo://app?vid=6ed71df9-9717-4ae2-92c9-2a4bddd7b946"},"vehicle_type_id":"4","last_reported":1730664553,"current_range_meters":32000,"station_id":"ce4bhqh2rcd13ifvqhmg","pricing_plan_id":"cebpf4jnsgd1na2vs0mg"},{"bike_id":"31e8f71b-a670-474a-a1c8-071c59dd8a5b","system_id":"levelo_inurba_marseille","lat":43.29532,"lon":5.38547,"is_reserved":false,"is_disabled":false,"rental_uris":{"android":"levelo://app?vid=31e8f71b-a670-474a-a1c8-071c59dd8a5b","ios":"levelo://app?vid=31e8f71b-a670-474a-a1c8-071c59dd8a5b"},"vehicle_type_id":"4","last_reported":1730664553,"current_range_meters":39200,"station_id":"ce4bgih2rcd13ifvqba0","pricing_plan_id":"cebpf4jnsgd1na2vs0mg"},{"bike_id":"5824da99-26a0-47b5-9300-65c84b76189f","system_id":"levelo_inurba_marseille","lat":43.27183,"lon":5.40984,"is_reserved":false,"is_disabled":false,"rental_uris":{"android":"levelo://app?vid=5824da99-26a0-47b5-9300-65c84b76189f","ios":"levelo://app?vid=5824da99-26a0-47b5-9300-65c84b76189f"},"vehicle_type_id":"4","last_reported":1730664553,"current_range_meters":14800,"station_id":"ce4bhl12rcd13ifvqgf0","pricing_plan_id":"cebpf4jnsgd1na2vs0mg"},{"bike_id":"fe992ae4-ac79-4281-917d-e85d4fe4b5fa","system_id":"levelo_inurba_marseille","lat":43.28419,"lon":5.37519,"is_reserved":false,"is_disabled":false,"rental_uris":{"android":"levelo://app?vid=fe992ae4-ac79-4281-917d-e85d4fe4b5fa","ios":"levelo://app?vid=fe992ae4-ac79-4281-917d-e85d4fe4b5fa"},"vehicle_type_id":"4","last_reported":1730664553,"current_range_meters":31200,"station_id":"ce4bh412rcd13ifvqds0","pricing_plan_id":"cebpf4jnsgd1na2vs0mg"},{"bike_id":"75576e24-6890-4288-9aa5-db2804891d6f","system_id":"levelo_inurba_marseille","lat":43.26954,"lon":5.40244,"is_reserved":false,"is_disabled":false,"rental_uris":{"android":"levelo://app?vid=75576e24-6890-4288-9aa5-db2804891d6f","ios":"levelo://app?vid=75576e24-6890-4288-9aa5-db2804891d6f"},"vehicle_type_id":"4","last_reported":1730664553,"current_range_meters":36800,"station_id":"cjm6bp8fraef2m0cb0m0","pricing_plan_id":"cebpf4jnsgd1na2vs0mg"},{"bike_id":"3af0a465-9131-423c-a194-6a482122542b","system_id":"levelo_inurba_marseille","lat":43.30192,"lon":5.3892,"is_reserved":false,"is_disabled":false,"rental_uris":{"android":"levelo://app?vid=3af0a465-9131-423c-a194-6a482122542b","ios":"levelo://app?vid=3af0a465-9131-423c-a194-6a482122542b"},"vehicle_type_id":"4","last_reported":1730664553,"current_range_meters":30800,"station_id":"","pricing_plan_id":"cebpf4jnsgd1na2vs0mg"},{"bike_id":"91f5f012-8b48-42c0-bbaf-b03e670efaed","system_id":"levelo_inurba_marseille","lat":43.29935,"lon":5.36548,"is_reserved":false,"is_disabled":false,"rental_uris":{"android":"levelo://app?vid=91f5f012-8b48-42c0-bbaf-b03e670efaed","ios":"levelo://app?vid=91f5f012-8b48-42c0-bbaf-b03e670efaed"},"vehicle_type_id":"4","last_reported":1730664553,"current_range_meters":27600,"station_id":"ce4bgm92rcd13ifvqbr0","pricing_plan_id":"cebpf4jnsgd1na2vs0mg"},{"bike_id":"272c9abf-a133-4324-9208-08b126787068","system_id":"levelo_inurba_marseille","lat":43.2791,"lon":5.37999,"is_reserved":false,"is_disabled":false,"rental_uris":{"android":"levelo://app?vid=272c9abf-a133-4324-9208-08b126787068","ios":"levelo://app?vid=272c9abf-a133-4324-9208-08b126787068"},"vehicle_type_id":"4","last_reported":1730664553,"current_range_meters":38400,"station_id":"ce4bhf92rcd13ifvqf50","pricing_plan_id":"cebpf4jnsgd1na2vs0mg"},{"bike_id":"7e8b1d6c-9c39-4604-a217-b7b2e28abadc","system_id":"levelo_inurba_marseille","lat":43.28614,"lon":5.35101,"is_reserved":false,"is_disabled":false,"rental_uris":{"android":"levelo://app?vid=7e8b1d6c-9c39-4604-a217-b7b2e28abadc","ios":"levelo://app?vid=7e8b1d6c-9c39-4604-a217-b7b2e28abadc"},"vehicle_type_id":"4","last_reported":1730664553,"current_range_meters":35600,"station_id":"ce4bhch2rcd13ifvqeug","pricing_plan_id":"cebpf4jnsgd1na2vs0mg"},{"bike_id":"b8b8e78b-55ed-4a91-b7d6-8216533cb204","system_id":"levelo_inurba_marseille","lat":43.29684,"lon":5.37284,"is_reserved":false,"is_disabled":false,"rental_uris":{"android":"levelo://app?vid=b8b8e78b-55ed-4a91-b7d6-8216533cb204","ios":"levelo://app?vid=b8b8e78b-55ed-4a91-b7d6-8216533cb204"},"vehicle_type_id":"4","last_reported":1730664553,"current_range_meters":19200,"station_id":"ce4bgk12rcd13ifvqbj0","pricing_plan_id":"cebpf4jnsgd1na2vs0mg"},{"bike_id":"c1750154-e2c6-4ea5-935e-89f0ad37346b","system_id":"levelo_inurba_marseille","lat":43.30153,"lon":5.39888,"is_reserved":false,"is_disabled":false,"rental_uris":{"android":"levelo://app?vid=c1750154-e2c6-4ea5-935e-89f0ad37346b","ios":"levelo://app?vid=c1750154-e2c6-4ea5-935e-89f0ad37346b"},"vehicle_type_id":"4","last_reported":1730664553,"current_range_meters":39200,"station_id":"ce4bh0h2rcd13ifvqd40","pricing_plan_id":"cebpf4jnsgd1na2vs0mg"},{"bike_id":"7fa9e0db-d5db-4e00-9bab-71088473e9a3","system_id":"levelo_inurba_marseille","lat":43.28343,"lon":5.38098,"is_reserved":false,"is_disabled":false,"rental_uris":{"android":"levelo://app?vid=7fa9e0db-d5db-4e00-9bab-71088473e9a3","ios":"levelo://app?vid=7fa9e0db-d5db-4e00-9bab-71088473e9a3"},"vehicle_type_id":"4","last_reported":1730664553,"current_range_meters":33600,"station_id":"ce4bh412rcd13ifvqdr0","pricing_plan_id":"cebpf4jnsgd1na2vs0mg"},{"bike_id":"120af6d8-573e-4789-9f80-c72201eddb92","system_id":"levelo_inurba_marseille","lat":43.27423,"lon":5.39413,"is_reserved":false,"is_disabled":false,"rental_uris":{"android":"levelo://app?vid=120af6d8-573e-4789-9f80-c72201eddb92","ios":"levelo://app?vid=120af6d8-573e-4789-9f80-c72201eddb92"},"vehicle_type_id":"4","last_reported":1730664553,"current_range_meters":38800,"station_id":"ce4bhdp2rcd13ifvqf20","pricing_plan_id":"cebpf4jnsgd1na2vs0mg"},{"bike_id":"5af32b3b-d3c5-4761-95bd-a51ac5c29c07","system_id":"levelo_inurba_marseille","lat":43.30903,"lon":5.37189,"is_reserved":false,"is_disabled":false,"rental_uris":{"android":"levelo://app?vid=5af32b3b-d3c5-4761-95bd-a51ac5c29c07","ios":"levelo://app?vid=5af32b3b-d3c5-4761-95bd-a51ac5c29c07"},"vehicle_type_id":"4","last_reported":1730664553,"current_range_meters":38800,"station_id":"ce4bguh2rcd13ifvqckg","pricing_plan_id":"cebpf4jnsgd1na2vs0mg"},{"bike_id":"616b9aee-021c-4bb7-b5b5-16444fc838e4","system_id":"levelo_inurba_marseille","lat":43.29418,"lon":5.38612,"is_reserved":false,"is_disabled":false,"rental_uris":{"android":"levelo://app?vid=616b9aee-021c-4bb7-b5b5-16444fc838e4","ios":"levelo://app?vid=616b9aee-021c-4bb7-b5b5-16444fc838e4"},"vehicle_type_id":"4","last_reported":1730664553,"current_range_meters":38800,"station_id":"ce4bh2h2rcd13ifvqdh0","pricing_plan_id":"cebpf4jnsgd1na2vs0mg"},{"bike_id":"e3368b33-0af2-4840-ba71-a14df39e04a9","system_id":"levelo_inurba_marseille","lat":43.29533,"lon":5.38537,"is_reserved":false,"is_disabled":false,"rental_uris":{"android":"levelo://app?vid=e3368b33-0af2-4840-ba71-a14df39e04a9","ios":"levelo://app?vid=e3368b33-0af2-4840-ba71-a14df39e04a9"},"vehicle_type_id":"4","last_reported":1730664553,"current_range_meters":19200,"station_id":"ce4bgih2rcd13ifvqba0","pricing_plan_id":"cebpf4jnsgd1na2vs0mg"},{"bike_id":"bbf8af88-9d41-480a-8ff0-a9419e65757a","system_id":"levelo_inurba_marseille","lat":43.28572,"lon":5.39501,"is_reserved":false,"is_disabled":false,"rental_uris":{"android":"levelo://app?vid=bbf8af88-9d41-480a-8ff0-a9419e65757a","ios":"levelo://app?vid=bbf8af88-9d41-480a-8ff0-a9419e65757a"},"vehicle_type_id":"4","last_reported":1730664553,"current_range_meters":34800,"station_id":"ce4bh292rcd13ifvqdg0","pricing_plan_id":"cebpf4jnsgd1na2vs0mg"},{"bike_id":"f453d8a2-14e2-497a-a14a-49c40244a6ee","system_id":"levelo_inurba_marseille","lat":43.25865,"lon":5.39901,"is_reserved":false,"is_disabled":false,"rental_uris":{"android":"levelo://app?vid=f453d8a2-14e2-497a-a14a-49c40244a6ee","ios":"levelo://app?vid=f453d8a2-14e2-497a-a14a-49c40244a6ee"},"vehicle_type_id":"4","last_reported":1730664553,"current_range_meters":19600,"station_id":"ce4bhl92rcd13ifvqghg","pricing_plan_id":"cebpf4jnsgd1na2vs0mg"},{"bike_id":"1eeb5c5c-a3a6-4ef6-a852-f083a9363eab","system_id":"levelo_inurba_marseille","lat":43.27071,"lon":5.42284,"is_reserved":false,"is_disabled":false,"rental_uris":{"android":"levelo://app?vid=1eeb5c5c-a3a6-4ef6-a852-f083a9363eab","ios":"levelo://app?vid=1eeb5c5c-a3a6-4ef6-a852-f083a9363eab"},"vehicle_type_id":"4","last_reported":1730664553,"current_range_meters":8800,"station_id":"ce4bhk92rcd13ifvqgb0","pricing_plan_id":"cebpf4jnsgd1na2vs0mg"},{"bike_id":"c88b1e66-275d-4afa-8ece-bdd189f613f5","system_id":"levelo_inurba_marseille","lat":43.291,"lon":5.38136,"is_reserved":false,"is_disabled":false,"rental_uris":{"android":"levelo://app?vid=c88b1e66-275d-4afa-8ece-bdd189f613f5","ios":"levelo://app?vid=c88b1e66-275d-4afa-8ece-bdd189f613f5"},"vehicle_type_id":"4","last_reported":1730664553,"current_range_meters":37600,"station_id":"ce4bh512rcd13ifvqe2g","pricing_plan_id":"cebpf4jnsgd1na2vs0mg"},{"bike_id":"4e317739-b20f-4f8d-987b-ba9b04b0c4a9","system_id":"levelo_inurba_marseille","lat":43.28612,"lon":5.37057,"is_reserved":false,"is_disabled":false,"rental_uris":{"android":"levelo://app?vid=4e317739-b20f-4f8d-987b-ba9b04b0c4a9","ios":"levelo://app?vid=4e317739-b20f-4f8d-987b-ba9b04b0c4a9"},"vehicle_type_id":"4","last_reported":1730664553,"current_range_meters":38800,"station_id":"ce4bht12rcd13ifvqi60","pricing_plan_id":"cebpf4jnsgd1na2vs0mg"},{"bike_id":"7ce77be2-28e6-467f-9494-16f057502bba","system_id":"levelo_inurba_marseille","lat":43.28161,"lon":5.42644,"is_reserved":false,"is_disabled":false,"rental_uris":{"android":"levelo://app?vid=7ce77be2-28e6-467f-9494-16f057502bba","ios":"levelo://app?vid=7ce77be2-28e6-467f-9494-16f057502bba"},"vehicle_type_id":"4","last_reported":1730664553,"current_range_meters":3600,"station_id":"ce4bhnh2rcd13ifvqgug","pricing_plan_id":"cebpf4jnsgd1na2vs0mg"},{"bike_id":"e50fd69d-8268-4029-bf65-400af74520b3","system_id":"levelo_inurba_marseille","lat":43.28007,"lon":5.41665,"is_reserved":false,"is_disabled":false,"rental_uris":{"android":"levelo://app?vid=e50fd69d-8268-4029-bf65-400af74520b3","ios":"levelo://app?vid=e50fd69d-8268-4029-bf65-400af74520b3"},"vehicle_type_id":"4","last_reported":1730664553,"current_range_meters":12800,"station_id":"ce4bho12rcd13ifvqh1g","pricing_plan_id":"cebpf4jnsgd1na2vs0mg"},{"bike_id":"b535d7d2-7630-4884-8b57-c1d7e21ce967","system_id":"levelo_inurba_marseille","lat":43.29538,"lon":5.38542,"is_reserved":false,"is_disabled":false,"rental_uris":{"android":"levelo://app?vid=b535d7d2-7630-4884-8b57-c1d7e21ce967","ios":"levelo://app?vid=b535d7d2-7630-4884-8b57-c1d7e21ce967"},"vehicle_type_id":"4","last_reported":1730664553,"current_range_meters":38800,"station_id":"ce4bgih2rcd13ifvqba0","pricing_plan_id":"cebpf4jnsgd1na2vs0mg"},{"bike_id":"f3542a6b-3eaa-46f0-b4d2-58992c330d1f","system_id":"levelo_inurba_marseille","lat":43.29899,"lon":5.43665,"is_reserved":false,"is_disabled":false,"rental_uris":{"android":"levelo://app?vid=f3542a6b-3eaa-46f0-b4d2-58992c330d1f","ios":"levelo://app?vid=f3542a6b-3eaa-46f0-b4d2-58992c330d1f"},"vehicle_type_id":"4","last_reported":1730664553,"current_range_meters":4000,"station_id":"ce4bhpp2rcd13ifvqhfg","pricing_plan_id":"cebpf4jnsgd1na2vs0mg"},{"bike_id":"3c073b0e-e7f9-4adb-9cbd-3464ac137f74","system_id":"levelo_inurba_marseille","lat":43.29196,"lon":5.35804,"is_reserved":false,"is_disabled":false,"rental_uris":{"android":"levelo://app?vid=3c073b0e-e7f9-4adb-9cbd-3464ac137f74","ios":"levelo://app?vid=3c073b0e-e7f9-4adb-9cbd-3464ac137f74"},"vehicle_type_id":"4","last_reported":1730664553,"current_range_meters":38000,"station_id":"ce4bhb12rcd13ifvqel0","pricing_plan_id":"cebpf4jnsgd1na2vs0mg"},{"bike_id":"4542e1a3-5515-414c-b4e7-f7fbeeb03c5e","system_id":"levelo_inurba_marseille","lat":43.2407,"lon":5.37767,"is_reserved":false,"is_disabled":false,"rental_uris":{"android":"levelo://app?vid=4542e1a3-5515-414c-b4e7-f7fbeeb03c5e","ios":"levelo://app?vid=4542e1a3-5515-414c-b4e7-f7fbeeb03c5e"},"vehicle_type_id":"4","last_reported":1730664553,"current_range_meters":16400,"station_id":"ce4bhnp2rcd13ifvqgvg","pricing_plan_id":"cebpf4jnsgd1na2vs0mg"},{"bike_id":"33f6555c-2637-4d7c-9ff9-8a6e91a19910","system_id":"levelo_inurba_marseille","lat":43.27174,"lon":5.40987,"is_reserved":false,"is_disabled":false,"rental_uris":{"android":"levelo://app?vid=33f6555c-2637-4d7c-9ff9-8a6e91a19910","ios":"levelo://app?vid=33f6555c-2637-4d7c-9ff9-8a6e91a19910"},"vehicle_type_id":"4","last_reported":1730664553,"current_range_meters":14800,"station_id":"ce4bhl12rcd13ifvqgf0","pricing_plan_id":"cebpf4jnsgd1na2vs0mg"},{"bike_id":"b3ec251f-24f4-482a-b204-71972a8c9fa0","system_id":"levelo_inurba_marseille","lat":43.30952,"lon":5.39027,"is_reserved":false,"is_disabled":false,"rental_uris":{"android":"levelo://app?vid=b3ec251f-24f4-482a-b204-71972a8c9fa0","ios":"levelo://app?vid=b3ec251f-24f4-482a-b204-71972a8c9fa0"},"vehicle_type_id":"4","last_reported":1730664553,"current_range_meters":20800,"station_id":"ce4bgup2rcd13ifvqco0","pricing_plan_id":"cebpf4jnsgd1na2vs0mg"},{"bike_id":"5145bf55-02c3-4ba4-99d0-1c276f90d766","system_id":"levelo_inurba_marseille","lat":43.29572,"lon":5.39966,"is_reserved":false,"is_disabled":false,"rental_uris":{"android":"levelo://app?vid=5145bf55-02c3-4ba4-99d0-1c276f90d766","ios":"levelo://app?vid=5145bf55-02c3-4ba4-99d0-1c276f90d766"},"vehicle_type_id":"4","last_reported":1730664553,"current_range_meters":22000,"station_id":"ce4bh312rcd13ifvqdj0","pricing_plan_id":"cebpf4jnsgd1na2vs0mg"},{"bike_id":"4d916b62-8bbd-40bf-8461-f3dd3e4562e6","system_id":"levelo_inurba_marseille","lat":43.31175,"lon":5.38707,"is_reserved":false,"is_disabled":false,"rental_uris":{"android":"levelo://app?vid=4d916b62-8bbd-40bf-8461-f3dd3e4562e6","ios":"levelo://app?vid=4d916b62-8bbd-40bf-8461-f3dd3e4562e6"},"vehicle_type_id":"4","last_reported":1730664553,"current_range_meters":38800,"station_id":"ce4bgv12rcd13ifvqcp0","pricing_plan_id":"cebpf4jnsgd1na2vs0mg"},{"bike_id":"9206d866-51ef-4e13-96ec-cab19d3e3583","system_id":"levelo_inurba_marseille","lat":43.2721,"lon":5.39179,"is_reserved":false,"is_disabled":false,"rental_uris":{"android":"levelo://app?vid=9206d866-51ef-4e13-96ec-cab19d3e3583","ios":"levelo://app?vid=9206d866-51ef-4e13-96ec-cab19d3e3583"},"vehicle_type_id":"4","last_reported":1730664553,"current_range_meters":36800,"station_id":"ce4bhhp2rcd13ifvqfm0","pricing_plan_id":"cebpf4jnsgd1na2vs0mg"},{"bike_id":"12e2a17d-b267-46ea-b046-7d399d7c3544","system_id":"levelo_inurba_marseille","lat":43.33734,"lon":5.39181,"is_reserved":false,"is_disabled":false,"rental_uris":{"android":"levelo://app?vid=12e2a17d-b267-46ea-b046-7d399d7c3544","ios":"levelo://app?vid=12e2a17d-b267-46ea-b046-7d399d7c3544"},"vehicle_type_id":"4","last_reported":1730664553,"current_range_meters":39200,"station_id":"ce4bhr92rcd13ifvqhsg","pricing_plan_id":"cebpf4jnsgd1na2vs0mg"},{"bike_id":"0bffcfb5-ffd4-4213-a282-83f8add00e34","system_id":"levelo_inurba_marseille","lat":43.29271,"lon":5.38448,"is_reserved":false,"is_disabled":false,"rental_uris":{"android":"levelo://app?vid=0bffcfb5-ffd4-4213-a282-83f8add00e34","ios":"levelo://app?vid=0bffcfb5-ffd4-4213-a282-83f8add00e34"},"vehicle_type_id":"4","last_reported":1730664553,"current_range_meters":34000,"station_id":"ce4bh692rcd13ifvqea0","pricing_plan_id":"cebpf4jnsgd1na2vs0mg"},{"bike_id":"1f2c4e8b-6322-4e6e-b8ea-72c9bc2f7939","system_id":"levelo_inurba_marseille","lat":43.26572,"lon":5.390093,"is_reserved":false,"is_disabled":false,"rental_uris":{"android":"levelo://app?vid=1f2c4e8b-6322-4e6e-b8ea-72c9bc2f7939","ios":"levelo://app?vid=1f2c4e8b-6322-4e6e-b8ea-72c9bc2f7939"},"vehicle_type_id":"4","last_reported":1730664553,"current_range_meters":38800,"station_id":"ce4bhe12rcd13ifvqf30","pricing_plan_id":"cebpf4jnsgd1na2vs0mg"},{"bike_id":"98a54168-3963-470d-b49f-12aa7485d560","system_id":"levelo_inurba_marseille","lat":43.29407,"lon":5.38625,"is_reserved":false,"is_disabled":false,"rental_uris":{"android":"levelo://app?vid=98a54168-3963-470d-b49f-12aa7485d560","ios":"levelo://app?vid=98a54168-3963-470d-b49f-12aa7485d560"},"vehicle_type_id":"4","last_reported":1730664553,"current_range_meters":8800,"station_id":"ce4bh2h2rcd13ifvqdh0","pricing_plan_id":"cebpf4jnsgd1na2vs0mg"},{"bike_id":"b8a27d33-0523-4800-a895-12050a0aebb0","system_id":"levelo_inurba_marseille","lat":43.28926,"lon":5.38387,"is_reserved":false,"is_disabled":false,"rental_uris":{"android":"levelo://app?vid=b8a27d33-0523-4800-a895-12050a0aebb0","ios":"levelo://app?vid=b8a27d33-0523-4800-a895-12050a0aebb0"},"vehicle_type_id":"4","last_reported":1730664553,"current_range_meters":36800,"station_id":"ce4bh612rcd13ifvqe6g","pricing_plan_id":"cebpf4jnsgd1na2vs0mg"},{"bike_id":"38c888c2-7327-4f91-bfff-ef5af8616e2a","system_id":"levelo_inurba_marseille","lat":43.29268,"lon":5.38446,"is_reserved":false,"is_disabled":false,"rental_uris":{"android":"levelo://app?vid=38c888c2-7327-4f91-bfff-ef5af8616e2a","ios":"levelo://app?vid=38c888c2-7327-4f91-bfff-ef5af8616e2a"},"vehicle_type_id":"4","last_reported":1730664553,"current_range_meters":24000,"station_id":"ce4bh692rcd13ifvqea0","pricing_plan_id":"cebpf4jnsgd1na2vs0mg"},{"bike_id":"d4472d20-9c4b-4c70-ad00-3a005519a429","system_id":"levelo_inurba_marseille","lat":43.3539,"lon":5.35726,"is_reserved":false,"is_disabled":false,"rental_uris":{"android":"levelo://app?vid=d4472d20-9c4b-4c70-ad00-3a005519a429","ios":"levelo://app?vid=d4472d20-9c4b-4c70-ad00-3a005519a429"},"vehicle_type_id":"4","last_reported":1730664553,"current_range_meters":12800,"station_id":"","pricing_plan_id":"cebpf4jnsgd1na2vs0mg"},{"bike_id":"6338020e-474a-4c99-b365-eea26fe54739","system_id":"levelo_inurba_marseille","lat":43.32288,"lon":5.38285,"is_reserved":false,"is_disabled":false,"rental_uris":{"android":"levelo://app?vid=6338020e-474a-4c99-b365-eea26fe54739","ios":"levelo://app?vid=6338020e-474a-4c99-b365-eea26fe54739"},"vehicle_type_id":"4","last_reported":1730664553,"current_range_meters":39200,"station_id":"ce4bhr12rcd13ifvqhqg","pricing_plan_id":"cebpf4jnsgd1na2vs0mg"},{"bike_id":"f23c62f0-5403-4d96-9600-def855fd3713","system_id":"levelo_inurba_marseille","lat":43.29518,"lon":5.39031,"is_reserved":false,"is_disabled":false,"rental_uris":{"android":"levelo://app?vid=f23c62f0-5403-4d96-9600-def855fd3713","ios":"levelo://app?vid=f23c62f0-5403-4d96-9600-def855fd3713"},"vehicle_type_id":"4","last_reported":1730664553,"current_range_meters":17600,"station_id":"ce4bh3p2rcd13ifvqdp0","pricing_plan_id":"cebpf4jnsgd1na2vs0mg"},{"bike_id":"d654e893-cc06-4152-b5e1-480855c6d7d0","system_id":"levelo_inurba_marseille","lat":43.29549,"lon":5.42277,"is_reserved":false,"is_disabled":false,"rental_uris":{"android":"levelo://app?vid=d654e893-cc06-4152-b5e1-480855c6d7d0","ios":"levelo://app?vid=d654e893-cc06-4152-b5e1-480855c6d7d0"},"vehicle_type_id":"4","last_reported":1730664553,"current_range_meters":16000,"station_id":"ce4bhph2rcd13ifvqhdg","pricing_plan_id":"cebpf4jnsgd1na2vs0mg"},{"bike_id":"1498ce9c-c269-404d-ac19-90fe143a6636","system_id":"levelo_inurba_marseille","lat":43.29537,"lon":5.38545,"is_reserved":false,"is_disabled":false,"rental_uris":{"android":"levelo://app?vid=1498ce9c-c269-404d-ac19-90fe143a6636","ios":"levelo://app?vid=1498ce9c-c269-404d-ac19-90fe143a6636"},"vehicle_type_id":"4","last_reported":1730664553,"current_range_meters":38800,"station_id":"ce4bgih2rcd13ifvqba0","pricing_plan_id":"cebpf4jnsgd1na2vs0mg"},{"bike_id":"262b75cb-4cc5-4ff2-869a-f6570dba6a1f","system_id":"levelo_inurba_marseille","lat":43.30897,"lon":5.37188,"is_reserved":false,"is_disabled":false,"rental_uris":{"android":"levelo://app?vid=262b75cb-4cc5-4ff2-869a-f6570dba6a1f","ios":"levelo://app?vid=262b75cb-4cc5-4ff2-869a-f6570dba6a1f"},"vehicle_type_id":"4","last_reported":1730664553,"current_range_meters":39200,"station_id":"ce4bguh2rcd13ifvqckg","pricing_plan_id":"cebpf4jnsgd1na2vs0mg"},{"bike_id":"9590fcd8-990f-40e6-9308-a196638a7b22","system_id":"levelo_inurba_marseille","lat":43.26062,"lon":5.39395,"is_reserved":false,"is_disabled":false,"rental_uris":{"android":"levelo://app?vid=9590fcd8-990f-40e6-9308-a196638a7b22","ios":"levelo://app?vid=9590fcd8-990f-40e6-9308-a196638a7b22"},"vehicle_type_id":"4","last_reported":1730664553,"current_range_meters":27600,"station_id":"ce4bhh92rcd13ifvqfj0","pricing_plan_id":"cebpf4jnsgd1na2vs0mg"},{"bike_id":"f8833f7b-49c8-440c-b671-beb72799bdec","system_id":"levelo_inurba_marseille","lat":43.24983,"lon":5.37509,"is_reserved":false,"is_disabled":false,"rental_uris":{"android":"levelo://app?vid=f8833f7b-49c8-440c-b671-beb72799bdec","ios":"levelo://app?vid=f8833f7b-49c8-440c-b671-beb72799bdec"},"vehicle_type_id":"4","last_reported":1730664553,"current_range_meters":29600,"station_id":"","pricing_plan_id":"cebpf4jnsgd1na2vs0mg"},{"bike_id":"b4c26404-be14-4de0-97fe-975ad815c2aa","system_id":"levelo_inurba_marseille","lat":43.25499,"lon":5.37654,"is_reserved":false,"is_disabled":false,"rental_uris":{"android":"levelo://app?vid=b4c26404-be14-4de0-97fe-975ad815c2aa","ios":"levelo://app?vid=b4c26404-be14-4de0-97fe-975ad815c2aa"},"vehicle_type_id":"4","last_reported":1730664553,"current_range_meters":38800,"station_id":"ce4bhh12rcd13ifvqff0","pricing_plan_id":"cebpf4jnsgd1na2vs0mg"},{"bike_id":"e7453847-165d-4e50-a796-bedc702cb92c","system_id":"levelo_inurba_marseille","lat":43.29446,"lon":5.3976,"is_reserved":false,"is_disabled":false,"rental_uris":{"android":"levelo://app?vid=e7453847-165d-4e50-a796-bedc702cb92c","ios":"levelo://app?vid=e7453847-165d-4e50-a796-bedc702cb92c"},"vehicle_type_id":"4","last_reported":1730664553,"current_range_meters":9600,"station_id":"ce4bh3h2rcd13ifvqdo0","pricing_plan_id":"cebpf4jnsgd1na2vs0mg"},{"bike_id":"0d325674-1265-4898-b788-3f204d50c915","system_id":"levelo_inurba_marseille","lat":43.284655,"lon":5.358925,"is_reserved":false,"is_disabled":false,"rental_uris":{"android":"levelo://app?vid=0d325674-1265-4898-b788-3f204d50c915","ios":"levelo://app?vid=0d325674-1265-4898-b788-3f204d50c915"},"vehicle_type_id":"4","last_reported":1730664553,"current_range_meters":3200,"station_id":"ce4bhah2rcd13ifvqei0","pricing_plan_id":"cebpf4jnsgd1na2vs0mg"},{"bike_id":"44b9afdd-a505-4f47-b39e-a5a06d89a036","system_id":"levelo_inurba_marseille","lat":43.29968,"lon":5.3849,"is_reserved":false,"is_disabled":false,"rental_uris":{"android":"levelo://app?vid=44b9afdd-a505-4f47-b39e-a5a06d89a036","ios":"levelo://app?vid=44b9afdd-a505-4f47-b39e-a5a06d89a036"},"vehicle_type_id":"4","last_reported":1730664553,"current_range_meters":37600,"station_id":"ce4bgj92rcd13ifvqbd0","pricing_plan_id":"cebpf4jnsgd1na2vs0mg"},{"bike_id":"abd4e352-10e8-4e78-8d17-91c2ead8c6d5","system_id":"levelo_inurba_marseille","lat":43.29251,"lon":5.40904,"is_reserved":false,"is_disabled":false,"rental_uris":{"android":"levelo://app?vid=abd4e352-10e8-4e78-8d17-91c2ead8c6d5","ios":"levelo://app?vid=abd4e352-10e8-4e78-8d17-91c2ead8c6d5"},"vehicle_type_id":"4","last_reported":1730664553,"current_range_meters":20800,"station_id":"ce4bh192rcd13ifvqdc0","pricing_plan_id":"cebpf4jnsgd1na2vs0mg"},{"bike_id":"6343cda6-6330-478c-8080-96c31f72a038","system_id":"levelo_inurba_marseille","lat":43.29555,"lon":5.42295,"is_reserved":false,"is_disabled":false,"rental_uris":{"android":"levelo://app?vid=6343cda6-6330-478c-8080-96c31f72a038","ios":"levelo://app?vid=6343cda6-6330-478c-8080-96c31f72a038"},"vehicle_type_id":"4","last_reported":1730664553,"current_range_meters":37600,"station_id":"ce4bhph2rcd13ifvqhdg","pricing_plan_id":"cebpf4jnsgd1na2vs0mg"},{"bike_id":"ec044105-cccc-4633-bb60-ed36987011c3","system_id":"levelo_inurba_marseille","lat":43.27058,"lon":5.40255,"is_reserved":false,"is_disabled":false,"rental_uris":{"android":"levelo://app?vid=ec044105-cccc-4633-bb60-ed36987011c3","ios":"levelo://app?vid=ec044105-cccc-4633-bb60-ed36987011c3"},"vehicle_type_id":"4","last_reported":1730664553,"current_range_meters":8400,"station_id":"ce4bhk92rcd13ifvqgc0","pricing_plan_id":"cebpf4jnsgd1na2vs0mg"},{"bike_id":"2b4bbfed-255f-4cd0-bf8b-80e072c9cbe9","system_id":"levelo_inurba_marseille","lat":43.32105,"lon":5.3678,"is_reserved":false,"is_disabled":false,"rental_uris":{"android":"levelo://app?vid=2b4bbfed-255f-4cd0-bf8b-80e072c9cbe9","ios":"levelo://app?vid=2b4bbfed-255f-4cd0-bf8b-80e072c9cbe9"},"vehicle_type_id":"4","last_reported":1730664553,"current_range_meters":8800,"station_id":"ce4bhrh2rcd13ifvqhug","pricing_plan_id":"cebpf4jnsgd1na2vs0mg"},{"bike_id":"b5cc074e-2188-459d-8e7c-27bf21e159cd","system_id":"levelo_inurba_marseille","lat":43.28671,"lon":5.36343,"is_reserved":false,"is_disabled":false,"rental_uris":{"android":"levelo://app?vid=b5cc074e-2188-459d-8e7c-27bf21e159cd","ios":"levelo://app?vid=b5cc074e-2188-459d-8e7c-27bf21e159cd"},"vehicle_type_id":"4","last_reported":1730664553,"current_range_meters":18000,"station_id":"ce4bhah2rcd13ifvqej0","pricing_plan_id":"cebpf4jnsgd1na2vs0mg"},{"bike_id":"1827f06b-dff1-49a8-9af8-55a768acb9cb","system_id":"levelo_inurba_marseille","lat":43.28619,"lon":5.35102,"is_reserved":false,"is_disabled":false,"rental_uris":{"android":"levelo://app?vid=1827f06b-dff1-49a8-9af8-55a768acb9cb","ios":"levelo://app?vid=1827f06b-dff1-49a8-9af8-55a768acb9cb"},"vehicle_type_id":"4","last_reported":1730664553,"current_range_meters":39200,"station_id":"ce4bhch2rcd13ifvqeug","pricing_plan_id":"cebpf4jnsgd1na2vs0mg"},{"bike_id":"db993260-9fce-405c-ba28-1e9005ca90f9","system_id":"levelo_inurba_marseille","lat":43.280789,"lon":5.396615,"is_reserved":false,"is_disabled":false,"rental_uris":{"android":"levelo://app?vid=db993260-9fce-405c-ba28-1e9005ca90f9","ios":"levelo://app?vid=db993260-9fce-405c-ba28-1e9005ca90f9"},"vehicle_type_id":"4","last_reported":1730664553,"current_range_meters":39200,"station_id":"ce4bho12rcd13ifvqh2g","pricing_plan_id":"cebpf4jnsgd1na2vs0mg"},{"bike_id":"a12b2879-a072-4f12-a569-137c3242cf14","system_id":"levelo_inurba_marseille","lat":43.27173,"lon":5.40993,"is_reserved":false,"is_disabled":false,"rental_uris":{"android":"levelo://app?vid=a12b2879-a072-4f12-a569-137c3242cf14","ios":"levelo://app?vid=a12b2879-a072-4f12-a569-137c3242cf14"},"vehicle_type_id":"4","last_reported":1730664553,"current_range_meters":30400,"station_id":"ce4bhl12rcd13ifvqgf0","pricing_plan_id":"cebpf4jnsgd1na2vs0mg"},{"bike_id":"581c0865-91b6-4760-8ac6-c97ba4051385","system_id":"levelo_inurba_marseille","lat":43.24798,"lon":5.37459,"is_reserved":false,"is_disabled":false,"rental_uris":{"android":"levelo://app?vid=581c0865-91b6-4760-8ac6-c97ba4051385","ios":"levelo://app?vid=581c0865-91b6-4760-8ac6-c97ba4051385"},"vehicle_type_id":"4","last_reported":1730664553,"current_range_meters":27200,"station_id":"ce4bhgh2rcd13ifvqfb0","pricing_plan_id":"cebpf4jnsgd1na2vs0mg"},{"bike_id":"81cbfe91-68c9-4a60-b933-5430cf549ffb","system_id":"levelo_inurba_marseille","lat":43.27991,"lon":5.41656,"is_reserved":false,"is_disabled":false,"rental_uris":{"android":"levelo://app?vid=81cbfe91-68c9-4a60-b933-5430cf549ffb","ios":"levelo://app?vid=81cbfe91-68c9-4a60-b933-5430cf549ffb"},"vehicle_type_id":"4","last_reported":1730664553,"current_range_meters":37600,"station_id":"ce4bho12rcd13ifvqh1g","pricing_plan_id":"cebpf4jnsgd1na2vs0mg"},{"bike_id":"60b44956-9029-465b-bff1-e2638a9b3ec0","system_id":"levelo_inurba_marseille","lat":43.28099,"lon":5.37841,"is_reserved":false,"is_disabled":false,"rental_uris":{"android":"levelo://app?vid=60b44956-9029-465b-bff1-e2638a9b3ec0","ios":"levelo://app?vid=60b44956-9029-465b-bff1-e2638a9b3ec0"},"vehicle_type_id":"4","last_reported":1730664553,"current_range_meters":37600,"station_id":"ce4bha12rcd13ifvqee0","pricing_plan_id":"cebpf4jnsgd1na2vs0mg"},{"bike_id":"c556f04d-a5be-4d49-ad15-6cb970cca7df","system_id":"levelo_inurba_marseille","lat":43.31722,"lon":5.42399,"is_reserved":false,"is_disabled":false,"rental_uris":{"android":"levelo://app?vid=c556f04d-a5be-4d49-ad15-6cb970cca7df","ios":"levelo://app?vid=c556f04d-a5be-4d49-ad15-6cb970cca7df"},"vehicle_type_id":"4","last_reported":1730664553,"current_range_meters":37600,"station_id":"ce4bhp92rcd13ifvqhbg","pricing_plan_id":"cebpf4jnsgd1na2vs0mg"},{"bike_id":"e11d5255-2ce6-4a68-8d0c-4cc6508d90bb","system_id":"levelo_inurba_marseille","lat":43.25728,"lon":5.41086,"is_reserved":false,"is_disabled":false,"rental_uris":{"android":"levelo://app?vid=e11d5255-2ce6-4a68-8d0c-4cc6508d90bb","ios":"levelo://app?vid=e11d5255-2ce6-4a68-8d0c-4cc6508d90bb"},"vehicle_type_id":"4","last_reported":1730664553,"current_range_meters":8400,"station_id":"ce4bhkp2rcd13ifvqgd0","pricing_plan_id":"cebpf4jnsgd1na2vs0mg"},{"bike_id":"dd65d5f4-0ea0-4676-8be9-c1ff6a745075","system_id":"levelo_inurba_marseille","lat":43.27671,"lon":5.38893,"is_reserved":false,"is_disabled":false,"rental_uris":{"android":"levelo://app?vid=dd65d5f4-0ea0-4676-8be9-c1ff6a745075","ios":"levelo://app?vid=dd65d5f4-0ea0-4676-8be9-c1ff6a745075"},"vehicle_type_id":"4","last_reported":1730664553,"current_range_meters":19600,"station_id":"ce4bhi12rcd13ifvqfo0","pricing_plan_id":"cebpf4jnsgd1na2vs0mg"},{"bike_id":"89b5db9e-d734-4d56-8435-3c882b9b96c6","system_id":"levelo_inurba_marseille","lat":43.28924,"lon":5.38389,"is_reserved":false,"is_disabled":false,"rental_uris":{"android":"levelo://app?vid=89b5db9e-d734-4d56-8435-3c882b9b96c6","ios":"levelo://app?vid=89b5db9e-d734-4d56-8435-3c882b9b96c6"},"vehicle_type_id":"4","last_reported":1730664553,"current_range_meters":34000,"station_id":"ce4bh612rcd13ifvqe6g","pricing_plan_id":"cebpf4jnsgd1na2vs0mg"},{"bike_id":"567914b4-e860-4bd3-94b5-03bf9396784b","system_id":"levelo_inurba_marseille","lat":43.24389,"lon":5.37061,"is_reserved":false,"is_disabled":false,"rental_uris":{"android":"levelo://app?vid=567914b4-e860-4bd3-94b5-03bf9396784b","ios":"levelo://app?vid=567914b4-e860-4bd3-94b5-03bf9396784b"},"vehicle_type_id":"4","last_reported":1730664553,"current_range_meters":39200,"station_id":"ce4bhhh2rcd13ifvqfk0","pricing_plan_id":"cebpf4jnsgd1na2vs0mg"},{"bike_id":"35b13398-104a-4231-8e32-46092601ae4e","system_id":"levelo_inurba_marseille","lat":43.27942,"lon":5.41048,"is_reserved":false,"is_disabled":false,"rental_uris":{"android":"levelo://app?vid=35b13398-104a-4231-8e32-46092601ae4e","ios":"levelo://app?vid=35b13398-104a-4231-8e32-46092601ae4e"},"vehicle_type_id":"4","last_reported":1730664553,"current_range_meters":6400,"station_id":"ce4bhnp2rcd13ifvqh0g","pricing_plan_id":"cebpf4jnsgd1na2vs0mg"},{"bike_id":"52c87382-fa2b-4b96-89a5-f73605f11272","system_id":"levelo_inurba_marseille","lat":43.23845,"lon":5.38959,"is_reserved":false,"is_disabled":false,"rental_uris":{"android":"levelo://app?vid=52c87382-fa2b-4b96-89a5-f73605f11272","ios":"levelo://app?vid=52c87382-fa2b-4b96-89a5-f73605f11272"},"vehicle_type_id":"4","last_reported":1730664553,"current_range_meters":25600,"station_id":"","pricing_plan_id":"cebpf4jnsgd1na2vs0mg"},{"bike_id":"cd9b7ed9-6d0c-43cd-9120-7ee637605db4","system_id":"levelo_inurba_marseille","lat":43.286987,"lon":5.399828,"is_reserved":false,"is_disabled":false,"rental_uris":{"android":"levelo://app?vid=cd9b7ed9-6d0c-43cd-9120-7ee637605db4","ios":"levelo://app?vid=cd9b7ed9-6d0c-43cd-9120-7ee637605db4"},"vehicle_type_id":"4","last_reported":1730664553,"current_range_meters":38800,"station_id":"ce4bho92rcd13ifvqh3g","pricing_plan_id":"cebpf4jnsgd1na2vs0mg"},{"bike_id":"b14cf17d-2256-4f20-9c9a-577fdde90fc6","system_id":"levelo_inurba_marseille","lat":43.29263,"lon":5.38437,"is_reserved":false,"is_disabled":false,"rental_uris":{"android":"levelo://app?vid=b14cf17d-2256-4f20-9c9a-577fdde90fc6","ios":"levelo://app?vid=b14cf17d-2256-4f20-9c9a-577fdde90fc6"},"vehicle_type_id":"4","last_reported":1730664553,"current_range_meters":30400,"station_id":"ce4bh692rcd13ifvqea0","pricing_plan_id":"cebpf4jnsgd1na2vs0mg"},{"bike_id":"a43019a8-a760-4309-a043-c8c927a99dee","system_id":"levelo_inurba_marseille","lat":43.31075,"lon":5.38359,"is_reserved":false,"is_disabled":false,"rental_uris":{"android":"levelo://app?vid=a43019a8-a760-4309-a043-c8c927a99dee","ios":"levelo://app?vid=a43019a8-a760-4309-a043-c8c927a99dee"},"vehicle_type_id":"4","last_reported":1730664553,"current_range_meters":28000,"station_id":"ce4bgv92rcd13ifvqcr0","pricing_plan_id":"cebpf4jnsgd1na2vs0mg"},{"bike_id":"65b8cd1a-e70d-47e3-b20c-e805078513ec","system_id":"levelo_inurba_marseille","lat":43.2397,"lon":5.36629,"is_reserved":false,"is_disabled":false,"rental_uris":{"android":"levelo://app?vid=65b8cd1a-e70d-47e3-b20c-e805078513ec","ios":"levelo://app?vid=65b8cd1a-e70d-47e3-b20c-e805078513ec"},"vehicle_type_id":"4","last_reported":1730664553,"current_range_meters":30000,"station_id":"ce4bhi12rcd13ifvqfp0","pricing_plan_id":"cebpf4jnsgd1na2vs0mg"},{"bike_id":"739c9dca-9415-4b03-859b-1606e5caa095","system_id":"levelo_inurba_marseille","lat":43.34142,"lon":5.40909,"is_reserved":false,"is_disabled":false,"rental_uris":{"android":"levelo://app?vid=739c9dca-9415-4b03-859b-1606e5caa095","ios":"levelo://app?vid=739c9dca-9415-4b03-859b-1606e5caa095"},"vehicle_type_id":"4","last_reported":1730664553,"current_range_meters":38400,"station_id":"ce4bhqh2rcd13ifvqhlg","pricing_plan_id":"cebpf4jnsgd1na2vs0mg"},{"bike_id":"557deb37-af88-408b-a308-a5b284c3a2d7","system_id":"levelo_inurba_marseille","lat":43.26568,"lon":5.38986,"is_reserved":false,"is_disabled":false,"rental_uris":{"android":"levelo://app?vid=557deb37-af88-408b-a308-a5b284c3a2d7","ios":"levelo://app?vid=557deb37-af88-408b-a308-a5b284c3a2d7"},"vehicle_type_id":"4","last_reported":1730664553,"current_range_meters":38800,"station_id":"ce4bhe12rcd13ifvqf30","pricing_plan_id":"cebpf4jnsgd1na2vs0mg"},{"bike_id":"3a60b9fd-e436-4406-9d79-0669e4e382de","system_id":"levelo_inurba_marseille","lat":43.29163,"lon":5.37153,"is_reserved":false,"is_disabled":false,"rental_uris":{"android":"levelo://app?vid=3a60b9fd-e436-4406-9d79-0669e4e382de","ios":"levelo://app?vid=3a60b9fd-e436-4406-9d79-0669e4e382de"},"vehicle_type_id":"4","last_reported":1730664553,"current_range_meters":12400,"station_id":"ce4bha92rcd13ifvqeh0","pricing_plan_id":"cebpf4jnsgd1na2vs0mg"},{"bike_id":"1b80601b-8be3-4b0b-bcc4-eebb89de1629","system_id":"levelo_inurba_marseille","lat":43.25831,"lon":5.39427,"is_reserved":false,"is_disabled":false,"rental_uris":{"android":"levelo://app?vid=1b80601b-8be3-4b0b-bcc4-eebb89de1629","ios":"levelo://app?vid=1b80601b-8be3-4b0b-bcc4-eebb89de1629"},"vehicle_type_id":"4","last_reported":1730664553,"current_range_meters":33600,"station_id":"ce4bhip2rcd13ifvqft0","pricing_plan_id":"cebpf4jnsgd1na2vs0mg"},{"bike_id":"c0b64f1b-b238-4185-ae29-705fa5350801","system_id":"levelo_inurba_marseille","lat":43.28931,"lon":5.38388,"is_reserved":false,"is_disabled":false,"rental_uris":{"android":"levelo://app?vid=c0b64f1b-b238-4185-ae29-705fa5350801","ios":"levelo://app?vid=c0b64f1b-b238-4185-ae29-705fa5350801"},"vehicle_type_id":"4","last_reported":1730664553,"current_range_meters":36400,"station_id":"ce4bh612rcd13ifvqe6g","pricing_plan_id":"cebpf4jnsgd1na2vs0mg"},{"bike_id":"fc01ac91-958f-424a-99ad-0c74a70e91dc","system_id":"levelo_inurba_marseille","lat":43.28411,"lon":5.37511,"is_reserved":false,"is_disabled":false,"rental_uris":{"android":"levelo://app?vid=fc01ac91-958f-424a-99ad-0c74a70e91dc","ios":"levelo://app?vid=fc01ac91-958f-424a-99ad-0c74a70e91dc"},"vehicle_type_id":"4","last_reported":1730664553,"current_range_meters":38800,"station_id":"ce4bh412rcd13ifvqds0","pricing_plan_id":"cebpf4jnsgd1na2vs0mg"},{"bike_id":"95e3f851-48ae-4212-a71d-5b0ac6a0798d","system_id":"levelo_inurba_marseille","lat":43.2867,"lon":5.38665,"is_reserved":false,"is_disabled":false,"rental_uris":{"android":"levelo://app?vid=95e3f851-48ae-4212-a71d-5b0ac6a0798d","ios":"levelo://app?vid=95e3f851-48ae-4212-a71d-5b0ac6a0798d"},"vehicle_type_id":"4","last_reported":1730664553,"current_range_meters":39200,"station_id":"ce4bh492rcd13ifvqdug","pricing_plan_id":"cebpf4jnsgd1na2vs0mg"},{"bike_id":"2df6f291-096d-459d-b928-e87b0c0efefb","system_id":"levelo_inurba_marseille","lat":43.26681,"lon":5.38272,"is_reserved":false,"is_disabled":false,"rental_uris":{"android":"levelo://app?vid=2df6f291-096d-459d-b928-e87b0c0efefb","ios":"levelo://app?vid=2df6f291-096d-459d-b928-e87b0c0efefb"},"vehicle_type_id":"4","last_reported":1730664553,"current_range_meters":22400,"station_id":"ce4bhg92rcd13ifvqf90","pricing_plan_id":"cebpf4jnsgd1na2vs0mg"},{"bike_id":"c8ff769d-3de8-4ba5-b126-ee1befb95d70","system_id":"levelo_inurba_marseille","lat":43.2386,"lon":5.38979,"is_reserved":false,"is_disabled":false,"rental_uris":{"android":"levelo://app?vid=c8ff769d-3de8-4ba5-b126-ee1befb95d70","ios":"levelo://app?vid=c8ff769d-3de8-4ba5-b126-ee1befb95d70"},"vehicle_type_id":"4","last_reported":1730664553,"current_range_meters":12000,"station_id":"","pricing_plan_id":"cebpf4jnsgd1na2vs0mg"},{"bike_id":"8c67d340-801d-46e5-b910-2f8aff3ff078","system_id":"levelo_inurba_marseille","lat":43.33319,"lon":5.37061,"is_reserved":false,"is_disabled":false,"rental_uris":{"android":"levelo://app?vid=8c67d340-801d-46e5-b910-2f8aff3ff078","ios":"levelo://app?vid=8c67d340-801d-46e5-b910-2f8aff3ff078"},"vehicle_type_id":"4","last_reported":1730664553,"current_range_meters":4400,"station_id":"","pricing_plan_id":"cebpf4jnsgd1na2vs0mg"},{"bike_id":"18a73732-1e61-4e43-905a-c8ff642c20fa","system_id":"levelo_inurba_marseille","lat":43.28858,"lon":5.39321,"is_reserved":false,"is_disabled":false,"rental_uris":{"android":"levelo://app?vid=18a73732-1e61-4e43-905a-c8ff642c20fa","ios":"levelo://app?vid=18a73732-1e61-4e43-905a-c8ff642c20fa"},"vehicle_type_id":"4","last_reported":1730664553,"current_range_meters":38800,"station_id":"ce4bh2p2rcd13ifvqdi0","pricing_plan_id":"cebpf4jnsgd1na2vs0mg"},{"bike_id":"8a6622b3-8d8a-4745-9a4e-f0dd34eaf266","system_id":"levelo_inurba_marseille","lat":43.27989,"lon":5.40003,"is_reserved":false,"is_disabled":false,"rental_uris":{"android":"levelo://app?vid=8a6622b3-8d8a-4745-9a4e-f0dd34eaf266","ios":"levelo://app?vid=8a6622b3-8d8a-4745-9a4e-f0dd34eaf266"},"vehicle_type_id":"4","last_reported":1730664553,"current_range_meters":4800,"station_id":"ce4bho92rcd13ifvqh4g","pricing_plan_id":"cebpf4jnsgd1na2vs0mg"},{"bike_id":"79f5032c-4427-40bb-bbad-7f35acb21ebc","system_id":"levelo_inurba_marseille","lat":43.32287,"lon":5.38277,"is_reserved":false,"is_disabled":false,"rental_uris":{"android":"levelo://app?vid=79f5032c-4427-40bb-bbad-7f35acb21ebc","ios":"levelo://app?vid=79f5032c-4427-40bb-bbad-7f35acb21ebc"},"vehicle_type_id":"4","last_reported":1730664553,"current_range_meters":20800,"station_id":"ce4bhr12rcd13ifvqhqg","pricing_plan_id":"cebpf4jnsgd1na2vs0mg"},{"bike_id":"488a49df-c9c8-4124-a350-5f746b788f43","system_id":"levelo_inurba_marseille","lat":43.27941,"lon":5.41038,"is_reserved":false,"is_disabled":false,"rental_uris":{"android":"levelo://app?vid=488a49df-c9c8-4124-a350-5f746b788f43","ios":"levelo://app?vid=488a49df-c9c8-4124-a350-5f746b788f43"},"vehicle_type_id":"4","last_reported":1730664553,"current_range_meters":24400,"station_id":"ce4bhnp2rcd13ifvqh0g","pricing_plan_id":"cebpf4jnsgd1na2vs0mg"},{"bike_id":"7150c2ea-0196-4663-94f1-bd378e990695","system_id":"levelo_inurba_marseille","lat":43.29527,"lon":5.37504,"is_reserved":false,"is_disabled":false,"rental_uris":{"android":"levelo://app?vid=7150c2ea-0196-4663-94f1-bd378e990695","ios":"levelo://app?vid=7150c2ea-0196-4663-94f1-bd378e990695"},"vehicle_type_id":"4","last_reported":1730664553,"current_range_meters":39200,"station_id":"ce4bgkp2rcd13ifvqbmg","pricing_plan_id":"cebpf4jnsgd1na2vs0mg"},{"bike_id":"a22693e4-0adf-4f9e-bba6-8cb69985560f","system_id":"levelo_inurba_marseille","lat":43.28458,"lon":5.35881,"is_reserved":false,"is_disabled":false,"rental_uris":{"android":"levelo://app?vid=a22693e4-0adf-4f9e-bba6-8cb69985560f","ios":"levelo://app?vid=a22693e4-0adf-4f9e-bba6-8cb69985560f"},"vehicle_type_id":"4","last_reported":1730664553,"current_range_meters":39200,"station_id":"ce4bhah2rcd13ifvqei0","pricing_plan_id":"cebpf4jnsgd1na2vs0mg"},{"bike_id":"55a5ca7c-6af1-429c-9c94-9fa3bccda2bb","system_id":"levelo_inurba_marseille","lat":43.28347,"lon":5.381,"is_reserved":false,"is_disabled":false,"rental_uris":{"android":"levelo://app?vid=55a5ca7c-6af1-429c-9c94-9fa3bccda2bb","ios":"levelo://app?vid=55a5ca7c-6af1-429c-9c94-9fa3bccda2bb"},"vehicle_type_id":"4","last_reported":1730664553,"current_range_meters":30400,"station_id":"ce4bh412rcd13ifvqdr0","pricing_plan_id":"cebpf4jnsgd1na2vs0mg"},{"bike_id":"7a8975a1-c523-47ba-83a1-459b86ea01d9","system_id":"levelo_inurba_marseille","lat":43.29208,"lon":5.39325,"is_reserved":false,"is_disabled":false,"rental_uris":{"android":"levelo://app?vid=7a8975a1-c523-47ba-83a1-459b86ea01d9","ios":"levelo://app?vid=7a8975a1-c523-47ba-83a1-459b86ea01d9"},"vehicle_type_id":"4","last_reported":1730664553,"current_range_meters":16800,"station_id":"ce4bh192rcd13ifvqdd0","pricing_plan_id":"cebpf4jnsgd1na2vs0mg"},{"bike_id":"1b815e21-dee6-4668-8d81-04512ac59c81","system_id":"levelo_inurba_marseille","lat":43.2942,"lon":5.38617,"is_reserved":false,"is_disabled":false,"rental_uris":{"android":"levelo://app?vid=1b815e21-dee6-4668-8d81-04512ac59c81","ios":"levelo://app?vid=1b815e21-dee6-4668-8d81-04512ac59c81"},"vehicle_type_id":"4","last_reported":1730664553,"current_range_meters":36800,"station_id":"ce4bh2h2rcd13ifvqdh0","pricing_plan_id":"cebpf4jnsgd1na2vs0mg"},{"bike_id":"737e9747-c831-402d-a747-149225195082","system_id":"levelo_inurba_marseille","lat":43.31327,"lon":5.39696,"is_reserved":false,"is_disabled":false,"rental_uris":{"android":"levelo://app?vid=737e9747-c831-402d-a747-149225195082","ios":"levelo://app?vid=737e9747-c831-402d-a747-149225195082"},"vehicle_type_id":"4","last_reported":1730664553,"current_range_meters":30400,"station_id":"ce4bgvp2rcd13ifvqcu0","pricing_plan_id":"cebpf4jnsgd1na2vs0mg"},{"bike_id":"1de70012-c83e-4b8a-89a2-6f131a1bcd22","system_id":"levelo_inurba_marseille","lat":43.30892,"lon":5.371874,"is_reserved":false,"is_disabled":false,"rental_uris":{"android":"levelo://app?vid=1de70012-c83e-4b8a-89a2-6f131a1bcd22","ios":"levelo://app?vid=1de70012-c83e-4b8a-89a2-6f131a1bcd22"},"vehicle_type_id":"4","last_reported":1730664553,"current_range_meters":14800,"station_id":"ce4bguh2rcd13ifvqckg","pricing_plan_id":"cebpf4jnsgd1na2vs0mg"},{"bike_id":"51e33fc0-83bd-44be-a080-61bc9446f595","system_id":"levelo_inurba_marseille","lat":43.24998,"lon":5.38929,"is_reserved":false,"is_disabled":false,"rental_uris":{"android":"levelo://app?vid=51e33fc0-83bd-44be-a080-61bc9446f595","ios":"levelo://app?vid=51e33fc0-83bd-44be-a080-61bc9446f595"},"vehicle_type_id":"4","last_reported":1730664553,"current_range_meters":38800,"station_id":"ce4bhgp2rcd13ifvqfd0","pricing_plan_id":"cebpf4jnsgd1na2vs0mg"},{"bike_id":"d5324ca5-5a3a-4892-bb8c-7dbf331e6ea6","system_id":"levelo_inurba_marseille","lat":43.32488,"lon":5.3656,"is_reserved":false,"is_disabled":false,"rental_uris":{"android":"levelo://app?vid=d5324ca5-5a3a-4892-bb8c-7dbf331e6ea6","ios":"levelo://app?vid=d5324ca5-5a3a-4892-bb8c-7dbf331e6ea6"},"vehicle_type_id":"4","last_reported":1730664553,"current_range_meters":38800,"station_id":"ce4bhs12rcd13ifvqhvg","pricing_plan_id":"cebpf4jnsgd1na2vs0mg"},{"bike_id":"2f2ea378-4ead-470b-9874-5283887e2ee2","system_id":"levelo_inurba_marseille","lat":43.26574,"lon":5.3902,"is_reserved":false,"is_disabled":false,"rental_uris":{"android":"levelo://app?vid=2f2ea378-4ead-470b-9874-5283887e2ee2","ios":"levelo://app?vid=2f2ea378-4ead-470b-9874-5283887e2ee2"},"vehicle_type_id":"4","last_reported":1730664553,"current_range_meters":7200,"station_id":"ce4bhe12rcd13ifvqf30","pricing_plan_id":"cebpf4jnsgd1na2vs0mg"},{"bike_id":"8da67f8b-53e8-4934-9735-38d09238fa66","system_id":"levelo_inurba_marseille","lat":43.24075,"lon":5.37755,"is_reserved":false,"is_disabled":false,"rental_uris":{"android":"levelo://app?vid=8da67f8b-53e8-4934-9735-38d09238fa66","ios":"levelo://app?vid=8da67f8b-53e8-4934-9735-38d09238fa66"},"vehicle_type_id":"4","last_reported":1730664553,"current_range_meters":33200,"station_id":"ce4bhnp2rcd13ifvqgvg","pricing_plan_id":"cebpf4jnsgd1na2vs0mg"},{"bike_id":"c95bcd21-58c5-4a1f-8636-250e73cfe412","system_id":"levelo_inurba_marseille","lat":43.3009,"lon":5.39082,"is_reserved":false,"is_disabled":false,"rental_uris":{"android":"levelo://app?vid=c95bcd21-58c5-4a1f-8636-250e73cfe412","ios":"levelo://app?vid=c95bcd21-58c5-4a1f-8636-250e73cfe412"},"vehicle_type_id":"4","last_reported":1730664553,"current_range_meters":38400,"station_id":"ce4bh192rcd13ifvqdb0","pricing_plan_id":"cebpf4jnsgd1na2vs0mg"},{"bike_id":"7b8934ab-1a6b-4c2d-b5fa-40771c000556","system_id":"levelo_inurba_marseille","lat":43.27073,"lon":5.42285,"is_reserved":false,"is_disabled":false,"rental_uris":{"android":"levelo://app?vid=7b8934ab-1a6b-4c2d-b5fa-40771c000556","ios":"levelo://app?vid=7b8934ab-1a6b-4c2d-b5fa-40771c000556"},"vehicle_type_id":"4","last_reported":1730664553,"current_range_meters":20800,"station_id":"ce4bhk92rcd13ifvqgb0","pricing_plan_id":"cebpf4jnsgd1na2vs0mg"},{"bike_id":"cb8cbe74-bf02-4189-810a-cbe7a5df91d3","system_id":"levelo_inurba_marseille","lat":43.28365,"lon":5.38626,"is_reserved":false,"is_disabled":false,"rental_uris":{"android":"levelo://app?vid=cb8cbe74-bf02-4189-810a-cbe7a5df91d3","ios":"levelo://app?vid=cb8cbe74-bf02-4189-810a-cbe7a5df91d3"},"vehicle_type_id":"4","last_reported":1730664553,"current_range_meters":4400,"station_id":"ce4bh492rcd13ifvqdvg","pricing_plan_id":"cebpf4jnsgd1na2vs0mg"},{"bike_id":"832b60bc-0d06-41a3-b29c-3ff7d0f476e1","system_id":"levelo_inurba_marseille","lat":43.23188,"lon":5.35562,"is_reserved":false,"is_disabled":false,"rental_uris":{"android":"levelo://app?vid=832b60bc-0d06-41a3-b29c-3ff7d0f476e1","ios":"levelo://app?vid=832b60bc-0d06-41a3-b29c-3ff7d0f476e1"},"vehicle_type_id":"4","last_reported":1730664553,"current_range_meters":38800,"station_id":"ce4bhu92rcd13ifvqi70","pricing_plan_id":"cebpf4jnsgd1na2vs0mg"},{"bike_id":"0d2b8e40-95d6-4882-8ede-76759efd16fa","system_id":"levelo_inurba_marseille","lat":43.29255,"lon":5.38432,"is_reserved":false,"is_disabled":false,"rental_uris":{"android":"levelo://app?vid=0d2b8e40-95d6-4882-8ede-76759efd16fa","ios":"levelo://app?vid=0d2b8e40-95d6-4882-8ede-76759efd16fa"},"vehicle_type_id":"4","last_reported":1730664553,"current_range_meters":38000,"station_id":"ce4bh692rcd13ifvqea0","pricing_plan_id":"cebpf4jnsgd1na2vs0mg"},{"bike_id":"7580d83e-3d7c-46be-82b1-25f013a114af","system_id":"levelo_inurba_marseille","lat":43.31057,"lon":5.40086,"is_reserved":false,"is_disabled":false,"rental_uris":{"android":"levelo://app?vid=7580d83e-3d7c-46be-82b1-25f013a114af","ios":"levelo://app?vid=7580d83e-3d7c-46be-82b1-25f013a114af"},"vehicle_type_id":"4","last_reported":1730664553,"current_range_meters":23200,"station_id":"","pricing_plan_id":"cebpf4jnsgd1na2vs0mg"},{"bike_id":"ec3da517-820f-4df2-a88f-4d4350c394cf","system_id":"levelo_inurba_marseille","lat":43.29421,"lon":5.38619,"is_reserved":false,"is_disabled":false,"rental_uris":{"android":"levelo://app?vid=ec3da517-820f-4df2-a88f-4d4350c394cf","ios":"levelo://app?vid=ec3da517-820f-4df2-a88f-4d4350c394cf"},"vehicle_type_id":"4","last_reported":1730664553,"current_range_meters":38800,"station_id":"ce4bh2h2rcd13ifvqdh0","pricing_plan_id":"cebpf4jnsgd1na2vs0mg"},{"bike_id":"95176e65-2057-4dd1-bdba-201dc08b6b3e","system_id":"levelo_inurba_marseille","lat":43.26804,"lon":5.40265,"is_reserved":false,"is_disabled":false,"rental_uris":{"android":"levelo://app?vid=95176e65-2057-4dd1-bdba-201dc08b6b3e","ios":"levelo://app?vid=95176e65-2057-4dd1-bdba-201dc08b6b3e"},"vehicle_type_id":"4","last_reported":1730664553,"current_range_meters":36000,"station_id":"ce501612rcd8frsf0b60","pricing_plan_id":"cebpf4jnsgd1na2vs0mg"},{"bike_id":"c36500d8-3c1b-40b4-b412-de69c457b9cb","system_id":"levelo_inurba_marseille","lat":43.28089,"lon":5.41024,"is_reserved":false,"is_disabled":false,"rental_uris":{"android":"levelo://app?vid=c36500d8-3c1b-40b4-b412-de69c457b9cb","ios":"levelo://app?vid=c36500d8-3c1b-40b4-b412-de69c457b9cb"},"vehicle_type_id":"4","last_reported":1730664553,"current_range_meters":8800,"station_id":"","pricing_plan_id":"cebpf4jnsgd1na2vs0mg"},{"bike_id":"95296791-a591-4ff0-afa8-95caf4a09725","system_id":"levelo_inurba_marseille","lat":43.30954,"lon":5.39035,"is_reserved":false,"is_disabled":false,"rental_uris":{"android":"levelo://app?vid=95296791-a591-4ff0-afa8-95caf4a09725","ios":"levelo://app?vid=95296791-a591-4ff0-afa8-95caf4a09725"},"vehicle_type_id":"4","last_reported":1730664553,"current_range_meters":40000,"station_id":"ce4bgup2rcd13ifvqco0","pricing_plan_id":"cebpf4jnsgd1na2vs0mg"},{"bike_id":"46cf549e-b57e-4795-b00f-abe83e8a8bc6","system_id":"levelo_inurba_marseille","lat":43.3089,"lon":5.37185,"is_reserved":false,"is_disabled":false,"rental_uris":{"android":"levelo://app?vid=46cf549e-b57e-4795-b00f-abe83e8a8bc6","ios":"levelo://app?vid=46cf549e-b57e-4795-b00f-abe83e8a8bc6"},"vehicle_type_id":"4","last_reported":1730664553,"current_range_meters":38800,"station_id":"ce4bguh2rcd13ifvqckg","pricing_plan_id":"cebpf4jnsgd1na2vs0mg"},{"bike_id":"3a735f4a-9486-422a-b719-6ba035a5a00f","system_id":"levelo_inurba_marseille","lat":43.27175,"lon":5.4099,"is_reserved":false,"is_disabled":false,"rental_uris":{"android":"levelo://app?vid=3a735f4a-9486-422a-b719-6ba035a5a00f","ios":"levelo://app?vid=3a735f4a-9486-422a-b719-6ba035a5a00f"},"vehicle_type_id":"4","last_reported":1730664553,"current_range_meters":9200,"station_id":"ce4bhl12rcd13ifvqgf0","pricing_plan_id":"cebpf4jnsgd1na2vs0mg"},{"bike_id":"bb094807-90fb-431e-84ec-bf27864aa1c9","system_id":"levelo_inurba_marseille","lat":43.29363,"lon":5.37844,"is_reserved":false,"is_disabled":false,"rental_uris":{"android":"levelo://app?vid=bb094807-90fb-431e-84ec-bf27864aa1c9","ios":"levelo://app?vid=bb094807-90fb-431e-84ec-bf27864aa1c9"},"vehicle_type_id":"4","last_reported":1730664553,"current_range_meters":33600,"station_id":"ce4bgjh2rcd13ifvqbf0","pricing_plan_id":"cebpf4jnsgd1na2vs0mg"},{"bike_id":"07e3742d-2161-4edf-9c5a-456e12ab7829","system_id":"levelo_inurba_marseille","lat":43.31119,"lon":5.37769,"is_reserved":false,"is_disabled":false,"rental_uris":{"android":"levelo://app?vid=07e3742d-2161-4edf-9c5a-456e12ab7829","ios":"levelo://app?vid=07e3742d-2161-4edf-9c5a-456e12ab7829"},"vehicle_type_id":"4","last_reported":1730664553,"current_range_meters":8000,"station_id":"ce4bgt92rcd13ifvqcg0","pricing_plan_id":"cebpf4jnsgd1na2vs0mg"},{"bike_id":"9d2860fa-f3c0-49a6-812c-6468606aad12","system_id":"levelo_inurba_marseille","lat":43.2941,"lon":5.38617,"is_reserved":false,"is_disabled":false,"rental_uris":{"android":"levelo://app?vid=9d2860fa-f3c0-49a6-812c-6468606aad12","ios":"levelo://app?vid=9d2860fa-f3c0-49a6-812c-6468606aad12"},"vehicle_type_id":"4","last_reported":1730664553,"current_range_meters":39200,"station_id":"ce4bh2h2rcd13ifvqdh0","pricing_plan_id":"cebpf4jnsgd1na2vs0mg"},{"bike_id":"91260f79-08e8-486e-81cf-05fb9fb847d7","system_id":"levelo_inurba_marseille","lat":43.27672,"lon":5.38901,"is_reserved":false,"is_disabled":false,"rental_uris":{"android":"levelo://app?vid=91260f79-08e8-486e-81cf-05fb9fb847d7","ios":"levelo://app?vid=91260f79-08e8-486e-81cf-05fb9fb847d7"},"vehicle_type_id":"4","last_reported":1730664553,"current_range_meters":34000,"station_id":"ce4bhi12rcd13ifvqfo0","pricing_plan_id":"cebpf4jnsgd1na2vs0mg"},{"bike_id":"ff10ec4f-f9fa-4c67-88b2-36d5ddb238c4","system_id":"levelo_inurba_marseille","lat":43.33603,"lon":5.41033,"is_reserved":false,"is_disabled":false,"rental_uris":{"android":"levelo://app?vid=ff10ec4f-f9fa-4c67-88b2-36d5ddb238c4","ios":"levelo://app?vid=ff10ec4f-f9fa-4c67-88b2-36d5ddb238c4"},"vehicle_type_id":"4","last_reported":1730664553,"current_range_meters":10800,"station_id":"ce4bhqh2rcd13ifvqhmg","pricing_plan_id":"cebpf4jnsgd1na2vs0mg"},{"bike_id":"4ec9dab5-73a1-43e8-8158-945aee934760","system_id":"levelo_inurba_marseille","lat":43.29253,"lon":5.38446,"is_reserved":false,"is_disabled":false,"rental_uris":{"android":"levelo://app?vid=4ec9dab5-73a1-43e8-8158-945aee934760","ios":"levelo://app?vid=4ec9dab5-73a1-43e8-8158-945aee934760"},"vehicle_type_id":"4","last_reported":1730664553,"current_range_meters":36400,"station_id":"ce4bh692rcd13ifvqea0","pricing_plan_id":"cebpf4jnsgd1na2vs0mg"},{"bike_id":"d74200e6-8722-4834-ae0b-188969c02116","system_id":"levelo_inurba_marseille","lat":43.30427,"lon":5.38883,"is_reserved":false,"is_disabled":false,"rental_uris":{"android":"levelo://app?vid=d74200e6-8722-4834-ae0b-188969c02116","ios":"levelo://app?vid=d74200e6-8722-4834-ae0b-188969c02116"},"vehicle_type_id":"4","last_reported":1730664553,"current_range_meters":38800,"station_id":"ce4bgk12rcd13ifvqbi0","pricing_plan_id":"cebpf4jnsgd1na2vs0mg"},{"bike_id":"a9fbbb7d-1f56-44aa-b117-d72e2cab64d1","system_id":"levelo_inurba_marseille","lat":43.2926,"lon":5.38439,"is_reserved":false,"is_disabled":false,"rental_uris":{"android":"levelo://app?vid=a9fbbb7d-1f56-44aa-b117-d72e2cab64d1","ios":"levelo://app?vid=a9fbbb7d-1f56-44aa-b117-d72e2cab64d1"},"vehicle_type_id":"4","last_reported":1730664553,"current_range_meters":32000,"station_id":"ce4bh692rcd13ifvqea0","pricing_plan_id":"cebpf4jnsgd1na2vs0mg"},{"bike_id":"d49eab38-7ea8-46ec-9331-cc74e18ed3bd","system_id":"levelo_inurba_marseille","lat":43.24659,"lon":5.38161,"is_reserved":false,"is_disabled":false,"rental_uris":{"android":"levelo://app?vid=d49eab38-7ea8-46ec-9331-cc74e18ed3bd","ios":"levelo://app?vid=d49eab38-7ea8-46ec-9331-cc74e18ed3bd"},"vehicle_type_id":"4","last_reported":1730664553,"current_range_meters":39200,"station_id":"ce4bhih2rcd13ifvqfr0","pricing_plan_id":"cebpf4jnsgd1na2vs0mg"},{"bike_id":"5c955e0e-22ea-4ff2-b77f-821d30be66d8","system_id":"levelo_inurba_marseille","lat":43.29525,"lon":5.37499,"is_reserved":false,"is_disabled":false,"rental_uris":{"android":"levelo://app?vid=5c955e0e-22ea-4ff2-b77f-821d30be66d8","ios":"levelo://app?vid=5c955e0e-22ea-4ff2-b77f-821d30be66d8"},"vehicle_type_id":"4","last_reported":1730664553,"current_range_meters":39200,"station_id":"ce4bgkp2rcd13ifvqbmg","pricing_plan_id":"cebpf4jnsgd1na2vs0mg"},{"bike_id":"08b50212-a0b5-4e30-a0f8-b1838d6fba4f","system_id":"levelo_inurba_marseille","lat":43.28936,"lon":5.38392,"is_reserved":false,"is_disabled":false,"rental_uris":{"android":"levelo://app?vid=08b50212-a0b5-4e30-a0f8-b1838d6fba4f","ios":"levelo://app?vid=08b50212-a0b5-4e30-a0f8-b1838d6fba4f"},"vehicle_type_id":"4","last_reported":1730664553,"current_range_meters":39200,"station_id":"ce4bh612rcd13ifvqe6g","pricing_plan_id":"cebpf4jnsgd1na2vs0mg"},{"bike_id":"a56fea18-a696-4007-a12a-ed30bd374916","system_id":"levelo_inurba_marseille","lat":43.29268,"lon":5.38444,"is_reserved":false,"is_disabled":false,"rental_uris":{"android":"levelo://app?vid=a56fea18-a696-4007-a12a-ed30bd374916","ios":"levelo://app?vid=a56fea18-a696-4007-a12a-ed30bd374916"},"vehicle_type_id":"4","last_reported":1730664553,"current_range_meters":11600,"station_id":"ce4bh692rcd13ifvqea0","pricing_plan_id":"cebpf4jnsgd1na2vs0mg"},{"bike_id":"fa649200-6745-4ffb-8508-e8297bb2a9dd","system_id":"levelo_inurba_marseille","lat":43.28939,"lon":5.36637,"is_reserved":false,"is_disabled":false,"rental_uris":{"android":"levelo://app?vid=fa649200-6745-4ffb-8508-e8297bb2a9dd","ios":"levelo://app?vid=fa649200-6745-4ffb-8508-e8297bb2a9dd"},"vehicle_type_id":"4","last_reported":1730664553,"current_range_meters":10000,"station_id":"ce4bhap2rcd13ifvqek0","pricing_plan_id":"cebpf4jnsgd1na2vs0mg"},{"bike_id":"643f0b74-3410-4b14-8f20-b5835e9acabc","system_id":"levelo_inurba_marseille","lat":43.28046,"lon":5.36953,"is_reserved":false,"is_disabled":false,"rental_uris":{"android":"levelo://app?vid=643f0b74-3410-4b14-8f20-b5835e9acabc","ios":"levelo://app?vid=643f0b74-3410-4b14-8f20-b5835e9acabc"},"vehicle_type_id":"4","last_reported":1730664553,"current_range_meters":22800,"station_id":"ce4bha12rcd13ifvqef0","pricing_plan_id":"cebpf4jnsgd1na2vs0mg"},{"bike_id":"92076b3b-01fa-412f-b9fe-8f2ce833c281","system_id":"levelo_inurba_marseille","lat":43.29213,"lon":5.39328,"is_reserved":false,"is_disabled":false,"rental_uris":{"android":"levelo://app?vid=92076b3b-01fa-412f-b9fe-8f2ce833c281","ios":"levelo://app?vid=92076b3b-01fa-412f-b9fe-8f2ce833c281"},"vehicle_type_id":"4","last_reported":1730664553,"current_range_meters":16000,"station_id":"ce4bh192rcd13ifvqdd0","pricing_plan_id":"cebpf4jnsgd1na2vs0mg"},{"bike_id":"f27cce01-0565-4e26-a6f2-ebdbee094f5e","system_id":"levelo_inurba_marseille","lat":43.29413,"lon":5.38629,"is_reserved":false,"is_disabled":false,"rental_uris":{"android":"levelo://app?vid=f27cce01-0565-4e26-a6f2-ebdbee094f5e","ios":"levelo://app?vid=f27cce01-0565-4e26-a6f2-ebdbee094f5e"},"vehicle_type_id":"4","last_reported":1730664553,"current_range_meters":38800,"station_id":"ce4bh2h2rcd13ifvqdh0","pricing_plan_id":"cebpf4jnsgd1na2vs0mg"},{"bike_id":"b6fedd1a-250c-46bc-8898-b78ca73c2072","system_id":"levelo_inurba_marseille","lat":43.29264,"lon":5.38438,"is_reserved":false,"is_disabled":false,"rental_uris":{"android":"levelo://app?vid=b6fedd1a-250c-46bc-8898-b78ca73c2072","ios":"levelo://app?vid=b6fedd1a-250c-46bc-8898-b78ca73c2072"},"vehicle_type_id":"4","last_reported":1730664553,"current_range_meters":27200,"station_id":"ce4bh692rcd13ifvqea0","pricing_plan_id":"cebpf4jnsgd1na2vs0mg"},{"bike_id":"3060e12c-0318-48df-8b3d-466aa19dbff5","system_id":"levelo_inurba_marseille","lat":43.30328,"lon":5.40439,"is_reserved":false,"is_disabled":false,"rental_uris":{"android":"levelo://app?vid=3060e12c-0318-48df-8b3d-466aa19dbff5","ios":"levelo://app?vid=3060e12c-0318-48df-8b3d-466aa19dbff5"},"vehicle_type_id":"4","last_reported":1730664553,"current_range_meters":27200,"station_id":"ce4bh012rcd13ifvqd10","pricing_plan_id":"cebpf4jnsgd1na2vs0mg"},{"bike_id":"571da7e4-b5d4-4b07-b67c-7f557ad7bb12","system_id":"levelo_inurba_marseille","lat":43.28042,"lon":5.36947,"is_reserved":false,"is_disabled":false,"rental_uris":{"android":"levelo://app?vid=571da7e4-b5d4-4b07-b67c-7f557ad7bb12","ios":"levelo://app?vid=571da7e4-b5d4-4b07-b67c-7f557ad7bb12"},"vehicle_type_id":"4","last_reported":1730664553,"current_range_meters":38800,"station_id":"ce4bha12rcd13ifvqef0","pricing_plan_id":"cebpf4jnsgd1na2vs0mg"},{"bike_id":"e54a9e25-ac9f-47a2-b6ce-8e7088772790","system_id":"levelo_inurba_marseille","lat":43.33019,"lon":5.39037,"is_reserved":false,"is_disabled":false,"rental_uris":{"android":"levelo://app?vid=e54a9e25-ac9f-47a2-b6ce-8e7088772790","ios":"levelo://app?vid=e54a9e25-ac9f-47a2-b6ce-8e7088772790"},"vehicle_type_id":"4","last_reported":1730664553,"current_range_meters":15200,"station_id":"ce4bhr92rcd13ifvqhrg","pricing_plan_id":"cebpf4jnsgd1na2vs0mg"},{"bike_id":"1974fd74-3dba-4353-901e-87c28577af74","system_id":"levelo_inurba_marseille","lat":43.29906,"lon":5.3747,"is_reserved":false,"is_disabled":false,"rental_uris":{"android":"levelo://app?vid=1974fd74-3dba-4353-901e-87c28577af74","ios":"levelo://app?vid=1974fd74-3dba-4353-901e-87c28577af74"},"vehicle_type_id":"4","last_reported":1730664553,"current_range_meters":38000,"station_id":"ce4bgjh2rcd13ifvqbg0","pricing_plan_id":"cebpf4jnsgd1na2vs0mg"},{"bike_id":"329d0a9a-38c3-4530-98be-d74ad035c8be","system_id":"levelo_inurba_marseille","lat":43.24074,"lon":5.37752,"is_reserved":false,"is_disabled":false,"rental_uris":{"android":"levelo://app?vid=329d0a9a-38c3-4530-98be-d74ad035c8be","ios":"levelo://app?vid=329d0a9a-38c3-4530-98be-d74ad035c8be"},"vehicle_type_id":"4","last_reported":1730664553,"current_range_meters":16000,"station_id":"ce4bhnp2rcd13ifvqgvg","pricing_plan_id":"cebpf4jnsgd1na2vs0mg"},{"bike_id":"aabe584a-9b0d-4de5-9141-d9955d49fe17","system_id":"levelo_inurba_marseille","lat":43.336,"lon":5.41028,"is_reserved":false,"is_disabled":false,"rental_uris":{"android":"levelo://app?vid=aabe584a-9b0d-4de5-9141-d9955d49fe17","ios":"levelo://app?vid=aabe584a-9b0d-4de5-9141-d9955d49fe17"},"vehicle_type_id":"4","last_reported":1730664553,"current_range_meters":22400,"station_id":"ce4bhqh2rcd13ifvqhmg","pricing_plan_id":"cebpf4jnsgd1na2vs0mg"},{"bike_id":"995bbdf8-52c0-4121-b0a8-c6f5c3060245","system_id":"levelo_inurba_marseille","lat":43.25872,"lon":5.39896,"is_reserved":false,"is_disabled":false,"rental_uris":{"android":"levelo://app?vid=995bbdf8-52c0-4121-b0a8-c6f5c3060245","ios":"levelo://app?vid=995bbdf8-52c0-4121-b0a8-c6f5c3060245"},"vehicle_type_id":"4","last_reported":1730664553,"current_range_meters":21600,"station_id":"ce4bhl92rcd13ifvqghg","pricing_plan_id":"cebpf4jnsgd1na2vs0mg"},{"bike_id":"3f021583-0e65-40bc-8201-d19e27615a6e","system_id":"levelo_inurba_marseille","lat":43.302553,"lon":5.400783,"is_reserved":false,"is_disabled":false,"rental_uris":{"android":"levelo://app?vid=3f021583-0e65-40bc-8201-d19e27615a6e","ios":"levelo://app?vid=3f021583-0e65-40bc-8201-d19e27615a6e"},"vehicle_type_id":"4","last_reported":1730664553,"current_range_meters":18000,"station_id":"ce4bgvh2rcd13ifvqcs0","pricing_plan_id":"cebpf4jnsgd1na2vs0mg"},{"bike_id":"13c6695a-6deb-4683-9f04-352ec8f1692f","system_id":"levelo_inurba_marseille","lat":43.30293,"lon":5.39193,"is_reserved":false,"is_disabled":false,"rental_uris":{"android":"levelo://app?vid=13c6695a-6deb-4683-9f04-352ec8f1692f","ios":"levelo://app?vid=13c6695a-6deb-4683-9f04-352ec8f1692f"},"vehicle_type_id":"4","last_reported":1730664553,"current_range_meters":22000,"station_id":"ce4bgkh2rcd13ifvqbk0","pricing_plan_id":"cebpf4jnsgd1na2vs0mg"},{"bike_id":"a9da786b-da75-48dc-8f55-14ad143c3170","system_id":"levelo_inurba_marseille","lat":43.29605,"lon":5.38106,"is_reserved":false,"is_disabled":false,"rental_uris":{"android":"levelo://app?vid=a9da786b-da75-48dc-8f55-14ad143c3170","ios":"levelo://app?vid=a9da786b-da75-48dc-8f55-14ad143c3170"},"vehicle_type_id":"4","last_reported":1730664553,"current_range_meters":15200,"station_id":"ce4bgl12rcd13ifvqbo0","pricing_plan_id":"cebpf4jnsgd1na2vs0mg"},{"bike_id":"b7025435-eb3f-456a-8fb2-f639e2f34d1f","system_id":"levelo_inurba_marseille","lat":43.23179,"lon":5.39988,"is_reserved":false,"is_disabled":false,"rental_uris":{"android":"levelo://app?vid=b7025435-eb3f-456a-8fb2-f639e2f34d1f","ios":"levelo://app?vid=b7025435-eb3f-456a-8fb2-f639e2f34d1f"},"vehicle_type_id":"4","last_reported":1730664553,"current_range_meters":23200,"station_id":"ce4bhn12rcd13ifvqgqg","pricing_plan_id":"cebpf4jnsgd1na2vs0mg"},{"bike_id":"c45bdead-0b4b-4bc3-ae8d-a3a1eeb7c5ba","system_id":"levelo_inurba_marseille","lat":43.28462,"lon":5.3589,"is_reserved":false,"is_disabled":false,"rental_uris":{"android":"levelo://app?vid=c45bdead-0b4b-4bc3-ae8d-a3a1eeb7c5ba","ios":"levelo://app?vid=c45bdead-0b4b-4bc3-ae8d-a3a1eeb7c5ba"},"vehicle_type_id":"4","last_reported":1730664553,"current_range_meters":32800,"station_id":"ce4bhah2rcd13ifvqei0","pricing_plan_id":"cebpf4jnsgd1na2vs0mg"},{"bike_id":"6a4d2edc-1909-4e2d-8c31-991465b13446","system_id":"levelo_inurba_marseille","lat":43.29416,"lon":5.38629,"is_reserved":false,"is_disabled":false,"rental_uris":{"android":"levelo://app?vid=6a4d2edc-1909-4e2d-8c31-991465b13446","ios":"levelo://app?vid=6a4d2edc-1909-4e2d-8c31-991465b13446"},"vehicle_type_id":"4","last_reported":1730664553,"current_range_meters":20400,"station_id":"ce4bh2h2rcd13ifvqdh0","pricing_plan_id":"cebpf4jnsgd1na2vs0mg"},{"bike_id":"ab9173ec-0645-441d-90af-326a5e948990","system_id":"levelo_inurba_marseille","lat":43.28351,"lon":5.38106,"is_reserved":false,"is_disabled":false,"rental_uris":{"android":"levelo://app?vid=ab9173ec-0645-441d-90af-326a5e948990","ios":"levelo://app?vid=ab9173ec-0645-441d-90af-326a5e948990"},"vehicle_type_id":"4","last_reported":1730664553,"current_range_meters":31200,"station_id":"ce4bh412rcd13ifvqdr0","pricing_plan_id":"cebpf4jnsgd1na2vs0mg"},{"bike_id":"db26f5ad-b2ef-45e2-bcad-4925a1d4e797","system_id":"levelo_inurba_marseille","lat":43.30142,"lon":5.39868,"is_reserved":false,"is_disabled":false,"rental_uris":{"android":"levelo://app?vid=db26f5ad-b2ef-45e2-bcad-4925a1d4e797","ios":"levelo://app?vid=db26f5ad-b2ef-45e2-bcad-4925a1d4e797"},"vehicle_type_id":"4","last_reported":1730664553,"current_range_meters":12800,"station_id":"ce4bh0h2rcd13ifvqd40","pricing_plan_id":"cebpf4jnsgd1na2vs0mg"},{"bike_id":"718d9ab7-5921-49b7-8148-169d6d564cef","system_id":"levelo_inurba_marseille","lat":43.28702,"lon":5.37384,"is_reserved":false,"is_disabled":false,"rental_uris":{"android":"levelo://app?vid=718d9ab7-5921-49b7-8148-169d6d564cef","ios":"levelo://app?vid=718d9ab7-5921-49b7-8148-169d6d564cef"},"vehicle_type_id":"4","last_reported":1730664553,"current_range_meters":5600,"station_id":"ce4bh3p2rcd13ifvqdq0","pricing_plan_id":"cebpf4jnsgd1na2vs0mg"},{"bike_id":"d5154aa7-9f6d-4f09-8dd7-076b92df9944","system_id":"levelo_inurba_marseille","lat":43.30945,"lon":5.39035,"is_reserved":false,"is_disabled":false,"rental_uris":{"android":"levelo://app?vid=d5154aa7-9f6d-4f09-8dd7-076b92df9944","ios":"levelo://app?vid=d5154aa7-9f6d-4f09-8dd7-076b92df9944"},"vehicle_type_id":"4","last_reported":1730664553,"current_range_meters":36800,"station_id":"ce4bgup2rcd13ifvqco0","pricing_plan_id":"cebpf4jnsgd1na2vs0mg"},{"bike_id":"ad6b9979-2833-497c-ae59-5afeb88a87ce","system_id":"levelo_inurba_marseille","lat":43.32363,"lon":5.36754,"is_reserved":false,"is_disabled":false,"rental_uris":{"android":"levelo://app?vid=ad6b9979-2833-497c-ae59-5afeb88a87ce","ios":"levelo://app?vid=ad6b9979-2833-497c-ae59-5afeb88a87ce"},"vehicle_type_id":"4","last_reported":1730664553,"current_range_meters":4400,"station_id":"ce4bhsh2rcd13ifvqi2g","pricing_plan_id":"cebpf4jnsgd1na2vs0mg"},{"bike_id":"4c37402e-d84e-439b-8190-b6fa7aba4890","system_id":"levelo_inurba_marseille","lat":43.30591,"lon":5.3935,"is_reserved":false,"is_disabled":false,"rental_uris":{"android":"levelo://app?vid=4c37402e-d84e-439b-8190-b6fa7aba4890","ios":"levelo://app?vid=4c37402e-d84e-439b-8190-b6fa7aba4890"},"vehicle_type_id":"4","last_reported":1730664553,"current_range_meters":30400,"station_id":"ce4bh0p2rcd13ifvqd80","pricing_plan_id":"cebpf4jnsgd1na2vs0mg"},{"bike_id":"66a019b4-c5f6-4c92-9845-b4f6f6433871","system_id":"levelo_inurba_marseille","lat":43.28689,"lon":5.3999,"is_reserved":false,"is_disabled":false,"rental_uris":{"android":"levelo://app?vid=66a019b4-c5f6-4c92-9845-b4f6f6433871","ios":"levelo://app?vid=66a019b4-c5f6-4c92-9845-b4f6f6433871"},"vehicle_type_id":"4","last_reported":1730664553,"current_range_meters":38800,"station_id":"ce4bho92rcd13ifvqh3g","pricing_plan_id":"cebpf4jnsgd1na2vs0mg"},{"bike_id":"b44939f3-d8c5-4fe0-b15a-afc4e39e9275","system_id":"levelo_inurba_marseille","lat":43.2756,"lon":5.38415,"is_reserved":false,"is_disabled":false,"rental_uris":{"android":"levelo://app?vid=b44939f3-d8c5-4fe0-b15a-afc4e39e9275","ios":"levelo://app?vid=b44939f3-d8c5-4fe0-b15a-afc4e39e9275"},"vehicle_type_id":"4","last_reported":1730664553,"current_range_meters":36800,"station_id":"ce4bhh92rcd13ifvqfi0","pricing_plan_id":"cebpf4jnsgd1na2vs0mg"},{"bike_id":"1809f9e9-b0c3-4c30-9f7e-25f6a9a43e89","system_id":"levelo_inurba_marseille","lat":43.28933,"lon":5.39622,"is_reserved":false,"is_disabled":false,"rental_uris":{"android":"levelo://app?vid=1809f9e9-b0c3-4c30-9f7e-25f6a9a43e89","ios":"levelo://app?vid=1809f9e9-b0c3-4c30-9f7e-25f6a9a43e89"},"vehicle_type_id":"4","last_reported":1730664553,"current_range_meters":28800,"station_id":"ce4bh3h2rcd13ifvqdn0","pricing_plan_id":"cebpf4jnsgd1na2vs0mg"},{"bike_id":"5e531f60-f77b-47f5-be1d-efa60dfbf10a","system_id":"levelo_inurba_marseille","lat":43.31691,"lon":5.40475,"is_reserved":false,"is_disabled":false,"rental_uris":{"android":"levelo://app?vid=5e531f60-f77b-47f5-be1d-efa60dfbf10a","ios":"levelo://app?vid=5e531f60-f77b-47f5-be1d-efa60dfbf10a"},"vehicle_type_id":"4","last_reported":1730664553,"current_range_meters":22800,"station_id":"ce4bh012rcd13ifvqd00","pricing_plan_id":"cebpf4jnsgd1na2vs0mg"},{"bike_id":"d82a0734-6a50-4380-b728-e06844fe66f8","system_id":"levelo_inurba_marseille","lat":43.28358,"lon":5.38615,"is_reserved":false,"is_disabled":false,"rental_uris":{"android":"levelo://app?vid=d82a0734-6a50-4380-b728-e06844fe66f8","ios":"levelo://app?vid=d82a0734-6a50-4380-b728-e06844fe66f8"},"vehicle_type_id":"4","last_reported":1730664553,"current_range_meters":18800,"station_id":"ce4bh492rcd13ifvqdvg","pricing_plan_id":"cebpf4jnsgd1na2vs0mg"},{"bike_id":"5229ac13-cebc-41be-a25c-1aa4b6823fd9","system_id":"levelo_inurba_marseille","lat":43.31083,"lon":5.4243,"is_reserved":false,"is_disabled":false,"rental_uris":{"android":"levelo://app?vid=5229ac13-cebc-41be-a25c-1aa4b6823fd9","ios":"levelo://app?vid=5229ac13-cebc-41be-a25c-1aa4b6823fd9"},"vehicle_type_id":"4","last_reported":1730664553,"current_range_meters":28400,"station_id":"ce4bhp92rcd13ifvqhag","pricing_plan_id":"cebpf4jnsgd1na2vs0mg"},{"bike_id":"22277462-ea58-4946-ba2c-ef08f6cd7659","system_id":"levelo_inurba_marseille","lat":43.2797,"lon":5.4105,"is_reserved":false,"is_disabled":false,"rental_uris":{"android":"levelo://app?vid=22277462-ea58-4946-ba2c-ef08f6cd7659","ios":"levelo://app?vid=22277462-ea58-4946-ba2c-ef08f6cd7659"},"vehicle_type_id":"4","last_reported":1730664553,"current_range_meters":15200,"station_id":"","pricing_plan_id":"cebpf4jnsgd1na2vs0mg"},{"bike_id":"c07332d5-f871-4d7c-9894-5a99fdbe9ec1","system_id":"levelo_inurba_marseille","lat":43.25092,"lon":5.39522,"is_reserved":false,"is_disabled":false,"rental_uris":{"android":"levelo://app?vid=c07332d5-f871-4d7c-9894-5a99fdbe9ec1","ios":"levelo://app?vid=c07332d5-f871-4d7c-9894-5a99fdbe9ec1"},"vehicle_type_id":"4","last_reported":1730664553,"current_range_meters":28000,"station_id":"ce4bhm12rcd13ifvqgkg","pricing_plan_id":"cebpf4jnsgd1na2vs0mg"},{"bike_id":"e8876d42-ddff-4473-ba6a-9c6d4cc8fc2d","system_id":"levelo_inurba_marseille","lat":43.31352,"lon":5.37628,"is_reserved":false,"is_disabled":false,"rental_uris":{"android":"levelo://app?vid=e8876d42-ddff-4473-ba6a-9c6d4cc8fc2d","ios":"levelo://app?vid=e8876d42-ddff-4473-ba6a-9c6d4cc8fc2d"},"vehicle_type_id":"4","last_reported":1730664553,"current_range_meters":4400,"station_id":"ce4bhr12rcd13ifvqhpg","pricing_plan_id":"cebpf4jnsgd1na2vs0mg"},{"bike_id":"231ec3ee-cf98-41fc-872d-4493c25d1506","system_id":"levelo_inurba_marseille","lat":43.2439,"lon":5.37058,"is_reserved":false,"is_disabled":false,"rental_uris":{"android":"levelo://app?vid=231ec3ee-cf98-41fc-872d-4493c25d1506","ios":"levelo://app?vid=231ec3ee-cf98-41fc-872d-4493c25d1506"},"vehicle_type_id":"4","last_reported":1730664553,"current_range_meters":16000,"station_id":"ce4bhhh2rcd13ifvqfk0","pricing_plan_id":"cebpf4jnsgd1na2vs0mg"},{"bike_id":"f42ec8c6-4406-4c62-8b31-c81755021518","system_id":"levelo_inurba_marseille","lat":43.27565,"lon":5.38423,"is_reserved":false,"is_disabled":false,"rental_uris":{"android":"levelo://app?vid=f42ec8c6-4406-4c62-8b31-c81755021518","ios":"levelo://app?vid=f42ec8c6-4406-4c62-8b31-c81755021518"},"vehicle_type_id":"4","last_reported":1730664553,"current_range_meters":11600,"station_id":"ce4bhh92rcd13ifvqfi0","pricing_plan_id":"cebpf4jnsgd1na2vs0mg"},{"bike_id":"307f8e5c-51c3-4161-8dbe-9cd41667dbdb","system_id":"levelo_inurba_marseille","lat":43.28699,"lon":5.37378,"is_reserved":false,"is_disabled":false,"rental_uris":{"android":"levelo://app?vid=307f8e5c-51c3-4161-8dbe-9cd41667dbdb","ios":"levelo://app?vid=307f8e5c-51c3-4161-8dbe-9cd41667dbdb"},"vehicle_type_id":"4","last_reported":1730664553,"current_range_meters":31200,"station_id":"ce4bh3p2rcd13ifvqdq0","pricing_plan_id":"cebpf4jnsgd1na2vs0mg"},{"bike_id":"3577ba93-f937-41b5-9c02-695a9a7cc4d5","system_id":"levelo_inurba_marseille","lat":43.29429,"lon":5.39747,"is_reserved":false,"is_disabled":false,"rental_uris":{"android":"levelo://app?vid=3577ba93-f937-41b5-9c02-695a9a7cc4d5","ios":"levelo://app?vid=3577ba93-f937-41b5-9c02-695a9a7cc4d5"},"vehicle_type_id":"4","last_reported":1730664553,"current_range_meters":9600,"station_id":"ce4bh3h2rcd13ifvqdo0","pricing_plan_id":"cebpf4jnsgd1na2vs0mg"},{"bike_id":"1bb25281-04e7-463d-95ba-d67adb79f1dd","system_id":"levelo_inurba_marseille","lat":43.30249,"lon":5.40062,"is_reserved":false,"is_disabled":false,"rental_uris":{"android":"levelo://app?vid=1bb25281-04e7-463d-95ba-d67adb79f1dd","ios":"levelo://app?vid=1bb25281-04e7-463d-95ba-d67adb79f1dd"},"vehicle_type_id":"4","last_reported":1730664553,"current_range_meters":39200,"station_id":"ce4bgvh2rcd13ifvqcs0","pricing_plan_id":"cebpf4jnsgd1na2vs0mg"},{"bike_id":"995a4442-5a09-4f02-a57d-a0828530726a","system_id":"levelo_inurba_marseille","lat":43.31998,"lon":5.38144,"is_reserved":false,"is_disabled":false,"rental_uris":{"android":"levelo://app?vid=995a4442-5a09-4f02-a57d-a0828530726a","ios":"levelo://app?vid=995a4442-5a09-4f02-a57d-a0828530726a"},"vehicle_type_id":"4","last_reported":1730664553,"current_range_meters":20400,"station_id":"ce4bhr12rcd13ifvqhpg","pricing_plan_id":"cebpf4jnsgd1na2vs0mg"},{"bike_id":"dffdad75-b3e2-44b8-9d1f-68270a7f43d6","system_id":"levelo_inurba_marseille","lat":43.29494,"lon":5.38678,"is_reserved":false,"is_disabled":false,"rental_uris":{"android":"levelo://app?vid=dffdad75-b3e2-44b8-9d1f-68270a7f43d6","ios":"levelo://app?vid=dffdad75-b3e2-44b8-9d1f-68270a7f43d6"},"vehicle_type_id":"4","last_reported":1730664553,"current_range_meters":9200,"station_id":"","pricing_plan_id":"cebpf4jnsgd1na2vs0mg"},{"bike_id":"12ae7e7f-d44a-4efd-b2b2-d817706f144a","system_id":"levelo_inurba_marseille","lat":43.2998,"lon":5.37177,"is_reserved":false,"is_disabled":false,"rental_uris":{"android":"levelo://app?vid=12ae7e7f-d44a-4efd-b2b2-d817706f144a","ios":"levelo://app?vid=12ae7e7f-d44a-4efd-b2b2-d817706f144a"},"vehicle_type_id":"4","last_reported":1730664553,"current_range_meters":12000,"station_id":"ce4bgr92rcd13ifvqc7g","pricing_plan_id":"cebpf4jnsgd1na2vs0mg"},{"bike_id":"6341099c-ac74-4c22-9000-87c1daf3aa0a","system_id":"levelo_inurba_marseille","lat":43.26681,"lon":5.38267,"is_reserved":false,"is_disabled":false,"rental_uris":{"android":"levelo://app?vid=6341099c-ac74-4c22-9000-87c1daf3aa0a","ios":"levelo://app?vid=6341099c-ac74-4c22-9000-87c1daf3aa0a"},"vehicle_type_id":"4","last_reported":1730664553,"current_range_meters":38000,"station_id":"ce4bhg92rcd13ifvqf90","pricing_plan_id":"cebpf4jnsgd1na2vs0mg"},{"bike_id":"47f5b940-7a16-426a-8751-2a4583315fd0","system_id":"levelo_inurba_marseille","lat":43.29262,"lon":5.38442,"is_reserved":false,"is_disabled":false,"rental_uris":{"android":"levelo://app?vid=47f5b940-7a16-426a-8751-2a4583315fd0","ios":"levelo://app?vid=47f5b940-7a16-426a-8751-2a4583315fd0"},"vehicle_type_id":"4","last_reported":1730664553,"current_range_meters":37600,"station_id":"ce4bh692rcd13ifvqea0","pricing_plan_id":"cebpf4jnsgd1na2vs0mg"},{"bike_id":"b58b3579-fc8a-4ebe-8975-a7afb4a8971d","system_id":"levelo_inurba_marseille","lat":43.28922,"lon":5.38386,"is_reserved":false,"is_disabled":false,"rental_uris":{"android":"levelo://app?vid=b58b3579-fc8a-4ebe-8975-a7afb4a8971d","ios":"levelo://app?vid=b58b3579-fc8a-4ebe-8975-a7afb4a8971d"},"vehicle_type_id":"4","last_reported":1730664553,"current_range_meters":38800,"station_id":"ce4bh612rcd13ifvqe6g","pricing_plan_id":"cebpf4jnsgd1na2vs0mg"},{"bike_id":"3a772e35-14c4-4b99-b307-36514407ba6f","system_id":"levelo_inurba_marseille","lat":43.31994,"lon":5.38149,"is_reserved":false,"is_disabled":false,"rental_uris":{"android":"levelo://app?vid=3a772e35-14c4-4b99-b307-36514407ba6f","ios":"levelo://app?vid=3a772e35-14c4-4b99-b307-36514407ba6f"},"vehicle_type_id":"4","last_reported":1730664553,"current_range_meters":39200,"station_id":"ce4bhr12rcd13ifvqhpg","pricing_plan_id":"cebpf4jnsgd1na2vs0mg"},{"bike_id":"ab1699e7-fd59-45c1-bb74-22f9eae7c326","system_id":"levelo_inurba_marseille","lat":43.25002,"lon":5.38919,"is_reserved":false,"is_disabled":false,"rental_uris":{"android":"levelo://app?vid=ab1699e7-fd59-45c1-bb74-22f9eae7c326","ios":"levelo://app?vid=ab1699e7-fd59-45c1-bb74-22f9eae7c326"},"vehicle_type_id":"4","last_reported":1730664553,"current_range_meters":28800,"station_id":"ce4bhgp2rcd13ifvqfd0","pricing_plan_id":"cebpf4jnsgd1na2vs0mg"},{"bike_id":"eaae64dc-0274-45b2-8a6d-6936f1f36c54","system_id":"levelo_inurba_marseille","lat":43.31751,"lon":5.39021,"is_reserved":false,"is_disabled":false,"rental_uris":{"android":"levelo://app?vid=eaae64dc-0274-45b2-8a6d-6936f1f36c54","ios":"levelo://app?vid=eaae64dc-0274-45b2-8a6d-6936f1f36c54"},"vehicle_type_id":"4","last_reported":1730664553,"current_range_meters":5600,"station_id":"ce4bhqp2rcd13ifvqhng","pricing_plan_id":"cebpf4jnsgd1na2vs0mg"},{"bike_id":"be0c211c-0613-4667-97e4-89d9bd3b8034","system_id":"levelo_inurba_marseille","lat":43.29105,"lon":5.38141,"is_reserved":false,"is_disabled":false,"rental_uris":{"android":"levelo://app?vid=be0c211c-0613-4667-97e4-89d9bd3b8034","ios":"levelo://app?vid=be0c211c-0613-4667-97e4-89d9bd3b8034"},"vehicle_type_id":"4","last_reported":1730664553,"current_range_meters":37600,"station_id":"ce4bh512rcd13ifvqe2g","pricing_plan_id":"cebpf4jnsgd1na2vs0mg"},{"bike_id":"16aab5b7-5c8a-423a-879b-fcb68b2e654e","system_id":"levelo_inurba_marseille","lat":43.30138,"lon":5.39875,"is_reserved":false,"is_disabled":false,"rental_uris":{"android":"levelo://app?vid=16aab5b7-5c8a-423a-879b-fcb68b2e654e","ios":"levelo://app?vid=16aab5b7-5c8a-423a-879b-fcb68b2e654e"},"vehicle_type_id":"4","last_reported":1730664553,"current_range_meters":19600,"station_id":"ce4bh0h2rcd13ifvqd40","pricing_plan_id":"cebpf4jnsgd1na2vs0mg"},{"bike_id":"3b8bfbed-6b41-4473-abb3-e5b1437e80b6","system_id":"levelo_inurba_marseille","lat":43.31083,"lon":5.3701,"is_reserved":false,"is_disabled":false,"rental_uris":{"android":"levelo://app?vid=3b8bfbed-6b41-4473-abb3-e5b1437e80b6","ios":"levelo://app?vid=3b8bfbed-6b41-4473-abb3-e5b1437e80b6"},"vehicle_type_id":"4","last_reported":1730664553,"current_range_meters":33200,"station_id":"ce4bgl92rcd13ifvqbq0","pricing_plan_id":"cebpf4jnsgd1na2vs0mg"},{"bike_id":"d97c7713-c8ed-4d90-9d62-af5aee3363d4","system_id":"levelo_inurba_marseille","lat":43.29315,"lon":5.3719,"is_reserved":false,"is_disabled":false,"rental_uris":{"android":"levelo://app?vid=d97c7713-c8ed-4d90-9d62-af5aee3363d4","ios":"levelo://app?vid=d97c7713-c8ed-4d90-9d62-af5aee3363d4"},"vehicle_type_id":"4","last_reported":1730664553,"current_range_meters":6800,"station_id":"ce4bgh92rcd13ifvqb40","pricing_plan_id":"cebpf4jnsgd1na2vs0mg"},{"bike_id":"5b444627-2b5b-4a5f-8b1c-4e81510e8df5","system_id":"levelo_inurba_marseille","lat":43.30592,"lon":5.39355,"is_reserved":false,"is_disabled":false,"rental_uris":{"android":"levelo://app?vid=5b444627-2b5b-4a5f-8b1c-4e81510e8df5","ios":"levelo://app?vid=5b444627-2b5b-4a5f-8b1c-4e81510e8df5"},"vehicle_type_id":"4","last_reported":1730664553,"current_range_meters":32400,"station_id":"ce4bh0p2rcd13ifvqd80","pricing_plan_id":"cebpf4jnsgd1na2vs0mg"},{"bike_id":"1d303ff4-60c2-4904-9c0f-89d072165e79","system_id":"levelo_inurba_marseille","lat":43.27563,"lon":5.38415,"is_reserved":false,"is_disabled":false,"rental_uris":{"android":"levelo://app?vid=1d303ff4-60c2-4904-9c0f-89d072165e79","ios":"levelo://app?vid=1d303ff4-60c2-4904-9c0f-89d072165e79"},"vehicle_type_id":"4","last_reported":1730664553,"current_range_meters":39200,"station_id":"ce4bhh92rcd13ifvqfi0","pricing_plan_id":"cebpf4jnsgd1na2vs0mg"},{"bike_id":"7c12ffcf-0bbf-447d-a215-73b67c5675e6","system_id":"levelo_inurba_marseille","lat":43.24657,"lon":5.38159,"is_reserved":false,"is_disabled":false,"rental_uris":{"android":"levelo://app?vid=7c12ffcf-0bbf-447d-a215-73b67c5675e6","ios":"levelo://app?vid=7c12ffcf-0bbf-447d-a215-73b67c5675e6"},"vehicle_type_id":"4","last_reported":1730664553,"current_range_meters":38800,"station_id":"ce4bhih2rcd13ifvqfr0","pricing_plan_id":"cebpf4jnsgd1na2vs0mg"},