{"last_updated":1720800613,"ttl":30,"version":"2.2","data":{"bikes":[{"bike_id":"7b382d0c-880a-469f-906c-d8e074c757a5","system_id":"levelo_inurba_marseille","lat":43.31247,"lon":5.368317,"is_reserved":false,"is_disabled":false,"rental_uris":{"android":"levelo://app?vid=7b382d0c-880a-469f-906c-d8e074c757a5","ios":"levelo://app?vid=7b382d0c-880a-469f-906c-d8e074c757a5"},"vehicle_type_id":"4","last_reported":1720800613,"current_range_meters":21600,"station_id":"ce4bgl92rcd13ifvqbq0","pricing_plan_id":"cebpf4jnsgd1na2vs0mg"},{"bike_id":"737b4a9f-eca1-4f4f-9509-bd3ddc92a32a","system_id":"levelo_inurba_marseille","lat":43.312623,"lon":5.368413,"is_reserved":false,"is_disabled":false,"rental_uris":{"android":"levelo://app?vid=737b4a9f-eca1-4f4f-9509-bd3ddc92a32a","ios":"levelo://app?vid=737b4a9f-eca1-4f4f-9509-bd3ddc92a32a"},"vehicle_type_id":"4","last_reported":1720800613,"current_range_meters":14800,"station_id":"ce4bgl92rcd13ifvqbq0","pricing_plan_id":"cebpf4jnsgd1na2vs0mg"},{"bike_id":"ad34eb1d-7d3c-4e04-8e3f-05d9e76ceb2a","system_id":"levelo_inurba_marseille","lat":43.313743,"lon":5.368177,"is_reserved":false,"is_disabled":false,"rental_uris":{"android":"levelo://app?vid=ad34eb1d-7d3c-4e04-8e3f-05d9e76ceb2a","ios":"levelo://app?vid=ad34eb1d-7d3c-4e04-8e3f-05d9e76ceb2a"},"vehicle_type_id":"4","last_reported":1720800613,"current_range_meters":0,"station_id":"","pricing_plan_id":"cebpf4jnsgd1na2vs0mg"},{"bike_id":"bd2df5f9-f8c5-426a-bf43-725ebfb88cbd","system_id":"levelo_inurba_marseille","lat":43.31215,"lon":5.36864,"is_reserved":false,"is_disabled":false,"rental_uris":{"android":"levelo://app?vid=bd2df5f9-f8c5-426a-bf43-725ebfb88cbd","ios":"levelo://app?vid=bd2df5f9-f8c5-426a-bf43-725ebfb88cbd"},"vehicle_type_id":"4","last_reported":1720800613,"current_range_meters":26800,"station_id":"ce4bgl92rcd13ifvqbq0","pricing_plan_id":"cebpf4jnsgd1na2vs0mg"},{"bike_id":"d4a528cb-aced-4785-bab2-71b3469f943c","system_id":"levelo_inurba_marseille","lat":43.314811,"lon":5.373104,"is_reserved":false,"is_disabled":false,"rental_uris":{"android":"levelo://app?vid=d4a528cb-aced-4785-bab2-71b3469f943c","ios":"levelo://app?vid=d4a528cb-aced-4785-bab2-71b3469f943c"},"vehicle_type_id":"4","last_reported":1720800613,"current_range_meters":2800,"station_id":"ce4bgt12rcd13ifvqcd0","pricing_plan_id":"cebpf4jnsgd1na2vs0mg"},{"bike_id":"adecde13-7d31-408c-82ff-454336ff62a6","system_id":"levelo_inurba_marseille","lat":43.30615,"lon":5.36576,"is_reserved":false,"is_disabled":false,"rental_uris":{"android":"levelo://app?vid=adecde13-7d31-408c-82ff-454336ff62a6","ios":"levelo://app?vid=adecde13-7d31-408c-82ff-454336ff62a6"},"vehicle_type_id":"4","last_reported":1720800613,"current_range_meters":18400,"station_id":"","pricing_plan_id":"cebpf4jnsgd1na2vs0mg"},{"bike_id":"8aa42dc4-01d9-4e81-9e2f-920d38c2f078","system_id":"levelo_inurba_marseille","lat":43.30537,"lon":5.367345,"is_reserved":false,"is_disabled":false,"rental_uris":{"android":"levelo://app?vid=8aa42dc4-01d9-4e81-9e2f-920d38c2f078","ios":"levelo://app?vid=8aa42dc4-01d9-4e81-9e2f-920d38c2f078"},"vehicle_type_id":"4","last_reported":1720800613,"current_range_meters":15200,"station_id":"ce4bgrp2rcd13ifvqc9g","pricing_plan_id":"cebpf4jnsgd1na2vs0mg"},{"bike_id":"83b4c4c3-a757-443b-879b-45f461eacd7a","system_id":"levelo_inurba_marseille","lat":43.305368,"lon":5.367343,"is_reserved":false,"is_disabled":false,"rental_uris":{"android":"levelo://app?vid=83b4c4c3-a757-443b-879b-45f461eacd7a","ios":"levelo://app?vid=83b4c4c3-a757-443b-879b-45f461eacd7a"},"vehicle_type_id":"4","last_reported":1720800613,"current_range_meters":18800,"station_id":"ce4bgrp2rcd13ifvqc9g","pricing_plan_id":"cebpf4jnsgd1na2vs0mg"},{"bike_id":"b4c28025-4571-4242-8bb9-d0b41ecbc898","system_id":"levelo_inurba_marseille","lat":43.31117,"lon":5.37788,"is_reserved":false,"is_disabled":false,"rental_uris":{"android":"levelo://app?vid=b4c28025-4571-4242-8bb9-d0b41ecbc898","ios":"levelo://app?vid=b4c28025-4571-4242-8bb9-d0b41ecbc898"},"vehicle_type_id":"4","last_reported":1720800613,"current_range_meters":31200,"station_id":"ce4bgt92rcd13ifvqcg0","pricing_plan_id":"cebpf4jnsgd1na2vs0mg"},{"bike_id":"f3dc0271-b5f5-4e03-b1a6-27f79fc1ae6a","system_id":"levelo_inurba_marseille","lat":43.307945,"lon":5.376487,"is_reserved":false,"is_disabled":false,"rental_uris":{"android":"levelo://app?vid=f3dc0271-b5f5-4e03-b1a6-27f79fc1ae6a","ios":"levelo://app?vid=f3dc0271-b5f5-4e03-b1a6-27f79fc1ae6a"},"vehicle_type_id":"4","last_reported":1720800613,"current_range_meters":0,"station_id":"ce4bgv92rcd13ifvqcq0","pricing_plan_id":"cebpf4jnsgd1na2vs0mg"},{"bike_id":"8590a9dc-a80a-4907-9301-d208b979b84f","system_id":"levelo_inurba_marseille","lat":43.307945,"lon":5.376487,"is_reserved":false,"is_disabled":false,"rental_uris":{"android":"levelo://app?vid=8590a9dc-a80a-4907-9301-d208b979b84f","ios":"levelo://app?vid=8590a9dc-a80a-4907-9301-d208b979b84f"},"vehicle_type_id":"4","last_reported":1720800613,"current_range_meters":3600,"station_id":"ce4bgv92rcd13ifvqcq0","pricing_plan_id":"cebpf4jnsgd1na2vs0mg"},{"bike_id":"d06fe2bd-5182-4c04-a586-2753012d9b32","system_id":"levelo_inurba_marseille","lat":43.31532,"lon":5.3804,"is_reserved":false,"is_disabled":false,"rental_uris":{"android":"levelo://app?vid=d06fe2bd-5182-4c04-a586-2753012d9b32","ios":"levelo://app?vid=d06fe2bd-5182-4c04-a586-2753012d9b32"},"vehicle_type_id":"4","last_reported":1720800613,"current_range_meters":10800,"station_id":"ce4bhsp2rcd13ifvqi50","pricing_plan_id":"cebpf4jnsgd1na2vs0mg"},{"bike_id":"01683ff0-22b6-404a-82a7-49aed6afd094","system_id":"levelo_inurba_marseille","lat":43.315387,"lon":5.380423,"is_reserved":false,"is_disabled":false,"rental_uris":{"android":"levelo://app?vid=01683ff0-22b6-404a-82a7-49aed6afd094","ios":"levelo://app?vid=01683ff0-22b6-404a-82a7-49aed6afd094"},"vehicle_type_id":"4","last_reported":1720800613,"current_range_meters":14800,"station_id":"ce4bhsp2rcd13ifvqi50","pricing_plan_id":"cebpf4jnsgd1na2vs0mg"},{"bike_id":"197137eb-3d55-482a-b799-e2f7df01b3e9","system_id":"levelo_inurba_marseille","lat":43.315,"lon":5.380727,"is_reserved":false,"is_disabled":false,"rental_uris":{"android":"levelo://app?vid=197137eb-3d55-482a-b799-e2f7df01b3e9","ios":"levelo://app?vid=197137eb-3d55-482a-b799-e2f7df01b3e9"},"vehicle_type_id":"4","last_reported":1720800613,"current_range_meters":11200,"station_id":"ce4bhsp2rcd13ifvqi50","pricing_plan_id":"cebpf4jnsgd1na2vs0mg"},{"bike_id":"d467a463-630d-4d1d-a001-6c8dc978b418","system_id":"levelo_inurba_marseille","lat":43.304606,"lon":5.379026,"is_reserved":false,"is_disabled":false,"rental_uris":{"android":"levelo://app?vid=d467a463-630d-4d1d-a001-6c8dc978b418","ios":"levelo://app?vid=d467a463-630d-4d1d-a001-6c8dc978b418"},"vehicle_type_id":"4","last_reported":1720800613,"current_range_meters":800,"station_id":"ce4bgup2rcd13ifvqcn0","pricing_plan_id":"cebpf4jnsgd1na2vs0mg"},{"bike_id":"4ed20c6e-1bc2-4641-9170-1a9e719533ba","system_id":"levelo_inurba_marseille","lat":43.304606,"lon":5.379026,"is_reserved":false,"is_disabled":false,"rental_uris":{"android":"levelo://app?vid=4ed20c6e-1bc2-4641-9170-1a9e719533ba","ios":"levelo://app?vid=4ed20c6e-1bc2-4641-9170-1a9e719533ba"},"vehicle_type_id":"4","last_reported":1720800613,"current_range_meters":20000,"station_id":"ce4bgup2rcd13ifvqcn0","pricing_plan_id":"cebpf4jnsgd1na2vs0mg"},{"bike_id":"3f35c935-f49c-4ac2-8fed-4cb1ba42a32d","system_id":"levelo_inurba_marseille","lat":43.304606,"lon":5.379026,"is_reserved":false,"is_disabled":false,"rental_uris":{"android":"levelo://app?vid=3f35c935-f49c-4ac2-8fed-4cb1ba42a32d","ios":"levelo://app?vid=3f35c935-f49c-4ac2-8fed-4cb1ba42a32d"},"vehicle_type_id":"4","last_reported":1720800613,"current_range_meters":5200,"station_id":"ce4bgup2rcd13ifvqcn0","pricing_plan_id":"cebpf4jnsgd1na2vs0mg"},{"bike_id":"95b20839-f108-4d43-a980-ca2398b13e45","system_id":"levelo_inurba_marseille","lat":43.304606,"lon":5.379026,"is_reserved":false,"is_disabled":false,"rental_uris":{"android":"levelo://app?vid=95b20839-f108-4d43-a980-ca2398b13e45","ios":"levelo://app?vid=95b20839-f108-4d43-a980-ca2398b13e45"},"vehicle_type_id":"4","last_reported":1720800613,"current_range_meters":10000,"station_id":"ce4bgup2rcd13ifvqcn0","pricing_plan_id":"cebpf4jnsgd1na2vs0mg"},{"bike_id":"2b4da476-2e26-40be-9aee-5dbf144bd864","system_id":"levelo_inurba_marseille","lat":43.30984,"lon":5.382931,"is_reserved":false,"is_disabled":false,"rental_uris":{"android":"levelo://app?vid=2b4da476-2e26-40be-9aee-5dbf144bd864","ios":"levelo://app?vid=2b4da476-2e26-40be-9aee-5dbf144bd864"},"vehicle_type_id":"4","last_reported":1720800613,"current_range_meters":11600,"station_id":"","pricing_plan_id":"cebpf4jnsgd1na2vs0mg"},{"bike_id":"d6feea68-7503-4449-b443-2aec4801b07a","system_id":"levelo_inurba_marseille","lat":43.32473,"lon":5.36565,"is_reserved":false,"is_disabled":false,"rental_uris":{"android":"levelo://app?vid=d6feea68-7503-4449-b443-2aec4801b07a","ios":"levelo://app?vid=d6feea68-7503-4449-b443-2aec4801b07a"},"vehicle_type_id":"4","last_reported":1720800613,"current_range_meters":22400,"station_id":"ce4bhs12rcd13ifvqhvg","pricing_plan_id":"cebpf4jnsgd1na2vs0mg"},{"bike_id":"4e624164-2605-48e0-acf2-d0a732428c2a","system_id":"levelo_inurba_marseille","lat":43.32474,"lon":5.36561,"is_reserved":false,"is_disabled":false,"rental_uris":{"android":"levelo://app?vid=4e624164-2605-48e0-acf2-d0a732428c2a","ios":"levelo://app?vid=4e624164-2605-48e0-acf2-d0a732428c2a"},"vehicle_type_id":"4","last_reported":1720800613,"current_range_meters":28000,"station_id":"ce4bhs12rcd13ifvqhvg","pricing_plan_id":"cebpf4jnsgd1na2vs0mg"},{"bike_id":"b5c77136-7949-4a1c-b458-179b50bf2bae","system_id":"levelo_inurba_marseille","lat":43.324771,"lon":5.36557,"is_reserved":false,"is_disabled":false,"rental_uris":{"android":"levelo://app?vid=b5c77136-7949-4a1c-b458-179b50bf2bae","ios":"levelo://app?vid=b5c77136-7949-4a1c-b458-179b50bf2bae"},"vehicle_type_id":"4","last_reported":1720800613,"current_range_meters":14000,"station_id":"ce4bhs12rcd13ifvqhvg","pricing_plan_id":"cebpf4jnsgd1na2vs0mg"},{"bike_id":"d2f7e0eb-b6ee-4f3f-ac51-7fed0857ac51","system_id":"levelo_inurba_marseille","lat":43.324771,"lon":5.36557,"is_reserved":false,"is_disabled":false,"rental_uris":{"android":"levelo://app?vid=d2f7e0eb-b6ee-4f3f-ac51-7fed0857ac51","ios":"levelo://app?vid=d2f7e0eb-b6ee-4f3f-ac51-7fed0857ac51"},"vehicle_type_id":"4","last_reported":1720800613,"current_range_meters":6800,"station_id":"ce4bhs12rcd13ifvqhvg","pricing_plan_id":"cebpf4jnsgd1na2vs0mg"},{"bike_id":"74f6bae1-54c7-4757-a345-545196a0e633","system_id":"levelo_inurba_marseille","lat":43.324771,"lon":5.36557,"is_reserved":false,"is_disabled":false,"rental_uris":{"android":"levelo://app?vid=74f6bae1-54c7-4757-a345-545196a0e633","ios":"levelo://app?vid=74f6bae1-54c7-4757-a345-545196a0e633"},"vehicle_type_id":"4","last_reported":1720800613,"current_range_meters":31600,"station_id":"ce4bhs12rcd13ifvqhvg","pricing_plan_id":"cebpf4jnsgd1na2vs0mg"},{"bike_id":"47e00266-d9fc-4b30-8b7d-1b2955f5e020","system_id":"levelo_inurba_marseille","lat":43.32478,"lon":5.36574,"is_reserved":false,"is_disabled":false,"rental_uris":{"android":"levelo://app?vid=47e00266-d9fc-4b30-8b7d-1b2955f5e020","ios":"levelo://app?vid=47e00266-d9fc-4b30-8b7d-1b2955f5e020"},"vehicle_type_id":"4","last_reported":1720800613,"current_range_meters":5200,"station_id":"ce4bhs12rcd13ifvqhvg","pricing_plan_id":"cebpf4jnsgd1na2vs0mg"},{"bike_id":"3c17435f-310e-485b-972d-cd31e082182f","system_id":"levelo_inurba_marseille","lat":43.324777,"lon":5.365646,"is_reserved":false,"is_disabled":false,"rental_uris":{"android":"levelo://app?vid=3c17435f-310e-485b-972d-cd31e082182f","ios":"levelo://app?vid=3c17435f-310e-485b-972d-cd31e082182f"},"vehicle_type_id":"4","last_reported":1720800613,"current_range_meters":30800,"station_id":"ce4bhs12rcd13ifvqhvg","pricing_plan_id":"cebpf4jnsgd1na2vs0mg"},{"bike_id":"95dbc002-a12a-4856-960b-6aea85e4eabe","system_id":"levelo_inurba_marseille","lat":43.324808,"lon":5.365654,"is_reserved":false,"is_disabled":false,"rental_uris":{"android":"levelo://app?vid=95dbc002-a12a-4856-960b-6aea85e4eabe","ios":"levelo://app?vid=95dbc002-a12a-4856-960b-6aea85e4eabe"},"vehicle_type_id":"4","last_reported":1720800613,"current_range_meters":30400,"station_id":"ce4bhs12rcd13ifvqhvg","pricing_plan_id":"cebpf4jnsgd1na2vs0mg"},{"bike_id":"b7075c7b-2c25-42ab-883a-e6ad095eb7ec","system_id":"levelo_inurba_marseille","lat":43.324771,"lon":5.36557,"is_reserved":false,"is_disabled":false,"rental_uris":{"android":"levelo://app?vid=b7075c7b-2c25-42ab-883a-e6ad095eb7ec","ios":"levelo://app?vid=b7075c7b-2c25-42ab-883a-e6ad095eb7ec"},"vehicle_type_id":"4","last_reported":1720800613,"current_range_meters":7200,"station_id":"ce4bhs12rcd13ifvqhvg","pricing_plan_id":"cebpf4jnsgd1na2vs0mg"},{"bike_id":"8b993565-4389-4f56-a4e7-106e965104a9","system_id":"levelo_inurba_marseille","lat":43.324771,"lon":5.36557,"is_reserved":false,"is_disabled":false,"rental_uris":{"android":"levelo://app?vid=8b993565-4389-4f56-a4e7-106e965104a9","ios":"levelo://app?vid=8b993565-4389-4f56-a4e7-106e965104a9"},"vehicle_type_id":"4","last_reported":1720800613,"current_range_meters":12800,"station_id":"ce4bhs12rcd13ifvqhvg","pricing_plan_id":"cebpf4jnsgd1na2vs0mg"},{"bike_id":"8cef89db-5f5e-49ee-9ae1-a8cf17c4a2ad","system_id":"levelo_inurba_marseille","lat":43.324771,"lon":5.36557,"is_reserved":false,"is_disabled":false,"rental_uris":{"android":"levelo://app?vid=8cef89db-5f5e-49ee-9ae1-a8cf17c4a2ad","ios":"levelo://app?vid=8cef89db-5f5e-49ee-9ae1-a8cf17c4a2ad"},"vehicle_type_id":"4","last_reported":1720800613,"current_range_meters":5200,"station_id":"ce4bhs12rcd13ifvqhvg","pricing_plan_id":"cebpf4jnsgd1na2vs0mg"},{"bike_id":"50b67951-f4db-4738-8c48-e3a67b6e799e","system_id":"levelo_inurba_marseille","lat":43.324771,"lon":5.36557,"is_reserved":false,"is_disabled":false,"rental_uris":{"android":"levelo://app?vid=50b67951-f4db-4738-8c48-e3a67b6e799e","ios":"levelo://app?vid=50b67951-f4db-4738-8c48-e3a67b6e799e"},"vehicle_type_id":"4","last_reported":1720800613,"current_range_meters":31600,"station_id":"ce4bhs12rcd13ifvqhvg","pricing_plan_id":"cebpf4jnsgd1na2vs0mg"},{"bike_id":"76de3e48-b986-4fd1-8977-b8ae85b8a7f6","system_id":"levelo_inurba_marseille","lat":43.32486,"lon":5.36565,"is_reserved":false,"is_disabled":false,"rental_uris":{"android":"levelo://app?vid=76de3e48-b986-4fd1-8977-b8ae85b8a7f6","ios":"levelo://app?vid=76de3e48-b986-4fd1-8977-b8ae85b8a7f6"},"vehicle_type_id":"4","last_reported":1720800613,"current_range_meters":31200,"station_id":"ce4bhs12rcd13ifvqhvg","pricing_plan_id":"cebpf4jnsgd1na2vs0mg"},{"bike_id":"f4ba6f77-dc39-4097-a212-f7dd56cfda40","system_id":"levelo_inurba_marseille","lat":43.32486,"lon":5.36565,"is_reserved":false,"is_disabled":false,"rental_uris":{"android":"levelo://app?vid=f4ba6f77-dc39-4097-a212-f7dd56cfda40","ios":"levelo://app?vid=f4ba6f77-dc39-4097-a212-f7dd56cfda40"},"vehicle_type_id":"4","last_reported":1720800613,"current_range_meters":29600,"station_id":"ce4bhs12rcd13ifvqhvg","pricing_plan_id":"cebpf4jnsgd1na2vs0mg"},{"bike_id":"7500353d-b1e9-4a91-875b-518677d85c40","system_id":"levelo_inurba_marseille","lat":43.30283,"lon":5.37693,"is_reserved":false,"is_disabled":false,"rental_uris":{"android":"levelo://app?vid=7500353d-b1e9-4a91-875b-518677d85c40","ios":"levelo://app?vid=7500353d-b1e9-4a91-875b-518677d85c40"},"vehicle_type_id":"4","last_reported":1720800613,"current_range_meters":0,"station_id":"ce4bguh2rcd13ifvqcj0","pricing_plan_id":"cebpf4jnsgd1na2vs0mg"},{"bike_id":"748791b8-8fb6-4a4c-bd15-b95e80322c2d","system_id":"levelo_inurba_marseille","lat":43.319935,"lon":5.381699,"is_reserved":false,"is_disabled":false,"rental_uris":{"android":"levelo://app?vid=748791b8-8fb6-4a4c-bd15-b95e80322c2d","ios":"levelo://app?vid=748791b8-8fb6-4a4c-bd15-b95e80322c2d"},"vehicle_type_id":"4","last_reported":1720800613,"current_range_meters":27200,"station_id":"ce4bhr12rcd13ifvqhpg","pricing_plan_id":"cebpf4jnsgd1na2vs0mg"},{"bike_id":"618b4d07-4c1c-4fa3-9f99-d9fe8b132109","system_id":"levelo_inurba_marseille","lat":43.319935,"lon":5.381699,"is_reserved":false,"is_disabled":false,"rental_uris":{"android":"levelo://app?vid=618b4d07-4c1c-4fa3-9f99-d9fe8b132109","ios":"levelo://app?vid=618b4d07-4c1c-4fa3-9f99-d9fe8b132109"},"vehicle_type_id":"4","last_reported":1720800613,"current_range_meters":10000,"station_id":"ce4bhr12rcd13ifvqhpg","pricing_plan_id":"cebpf4jnsgd1na2vs0mg"},{"bike_id":"d79663e1-2e50-4ae5-985a-b8a1ffad9aaf","system_id":"levelo_inurba_marseille","lat":43.306,"lon":5.38226,"is_reserved":false,"is_disabled":false,"rental_uris":{"android":"levelo://app?vid=d79663e1-2e50-4ae5-985a-b8a1ffad9aaf","ios":"levelo://app?vid=d79663e1-2e50-4ae5-985a-b8a1ffad9aaf"},"vehicle_type_id":"4","last_reported":1720800613,"current_range_meters":19200,"station_id":"","pricing_plan_id":"cebpf4jnsgd1na2vs0mg"},{"bike_id":"3e10865e-550e-44e7-8dfd-2bfd7ca0d093","system_id":"levelo_inurba_marseille","lat":43.312737,"lon":5.38505,"is_reserved":false,"is_disabled":false,"rental_uris":{"android":"levelo://app?vid=3e10865e-550e-44e7-8dfd-2bfd7ca0d093","ios":"levelo://app?vid=3e10865e-550e-44e7-8dfd-2bfd7ca0d093"},"vehicle_type_id":"4","last_reported":1720800613,"current_range_meters":0,"station_id":"","pricing_plan_id":"cebpf4jnsgd1na2vs0mg"},{"bike_id":"f1adccbb-6767-47f7-b9cb-a9e9d375fdea","system_id":"levelo_inurba_marseille","lat":43.313571,"lon":5.384829,"is_reserved":false,"is_disabled":false,"rental_uris":{"android":"levelo://app?vid=f1adccbb-6767-47f7-b9cb-a9e9d375fdea","ios":"levelo://app?vid=f1adccbb-6767-47f7-b9cb-a9e9d375fdea"},"vehicle_type_id":"4","last_reported":1720800613,"current_range_meters":8400,"station_id":"ce4bgt92rcd13ifvqcf0","pricing_plan_id":"cebpf4jnsgd1na2vs0mg"},{"bike_id":"f0936483-ef4f-417f-9a48-ffaf8c02ac9b","system_id":"levelo_inurba_marseille","lat":43.299724,"lon":5.371829,"is_reserved":false,"is_disabled":false,"rental_uris":{"android":"levelo://app?vid=f0936483-ef4f-417f-9a48-ffaf8c02ac9b","ios":"levelo://app?vid=f0936483-ef4f-417f-9a48-ffaf8c02ac9b"},"vehicle_type_id":"4","last_reported":1720800613,"current_range_meters":11600,"station_id":"ce4bgr92rcd13ifvqc7g","pricing_plan_id":"cebpf4jnsgd1na2vs0mg"},{"bike_id":"997e84f8-7af4-4583-bf23-0e593d89a5d9","system_id":"levelo_inurba_marseille","lat":43.299724,"lon":5.371829,"is_reserved":false,"is_disabled":false,"rental_uris":{"android":"levelo://app?vid=997e84f8-7af4-4583-bf23-0e593d89a5d9","ios":"levelo://app?vid=997e84f8-7af4-4583-bf23-0e593d89a5d9"},"vehicle_type_id":"4","last_reported":1720800613,"current_range_meters":18000,"station_id":"ce4bgr92rcd13ifvqc7g","pricing_plan_id":"cebpf4jnsgd1na2vs0mg"},{"bike_id":"c309e1da-aa3b-486e-9232-82d027b734cf","system_id":"levelo_inurba_marseille","lat":43.2984,"lon":5.36464,"is_reserved":false,"is_disabled":false,"rental_uris":{"android":"levelo://app?vid=c309e1da-aa3b-486e-9232-82d027b734cf","ios":"levelo://app?vid=c309e1da-aa3b-486e-9232-82d027b734cf"},"vehicle_type_id":"4","last_reported":1720800613,"current_range_meters":15200,"station_id":"","pricing_plan_id":"cebpf4jnsgd1na2vs0mg"},{"bike_id":"07608da5-dead-4779-8c17-655092e47af6","system_id":"levelo_inurba_marseille","lat":43.298433,"lon":5.362774,"is_reserved":false,"is_disabled":false,"rental_uris":{"android":"levelo://app?vid=07608da5-dead-4779-8c17-655092e47af6","ios":"levelo://app?vid=07608da5-dead-4779-8c17-655092e47af6"},"vehicle_type_id":"4","last_reported":1720800613,"current_range_meters":0,"station_id":"ce4bgpp2rcd13ifvqc3g","pricing_plan_id":"cebpf4jnsgd1na2vs0mg"},{"bike_id":"218474cf-ad3c-4a2b-8e3b-ff5326dd0ace","system_id":"levelo_inurba_marseille","lat":43.311722,"lon":5.387247,"is_reserved":false,"is_disabled":false,"rental_uris":{"android":"levelo://app?vid=218474cf-ad3c-4a2b-8e3b-ff5326dd0ace","ios":"levelo://app?vid=218474cf-ad3c-4a2b-8e3b-ff5326dd0ace"},"vehicle_type_id":"4","last_reported":1720800613,"current_range_meters":8000,"station_id":"ce4bgv12rcd13ifvqcp0","pricing_plan_id":"cebpf4jnsgd1na2vs0mg"},{"bike_id":"f76d9e95-8b24-47dc-9380-9f011a78a352","system_id":"levelo_inurba_marseille","lat":43.297794,"lon":5.370888,"is_reserved":false,"is_disabled":false,"rental_uris":{"android":"levelo://app?vid=f76d9e95-8b24-47dc-9380-9f011a78a352","ios":"levelo://app?vid=f76d9e95-8b24-47dc-9380-9f011a78a352"},"vehicle_type_id":"4","last_reported":1720800613,"current_range_meters":7200,"station_id":"ce4bgop2rcd13ifvqc1g","pricing_plan_id":"cebpf4jnsgd1na2vs0mg"},{"bike_id":"b797d313-a3e5-4922-baf9-4754d7c727cd","system_id":"levelo_inurba_marseille","lat":43.322949,"lon":5.382629,"is_reserved":false,"is_disabled":false,"rental_uris":{"android":"levelo://app?vid=b797d313-a3e5-4922-baf9-4754d7c727cd","ios":"levelo://app?vid=b797d313-a3e5-4922-baf9-4754d7c727cd"},"vehicle_type_id":"4","last_reported":1720800613,"current_range_meters":24400,"station_id":"ce4bhr12rcd13ifvqhqg","pricing_plan_id":"cebpf4jnsgd1na2vs0mg"},{"bike_id":"27b61437-6f99-429a-86bb-9f602abaa21a","system_id":"levelo_inurba_marseille","lat":43.297163,"lon":5.365866,"is_reserved":false,"is_disabled":false,"rental_uris":{"android":"levelo://app?vid=27b61437-6f99-429a-86bb-9f602abaa21a","ios":"levelo://app?vid=27b61437-6f99-429a-86bb-9f602abaa21a"},"vehicle_type_id":"4","last_reported":1720800613,"current_range_meters":0,"station_id":"ce4bgn12rcd13ifvqbt0","pricing_plan_id":"cebpf4jnsgd1na2vs0mg"},{"bike_id":"ad528667-dc90-4679-a141-e1c213c6d55c","system_id":"levelo_inurba_marseille","lat":43.297149,"lon":5.366103,"is_reserved":false,"is_disabled":false,"rental_uris":{"android":"levelo://app?vid=ad528667-dc90-4679-a141-e1c213c6d55c","ios":"levelo://app?vid=ad528667-dc90-4679-a141-e1c213c6d55c"},"vehicle_type_id":"4","last_reported":1720800613,"current_range_meters":31200,"station_id":"ce4bgn12rcd13ifvqbt0","pricing_plan_id":"cebpf4jnsgd1na2vs0mg"},{"bike_id":"866a15a5-1b2c-4bde-a4ce-2b037b61c858","system_id":"levelo_inurba_marseille","lat":43.297163,"lon":5.365866,"is_reserved":false,"is_disabled":false,"rental_uris":{"android":"levelo://app?vid=866a15a5-1b2c-4bde-a4ce-2b037b61c858","ios":"levelo://app?vid=866a15a5-1b2c-4bde-a4ce-2b037b61c858"},"vehicle_type_id":"4","last_reported":1720800613,"current_range_meters":23200,"station_id":"ce4bgn12rcd13ifvqbt0","pricing_plan_id":"cebpf4jnsgd1na2vs0mg"},{"bike_id":"d14218df-383d-495a-b5a5-6cc64ae8853e","system_id":"levelo_inurba_marseille","lat":43.297163,"lon":5.365866,"is_reserved":false,"is_disabled":false,"rental_uris":{"android":"levelo://app?vid=d14218df-383d-495a-b5a5-6cc64ae8853e","ios":"levelo://app?vid=d14218df-383d-495a-b5a5-6cc64ae8853e"},"vehicle_type_id":"4","last_reported":1720800613,"current_range_meters":20400,"station_id":"ce4bgn12rcd13ifvqbt0","pricing_plan_id":"cebpf4jnsgd1na2vs0mg"},{"bike_id":"fe1683c0-a700-41f6-962f-9683cda2f27a","system_id":"levelo_inurba_marseille","lat":43.31103,"lon":5.38835,"is_reserved":false,"is_disabled":false,"rental_uris":{"android":"levelo://app?vid=fe1683c0-a700-41f6-962f-9683cda2f27a","ios":"levelo://app?vid=fe1683c0-a700-41f6-962f-9683cda2f27a"},"vehicle_type_id":"4","last_reported":1720800613,"current_range_meters":17600,"station_id":"","pricing_plan_id":"cebpf4jnsgd1na2vs0mg"},{"bike_id":"2a2130ca-69e4-485c-8370-67e58ac4e595","system_id":"levelo_inurba_marseille","lat":43.30953,"lon":5.39037,"is_reserved":false,"is_disabled":false,"rental_uris":{"android":"levelo://app?vid=2a2130ca-69e4-485c-8370-67e58ac4e595","ios":"levelo://app?vid=2a2130ca-69e4-485c-8370-67e58ac4e595"},"vehicle_type_id":"4","last_reported":1720800613,"current_range_meters":0,"station_id":"ce4bgup2rcd13ifvqco0","pricing_plan_id":"cebpf4jnsgd1na2vs0mg"},{"bike_id":"1b136268-e9cd-4a75-9ff6-57fad1e1928e","system_id":"levelo_inurba_marseille","lat":43.317557,"lon":5.390173,"is_reserved":false,"is_disabled":false,"rental_uris":{"android":"levelo://app?vid=1b136268-e9cd-4a75-9ff6-57fad1e1928e","ios":"levelo://app?vid=1b136268-e9cd-4a75-9ff6-57fad1e1928e"},"vehicle_type_id":"4","last_reported":1720800613,"current_range_meters":7600,"station_id":"ce4bhqp2rcd13ifvqhng","pricing_plan_id":"cebpf4jnsgd1na2vs0mg"},{"bike_id":"8961e31c-1d8a-4004-8611-238c6edc8115","system_id":"levelo_inurba_marseille","lat":43.298037,"lon":5.381066,"is_reserved":false,"is_disabled":false,"rental_uris":{"android":"levelo://app?vid=8961e31c-1d8a-4004-8611-238c6edc8115","ios":"levelo://app?vid=8961e31c-1d8a-4004-8611-238c6edc8115"},"vehicle_type_id":"4","last_reported":1720800613,"current_range_meters":1600,"station_id":"ce4bgip2rcd13ifvqbb0","pricing_plan_id":"cebpf4jnsgd1na2vs0mg"},{"bike_id":"eca51af5-e5ba-4272-b959-6d54d3d9eb61","system_id":"levelo_inurba_marseille","lat":43.297985,"lon":5.380974,"is_reserved":false,"is_disabled":false,"rental_uris":{"android":"levelo://app?vid=eca51af5-e5ba-4272-b959-6d54d3d9eb61","ios":"levelo://app?vid=eca51af5-e5ba-4272-b959-6d54d3d9eb61"},"vehicle_type_id":"4","last_reported":1720800613,"current_range_meters":0,"station_id":"","pricing_plan_id":"cebpf4jnsgd1na2vs0mg"},{"bike_id":"595d01ce-f657-43a1-9fcf-b3e10cc44174","system_id":"levelo_inurba_marseille","lat":43.29572,"lon":5.37504,"is_reserved":false,"is_disabled":false,"rental_uris":{"android":"levelo://app?vid=595d01ce-f657-43a1-9fcf-b3e10cc44174","ios":"levelo://app?vid=595d01ce-f657-43a1-9fcf-b3e10cc44174"},"vehicle_type_id":"4","last_reported":1720800613,"current_range_meters":0,"station_id":"ce4bgh92rcd13ifvqb50","pricing_plan_id":"cebpf4jnsgd1na2vs0mg"},{"bike_id":"4bee6aae-5a89-4b91-b25f-1e08ad3d26d3","system_id":"levelo_inurba_marseille","lat":43.295748,"lon":5.37522,"is_reserved":false,"is_disabled":false,"rental_uris":{"android":"levelo://app?vid=4bee6aae-5a89-4b91-b25f-1e08ad3d26d3","ios":"levelo://app?vid=4bee6aae-5a89-4b91-b25f-1e08ad3d26d3"},"vehicle_type_id":"4","last_reported":1720800613,"current_range_meters":0,"station_id":"ce4bgh92rcd13ifvqb50","pricing_plan_id":"cebpf4jnsgd1na2vs0mg"},{"bike_id":"0c164aea-3218-4a27-ba13-50c4b94fd92b","system_id":"levelo_inurba_marseille","lat":43.295748,"lon":5.37522,"is_reserved":false,"is_disabled":false,"rental_uris":{"android":"levelo://app?vid=0c164aea-3218-4a27-ba13-50c4b94fd92b","ios":"levelo://app?vid=0c164aea-3218-4a27-ba13-50c4b94fd92b"},"vehicle_type_id":"4","last_reported":1720800613,"current_range_meters":0,"station_id":"ce4bgh92rcd13ifvqb50","pricing_plan_id":"cebpf4jnsgd1na2vs0mg"},{"bike_id":"973ade45-b5c9-4cc3-bbdc-c26b98b56a4f","system_id":"levelo_inurba_marseille","lat":43.296263,"lon":5.377094,"is_reserved":false,"is_disabled":false,"rental_uris":{"android":"levelo://app?vid=973ade45-b5c9-4cc3-bbdc-c26b98b56a4f","ios":"levelo://app?vid=973ade45-b5c9-4cc3-bbdc-c26b98b56a4f"},"vehicle_type_id":"4","last_reported":1720800613,"current_range_meters":0,"station_id":"ce4bgi92rcd13ifvqb90","pricing_plan_id":"cebpf4jnsgd1na2vs0mg"},{"bike_id":"4b44859f-18aa-47ac-a532-6e9313d2065a","system_id":"levelo_inurba_marseille","lat":43.29542,"lon":5.3751,"is_reserved":false,"is_disabled":false,"rental_uris":{"android":"levelo://app?vid=4b44859f-18aa-47ac-a532-6e9313d2065a","ios":"levelo://app?vid=4b44859f-18aa-47ac-a532-6e9313d2065a"},"vehicle_type_id":"4","last_reported":1720800613,"current_range_meters":10400,"station_id":"ce4bgkp2rcd13ifvqbmg","pricing_plan_id":"cebpf4jnsgd1na2vs0mg"},{"bike_id":"e708e7d4-67d9-47d9-b5dc-ce44d3f76399","system_id":"levelo_inurba_marseille","lat":43.299707,"lon":5.384859,"is_reserved":false,"is_disabled":false,"rental_uris":{"android":"levelo://app?vid=e708e7d4-67d9-47d9-b5dc-ce44d3f76399","ios":"levelo://app?vid=e708e7d4-67d9-47d9-b5dc-ce44d3f76399"},"vehicle_type_id":"4","last_reported":1720800613,"current_range_meters":4800,"station_id":"ce4bgj92rcd13ifvqbd0","pricing_plan_id":"cebpf4jnsgd1na2vs0mg"},{"bike_id":"e9af513b-ad34-465b-8c6e-226d6a7d87ce","system_id":"levelo_inurba_marseille","lat":43.32367,"lon":5.388836,"is_reserved":false,"is_disabled":false,"rental_uris":{"android":"levelo://app?vid=e9af513b-ad34-465b-8c6e-226d6a7d87ce","ios":"levelo://app?vid=e9af513b-ad34-465b-8c6e-226d6a7d87ce"},"vehicle_type_id":"4","last_reported":1720800613,"current_range_meters":19600,"station_id":"ce4bhqp2rcd13ifvqhog","pricing_plan_id":"cebpf4jnsgd1na2vs0mg"},{"bike_id":"95eb0e01-fe1c-4927-b760-5fcc826e1c6c","system_id":"levelo_inurba_marseille","lat":43.32367,"lon":5.388836,"is_reserved":false,"is_disabled":false,"rental_uris":{"android":"levelo://app?vid=95eb0e01-fe1c-4927-b760-5fcc826e1c6c","ios":"levelo://app?vid=95eb0e01-fe1c-4927-b760-5fcc826e1c6c"},"vehicle_type_id":"4","last_reported":1720800613,"current_range_meters":9200,"station_id":"ce4bhqp2rcd13ifvqhog","pricing_plan_id":"cebpf4jnsgd1na2vs0mg"},{"bike_id":"db52d32b-bed2-4e96-8b9e-3c626f4c2ef1","system_id":"levelo_inurba_marseille","lat":43.32367,"lon":5.388836,"is_reserved":false,"is_disabled":false,"rental_uris":{"android":"levelo://app?vid=db52d32b-bed2-4e96-8b9e-3c626f4c2ef1","ios":"levelo://app?vid=db52d32b-bed2-4e96-8b9e-3c626f4c2ef1"},"vehicle_type_id":"4","last_reported":1720800613,"current_range_meters":31200,"station_id":"ce4bhqp2rcd13ifvqhog","pricing_plan_id":"cebpf4jnsgd1na2vs0mg"},{"bike_id":"1699046e-65a4-4cd5-aa42-dc9abbb78b52","system_id":"levelo_inurba_marseille","lat":43.32367,"lon":5.388836,"is_reserved":false,"is_disabled":false,"rental_uris":{"android":"levelo://app?vid=1699046e-65a4-4cd5-aa42-dc9abbb78b52","ios":"levelo://app?vid=1699046e-65a4-4cd5-aa42-dc9abbb78b52"},"vehicle_type_id":"4","last_reported":1720800613,"current_range_meters":800,"station_id":"ce4bhqp2rcd13ifvqhog","pricing_plan_id":"cebpf4jnsgd1na2vs0mg"},{"bike_id":"78e25db9-ca75-4fa2-bec4-57621f3d591e","system_id":"levelo_inurba_marseille","lat":43.293259,"lon":5.371586,"is_reserved":false,"is_disabled":false,"rental_uris":{"android":"levelo://app?vid=78e25db9-ca75-4fa2-bec4-57621f3d591e","ios":"levelo://app?vid=78e25db9-ca75-4fa2-bec4-57621f3d591e"},"vehicle_type_id":"4","last_reported":1720800613,"current_range_meters":16800,"station_id":"ce4bgh92rcd13ifvqb40","pricing_plan_id":"cebpf4jnsgd1na2vs0mg"},{"bike_id":"2b663512-3d4d-4ec2-ba4c-17228a680663","system_id":"levelo_inurba_marseille","lat":43.29304,"lon":5.37177,"is_reserved":false,"is_disabled":false,"rental_uris":{"android":"levelo://app?vid=2b663512-3d4d-4ec2-ba4c-17228a680663","ios":"levelo://app?vid=2b663512-3d4d-4ec2-ba4c-17228a680663"},"vehicle_type_id":"4","last_reported":1720800613,"current_range_meters":0,"station_id":"ce4bgh92rcd13ifvqb40","pricing_plan_id":"cebpf4jnsgd1na2vs0mg"},{"bike_id":"cb08ffd9-5462-4d4e-8c4a-f9a4042f1b8f","system_id":"levelo_inurba_marseille","lat":43.293009,"lon":5.374584,"is_reserved":false,"is_disabled":false,"rental_uris":{"android":"levelo://app?vid=cb08ffd9-5462-4d4e-8c4a-f9a4042f1b8f","ios":"levelo://app?vid=cb08ffd9-5462-4d4e-8c4a-f9a4042f1b8f"},"vehicle_type_id":"4","last_reported":1720800613,"current_range_meters":8000,"station_id":"ce4bgi12rcd13ifvqb70","pricing_plan_id":"cebpf4jnsgd1na2vs0mg"},{"bike_id":"09adbfd2-2ecf-457f-9b8c-4f197db72327","system_id":"levelo_inurba_marseille","lat":43.293009,"lon":5.374584,"is_reserved":false,"is_disabled":false,"rental_uris":{"android":"levelo://app?vid=09adbfd2-2ecf-457f-9b8c-4f197db72327","ios":"levelo://app?vid=09adbfd2-2ecf-457f-9b8c-4f197db72327"},"vehicle_type_id":"4","last_reported":1720800613,"current_range_meters":9200,"station_id":"ce4bgi12rcd13ifvqb70","pricing_plan_id":"cebpf4jnsgd1na2vs0mg"},{"bike_id":"ded71aef-5434-4246-b12b-eecf7d19c940","system_id":"levelo_inurba_marseille","lat":43.293009,"lon":5.374584,"is_reserved":false,"is_disabled":false,"rental_uris":{"android":"levelo://app?vid=ded71aef-5434-4246-b12b-eecf7d19c940","ios":"levelo://app?vid=ded71aef-5434-4246-b12b-eecf7d19c940"},"vehicle_type_id":"4","last_reported":1720800613,"current_range_meters":27600,"station_id":"ce4bgi12rcd13ifvqb70","pricing_plan_id":"cebpf4jnsgd1na2vs0mg"},{"bike_id":"a0ece64e-dd45-4044-8d17-3f221154106e","system_id":"levelo_inurba_marseille","lat":43.303002,"lon":5.392142,"is_reserved":false,"is_disabled":false,"rental_uris":{"android":"levelo://app?vid=a0ece64e-dd45-4044-8d17-3f221154106e","ios":"levelo://app?vid=a0ece64e-dd45-4044-8d17-3f221154106e"},"vehicle_type_id":"4","last_reported":1720800613,"current_range_meters":18000,"station_id":"ce4bgkh2rcd13ifvqbk0","pricing_plan_id":"cebpf4jnsgd1na2vs0mg"},{"bike_id":"2cd2ad84-2ff9-4c4f-9f91-3fb96b9ab452","system_id":"levelo_inurba_marseille","lat":43.292311,"lon":5.360731,"is_reserved":false,"is_disabled":false,"rental_uris":{"android":"levelo://app?vid=2cd2ad84-2ff9-4c4f-9f91-3fb96b9ab452","ios":"levelo://app?vid=2cd2ad84-2ff9-4c4f-9f91-3fb96b9ab452"},"vehicle_type_id":"4","last_reported":1720800613,"current_range_meters":0,"station_id":"ce4bhbh2rcd13ifvqeqg","pricing_plan_id":"cebpf4jnsgd1na2vs0mg"},{"bike_id":"dbb7ee79-21a2-4492-811b-2e7f37f7be84","system_id":"levelo_inurba_marseille","lat":43.292311,"lon":5.360731,"is_reserved":false,"is_disabled":false,"rental_uris":{"android":"levelo://app?vid=dbb7ee79-21a2-4492-811b-2e7f37f7be84","ios":"levelo://app?vid=dbb7ee79-21a2-4492-811b-2e7f37f7be84"},"vehicle_type_id":"4","last_reported":1720800613,"current_range_meters":0,"station_id":"ce4bhbh2rcd13ifvqeqg","pricing_plan_id":"cebpf4jnsgd1na2vs0mg"},{"bike_id":"3b29fe36-5fb4-4b58-8a82-59056b93934f","system_id":"levelo_inurba_marseille","lat":43.292235,"lon":5.360694,"is_reserved":false,"is_disabled":false,"rental_uris":{"android":"levelo://app?vid=3b29fe36-5fb4-4b58-8a82-59056b93934f","ios":"levelo://app?vid=3b29fe36-5fb4-4b58-8a82-59056b93934f"},"vehicle_type_id":"4","last_reported":1720800613,"current_range_meters":0,"station_id":"ce4bhbh2rcd13ifvqeqg","pricing_plan_id":"cebpf4jnsgd1na2vs0mg"},{"bike_id":"bb77529d-754c-4eb7-8136-084478e55934","system_id":"levelo_inurba_marseille","lat":43.30085,"lon":5.390856,"is_reserved":false,"is_disabled":false,"rental_uris":{"android":"levelo://app?vid=bb77529d-754c-4eb7-8136-084478e55934","ios":"levelo://app?vid=bb77529d-754c-4eb7-8136-084478e55934"},"vehicle_type_id":"4","last_reported":1720800613,"current_range_meters":18400,"station_id":"ce4bh192rcd13ifvqdb0","pricing_plan_id":"cebpf4jnsgd1na2vs0mg"},{"bike_id":"ec484264-1943-4428-81a3-518d2bac253b","system_id":"levelo_inurba_marseille","lat":43.30085,"lon":5.390856,"is_reserved":false,"is_disabled":false,"rental_uris":{"android":"levelo://app?vid=ec484264-1943-4428-81a3-518d2bac253b","ios":"levelo://app?vid=ec484264-1943-4428-81a3-518d2bac253b"},"vehicle_type_id":"4","last_reported":1720800613,"current_range_meters":0,"station_id":"ce4bh192rcd13ifvqdb0","pricing_plan_id":"cebpf4jnsgd1na2vs0mg"},{"bike_id":"e8780f7b-12d9-45b8-ac23-3b9a6c0a1175","system_id":"levelo_inurba_marseille","lat":43.292311,"lon":5.360731,"is_reserved":false,"is_disabled":false,"rental_uris":{"android":"levelo://app?vid=e8780f7b-12d9-45b8-ac23-3b9a6c0a1175","ios":"levelo://app?vid=e8780f7b-12d9-45b8-ac23-3b9a6c0a1175"},"vehicle_type_id":"4","last_reported":1720800613,"current_range_meters":15200,"station_id":"ce4bhbh2rcd13ifvqeqg","pricing_plan_id":"cebpf4jnsgd1na2vs0mg"},{"bike_id":"c183b437-0db4-4b34-8ddd-2f09b57be6cd","system_id":"levelo_inurba_marseille","lat":43.30085,"lon":5.390856,"is_reserved":false,"is_disabled":false,"rental_uris":{"android":"levelo://app?vid=c183b437-0db4-4b34-8ddd-2f09b57be6cd","ios":"levelo://app?vid=c183b437-0db4-4b34-8ddd-2f09b57be6cd"},"vehicle_type_id":"4","last_reported":1720800613,"current_range_meters":11600,"station_id":"ce4bh192rcd13ifvqdb0","pricing_plan_id":"cebpf4jnsgd1na2vs0mg"},{"bike_id":"bf7f167b-9127-4a19-b43e-35bcf7debd62","system_id":"levelo_inurba_marseille","lat":43.292311,"lon":5.360731,"is_reserved":false,"is_disabled":false,"rental_uris":{"android":"levelo://app?vid=bf7f167b-9127-4a19-b43e-35bcf7debd62","ios":"levelo://app?vid=bf7f167b-9127-4a19-b43e-35bcf7debd62"},"vehicle_type_id":"4","last_reported":1720800613,"current_range_meters":25600,"station_id":"ce4bhbh2rcd13ifvqeqg","pricing_plan_id":"cebpf4jnsgd1na2vs0mg"},{"bike_id":"726d195a-1d64-411f-977b-8ad7cf6eb61c","system_id":"levelo_inurba_marseille","lat":43.292311,"lon":5.360731,"is_reserved":false,"is_disabled":false,"rental_uris":{"android":"levelo://app?vid=726d195a-1d64-411f-977b-8ad7cf6eb61c","ios":"levelo://app?vid=726d195a-1d64-411f-977b-8ad7cf6eb61c"},"vehicle_type_id":"4","last_reported":1720800613,"current_range_meters":30400,"station_id":"ce4bhbh2rcd13ifvqeqg","pricing_plan_id":"cebpf4jnsgd1na2vs0mg"},{"bike_id":"f9a0c73e-9cc0-4f9a-9e5a-b4c34e824287","system_id":"levelo_inurba_marseille","lat":43.298764,"lon":5.388973,"is_reserved":false,"is_disabled":false,"rental_uris":{"android":"levelo://app?vid=f9a0c73e-9cc0-4f9a-9e5a-b4c34e824287","ios":"levelo://app?vid=f9a0c73e-9cc0-4f9a-9e5a-b4c34e824287"},"vehicle_type_id":"4","last_reported":1720800613,"current_range_meters":0,"station_id":"ce4bh392rcd13ifvqdl0","pricing_plan_id":"cebpf4jnsgd1na2vs0mg"},{"bike_id":"460e7914-2def-4b7a-9166-ab697b4b3802","system_id":"levelo_inurba_marseille","lat":43.298764,"lon":5.388973,"is_reserved":false,"is_disabled":false,"rental_uris":{"android":"levelo://app?vid=460e7914-2def-4b7a-9166-ab697b4b3802","ios":"levelo://app?vid=460e7914-2def-4b7a-9166-ab697b4b3802"},"vehicle_type_id":"4","last_reported":1720800613,"current_range_meters":13600,"station_id":"ce4bh392rcd13ifvqdl0","pricing_plan_id":"cebpf4jnsgd1na2vs0mg"},{"bike_id":"61943912-b816-4bb3-86f4-5d5c84e88d88","system_id":"levelo_inurba_marseille","lat":43.298764,"lon":5.388973,"is_reserved":false,"is_disabled":false,"rental_uris":{"android":"levelo://app?vid=61943912-b816-4bb3-86f4-5d5c84e88d88","ios":"levelo://app?vid=61943912-b816-4bb3-86f4-5d5c84e88d88"},"vehicle_type_id":"4","last_reported":1720800613,"current_range_meters":13200,"station_id":"ce4bh392rcd13ifvqdl0","pricing_plan_id":"cebpf4jnsgd1na2vs0mg"},{"bike_id":"289bab56-9942-4daf-b0c5-ee9ff61d6898","system_id":"levelo_inurba_marseille","lat":43.292005,"lon":5.357875,"is_reserved":false,"is_disabled":false,"rental_uris":{"android":"levelo://app?vid=289bab56-9942-4daf-b0c5-ee9ff61d6898","ios":"levelo://app?vid=289bab56-9942-4daf-b0c5-ee9ff61d6898"},"vehicle_type_id":"4","last_reported":1720800613,"current_range_meters":4000,"station_id":"ce4bhb12rcd13ifvqel0","pricing_plan_id":"cebpf4jnsgd1na2vs0mg"},{"bike_id":"be4a929e-0cbc-4ae0-857b-487d4b27631b","system_id":"levelo_inurba_marseille","lat":43.29189,"lon":5.35803,"is_reserved":false,"is_disabled":false,"rental_uris":{"android":"levelo://app?vid=be4a929e-0cbc-4ae0-857b-487d4b27631b","ios":"levelo://app?vid=be4a929e-0cbc-4ae0-857b-487d4b27631b"},"vehicle_type_id":"4","last_reported":1720800613,"current_range_meters":0,"station_id":"ce4bhb12rcd13ifvqel0","pricing_plan_id":"cebpf4jnsgd1na2vs0mg"},{"bike_id":"1558c470-0c32-4e25-b068-8715436a4674","system_id":"levelo_inurba_marseille","lat":43.313291,"lon":5.396838,"is_reserved":false,"is_disabled":false,"rental_uris":{"android":"levelo://app?vid=1558c470-0c32-4e25-b068-8715436a4674","ios":"levelo://app?vid=1558c470-0c32-4e25-b068-8715436a4674"},"vehicle_type_id":"4","last_reported":1720800613,"current_range_meters":17200,"station_id":"ce4bgvp2rcd13ifvqcu0","pricing_plan_id":"cebpf4jnsgd1na2vs0mg"},{"bike_id":"a1f11fae-e3f8-48ba-822f-c038771b5294","system_id":"levelo_inurba_marseille","lat":43.309038,"lon":5.396546,"is_reserved":false,"is_disabled":false,"rental_uris":{"android":"levelo://app?vid=a1f11fae-e3f8-48ba-822f-c038771b5294","ios":"levelo://app?vid=a1f11fae-e3f8-48ba-822f-c038771b5294"},"vehicle_type_id":"4","last_reported":1720800613,"current_range_meters":16000,"station_id":"ce4bh012rcd13ifvqcv0","pricing_plan_id":"cebpf4jnsgd1na2vs0mg"},{"bike_id":"4dc05dbb-e65a-45c5-b834-a3e17a15f731","system_id":"levelo_inurba_marseille","lat":43.29529,"lon":5.385581,"is_reserved":false,"is_disabled":false,"rental_uris":{"android":"levelo://app?vid=4dc05dbb-e65a-45c5-b834-a3e17a15f731","ios":"levelo://app?vid=4dc05dbb-e65a-45c5-b834-a3e17a15f731"},"vehicle_type_id":"4","last_reported":1720800613,"current_range_meters":6000,"station_id":"ce4bgih2rcd13ifvqba0","pricing_plan_id":"cebpf4jnsgd1na2vs0mg"},{"bike_id":"c0f9477b-afea-43f7-8087-25a2bc6918e7","system_id":"levelo_inurba_marseille","lat":43.309047,"lon":5.396551,"is_reserved":false,"is_disabled":false,"rental_uris":{"android":"levelo://app?vid=c0f9477b-afea-43f7-8087-25a2bc6918e7","ios":"levelo://app?vid=c0f9477b-afea-43f7-8087-25a2bc6918e7"},"vehicle_type_id":"4","last_reported":1720800613,"current_range_meters":14000,"station_id":"ce4bh012rcd13ifvqcv0","pricing_plan_id":"cebpf4jnsgd1na2vs0mg"},{"bike_id":"b627d508-7c6a-4e97-a3fc-0f289ed7c191","system_id":"levelo_inurba_marseille","lat":43.29529,"lon":5.385581,"is_reserved":false,"is_disabled":false,"rental_uris":{"android":"levelo://app?vid=b627d508-7c6a-4e97-a3fc-0f289ed7c191","ios":"levelo://app?vid=b627d508-7c6a-4e97-a3fc-0f289ed7c191"},"vehicle_type_id":"4","last_reported":1720800613,"current_range_meters":0,"station_id":"ce4bgih2rcd13ifvqba0","pricing_plan_id":"cebpf4jnsgd1na2vs0mg"},{"bike_id":"b50f0b8c-f134-4216-ae61-6b349c2d7803","system_id":"levelo_inurba_marseille","lat":43.29124,"lon":5.375445,"is_reserved":false,"is_disabled":false,"rental_uris":{"android":"levelo://app?vid=b50f0b8c-f134-4216-ae61-6b349c2d7803","ios":"levelo://app?vid=b50f0b8c-f134-4216-ae61-6b349c2d7803"},"vehicle_type_id":"4","last_reported":1720800613,"current_range_meters":800,"station_id":"","pricing_plan_id":"cebpf4jnsgd1na2vs0mg"},{"bike_id":"b87c44ab-233b-4277-a0aa-381cdeb2f865","system_id":"levelo_inurba_marseille","lat":43.29875,"lon":5.39135,"is_reserved":false,"is_disabled":false,"rental_uris":{"android":"levelo://app?vid=b87c44ab-233b-4277-a0aa-381cdeb2f865","ios":"levelo://app?vid=b87c44ab-233b-4277-a0aa-381cdeb2f865"},"vehicle_type_id":"4","last_reported":1720800613,"current_range_meters":7600,"station_id":"","pricing_plan_id":"cebpf4jnsgd1na2vs0mg"},{"bike_id":"d7593862-4105-421e-9d84-2961cd85e72d","system_id":"levelo_inurba_marseille","lat":43.302169,"lon":5.394743,"is_reserved":false,"is_disabled":false,"rental_uris":{"android":"levelo://app?vid=d7593862-4105-421e-9d84-2961cd85e72d","ios":"levelo://app?vid=d7593862-4105-421e-9d84-2961cd85e72d"},"vehicle_type_id":"4","last_reported":1720800613,"current_range_meters":0,"station_id":"ce4bh0p2rcd13ifvqd70","pricing_plan_id":"cebpf4jnsgd1na2vs0mg"},{"bike_id":"9dddb9c2-56f7-4fe9-a596-0dafaf7c3f61","system_id":"levelo_inurba_marseille","lat":43.290624,"lon":5.359245,"is_reserved":false,"is_disabled":false,"rental_uris":{"android":"levelo://app?vid=9dddb9c2-56f7-4fe9-a596-0dafaf7c3f61","ios":"levelo://app?vid=9dddb9c2-56f7-4fe9-a596-0dafaf7c3f61"},"vehicle_type_id":"4","last_reported":1720800613,"current_range_meters":14000,"station_id":"ce4bha92rcd13ifvqeg0","pricing_plan_id":"cebpf4jnsgd1na2vs0mg"},{"bike_id":"9411faab-8889-46d8-89c1-cd9b87f75046","system_id":"levelo_inurba_marseille","lat":43.290631,"lon":5.359244,"is_reserved":false,"is_disabled":false,"rental_uris":{"android":"levelo://app?vid=9411faab-8889-46d8-89c1-cd9b87f75046","ios":"levelo://app?vid=9411faab-8889-46d8-89c1-cd9b87f75046"},"vehicle_type_id":"4","last_reported":1720800613,"current_range_meters":16000,"station_id":"ce4bha92rcd13ifvqeg0","pricing_plan_id":"cebpf4jnsgd1na2vs0mg"},{"bike_id":"ab571a34-b4bb-450b-a8c8-ff1f64efb566","system_id":"levelo_inurba_marseille","lat":43.294153,"lon":5.386305,"is_reserved":false,"is_disabled":false,"rental_uris":{"android":"levelo://app?vid=ab571a34-b4bb-450b-a8c8-ff1f64efb566","ios":"levelo://app?vid=ab571a34-b4bb-450b-a8c8-ff1f64efb566"},"vehicle_type_id":"4","last_reported":1720800613,"current_range_meters":0,"station_id":"ce4bh2h2rcd13ifvqdh0","pricing_plan_id":"cebpf4jnsgd1na2vs0mg"},{"bike_id":"04536cc4-588c-46b0-bfba-560d80798268","system_id":"levelo_inurba_marseille","lat":43.294153,"lon":5.386305,"is_reserved":false,"is_disabled":false,"rental_uris":{"android":"levelo://app?vid=04536cc4-588c-46b0-bfba-560d80798268","ios":"levelo://app?vid=04536cc4-588c-46b0-bfba-560d80798268"},"vehicle_type_id":"4","last_reported":1720800613,"current_range_meters":29200,"station_id":"ce4bh2h2rcd13ifvqdh0","pricing_plan_id":"cebpf4jnsgd1na2vs0mg"},{"bike_id":"230c3a5f-8fa0-44d8-b034-206f5951d942","system_id":"levelo_inurba_marseille","lat":43.294162,"lon":5.386292,"is_reserved":false,"is_disabled":false,"rental_uris":{"android":"levelo://app?vid=230c3a5f-8fa0-44d8-b034-206f5951d942","ios":"levelo://app?vid=230c3a5f-8fa0-44d8-b034-206f5951d942"},"vehicle_type_id":"4","last_reported":1720800613,"current_range_meters":0,"station_id":"ce4bh2h2rcd13ifvqdh0","pricing_plan_id":"cebpf4jnsgd1na2vs0mg"},{"bike_id":"12521d00-ab31-4d00-9ea1-40daab8c3237","system_id":"levelo_inurba_marseille","lat":43.289184,"lon":5.366408,"is_reserved":false,"is_disabled":false,"rental_uris":{"android":"levelo://app?vid=12521d00-ab31-4d00-9ea1-40daab8c3237","ios":"levelo://app?vid=12521d00-ab31-4d00-9ea1-40daab8c3237"},"vehicle_type_id":"4","last_reported":1720800613,"current_range_meters":27200,"station_id":"ce4bhap2rcd13ifvqek0","pricing_plan_id":"cebpf4jnsgd1na2vs0mg"},{"bike_id":"58b7caf1-73e1-4ca7-a760-ca4ee47acce8","system_id":"levelo_inurba_marseille","lat":43.294153,"lon":5.386305,"is_reserved":false,"is_disabled":false,"rental_uris":{"android":"levelo://app?vid=58b7caf1-73e1-4ca7-a760-ca4ee47acce8","ios":"levelo://app?vid=58b7caf1-73e1-4ca7-a760-ca4ee47acce8"},"vehicle_type_id":"4","last_reported":1720800613,"current_range_meters":5600,"station_id":"ce4bh2h2rcd13ifvqdh0","pricing_plan_id":"cebpf4jnsgd1na2vs0mg"},{"bike_id":"a04fdce6-830d-4f80-81a7-a3d102cf1f8c","system_id":"levelo_inurba_marseille","lat":43.289184,"lon":5.366408,"is_reserved":false,"is_disabled":false,"rental_uris":{"android":"levelo://app?vid=a04fdce6-830d-4f80-81a7-a3d102cf1f8c","ios":"levelo://app?vid=a04fdce6-830d-4f80-81a7-a3d102cf1f8c"},"vehicle_type_id":"4","last_reported":1720800613,"current_range_meters":10400,"station_id":"ce4bhap2rcd13ifvqek0","pricing_plan_id":"cebpf4jnsgd1na2vs0mg"},{"bike_id":"58ec7138-3327-4a81-9c17-56dd2c6bcb88","system_id":"levelo_inurba_marseille","lat":43.289468,"lon":5.363719,"is_reserved":false,"is_disabled":false,"rental_uris":{"android":"levelo://app?vid=58ec7138-3327-4a81-9c17-56dd2c6bcb88","ios":"levelo://app?vid=58ec7138-3327-4a81-9c17-56dd2c6bcb88"},"vehicle_type_id":"4","last_reported":1720800613,"current_range_meters":2400,"station_id":"ce4bhc92rcd13ifvqetg","pricing_plan_id":"cebpf4jnsgd1na2vs0mg"},{"bike_id":"343e03d4-d57a-4f54-a080-f220b60f484e","system_id":"levelo_inurba_marseille","lat":43.289468,"lon":5.363719,"is_reserved":false,"is_disabled":false,"rental_uris":{"android":"levelo://app?vid=343e03d4-d57a-4f54-a080-f220b60f484e","ios":"levelo://app?vid=343e03d4-d57a-4f54-a080-f220b60f484e"},"vehicle_type_id":"4","last_reported":1720800613,"current_range_meters":2000,"station_id":"ce4bhc92rcd13ifvqetg","pricing_plan_id":"cebpf4jnsgd1na2vs0mg"},{"bike_id":"b3a2045d-864d-40f3-89a5-061d45ac312f","system_id":"levelo_inurba_marseille","lat":43.289468,"lon":5.363719,"is_reserved":false,"is_disabled":false,"rental_uris":{"android":"levelo://app?vid=b3a2045d-864d-40f3-89a5-061d45ac312f","ios":"levelo://app?vid=b3a2045d-864d-40f3-89a5-061d45ac312f"},"vehicle_type_id":"4","last_reported":1720800613,"current_range_meters":26400,"station_id":"ce4bhc92rcd13ifvqetg","pricing_plan_id":"cebpf4jnsgd1na2vs0mg"},{"bike_id":"1408bfe9-5ce0-4ca8-bc44-e07f7a8f6f59","system_id":"levelo_inurba_marseille","lat":43.28929,"lon":5.3664,"is_reserved":false,"is_disabled":false,"rental_uris":{"android":"levelo://app?vid=1408bfe9-5ce0-4ca8-bc44-e07f7a8f6f59","ios":"levelo://app?vid=1408bfe9-5ce0-4ca8-bc44-e07f7a8f6f59"},"vehicle_type_id":"4","last_reported":1720800613,"current_range_meters":4400,"station_id":"ce4bhap2rcd13ifvqek0","pricing_plan_id":"cebpf4jnsgd1na2vs0mg"},{"bike_id":"474d951c-1edb-4e10-b585-9749b3eaa98b","system_id":"levelo_inurba_marseille","lat":43.289468,"lon":5.363719,"is_reserved":false,"is_disabled":false,"rental_uris":{"android":"levelo://app?vid=474d951c-1edb-4e10-b585-9749b3eaa98b","ios":"levelo://app?vid=474d951c-1edb-4e10-b585-9749b3eaa98b"},"vehicle_type_id":"4","last_reported":1720800613,"current_range_meters":0,"station_id":"ce4bhc92rcd13ifvqetg","pricing_plan_id":"cebpf4jnsgd1na2vs0mg"},{"bike_id":"4e6eac43-d223-4f8f-9e27-81831520de90","system_id":"levelo_inurba_marseille","lat":43.30435,"lon":5.39749,"is_reserved":false,"is_disabled":false,"rental_uris":{"android":"levelo://app?vid=4e6eac43-d223-4f8f-9e27-81831520de90","ios":"levelo://app?vid=4e6eac43-d223-4f8f-9e27-81831520de90"},"vehicle_type_id":"4","last_reported":1720800613,"current_range_meters":0,"station_id":"ce4bh092rcd13ifvqd20","pricing_plan_id":"cebpf4jnsgd1na2vs0mg"},{"bike_id":"67b43ca4-2f79-4d69-a39a-d56c7ea2cc53","system_id":"levelo_inurba_marseille","lat":43.304274,"lon":5.397513,"is_reserved":false,"is_disabled":false,"rental_uris":{"android":"levelo://app?vid=67b43ca4-2f79-4d69-a39a-d56c7ea2cc53","ios":"levelo://app?vid=67b43ca4-2f79-4d69-a39a-d56c7ea2cc53"},"vehicle_type_id":"4","last_reported":1720800613,"current_range_meters":10000,"station_id":"ce4bh092rcd13ifvqd20","pricing_plan_id":"cebpf4jnsgd1na2vs0mg"},{"bike_id":"a840453c-b2c3-453e-966f-252c5c8fd7b6","system_id":"levelo_inurba_marseille","lat":43.304274,"lon":5.397513,"is_reserved":false,"is_disabled":false,"rental_uris":{"android":"levelo://app?vid=a840453c-b2c3-453e-966f-252c5c8fd7b6","ios":"levelo://app?vid=a840453c-b2c3-453e-966f-252c5c8fd7b6"},"vehicle_type_id":"4","last_reported":1720800613,"current_range_meters":9200,"station_id":"ce4bh092rcd13ifvqd20","pricing_plan_id":"cebpf4jnsgd1na2vs0mg"},{"bike_id":"8a4e6752-321e-4696-97d6-a7ff38de199f","system_id":"levelo_inurba_marseille","lat":43.304274,"lon":5.397513,"is_reserved":false,"is_disabled":false,"rental_uris":{"android":"levelo://app?vid=8a4e6752-321e-4696-97d6-a7ff38de199f","ios":"levelo://app?vid=8a4e6752-321e-4696-97d6-a7ff38de199f"},"vehicle_type_id":"4","last_reported":1720800613,"current_range_meters":20400,"station_id":"ce4bh092rcd13ifvqd20","pricing_plan_id":"cebpf4jnsgd1na2vs0mg"},{"bike_id":"143b540a-baf3-4569-a224-5573730fbe02","system_id":"levelo_inurba_marseille","lat":43.29012,"lon":5.35615,"is_reserved":false,"is_disabled":false,"rental_uris":{"android":"levelo://app?vid=143b540a-baf3-4569-a224-5573730fbe02","ios":"levelo://app?vid=143b540a-baf3-4569-a224-5573730fbe02"},"vehicle_type_id":"4","last_reported":1720800613,"current_range_meters":0,"station_id":"ce4bhb92rcd13ifvqen0","pricing_plan_id":"cebpf4jnsgd1na2vs0mg"},{"bike_id":"9d0163f3-060d-4134-afab-69aa40f03c51","system_id":"levelo_inurba_marseille","lat":43.290104,"lon":5.356111,"is_reserved":false,"is_disabled":false,"rental_uris":{"android":"levelo://app?vid=9d0163f3-060d-4134-afab-69aa40f03c51","ios":"levelo://app?vid=9d0163f3-060d-4134-afab-69aa40f03c51"},"vehicle_type_id":"4","last_reported":1720800613,"current_range_meters":4000,"station_id":"ce4bhb92rcd13ifvqen0","pricing_plan_id":"cebpf4jnsgd1na2vs0mg"},{"bike_id":"7de947a5-0a35-4746-b3bc-229557fdb8f8","system_id":"levelo_inurba_marseille","lat":43.29008,"lon":5.35617,"is_reserved":false,"is_disabled":false,"rental_uris":{"android":"levelo://app?vid=7de947a5-0a35-4746-b3bc-229557fdb8f8","ios":"levelo://app?vid=7de947a5-0a35-4746-b3bc-229557fdb8f8"},"vehicle_type_id":"4","last_reported":1720800613,"current_range_meters":0,"station_id":"ce4bhb92rcd13ifvqen0","pricing_plan_id":"cebpf4jnsgd1na2vs0mg"},{"bike_id":"94c96b1d-7634-407a-baf6-baea26e9f627","system_id":"levelo_inurba_marseille","lat":43.290104,"lon":5.356111,"is_reserved":false,"is_disabled":false,"rental_uris":{"android":"levelo://app?vid=94c96b1d-7634-407a-baf6-baea26e9f627","ios":"levelo://app?vid=94c96b1d-7634-407a-baf6-baea26e9f627"},"vehicle_type_id":"4","last_reported":1720800613,"current_range_meters":7200,"station_id":"ce4bhb92rcd13ifvqen0","pricing_plan_id":"cebpf4jnsgd1na2vs0mg"},{"bike_id":"3925249e-a3b1-4690-84b7-01b7e1bf6a0c","system_id":"levelo_inurba_marseille","lat":43.29003,"lon":5.35625,"is_reserved":false,"is_disabled":false,"rental_uris":{"android":"levelo://app?vid=3925249e-a3b1-4690-84b7-01b7e1bf6a0c","ios":"levelo://app?vid=3925249e-a3b1-4690-84b7-01b7e1bf6a0c"},"vehicle_type_id":"4","last_reported":1720800613,"current_range_meters":28000,"station_id":"ce4bhb92rcd13ifvqen0","pricing_plan_id":"cebpf4jnsgd1na2vs0mg"},{"bike_id":"4a763ccf-eee4-49bb-b285-380d8b9345a0","system_id":"levelo_inurba_marseille","lat":43.29006,"lon":5.35611,"is_reserved":false,"is_disabled":false,"rental_uris":{"android":"levelo://app?vid=4a763ccf-eee4-49bb-b285-380d8b9345a0","ios":"levelo://app?vid=4a763ccf-eee4-49bb-b285-380d8b9345a0"},"vehicle_type_id":"4","last_reported":1720800613,"current_range_meters":3600,"station_id":"ce4bhb92rcd13ifvqen0","pricing_plan_id":"cebpf4jnsgd1na2vs0mg"},{"bike_id":"d4dd1697-2d91-4fa4-ae4c-9c72de889084","system_id":"levelo_inurba_marseille","lat":43.29002,"lon":5.3562,"is_reserved":false,"is_disabled":false,"rental_uris":{"android":"levelo://app?vid=d4dd1697-2d91-4fa4-ae4c-9c72de889084","ios":"levelo://app?vid=d4dd1697-2d91-4fa4-ae4c-9c72de889084"},"vehicle_type_id":"4","last_reported":1720800613,"current_range_meters":21600,"station_id":"ce4bhb92rcd13ifvqen0","pricing_plan_id":"cebpf4jnsgd1na2vs0mg"},{"bike_id":"10ff942d-e3f7-4e2b-ba74-c1aa5b0a1db8","system_id":"levelo_inurba_marseille","lat":43.290104,"lon":5.356111,"is_reserved":false,"is_disabled":false,"rental_uris":{"android":"levelo://app?vid=10ff942d-e3f7-4e2b-ba74-c1aa5b0a1db8","ios":"levelo://app?vid=10ff942d-e3f7-4e2b-ba74-c1aa5b0a1db8"},"vehicle_type_id":"4","last_reported":1720800613,"current_range_meters":8800,"station_id":"ce4bhb92rcd13ifvqen0","pricing_plan_id":"cebpf4jnsgd1na2vs0mg"},{"bike_id":"0b08f899-0de1-4169-92e8-2308bb007945","system_id":"levelo_inurba_marseille","lat":43.29002,"lon":5.3561,"is_reserved":false,"is_disabled":false,"rental_uris":{"android":"levelo://app?vid=0b08f899-0de1-4169-92e8-2308bb007945","ios":"levelo://app?vid=0b08f899-0de1-4169-92e8-2308bb007945"},"vehicle_type_id":"4","last_reported":1720800613,"current_range_meters":0,"station_id":"ce4bhb92rcd13ifvqen0","pricing_plan_id":"cebpf4jnsgd1na2vs0mg"},{"bike_id":"c814ce37-5c27-4320-a400-47117b83ed89","system_id":"levelo_inurba_marseille","lat":43.290995,"lon":5.381361,"is_reserved":false,"is_disabled":false,"rental_uris":{"android":"levelo://app?vid=c814ce37-5c27-4320-a400-47117b83ed89","ios":"levelo://app?vid=c814ce37-5c27-4320-a400-47117b83ed89"},"vehicle_type_id":"4","last_reported":1720800613,"current_range_meters":1200,"station_id":"ce4bh512rcd13ifvqe2g","pricing_plan_id":"cebpf4jnsgd1na2vs0mg"},{"bike_id":"49025425-b4e6-467e-aa75-0231ef22b05d","system_id":"levelo_inurba_marseille","lat":43.29786,"lon":5.39328,"is_reserved":false,"is_disabled":false,"rental_uris":{"android":"levelo://app?vid=49025425-b4e6-467e-aa75-0231ef22b05d","ios":"levelo://app?vid=49025425-b4e6-467e-aa75-0231ef22b05d"},"vehicle_type_id":"4","last_reported":1720800613,"current_range_meters":8000,"station_id":"chh1huq6cuj3fo74tm60","pricing_plan_id":"cebpf4jnsgd1na2vs0mg"},{"bike_id":"2ccf10b4-6bec-407c-a66b-61744e9654e8","system_id":"levelo_inurba_marseille","lat":43.28981,"lon":5.37831,"is_reserved":false,"is_disabled":false,"rental_uris":{"android":"levelo://app?vid=2ccf10b4-6bec-407c-a66b-61744e9654e8","ios":"levelo://app?vid=2ccf10b4-6bec-407c-a66b-61744e9654e8"},"vehicle_type_id":"4","last_reported":1720800613,"current_range_meters":11200,"station_id":"ce4bh9p2rcd13ifvqed0","pricing_plan_id":"cebpf4jnsgd1na2vs0mg"},{"bike_id":"0a0003bc-c999-469c-a4fa-8528aa9325d2","system_id":"levelo_inurba_marseille","lat":43.33018,"lon":5.39037,"is_reserved":false,"is_disabled":false,"rental_uris":{"android":"levelo://app?vid=0a0003bc-c999-469c-a4fa-8528aa9325d2","ios":"levelo://app?vid=0a0003bc-c999-469c-a4fa-8528aa9325d2"},"vehicle_type_id":"4","last_reported":1720800613,"current_range_meters":24400,"station_id":"ce4bhr92rcd13ifvqhrg","pricing_plan_id":"cebpf4jnsgd1na2vs0mg"},{"bike_id":"62c53a5e-df38-40d6-a7be-3c1f4e0bf541","system_id":"levelo_inurba_marseille","lat":43.297815,"lon":5.393548,"is_reserved":false,"is_disabled":false,"rental_uris":{"android":"levelo://app?vid=62c53a5e-df38-40d6-a7be-3c1f4e0bf541","ios":"levelo://app?vid=62c53a5e-df38-40d6-a7be-3c1f4e0bf541"},"vehicle_type_id":"4","last_reported":1720800613,"current_range_meters":2800,"station_id":"chh1huq6cuj3fo74tm60","pricing_plan_id":"cebpf4jnsgd1na2vs0mg"},{"bike_id":"d0cda65e-c207-493d-a12c-0671ba7d0f3b","system_id":"levelo_inurba_marseille","lat":43.3302,"lon":5.39039,"is_reserved":false,"is_disabled":false,"rental_uris":{"android":"levelo://app?vid=d0cda65e-c207-493d-a12c-0671ba7d0f3b","ios":"levelo://app?vid=d0cda65e-c207-493d-a12c-0671ba7d0f3b"},"vehicle_type_id":"4","last_reported":1720800613,"current_range_meters":31200,"station_id":"ce4bhr92rcd13ifvqhrg","pricing_plan_id":"cebpf4jnsgd1na2vs0mg"},{"bike_id":"154f043a-d3e9-49ab-84b0-5bd7b9a3744f","system_id":"levelo_inurba_marseille","lat":43.33018,"lon":5.390431,"is_reserved":false,"is_disabled":false,"rental_uris":{"android":"levelo://app?vid=154f043a-d3e9-49ab-84b0-5bd7b9a3744f","ios":"levelo://app?vid=154f043a-d3e9-49ab-84b0-5bd7b9a3744f"},"vehicle_type_id":"4","last_reported":1720800613,"current_range_meters":20000,"station_id":"ce4bhr92rcd13ifvqhrg","pricing_plan_id":"cebpf4jnsgd1na2vs0mg"},{"bike_id":"ac6f4624-f775-4276-a78f-e81896fcf4ea","system_id":"levelo_inurba_marseille","lat":43.33022,"lon":5.3904,"is_reserved":false,"is_disabled":false,"rental_uris":{"android":"levelo://app?vid=ac6f4624-f775-4276-a78f-e81896fcf4ea","ios":"levelo://app?vid=ac6f4624-f775-4276-a78f-e81896fcf4ea"},"vehicle_type_id":"4","last_reported":1720800613,"current_range_meters":24800,"station_id":"ce4bhr92rcd13ifvqhrg","pricing_plan_id":"cebpf4jnsgd1na2vs0mg"},{"bike_id":"e6ab647b-d309-426c-97d7-511af03f15ba","system_id":"levelo_inurba_marseille","lat":43.33022,"lon":5.39043,"is_reserved":false,"is_disabled":false,"rental_uris":{"android":"levelo://app?vid=e6ab647b-d309-426c-97d7-511af03f15ba","ios":"levelo://app?vid=e6ab647b-d309-426c-97d7-511af03f15ba"},"vehicle_type_id":"4","last_reported":1720800613,"current_range_meters":30000,"station_id":"ce4bhr92rcd13ifvqhrg","pricing_plan_id":"cebpf4jnsgd1na2vs0mg"},{"bike_id":"5bf2bb2a-e043-4910-9637-9df85850bdd3","system_id":"levelo_inurba_marseille","lat":43.33028,"lon":5.39037,"is_reserved":false,"is_disabled":false,"rental_uris":{"android":"levelo://app?vid=5bf2bb2a-e043-4910-9637-9df85850bdd3","ios":"levelo://app?vid=5bf2bb2a-e043-4910-9637-9df85850bdd3"},"vehicle_type_id":"4","last_reported":1720800613,"current_range_meters":16400,"station_id":"ce4bhr92rcd13ifvqhrg","pricing_plan_id":"cebpf4jnsgd1na2vs0mg"},{"bike_id":"2bc86392-c2c0-4be6-bdfc-b48e1b8cba4e","system_id":"levelo_inurba_marseille","lat":43.33024,"lon":5.39044,"is_reserved":false,"is_disabled":false,"rental_uris":{"android":"levelo://app?vid=2bc86392-c2c0-4be6-bdfc-b48e1b8cba4e","ios":"levelo://app?vid=2bc86392-c2c0-4be6-bdfc-b48e1b8cba4e"},"vehicle_type_id":"4","last_reported":1720800613,"current_range_meters":27200,"station_id":"ce4bhr92rcd13ifvqhrg","pricing_plan_id":"cebpf4jnsgd1na2vs0mg"},{"bike_id":"d0b3a22b-c767-47bd-bc44-0d2387711cd5","system_id":"levelo_inurba_marseille","lat":43.330442,"lon":5.389148,"is_reserved":false,"is_disabled":false,"rental_uris":{"android":"levelo://app?vid=d0b3a22b-c767-47bd-bc44-0d2387711cd5","ios":"levelo://app?vid=d0b3a22b-c767-47bd-bc44-0d2387711cd5"},"vehicle_type_id":"4","last_reported":1720800613,"current_range_meters":28400,"station_id":"ce4bhr92rcd13ifvqhrg","pricing_plan_id":"cebpf4jnsgd1na2vs0mg"},{"bike_id":"db52e3fa-2fc0-4b21-b1db-938e47b2a732","system_id":"levelo_inurba_marseille","lat":43.33024,"lon":5.39047,"is_reserved":false,"is_disabled":false,"rental_uris":{"android":"levelo://app?vid=db52e3fa-2fc0-4b21-b1db-938e47b2a732","ios":"levelo://app?vid=db52e3fa-2fc0-4b21-b1db-938e47b2a732"},"vehicle_type_id":"4","last_reported":1720800613,"current_range_meters":0,"station_id":"ce4bhr92rcd13ifvqhrg","pricing_plan_id":"cebpf4jnsgd1na2vs0mg"},{"bike_id":"5ea68a37-bd47-4e61-b7b2-9f6652a5c4ff","system_id":"levelo_inurba_marseille","lat":43.297815,"lon":5.393548,"is_reserved":false,"is_disabled":false,"rental_uris":{"android":"levelo://app?vid=5ea68a37-bd47-4e61-b7b2-9f6652a5c4ff","ios":"levelo://app?vid=5ea68a37-bd47-4e61-b7b2-9f6652a5c4ff"},"vehicle_type_id":"4","last_reported":1720800613,"current_range_meters":11200,"station_id":"chh1huq6cuj3fo74tm60","pricing_plan_id":"cebpf4jnsgd1na2vs0mg"},{"bike_id":"6dd91fce-db9a-45ab-ad3c-a70e7bd59ddd","system_id":"levelo_inurba_marseille","lat":43.330442,"lon":5.389148,"is_reserved":false,"is_disabled":false,"rental_uris":{"android":"levelo://app?vid=6dd91fce-db9a-45ab-ad3c-a70e7bd59ddd","ios":"levelo://app?vid=6dd91fce-db9a-45ab-ad3c-a70e7bd59ddd"},"vehicle_type_id":"4","last_reported":1720800613,"current_range_meters":19200,"station_id":"ce4bhr92rcd13ifvqhrg","pricing_plan_id":"cebpf4jnsgd1na2vs0mg"},{"bike_id":"c1572583-79cb-42c2-8578-cf987cde059e","system_id":"levelo_inurba_marseille","lat":43.31276,"lon":5.40167,"is_reserved":false,"is_disabled":false,"rental_uris":{"android":"levelo://app?vid=c1572583-79cb-42c2-8578-cf987cde059e","ios":"levelo://app?vid=c1572583-79cb-42c2-8578-cf987cde059e"},"vehicle_type_id":"4","last_reported":1720800613,"current_range_meters":0,"station_id":"ce4bh092rcd13ifvqd30","pricing_plan_id":"cebpf4jnsgd1na2vs0mg"},{"bike_id":"17f331d0-7a10-4bdd-84a7-2370b16b06aa","system_id":"levelo_inurba_marseille","lat":43.31271,"lon":5.40169,"is_reserved":false,"is_disabled":false,"rental_uris":{"android":"levelo://app?vid=17f331d0-7a10-4bdd-84a7-2370b16b06aa","ios":"levelo://app?vid=17f331d0-7a10-4bdd-84a7-2370b16b06aa"},"vehicle_type_id":"4","last_reported":1720800613,"current_range_meters":0,"station_id":"ce4bh092rcd13ifvqd30","pricing_plan_id":"cebpf4jnsgd1na2vs0mg"},{"bike_id":"6e136d8c-2cb8-40e0-b925-fa6bc58ec452","system_id":"levelo_inurba_marseille","lat":43.336713,"lon":5.355763,"is_reserved":false,"is_disabled":false,"rental_uris":{"android":"levelo://app?vid=6e136d8c-2cb8-40e0-b925-fa6bc58ec452","ios":"levelo://app?vid=6e136d8c-2cb8-40e0-b925-fa6bc58ec452"},"vehicle_type_id":"4","last_reported":1720800613,"current_range_meters":15200,"station_id":"","pricing_plan_id":"cebpf4jnsgd1na2vs0mg"},{"bike_id":"7eda1e7d-b15c-4507-a807-6a77db903ee7","system_id":"levelo_inurba_marseille","lat":43.337445,"lon":5.374529,"is_reserved":false,"is_disabled":false,"rental_uris":{"android":"levelo://app?vid=7eda1e7d-b15c-4507-a807-6a77db903ee7","ios":"levelo://app?vid=7eda1e7d-b15c-4507-a807-6a77db903ee7"},"vehicle_type_id":"4","last_reported":1720800613,"current_range_meters":10000,"station_id":"","pricing_plan_id":"cebpf4jnsgd1na2vs0mg"},{"bike_id":"dfb347d1-96d9-4a76-998c-8e80f634a7b9","system_id":"levelo_inurba_marseille","lat":43.312609,"lon":5.401662,"is_reserved":false,"is_disabled":false,"rental_uris":{"android":"levelo://app?vid=dfb347d1-96d9-4a76-998c-8e80f634a7b9","ios":"levelo://app?vid=dfb347d1-96d9-4a76-998c-8e80f634a7b9"},"vehicle_type_id":"4","last_reported":1720800613,"current_range_meters":1600,"station_id":"ce4bh092rcd13ifvqd30","pricing_plan_id":"cebpf4jnsgd1na2vs0mg"},{"bike_id":"9f2d7c9a-a81e-482c-a224-aa1827c06f6e","system_id":"levelo_inurba_marseille","lat":43.30927,"lon":5.40148,"is_reserved":false,"is_disabled":false,"rental_uris":{"android":"levelo://app?vid=9f2d7c9a-a81e-482c-a224-aa1827c06f6e","ios":"levelo://app?vid=9f2d7c9a-a81e-482c-a224-aa1827c06f6e"},"vehicle_type_id":"4","last_reported":1720800613,"current_range_meters":0,"station_id":"ce4bgvp2rcd13ifvqct0","pricing_plan_id":"cebpf4jnsgd1na2vs0mg"},{"bike_id":"92a1e11b-7d3b-409a-a6a8-db221d4f87ab","system_id":"levelo_inurba_marseille","lat":43.309371,"lon":5.401449,"is_reserved":false,"is_disabled":false,"rental_uris":{"android":"levelo://app?vid=92a1e11b-7d3b-409a-a6a8-db221d4f87ab","ios":"levelo://app?vid=92a1e11b-7d3b-409a-a6a8-db221d4f87ab"},"vehicle_type_id":"4","last_reported":1720800613,"current_range_meters":15600,"station_id":"ce4bgvp2rcd13ifvqct0","pricing_plan_id":"cebpf4jnsgd1na2vs0mg"},{"bike_id":"567fd976-9350-4546-9072-0aff36bb72f4","system_id":"levelo_inurba_marseille","lat":43.306412,"lon":5.401035,"is_reserved":false,"is_disabled":false,"rental_uris":{"android":"levelo://app?vid=567fd976-9350-4546-9072-0aff36bb72f4","ios":"levelo://app?vid=567fd976-9350-4546-9072-0aff36bb72f4"},"vehicle_type_id":"4","last_reported":1720800613,"current_range_meters":0,"station_id":"ce4bh112rcd13ifvqda0","pricing_plan_id":"cebpf4jnsgd1na2vs0mg"},{"bike_id":"839ff212-0ad9-4d5d-a85b-d1580547e253","system_id":"levelo_inurba_marseille","lat":43.33758,"lon":5.37442,"is_reserved":false,"is_disabled":false,"rental_uris":{"android":"levelo://app?vid=839ff212-0ad9-4d5d-a85b-d1580547e253","ios":"levelo://app?vid=839ff212-0ad9-4d5d-a85b-d1580547e253"},"vehicle_type_id":"4","last_reported":1720800613,"current_range_meters":26400,"station_id":"","pricing_plan_id":"cebpf4jnsgd1na2vs0mg"},{"bike_id":"7db14a83-5996-4107-aac5-8660c0fb36ae","system_id":"levelo_inurba_marseille","lat":43.337583,"lon":5.374813,"is_reserved":false,"is_disabled":false,"rental_uris":{"android":"levelo://app?vid=7db14a83-5996-4107-aac5-8660c0fb36ae","ios":"levelo://app?vid=7db14a83-5996-4107-aac5-8660c0fb36ae"},"vehicle_type_id":"4","last_reported":1720800613,"current_range_meters":4000,"station_id":"","pricing_plan_id":"cebpf4jnsgd1na2vs0mg"},{"bike_id":"f8017d68-5c7c-4ca2-9c17-24543c43e137","system_id":"levelo_inurba_marseille","lat":43.301117,"lon":5.398795,"is_reserved":false,"is_disabled":false,"rental_uris":{"android":"levelo://app?vid=f8017d68-5c7c-4ca2-9c17-24543c43e137","ios":"levelo://app?vid=f8017d68-5c7c-4ca2-9c17-24543c43e137"},"vehicle_type_id":"4","last_reported":1720800613,"current_range_meters":1200,"station_id":"ce4bh0h2rcd13ifvqd40","pricing_plan_id":"cebpf4jnsgd1na2vs0mg"},{"bike_id":"f7aaa88c-ed36-4a78-b9a9-97553b5cb7e6","system_id":"levelo_inurba_marseille","lat":43.301117,"lon":5.398795,"is_reserved":false,"is_disabled":false,"rental_uris":{"android":"levelo://app?vid=f7aaa88c-ed36-4a78-b9a9-97553b5cb7e6","ios":"levelo://app?vid=f7aaa88c-ed36-4a78-b9a9-97553b5cb7e6"},"vehicle_type_id":"4","last_reported":1720800613,"current_range_meters":0,"station_id":"ce4bh0h2rcd13ifvqd40","pricing_plan_id":"cebpf4jnsgd1na2vs0mg"},{"bike_id":"1fd52301-2557-4e38-8592-0256b7144e1c","system_id":"levelo_inurba_marseille","lat":43.301117,"lon":5.398795,"is_reserved":false,"is_disabled":false,"rental_uris":{"android":"levelo://app?vid=1fd52301-2557-4e38-8592-0256b7144e1c","ios":"levelo://app?vid=1fd52301-2557-4e38-8592-0256b7144e1c"},"vehicle_type_id":"4","last_reported":1720800613,"current_range_meters":0,"station_id":"ce4bh0h2rcd13ifvqd40","pricing_plan_id":"cebpf4jnsgd1na2vs0mg"},{"bike_id":"d0ec9854-b810-4e4e-8bb0-53ca90db27b1","system_id":"levelo_inurba_marseille","lat":43.286591,"lon":5.363346,"is_reserved":false,"is_disabled":false,"rental_uris":{"android":"levelo://app?vid=d0ec9854-b810-4e4e-8bb0-53ca90db27b1","ios":"levelo://app?vid=d0ec9854-b810-4e4e-8bb0-53ca90db27b1"},"vehicle_type_id":"4","last_reported":1720800613,"current_range_meters":0,"station_id":"ce4bhah2rcd13ifvqej0","pricing_plan_id":"cebpf4jnsgd1na2vs0mg"},{"bike_id":"8bebc3ee-3465-48e8-80e2-21102ffd4422","system_id":"levelo_inurba_marseille","lat":43.2871,"lon":5.37379,"is_reserved":false,"is_disabled":false,"rental_uris":{"android":"levelo://app?vid=8bebc3ee-3465-48e8-80e2-21102ffd4422","ios":"levelo://app?vid=8bebc3ee-3465-48e8-80e2-21102ffd4422"},"vehicle_type_id":"4","last_reported":1720800613,"current_range_meters":7200,"station_id":"ce4bh3p2rcd13ifvqdq0","pricing_plan_id":"cebpf4jnsgd1na2vs0mg"},{"bike_id":"431da3e9-8d8c-4ca8-9604-d84cdcb8084d","system_id":"levelo_inurba_marseille","lat":43.29885,"lon":5.39745,"is_reserved":false,"is_disabled":false,"rental_uris":{"android":"levelo://app?vid=431da3e9-8d8c-4ca8-9604-d84cdcb8084d","ios":"levelo://app?vid=431da3e9-8d8c-4ca8-9604-d84cdcb8084d"},"vehicle_type_id":"4","last_reported":1720800613,"current_range_meters":0,"station_id":"ce4bh0h2rcd13ifvqd50","pricing_plan_id":"cebpf4jnsgd1na2vs0mg"},{"bike_id":"865812eb-4a82-4caf-b48a-81308a83b0dc","system_id":"levelo_inurba_marseille","lat":43.28663,"lon":5.36352,"is_reserved":false,"is_disabled":false,"rental_uris":{"android":"levelo://app?vid=865812eb-4a82-4caf-b48a-81308a83b0dc","ios":"levelo://app?vid=865812eb-4a82-4caf-b48a-81308a83b0dc"},"vehicle_type_id":"4","last_reported":1720800613,"current_range_meters":0,"station_id":"ce4bhah2rcd13ifvqej0","pricing_plan_id":"cebpf4jnsgd1na2vs0mg"},{"bike_id":"68be6d2f-7ee3-4699-b326-5494a68d1589","system_id":"levelo_inurba_marseille","lat":43.295196,"lon":5.39397,"is_reserved":false,"is_disabled":false,"rental_uris":{"android":"levelo://app?vid=68be6d2f-7ee3-4699-b326-5494a68d1589","ios":"levelo://app?vid=68be6d2f-7ee3-4699-b326-5494a68d1589"},"vehicle_type_id":"4","last_reported":1720800613,"current_range_meters":4800,"station_id":"ce4bh292rcd13ifvqdf0","pricing_plan_id":"cebpf4jnsgd1na2vs0mg"},{"bike_id":"e9d37155-0687-4ab6-a9a4-3f86c6f6ffaa","system_id":"levelo_inurba_marseille","lat":43.295196,"lon":5.39397,"is_reserved":false,"is_disabled":false,"rental_uris":{"android":"levelo://app?vid=e9d37155-0687-4ab6-a9a4-3f86c6f6ffaa","ios":"levelo://app?vid=e9d37155-0687-4ab6-a9a4-3f86c6f6ffaa"},"vehicle_type_id":"4","last_reported":1720800613,"current_range_meters":4400,"station_id":"ce4bh292rcd13ifvqdf0","pricing_plan_id":"cebpf4jnsgd1na2vs0mg"},{"bike_id":"7bdcc583-a848-4b92-b3ba-33defaa42dcd","system_id":"levelo_inurba_marseille","lat":43.28928,"lon":5.38404,"is_reserved":false,"is_disabled":false,"rental_uris":{"android":"levelo://app?vid=7bdcc583-a848-4b92-b3ba-33defaa42dcd","ios":"levelo://app?vid=7bdcc583-a848-4b92-b3ba-33defaa42dcd"},"vehicle_type_id":"4","last_reported":1720800613,"current_range_meters":0,"station_id":"ce4bh612rcd13ifvqe6g","pricing_plan_id":"cebpf4jnsgd1na2vs0mg"},{"bike_id":"1c35c98e-73cd-41e6-8ce4-8ba39aa8ff5c","system_id":"levelo_inurba_marseille","lat":43.302759,"lon":5.400793,"is_reserved":false,"is_disabled":false,"rental_uris":{"android":"levelo://app?vid=1c35c98e-73cd-41e6-8ce4-8ba39aa8ff5c","ios":"levelo://app?vid=1c35c98e-73cd-41e6-8ce4-8ba39aa8ff5c"},"vehicle_type_id":"4","last_reported":1720800613,"current_range_meters":0,"station_id":"ce4bgvh2rcd13ifvqcs0","pricing_plan_id":"cebpf4jnsgd1na2vs0mg"},{"bike_id":"50e6c073-bbc8-4431-a35c-257316c73915","system_id":"levelo_inurba_marseille","lat":43.29027,"lon":5.38655,"is_reserved":false,"is_disabled":false,"rental_uris":{"android":"levelo://app?vid=50e6c073-bbc8-4431-a35c-257316c73915","ios":"levelo://app?vid=50e6c073-bbc8-4431-a35c-257316c73915"},"vehicle_type_id":"4","last_reported":1720800613,"current_range_meters":3200,"station_id":"ce4bh4p2rcd13ifvqe0g","pricing_plan_id":"cebpf4jnsgd1na2vs0mg"},{"bike_id":"137c754f-3a6f-43b2-a445-c570a9830bb7","system_id":"levelo_inurba_marseille","lat":43.302759,"lon":5.400793,"is_reserved":false,"is_disabled":false,"rental_uris":{"android":"levelo://app?vid=137c754f-3a6f-43b2-a445-c570a9830bb7","ios":"levelo://app?vid=137c754f-3a6f-43b2-a445-c570a9830bb7"},"vehicle_type_id":"4","last_reported":1720800613,"current_range_meters":18000,"station_id":"ce4bgvh2rcd13ifvqcs0","pricing_plan_id":"cebpf4jnsgd1na2vs0mg"},{"bike_id":"c78a11c1-3b30-423e-bc23-8c1601e554c0","system_id":"levelo_inurba_marseille","lat":43.286039,"lon":5.370681,"is_reserved":false,"is_disabled":false,"rental_uris":{"android":"levelo://app?vid=c78a11c1-3b30-423e-bc23-8c1601e554c0","ios":"levelo://app?vid=c78a11c1-3b30-423e-bc23-8c1601e554c0"},"vehicle_type_id":"4","last_reported":1720800613,"current_range_meters":9600,"station_id":"ce4bht12rcd13ifvqi60","pricing_plan_id":"cebpf4jnsgd1na2vs0mg"},{"bike_id":"5c5a6d00-ab23-47ba-a968-5fb4ea5672ae","system_id":"levelo_inurba_marseille","lat":43.287243,"lon":5.379457,"is_reserved":false,"is_disabled":false,"rental_uris":{"android":"levelo://app?vid=5c5a6d00-ab23-47ba-a968-5fb4ea5672ae","ios":"levelo://app?vid=5c5a6d00-ab23-47ba-a968-5fb4ea5672ae"},"vehicle_type_id":"4","last_reported":1720800613,"current_range_meters":0,"station_id":"ce4bh9p2rcd13ifvqec0","pricing_plan_id":"cebpf4jnsgd1na2vs0mg"},{"bike_id":"9c2cf684-59a9-46f8-a2cb-444cec565800","system_id":"levelo_inurba_marseille","lat":43.316828,"lon":5.404723,"is_reserved":false,"is_disabled":false,"rental_uris":{"android":"levelo://app?vid=9c2cf684-59a9-46f8-a2cb-444cec565800","ios":"levelo://app?vid=9c2cf684-59a9-46f8-a2cb-444cec565800"},"vehicle_type_id":"4","last_reported":1720800613,"current_range_meters":0,"station_id":"ce4bh012rcd13ifvqd00","pricing_plan_id":"cebpf4jnsgd1na2vs0mg"},{"bike_id":"35097916-ab34-46e5-990c-46ed9e1b993d","system_id":"levelo_inurba_marseille","lat":43.291994,"lon":5.392907,"is_reserved":false,"is_disabled":false,"rental_uris":{"android":"levelo://app?vid=35097916-ab34-46e5-990c-46ed9e1b993d","ios":"levelo://app?vid=35097916-ab34-46e5-990c-46ed9e1b993d"},"vehicle_type_id":"4","last_reported":1720800613,"current_range_meters":19200,"station_id":"ce4bh192rcd13ifvqdd0","pricing_plan_id":"cebpf4jnsgd1na2vs0mg"},{"bike_id":"ea537640-788b-4977-9068-f3b991293931","system_id":"levelo_inurba_marseille","lat":43.291994,"lon":5.392907,"is_reserved":false,"is_disabled":false,"rental_uris":{"android":"levelo://app?vid=ea537640-788b-4977-9068-f3b991293931","ios":"levelo://app?vid=ea537640-788b-4977-9068-f3b991293931"},"vehicle_type_id":"4","last_reported":1720800613,"current_range_meters":21200,"station_id":"ce4bh192rcd13ifvqdd0","pricing_plan_id":"cebpf4jnsgd1na2vs0mg"},{"bike_id":"22fed9a5-81bc-49bc-b5e3-2d2ad8255195","system_id":"levelo_inurba_marseille","lat":43.284534,"lon":5.358662,"is_reserved":false,"is_disabled":false,"rental_uris":{"android":"levelo://app?vid=22fed9a5-81bc-49bc-b5e3-2d2ad8255195","ios":"levelo://app?vid=22fed9a5-81bc-49bc-b5e3-2d2ad8255195"},"vehicle_type_id":"4","last_reported":1720800613,"current_range_meters":0,"station_id":"ce4bhah2rcd13ifvqei0","pricing_plan_id":"cebpf4jnsgd1na2vs0mg"},{"bike_id":"0b888eea-5973-4e94-9935-24fbbb707460","system_id":"levelo_inurba_marseille","lat":43.294314,"lon":5.397498,"is_reserved":false,"is_disabled":false,"rental_uris":{"android":"levelo://app?vid=0b888eea-5973-4e94-9935-24fbbb707460","ios":"levelo://app?vid=0b888eea-5973-4e94-9935-24fbbb707460"},"vehicle_type_id":"4","last_reported":1720800613,"current_range_meters":12800,"station_id":"ce4bh3h2rcd13ifvqdo0","pricing_plan_id":"cebpf4jnsgd1na2vs0mg"},{"bike_id":"ebc9aba3-625f-499d-aeeb-62ff7788292a","system_id":"levelo_inurba_marseille","lat":43.284534,"lon":5.358662,"is_reserved":false,"is_disabled":false,"rental_uris":{"android":"levelo://app?vid=ebc9aba3-625f-499d-aeeb-62ff7788292a","ios":"levelo://app?vid=ebc9aba3-625f-499d-aeeb-62ff7788292a"},"vehicle_type_id":"4","last_reported":1720800613,"current_range_meters":11600,"station_id":"ce4bhah2rcd13ifvqei0","pricing_plan_id":"cebpf4jnsgd1na2vs0mg"},{"bike_id":"2c836276-bf81-40c1-9a7c-ceb281cab5c7","system_id":"levelo_inurba_marseille","lat":43.294314,"lon":5.397498,"is_reserved":false,"is_disabled":false,"rental_uris":{"android":"levelo://app?vid=2c836276-bf81-40c1-9a7c-ceb281cab5c7","ios":"levelo://app?vid=2c836276-bf81-40c1-9a7c-ceb281cab5c7"},"vehicle_type_id":"4","last_reported":1720800613,"current_range_meters":0,"station_id":"ce4bh3h2rcd13ifvqdo0","pricing_plan_id":"cebpf4jnsgd1na2vs0mg"},{"bike_id":"c215398f-fc29-4b18-8fda-ac98321078f6","system_id":"levelo_inurba_marseille","lat":43.28621,"lon":5.35108,"is_reserved":false,"is_disabled":false,"rental_uris":{"android":"levelo://app?vid=c215398f-fc29-4b18-8fda-ac98321078f6","ios":"levelo://app?vid=c215398f-fc29-4b18-8fda-ac98321078f6"},"vehicle_type_id":"4","last_reported":1720800613,"current_range_meters":23200,"station_id":"ce4bhch2rcd13ifvqeug","pricing_plan_id":"cebpf4jnsgd1na2vs0mg"},{"bike_id":"24d14dd7-647c-4f66-9752-d9ce40c3f0aa","system_id":"levelo_inurba_marseille","lat":43.285856,"lon":5.350771,"is_reserved":false,"is_disabled":false,"rental_uris":{"android":"levelo://app?vid=24d14dd7-647c-4f66-9752-d9ce40c3f0aa","ios":"levelo://app?vid=24d14dd7-647c-4f66-9752-d9ce40c3f0aa"},"vehicle_type_id":"4","last_reported":1720800613,"current_range_meters":19600,"station_id":"ce4bhch2rcd13ifvqeug","pricing_plan_id":"cebpf4jnsgd1na2vs0mg"},{"bike_id":"2d0aa31f-e3ac-4ce3-b751-9598eb391b09","system_id":"levelo_inurba_marseille","lat":43.285856,"lon":5.350771,"is_reserved":false,"is_disabled":false,"rental_uris":{"android":"levelo://app?vid=2d0aa31f-e3ac-4ce3-b751-9598eb391b09","ios":"levelo://app?vid=2d0aa31f-e3ac-4ce3-b751-9598eb391b09"},"vehicle_type_id":"4","last_reported":1720800613,"current_range_meters":14000,"station_id":"ce4bhch2rcd13ifvqeug","pricing_plan_id":"cebpf4jnsgd1na2vs0mg"},{"bike_id":"23341297-81a0-4099-85bd-fd79d8c2fa8b","system_id":"levelo_inurba_marseille","lat":43.285856,"lon":5.350771,"is_reserved":false,"is_disabled":false,"rental_uris":{"android":"levelo://app?vid=23341297-81a0-4099-85bd-fd79d8c2fa8b","ios":"levelo://app?vid=23341297-81a0-4099-85bd-fd79d8c2fa8b"},"vehicle_type_id":"4","last_reported":1720800613,"current_range_meters":22000,"station_id":"ce4bhch2rcd13ifvqeug","pricing_plan_id":"cebpf4jnsgd1na2vs0mg"},{"bike_id":"1dfa0dd5-8f4e-4e85-a3ab-89fea814b32f","system_id":"levelo_inurba_marseille","lat":43.285856,"lon":5.350771,"is_reserved":false,"is_disabled":false,"rental_uris":{"android":"levelo://app?vid=1dfa0dd5-8f4e-4e85-a3ab-89fea814b32f","ios":"levelo://app?vid=1dfa0dd5-8f4e-4e85-a3ab-89fea814b32f"},"vehicle_type_id":"4","last_reported":1720800613,"current_range_meters":26000,"station_id":"ce4bhch2rcd13ifvqeug","pricing_plan_id":"cebpf4jnsgd1na2vs0mg"},{"bike_id":"3116b064-f07c-41ff-9859-c5db9f126668","system_id":"levelo_inurba_marseille","lat":43.285856,"lon":5.350771,"is_reserved":false,"is_disabled":false,"rental_uris":{"android":"levelo://app?vid=3116b064-f07c-41ff-9859-c5db9f126668","ios":"levelo://app?vid=3116b064-f07c-41ff-9859-c5db9f126668"},"vehicle_type_id":"4","last_reported":1720800613,"current_range_meters":16800,"station_id":"ce4bhch2rcd13ifvqeug","pricing_plan_id":"cebpf4jnsgd1na2vs0mg"},{"bike_id":"a5bb969c-f1c0-4a31-b596-14e37e531c8f","system_id":"levelo_inurba_marseille","lat":43.28618,"lon":5.35106,"is_reserved":false,"is_disabled":false,"rental_uris":{"android":"levelo://app?vid=a5bb969c-f1c0-4a31-b596-14e37e531c8f","ios":"levelo://app?vid=a5bb969c-f1c0-4a31-b596-14e37e531c8f"},"vehicle_type_id":"4","last_reported":1720800613,"current_range_meters":0,"station_id":"ce4bhch2rcd13ifvqeug","pricing_plan_id":"cebpf4jnsgd1na2vs0mg"},{"bike_id":"fe102bff-7899-4d71-91e0-24d1913cf693","system_id":"levelo_inurba_marseille","lat":43.285856,"lon":5.350771,"is_reserved":false,"is_disabled":false,"rental_uris":{"android":"levelo://app?vid=fe102bff-7899-4d71-91e0-24d1913cf693","ios":"levelo://app?vid=fe102bff-7899-4d71-91e0-24d1913cf693"},"vehicle_type_id":"4","last_reported":1720800613,"current_range_meters":30800,"station_id":"ce4bhch2rcd13ifvqeug","pricing_plan_id":"cebpf4jnsgd1na2vs0mg"},{"bike_id":"35795abe-fc32-48f7-9d8b-216863d12830","system_id":"levelo_inurba_marseille","lat":43.28618,"lon":5.35103,"is_reserved":false,"is_disabled":false,"rental_uris":{"android":"levelo://app?vid=35795abe-fc32-48f7-9d8b-216863d12830","ios":"levelo://app?vid=35795abe-fc32-48f7-9d8b-216863d12830"},"vehicle_type_id":"4","last_reported":1720800613,"current_range_meters":7600,"station_id":"ce4bhch2rcd13ifvqeug","pricing_plan_id":"cebpf4jnsgd1na2vs0mg"},{"bike_id":"93d9ec28-1c71-46da-a2cc-0dfdd5bfdfc0","system_id":"levelo_inurba_marseille","lat":43.28616,"lon":5.35108,"is_reserved":false,"is_disabled":false,"rental_uris":{"android":"levelo://app?vid=93d9ec28-1c71-46da-a2cc-0dfdd5bfdfc0","ios":"levelo://app?vid=93d9ec28-1c71-46da-a2cc-0dfdd5bfdfc0"},"vehicle_type_id":"4","last_reported":1720800613,"current_range_meters":24400,"station_id":"ce4bhch2rcd13ifvqeug","pricing_plan_id":"cebpf4jnsgd1na2vs0mg"},{"bike_id":"b655805c-863e-48cb-a529-8d12c0dfd756","system_id":"levelo_inurba_marseille","lat":43.285848,"lon":5.350787,"is_reserved":false,"is_disabled":false,"rental_uris":{"android":"levelo://app?vid=b655805c-863e-48cb-a529-8d12c0dfd756","ios":"levelo://app?vid=b655805c-863e-48cb-a529-8d12c0dfd756"},"vehicle_type_id":"4","last_reported":1720800613,"current_range_meters":0,"station_id":"ce4bhch2rcd13ifvqeug","pricing_plan_id":"cebpf4jnsgd1na2vs0mg"},{"bike_id":"c3cffa34-3afd-4f70-af88-f0122f8f9101","system_id":"levelo_inurba_marseille","lat":43.28616,"lon":5.35108,"is_reserved":false,"is_disabled":false,"rental_uris":{"android":"levelo://app?vid=c3cffa34-3afd-4f70-af88-f0122f8f9101","ios":"levelo://app?vid=c3cffa34-3afd-4f70-af88-f0122f8f9101"},"vehicle_type_id":"4","last_reported":1720800613,"current_range_meters":3200,"station_id":"ce4bhch2rcd13ifvqeug","pricing_plan_id":"cebpf4jnsgd1na2vs0mg"},{"bike_id":"c8daa916-fa67-4904-8d60-ff5da0a145ba","system_id":"levelo_inurba_marseille","lat":43.28617,"lon":5.35103,"is_reserved":false,"is_disabled":false,"rental_uris":{"android":"levelo://app?vid=c8daa916-fa67-4904-8d60-ff5da0a145ba","ios":"levelo://app?vid=c8daa916-fa67-4904-8d60-ff5da0a145ba"},"vehicle_type_id":"4","last_reported":1720800613,"current_range_meters":18400,"station_id":"ce4bhch2rcd13ifvqeug","pricing_plan_id":"cebpf4jnsgd1na2vs0mg"},{"bike_id":"4376a5af-a485-4125-b466-7f0742bfc0d1","system_id":"levelo_inurba_marseille","lat":43.285856,"lon":5.350771,"is_reserved":false,"is_disabled":false,"rental_uris":{"android":"levelo://app?vid=4376a5af-a485-4125-b466-7f0742bfc0d1","ios":"levelo://app?vid=4376a5af-a485-4125-b466-7f0742bfc0d1"},"vehicle_type_id":"4","last_reported":1720800613,"current_range_meters":8400,"station_id":"ce4bhch2rcd13ifvqeug","pricing_plan_id":"cebpf4jnsgd1na2vs0mg"},{"bike_id":"525f7ddb-79d4-443a-96c6-7d59502a276f","system_id":"levelo_inurba_marseille","lat":43.28617,"lon":5.35101,"is_reserved":false,"is_disabled":false,"rental_uris":{"android":"levelo://app?vid=525f7ddb-79d4-443a-96c6-7d59502a276f","ios":"levelo://app?vid=525f7ddb-79d4-443a-96c6-7d59502a276f"},"vehicle_type_id":"4","last_reported":1720800613,"current_range_meters":12400,"station_id":"ce4bhch2rcd13ifvqeug","pricing_plan_id":"cebpf4jnsgd1na2vs0mg"},{"bike_id":"67514173-c3a0-46a1-955b-cee9dd0629ad","system_id":"levelo_inurba_marseille","lat":43.28616,"lon":5.35104,"is_reserved":false,"is_disabled":false,"rental_uris":{"android":"levelo://app?vid=67514173-c3a0-46a1-955b-cee9dd0629ad","ios":"levelo://app?vid=67514173-c3a0-46a1-955b-cee9dd0629ad"},"vehicle_type_id":"4","last_reported":1720800613,"current_range_meters":8400,"station_id":"ce4bhch2rcd13ifvqeug","pricing_plan_id":"cebpf4jnsgd1na2vs0mg"},{"bike_id":"baa40f0e-74a4-48b1-9408-ad47c94ae23f","system_id":"levelo_inurba_marseille","lat":43.285856,"lon":5.350771,"is_reserved":false,"is_disabled":false,"rental_uris":{"android":"levelo://app?vid=baa40f0e-74a4-48b1-9408-ad47c94ae23f","ios":"levelo://app?vid=baa40f0e-74a4-48b1-9408-ad47c94ae23f"},"vehicle_type_id":"4","last_reported":1720800613,"current_range_meters":29200,"station_id":"ce4bhch2rcd13ifvqeug","pricing_plan_id":"cebpf4jnsgd1na2vs0mg"},{"bike_id":"3ac3fe24-a665-4e4d-af8e-b2f7e25952d8","system_id":"levelo_inurba_marseille","lat":43.28615,"lon":5.35104,"is_reserved":false,"is_disabled":false,"rental_uris":{"android":"levelo://app?vid=3ac3fe24-a665-4e4d-af8e-b2f7e25952d8","ios":"levelo://app?vid=3ac3fe24-a665-4e4d-af8e-b2f7e25952d8"},"vehicle_type_id":"4","last_reported":1720800613,"current_range_meters":10000,"station_id":"ce4bhch2rcd13ifvqeug","pricing_plan_id":"cebpf4jnsgd1na2vs0mg"},{"bike_id":"e4bc163f-834f-4a38-a27a-595812ae9852","system_id":"levelo_inurba_marseille","lat":43.28613,"lon":5.3511,"is_reserved":false,"is_disabled":false,"rental_uris":{"android":"levelo://app?vid=e4bc163f-834f-4a38-a27a-595812ae9852","ios":"levelo://app?vid=e4bc163f-834f-4a38-a27a-595812ae9852"},"vehicle_type_id":"4","last_reported":1720800613,"current_range_meters":6800,"station_id":"ce4bhch2rcd13ifvqeug","pricing_plan_id":"cebpf4jnsgd1na2vs0mg"},{"bike_id":"c3b298e5-2716-496c-ba84-611a592e85b8","system_id":"levelo_inurba_marseille","lat":43.28613,"lon":5.35107,"is_reserved":false,"is_disabled":false,"rental_uris":{"android":"levelo://app?vid=c3b298e5-2716-496c-ba84-611a592e85b8","ios":"levelo://app?vid=c3b298e5-2716-496c-ba84-611a592e85b8"},"vehicle_type_id":"4","last_reported":1720800613,"current_range_meters":16400,"station_id":"ce4bhch2rcd13ifvqeug","pricing_plan_id":"cebpf4jnsgd1na2vs0mg"},{"bike_id":"91402f3b-13ff-4551-895a-b7d7eca976e0","system_id":"levelo_inurba_marseille","lat":43.28612,"lon":5.35108,"is_reserved":false,"is_disabled":false,"rental_uris":{"android":"levelo://app?vid=91402f3b-13ff-4551-895a-b7d7eca976e0","ios":"levelo://app?vid=91402f3b-13ff-4551-895a-b7d7eca976e0"},"vehicle_type_id":"4","last_reported":1720800613,"current_range_meters":8000,"station_id":"ce4bhch2rcd13ifvqeug","pricing_plan_id":"cebpf4jnsgd1na2vs0mg"},{"bike_id":"02b90e7d-91d7-4562-8eb4-8c2979345adc","system_id":"levelo_inurba_marseille","lat":43.286139,"lon":5.351017,"is_reserved":false,"is_disabled":false,"rental_uris":{"android":"levelo://app?vid=02b90e7d-91d7-4562-8eb4-8c2979345adc","ios":"levelo://app?vid=02b90e7d-91d7-4562-8eb4-8c2979345adc"},"vehicle_type_id":"4","last_reported":1720800613,"current_range_meters":8800,"station_id":"ce4bhch2rcd13ifvqeug","pricing_plan_id":"cebpf4jnsgd1na2vs0mg"},{"bike_id":"9c537f8f-025f-4ec4-8784-c59e0b2529ec","system_id":"levelo_inurba_marseille","lat":43.28614,"lon":5.35101,"is_reserved":false,"is_disabled":false,"rental_uris":{"android":"levelo://app?vid=9c537f8f-025f-4ec4-8784-c59e0b2529ec","ios":"levelo://app?vid=9c537f8f-025f-4ec4-8784-c59e0b2529ec"},"vehicle_type_id":"4","last_reported":1720800613,"current_range_meters":12000,"station_id":"ce4bhch2rcd13ifvqeug","pricing_plan_id":"cebpf4jnsgd1na2vs0mg"},{"bike_id":"388eed7a-47a8-4d61-9444-a638d604c93d","system_id":"levelo_inurba_marseille","lat":43.285856,"lon":5.350771,"is_reserved":false,"is_disabled":false,"rental_uris":{"android":"levelo://app?vid=388eed7a-47a8-4d61-9444-a638d604c93d","ios":"levelo://app?vid=388eed7a-47a8-4d61-9444-a638d604c93d"},"vehicle_type_id":"4","last_reported":1720800613,"current_range_meters":30400,"station_id":"ce4bhch2rcd13ifvqeug","pricing_plan_id":"cebpf4jnsgd1na2vs0mg"},{"bike_id":"9acf06aa-2900-4e5b-91e9-1a282d55a254","system_id":"levelo_inurba_marseille","lat":43.28612,"lon":5.35105,"is_reserved":false,"is_disabled":false,"rental_uris":{"android":"levelo://app?vid=9acf06aa-2900-4e5b-91e9-1a282d55a254","ios":"levelo://app?vid=9acf06aa-2900-4e5b-91e9-1a282d55a254"},"vehicle_type_id":"4","last_reported":1720800613,"current_range_meters":4800,"station_id":"ce4bhch2rcd13ifvqeug","pricing_plan_id":"cebpf4jnsgd1na2vs0mg"},{"bike_id":"1af9bfab-ed04-463d-94bd-9ac1504c018a","system_id":"levelo_inurba_marseille","lat":43.28611,"lon":5.35107,"is_reserved":false,"is_disabled":false,"rental_uris":{"android":"levelo://app?vid=1af9bfab-ed04-463d-94bd-9ac1504c018a","ios":"levelo://app?vid=1af9bfab-ed04-463d-94bd-9ac1504c018a"},"vehicle_type_id":"4","last_reported":1720800613,"current_range_meters":15600,"station_id":"ce4bhch2rcd13ifvqeug","pricing_plan_id":"cebpf4jnsgd1na2vs0mg"},{"bike_id":"bfb6a130-8b1b-452e-8021-46962622007c","system_id":"levelo_inurba_marseille","lat":43.28613,"lon":5.351,"is_reserved":false,"is_disabled":false,"rental_uris":{"android":"levelo://app?vid=bfb6a130-8b1b-452e-8021-46962622007c","ios":"levelo://app?vid=bfb6a130-8b1b-452e-8021-46962622007c"},"vehicle_type_id":"4","last_reported":1720800613,"current_range_meters":14400,"station_id":"ce4bhch2rcd13ifvqeug","pricing_plan_id":"cebpf4jnsgd1na2vs0mg"},{"bike_id":"65d31c37-461b-44a2-ae13-a6f711c6eab1","system_id":"levelo_inurba_marseille","lat":43.28611,"lon":5.35106,"is_reserved":false,"is_disabled":false,"rental_uris":{"android":"levelo://app?vid=65d31c37-461b-44a2-ae13-a6f711c6eab1","ios":"levelo://app?vid=65d31c37-461b-44a2-ae13-a6f711c6eab1"},"vehicle_type_id":"4","last_reported":1720800613,"current_range_meters":11200,"station_id":"ce4bhch2rcd13ifvqeug","pricing_plan_id":"cebpf4jnsgd1na2vs0mg"},{"bike_id":"aa64a683-b695-4840-888e-98beeb7acaff","system_id":"levelo_inurba_marseille","lat":43.28612,"lon":5.35102,"is_reserved":false,"is_disabled":false,"rental_uris":{"android":"levelo://app?vid=aa64a683-b695-4840-888e-98beeb7acaff","ios":"levelo://app?vid=aa64a683-b695-4840-888e-98beeb7acaff"},"vehicle_type_id":"4","last_reported":1720800613,"current_range_meters":22000,"station_id":"ce4bhch2rcd13ifvqeug","pricing_plan_id":"cebpf4jnsgd1na2vs0mg"},{"bike_id":"245ce5ba-f577-45e9-ab93-98ab0a174b34","system_id":"levelo_inurba_marseille","lat":43.28611,"lon":5.351,"is_reserved":false,"is_disabled":false,"rental_uris":{"android":"levelo://app?vid=245ce5ba-f577-45e9-ab93-98ab0a174b34","ios":"levelo://app?vid=245ce5ba-f577-45e9-ab93-98ab0a174b34"},"vehicle_type_id":"4","last_reported":1720800613,"current_range_meters":0,"station_id":"ce4bhch2rcd13ifvqeug","pricing_plan_id":"cebpf4jnsgd1na2vs0mg"},{"bike_id":"b49e85a7-3496-49db-baaf-ff8df9172ce1","system_id":"levelo_inurba_marseille","lat":43.28612,"lon":5.35095,"is_reserved":false,"is_disabled":false,"rental_uris":{"android":"levelo://app?vid=b49e85a7-3496-49db-baaf-ff8df9172ce1","ios":"levelo://app?vid=b49e85a7-3496-49db-baaf-ff8df9172ce1"},"vehicle_type_id":"4","last_reported":1720800613,"current_range_meters":10000,"station_id":"ce4bhch2rcd13ifvqeug","pricing_plan_id":"cebpf4jnsgd1na2vs0mg"},{"bike_id":"37e7a661-aa40-46e9-83b1-ec3108b5150a","system_id":"levelo_inurba_marseille","lat":43.28611,"lon":5.35097,"is_reserved":false,"is_disabled":false,"rental_uris":{"android":"levelo://app?vid=37e7a661-aa40-46e9-83b1-ec3108b5150a","ios":"levelo://app?vid=37e7a661-aa40-46e9-83b1-ec3108b5150a"},"vehicle_type_id":"4","last_reported":1720800613,"current_range_meters":12400,"station_id":"ce4bhch2rcd13ifvqeug","pricing_plan_id":"cebpf4jnsgd1na2vs0mg"},{"bike_id":"2b003b59-67cf-40fa-b205-dcdaef010707","system_id":"levelo_inurba_marseille","lat":43.28608,"lon":5.35105,"is_reserved":false,"is_disabled":false,"rental_uris":{"android":"levelo://app?vid=2b003b59-67cf-40fa-b205-dcdaef010707","ios":"levelo://app?vid=2b003b59-67cf-40fa-b205-dcdaef010707"},"vehicle_type_id":"4","last_reported":1720800613,"current_range_meters":11200,"station_id":"ce4bhch2rcd13ifvqeug","pricing_plan_id":"cebpf4jnsgd1na2vs0mg"},{"bike_id":"a1a871aa-036a-4226-acde-b61cda56d5a6","system_id":"levelo_inurba_marseille","lat":43.28611,"lon":5.35095,"is_reserved":false,"is_disabled":false,"rental_uris":{"android":"levelo://app?vid=a1a871aa-036a-4226-acde-b61cda56d5a6","ios":"levelo://app?vid=a1a871aa-036a-4226-acde-b61cda56d5a6"},"vehicle_type_id":"4","last_reported":1720800613,"current_range_meters":31200,"station_id":"ce4bhch2rcd13ifvqeug","pricing_plan_id":"cebpf4jnsgd1na2vs0mg"},{"bike_id":"04e1060d-bc56-46c5-99cc-b5b92447d1e0","system_id":"levelo_inurba_marseille","lat":43.283998,"lon":5.375062,"is_reserved":false,"is_disabled":false,"rental_uris":{"android":"levelo://app?vid=04e1060d-bc56-46c5-99cc-b5b92447d1e0","ios":"levelo://app?vid=04e1060d-bc56-46c5-99cc-b5b92447d1e0"},"vehicle_type_id":"4","last_reported":1720800613,"current_range_meters":7200,"station_id":"ce4bh412rcd13ifvqds0","pricing_plan_id":"cebpf4jnsgd1na2vs0mg"},{"bike_id":"2f304019-ff48-42a0-b7ab-9c1927855b48","system_id":"levelo_inurba_marseille","lat":43.295713,"lon":5.399639,"is_reserved":false,"is_disabled":false,"rental_uris":{"android":"levelo://app?vid=2f304019-ff48-42a0-b7ab-9c1927855b48","ios":"levelo://app?vid=2f304019-ff48-42a0-b7ab-9c1927855b48"},"vehicle_type_id":"4","last_reported":1720800613,"current_range_meters":3200,"station_id":"ce4bh312rcd13ifvqdj0","pricing_plan_id":"cebpf4jnsgd1na2vs0mg"},{"bike_id":"ba405394-82ab-4773-afd3-fb5a40805c96","system_id":"levelo_inurba_marseille","lat":43.286595,"lon":5.386795,"is_reserved":false,"is_disabled":false,"rental_uris":{"android":"levelo://app?vid=ba405394-82ab-4773-afd3-fb5a40805c96","ios":"levelo://app?vid=ba405394-82ab-4773-afd3-fb5a40805c96"},"vehicle_type_id":"4","last_reported":1720800613,"current_range_meters":7600,"station_id":"ce4bh492rcd13ifvqdug","pricing_plan_id":"cebpf4jnsgd1na2vs0mg"},{"bike_id":"4a722435-8d32-457c-95f7-c59ce41afee0","system_id":"levelo_inurba_marseille","lat":43.28674,"lon":5.38685,"is_reserved":false,"is_disabled":false,"rental_uris":{"android":"levelo://app?vid=4a722435-8d32-457c-95f7-c59ce41afee0","ios":"levelo://app?vid=4a722435-8d32-457c-95f7-c59ce41afee0"},"vehicle_type_id":"4","last_reported":1720800613,"current_range_meters":0,"station_id":"ce4bh492rcd13ifvqdug","pricing_plan_id":"cebpf4jnsgd1na2vs0mg"},{"bike_id":"4d9a7d4e-d46d-4ccf-8f20-8b83c25580a4","system_id":"levelo_inurba_marseille","lat":43.283998,"lon":5.375062,"is_reserved":false,"is_disabled":false,"rental_uris":{"android":"levelo://app?vid=4d9a7d4e-d46d-4ccf-8f20-8b83c25580a4","ios":"levelo://app?vid=4d9a7d4e-d46d-4ccf-8f20-8b83c25580a4"},"vehicle_type_id":"4","last_reported":1720800613,"current_range_meters":10000,"station_id":"ce4bh412rcd13ifvqds0","pricing_plan_id":"cebpf4jnsgd1na2vs0mg"},{"bike_id":"7a30692d-1447-4a97-b83d-50a4f8899838","system_id":"levelo_inurba_marseille","lat":43.337168,"lon":5.391825,"is_reserved":false,"is_disabled":false,"rental_uris":{"android":"levelo://app?vid=7a30692d-1447-4a97-b83d-50a4f8899838","ios":"levelo://app?vid=7a30692d-1447-4a97-b83d-50a4f8899838"},"vehicle_type_id":"4","last_reported":1720800613,"current_range_meters":31600,"station_id":"ce4bhr92rcd13ifvqhsg","pricing_plan_id":"cebpf4jnsgd1na2vs0mg"},{"bike_id":"29098ab0-5cbd-4fa4-8811-43725ba42f35","system_id":"levelo_inurba_marseille","lat":43.32344,"lon":5.40622,"is_reserved":false,"is_disabled":false,"rental_uris":{"android":"levelo://app?vid=29098ab0-5cbd-4fa4-8811-43725ba42f35","ios":"levelo://app?vid=29098ab0-5cbd-4fa4-8811-43725ba42f35"},"vehicle_type_id":"4","last_reported":1720800613,"current_range_meters":0,"station_id":"ce4bhq92rcd13ifvqhjg","pricing_plan_id":"cebpf4jnsgd1na2vs0mg"},{"bike_id":"154f8234-6b29-46ed-9ab2-7db4e9237921","system_id":"levelo_inurba_marseille","lat":43.284793,"lon":5.384113,"is_reserved":false,"is_disabled":false,"rental_uris":{"android":"levelo://app?vid=154f8234-6b29-46ed-9ab2-7db4e9237921","ios":"levelo://app?vid=154f8234-6b29-46ed-9ab2-7db4e9237921"},"vehicle_type_id":"4","last_reported":1720800613,"current_range_meters":24000,"station_id":"ce4bh512rcd13ifvqe3g","pricing_plan_id":"cebpf4jnsgd1na2vs0mg"},{"bike_id":"50454b9e-843d-42f9-8156-8b2f162e03d8","system_id":"levelo_inurba_marseille","lat":43.284793,"lon":5.384119,"is_reserved":false,"is_disabled":false,"rental_uris":{"android":"levelo://app?vid=50454b9e-843d-42f9-8156-8b2f162e03d8","ios":"levelo://app?vid=50454b9e-843d-42f9-8156-8b2f162e03d8"},"vehicle_type_id":"4","last_reported":1720800613,"current_range_meters":400,"station_id":"ce4bh512rcd13ifvqe3g","pricing_plan_id":"cebpf4jnsgd1na2vs0mg"},{"bike_id":"29a6fa2f-a2ec-46f0-b757-e6fa9b883bce","system_id":"levelo_inurba_marseille","lat":43.28467,"lon":5.38414,"is_reserved":false,"is_disabled":false,"rental_uris":{"android":"levelo://app?vid=29a6fa2f-a2ec-46f0-b757-e6fa9b883bce","ios":"levelo://app?vid=29a6fa2f-a2ec-46f0-b757-e6fa9b883bce"},"vehicle_type_id":"4","last_reported":1720800613,"current_range_meters":17200,"station_id":"ce4bh512rcd13ifvqe3g","pricing_plan_id":"cebpf4jnsgd1na2vs0mg"},{"bike_id":"957a706a-3057-43c3-9d5e-bdee0a1339e1","system_id":"levelo_inurba_marseille","lat":43.288497,"lon":5.393089,"is_reserved":false,"is_disabled":false,"rental_uris":{"android":"levelo://app?vid=957a706a-3057-43c3-9d5e-bdee0a1339e1","ios":"levelo://app?vid=957a706a-3057-43c3-9d5e-bdee0a1339e1"},"vehicle_type_id":"4","last_reported":1720800613,"current_range_meters":0,"station_id":"ce4bh2p2rcd13ifvqdi0","pricing_plan_id":"cebpf4jnsgd1na2vs0mg"},{"bike_id":"cb668f5c-3206-4855-880a-6eaaadc03af5","system_id":"levelo_inurba_marseille","lat":43.283498,"lon":5.380948,"is_reserved":false,"is_disabled":false,"rental_uris":{"android":"levelo://app?vid=cb668f5c-3206-4855-880a-6eaaadc03af5","ios":"levelo://app?vid=cb668f5c-3206-4855-880a-6eaaadc03af5"},"vehicle_type_id":"4","last_reported":1720800613,"current_range_meters":19600,"station_id":"ce4bh412rcd13ifvqdr0","pricing_plan_id":"cebpf4jnsgd1na2vs0mg"},{"bike_id":"04c90fff-dd1f-4293-89a4-9bc29051b205","system_id":"levelo_inurba_marseille","lat":43.28428,"lon":5.34993,"is_reserved":false,"is_disabled":false,"rental_uris":{"android":"levelo://app?vid=04c90fff-dd1f-4293-89a4-9bc29051b205","ios":"levelo://app?vid=04c90fff-dd1f-4293-89a4-9bc29051b205"},"vehicle_type_id":"4","last_reported":1720800613,"current_range_meters":27200,"station_id":"ce4bhbh2rcd13ifvqepg","pricing_plan_id":"cebpf4jnsgd1na2vs0mg"},{"bike_id":"b98cbd8b-a4b8-4057-bf9e-1b13c193c54f","system_id":"levelo_inurba_marseille","lat":43.283498,"lon":5.380948,"is_reserved":false,"is_disabled":false,"rental_uris":{"android":"levelo://app?vid=b98cbd8b-a4b8-4057-bf9e-1b13c193c54f","ios":"levelo://app?vid=b98cbd8b-a4b8-4057-bf9e-1b13c193c54f"},"vehicle_type_id":"4","last_reported":1720800613,"current_range_meters":0,"station_id":"ce4bh412rcd13ifvqdr0","pricing_plan_id":"cebpf4jnsgd1na2vs0mg"},{"bike_id":"070bd515-ee57-4b6b-8cd9-d9abe31440e7","system_id":"levelo_inurba_marseille","lat":43.28348,"lon":5.3812,"is_reserved":false,"is_disabled":false,"rental_uris":{"android":"levelo://app?vid=070bd515-ee57-4b6b-8cd9-d9abe31440e7","ios":"levelo://app?vid=070bd515-ee57-4b6b-8cd9-d9abe31440e7"},"vehicle_type_id":"4","last_reported":1720800613,"current_range_meters":0,"station_id":"ce4bh412rcd13ifvqdr0","pricing_plan_id":"cebpf4jnsgd1na2vs0mg"},{"bike_id":"42463d8c-c048-419c-b096-41bf47ce6df9","system_id":"levelo_inurba_marseille","lat":43.284266,"lon":5.349889,"is_reserved":false,"is_disabled":false,"rental_uris":{"android":"levelo://app?vid=42463d8c-c048-419c-b096-41bf47ce6df9","ios":"levelo://app?vid=42463d8c-c048-419c-b096-41bf47ce6df9"},"vehicle_type_id":"4","last_reported":1720800613,"current_range_meters":28400,"station_id":"ce4bhbh2rcd13ifvqepg","pricing_plan_id":"cebpf4jnsgd1na2vs0mg"},{"bike_id":"154aebee-396c-4924-9e8c-3b2ef0e254f0","system_id":"levelo_inurba_marseille","lat":43.28422,"lon":5.34997,"is_reserved":false,"is_disabled":false,"rental_uris":{"android":"levelo://app?vid=154aebee-396c-4924-9e8c-3b2ef0e254f0","ios":"levelo://app?vid=154aebee-396c-4924-9e8c-3b2ef0e254f0"},"vehicle_type_id":"4","last_reported":1720800613,"current_range_meters":14800,"station_id":"ce4bhbh2rcd13ifvqepg","pricing_plan_id":"cebpf4jnsgd1na2vs0mg"},{"bike_id":"8fb08d91-a4c2-4be3-bf98-eec634811e3c","system_id":"levelo_inurba_marseille","lat":43.2834,"lon":5.38103,"is_reserved":false,"is_disabled":false,"rental_uris":{"android":"levelo://app?vid=8fb08d91-a4c2-4be3-bf98-eec634811e3c","ios":"levelo://app?vid=8fb08d91-a4c2-4be3-bf98-eec634811e3c"},"vehicle_type_id":"4","last_reported":1720800613,"current_range_meters":8000,"station_id":"ce4bh412rcd13ifvqdr0","pricing_plan_id":"cebpf4jnsgd1na2vs0mg"},{"bike_id":"8253a319-b692-46ac-94ea-5e4f283c3b52","system_id":"levelo_inurba_marseille","lat":43.284234,"lon":5.34988,"is_reserved":false,"is_disabled":false,"rental_uris":{"android":"levelo://app?vid=8253a319-b692-46ac-94ea-5e4f283c3b52","ios":"levelo://app?vid=8253a319-b692-46ac-94ea-5e4f283c3b52"},"vehicle_type_id":"4","last_reported":1720800613,"current_range_meters":21200,"station_id":"ce4bhbh2rcd13ifvqepg","pricing_plan_id":"cebpf4jnsgd1na2vs0mg"},