{"last_updated":1761725719,"ttl":60,"version":"2.2","data":{"bikes":[{"bike_id":"a7b50653-b051-43bf-a07b-71fbd85e7722","system_id":"levelo_inurba_marseille","lat":43.29542,"lon":5.37501,"is_reserved":false,"is_disabled":false,"rental_uris":{"android":"levelo://app?vid=a7b50653-b051-43bf-a07b-71fbd85e7722","ios":"levelo://app?vid=a7b50653-b051-43bf-a07b-71fbd85e7722"},"vehicle_type_id":"4","last_reported":1761725719,"current_range_meters":2800,"station_id":"ce4bgkp2rcd13ifvqbmg","pricing_plan_id":"cebpf4jnsgd1na2vs0mg"},{"bike_id":"b5448b30-152d-44df-b35f-727ecc2cf419","system_id":"levelo_inurba_marseille","lat":43.25335,"lon":5.42126,"is_reserved":false,"is_disabled":false,"rental_uris":{"android":"levelo://app?vid=b5448b30-152d-44df-b35f-727ecc2cf419","ios":"levelo://app?vid=b5448b30-152d-44df-b35f-727ecc2cf419"},"vehicle_type_id":"4","last_reported":1761725719,"current_range_meters":2800,"station_id":"st_d2m65c5bi1j21697t3ng","pricing_plan_id":"cebpf4jnsgd1na2vs0mg"},{"bike_id":"c31ec96b-5ad9-40c8-a364-17fd3e265e0f","system_id":"levelo_inurba_marseille","lat":43.29275,"lon":5.36858,"is_reserved":false,"is_disabled":false,"rental_uris":{"android":"levelo://app?vid=c31ec96b-5ad9-40c8-a364-17fd3e265e0f","ios":"levelo://app?vid=c31ec96b-5ad9-40c8-a364-17fd3e265e0f"},"vehicle_type_id":"4","last_reported":1761725719,"current_range_meters":2800,"station_id":"ce4bhbp2rcd13ifvqesg","pricing_plan_id":"cebpf4jnsgd1na2vs0mg"},{"bike_id":"422e182a-0d0f-49e5-ad6f-2aedf152a88b","system_id":"levelo_inurba_marseille","lat":43.28617,"lon":5.35106,"is_reserved":false,"is_disabled":false,"rental_uris":{"android":"levelo://app?vid=422e182a-0d0f-49e5-ad6f-2aedf152a88b","ios":"levelo://app?vid=422e182a-0d0f-49e5-ad6f-2aedf152a88b"},"vehicle_type_id":"4","last_reported":1761725719,"current_range_meters":2800,"station_id":"ce4bhch2rcd13ifvqeug","pricing_plan_id":"cebpf4jnsgd1na2vs0mg"},{"bike_id":"3f7c552a-2a9b-4bf8-95bd-507570380f71","system_id":"levelo_inurba_marseille","lat":43.28696,"lon":5.37937,"is_reserved":false,"is_disabled":false,"rental_uris":{"android":"levelo://app?vid=3f7c552a-2a9b-4bf8-95bd-507570380f71","ios":"levelo://app?vid=3f7c552a-2a9b-4bf8-95bd-507570380f71"},"vehicle_type_id":"4","last_reported":1761725719,"current_range_meters":3200,"station_id":"","pricing_plan_id":"cebpf4jnsgd1na2vs0mg"},{"bike_id":"0d8ac40f-0963-4b41-b54f-fcf2214525fc","system_id":"levelo_inurba_marseille","lat":43.30428,"lon":5.39742,"is_reserved":false,"is_disabled":false,"rental_uris":{"android":"levelo://app?vid=0d8ac40f-0963-4b41-b54f-fcf2214525fc","ios":"levelo://app?vid=0d8ac40f-0963-4b41-b54f-fcf2214525fc"},"vehicle_type_id":"4","last_reported":1761725719,"current_range_meters":3600,"station_id":"ce4bh092rcd13ifvqd20","pricing_plan_id":"cebpf4jnsgd1na2vs0mg"},{"bike_id":"4053e572-fdb8-4eb6-a497-5ba9a7592ff2","system_id":"levelo_inurba_marseille","lat":43.297527,"lon":5.427769,"is_reserved":false,"is_disabled":false,"rental_uris":{"android":"levelo://app?vid=4053e572-fdb8-4eb6-a497-5ba9a7592ff2","ios":"levelo://app?vid=4053e572-fdb8-4eb6-a497-5ba9a7592ff2"},"vehicle_type_id":"4","last_reported":1761725719,"current_range_meters":4000,"station_id":"st_d3md5207bmas73dh9klg","pricing_plan_id":"cebpf4jnsgd1na2vs0mg"},{"bike_id":"174f0929-3efc-43ed-b568-f665ef5213af","system_id":"levelo_inurba_marseille","lat":43.303154,"lon":5.404458,"is_reserved":false,"is_disabled":false,"rental_uris":{"android":"levelo://app?vid=174f0929-3efc-43ed-b568-f665ef5213af","ios":"levelo://app?vid=174f0929-3efc-43ed-b568-f665ef5213af"},"vehicle_type_id":"4","last_reported":1761725719,"current_range_meters":4000,"station_id":"ce4bh012rcd13ifvqd10","pricing_plan_id":"cebpf4jnsgd1na2vs0mg"},{"bike_id":"eea3c3c3-734f-4fd3-8061-ed84cfe47b38","system_id":"levelo_inurba_marseille","lat":43.32568,"lon":5.39132,"is_reserved":false,"is_disabled":false,"rental_uris":{"android":"levelo://app?vid=eea3c3c3-734f-4fd3-8061-ed84cfe47b38","ios":"levelo://app?vid=eea3c3c3-734f-4fd3-8061-ed84cfe47b38"},"vehicle_type_id":"4","last_reported":1761725719,"current_range_meters":4000,"station_id":"","pricing_plan_id":"cebpf4jnsgd1na2vs0mg"},{"bike_id":"fd09dbe7-0bec-431b-9705-875a0c7a7829","system_id":"levelo_inurba_marseille","lat":43.23056,"lon":5.35487,"is_reserved":false,"is_disabled":true,"rental_uris":{"android":"levelo://app?vid=fd09dbe7-0bec-431b-9705-875a0c7a7829","ios":"levelo://app?vid=fd09dbe7-0bec-431b-9705-875a0c7a7829"},"vehicle_type_id":"4","last_reported":1761725719,"current_range_meters":4400,"station_id":"cpo3342slgdg3j2ifvpg","pricing_plan_id":"cebpf4jnsgd1na2vs0mg"},{"bike_id":"b94c5710-33f1-4b5d-82ff-921d68a4a0c4","system_id":"levelo_inurba_marseille","lat":43.24072,"lon":5.37749,"is_reserved":false,"is_disabled":false,"rental_uris":{"android":"levelo://app?vid=b94c5710-33f1-4b5d-82ff-921d68a4a0c4","ios":"levelo://app?vid=b94c5710-33f1-4b5d-82ff-921d68a4a0c4"},"vehicle_type_id":"4","last_reported":1761725719,"current_range_meters":4800,"station_id":"ce4bhnp2rcd13ifvqgvg","pricing_plan_id":"cebpf4jnsgd1na2vs0mg"},{"bike_id":"ab5f2ba5-d827-49fa-baeb-7b9d6e7ff5a2","system_id":"levelo_inurba_marseille","lat":43.30941,"lon":5.39061,"is_reserved":false,"is_disabled":false,"rental_uris":{"android":"levelo://app?vid=ab5f2ba5-d827-49fa-baeb-7b9d6e7ff5a2","ios":"levelo://app?vid=ab5f2ba5-d827-49fa-baeb-7b9d6e7ff5a2"},"vehicle_type_id":"4","last_reported":1761725719,"current_range_meters":4800,"station_id":"ce4bgup2rcd13ifvqco0","pricing_plan_id":"cebpf4jnsgd1na2vs0mg"},{"bike_id":"340a1bb6-598c-419e-b030-a7f69cd71040","system_id":"levelo_inurba_marseille","lat":43.25937,"lon":5.409,"is_reserved":false,"is_disabled":false,"rental_uris":{"android":"levelo://app?vid=340a1bb6-598c-419e-b030-a7f69cd71040","ios":"levelo://app?vid=340a1bb6-598c-419e-b030-a7f69cd71040"},"vehicle_type_id":"4","last_reported":1761725719,"current_range_meters":4800,"station_id":"ce4bhm92rcd13ifvqglg","pricing_plan_id":"cebpf4jnsgd1na2vs0mg"},{"bike_id":"6fc7e1a6-f361-40b9-9e4a-2a1278882e11","system_id":"levelo_inurba_marseille","lat":43.27939,"lon":5.410466,"is_reserved":false,"is_disabled":false,"rental_uris":{"android":"levelo://app?vid=6fc7e1a6-f361-40b9-9e4a-2a1278882e11","ios":"levelo://app?vid=6fc7e1a6-f361-40b9-9e4a-2a1278882e11"},"vehicle_type_id":"4","last_reported":1761725719,"current_range_meters":4800,"station_id":"ce4bhnp2rcd13ifvqh0g","pricing_plan_id":"cebpf4jnsgd1na2vs0mg"},{"bike_id":"5287e1c3-27cc-421e-ae2e-704901928ba6","system_id":"levelo_inurba_marseille","lat":43.30949,"lon":5.39038,"is_reserved":false,"is_disabled":false,"rental_uris":{"android":"levelo://app?vid=5287e1c3-27cc-421e-ae2e-704901928ba6","ios":"levelo://app?vid=5287e1c3-27cc-421e-ae2e-704901928ba6"},"vehicle_type_id":"4","last_reported":1761725719,"current_range_meters":4800,"station_id":"ce4bgup2rcd13ifvqco0","pricing_plan_id":"cebpf4jnsgd1na2vs0mg"},{"bike_id":"92dbf5af-8161-49a0-bad7-4bfb33e1188c","system_id":"levelo_inurba_marseille","lat":43.323578,"lon":5.367443,"is_reserved":false,"is_disabled":false,"rental_uris":{"android":"levelo://app?vid=92dbf5af-8161-49a0-bad7-4bfb33e1188c","ios":"levelo://app?vid=92dbf5af-8161-49a0-bad7-4bfb33e1188c"},"vehicle_type_id":"4","last_reported":1761725719,"current_range_meters":5600,"station_id":"","pricing_plan_id":"cebpf4jnsgd1na2vs0mg"},{"bike_id":"54a28b07-280e-4f97-818c-935563621ed9","system_id":"levelo_inurba_marseille","lat":43.32477,"lon":5.36562,"is_reserved":false,"is_disabled":false,"rental_uris":{"android":"levelo://app?vid=54a28b07-280e-4f97-818c-935563621ed9","ios":"levelo://app?vid=54a28b07-280e-4f97-818c-935563621ed9"},"vehicle_type_id":"4","last_reported":1761725719,"current_range_meters":5600,"station_id":"ce4bhs12rcd13ifvqhvg","pricing_plan_id":"cebpf4jnsgd1na2vs0mg"},{"bike_id":"5f973201-24b5-4aeb-9b04-cd17d10d954c","system_id":"levelo_inurba_marseille","lat":43.274122,"lon":5.390293,"is_reserved":false,"is_disabled":false,"rental_uris":{"android":"levelo://app?vid=5f973201-24b5-4aeb-9b04-cd17d10d954c","ios":"levelo://app?vid=5f973201-24b5-4aeb-9b04-cd17d10d954c"},"vehicle_type_id":"4","last_reported":1761725719,"current_range_meters":6000,"station_id":"ce4bhgp2rcd13ifvqfe0","pricing_plan_id":"cebpf4jnsgd1na2vs0mg"},{"bike_id":"6c9a297d-97f2-4024-a398-0d98505d7c71","system_id":"levelo_inurba_marseille","lat":43.3112,"lon":5.37757,"is_reserved":false,"is_disabled":false,"rental_uris":{"android":"levelo://app?vid=6c9a297d-97f2-4024-a398-0d98505d7c71","ios":"levelo://app?vid=6c9a297d-97f2-4024-a398-0d98505d7c71"},"vehicle_type_id":"4","last_reported":1761725719,"current_range_meters":6000,"station_id":"ce4bgt92rcd13ifvqcg0","pricing_plan_id":"cebpf4jnsgd1na2vs0mg"},{"bike_id":"3796c45a-6621-460a-b393-e47c52479d7b","system_id":"levelo_inurba_marseille","lat":43.28552,"lon":5.39074,"is_reserved":false,"is_disabled":true,"rental_uris":{"android":"levelo://app?vid=3796c45a-6621-460a-b393-e47c52479d7b","ios":"levelo://app?vid=3796c45a-6621-460a-b393-e47c52479d7b"},"vehicle_type_id":"4","last_reported":1761725719,"current_range_meters":6400,"station_id":"","pricing_plan_id":"cebpf4jnsgd1na2vs0mg"},{"bike_id":"a58fc224-2878-4767-92d7-dfc7da4ca7ad","system_id":"levelo_inurba_marseille","lat":43.25002,"lon":5.3763,"is_reserved":false,"is_disabled":false,"rental_uris":{"android":"levelo://app?vid=a58fc224-2878-4767-92d7-dfc7da4ca7ad","ios":"levelo://app?vid=a58fc224-2878-4767-92d7-dfc7da4ca7ad"},"vehicle_type_id":"4","last_reported":1761725719,"current_range_meters":6400,"station_id":"","pricing_plan_id":"cebpf4jnsgd1na2vs0mg"},{"bike_id":"1880ebb9-7edb-463e-976b-226e958b9ebe","system_id":"levelo_inurba_marseille","lat":43.31097,"lon":5.37487,"is_reserved":false,"is_disabled":false,"rental_uris":{"android":"levelo://app?vid=1880ebb9-7edb-463e-976b-226e958b9ebe","ios":"levelo://app?vid=1880ebb9-7edb-463e-976b-226e958b9ebe"},"vehicle_type_id":"4","last_reported":1761725719,"current_range_meters":6800,"station_id":"ce4bgt12rcd13ifvqce0","pricing_plan_id":"cebpf4jnsgd1na2vs0mg"},{"bike_id":"cdfd354b-6b40-49a3-9974-5ba7a0a4ccce","system_id":"levelo_inurba_marseille","lat":43.27206,"lon":5.39182,"is_reserved":false,"is_disabled":false,"rental_uris":{"android":"levelo://app?vid=cdfd354b-6b40-49a3-9974-5ba7a0a4ccce","ios":"levelo://app?vid=cdfd354b-6b40-49a3-9974-5ba7a0a4ccce"},"vehicle_type_id":"4","last_reported":1761725719,"current_range_meters":6800,"station_id":"ce4bhhp2rcd13ifvqfm0","pricing_plan_id":"cebpf4jnsgd1na2vs0mg"},{"bike_id":"507a642e-6171-462a-a8ca-48c7b90fdbbc","system_id":"levelo_inurba_marseille","lat":43.30291,"lon":5.37716,"is_reserved":false,"is_disabled":false,"rental_uris":{"android":"levelo://app?vid=507a642e-6171-462a-a8ca-48c7b90fdbbc","ios":"levelo://app?vid=507a642e-6171-462a-a8ca-48c7b90fdbbc"},"vehicle_type_id":"4","last_reported":1761725719,"current_range_meters":6800,"station_id":"ce4bguh2rcd13ifvqcj0","pricing_plan_id":"cebpf4jnsgd1na2vs0mg"},{"bike_id":"88a6385f-912c-4219-a826-7903e241ec42","system_id":"levelo_inurba_marseille","lat":43.28228,"lon":5.39074,"is_reserved":false,"is_disabled":false,"rental_uris":{"android":"levelo://app?vid=88a6385f-912c-4219-a826-7903e241ec42","ios":"levelo://app?vid=88a6385f-912c-4219-a826-7903e241ec42"},"vehicle_type_id":"4","last_reported":1761725719,"current_range_meters":6800,"station_id":"ce4bhn92rcd13ifvqgsg","pricing_plan_id":"cebpf4jnsgd1na2vs0mg"},{"bike_id":"f2cfca52-bd97-4b84-8272-940d6ef94f46","system_id":"levelo_inurba_marseille","lat":43.28413,"lon":5.3499,"is_reserved":false,"is_disabled":false,"rental_uris":{"android":"levelo://app?vid=f2cfca52-bd97-4b84-8272-940d6ef94f46","ios":"levelo://app?vid=f2cfca52-bd97-4b84-8272-940d6ef94f46"},"vehicle_type_id":"4","last_reported":1761725719,"current_range_meters":6800,"station_id":"ce4bhbh2rcd13ifvqepg","pricing_plan_id":"cebpf4jnsgd1na2vs0mg"},{"bike_id":"f9484733-c07f-4293-8628-46871c65b913","system_id":"levelo_inurba_marseille","lat":43.25456,"lon":5.38104,"is_reserved":false,"is_disabled":false,"rental_uris":{"android":"levelo://app?vid=f9484733-c07f-4293-8628-46871c65b913","ios":"levelo://app?vid=f9484733-c07f-4293-8628-46871c65b913"},"vehicle_type_id":"4","last_reported":1761725719,"current_range_meters":6800,"station_id":"","pricing_plan_id":"cebpf4jnsgd1na2vs0mg"},{"bike_id":"650bab4c-7e6f-4240-b87d-3b3c0c747fd1","system_id":"levelo_inurba_marseille","lat":43.27975,"lon":5.38737,"is_reserved":false,"is_disabled":false,"rental_uris":{"android":"levelo://app?vid=650bab4c-7e6f-4240-b87d-3b3c0c747fd1","ios":"levelo://app?vid=650bab4c-7e6f-4240-b87d-3b3c0c747fd1"},"vehicle_type_id":"4","last_reported":1761725719,"current_range_meters":6800,"station_id":"ce4bhg12rcd13ifvqf80","pricing_plan_id":"cebpf4jnsgd1na2vs0mg"},{"bike_id":"8004b0c2-578c-4db4-9a48-4be9e1a0d59c","system_id":"levelo_inurba_marseille","lat":43.29367,"lon":5.3785,"is_reserved":false,"is_disabled":false,"rental_uris":{"android":"levelo://app?vid=8004b0c2-578c-4db4-9a48-4be9e1a0d59c","ios":"levelo://app?vid=8004b0c2-578c-4db4-9a48-4be9e1a0d59c"},"vehicle_type_id":"4","last_reported":1761725719,"current_range_meters":6800,"station_id":"ce4bgjh2rcd13ifvqbf0","pricing_plan_id":"cebpf4jnsgd1na2vs0mg"},{"bike_id":"3858123c-67a4-4d98-9700-8a25b5b45bfe","system_id":"levelo_inurba_marseille","lat":43.3095,"lon":5.39055,"is_reserved":false,"is_disabled":false,"rental_uris":{"android":"levelo://app?vid=3858123c-67a4-4d98-9700-8a25b5b45bfe","ios":"levelo://app?vid=3858123c-67a4-4d98-9700-8a25b5b45bfe"},"vehicle_type_id":"4","last_reported":1761725719,"current_range_meters":6800,"station_id":"ce4bgup2rcd13ifvqco0","pricing_plan_id":"cebpf4jnsgd1na2vs0mg"},{"bike_id":"3bf472a0-1c96-40bf-83cc-8b446f32bec7","system_id":"levelo_inurba_marseille","lat":43.2767,"lon":5.38865,"is_reserved":false,"is_disabled":false,"rental_uris":{"android":"levelo://app?vid=3bf472a0-1c96-40bf-83cc-8b446f32bec7","ios":"levelo://app?vid=3bf472a0-1c96-40bf-83cc-8b446f32bec7"},"vehicle_type_id":"4","last_reported":1761725719,"current_range_meters":6800,"station_id":"ce4bhi12rcd13ifvqfo0","pricing_plan_id":"cebpf4jnsgd1na2vs0mg"},{"bike_id":"8a6aad37-3ce5-485f-b7c4-f8d714e56436","system_id":"levelo_inurba_marseille","lat":43.29374,"lon":5.37841,"is_reserved":false,"is_disabled":false,"rental_uris":{"android":"levelo://app?vid=8a6aad37-3ce5-485f-b7c4-f8d714e56436","ios":"levelo://app?vid=8a6aad37-3ce5-485f-b7c4-f8d714e56436"},"vehicle_type_id":"4","last_reported":1761725719,"current_range_meters":7200,"station_id":"ce4bgjh2rcd13ifvqbf0","pricing_plan_id":"cebpf4jnsgd1na2vs0mg"},{"bike_id":"70c6fabe-eb8f-40ac-ad02-3b287187981e","system_id":"levelo_inurba_marseille","lat":43.2671,"lon":5.41205,"is_reserved":false,"is_disabled":false,"rental_uris":{"android":"levelo://app?vid=70c6fabe-eb8f-40ac-ad02-3b287187981e","ios":"levelo://app?vid=70c6fabe-eb8f-40ac-ad02-3b287187981e"},"vehicle_type_id":"4","last_reported":1761725719,"current_range_meters":7200,"station_id":"","pricing_plan_id":"cebpf4jnsgd1na2vs0mg"},{"bike_id":"4f14c108-541a-47b8-b496-a4961e571309","system_id":"levelo_inurba_marseille","lat":43.29039,"lon":5.37564,"is_reserved":false,"is_disabled":false,"rental_uris":{"android":"levelo://app?vid=4f14c108-541a-47b8-b496-a4961e571309","ios":"levelo://app?vid=4f14c108-541a-47b8-b496-a4961e571309"},"vehicle_type_id":"4","last_reported":1761725719,"current_range_meters":7200,"station_id":"ce4bh692rcd13ifvqe90","pricing_plan_id":"cebpf4jnsgd1na2vs0mg"},{"bike_id":"94230286-c893-4c0f-b94c-103d0262648d","system_id":"levelo_inurba_marseille","lat":43.24078,"lon":5.37755,"is_reserved":false,"is_disabled":false,"rental_uris":{"android":"levelo://app?vid=94230286-c893-4c0f-b94c-103d0262648d","ios":"levelo://app?vid=94230286-c893-4c0f-b94c-103d0262648d"},"vehicle_type_id":"4","last_reported":1761725719,"current_range_meters":8000,"station_id":"ce4bhnp2rcd13ifvqgvg","pricing_plan_id":"cebpf4jnsgd1na2vs0mg"},{"bike_id":"0e1d1a37-ffe2-424a-84c4-020439d07c74","system_id":"levelo_inurba_marseille","lat":43.30357,"lon":5.41882,"is_reserved":false,"is_disabled":false,"rental_uris":{"android":"levelo://app?vid=0e1d1a37-ffe2-424a-84c4-020439d07c74","ios":"levelo://app?vid=0e1d1a37-ffe2-424a-84c4-020439d07c74"},"vehicle_type_id":"4","last_reported":1761725719,"current_range_meters":8000,"station_id":"ce4bhop2rcd13ifvqh7g","pricing_plan_id":"cebpf4jnsgd1na2vs0mg"},{"bike_id":"9ae1a54c-4556-474c-b3cf-c0b0634c2fcb","system_id":"levelo_inurba_marseille","lat":43.29514,"lon":5.37507,"is_reserved":false,"is_disabled":false,"rental_uris":{"android":"levelo://app?vid=9ae1a54c-4556-474c-b3cf-c0b0634c2fcb","ios":"levelo://app?vid=9ae1a54c-4556-474c-b3cf-c0b0634c2fcb"},"vehicle_type_id":"4","last_reported":1761725719,"current_range_meters":8000,"station_id":"ce4bgkp2rcd13ifvqbmg","pricing_plan_id":"cebpf4jnsgd1na2vs0mg"},{"bike_id":"dbcbcef0-4b5f-446e-9d2e-80d991993c2b","system_id":"levelo_inurba_marseille","lat":43.295331,"lon":5.402174,"is_reserved":false,"is_disabled":false,"rental_uris":{"android":"levelo://app?vid=dbcbcef0-4b5f-446e-9d2e-80d991993c2b","ios":"levelo://app?vid=dbcbcef0-4b5f-446e-9d2e-80d991993c2b"},"vehicle_type_id":"4","last_reported":1761725719,"current_range_meters":8400,"station_id":"","pricing_plan_id":"cebpf4jnsgd1na2vs0mg"},{"bike_id":"08129b9e-8873-4f8e-9f48-40e49ee7c8b4","system_id":"levelo_inurba_marseille","lat":43.29316,"lon":5.38388,"is_reserved":false,"is_disabled":false,"rental_uris":{"android":"levelo://app?vid=08129b9e-8873-4f8e-9f48-40e49ee7c8b4","ios":"levelo://app?vid=08129b9e-8873-4f8e-9f48-40e49ee7c8b4"},"vehicle_type_id":"4","last_reported":1761725719,"current_range_meters":8400,"station_id":"","pricing_plan_id":"cebpf4jnsgd1na2vs0mg"},{"bike_id":"dccef0b1-edb3-49b5-866c-43e10e5763cc","system_id":"levelo_inurba_marseille","lat":43.288095,"lon":5.438456,"is_reserved":false,"is_disabled":false,"rental_uris":{"android":"levelo://app?vid=dccef0b1-edb3-49b5-866c-43e10e5763cc","ios":"levelo://app?vid=dccef0b1-edb3-49b5-866c-43e10e5763cc"},"vehicle_type_id":"4","last_reported":1761725719,"current_range_meters":8800,"station_id":"","pricing_plan_id":"cebpf4jnsgd1na2vs0mg"},{"bike_id":"0706bd2c-a666-4666-8663-f4a6c5a6d055","system_id":"levelo_inurba_marseille","lat":43.288417,"lon":5.392639,"is_reserved":false,"is_disabled":true,"rental_uris":{"android":"levelo://app?vid=0706bd2c-a666-4666-8663-f4a6c5a6d055","ios":"levelo://app?vid=0706bd2c-a666-4666-8663-f4a6c5a6d055"},"vehicle_type_id":"4","last_reported":1761725719,"current_range_meters":8800,"station_id":"ce4bh2p2rcd13ifvqdi0","pricing_plan_id":"cebpf4jnsgd1na2vs0mg"},{"bike_id":"872eb665-bdbb-4461-8b90-79087dafae89","system_id":"levelo_inurba_marseille","lat":43.262185,"lon":5.40466,"is_reserved":false,"is_disabled":false,"rental_uris":{"android":"levelo://app?vid=872eb665-bdbb-4461-8b90-79087dafae89","ios":"levelo://app?vid=872eb665-bdbb-4461-8b90-79087dafae89"},"vehicle_type_id":"4","last_reported":1761725719,"current_range_meters":8800,"station_id":"ce4bhmh2rcd13ifvqgmg","pricing_plan_id":"cebpf4jnsgd1na2vs0mg"},{"bike_id":"5e8f0882-5c60-48e3-9df1-214d5666a53f","system_id":"levelo_inurba_marseille","lat":43.31263,"lon":5.412,"is_reserved":false,"is_disabled":false,"rental_uris":{"android":"levelo://app?vid=5e8f0882-5c60-48e3-9df1-214d5666a53f","ios":"levelo://app?vid=5e8f0882-5c60-48e3-9df1-214d5666a53f"},"vehicle_type_id":"4","last_reported":1761725719,"current_range_meters":8800,"station_id":"","pricing_plan_id":"cebpf4jnsgd1na2vs0mg"},{"bike_id":"b3d23e30-2d9c-4d5a-9293-a454060f604b","system_id":"levelo_inurba_marseille","lat":43.30948,"lon":5.39033,"is_reserved":false,"is_disabled":false,"rental_uris":{"android":"levelo://app?vid=b3d23e30-2d9c-4d5a-9293-a454060f604b","ios":"levelo://app?vid=b3d23e30-2d9c-4d5a-9293-a454060f604b"},"vehicle_type_id":"4","last_reported":1761725719,"current_range_meters":8800,"station_id":"ce4bgup2rcd13ifvqco0","pricing_plan_id":"cebpf4jnsgd1na2vs0mg"},{"bike_id":"83217e4b-1835-4888-9411-a999fcc94275","system_id":"levelo_inurba_marseille","lat":43.31375,"lon":5.36734,"is_reserved":false,"is_disabled":false,"rental_uris":{"android":"levelo://app?vid=83217e4b-1835-4888-9411-a999fcc94275","ios":"levelo://app?vid=83217e4b-1835-4888-9411-a999fcc94275"},"vehicle_type_id":"4","last_reported":1761725719,"current_range_meters":8800,"station_id":"ce4bgr92rcd13ifvqc6g","pricing_plan_id":"cebpf4jnsgd1na2vs0mg"},{"bike_id":"32a863b6-26b8-457c-992a-f0253dd4c910","system_id":"levelo_inurba_marseille","lat":43.28469,"lon":5.48356,"is_reserved":false,"is_disabled":false,"rental_uris":{"android":"levelo://app?vid=32a863b6-26b8-457c-992a-f0253dd4c910","ios":"levelo://app?vid=32a863b6-26b8-457c-992a-f0253dd4c910"},"vehicle_type_id":"4","last_reported":1761725719,"current_range_meters":8800,"station_id":"st_d3svhcjqgbts73a3dn0g","pricing_plan_id":"cebpf4jnsgd1na2vs0mg"},{"bike_id":"2dadb0b7-125c-4cad-a51f-e306e38949dd","system_id":"levelo_inurba_marseille","lat":43.25336,"lon":5.421638,"is_reserved":false,"is_disabled":false,"rental_uris":{"android":"levelo://app?vid=2dadb0b7-125c-4cad-a51f-e306e38949dd","ios":"levelo://app?vid=2dadb0b7-125c-4cad-a51f-e306e38949dd"},"vehicle_type_id":"4","last_reported":1761725719,"current_range_meters":9200,"station_id":"st_d2m65c5bi1j21697t3ng","pricing_plan_id":"cebpf4jnsgd1na2vs0mg"},{"bike_id":"e68f19ec-6316-4a47-919b-a01164633315","system_id":"levelo_inurba_marseille","lat":43.2509,"lon":5.39517,"is_reserved":false,"is_disabled":false,"rental_uris":{"android":"levelo://app?vid=e68f19ec-6316-4a47-919b-a01164633315","ios":"levelo://app?vid=e68f19ec-6316-4a47-919b-a01164633315"},"vehicle_type_id":"4","last_reported":1761725719,"current_range_meters":9200,"station_id":"ce4bhm12rcd13ifvqgkg","pricing_plan_id":"cebpf4jnsgd1na2vs0mg"},{"bike_id":"d5ca831f-8041-403e-ada8-7b4196c3d5be","system_id":"levelo_inurba_marseille","lat":43.293714,"lon":5.379385,"is_reserved":false,"is_disabled":false,"rental_uris":{"android":"levelo://app?vid=d5ca831f-8041-403e-ada8-7b4196c3d5be","ios":"levelo://app?vid=d5ca831f-8041-403e-ada8-7b4196c3d5be"},"vehicle_type_id":"4","last_reported":1761725719,"current_range_meters":9200,"station_id":"","pricing_plan_id":"cebpf4jnsgd1na2vs0mg"},{"bike_id":"897d1025-cdde-48ec-9b73-6418bafdbbc5","system_id":"levelo_inurba_marseille","lat":43.28084,"lon":5.34758,"is_reserved":false,"is_disabled":false,"rental_uris":{"android":"levelo://app?vid=897d1025-cdde-48ec-9b73-6418bafdbbc5","ios":"levelo://app?vid=897d1025-cdde-48ec-9b73-6418bafdbbc5"},"vehicle_type_id":"4","last_reported":1761725719,"current_range_meters":9200,"station_id":"","pricing_plan_id":"cebpf4jnsgd1na2vs0mg"},{"bike_id":"eff8faad-c782-4c16-b5f1-a4dda8bab377","system_id":"levelo_inurba_marseille","lat":43.24076,"lon":5.3775,"is_reserved":false,"is_disabled":false,"rental_uris":{"android":"levelo://app?vid=eff8faad-c782-4c16-b5f1-a4dda8bab377","ios":"levelo://app?vid=eff8faad-c782-4c16-b5f1-a4dda8bab377"},"vehicle_type_id":"4","last_reported":1761725719,"current_range_meters":9600,"station_id":"ce4bhnp2rcd13ifvqgvg","pricing_plan_id":"cebpf4jnsgd1na2vs0mg"},{"bike_id":"aa0e7e4b-f890-4f53-a40a-615d9f77115a","system_id":"levelo_inurba_marseille","lat":43.321026,"lon":5.368078,"is_reserved":false,"is_disabled":false,"rental_uris":{"android":"levelo://app?vid=aa0e7e4b-f890-4f53-a40a-615d9f77115a","ios":"levelo://app?vid=aa0e7e4b-f890-4f53-a40a-615d9f77115a"},"vehicle_type_id":"4","last_reported":1761725719,"current_range_meters":9600,"station_id":"ce4bhrh2rcd13ifvqhug","pricing_plan_id":"cebpf4jnsgd1na2vs0mg"},{"bike_id":"dced2bcc-e95f-44ce-b7d8-7bb47def612a","system_id":"levelo_inurba_marseille","lat":43.2305,"lon":5.3549,"is_reserved":false,"is_disabled":false,"rental_uris":{"android":"levelo://app?vid=dced2bcc-e95f-44ce-b7d8-7bb47def612a","ios":"levelo://app?vid=dced2bcc-e95f-44ce-b7d8-7bb47def612a"},"vehicle_type_id":"4","last_reported":1761725719,"current_range_meters":9600,"station_id":"cpo3342slgdg3j2ifvpg","pricing_plan_id":"cebpf4jnsgd1na2vs0mg"},{"bike_id":"3b0c7381-d6a9-4299-870a-948f793e13ce","system_id":"levelo_inurba_marseille","lat":43.29195,"lon":5.393248,"is_reserved":false,"is_disabled":false,"rental_uris":{"android":"levelo://app?vid=3b0c7381-d6a9-4299-870a-948f793e13ce","ios":"levelo://app?vid=3b0c7381-d6a9-4299-870a-948f793e13ce"},"vehicle_type_id":"4","last_reported":1761725719,"current_range_meters":9600,"station_id":"ce4bh192rcd13ifvqdd0","pricing_plan_id":"cebpf4jnsgd1na2vs0mg"},{"bike_id":"9d2cc869-60c3-425a-9a47-39058f205cba","system_id":"levelo_inurba_marseille","lat":43.29543,"lon":5.38638,"is_reserved":false,"is_disabled":false,"rental_uris":{"android":"levelo://app?vid=9d2cc869-60c3-425a-9a47-39058f205cba","ios":"levelo://app?vid=9d2cc869-60c3-425a-9a47-39058f205cba"},"vehicle_type_id":"4","last_reported":1761725719,"current_range_meters":9600,"station_id":"","pricing_plan_id":"cebpf4jnsgd1na2vs0mg"},{"bike_id":"9a701c46-f8a1-48d4-ac3f-957f6dceeccc","system_id":"levelo_inurba_marseille","lat":43.315321,"lon":5.380342,"is_reserved":false,"is_disabled":false,"rental_uris":{"android":"levelo://app?vid=9a701c46-f8a1-48d4-ac3f-957f6dceeccc","ios":"levelo://app?vid=9a701c46-f8a1-48d4-ac3f-957f6dceeccc"},"vehicle_type_id":"4","last_reported":1761725719,"current_range_meters":9600,"station_id":"ce4bhsp2rcd13ifvqi50","pricing_plan_id":"cebpf4jnsgd1na2vs0mg"},{"bike_id":"7e808a5d-898f-4264-93bc-7bbaf904e106","system_id":"levelo_inurba_marseille","lat":43.30949,"lon":5.39027,"is_reserved":false,"is_disabled":false,"rental_uris":{"android":"levelo://app?vid=7e808a5d-898f-4264-93bc-7bbaf904e106","ios":"levelo://app?vid=7e808a5d-898f-4264-93bc-7bbaf904e106"},"vehicle_type_id":"4","last_reported":1761725719,"current_range_meters":9600,"station_id":"ce4bgup2rcd13ifvqco0","pricing_plan_id":"cebpf4jnsgd1na2vs0mg"},{"bike_id":"52c7b72a-7121-4bf4-87d3-3ddfc9ff5b5f","system_id":"levelo_inurba_marseille","lat":43.32959,"lon":5.3898,"is_reserved":false,"is_disabled":false,"rental_uris":{"android":"levelo://app?vid=52c7b72a-7121-4bf4-87d3-3ddfc9ff5b5f","ios":"levelo://app?vid=52c7b72a-7121-4bf4-87d3-3ddfc9ff5b5f"},"vehicle_type_id":"4","last_reported":1761725719,"current_range_meters":10000,"station_id":"ce4bhr92rcd13ifvqhrg","pricing_plan_id":"cebpf4jnsgd1na2vs0mg"},{"bike_id":"d2ce14a1-e9f5-407b-a0c3-2e69d0a16a79","system_id":"levelo_inurba_marseille","lat":43.282232,"lon":5.390845,"is_reserved":false,"is_disabled":false,"rental_uris":{"android":"levelo://app?vid=d2ce14a1-e9f5-407b-a0c3-2e69d0a16a79","ios":"levelo://app?vid=d2ce14a1-e9f5-407b-a0c3-2e69d0a16a79"},"vehicle_type_id":"4","last_reported":1761725719,"current_range_meters":10000,"station_id":"ce4bhn92rcd13ifvqgsg","pricing_plan_id":"cebpf4jnsgd1na2vs0mg"},{"bike_id":"48029408-c210-406b-9b53-27e2c1cea2fa","system_id":"levelo_inurba_marseille","lat":43.25941,"lon":5.40897,"is_reserved":false,"is_disabled":false,"rental_uris":{"android":"levelo://app?vid=48029408-c210-406b-9b53-27e2c1cea2fa","ios":"levelo://app?vid=48029408-c210-406b-9b53-27e2c1cea2fa"},"vehicle_type_id":"4","last_reported":1761725719,"current_range_meters":10000,"station_id":"ce4bhm92rcd13ifvqglg","pricing_plan_id":"cebpf4jnsgd1na2vs0mg"},{"bike_id":"63d375db-1106-4f3e-bc67-ea94793bde92","system_id":"levelo_inurba_marseille","lat":43.31213,"lon":5.36855,"is_reserved":false,"is_disabled":false,"rental_uris":{"android":"levelo://app?vid=63d375db-1106-4f3e-bc67-ea94793bde92","ios":"levelo://app?vid=63d375db-1106-4f3e-bc67-ea94793bde92"},"vehicle_type_id":"4","last_reported":1761725719,"current_range_meters":10000,"station_id":"ce4bgl92rcd13ifvqbq0","pricing_plan_id":"cebpf4jnsgd1na2vs0mg"},{"bike_id":"7be7beee-6a10-4ceb-bdcd-e809dfe13381","system_id":"levelo_inurba_marseille","lat":43.30289,"lon":5.39209,"is_reserved":false,"is_disabled":true,"rental_uris":{"android":"levelo://app?vid=7be7beee-6a10-4ceb-bdcd-e809dfe13381","ios":"levelo://app?vid=7be7beee-6a10-4ceb-bdcd-e809dfe13381"},"vehicle_type_id":"4","last_reported":1761725719,"current_range_meters":10000,"station_id":"ce4bgkh2rcd13ifvqbk0","pricing_plan_id":"cebpf4jnsgd1na2vs0mg"},{"bike_id":"8a725d88-50bd-4351-84ea-d232021839e3","system_id":"levelo_inurba_marseille","lat":43.255501,"lon":5.393964,"is_reserved":false,"is_disabled":false,"rental_uris":{"android":"levelo://app?vid=8a725d88-50bd-4351-84ea-d232021839e3","ios":"levelo://app?vid=8a725d88-50bd-4351-84ea-d232021839e3"},"vehicle_type_id":"4","last_reported":1761725719,"current_range_meters":10000,"station_id":"","pricing_plan_id":"cebpf4jnsgd1na2vs0mg"},{"bike_id":"eea91071-a585-455f-a824-596ec59b39cb","system_id":"levelo_inurba_marseille","lat":43.2533,"lon":5.42182,"is_reserved":false,"is_disabled":false,"rental_uris":{"android":"levelo://app?vid=eea91071-a585-455f-a824-596ec59b39cb","ios":"levelo://app?vid=eea91071-a585-455f-a824-596ec59b39cb"},"vehicle_type_id":"4","last_reported":1761725719,"current_range_meters":10800,"station_id":"st_d2m65c5bi1j21697t3ng","pricing_plan_id":"cebpf4jnsgd1na2vs0mg"},{"bike_id":"05348a72-033c-4422-aaa9-58cc959b0648","system_id":"levelo_inurba_marseille","lat":43.2409,"lon":5.37731,"is_reserved":false,"is_disabled":false,"rental_uris":{"android":"levelo://app?vid=05348a72-033c-4422-aaa9-58cc959b0648","ios":"levelo://app?vid=05348a72-033c-4422-aaa9-58cc959b0648"},"vehicle_type_id":"4","last_reported":1761725719,"current_range_meters":10800,"station_id":"ce4bhnp2rcd13ifvqgvg","pricing_plan_id":"cebpf4jnsgd1na2vs0mg"},{"bike_id":"32d7653e-b033-4183-b4c0-f44169bb9067","system_id":"levelo_inurba_marseille","lat":43.32712,"lon":5.39215,"is_reserved":false,"is_disabled":false,"rental_uris":{"android":"levelo://app?vid=32d7653e-b033-4183-b4c0-f44169bb9067","ios":"levelo://app?vid=32d7653e-b033-4183-b4c0-f44169bb9067"},"vehicle_type_id":"4","last_reported":1761725719,"current_range_meters":10800,"station_id":"","pricing_plan_id":"cebpf4jnsgd1na2vs0mg"},{"bike_id":"49ed0d39-51fe-4cd4-8527-50556baa8749","system_id":"levelo_inurba_marseille","lat":43.22531,"lon":5.348321,"is_reserved":false,"is_disabled":false,"rental_uris":{"android":"levelo://app?vid=49ed0d39-51fe-4cd4-8527-50556baa8749","ios":"levelo://app?vid=49ed0d39-51fe-4cd4-8527-50556baa8749"},"vehicle_type_id":"4","last_reported":1761725719,"current_range_meters":10800,"station_id":"","pricing_plan_id":"cebpf4jnsgd1na2vs0mg"},{"bike_id":"fa33f235-fcd2-4529-b9c0-115244ab7049","system_id":"levelo_inurba_marseille","lat":43.3228,"lon":5.38273,"is_reserved":false,"is_disabled":false,"rental_uris":{"android":"levelo://app?vid=fa33f235-fcd2-4529-b9c0-115244ab7049","ios":"levelo://app?vid=fa33f235-fcd2-4529-b9c0-115244ab7049"},"vehicle_type_id":"4","last_reported":1761725719,"current_range_meters":10800,"station_id":"ce4bhr12rcd13ifvqhqg","pricing_plan_id":"cebpf4jnsgd1na2vs0mg"},{"bike_id":"ce383cab-eee6-4f01-894b-ad29c13fdebc","system_id":"levelo_inurba_marseille","lat":43.29492,"lon":5.43306,"is_reserved":false,"is_disabled":false,"rental_uris":{"android":"levelo://app?vid=ce383cab-eee6-4f01-894b-ad29c13fdebc","ios":"levelo://app?vid=ce383cab-eee6-4f01-894b-ad29c13fdebc"},"vehicle_type_id":"4","last_reported":1761725719,"current_range_meters":11200,"station_id":"st_d3j5ugp08ojc73fj9d10","pricing_plan_id":"cebpf4jnsgd1na2vs0mg"},{"bike_id":"12e6128e-d82c-43b3-9b1f-03821dda50e2","system_id":"levelo_inurba_marseille","lat":43.30544,"lon":5.36712,"is_reserved":false,"is_disabled":false,"rental_uris":{"android":"levelo://app?vid=12e6128e-d82c-43b3-9b1f-03821dda50e2","ios":"levelo://app?vid=12e6128e-d82c-43b3-9b1f-03821dda50e2"},"vehicle_type_id":"4","last_reported":1761725719,"current_range_meters":11600,"station_id":"ce4bgrp2rcd13ifvqc9g","pricing_plan_id":"cebpf4jnsgd1na2vs0mg"},{"bike_id":"65a4bf0b-a957-4ac2-9c71-1b1f4c5610cb","system_id":"levelo_inurba_marseille","lat":43.279845,"lon":5.416674,"is_reserved":false,"is_disabled":false,"rental_uris":{"android":"levelo://app?vid=65a4bf0b-a957-4ac2-9c71-1b1f4c5610cb","ios":"levelo://app?vid=65a4bf0b-a957-4ac2-9c71-1b1f4c5610cb"},"vehicle_type_id":"4","last_reported":1761725719,"current_range_meters":11600,"station_id":"ce4bho12rcd13ifvqh1g","pricing_plan_id":"cebpf4jnsgd1na2vs0mg"},{"bike_id":"2be3bf9b-39f4-4c37-8c01-9e9bcabe1c53","system_id":"levelo_inurba_marseille","lat":43.33741,"lon":5.37444,"is_reserved":false,"is_disabled":false,"rental_uris":{"android":"levelo://app?vid=2be3bf9b-39f4-4c37-8c01-9e9bcabe1c53","ios":"levelo://app?vid=2be3bf9b-39f4-4c37-8c01-9e9bcabe1c53"},"vehicle_type_id":"4","last_reported":1761725719,"current_range_meters":11600,"station_id":"","pricing_plan_id":"cebpf4jnsgd1na2vs0mg"},{"bike_id":"9c97335d-e5a0-4807-8718-cc9e9bd0f749","system_id":"levelo_inurba_marseille","lat":43.25088,"lon":5.39508,"is_reserved":false,"is_disabled":false,"rental_uris":{"android":"levelo://app?vid=9c97335d-e5a0-4807-8718-cc9e9bd0f749","ios":"levelo://app?vid=9c97335d-e5a0-4807-8718-cc9e9bd0f749"},"vehicle_type_id":"4","last_reported":1761725719,"current_range_meters":11600,"station_id":"ce4bhm12rcd13ifvqgkg","pricing_plan_id":"cebpf4jnsgd1na2vs0mg"},{"bike_id":"6a03b052-61fb-4730-9e9f-57eedb7d7d8d","system_id":"levelo_inurba_marseille","lat":43.25905,"lon":5.40906,"is_reserved":false,"is_disabled":false,"rental_uris":{"android":"levelo://app?vid=6a03b052-61fb-4730-9e9f-57eedb7d7d8d","ios":"levelo://app?vid=6a03b052-61fb-4730-9e9f-57eedb7d7d8d"},"vehicle_type_id":"4","last_reported":1761725719,"current_range_meters":11600,"station_id":"ce4bhm92rcd13ifvqglg","pricing_plan_id":"cebpf4jnsgd1na2vs0mg"},{"bike_id":"e8e73278-ab8d-4e62-b3be-bef37337c721","system_id":"levelo_inurba_marseille","lat":43.32475,"lon":5.36572,"is_reserved":false,"is_disabled":false,"rental_uris":{"android":"levelo://app?vid=e8e73278-ab8d-4e62-b3be-bef37337c721","ios":"levelo://app?vid=e8e73278-ab8d-4e62-b3be-bef37337c721"},"vehicle_type_id":"4","last_reported":1761725719,"current_range_meters":11600,"station_id":"ce4bhs12rcd13ifvqhvg","pricing_plan_id":"cebpf4jnsgd1na2vs0mg"},{"bike_id":"ae8ebe94-fc0f-4409-8f77-39eb5c613a67","system_id":"levelo_inurba_marseille","lat":43.337444,"lon":5.374475,"is_reserved":false,"is_disabled":false,"rental_uris":{"android":"levelo://app?vid=ae8ebe94-fc0f-4409-8f77-39eb5c613a67","ios":"levelo://app?vid=ae8ebe94-fc0f-4409-8f77-39eb5c613a67"},"vehicle_type_id":"4","last_reported":1761725719,"current_range_meters":12000,"station_id":"","pricing_plan_id":"cebpf4jnsgd1na2vs0mg"},{"bike_id":"82c3d2c8-f0bf-446e-b125-018f07998329","system_id":"levelo_inurba_marseille","lat":43.327505,"lon":5.400956,"is_reserved":false,"is_disabled":false,"rental_uris":{"android":"levelo://app?vid=82c3d2c8-f0bf-446e-b125-018f07998329","ios":"levelo://app?vid=82c3d2c8-f0bf-446e-b125-018f07998329"},"vehicle_type_id":"4","last_reported":1761725719,"current_range_meters":12000,"station_id":"","pricing_plan_id":"cebpf4jnsgd1na2vs0mg"},{"bike_id":"18caa674-b267-423b-87c9-edc5ce1dd97f","system_id":"levelo_inurba_marseille","lat":43.25934,"lon":5.4091,"is_reserved":false,"is_disabled":false,"rental_uris":{"android":"levelo://app?vid=18caa674-b267-423b-87c9-edc5ce1dd97f","ios":"levelo://app?vid=18caa674-b267-423b-87c9-edc5ce1dd97f"},"vehicle_type_id":"4","last_reported":1761725719,"current_range_meters":12000,"station_id":"ce4bhm92rcd13ifvqglg","pricing_plan_id":"cebpf4jnsgd1na2vs0mg"},{"bike_id":"20efc233-e7c7-43b3-b630-862765d8d19f","system_id":"levelo_inurba_marseille","lat":43.247647,"lon":5.400212,"is_reserved":false,"is_disabled":false,"rental_uris":{"android":"levelo://app?vid=20efc233-e7c7-43b3-b630-862765d8d19f","ios":"levelo://app?vid=20efc233-e7c7-43b3-b630-862765d8d19f"},"vehicle_type_id":"4","last_reported":1761725719,"current_range_meters":12000,"station_id":"ce4bhn12rcd13ifvqgpg","pricing_plan_id":"cebpf4jnsgd1na2vs0mg"},{"bike_id":"5f63bd5a-98a8-4b17-b4b2-a2eab663b359","system_id":"levelo_inurba_marseille","lat":43.28155,"lon":5.4028,"is_reserved":false,"is_disabled":false,"rental_uris":{"android":"levelo://app?vid=5f63bd5a-98a8-4b17-b4b2-a2eab663b359","ios":"levelo://app?vid=5f63bd5a-98a8-4b17-b4b2-a2eab663b359"},"vehicle_type_id":"4","last_reported":1761725719,"current_range_meters":12400,"station_id":"","pricing_plan_id":"cebpf4jnsgd1na2vs0mg"},{"bike_id":"eb900bb0-2b3c-43d2-894b-b03179c30b08","system_id":"levelo_inurba_marseille","lat":43.2593,"lon":5.40902,"is_reserved":false,"is_disabled":false,"rental_uris":{"android":"levelo://app?vid=eb900bb0-2b3c-43d2-894b-b03179c30b08","ios":"levelo://app?vid=eb900bb0-2b3c-43d2-894b-b03179c30b08"},"vehicle_type_id":"4","last_reported":1761725719,"current_range_meters":12800,"station_id":"ce4bhm92rcd13ifvqglg","pricing_plan_id":"cebpf4jnsgd1na2vs0mg"},{"bike_id":"02dd205b-e97c-4104-9683-066d2523fd3f","system_id":"levelo_inurba_marseille","lat":43.23064,"lon":5.354905,"is_reserved":false,"is_disabled":false,"rental_uris":{"android":"levelo://app?vid=02dd205b-e97c-4104-9683-066d2523fd3f","ios":"levelo://app?vid=02dd205b-e97c-4104-9683-066d2523fd3f"},"vehicle_type_id":"4","last_reported":1761725719,"current_range_meters":12800,"station_id":"cpo3342slgdg3j2ifvpg","pricing_plan_id":"cebpf4jnsgd1na2vs0mg"},{"bike_id":"a26e5b79-aa4a-4304-a8a3-8c9055c9edfe","system_id":"levelo_inurba_marseille","lat":43.25944,"lon":5.40901,"is_reserved":false,"is_disabled":false,"rental_uris":{"android":"levelo://app?vid=a26e5b79-aa4a-4304-a8a3-8c9055c9edfe","ios":"levelo://app?vid=a26e5b79-aa4a-4304-a8a3-8c9055c9edfe"},"vehicle_type_id":"4","last_reported":1761725719,"current_range_meters":12800,"station_id":"ce4bhm92rcd13ifvqglg","pricing_plan_id":"cebpf4jnsgd1na2vs0mg"},{"bike_id":"2d410998-75e1-4dc8-a261-e421b2422111","system_id":"levelo_inurba_marseille","lat":43.274331,"lon":5.389988,"is_reserved":false,"is_disabled":false,"rental_uris":{"android":"levelo://app?vid=2d410998-75e1-4dc8-a261-e421b2422111","ios":"levelo://app?vid=2d410998-75e1-4dc8-a261-e421b2422111"},"vehicle_type_id":"4","last_reported":1761725719,"current_range_meters":13600,"station_id":"ce4bhgp2rcd13ifvqfe0","pricing_plan_id":"cebpf4jnsgd1na2vs0mg"},{"bike_id":"d62b4bb4-9ea7-45ca-b7fe-0b03321c980c","system_id":"levelo_inurba_marseille","lat":43.29955,"lon":5.37189,"is_reserved":false,"is_disabled":false,"rental_uris":{"android":"levelo://app?vid=d62b4bb4-9ea7-45ca-b7fe-0b03321c980c","ios":"levelo://app?vid=d62b4bb4-9ea7-45ca-b7fe-0b03321c980c"},"vehicle_type_id":"4","last_reported":1761725719,"current_range_meters":13600,"station_id":"ce4bgr92rcd13ifvqc7g","pricing_plan_id":"cebpf4jnsgd1na2vs0mg"},{"bike_id":"71193c0a-28fb-44f9-8c75-250d78ab19cb","system_id":"levelo_inurba_marseille","lat":43.29298,"lon":5.37456,"is_reserved":false,"is_disabled":false,"rental_uris":{"android":"levelo://app?vid=71193c0a-28fb-44f9-8c75-250d78ab19cb","ios":"levelo://app?vid=71193c0a-28fb-44f9-8c75-250d78ab19cb"},"vehicle_type_id":"4","last_reported":1761725719,"current_range_meters":13600,"station_id":"ce4bgi12rcd13ifvqb70","pricing_plan_id":"cebpf4jnsgd1na2vs0mg"},{"bike_id":"d24a2c68-94c2-4577-88eb-bd161c9ebb38","system_id":"levelo_inurba_marseille","lat":43.225311,"lon":5.348358,"is_reserved":false,"is_disabled":false,"rental_uris":{"android":"levelo://app?vid=d24a2c68-94c2-4577-88eb-bd161c9ebb38","ios":"levelo://app?vid=d24a2c68-94c2-4577-88eb-bd161c9ebb38"},"vehicle_type_id":"4","last_reported":1761725719,"current_range_meters":13600,"station_id":"","pricing_plan_id":"cebpf4jnsgd1na2vs0mg"},{"bike_id":"e6d5d197-43ef-4dc3-b4de-0712639fa890","system_id":"levelo_inurba_marseille","lat":43.30959,"lon":5.39051,"is_reserved":false,"is_disabled":false,"rental_uris":{"android":"levelo://app?vid=e6d5d197-43ef-4dc3-b4de-0712639fa890","ios":"levelo://app?vid=e6d5d197-43ef-4dc3-b4de-0712639fa890"},"vehicle_type_id":"4","last_reported":1761725719,"current_range_meters":13600,"station_id":"ce4bgup2rcd13ifvqco0","pricing_plan_id":"cebpf4jnsgd1na2vs0mg"},{"bike_id":"75420eb4-e407-4ea9-a649-49e1ebb71b5d","system_id":"levelo_inurba_marseille","lat":43.28035,"lon":5.35511,"is_reserved":false,"is_disabled":false,"rental_uris":{"android":"levelo://app?vid=75420eb4-e407-4ea9-a649-49e1ebb71b5d","ios":"levelo://app?vid=75420eb4-e407-4ea9-a649-49e1ebb71b5d"},"vehicle_type_id":"4","last_reported":1761725719,"current_range_meters":14000,"station_id":"","pricing_plan_id":"cebpf4jnsgd1na2vs0mg"},{"bike_id":"45f627a0-308f-4de6-b566-20efbd381978","system_id":"levelo_inurba_marseille","lat":43.314887,"lon":5.373114,"is_reserved":false,"is_disabled":false,"rental_uris":{"android":"levelo://app?vid=45f627a0-308f-4de6-b566-20efbd381978","ios":"levelo://app?vid=45f627a0-308f-4de6-b566-20efbd381978"},"vehicle_type_id":"4","last_reported":1761725719,"current_range_meters":14000,"station_id":"ce4bgt12rcd13ifvqcd0","pricing_plan_id":"cebpf4jnsgd1na2vs0mg"},{"bike_id":"29d4cc9f-bc36-402e-9dce-cece4b5fc105","system_id":"levelo_inurba_marseille","lat":43.31282,"lon":5.40169,"is_reserved":false,"is_disabled":false,"rental_uris":{"android":"levelo://app?vid=29d4cc9f-bc36-402e-9dce-cece4b5fc105","ios":"levelo://app?vid=29d4cc9f-bc36-402e-9dce-cece4b5fc105"},"vehicle_type_id":"4","last_reported":1761725719,"current_range_meters":14000,"station_id":"ce4bh092rcd13ifvqd30","pricing_plan_id":"cebpf4jnsgd1na2vs0mg"},{"bike_id":"d9a197d3-df92-40c4-92b3-989777e0db36","system_id":"levelo_inurba_marseille","lat":43.26567,"lon":5.39002,"is_reserved":false,"is_disabled":false,"rental_uris":{"android":"levelo://app?vid=d9a197d3-df92-40c4-92b3-989777e0db36","ios":"levelo://app?vid=d9a197d3-df92-40c4-92b3-989777e0db36"},"vehicle_type_id":"4","last_reported":1761725719,"current_range_meters":14400,"station_id":"ce4bhe12rcd13ifvqf30","pricing_plan_id":"cebpf4jnsgd1na2vs0mg"},{"bike_id":"dc5626d5-cc04-4dc2-a0ea-369db53a353f","system_id":"levelo_inurba_marseille","lat":43.29796,"lon":5.40393,"is_reserved":false,"is_disabled":false,"rental_uris":{"android":"levelo://app?vid=dc5626d5-cc04-4dc2-a0ea-369db53a353f","ios":"levelo://app?vid=dc5626d5-cc04-4dc2-a0ea-369db53a353f"},"vehicle_type_id":"4","last_reported":1761725719,"current_range_meters":14400,"station_id":"ce4bh112rcd13ifvqd90","pricing_plan_id":"cebpf4jnsgd1na2vs0mg"},{"bike_id":"e62bc63f-1623-48ba-bdc2-ffa136c40c90","system_id":"levelo_inurba_marseille","lat":43.28032,"lon":5.35504,"is_reserved":false,"is_disabled":false,"rental_uris":{"android":"levelo://app?vid=e62bc63f-1623-48ba-bdc2-ffa136c40c90","ios":"levelo://app?vid=e62bc63f-1623-48ba-bdc2-ffa136c40c90"},"vehicle_type_id":"4","last_reported":1761725719,"current_range_meters":14800,"station_id":"","pricing_plan_id":"cebpf4jnsgd1na2vs0mg"},{"bike_id":"cb296685-30de-489a-b645-31000e5e4141","system_id":"levelo_inurba_marseille","lat":43.3046,"lon":5.37905,"is_reserved":false,"is_disabled":false,"rental_uris":{"android":"levelo://app?vid=cb296685-30de-489a-b645-31000e5e4141","ios":"levelo://app?vid=cb296685-30de-489a-b645-31000e5e4141"},"vehicle_type_id":"4","last_reported":1761725719,"current_range_meters":14800,"station_id":"ce4bgup2rcd13ifvqcn0","pricing_plan_id":"cebpf4jnsgd1na2vs0mg"},{"bike_id":"16b49292-fed8-40ee-9331-45f0c3b8e263","system_id":"levelo_inurba_marseille","lat":43.30487,"lon":5.37901,"is_reserved":false,"is_disabled":false,"rental_uris":{"android":"levelo://app?vid=16b49292-fed8-40ee-9331-45f0c3b8e263","ios":"levelo://app?vid=16b49292-fed8-40ee-9331-45f0c3b8e263"},"vehicle_type_id":"4","last_reported":1761725719,"current_range_meters":14800,"station_id":"ce4bgup2rcd13ifvqcn0","pricing_plan_id":"cebpf4jnsgd1na2vs0mg"},{"bike_id":"6b943c9f-2df8-4752-8048-01b1c9edcfb3","system_id":"levelo_inurba_marseille","lat":43.25941,"lon":5.40902,"is_reserved":false,"is_disabled":false,"rental_uris":{"android":"levelo://app?vid=6b943c9f-2df8-4752-8048-01b1c9edcfb3","ios":"levelo://app?vid=6b943c9f-2df8-4752-8048-01b1c9edcfb3"},"vehicle_type_id":"4","last_reported":1761725719,"current_range_meters":14800,"station_id":"ce4bhm92rcd13ifvqglg","pricing_plan_id":"cebpf4jnsgd1na2vs0mg"},{"bike_id":"a2853f37-67a2-4178-b357-df3af8866344","system_id":"levelo_inurba_marseille","lat":43.30928,"lon":5.40136,"is_reserved":false,"is_disabled":false,"rental_uris":{"android":"levelo://app?vid=a2853f37-67a2-4178-b357-df3af8866344","ios":"levelo://app?vid=a2853f37-67a2-4178-b357-df3af8866344"},"vehicle_type_id":"4","last_reported":1761725719,"current_range_meters":15200,"station_id":"ce4bgvp2rcd13ifvqct0","pricing_plan_id":"cebpf4jnsgd1na2vs0mg"},{"bike_id":"fef7c7e6-8059-41aa-ae57-31b07bd2b2eb","system_id":"levelo_inurba_marseille","lat":43.225311,"lon":5.348374,"is_reserved":false,"is_disabled":false,"rental_uris":{"android":"levelo://app?vid=fef7c7e6-8059-41aa-ae57-31b07bd2b2eb","ios":"levelo://app?vid=fef7c7e6-8059-41aa-ae57-31b07bd2b2eb"},"vehicle_type_id":"4","last_reported":1761725719,"current_range_meters":15200,"station_id":"","pricing_plan_id":"cebpf4jnsgd1na2vs0mg"},{"bike_id":"34cfbbfb-7fcd-4e0b-a511-b666cf091d8e","system_id":"levelo_inurba_marseille","lat":43.250883,"lon":5.395083,"is_reserved":false,"is_disabled":false,"rental_uris":{"android":"levelo://app?vid=34cfbbfb-7fcd-4e0b-a511-b666cf091d8e","ios":"levelo://app?vid=34cfbbfb-7fcd-4e0b-a511-b666cf091d8e"},"vehicle_type_id":"4","last_reported":1761725719,"current_range_meters":15200,"station_id":"ce4bhm12rcd13ifvqgkg","pricing_plan_id":"cebpf4jnsgd1na2vs0mg"},{"bike_id":"faee4aed-34d1-4e59-9f3e-bc2337688920","system_id":"levelo_inurba_marseille","lat":43.317126,"lon":5.437027,"is_reserved":false,"is_disabled":true,"rental_uris":{"android":"levelo://app?vid=faee4aed-34d1-4e59-9f3e-bc2337688920","ios":"levelo://app?vid=faee4aed-34d1-4e59-9f3e-bc2337688920"},"vehicle_type_id":"4","last_reported":1761725719,"current_range_meters":15200,"station_id":"ce4bhp92rcd13ifvqhcg","pricing_plan_id":"cebpf4jnsgd1na2vs0mg"},{"bike_id":"f6adb9c1-4a78-4322-baec-aa5f6f5d93b6","system_id":"levelo_inurba_marseille","lat":43.225321,"lon":5.348302,"is_reserved":false,"is_disabled":false,"rental_uris":{"android":"levelo://app?vid=f6adb9c1-4a78-4322-baec-aa5f6f5d93b6","ios":"levelo://app?vid=f6adb9c1-4a78-4322-baec-aa5f6f5d93b6"},"vehicle_type_id":"4","last_reported":1761725719,"current_range_meters":15200,"station_id":"","pricing_plan_id":"cebpf4jnsgd1na2vs0mg"},{"bike_id":"1a34b5a4-3c1e-479b-b6f5-76f97d5c5c52","system_id":"levelo_inurba_marseille","lat":43.285341,"lon":5.440926,"is_reserved":false,"is_disabled":false,"rental_uris":{"android":"levelo://app?vid=1a34b5a4-3c1e-479b-b6f5-76f97d5c5c52","ios":"levelo://app?vid=1a34b5a4-3c1e-479b-b6f5-76f97d5c5c52"},"vehicle_type_id":"4","last_reported":1761725719,"current_range_meters":16000,"station_id":"st_d3j3df2ikq2c7380ej80","pricing_plan_id":"cebpf4jnsgd1na2vs0mg"},{"bike_id":"18037e18-ca79-4042-9f92-7fe5a3a0f9ac","system_id":"levelo_inurba_marseille","lat":43.2594,"lon":5.40902,"is_reserved":false,"is_disabled":false,"rental_uris":{"android":"levelo://app?vid=18037e18-ca79-4042-9f92-7fe5a3a0f9ac","ios":"levelo://app?vid=18037e18-ca79-4042-9f92-7fe5a3a0f9ac"},"vehicle_type_id":"4","last_reported":1761725719,"current_range_meters":16000,"station_id":"ce4bhm92rcd13ifvqglg","pricing_plan_id":"cebpf4jnsgd1na2vs0mg"},{"bike_id":"3f5acd70-2356-4446-93c1-f1c4e7509dbe","system_id":"levelo_inurba_marseille","lat":43.31508,"lon":5.37297,"is_reserved":false,"is_disabled":false,"rental_uris":{"android":"levelo://app?vid=3f5acd70-2356-4446-93c1-f1c4e7509dbe","ios":"levelo://app?vid=3f5acd70-2356-4446-93c1-f1c4e7509dbe"},"vehicle_type_id":"4","last_reported":1761725719,"current_range_meters":16000,"station_id":"ce4bgt12rcd13ifvqcd0","pricing_plan_id":"cebpf4jnsgd1na2vs0mg"},{"bike_id":"8588dc86-0528-4d05-9fc9-9338f5aae70d","system_id":"levelo_inurba_marseille","lat":43.23156,"lon":5.43733,"is_reserved":false,"is_disabled":false,"rental_uris":{"android":"levelo://app?vid=8588dc86-0528-4d05-9fc9-9338f5aae70d","ios":"levelo://app?vid=8588dc86-0528-4d05-9fc9-9338f5aae70d"},"vehicle_type_id":"4","last_reported":1761725719,"current_range_meters":16000,"station_id":"ce4bhmp2rcd13ifvqgog","pricing_plan_id":"cebpf4jnsgd1na2vs0mg"},{"bike_id":"1f1e1455-9138-4367-9342-42f2dcda9c2b","system_id":"levelo_inurba_marseille","lat":43.30398,"lon":5.42495,"is_reserved":false,"is_disabled":false,"rental_uris":{"android":"levelo://app?vid=1f1e1455-9138-4367-9342-42f2dcda9c2b","ios":"levelo://app?vid=1f1e1455-9138-4367-9342-42f2dcda9c2b"},"vehicle_type_id":"4","last_reported":1761725719,"current_range_meters":16400,"station_id":"ce4bghh2rcd13ifvqb60","pricing_plan_id":"cebpf4jnsgd1na2vs0mg"},{"bike_id":"e3260d53-1f31-4048-a6b1-57d9b1375877","system_id":"levelo_inurba_marseille","lat":43.28535,"lon":5.440984,"is_reserved":false,"is_disabled":false,"rental_uris":{"android":"levelo://app?vid=e3260d53-1f31-4048-a6b1-57d9b1375877","ios":"levelo://app?vid=e3260d53-1f31-4048-a6b1-57d9b1375877"},"vehicle_type_id":"4","last_reported":1761725719,"current_range_meters":16400,"station_id":"st_d3j3df2ikq2c7380ej80","pricing_plan_id":"cebpf4jnsgd1na2vs0mg"},{"bike_id":"75dc66b3-0d26-400d-85b7-e985f64e2136","system_id":"levelo_inurba_marseille","lat":43.289962,"lon":5.43701,"is_reserved":false,"is_disabled":false,"rental_uris":{"android":"levelo://app?vid=75dc66b3-0d26-400d-85b7-e985f64e2136","ios":"levelo://app?vid=75dc66b3-0d26-400d-85b7-e985f64e2136"},"vehicle_type_id":"4","last_reported":1761725719,"current_range_meters":16400,"station_id":"","pricing_plan_id":"cebpf4jnsgd1na2vs0mg"},{"bike_id":"3be6387f-9356-4d22-96e9-26a716368262","system_id":"levelo_inurba_marseille","lat":43.29634,"lon":5.4057,"is_reserved":false,"is_disabled":true,"rental_uris":{"android":"levelo://app?vid=3be6387f-9356-4d22-96e9-26a716368262","ios":"levelo://app?vid=3be6387f-9356-4d22-96e9-26a716368262"},"vehicle_type_id":"4","last_reported":1761725719,"current_range_meters":16400,"station_id":"ce4bh0h2rcd13ifvqd60","pricing_plan_id":"cebpf4jnsgd1na2vs0mg"},{"bike_id":"2c80b54e-bbc1-4de7-afdf-9b0246ad8a4c","system_id":"levelo_inurba_marseille","lat":43.24821,"lon":5.374623,"is_reserved":false,"is_disabled":true,"rental_uris":{"android":"levelo://app?vid=2c80b54e-bbc1-4de7-afdf-9b0246ad8a4c","ios":"levelo://app?vid=2c80b54e-bbc1-4de7-afdf-9b0246ad8a4c"},"vehicle_type_id":"4","last_reported":1761725719,"current_range_meters":16800,"station_id":"ce4bhgh2rcd13ifvqfb0","pricing_plan_id":"cebpf4jnsgd1na2vs0mg"},{"bike_id":"0e47ea97-fee5-4ec5-b83f-528a31f6a727","system_id":"levelo_inurba_marseille","lat":43.29762,"lon":5.37862,"is_reserved":false,"is_disabled":false,"rental_uris":{"android":"levelo://app?vid=0e47ea97-fee5-4ec5-b83f-528a31f6a727","ios":"levelo://app?vid=0e47ea97-fee5-4ec5-b83f-528a31f6a727"},"vehicle_type_id":"4","last_reported":1761725719,"current_range_meters":16800,"station_id":"","pricing_plan_id":"cebpf4jnsgd1na2vs0mg"},{"bike_id":"66f35c71-7548-4c33-9bb7-97e77983d5f2","system_id":"levelo_inurba_marseille","lat":43.30245,"lon":5.400786,"is_reserved":false,"is_disabled":false,"rental_uris":{"android":"levelo://app?vid=66f35c71-7548-4c33-9bb7-97e77983d5f2","ios":"levelo://app?vid=66f35c71-7548-4c33-9bb7-97e77983d5f2"},"vehicle_type_id":"4","last_reported":1761725719,"current_range_meters":16800,"station_id":"ce4bgvh2rcd13ifvqcs0","pricing_plan_id":"cebpf4jnsgd1na2vs0mg"},{"bike_id":"4598b833-212f-47e1-8be9-a67863df2f9f","system_id":"levelo_inurba_marseille","lat":43.2929,"lon":5.37145,"is_reserved":false,"is_disabled":false,"rental_uris":{"android":"levelo://app?vid=4598b833-212f-47e1-8be9-a67863df2f9f","ios":"levelo://app?vid=4598b833-212f-47e1-8be9-a67863df2f9f"},"vehicle_type_id":"4","last_reported":1761725719,"current_range_meters":16800,"station_id":"ce4bgh92rcd13ifvqb40","pricing_plan_id":"cebpf4jnsgd1na2vs0mg"},{"bike_id":"30d428d9-9449-4ff3-9e2b-1d54e8c19249","system_id":"levelo_inurba_marseille","lat":43.24636,"lon":5.43145,"is_reserved":false,"is_disabled":false,"rental_uris":{"android":"levelo://app?vid=30d428d9-9449-4ff3-9e2b-1d54e8c19249","ios":"levelo://app?vid=30d428d9-9449-4ff3-9e2b-1d54e8c19249"},"vehicle_type_id":"4","last_reported":1761725719,"current_range_meters":16800,"station_id":"st_d2m6c4gdas8pm72e190g","pricing_plan_id":"cebpf4jnsgd1na2vs0mg"},{"bike_id":"78d0ee7c-bff0-47eb-bac9-8d1168160491","system_id":"levelo_inurba_marseille","lat":43.307032,"lon":5.38232,"is_reserved":false,"is_disabled":false,"rental_uris":{"android":"levelo://app?vid=78d0ee7c-bff0-47eb-bac9-8d1168160491","ios":"levelo://app?vid=78d0ee7c-bff0-47eb-bac9-8d1168160491"},"vehicle_type_id":"4","last_reported":1761725719,"current_range_meters":16800,"station_id":"ce4bhsh2rcd13ifvqi2g","pricing_plan_id":"cebpf4jnsgd1na2vs0mg"},{"bike_id":"94e6b0aa-f8c9-477e-8091-c3a189e0f238","system_id":"levelo_inurba_marseille","lat":43.29669,"lon":5.38142,"is_reserved":false,"is_disabled":false,"rental_uris":{"android":"levelo://app?vid=94e6b0aa-f8c9-477e-8091-c3a189e0f238","ios":"levelo://app?vid=94e6b0aa-f8c9-477e-8091-c3a189e0f238"},"vehicle_type_id":"4","last_reported":1761725719,"current_range_meters":17200,"station_id":"","pricing_plan_id":"cebpf4jnsgd1na2vs0mg"},{"bike_id":"47f51b16-8174-454b-af59-44bb1967d907","system_id":"levelo_inurba_marseille","lat":43.308807,"lon":5.396408,"is_reserved":false,"is_disabled":false,"rental_uris":{"android":"levelo://app?vid=47f51b16-8174-454b-af59-44bb1967d907","ios":"levelo://app?vid=47f51b16-8174-454b-af59-44bb1967d907"},"vehicle_type_id":"4","last_reported":1761725719,"current_range_meters":17200,"station_id":"ce4bhbh2rcd13ifvqeqg","pricing_plan_id":"cebpf4jnsgd1na2vs0mg"},{"bike_id":"6a34e6d0-792e-4bee-9428-37d85ef8871d","system_id":"levelo_inurba_marseille","lat":43.248176,"lon":5.37457,"is_reserved":false,"is_disabled":false,"rental_uris":{"android":"levelo://app?vid=6a34e6d0-792e-4bee-9428-37d85ef8871d","ios":"levelo://app?vid=6a34e6d0-792e-4bee-9428-37d85ef8871d"},"vehicle_type_id":"4","last_reported":1761725719,"current_range_meters":17200,"station_id":"ce4bhgh2rcd13ifvqfb0","pricing_plan_id":"cebpf4jnsgd1na2vs0mg"},{"bike_id":"cbc41777-be83-4e9b-b7a1-2be04d24d8ee","system_id":"levelo_inurba_marseille","lat":43.30177,"lon":5.38077,"is_reserved":false,"is_disabled":false,"rental_uris":{"android":"levelo://app?vid=cbc41777-be83-4e9b-b7a1-2be04d24d8ee","ios":"levelo://app?vid=cbc41777-be83-4e9b-b7a1-2be04d24d8ee"},"vehicle_type_id":"4","last_reported":1761725719,"current_range_meters":17200,"station_id":"ce4bgjp2rcd13ifvqbh0","pricing_plan_id":"cebpf4jnsgd1na2vs0mg"},{"bike_id":"917f150e-9f11-4d17-8a38-a4df609c7816","system_id":"levelo_inurba_marseille","lat":43.28725,"lon":5.37941,"is_reserved":false,"is_disabled":false,"rental_uris":{"android":"levelo://app?vid=917f150e-9f11-4d17-8a38-a4df609c7816","ios":"levelo://app?vid=917f150e-9f11-4d17-8a38-a4df609c7816"},"vehicle_type_id":"4","last_reported":1761725719,"current_range_meters":17200,"station_id":"ce4bh9p2rcd13ifvqec0","pricing_plan_id":"cebpf4jnsgd1na2vs0mg"},{"bike_id":"556c95c4-e39d-4a50-b32b-6e1b11658636","system_id":"levelo_inurba_marseille","lat":43.241669,"lon":5.364049,"is_reserved":false,"is_disabled":false,"rental_uris":{"android":"levelo://app?vid=556c95c4-e39d-4a50-b32b-6e1b11658636","ios":"levelo://app?vid=556c95c4-e39d-4a50-b32b-6e1b11658636"},"vehicle_type_id":"4","last_reported":1761725719,"current_range_meters":17200,"station_id":"cpo36qri1sfpv3e86is0","pricing_plan_id":"cebpf4jnsgd1na2vs0mg"},{"bike_id":"00e5df0f-1cb7-420a-b470-616dc5cd7798","system_id":"levelo_inurba_marseille","lat":43.23051,"lon":5.35492,"is_reserved":false,"is_disabled":false,"rental_uris":{"android":"levelo://app?vid=00e5df0f-1cb7-420a-b470-616dc5cd7798","ios":"levelo://app?vid=00e5df0f-1cb7-420a-b470-616dc5cd7798"},"vehicle_type_id":"4","last_reported":1761725719,"current_range_meters":17200,"station_id":"cpo3342slgdg3j2ifvpg","pricing_plan_id":"cebpf4jnsgd1na2vs0mg"},{"bike_id":"d9a6a1f6-ad3e-4d83-b3dd-5f0ef903b947","system_id":"levelo_inurba_marseille","lat":43.230866,"lon":5.354803,"is_reserved":false,"is_disabled":false,"rental_uris":{"android":"levelo://app?vid=d9a6a1f6-ad3e-4d83-b3dd-5f0ef903b947","ios":"levelo://app?vid=d9a6a1f6-ad3e-4d83-b3dd-5f0ef903b947"},"vehicle_type_id":"4","last_reported":1761725719,"current_range_meters":17600,"station_id":"","pricing_plan_id":"cebpf4jnsgd1na2vs0mg"},{"bike_id":"760b7e4a-a8c4-4135-b9cf-63172e4a5ee6","system_id":"levelo_inurba_marseille","lat":43.27941,"lon":5.41055,"is_reserved":false,"is_disabled":false,"rental_uris":{"android":"levelo://app?vid=760b7e4a-a8c4-4135-b9cf-63172e4a5ee6","ios":"levelo://app?vid=760b7e4a-a8c4-4135-b9cf-63172e4a5ee6"},"vehicle_type_id":"4","last_reported":1761725719,"current_range_meters":17600,"station_id":"ce4bhnp2rcd13ifvqh0g","pricing_plan_id":"cebpf4jnsgd1na2vs0mg"},{"bike_id":"b02463ff-5f79-4767-8ad3-c523ea22652b","system_id":"levelo_inurba_marseille","lat":43.30163,"lon":5.38081,"is_reserved":false,"is_disabled":false,"rental_uris":{"android":"levelo://app?vid=b02463ff-5f79-4767-8ad3-c523ea22652b","ios":"levelo://app?vid=b02463ff-5f79-4767-8ad3-c523ea22652b"},"vehicle_type_id":"4","last_reported":1761725719,"current_range_meters":17600,"station_id":"ce4bgjp2rcd13ifvqbh0","pricing_plan_id":"cebpf4jnsgd1na2vs0mg"},{"bike_id":"26dc5b83-92a6-4232-8d81-dcad47ca36d0","system_id":"levelo_inurba_marseille","lat":43.2994,"lon":5.36545,"is_reserved":false,"is_disabled":false,"rental_uris":{"android":"levelo://app?vid=26dc5b83-92a6-4232-8d81-dcad47ca36d0","ios":"levelo://app?vid=26dc5b83-92a6-4232-8d81-dcad47ca36d0"},"vehicle_type_id":"4","last_reported":1761725719,"current_range_meters":18000,"station_id":"ce4bgm92rcd13ifvqbr0","pricing_plan_id":"cebpf4jnsgd1na2vs0mg"},{"bike_id":"45b722b7-af5b-4c2f-98ea-5448a91524cd","system_id":"levelo_inurba_marseille","lat":43.29572,"lon":5.37524,"is_reserved":false,"is_disabled":false,"rental_uris":{"android":"levelo://app?vid=45b722b7-af5b-4c2f-98ea-5448a91524cd","ios":"levelo://app?vid=45b722b7-af5b-4c2f-98ea-5448a91524cd"},"vehicle_type_id":"4","last_reported":1761725719,"current_range_meters":18000,"station_id":"ce4bgh92rcd13ifvqb50","pricing_plan_id":"cebpf4jnsgd1na2vs0mg"},{"bike_id":"388864e2-9025-441d-82f5-2186f81fd284","system_id":"levelo_inurba_marseille","lat":43.30597,"lon":5.37205,"is_reserved":false,"is_disabled":false,"rental_uris":{"android":"levelo://app?vid=388864e2-9025-441d-82f5-2186f81fd284","ios":"levelo://app?vid=388864e2-9025-441d-82f5-2186f81fd284"},"vehicle_type_id":"4","last_reported":1761725719,"current_range_meters":18000,"station_id":"ce4bgqh2rcd13ifvqc4g","pricing_plan_id":"cebpf4jnsgd1na2vs0mg"},{"bike_id":"2e71e28f-9664-4350-bc05-536897292751","system_id":"levelo_inurba_marseille","lat":43.262278,"lon":5.404463,"is_reserved":false,"is_disabled":false,"rental_uris":{"android":"levelo://app?vid=2e71e28f-9664-4350-bc05-536897292751","ios":"levelo://app?vid=2e71e28f-9664-4350-bc05-536897292751"},"vehicle_type_id":"4","last_reported":1761725719,"current_range_meters":18000,"station_id":"ce4bhmh2rcd13ifvqgmg","pricing_plan_id":"cebpf4jnsgd1na2vs0mg"},{"bike_id":"2d604987-c837-4cc3-8839-eff1b996134e","system_id":"levelo_inurba_marseille","lat":43.30144,"lon":5.37413,"is_reserved":false,"is_disabled":false,"rental_uris":{"android":"levelo://app?vid=2d604987-c837-4cc3-8839-eff1b996134e","ios":"levelo://app?vid=2d604987-c837-4cc3-8839-eff1b996134e"},"vehicle_type_id":"4","last_reported":1761725719,"current_range_meters":18000,"station_id":"ce4bgs92rcd13ifvqcc0","pricing_plan_id":"cebpf4jnsgd1na2vs0mg"},{"bike_id":"492ccc44-218a-450c-b030-4f3ca0b610b0","system_id":"levelo_inurba_marseille","lat":43.301616,"lon":5.37468,"is_reserved":false,"is_disabled":false,"rental_uris":{"android":"levelo://app?vid=492ccc44-218a-450c-b030-4f3ca0b610b0","ios":"levelo://app?vid=492ccc44-218a-450c-b030-4f3ca0b610b0"},"vehicle_type_id":"4","last_reported":1761725719,"current_range_meters":18000,"station_id":"","pricing_plan_id":"cebpf4jnsgd1na2vs0mg"},{"bike_id":"0f96919a-9593-4db8-ba95-cfabcbf21403","system_id":"levelo_inurba_marseille","lat":43.302978,"lon":5.368798,"is_reserved":false,"is_disabled":false,"rental_uris":{"android":"levelo://app?vid=0f96919a-9593-4db8-ba95-cfabcbf21403","ios":"levelo://app?vid=0f96919a-9593-4db8-ba95-cfabcbf21403"},"vehicle_type_id":"4","last_reported":1761725719,"current_range_meters":18000,"station_id":"ce4bgqh2rcd13ifvqc5g","pricing_plan_id":"cebpf4jnsgd1na2vs0mg"},{"bike_id":"6e8e2b36-0de9-4939-8860-8024d89bea64","system_id":"levelo_inurba_marseille","lat":43.25,"lon":5.38924,"is_reserved":false,"is_disabled":false,"rental_uris":{"android":"levelo://app?vid=6e8e2b36-0de9-4939-8860-8024d89bea64","ios":"levelo://app?vid=6e8e2b36-0de9-4939-8860-8024d89bea64"},"vehicle_type_id":"4","last_reported":1761725719,"current_range_meters":18000,"station_id":"ce4bhgp2rcd13ifvqfd0","pricing_plan_id":"cebpf4jnsgd1na2vs0mg"},{"bike_id":"1c368827-9a54-4b67-9a58-315cadb64053","system_id":"levelo_inurba_marseille","lat":43.250496,"lon":5.389268,"is_reserved":false,"is_disabled":false,"rental_uris":{"android":"levelo://app?vid=1c368827-9a54-4b67-9a58-315cadb64053","ios":"levelo://app?vid=1c368827-9a54-4b67-9a58-315cadb64053"},"vehicle_type_id":"4","last_reported":1761725719,"current_range_meters":18000,"station_id":"ce4bhgp2rcd13ifvqfd0","pricing_plan_id":"cebpf4jnsgd1na2vs0mg"},{"bike_id":"98a83e84-01f4-4de5-8817-89d29b2370c2","system_id":"levelo_inurba_marseille","lat":43.25947,"lon":5.40893,"is_reserved":false,"is_disabled":false,"rental_uris":{"android":"levelo://app?vid=98a83e84-01f4-4de5-8817-89d29b2370c2","ios":"levelo://app?vid=98a83e84-01f4-4de5-8817-89d29b2370c2"},"vehicle_type_id":"4","last_reported":1761725719,"current_range_meters":18800,"station_id":"ce4bhm92rcd13ifvqglg","pricing_plan_id":"cebpf4jnsgd1na2vs0mg"},{"bike_id":"96af99f5-c4b0-4b68-b27e-727929ee67a6","system_id":"levelo_inurba_marseille","lat":43.301422,"lon":5.374117,"is_reserved":false,"is_disabled":true,"rental_uris":{"android":"levelo://app?vid=96af99f5-c4b0-4b68-b27e-727929ee67a6","ios":"levelo://app?vid=96af99f5-c4b0-4b68-b27e-727929ee67a6"},"vehicle_type_id":"4","last_reported":1761725719,"current_range_meters":18800,"station_id":"ce4bgs92rcd13ifvqcc0","pricing_plan_id":"cebpf4jnsgd1na2vs0mg"},{"bike_id":"a0257cb7-6e09-4e57-9074-9166ca511388","system_id":"levelo_inurba_marseille","lat":43.22559,"lon":5.41614,"is_reserved":false,"is_disabled":false,"rental_uris":{"android":"levelo://app?vid=a0257cb7-6e09-4e57-9074-9166ca511388","ios":"levelo://app?vid=a0257cb7-6e09-4e57-9074-9166ca511388"},"vehicle_type_id":"4","last_reported":1761725719,"current_range_meters":18800,"station_id":"st_d2o4gvlbi1j2169b742g","pricing_plan_id":"cebpf4jnsgd1na2vs0mg"},{"bike_id":"0cb50643-0fce-43dd-8f09-25c9d5a71109","system_id":"levelo_inurba_marseille","lat":43.29585,"lon":5.36741,"is_reserved":false,"is_disabled":false,"rental_uris":{"android":"levelo://app?vid=0cb50643-0fce-43dd-8f09-25c9d5a71109","ios":"levelo://app?vid=0cb50643-0fce-43dd-8f09-25c9d5a71109"},"vehicle_type_id":"4","last_reported":1761725719,"current_range_meters":18800,"station_id":"ce4bgph2rcd13ifvqc2g","pricing_plan_id":"cebpf4jnsgd1na2vs0mg"},{"bike_id":"4506d42e-d819-4f9d-80d8-8d02564b6f70","system_id":"levelo_inurba_marseille","lat":43.25868,"lon":5.39896,"is_reserved":false,"is_disabled":false,"rental_uris":{"android":"levelo://app?vid=4506d42e-d819-4f9d-80d8-8d02564b6f70","ios":"levelo://app?vid=4506d42e-d819-4f9d-80d8-8d02564b6f70"},"vehicle_type_id":"4","last_reported":1761725719,"current_range_meters":18800,"station_id":"ce4bhl92rcd13ifvqghg","pricing_plan_id":"cebpf4jnsgd1na2vs0mg"},{"bike_id":"d81d35cf-3205-4515-b269-355f988758de","system_id":"levelo_inurba_marseille","lat":43.31341,"lon":5.36737,"is_reserved":false,"is_disabled":false,"rental_uris":{"android":"levelo://app?vid=d81d35cf-3205-4515-b269-355f988758de","ios":"levelo://app?vid=d81d35cf-3205-4515-b269-355f988758de"},"vehicle_type_id":"4","last_reported":1761725719,"current_range_meters":18800,"station_id":"ce4bgr92rcd13ifvqc6g","pricing_plan_id":"cebpf4jnsgd1na2vs0mg"},{"bike_id":"4a01e536-dd54-44ae-8678-7741cea8b733","system_id":"levelo_inurba_marseille","lat":43.30163,"lon":5.38074,"is_reserved":false,"is_disabled":false,"rental_uris":{"android":"levelo://app?vid=4a01e536-dd54-44ae-8678-7741cea8b733","ios":"levelo://app?vid=4a01e536-dd54-44ae-8678-7741cea8b733"},"vehicle_type_id":"4","last_reported":1761725719,"current_range_meters":18800,"station_id":"ce4bgjp2rcd13ifvqbh0","pricing_plan_id":"cebpf4jnsgd1na2vs0mg"},{"bike_id":"5866982f-82d7-4873-be4e-2079188220fc","system_id":"levelo_inurba_marseille","lat":43.2416,"lon":5.39752,"is_reserved":false,"is_disabled":false,"rental_uris":{"android":"levelo://app?vid=5866982f-82d7-4873-be4e-2079188220fc","ios":"levelo://app?vid=5866982f-82d7-4873-be4e-2079188220fc"},"vehicle_type_id":"4","last_reported":1761725719,"current_range_meters":18800,"station_id":"ce4bhn12rcd13ifvqgpg","pricing_plan_id":"cebpf4jnsgd1na2vs0mg"},{"bike_id":"1ed87987-bd99-4f34-b7ae-3ce9eacd0932","system_id":"levelo_inurba_marseille","lat":43.3123,"lon":5.36851,"is_reserved":false,"is_disabled":false,"rental_uris":{"android":"levelo://app?vid=1ed87987-bd99-4f34-b7ae-3ce9eacd0932","ios":"levelo://app?vid=1ed87987-bd99-4f34-b7ae-3ce9eacd0932"},"vehicle_type_id":"4","last_reported":1761725719,"current_range_meters":19200,"station_id":"ce4bgl92rcd13ifvqbq0","pricing_plan_id":"cebpf4jnsgd1na2vs0mg"},{"bike_id":"765e33c5-b992-4dc4-8c54-0384c53e260f","system_id":"levelo_inurba_marseille","lat":43.24167,"lon":5.36398,"is_reserved":false,"is_disabled":true,"rental_uris":{"android":"levelo://app?vid=765e33c5-b992-4dc4-8c54-0384c53e260f","ios":"levelo://app?vid=765e33c5-b992-4dc4-8c54-0384c53e260f"},"vehicle_type_id":"4","last_reported":1761725719,"current_range_meters":19200,"station_id":"cpo36qri1sfpv3e86is0","pricing_plan_id":"cebpf4jnsgd1na2vs0mg"},{"bike_id":"ac7ee556-24a6-430c-a18c-d62b29064a4c","system_id":"levelo_inurba_marseille","lat":43.29268,"lon":5.38433,"is_reserved":false,"is_disabled":false,"rental_uris":{"android":"levelo://app?vid=ac7ee556-24a6-430c-a18c-d62b29064a4c","ios":"levelo://app?vid=ac7ee556-24a6-430c-a18c-d62b29064a4c"},"vehicle_type_id":"4","last_reported":1761725719,"current_range_meters":19200,"station_id":"ce4bh692rcd13ifvqea0","pricing_plan_id":"cebpf4jnsgd1na2vs0mg"},{"bike_id":"d691a75f-c351-4e0b-bdf0-d45edda2e75f","system_id":"levelo_inurba_marseille","lat":43.30967,"lon":5.3905,"is_reserved":false,"is_disabled":false,"rental_uris":{"android":"levelo://app?vid=d691a75f-c351-4e0b-bdf0-d45edda2e75f","ios":"levelo://app?vid=d691a75f-c351-4e0b-bdf0-d45edda2e75f"},"vehicle_type_id":"4","last_reported":1761725719,"current_range_meters":19200,"station_id":"ce4bgup2rcd13ifvqco0","pricing_plan_id":"cebpf4jnsgd1na2vs0mg"},{"bike_id":"a045f2e3-f18c-4280-b738-66d724c525f1","system_id":"levelo_inurba_marseille","lat":43.29923,"lon":5.37475,"is_reserved":false,"is_disabled":false,"rental_uris":{"android":"levelo://app?vid=a045f2e3-f18c-4280-b738-66d724c525f1","ios":"levelo://app?vid=a045f2e3-f18c-4280-b738-66d724c525f1"},"vehicle_type_id":"4","last_reported":1761725719,"current_range_meters":19200,"station_id":"ce4bgjh2rcd13ifvqbg0","pricing_plan_id":"cebpf4jnsgd1na2vs0mg"},{"bike_id":"df44a385-84c0-458d-b2c5-b5626a8b25a8","system_id":"levelo_inurba_marseille","lat":43.26225,"lon":5.40439,"is_reserved":false,"is_disabled":false,"rental_uris":{"android":"levelo://app?vid=df44a385-84c0-458d-b2c5-b5626a8b25a8","ios":"levelo://app?vid=df44a385-84c0-458d-b2c5-b5626a8b25a8"},"vehicle_type_id":"4","last_reported":1761725719,"current_range_meters":19200,"station_id":"ce4bhmh2rcd13ifvqgmg","pricing_plan_id":"cebpf4jnsgd1na2vs0mg"},{"bike_id":"1e9ab2b8-a0e1-4419-85d4-936336420057","system_id":"levelo_inurba_marseille","lat":43.32088,"lon":5.43282,"is_reserved":false,"is_disabled":false,"rental_uris":{"android":"levelo://app?vid=1e9ab2b8-a0e1-4419-85d4-936336420057","ios":"levelo://app?vid=1e9ab2b8-a0e1-4419-85d4-936336420057"},"vehicle_type_id":"4","last_reported":1761725719,"current_range_meters":19200,"station_id":"","pricing_plan_id":"cebpf4jnsgd1na2vs0mg"},{"bike_id":"6a7144ef-7aa3-4281-bc24-6d65cf64fc32","system_id":"levelo_inurba_marseille","lat":43.301714,"lon":5.371859,"is_reserved":false,"is_disabled":false,"rental_uris":{"android":"levelo://app?vid=6a7144ef-7aa3-4281-bc24-6d65cf64fc32","ios":"levelo://app?vid=6a7144ef-7aa3-4281-bc24-6d65cf64fc32"},"vehicle_type_id":"4","last_reported":1761725719,"current_range_meters":19200,"station_id":"","pricing_plan_id":"cebpf4jnsgd1na2vs0mg"},{"bike_id":"c7fd6af2-b38d-4702-a9c7-83fe95054c71","system_id":"levelo_inurba_marseille","lat":43.25932,"lon":5.40909,"is_reserved":false,"is_disabled":false,"rental_uris":{"android":"levelo://app?vid=c7fd6af2-b38d-4702-a9c7-83fe95054c71","ios":"levelo://app?vid=c7fd6af2-b38d-4702-a9c7-83fe95054c71"},"vehicle_type_id":"4","last_reported":1761725719,"current_range_meters":19200,"station_id":"ce4bhm92rcd13ifvqglg","pricing_plan_id":"cebpf4jnsgd1na2vs0mg"},{"bike_id":"77333403-d868-47d6-81e7-b3f7d9ae4fbb","system_id":"levelo_inurba_marseille","lat":43.264002,"lon":5.396147,"is_reserved":false,"is_disabled":false,"rental_uris":{"android":"levelo://app?vid=77333403-d868-47d6-81e7-b3f7d9ae4fbb","ios":"levelo://app?vid=77333403-d868-47d6-81e7-b3f7d9ae4fbb"},"vehicle_type_id":"4","last_reported":1761725719,"current_range_meters":19600,"station_id":"ce4bhmh2rcd13ifvqgmg","pricing_plan_id":"cebpf4jnsgd1na2vs0mg"},{"bike_id":"70921246-8b6d-43e2-af52-d0486589aba8","system_id":"levelo_inurba_marseille","lat":43.24397,"lon":5.370522,"is_reserved":false,"is_disabled":false,"rental_uris":{"android":"levelo://app?vid=70921246-8b6d-43e2-af52-d0486589aba8","ios":"levelo://app?vid=70921246-8b6d-43e2-af52-d0486589aba8"},"vehicle_type_id":"4","last_reported":1761725719,"current_range_meters":19600,"station_id":"ce4bhhh2rcd13ifvqfk0","pricing_plan_id":"cebpf4jnsgd1na2vs0mg"},{"bike_id":"59f81aec-a7ae-408e-82ac-f845565c6722","system_id":"levelo_inurba_marseille","lat":43.2962,"lon":5.37737,"is_reserved":false,"is_disabled":false,"rental_uris":{"android":"levelo://app?vid=59f81aec-a7ae-408e-82ac-f845565c6722","ios":"levelo://app?vid=59f81aec-a7ae-408e-82ac-f845565c6722"},"vehicle_type_id":"4","last_reported":1761725719,"current_range_meters":19600,"station_id":"ce4bgi92rcd13ifvqb90","pricing_plan_id":"cebpf4jnsgd1na2vs0mg"},{"bike_id":"0b942235-9394-4f47-aac2-04ed1291e417","system_id":"levelo_inurba_marseille","lat":43.24181,"lon":5.39721,"is_reserved":false,"is_disabled":false,"rental_uris":{"android":"levelo://app?vid=0b942235-9394-4f47-aac2-04ed1291e417","ios":"levelo://app?vid=0b942235-9394-4f47-aac2-04ed1291e417"},"vehicle_type_id":"4","last_reported":1761725719,"current_range_meters":19600,"station_id":"ce4bhn12rcd13ifvqgpg","pricing_plan_id":"cebpf4jnsgd1na2vs0mg"},{"bike_id":"449d68fe-e44d-478e-956e-c4715d97f07f","system_id":"levelo_inurba_marseille","lat":43.30924,"lon":5.39184,"is_reserved":false,"is_disabled":false,"rental_uris":{"android":"levelo://app?vid=449d68fe-e44d-478e-956e-c4715d97f07f","ios":"levelo://app?vid=449d68fe-e44d-478e-956e-c4715d97f07f"},"vehicle_type_id":"4","last_reported":1761725719,"current_range_meters":19600,"station_id":"","pricing_plan_id":"cebpf4jnsgd1na2vs0mg"},{"bike_id":"3d5982e5-c77b-4b2b-8317-07716904ed5e","system_id":"levelo_inurba_marseille","lat":43.26236,"lon":5.40447,"is_reserved":false,"is_disabled":false,"rental_uris":{"android":"levelo://app?vid=3d5982e5-c77b-4b2b-8317-07716904ed5e","ios":"levelo://app?vid=3d5982e5-c77b-4b2b-8317-07716904ed5e"},"vehicle_type_id":"4","last_reported":1761725719,"current_range_meters":19600,"station_id":"ce4bhmh2rcd13ifvqgmg","pricing_plan_id":"cebpf4jnsgd1na2vs0mg"},{"bike_id":"5b620425-6862-46cb-a74c-d3eec48203d7","system_id":"levelo_inurba_marseille","lat":43.29551,"lon":5.422799,"is_reserved":false,"is_disabled":false,"rental_uris":{"android":"levelo://app?vid=5b620425-6862-46cb-a74c-d3eec48203d7","ios":"levelo://app?vid=5b620425-6862-46cb-a74c-d3eec48203d7"},"vehicle_type_id":"4","last_reported":1761725719,"current_range_meters":19600,"station_id":"ce4bhph2rcd13ifvqhdg","pricing_plan_id":"cebpf4jnsgd1na2vs0mg"},{"bike_id":"456266f3-48d8-4fb8-ac5d-d08598ad41f1","system_id":"levelo_inurba_marseille","lat":43.255777,"lon":5.382369,"is_reserved":false,"is_disabled":false,"rental_uris":{"android":"levelo://app?vid=456266f3-48d8-4fb8-ac5d-d08598ad41f1","ios":"levelo://app?vid=456266f3-48d8-4fb8-ac5d-d08598ad41f1"},"vehicle_type_id":"4","last_reported":1761725719,"current_range_meters":19600,"station_id":"ce4bhih2rcd13ifvqfs0","pricing_plan_id":"cebpf4jnsgd1na2vs0mg"},{"bike_id":"55f32316-bca0-41d0-8d9c-b8dd19b9dce1","system_id":"levelo_inurba_marseille","lat":43.2995,"lon":5.36545,"is_reserved":false,"is_disabled":false,"rental_uris":{"android":"levelo://app?vid=55f32316-bca0-41d0-8d9c-b8dd19b9dce1","ios":"levelo://app?vid=55f32316-bca0-41d0-8d9c-b8dd19b9dce1"},"vehicle_type_id":"4","last_reported":1761725719,"current_range_meters":19600,"station_id":"ce4bgm92rcd13ifvqbr0","pricing_plan_id":"cebpf4jnsgd1na2vs0mg"},{"bike_id":"02022cdf-e65a-45f6-b63c-ce62efd90628","system_id":"levelo_inurba_marseille","lat":43.304991,"lon":5.369537,"is_reserved":false,"is_disabled":false,"rental_uris":{"android":"levelo://app?vid=02022cdf-e65a-45f6-b63c-ce62efd90628","ios":"levelo://app?vid=02022cdf-e65a-45f6-b63c-ce62efd90628"},"vehicle_type_id":"4","last_reported":1761725719,"current_range_meters":19600,"station_id":"","pricing_plan_id":"cebpf4jnsgd1na2vs0mg"},{"bike_id":"9d245cdd-57af-40c9-8fae-42d63cad83d4","system_id":"levelo_inurba_marseille","lat":43.308781,"lon":5.396357,"is_reserved":false,"is_disabled":false,"rental_uris":{"android":"levelo://app?vid=9d245cdd-57af-40c9-8fae-42d63cad83d4","ios":"levelo://app?vid=9d245cdd-57af-40c9-8fae-42d63cad83d4"},"vehicle_type_id":"4","last_reported":1761725719,"current_range_meters":20000,"station_id":"ce4bh012rcd13ifvqcv0","pricing_plan_id":"cebpf4jnsgd1na2vs0mg"},{"bike_id":"27e84ac0-04aa-4f14-81dd-ece98bb878d8","system_id":"levelo_inurba_marseille","lat":43.25945,"lon":5.40905,"is_reserved":false,"is_disabled":false,"rental_uris":{"android":"levelo://app?vid=27e84ac0-04aa-4f14-81dd-ece98bb878d8","ios":"levelo://app?vid=27e84ac0-04aa-4f14-81dd-ece98bb878d8"},"vehicle_type_id":"4","last_reported":1761725719,"current_range_meters":20000,"station_id":"ce4bhm92rcd13ifvqglg","pricing_plan_id":"cebpf4jnsgd1na2vs0mg"},{"bike_id":"425bd352-24d0-416a-b97b-f204ee93abfd","system_id":"levelo_inurba_marseille","lat":43.24149,"lon":5.39796,"is_reserved":false,"is_disabled":false,"rental_uris":{"android":"levelo://app?vid=425bd352-24d0-416a-b97b-f204ee93abfd","ios":"levelo://app?vid=425bd352-24d0-416a-b97b-f204ee93abfd"},"vehicle_type_id":"4","last_reported":1761725719,"current_range_meters":20000,"station_id":"","pricing_plan_id":"cebpf4jnsgd1na2vs0mg"},{"bike_id":"354d79d8-b33e-4744-934c-51af9fd87ed8","system_id":"levelo_inurba_marseille","lat":43.28086,"lon":5.39665,"is_reserved":false,"is_disabled":false,"rental_uris":{"android":"levelo://app?vid=354d79d8-b33e-4744-934c-51af9fd87ed8","ios":"levelo://app?vid=354d79d8-b33e-4744-934c-51af9fd87ed8"},"vehicle_type_id":"4","last_reported":1761725719,"current_range_meters":20000,"station_id":"ce4bho12rcd13ifvqh2g","pricing_plan_id":"cebpf4jnsgd1na2vs0mg"},{"bike_id":"3c9877a9-bf7c-4aed-9210-31aaee07a89f","system_id":"levelo_inurba_marseille","lat":43.27998,"lon":5.41662,"is_reserved":false,"is_disabled":false,"rental_uris":{"android":"levelo://app?vid=3c9877a9-bf7c-4aed-9210-31aaee07a89f","ios":"levelo://app?vid=3c9877a9-bf7c-4aed-9210-31aaee07a89f"},"vehicle_type_id":"4","last_reported":1761725719,"current_range_meters":20000,"station_id":"ce4bho12rcd13ifvqh1g","pricing_plan_id":"cebpf4jnsgd1na2vs0mg"},{"bike_id":"36fad58c-5986-4ae7-acc3-cce44f51e068","system_id":"levelo_inurba_marseille","lat":43.2897,"lon":5.37837,"is_reserved":false,"is_disabled":true,"rental_uris":{"android":"levelo://app?vid=36fad58c-5986-4ae7-acc3-cce44f51e068","ios":"levelo://app?vid=36fad58c-5986-4ae7-acc3-cce44f51e068"},"vehicle_type_id":"4","last_reported":1761725719,"current_range_meters":20000,"station_id":"ce4bh9p2rcd13ifvqed0","pricing_plan_id":"cebpf4jnsgd1na2vs0mg"},{"bike_id":"15e2c5dd-bae1-46fb-906a-d29fa37d6e53","system_id":"levelo_inurba_marseille","lat":43.31357,"lon":5.37276,"is_reserved":false,"is_disabled":false,"rental_uris":{"android":"levelo://app?vid=15e2c5dd-bae1-46fb-906a-d29fa37d6e53","ios":"levelo://app?vid=15e2c5dd-bae1-46fb-906a-d29fa37d6e53"},"vehicle_type_id":"4","last_reported":1761725719,"current_range_meters":20000,"station_id":"","pricing_plan_id":"cebpf4jnsgd1na2vs0mg"},{"bike_id":"f2490e6a-d59e-419e-ad90-25d5ce1a3314","system_id":"levelo_inurba_marseille","lat":43.28541,"lon":5.441,"is_reserved":false,"is_disabled":false,"rental_uris":{"android":"levelo://app?vid=f2490e6a-d59e-419e-ad90-25d5ce1a3314","ios":"levelo://app?vid=f2490e6a-d59e-419e-ad90-25d5ce1a3314"},"vehicle_type_id":"4","last_reported":1761725719,"current_range_meters":20400,"station_id":"st_d3j3df2ikq2c7380ej80","pricing_plan_id":"cebpf4jnsgd1na2vs0mg"},{"bike_id":"8f1818b7-a607-4072-885c-64beb23070f3","system_id":"levelo_inurba_marseille","lat":43.279013,"lon":5.380237,"is_reserved":false,"is_disabled":false,"rental_uris":{"android":"levelo://app?vid=8f1818b7-a607-4072-885c-64beb23070f3","ios":"levelo://app?vid=8f1818b7-a607-4072-885c-64beb23070f3"},"vehicle_type_id":"4","last_reported":1761725719,"current_range_meters":20400,"station_id":"ce4bhf92rcd13ifvqf50","pricing_plan_id":"cebpf4jnsgd1na2vs0mg"},{"bike_id":"f356d46c-c134-4513-82f3-b500a9cc5fd1","system_id":"levelo_inurba_marseille","lat":43.29255,"lon":5.37985,"is_reserved":false,"is_disabled":false,"rental_uris":{"android":"levelo://app?vid=f356d46c-c134-4513-82f3-b500a9cc5fd1","ios":"levelo://app?vid=f356d46c-c134-4513-82f3-b500a9cc5fd1"},"vehicle_type_id":"4","last_reported":1761725719,"current_range_meters":20400,"station_id":"","pricing_plan_id":"cebpf4jnsgd1na2vs0mg"},{"bike_id":"c67f7f11-fd5c-4b19-a6fb-4ff6c740df30","system_id":"levelo_inurba_marseille","lat":43.26572,"lon":5.39004,"is_reserved":false,"is_disabled":false,"rental_uris":{"android":"levelo://app?vid=c67f7f11-fd5c-4b19-a6fb-4ff6c740df30","ios":"levelo://app?vid=c67f7f11-fd5c-4b19-a6fb-4ff6c740df30"},"vehicle_type_id":"4","last_reported":1761725719,"current_range_meters":20400,"station_id":"ce4bhe12rcd13ifvqf30","pricing_plan_id":"cebpf4jnsgd1na2vs0mg"},{"bike_id":"60c68388-906c-44e6-9749-1651a3e903c5","system_id":"levelo_inurba_marseille","lat":43.27181,"lon":5.39156,"is_reserved":false,"is_disabled":false,"rental_uris":{"android":"levelo://app?vid=60c68388-906c-44e6-9749-1651a3e903c5","ios":"levelo://app?vid=60c68388-906c-44e6-9749-1651a3e903c5"},"vehicle_type_id":"4","last_reported":1761725719,"current_range_meters":20400,"station_id":"ce4bhhp2rcd13ifvqfm0","pricing_plan_id":"cebpf4jnsgd1na2vs0mg"},{"bike_id":"18ae1b27-2c23-4a20-b112-e5f0a78d7ee4","system_id":"levelo_inurba_marseille","lat":43.25943,"lon":5.40897,"is_reserved":false,"is_disabled":false,"rental_uris":{"android":"levelo://app?vid=18ae1b27-2c23-4a20-b112-e5f0a78d7ee4","ios":"levelo://app?vid=18ae1b27-2c23-4a20-b112-e5f0a78d7ee4"},"vehicle_type_id":"4","last_reported":1761725719,"current_range_meters":20400,"station_id":"ce4bhm92rcd13ifvqglg","pricing_plan_id":"cebpf4jnsgd1na2vs0mg"},{"bike_id":"83ffb07a-4e30-43f3-8574-66f498c3aed0","system_id":"levelo_inurba_marseille","lat":43.24068,"lon":5.37754,"is_reserved":false,"is_disabled":false,"rental_uris":{"android":"levelo://app?vid=83ffb07a-4e30-43f3-8574-66f498c3aed0","ios":"levelo://app?vid=83ffb07a-4e30-43f3-8574-66f498c3aed0"},"vehicle_type_id":"4","last_reported":1761725719,"current_range_meters":20400,"station_id":"ce4bhnp2rcd13ifvqgvg","pricing_plan_id":"cebpf4jnsgd1na2vs0mg"},{"bike_id":"48724abd-044c-4749-a7c3-b915eb7d1835","system_id":"levelo_inurba_marseille","lat":43.241697,"lon":5.363991,"is_reserved":false,"is_disabled":false,"rental_uris":{"android":"levelo://app?vid=48724abd-044c-4749-a7c3-b915eb7d1835","ios":"levelo://app?vid=48724abd-044c-4749-a7c3-b915eb7d1835"},"vehicle_type_id":"4","last_reported":1761725719,"current_range_meters":20400,"station_id":"cpo36qri1sfpv3e86is0","pricing_plan_id":"cebpf4jnsgd1na2vs0mg"},{"bike_id":"a3f9b1b1-f99e-4e4c-9d29-9ad57f8a0238","system_id":"levelo_inurba_marseille","lat":43.29708,"lon":5.37698,"is_reserved":false,"is_disabled":false,"rental_uris":{"android":"levelo://app?vid=a3f9b1b1-f99e-4e4c-9d29-9ad57f8a0238","ios":"levelo://app?vid=a3f9b1b1-f99e-4e4c-9d29-9ad57f8a0238"},"vehicle_type_id":"4","last_reported":1761725719,"current_range_meters":20400,"station_id":"ce4bgkh2rcd13ifvqbl0","pricing_plan_id":"cebpf4jnsgd1na2vs0mg"},{"bike_id":"bbb098a8-9336-4b0e-93f8-fbbe50db2eda","system_id":"levelo_inurba_marseille","lat":43.28466,"lon":5.38417,"is_reserved":false,"is_disabled":false,"rental_uris":{"android":"levelo://app?vid=bbb098a8-9336-4b0e-93f8-fbbe50db2eda","ios":"levelo://app?vid=bbb098a8-9336-4b0e-93f8-fbbe50db2eda"},"vehicle_type_id":"4","last_reported":1761725719,"current_range_meters":20400,"station_id":"ce4bh512rcd13ifvqe3g","pricing_plan_id":"cebpf4jnsgd1na2vs0mg"},{"bike_id":"a18dbf48-2c4d-4fa4-a4c5-c9871d73c9a0","system_id":"levelo_inurba_marseille","lat":43.301994,"lon":5.383462,"is_reserved":false,"is_disabled":false,"rental_uris":{"android":"levelo://app?vid=a18dbf48-2c4d-4fa4-a4c5-c9871d73c9a0","ios":"levelo://app?vid=a18dbf48-2c4d-4fa4-a4c5-c9871d73c9a0"},"vehicle_type_id":"4","last_reported":1761725719,"current_range_meters":20400,"station_id":"ce4bgup2rcd13ifvqcn0","pricing_plan_id":"cebpf4jnsgd1na2vs0mg"},{"bike_id":"9a597d49-3ffe-4f5a-ae05-a9c4ea5e15fe","system_id":"levelo_inurba_marseille","lat":43.29057,"lon":5.37157,"is_reserved":false,"is_disabled":false,"rental_uris":{"android":"levelo://app?vid=9a597d49-3ffe-4f5a-ae05-a9c4ea5e15fe","ios":"levelo://app?vid=9a597d49-3ffe-4f5a-ae05-a9c4ea5e15fe"},"vehicle_type_id":"4","last_reported":1761725719,"current_range_meters":20400,"station_id":"ce4bh5p2rcd13ifvqe4g","pricing_plan_id":"cebpf4jnsgd1na2vs0mg"},{"bike_id":"237b768a-9673-4f42-9189-05a43c0b2dbc","system_id":"levelo_inurba_marseille","lat":43.31351,"lon":5.36739,"is_reserved":false,"is_disabled":false,"rental_uris":{"android":"levelo://app?vid=237b768a-9673-4f42-9189-05a43c0b2dbc","ios":"levelo://app?vid=237b768a-9673-4f42-9189-05a43c0b2dbc"},"vehicle_type_id":"4","last_reported":1761725719,"current_range_meters":20400,"station_id":"ce4bgr92rcd13ifvqc6g","pricing_plan_id":"cebpf4jnsgd1na2vs0mg"},{"bike_id":"347bdabb-bc7c-40e1-b905-2886819327e2","system_id":"levelo_inurba_marseille","lat":43.301492,"lon":5.380853,"is_reserved":false,"is_disabled":false,"rental_uris":{"android":"levelo://app?vid=347bdabb-bc7c-40e1-b905-2886819327e2","ios":"levelo://app?vid=347bdabb-bc7c-40e1-b905-2886819327e2"},"vehicle_type_id":"4","last_reported":1761725719,"current_range_meters":20400,"station_id":"ce4bgjp2rcd13ifvqbh0","pricing_plan_id":"cebpf4jnsgd1na2vs0mg"},{"bike_id":"72fb4fe8-29f0-47ec-a970-0be6b8af1ad5","system_id":"levelo_inurba_marseille","lat":43.29189,"lon":5.35807,"is_reserved":false,"is_disabled":false,"rental_uris":{"android":"levelo://app?vid=72fb4fe8-29f0-47ec-a970-0be6b8af1ad5","ios":"levelo://app?vid=72fb4fe8-29f0-47ec-a970-0be6b8af1ad5"},"vehicle_type_id":"4","last_reported":1761725719,"current_range_meters":20400,"station_id":"ce4bhb12rcd13ifvqel0","pricing_plan_id":"cebpf4jnsgd1na2vs0mg"},{"bike_id":"1bd718b4-1222-4c8e-8068-bffec17b08a5","system_id":"levelo_inurba_marseille","lat":43.24182,"lon":5.39731,"is_reserved":false,"is_disabled":false,"rental_uris":{"android":"levelo://app?vid=1bd718b4-1222-4c8e-8068-bffec17b08a5","ios":"levelo://app?vid=1bd718b4-1222-4c8e-8068-bffec17b08a5"},"vehicle_type_id":"4","last_reported":1761725719,"current_range_meters":20400,"station_id":"ce4bhn12rcd13ifvqgpg","pricing_plan_id":"cebpf4jnsgd1na2vs0mg"},{"bike_id":"9266097c-a664-4465-bf39-7059e793b09b","system_id":"levelo_inurba_marseille","lat":43.3091,"lon":5.36843,"is_reserved":false,"is_disabled":false,"rental_uris":{"android":"levelo://app?vid=9266097c-a664-4465-bf39-7059e793b09b","ios":"levelo://app?vid=9266097c-a664-4465-bf39-7059e793b09b"},"vehicle_type_id":"4","last_reported":1761725719,"current_range_meters":20400,"station_id":"ce4bgn92rcd13ifvqbvg","pricing_plan_id":"cebpf4jnsgd1na2vs0mg"},{"bike_id":"9b93b5e1-c939-4745-bf85-2d21945442dc","system_id":"levelo_inurba_marseille","lat":43.29999,"lon":5.36399,"is_reserved":false,"is_disabled":false,"rental_uris":{"android":"levelo://app?vid=9b93b5e1-c939-4745-bf85-2d21945442dc","ios":"levelo://app?vid=9b93b5e1-c939-4745-bf85-2d21945442dc"},"vehicle_type_id":"4","last_reported":1761725719,"current_range_meters":20800,"station_id":"","pricing_plan_id":"cebpf4jnsgd1na2vs0mg"},{"bike_id":"23e2cc5b-db02-46b7-a7d0-47b743ea409c","system_id":"levelo_inurba_marseille","lat":43.24172,"lon":5.39712,"is_reserved":false,"is_disabled":false,"rental_uris":{"android":"levelo://app?vid=23e2cc5b-db02-46b7-a7d0-47b743ea409c","ios":"levelo://app?vid=23e2cc5b-db02-46b7-a7d0-47b743ea409c"},"vehicle_type_id":"4","last_reported":1761725719,"current_range_meters":20800,"station_id":"ce4bhn12rcd13ifvqgpg","pricing_plan_id":"cebpf4jnsgd1na2vs0mg"},{"bike_id":"abcb1b02-d78e-418d-8c2f-a435e1e1e491","system_id":"levelo_inurba_marseille","lat":43.27947,"lon":5.41047,"is_reserved":false,"is_disabled":false,"rental_uris":{"android":"levelo://app?vid=abcb1b02-d78e-418d-8c2f-a435e1e1e491","ios":"levelo://app?vid=abcb1b02-d78e-418d-8c2f-a435e1e1e491"},"vehicle_type_id":"4","last_reported":1761725719,"current_range_meters":20800,"station_id":"ce4bhnp2rcd13ifvqh0g","pricing_plan_id":"cebpf4jnsgd1na2vs0mg"},{"bike_id":"2a5e1df6-abaa-43d8-a326-8fc6517b2c52","system_id":"levelo_inurba_marseille","lat":43.22573,"lon":5.41628,"is_reserved":false,"is_disabled":false,"rental_uris":{"android":"levelo://app?vid=2a5e1df6-abaa-43d8-a326-8fc6517b2c52","ios":"levelo://app?vid=2a5e1df6-abaa-43d8-a326-8fc6517b2c52"},"vehicle_type_id":"4","last_reported":1761725719,"current_range_meters":20800,"station_id":"st_d2o4gvlbi1j2169b742g","pricing_plan_id":"cebpf4jnsgd1na2vs0mg"},{"bike_id":"8c95be30-f2c0-4f5b-aa2b-61d715cec486","system_id":"levelo_inurba_marseille","lat":43.31462,"lon":5.37071,"is_reserved":false,"is_disabled":false,"rental_uris":{"android":"levelo://app?vid=8c95be30-f2c0-4f5b-aa2b-61d715cec486","ios":"levelo://app?vid=8c95be30-f2c0-4f5b-aa2b-61d715cec486"},"vehicle_type_id":"4","last_reported":1761725719,"current_range_meters":20800,"station_id":"","pricing_plan_id":"cebpf4jnsgd1na2vs0mg"},{"bike_id":"8ff7698c-7e5c-4194-9f4c-b674091b39a8","system_id":"levelo_inurba_marseille","lat":43.27941,"lon":5.40388,"is_reserved":false,"is_disabled":false,"rental_uris":{"android":"levelo://app?vid=8ff7698c-7e5c-4194-9f4c-b674091b39a8","ios":"levelo://app?vid=8ff7698c-7e5c-4194-9f4c-b674091b39a8"},"vehicle_type_id":"4","last_reported":1761725719,"current_range_meters":20800,"station_id":"","pricing_plan_id":"cebpf4jnsgd1na2vs0mg"},{"bike_id":"c1219d33-b2f7-4216-930a-843be9dc20a8","system_id":"levelo_inurba_marseille","lat":43.33769,"lon":5.37493,"is_reserved":false,"is_disabled":false,"rental_uris":{"android":"levelo://app?vid=c1219d33-b2f7-4216-930a-843be9dc20a8","ios":"levelo://app?vid=c1219d33-b2f7-4216-930a-843be9dc20a8"},"vehicle_type_id":"4","last_reported":1761725719,"current_range_meters":20800,"station_id":"","pricing_plan_id":"cebpf4jnsgd1na2vs0mg"},{"bike_id":"3ccbad45-41c7-4b92-bea1-b635a899572f","system_id":"levelo_inurba_marseille","lat":43.31479,"lon":5.37298,"is_reserved":false,"is_disabled":false,"rental_uris":{"android":"levelo://app?vid=3ccbad45-41c7-4b92-bea1-b635a899572f","ios":"levelo://app?vid=3ccbad45-41c7-4b92-bea1-b635a899572f"},"vehicle_type_id":"4","last_reported":1761725719,"current_range_meters":20800,"station_id":"ce4bgt12rcd13ifvqcd0","pricing_plan_id":"cebpf4jnsgd1na2vs0mg"},{"bike_id":"6e727f51-e1be-4a14-a275-04bd16a55958","system_id":"levelo_inurba_marseille","lat":43.286161,"lon":5.351003,"is_reserved":false,"is_disabled":true,"rental_uris":{"android":"levelo://app?vid=6e727f51-e1be-4a14-a275-04bd16a55958","ios":"levelo://app?vid=6e727f51-e1be-4a14-a275-04bd16a55958"},"vehicle_type_id":"4","last_reported":1761725719,"current_range_meters":20800,"station_id":"ce4bhch2rcd13ifvqeug","pricing_plan_id":"cebpf4jnsgd1na2vs0mg"},{"bike_id":"f907fbe3-e0ff-4d7b-8844-5301dede0944","system_id":"levelo_inurba_marseille","lat":43.273682,"lon":5.362544,"is_reserved":false,"is_disabled":false,"rental_uris":{"android":"levelo://app?vid=f907fbe3-e0ff-4d7b-8844-5301dede0944","ios":"levelo://app?vid=f907fbe3-e0ff-4d7b-8844-5301dede0944"},"vehicle_type_id":"4","last_reported":1761725719,"current_range_meters":20800,"station_id":"ce4bhbh2rcd13ifvqeo0","pricing_plan_id":"cebpf4jnsgd1na2vs0mg"},{"bike_id":"f3f4fd84-e4b0-4a93-bebd-d783c748268d","system_id":"levelo_inurba_marseille","lat":43.27823,"lon":5.35477,"is_reserved":false,"is_disabled":false,"rental_uris":{"android":"levelo://app?vid=f3f4fd84-e4b0-4a93-bebd-d783c748268d","ios":"levelo://app?vid=f3f4fd84-e4b0-4a93-bebd-d783c748268d"},"vehicle_type_id":"4","last_reported":1761725719,"current_range_meters":21600,"station_id":"","pricing_plan_id":"cebpf4jnsgd1na2vs0mg"},{"bike_id":"afcbd88d-ae01-4f58-ab2c-71abb3c65ecc","system_id":"levelo_inurba_marseille","lat":43.31329,"lon":5.39729,"is_reserved":false,"is_disabled":false,"rental_uris":{"android":"levelo://app?vid=afcbd88d-ae01-4f58-ab2c-71abb3c65ecc","ios":"levelo://app?vid=afcbd88d-ae01-4f58-ab2c-71abb3c65ecc"},"vehicle_type_id":"4","last_reported":1761725719,"current_range_meters":21600,"station_id":"ce4bgvp2rcd13ifvqcu0","pricing_plan_id":"cebpf4jnsgd1na2vs0mg"},{"bike_id":"fc4e308e-ca9c-40cc-8299-2c92a327e969","system_id":"levelo_inurba_marseille","lat":43.30777,"lon":5.37653,"is_reserved":false,"is_disabled":true,"rental_uris":{"android":"levelo://app?vid=fc4e308e-ca9c-40cc-8299-2c92a327e969","ios":"levelo://app?vid=fc4e308e-ca9c-40cc-8299-2c92a327e969"},"vehicle_type_id":"4","last_reported":1761725719,"current_range_meters":21600,"station_id":"ce4bgv92rcd13ifvqcq0","pricing_plan_id":"cebpf4jnsgd1na2vs0mg"},{"bike_id":"4e7d4135-733f-4d6e-93a2-1f5017539ea4","system_id":"levelo_inurba_marseille","lat":43.3247,"lon":5.3657,"is_reserved":false,"is_disabled":false,"rental_uris":{"android":"levelo://app?vid=4e7d4135-733f-4d6e-93a2-1f5017539ea4","ios":"levelo://app?vid=4e7d4135-733f-4d6e-93a2-1f5017539ea4"},"vehicle_type_id":"4","last_reported":1761725719,"current_range_meters":21600,"station_id":"ce4bhs12rcd13ifvqhvg","pricing_plan_id":"cebpf4jnsgd1na2vs0mg"},{"bike_id":"422559d0-d6b2-49ff-8b7f-7e11554a5c39","system_id":"levelo_inurba_marseille","lat":43.26931,"lon":5.38929,"is_reserved":false,"is_disabled":false,"rental_uris":{"android":"levelo://app?vid=422559d0-d6b2-49ff-8b7f-7e11554a5c39","ios":"levelo://app?vid=422559d0-d6b2-49ff-8b7f-7e11554a5c39"},"vehicle_type_id":"4","last_reported":1761725719,"current_range_meters":21600,"station_id":"ce4bhhh2rcd13ifvqfl0","pricing_plan_id":"cebpf4jnsgd1na2vs0mg"},{"bike_id":"1aa44bf6-a55a-4bb6-821a-df2b61f05684","system_id":"levelo_inurba_marseille","lat":43.30146,"lon":5.3742,"is_reserved":false,"is_disabled":false,"rental_uris":{"android":"levelo://app?vid=1aa44bf6-a55a-4bb6-821a-df2b61f05684","ios":"levelo://app?vid=1aa44bf6-a55a-4bb6-821a-df2b61f05684"},"vehicle_type_id":"4","last_reported":1761725719,"current_range_meters":21600,"station_id":"ce4bgs92rcd13ifvqcc0","pricing_plan_id":"cebpf4jnsgd1na2vs0mg"},{"bike_id":"767734d0-3817-49a5-a487-47c20af2dcaf","system_id":"levelo_inurba_marseille","lat":43.261505,"lon":5.416513,"is_reserved":false,"is_disabled":false,"rental_uris":{"android":"levelo://app?vid=767734d0-3817-49a5-a487-47c20af2dcaf","ios":"levelo://app?vid=767734d0-3817-49a5-a487-47c20af2dcaf"},"vehicle_type_id":"4","last_reported":1761725719,"current_range_meters":21600,"station_id":"ce4bhkp2rcd13ifvqgd0","pricing_plan_id":"cebpf4jnsgd1na2vs0mg"},{"bike_id":"64ba632b-8fce-47d0-9c32-67fe23eaf803","system_id":"levelo_inurba_marseille","lat":43.2721,"lon":5.39176,"is_reserved":false,"is_disabled":false,"rental_uris":{"android":"levelo://app?vid=64ba632b-8fce-47d0-9c32-67fe23eaf803","ios":"levelo://app?vid=64ba632b-8fce-47d0-9c32-67fe23eaf803"},"vehicle_type_id":"4","last_reported":1761725719,"current_range_meters":21600,"station_id":"ce4bhhp2rcd13ifvqfm0","pricing_plan_id":"cebpf4jnsgd1na2vs0mg"},{"bike_id":"41ba054d-a6ac-451b-87b4-2e6ad1e033df","system_id":"levelo_inurba_marseille","lat":43.25945,"lon":5.40902,"is_reserved":false,"is_disabled":false,"rental_uris":{"android":"levelo://app?vid=41ba054d-a6ac-451b-87b4-2e6ad1e033df","ios":"levelo://app?vid=41ba054d-a6ac-451b-87b4-2e6ad1e033df"},"vehicle_type_id":"4","last_reported":1761725719,"current_range_meters":21600,"station_id":"ce4bhm92rcd13ifvqglg","pricing_plan_id":"cebpf4jnsgd1na2vs0mg"},{"bike_id":"74a107ac-7212-4d1c-ac0e-f630ec0d9eda","system_id":"levelo_inurba_marseille","lat":43.30477,"lon":5.37909,"is_reserved":false,"is_disabled":false,"rental_uris":{"android":"levelo://app?vid=74a107ac-7212-4d1c-ac0e-f630ec0d9eda","ios":"levelo://app?vid=74a107ac-7212-4d1c-ac0e-f630ec0d9eda"},"vehicle_type_id":"4","last_reported":1761725719,"current_range_meters":21600,"station_id":"ce4bgup2rcd13ifvqcn0","pricing_plan_id":"cebpf4jnsgd1na2vs0mg"},{"bike_id":"2ecac202-cc2c-49f5-8dea-4c509f950408","system_id":"levelo_inurba_marseille","lat":43.30165,"lon":5.3808,"is_reserved":false,"is_disabled":false,"rental_uris":{"android":"levelo://app?vid=2ecac202-cc2c-49f5-8dea-4c509f950408","ios":"levelo://app?vid=2ecac202-cc2c-49f5-8dea-4c509f950408"},"vehicle_type_id":"4","last_reported":1761725719,"current_range_meters":21600,"station_id":"ce4bgjp2rcd13ifvqbh0","pricing_plan_id":"cebpf4jnsgd1na2vs0mg"},{"bike_id":"3c05fdca-41d6-45f1-a6ba-ee8c6153bcca","system_id":"levelo_inurba_marseille","lat":43.26556,"lon":5.37306,"is_reserved":false,"is_disabled":false,"rental_uris":{"android":"levelo://app?vid=3c05fdca-41d6-45f1-a6ba-ee8c6153bcca","ios":"levelo://app?vid=3c05fdca-41d6-45f1-a6ba-ee8c6153bcca"},"vehicle_type_id":"4","last_reported":1761725719,"current_range_meters":22000,"station_id":"ce4bhg12rcd13ifvqf70","pricing_plan_id":"cebpf4jnsgd1na2vs0mg"},{"bike_id":"f89d499f-6923-4f68-a6f6-9bd7973b36a4","system_id":"levelo_inurba_marseille","lat":43.30107,"lon":5.38753,"is_reserved":false,"is_disabled":false,"rental_uris":{"android":"levelo://app?vid=f89d499f-6923-4f68-a6f6-9bd7973b36a4","ios":"levelo://app?vid=f89d499f-6923-4f68-a6f6-9bd7973b36a4"},"vehicle_type_id":"4","last_reported":1761725719,"current_range_meters":22000,"station_id":"","pricing_plan_id":"cebpf4jnsgd1na2vs0mg"},{"bike_id":"3e015a0c-489b-4c11-be52-20f33a65c819","system_id":"levelo_inurba_marseille","lat":43.33031,"lon":5.39242,"is_reserved":false,"is_disabled":false,"rental_uris":{"android":"levelo://app?vid=3e015a0c-489b-4c11-be52-20f33a65c819","ios":"levelo://app?vid=3e015a0c-489b-4c11-be52-20f33a65c819"},"vehicle_type_id":"4","last_reported":1761725719,"current_range_meters":22000,"station_id":"","pricing_plan_id":"cebpf4jnsgd1na2vs0mg"},{"bike_id":"05be623e-5bb9-4e2c-9cf8-04ff8a3c2b60","system_id":"levelo_inurba_marseille","lat":43.31532,"lon":5.38031,"is_reserved":false,"is_disabled":false,"rental_uris":{"android":"levelo://app?vid=05be623e-5bb9-4e2c-9cf8-04ff8a3c2b60","ios":"levelo://app?vid=05be623e-5bb9-4e2c-9cf8-04ff8a3c2b60"},"vehicle_type_id":"4","last_reported":1761725719,"current_range_meters":22000,"station_id":"ce4bhsp2rcd13ifvqi50","pricing_plan_id":"cebpf4jnsgd1na2vs0mg"},{"bike_id":"160fd2b7-fb27-4cbe-94cb-ca2db5f41e13","system_id":"levelo_inurba_marseille","lat":43.27067,"lon":5.38308,"is_reserved":false,"is_disabled":false,"rental_uris":{"android":"levelo://app?vid=160fd2b7-fb27-4cbe-94cb-ca2db5f41e13","ios":"levelo://app?vid=160fd2b7-fb27-4cbe-94cb-ca2db5f41e13"},"vehicle_type_id":"4","last_reported":1761725719,"current_range_meters":22000,"station_id":"st_d3n2fo6cfp8s73cte1j0","pricing_plan_id":"cebpf4jnsgd1na2vs0mg"},{"bike_id":"4b12e3ad-8bab-47a7-928f-b7e59fd707f5","system_id":"levelo_inurba_marseille","lat":43.3169,"lon":5.3766,"is_reserved":false,"is_disabled":false,"rental_uris":{"android":"levelo://app?vid=4b12e3ad-8bab-47a7-928f-b7e59fd707f5","ios":"levelo://app?vid=4b12e3ad-8bab-47a7-928f-b7e59fd707f5"},"vehicle_type_id":"4","last_reported":1761725719,"current_range_meters":22000,"station_id":"","pricing_plan_id":"cebpf4jnsgd1na2vs0mg"},{"bike_id":"331fac7e-3ecc-4356-be68-1610a0f8b333","system_id":"levelo_inurba_marseille","lat":43.290061,"lon":5.356029,"is_reserved":false,"is_disabled":false,"rental_uris":{"android":"levelo://app?vid=331fac7e-3ecc-4356-be68-1610a0f8b333","ios":"levelo://app?vid=331fac7e-3ecc-4356-be68-1610a0f8b333"},"vehicle_type_id":"4","last_reported":1761725719,"current_range_meters":22000,"station_id":"ce4bhb12rcd13ifvqem0","pricing_plan_id":"cebpf4jnsgd1na2vs0mg"},{"bike_id":"92c77a31-3d19-49ec-af80-594c28c7621a","system_id":"levelo_inurba_marseille","lat":43.29369,"lon":5.37837,"is_reserved":false,"is_disabled":false,"rental_uris":{"android":"levelo://app?vid=92c77a31-3d19-49ec-af80-594c28c7621a","ios":"levelo://app?vid=92c77a31-3d19-49ec-af80-594c28c7621a"},"vehicle_type_id":"4","last_reported":1761725719,"current_range_meters":22000,"station_id":"ce4bgjh2rcd13ifvqbf0","pricing_plan_id":"cebpf4jnsgd1na2vs0mg"},{"bike_id":"5d6dab70-76c7-420b-ad97-bb518b3696b2","system_id":"levelo_inurba_marseille","lat":43.296,"lon":5.37689,"is_reserved":false,"is_disabled":false,"rental_uris":{"android":"levelo://app?vid=5d6dab70-76c7-420b-ad97-bb518b3696b2","ios":"levelo://app?vid=5d6dab70-76c7-420b-ad97-bb518b3696b2"},"vehicle_type_id":"4","last_reported":1761725719,"current_range_meters":22000,"station_id":"ce4bgi92rcd13ifvqb90","pricing_plan_id":"cebpf4jnsgd1na2vs0mg"},{"bike_id":"02783449-1679-465e-a1c9-fafa329f2d04","system_id":"levelo_inurba_marseille","lat":43.313656,"lon":5.38507,"is_reserved":false,"is_disabled":false,"rental_uris":{"android":"levelo://app?vid=02783449-1679-465e-a1c9-fafa329f2d04","ios":"levelo://app?vid=02783449-1679-465e-a1c9-fafa329f2d04"},"vehicle_type_id":"4","last_reported":1761725719,"current_range_meters":22000,"station_id":"ce4bgt92rcd13ifvqcf0","pricing_plan_id":"cebpf4jnsgd1na2vs0mg"},{"bike_id":"f5aa4071-9cc8-4ac1-b60f-81ceec9b8760","system_id":"levelo_inurba_marseille","lat":43.24549,"lon":5.39515,"is_reserved":false,"is_disabled":false,"rental_uris":{"android":"levelo://app?vid=f5aa4071-9cc8-4ac1-b60f-81ceec9b8760","ios":"levelo://app?vid=f5aa4071-9cc8-4ac1-b60f-81ceec9b8760"},"vehicle_type_id":"4","last_reported":1761725719,"current_range_meters":22000,"station_id":"ce4bhlp2rcd13ifvqgjg","pricing_plan_id":"cebpf4jnsgd1na2vs0mg"},{"bike_id":"bcb8291d-d414-4ad2-8a2d-b02c9abb6a74","system_id":"levelo_inurba_marseille","lat":43.28941,"lon":5.36625,"is_reserved":false,"is_disabled":false,"rental_uris":{"android":"levelo://app?vid=bcb8291d-d414-4ad2-8a2d-b02c9abb6a74","ios":"levelo://app?vid=bcb8291d-d414-4ad2-8a2d-b02c9abb6a74"},"vehicle_type_id":"4","last_reported":1761725719,"current_range_meters":22000,"station_id":"ce4bhap2rcd13ifvqek0","pricing_plan_id":"cebpf4jnsgd1na2vs0mg"},{"bike_id":"216e46ca-be00-4e8e-a1e1-fb94531ee1ae","system_id":"levelo_inurba_marseille","lat":43.29554,"lon":5.42286,"is_reserved":false,"is_disabled":false,"rental_uris":{"android":"levelo://app?vid=216e46ca-be00-4e8e-a1e1-fb94531ee1ae","ios":"levelo://app?vid=216e46ca-be00-4e8e-a1e1-fb94531ee1ae"},"vehicle_type_id":"4","last_reported":1761725719,"current_range_meters":22400,"station_id":"ce4bhph2rcd13ifvqhdg","pricing_plan_id":"cebpf4jnsgd1na2vs0mg"},