{"last_updated":1727640538,"ttl":60,"version":"2.2","data":{"bikes":[{"bike_id":"fc63f147-84a5-415c-bb98-25ba16874896","system_id":"levelo_inurba_marseille","lat":43.232,"lon":5.35549,"is_reserved":false,"is_disabled":false,"rental_uris":{"android":"levelo://app?vid=fc63f147-84a5-415c-bb98-25ba16874896","ios":"levelo://app?vid=fc63f147-84a5-415c-bb98-25ba16874896"},"vehicle_type_id":"4","last_reported":1727640539,"current_range_meters":38800,"station_id":"ce4bhu92rcd13ifvqi70","pricing_plan_id":"cebpf4jnsgd1na2vs0mg"},{"bike_id":"553c1614-21ff-498e-a02c-4cdee8b1e7ce","system_id":"levelo_inurba_marseille","lat":43.32656,"lon":5.4099,"is_reserved":false,"is_disabled":false,"rental_uris":{"android":"levelo://app?vid=553c1614-21ff-498e-a02c-4cdee8b1e7ce","ios":"levelo://app?vid=553c1614-21ff-498e-a02c-4cdee8b1e7ce"},"vehicle_type_id":"4","last_reported":1727640539,"current_range_meters":17200,"station_id":"ce4bhpp2rcd13ifvqhgg","pricing_plan_id":"cebpf4jnsgd1na2vs0mg"},{"bike_id":"a78ef135-8636-4c7f-8ea0-04e46d0f96bc","system_id":"levelo_inurba_marseille","lat":43.27366,"lon":5.3836,"is_reserved":false,"is_disabled":false,"rental_uris":{"android":"levelo://app?vid=a78ef135-8636-4c7f-8ea0-04e46d0f96bc","ios":"levelo://app?vid=a78ef135-8636-4c7f-8ea0-04e46d0f96bc"},"vehicle_type_id":"4","last_reported":1727640539,"current_range_meters":30800,"station_id":"ce4bhh92rcd13ifvqfi0","pricing_plan_id":"cebpf4jnsgd1na2vs0mg"},{"bike_id":"dab2f751-d032-46b6-8f20-306f58161217","system_id":"levelo_inurba_marseille","lat":43.28479,"lon":5.38424,"is_reserved":false,"is_disabled":false,"rental_uris":{"android":"levelo://app?vid=dab2f751-d032-46b6-8f20-306f58161217","ios":"levelo://app?vid=dab2f751-d032-46b6-8f20-306f58161217"},"vehicle_type_id":"4","last_reported":1727640539,"current_range_meters":38800,"station_id":"ce4bh512rcd13ifvqe3g","pricing_plan_id":"cebpf4jnsgd1na2vs0mg"},{"bike_id":"a755179d-67ff-44c4-944a-4c9f6c07144d","system_id":"levelo_inurba_marseille","lat":43.30111,"lon":5.39855,"is_reserved":false,"is_disabled":false,"rental_uris":{"android":"levelo://app?vid=a755179d-67ff-44c4-944a-4c9f6c07144d","ios":"levelo://app?vid=a755179d-67ff-44c4-944a-4c9f6c07144d"},"vehicle_type_id":"4","last_reported":1727640539,"current_range_meters":38800,"station_id":"ce4bh0h2rcd13ifvqd40","pricing_plan_id":"cebpf4jnsgd1na2vs0mg"},{"bike_id":"f9659993-0e04-43ee-99a3-06596cee4626","system_id":"levelo_inurba_marseille","lat":43.29048,"lon":5.38672,"is_reserved":false,"is_disabled":false,"rental_uris":{"android":"levelo://app?vid=f9659993-0e04-43ee-99a3-06596cee4626","ios":"levelo://app?vid=f9659993-0e04-43ee-99a3-06596cee4626"},"vehicle_type_id":"4","last_reported":1727640539,"current_range_meters":38000,"station_id":"ce4bh4p2rcd13ifvqe0g","pricing_plan_id":"cebpf4jnsgd1na2vs0mg"},{"bike_id":"77cb985d-6d8b-437e-9ac9-4398f6447ac6","system_id":"levelo_inurba_marseille","lat":43.292847,"lon":5.374576,"is_reserved":false,"is_disabled":false,"rental_uris":{"android":"levelo://app?vid=77cb985d-6d8b-437e-9ac9-4398f6447ac6","ios":"levelo://app?vid=77cb985d-6d8b-437e-9ac9-4398f6447ac6"},"vehicle_type_id":"4","last_reported":1727640539,"current_range_meters":16800,"station_id":"ce4bgi12rcd13ifvqb70","pricing_plan_id":"cebpf4jnsgd1na2vs0mg"},{"bike_id":"0ea9e4c4-cc08-41d9-862d-a80f7d54740c","system_id":"levelo_inurba_marseille","lat":43.3268,"lon":5.37494,"is_reserved":false,"is_disabled":false,"rental_uris":{"android":"levelo://app?vid=0ea9e4c4-cc08-41d9-862d-a80f7d54740c","ios":"levelo://app?vid=0ea9e4c4-cc08-41d9-862d-a80f7d54740c"},"vehicle_type_id":"4","last_reported":1727640539,"current_range_meters":35600,"station_id":"","pricing_plan_id":"cebpf4jnsgd1na2vs0mg"},{"bike_id":"431acd76-2fda-479a-af23-895917a7252a","system_id":"levelo_inurba_marseille","lat":43.32184,"lon":5.38755,"is_reserved":false,"is_disabled":false,"rental_uris":{"android":"levelo://app?vid=431acd76-2fda-479a-af23-895917a7252a","ios":"levelo://app?vid=431acd76-2fda-479a-af23-895917a7252a"},"vehicle_type_id":"4","last_reported":1727640539,"current_range_meters":22400,"station_id":"","pricing_plan_id":"cebpf4jnsgd1na2vs0mg"},{"bike_id":"adb2b5f2-f773-48f0-a9f3-574666be6ba5","system_id":"levelo_inurba_marseille","lat":43.2606,"lon":5.39397,"is_reserved":false,"is_disabled":false,"rental_uris":{"android":"levelo://app?vid=adb2b5f2-f773-48f0-a9f3-574666be6ba5","ios":"levelo://app?vid=adb2b5f2-f773-48f0-a9f3-574666be6ba5"},"vehicle_type_id":"4","last_reported":1727640539,"current_range_meters":34000,"station_id":"ce4bhh92rcd13ifvqfj0","pricing_plan_id":"cebpf4jnsgd1na2vs0mg"},{"bike_id":"d4c74265-2442-4454-aa29-65e3cce400cc","system_id":"levelo_inurba_marseille","lat":43.32303,"lon":5.3866,"is_reserved":false,"is_disabled":false,"rental_uris":{"android":"levelo://app?vid=d4c74265-2442-4454-aa29-65e3cce400cc","ios":"levelo://app?vid=d4c74265-2442-4454-aa29-65e3cce400cc"},"vehicle_type_id":"4","last_reported":1727640539,"current_range_meters":36800,"station_id":"","pricing_plan_id":"cebpf4jnsgd1na2vs0mg"},{"bike_id":"7c0d0619-931a-4c22-ae55-b8eb503b9399","system_id":"levelo_inurba_marseille","lat":43.29026,"lon":5.38135,"is_reserved":false,"is_disabled":false,"rental_uris":{"android":"levelo://app?vid=7c0d0619-931a-4c22-ae55-b8eb503b9399","ios":"levelo://app?vid=7c0d0619-931a-4c22-ae55-b8eb503b9399"},"vehicle_type_id":"4","last_reported":1727640539,"current_range_meters":38400,"station_id":"ce4bh4p2rcd13ifvqe1g","pricing_plan_id":"cebpf4jnsgd1na2vs0mg"},{"bike_id":"9a47dcb1-61bb-411f-affb-55731480b4cc","system_id":"levelo_inurba_marseille","lat":43.23959,"lon":5.36623,"is_reserved":false,"is_disabled":false,"rental_uris":{"android":"levelo://app?vid=9a47dcb1-61bb-411f-affb-55731480b4cc","ios":"levelo://app?vid=9a47dcb1-61bb-411f-affb-55731480b4cc"},"vehicle_type_id":"4","last_reported":1727640539,"current_range_meters":36400,"station_id":"ce4bhi12rcd13ifvqfp0","pricing_plan_id":"cebpf4jnsgd1na2vs0mg"},{"bike_id":"eaad5887-be8f-44ad-901f-8e88f39a4594","system_id":"levelo_inurba_marseille","lat":43.27561,"lon":5.38415,"is_reserved":false,"is_disabled":false,"rental_uris":{"android":"levelo://app?vid=eaad5887-be8f-44ad-901f-8e88f39a4594","ios":"levelo://app?vid=eaad5887-be8f-44ad-901f-8e88f39a4594"},"vehicle_type_id":"4","last_reported":1727640539,"current_range_meters":39200,"station_id":"ce4bhh92rcd13ifvqfi0","pricing_plan_id":"cebpf4jnsgd1na2vs0mg"},{"bike_id":"bdd1a9da-0e7a-4096-84de-1c98959cb56a","system_id":"levelo_inurba_marseille","lat":43.308897,"lon":5.37197,"is_reserved":false,"is_disabled":false,"rental_uris":{"android":"levelo://app?vid=bdd1a9da-0e7a-4096-84de-1c98959cb56a","ios":"levelo://app?vid=bdd1a9da-0e7a-4096-84de-1c98959cb56a"},"vehicle_type_id":"4","last_reported":1727640539,"current_range_meters":17200,"station_id":"ce4bguh2rcd13ifvqckg","pricing_plan_id":"cebpf4jnsgd1na2vs0mg"},{"bike_id":"76e6ba9f-8f24-47d5-a6ef-9536a1d68289","system_id":"levelo_inurba_marseille","lat":43.28698,"lon":5.3739,"is_reserved":false,"is_disabled":false,"rental_uris":{"android":"levelo://app?vid=76e6ba9f-8f24-47d5-a6ef-9536a1d68289","ios":"levelo://app?vid=76e6ba9f-8f24-47d5-a6ef-9536a1d68289"},"vehicle_type_id":"4","last_reported":1727640539,"current_range_meters":38800,"station_id":"ce4bh3p2rcd13ifvqdq0","pricing_plan_id":"cebpf4jnsgd1na2vs0mg"},{"bike_id":"0c83b881-2104-4096-b03b-bb90e8cfa37c","system_id":"levelo_inurba_marseille","lat":43.28419,"lon":5.37505,"is_reserved":false,"is_disabled":false,"rental_uris":{"android":"levelo://app?vid=0c83b881-2104-4096-b03b-bb90e8cfa37c","ios":"levelo://app?vid=0c83b881-2104-4096-b03b-bb90e8cfa37c"},"vehicle_type_id":"4","last_reported":1727640539,"current_range_meters":38800,"station_id":"ce4bh412rcd13ifvqds0","pricing_plan_id":"cebpf4jnsgd1na2vs0mg"},{"bike_id":"774fb271-ce7e-434d-a9d4-c38b1218490c","system_id":"levelo_inurba_marseille","lat":43.24654,"lon":5.38892,"is_reserved":false,"is_disabled":false,"rental_uris":{"android":"levelo://app?vid=774fb271-ce7e-434d-a9d4-c38b1218490c","ios":"levelo://app?vid=774fb271-ce7e-434d-a9d4-c38b1218490c"},"vehicle_type_id":"4","last_reported":1727640539,"current_range_meters":11200,"station_id":"ce4bhg12rcd13ifvqf60","pricing_plan_id":"cebpf4jnsgd1na2vs0mg"},{"bike_id":"88038523-8ca9-431f-9ddd-6e794924d11f","system_id":"levelo_inurba_marseille","lat":43.28149,"lon":5.42638,"is_reserved":false,"is_disabled":false,"rental_uris":{"android":"levelo://app?vid=88038523-8ca9-431f-9ddd-6e794924d11f","ios":"levelo://app?vid=88038523-8ca9-431f-9ddd-6e794924d11f"},"vehicle_type_id":"4","last_reported":1727640539,"current_range_meters":32000,"station_id":"ce4bhnh2rcd13ifvqgug","pricing_plan_id":"cebpf4jnsgd1na2vs0mg"},{"bike_id":"7eb5ada1-37b7-4008-9222-8135b2129ca5","system_id":"levelo_inurba_marseille","lat":43.294391,"lon":5.397428,"is_reserved":false,"is_disabled":false,"rental_uris":{"android":"levelo://app?vid=7eb5ada1-37b7-4008-9222-8135b2129ca5","ios":"levelo://app?vid=7eb5ada1-37b7-4008-9222-8135b2129ca5"},"vehicle_type_id":"4","last_reported":1727640539,"current_range_meters":37600,"station_id":"ce4bh3h2rcd13ifvqdo0","pricing_plan_id":"cebpf4jnsgd1na2vs0mg"},{"bike_id":"82af647a-a760-4753-944e-ea2931278f38","system_id":"levelo_inurba_marseille","lat":43.29685,"lon":5.37287,"is_reserved":false,"is_disabled":false,"rental_uris":{"android":"levelo://app?vid=82af647a-a760-4753-944e-ea2931278f38","ios":"levelo://app?vid=82af647a-a760-4753-944e-ea2931278f38"},"vehicle_type_id":"4","last_reported":1727640539,"current_range_meters":8000,"station_id":"ce4bgk12rcd13ifvqbj0","pricing_plan_id":"cebpf4jnsgd1na2vs0mg"},{"bike_id":"0521cc37-3a0f-4bc8-964a-96f026706e98","system_id":"levelo_inurba_marseille","lat":43.28024,"lon":5.36085,"is_reserved":false,"is_disabled":false,"rental_uris":{"android":"levelo://app?vid=0521cc37-3a0f-4bc8-964a-96f026706e98","ios":"levelo://app?vid=0521cc37-3a0f-4bc8-964a-96f026706e98"},"vehicle_type_id":"4","last_reported":1727640539,"current_range_meters":23200,"station_id":"","pricing_plan_id":"cebpf4jnsgd1na2vs0mg"},{"bike_id":"b7e783cf-2e99-47af-aa70-59c0709d4797","system_id":"levelo_inurba_marseille","lat":43.31708,"lon":5.37753,"is_reserved":false,"is_disabled":false,"rental_uris":{"android":"levelo://app?vid=b7e783cf-2e99-47af-aa70-59c0709d4797","ios":"levelo://app?vid=b7e783cf-2e99-47af-aa70-59c0709d4797"},"vehicle_type_id":"4","last_reported":1727640539,"current_range_meters":32800,"station_id":"ce4bgth2rcd13ifvqch0","pricing_plan_id":"cebpf4jnsgd1na2vs0mg"},{"bike_id":"2fa06bcd-27f4-4466-a001-ff3ebecd62a2","system_id":"levelo_inurba_marseille","lat":43.28934,"lon":5.39616,"is_reserved":false,"is_disabled":false,"rental_uris":{"android":"levelo://app?vid=2fa06bcd-27f4-4466-a001-ff3ebecd62a2","ios":"levelo://app?vid=2fa06bcd-27f4-4466-a001-ff3ebecd62a2"},"vehicle_type_id":"4","last_reported":1727640539,"current_range_meters":34800,"station_id":"ce4bh3h2rcd13ifvqdn0","pricing_plan_id":"cebpf4jnsgd1na2vs0mg"},{"bike_id":"45273442-0258-4613-8edf-b25bf26f941c","system_id":"levelo_inurba_marseille","lat":43.2953,"lon":5.39038,"is_reserved":false,"is_disabled":false,"rental_uris":{"android":"levelo://app?vid=45273442-0258-4613-8edf-b25bf26f941c","ios":"levelo://app?vid=45273442-0258-4613-8edf-b25bf26f941c"},"vehicle_type_id":"4","last_reported":1727640539,"current_range_meters":3600,"station_id":"ce4bh3p2rcd13ifvqdp0","pricing_plan_id":"cebpf4jnsgd1na2vs0mg"},{"bike_id":"bdb18208-054b-41fa-bb82-896fdd87d6ce","system_id":"levelo_inurba_marseille","lat":43.29634,"lon":5.40595,"is_reserved":false,"is_disabled":false,"rental_uris":{"android":"levelo://app?vid=bdb18208-054b-41fa-bb82-896fdd87d6ce","ios":"levelo://app?vid=bdb18208-054b-41fa-bb82-896fdd87d6ce"},"vehicle_type_id":"4","last_reported":1727640539,"current_range_meters":22000,"station_id":"ce4bh0h2rcd13ifvqd60","pricing_plan_id":"cebpf4jnsgd1na2vs0mg"},{"bike_id":"1ce7c25b-6bd2-4b64-b4ae-543ea784fc5d","system_id":"levelo_inurba_marseille","lat":43.337444,"lon":5.374475,"is_reserved":false,"is_disabled":false,"rental_uris":{"android":"levelo://app?vid=1ce7c25b-6bd2-4b64-b4ae-543ea784fc5d","ios":"levelo://app?vid=1ce7c25b-6bd2-4b64-b4ae-543ea784fc5d"},"vehicle_type_id":"4","last_reported":1727640539,"current_range_meters":31200,"station_id":"","pricing_plan_id":"cebpf4jnsgd1na2vs0mg"},{"bike_id":"dda2bca1-17aa-4dee-93b7-7c752c09dbea","system_id":"levelo_inurba_marseille","lat":43.27167,"lon":5.40996,"is_reserved":false,"is_disabled":false,"rental_uris":{"android":"levelo://app?vid=dda2bca1-17aa-4dee-93b7-7c752c09dbea","ios":"levelo://app?vid=dda2bca1-17aa-4dee-93b7-7c752c09dbea"},"vehicle_type_id":"4","last_reported":1727640539,"current_range_meters":15200,"station_id":"ce4bhl12rcd13ifvqgf0","pricing_plan_id":"cebpf4jnsgd1na2vs0mg"},{"bike_id":"32b43324-9ed6-4060-888a-67bc6559de67","system_id":"levelo_inurba_marseille","lat":43.29192,"lon":5.39317,"is_reserved":false,"is_disabled":false,"rental_uris":{"android":"levelo://app?vid=32b43324-9ed6-4060-888a-67bc6559de67","ios":"levelo://app?vid=32b43324-9ed6-4060-888a-67bc6559de67"},"vehicle_type_id":"4","last_reported":1727640539,"current_range_meters":35200,"station_id":"ce4bh192rcd13ifvqdd0","pricing_plan_id":"cebpf4jnsgd1na2vs0mg"},{"bike_id":"eeb4b54b-284a-4a51-af38-bfe005d55c3e","system_id":"levelo_inurba_marseille","lat":43.24816,"lon":5.37457,"is_reserved":false,"is_disabled":false,"rental_uris":{"android":"levelo://app?vid=eeb4b54b-284a-4a51-af38-bfe005d55c3e","ios":"levelo://app?vid=eeb4b54b-284a-4a51-af38-bfe005d55c3e"},"vehicle_type_id":"4","last_reported":1727640539,"current_range_meters":38400,"station_id":"ce4bhgh2rcd13ifvqfb0","pricing_plan_id":"cebpf4jnsgd1na2vs0mg"},{"bike_id":"af1a67a4-25f7-4574-b0de-d20366eef021","system_id":"levelo_inurba_marseille","lat":43.28927,"lon":5.38395,"is_reserved":false,"is_disabled":false,"rental_uris":{"android":"levelo://app?vid=af1a67a4-25f7-4574-b0de-d20366eef021","ios":"levelo://app?vid=af1a67a4-25f7-4574-b0de-d20366eef021"},"vehicle_type_id":"4","last_reported":1727640539,"current_range_meters":4000,"station_id":"ce4bh612rcd13ifvqe6g","pricing_plan_id":"cebpf4jnsgd1na2vs0mg"},{"bike_id":"f0ce4694-7c57-4478-be47-31410d84bb02","system_id":"levelo_inurba_marseille","lat":43.29568,"lon":5.39973,"is_reserved":false,"is_disabled":false,"rental_uris":{"android":"levelo://app?vid=f0ce4694-7c57-4478-be47-31410d84bb02","ios":"levelo://app?vid=f0ce4694-7c57-4478-be47-31410d84bb02"},"vehicle_type_id":"4","last_reported":1727640539,"current_range_meters":31200,"station_id":"ce4bh312rcd13ifvqdj0","pricing_plan_id":"cebpf4jnsgd1na2vs0mg"},{"bike_id":"0c6a3edd-0259-43fd-a8d1-3d4bb6023605","system_id":"levelo_inurba_marseille","lat":43.2439,"lon":5.37053,"is_reserved":false,"is_disabled":false,"rental_uris":{"android":"levelo://app?vid=0c6a3edd-0259-43fd-a8d1-3d4bb6023605","ios":"levelo://app?vid=0c6a3edd-0259-43fd-a8d1-3d4bb6023605"},"vehicle_type_id":"4","last_reported":1727640539,"current_range_meters":39200,"station_id":"ce4bhhh2rcd13ifvqfk0","pricing_plan_id":"cebpf4jnsgd1na2vs0mg"},{"bike_id":"2984e241-0d85-429f-b743-7e3cc710001b","system_id":"levelo_inurba_marseille","lat":43.2481,"lon":5.3746,"is_reserved":false,"is_disabled":false,"rental_uris":{"android":"levelo://app?vid=2984e241-0d85-429f-b743-7e3cc710001b","ios":"levelo://app?vid=2984e241-0d85-429f-b743-7e3cc710001b"},"vehicle_type_id":"4","last_reported":1727640539,"current_range_meters":21600,"station_id":"ce4bhgh2rcd13ifvqfb0","pricing_plan_id":"cebpf4jnsgd1na2vs0mg"},{"bike_id":"f11b482f-018b-4f42-a742-421ec3715fbc","system_id":"levelo_inurba_marseille","lat":43.30878,"lon":5.37188,"is_reserved":false,"is_disabled":false,"rental_uris":{"android":"levelo://app?vid=f11b482f-018b-4f42-a742-421ec3715fbc","ios":"levelo://app?vid=f11b482f-018b-4f42-a742-421ec3715fbc"},"vehicle_type_id":"4","last_reported":1727640539,"current_range_meters":38800,"station_id":"ce4bguh2rcd13ifvqckg","pricing_plan_id":"cebpf4jnsgd1na2vs0mg"},{"bike_id":"1e988e40-1aa5-420a-ac46-d8715d568f47","system_id":"levelo_inurba_marseille","lat":43.292084,"lon":5.393269,"is_reserved":false,"is_disabled":false,"rental_uris":{"android":"levelo://app?vid=1e988e40-1aa5-420a-ac46-d8715d568f47","ios":"levelo://app?vid=1e988e40-1aa5-420a-ac46-d8715d568f47"},"vehicle_type_id":"4","last_reported":1727640539,"current_range_meters":38800,"station_id":"ce4bh192rcd13ifvqdd0","pricing_plan_id":"cebpf4jnsgd1na2vs0mg"},{"bike_id":"a9c63fc9-e694-44a5-8fc2-718028eb76c6","system_id":"levelo_inurba_marseille","lat":43.28935,"lon":5.36643,"is_reserved":false,"is_disabled":false,"rental_uris":{"android":"levelo://app?vid=a9c63fc9-e694-44a5-8fc2-718028eb76c6","ios":"levelo://app?vid=a9c63fc9-e694-44a5-8fc2-718028eb76c6"},"vehicle_type_id":"4","last_reported":1727640539,"current_range_meters":36400,"station_id":"ce4bhap2rcd13ifvqek0","pricing_plan_id":"cebpf4jnsgd1na2vs0mg"},{"bike_id":"ce46a156-d0b3-42ea-a724-f29a983e40e7","system_id":"levelo_inurba_marseille","lat":43.28457,"lon":5.35883,"is_reserved":false,"is_disabled":false,"rental_uris":{"android":"levelo://app?vid=ce46a156-d0b3-42ea-a724-f29a983e40e7","ios":"levelo://app?vid=ce46a156-d0b3-42ea-a724-f29a983e40e7"},"vehicle_type_id":"4","last_reported":1727640539,"current_range_meters":16800,"station_id":"ce4bhah2rcd13ifvqei0","pricing_plan_id":"cebpf4jnsgd1na2vs0mg"},{"bike_id":"6a52f468-9bf5-46c2-819d-2c732c18128e","system_id":"levelo_inurba_marseille","lat":43.23961,"lon":5.36628,"is_reserved":false,"is_disabled":false,"rental_uris":{"android":"levelo://app?vid=6a52f468-9bf5-46c2-819d-2c732c18128e","ios":"levelo://app?vid=6a52f468-9bf5-46c2-819d-2c732c18128e"},"vehicle_type_id":"4","last_reported":1727640539,"current_range_meters":33600,"station_id":"ce4bhi12rcd13ifvqfp0","pricing_plan_id":"cebpf4jnsgd1na2vs0mg"},{"bike_id":"d2084bc9-c4ff-4f4a-9690-b66bb8b978c2","system_id":"levelo_inurba_marseille","lat":43.30108,"lon":5.37393,"is_reserved":false,"is_disabled":false,"rental_uris":{"android":"levelo://app?vid=d2084bc9-c4ff-4f4a-9690-b66bb8b978c2","ios":"levelo://app?vid=d2084bc9-c4ff-4f4a-9690-b66bb8b978c2"},"vehicle_type_id":"4","last_reported":1727640539,"current_range_meters":10800,"station_id":"ce4bgs92rcd13ifvqcc0","pricing_plan_id":"cebpf4jnsgd1na2vs0mg"},{"bike_id":"d9614a14-f95d-40a5-beaa-7cd0675a0b19","system_id":"levelo_inurba_marseille","lat":43.30644,"lon":5.40076,"is_reserved":false,"is_disabled":false,"rental_uris":{"android":"levelo://app?vid=d9614a14-f95d-40a5-beaa-7cd0675a0b19","ios":"levelo://app?vid=d9614a14-f95d-40a5-beaa-7cd0675a0b19"},"vehicle_type_id":"4","last_reported":1727640539,"current_range_meters":36000,"station_id":"ce4bh112rcd13ifvqda0","pricing_plan_id":"cebpf4jnsgd1na2vs0mg"},{"bike_id":"bbba276e-e45a-4294-bf9b-2b1d47fbc420","system_id":"levelo_inurba_marseille","lat":43.30802,"lon":5.3816,"is_reserved":false,"is_disabled":false,"rental_uris":{"android":"levelo://app?vid=bbba276e-e45a-4294-bf9b-2b1d47fbc420","ios":"levelo://app?vid=bbba276e-e45a-4294-bf9b-2b1d47fbc420"},"vehicle_type_id":"4","last_reported":1727640539,"current_range_meters":20400,"station_id":"ce4bgt12rcd13ifvqce0","pricing_plan_id":"cebpf4jnsgd1na2vs0mg"},{"bike_id":"9cab4b77-e73b-485b-9196-05681379298d","system_id":"levelo_inurba_marseille","lat":43.32317,"lon":5.38283,"is_reserved":false,"is_disabled":false,"rental_uris":{"android":"levelo://app?vid=9cab4b77-e73b-485b-9196-05681379298d","ios":"levelo://app?vid=9cab4b77-e73b-485b-9196-05681379298d"},"vehicle_type_id":"4","last_reported":1727640539,"current_range_meters":36400,"station_id":"ce4bhr12rcd13ifvqhqg","pricing_plan_id":"cebpf4jnsgd1na2vs0mg"},{"bike_id":"806088eb-7645-4189-b537-b59c2ddf8129","system_id":"levelo_inurba_marseille","lat":43.29884,"lon":5.38906,"is_reserved":false,"is_disabled":false,"rental_uris":{"android":"levelo://app?vid=806088eb-7645-4189-b537-b59c2ddf8129","ios":"levelo://app?vid=806088eb-7645-4189-b537-b59c2ddf8129"},"vehicle_type_id":"4","last_reported":1727640539,"current_range_meters":39200,"station_id":"ce4bh392rcd13ifvqdl0","pricing_plan_id":"cebpf4jnsgd1na2vs0mg"},{"bike_id":"691cc2ed-9094-472f-8b35-466f1924ad13","system_id":"levelo_inurba_marseille","lat":43.31365,"lon":5.38495,"is_reserved":false,"is_disabled":false,"rental_uris":{"android":"levelo://app?vid=691cc2ed-9094-472f-8b35-466f1924ad13","ios":"levelo://app?vid=691cc2ed-9094-472f-8b35-466f1924ad13"},"vehicle_type_id":"4","last_reported":1727640539,"current_range_meters":25200,"station_id":"ce4bgt92rcd13ifvqcf0","pricing_plan_id":"cebpf4jnsgd1na2vs0mg"},{"bike_id":"304c9fff-64f7-45f7-8050-0d25dc45c888","system_id":"levelo_inurba_marseille","lat":43.29282,"lon":5.40128,"is_reserved":false,"is_disabled":false,"rental_uris":{"android":"levelo://app?vid=304c9fff-64f7-45f7-8050-0d25dc45c888","ios":"levelo://app?vid=304c9fff-64f7-45f7-8050-0d25dc45c888"},"vehicle_type_id":"4","last_reported":1727640539,"current_range_meters":38800,"station_id":"ce4bh312rcd13ifvqdk0","pricing_plan_id":"cebpf4jnsgd1na2vs0mg"},{"bike_id":"5b4a633f-0b63-474b-abd4-9003a7b86eed","system_id":"levelo_inurba_marseille","lat":43.32338,"lon":5.40617,"is_reserved":false,"is_disabled":false,"rental_uris":{"android":"levelo://app?vid=5b4a633f-0b63-474b-abd4-9003a7b86eed","ios":"levelo://app?vid=5b4a633f-0b63-474b-abd4-9003a7b86eed"},"vehicle_type_id":"4","last_reported":1727640539,"current_range_meters":39200,"station_id":"ce4bhq92rcd13ifvqhjg","pricing_plan_id":"cebpf4jnsgd1na2vs0mg"},{"bike_id":"f317aa86-5363-4257-8ca7-06b8ea9f26bb","system_id":"levelo_inurba_marseille","lat":43.31525,"lon":5.38031,"is_reserved":false,"is_disabled":false,"rental_uris":{"android":"levelo://app?vid=f317aa86-5363-4257-8ca7-06b8ea9f26bb","ios":"levelo://app?vid=f317aa86-5363-4257-8ca7-06b8ea9f26bb"},"vehicle_type_id":"4","last_reported":1727640539,"current_range_meters":32000,"station_id":"ce4bhsp2rcd13ifvqi50","pricing_plan_id":"cebpf4jnsgd1na2vs0mg"},{"bike_id":"6923d7e8-3e3a-4b7e-939a-485634a2c76b","system_id":"levelo_inurba_marseille","lat":43.2439,"lon":5.37067,"is_reserved":false,"is_disabled":false,"rental_uris":{"android":"levelo://app?vid=6923d7e8-3e3a-4b7e-939a-485634a2c76b","ios":"levelo://app?vid=6923d7e8-3e3a-4b7e-939a-485634a2c76b"},"vehicle_type_id":"4","last_reported":1727640539,"current_range_meters":13600,"station_id":"ce4bhhh2rcd13ifvqfk0","pricing_plan_id":"cebpf4jnsgd1na2vs0mg"},{"bike_id":"e150718b-3b11-4746-aaf5-ed9fe54bd243","system_id":"levelo_inurba_marseille","lat":43.24084,"lon":5.37755,"is_reserved":false,"is_disabled":false,"rental_uris":{"android":"levelo://app?vid=e150718b-3b11-4746-aaf5-ed9fe54bd243","ios":"levelo://app?vid=e150718b-3b11-4746-aaf5-ed9fe54bd243"},"vehicle_type_id":"4","last_reported":1727640539,"current_range_meters":16000,"station_id":"ce4bhnp2rcd13ifvqgvg","pricing_plan_id":"cebpf4jnsgd1na2vs0mg"},{"bike_id":"401555e1-fea2-43a7-9e87-ac6b80166964","system_id":"levelo_inurba_marseille","lat":43.2847,"lon":5.3841,"is_reserved":false,"is_disabled":false,"rental_uris":{"android":"levelo://app?vid=401555e1-fea2-43a7-9e87-ac6b80166964","ios":"levelo://app?vid=401555e1-fea2-43a7-9e87-ac6b80166964"},"vehicle_type_id":"4","last_reported":1727640539,"current_range_meters":38800,"station_id":"ce4bh512rcd13ifvqe3g","pricing_plan_id":"cebpf4jnsgd1na2vs0mg"},{"bike_id":"f39c6f5b-e420-47bc-a7d9-12ef3634b83b","system_id":"levelo_inurba_marseille","lat":43.24805,"lon":5.37454,"is_reserved":false,"is_disabled":false,"rental_uris":{"android":"levelo://app?vid=f39c6f5b-e420-47bc-a7d9-12ef3634b83b","ios":"levelo://app?vid=f39c6f5b-e420-47bc-a7d9-12ef3634b83b"},"vehicle_type_id":"4","last_reported":1727640539,"current_range_meters":36800,"station_id":"ce4bhgh2rcd13ifvqfb0","pricing_plan_id":"cebpf4jnsgd1na2vs0mg"},{"bike_id":"883dbd06-c2fc-4488-9b5e-ef4f05339f9b","system_id":"levelo_inurba_marseille","lat":43.30205,"lon":5.36619,"is_reserved":false,"is_disabled":false,"rental_uris":{"android":"levelo://app?vid=883dbd06-c2fc-4488-9b5e-ef4f05339f9b","ios":"levelo://app?vid=883dbd06-c2fc-4488-9b5e-ef4f05339f9b"},"vehicle_type_id":"4","last_reported":1727640539,"current_range_meters":28400,"station_id":"ce4bgrh2rcd13ifvqc8g","pricing_plan_id":"cebpf4jnsgd1na2vs0mg"},{"bike_id":"6c8b138c-21e2-45bf-a989-ce45493ac988","system_id":"levelo_inurba_marseille","lat":43.232,"lon":5.3555,"is_reserved":false,"is_disabled":false,"rental_uris":{"android":"levelo://app?vid=6c8b138c-21e2-45bf-a989-ce45493ac988","ios":"levelo://app?vid=6c8b138c-21e2-45bf-a989-ce45493ac988"},"vehicle_type_id":"4","last_reported":1727640539,"current_range_meters":38800,"station_id":"ce4bhu92rcd13ifvqi70","pricing_plan_id":"cebpf4jnsgd1na2vs0mg"},{"bike_id":"61b80206-8211-4df0-b90b-eee6dba44a64","system_id":"levelo_inurba_marseille","lat":43.27565,"lon":5.38409,"is_reserved":false,"is_disabled":false,"rental_uris":{"android":"levelo://app?vid=61b80206-8211-4df0-b90b-eee6dba44a64","ios":"levelo://app?vid=61b80206-8211-4df0-b90b-eee6dba44a64"},"vehicle_type_id":"4","last_reported":1727640539,"current_range_meters":23200,"station_id":"ce4bhh92rcd13ifvqfi0","pricing_plan_id":"cebpf4jnsgd1na2vs0mg"},{"bike_id":"cf2a99f0-171d-46e2-b5f9-b8e518581e33","system_id":"levelo_inurba_marseille","lat":43.23955,"lon":5.3664,"is_reserved":false,"is_disabled":false,"rental_uris":{"android":"levelo://app?vid=cf2a99f0-171d-46e2-b5f9-b8e518581e33","ios":"levelo://app?vid=cf2a99f0-171d-46e2-b5f9-b8e518581e33"},"vehicle_type_id":"4","last_reported":1727640539,"current_range_meters":31200,"station_id":"ce4bhi12rcd13ifvqfp0","pricing_plan_id":"cebpf4jnsgd1na2vs0mg"},{"bike_id":"06b0b27b-bc9b-42ef-b165-9c5e2046e3e4","system_id":"levelo_inurba_marseille","lat":43.26799,"lon":5.40263,"is_reserved":false,"is_disabled":false,"rental_uris":{"android":"levelo://app?vid=06b0b27b-bc9b-42ef-b165-9c5e2046e3e4","ios":"levelo://app?vid=06b0b27b-bc9b-42ef-b165-9c5e2046e3e4"},"vehicle_type_id":"4","last_reported":1727640539,"current_range_meters":39200,"station_id":"ce501612rcd8frsf0b60","pricing_plan_id":"cebpf4jnsgd1na2vs0mg"},{"bike_id":"217327a5-4b85-4519-a35c-02cc6f391b41","system_id":"levelo_inurba_marseille","lat":43.30937,"lon":5.40138,"is_reserved":false,"is_disabled":false,"rental_uris":{"android":"levelo://app?vid=217327a5-4b85-4519-a35c-02cc6f391b41","ios":"levelo://app?vid=217327a5-4b85-4519-a35c-02cc6f391b41"},"vehicle_type_id":"4","last_reported":1727640539,"current_range_meters":30400,"station_id":"ce4bgvp2rcd13ifvqct0","pricing_plan_id":"cebpf4jnsgd1na2vs0mg"},{"bike_id":"83000270-66e2-4a71-b37a-c7bd5a80efec","system_id":"levelo_inurba_marseille","lat":43.323661,"lon":5.388974,"is_reserved":false,"is_disabled":false,"rental_uris":{"android":"levelo://app?vid=83000270-66e2-4a71-b37a-c7bd5a80efec","ios":"levelo://app?vid=83000270-66e2-4a71-b37a-c7bd5a80efec"},"vehicle_type_id":"4","last_reported":1727640539,"current_range_meters":23200,"station_id":"ce4bhqp2rcd13ifvqhog","pricing_plan_id":"cebpf4jnsgd1na2vs0mg"},{"bike_id":"bcb5ef74-cf8a-40af-9e9f-d416925dc622","system_id":"levelo_inurba_marseille","lat":43.29527,"lon":5.39047,"is_reserved":false,"is_disabled":false,"rental_uris":{"android":"levelo://app?vid=bcb5ef74-cf8a-40af-9e9f-d416925dc622","ios":"levelo://app?vid=bcb5ef74-cf8a-40af-9e9f-d416925dc622"},"vehicle_type_id":"4","last_reported":1727640539,"current_range_meters":26000,"station_id":"ce4bh3p2rcd13ifvqdp0","pricing_plan_id":"cebpf4jnsgd1na2vs0mg"},{"bike_id":"52f17877-110a-422d-89ae-fdeda162e6f3","system_id":"levelo_inurba_marseille","lat":43.23959,"lon":5.36631,"is_reserved":false,"is_disabled":false,"rental_uris":{"android":"levelo://app?vid=52f17877-110a-422d-89ae-fdeda162e6f3","ios":"levelo://app?vid=52f17877-110a-422d-89ae-fdeda162e6f3"},"vehicle_type_id":"4","last_reported":1727640539,"current_range_meters":5600,"station_id":"ce4bhi12rcd13ifvqfp0","pricing_plan_id":"cebpf4jnsgd1na2vs0mg"},{"bike_id":"928d95a9-709e-4902-9f92-0a9d11e85507","system_id":"levelo_inurba_marseille","lat":43.29417,"lon":5.38623,"is_reserved":false,"is_disabled":false,"rental_uris":{"android":"levelo://app?vid=928d95a9-709e-4902-9f92-0a9d11e85507","ios":"levelo://app?vid=928d95a9-709e-4902-9f92-0a9d11e85507"},"vehicle_type_id":"4","last_reported":1727640539,"current_range_meters":36000,"station_id":"ce4bh2h2rcd13ifvqdh0","pricing_plan_id":"cebpf4jnsgd1na2vs0mg"},{"bike_id":"eaa2d87b-219e-4c8e-a9d3-d5013a551021","system_id":"levelo_inurba_marseille","lat":43.2796,"lon":5.38707,"is_reserved":false,"is_disabled":false,"rental_uris":{"android":"levelo://app?vid=eaa2d87b-219e-4c8e-a9d3-d5013a551021","ios":"levelo://app?vid=eaa2d87b-219e-4c8e-a9d3-d5013a551021"},"vehicle_type_id":"4","last_reported":1727640539,"current_range_meters":38800,"station_id":"ce4bhg12rcd13ifvqf80","pricing_plan_id":"cebpf4jnsgd1na2vs0mg"},{"bike_id":"e9c9a824-77dd-4a8d-b5f7-16a11637475b","system_id":"levelo_inurba_marseille","lat":43.325471,"lon":5.414391,"is_reserved":false,"is_disabled":false,"rental_uris":{"android":"levelo://app?vid=e9c9a824-77dd-4a8d-b5f7-16a11637475b","ios":"levelo://app?vid=e9c9a824-77dd-4a8d-b5f7-16a11637475b"},"vehicle_type_id":"4","last_reported":1727640539,"current_range_meters":40000,"station_id":"ce4bhq12rcd13ifvqhhg","pricing_plan_id":"cebpf4jnsgd1na2vs0mg"},{"bike_id":"f8b18255-c3e2-4e84-b3b5-d53a069d9e0c","system_id":"levelo_inurba_marseille","lat":43.23963,"lon":5.36633,"is_reserved":false,"is_disabled":false,"rental_uris":{"android":"levelo://app?vid=f8b18255-c3e2-4e84-b3b5-d53a069d9e0c","ios":"levelo://app?vid=f8b18255-c3e2-4e84-b3b5-d53a069d9e0c"},"vehicle_type_id":"4","last_reported":1727640539,"current_range_meters":5600,"station_id":"ce4bhi12rcd13ifvqfp0","pricing_plan_id":"cebpf4jnsgd1na2vs0mg"},{"bike_id":"d87af6af-7ad4-4bce-96ae-080c876cc48c","system_id":"levelo_inurba_marseille","lat":43.24392,"lon":5.37061,"is_reserved":false,"is_disabled":false,"rental_uris":{"android":"levelo://app?vid=d87af6af-7ad4-4bce-96ae-080c876cc48c","ios":"levelo://app?vid=d87af6af-7ad4-4bce-96ae-080c876cc48c"},"vehicle_type_id":"4","last_reported":1727640539,"current_range_meters":39200,"station_id":"ce4bhhh2rcd13ifvqfk0","pricing_plan_id":"cebpf4jnsgd1na2vs0mg"},{"bike_id":"124cc49e-bc3f-4ee2-96b6-78f4c29aba27","system_id":"levelo_inurba_marseille","lat":43.25001,"lon":5.3892,"is_reserved":false,"is_disabled":false,"rental_uris":{"android":"levelo://app?vid=124cc49e-bc3f-4ee2-96b6-78f4c29aba27","ios":"levelo://app?vid=124cc49e-bc3f-4ee2-96b6-78f4c29aba27"},"vehicle_type_id":"4","last_reported":1727640539,"current_range_meters":22000,"station_id":"ce4bhgp2rcd13ifvqfd0","pricing_plan_id":"cebpf4jnsgd1na2vs0mg"},{"bike_id":"fd14ba81-3f44-4ac1-b066-8941269a20c6","system_id":"levelo_inurba_marseille","lat":43.2924,"lon":5.42668,"is_reserved":false,"is_disabled":false,"rental_uris":{"android":"levelo://app?vid=fd14ba81-3f44-4ac1-b066-8941269a20c6","ios":"levelo://app?vid=fd14ba81-3f44-4ac1-b066-8941269a20c6"},"vehicle_type_id":"4","last_reported":1727640539,"current_range_meters":17200,"station_id":"ce4bhnh2rcd13ifvqgug","pricing_plan_id":"cebpf4jnsgd1na2vs0mg"},{"bike_id":"f8a61521-df5a-4c6b-ba30-9a18625134fc","system_id":"levelo_inurba_marseille","lat":43.26676,"lon":5.38265,"is_reserved":false,"is_disabled":false,"rental_uris":{"android":"levelo://app?vid=f8a61521-df5a-4c6b-ba30-9a18625134fc","ios":"levelo://app?vid=f8a61521-df5a-4c6b-ba30-9a18625134fc"},"vehicle_type_id":"4","last_reported":1727640539,"current_range_meters":39200,"station_id":"ce4bhg92rcd13ifvqf90","pricing_plan_id":"cebpf4jnsgd1na2vs0mg"},{"bike_id":"bd361e97-30d0-4702-9649-73d68261767f","system_id":"levelo_inurba_marseille","lat":43.28606,"lon":5.38328,"is_reserved":false,"is_disabled":false,"rental_uris":{"android":"levelo://app?vid=bd361e97-30d0-4702-9649-73d68261767f","ios":"levelo://app?vid=bd361e97-30d0-4702-9649-73d68261767f"},"vehicle_type_id":"4","last_reported":1727640539,"current_range_meters":6400,"station_id":"ce4bh392rcd13ifvqdm0","pricing_plan_id":"cebpf4jnsgd1na2vs0mg"},{"bike_id":"6aae3364-5bfe-42a1-9d86-77a5f9587a22","system_id":"levelo_inurba_marseille","lat":43.29874,"lon":5.38909,"is_reserved":false,"is_disabled":false,"rental_uris":{"android":"levelo://app?vid=6aae3364-5bfe-42a1-9d86-77a5f9587a22","ios":"levelo://app?vid=6aae3364-5bfe-42a1-9d86-77a5f9587a22"},"vehicle_type_id":"4","last_reported":1727640539,"current_range_meters":9600,"station_id":"ce4bh392rcd13ifvqdl0","pricing_plan_id":"cebpf4jnsgd1na2vs0mg"},{"bike_id":"ded7c34d-2345-47c9-835d-dc3c344079ef","system_id":"levelo_inurba_marseille","lat":43.29551,"lon":5.42277,"is_reserved":false,"is_disabled":false,"rental_uris":{"android":"levelo://app?vid=ded7c34d-2345-47c9-835d-dc3c344079ef","ios":"levelo://app?vid=ded7c34d-2345-47c9-835d-dc3c344079ef"},"vehicle_type_id":"4","last_reported":1727640539,"current_range_meters":18000,"station_id":"ce4bhph2rcd13ifvqhdg","pricing_plan_id":"cebpf4jnsgd1na2vs0mg"},{"bike_id":"5f9fb8ba-ff74-43ad-8bd6-c04fd3db9926","system_id":"levelo_inurba_marseille","lat":43.25109,"lon":5.40318,"is_reserved":false,"is_disabled":false,"rental_uris":{"android":"levelo://app?vid=5f9fb8ba-ff74-43ad-8bd6-c04fd3db9926","ios":"levelo://app?vid=5f9fb8ba-ff74-43ad-8bd6-c04fd3db9926"},"vehicle_type_id":"4","last_reported":1727640539,"current_range_meters":4800,"station_id":"ce4bhlh2rcd13ifvqgig","pricing_plan_id":"cebpf4jnsgd1na2vs0mg"},{"bike_id":"a19575a6-df26-4cef-9c23-66c2680d0499","system_id":"levelo_inurba_marseille","lat":43.29198,"lon":5.39325,"is_reserved":false,"is_disabled":false,"rental_uris":{"android":"levelo://app?vid=a19575a6-df26-4cef-9c23-66c2680d0499","ios":"levelo://app?vid=a19575a6-df26-4cef-9c23-66c2680d0499"},"vehicle_type_id":"4","last_reported":1727640539,"current_range_meters":35600,"station_id":"ce4bh192rcd13ifvqdd0","pricing_plan_id":"cebpf4jnsgd1na2vs0mg"},{"bike_id":"7783cbb7-0ab7-4f4c-9612-9e4f22942bc7","system_id":"levelo_inurba_marseille","lat":43.27054,"lon":5.40262,"is_reserved":false,"is_disabled":false,"rental_uris":{"android":"levelo://app?vid=7783cbb7-0ab7-4f4c-9612-9e4f22942bc7","ios":"levelo://app?vid=7783cbb7-0ab7-4f4c-9612-9e4f22942bc7"},"vehicle_type_id":"4","last_reported":1727640539,"current_range_meters":24800,"station_id":"ce4bhk92rcd13ifvqgc0","pricing_plan_id":"cebpf4jnsgd1na2vs0mg"},{"bike_id":"c464bef0-fd18-414e-a883-ea989398668d","system_id":"levelo_inurba_marseille","lat":43.25108,"lon":5.40324,"is_reserved":false,"is_disabled":false,"rental_uris":{"android":"levelo://app?vid=c464bef0-fd18-414e-a883-ea989398668d","ios":"levelo://app?vid=c464bef0-fd18-414e-a883-ea989398668d"},"vehicle_type_id":"4","last_reported":1727640539,"current_range_meters":35200,"station_id":"ce4bhlh2rcd13ifvqgig","pricing_plan_id":"cebpf4jnsgd1na2vs0mg"},{"bike_id":"85a7ce6d-c78a-4356-8d69-4e768e529bde","system_id":"levelo_inurba_marseille","lat":43.32263,"lon":5.40649,"is_reserved":false,"is_disabled":false,"rental_uris":{"android":"levelo://app?vid=85a7ce6d-c78a-4356-8d69-4e768e529bde","ios":"levelo://app?vid=85a7ce6d-c78a-4356-8d69-4e768e529bde"},"vehicle_type_id":"4","last_reported":1727640539,"current_range_meters":28800,"station_id":"","pricing_plan_id":"cebpf4jnsgd1na2vs0mg"},{"bike_id":"fd3d0e2c-55b1-4824-9bdb-070dd1b55901","system_id":"levelo_inurba_marseille","lat":43.27214,"lon":5.3919,"is_reserved":false,"is_disabled":false,"rental_uris":{"android":"levelo://app?vid=fd3d0e2c-55b1-4824-9bdb-070dd1b55901","ios":"levelo://app?vid=fd3d0e2c-55b1-4824-9bdb-070dd1b55901"},"vehicle_type_id":"4","last_reported":1727640539,"current_range_meters":38800,"station_id":"ce4bhhp2rcd13ifvqfm0","pricing_plan_id":"cebpf4jnsgd1na2vs0mg"},{"bike_id":"408d9401-5194-45b1-948e-a2c15040c41f","system_id":"levelo_inurba_marseille","lat":43.23198,"lon":5.35547,"is_reserved":false,"is_disabled":false,"rental_uris":{"android":"levelo://app?vid=408d9401-5194-45b1-948e-a2c15040c41f","ios":"levelo://app?vid=408d9401-5194-45b1-948e-a2c15040c41f"},"vehicle_type_id":"4","last_reported":1727640539,"current_range_meters":14400,"station_id":"ce4bhu92rcd13ifvqi70","pricing_plan_id":"cebpf4jnsgd1na2vs0mg"},{"bike_id":"94fdfe10-8c09-41e0-b800-38c859b3f321","system_id":"levelo_inurba_marseille","lat":43.329154,"lon":5.3907,"is_reserved":false,"is_disabled":false,"rental_uris":{"android":"levelo://app?vid=94fdfe10-8c09-41e0-b800-38c859b3f321","ios":"levelo://app?vid=94fdfe10-8c09-41e0-b800-38c859b3f321"},"vehicle_type_id":"4","last_reported":1727640539,"current_range_meters":36400,"station_id":"","pricing_plan_id":"cebpf4jnsgd1na2vs0mg"},{"bike_id":"89a9a53c-cc2d-418f-b2bf-3b5dd0093ada","system_id":"levelo_inurba_marseille","lat":43.30196,"lon":5.36613,"is_reserved":false,"is_disabled":false,"rental_uris":{"android":"levelo://app?vid=89a9a53c-cc2d-418f-b2bf-3b5dd0093ada","ios":"levelo://app?vid=89a9a53c-cc2d-418f-b2bf-3b5dd0093ada"},"vehicle_type_id":"4","last_reported":1727640539,"current_range_meters":38800,"station_id":"ce4bgrh2rcd13ifvqc8g","pricing_plan_id":"cebpf4jnsgd1na2vs0mg"},{"bike_id":"bb60f65b-8b91-4d46-b73f-e18639cae70e","system_id":"levelo_inurba_marseille","lat":43.29097,"lon":5.38142,"is_reserved":false,"is_disabled":false,"rental_uris":{"android":"levelo://app?vid=bb60f65b-8b91-4d46-b73f-e18639cae70e","ios":"levelo://app?vid=bb60f65b-8b91-4d46-b73f-e18639cae70e"},"vehicle_type_id":"4","last_reported":1727640539,"current_range_meters":30000,"station_id":"ce4bh512rcd13ifvqe2g","pricing_plan_id":"cebpf4jnsgd1na2vs0mg"},{"bike_id":"63710117-31ee-454a-b354-1776878c99ee","system_id":"levelo_inurba_marseille","lat":43.23961,"lon":5.36615,"is_reserved":false,"is_disabled":false,"rental_uris":{"android":"levelo://app?vid=63710117-31ee-454a-b354-1776878c99ee","ios":"levelo://app?vid=63710117-31ee-454a-b354-1776878c99ee"},"vehicle_type_id":"4","last_reported":1727640539,"current_range_meters":4400,"station_id":"ce4bhi12rcd13ifvqfp0","pricing_plan_id":"cebpf4jnsgd1na2vs0mg"},{"bike_id":"9276d8e2-37c1-4220-935d-fa18aca66389","system_id":"levelo_inurba_marseille","lat":43.29187,"lon":5.39307,"is_reserved":false,"is_disabled":false,"rental_uris":{"android":"levelo://app?vid=9276d8e2-37c1-4220-935d-fa18aca66389","ios":"levelo://app?vid=9276d8e2-37c1-4220-935d-fa18aca66389"},"vehicle_type_id":"4","last_reported":1727640539,"current_range_meters":36800,"station_id":"ce4bh192rcd13ifvqdd0","pricing_plan_id":"cebpf4jnsgd1na2vs0mg"},{"bike_id":"078024eb-8d93-49e8-aa9b-94cdb7e0550d","system_id":"levelo_inurba_marseille","lat":43.30092,"lon":5.39072,"is_reserved":false,"is_disabled":false,"rental_uris":{"android":"levelo://app?vid=078024eb-8d93-49e8-aa9b-94cdb7e0550d","ios":"levelo://app?vid=078024eb-8d93-49e8-aa9b-94cdb7e0550d"},"vehicle_type_id":"4","last_reported":1727640539,"current_range_meters":18000,"station_id":"ce4bh192rcd13ifvqdb0","pricing_plan_id":"cebpf4jnsgd1na2vs0mg"},{"bike_id":"40af7eb4-6cd7-462c-b9fb-34273e78aa71","system_id":"levelo_inurba_marseille","lat":43.24075,"lon":5.37759,"is_reserved":false,"is_disabled":false,"rental_uris":{"android":"levelo://app?vid=40af7eb4-6cd7-462c-b9fb-34273e78aa71","ios":"levelo://app?vid=40af7eb4-6cd7-462c-b9fb-34273e78aa71"},"vehicle_type_id":"4","last_reported":1727640539,"current_range_meters":10000,"station_id":"ce4bhnp2rcd13ifvqgvg","pricing_plan_id":"cebpf4jnsgd1na2vs0mg"},{"bike_id":"55b9e4b2-af8b-41a1-93e5-6004b819fac8","system_id":"levelo_inurba_marseille","lat":43.28459,"lon":5.35896,"is_reserved":false,"is_disabled":false,"rental_uris":{"android":"levelo://app?vid=55b9e4b2-af8b-41a1-93e5-6004b819fac8","ios":"levelo://app?vid=55b9e4b2-af8b-41a1-93e5-6004b819fac8"},"vehicle_type_id":"4","last_reported":1727640539,"current_range_meters":11200,"station_id":"ce4bhah2rcd13ifvqei0","pricing_plan_id":"cebpf4jnsgd1na2vs0mg"},{"bike_id":"a63d4449-4f5a-4f1c-9a3c-27c8d74bd2a3","system_id":"levelo_inurba_marseille","lat":43.24395,"lon":5.37063,"is_reserved":false,"is_disabled":false,"rental_uris":{"android":"levelo://app?vid=a63d4449-4f5a-4f1c-9a3c-27c8d74bd2a3","ios":"levelo://app?vid=a63d4449-4f5a-4f1c-9a3c-27c8d74bd2a3"},"vehicle_type_id":"4","last_reported":1727640539,"current_range_meters":8800,"station_id":"ce4bhhh2rcd13ifvqfk0","pricing_plan_id":"cebpf4jnsgd1na2vs0mg"},{"bike_id":"4eeb6203-b585-454f-938b-c6b894dafa28","system_id":"levelo_inurba_marseille","lat":43.29193,"lon":5.3932,"is_reserved":false,"is_disabled":false,"rental_uris":{"android":"levelo://app?vid=4eeb6203-b585-454f-938b-c6b894dafa28","ios":"levelo://app?vid=4eeb6203-b585-454f-938b-c6b894dafa28"},"vehicle_type_id":"4","last_reported":1727640539,"current_range_meters":19600,"station_id":"ce4bh192rcd13ifvqdd0","pricing_plan_id":"cebpf4jnsgd1na2vs0mg"},{"bike_id":"f0d756a4-9211-4b22-83eb-7505e550378a","system_id":"levelo_inurba_marseille","lat":43.28426,"lon":5.34983,"is_reserved":false,"is_disabled":false,"rental_uris":{"android":"levelo://app?vid=f0d756a4-9211-4b22-83eb-7505e550378a","ios":"levelo://app?vid=f0d756a4-9211-4b22-83eb-7505e550378a"},"vehicle_type_id":"4","last_reported":1727640539,"current_range_meters":33600,"station_id":"ce4bhbh2rcd13ifvqepg","pricing_plan_id":"cebpf4jnsgd1na2vs0mg"},{"bike_id":"7eda30fe-d024-4258-b0e3-cac7d23be01b","system_id":"levelo_inurba_marseille","lat":43.24809,"lon":5.37456,"is_reserved":false,"is_disabled":false,"rental_uris":{"android":"levelo://app?vid=7eda30fe-d024-4258-b0e3-cac7d23be01b","ios":"levelo://app?vid=7eda30fe-d024-4258-b0e3-cac7d23be01b"},"vehicle_type_id":"4","last_reported":1727640539,"current_range_meters":22800,"station_id":"ce4bhgh2rcd13ifvqfb0","pricing_plan_id":"cebpf4jnsgd1na2vs0mg"},{"bike_id":"d4c2d4c7-279e-4a2d-a3a2-956f4764aac1","system_id":"levelo_inurba_marseille","lat":43.29869,"lon":5.39724,"is_reserved":false,"is_disabled":false,"rental_uris":{"android":"levelo://app?vid=d4c2d4c7-279e-4a2d-a3a2-956f4764aac1","ios":"levelo://app?vid=d4c2d4c7-279e-4a2d-a3a2-956f4764aac1"},"vehicle_type_id":"4","last_reported":1727640539,"current_range_meters":17600,"station_id":"ce4bh0h2rcd13ifvqd50","pricing_plan_id":"cebpf4jnsgd1na2vs0mg"},{"bike_id":"bc7dc6a9-589f-4649-9e06-6ce7434d3293","system_id":"levelo_inurba_marseille","lat":43.29538,"lon":5.3746,"is_reserved":false,"is_disabled":false,"rental_uris":{"android":"levelo://app?vid=bc7dc6a9-589f-4649-9e06-6ce7434d3293","ios":"levelo://app?vid=bc7dc6a9-589f-4649-9e06-6ce7434d3293"},"vehicle_type_id":"4","last_reported":1727640539,"current_range_meters":24800,"station_id":"ce4bgkp2rcd13ifvqbmg","pricing_plan_id":"cebpf4jnsgd1na2vs0mg"},{"bike_id":"11fd99af-1ad0-4cd3-9609-5f9d6cd88aee","system_id":"levelo_inurba_marseille","lat":43.30953,"lon":5.39039,"is_reserved":false,"is_disabled":false,"rental_uris":{"android":"levelo://app?vid=11fd99af-1ad0-4cd3-9609-5f9d6cd88aee","ios":"levelo://app?vid=11fd99af-1ad0-4cd3-9609-5f9d6cd88aee"},"vehicle_type_id":"4","last_reported":1727640539,"current_range_meters":30000,"station_id":"ce4bgup2rcd13ifvqco0","pricing_plan_id":"cebpf4jnsgd1na2vs0mg"},{"bike_id":"7713aed4-b485-4e8e-99ac-fb72a16116e8","system_id":"levelo_inurba_marseille","lat":43.30527,"lon":5.36535,"is_reserved":false,"is_disabled":false,"rental_uris":{"android":"levelo://app?vid=7713aed4-b485-4e8e-99ac-fb72a16116e8","ios":"levelo://app?vid=7713aed4-b485-4e8e-99ac-fb72a16116e8"},"vehicle_type_id":"4","last_reported":1727640539,"current_range_meters":4800,"station_id":"ce4bgs12rcd13ifvqcag","pricing_plan_id":"cebpf4jnsgd1na2vs0mg"},{"bike_id":"b92f3c47-a9c5-4695-81de-ec88a5eedd40","system_id":"levelo_inurba_marseille","lat":43.29782,"lon":5.39345,"is_reserved":false,"is_disabled":false,"rental_uris":{"android":"levelo://app?vid=b92f3c47-a9c5-4695-81de-ec88a5eedd40","ios":"levelo://app?vid=b92f3c47-a9c5-4695-81de-ec88a5eedd40"},"vehicle_type_id":"4","last_reported":1727640539,"current_range_meters":24800,"station_id":"chh1huq6cuj3fo74tm60","pricing_plan_id":"cebpf4jnsgd1na2vs0mg"},{"bike_id":"31846e81-3a87-468c-8781-a080b27e3357","system_id":"levelo_inurba_marseille","lat":43.24681,"lon":5.38166,"is_reserved":false,"is_disabled":false,"rental_uris":{"android":"levelo://app?vid=31846e81-3a87-468c-8781-a080b27e3357","ios":"levelo://app?vid=31846e81-3a87-468c-8781-a080b27e3357"},"vehicle_type_id":"4","last_reported":1727640539,"current_range_meters":24800,"station_id":"ce4bhih2rcd13ifvqfr0","pricing_plan_id":"cebpf4jnsgd1na2vs0mg"},{"bike_id":"a1afa741-a50b-4db5-8d91-72b796e3034f","system_id":"levelo_inurba_marseille","lat":43.30143,"lon":5.38076,"is_reserved":false,"is_disabled":false,"rental_uris":{"android":"levelo://app?vid=a1afa741-a50b-4db5-8d91-72b796e3034f","ios":"levelo://app?vid=a1afa741-a50b-4db5-8d91-72b796e3034f"},"vehicle_type_id":"4","last_reported":1727640539,"current_range_meters":8400,"station_id":"ce4bgjp2rcd13ifvqbh0","pricing_plan_id":"cebpf4jnsgd1na2vs0mg"},{"bike_id":"98d2d804-2421-4c14-b225-4f94ac2076c6","system_id":"levelo_inurba_marseille","lat":43.302407,"lon":5.386844,"is_reserved":false,"is_disabled":false,"rental_uris":{"android":"levelo://app?vid=98d2d804-2421-4c14-b225-4f94ac2076c6","ios":"levelo://app?vid=98d2d804-2421-4c14-b225-4f94ac2076c6"},"vehicle_type_id":"4","last_reported":1727640539,"current_range_meters":36400,"station_id":"ce4bgkp2rcd13ifvqbmg","pricing_plan_id":"cebpf4jnsgd1na2vs0mg"},{"bike_id":"0cd47eef-ff06-4f7f-a905-0dee6fe6447c","system_id":"levelo_inurba_marseille","lat":43.24074,"lon":5.37757,"is_reserved":false,"is_disabled":false,"rental_uris":{"android":"levelo://app?vid=0cd47eef-ff06-4f7f-a905-0dee6fe6447c","ios":"levelo://app?vid=0cd47eef-ff06-4f7f-a905-0dee6fe6447c"},"vehicle_type_id":"4","last_reported":1727640539,"current_range_meters":32800,"station_id":"ce4bhnp2rcd13ifvqgvg","pricing_plan_id":"cebpf4jnsgd1na2vs0mg"},{"bike_id":"517bf19b-6722-45c0-bf8b-08925e1fbd62","system_id":"levelo_inurba_marseille","lat":43.28712,"lon":5.39986,"is_reserved":false,"is_disabled":false,"rental_uris":{"android":"levelo://app?vid=517bf19b-6722-45c0-bf8b-08925e1fbd62","ios":"levelo://app?vid=517bf19b-6722-45c0-bf8b-08925e1fbd62"},"vehicle_type_id":"4","last_reported":1727640539,"current_range_meters":38400,"station_id":"ce4bho92rcd13ifvqh3g","pricing_plan_id":"cebpf4jnsgd1na2vs0mg"},{"bike_id":"d10e4c18-d8ff-4085-a7ba-ec9faaa34e61","system_id":"levelo_inurba_marseille","lat":43.26062,"lon":5.39397,"is_reserved":false,"is_disabled":false,"rental_uris":{"android":"levelo://app?vid=d10e4c18-d8ff-4085-a7ba-ec9faaa34e61","ios":"levelo://app?vid=d10e4c18-d8ff-4085-a7ba-ec9faaa34e61"},"vehicle_type_id":"4","last_reported":1727640539,"current_range_meters":20000,"station_id":"ce4bhh92rcd13ifvqfj0","pricing_plan_id":"cebpf4jnsgd1na2vs0mg"},{"bike_id":"9bb14935-f023-461f-8ada-432dfa96e2e1","system_id":"levelo_inurba_marseille","lat":43.284,"lon":5.37512,"is_reserved":false,"is_disabled":false,"rental_uris":{"android":"levelo://app?vid=9bb14935-f023-461f-8ada-432dfa96e2e1","ios":"levelo://app?vid=9bb14935-f023-461f-8ada-432dfa96e2e1"},"vehicle_type_id":"4","last_reported":1727640539,"current_range_meters":33200,"station_id":"ce4bh412rcd13ifvqds0","pricing_plan_id":"cebpf4jnsgd1na2vs0mg"},{"bike_id":"ebd94cba-8da0-47fb-874d-a3bfbeb5be79","system_id":"levelo_inurba_marseille","lat":43.2696,"lon":5.38635,"is_reserved":false,"is_disabled":false,"rental_uris":{"android":"levelo://app?vid=ebd94cba-8da0-47fb-874d-a3bfbeb5be79","ios":"levelo://app?vid=ebd94cba-8da0-47fb-874d-a3bfbeb5be79"},"vehicle_type_id":"4","last_reported":1727640539,"current_range_meters":26000,"station_id":"ce4bhh92rcd13ifvqfh0","pricing_plan_id":"cebpf4jnsgd1na2vs0mg"},{"bike_id":"29f38da5-2fff-4949-a290-5d4e17fc7555","system_id":"levelo_inurba_marseille","lat":43.24673,"lon":5.38167,"is_reserved":false,"is_disabled":false,"rental_uris":{"android":"levelo://app?vid=29f38da5-2fff-4949-a290-5d4e17fc7555","ios":"levelo://app?vid=29f38da5-2fff-4949-a290-5d4e17fc7555"},"vehicle_type_id":"4","last_reported":1727640539,"current_range_meters":28000,"station_id":"ce4bhih2rcd13ifvqfr0","pricing_plan_id":"cebpf4jnsgd1na2vs0mg"},{"bike_id":"7497ada0-4e52-442c-9aa1-86afe522b93f","system_id":"levelo_inurba_marseille","lat":43.29904,"lon":5.43663,"is_reserved":false,"is_disabled":false,"rental_uris":{"android":"levelo://app?vid=7497ada0-4e52-442c-9aa1-86afe522b93f","ios":"levelo://app?vid=7497ada0-4e52-442c-9aa1-86afe522b93f"},"vehicle_type_id":"4","last_reported":1727640539,"current_range_meters":24000,"station_id":"ce4bhpp2rcd13ifvqhfg","pricing_plan_id":"cebpf4jnsgd1na2vs0mg"},{"bike_id":"8a2141b5-4ed1-48ef-bcb9-2550c31a6897","system_id":"levelo_inurba_marseille","lat":43.23954,"lon":5.36626,"is_reserved":false,"is_disabled":false,"rental_uris":{"android":"levelo://app?vid=8a2141b5-4ed1-48ef-bcb9-2550c31a6897","ios":"levelo://app?vid=8a2141b5-4ed1-48ef-bcb9-2550c31a6897"},"vehicle_type_id":"4","last_reported":1727640539,"current_range_meters":16800,"station_id":"ce4bhi12rcd13ifvqfp0","pricing_plan_id":"cebpf4jnsgd1na2vs0mg"},{"bike_id":"f76c3ac3-3ab9-4e89-a9c6-f2bf3c771a9a","system_id":"levelo_inurba_marseille","lat":43.29891,"lon":5.38903,"is_reserved":false,"is_disabled":false,"rental_uris":{"android":"levelo://app?vid=f76c3ac3-3ab9-4e89-a9c6-f2bf3c771a9a","ios":"levelo://app?vid=f76c3ac3-3ab9-4e89-a9c6-f2bf3c771a9a"},"vehicle_type_id":"4","last_reported":1727640539,"current_range_meters":20000,"station_id":"ce4bh392rcd13ifvqdl0","pricing_plan_id":"cebpf4jnsgd1na2vs0mg"},{"bike_id":"9212bc76-2381-4edc-ab4d-cbd867988e81","system_id":"levelo_inurba_marseille","lat":43.27901,"lon":5.39582,"is_reserved":false,"is_disabled":false,"rental_uris":{"android":"levelo://app?vid=9212bc76-2381-4edc-ab4d-cbd867988e81","ios":"levelo://app?vid=9212bc76-2381-4edc-ab4d-cbd867988e81"},"vehicle_type_id":"4","last_reported":1727640539,"current_range_meters":18000,"station_id":"ce4bhf92rcd13ifvqf40","pricing_plan_id":"cebpf4jnsgd1na2vs0mg"},{"bike_id":"e4f528b8-ed5f-49bb-9f6e-1dbf307b5354","system_id":"levelo_inurba_marseille","lat":43.30144,"lon":5.39883,"is_reserved":false,"is_disabled":false,"rental_uris":{"android":"levelo://app?vid=e4f528b8-ed5f-49bb-9f6e-1dbf307b5354","ios":"levelo://app?vid=e4f528b8-ed5f-49bb-9f6e-1dbf307b5354"},"vehicle_type_id":"4","last_reported":1727640539,"current_range_meters":36400,"station_id":"ce4bh0h2rcd13ifvqd40","pricing_plan_id":"cebpf4jnsgd1na2vs0mg"},{"bike_id":"cb22e9b7-585c-4f42-9dd6-d94fa3677323","system_id":"levelo_inurba_marseille","lat":43.25823,"lon":5.39425,"is_reserved":false,"is_disabled":false,"rental_uris":{"android":"levelo://app?vid=cb22e9b7-585c-4f42-9dd6-d94fa3677323","ios":"levelo://app?vid=cb22e9b7-585c-4f42-9dd6-d94fa3677323"},"vehicle_type_id":"4","last_reported":1727640539,"current_range_meters":39200,"station_id":"ce4bhip2rcd13ifvqft0","pricing_plan_id":"cebpf4jnsgd1na2vs0mg"},{"bike_id":"e4c9d73e-d725-4772-997c-fbbb4235be0d","system_id":"levelo_inurba_marseille","lat":43.27614,"lon":5.36102,"is_reserved":false,"is_disabled":false,"rental_uris":{"android":"levelo://app?vid=e4c9d73e-d725-4772-997c-fbbb4235be0d","ios":"levelo://app?vid=e4c9d73e-d725-4772-997c-fbbb4235be0d"},"vehicle_type_id":"4","last_reported":1727640539,"current_range_meters":30000,"station_id":"ce4bgj92rcd13ifvqbe0","pricing_plan_id":"cebpf4jnsgd1na2vs0mg"},{"bike_id":"530ebee0-3821-4918-8f9b-3c2003125331","system_id":"levelo_inurba_marseille","lat":43.24083,"lon":5.37751,"is_reserved":false,"is_disabled":false,"rental_uris":{"android":"levelo://app?vid=530ebee0-3821-4918-8f9b-3c2003125331","ios":"levelo://app?vid=530ebee0-3821-4918-8f9b-3c2003125331"},"vehicle_type_id":"4","last_reported":1727640539,"current_range_meters":10800,"station_id":"ce4bhnp2rcd13ifvqgvg","pricing_plan_id":"cebpf4jnsgd1na2vs0mg"},{"bike_id":"fe0f3b30-788b-4dc2-944b-1a497fd441d3","system_id":"levelo_inurba_marseille","lat":43.30417,"lon":5.4129,"is_reserved":false,"is_disabled":false,"rental_uris":{"android":"levelo://app?vid=fe0f3b30-788b-4dc2-944b-1a497fd441d3","ios":"levelo://app?vid=fe0f3b30-788b-4dc2-944b-1a497fd441d3"},"vehicle_type_id":"4","last_reported":1727640539,"current_range_meters":35200,"station_id":"ce4bhop2rcd13ifvqh8g","pricing_plan_id":"cebpf4jnsgd1na2vs0mg"},{"bike_id":"9f05bc58-98dc-4d91-89c9-625701f10a87","system_id":"levelo_inurba_marseille","lat":43.25107,"lon":5.40326,"is_reserved":false,"is_disabled":false,"rental_uris":{"android":"levelo://app?vid=9f05bc58-98dc-4d91-89c9-625701f10a87","ios":"levelo://app?vid=9f05bc58-98dc-4d91-89c9-625701f10a87"},"vehicle_type_id":"4","last_reported":1727640539,"current_range_meters":24800,"station_id":"ce4bhlh2rcd13ifvqgig","pricing_plan_id":"cebpf4jnsgd1na2vs0mg"},{"bike_id":"1d51eaf4-5454-42bf-9779-8bfaa4163d46","system_id":"levelo_inurba_marseille","lat":43.30921,"lon":5.40143,"is_reserved":false,"is_disabled":false,"rental_uris":{"android":"levelo://app?vid=1d51eaf4-5454-42bf-9779-8bfaa4163d46","ios":"levelo://app?vid=1d51eaf4-5454-42bf-9779-8bfaa4163d46"},"vehicle_type_id":"4","last_reported":1727640539,"current_range_meters":24800,"station_id":"ce4bgvp2rcd13ifvqct0","pricing_plan_id":"cebpf4jnsgd1na2vs0mg"},{"bike_id":"11736e43-bb98-48fd-89ec-d8ee2f618939","system_id":"levelo_inurba_marseille","lat":43.30592,"lon":5.37218,"is_reserved":false,"is_disabled":false,"rental_uris":{"android":"levelo://app?vid=11736e43-bb98-48fd-89ec-d8ee2f618939","ios":"levelo://app?vid=11736e43-bb98-48fd-89ec-d8ee2f618939"},"vehicle_type_id":"4","last_reported":1727640539,"current_range_meters":19200,"station_id":"ce4bgqh2rcd13ifvqc4g","pricing_plan_id":"cebpf4jnsgd1na2vs0mg"},{"bike_id":"d65bcebf-8861-4dfd-b5f1-3a6780ca6bdb","system_id":"levelo_inurba_marseille","lat":43.29419,"lon":5.38629,"is_reserved":false,"is_disabled":false,"rental_uris":{"android":"levelo://app?vid=d65bcebf-8861-4dfd-b5f1-3a6780ca6bdb","ios":"levelo://app?vid=d65bcebf-8861-4dfd-b5f1-3a6780ca6bdb"},"vehicle_type_id":"4","last_reported":1727640539,"current_range_meters":38800,"station_id":"ce4bh2h2rcd13ifvqdh0","pricing_plan_id":"cebpf4jnsgd1na2vs0mg"},{"bike_id":"4bf17278-821c-44d9-9e1b-8440f028916f","system_id":"levelo_inurba_marseille","lat":43.2481,"lon":5.37457,"is_reserved":false,"is_disabled":false,"rental_uris":{"android":"levelo://app?vid=4bf17278-821c-44d9-9e1b-8440f028916f","ios":"levelo://app?vid=4bf17278-821c-44d9-9e1b-8440f028916f"},"vehicle_type_id":"4","last_reported":1727640539,"current_range_meters":10000,"station_id":"ce4bhgh2rcd13ifvqfb0","pricing_plan_id":"cebpf4jnsgd1na2vs0mg"},{"bike_id":"fffa2861-250b-4f0b-b251-bc4a93e6a064","system_id":"levelo_inurba_marseille","lat":43.258656,"lon":5.398996,"is_reserved":false,"is_disabled":false,"rental_uris":{"android":"levelo://app?vid=fffa2861-250b-4f0b-b251-bc4a93e6a064","ios":"levelo://app?vid=fffa2861-250b-4f0b-b251-bc4a93e6a064"},"vehicle_type_id":"4","last_reported":1727640539,"current_range_meters":40000,"station_id":"ce4bhl92rcd13ifvqghg","pricing_plan_id":"cebpf4jnsgd1na2vs0mg"},{"bike_id":"80052677-a184-47b6-b7ba-4401badcd8a9","system_id":"levelo_inurba_marseille","lat":43.32294,"lon":5.38261,"is_reserved":false,"is_disabled":false,"rental_uris":{"android":"levelo://app?vid=80052677-a184-47b6-b7ba-4401badcd8a9","ios":"levelo://app?vid=80052677-a184-47b6-b7ba-4401badcd8a9"},"vehicle_type_id":"4","last_reported":1727640539,"current_range_meters":36800,"station_id":"ce4bhr12rcd13ifvqhqg","pricing_plan_id":"cebpf4jnsgd1na2vs0mg"},{"bike_id":"40dd4e60-6624-4c0b-97de-f92af81b9861","system_id":"levelo_inurba_marseille","lat":43.29443,"lon":5.39738,"is_reserved":false,"is_disabled":false,"rental_uris":{"android":"levelo://app?vid=40dd4e60-6624-4c0b-97de-f92af81b9861","ios":"levelo://app?vid=40dd4e60-6624-4c0b-97de-f92af81b9861"},"vehicle_type_id":"4","last_reported":1727640539,"current_range_meters":39200,"station_id":"ce4bh3h2rcd13ifvqdo0","pricing_plan_id":"cebpf4jnsgd1na2vs0mg"},{"bike_id":"a419103c-29ff-4e68-913e-124bd72643a7","system_id":"levelo_inurba_marseille","lat":43.2885,"lon":5.39345,"is_reserved":false,"is_disabled":false,"rental_uris":{"android":"levelo://app?vid=a419103c-29ff-4e68-913e-124bd72643a7","ios":"levelo://app?vid=a419103c-29ff-4e68-913e-124bd72643a7"},"vehicle_type_id":"4","last_reported":1727640539,"current_range_meters":11600,"station_id":"ce4bh2p2rcd13ifvqdi0","pricing_plan_id":"cebpf4jnsgd1na2vs0mg"},{"bike_id":"2c34f5a5-6277-460f-8c08-8f6fc502be3d","system_id":"levelo_inurba_marseille","lat":43.26494,"lon":5.395382,"is_reserved":false,"is_disabled":false,"rental_uris":{"android":"levelo://app?vid=2c34f5a5-6277-460f-8c08-8f6fc502be3d","ios":"levelo://app?vid=2c34f5a5-6277-460f-8c08-8f6fc502be3d"},"vehicle_type_id":"4","last_reported":1727640539,"current_range_meters":38800,"station_id":"ce4bhi12rcd13ifvqfq0","pricing_plan_id":"cebpf4jnsgd1na2vs0mg"},{"bike_id":"c429f741-e09b-4c0e-8c65-ff71e1baa928","system_id":"levelo_inurba_marseille","lat":43.30145,"lon":5.40457,"is_reserved":false,"is_disabled":false,"rental_uris":{"android":"levelo://app?vid=c429f741-e09b-4c0e-8c65-ff71e1baa928","ios":"levelo://app?vid=c429f741-e09b-4c0e-8c65-ff71e1baa928"},"vehicle_type_id":"4","last_reported":1727640539,"current_range_meters":18000,"station_id":"","pricing_plan_id":"cebpf4jnsgd1na2vs0mg"},{"bike_id":"a974d009-942e-477b-b4db-19f84bd48313","system_id":"levelo_inurba_marseille","lat":43.32115,"lon":5.3871,"is_reserved":false,"is_disabled":false,"rental_uris":{"android":"levelo://app?vid=a974d009-942e-477b-b4db-19f84bd48313","ios":"levelo://app?vid=a974d009-942e-477b-b4db-19f84bd48313"},"vehicle_type_id":"4","last_reported":1727640539,"current_range_meters":38400,"station_id":"","pricing_plan_id":"cebpf4jnsgd1na2vs0mg"},{"bike_id":"6a66b30d-b7e8-4317-88c5-fb9f52bf2878","system_id":"levelo_inurba_marseille","lat":43.23962,"lon":5.36621,"is_reserved":false,"is_disabled":false,"rental_uris":{"android":"levelo://app?vid=6a66b30d-b7e8-4317-88c5-fb9f52bf2878","ios":"levelo://app?vid=6a66b30d-b7e8-4317-88c5-fb9f52bf2878"},"vehicle_type_id":"4","last_reported":1727640539,"current_range_meters":36800,"station_id":"ce4bhi12rcd13ifvqfp0","pricing_plan_id":"cebpf4jnsgd1na2vs0mg"},{"bike_id":"bdbd2623-39ca-4f69-ba33-fce40c7c1e04","system_id":"levelo_inurba_marseille","lat":43.29208,"lon":5.39319,"is_reserved":false,"is_disabled":false,"rental_uris":{"android":"levelo://app?vid=bdbd2623-39ca-4f69-ba33-fce40c7c1e04","ios":"levelo://app?vid=bdbd2623-39ca-4f69-ba33-fce40c7c1e04"},"vehicle_type_id":"4","last_reported":1727640539,"current_range_meters":38800,"station_id":"ce4bh192rcd13ifvqdd0","pricing_plan_id":"cebpf4jnsgd1na2vs0mg"},{"bike_id":"ceecba1a-005d-474a-893b-ff3214be7ecc","system_id":"levelo_inurba_marseille","lat":43.28361,"lon":5.38638,"is_reserved":false,"is_disabled":false,"rental_uris":{"android":"levelo://app?vid=ceecba1a-005d-474a-893b-ff3214be7ecc","ios":"levelo://app?vid=ceecba1a-005d-474a-893b-ff3214be7ecc"},"vehicle_type_id":"4","last_reported":1727640539,"current_range_meters":16800,"station_id":"ce4bh492rcd13ifvqdvg","pricing_plan_id":"cebpf4jnsgd1na2vs0mg"},{"bike_id":"444add87-f8fe-43ec-8be8-6c0db98de846","system_id":"levelo_inurba_marseille","lat":43.30888,"lon":5.38044,"is_reserved":false,"is_disabled":false,"rental_uris":{"android":"levelo://app?vid=444add87-f8fe-43ec-8be8-6c0db98de846","ios":"levelo://app?vid=444add87-f8fe-43ec-8be8-6c0db98de846"},"vehicle_type_id":"4","last_reported":1727640539,"current_range_meters":24400,"station_id":"ce4bgt12rcd13ifvqce0","pricing_plan_id":"cebpf4jnsgd1na2vs0mg"},{"bike_id":"3ae16357-9b43-46d1-bbc8-483fcc70804b","system_id":"levelo_inurba_marseille","lat":43.25724,"lon":5.41113,"is_reserved":false,"is_disabled":false,"rental_uris":{"android":"levelo://app?vid=3ae16357-9b43-46d1-bbc8-483fcc70804b","ios":"levelo://app?vid=3ae16357-9b43-46d1-bbc8-483fcc70804b"},"vehicle_type_id":"4","last_reported":1727640539,"current_range_meters":27600,"station_id":"ce4bhkp2rcd13ifvqgd0","pricing_plan_id":"cebpf4jnsgd1na2vs0mg"},{"bike_id":"ecadd1d8-c333-48e3-a2c2-b7fd196b9ab8","system_id":"levelo_inurba_marseille","lat":43.27436,"lon":5.3941,"is_reserved":false,"is_disabled":false,"rental_uris":{"android":"levelo://app?vid=ecadd1d8-c333-48e3-a2c2-b7fd196b9ab8","ios":"levelo://app?vid=ecadd1d8-c333-48e3-a2c2-b7fd196b9ab8"},"vehicle_type_id":"4","last_reported":1727640539,"current_range_meters":20400,"station_id":"ce4bhdp2rcd13ifvqf20","pricing_plan_id":"cebpf4jnsgd1na2vs0mg"},{"bike_id":"0d114c4d-4cec-41cd-91d3-663359a10f9e","system_id":"levelo_inurba_marseille","lat":43.29512,"lon":5.39046,"is_reserved":false,"is_disabled":false,"rental_uris":{"android":"levelo://app?vid=0d114c4d-4cec-41cd-91d3-663359a10f9e","ios":"levelo://app?vid=0d114c4d-4cec-41cd-91d3-663359a10f9e"},"vehicle_type_id":"4","last_reported":1727640539,"current_range_meters":3200,"station_id":"ce4bh3p2rcd13ifvqdp0","pricing_plan_id":"cebpf4jnsgd1na2vs0mg"},{"bike_id":"e0976dae-bcb8-43e8-bba6-c9ef6415841f","system_id":"levelo_inurba_marseille","lat":43.28722,"lon":5.3793,"is_reserved":false,"is_disabled":false,"rental_uris":{"android":"levelo://app?vid=e0976dae-bcb8-43e8-bba6-c9ef6415841f","ios":"levelo://app?vid=e0976dae-bcb8-43e8-bba6-c9ef6415841f"},"vehicle_type_id":"4","last_reported":1727640539,"current_range_meters":18800,"station_id":"ce4bh9p2rcd13ifvqec0","pricing_plan_id":"cebpf4jnsgd1na2vs0mg"},{"bike_id":"0701cf2a-674c-4c9d-af1e-6650acbaaf74","system_id":"levelo_inurba_marseille","lat":43.28379,"lon":5.37302,"is_reserved":false,"is_disabled":false,"rental_uris":{"android":"levelo://app?vid=0701cf2a-674c-4c9d-af1e-6650acbaaf74","ios":"levelo://app?vid=0701cf2a-674c-4c9d-af1e-6650acbaaf74"},"vehicle_type_id":"4","last_reported":1727640539,"current_range_meters":8400,"station_id":"","pricing_plan_id":"cebpf4jnsgd1na2vs0mg"},{"bike_id":"ca2820ea-9af8-4890-a9e2-9a2c711a4ed5","system_id":"levelo_inurba_marseille","lat":43.27556,"lon":5.38415,"is_reserved":false,"is_disabled":false,"rental_uris":{"android":"levelo://app?vid=ca2820ea-9af8-4890-a9e2-9a2c711a4ed5","ios":"levelo://app?vid=ca2820ea-9af8-4890-a9e2-9a2c711a4ed5"},"vehicle_type_id":"4","last_reported":1727640539,"current_range_meters":22000,"station_id":"ce4bhh92rcd13ifvqfi0","pricing_plan_id":"cebpf4jnsgd1na2vs0mg"},{"bike_id":"8ddee797-12d2-4112-b1c0-9f51c86fd63b","system_id":"levelo_inurba_marseille","lat":43.29879,"lon":5.38905,"is_reserved":false,"is_disabled":false,"rental_uris":{"android":"levelo://app?vid=8ddee797-12d2-4112-b1c0-9f51c86fd63b","ios":"levelo://app?vid=8ddee797-12d2-4112-b1c0-9f51c86fd63b"},"vehicle_type_id":"4","last_reported":1727640539,"current_range_meters":38000,"station_id":"ce4bh392rcd13ifvqdl0","pricing_plan_id":"cebpf4jnsgd1na2vs0mg"},{"bike_id":"cc63b6cf-350a-4de6-beba-770036656f92","system_id":"levelo_inurba_marseille","lat":43.26057,"lon":5.39402,"is_reserved":false,"is_disabled":false,"rental_uris":{"android":"levelo://app?vid=cc63b6cf-350a-4de6-beba-770036656f92","ios":"levelo://app?vid=cc63b6cf-350a-4de6-beba-770036656f92"},"vehicle_type_id":"4","last_reported":1727640539,"current_range_meters":26800,"station_id":"ce4bhh92rcd13ifvqfj0","pricing_plan_id":"cebpf4jnsgd1na2vs0mg"},{"bike_id":"3950c017-b208-4a2f-a021-50aca1cd5294","system_id":"levelo_inurba_marseille","lat":43.28448,"lon":5.39203,"is_reserved":false,"is_disabled":false,"rental_uris":{"android":"levelo://app?vid=3950c017-b208-4a2f-a021-50aca1cd5294","ios":"levelo://app?vid=3950c017-b208-4a2f-a021-50aca1cd5294"},"vehicle_type_id":"4","last_reported":1727640539,"current_range_meters":30800,"station_id":"ce4bhoh2rcd13ifvqh5g","pricing_plan_id":"cebpf4jnsgd1na2vs0mg"},{"bike_id":"80a479a7-6b52-4502-9fa1-1e3c9c081d64","system_id":"levelo_inurba_marseille","lat":43.28482,"lon":5.38535,"is_reserved":false,"is_disabled":false,"rental_uris":{"android":"levelo://app?vid=80a479a7-6b52-4502-9fa1-1e3c9c081d64","ios":"levelo://app?vid=80a479a7-6b52-4502-9fa1-1e3c9c081d64"},"vehicle_type_id":"4","last_reported":1727640539,"current_range_meters":17600,"station_id":"ce4bh8p2rcd13ifvqeb0","pricing_plan_id":"cebpf4jnsgd1na2vs0mg"},{"bike_id":"7199a17f-8505-4d54-b9b6-2ec943c49cf2","system_id":"levelo_inurba_marseille","lat":43.33033,"lon":5.39383,"is_reserved":false,"is_disabled":false,"rental_uris":{"android":"levelo://app?vid=7199a17f-8505-4d54-b9b6-2ec943c49cf2","ios":"levelo://app?vid=7199a17f-8505-4d54-b9b6-2ec943c49cf2"},"vehicle_type_id":"4","last_reported":1727640539,"current_range_meters":38000,"station_id":"","pricing_plan_id":"cebpf4jnsgd1na2vs0mg"},{"bike_id":"4d706b30-b324-49e3-84d2-6545a9f5eedc","system_id":"levelo_inurba_marseille","lat":43.29045,"lon":5.39954,"is_reserved":false,"is_disabled":false,"rental_uris":{"android":"levelo://app?vid=4d706b30-b324-49e3-84d2-6545a9f5eedc","ios":"levelo://app?vid=4d706b30-b324-49e3-84d2-6545a9f5eedc"},"vehicle_type_id":"4","last_reported":1727640539,"current_range_meters":9200,"station_id":"ce4bh392rcd13ifvqdm0","pricing_plan_id":"cebpf4jnsgd1na2vs0mg"},{"bike_id":"efad0af1-459c-405e-91b8-58ef42854ef5","system_id":"levelo_inurba_marseille","lat":43.29971,"lon":5.37166,"is_reserved":false,"is_disabled":false,"rental_uris":{"android":"levelo://app?vid=efad0af1-459c-405e-91b8-58ef42854ef5","ios":"levelo://app?vid=efad0af1-459c-405e-91b8-58ef42854ef5"},"vehicle_type_id":"4","last_reported":1727640539,"current_range_meters":16800,"station_id":"ce4bgr92rcd13ifvqc7g","pricing_plan_id":"cebpf4jnsgd1na2vs0mg"},{"bike_id":"24942973-7c0b-4deb-b224-1f3f2512ab35","system_id":"levelo_inurba_marseille","lat":43.24665,"lon":5.38165,"is_reserved":false,"is_disabled":false,"rental_uris":{"android":"levelo://app?vid=24942973-7c0b-4deb-b224-1f3f2512ab35","ios":"levelo://app?vid=24942973-7c0b-4deb-b224-1f3f2512ab35"},"vehicle_type_id":"4","last_reported":1727640539,"current_range_meters":36800,"station_id":"ce4bhih2rcd13ifvqfr0","pricing_plan_id":"cebpf4jnsgd1na2vs0mg"},{"bike_id":"6cdca13d-24d1-4302-912a-54d18c748242","system_id":"levelo_inurba_marseille","lat":43.31083,"lon":5.40132,"is_reserved":false,"is_disabled":false,"rental_uris":{"android":"levelo://app?vid=6cdca13d-24d1-4302-912a-54d18c748242","ios":"levelo://app?vid=6cdca13d-24d1-4302-912a-54d18c748242"},"vehicle_type_id":"4","last_reported":1727640539,"current_range_meters":3600,"station_id":"","pricing_plan_id":"cebpf4jnsgd1na2vs0mg"},{"bike_id":"80c40c0b-c8c6-4e3d-a38c-d2ef4da13896","system_id":"levelo_inurba_marseille","lat":43.30945,"lon":5.3903,"is_reserved":false,"is_disabled":false,"rental_uris":{"android":"levelo://app?vid=80c40c0b-c8c6-4e3d-a38c-d2ef4da13896","ios":"levelo://app?vid=80c40c0b-c8c6-4e3d-a38c-d2ef4da13896"},"vehicle_type_id":"4","last_reported":1727640539,"current_range_meters":6800,"station_id":"ce4bgup2rcd13ifvqco0","pricing_plan_id":"cebpf4jnsgd1na2vs0mg"},{"bike_id":"279a7449-11bc-4d68-8339-9f5f6608b0ac","system_id":"levelo_inurba_marseille","lat":43.27994,"lon":5.4001,"is_reserved":false,"is_disabled":false,"rental_uris":{"android":"levelo://app?vid=279a7449-11bc-4d68-8339-9f5f6608b0ac","ios":"levelo://app?vid=279a7449-11bc-4d68-8339-9f5f6608b0ac"},"vehicle_type_id":"4","last_reported":1727640539,"current_range_meters":38800,"station_id":"ce4bho92rcd13ifvqh4g","pricing_plan_id":"cebpf4jnsgd1na2vs0mg"},{"bike_id":"40844c04-10a3-4b72-a8ef-7a099f37b384","system_id":"levelo_inurba_marseille","lat":43.27191,"lon":5.40993,"is_reserved":false,"is_disabled":false,"rental_uris":{"android":"levelo://app?vid=40844c04-10a3-4b72-a8ef-7a099f37b384","ios":"levelo://app?vid=40844c04-10a3-4b72-a8ef-7a099f37b384"},"vehicle_type_id":"4","last_reported":1727640539,"current_range_meters":36800,"station_id":"ce4bhl12rcd13ifvqgf0","pricing_plan_id":"cebpf4jnsgd1na2vs0mg"},{"bike_id":"d37af953-d682-43ed-9078-8dbbc62ce49a","system_id":"levelo_inurba_marseille","lat":43.24667,"lon":5.38163,"is_reserved":false,"is_disabled":false,"rental_uris":{"android":"levelo://app?vid=d37af953-d682-43ed-9078-8dbbc62ce49a","ios":"levelo://app?vid=d37af953-d682-43ed-9078-8dbbc62ce49a"},"vehicle_type_id":"4","last_reported":1727640539,"current_range_meters":38800,"station_id":"ce4bhih2rcd13ifvqfr0","pricing_plan_id":"cebpf4jnsgd1na2vs0mg"},{"bike_id":"6bbdf29d-e1b4-4eef-8609-f78d6cd6358e","system_id":"levelo_inurba_marseille","lat":43.31711,"lon":5.37757,"is_reserved":false,"is_disabled":false,"rental_uris":{"android":"levelo://app?vid=6bbdf29d-e1b4-4eef-8609-f78d6cd6358e","ios":"levelo://app?vid=6bbdf29d-e1b4-4eef-8609-f78d6cd6358e"},"vehicle_type_id":"4","last_reported":1727640539,"current_range_meters":30000,"station_id":"ce4bgth2rcd13ifvqch0","pricing_plan_id":"cebpf4jnsgd1na2vs0mg"},{"bike_id":"e9f863d8-293d-48f9-9519-23e8b888a65d","system_id":"levelo_inurba_marseille","lat":43.26564,"lon":5.39004,"is_reserved":false,"is_disabled":false,"rental_uris":{"android":"levelo://app?vid=e9f863d8-293d-48f9-9519-23e8b888a65d","ios":"levelo://app?vid=e9f863d8-293d-48f9-9519-23e8b888a65d"},"vehicle_type_id":"4","last_reported":1727640539,"current_range_meters":3200,"station_id":"ce4bhe12rcd13ifvqf30","pricing_plan_id":"cebpf4jnsgd1na2vs0mg"},{"bike_id":"18738b6f-0d34-4e0d-b13a-cda273eb17d7","system_id":"levelo_inurba_marseille","lat":43.29041,"lon":5.3997,"is_reserved":false,"is_disabled":false,"rental_uris":{"android":"levelo://app?vid=18738b6f-0d34-4e0d-b13a-cda273eb17d7","ios":"levelo://app?vid=18738b6f-0d34-4e0d-b13a-cda273eb17d7"},"vehicle_type_id":"4","last_reported":1727640539,"current_range_meters":16800,"station_id":"ce4bh392rcd13ifvqdm0","pricing_plan_id":"cebpf4jnsgd1na2vs0mg"},{"bike_id":"f0243139-a381-4453-81e5-f8b45a843fb0","system_id":"levelo_inurba_marseille","lat":43.30426,"lon":5.39744,"is_reserved":false,"is_disabled":false,"rental_uris":{"android":"levelo://app?vid=f0243139-a381-4453-81e5-f8b45a843fb0","ios":"levelo://app?vid=f0243139-a381-4453-81e5-f8b45a843fb0"},"vehicle_type_id":"4","last_reported":1727640539,"current_range_meters":38800,"station_id":"ce4bh092rcd13ifvqd20","pricing_plan_id":"cebpf4jnsgd1na2vs0mg"},{"bike_id":"2ab05bf8-eca7-437d-b897-4c5c531ec1af","system_id":"levelo_inurba_marseille","lat":43.31706,"lon":5.3777,"is_reserved":false,"is_disabled":false,"rental_uris":{"android":"levelo://app?vid=2ab05bf8-eca7-437d-b897-4c5c531ec1af","ios":"levelo://app?vid=2ab05bf8-eca7-437d-b897-4c5c531ec1af"},"vehicle_type_id":"4","last_reported":1727640539,"current_range_meters":8000,"station_id":"ce4bgth2rcd13ifvqch0","pricing_plan_id":"cebpf4jnsgd1na2vs0mg"},{"bike_id":"acf18a21-c944-4e59-b63d-489d756fe630","system_id":"levelo_inurba_marseille","lat":43.3132,"lon":5.39697,"is_reserved":false,"is_disabled":false,"rental_uris":{"android":"levelo://app?vid=acf18a21-c944-4e59-b63d-489d756fe630","ios":"levelo://app?vid=acf18a21-c944-4e59-b63d-489d756fe630"},"vehicle_type_id":"4","last_reported":1727640539,"current_range_meters":19200,"station_id":"ce4bgvp2rcd13ifvqcu0","pricing_plan_id":"cebpf4jnsgd1na2vs0mg"},{"bike_id":"ede57512-1803-4032-b145-97535c0841f4","system_id":"levelo_inurba_marseille","lat":43.29279,"lon":5.36836,"is_reserved":false,"is_disabled":false,"rental_uris":{"android":"levelo://app?vid=ede57512-1803-4032-b145-97535c0841f4","ios":"levelo://app?vid=ede57512-1803-4032-b145-97535c0841f4"},"vehicle_type_id":"4","last_reported":1727640539,"current_range_meters":18800,"station_id":"ce4bhbp2rcd13ifvqesg","pricing_plan_id":"cebpf4jnsgd1na2vs0mg"},{"bike_id":"dd23b577-ac25-483f-a47b-918fdf025322","system_id":"levelo_inurba_marseille","lat":43.30257,"lon":5.40081,"is_reserved":false,"is_disabled":false,"rental_uris":{"android":"levelo://app?vid=dd23b577-ac25-483f-a47b-918fdf025322","ios":"levelo://app?vid=dd23b577-ac25-483f-a47b-918fdf025322"},"vehicle_type_id":"4","last_reported":1727640539,"current_range_meters":36800,"station_id":"ce4bgvh2rcd13ifvqcs0","pricing_plan_id":"cebpf4jnsgd1na2vs0mg"},{"bike_id":"33a4579d-a125-4efa-8233-ee31afbe59e0","system_id":"levelo_inurba_marseille","lat":43.27315,"lon":5.39086,"is_reserved":false,"is_disabled":false,"rental_uris":{"android":"levelo://app?vid=33a4579d-a125-4efa-8233-ee31afbe59e0","ios":"levelo://app?vid=33a4579d-a125-4efa-8233-ee31afbe59e0"},"vehicle_type_id":"4","last_reported":1727640539,"current_range_meters":24000,"station_id":"ce4bhgp2rcd13ifvqfe0","pricing_plan_id":"cebpf4jnsgd1na2vs0mg"},{"bike_id":"16aef7bc-6e34-4da1-be38-669be00420e2","system_id":"levelo_inurba_marseille","lat":43.29898,"lon":5.43687,"is_reserved":false,"is_disabled":false,"rental_uris":{"android":"levelo://app?vid=16aef7bc-6e34-4da1-be38-669be00420e2","ios":"levelo://app?vid=16aef7bc-6e34-4da1-be38-669be00420e2"},"vehicle_type_id":"4","last_reported":1727640539,"current_range_meters":27200,"station_id":"ce4bhpp2rcd13ifvqhfg","pricing_plan_id":"cebpf4jnsgd1na2vs0mg"},{"bike_id":"378689b6-9c53-4229-a326-52c498321317","system_id":"levelo_inurba_marseille","lat":43.28411,"lon":5.37512,"is_reserved":false,"is_disabled":false,"rental_uris":{"android":"levelo://app?vid=378689b6-9c53-4229-a326-52c498321317","ios":"levelo://app?vid=378689b6-9c53-4229-a326-52c498321317"},"vehicle_type_id":"4","last_reported":1727640539,"current_range_meters":38800,"station_id":"ce4bh412rcd13ifvqds0","pricing_plan_id":"cebpf4jnsgd1na2vs0mg"},{"bike_id":"6334b612-07ad-4a3e-b330-ded3dcd24385","system_id":"levelo_inurba_marseille","lat":43.30258,"lon":5.40074,"is_reserved":false,"is_disabled":false,"rental_uris":{"android":"levelo://app?vid=6334b612-07ad-4a3e-b330-ded3dcd24385","ios":"levelo://app?vid=6334b612-07ad-4a3e-b330-ded3dcd24385"},"vehicle_type_id":"4","last_reported":1727640539,"current_range_meters":39200,"station_id":"ce4bgvh2rcd13ifvqcs0","pricing_plan_id":"cebpf4jnsgd1na2vs0mg"},{"bike_id":"f3eb5318-be75-4013-92e8-342d3c54666e","system_id":"levelo_inurba_marseille","lat":43.32537,"lon":5.41426,"is_reserved":false,"is_disabled":false,"rental_uris":{"android":"levelo://app?vid=f3eb5318-be75-4013-92e8-342d3c54666e","ios":"levelo://app?vid=f3eb5318-be75-4013-92e8-342d3c54666e"},"vehicle_type_id":"4","last_reported":1727640539,"current_range_meters":11200,"station_id":"ce4bhq12rcd13ifvqhhg","pricing_plan_id":"cebpf4jnsgd1na2vs0mg"},{"bike_id":"275b0a25-1a9f-498c-9202-be550b06c3de","system_id":"levelo_inurba_marseille","lat":43.3229,"lon":5.38281,"is_reserved":false,"is_disabled":false,"rental_uris":{"android":"levelo://app?vid=275b0a25-1a9f-498c-9202-be550b06c3de","ios":"levelo://app?vid=275b0a25-1a9f-498c-9202-be550b06c3de"},"vehicle_type_id":"4","last_reported":1727640539,"current_range_meters":40000,"station_id":"ce4bhr12rcd13ifvqhqg","pricing_plan_id":"cebpf4jnsgd1na2vs0mg"},{"bike_id":"d5298c24-3767-42cc-a3dc-622191cc7182","system_id":"levelo_inurba_marseille","lat":43.2318,"lon":5.39988,"is_reserved":false,"is_disabled":false,"rental_uris":{"android":"levelo://app?vid=d5298c24-3767-42cc-a3dc-622191cc7182","ios":"levelo://app?vid=d5298c24-3767-42cc-a3dc-622191cc7182"},"vehicle_type_id":"4","last_reported":1727640539,"current_range_meters":27200,"station_id":"ce4bhn12rcd13ifvqgqg","pricing_plan_id":"cebpf4jnsgd1na2vs0mg"},{"bike_id":"00edbddf-96cb-420d-9587-9c0202b7453c","system_id":"levelo_inurba_marseille","lat":43.301767,"lon":5.366268,"is_reserved":false,"is_disabled":false,"rental_uris":{"android":"levelo://app?vid=00edbddf-96cb-420d-9587-9c0202b7453c","ios":"levelo://app?vid=00edbddf-96cb-420d-9587-9c0202b7453c"},"vehicle_type_id":"4","last_reported":1727640539,"current_range_meters":38000,"station_id":"ce4bgrh2rcd13ifvqc8g","pricing_plan_id":"cebpf4jnsgd1na2vs0mg"},{"bike_id":"0c3f0369-7cdf-4cba-a0db-09435ab8c8da","system_id":"levelo_inurba_marseille","lat":43.23189,"lon":5.39995,"is_reserved":false,"is_disabled":false,"rental_uris":{"android":"levelo://app?vid=0c3f0369-7cdf-4cba-a0db-09435ab8c8da","ios":"levelo://app?vid=0c3f0369-7cdf-4cba-a0db-09435ab8c8da"},"vehicle_type_id":"4","last_reported":1727640539,"current_range_meters":24800,"station_id":"ce4bhn12rcd13ifvqgqg","pricing_plan_id":"cebpf4jnsgd1na2vs0mg"},{"bike_id":"e058369b-45c2-4d7c-87fc-2ba5e979e52d","system_id":"levelo_inurba_marseille","lat":43.25998,"lon":5.3856,"is_reserved":false,"is_disabled":false,"rental_uris":{"android":"levelo://app?vid=e058369b-45c2-4d7c-87fc-2ba5e979e52d","ios":"levelo://app?vid=e058369b-45c2-4d7c-87fc-2ba5e979e52d"},"vehicle_type_id":"4","last_reported":1727640539,"current_range_meters":13600,"station_id":"ce4bhe12rcd13ifvqf30","pricing_plan_id":"cebpf4jnsgd1na2vs0mg"},{"bike_id":"9884cc31-b476-40cd-8167-3eb122f2d5db","system_id":"levelo_inurba_marseille","lat":43.28407,"lon":5.37505,"is_reserved":false,"is_disabled":false,"rental_uris":{"android":"levelo://app?vid=9884cc31-b476-40cd-8167-3eb122f2d5db","ios":"levelo://app?vid=9884cc31-b476-40cd-8167-3eb122f2d5db"},"vehicle_type_id":"4","last_reported":1727640539,"current_range_meters":23200,"station_id":"ce4bh412rcd13ifvqds0","pricing_plan_id":"cebpf4jnsgd1na2vs0mg"},{"bike_id":"23ef1aa6-2589-4a02-a24a-f5f3352e03cf","system_id":"levelo_inurba_marseille","lat":43.29268,"lon":5.40131,"is_reserved":false,"is_disabled":false,"rental_uris":{"android":"levelo://app?vid=23ef1aa6-2589-4a02-a24a-f5f3352e03cf","ios":"levelo://app?vid=23ef1aa6-2589-4a02-a24a-f5f3352e03cf"},"vehicle_type_id":"4","last_reported":1727640539,"current_range_meters":36800,"station_id":"ce4bh312rcd13ifvqdk0","pricing_plan_id":"cebpf4jnsgd1na2vs0mg"},{"bike_id":"4db49256-52da-4b24-bc91-56eb058f00e1","system_id":"levelo_inurba_marseille","lat":43.25717,"lon":5.41113,"is_reserved":false,"is_disabled":false,"rental_uris":{"android":"levelo://app?vid=4db49256-52da-4b24-bc91-56eb058f00e1","ios":"levelo://app?vid=4db49256-52da-4b24-bc91-56eb058f00e1"},"vehicle_type_id":"4","last_reported":1727640539,"current_range_meters":39200,"station_id":"ce4bhkp2rcd13ifvqgd0","pricing_plan_id":"cebpf4jnsgd1na2vs0mg"},{"bike_id":"9d60ba46-8caa-41e2-91f4-9d64704cd2a8","system_id":"levelo_inurba_marseille","lat":43.30157,"lon":5.38083,"is_reserved":false,"is_disabled":false,"rental_uris":{"android":"levelo://app?vid=9d60ba46-8caa-41e2-91f4-9d64704cd2a8","ios":"levelo://app?vid=9d60ba46-8caa-41e2-91f4-9d64704cd2a8"},"vehicle_type_id":"4","last_reported":1727640539,"current_range_meters":8000,"station_id":"ce4bgjp2rcd13ifvqbh0","pricing_plan_id":"cebpf4jnsgd1na2vs0mg"},{"bike_id":"8e4ff0d3-c09e-41f2-8cb9-88035a98cfb8","system_id":"levelo_inurba_marseille","lat":43.311218,"lon":5.377658,"is_reserved":false,"is_disabled":false,"rental_uris":{"android":"levelo://app?vid=8e4ff0d3-c09e-41f2-8cb9-88035a98cfb8","ios":"levelo://app?vid=8e4ff0d3-c09e-41f2-8cb9-88035a98cfb8"},"vehicle_type_id":"4","last_reported":1727640539,"current_range_meters":20000,"station_id":"ce4bgl92rcd13ifvqbq0","pricing_plan_id":"cebpf4jnsgd1na2vs0mg"},{"bike_id":"e7de440b-45ed-46a8-99b6-cf20a42fade8","system_id":"levelo_inurba_marseille","lat":43.32288,"lon":5.38276,"is_reserved":false,"is_disabled":false,"rental_uris":{"android":"levelo://app?vid=e7de440b-45ed-46a8-99b6-cf20a42fade8","ios":"levelo://app?vid=e7de440b-45ed-46a8-99b6-cf20a42fade8"},"vehicle_type_id":"4","last_reported":1727640539,"current_range_meters":33200,"station_id":"ce4bhr12rcd13ifvqhqg","pricing_plan_id":"cebpf4jnsgd1na2vs0mg"},{"bike_id":"e4361fa2-90d9-45ff-9d8a-e7b112f4e011","system_id":"levelo_inurba_marseille","lat":43.28516,"lon":5.39128,"is_reserved":false,"is_disabled":false,"rental_uris":{"android":"levelo://app?vid=e4361fa2-90d9-45ff-9d8a-e7b112f4e011","ios":"levelo://app?vid=e4361fa2-90d9-45ff-9d8a-e7b112f4e011"},"vehicle_type_id":"4","last_reported":1727640539,"current_range_meters":27200,"station_id":"ce4bh3p2rcd13ifvqdp0","pricing_plan_id":"cebpf4jnsgd1na2vs0mg"},{"bike_id":"0cb57d5f-06fd-4bf6-a291-8fa26e1ce444","system_id":"levelo_inurba_marseille","lat":43.248047,"lon":5.37473,"is_reserved":false,"is_disabled":false,"rental_uris":{"android":"levelo://app?vid=0cb57d5f-06fd-4bf6-a291-8fa26e1ce444","ios":"levelo://app?vid=0cb57d5f-06fd-4bf6-a291-8fa26e1ce444"},"vehicle_type_id":"4","last_reported":1727640539,"current_range_meters":11200,"station_id":"ce4bhgh2rcd13ifvqfb0","pricing_plan_id":"cebpf4jnsgd1na2vs0mg"},{"bike_id":"73dcb1e9-26e8-40ac-927a-4fc985af5057","system_id":"levelo_inurba_marseille","lat":43.28696,"lon":5.37391,"is_reserved":false,"is_disabled":false,"rental_uris":{"android":"levelo://app?vid=73dcb1e9-26e8-40ac-927a-4fc985af5057","ios":"levelo://app?vid=73dcb1e9-26e8-40ac-927a-4fc985af5057"},"vehicle_type_id":"4","last_reported":1727640539,"current_range_meters":39200,"station_id":"ce4bh3p2rcd13ifvqdq0","pricing_plan_id":"cebpf4jnsgd1na2vs0mg"},{"bike_id":"dacb2420-fc59-4941-bcda-bc25c99e7f43","system_id":"levelo_inurba_marseille","lat":43.31756,"lon":5.39023,"is_reserved":false,"is_disabled":false,"rental_uris":{"android":"levelo://app?vid=dacb2420-fc59-4941-bcda-bc25c99e7f43","ios":"levelo://app?vid=dacb2420-fc59-4941-bcda-bc25c99e7f43"},"vehicle_type_id":"4","last_reported":1727640539,"current_range_meters":36800,"station_id":"ce4bhqp2rcd13ifvqhng","pricing_plan_id":"cebpf4jnsgd1na2vs0mg"},{"bike_id":"6eff8d2d-61fa-4715-9388-b30a052d3e98","system_id":"levelo_inurba_marseille","lat":43.337444,"lon":5.374475,"is_reserved":false,"is_disabled":false,"rental_uris":{"android":"levelo://app?vid=6eff8d2d-61fa-4715-9388-b30a052d3e98","ios":"levelo://app?vid=6eff8d2d-61fa-4715-9388-b30a052d3e98"},"vehicle_type_id":"4","last_reported":1727640539,"current_range_meters":26800,"station_id":"","pricing_plan_id":"cebpf4jnsgd1na2vs0mg"},{"bike_id":"5561ba97-cc61-4a9c-bb93-36a893b9716f","system_id":"levelo_inurba_marseille","lat":43.28922,"lon":5.42431,"is_reserved":false,"is_disabled":false,"rental_uris":{"android":"levelo://app?vid=5561ba97-cc61-4a9c-bb93-36a893b9716f","ios":"levelo://app?vid=5561ba97-cc61-4a9c-bb93-36a893b9716f"},"vehicle_type_id":"4","last_reported":1727640539,"current_range_meters":32400,"station_id":"","pricing_plan_id":"cebpf4jnsgd1na2vs0mg"},{"bike_id":"70524e06-6152-4ea0-a184-eecadd87f150","system_id":"levelo_inurba_marseille","lat":43.30881,"lon":5.39637,"is_reserved":false,"is_disabled":false,"rental_uris":{"android":"levelo://app?vid=70524e06-6152-4ea0-a184-eecadd87f150","ios":"levelo://app?vid=70524e06-6152-4ea0-a184-eecadd87f150"},"vehicle_type_id":"4","last_reported":1727640539,"current_range_meters":6000,"station_id":"ce4bh012rcd13ifvqcv0","pricing_plan_id":"cebpf4jnsgd1na2vs0mg"},{"bike_id":"49103c36-092f-43a6-a665-96ac4218adb8","system_id":"levelo_inurba_marseille","lat":43.32295,"lon":5.38259,"is_reserved":false,"is_disabled":false,"rental_uris":{"android":"levelo://app?vid=49103c36-092f-43a6-a665-96ac4218adb8","ios":"levelo://app?vid=49103c36-092f-43a6-a665-96ac4218adb8"},"vehicle_type_id":"4","last_reported":1727640539,"current_range_meters":39200,"station_id":"ce4bhr12rcd13ifvqhqg","pricing_plan_id":"cebpf4jnsgd1na2vs0mg"},{"bike_id":"4b8ecbf4-7e50-45a7-b04a-2eefdb2000c9","system_id":"levelo_inurba_marseille","lat":43.32364,"lon":5.38879,"is_reserved":false,"is_disabled":false,"rental_uris":{"android":"levelo://app?vid=4b8ecbf4-7e50-45a7-b04a-2eefdb2000c9","ios":"levelo://app?vid=4b8ecbf4-7e50-45a7-b04a-2eefdb2000c9"},"vehicle_type_id":"4","last_reported":1727640539,"current_range_meters":25200,"station_id":"ce4bhqp2rcd13ifvqhog","pricing_plan_id":"cebpf4jnsgd1na2vs0mg"},{"bike_id":"fdf3c082-2712-499c-b4a6-a59e5556c473","system_id":"levelo_inurba_marseille","lat":43.30931,"lon":5.40143,"is_reserved":false,"is_disabled":false,"rental_uris":{"android":"levelo://app?vid=fdf3c082-2712-499c-b4a6-a59e5556c473","ios":"levelo://app?vid=fdf3c082-2712-499c-b4a6-a59e5556c473"},"vehicle_type_id":"4","last_reported":1727640539,"current_range_meters":18800,"station_id":"ce4bgvp2rcd13ifvqct0","pricing_plan_id":"cebpf4jnsgd1na2vs0mg"},{"bike_id":"6f0f9c32-de70-4574-9b89-cca29ab0554e","system_id":"levelo_inurba_marseille","lat":43.337444,"lon":5.374475,"is_reserved":false,"is_disabled":false,"rental_uris":{"android":"levelo://app?vid=6f0f9c32-de70-4574-9b89-cca29ab0554e","ios":"levelo://app?vid=6f0f9c32-de70-4574-9b89-cca29ab0554e"},"vehicle_type_id":"4","last_reported":1727640539,"current_range_meters":24800,"station_id":"","pricing_plan_id":"cebpf4jnsgd1na2vs0mg"},{"bike_id":"44ebb7f9-81e7-4737-8a9e-afd85c147f3d","system_id":"levelo_inurba_marseille","lat":43.31226,"lon":5.36851,"is_reserved":false,"is_disabled":false,"rental_uris":{"android":"levelo://app?vid=44ebb7f9-81e7-4737-8a9e-afd85c147f3d","ios":"levelo://app?vid=44ebb7f9-81e7-4737-8a9e-afd85c147f3d"},"vehicle_type_id":"4","last_reported":1727640539,"current_range_meters":36400,"station_id":"ce4bgl92rcd13ifvqbq0","pricing_plan_id":"cebpf4jnsgd1na2vs0mg"},{"bike_id":"b9897cf6-b27e-4987-8a36-ce737823aa7b","system_id":"levelo_inurba_marseille","lat":43.32314,"lon":5.38279,"is_reserved":false,"is_disabled":false,"rental_uris":{"android":"levelo://app?vid=b9897cf6-b27e-4987-8a36-ce737823aa7b","ios":"levelo://app?vid=b9897cf6-b27e-4987-8a36-ce737823aa7b"},"vehicle_type_id":"4","last_reported":1727640539,"current_range_meters":38800,"station_id":"ce4bhr12rcd13ifvqhqg","pricing_plan_id":"cebpf4jnsgd1na2vs0mg"},{"bike_id":"0687a646-be72-47a3-8907-22e0afb02a46","system_id":"levelo_inurba_marseille","lat":43.23954,"lon":5.36625,"is_reserved":false,"is_disabled":false,"rental_uris":{"android":"levelo://app?vid=0687a646-be72-47a3-8907-22e0afb02a46","ios":"levelo://app?vid=0687a646-be72-47a3-8907-22e0afb02a46"},"vehicle_type_id":"4","last_reported":1727640539,"current_range_meters":28000,"station_id":"ce4bhi12rcd13ifvqfp0","pricing_plan_id":"cebpf4jnsgd1na2vs0mg"},{"bike_id":"52a9d406-2254-4282-a912-ebc3a9c6e455","system_id":"levelo_inurba_marseille","lat":43.30424,"lon":5.41284,"is_reserved":false,"is_disabled":false,"rental_uris":{"android":"levelo://app?vid=52a9d406-2254-4282-a912-ebc3a9c6e455","ios":"levelo://app?vid=52a9d406-2254-4282-a912-ebc3a9c6e455"},"vehicle_type_id":"4","last_reported":1727640539,"current_range_meters":26800,"station_id":"ce4bhop2rcd13ifvqh8g","pricing_plan_id":"cebpf4jnsgd1na2vs0mg"},{"bike_id":"74d78987-f717-4f74-a7e6-330b8e66edf7","system_id":"levelo_inurba_marseille","lat":43.34145,"lon":5.40905,"is_reserved":false,"is_disabled":false,"rental_uris":{"android":"levelo://app?vid=74d78987-f717-4f74-a7e6-330b8e66edf7","ios":"levelo://app?vid=74d78987-f717-4f74-a7e6-330b8e66edf7"},"vehicle_type_id":"4","last_reported":1727640539,"current_range_meters":39200,"station_id":"ce4bhqh2rcd13ifvqhlg","pricing_plan_id":"cebpf4jnsgd1na2vs0mg"},{"bike_id":"ed784952-f3e5-4f9b-af5a-cd892f8b4da9","system_id":"levelo_inurba_marseille","lat":43.29387,"lon":5.37852,"is_reserved":false,"is_disabled":false,"rental_uris":{"android":"levelo://app?vid=ed784952-f3e5-4f9b-af5a-cd892f8b4da9","ios":"levelo://app?vid=ed784952-f3e5-4f9b-af5a-cd892f8b4da9"},"vehicle_type_id":"4","last_reported":1727640539,"current_range_meters":30000,"station_id":"ce4bgjh2rcd13ifvqbf0","pricing_plan_id":"cebpf4jnsgd1na2vs0mg"},{"bike_id":"654a81b1-d92d-44f5-8cdb-8daa61334cd8","system_id":"levelo_inurba_marseille","lat":43.29271,"lon":5.40112,"is_reserved":false,"is_disabled":false,"rental_uris":{"android":"levelo://app?vid=654a81b1-d92d-44f5-8cdb-8daa61334cd8","ios":"levelo://app?vid=654a81b1-d92d-44f5-8cdb-8daa61334cd8"},"vehicle_type_id":"4","last_reported":1727640539,"current_range_meters":38800,"station_id":"ce4bh312rcd13ifvqdk0","pricing_plan_id":"cebpf4jnsgd1na2vs0mg"},{"bike_id":"b516d961-d3f4-4731-9cd6-fa7d090afee8","system_id":"levelo_inurba_marseille","lat":43.29551,"lon":5.42291,"is_reserved":false,"is_disabled":false,"rental_uris":{"android":"levelo://app?vid=b516d961-d3f4-4731-9cd6-fa7d090afee8","ios":"levelo://app?vid=b516d961-d3f4-4731-9cd6-fa7d090afee8"},"vehicle_type_id":"4","last_reported":1727640539,"current_range_meters":24800,"station_id":"ce4bhph2rcd13ifvqhdg","pricing_plan_id":"cebpf4jnsgd1na2vs0mg"},{"bike_id":"90c05d40-f5db-4a12-95b3-f8d41ae2e51b","system_id":"levelo_inurba_marseille","lat":43.32377,"lon":5.3892,"is_reserved":false,"is_disabled":false,"rental_uris":{"android":"levelo://app?vid=90c05d40-f5db-4a12-95b3-f8d41ae2e51b","ios":"levelo://app?vid=90c05d40-f5db-4a12-95b3-f8d41ae2e51b"},"vehicle_type_id":"4","last_reported":1727640539,"current_range_meters":28400,"station_id":"ce4bhqp2rcd13ifvqhog","pricing_plan_id":"cebpf4jnsgd1na2vs0mg"},{"bike_id":"8f7607a9-0bf3-42f4-9a77-94481acad5f0","system_id":"levelo_inurba_marseille","lat":43.29028,"lon":5.38633,"is_reserved":false,"is_disabled":false,"rental_uris":{"android":"levelo://app?vid=8f7607a9-0bf3-42f4-9a77-94481acad5f0","ios":"levelo://app?vid=8f7607a9-0bf3-42f4-9a77-94481acad5f0"},"vehicle_type_id":"4","last_reported":1727640539,"current_range_meters":38800,"station_id":"ce4bh4p2rcd13ifvqe0g","pricing_plan_id":"cebpf4jnsgd1na2vs0mg"},{"bike_id":"b18fb3e3-4ebe-4164-ba10-8087d6fcc0f0","system_id":"levelo_inurba_marseille","lat":43.24809,"lon":5.37455,"is_reserved":false,"is_disabled":false,"rental_uris":{"android":"levelo://app?vid=b18fb3e3-4ebe-4164-ba10-8087d6fcc0f0","ios":"levelo://app?vid=b18fb3e3-4ebe-4164-ba10-8087d6fcc0f0"},"vehicle_type_id":"4","last_reported":1727640539,"current_range_meters":38800,"station_id":"ce4bhgh2rcd13ifvqfb0","pricing_plan_id":"cebpf4jnsgd1na2vs0mg"},{"bike_id":"f6b2b4bd-ef92-431e-a11b-3276c1727e48","system_id":"levelo_inurba_marseille","lat":43.27186,"lon":5.40988,"is_reserved":false,"is_disabled":false,"rental_uris":{"android":"levelo://app?vid=f6b2b4bd-ef92-431e-a11b-3276c1727e48","ios":"levelo://app?vid=f6b2b4bd-ef92-431e-a11b-3276c1727e48"},"vehicle_type_id":"4","last_reported":1727640539,"current_range_meters":7200,"station_id":"ce4bhl12rcd13ifvqgf0","pricing_plan_id":"cebpf4jnsgd1na2vs0mg"},{"bike_id":"cd4ff822-ce55-45a9-91c0-864ced1a19b4","system_id":"levelo_inurba_marseille","lat":43.30889,"lon":5.39634,"is_reserved":false,"is_disabled":false,"rental_uris":{"android":"levelo://app?vid=cd4ff822-ce55-45a9-91c0-864ced1a19b4","ios":"levelo://app?vid=cd4ff822-ce55-45a9-91c0-864ced1a19b4"},"vehicle_type_id":"4","last_reported":1727640539,"current_range_meters":38800,"station_id":"ce4bh012rcd13ifvqcv0","pricing_plan_id":"cebpf4jnsgd1na2vs0mg"},{"bike_id":"e163001d-369d-4ada-8da8-baa91f0c62cf","system_id":"levelo_inurba_marseille","lat":43.29377,"lon":5.37831,"is_reserved":false,"is_disabled":false,"rental_uris":{"android":"levelo://app?vid=e163001d-369d-4ada-8da8-baa91f0c62cf","ios":"levelo://app?vid=e163001d-369d-4ada-8da8-baa91f0c62cf"},"vehicle_type_id":"4","last_reported":1727640539,"current_range_meters":38800,"station_id":"ce4bgjh2rcd13ifvqbf0","pricing_plan_id":"cebpf4jnsgd1na2vs0mg"},{"bike_id":"0fa8b223-8090-4672-8b04-b57125694314","system_id":"levelo_inurba_marseille","lat":43.28957,"lon":5.36836,"is_reserved":false,"is_disabled":false,"rental_uris":{"android":"levelo://app?vid=0fa8b223-8090-4672-8b04-b57125694314","ios":"levelo://app?vid=0fa8b223-8090-4672-8b04-b57125694314"},"vehicle_type_id":"4","last_reported":1727640539,"current_range_meters":33200,"station_id":"","pricing_plan_id":"cebpf4jnsgd1na2vs0mg"},{"bike_id":"590de09a-f8a8-443f-9622-0cb8d4d77230","system_id":"levelo_inurba_marseille","lat":43.2973,"lon":5.37697,"is_reserved":false,"is_disabled":false,"rental_uris":{"android":"levelo://app?vid=590de09a-f8a8-443f-9622-0cb8d4d77230","ios":"levelo://app?vid=590de09a-f8a8-443f-9622-0cb8d4d77230"},"vehicle_type_id":"4","last_reported":1727640539,"current_range_meters":33200,"station_id":"ce4bgkh2rcd13ifvqbl0","pricing_plan_id":"cebpf4jnsgd1na2vs0mg"},{"bike_id":"5538347f-143a-4a01-8cb1-34e498b6c753","system_id":"levelo_inurba_marseille","lat":43.272094,"lon":5.391818,"is_reserved":false,"is_disabled":false,"rental_uris":{"android":"levelo://app?vid=5538347f-143a-4a01-8cb1-34e498b6c753","ios":"levelo://app?vid=5538347f-143a-4a01-8cb1-34e498b6c753"},"vehicle_type_id":"4","last_reported":1727640539,"current_range_meters":38800,"station_id":"ce4bhhp2rcd13ifvqfm0","pricing_plan_id":"cebpf4jnsgd1na2vs0mg"},{"bike_id":"e6d44b16-bbd2-4b49-b199-d310d8b4f73d","system_id":"levelo_inurba_marseille","lat":43.28664,"lon":5.36357,"is_reserved":false,"is_disabled":false,"rental_uris":{"android":"levelo://app?vid=e6d44b16-bbd2-4b49-b199-d310d8b4f73d","ios":"levelo://app?vid=e6d44b16-bbd2-4b49-b199-d310d8b4f73d"},"vehicle_type_id":"4","last_reported":1727640539,"current_range_meters":39200,"station_id":"ce4bhah2rcd13ifvqej0","pricing_plan_id":"cebpf4jnsgd1na2vs0mg"},{"bike_id":"71551bc8-377d-4481-b0ac-095ecaa2179f","system_id":"levelo_inurba_marseille","lat":43.27545,"lon":5.39578,"is_reserved":false,"is_disabled":false,"rental_uris":{"android":"levelo://app?vid=71551bc8-377d-4481-b0ac-095ecaa2179f","ios":"levelo://app?vid=71551bc8-377d-4481-b0ac-095ecaa2179f"},"vehicle_type_id":"4","last_reported":1727640539,"current_range_meters":36800,"station_id":"cjm6bp8fraef2m0cb0m0","pricing_plan_id":"cebpf4jnsgd1na2vs0mg"},{"bike_id":"3da34934-a025-48a2-b701-e7e5491b8aef","system_id":"levelo_inurba_marseille","lat":43.24808,"lon":5.3745,"is_reserved":false,"is_disabled":false,"rental_uris":{"android":"levelo://app?vid=3da34934-a025-48a2-b701-e7e5491b8aef","ios":"levelo://app?vid=3da34934-a025-48a2-b701-e7e5491b8aef"},"vehicle_type_id":"4","last_reported":1727640539,"current_range_meters":38800,"station_id":"ce4bhgh2rcd13ifvqfb0","pricing_plan_id":"cebpf4jnsgd1na2vs0mg"},{"bike_id":"7ac3785d-936a-4904-a331-2a96c740850e","system_id":"levelo_inurba_marseille","lat":43.29414,"lon":5.38609,"is_reserved":false,"is_disabled":false,"rental_uris":{"android":"levelo://app?vid=7ac3785d-936a-4904-a331-2a96c740850e","ios":"levelo://app?vid=7ac3785d-936a-4904-a331-2a96c740850e"},"vehicle_type_id":"4","last_reported":1727640539,"current_range_meters":34000,"station_id":"ce4bh2h2rcd13ifvqdh0","pricing_plan_id":"cebpf4jnsgd1na2vs0mg"},{"bike_id":"9d933d2a-f72c-492c-ae3d-eb238dac3442","system_id":"levelo_inurba_marseille","lat":43.317589,"lon":5.390251,"is_reserved":false,"is_disabled":false,"rental_uris":{"android":"levelo://app?vid=9d933d2a-f72c-492c-ae3d-eb238dac3442","ios":"levelo://app?vid=9d933d2a-f72c-492c-ae3d-eb238dac3442"},"vehicle_type_id":"4","last_reported":1727640539,"current_range_meters":12000,"station_id":"ce4bhqp2rcd13ifvqhng","pricing_plan_id":"cebpf4jnsgd1na2vs0mg"},{"bike_id":"e10b41e3-3d7d-4269-a814-4f7ad9e95a57","system_id":"levelo_inurba_marseille","lat":43.258608,"lon":5.399072,"is_reserved":false,"is_disabled":false,"rental_uris":{"android":"levelo://app?vid=e10b41e3-3d7d-4269-a814-4f7ad9e95a57","ios":"levelo://app?vid=e10b41e3-3d7d-4269-a814-4f7ad9e95a57"},"vehicle_type_id":"4","last_reported":1727640539,"current_range_meters":39200,"station_id":"ce4bhl92rcd13ifvqghg","pricing_plan_id":"cebpf4jnsgd1na2vs0mg"},{"bike_id":"8c06ccf9-6be9-46a1-be83-9a9e54ae53c5","system_id":"levelo_inurba_marseille","lat":43.29617,"lon":5.38101,"is_reserved":false,"is_disabled":false,"rental_uris":{"android":"levelo://app?vid=8c06ccf9-6be9-46a1-be83-9a9e54ae53c5","ios":"levelo://app?vid=8c06ccf9-6be9-46a1-be83-9a9e54ae53c5"},"vehicle_type_id":"4","last_reported":1727640539,"current_range_meters":31200,"station_id":"ce4bgl12rcd13ifvqbo0","pricing_plan_id":"cebpf4jnsgd1na2vs0mg"},{"bike_id":"ed215af7-6358-43a4-8d0b-9f62eed9ff7b","system_id":"levelo_inurba_marseille","lat":43.24811,"lon":5.37458,"is_reserved":false,"is_disabled":false,"rental_uris":{"android":"levelo://app?vid=ed215af7-6358-43a4-8d0b-9f62eed9ff7b","ios":"levelo://app?vid=ed215af7-6358-43a4-8d0b-9f62eed9ff7b"},"vehicle_type_id":"4","last_reported":1727640539,"current_range_meters":36000,"station_id":"ce4bhgh2rcd13ifvqfb0","pricing_plan_id":"cebpf4jnsgd1na2vs0mg"},{"bike_id":"6616aad7-8093-401a-8e7e-751ca8253a47","system_id":"levelo_inurba_marseille","lat":43.33027,"lon":5.39035,"is_reserved":false,"is_disabled":false,"rental_uris":{"android":"levelo://app?vid=6616aad7-8093-401a-8e7e-751ca8253a47","ios":"levelo://app?vid=6616aad7-8093-401a-8e7e-751ca8253a47"},"vehicle_type_id":"4","last_reported":1727640539,"current_range_meters":32800,"station_id":"ce4bhr92rcd13ifvqhrg","pricing_plan_id":"cebpf4jnsgd1na2vs0mg"},{"bike_id":"4abd48e0-6f39-413a-8850-7e0f5091a50c","system_id":"levelo_inurba_marseille","lat":43.29202,"lon":5.39317,"is_reserved":false,"is_disabled":false,"rental_uris":{"android":"levelo://app?vid=4abd48e0-6f39-413a-8850-7e0f5091a50c","ios":"levelo://app?vid=4abd48e0-6f39-413a-8850-7e0f5091a50c"},"vehicle_type_id":"4","last_reported":1727640539,"current_range_meters":36000,"station_id":"ce4bh192rcd13ifvqdd0","pricing_plan_id":"cebpf4jnsgd1na2vs0mg"},{"bike_id":"e30ac80d-e215-44b7-a51e-e86998181408","system_id":"levelo_inurba_marseille","lat":43.3133,"lon":5.39692,"is_reserved":false,"is_disabled":false,"rental_uris":{"android":"levelo://app?vid=e30ac80d-e215-44b7-a51e-e86998181408","ios":"levelo://app?vid=e30ac80d-e215-44b7-a51e-e86998181408"},"vehicle_type_id":"4","last_reported":1727640539,"current_range_meters":16800,"station_id":"ce4bgvp2rcd13ifvqcu0","pricing_plan_id":"cebpf4jnsgd1na2vs0mg"},{"bike_id":"c53631f1-8756-43bf-abc5-bea38a962ec5","system_id":"levelo_inurba_marseille","lat":43.25087,"lon":5.39522,"is_reserved":false,"is_disabled":false,"rental_uris":{"android":"levelo://app?vid=c53631f1-8756-43bf-abc5-bea38a962ec5","ios":"levelo://app?vid=c53631f1-8756-43bf-abc5-bea38a962ec5"},"vehicle_type_id":"4","last_reported":1727640539,"current_range_meters":18000,"station_id":"ce4bhm12rcd13ifvqgkg","pricing_plan_id":"cebpf4jnsgd1na2vs0mg"},{"bike_id":"9fc7ba07-cac3-4423-ae28-b744dd77f056","system_id":"levelo_inurba_marseille","lat":43.24547,"lon":5.39526,"is_reserved":false,"is_disabled":false,"rental_uris":{"android":"levelo://app?vid=9fc7ba07-cac3-4423-ae28-b744dd77f056","ios":"levelo://app?vid=9fc7ba07-cac3-4423-ae28-b744dd77f056"},"vehicle_type_id":"4","last_reported":1727640539,"current_range_meters":22400,"station_id":"ce4bhlp2rcd13ifvqgjg","pricing_plan_id":"cebpf4jnsgd1na2vs0mg"},{"bike_id":"ae420688-5730-4c04-90f7-fb439220597f","system_id":"levelo_inurba_marseille","lat":43.337444,"lon":5.374475,"is_reserved":false,"is_disabled":false,"rental_uris":{"android":"levelo://app?vid=ae420688-5730-4c04-90f7-fb439220597f","ios":"levelo://app?vid=ae420688-5730-4c04-90f7-fb439220597f"},"vehicle_type_id":"4","last_reported":1727640539,"current_range_meters":27600,"station_id":"","pricing_plan_id":"cebpf4jnsgd1na2vs0mg"},{"bike_id":"64c5a41d-9764-4555-8564-e0109a27d62f","system_id":"levelo_inurba_marseille","lat":43.3227,"lon":5.38273,"is_reserved":false,"is_disabled":false,"rental_uris":{"android":"levelo://app?vid=64c5a41d-9764-4555-8564-e0109a27d62f","ios":"levelo://app?vid=64c5a41d-9764-4555-8564-e0109a27d62f"},"vehicle_type_id":"4","last_reported":1727640539,"current_range_meters":9200,"station_id":"ce4bhr12rcd13ifvqhqg","pricing_plan_id":"cebpf4jnsgd1na2vs0mg"},{"bike_id":"aff9b29f-8182-48b8-9342-6763fdf42b0b","system_id":"levelo_inurba_marseille","lat":43.2953,"lon":5.38541,"is_reserved":false,"is_disabled":false,"rental_uris":{"android":"levelo://app?vid=aff9b29f-8182-48b8-9342-6763fdf42b0b","ios":"levelo://app?vid=aff9b29f-8182-48b8-9342-6763fdf42b0b"},"vehicle_type_id":"4","last_reported":1727640539,"current_range_meters":34000,"station_id":"ce4bgih2rcd13ifvqba0","pricing_plan_id":"cebpf4jnsgd1na2vs0mg"},{"bike_id":"0819f970-f10a-4d27-81c4-82b72c6be93a","system_id":"levelo_inurba_marseille","lat":43.29596,"lon":5.38092,"is_reserved":false,"is_disabled":false,"rental_uris":{"android":"levelo://app?vid=0819f970-f10a-4d27-81c4-82b72c6be93a","ios":"levelo://app?vid=0819f970-f10a-4d27-81c4-82b72c6be93a"},"vehicle_type_id":"4","last_reported":1727640539,"current_range_meters":37600,"station_id":"ce4bgl12rcd13ifvqbo0","pricing_plan_id":"cebpf4jnsgd1na2vs0mg"},{"bike_id":"a7590e44-4f6f-40a4-a3a4-00ede95c8c2e","system_id":"levelo_inurba_marseille","lat":43.29863,"lon":5.39725,"is_reserved":false,"is_disabled":false,"rental_uris":{"android":"levelo://app?vid=a7590e44-4f6f-40a4-a3a4-00ede95c8c2e","ios":"levelo://app?vid=a7590e44-4f6f-40a4-a3a4-00ede95c8c2e"},"vehicle_type_id":"4","last_reported":1727640539,"current_range_meters":38800,"station_id":"ce4bh0h2rcd13ifvqd50","pricing_plan_id":"cebpf4jnsgd1na2vs0mg"},