{"last_updated":1706303189,"ttl":30,"version":"2.2","data":{"bikes":[{"bike_id":"43f2e9a3-4e4c-4d41-8a34-9514a3e6c5d3","system_id":"levelo_inurba_marseille","lat":43.31606,"lon":5.373048,"is_reserved":false,"is_disabled":false,"rental_uris":{"android":"levelo://app?vid=43f2e9a3-4e4c-4d41-8a34-9514a3e6c5d3","ios":"levelo://app?vid=43f2e9a3-4e4c-4d41-8a34-9514a3e6c5d3"},"vehicle_type_id":"4","last_reported":1706303189,"current_range_meters":8400,"station_id":"","pricing_plan_id":"free"},{"bike_id":"9443e511-2e2d-41e7-a2cd-4c95bf03992f","system_id":"levelo_inurba_marseille","lat":43.31356,"lon":5.37622,"is_reserved":false,"is_disabled":false,"rental_uris":{"android":"levelo://app?vid=9443e511-2e2d-41e7-a2cd-4c95bf03992f","ios":"levelo://app?vid=9443e511-2e2d-41e7-a2cd-4c95bf03992f"},"vehicle_type_id":"4","last_reported":1706303189,"current_range_meters":10000,"station_id":"","pricing_plan_id":"free"},{"bike_id":"ff73ad35-ae24-4df8-a272-31f0b960d8d0","system_id":"levelo_inurba_marseille","lat":43.305706,"lon":5.365654,"is_reserved":false,"is_disabled":false,"rental_uris":{"android":"levelo://app?vid=ff73ad35-ae24-4df8-a272-31f0b960d8d0","ios":"levelo://app?vid=ff73ad35-ae24-4df8-a272-31f0b960d8d0"},"vehicle_type_id":"4","last_reported":1706303189,"current_range_meters":20000,"station_id":"ce4bgs12rcd13ifvqcag","pricing_plan_id":"free"},{"bike_id":"67781d58-409d-4a02-bf26-313232eca775","system_id":"levelo_inurba_marseille","lat":43.305706,"lon":5.365654,"is_reserved":false,"is_disabled":false,"rental_uris":{"android":"levelo://app?vid=67781d58-409d-4a02-bf26-313232eca775","ios":"levelo://app?vid=67781d58-409d-4a02-bf26-313232eca775"},"vehicle_type_id":"4","last_reported":1706303189,"current_range_meters":10400,"station_id":"ce4bgs12rcd13ifvqcag","pricing_plan_id":"free"},{"bike_id":"79fabada-136e-4926-9b9e-ddd3b214f6b0","system_id":"levelo_inurba_marseille","lat":43.305989,"lon":5.37225,"is_reserved":false,"is_disabled":false,"rental_uris":{"android":"levelo://app?vid=79fabada-136e-4926-9b9e-ddd3b214f6b0","ios":"levelo://app?vid=79fabada-136e-4926-9b9e-ddd3b214f6b0"},"vehicle_type_id":"4","last_reported":1706303189,"current_range_meters":31600,"station_id":"ce4bgqh2rcd13ifvqc4g","pricing_plan_id":"free"},{"bike_id":"1d80dbbe-6322-4930-9f4a-b032bd6593fa","system_id":"levelo_inurba_marseille","lat":43.305989,"lon":5.37225,"is_reserved":false,"is_disabled":false,"rental_uris":{"android":"levelo://app?vid=1d80dbbe-6322-4930-9f4a-b032bd6593fa","ios":"levelo://app?vid=1d80dbbe-6322-4930-9f4a-b032bd6593fa"},"vehicle_type_id":"4","last_reported":1706303189,"current_range_meters":25600,"station_id":"ce4bgqh2rcd13ifvqc4g","pricing_plan_id":"free"},{"bike_id":"7c81727c-5265-4d7c-9735-708db1b3fe50","system_id":"levelo_inurba_marseille","lat":43.31118,"lon":5.37767,"is_reserved":false,"is_disabled":false,"rental_uris":{"android":"levelo://app?vid=7c81727c-5265-4d7c-9735-708db1b3fe50","ios":"levelo://app?vid=7c81727c-5265-4d7c-9735-708db1b3fe50"},"vehicle_type_id":"4","last_reported":1706303189,"current_range_meters":0,"station_id":"ce4bgt92rcd13ifvqcg0","pricing_plan_id":"free"},{"bike_id":"1c0d4dc0-325c-4866-8541-798517ba7f78","system_id":"levelo_inurba_marseille","lat":43.31117,"lon":5.37768,"is_reserved":false,"is_disabled":false,"rental_uris":{"android":"levelo://app?vid=1c0d4dc0-325c-4866-8541-798517ba7f78","ios":"levelo://app?vid=1c0d4dc0-325c-4866-8541-798517ba7f78"},"vehicle_type_id":"4","last_reported":1706303189,"current_range_meters":8400,"station_id":"ce4bgt92rcd13ifvqcg0","pricing_plan_id":"free"},{"bike_id":"7912ef14-46e0-4fa3-8b27-205683eaa5c7","system_id":"levelo_inurba_marseille","lat":43.31108,"lon":5.37769,"is_reserved":false,"is_disabled":false,"rental_uris":{"android":"levelo://app?vid=7912ef14-46e0-4fa3-8b27-205683eaa5c7","ios":"levelo://app?vid=7912ef14-46e0-4fa3-8b27-205683eaa5c7"},"vehicle_type_id":"4","last_reported":1706303189,"current_range_meters":0,"station_id":"ce4bgt92rcd13ifvqcg0","pricing_plan_id":"free"},{"bike_id":"51a104c6-3aa3-4d51-812e-275f8993f1e1","system_id":"levelo_inurba_marseille","lat":43.311163,"lon":5.37778,"is_reserved":false,"is_disabled":false,"rental_uris":{"android":"levelo://app?vid=51a104c6-3aa3-4d51-812e-275f8993f1e1","ios":"levelo://app?vid=51a104c6-3aa3-4d51-812e-275f8993f1e1"},"vehicle_type_id":"4","last_reported":1706303189,"current_range_meters":0,"station_id":"ce4bgt92rcd13ifvqcg0","pricing_plan_id":"free"},{"bike_id":"65d7895c-d541-49be-91cc-586244368787","system_id":"levelo_inurba_marseille","lat":43.307945,"lon":5.376487,"is_reserved":false,"is_disabled":false,"rental_uris":{"android":"levelo://app?vid=65d7895c-d541-49be-91cc-586244368787","ios":"levelo://app?vid=65d7895c-d541-49be-91cc-586244368787"},"vehicle_type_id":"4","last_reported":1706303189,"current_range_meters":20800,"station_id":"ce4bgv92rcd13ifvqcq0","pricing_plan_id":"free"},{"bike_id":"0e11932e-17b7-4146-8e63-2f6f24b1e8ce","system_id":"levelo_inurba_marseille","lat":43.30784,"lon":5.37651,"is_reserved":false,"is_disabled":false,"rental_uris":{"android":"levelo://app?vid=0e11932e-17b7-4146-8e63-2f6f24b1e8ce","ios":"levelo://app?vid=0e11932e-17b7-4146-8e63-2f6f24b1e8ce"},"vehicle_type_id":"4","last_reported":1706303189,"current_range_meters":0,"station_id":"ce4bgv92rcd13ifvqcq0","pricing_plan_id":"free"},{"bike_id":"5b0a56ae-3d70-40f6-ad3f-78c604f89c73","system_id":"levelo_inurba_marseille","lat":43.31237,"lon":5.37984,"is_reserved":false,"is_disabled":false,"rental_uris":{"android":"levelo://app?vid=5b0a56ae-3d70-40f6-ad3f-78c604f89c73","ios":"levelo://app?vid=5b0a56ae-3d70-40f6-ad3f-78c604f89c73"},"vehicle_type_id":"4","last_reported":1706303189,"current_range_meters":15600,"station_id":"","pricing_plan_id":"free"},{"bike_id":"d7199dfd-52e9-42b7-84ce-31adcdc5f4e9","system_id":"levelo_inurba_marseille","lat":43.308012,"lon":5.381511,"is_reserved":false,"is_disabled":false,"rental_uris":{"android":"levelo://app?vid=d7199dfd-52e9-42b7-84ce-31adcdc5f4e9","ios":"levelo://app?vid=d7199dfd-52e9-42b7-84ce-31adcdc5f4e9"},"vehicle_type_id":"4","last_reported":1706303189,"current_range_meters":0,"station_id":"ce4bgt12rcd13ifvqce0","pricing_plan_id":"free"},{"bike_id":"54f58f4f-9f1a-461d-bf0f-583c132184d8","system_id":"levelo_inurba_marseille","lat":43.308012,"lon":5.381511,"is_reserved":false,"is_disabled":false,"rental_uris":{"android":"levelo://app?vid=54f58f4f-9f1a-461d-bf0f-583c132184d8","ios":"levelo://app?vid=54f58f4f-9f1a-461d-bf0f-583c132184d8"},"vehicle_type_id":"4","last_reported":1706303189,"current_range_meters":0,"station_id":"ce4bgt12rcd13ifvqce0","pricing_plan_id":"free"},{"bike_id":"cd18f9e5-48d6-4a5d-82f1-62c7ba307b95","system_id":"levelo_inurba_marseille","lat":43.308012,"lon":5.381511,"is_reserved":false,"is_disabled":false,"rental_uris":{"android":"levelo://app?vid=cd18f9e5-48d6-4a5d-82f1-62c7ba307b95","ios":"levelo://app?vid=cd18f9e5-48d6-4a5d-82f1-62c7ba307b95"},"vehicle_type_id":"4","last_reported":1706303189,"current_range_meters":4800,"station_id":"ce4bgt12rcd13ifvqce0","pricing_plan_id":"free"},{"bike_id":"af16ae4b-f841-4828-a3c5-812e5d12e3d1","system_id":"levelo_inurba_marseille","lat":43.304606,"lon":5.379026,"is_reserved":false,"is_disabled":false,"rental_uris":{"android":"levelo://app?vid=af16ae4b-f841-4828-a3c5-812e5d12e3d1","ios":"levelo://app?vid=af16ae4b-f841-4828-a3c5-812e5d12e3d1"},"vehicle_type_id":"4","last_reported":1706303189,"current_range_meters":4400,"station_id":"ce4bgup2rcd13ifvqcn0","pricing_plan_id":"free"},{"bike_id":"10f06964-55dd-4c8a-8e31-a2d27f77d505","system_id":"levelo_inurba_marseille","lat":43.304606,"lon":5.379026,"is_reserved":false,"is_disabled":false,"rental_uris":{"android":"levelo://app?vid=10f06964-55dd-4c8a-8e31-a2d27f77d505","ios":"levelo://app?vid=10f06964-55dd-4c8a-8e31-a2d27f77d505"},"vehicle_type_id":"4","last_reported":1706303189,"current_range_meters":13200,"station_id":"ce4bgup2rcd13ifvqcn0","pricing_plan_id":"free"},{"bike_id":"d20eb7e9-cf29-463d-9e73-0bc301e970b5","system_id":"levelo_inurba_marseille","lat":43.324771,"lon":5.36557,"is_reserved":false,"is_disabled":false,"rental_uris":{"android":"levelo://app?vid=d20eb7e9-cf29-463d-9e73-0bc301e970b5","ios":"levelo://app?vid=d20eb7e9-cf29-463d-9e73-0bc301e970b5"},"vehicle_type_id":"4","last_reported":1706303189,"current_range_meters":24000,"station_id":"ce4bhs12rcd13ifvqhvg","pricing_plan_id":"free"},{"bike_id":"bad431fd-0d71-417d-8027-dea0abde6beb","system_id":"levelo_inurba_marseille","lat":43.324771,"lon":5.36557,"is_reserved":false,"is_disabled":false,"rental_uris":{"android":"levelo://app?vid=bad431fd-0d71-417d-8027-dea0abde6beb","ios":"levelo://app?vid=bad431fd-0d71-417d-8027-dea0abde6beb"},"vehicle_type_id":"4","last_reported":1706303189,"current_range_meters":8800,"station_id":"ce4bhs12rcd13ifvqhvg","pricing_plan_id":"free"},{"bike_id":"e3cfa974-2663-4965-a96a-f55f3013619c","system_id":"levelo_inurba_marseille","lat":43.324771,"lon":5.36557,"is_reserved":false,"is_disabled":false,"rental_uris":{"android":"levelo://app?vid=e3cfa974-2663-4965-a96a-f55f3013619c","ios":"levelo://app?vid=e3cfa974-2663-4965-a96a-f55f3013619c"},"vehicle_type_id":"4","last_reported":1706303189,"current_range_meters":7200,"station_id":"ce4bhs12rcd13ifvqhvg","pricing_plan_id":"free"},{"bike_id":"3571f4a0-60e6-408b-8bf2-bfbcac1e0195","system_id":"levelo_inurba_marseille","lat":43.324771,"lon":5.36557,"is_reserved":false,"is_disabled":false,"rental_uris":{"android":"levelo://app?vid=3571f4a0-60e6-408b-8bf2-bfbcac1e0195","ios":"levelo://app?vid=3571f4a0-60e6-408b-8bf2-bfbcac1e0195"},"vehicle_type_id":"4","last_reported":1706303189,"current_range_meters":5200,"station_id":"ce4bhs12rcd13ifvqhvg","pricing_plan_id":"free"},{"bike_id":"ec40115e-0430-4944-8ece-51306c67ea7e","system_id":"levelo_inurba_marseille","lat":43.324771,"lon":5.36557,"is_reserved":false,"is_disabled":false,"rental_uris":{"android":"levelo://app?vid=ec40115e-0430-4944-8ece-51306c67ea7e","ios":"levelo://app?vid=ec40115e-0430-4944-8ece-51306c67ea7e"},"vehicle_type_id":"4","last_reported":1706303189,"current_range_meters":18000,"station_id":"ce4bhs12rcd13ifvqhvg","pricing_plan_id":"free"},{"bike_id":"848ae957-72ee-4810-a9c3-a97d1fd5f547","system_id":"levelo_inurba_marseille","lat":43.301429,"lon":5.37413,"is_reserved":false,"is_disabled":false,"rental_uris":{"android":"levelo://app?vid=848ae957-72ee-4810-a9c3-a97d1fd5f547","ios":"levelo://app?vid=848ae957-72ee-4810-a9c3-a97d1fd5f547"},"vehicle_type_id":"4","last_reported":1706303189,"current_range_meters":19600,"station_id":"ce4bgs92rcd13ifvqcc0","pricing_plan_id":"free"},{"bike_id":"fc51b747-b33f-40c9-9c2c-bd6f886bc3e2","system_id":"levelo_inurba_marseille","lat":43.319888,"lon":5.381428,"is_reserved":false,"is_disabled":false,"rental_uris":{"android":"levelo://app?vid=fc51b747-b33f-40c9-9c2c-bd6f886bc3e2","ios":"levelo://app?vid=fc51b747-b33f-40c9-9c2c-bd6f886bc3e2"},"vehicle_type_id":"4","last_reported":1706303189,"current_range_meters":13200,"station_id":"ce4bhr12rcd13ifvqhpg","pricing_plan_id":"free"},{"bike_id":"01533f59-2c23-4279-b5fa-c0608335cf09","system_id":"levelo_inurba_marseille","lat":43.319976,"lon":5.381461,"is_reserved":false,"is_disabled":false,"rental_uris":{"android":"levelo://app?vid=01533f59-2c23-4279-b5fa-c0608335cf09","ios":"levelo://app?vid=01533f59-2c23-4279-b5fa-c0608335cf09"},"vehicle_type_id":"4","last_reported":1706303189,"current_range_meters":800,"station_id":"ce4bhr12rcd13ifvqhpg","pricing_plan_id":"free"},{"bike_id":"5f7ec9ca-defa-4048-96f4-b62ebd1a927a","system_id":"levelo_inurba_marseille","lat":43.319935,"lon":5.381699,"is_reserved":false,"is_disabled":false,"rental_uris":{"android":"levelo://app?vid=5f7ec9ca-defa-4048-96f4-b62ebd1a927a","ios":"levelo://app?vid=5f7ec9ca-defa-4048-96f4-b62ebd1a927a"},"vehicle_type_id":"4","last_reported":1706303189,"current_range_meters":22000,"station_id":"ce4bhr12rcd13ifvqhpg","pricing_plan_id":"free"},{"bike_id":"ae7ab608-8fac-4c0d-9f43-8ffacb07a49d","system_id":"levelo_inurba_marseille","lat":43.319935,"lon":5.381699,"is_reserved":false,"is_disabled":false,"rental_uris":{"android":"levelo://app?vid=ae7ab608-8fac-4c0d-9f43-8ffacb07a49d","ios":"levelo://app?vid=ae7ab608-8fac-4c0d-9f43-8ffacb07a49d"},"vehicle_type_id":"4","last_reported":1706303189,"current_range_meters":10000,"station_id":"ce4bhr12rcd13ifvqhpg","pricing_plan_id":"free"},{"bike_id":"fd388e30-6c90-4fbf-abdf-dd15ef425659","system_id":"levelo_inurba_marseille","lat":43.319967,"lon":5.381565,"is_reserved":false,"is_disabled":false,"rental_uris":{"android":"levelo://app?vid=fd388e30-6c90-4fbf-abdf-dd15ef425659","ios":"levelo://app?vid=fd388e30-6c90-4fbf-abdf-dd15ef425659"},"vehicle_type_id":"4","last_reported":1706303189,"current_range_meters":9200,"station_id":"ce4bhr12rcd13ifvqhpg","pricing_plan_id":"free"},{"bike_id":"fbd1c7c8-59f4-40f3-bd13-92a41198f404","system_id":"levelo_inurba_marseille","lat":43.319935,"lon":5.381699,"is_reserved":false,"is_disabled":false,"rental_uris":{"android":"levelo://app?vid=fbd1c7c8-59f4-40f3-bd13-92a41198f404","ios":"levelo://app?vid=fbd1c7c8-59f4-40f3-bd13-92a41198f404"},"vehicle_type_id":"4","last_reported":1706303189,"current_range_meters":19200,"station_id":"ce4bhr12rcd13ifvqhpg","pricing_plan_id":"free"},{"bike_id":"bcbff3ac-8335-4312-8664-681c182e4008","system_id":"levelo_inurba_marseille","lat":43.313571,"lon":5.384829,"is_reserved":false,"is_disabled":false,"rental_uris":{"android":"levelo://app?vid=bcbff3ac-8335-4312-8664-681c182e4008","ios":"levelo://app?vid=bcbff3ac-8335-4312-8664-681c182e4008"},"vehicle_type_id":"4","last_reported":1706303189,"current_range_meters":31200,"station_id":"ce4bgt92rcd13ifvqcf0","pricing_plan_id":"free"},{"bike_id":"8b046161-6dc9-460f-b134-2023dde79010","system_id":"levelo_inurba_marseille","lat":43.30008,"lon":5.37143,"is_reserved":false,"is_disabled":false,"rental_uris":{"android":"levelo://app?vid=8b046161-6dc9-460f-b134-2023dde79010","ios":"levelo://app?vid=8b046161-6dc9-460f-b134-2023dde79010"},"vehicle_type_id":"4","last_reported":1706303189,"current_range_meters":16000,"station_id":"","pricing_plan_id":"free"},{"bike_id":"f4fdbec7-68ff-4a23-9ff6-ffa00252eda4","system_id":"levelo_inurba_marseille","lat":43.313571,"lon":5.384829,"is_reserved":false,"is_disabled":false,"rental_uris":{"android":"levelo://app?vid=f4fdbec7-68ff-4a23-9ff6-ffa00252eda4","ios":"levelo://app?vid=f4fdbec7-68ff-4a23-9ff6-ffa00252eda4"},"vehicle_type_id":"4","last_reported":1706303189,"current_range_meters":27600,"station_id":"ce4bgt92rcd13ifvqcf0","pricing_plan_id":"free"},{"bike_id":"9b84a75a-7d98-4b1b-bdf6-1679f9ec3eed","system_id":"levelo_inurba_marseille","lat":43.313571,"lon":5.384829,"is_reserved":false,"is_disabled":false,"rental_uris":{"android":"levelo://app?vid=9b84a75a-7d98-4b1b-bdf6-1679f9ec3eed","ios":"levelo://app?vid=9b84a75a-7d98-4b1b-bdf6-1679f9ec3eed"},"vehicle_type_id":"4","last_reported":1706303189,"current_range_meters":12800,"station_id":"ce4bgt92rcd13ifvqcf0","pricing_plan_id":"free"},{"bike_id":"144a509d-17b3-4fb9-b2e5-99d48f1516fe","system_id":"levelo_inurba_marseille","lat":43.313571,"lon":5.384829,"is_reserved":false,"is_disabled":false,"rental_uris":{"android":"levelo://app?vid=144a509d-17b3-4fb9-b2e5-99d48f1516fe","ios":"levelo://app?vid=144a509d-17b3-4fb9-b2e5-99d48f1516fe"},"vehicle_type_id":"4","last_reported":1706303189,"current_range_meters":2800,"station_id":"ce4bgt92rcd13ifvqcf0","pricing_plan_id":"free"},{"bike_id":"cb9269b3-f2e8-4e4d-9a51-a470c9b4043b","system_id":"levelo_inurba_marseille","lat":43.313571,"lon":5.384829,"is_reserved":false,"is_disabled":false,"rental_uris":{"android":"levelo://app?vid=cb9269b3-f2e8-4e4d-9a51-a470c9b4043b","ios":"levelo://app?vid=cb9269b3-f2e8-4e4d-9a51-a470c9b4043b"},"vehicle_type_id":"4","last_reported":1706303189,"current_range_meters":31200,"station_id":"ce4bgt92rcd13ifvqcf0","pricing_plan_id":"free"},{"bike_id":"b2c50230-cc4d-4dad-92cb-6de6eaacfbb6","system_id":"levelo_inurba_marseille","lat":43.299222,"lon":5.365554,"is_reserved":false,"is_disabled":false,"rental_uris":{"android":"levelo://app?vid=b2c50230-cc4d-4dad-92cb-6de6eaacfbb6","ios":"levelo://app?vid=b2c50230-cc4d-4dad-92cb-6de6eaacfbb6"},"vehicle_type_id":"4","last_reported":1706303189,"current_range_meters":12000,"station_id":"ce4bgm92rcd13ifvqbr0","pricing_plan_id":"free"},{"bike_id":"667af64d-1884-48bd-a133-399c1c053d8b","system_id":"levelo_inurba_marseille","lat":43.299222,"lon":5.365554,"is_reserved":false,"is_disabled":false,"rental_uris":{"android":"levelo://app?vid=667af64d-1884-48bd-a133-399c1c053d8b","ios":"levelo://app?vid=667af64d-1884-48bd-a133-399c1c053d8b"},"vehicle_type_id":"4","last_reported":1706303189,"current_range_meters":11600,"station_id":"ce4bgm92rcd13ifvqbr0","pricing_plan_id":"free"},{"bike_id":"ce01c9ac-c495-498e-b746-48901a2604e8","system_id":"levelo_inurba_marseille","lat":43.299222,"lon":5.365554,"is_reserved":false,"is_disabled":false,"rental_uris":{"android":"levelo://app?vid=ce01c9ac-c495-498e-b746-48901a2604e8","ios":"levelo://app?vid=ce01c9ac-c495-498e-b746-48901a2604e8"},"vehicle_type_id":"4","last_reported":1706303189,"current_range_meters":4800,"station_id":"ce4bgm92rcd13ifvqbr0","pricing_plan_id":"free"},{"bike_id":"86ca605a-48b3-433c-9666-07c3c5ac4379","system_id":"levelo_inurba_marseille","lat":43.318431,"lon":5.384275,"is_reserved":false,"is_disabled":false,"rental_uris":{"android":"levelo://app?vid=86ca605a-48b3-433c-9666-07c3c5ac4379","ios":"levelo://app?vid=86ca605a-48b3-433c-9666-07c3c5ac4379"},"vehicle_type_id":"4","last_reported":1706303189,"current_range_meters":1200,"station_id":"","pricing_plan_id":"free"},{"bike_id":"5d40ba88-4d8d-4418-a2db-06aff838e286","system_id":"levelo_inurba_marseille","lat":43.305364,"lon":5.384119,"is_reserved":false,"is_disabled":false,"rental_uris":{"android":"levelo://app?vid=5d40ba88-4d8d-4418-a2db-06aff838e286","ios":"levelo://app?vid=5d40ba88-4d8d-4418-a2db-06aff838e286"},"vehicle_type_id":"4","last_reported":1706303189,"current_range_meters":22400,"station_id":"ce4bgg92rcd13ifvqb30","pricing_plan_id":"free"},{"bike_id":"cfb5f53d-51e4-401f-960c-f2804a3a3149","system_id":"levelo_inurba_marseille","lat":43.298433,"lon":5.362774,"is_reserved":false,"is_disabled":false,"rental_uris":{"android":"levelo://app?vid=cfb5f53d-51e4-401f-960c-f2804a3a3149","ios":"levelo://app?vid=cfb5f53d-51e4-401f-960c-f2804a3a3149"},"vehicle_type_id":"4","last_reported":1706303189,"current_range_meters":19200,"station_id":"ce4bgpp2rcd13ifvqc3g","pricing_plan_id":"free"},{"bike_id":"0ed08762-4714-4cec-9df0-a5c4a109ab09","system_id":"levelo_inurba_marseille","lat":43.298433,"lon":5.362774,"is_reserved":false,"is_disabled":false,"rental_uris":{"android":"levelo://app?vid=0ed08762-4714-4cec-9df0-a5c4a109ab09","ios":"levelo://app?vid=0ed08762-4714-4cec-9df0-a5c4a109ab09"},"vehicle_type_id":"4","last_reported":1706303189,"current_range_meters":4800,"station_id":"ce4bgpp2rcd13ifvqc3g","pricing_plan_id":"free"},{"bike_id":"94d0ccd4-7d90-4e96-b1d6-b2d54d7db676","system_id":"levelo_inurba_marseille","lat":43.303837,"lon":5.418724,"is_reserved":false,"is_disabled":false,"rental_uris":{"android":"levelo://app?vid=94d0ccd4-7d90-4e96-b1d6-b2d54d7db676","ios":"levelo://app?vid=94d0ccd4-7d90-4e96-b1d6-b2d54d7db676"},"vehicle_type_id":"4","last_reported":1706303189,"current_range_meters":26400,"station_id":"ce4bhop2rcd13ifvqh7g","pricing_plan_id":"free"},{"bike_id":"76700d02-2858-42b6-ad30-848fb5840b3b","system_id":"levelo_inurba_marseille","lat":43.297794,"lon":5.370888,"is_reserved":false,"is_disabled":false,"rental_uris":{"android":"levelo://app?vid=76700d02-2858-42b6-ad30-848fb5840b3b","ios":"levelo://app?vid=76700d02-2858-42b6-ad30-848fb5840b3b"},"vehicle_type_id":"4","last_reported":1706303189,"current_range_meters":30000,"station_id":"ce4bgop2rcd13ifvqc1g","pricing_plan_id":"free"},{"bike_id":"5364a52b-c7ba-4d21-8df1-15446de3d533","system_id":"levelo_inurba_marseille","lat":43.297794,"lon":5.370888,"is_reserved":false,"is_disabled":false,"rental_uris":{"android":"levelo://app?vid=5364a52b-c7ba-4d21-8df1-15446de3d533","ios":"levelo://app?vid=5364a52b-c7ba-4d21-8df1-15446de3d533"},"vehicle_type_id":"4","last_reported":1706303189,"current_range_meters":2000,"station_id":"ce4bgop2rcd13ifvqc1g","pricing_plan_id":"free"},{"bike_id":"f214340b-fc6d-45b4-9d29-cd6d0825c5a2","system_id":"levelo_inurba_marseille","lat":43.322872,"lon":5.382756,"is_reserved":false,"is_disabled":false,"rental_uris":{"android":"levelo://app?vid=f214340b-fc6d-45b4-9d29-cd6d0825c5a2","ios":"levelo://app?vid=f214340b-fc6d-45b4-9d29-cd6d0825c5a2"},"vehicle_type_id":"4","last_reported":1706303189,"current_range_meters":21600,"station_id":"ce4bhr12rcd13ifvqhqg","pricing_plan_id":"free"},{"bike_id":"954978ec-5c69-45bc-8603-a76c94a9ea2f","system_id":"levelo_inurba_marseille","lat":43.322872,"lon":5.382756,"is_reserved":false,"is_disabled":false,"rental_uris":{"android":"levelo://app?vid=954978ec-5c69-45bc-8603-a76c94a9ea2f","ios":"levelo://app?vid=954978ec-5c69-45bc-8603-a76c94a9ea2f"},"vehicle_type_id":"4","last_reported":1706303189,"current_range_meters":26000,"station_id":"ce4bhr12rcd13ifvqhqg","pricing_plan_id":"free"},{"bike_id":"8889a62b-f08d-43d6-bbc3-74d3cb3d445f","system_id":"levelo_inurba_marseille","lat":43.322872,"lon":5.382756,"is_reserved":false,"is_disabled":false,"rental_uris":{"android":"levelo://app?vid=8889a62b-f08d-43d6-bbc3-74d3cb3d445f","ios":"levelo://app?vid=8889a62b-f08d-43d6-bbc3-74d3cb3d445f"},"vehicle_type_id":"4","last_reported":1706303189,"current_range_meters":31600,"station_id":"ce4bhr12rcd13ifvqhqg","pricing_plan_id":"free"},{"bike_id":"bb5cc78f-0a25-43e2-927a-9d5a0eeb06b6","system_id":"levelo_inurba_marseille","lat":43.32292,"lon":5.38268,"is_reserved":false,"is_disabled":false,"rental_uris":{"android":"levelo://app?vid=bb5cc78f-0a25-43e2-927a-9d5a0eeb06b6","ios":"levelo://app?vid=bb5cc78f-0a25-43e2-927a-9d5a0eeb06b6"},"vehicle_type_id":"4","last_reported":1706303189,"current_range_meters":19600,"station_id":"ce4bhr12rcd13ifvqhqg","pricing_plan_id":"free"},{"bike_id":"ef5c6378-e000-405f-ab30-38f17e98c38f","system_id":"levelo_inurba_marseille","lat":43.322872,"lon":5.382756,"is_reserved":false,"is_disabled":false,"rental_uris":{"android":"levelo://app?vid=ef5c6378-e000-405f-ab30-38f17e98c38f","ios":"levelo://app?vid=ef5c6378-e000-405f-ab30-38f17e98c38f"},"vehicle_type_id":"4","last_reported":1706303189,"current_range_meters":18800,"station_id":"ce4bhr12rcd13ifvqhqg","pricing_plan_id":"free"},{"bike_id":"a74df100-7e4f-4619-a801-7660ff428c23","system_id":"levelo_inurba_marseille","lat":43.297163,"lon":5.365866,"is_reserved":false,"is_disabled":false,"rental_uris":{"android":"levelo://app?vid=a74df100-7e4f-4619-a801-7660ff428c23","ios":"levelo://app?vid=a74df100-7e4f-4619-a801-7660ff428c23"},"vehicle_type_id":"4","last_reported":1706303189,"current_range_meters":11200,"station_id":"ce4bgn12rcd13ifvqbt0","pricing_plan_id":"free"},{"bike_id":"fec4b285-d202-4368-b24a-6d8377bb2319","system_id":"levelo_inurba_marseille","lat":43.298433,"lon":5.362774,"is_reserved":false,"is_disabled":false,"rental_uris":{"android":"levelo://app?vid=fec4b285-d202-4368-b24a-6d8377bb2319","ios":"levelo://app?vid=fec4b285-d202-4368-b24a-6d8377bb2319"},"vehicle_type_id":"4","last_reported":1706303189,"current_range_meters":7200,"station_id":"ce4bgpp2rcd13ifvqc3g","pricing_plan_id":"free"},{"bike_id":"335ba0f2-703e-4760-8c97-19ddb643fdcb","system_id":"levelo_inurba_marseille","lat":43.2968,"lon":5.37291,"is_reserved":false,"is_disabled":false,"rental_uris":{"android":"levelo://app?vid=335ba0f2-703e-4760-8c97-19ddb643fdcb","ios":"levelo://app?vid=335ba0f2-703e-4760-8c97-19ddb643fdcb"},"vehicle_type_id":"4","last_reported":1706303189,"current_range_meters":21600,"station_id":"ce4bgk12rcd13ifvqbj0","pricing_plan_id":"free"},{"bike_id":"6fe3a748-b306-4a70-bd02-36b597307af6","system_id":"levelo_inurba_marseille","lat":43.296003,"lon":5.367937,"is_reserved":false,"is_disabled":false,"rental_uris":{"android":"levelo://app?vid=6fe3a748-b306-4a70-bd02-36b597307af6","ios":"levelo://app?vid=6fe3a748-b306-4a70-bd02-36b597307af6"},"vehicle_type_id":"4","last_reported":1706303189,"current_range_meters":18800,"station_id":"","pricing_plan_id":"free"},{"bike_id":"25973f83-93d2-4cd1-ba08-7f67735043ea","system_id":"levelo_inurba_marseille","lat":43.296129,"lon":5.370777,"is_reserved":false,"is_disabled":false,"rental_uris":{"android":"levelo://app?vid=25973f83-93d2-4cd1-ba08-7f67735043ea","ios":"levelo://app?vid=25973f83-93d2-4cd1-ba08-7f67735043ea"},"vehicle_type_id":"4","last_reported":1706303189,"current_range_meters":2000,"station_id":"ce4bgnh2rcd13ifvqc0g","pricing_plan_id":"free"},{"bike_id":"6cb34488-bbb4-478f-9ae2-366ef13ddea8","system_id":"levelo_inurba_marseille","lat":43.29573,"lon":5.367355,"is_reserved":false,"is_disabled":false,"rental_uris":{"android":"levelo://app?vid=6cb34488-bbb4-478f-9ae2-366ef13ddea8","ios":"levelo://app?vid=6cb34488-bbb4-478f-9ae2-366ef13ddea8"},"vehicle_type_id":"4","last_reported":1706303189,"current_range_meters":24800,"station_id":"ce4bgph2rcd13ifvqc2g","pricing_plan_id":"free"},{"bike_id":"8bad8b8a-9d3f-4dbf-801d-bdeb1a14987a","system_id":"levelo_inurba_marseille","lat":43.29925,"lon":5.38145,"is_reserved":false,"is_disabled":false,"rental_uris":{"android":"levelo://app?vid=8bad8b8a-9d3f-4dbf-801d-bdeb1a14987a","ios":"levelo://app?vid=8bad8b8a-9d3f-4dbf-801d-bdeb1a14987a"},"vehicle_type_id":"4","last_reported":1706303189,"current_range_meters":0,"station_id":"ce4bgj12rcd13ifvqbc0","pricing_plan_id":"free"},{"bike_id":"4b7428c3-88c7-4ef6-a7c8-66a895ddda0e","system_id":"levelo_inurba_marseille","lat":43.29906,"lon":5.38129,"is_reserved":false,"is_disabled":false,"rental_uris":{"android":"levelo://app?vid=4b7428c3-88c7-4ef6-a7c8-66a895ddda0e","ios":"levelo://app?vid=4b7428c3-88c7-4ef6-a7c8-66a895ddda0e"},"vehicle_type_id":"4","last_reported":1706303189,"current_range_meters":0,"station_id":"ce4bgj12rcd13ifvqbc0","pricing_plan_id":"free"},{"bike_id":"11beb2be-84a0-4517-b495-8b4fb3d619d6","system_id":"levelo_inurba_marseille","lat":43.296921,"lon":5.376579,"is_reserved":false,"is_disabled":false,"rental_uris":{"android":"levelo://app?vid=11beb2be-84a0-4517-b495-8b4fb3d619d6","ios":"levelo://app?vid=11beb2be-84a0-4517-b495-8b4fb3d619d6"},"vehicle_type_id":"4","last_reported":1706303189,"current_range_meters":11200,"station_id":"ce4bgkh2rcd13ifvqbl0","pricing_plan_id":"free"},{"bike_id":"6a05e437-e8bb-4a0d-afaa-5969c094f72f","system_id":"levelo_inurba_marseille","lat":43.309589,"lon":5.390258,"is_reserved":false,"is_disabled":false,"rental_uris":{"android":"levelo://app?vid=6a05e437-e8bb-4a0d-afaa-5969c094f72f","ios":"levelo://app?vid=6a05e437-e8bb-4a0d-afaa-5969c094f72f"},"vehicle_type_id":"4","last_reported":1706303189,"current_range_meters":400,"station_id":"ce4bgup2rcd13ifvqco0","pricing_plan_id":"free"},{"bike_id":"7e6f2d9a-84ac-4027-ba76-dcd007dc3252","system_id":"levelo_inurba_marseille","lat":43.29867,"lon":5.38087,"is_reserved":false,"is_disabled":false,"rental_uris":{"android":"levelo://app?vid=7e6f2d9a-84ac-4027-ba76-dcd007dc3252","ios":"levelo://app?vid=7e6f2d9a-84ac-4027-ba76-dcd007dc3252"},"vehicle_type_id":"4","last_reported":1706303189,"current_range_meters":0,"station_id":"","pricing_plan_id":"free"},{"bike_id":"bc09ecdb-ba85-45cb-adb0-5e143d40f55a","system_id":"levelo_inurba_marseille","lat":43.309589,"lon":5.390258,"is_reserved":false,"is_disabled":false,"rental_uris":{"android":"levelo://app?vid=bc09ecdb-ba85-45cb-adb0-5e143d40f55a","ios":"levelo://app?vid=bc09ecdb-ba85-45cb-adb0-5e143d40f55a"},"vehicle_type_id":"4","last_reported":1706303189,"current_range_meters":23600,"station_id":"ce4bgup2rcd13ifvqco0","pricing_plan_id":"free"},{"bike_id":"cc166317-83e7-4ab3-ad7f-d92980f80944","system_id":"levelo_inurba_marseille","lat":43.317557,"lon":5.390173,"is_reserved":false,"is_disabled":false,"rental_uris":{"android":"levelo://app?vid=cc166317-83e7-4ab3-ad7f-d92980f80944","ios":"levelo://app?vid=cc166317-83e7-4ab3-ad7f-d92980f80944"},"vehicle_type_id":"4","last_reported":1706303189,"current_range_meters":11200,"station_id":"ce4bhqp2rcd13ifvqhng","pricing_plan_id":"free"},{"bike_id":"af9f98fc-1b38-483c-9bb8-cf5dbd0ec1e8","system_id":"levelo_inurba_marseille","lat":43.317557,"lon":5.390173,"is_reserved":false,"is_disabled":false,"rental_uris":{"android":"levelo://app?vid=af9f98fc-1b38-483c-9bb8-cf5dbd0ec1e8","ios":"levelo://app?vid=af9f98fc-1b38-483c-9bb8-cf5dbd0ec1e8"},"vehicle_type_id":"4","last_reported":1706303189,"current_range_meters":29600,"station_id":"ce4bhqp2rcd13ifvqhng","pricing_plan_id":"free"},{"bike_id":"110504c4-9181-4917-abad-9a87ed972aeb","system_id":"levelo_inurba_marseille","lat":43.317557,"lon":5.390173,"is_reserved":false,"is_disabled":false,"rental_uris":{"android":"levelo://app?vid=110504c4-9181-4917-abad-9a87ed972aeb","ios":"levelo://app?vid=110504c4-9181-4917-abad-9a87ed972aeb"},"vehicle_type_id":"4","last_reported":1706303189,"current_range_meters":5600,"station_id":"ce4bhqp2rcd13ifvqhng","pricing_plan_id":"free"},{"bike_id":"9eee8bba-9f6c-4442-90f7-b9b7f8a147bb","system_id":"levelo_inurba_marseille","lat":43.317557,"lon":5.390173,"is_reserved":false,"is_disabled":false,"rental_uris":{"android":"levelo://app?vid=9eee8bba-9f6c-4442-90f7-b9b7f8a147bb","ios":"levelo://app?vid=9eee8bba-9f6c-4442-90f7-b9b7f8a147bb"},"vehicle_type_id":"4","last_reported":1706303189,"current_range_meters":22000,"station_id":"ce4bhqp2rcd13ifvqhng","pricing_plan_id":"free"},{"bike_id":"0f595ef8-b51a-4472-959d-bab2e4ed27f5","system_id":"levelo_inurba_marseille","lat":43.317557,"lon":5.390173,"is_reserved":false,"is_disabled":false,"rental_uris":{"android":"levelo://app?vid=0f595ef8-b51a-4472-959d-bab2e4ed27f5","ios":"levelo://app?vid=0f595ef8-b51a-4472-959d-bab2e4ed27f5"},"vehicle_type_id":"4","last_reported":1706303189,"current_range_meters":6800,"station_id":"ce4bhqp2rcd13ifvqhng","pricing_plan_id":"free"},{"bike_id":"39475547-4374-426a-84c3-16554e0c49d2","system_id":"levelo_inurba_marseille","lat":43.317557,"lon":5.390173,"is_reserved":false,"is_disabled":false,"rental_uris":{"android":"levelo://app?vid=39475547-4374-426a-84c3-16554e0c49d2","ios":"levelo://app?vid=39475547-4374-426a-84c3-16554e0c49d2"},"vehicle_type_id":"4","last_reported":1706303189,"current_range_meters":3600,"station_id":"ce4bhqp2rcd13ifvqhng","pricing_plan_id":"free"},{"bike_id":"48bd6dd4-c622-4b05-829b-84f4cd7f8ef7","system_id":"levelo_inurba_marseille","lat":43.298016,"lon":5.38088,"is_reserved":false,"is_disabled":false,"rental_uris":{"android":"levelo://app?vid=48bd6dd4-c622-4b05-829b-84f4cd7f8ef7","ios":"levelo://app?vid=48bd6dd4-c622-4b05-829b-84f4cd7f8ef7"},"vehicle_type_id":"4","last_reported":1706303189,"current_range_meters":0,"station_id":"ce4bgip2rcd13ifvqbb0","pricing_plan_id":"free"},{"bike_id":"ac7f653d-d089-425c-aabf-3a3cc4060fdf","system_id":"levelo_inurba_marseille","lat":43.296277,"lon":5.377108,"is_reserved":false,"is_disabled":false,"rental_uris":{"android":"levelo://app?vid=ac7f653d-d089-425c-aabf-3a3cc4060fdf","ios":"levelo://app?vid=ac7f653d-d089-425c-aabf-3a3cc4060fdf"},"vehicle_type_id":"4","last_reported":1706303189,"current_range_meters":10000,"station_id":"ce4bgi92rcd13ifvqb90","pricing_plan_id":"free"},{"bike_id":"3cc98d49-fdd1-4077-9c5f-a75f550deee3","system_id":"levelo_inurba_marseille","lat":43.304274,"lon":5.388873,"is_reserved":false,"is_disabled":false,"rental_uris":{"android":"levelo://app?vid=3cc98d49-fdd1-4077-9c5f-a75f550deee3","ios":"levelo://app?vid=3cc98d49-fdd1-4077-9c5f-a75f550deee3"},"vehicle_type_id":"4","last_reported":1706303189,"current_range_meters":24800,"station_id":"ce4bgk12rcd13ifvqbi0","pricing_plan_id":"free"},{"bike_id":"542830c1-e594-4f99-84f4-ba4bac96891f","system_id":"levelo_inurba_marseille","lat":43.304274,"lon":5.388873,"is_reserved":false,"is_disabled":false,"rental_uris":{"android":"levelo://app?vid=542830c1-e594-4f99-84f4-ba4bac96891f","ios":"levelo://app?vid=542830c1-e594-4f99-84f4-ba4bac96891f"},"vehicle_type_id":"4","last_reported":1706303189,"current_range_meters":18400,"station_id":"ce4bgk12rcd13ifvqbi0","pricing_plan_id":"free"},{"bike_id":"81280994-fc8b-46a6-bb0e-f74bb8b26a12","system_id":"levelo_inurba_marseille","lat":43.304278,"lon":5.388868,"is_reserved":false,"is_disabled":false,"rental_uris":{"android":"levelo://app?vid=81280994-fc8b-46a6-bb0e-f74bb8b26a12","ios":"levelo://app?vid=81280994-fc8b-46a6-bb0e-f74bb8b26a12"},"vehicle_type_id":"4","last_reported":1706303189,"current_range_meters":9600,"station_id":"ce4bgk12rcd13ifvqbi0","pricing_plan_id":"free"},{"bike_id":"6c72e281-9938-473a-bacd-fb8ec4bacee6","system_id":"levelo_inurba_marseille","lat":43.304274,"lon":5.388873,"is_reserved":false,"is_disabled":false,"rental_uris":{"android":"levelo://app?vid=6c72e281-9938-473a-bacd-fb8ec4bacee6","ios":"levelo://app?vid=6c72e281-9938-473a-bacd-fb8ec4bacee6"},"vehicle_type_id":"4","last_reported":1706303189,"current_range_meters":12000,"station_id":"ce4bgk12rcd13ifvqbi0","pricing_plan_id":"free"},{"bike_id":"aed810f3-dc8c-4e57-bddb-00392f635724","system_id":"levelo_inurba_marseille","lat":43.297915,"lon":5.381028,"is_reserved":false,"is_disabled":false,"rental_uris":{"android":"levelo://app?vid=aed810f3-dc8c-4e57-bddb-00392f635724","ios":"levelo://app?vid=aed810f3-dc8c-4e57-bddb-00392f635724"},"vehicle_type_id":"4","last_reported":1706303189,"current_range_meters":13600,"station_id":"ce4bgj92rcd13ifvqbd0","pricing_plan_id":"free"},{"bike_id":"871f8211-935c-4759-ad48-ca7d5e569cbd","system_id":"levelo_inurba_marseille","lat":43.304278,"lon":5.388868,"is_reserved":false,"is_disabled":false,"rental_uris":{"android":"levelo://app?vid=871f8211-935c-4759-ad48-ca7d5e569cbd","ios":"levelo://app?vid=871f8211-935c-4759-ad48-ca7d5e569cbd"},"vehicle_type_id":"4","last_reported":1706303189,"current_range_meters":31200,"station_id":"ce4bgk12rcd13ifvqbi0","pricing_plan_id":"free"},{"bike_id":"5aaf6aff-1bfd-4043-bc5a-c5a1b6083666","system_id":"levelo_inurba_marseille","lat":43.30433,"lon":5.3889,"is_reserved":false,"is_disabled":false,"rental_uris":{"android":"levelo://app?vid=5aaf6aff-1bfd-4043-bc5a-c5a1b6083666","ios":"levelo://app?vid=5aaf6aff-1bfd-4043-bc5a-c5a1b6083666"},"vehicle_type_id":"4","last_reported":1706303189,"current_range_meters":0,"station_id":"ce4bgk12rcd13ifvqbi0","pricing_plan_id":"free"},{"bike_id":"2f7d147d-4a65-49e5-a99a-25161030f302","system_id":"levelo_inurba_marseille","lat":43.297875,"lon":5.38112,"is_reserved":false,"is_disabled":false,"rental_uris":{"android":"levelo://app?vid=2f7d147d-4a65-49e5-a99a-25161030f302","ios":"levelo://app?vid=2f7d147d-4a65-49e5-a99a-25161030f302"},"vehicle_type_id":"4","last_reported":1706303189,"current_range_meters":400,"station_id":"ce4bgip2rcd13ifvqbb0","pricing_plan_id":"free"},{"bike_id":"88623deb-4882-4c82-b4b7-43e23eb192d8","system_id":"levelo_inurba_marseille","lat":43.296263,"lon":5.377094,"is_reserved":false,"is_disabled":false,"rental_uris":{"android":"levelo://app?vid=88623deb-4882-4c82-b4b7-43e23eb192d8","ios":"levelo://app?vid=88623deb-4882-4c82-b4b7-43e23eb192d8"},"vehicle_type_id":"4","last_reported":1706303189,"current_range_meters":9200,"station_id":"ce4bgi92rcd13ifvqb90","pricing_plan_id":"free"},{"bike_id":"18689e24-e917-4e2f-a046-30204599cc5b","system_id":"levelo_inurba_marseille","lat":43.299717,"lon":5.384845,"is_reserved":false,"is_disabled":false,"rental_uris":{"android":"levelo://app?vid=18689e24-e917-4e2f-a046-30204599cc5b","ios":"levelo://app?vid=18689e24-e917-4e2f-a046-30204599cc5b"},"vehicle_type_id":"4","last_reported":1706303189,"current_range_meters":12000,"station_id":"ce4bgj92rcd13ifvqbd0","pricing_plan_id":"free"},{"bike_id":"40996b4a-fac6-4cc2-a8e8-9a9ba72f10c9","system_id":"levelo_inurba_marseille","lat":43.298614,"lon":5.383962,"is_reserved":false,"is_disabled":false,"rental_uris":{"android":"levelo://app?vid=40996b4a-fac6-4cc2-a8e8-9a9ba72f10c9","ios":"levelo://app?vid=40996b4a-fac6-4cc2-a8e8-9a9ba72f10c9"},"vehicle_type_id":"4","last_reported":1706303189,"current_range_meters":11600,"station_id":"","pricing_plan_id":"free"},{"bike_id":"0ea3fd81-3f73-43eb-a24e-cc7fa2617f9d","system_id":"levelo_inurba_marseille","lat":43.32367,"lon":5.388836,"is_reserved":false,"is_disabled":false,"rental_uris":{"android":"levelo://app?vid=0ea3fd81-3f73-43eb-a24e-cc7fa2617f9d","ios":"levelo://app?vid=0ea3fd81-3f73-43eb-a24e-cc7fa2617f9d"},"vehicle_type_id":"4","last_reported":1706303189,"current_range_meters":7600,"station_id":"ce4bhqp2rcd13ifvqhog","pricing_plan_id":"free"},{"bike_id":"d7803bed-fb47-4ba6-b32d-728fc496b369","system_id":"levelo_inurba_marseille","lat":43.32367,"lon":5.388836,"is_reserved":false,"is_disabled":false,"rental_uris":{"android":"levelo://app?vid=d7803bed-fb47-4ba6-b32d-728fc496b369","ios":"levelo://app?vid=d7803bed-fb47-4ba6-b32d-728fc496b369"},"vehicle_type_id":"4","last_reported":1706303189,"current_range_meters":16000,"station_id":"ce4bhqp2rcd13ifvqhog","pricing_plan_id":"free"},{"bike_id":"cec4ad59-07b9-4fac-98fd-7e0e4d5c0fc2","system_id":"levelo_inurba_marseille","lat":43.32367,"lon":5.388836,"is_reserved":false,"is_disabled":false,"rental_uris":{"android":"levelo://app?vid=cec4ad59-07b9-4fac-98fd-7e0e4d5c0fc2","ios":"levelo://app?vid=cec4ad59-07b9-4fac-98fd-7e0e4d5c0fc2"},"vehicle_type_id":"4","last_reported":1706303189,"current_range_meters":12800,"station_id":"ce4bhqp2rcd13ifvqhog","pricing_plan_id":"free"},{"bike_id":"def703ed-e78e-4412-a809-c10b7fb945a5","system_id":"levelo_inurba_marseille","lat":43.323706,"lon":5.388828,"is_reserved":false,"is_disabled":false,"rental_uris":{"android":"levelo://app?vid=def703ed-e78e-4412-a809-c10b7fb945a5","ios":"levelo://app?vid=def703ed-e78e-4412-a809-c10b7fb945a5"},"vehicle_type_id":"4","last_reported":1706303189,"current_range_meters":27200,"station_id":"ce4bhqp2rcd13ifvqhog","pricing_plan_id":"free"},{"bike_id":"439458f2-c468-43ac-8531-4372a5b8883a","system_id":"levelo_inurba_marseille","lat":43.32367,"lon":5.388836,"is_reserved":false,"is_disabled":false,"rental_uris":{"android":"levelo://app?vid=439458f2-c468-43ac-8531-4372a5b8883a","ios":"levelo://app?vid=439458f2-c468-43ac-8531-4372a5b8883a"},"vehicle_type_id":"4","last_reported":1706303189,"current_range_meters":21200,"station_id":"ce4bhqp2rcd13ifvqhog","pricing_plan_id":"free"},{"bike_id":"6d4e98a9-3b8c-4251-9bc4-f50fadfe25a7","system_id":"levelo_inurba_marseille","lat":43.32364,"lon":5.38891,"is_reserved":false,"is_disabled":false,"rental_uris":{"android":"levelo://app?vid=6d4e98a9-3b8c-4251-9bc4-f50fadfe25a7","ios":"levelo://app?vid=6d4e98a9-3b8c-4251-9bc4-f50fadfe25a7"},"vehicle_type_id":"4","last_reported":1706303189,"current_range_meters":23600,"station_id":"ce4bhqp2rcd13ifvqhog","pricing_plan_id":"free"},{"bike_id":"f4d41615-385e-4c55-85f2-324af49afda3","system_id":"levelo_inurba_marseille","lat":43.29602,"lon":5.381084,"is_reserved":false,"is_disabled":false,"rental_uris":{"android":"levelo://app?vid=f4d41615-385e-4c55-85f2-324af49afda3","ios":"levelo://app?vid=f4d41615-385e-4c55-85f2-324af49afda3"},"vehicle_type_id":"4","last_reported":1706303189,"current_range_meters":5600,"station_id":"ce4bgl12rcd13ifvqbo0","pricing_plan_id":"free"},{"bike_id":"112365a2-0fd4-42d1-867f-bfb0d7bb6371","system_id":"levelo_inurba_marseille","lat":43.29601,"lon":5.381084,"is_reserved":false,"is_disabled":false,"rental_uris":{"android":"levelo://app?vid=112365a2-0fd4-42d1-867f-bfb0d7bb6371","ios":"levelo://app?vid=112365a2-0fd4-42d1-867f-bfb0d7bb6371"},"vehicle_type_id":"4","last_reported":1706303189,"current_range_meters":4800,"station_id":"ce4bgl12rcd13ifvqbo0","pricing_plan_id":"free"},{"bike_id":"88314718-833e-475a-a240-5fe2254089d1","system_id":"levelo_inurba_marseille","lat":43.29601,"lon":5.381084,"is_reserved":false,"is_disabled":false,"rental_uris":{"android":"levelo://app?vid=88314718-833e-475a-a240-5fe2254089d1","ios":"levelo://app?vid=88314718-833e-475a-a240-5fe2254089d1"},"vehicle_type_id":"4","last_reported":1706303189,"current_range_meters":4000,"station_id":"ce4bgl12rcd13ifvqbo0","pricing_plan_id":"free"},{"bike_id":"a3835b29-1424-4434-8e97-dcf056394740","system_id":"levelo_inurba_marseille","lat":43.29601,"lon":5.381084,"is_reserved":false,"is_disabled":false,"rental_uris":{"android":"levelo://app?vid=a3835b29-1424-4434-8e97-dcf056394740","ios":"levelo://app?vid=a3835b29-1424-4434-8e97-dcf056394740"},"vehicle_type_id":"4","last_reported":1706303189,"current_range_meters":16000,"station_id":"ce4bgl12rcd13ifvqbo0","pricing_plan_id":"free"},{"bike_id":"b55b4daa-30ca-4b54-9209-12a99697a5c4","system_id":"levelo_inurba_marseille","lat":43.29602,"lon":5.381084,"is_reserved":false,"is_disabled":false,"rental_uris":{"android":"levelo://app?vid=b55b4daa-30ca-4b54-9209-12a99697a5c4","ios":"levelo://app?vid=b55b4daa-30ca-4b54-9209-12a99697a5c4"},"vehicle_type_id":"4","last_reported":1706303189,"current_range_meters":22800,"station_id":"ce4bgl12rcd13ifvqbo0","pricing_plan_id":"free"},{"bike_id":"966cecc8-6a37-4dab-8447-7ea2c9b8f5be","system_id":"levelo_inurba_marseille","lat":43.293259,"lon":5.371586,"is_reserved":false,"is_disabled":false,"rental_uris":{"android":"levelo://app?vid=966cecc8-6a37-4dab-8447-7ea2c9b8f5be","ios":"levelo://app?vid=966cecc8-6a37-4dab-8447-7ea2c9b8f5be"},"vehicle_type_id":"4","last_reported":1706303189,"current_range_meters":6000,"station_id":"ce4bgh92rcd13ifvqb40","pricing_plan_id":"free"},{"bike_id":"9ad7e9a9-9036-476e-85db-36b4d8aba7e5","system_id":"levelo_inurba_marseille","lat":43.29271,"lon":5.36844,"is_reserved":false,"is_disabled":false,"rental_uris":{"android":"levelo://app?vid=9ad7e9a9-9036-476e-85db-36b4d8aba7e5","ios":"levelo://app?vid=9ad7e9a9-9036-476e-85db-36b4d8aba7e5"},"vehicle_type_id":"4","last_reported":1706303189,"current_range_meters":0,"station_id":"ce4bhbp2rcd13ifvqesg","pricing_plan_id":"free"},{"bike_id":"b211ecbb-21ab-4507-b1ac-de02d710fe8e","system_id":"levelo_inurba_marseille","lat":43.292749,"lon":5.368398,"is_reserved":false,"is_disabled":false,"rental_uris":{"android":"levelo://app?vid=b211ecbb-21ab-4507-b1ac-de02d710fe8e","ios":"levelo://app?vid=b211ecbb-21ab-4507-b1ac-de02d710fe8e"},"vehicle_type_id":"4","last_reported":1706303189,"current_range_meters":8000,"station_id":"ce4bhbp2rcd13ifvqesg","pricing_plan_id":"free"},{"bike_id":"a671a343-f52f-4996-a955-048bc3e58fae","system_id":"levelo_inurba_marseille","lat":43.2927,"lon":5.3684,"is_reserved":false,"is_disabled":false,"rental_uris":{"android":"levelo://app?vid=a671a343-f52f-4996-a955-048bc3e58fae","ios":"levelo://app?vid=a671a343-f52f-4996-a955-048bc3e58fae"},"vehicle_type_id":"4","last_reported":1706303189,"current_range_meters":2000,"station_id":"ce4bhbp2rcd13ifvqesg","pricing_plan_id":"free"},{"bike_id":"0316f98f-f5f6-436f-9435-886832a2879d","system_id":"levelo_inurba_marseille","lat":43.293044,"lon":5.374683,"is_reserved":false,"is_disabled":false,"rental_uris":{"android":"levelo://app?vid=0316f98f-f5f6-436f-9435-886832a2879d","ios":"levelo://app?vid=0316f98f-f5f6-436f-9435-886832a2879d"},"vehicle_type_id":"4","last_reported":1706303189,"current_range_meters":0,"station_id":"ce4bgi12rcd13ifvqb70","pricing_plan_id":"free"},{"bike_id":"40c2c60a-5c05-4e6a-8571-d186eab959de","system_id":"levelo_inurba_marseille","lat":43.293009,"lon":5.374584,"is_reserved":false,"is_disabled":false,"rental_uris":{"android":"levelo://app?vid=40c2c60a-5c05-4e6a-8571-d186eab959de","ios":"levelo://app?vid=40c2c60a-5c05-4e6a-8571-d186eab959de"},"vehicle_type_id":"4","last_reported":1706303189,"current_range_meters":4000,"station_id":"ce4bgi12rcd13ifvqb70","pricing_plan_id":"free"},{"bike_id":"e25a1ca4-bdfe-4cc5-9ac6-25540e791c69","system_id":"levelo_inurba_marseille","lat":43.293009,"lon":5.374584,"is_reserved":false,"is_disabled":false,"rental_uris":{"android":"levelo://app?vid=e25a1ca4-bdfe-4cc5-9ac6-25540e791c69","ios":"levelo://app?vid=e25a1ca4-bdfe-4cc5-9ac6-25540e791c69"},"vehicle_type_id":"4","last_reported":1706303189,"current_range_meters":14800,"station_id":"ce4bgi12rcd13ifvqb70","pricing_plan_id":"free"},{"bike_id":"0bd88ad9-63c1-44d5-9c2d-9e0d4323b489","system_id":"levelo_inurba_marseille","lat":43.293009,"lon":5.374584,"is_reserved":false,"is_disabled":false,"rental_uris":{"android":"levelo://app?vid=0bd88ad9-63c1-44d5-9c2d-9e0d4323b489","ios":"levelo://app?vid=0bd88ad9-63c1-44d5-9c2d-9e0d4323b489"},"vehicle_type_id":"4","last_reported":1706303189,"current_range_meters":13600,"station_id":"ce4bgi12rcd13ifvqb70","pricing_plan_id":"free"},{"bike_id":"5400026a-4d63-41ef-87e9-5e68989a257b","system_id":"levelo_inurba_marseille","lat":43.2936,"lon":5.37835,"is_reserved":false,"is_disabled":false,"rental_uris":{"android":"levelo://app?vid=5400026a-4d63-41ef-87e9-5e68989a257b","ios":"levelo://app?vid=5400026a-4d63-41ef-87e9-5e68989a257b"},"vehicle_type_id":"4","last_reported":1706303189,"current_range_meters":26800,"station_id":"ce4bgjh2rcd13ifvqbf0","pricing_plan_id":"free"},{"bike_id":"21ad017d-fab2-46ef-8788-a128caad2db0","system_id":"levelo_inurba_marseille","lat":43.30304,"lon":5.39214,"is_reserved":false,"is_disabled":false,"rental_uris":{"android":"levelo://app?vid=21ad017d-fab2-46ef-8788-a128caad2db0","ios":"levelo://app?vid=21ad017d-fab2-46ef-8788-a128caad2db0"},"vehicle_type_id":"4","last_reported":1706303189,"current_range_meters":0,"station_id":"ce4bgkh2rcd13ifvqbk0","pricing_plan_id":"free"},{"bike_id":"33eb5899-2263-4601-8070-0871b2140d8c","system_id":"levelo_inurba_marseille","lat":43.292311,"lon":5.360731,"is_reserved":false,"is_disabled":false,"rental_uris":{"android":"levelo://app?vid=33eb5899-2263-4601-8070-0871b2140d8c","ios":"levelo://app?vid=33eb5899-2263-4601-8070-0871b2140d8c"},"vehicle_type_id":"4","last_reported":1706303189,"current_range_meters":0,"station_id":"ce4bhbh2rcd13ifvqeqg","pricing_plan_id":"free"},{"bike_id":"f8ad3225-089d-4e1f-a85e-071a94cf8f70","system_id":"levelo_inurba_marseille","lat":43.298764,"lon":5.388973,"is_reserved":false,"is_disabled":false,"rental_uris":{"android":"levelo://app?vid=f8ad3225-089d-4e1f-a85e-071a94cf8f70","ios":"levelo://app?vid=f8ad3225-089d-4e1f-a85e-071a94cf8f70"},"vehicle_type_id":"4","last_reported":1706303189,"current_range_meters":8000,"station_id":"ce4bh392rcd13ifvqdl0","pricing_plan_id":"free"},{"bike_id":"f43bc4b9-69b4-4c2e-a7f1-390317b11d36","system_id":"levelo_inurba_marseille","lat":43.292618,"lon":5.376205,"is_reserved":false,"is_disabled":false,"rental_uris":{"android":"levelo://app?vid=f43bc4b9-69b4-4c2e-a7f1-390317b11d36","ios":"levelo://app?vid=f43bc4b9-69b4-4c2e-a7f1-390317b11d36"},"vehicle_type_id":"4","last_reported":1706303189,"current_range_meters":20000,"station_id":"ce4bgi12rcd13ifvqb70","pricing_plan_id":"free"},{"bike_id":"2cdd5039-e8ec-441b-9bd5-4c34b690b828","system_id":"levelo_inurba_marseille","lat":43.304935,"lon":5.394251,"is_reserved":false,"is_disabled":false,"rental_uris":{"android":"levelo://app?vid=2cdd5039-e8ec-441b-9bd5-4c34b690b828","ios":"levelo://app?vid=2cdd5039-e8ec-441b-9bd5-4c34b690b828"},"vehicle_type_id":"4","last_reported":1706303189,"current_range_meters":23200,"station_id":"","pricing_plan_id":"free"},{"bike_id":"d07d5d9a-c544-45d5-884a-cf3813237415","system_id":"levelo_inurba_marseille","lat":43.298764,"lon":5.388973,"is_reserved":false,"is_disabled":false,"rental_uris":{"android":"levelo://app?vid=d07d5d9a-c544-45d5-884a-cf3813237415","ios":"levelo://app?vid=d07d5d9a-c544-45d5-884a-cf3813237415"},"vehicle_type_id":"4","last_reported":1706303189,"current_range_meters":0,"station_id":"ce4bh392rcd13ifvqdl0","pricing_plan_id":"free"},{"bike_id":"6a512b0e-23ec-4715-8396-699e978244b9","system_id":"levelo_inurba_marseille","lat":43.291671,"lon":5.371575,"is_reserved":false,"is_disabled":false,"rental_uris":{"android":"levelo://app?vid=6a512b0e-23ec-4715-8396-699e978244b9","ios":"levelo://app?vid=6a512b0e-23ec-4715-8396-699e978244b9"},"vehicle_type_id":"4","last_reported":1706303189,"current_range_meters":10000,"station_id":"ce4bha92rcd13ifvqeh0","pricing_plan_id":"free"},{"bike_id":"04c594ab-e4d2-4ab6-aba4-e4f5a090a0c1","system_id":"levelo_inurba_marseille","lat":43.298764,"lon":5.388973,"is_reserved":false,"is_disabled":false,"rental_uris":{"android":"levelo://app?vid=04c594ab-e4d2-4ab6-aba4-e4f5a090a0c1","ios":"levelo://app?vid=04c594ab-e4d2-4ab6-aba4-e4f5a090a0c1"},"vehicle_type_id":"4","last_reported":1706303189,"current_range_meters":28400,"station_id":"ce4bh392rcd13ifvqdl0","pricing_plan_id":"free"},{"bike_id":"4fd2a837-4b75-4072-b3db-d42b94753e30","system_id":"levelo_inurba_marseille","lat":43.2936,"lon":5.37835,"is_reserved":false,"is_disabled":false,"rental_uris":{"android":"levelo://app?vid=4fd2a837-4b75-4072-b3db-d42b94753e30","ios":"levelo://app?vid=4fd2a837-4b75-4072-b3db-d42b94753e30"},"vehicle_type_id":"4","last_reported":1706303189,"current_range_meters":17600,"station_id":"ce4bgjh2rcd13ifvqbf0","pricing_plan_id":"free"},{"bike_id":"f22ea6b4-dd47-4f9a-8afb-1db7640deca3","system_id":"levelo_inurba_marseille","lat":43.313291,"lon":5.396838,"is_reserved":false,"is_disabled":false,"rental_uris":{"android":"levelo://app?vid=f22ea6b4-dd47-4f9a-8afb-1db7640deca3","ios":"levelo://app?vid=f22ea6b4-dd47-4f9a-8afb-1db7640deca3"},"vehicle_type_id":"4","last_reported":1706303189,"current_range_meters":13200,"station_id":"ce4bgvp2rcd13ifvqcu0","pricing_plan_id":"free"},{"bike_id":"3cf0b0fc-5d81-4253-8f10-4bfd8b2f2099","system_id":"levelo_inurba_marseille","lat":43.313291,"lon":5.396838,"is_reserved":false,"is_disabled":false,"rental_uris":{"android":"levelo://app?vid=3cf0b0fc-5d81-4253-8f10-4bfd8b2f2099","ios":"levelo://app?vid=3cf0b0fc-5d81-4253-8f10-4bfd8b2f2099"},"vehicle_type_id":"4","last_reported":1706303189,"current_range_meters":10800,"station_id":"ce4bgvp2rcd13ifvqcu0","pricing_plan_id":"free"},{"bike_id":"4c43c091-e9b6-435a-b50c-64eca14afb9e","system_id":"levelo_inurba_marseille","lat":43.313291,"lon":5.396838,"is_reserved":false,"is_disabled":false,"rental_uris":{"android":"levelo://app?vid=4c43c091-e9b6-435a-b50c-64eca14afb9e","ios":"levelo://app?vid=4c43c091-e9b6-435a-b50c-64eca14afb9e"},"vehicle_type_id":"4","last_reported":1706303189,"current_range_meters":0,"station_id":"ce4bgvp2rcd13ifvqcu0","pricing_plan_id":"free"},{"bike_id":"09034d29-bd11-43d9-a640-3dee314c0041","system_id":"levelo_inurba_marseille","lat":43.313291,"lon":5.396838,"is_reserved":false,"is_disabled":false,"rental_uris":{"android":"levelo://app?vid=09034d29-bd11-43d9-a640-3dee314c0041","ios":"levelo://app?vid=09034d29-bd11-43d9-a640-3dee314c0041"},"vehicle_type_id":"4","last_reported":1706303189,"current_range_meters":0,"station_id":"ce4bgvp2rcd13ifvqcu0","pricing_plan_id":"free"},{"bike_id":"c6ff721a-4ab5-4d1a-9390-c9aff4edd21a","system_id":"levelo_inurba_marseille","lat":43.313291,"lon":5.396838,"is_reserved":false,"is_disabled":false,"rental_uris":{"android":"levelo://app?vid=c6ff721a-4ab5-4d1a-9390-c9aff4edd21a","ios":"levelo://app?vid=c6ff721a-4ab5-4d1a-9390-c9aff4edd21a"},"vehicle_type_id":"4","last_reported":1706303189,"current_range_meters":2000,"station_id":"ce4bgvp2rcd13ifvqcu0","pricing_plan_id":"free"},{"bike_id":"f317e23f-77ac-4822-8f04-e730922bc8ed","system_id":"levelo_inurba_marseille","lat":43.313291,"lon":5.396838,"is_reserved":false,"is_disabled":false,"rental_uris":{"android":"levelo://app?vid=f317e23f-77ac-4822-8f04-e730922bc8ed","ios":"levelo://app?vid=f317e23f-77ac-4822-8f04-e730922bc8ed"},"vehicle_type_id":"4","last_reported":1706303189,"current_range_meters":0,"station_id":"ce4bgvp2rcd13ifvqcu0","pricing_plan_id":"free"},{"bike_id":"839e8090-589e-4df2-8f3d-74f4cb74f793","system_id":"levelo_inurba_marseille","lat":43.313291,"lon":5.396838,"is_reserved":false,"is_disabled":false,"rental_uris":{"android":"levelo://app?vid=839e8090-589e-4df2-8f3d-74f4cb74f793","ios":"levelo://app?vid=839e8090-589e-4df2-8f3d-74f4cb74f793"},"vehicle_type_id":"4","last_reported":1706303189,"current_range_meters":4800,"station_id":"ce4bgvp2rcd13ifvqcu0","pricing_plan_id":"free"},{"bike_id":"e031d75a-0f7e-45a2-a5b1-5ff29b62c723","system_id":"levelo_inurba_marseille","lat":43.29529,"lon":5.385581,"is_reserved":false,"is_disabled":false,"rental_uris":{"android":"levelo://app?vid=e031d75a-0f7e-45a2-a5b1-5ff29b62c723","ios":"levelo://app?vid=e031d75a-0f7e-45a2-a5b1-5ff29b62c723"},"vehicle_type_id":"4","last_reported":1706303189,"current_range_meters":1200,"station_id":"ce4bgih2rcd13ifvqba0","pricing_plan_id":"free"},{"bike_id":"31aec5e3-6fdb-4be5-96a2-43b409929d9c","system_id":"levelo_inurba_marseille","lat":43.29529,"lon":5.385581,"is_reserved":false,"is_disabled":false,"rental_uris":{"android":"levelo://app?vid=31aec5e3-6fdb-4be5-96a2-43b409929d9c","ios":"levelo://app?vid=31aec5e3-6fdb-4be5-96a2-43b409929d9c"},"vehicle_type_id":"4","last_reported":1706303189,"current_range_meters":0,"station_id":"ce4bgih2rcd13ifvqba0","pricing_plan_id":"free"},{"bike_id":"cd926e4a-93dd-421c-8803-f067e4ba09b7","system_id":"levelo_inurba_marseille","lat":43.29529,"lon":5.385581,"is_reserved":false,"is_disabled":false,"rental_uris":{"android":"levelo://app?vid=cd926e4a-93dd-421c-8803-f067e4ba09b7","ios":"levelo://app?vid=cd926e4a-93dd-421c-8803-f067e4ba09b7"},"vehicle_type_id":"4","last_reported":1706303189,"current_range_meters":1600,"station_id":"ce4bgih2rcd13ifvqba0","pricing_plan_id":"free"},{"bike_id":"27d3c273-73d3-484f-93fc-855d2f0a89ba","system_id":"levelo_inurba_marseille","lat":43.29529,"lon":5.385581,"is_reserved":false,"is_disabled":false,"rental_uris":{"android":"levelo://app?vid=27d3c273-73d3-484f-93fc-855d2f0a89ba","ios":"levelo://app?vid=27d3c273-73d3-484f-93fc-855d2f0a89ba"},"vehicle_type_id":"4","last_reported":1706303189,"current_range_meters":21600,"station_id":"ce4bgih2rcd13ifvqba0","pricing_plan_id":"free"},{"bike_id":"ffc28483-dae3-4b0a-b84a-e03c20a11034","system_id":"levelo_inurba_marseille","lat":43.29535,"lon":5.38546,"is_reserved":false,"is_disabled":false,"rental_uris":{"android":"levelo://app?vid=ffc28483-dae3-4b0a-b84a-e03c20a11034","ios":"levelo://app?vid=ffc28483-dae3-4b0a-b84a-e03c20a11034"},"vehicle_type_id":"4","last_reported":1706303189,"current_range_meters":0,"station_id":"ce4bgih2rcd13ifvqba0","pricing_plan_id":"free"},{"bike_id":"a448a1db-91e2-4cdc-bb4a-379d348e1806","system_id":"levelo_inurba_marseille","lat":43.29529,"lon":5.385581,"is_reserved":false,"is_disabled":false,"rental_uris":{"android":"levelo://app?vid=a448a1db-91e2-4cdc-bb4a-379d348e1806","ios":"levelo://app?vid=a448a1db-91e2-4cdc-bb4a-379d348e1806"},"vehicle_type_id":"4","last_reported":1706303189,"current_range_meters":12000,"station_id":"ce4bgih2rcd13ifvqba0","pricing_plan_id":"free"},{"bike_id":"b5198fe1-f488-4b3b-a950-63b4c95d848f","system_id":"levelo_inurba_marseille","lat":43.29528,"lon":5.38539,"is_reserved":false,"is_disabled":false,"rental_uris":{"android":"levelo://app?vid=b5198fe1-f488-4b3b-a950-63b4c95d848f","ios":"levelo://app?vid=b5198fe1-f488-4b3b-a950-63b4c95d848f"},"vehicle_type_id":"4","last_reported":1706303189,"current_range_meters":0,"station_id":"ce4bgih2rcd13ifvqba0","pricing_plan_id":"free"},{"bike_id":"f814cdf9-4747-4457-8b44-08c9fb779343","system_id":"levelo_inurba_marseille","lat":43.29529,"lon":5.385581,"is_reserved":false,"is_disabled":false,"rental_uris":{"android":"levelo://app?vid=f814cdf9-4747-4457-8b44-08c9fb779343","ios":"levelo://app?vid=f814cdf9-4747-4457-8b44-08c9fb779343"},"vehicle_type_id":"4","last_reported":1706303189,"current_range_meters":0,"station_id":"ce4bgih2rcd13ifvqba0","pricing_plan_id":"free"},{"bike_id":"26958ef2-6d23-4f96-a750-04a46b54d2a4","system_id":"levelo_inurba_marseille","lat":43.290779,"lon":5.371482,"is_reserved":false,"is_disabled":false,"rental_uris":{"android":"levelo://app?vid=26958ef2-6d23-4f96-a750-04a46b54d2a4","ios":"levelo://app?vid=26958ef2-6d23-4f96-a750-04a46b54d2a4"},"vehicle_type_id":"4","last_reported":1706303189,"current_range_meters":6400,"station_id":"ce4bh5p2rcd13ifvqe4g","pricing_plan_id":"free"},{"bike_id":"fc08f2a2-7fad-40e9-b2da-60d151623b28","system_id":"levelo_inurba_marseille","lat":43.295833,"lon":5.387147,"is_reserved":false,"is_disabled":false,"rental_uris":{"android":"levelo://app?vid=fc08f2a2-7fad-40e9-b2da-60d151623b28","ios":"levelo://app?vid=fc08f2a2-7fad-40e9-b2da-60d151623b28"},"vehicle_type_id":"4","last_reported":1706303189,"current_range_meters":8400,"station_id":"","pricing_plan_id":"free"},{"bike_id":"a944e142-1e7d-4c0a-b56d-b585b3a0e090","system_id":"levelo_inurba_marseille","lat":43.30214,"lon":5.394657,"is_reserved":false,"is_disabled":false,"rental_uris":{"android":"levelo://app?vid=a944e142-1e7d-4c0a-b56d-b585b3a0e090","ios":"levelo://app?vid=a944e142-1e7d-4c0a-b56d-b585b3a0e090"},"vehicle_type_id":"4","last_reported":1706303189,"current_range_meters":0,"station_id":"ce4bh0p2rcd13ifvqd70","pricing_plan_id":"free"},{"bike_id":"e832c35c-fdb2-4508-abfb-c2ca1215ce3d","system_id":"levelo_inurba_marseille","lat":43.302008,"lon":5.394694,"is_reserved":false,"is_disabled":false,"rental_uris":{"android":"levelo://app?vid=e832c35c-fdb2-4508-abfb-c2ca1215ce3d","ios":"levelo://app?vid=e832c35c-fdb2-4508-abfb-c2ca1215ce3d"},"vehicle_type_id":"4","last_reported":1706303189,"current_range_meters":1600,"station_id":"ce4bh0p2rcd13ifvqd70","pricing_plan_id":"free"},{"bike_id":"0e75580e-2eab-48f4-8307-a428bf5f2f4e","system_id":"levelo_inurba_marseille","lat":43.295135,"lon":5.38746,"is_reserved":false,"is_disabled":false,"rental_uris":{"android":"levelo://app?vid=0e75580e-2eab-48f4-8307-a428bf5f2f4e","ios":"levelo://app?vid=0e75580e-2eab-48f4-8307-a428bf5f2f4e"},"vehicle_type_id":"4","last_reported":1706303189,"current_range_meters":10800,"station_id":"","pricing_plan_id":"free"},{"bike_id":"6e835958-dcab-4edd-82e4-d1e20ab895e9","system_id":"levelo_inurba_marseille","lat":43.294153,"lon":5.386305,"is_reserved":false,"is_disabled":false,"rental_uris":{"android":"levelo://app?vid=6e835958-dcab-4edd-82e4-d1e20ab895e9","ios":"levelo://app?vid=6e835958-dcab-4edd-82e4-d1e20ab895e9"},"vehicle_type_id":"4","last_reported":1706303189,"current_range_meters":18000,"station_id":"ce4bh2h2rcd13ifvqdh0","pricing_plan_id":"free"},{"bike_id":"50d14d05-c91c-4877-b3de-4f853e558dc0","system_id":"levelo_inurba_marseille","lat":43.29422,"lon":5.38617,"is_reserved":false,"is_disabled":false,"rental_uris":{"android":"levelo://app?vid=50d14d05-c91c-4877-b3de-4f853e558dc0","ios":"levelo://app?vid=50d14d05-c91c-4877-b3de-4f853e558dc0"},"vehicle_type_id":"4","last_reported":1706303189,"current_range_meters":1600,"station_id":"ce4bh2h2rcd13ifvqdh0","pricing_plan_id":"free"},{"bike_id":"33a30f4c-d79d-43af-8be4-c009bf80cb11","system_id":"levelo_inurba_marseille","lat":43.29419,"lon":5.38619,"is_reserved":false,"is_disabled":false,"rental_uris":{"android":"levelo://app?vid=33a30f4c-d79d-43af-8be4-c009bf80cb11","ios":"levelo://app?vid=33a30f4c-d79d-43af-8be4-c009bf80cb11"},"vehicle_type_id":"4","last_reported":1706303189,"current_range_meters":2400,"station_id":"ce4bh2h2rcd13ifvqdh0","pricing_plan_id":"free"},{"bike_id":"f4d67dcb-0e26-415b-bcc5-150e02b6854b","system_id":"levelo_inurba_marseille","lat":43.29422,"lon":5.38626,"is_reserved":false,"is_disabled":false,"rental_uris":{"android":"levelo://app?vid=f4d67dcb-0e26-415b-bcc5-150e02b6854b","ios":"levelo://app?vid=f4d67dcb-0e26-415b-bcc5-150e02b6854b"},"vehicle_type_id":"4","last_reported":1706303189,"current_range_meters":800,"station_id":"ce4bh2h2rcd13ifvqdh0","pricing_plan_id":"free"},{"bike_id":"3a124622-840a-4393-b4d2-9d5194237b05","system_id":"levelo_inurba_marseille","lat":43.29422,"lon":5.38627,"is_reserved":false,"is_disabled":false,"rental_uris":{"android":"levelo://app?vid=3a124622-840a-4393-b4d2-9d5194237b05","ios":"levelo://app?vid=3a124622-840a-4393-b4d2-9d5194237b05"},"vehicle_type_id":"4","last_reported":1706303189,"current_range_meters":0,"station_id":"ce4bh2h2rcd13ifvqdh0","pricing_plan_id":"free"},{"bike_id":"6284ed12-8138-4921-a60c-80627cdec6df","system_id":"levelo_inurba_marseille","lat":43.294153,"lon":5.386305,"is_reserved":false,"is_disabled":false,"rental_uris":{"android":"levelo://app?vid=6284ed12-8138-4921-a60c-80627cdec6df","ios":"levelo://app?vid=6284ed12-8138-4921-a60c-80627cdec6df"},"vehicle_type_id":"4","last_reported":1706303189,"current_range_meters":4000,"station_id":"ce4bh2h2rcd13ifvqdh0","pricing_plan_id":"free"},{"bike_id":"4d208789-705a-4a3a-9bef-b45e33f1bc43","system_id":"levelo_inurba_marseille","lat":43.29421,"lon":5.38626,"is_reserved":false,"is_disabled":false,"rental_uris":{"android":"levelo://app?vid=4d208789-705a-4a3a-9bef-b45e33f1bc43","ios":"levelo://app?vid=4d208789-705a-4a3a-9bef-b45e33f1bc43"},"vehicle_type_id":"4","last_reported":1706303189,"current_range_meters":0,"station_id":"ce4bh2h2rcd13ifvqdh0","pricing_plan_id":"free"},{"bike_id":"f117817b-16ae-4209-8d13-a496762a1cff","system_id":"levelo_inurba_marseille","lat":43.294182,"lon":5.386232,"is_reserved":false,"is_disabled":false,"rental_uris":{"android":"levelo://app?vid=f117817b-16ae-4209-8d13-a496762a1cff","ios":"levelo://app?vid=f117817b-16ae-4209-8d13-a496762a1cff"},"vehicle_type_id":"4","last_reported":1706303189,"current_range_meters":16400,"station_id":"ce4bh2h2rcd13ifvqdh0","pricing_plan_id":"free"},{"bike_id":"629b4f6f-b7f0-4e03-b71d-40641a00f26d","system_id":"levelo_inurba_marseille","lat":43.29421,"lon":5.38629,"is_reserved":false,"is_disabled":false,"rental_uris":{"android":"levelo://app?vid=629b4f6f-b7f0-4e03-b71d-40641a00f26d","ios":"levelo://app?vid=629b4f6f-b7f0-4e03-b71d-40641a00f26d"},"vehicle_type_id":"4","last_reported":1706303189,"current_range_meters":30400,"station_id":"ce4bh2h2rcd13ifvqdh0","pricing_plan_id":"free"},{"bike_id":"e83e7ab8-64aa-45e4-89ce-f01b4f31202f","system_id":"levelo_inurba_marseille","lat":43.2942,"lon":5.38628,"is_reserved":false,"is_disabled":false,"rental_uris":{"android":"levelo://app?vid=e83e7ab8-64aa-45e4-89ce-f01b4f31202f","ios":"levelo://app?vid=e83e7ab8-64aa-45e4-89ce-f01b4f31202f"},"vehicle_type_id":"4","last_reported":1706303189,"current_range_meters":0,"station_id":"ce4bh2h2rcd13ifvqdh0","pricing_plan_id":"free"},{"bike_id":"724857a1-1cfe-424f-87a5-c341a543568e","system_id":"levelo_inurba_marseille","lat":43.294189,"lon":5.386296,"is_reserved":false,"is_disabled":false,"rental_uris":{"android":"levelo://app?vid=724857a1-1cfe-424f-87a5-c341a543568e","ios":"levelo://app?vid=724857a1-1cfe-424f-87a5-c341a543568e"},"vehicle_type_id":"4","last_reported":1706303189,"current_range_meters":1200,"station_id":"ce4bh2h2rcd13ifvqdh0","pricing_plan_id":"free"},{"bike_id":"f63ef7ba-35e1-414c-b98c-cbbed88e567d","system_id":"levelo_inurba_marseille","lat":43.29418,"lon":5.38631,"is_reserved":false,"is_disabled":false,"rental_uris":{"android":"levelo://app?vid=f63ef7ba-35e1-414c-b98c-cbbed88e567d","ios":"levelo://app?vid=f63ef7ba-35e1-414c-b98c-cbbed88e567d"},"vehicle_type_id":"4","last_reported":1706303189,"current_range_meters":20800,"station_id":"ce4bh2h2rcd13ifvqdh0","pricing_plan_id":"free"},{"bike_id":"77ea933a-ce8e-4986-8970-0f37d0b26cee","system_id":"levelo_inurba_marseille","lat":43.29416,"lon":5.38629,"is_reserved":false,"is_disabled":false,"rental_uris":{"android":"levelo://app?vid=77ea933a-ce8e-4986-8970-0f37d0b26cee","ios":"levelo://app?vid=77ea933a-ce8e-4986-8970-0f37d0b26cee"},"vehicle_type_id":"4","last_reported":1706303189,"current_range_meters":0,"station_id":"ce4bh2h2rcd13ifvqdh0","pricing_plan_id":"free"},{"bike_id":"a1f4e44d-3ea7-4020-a27c-dae63b520536","system_id":"levelo_inurba_marseille","lat":43.290319,"lon":5.375732,"is_reserved":false,"is_disabled":false,"rental_uris":{"android":"levelo://app?vid=a1f4e44d-3ea7-4020-a27c-dae63b520536","ios":"levelo://app?vid=a1f4e44d-3ea7-4020-a27c-dae63b520536"},"vehicle_type_id":"4","last_reported":1706303189,"current_range_meters":27200,"station_id":"ce4bh692rcd13ifvqe90","pricing_plan_id":"free"},{"bike_id":"7243af2c-678d-420d-952c-ae5800aa4ed8","system_id":"levelo_inurba_marseille","lat":43.29412,"lon":5.38638,"is_reserved":false,"is_disabled":false,"rental_uris":{"android":"levelo://app?vid=7243af2c-678d-420d-952c-ae5800aa4ed8","ios":"levelo://app?vid=7243af2c-678d-420d-952c-ae5800aa4ed8"},"vehicle_type_id":"4","last_reported":1706303189,"current_range_meters":1600,"station_id":"ce4bh2h2rcd13ifvqdh0","pricing_plan_id":"free"},{"bike_id":"23b00724-ba42-4e62-b506-06b55be6937f","system_id":"levelo_inurba_marseille","lat":43.292792,"lon":5.384395,"is_reserved":false,"is_disabled":false,"rental_uris":{"android":"levelo://app?vid=23b00724-ba42-4e62-b506-06b55be6937f","ios":"levelo://app?vid=23b00724-ba42-4e62-b506-06b55be6937f"},"vehicle_type_id":"4","last_reported":1706303189,"current_range_meters":24400,"station_id":"ce4bh692rcd13ifvqea0","pricing_plan_id":"free"},{"bike_id":"68213095-b9dd-4515-ace8-7a9a8e90084f","system_id":"levelo_inurba_marseille","lat":43.29275,"lon":5.38437,"is_reserved":false,"is_disabled":false,"rental_uris":{"android":"levelo://app?vid=68213095-b9dd-4515-ace8-7a9a8e90084f","ios":"levelo://app?vid=68213095-b9dd-4515-ace8-7a9a8e90084f"},"vehicle_type_id":"4","last_reported":1706303189,"current_range_meters":15200,"station_id":"ce4bh692rcd13ifvqea0","pricing_plan_id":"free"},{"bike_id":"9edefeaf-bfce-4973-8313-b88281ef190f","system_id":"levelo_inurba_marseille","lat":43.292733,"lon":5.384367,"is_reserved":false,"is_disabled":false,"rental_uris":{"android":"levelo://app?vid=9edefeaf-bfce-4973-8313-b88281ef190f","ios":"levelo://app?vid=9edefeaf-bfce-4973-8313-b88281ef190f"},"vehicle_type_id":"4","last_reported":1706303189,"current_range_meters":3600,"station_id":"ce4bh692rcd13ifvqea0","pricing_plan_id":"free"},{"bike_id":"eef988a2-274a-4f57-b667-53a777e669de","system_id":"levelo_inurba_marseille","lat":43.304274,"lon":5.397513,"is_reserved":false,"is_disabled":false,"rental_uris":{"android":"levelo://app?vid=eef988a2-274a-4f57-b667-53a777e669de","ios":"levelo://app?vid=eef988a2-274a-4f57-b667-53a777e669de"},"vehicle_type_id":"4","last_reported":1706303189,"current_range_meters":19600,"station_id":"ce4bh092rcd13ifvqd20","pricing_plan_id":"free"},{"bike_id":"95631c24-0053-40ec-9cfe-69d62e3191b7","system_id":"levelo_inurba_marseille","lat":43.292684,"lon":5.38432,"is_reserved":false,"is_disabled":false,"rental_uris":{"android":"levelo://app?vid=95631c24-0053-40ec-9cfe-69d62e3191b7","ios":"levelo://app?vid=95631c24-0053-40ec-9cfe-69d62e3191b7"},"vehicle_type_id":"4","last_reported":1706303189,"current_range_meters":2000,"station_id":"ce4bh692rcd13ifvqea0","pricing_plan_id":"free"},{"bike_id":"cef179d8-a1e7-4c96-96e2-99611f2a5f0a","system_id":"levelo_inurba_marseille","lat":43.2927,"lon":5.38436,"is_reserved":false,"is_disabled":false,"rental_uris":{"android":"levelo://app?vid=cef179d8-a1e7-4c96-96e2-99611f2a5f0a","ios":"levelo://app?vid=cef179d8-a1e7-4c96-96e2-99611f2a5f0a"},"vehicle_type_id":"4","last_reported":1706303189,"current_range_meters":2800,"station_id":"ce4bh692rcd13ifvqea0","pricing_plan_id":"free"},{"bike_id":"694e8996-12da-4c60-8a03-d1f1c90a5dce","system_id":"levelo_inurba_marseille","lat":43.292696,"lon":5.384367,"is_reserved":false,"is_disabled":false,"rental_uris":{"android":"levelo://app?vid=694e8996-12da-4c60-8a03-d1f1c90a5dce","ios":"levelo://app?vid=694e8996-12da-4c60-8a03-d1f1c90a5dce"},"vehicle_type_id":"4","last_reported":1706303189,"current_range_meters":17600,"station_id":"ce4bh692rcd13ifvqea0","pricing_plan_id":"free"},{"bike_id":"5c290fce-8623-43d0-bc0d-031428daede3","system_id":"levelo_inurba_marseille","lat":43.29265,"lon":5.38427,"is_reserved":false,"is_disabled":false,"rental_uris":{"android":"levelo://app?vid=5c290fce-8623-43d0-bc0d-031428daede3","ios":"levelo://app?vid=5c290fce-8623-43d0-bc0d-031428daede3"},"vehicle_type_id":"4","last_reported":1706303189,"current_range_meters":0,"station_id":"ce4bh692rcd13ifvqea0","pricing_plan_id":"free"},{"bike_id":"2d780356-5d3d-4521-9565-eee0bb5f28c8","system_id":"levelo_inurba_marseille","lat":43.29269,"lon":5.38436,"is_reserved":false,"is_disabled":false,"rental_uris":{"android":"levelo://app?vid=2d780356-5d3d-4521-9565-eee0bb5f28c8","ios":"levelo://app?vid=2d780356-5d3d-4521-9565-eee0bb5f28c8"},"vehicle_type_id":"4","last_reported":1706303189,"current_range_meters":0,"station_id":"ce4bh692rcd13ifvqea0","pricing_plan_id":"free"},{"bike_id":"8610584d-da24-4a07-8891-8545bb3524df","system_id":"levelo_inurba_marseille","lat":43.2927,"lon":5.38439,"is_reserved":false,"is_disabled":false,"rental_uris":{"android":"levelo://app?vid=8610584d-da24-4a07-8891-8545bb3524df","ios":"levelo://app?vid=8610584d-da24-4a07-8891-8545bb3524df"},"vehicle_type_id":"4","last_reported":1706303189,"current_range_meters":400,"station_id":"ce4bh692rcd13ifvqea0","pricing_plan_id":"free"},{"bike_id":"e5124d7a-8776-41d2-aeb8-a83def1aaec8","system_id":"levelo_inurba_marseille","lat":43.292663,"lon":5.384357,"is_reserved":false,"is_disabled":false,"rental_uris":{"android":"levelo://app?vid=e5124d7a-8776-41d2-aeb8-a83def1aaec8","ios":"levelo://app?vid=e5124d7a-8776-41d2-aeb8-a83def1aaec8"},"vehicle_type_id":"4","last_reported":1706303189,"current_range_meters":25600,"station_id":"ce4bh692rcd13ifvqea0","pricing_plan_id":"free"},{"bike_id":"6c3266b9-0646-4e00-a597-1f2b7bc74d76","system_id":"levelo_inurba_marseille","lat":43.29268,"lon":5.3844,"is_reserved":false,"is_disabled":false,"rental_uris":{"android":"levelo://app?vid=6c3266b9-0646-4e00-a597-1f2b7bc74d76","ios":"levelo://app?vid=6c3266b9-0646-4e00-a597-1f2b7bc74d76"},"vehicle_type_id":"4","last_reported":1706303189,"current_range_meters":3200,"station_id":"ce4bh692rcd13ifvqea0","pricing_plan_id":"free"},{"bike_id":"904fab0f-ad16-4a8a-965e-f45a650c7417","system_id":"levelo_inurba_marseille","lat":43.29268,"lon":5.3844,"is_reserved":false,"is_disabled":false,"rental_uris":{"android":"levelo://app?vid=904fab0f-ad16-4a8a-965e-f45a650c7417","ios":"levelo://app?vid=904fab0f-ad16-4a8a-965e-f45a650c7417"},"vehicle_type_id":"4","last_reported":1706303189,"current_range_meters":5600,"station_id":"ce4bh692rcd13ifvqea0","pricing_plan_id":"free"},{"bike_id":"f8022d4c-2743-410e-b5ba-a9833dbe9ef5","system_id":"levelo_inurba_marseille","lat":43.29265,"lon":5.38436,"is_reserved":false,"is_disabled":false,"rental_uris":{"android":"levelo://app?vid=f8022d4c-2743-410e-b5ba-a9833dbe9ef5","ios":"levelo://app?vid=f8022d4c-2743-410e-b5ba-a9833dbe9ef5"},"vehicle_type_id":"4","last_reported":1706303189,"current_range_meters":14000,"station_id":"ce4bh692rcd13ifvqea0","pricing_plan_id":"free"},{"bike_id":"fcfdbdbc-42f4-4148-b4e2-182a785ce068","system_id":"levelo_inurba_marseille","lat":43.2926,"lon":5.38427,"is_reserved":false,"is_disabled":false,"rental_uris":{"android":"levelo://app?vid=fcfdbdbc-42f4-4148-b4e2-182a785ce068","ios":"levelo://app?vid=fcfdbdbc-42f4-4148-b4e2-182a785ce068"},"vehicle_type_id":"4","last_reported":1706303189,"current_range_meters":13600,"station_id":"ce4bh692rcd13ifvqea0","pricing_plan_id":"free"},{"bike_id":"af09b989-7339-4bc0-855b-440aa1ce92bd","system_id":"levelo_inurba_marseille","lat":43.29265,"lon":5.38439,"is_reserved":false,"is_disabled":false,"rental_uris":{"android":"levelo://app?vid=af09b989-7339-4bc0-855b-440aa1ce92bd","ios":"levelo://app?vid=af09b989-7339-4bc0-855b-440aa1ce92bd"},"vehicle_type_id":"4","last_reported":1706303189,"current_range_meters":26400,"station_id":"ce4bh692rcd13ifvqea0","pricing_plan_id":"free"},{"bike_id":"fb254b6e-cfa4-4ed0-9663-5d959e95b372","system_id":"levelo_inurba_marseille","lat":43.29263,"lon":5.38435,"is_reserved":false,"is_disabled":false,"rental_uris":{"android":"levelo://app?vid=fb254b6e-cfa4-4ed0-9663-5d959e95b372","ios":"levelo://app?vid=fb254b6e-cfa4-4ed0-9663-5d959e95b372"},"vehicle_type_id":"4","last_reported":1706303189,"current_range_meters":14000,"station_id":"ce4bh692rcd13ifvqea0","pricing_plan_id":"free"},{"bike_id":"1ed5c1f0-c3db-4ef5-a6cc-1accc4a9f7f9","system_id":"levelo_inurba_marseille","lat":43.29265,"lon":5.38442,"is_reserved":false,"is_disabled":false,"rental_uris":{"android":"levelo://app?vid=1ed5c1f0-c3db-4ef5-a6cc-1accc4a9f7f9","ios":"levelo://app?vid=1ed5c1f0-c3db-4ef5-a6cc-1accc4a9f7f9"},"vehicle_type_id":"4","last_reported":1706303189,"current_range_meters":9200,"station_id":"ce4bh692rcd13ifvqea0","pricing_plan_id":"free"},{"bike_id":"740ca010-defd-48ae-a7f1-71154afba5b7","system_id":"levelo_inurba_marseille","lat":43.29264,"lon":5.384407,"is_reserved":false,"is_disabled":false,"rental_uris":{"android":"levelo://app?vid=740ca010-defd-48ae-a7f1-71154afba5b7","ios":"levelo://app?vid=740ca010-defd-48ae-a7f1-71154afba5b7"},"vehicle_type_id":"4","last_reported":1706303189,"current_range_meters":0,"station_id":"ce4bh692rcd13ifvqea0","pricing_plan_id":"free"},{"bike_id":"ecb05053-8a92-4f28-be8d-e2d3b5c07354","system_id":"levelo_inurba_marseille","lat":43.29264,"lon":5.38441,"is_reserved":false,"is_disabled":false,"rental_uris":{"android":"levelo://app?vid=ecb05053-8a92-4f28-be8d-e2d3b5c07354","ios":"levelo://app?vid=ecb05053-8a92-4f28-be8d-e2d3b5c07354"},"vehicle_type_id":"4","last_reported":1706303189,"current_range_meters":4000,"station_id":"ce4bh692rcd13ifvqea0","pricing_plan_id":"free"},{"bike_id":"cae040c5-9506-4d75-ab08-828f9de8f6ce","system_id":"levelo_inurba_marseille","lat":43.29269,"lon":5.384535,"is_reserved":false,"is_disabled":false,"rental_uris":{"android":"levelo://app?vid=cae040c5-9506-4d75-ab08-828f9de8f6ce","ios":"levelo://app?vid=cae040c5-9506-4d75-ab08-828f9de8f6ce"},"vehicle_type_id":"4","last_reported":1706303189,"current_range_meters":400,"station_id":"ce4bh692rcd13ifvqea0","pricing_plan_id":"free"},{"bike_id":"d328913e-ad88-4fd3-bc04-ec52887d9aee","system_id":"levelo_inurba_marseille","lat":43.304296,"lon":5.397513,"is_reserved":false,"is_disabled":false,"rental_uris":{"android":"levelo://app?vid=d328913e-ad88-4fd3-bc04-ec52887d9aee","ios":"levelo://app?vid=d328913e-ad88-4fd3-bc04-ec52887d9aee"},"vehicle_type_id":"4","last_reported":1706303189,"current_range_meters":13600,"station_id":"ce4bh092rcd13ifvqd20","pricing_plan_id":"free"},{"bike_id":"5d0631dc-d1f9-4876-9df7-b2b20351a1cc","system_id":"levelo_inurba_marseille","lat":43.292644,"lon":5.384257,"is_reserved":false,"is_disabled":false,"rental_uris":{"android":"levelo://app?vid=5d0631dc-d1f9-4876-9df7-b2b20351a1cc","ios":"levelo://app?vid=5d0631dc-d1f9-4876-9df7-b2b20351a1cc"},"vehicle_type_id":"4","last_reported":1706303189,"current_range_meters":19200,"station_id":"ce4bh692rcd13ifvqea0","pricing_plan_id":"free"},{"bike_id":"c307ddfd-3837-4730-bff0-a5f187ae1424","system_id":"levelo_inurba_marseille","lat":43.29263,"lon":5.38445,"is_reserved":false,"is_disabled":false,"rental_uris":{"android":"levelo://app?vid=c307ddfd-3837-4730-bff0-a5f187ae1424","ios":"levelo://app?vid=c307ddfd-3837-4730-bff0-a5f187ae1424"},"vehicle_type_id":"4","last_reported":1706303189,"current_range_meters":24400,"station_id":"ce4bh692rcd13ifvqea0","pricing_plan_id":"free"},{"bike_id":"05fdb446-dc55-4b53-b7ef-5b9950545f86","system_id":"levelo_inurba_marseille","lat":43.292617,"lon":5.384448,"is_reserved":false,"is_disabled":false,"rental_uris":{"android":"levelo://app?vid=05fdb446-dc55-4b53-b7ef-5b9950545f86","ios":"levelo://app?vid=05fdb446-dc55-4b53-b7ef-5b9950545f86"},"vehicle_type_id":"4","last_reported":1706303189,"current_range_meters":7200,"station_id":"ce4bh692rcd13ifvqea0","pricing_plan_id":"free"},{"bike_id":"30428ad1-7e04-4f13-a62c-c8ea21428728","system_id":"levelo_inurba_marseille","lat":43.29257,"lon":5.38437,"is_reserved":false,"is_disabled":false,"rental_uris":{"android":"levelo://app?vid=30428ad1-7e04-4f13-a62c-c8ea21428728","ios":"levelo://app?vid=30428ad1-7e04-4f13-a62c-c8ea21428728"},"vehicle_type_id":"4","last_reported":1706303189,"current_range_meters":0,"station_id":"ce4bh692rcd13ifvqea0","pricing_plan_id":"free"},{"bike_id":"96f22199-e468-42e2-966b-13d791b2efce","system_id":"levelo_inurba_marseille","lat":43.292644,"lon":5.384257,"is_reserved":false,"is_disabled":false,"rental_uris":{"android":"levelo://app?vid=96f22199-e468-42e2-966b-13d791b2efce","ios":"levelo://app?vid=96f22199-e468-42e2-966b-13d791b2efce"},"vehicle_type_id":"4","last_reported":1706303189,"current_range_meters":31200,"station_id":"ce4bh692rcd13ifvqea0","pricing_plan_id":"free"},{"bike_id":"e7fd9064-3948-431c-a51a-0aa9bb8aa8b5","system_id":"levelo_inurba_marseille","lat":43.29254,"lon":5.384484,"is_reserved":false,"is_disabled":false,"rental_uris":{"android":"levelo://app?vid=e7fd9064-3948-431c-a51a-0aa9bb8aa8b5","ios":"levelo://app?vid=e7fd9064-3948-431c-a51a-0aa9bb8aa8b5"},"vehicle_type_id":"4","last_reported":1706303189,"current_range_meters":17200,"station_id":"ce4bh692rcd13ifvqea0","pricing_plan_id":"free"},{"bike_id":"8b887070-784a-4f8a-9fda-0e5c8a7a4863","system_id":"levelo_inurba_marseille","lat":43.29251,"lon":5.384437,"is_reserved":false,"is_disabled":false,"rental_uris":{"android":"levelo://app?vid=8b887070-784a-4f8a-9fda-0e5c8a7a4863","ios":"levelo://app?vid=8b887070-784a-4f8a-9fda-0e5c8a7a4863"},"vehicle_type_id":"4","last_reported":1706303189,"current_range_meters":5600,"station_id":"ce4bh692rcd13ifvqea0","pricing_plan_id":"free"},{"bike_id":"6470b96e-be55-4d59-81c3-89e63cdc0a3f","system_id":"levelo_inurba_marseille","lat":43.29004,"lon":5.35613,"is_reserved":false,"is_disabled":false,"rental_uris":{"android":"levelo://app?vid=6470b96e-be55-4d59-81c3-89e63cdc0a3f","ios":"levelo://app?vid=6470b96e-be55-4d59-81c3-89e63cdc0a3f"},"vehicle_type_id":"4","last_reported":1706303189,"current_range_meters":0,"station_id":"ce4bhb92rcd13ifvqen0","pricing_plan_id":"free"},{"bike_id":"183d2fba-db50-4f8c-9dbe-077dd2a9451e","system_id":"levelo_inurba_marseille","lat":43.290995,"lon":5.381361,"is_reserved":false,"is_disabled":false,"rental_uris":{"android":"levelo://app?vid=183d2fba-db50-4f8c-9dbe-077dd2a9451e","ios":"levelo://app?vid=183d2fba-db50-4f8c-9dbe-077dd2a9451e"},"vehicle_type_id":"4","last_reported":1706303189,"current_range_meters":2000,"station_id":"ce4bh512rcd13ifvqe2g","pricing_plan_id":"free"},{"bike_id":"7b766a3d-d8c3-4219-bf55-bb0df99ed8f2","system_id":"levelo_inurba_marseille","lat":43.290995,"lon":5.381361,"is_reserved":false,"is_disabled":false,"rental_uris":{"android":"levelo://app?vid=7b766a3d-d8c3-4219-bf55-bb0df99ed8f2","ios":"levelo://app?vid=7b766a3d-d8c3-4219-bf55-bb0df99ed8f2"},"vehicle_type_id":"4","last_reported":1706303189,"current_range_meters":12400,"station_id":"ce4bh512rcd13ifvqe2g","pricing_plan_id":"free"},{"bike_id":"2e127108-6c20-4559-baa4-e42ee63c41c2","system_id":"levelo_inurba_marseille","lat":43.29785,"lon":5.39335,"is_reserved":false,"is_disabled":false,"rental_uris":{"android":"levelo://app?vid=2e127108-6c20-4559-baa4-e42ee63c41c2","ios":"levelo://app?vid=2e127108-6c20-4559-baa4-e42ee63c41c2"},"vehicle_type_id":"4","last_reported":1706303189,"current_range_meters":6000,"station_id":"chh1huq6cuj3fo74tm60","pricing_plan_id":"free"},{"bike_id":"00f0ce73-62e0-4481-9116-1dfe0ba11879","system_id":"levelo_inurba_marseille","lat":43.297859,"lon":5.393493,"is_reserved":false,"is_disabled":false,"rental_uris":{"android":"levelo://app?vid=00f0ce73-62e0-4481-9116-1dfe0ba11879","ios":"levelo://app?vid=00f0ce73-62e0-4481-9116-1dfe0ba11879"},"vehicle_type_id":"4","last_reported":1706303189,"current_range_meters":0,"station_id":"chh1huq6cuj3fo74tm60","pricing_plan_id":"free"},{"bike_id":"ded04cb6-b860-4ea1-843c-8e585218245c","system_id":"levelo_inurba_marseille","lat":43.28972,"lon":5.37822,"is_reserved":false,"is_disabled":false,"rental_uris":{"android":"levelo://app?vid=ded04cb6-b860-4ea1-843c-8e585218245c","ios":"levelo://app?vid=ded04cb6-b860-4ea1-843c-8e585218245c"},"vehicle_type_id":"4","last_reported":1706303189,"current_range_meters":3600,"station_id":"ce4bh9p2rcd13ifvqed0","pricing_plan_id":"free"},{"bike_id":"8a169457-a243-4277-aa45-94ae3a485749","system_id":"levelo_inurba_marseille","lat":43.28971,"lon":5.378331,"is_reserved":false,"is_disabled":false,"rental_uris":{"android":"levelo://app?vid=8a169457-a243-4277-aa45-94ae3a485749","ios":"levelo://app?vid=8a169457-a243-4277-aa45-94ae3a485749"},"vehicle_type_id":"4","last_reported":1706303189,"current_range_meters":11200,"station_id":"ce4bh9p2rcd13ifvqed0","pricing_plan_id":"free"},{"bike_id":"02e686b2-d2cb-4d54-a21e-1a720d7ede2c","system_id":"levelo_inurba_marseille","lat":43.330442,"lon":5.389148,"is_reserved":false,"is_disabled":false,"rental_uris":{"android":"levelo://app?vid=02e686b2-d2cb-4d54-a21e-1a720d7ede2c","ios":"levelo://app?vid=02e686b2-d2cb-4d54-a21e-1a720d7ede2c"},"vehicle_type_id":"4","last_reported":1706303189,"current_range_meters":3600,"station_id":"ce4bhr92rcd13ifvqhrg","pricing_plan_id":"free"},{"bike_id":"5cac4158-935d-4fb7-9950-b41309d3eaf8","system_id":"levelo_inurba_marseille","lat":43.33029,"lon":5.39043,"is_reserved":false,"is_disabled":false,"rental_uris":{"android":"levelo://app?vid=5cac4158-935d-4fb7-9950-b41309d3eaf8","ios":"levelo://app?vid=5cac4158-935d-4fb7-9950-b41309d3eaf8"},"vehicle_type_id":"4","last_reported":1706303189,"current_range_meters":11600,"station_id":"ce4bhr92rcd13ifvqhrg","pricing_plan_id":"free"},{"bike_id":"3405e203-a74f-4e2f-afe7-05da97f61a62","system_id":"levelo_inurba_marseille","lat":43.28938,"lon":5.35492,"is_reserved":false,"is_disabled":false,"rental_uris":{"android":"levelo://app?vid=3405e203-a74f-4e2f-afe7-05da97f61a62","ios":"levelo://app?vid=3405e203-a74f-4e2f-afe7-05da97f61a62"},"vehicle_type_id":"4","last_reported":1706303189,"current_range_meters":0,"station_id":"","pricing_plan_id":"free"},{"bike_id":"a797ffc5-c458-40ba-9bc9-6560dd2a2969","system_id":"levelo_inurba_marseille","lat":43.312609,"lon":5.401662,"is_reserved":false,"is_disabled":false,"rental_uris":{"android":"levelo://app?vid=a797ffc5-c458-40ba-9bc9-6560dd2a2969","ios":"levelo://app?vid=a797ffc5-c458-40ba-9bc9-6560dd2a2969"},"vehicle_type_id":"4","last_reported":1706303189,"current_range_meters":30800,"station_id":"ce4bh092rcd13ifvqd30","pricing_plan_id":"free"},{"bike_id":"5f4f2e5e-bf27-44ee-9683-c4a626c43b84","system_id":"levelo_inurba_marseille","lat":43.309371,"lon":5.401449,"is_reserved":false,"is_disabled":false,"rental_uris":{"android":"levelo://app?vid=5f4f2e5e-bf27-44ee-9683-c4a626c43b84","ios":"levelo://app?vid=5f4f2e5e-bf27-44ee-9683-c4a626c43b84"},"vehicle_type_id":"4","last_reported":1706303189,"current_range_meters":30800,"station_id":"ce4bgvp2rcd13ifvqct0","pricing_plan_id":"free"},{"bike_id":"b94379ea-f3ad-4cff-a6a4-a14357109506","system_id":"levelo_inurba_marseille","lat":43.312609,"lon":5.401662,"is_reserved":false,"is_disabled":false,"rental_uris":{"android":"levelo://app?vid=b94379ea-f3ad-4cff-a6a4-a14357109506","ios":"levelo://app?vid=b94379ea-f3ad-4cff-a6a4-a14357109506"},"vehicle_type_id":"4","last_reported":1706303189,"current_range_meters":28400,"station_id":"ce4bh092rcd13ifvqd30","pricing_plan_id":"free"},{"bike_id":"83cefd11-72a3-47a1-a913-fa95d017ce17","system_id":"levelo_inurba_marseille","lat":43.309371,"lon":5.401449,"is_reserved":false,"is_disabled":false,"rental_uris":{"android":"levelo://app?vid=83cefd11-72a3-47a1-a913-fa95d017ce17","ios":"levelo://app?vid=83cefd11-72a3-47a1-a913-fa95d017ce17"},"vehicle_type_id":"4","last_reported":1706303189,"current_range_meters":9600,"station_id":"ce4bgvp2rcd13ifvqct0","pricing_plan_id":"free"},{"bike_id":"6257c317-3a6c-42a3-a774-371510e87d3d","system_id":"levelo_inurba_marseille","lat":43.312609,"lon":5.401662,"is_reserved":false,"is_disabled":false,"rental_uris":{"android":"levelo://app?vid=6257c317-3a6c-42a3-a774-371510e87d3d","ios":"levelo://app?vid=6257c317-3a6c-42a3-a774-371510e87d3d"},"vehicle_type_id":"4","last_reported":1706303189,"current_range_meters":0,"station_id":"ce4bh092rcd13ifvqd30","pricing_plan_id":"free"},{"bike_id":"95d7ebfc-5d0e-4ac5-81ac-e8760b0c6bb1","system_id":"levelo_inurba_marseille","lat":43.309371,"lon":5.401449,"is_reserved":false,"is_disabled":false,"rental_uris":{"android":"levelo://app?vid=95d7ebfc-5d0e-4ac5-81ac-e8760b0c6bb1","ios":"levelo://app?vid=95d7ebfc-5d0e-4ac5-81ac-e8760b0c6bb1"},"vehicle_type_id":"4","last_reported":1706303189,"current_range_meters":14000,"station_id":"ce4bgvp2rcd13ifvqct0","pricing_plan_id":"free"},{"bike_id":"48c1fa8b-ed72-4d16-a653-ad54f91e9dca","system_id":"levelo_inurba_marseille","lat":43.309371,"lon":5.401449,"is_reserved":false,"is_disabled":false,"rental_uris":{"android":"levelo://app?vid=48c1fa8b-ed72-4d16-a653-ad54f91e9dca","ios":"levelo://app?vid=48c1fa8b-ed72-4d16-a653-ad54f91e9dca"},"vehicle_type_id":"4","last_reported":1706303189,"current_range_meters":28000,"station_id":"ce4bgvp2rcd13ifvqct0","pricing_plan_id":"free"},{"bike_id":"be696058-320c-47c5-bdf9-17ccc9b13ec1","system_id":"levelo_inurba_marseille","lat":43.30642,"lon":5.401031,"is_reserved":false,"is_disabled":false,"rental_uris":{"android":"levelo://app?vid=be696058-320c-47c5-bdf9-17ccc9b13ec1","ios":"levelo://app?vid=be696058-320c-47c5-bdf9-17ccc9b13ec1"},"vehicle_type_id":"4","last_reported":1706303189,"current_range_meters":0,"station_id":"ce4bh112rcd13ifvqda0","pricing_plan_id":"free"},{"bike_id":"b7f12eab-e0a6-499e-87ec-2b4381c4602a","system_id":"levelo_inurba_marseille","lat":43.33755,"lon":5.37473,"is_reserved":false,"is_disabled":false,"rental_uris":{"android":"levelo://app?vid=b7f12eab-e0a6-499e-87ec-2b4381c4602a","ios":"levelo://app?vid=b7f12eab-e0a6-499e-87ec-2b4381c4602a"},"vehicle_type_id":"4","last_reported":1706303189,"current_range_meters":27200,"station_id":"","pricing_plan_id":"free"},{"bike_id":"a3a6dbd7-b6d7-4f13-abc4-10a4362dc4e3","system_id":"levelo_inurba_marseille","lat":43.33768,"lon":5.3748,"is_reserved":false,"is_disabled":false,"rental_uris":{"android":"levelo://app?vid=a3a6dbd7-b6d7-4f13-abc4-10a4362dc4e3","ios":"levelo://app?vid=a3a6dbd7-b6d7-4f13-abc4-10a4362dc4e3"},"vehicle_type_id":"4","last_reported":1706303189,"current_range_meters":28800,"station_id":"","pricing_plan_id":"free"},{"bike_id":"3ee7b71a-d293-4216-9105-27a5012109c9","system_id":"levelo_inurba_marseille","lat":43.33769,"lon":5.37479,"is_reserved":false,"is_disabled":false,"rental_uris":{"android":"levelo://app?vid=3ee7b71a-d293-4216-9105-27a5012109c9","ios":"levelo://app?vid=3ee7b71a-d293-4216-9105-27a5012109c9"},"vehicle_type_id":"4","last_reported":1706303189,"current_range_meters":31200,"station_id":"","pricing_plan_id":"free"},{"bike_id":"a3542e26-c04f-4808-9d70-0e2516602a8e","system_id":"levelo_inurba_marseille","lat":43.301117,"lon":5.398795,"is_reserved":false,"is_disabled":false,"rental_uris":{"android":"levelo://app?vid=a3542e26-c04f-4808-9d70-0e2516602a8e","ios":"levelo://app?vid=a3542e26-c04f-4808-9d70-0e2516602a8e"},"vehicle_type_id":"4","last_reported":1706303189,"current_range_meters":30000,"station_id":"ce4bh0h2rcd13ifvqd40","pricing_plan_id":"free"},{"bike_id":"5b216a91-6d46-41fe-82f2-f1be5fab3351","system_id":"levelo_inurba_marseille","lat":43.28727,"lon":5.36078,"is_reserved":false,"is_disabled":false,"rental_uris":{"android":"levelo://app?vid=5b216a91-6d46-41fe-82f2-f1be5fab3351","ios":"levelo://app?vid=5b216a91-6d46-41fe-82f2-f1be5fab3351"},"vehicle_type_id":"4","last_reported":1706303189,"current_range_meters":23200,"station_id":"cki0cbj6b192h4jlfktg","pricing_plan_id":"free"},{"bike_id":"84239e51-0b0a-4f5f-b6f1-ba8bcca3567d","system_id":"levelo_inurba_marseille","lat":43.290103,"lon":5.356114,"is_reserved":false,"is_disabled":false,"rental_uris":{"android":"levelo://app?vid=84239e51-0b0a-4f5f-b6f1-ba8bcca3567d","ios":"levelo://app?vid=84239e51-0b0a-4f5f-b6f1-ba8bcca3567d"},"vehicle_type_id":"4","last_reported":1706303189,"current_range_meters":18400,"station_id":"ce4bhb92rcd13ifvqen0","pricing_plan_id":"free"},{"bike_id":"94864e13-1524-4f39-be67-6b966c6ef6ea","system_id":"levelo_inurba_marseille","lat":43.286593,"lon":5.363346,"is_reserved":false,"is_disabled":false,"rental_uris":{"android":"levelo://app?vid=94864e13-1524-4f39-be67-6b966c6ef6ea","ios":"levelo://app?vid=94864e13-1524-4f39-be67-6b966c6ef6ea"},"vehicle_type_id":"4","last_reported":1706303189,"current_range_meters":0,"station_id":"ce4bhah2rcd13ifvqej0","pricing_plan_id":"free"},{"bike_id":"9085d25f-f856-4331-be72-7cf7b71f57be","system_id":"levelo_inurba_marseille","lat":43.283998,"lon":5.375062,"is_reserved":false,"is_disabled":false,"rental_uris":{"android":"levelo://app?vid=9085d25f-f856-4331-be72-7cf7b71f57be","ios":"levelo://app?vid=9085d25f-f856-4331-be72-7cf7b71f57be"},"vehicle_type_id":"4","last_reported":1706303189,"current_range_meters":5600,"station_id":"ce4bh412rcd13ifvqds0","pricing_plan_id":"free"},{"bike_id":"9d7f86b0-a1aa-42fc-92de-fe9a573918d6","system_id":"levelo_inurba_marseille","lat":43.286961,"lon":5.373785,"is_reserved":false,"is_disabled":false,"rental_uris":{"android":"levelo://app?vid=9d7f86b0-a1aa-42fc-92de-fe9a573918d6","ios":"levelo://app?vid=9d7f86b0-a1aa-42fc-92de-fe9a573918d6"},"vehicle_type_id":"4","last_reported":1706303189,"current_range_meters":8400,"station_id":"ce4bh3p2rcd13ifvqdq0","pricing_plan_id":"free"},{"bike_id":"f16387dd-de09-487b-81aa-b211503da83e","system_id":"levelo_inurba_marseille","lat":43.286593,"lon":5.363346,"is_reserved":false,"is_disabled":false,"rental_uris":{"android":"levelo://app?vid=f16387dd-de09-487b-81aa-b211503da83e","ios":"levelo://app?vid=f16387dd-de09-487b-81aa-b211503da83e"},"vehicle_type_id":"4","last_reported":1706303189,"current_range_meters":0,"station_id":"ce4bhah2rcd13ifvqej0","pricing_plan_id":"free"},{"bike_id":"b7e6526d-9ef8-4f31-80d3-adf02fd3fcc5","system_id":"levelo_inurba_marseille","lat":43.298681,"lon":5.397225,"is_reserved":false,"is_disabled":false,"rental_uris":{"android":"levelo://app?vid=b7e6526d-9ef8-4f31-80d3-adf02fd3fcc5","ios":"levelo://app?vid=b7e6526d-9ef8-4f31-80d3-adf02fd3fcc5"},"vehicle_type_id":"4","last_reported":1706303189,"current_range_meters":8800,"station_id":"ce4bh0h2rcd13ifvqd50","pricing_plan_id":"free"},{"bike_id":"c5758d4b-2bd0-42f9-abb9-2ad17507a410","system_id":"levelo_inurba_marseille","lat":43.295194,"lon":5.39397,"is_reserved":false,"is_disabled":false,"rental_uris":{"android":"levelo://app?vid=c5758d4b-2bd0-42f9-abb9-2ad17507a410","ios":"levelo://app?vid=c5758d4b-2bd0-42f9-abb9-2ad17507a410"},"vehicle_type_id":"4","last_reported":1706303189,"current_range_meters":21600,"station_id":"ce4bh292rcd13ifvqdf0","pricing_plan_id":"free"},{"bike_id":"e13d57ec-ba48-4f9e-99e6-d77127408b71","system_id":"levelo_inurba_marseille","lat":43.295194,"lon":5.39397,"is_reserved":false,"is_disabled":false,"rental_uris":{"android":"levelo://app?vid=e13d57ec-ba48-4f9e-99e6-d77127408b71","ios":"levelo://app?vid=e13d57ec-ba48-4f9e-99e6-d77127408b71"},"vehicle_type_id":"4","last_reported":1706303189,"current_range_meters":19600,"station_id":"ce4bh292rcd13ifvqdf0","pricing_plan_id":"free"},{"bike_id":"f3860d6e-fe6a-472a-8887-4053c1162f54","system_id":"levelo_inurba_marseille","lat":43.286535,"lon":5.36359,"is_reserved":false,"is_disabled":false,"rental_uris":{"android":"levelo://app?vid=f3860d6e-fe6a-472a-8887-4053c1162f54","ios":"levelo://app?vid=f3860d6e-fe6a-472a-8887-4053c1162f54"},"vehicle_type_id":"4","last_reported":1706303189,"current_range_meters":0,"station_id":"ce4bhah2rcd13ifvqej0","pricing_plan_id":"free"},{"bike_id":"9e151f18-4338-4598-8724-d3a9b87a1498","system_id":"levelo_inurba_marseille","lat":43.295196,"lon":5.39397,"is_reserved":false,"is_disabled":false,"rental_uris":{"android":"levelo://app?vid=9e151f18-4338-4598-8724-d3a9b87a1498","ios":"levelo://app?vid=9e151f18-4338-4598-8724-d3a9b87a1498"},"vehicle_type_id":"4","last_reported":1706303189,"current_range_meters":12000,"station_id":"ce4bh292rcd13ifvqdf0","pricing_plan_id":"free"},{"bike_id":"01558ba2-8104-4de7-80a1-8a0fedbc2942","system_id":"levelo_inurba_marseille","lat":43.290291,"lon":5.386416,"is_reserved":false,"is_disabled":false,"rental_uris":{"android":"levelo://app?vid=01558ba2-8104-4de7-80a1-8a0fedbc2942","ios":"levelo://app?vid=01558ba2-8104-4de7-80a1-8a0fedbc2942"},"vehicle_type_id":"4","last_reported":1706303189,"current_range_meters":10400,"station_id":"ce4bh4p2rcd13ifvqe0g","pricing_plan_id":"free"},{"bike_id":"f6201ce6-921f-4fe5-8cba-8cf513a6be21","system_id":"levelo_inurba_marseille","lat":43.290345,"lon":5.38646,"is_reserved":false,"is_disabled":false,"rental_uris":{"android":"levelo://app?vid=f6201ce6-921f-4fe5-8cba-8cf513a6be21","ios":"levelo://app?vid=f6201ce6-921f-4fe5-8cba-8cf513a6be21"},"vehicle_type_id":"4","last_reported":1706303189,"current_range_meters":21200,"station_id":"ce4bh4p2rcd13ifvqe0g","pricing_plan_id":"free"},{"bike_id":"f6b85844-0ac7-4ee4-b1e6-1c601a8b83bd","system_id":"levelo_inurba_marseille","lat":43.29029,"lon":5.38643,"is_reserved":false,"is_disabled":false,"rental_uris":{"android":"levelo://app?vid=f6b85844-0ac7-4ee4-b1e6-1c601a8b83bd","ios":"levelo://app?vid=f6b85844-0ac7-4ee4-b1e6-1c601a8b83bd"},"vehicle_type_id":"4","last_reported":1706303189,"current_range_meters":800,"station_id":"ce4bh4p2rcd13ifvqe0g","pricing_plan_id":"free"},{"bike_id":"265d5129-6dfd-456f-9552-90c6f0b373df","system_id":"levelo_inurba_marseille","lat":43.290286,"lon":5.386424,"is_reserved":false,"is_disabled":false,"rental_uris":{"android":"levelo://app?vid=265d5129-6dfd-456f-9552-90c6f0b373df","ios":"levelo://app?vid=265d5129-6dfd-456f-9552-90c6f0b373df"},"vehicle_type_id":"4","last_reported":1706303189,"current_range_meters":20800,"station_id":"ce4bh4p2rcd13ifvqe0g","pricing_plan_id":"free"},{"bike_id":"9955dcf2-cb8c-4968-aad3-0aeb34b534d7","system_id":"levelo_inurba_marseille","lat":43.302759,"lon":5.400793,"is_reserved":false,"is_disabled":false,"rental_uris":{"android":"levelo://app?vid=9955dcf2-cb8c-4968-aad3-0aeb34b534d7","ios":"levelo://app?vid=9955dcf2-cb8c-4968-aad3-0aeb34b534d7"},"vehicle_type_id":"4","last_reported":1706303189,"current_range_meters":6400,"station_id":"ce4bgvh2rcd13ifvqcs0","pricing_plan_id":"free"},{"bike_id":"b01ce442-5ba6-466a-95b4-dc9ecbe27dfe","system_id":"levelo_inurba_marseille","lat":43.29027,"lon":5.38643,"is_reserved":false,"is_disabled":false,"rental_uris":{"android":"levelo://app?vid=b01ce442-5ba6-466a-95b4-dc9ecbe27dfe","ios":"levelo://app?vid=b01ce442-5ba6-466a-95b4-dc9ecbe27dfe"},"vehicle_type_id":"4","last_reported":1706303189,"current_range_meters":4400,"station_id":"ce4bh4p2rcd13ifvqe0g","pricing_plan_id":"free"},{"bike_id":"183bb1c1-398f-466c-b05d-327ac4efc436","system_id":"levelo_inurba_marseille","lat":43.302511,"lon":5.400653,"is_reserved":false,"is_disabled":false,"rental_uris":{"android":"levelo://app?vid=183bb1c1-398f-466c-b05d-327ac4efc436","ios":"levelo://app?vid=183bb1c1-398f-466c-b05d-327ac4efc436"},"vehicle_type_id":"4","last_reported":1706303189,"current_range_meters":17600,"station_id":"ce4bgth2rcd13ifvqch0","pricing_plan_id":"free"},{"bike_id":"3c8209ab-08b5-4300-86c3-11650bf39c39","system_id":"levelo_inurba_marseille","lat":43.289244,"lon":5.384056,"is_reserved":false,"is_disabled":false,"rental_uris":{"android":"levelo://app?vid=3c8209ab-08b5-4300-86c3-11650bf39c39","ios":"levelo://app?vid=3c8209ab-08b5-4300-86c3-11650bf39c39"},"vehicle_type_id":"4","last_reported":1706303189,"current_range_meters":26000,"station_id":"ce4bh612rcd13ifvqe6g","pricing_plan_id":"free"},{"bike_id":"a7a14f66-bb70-47de-8390-1135926c5007","system_id":"levelo_inurba_marseille","lat":43.290345,"lon":5.38646,"is_reserved":false,"is_disabled":false,"rental_uris":{"android":"levelo://app?vid=a7a14f66-bb70-47de-8390-1135926c5007","ios":"levelo://app?vid=a7a14f66-bb70-47de-8390-1135926c5007"},"vehicle_type_id":"4","last_reported":1706303189,"current_range_meters":0,"station_id":"ce4bh4p2rcd13ifvqe0g","pricing_plan_id":"free"},{"bike_id":"f6146a19-2fe5-462e-a6b2-096a39a56118","system_id":"levelo_inurba_marseille","lat":43.290336,"lon":5.386425,"is_reserved":false,"is_disabled":false,"rental_uris":{"android":"levelo://app?vid=f6146a19-2fe5-462e-a6b2-096a39a56118","ios":"levelo://app?vid=f6146a19-2fe5-462e-a6b2-096a39a56118"},"vehicle_type_id":"4","last_reported":1706303189,"current_range_meters":0,"station_id":"ce4bh4p2rcd13ifvqe0g","pricing_plan_id":"free"},{"bike_id":"cdbc51ab-2bb4-4b6a-9fe5-33e74ac4238f","system_id":"levelo_inurba_marseille","lat":43.302759,"lon":5.400793,"is_reserved":false,"is_disabled":false,"rental_uris":{"android":"levelo://app?vid=cdbc51ab-2bb4-4b6a-9fe5-33e74ac4238f","ios":"levelo://app?vid=cdbc51ab-2bb4-4b6a-9fe5-33e74ac4238f"},"vehicle_type_id":"4","last_reported":1706303189,"current_range_meters":24800,"station_id":"ce4bgvh2rcd13ifvqcs0","pricing_plan_id":"free"},{"bike_id":"e8e732dc-d0dd-4bb3-8895-3dfa5a96693b","system_id":"levelo_inurba_marseille","lat":43.302759,"lon":5.400793,"is_reserved":false,"is_disabled":false,"rental_uris":{"android":"levelo://app?vid=e8e732dc-d0dd-4bb3-8895-3dfa5a96693b","ios":"levelo://app?vid=e8e732dc-d0dd-4bb3-8895-3dfa5a96693b"},"vehicle_type_id":"4","last_reported":1706303189,"current_range_meters":4400,"station_id":"ce4bgvh2rcd13ifvqcs0","pricing_plan_id":"free"},{"bike_id":"61182728-1ce3-458a-b78d-585bfa5a4918","system_id":"levelo_inurba_marseille","lat":43.302759,"lon":5.400793,"is_reserved":false,"is_disabled":false,"rental_uris":{"android":"levelo://app?vid=61182728-1ce3-458a-b78d-585bfa5a4918","ios":"levelo://app?vid=61182728-1ce3-458a-b78d-585bfa5a4918"},"vehicle_type_id":"4","last_reported":1706303189,"current_range_meters":30000,"station_id":"ce4bgvh2rcd13ifvqcs0","pricing_plan_id":"free"},{"bike_id":"ca1a3d6b-5b79-47fd-be44-6c6aa8c7bd09","system_id":"levelo_inurba_marseille","lat":43.302759,"lon":5.400793,"is_reserved":false,"is_disabled":false,"rental_uris":{"android":"levelo://app?vid=ca1a3d6b-5b79-47fd-be44-6c6aa8c7bd09","ios":"levelo://app?vid=ca1a3d6b-5b79-47fd-be44-6c6aa8c7bd09"},"vehicle_type_id":"4","last_reported":1706303189,"current_range_meters":20800,"station_id":"ce4bgvh2rcd13ifvqcs0","pricing_plan_id":"free"},{"bike_id":"a7c0a6dc-1328-4b04-9722-b7d2ce2eb3b1","system_id":"levelo_inurba_marseille","lat":43.287185,"lon":5.379373,"is_reserved":false,"is_disabled":false,"rental_uris":{"android":"levelo://app?vid=a7c0a6dc-1328-4b04-9722-b7d2ce2eb3b1","ios":"levelo://app?vid=a7c0a6dc-1328-4b04-9722-b7d2ce2eb3b1"},"vehicle_type_id":"4","last_reported":1706303189,"current_range_meters":800,"station_id":"ce4bh9p2rcd13ifvqec0","pricing_plan_id":"free"},{"bike_id":"2251fc59-2828-4aff-966d-0a6777ecbd36","system_id":"levelo_inurba_marseille","lat":43.316828,"lon":5.404723,"is_reserved":false,"is_disabled":false,"rental_uris":{"android":"levelo://app?vid=2251fc59-2828-4aff-966d-0a6777ecbd36","ios":"levelo://app?vid=2251fc59-2828-4aff-966d-0a6777ecbd36"},"vehicle_type_id":"4","last_reported":1706303189,"current_range_meters":9600,"station_id":"ce4bh012rcd13ifvqd00","pricing_plan_id":"free"},{"bike_id":"c011c8ab-84d3-4588-a847-3df4c973ed80","system_id":"levelo_inurba_marseille","lat":43.316828,"lon":5.404723,"is_reserved":false,"is_disabled":false,"rental_uris":{"android":"levelo://app?vid=c011c8ab-84d3-4588-a847-3df4c973ed80","ios":"levelo://app?vid=c011c8ab-84d3-4588-a847-3df4c973ed80"},"vehicle_type_id":"4","last_reported":1706303189,"current_range_meters":17200,"station_id":"ce4bh012rcd13ifvqd00","pricing_plan_id":"free"},{"bike_id":"008cebab-d340-411f-ae5a-0a00aa4da0fd","system_id":"levelo_inurba_marseille","lat":43.291994,"lon":5.392907,"is_reserved":false,"is_disabled":false,"rental_uris":{"android":"levelo://app?vid=008cebab-d340-411f-ae5a-0a00aa4da0fd","ios":"levelo://app?vid=008cebab-d340-411f-ae5a-0a00aa4da0fd"},"vehicle_type_id":"4","last_reported":1706303189,"current_range_meters":19200,"station_id":"ce4bh192rcd13ifvqdd0","pricing_plan_id":"free"},{"bike_id":"e6e4c14e-7641-4c47-856e-88b8114c07b1","system_id":"levelo_inurba_marseille","lat":43.284538,"lon":5.358657,"is_reserved":false,"is_disabled":false,"rental_uris":{"android":"levelo://app?vid=e6e4c14e-7641-4c47-856e-88b8114c07b1","ios":"levelo://app?vid=e6e4c14e-7641-4c47-856e-88b8114c07b1"},"vehicle_type_id":"4","last_reported":1706303189,"current_range_meters":5600,"station_id":"ce4bhah2rcd13ifvqei0","pricing_plan_id":"free"},