{"last_updated":1676932616,"ttl":30,"version":"2.2","data":{"bikes":[{"bike_id":"029a7b85-cd7c-4122-9209-d12fdde9129e","system_id":"levelo_inurba_marseille","lat":43.312239,"lon":5.368562,"is_reserved":false,"is_disabled":false,"rental_uris":{"android":"levelo://app?vid=029a7b85-cd7c-4122-9209-d12fdde9129e","ios":"levelo://app?vid=029a7b85-cd7c-4122-9209-d12fdde9129e"},"vehicle_type_id":"4","last_reported":1676932617,"current_range_meters":11600,"station_id":"ce4bgl92rcd13ifvqbq0","pricing_plan_id":"free"},{"bike_id":"482424dd-f038-4f97-9dd7-ccf1bfa68f20","system_id":"levelo_inurba_marseille","lat":43.312239,"lon":5.368562,"is_reserved":false,"is_disabled":false,"rental_uris":{"android":"levelo://app?vid=482424dd-f038-4f97-9dd7-ccf1bfa68f20","ios":"levelo://app?vid=482424dd-f038-4f97-9dd7-ccf1bfa68f20"},"vehicle_type_id":"4","last_reported":1676932617,"current_range_meters":22400,"station_id":"ce4bgl92rcd13ifvqbq0","pricing_plan_id":"free"},{"bike_id":"bd10506c-ca3c-4201-85e1-f4ba2e8f835e","system_id":"levelo_inurba_marseille","lat":43.30909,"lon":5.3685,"is_reserved":false,"is_disabled":false,"rental_uris":{"android":"levelo://app?vid=bd10506c-ca3c-4201-85e1-f4ba2e8f835e","ios":"levelo://app?vid=bd10506c-ca3c-4201-85e1-f4ba2e8f835e"},"vehicle_type_id":"4","last_reported":1676932617,"current_range_meters":16400,"station_id":"","pricing_plan_id":"free"},{"bike_id":"a1bb9750-fad1-4807-9039-de7c4406d2ed","system_id":"levelo_inurba_marseille","lat":43.31254,"lon":5.37291,"is_reserved":false,"is_disabled":false,"rental_uris":{"android":"levelo://app?vid=a1bb9750-fad1-4807-9039-de7c4406d2ed","ios":"levelo://app?vid=a1bb9750-fad1-4807-9039-de7c4406d2ed"},"vehicle_type_id":"4","last_reported":1676932617,"current_range_meters":4400,"station_id":"","pricing_plan_id":"free"},{"bike_id":"590fdb29-de61-4cae-b718-e7a199b9f47d","system_id":"levelo_inurba_marseille","lat":43.31501,"lon":5.37303,"is_reserved":false,"is_disabled":false,"rental_uris":{"android":"levelo://app?vid=590fdb29-de61-4cae-b718-e7a199b9f47d","ios":"levelo://app?vid=590fdb29-de61-4cae-b718-e7a199b9f47d"},"vehicle_type_id":"4","last_reported":1676932617,"current_range_meters":1600,"station_id":"","pricing_plan_id":"free"},{"bike_id":"11a24967-3c4c-4654-8abd-695d948f1024","system_id":"levelo_inurba_marseille","lat":43.31503,"lon":5.37314,"is_reserved":false,"is_disabled":false,"rental_uris":{"android":"levelo://app?vid=11a24967-3c4c-4654-8abd-695d948f1024","ios":"levelo://app?vid=11a24967-3c4c-4654-8abd-695d948f1024"},"vehicle_type_id":"4","last_reported":1676932617,"current_range_meters":20800,"station_id":"","pricing_plan_id":"free"},{"bike_id":"8bbaa1a2-2b0c-4de0-871f-c107a967a8f9","system_id":"levelo_inurba_marseille","lat":43.308614,"lon":5.372098,"is_reserved":false,"is_disabled":false,"rental_uris":{"android":"levelo://app?vid=8bbaa1a2-2b0c-4de0-871f-c107a967a8f9","ios":"levelo://app?vid=8bbaa1a2-2b0c-4de0-871f-c107a967a8f9"},"vehicle_type_id":"4","last_reported":1676932617,"current_range_meters":4000,"station_id":"ce4bguh2rcd13ifvqckg","pricing_plan_id":"free"},{"bike_id":"ec7432ad-8c86-4b85-a973-74267e99b907","system_id":"levelo_inurba_marseille","lat":43.308614,"lon":5.372098,"is_reserved":false,"is_disabled":false,"rental_uris":{"android":"levelo://app?vid=ec7432ad-8c86-4b85-a973-74267e99b907","ios":"levelo://app?vid=ec7432ad-8c86-4b85-a973-74267e99b907"},"vehicle_type_id":"4","last_reported":1676932617,"current_range_meters":0,"station_id":"ce4bguh2rcd13ifvqckg","pricing_plan_id":"free"},{"bike_id":"341fc87c-1ba6-483d-87ad-28f50b4f8c58","system_id":"levelo_inurba_marseille","lat":43.308614,"lon":5.372098,"is_reserved":false,"is_disabled":false,"rental_uris":{"android":"levelo://app?vid=341fc87c-1ba6-483d-87ad-28f50b4f8c58","ios":"levelo://app?vid=341fc87c-1ba6-483d-87ad-28f50b4f8c58"},"vehicle_type_id":"4","last_reported":1676932617,"current_range_meters":2400,"station_id":"ce4bguh2rcd13ifvqckg","pricing_plan_id":"free"},{"bike_id":"9f829da5-f7aa-4875-9d2b-52d910d24830","system_id":"levelo_inurba_marseille","lat":43.30614,"lon":5.37229,"is_reserved":false,"is_disabled":false,"rental_uris":{"android":"levelo://app?vid=9f829da5-f7aa-4875-9d2b-52d910d24830","ios":"levelo://app?vid=9f829da5-f7aa-4875-9d2b-52d910d24830"},"vehicle_type_id":"4","last_reported":1676932617,"current_range_meters":13200,"station_id":"ce4bgqh2rcd13ifvqc4g","pricing_plan_id":"free"},{"bike_id":"68f29226-ab95-4062-90b1-e2a5468856b1","system_id":"levelo_inurba_marseille","lat":43.305989,"lon":5.37225,"is_reserved":false,"is_disabled":false,"rental_uris":{"android":"levelo://app?vid=68f29226-ab95-4062-90b1-e2a5468856b1","ios":"levelo://app?vid=68f29226-ab95-4062-90b1-e2a5468856b1"},"vehicle_type_id":"4","last_reported":1676932617,"current_range_meters":30000,"station_id":"ce4bgqh2rcd13ifvqc4g","pricing_plan_id":"free"},{"bike_id":"5d000e0a-c7d3-497e-a684-bd4d3b3b8ec8","system_id":"levelo_inurba_marseille","lat":43.305989,"lon":5.37225,"is_reserved":false,"is_disabled":false,"rental_uris":{"android":"levelo://app?vid=5d000e0a-c7d3-497e-a684-bd4d3b3b8ec8","ios":"levelo://app?vid=5d000e0a-c7d3-497e-a684-bd4d3b3b8ec8"},"vehicle_type_id":"4","last_reported":1676932617,"current_range_meters":17600,"station_id":"ce4bgqh2rcd13ifvqc4g","pricing_plan_id":"free"},{"bike_id":"23a8a145-65c1-46e1-bc44-24c4ad7b8149","system_id":"levelo_inurba_marseille","lat":43.30605,"lon":5.3723,"is_reserved":false,"is_disabled":false,"rental_uris":{"android":"levelo://app?vid=23a8a145-65c1-46e1-bc44-24c4ad7b8149","ios":"levelo://app?vid=23a8a145-65c1-46e1-bc44-24c4ad7b8149"},"vehicle_type_id":"4","last_reported":1676932617,"current_range_meters":2800,"station_id":"ce4bgqh2rcd13ifvqc4g","pricing_plan_id":"free"},{"bike_id":"85ba06a2-71b2-4068-b462-aac0c27d69de","system_id":"levelo_inurba_marseille","lat":43.305989,"lon":5.37225,"is_reserved":false,"is_disabled":false,"rental_uris":{"android":"levelo://app?vid=85ba06a2-71b2-4068-b462-aac0c27d69de","ios":"levelo://app?vid=85ba06a2-71b2-4068-b462-aac0c27d69de"},"vehicle_type_id":"4","last_reported":1676932617,"current_range_meters":4800,"station_id":"ce4bgqh2rcd13ifvqc4g","pricing_plan_id":"free"},{"bike_id":"8c88aeb7-b014-432e-9916-248dbaa493fc","system_id":"levelo_inurba_marseille","lat":43.30603,"lon":5.37236,"is_reserved":false,"is_disabled":false,"rental_uris":{"android":"levelo://app?vid=8c88aeb7-b014-432e-9916-248dbaa493fc","ios":"levelo://app?vid=8c88aeb7-b014-432e-9916-248dbaa493fc"},"vehicle_type_id":"4","last_reported":1676932617,"current_range_meters":25600,"station_id":"ce4bgqh2rcd13ifvqc4g","pricing_plan_id":"free"},{"bike_id":"fd95ebf9-bd64-436d-86d3-e79076dfd247","system_id":"levelo_inurba_marseille","lat":43.319208,"lon":5.373558,"is_reserved":false,"is_disabled":false,"rental_uris":{"android":"levelo://app?vid=fd95ebf9-bd64-436d-86d3-e79076dfd247","ios":"levelo://app?vid=fd95ebf9-bd64-436d-86d3-e79076dfd247"},"vehicle_type_id":"4","last_reported":1676932617,"current_range_meters":24800,"station_id":"","pricing_plan_id":"free"},{"bike_id":"86e922d5-1671-442b-bc08-037a33131a09","system_id":"levelo_inurba_marseille","lat":43.304201,"lon":5.368165,"is_reserved":false,"is_disabled":false,"rental_uris":{"android":"levelo://app?vid=86e922d5-1671-442b-bc08-037a33131a09","ios":"levelo://app?vid=86e922d5-1671-442b-bc08-037a33131a09"},"vehicle_type_id":"4","last_reported":1676932617,"current_range_meters":0,"station_id":"","pricing_plan_id":"free"},{"bike_id":"01d2beb0-7c38-430a-b81a-4fda40652a9d","system_id":"levelo_inurba_marseille","lat":43.301939,"lon":5.366286,"is_reserved":false,"is_disabled":false,"rental_uris":{"android":"levelo://app?vid=01d2beb0-7c38-430a-b81a-4fda40652a9d","ios":"levelo://app?vid=01d2beb0-7c38-430a-b81a-4fda40652a9d"},"vehicle_type_id":"4","last_reported":1676932617,"current_range_meters":18800,"station_id":"ce4bgrh2rcd13ifvqc8g","pricing_plan_id":"free"},{"bike_id":"a8ed7106-fd96-414c-9a9b-05386eb824d4","system_id":"levelo_inurba_marseille","lat":43.301939,"lon":5.366286,"is_reserved":false,"is_disabled":false,"rental_uris":{"android":"levelo://app?vid=a8ed7106-fd96-414c-9a9b-05386eb824d4","ios":"levelo://app?vid=a8ed7106-fd96-414c-9a9b-05386eb824d4"},"vehicle_type_id":"4","last_reported":1676932617,"current_range_meters":6800,"station_id":"ce4bgrh2rcd13ifvqc8g","pricing_plan_id":"free"},{"bike_id":"f7f3db26-59cc-4dd7-9731-001a0582582a","system_id":"levelo_inurba_marseille","lat":43.308012,"lon":5.381511,"is_reserved":false,"is_disabled":false,"rental_uris":{"android":"levelo://app?vid=f7f3db26-59cc-4dd7-9731-001a0582582a","ios":"levelo://app?vid=f7f3db26-59cc-4dd7-9731-001a0582582a"},"vehicle_type_id":"4","last_reported":1676932617,"current_range_meters":0,"station_id":"ce4bgt12rcd13ifvqce0","pricing_plan_id":"free"},{"bike_id":"7d6c0ccd-e2ac-4bf7-b3cc-2d92b7a7fc64","system_id":"levelo_inurba_marseille","lat":43.308012,"lon":5.381511,"is_reserved":false,"is_disabled":false,"rental_uris":{"android":"levelo://app?vid=7d6c0ccd-e2ac-4bf7-b3cc-2d92b7a7fc64","ios":"levelo://app?vid=7d6c0ccd-e2ac-4bf7-b3cc-2d92b7a7fc64"},"vehicle_type_id":"4","last_reported":1676932617,"current_range_meters":5600,"station_id":"ce4bgt12rcd13ifvqce0","pricing_plan_id":"free"},{"bike_id":"235425cf-e293-4adb-9b6d-1ad40baf613c","system_id":"levelo_inurba_marseille","lat":43.308012,"lon":5.381511,"is_reserved":false,"is_disabled":false,"rental_uris":{"android":"levelo://app?vid=235425cf-e293-4adb-9b6d-1ad40baf613c","ios":"levelo://app?vid=235425cf-e293-4adb-9b6d-1ad40baf613c"},"vehicle_type_id":"4","last_reported":1676932617,"current_range_meters":4400,"station_id":"ce4bgt12rcd13ifvqce0","pricing_plan_id":"free"},{"bike_id":"de4d0780-c266-4ab6-adf0-b8b35d33d6cf","system_id":"levelo_inurba_marseille","lat":43.308046,"lon":5.381599,"is_reserved":false,"is_disabled":false,"rental_uris":{"android":"levelo://app?vid=de4d0780-c266-4ab6-adf0-b8b35d33d6cf","ios":"levelo://app?vid=de4d0780-c266-4ab6-adf0-b8b35d33d6cf"},"vehicle_type_id":"4","last_reported":1676932617,"current_range_meters":0,"station_id":"ce4bgt12rcd13ifvqce0","pricing_plan_id":"free"},{"bike_id":"db69ea05-d5e1-45f8-8641-33efb12df8b7","system_id":"levelo_inurba_marseille","lat":43.304606,"lon":5.379026,"is_reserved":false,"is_disabled":false,"rental_uris":{"android":"levelo://app?vid=db69ea05-d5e1-45f8-8641-33efb12df8b7","ios":"levelo://app?vid=db69ea05-d5e1-45f8-8641-33efb12df8b7"},"vehicle_type_id":"4","last_reported":1676932617,"current_range_meters":18000,"station_id":"ce4bgup2rcd13ifvqcn0","pricing_plan_id":"free"},{"bike_id":"68d34e4c-e681-45aa-93f7-3e14e4cb7ed5","system_id":"levelo_inurba_marseille","lat":43.304606,"lon":5.379026,"is_reserved":false,"is_disabled":false,"rental_uris":{"android":"levelo://app?vid=68d34e4c-e681-45aa-93f7-3e14e4cb7ed5","ios":"levelo://app?vid=68d34e4c-e681-45aa-93f7-3e14e4cb7ed5"},"vehicle_type_id":"4","last_reported":1676932617,"current_range_meters":28400,"station_id":"ce4bgup2rcd13ifvqcn0","pricing_plan_id":"free"},{"bike_id":"60194dab-0c05-4bbd-953c-a85e2a0e5648","system_id":"levelo_inurba_marseille","lat":43.301367,"lon":5.374143,"is_reserved":false,"is_disabled":false,"rental_uris":{"android":"levelo://app?vid=60194dab-0c05-4bbd-953c-a85e2a0e5648","ios":"levelo://app?vid=60194dab-0c05-4bbd-953c-a85e2a0e5648"},"vehicle_type_id":"4","last_reported":1676932617,"current_range_meters":0,"station_id":"","pricing_plan_id":"free"},{"bike_id":"a89fa856-2e1c-4eed-8f62-3c8ae9fa9d5b","system_id":"levelo_inurba_marseille","lat":43.313571,"lon":5.384829,"is_reserved":false,"is_disabled":false,"rental_uris":{"android":"levelo://app?vid=a89fa856-2e1c-4eed-8f62-3c8ae9fa9d5b","ios":"levelo://app?vid=a89fa856-2e1c-4eed-8f62-3c8ae9fa9d5b"},"vehicle_type_id":"4","last_reported":1676932617,"current_range_meters":16000,"station_id":"ce4bgt92rcd13ifvqcf0","pricing_plan_id":"free"},{"bike_id":"19530891-5d85-4872-985a-a8759d5c0a97","system_id":"levelo_inurba_marseille","lat":43.313571,"lon":5.384829,"is_reserved":false,"is_disabled":false,"rental_uris":{"android":"levelo://app?vid=19530891-5d85-4872-985a-a8759d5c0a97","ios":"levelo://app?vid=19530891-5d85-4872-985a-a8759d5c0a97"},"vehicle_type_id":"4","last_reported":1676932617,"current_range_meters":4000,"station_id":"ce4bgt92rcd13ifvqcf0","pricing_plan_id":"free"},{"bike_id":"2ce25ff0-915e-4b83-84d9-91f52314e123","system_id":"levelo_inurba_marseille","lat":43.313673,"lon":5.38492,"is_reserved":false,"is_disabled":false,"rental_uris":{"android":"levelo://app?vid=2ce25ff0-915e-4b83-84d9-91f52314e123","ios":"levelo://app?vid=2ce25ff0-915e-4b83-84d9-91f52314e123"},"vehicle_type_id":"4","last_reported":1676932617,"current_range_meters":18400,"station_id":"","pricing_plan_id":"free"},{"bike_id":"99922a25-b365-424f-899b-1d75320ce780","system_id":"levelo_inurba_marseille","lat":43.313571,"lon":5.384829,"is_reserved":false,"is_disabled":false,"rental_uris":{"android":"levelo://app?vid=99922a25-b365-424f-899b-1d75320ce780","ios":"levelo://app?vid=99922a25-b365-424f-899b-1d75320ce780"},"vehicle_type_id":"4","last_reported":1676932617,"current_range_meters":10000,"station_id":"ce4bgt92rcd13ifvqcf0","pricing_plan_id":"free"},{"bike_id":"e773b231-2867-4206-a30c-7235cd89351b","system_id":"levelo_inurba_marseille","lat":43.313571,"lon":5.384829,"is_reserved":false,"is_disabled":false,"rental_uris":{"android":"levelo://app?vid=e773b231-2867-4206-a30c-7235cd89351b","ios":"levelo://app?vid=e773b231-2867-4206-a30c-7235cd89351b"},"vehicle_type_id":"4","last_reported":1676932617,"current_range_meters":25200,"station_id":"ce4bgt92rcd13ifvqcf0","pricing_plan_id":"free"},{"bike_id":"29d555e1-70c0-44b2-bc48-5ed140fb0f44","system_id":"levelo_inurba_marseille","lat":43.305364,"lon":5.384119,"is_reserved":false,"is_disabled":false,"rental_uris":{"android":"levelo://app?vid=29d555e1-70c0-44b2-bc48-5ed140fb0f44","ios":"levelo://app?vid=29d555e1-70c0-44b2-bc48-5ed140fb0f44"},"vehicle_type_id":"4","last_reported":1676932617,"current_range_meters":25200,"station_id":"ce4bgg92rcd13ifvqb30","pricing_plan_id":"free"},{"bike_id":"a47539d7-8086-4e06-9ab3-ca4553026494","system_id":"levelo_inurba_marseille","lat":43.305364,"lon":5.384119,"is_reserved":false,"is_disabled":false,"rental_uris":{"android":"levelo://app?vid=a47539d7-8086-4e06-9ab3-ca4553026494","ios":"levelo://app?vid=a47539d7-8086-4e06-9ab3-ca4553026494"},"vehicle_type_id":"4","last_reported":1676932617,"current_range_meters":2800,"station_id":"ce4bgg92rcd13ifvqb30","pricing_plan_id":"free"},{"bike_id":"f6026d6f-5aa9-4c71-bd8b-75df8245bed0","system_id":"levelo_inurba_marseille","lat":43.305364,"lon":5.384119,"is_reserved":false,"is_disabled":false,"rental_uris":{"android":"levelo://app?vid=f6026d6f-5aa9-4c71-bd8b-75df8245bed0","ios":"levelo://app?vid=f6026d6f-5aa9-4c71-bd8b-75df8245bed0"},"vehicle_type_id":"4","last_reported":1676932617,"current_range_meters":22800,"station_id":"ce4bgg92rcd13ifvqb30","pricing_plan_id":"free"},{"bike_id":"70968b92-e465-4862-bcc9-50cbdae4e44e","system_id":"levelo_inurba_marseille","lat":43.305364,"lon":5.384119,"is_reserved":false,"is_disabled":false,"rental_uris":{"android":"levelo://app?vid=70968b92-e465-4862-bcc9-50cbdae4e44e","ios":"levelo://app?vid=70968b92-e465-4862-bcc9-50cbdae4e44e"},"vehicle_type_id":"4","last_reported":1676932617,"current_range_meters":26800,"station_id":"ce4bgg92rcd13ifvqb30","pricing_plan_id":"free"},{"bike_id":"f57ab853-e78f-4940-8ab2-8613bbd06c49","system_id":"levelo_inurba_marseille","lat":43.311722,"lon":5.387247,"is_reserved":false,"is_disabled":false,"rental_uris":{"android":"levelo://app?vid=f57ab853-e78f-4940-8ab2-8613bbd06c49","ios":"levelo://app?vid=f57ab853-e78f-4940-8ab2-8613bbd06c49"},"vehicle_type_id":"4","last_reported":1676932617,"current_range_meters":22800,"station_id":"ce4bgv12rcd13ifvqcp0","pricing_plan_id":"free"},{"bike_id":"4143fe9c-4a11-4a7c-80a1-6eb14c69407b","system_id":"levelo_inurba_marseille","lat":43.311722,"lon":5.387247,"is_reserved":false,"is_disabled":false,"rental_uris":{"android":"levelo://app?vid=4143fe9c-4a11-4a7c-80a1-6eb14c69407b","ios":"levelo://app?vid=4143fe9c-4a11-4a7c-80a1-6eb14c69407b"},"vehicle_type_id":"4","last_reported":1676932617,"current_range_meters":30800,"station_id":"ce4bgv12rcd13ifvqcp0","pricing_plan_id":"free"},{"bike_id":"a73133b3-307d-488e-ab3b-b1560be029bf","system_id":"levelo_inurba_marseille","lat":43.311722,"lon":5.387247,"is_reserved":false,"is_disabled":false,"rental_uris":{"android":"levelo://app?vid=a73133b3-307d-488e-ab3b-b1560be029bf","ios":"levelo://app?vid=a73133b3-307d-488e-ab3b-b1560be029bf"},"vehicle_type_id":"4","last_reported":1676932617,"current_range_meters":28800,"station_id":"ce4bgv12rcd13ifvqcp0","pricing_plan_id":"free"},{"bike_id":"954caf89-2121-4e71-8080-cb4f10f0cdb6","system_id":"levelo_inurba_marseille","lat":43.311722,"lon":5.387247,"is_reserved":false,"is_disabled":false,"rental_uris":{"android":"levelo://app?vid=954caf89-2121-4e71-8080-cb4f10f0cdb6","ios":"levelo://app?vid=954caf89-2121-4e71-8080-cb4f10f0cdb6"},"vehicle_type_id":"4","last_reported":1676932617,"current_range_meters":27600,"station_id":"ce4bgv12rcd13ifvqcp0","pricing_plan_id":"free"},{"bike_id":"15f7495e-8b1a-41cf-ad9c-2ae8536cd685","system_id":"levelo_inurba_marseille","lat":43.328371,"lon":5.366912,"is_reserved":false,"is_disabled":false,"rental_uris":{"android":"levelo://app?vid=15f7495e-8b1a-41cf-ad9c-2ae8536cd685","ios":"levelo://app?vid=15f7495e-8b1a-41cf-ad9c-2ae8536cd685"},"vehicle_type_id":"4","last_reported":1676932617,"current_range_meters":6800,"station_id":"ce4bhs92rcd13ifvqi0g","pricing_plan_id":"free"},{"bike_id":"1340ba06-23ec-4871-8779-0ee2437520fa","system_id":"levelo_inurba_marseille","lat":43.328371,"lon":5.366912,"is_reserved":false,"is_disabled":false,"rental_uris":{"android":"levelo://app?vid=1340ba06-23ec-4871-8779-0ee2437520fa","ios":"levelo://app?vid=1340ba06-23ec-4871-8779-0ee2437520fa"},"vehicle_type_id":"4","last_reported":1676932617,"current_range_meters":7600,"station_id":"ce4bhs92rcd13ifvqi0g","pricing_plan_id":"free"},{"bike_id":"e748b511-5a1a-4b68-850f-9771e83f9133","system_id":"levelo_inurba_marseille","lat":43.328371,"lon":5.366912,"is_reserved":false,"is_disabled":false,"rental_uris":{"android":"levelo://app?vid=e748b511-5a1a-4b68-850f-9771e83f9133","ios":"levelo://app?vid=e748b511-5a1a-4b68-850f-9771e83f9133"},"vehicle_type_id":"4","last_reported":1676932617,"current_range_meters":9600,"station_id":"ce4bhs92rcd13ifvqi0g","pricing_plan_id":"free"},{"bike_id":"6d525182-84e7-4bbd-aa39-a0c832cd235c","system_id":"levelo_inurba_marseille","lat":43.29692,"lon":5.37281,"is_reserved":false,"is_disabled":false,"rental_uris":{"android":"levelo://app?vid=6d525182-84e7-4bbd-aa39-a0c832cd235c","ios":"levelo://app?vid=6d525182-84e7-4bbd-aa39-a0c832cd235c"},"vehicle_type_id":"4","last_reported":1676932617,"current_range_meters":17600,"station_id":"ce4bgk12rcd13ifvqbj0","pricing_plan_id":"free"},{"bike_id":"e0510644-1564-459f-a770-60b1be87b744","system_id":"levelo_inurba_marseille","lat":43.296829,"lon":5.372966,"is_reserved":false,"is_disabled":false,"rental_uris":{"android":"levelo://app?vid=e0510644-1564-459f-a770-60b1be87b744","ios":"levelo://app?vid=e0510644-1564-459f-a770-60b1be87b744"},"vehicle_type_id":"4","last_reported":1676932617,"current_range_meters":0,"station_id":"","pricing_plan_id":"free"},{"bike_id":"9bf1943d-c181-446e-9ffa-895044315471","system_id":"levelo_inurba_marseille","lat":43.299028,"lon":5.381509,"is_reserved":false,"is_disabled":false,"rental_uris":{"android":"levelo://app?vid=9bf1943d-c181-446e-9ffa-895044315471","ios":"levelo://app?vid=9bf1943d-c181-446e-9ffa-895044315471"},"vehicle_type_id":"4","last_reported":1676932617,"current_range_meters":3600,"station_id":"ce4bgj12rcd13ifvqbc0","pricing_plan_id":"free"},{"bike_id":"c50484f4-afb6-4497-be77-f2fb6ec6d7b2","system_id":"levelo_inurba_marseille","lat":43.309589,"lon":5.390258,"is_reserved":false,"is_disabled":false,"rental_uris":{"android":"levelo://app?vid=c50484f4-afb6-4497-be77-f2fb6ec6d7b2","ios":"levelo://app?vid=c50484f4-afb6-4497-be77-f2fb6ec6d7b2"},"vehicle_type_id":"4","last_reported":1676932617,"current_range_meters":7600,"station_id":"ce4bgup2rcd13ifvqco0","pricing_plan_id":"free"},{"bike_id":"207d04fe-6195-4cda-a58d-0ed64fdb89ce","system_id":"levelo_inurba_marseille","lat":43.309589,"lon":5.390258,"is_reserved":false,"is_disabled":false,"rental_uris":{"android":"levelo://app?vid=207d04fe-6195-4cda-a58d-0ed64fdb89ce","ios":"levelo://app?vid=207d04fe-6195-4cda-a58d-0ed64fdb89ce"},"vehicle_type_id":"4","last_reported":1676932617,"current_range_meters":16800,"station_id":"ce4bgup2rcd13ifvqco0","pricing_plan_id":"free"},{"bike_id":"52d01c43-5c96-4fa0-a606-3c440eac335f","system_id":"levelo_inurba_marseille","lat":43.317557,"lon":5.390173,"is_reserved":false,"is_disabled":false,"rental_uris":{"android":"levelo://app?vid=52d01c43-5c96-4fa0-a606-3c440eac335f","ios":"levelo://app?vid=52d01c43-5c96-4fa0-a606-3c440eac335f"},"vehicle_type_id":"4","last_reported":1676932617,"current_range_meters":22400,"station_id":"ce4bhqp2rcd13ifvqhng","pricing_plan_id":"free"},{"bike_id":"b48907a1-3b03-4ca4-9ac2-a1ccbbf057fe","system_id":"levelo_inurba_marseille","lat":43.317557,"lon":5.390173,"is_reserved":false,"is_disabled":false,"rental_uris":{"android":"levelo://app?vid=b48907a1-3b03-4ca4-9ac2-a1ccbbf057fe","ios":"levelo://app?vid=b48907a1-3b03-4ca4-9ac2-a1ccbbf057fe"},"vehicle_type_id":"4","last_reported":1676932617,"current_range_meters":4000,"station_id":"ce4bhqp2rcd13ifvqhng","pricing_plan_id":"free"},{"bike_id":"e030ca9f-9482-4563-b901-597e9513cc88","system_id":"levelo_inurba_marseille","lat":43.317557,"lon":5.390173,"is_reserved":false,"is_disabled":false,"rental_uris":{"android":"levelo://app?vid=e030ca9f-9482-4563-b901-597e9513cc88","ios":"levelo://app?vid=e030ca9f-9482-4563-b901-597e9513cc88"},"vehicle_type_id":"4","last_reported":1676932617,"current_range_meters":31200,"station_id":"ce4bhqp2rcd13ifvqhng","pricing_plan_id":"free"},{"bike_id":"91d29548-91d5-42ba-baf2-1b4ad3ad945f","system_id":"levelo_inurba_marseille","lat":43.317557,"lon":5.390173,"is_reserved":false,"is_disabled":false,"rental_uris":{"android":"levelo://app?vid=91d29548-91d5-42ba-baf2-1b4ad3ad945f","ios":"levelo://app?vid=91d29548-91d5-42ba-baf2-1b4ad3ad945f"},"vehicle_type_id":"4","last_reported":1676932617,"current_range_meters":10400,"station_id":"ce4bhqp2rcd13ifvqhng","pricing_plan_id":"free"},{"bike_id":"bf4fcde5-2d2a-4520-b131-d8478c268e82","system_id":"levelo_inurba_marseille","lat":43.295748,"lon":5.37522,"is_reserved":false,"is_disabled":false,"rental_uris":{"android":"levelo://app?vid=bf4fcde5-2d2a-4520-b131-d8478c268e82","ios":"levelo://app?vid=bf4fcde5-2d2a-4520-b131-d8478c268e82"},"vehicle_type_id":"4","last_reported":1676932617,"current_range_meters":26400,"station_id":"ce4bgh92rcd13ifvqb50","pricing_plan_id":"free"},{"bike_id":"926e16ee-68a7-4a52-a3f1-701d3b733416","system_id":"levelo_inurba_marseille","lat":43.295279,"lon":5.375048,"is_reserved":false,"is_disabled":false,"rental_uris":{"android":"levelo://app?vid=926e16ee-68a7-4a52-a3f1-701d3b733416","ios":"levelo://app?vid=926e16ee-68a7-4a52-a3f1-701d3b733416"},"vehicle_type_id":"4","last_reported":1676932617,"current_range_meters":0,"station_id":"ce4bgkp2rcd13ifvqbmg","pricing_plan_id":"free"},{"bike_id":"f6c10a56-5e40-4d56-9a52-64f7492021d2","system_id":"levelo_inurba_marseille","lat":43.295279,"lon":5.375048,"is_reserved":false,"is_disabled":false,"rental_uris":{"android":"levelo://app?vid=f6c10a56-5e40-4d56-9a52-64f7492021d2","ios":"levelo://app?vid=f6c10a56-5e40-4d56-9a52-64f7492021d2"},"vehicle_type_id":"4","last_reported":1676932617,"current_range_meters":8800,"station_id":"ce4bgkp2rcd13ifvqbmg","pricing_plan_id":"free"},{"bike_id":"9aea26c7-5b61-4c4e-9d9a-956ed1a32c3c","system_id":"levelo_inurba_marseille","lat":43.296143,"lon":5.377153,"is_reserved":false,"is_disabled":false,"rental_uris":{"android":"levelo://app?vid=9aea26c7-5b61-4c4e-9d9a-956ed1a32c3c","ios":"levelo://app?vid=9aea26c7-5b61-4c4e-9d9a-956ed1a32c3c"},"vehicle_type_id":"4","last_reported":1676932617,"current_range_meters":0,"station_id":"","pricing_plan_id":"free"},{"bike_id":"ae8e8987-e3e1-491e-8584-1029867ab36d","system_id":"levelo_inurba_marseille","lat":43.299775,"lon":5.384801,"is_reserved":false,"is_disabled":false,"rental_uris":{"android":"levelo://app?vid=ae8e8987-e3e1-491e-8584-1029867ab36d","ios":"levelo://app?vid=ae8e8987-e3e1-491e-8584-1029867ab36d"},"vehicle_type_id":"4","last_reported":1676932617,"current_range_meters":0,"station_id":"ce4bgj92rcd13ifvqbd0","pricing_plan_id":"free"},{"bike_id":"50747275-a479-4e62-b3ce-f9f81a476075","system_id":"levelo_inurba_marseille","lat":43.32367,"lon":5.388836,"is_reserved":false,"is_disabled":false,"rental_uris":{"android":"levelo://app?vid=50747275-a479-4e62-b3ce-f9f81a476075","ios":"levelo://app?vid=50747275-a479-4e62-b3ce-f9f81a476075"},"vehicle_type_id":"4","last_reported":1676932617,"current_range_meters":28000,"station_id":"ce4bhqp2rcd13ifvqhog","pricing_plan_id":"free"},{"bike_id":"50ccab21-73de-4008-abdf-a2386dddaa23","system_id":"levelo_inurba_marseille","lat":43.32367,"lon":5.388836,"is_reserved":false,"is_disabled":false,"rental_uris":{"android":"levelo://app?vid=50ccab21-73de-4008-abdf-a2386dddaa23","ios":"levelo://app?vid=50ccab21-73de-4008-abdf-a2386dddaa23"},"vehicle_type_id":"4","last_reported":1676932617,"current_range_meters":31200,"station_id":"ce4bhqp2rcd13ifvqhog","pricing_plan_id":"free"},{"bike_id":"158bff59-7305-4fcc-8150-5c2966f8e491","system_id":"levelo_inurba_marseille","lat":43.32367,"lon":5.388836,"is_reserved":false,"is_disabled":false,"rental_uris":{"android":"levelo://app?vid=158bff59-7305-4fcc-8150-5c2966f8e491","ios":"levelo://app?vid=158bff59-7305-4fcc-8150-5c2966f8e491"},"vehicle_type_id":"4","last_reported":1676932617,"current_range_meters":29600,"station_id":"ce4bhqp2rcd13ifvqhog","pricing_plan_id":"free"},{"bike_id":"567ed783-643e-42a0-afc0-6ee05a6e0a09","system_id":"levelo_inurba_marseille","lat":43.32367,"lon":5.388836,"is_reserved":false,"is_disabled":false,"rental_uris":{"android":"levelo://app?vid=567ed783-643e-42a0-afc0-6ee05a6e0a09","ios":"levelo://app?vid=567ed783-643e-42a0-afc0-6ee05a6e0a09"},"vehicle_type_id":"4","last_reported":1676932617,"current_range_meters":14800,"station_id":"ce4bhqp2rcd13ifvqhog","pricing_plan_id":"free"},{"bike_id":"143caf39-2626-4ca4-8915-f24fdf59543f","system_id":"levelo_inurba_marseille","lat":43.32367,"lon":5.388836,"is_reserved":false,"is_disabled":false,"rental_uris":{"android":"levelo://app?vid=143caf39-2626-4ca4-8915-f24fdf59543f","ios":"levelo://app?vid=143caf39-2626-4ca4-8915-f24fdf59543f"},"vehicle_type_id":"4","last_reported":1676932617,"current_range_meters":14400,"station_id":"ce4bhqp2rcd13ifvqhog","pricing_plan_id":"free"},{"bike_id":"f486bf01-fbb7-44d7-a232-d3225c195364","system_id":"levelo_inurba_marseille","lat":43.29389,"lon":5.37301,"is_reserved":false,"is_disabled":false,"rental_uris":{"android":"levelo://app?vid=f486bf01-fbb7-44d7-a232-d3225c195364","ios":"levelo://app?vid=f486bf01-fbb7-44d7-a232-d3225c195364"},"vehicle_type_id":"4","last_reported":1676932617,"current_range_meters":14800,"station_id":"ce4bhh92rcd13ifvqfj0","pricing_plan_id":"free"},{"bike_id":"fdb337d5-4a1a-4ae5-aeb1-968aec016ea0","system_id":"levelo_inurba_marseille","lat":43.32367,"lon":5.388836,"is_reserved":false,"is_disabled":false,"rental_uris":{"android":"levelo://app?vid=fdb337d5-4a1a-4ae5-aeb1-968aec016ea0","ios":"levelo://app?vid=fdb337d5-4a1a-4ae5-aeb1-968aec016ea0"},"vehicle_type_id":"4","last_reported":1676932617,"current_range_meters":24400,"station_id":"ce4bhqp2rcd13ifvqhog","pricing_plan_id":"free"},{"bike_id":"96d768b0-ff0b-44be-a14b-d4484e3897ac","system_id":"levelo_inurba_marseille","lat":43.322949,"lon":5.389811,"is_reserved":false,"is_disabled":false,"rental_uris":{"android":"levelo://app?vid=96d768b0-ff0b-44be-a14b-d4484e3897ac","ios":"levelo://app?vid=96d768b0-ff0b-44be-a14b-d4484e3897ac"},"vehicle_type_id":"4","last_reported":1676932617,"current_range_meters":25200,"station_id":"","pricing_plan_id":"free"},{"bike_id":"194e96a6-45c8-4c94-bb05-1f4a47e65c5b","system_id":"levelo_inurba_marseille","lat":43.293009,"lon":5.374584,"is_reserved":false,"is_disabled":false,"rental_uris":{"android":"levelo://app?vid=194e96a6-45c8-4c94-bb05-1f4a47e65c5b","ios":"levelo://app?vid=194e96a6-45c8-4c94-bb05-1f4a47e65c5b"},"vehicle_type_id":"4","last_reported":1676932617,"current_range_meters":22400,"station_id":"ce4bgi12rcd13ifvqb70","pricing_plan_id":"free"},{"bike_id":"4a3d4c8a-b2cd-41b0-832e-6d6d0fbd57eb","system_id":"levelo_inurba_marseille","lat":43.305994,"lon":5.393687,"is_reserved":false,"is_disabled":false,"rental_uris":{"android":"levelo://app?vid=4a3d4c8a-b2cd-41b0-832e-6d6d0fbd57eb","ios":"levelo://app?vid=4a3d4c8a-b2cd-41b0-832e-6d6d0fbd57eb"},"vehicle_type_id":"4","last_reported":1676932617,"current_range_meters":30400,"station_id":"ce4bh0p2rcd13ifvqd80","pricing_plan_id":"free"},{"bike_id":"c5c3296a-aa14-4216-acbe-309b2c862c38","system_id":"levelo_inurba_marseille","lat":43.30599,"lon":5.39349,"is_reserved":false,"is_disabled":false,"rental_uris":{"android":"levelo://app?vid=c5c3296a-aa14-4216-acbe-309b2c862c38","ios":"levelo://app?vid=c5c3296a-aa14-4216-acbe-309b2c862c38"},"vehicle_type_id":"4","last_reported":1676932617,"current_range_meters":400,"station_id":"","pricing_plan_id":"free"},{"bike_id":"e4f7911c-3fae-4d50-bc33-bcf5cd423cc8","system_id":"levelo_inurba_marseille","lat":43.305994,"lon":5.393687,"is_reserved":false,"is_disabled":false,"rental_uris":{"android":"levelo://app?vid=e4f7911c-3fae-4d50-bc33-bcf5cd423cc8","ios":"levelo://app?vid=e4f7911c-3fae-4d50-bc33-bcf5cd423cc8"},"vehicle_type_id":"4","last_reported":1676932617,"current_range_meters":2800,"station_id":"ce4bh0p2rcd13ifvqd80","pricing_plan_id":"free"},{"bike_id":"25bd3620-f418-434f-afe3-0f33c4ea360b","system_id":"levelo_inurba_marseille","lat":43.305994,"lon":5.393687,"is_reserved":false,"is_disabled":false,"rental_uris":{"android":"levelo://app?vid=25bd3620-f418-434f-afe3-0f33c4ea360b","ios":"levelo://app?vid=25bd3620-f418-434f-afe3-0f33c4ea360b"},"vehicle_type_id":"4","last_reported":1676932617,"current_range_meters":9200,"station_id":"ce4bh0p2rcd13ifvqd80","pricing_plan_id":"free"},{"bike_id":"2edecbef-23ab-4477-a3bb-48532c09b9fc","system_id":"levelo_inurba_marseille","lat":43.305994,"lon":5.393687,"is_reserved":false,"is_disabled":false,"rental_uris":{"android":"levelo://app?vid=2edecbef-23ab-4477-a3bb-48532c09b9fc","ios":"levelo://app?vid=2edecbef-23ab-4477-a3bb-48532c09b9fc"},"vehicle_type_id":"4","last_reported":1676932617,"current_range_meters":24400,"station_id":"ce4bh0p2rcd13ifvqd80","pricing_plan_id":"free"},{"bike_id":"00a32451-1a15-463e-a4cd-0a319f612d7f","system_id":"levelo_inurba_marseille","lat":43.305994,"lon":5.393687,"is_reserved":false,"is_disabled":false,"rental_uris":{"android":"levelo://app?vid=00a32451-1a15-463e-a4cd-0a319f612d7f","ios":"levelo://app?vid=00a32451-1a15-463e-a4cd-0a319f612d7f"},"vehicle_type_id":"4","last_reported":1676932617,"current_range_meters":24400,"station_id":"ce4bh0p2rcd13ifvqd80","pricing_plan_id":"free"},{"bike_id":"5d34307c-730c-406a-b12e-0b0d96dcfc77","system_id":"levelo_inurba_marseille","lat":43.305994,"lon":5.393687,"is_reserved":false,"is_disabled":false,"rental_uris":{"android":"levelo://app?vid=5d34307c-730c-406a-b12e-0b0d96dcfc77","ios":"levelo://app?vid=5d34307c-730c-406a-b12e-0b0d96dcfc77"},"vehicle_type_id":"4","last_reported":1676932617,"current_range_meters":16800,"station_id":"ce4bh0p2rcd13ifvqd80","pricing_plan_id":"free"},{"bike_id":"4fdab60d-32f9-4680-a14d-8f0e3185c68f","system_id":"levelo_inurba_marseille","lat":43.292644,"lon":5.359676,"is_reserved":false,"is_disabled":false,"rental_uris":{"android":"levelo://app?vid=4fdab60d-32f9-4680-a14d-8f0e3185c68f","ios":"levelo://app?vid=4fdab60d-32f9-4680-a14d-8f0e3185c68f"},"vehicle_type_id":"4","last_reported":1676932617,"current_range_meters":22000,"station_id":"","pricing_plan_id":"free"},{"bike_id":"34a904ef-12ad-40ec-abfa-5a90cd525298","system_id":"levelo_inurba_marseille","lat":43.29365,"lon":5.37845,"is_reserved":false,"is_disabled":false,"rental_uris":{"android":"levelo://app?vid=34a904ef-12ad-40ec-abfa-5a90cd525298","ios":"levelo://app?vid=34a904ef-12ad-40ec-abfa-5a90cd525298"},"vehicle_type_id":"4","last_reported":1676932617,"current_range_meters":7200,"station_id":"ce4bgjh2rcd13ifvqbf0","pricing_plan_id":"free"},{"bike_id":"a47daabb-6a7c-43f7-a720-78b2ca692fc9","system_id":"levelo_inurba_marseille","lat":43.292311,"lon":5.360731,"is_reserved":false,"is_disabled":false,"rental_uris":{"android":"levelo://app?vid=a47daabb-6a7c-43f7-a720-78b2ca692fc9","ios":"levelo://app?vid=a47daabb-6a7c-43f7-a720-78b2ca692fc9"},"vehicle_type_id":"4","last_reported":1676932617,"current_range_meters":18400,"station_id":"ce4bhbh2rcd13ifvqeqg","pricing_plan_id":"free"},{"bike_id":"6a1fad7d-25c7-4491-a8c7-9740658f7c1e","system_id":"levelo_inurba_marseille","lat":43.292311,"lon":5.360731,"is_reserved":false,"is_disabled":false,"rental_uris":{"android":"levelo://app?vid=6a1fad7d-25c7-4491-a8c7-9740658f7c1e","ios":"levelo://app?vid=6a1fad7d-25c7-4491-a8c7-9740658f7c1e"},"vehicle_type_id":"4","last_reported":1676932617,"current_range_meters":0,"station_id":"ce4bhbh2rcd13ifvqeqg","pricing_plan_id":"free"},{"bike_id":"d6acda8c-393d-4196-9029-b973b514d189","system_id":"levelo_inurba_marseille","lat":43.292311,"lon":5.360731,"is_reserved":false,"is_disabled":false,"rental_uris":{"android":"levelo://app?vid=d6acda8c-393d-4196-9029-b973b514d189","ios":"levelo://app?vid=d6acda8c-393d-4196-9029-b973b514d189"},"vehicle_type_id":"4","last_reported":1676932617,"current_range_meters":16800,"station_id":"ce4bhbh2rcd13ifvqeqg","pricing_plan_id":"free"},{"bike_id":"c58d2de5-c9a8-408f-a7b9-8274f0031be0","system_id":"levelo_inurba_marseille","lat":43.29884,"lon":5.3891,"is_reserved":false,"is_disabled":false,"rental_uris":{"android":"levelo://app?vid=c58d2de5-c9a8-408f-a7b9-8274f0031be0","ios":"levelo://app?vid=c58d2de5-c9a8-408f-a7b9-8274f0031be0"},"vehicle_type_id":"4","last_reported":1676932617,"current_range_meters":28800,"station_id":"","pricing_plan_id":"free"},{"bike_id":"e1e580c9-9dbd-4cfa-a790-78ff53b41363","system_id":"levelo_inurba_marseille","lat":43.3133,"lon":5.39678,"is_reserved":false,"is_disabled":false,"rental_uris":{"android":"levelo://app?vid=e1e580c9-9dbd-4cfa-a790-78ff53b41363","ios":"levelo://app?vid=e1e580c9-9dbd-4cfa-a790-78ff53b41363"},"vehicle_type_id":"4","last_reported":1676932617,"current_range_meters":19200,"station_id":"ce4bgvp2rcd13ifvqcu0","pricing_plan_id":"free"},{"bike_id":"28f18bbd-6541-4326-bfef-fbd3858b7db8","system_id":"levelo_inurba_marseille","lat":43.3133,"lon":5.39686,"is_reserved":false,"is_disabled":false,"rental_uris":{"android":"levelo://app?vid=28f18bbd-6541-4326-bfef-fbd3858b7db8","ios":"levelo://app?vid=28f18bbd-6541-4326-bfef-fbd3858b7db8"},"vehicle_type_id":"4","last_reported":1676932617,"current_range_meters":12000,"station_id":"ce4bgvp2rcd13ifvqcu0","pricing_plan_id":"free"},{"bike_id":"b3f6ba4b-828c-4cb4-b443-e474a89bb683","system_id":"levelo_inurba_marseille","lat":43.313291,"lon":5.396838,"is_reserved":false,"is_disabled":false,"rental_uris":{"android":"levelo://app?vid=b3f6ba4b-828c-4cb4-b443-e474a89bb683","ios":"levelo://app?vid=b3f6ba4b-828c-4cb4-b443-e474a89bb683"},"vehicle_type_id":"4","last_reported":1676932617,"current_range_meters":22400,"station_id":"ce4bgvp2rcd13ifvqcu0","pricing_plan_id":"free"},{"bike_id":"d4f01844-c870-4a82-a1fb-64214a56b96a","system_id":"levelo_inurba_marseille","lat":43.313263,"lon":5.396883,"is_reserved":false,"is_disabled":false,"rental_uris":{"android":"levelo://app?vid=d4f01844-c870-4a82-a1fb-64214a56b96a","ios":"levelo://app?vid=d4f01844-c870-4a82-a1fb-64214a56b96a"},"vehicle_type_id":"4","last_reported":1676932617,"current_range_meters":30000,"station_id":"","pricing_plan_id":"free"},{"bike_id":"d6081fde-300a-40ae-a489-95d3ae114b03","system_id":"levelo_inurba_marseille","lat":43.313293,"lon":5.396902,"is_reserved":false,"is_disabled":false,"rental_uris":{"android":"levelo://app?vid=d6081fde-300a-40ae-a489-95d3ae114b03","ios":"levelo://app?vid=d6081fde-300a-40ae-a489-95d3ae114b03"},"vehicle_type_id":"4","last_reported":1676932617,"current_range_meters":28800,"station_id":"ce4bgvp2rcd13ifvqcu0","pricing_plan_id":"free"},{"bike_id":"ceb67649-cac7-4ef7-acfd-011feda4c619","system_id":"levelo_inurba_marseille","lat":43.313227,"lon":5.39691,"is_reserved":false,"is_disabled":false,"rental_uris":{"android":"levelo://app?vid=ceb67649-cac7-4ef7-acfd-011feda4c619","ios":"levelo://app?vid=ceb67649-cac7-4ef7-acfd-011feda4c619"},"vehicle_type_id":"4","last_reported":1676932617,"current_range_meters":24000,"station_id":"","pricing_plan_id":"free"},{"bike_id":"3b80926e-8e65-4514-a9de-41826b1f9ff3","system_id":"levelo_inurba_marseille","lat":43.31323,"lon":5.39691,"is_reserved":false,"is_disabled":false,"rental_uris":{"android":"levelo://app?vid=3b80926e-8e65-4514-a9de-41826b1f9ff3","ios":"levelo://app?vid=3b80926e-8e65-4514-a9de-41826b1f9ff3"},"vehicle_type_id":"4","last_reported":1676932617,"current_range_meters":24400,"station_id":"","pricing_plan_id":"free"},{"bike_id":"0120ac30-980a-4720-bad1-cc8c9ebf8d91","system_id":"levelo_inurba_marseille","lat":43.313245,"lon":5.396928,"is_reserved":false,"is_disabled":false,"rental_uris":{"android":"levelo://app?vid=0120ac30-980a-4720-bad1-cc8c9ebf8d91","ios":"levelo://app?vid=0120ac30-980a-4720-bad1-cc8c9ebf8d91"},"vehicle_type_id":"4","last_reported":1676932617,"current_range_meters":31200,"station_id":"","pricing_plan_id":"free"},{"bike_id":"38ba4d43-62f7-4be9-bce2-d8fb897d32ec","system_id":"levelo_inurba_marseille","lat":43.313291,"lon":5.396838,"is_reserved":false,"is_disabled":false,"rental_uris":{"android":"levelo://app?vid=38ba4d43-62f7-4be9-bce2-d8fb897d32ec","ios":"levelo://app?vid=38ba4d43-62f7-4be9-bce2-d8fb897d32ec"},"vehicle_type_id":"4","last_reported":1676932617,"current_range_meters":25600,"station_id":"ce4bgvp2rcd13ifvqcu0","pricing_plan_id":"free"},{"bike_id":"c4d8b864-65a3-4dc2-b319-b5c39b6ca021","system_id":"levelo_inurba_marseille","lat":43.313291,"lon":5.396838,"is_reserved":false,"is_disabled":false,"rental_uris":{"android":"levelo://app?vid=c4d8b864-65a3-4dc2-b319-b5c39b6ca021","ios":"levelo://app?vid=c4d8b864-65a3-4dc2-b319-b5c39b6ca021"},"vehicle_type_id":"4","last_reported":1676932617,"current_range_meters":28800,"station_id":"ce4bgvp2rcd13ifvqcu0","pricing_plan_id":"free"},{"bike_id":"e27742ed-5b36-4366-bdce-98b2c90ef441","system_id":"levelo_inurba_marseille","lat":43.313291,"lon":5.396838,"is_reserved":false,"is_disabled":false,"rental_uris":{"android":"levelo://app?vid=e27742ed-5b36-4366-bdce-98b2c90ef441","ios":"levelo://app?vid=e27742ed-5b36-4366-bdce-98b2c90ef441"},"vehicle_type_id":"4","last_reported":1676932617,"current_range_meters":25600,"station_id":"ce4bgvp2rcd13ifvqcu0","pricing_plan_id":"free"},{"bike_id":"53974275-d1e3-4a70-aeba-eb1833101e14","system_id":"levelo_inurba_marseille","lat":43.313291,"lon":5.396838,"is_reserved":false,"is_disabled":false,"rental_uris":{"android":"levelo://app?vid=53974275-d1e3-4a70-aeba-eb1833101e14","ios":"levelo://app?vid=53974275-d1e3-4a70-aeba-eb1833101e14"},"vehicle_type_id":"4","last_reported":1676932617,"current_range_meters":12400,"station_id":"ce4bgvp2rcd13ifvqcu0","pricing_plan_id":"free"},{"bike_id":"fa1c5cb4-eac0-4062-abed-7403b2d17c3c","system_id":"levelo_inurba_marseille","lat":43.313291,"lon":5.396838,"is_reserved":false,"is_disabled":false,"rental_uris":{"android":"levelo://app?vid=fa1c5cb4-eac0-4062-abed-7403b2d17c3c","ios":"levelo://app?vid=fa1c5cb4-eac0-4062-abed-7403b2d17c3c"},"vehicle_type_id":"4","last_reported":1676932617,"current_range_meters":31200,"station_id":"ce4bgvp2rcd13ifvqcu0","pricing_plan_id":"free"},{"bike_id":"2d37dd02-82f5-40c7-b1da-5c439d9756c5","system_id":"levelo_inurba_marseille","lat":43.31325,"lon":5.39695,"is_reserved":false,"is_disabled":false,"rental_uris":{"android":"levelo://app?vid=2d37dd02-82f5-40c7-b1da-5c439d9756c5","ios":"levelo://app?vid=2d37dd02-82f5-40c7-b1da-5c439d9756c5"},"vehicle_type_id":"4","last_reported":1676932617,"current_range_meters":20400,"station_id":"ce4bgvp2rcd13ifvqcu0","pricing_plan_id":"free"},{"bike_id":"68064883-b777-4fc9-87de-35ea782349d3","system_id":"levelo_inurba_marseille","lat":43.313291,"lon":5.396838,"is_reserved":false,"is_disabled":false,"rental_uris":{"android":"levelo://app?vid=68064883-b777-4fc9-87de-35ea782349d3","ios":"levelo://app?vid=68064883-b777-4fc9-87de-35ea782349d3"},"vehicle_type_id":"4","last_reported":1676932617,"current_range_meters":28800,"station_id":"ce4bgvp2rcd13ifvqcu0","pricing_plan_id":"free"},{"bike_id":"53582b16-01ee-4e55-b5d9-223d34aaaf97","system_id":"levelo_inurba_marseille","lat":43.3133,"lon":5.39695,"is_reserved":false,"is_disabled":false,"rental_uris":{"android":"levelo://app?vid=53582b16-01ee-4e55-b5d9-223d34aaaf97","ios":"levelo://app?vid=53582b16-01ee-4e55-b5d9-223d34aaaf97"},"vehicle_type_id":"4","last_reported":1676932617,"current_range_meters":25200,"station_id":"ce4bgvp2rcd13ifvqcu0","pricing_plan_id":"free"},{"bike_id":"63c4dc4a-3999-4ae7-8add-5ce9514d28ba","system_id":"levelo_inurba_marseille","lat":43.313291,"lon":5.396838,"is_reserved":false,"is_disabled":false,"rental_uris":{"android":"levelo://app?vid=63c4dc4a-3999-4ae7-8add-5ce9514d28ba","ios":"levelo://app?vid=63c4dc4a-3999-4ae7-8add-5ce9514d28ba"},"vehicle_type_id":"4","last_reported":1676932617,"current_range_meters":26000,"station_id":"ce4bgvp2rcd13ifvqcu0","pricing_plan_id":"free"},{"bike_id":"245ba2e4-a56c-4e97-b850-6a20e7c94579","system_id":"levelo_inurba_marseille","lat":43.31329,"lon":5.39699,"is_reserved":false,"is_disabled":false,"rental_uris":{"android":"levelo://app?vid=245ba2e4-a56c-4e97-b850-6a20e7c94579","ios":"levelo://app?vid=245ba2e4-a56c-4e97-b850-6a20e7c94579"},"vehicle_type_id":"4","last_reported":1676932617,"current_range_meters":19600,"station_id":"","pricing_plan_id":"free"},{"bike_id":"ae43ef46-ede4-472b-90f6-ab0ee3f3299a","system_id":"levelo_inurba_marseille","lat":43.313291,"lon":5.396838,"is_reserved":false,"is_disabled":false,"rental_uris":{"android":"levelo://app?vid=ae43ef46-ede4-472b-90f6-ab0ee3f3299a","ios":"levelo://app?vid=ae43ef46-ede4-472b-90f6-ab0ee3f3299a"},"vehicle_type_id":"4","last_reported":1676932617,"current_range_meters":30800,"station_id":"ce4bgvp2rcd13ifvqcu0","pricing_plan_id":"free"},{"bike_id":"65580627-6d76-4bce-b134-49d7ffd88af2","system_id":"levelo_inurba_marseille","lat":43.313291,"lon":5.396838,"is_reserved":false,"is_disabled":false,"rental_uris":{"android":"levelo://app?vid=65580627-6d76-4bce-b134-49d7ffd88af2","ios":"levelo://app?vid=65580627-6d76-4bce-b134-49d7ffd88af2"},"vehicle_type_id":"4","last_reported":1676932617,"current_range_meters":26800,"station_id":"ce4bgvp2rcd13ifvqcu0","pricing_plan_id":"free"},{"bike_id":"6fe6d84f-85ba-4ad5-8643-c9bbbb347fc3","system_id":"levelo_inurba_marseille","lat":43.29529,"lon":5.385581,"is_reserved":false,"is_disabled":false,"rental_uris":{"android":"levelo://app?vid=6fe6d84f-85ba-4ad5-8643-c9bbbb347fc3","ios":"levelo://app?vid=6fe6d84f-85ba-4ad5-8643-c9bbbb347fc3"},"vehicle_type_id":"4","last_reported":1676932617,"current_range_meters":23600,"station_id":"ce4bgih2rcd13ifvqba0","pricing_plan_id":"free"},{"bike_id":"5223c41b-4c63-4039-b09f-5e0be208c2d7","system_id":"levelo_inurba_marseille","lat":43.29542,"lon":5.38541,"is_reserved":false,"is_disabled":false,"rental_uris":{"android":"levelo://app?vid=5223c41b-4c63-4039-b09f-5e0be208c2d7","ios":"levelo://app?vid=5223c41b-4c63-4039-b09f-5e0be208c2d7"},"vehicle_type_id":"4","last_reported":1676932617,"current_range_meters":4000,"station_id":"ce4bgih2rcd13ifvqba0","pricing_plan_id":"free"},{"bike_id":"276fb701-5275-4933-9f3c-4d0e934bd69a","system_id":"levelo_inurba_marseille","lat":43.29536,"lon":5.38531,"is_reserved":false,"is_disabled":false,"rental_uris":{"android":"levelo://app?vid=276fb701-5275-4933-9f3c-4d0e934bd69a","ios":"levelo://app?vid=276fb701-5275-4933-9f3c-4d0e934bd69a"},"vehicle_type_id":"4","last_reported":1676932617,"current_range_meters":13200,"station_id":"ce4bgih2rcd13ifvqba0","pricing_plan_id":"free"},{"bike_id":"c5945525-b65a-49ef-8115-20022e866505","system_id":"levelo_inurba_marseille","lat":43.29539,"lon":5.38539,"is_reserved":false,"is_disabled":false,"rental_uris":{"android":"levelo://app?vid=c5945525-b65a-49ef-8115-20022e866505","ios":"levelo://app?vid=c5945525-b65a-49ef-8115-20022e866505"},"vehicle_type_id":"4","last_reported":1676932617,"current_range_meters":19200,"station_id":"ce4bgih2rcd13ifvqba0","pricing_plan_id":"free"},{"bike_id":"f90a8035-0cb3-46b2-af90-e79330c90f05","system_id":"levelo_inurba_marseille","lat":43.29538,"lon":5.38538,"is_reserved":false,"is_disabled":false,"rental_uris":{"android":"levelo://app?vid=f90a8035-0cb3-46b2-af90-e79330c90f05","ios":"levelo://app?vid=f90a8035-0cb3-46b2-af90-e79330c90f05"},"vehicle_type_id":"4","last_reported":1676932617,"current_range_meters":10400,"station_id":"ce4bgih2rcd13ifvqba0","pricing_plan_id":"free"},{"bike_id":"81d5369e-0042-4f74-b037-ec711801fe7f","system_id":"levelo_inurba_marseille","lat":43.29529,"lon":5.385581,"is_reserved":false,"is_disabled":false,"rental_uris":{"android":"levelo://app?vid=81d5369e-0042-4f74-b037-ec711801fe7f","ios":"levelo://app?vid=81d5369e-0042-4f74-b037-ec711801fe7f"},"vehicle_type_id":"4","last_reported":1676932617,"current_range_meters":12000,"station_id":"ce4bgih2rcd13ifvqba0","pricing_plan_id":"free"},{"bike_id":"4c7cce2d-0c89-4c4d-a039-fb82e83ed5dd","system_id":"levelo_inurba_marseille","lat":43.29531,"lon":5.38537,"is_reserved":false,"is_disabled":false,"rental_uris":{"android":"levelo://app?vid=4c7cce2d-0c89-4c4d-a039-fb82e83ed5dd","ios":"levelo://app?vid=4c7cce2d-0c89-4c4d-a039-fb82e83ed5dd"},"vehicle_type_id":"4","last_reported":1676932617,"current_range_meters":10800,"station_id":"","pricing_plan_id":"free"},{"bike_id":"78a92838-44dd-487f-a946-92d31c6afd20","system_id":"levelo_inurba_marseille","lat":43.29528,"lon":5.385347,"is_reserved":false,"is_disabled":false,"rental_uris":{"android":"levelo://app?vid=78a92838-44dd-487f-a946-92d31c6afd20","ios":"levelo://app?vid=78a92838-44dd-487f-a946-92d31c6afd20"},"vehicle_type_id":"4","last_reported":1676932617,"current_range_meters":27200,"station_id":"","pricing_plan_id":"free"},{"bike_id":"1529af38-aa13-4caa-b51c-2e9f2eacd7f6","system_id":"levelo_inurba_marseille","lat":43.29529,"lon":5.385581,"is_reserved":false,"is_disabled":false,"rental_uris":{"android":"levelo://app?vid=1529af38-aa13-4caa-b51c-2e9f2eacd7f6","ios":"levelo://app?vid=1529af38-aa13-4caa-b51c-2e9f2eacd7f6"},"vehicle_type_id":"4","last_reported":1676932617,"current_range_meters":8400,"station_id":"ce4bgih2rcd13ifvqba0","pricing_plan_id":"free"},{"bike_id":"146097c4-31af-4332-a9d4-e2f2cd800746","system_id":"levelo_inurba_marseille","lat":43.29529,"lon":5.385581,"is_reserved":false,"is_disabled":false,"rental_uris":{"android":"levelo://app?vid=146097c4-31af-4332-a9d4-e2f2cd800746","ios":"levelo://app?vid=146097c4-31af-4332-a9d4-e2f2cd800746"},"vehicle_type_id":"4","last_reported":1676932617,"current_range_meters":5200,"station_id":"ce4bgih2rcd13ifvqba0","pricing_plan_id":"free"},{"bike_id":"4076a5aa-acdf-4ab2-a3c2-32a85ba15a42","system_id":"levelo_inurba_marseille","lat":43.29529,"lon":5.385581,"is_reserved":false,"is_disabled":false,"rental_uris":{"android":"levelo://app?vid=4076a5aa-acdf-4ab2-a3c2-32a85ba15a42","ios":"levelo://app?vid=4076a5aa-acdf-4ab2-a3c2-32a85ba15a42"},"vehicle_type_id":"4","last_reported":1676932617,"current_range_meters":9600,"station_id":"ce4bgih2rcd13ifvqba0","pricing_plan_id":"free"},{"bike_id":"9739dd89-cd57-4034-aea7-a64f7bc30d9b","system_id":"levelo_inurba_marseille","lat":43.29529,"lon":5.385581,"is_reserved":false,"is_disabled":false,"rental_uris":{"android":"levelo://app?vid=9739dd89-cd57-4034-aea7-a64f7bc30d9b","ios":"levelo://app?vid=9739dd89-cd57-4034-aea7-a64f7bc30d9b"},"vehicle_type_id":"4","last_reported":1676932617,"current_range_meters":25600,"station_id":"ce4bgih2rcd13ifvqba0","pricing_plan_id":"free"},{"bike_id":"175dd801-1b8b-4302-87ce-ca68ff15c4e2","system_id":"levelo_inurba_marseille","lat":43.2953,"lon":5.38544,"is_reserved":false,"is_disabled":false,"rental_uris":{"android":"levelo://app?vid=175dd801-1b8b-4302-87ce-ca68ff15c4e2","ios":"levelo://app?vid=175dd801-1b8b-4302-87ce-ca68ff15c4e2"},"vehicle_type_id":"4","last_reported":1676932617,"current_range_meters":25200,"station_id":"ce4bgih2rcd13ifvqba0","pricing_plan_id":"free"},{"bike_id":"abf8c50e-f428-4dad-8b1e-d4b814055d3d","system_id":"levelo_inurba_marseille","lat":43.32254,"lon":5.39447,"is_reserved":false,"is_disabled":false,"rental_uris":{"android":"levelo://app?vid=abf8c50e-f428-4dad-8b1e-d4b814055d3d","ios":"levelo://app?vid=abf8c50e-f428-4dad-8b1e-d4b814055d3d"},"vehicle_type_id":"4","last_reported":1676932617,"current_range_meters":0,"station_id":"","pricing_plan_id":"free"},{"bike_id":"ef904c4c-5fcb-4e11-a783-d037df31fb14","system_id":"levelo_inurba_marseille","lat":43.290624,"lon":5.359245,"is_reserved":false,"is_disabled":false,"rental_uris":{"android":"levelo://app?vid=ef904c4c-5fcb-4e11-a783-d037df31fb14","ios":"levelo://app?vid=ef904c4c-5fcb-4e11-a783-d037df31fb14"},"vehicle_type_id":"4","last_reported":1676932617,"current_range_meters":9200,"station_id":"ce4bha92rcd13ifvqeg0","pricing_plan_id":"free"},{"bike_id":"280e7d99-ccc4-41ae-b5da-1149fe9c3004","system_id":"levelo_inurba_marseille","lat":43.290624,"lon":5.359245,"is_reserved":false,"is_disabled":false,"rental_uris":{"android":"levelo://app?vid=280e7d99-ccc4-41ae-b5da-1149fe9c3004","ios":"levelo://app?vid=280e7d99-ccc4-41ae-b5da-1149fe9c3004"},"vehicle_type_id":"4","last_reported":1676932617,"current_range_meters":8000,"station_id":"ce4bha92rcd13ifvqeg0","pricing_plan_id":"free"},{"bike_id":"f7b7502d-1971-45c4-b066-027b4c16a4ba","system_id":"levelo_inurba_marseille","lat":43.290624,"lon":5.359245,"is_reserved":false,"is_disabled":false,"rental_uris":{"android":"levelo://app?vid=f7b7502d-1971-45c4-b066-027b4c16a4ba","ios":"levelo://app?vid=f7b7502d-1971-45c4-b066-027b4c16a4ba"},"vehicle_type_id":"4","last_reported":1676932617,"current_range_meters":0,"station_id":"ce4bha92rcd13ifvqeg0","pricing_plan_id":"free"},{"bike_id":"5840f1ec-f4d7-4397-82ac-749537c12498","system_id":"levelo_inurba_marseille","lat":43.290624,"lon":5.359245,"is_reserved":false,"is_disabled":false,"rental_uris":{"android":"levelo://app?vid=5840f1ec-f4d7-4397-82ac-749537c12498","ios":"levelo://app?vid=5840f1ec-f4d7-4397-82ac-749537c12498"},"vehicle_type_id":"4","last_reported":1676932617,"current_range_meters":2000,"station_id":"ce4bha92rcd13ifvqeg0","pricing_plan_id":"free"},{"bike_id":"c88b4510-8993-46bf-86ee-366817c87e3b","system_id":"levelo_inurba_marseille","lat":43.290624,"lon":5.359245,"is_reserved":false,"is_disabled":false,"rental_uris":{"android":"levelo://app?vid=c88b4510-8993-46bf-86ee-366817c87e3b","ios":"levelo://app?vid=c88b4510-8993-46bf-86ee-366817c87e3b"},"vehicle_type_id":"4","last_reported":1676932617,"current_range_meters":22000,"station_id":"ce4bha92rcd13ifvqeg0","pricing_plan_id":"free"},{"bike_id":"e315c4bf-3f9d-491e-a6f7-242421449c56","system_id":"levelo_inurba_marseille","lat":43.290332,"lon":5.375136,"is_reserved":false,"is_disabled":false,"rental_uris":{"android":"levelo://app?vid=e315c4bf-3f9d-491e-a6f7-242421449c56","ios":"levelo://app?vid=e315c4bf-3f9d-491e-a6f7-242421449c56"},"vehicle_type_id":"4","last_reported":1676932617,"current_range_meters":0,"station_id":"ce4bh692rcd13ifvqe90","pricing_plan_id":"free"},{"bike_id":"d7008070-6baa-46b2-9201-e0d907138ebb","system_id":"levelo_inurba_marseille","lat":43.290332,"lon":5.375136,"is_reserved":false,"is_disabled":false,"rental_uris":{"android":"levelo://app?vid=d7008070-6baa-46b2-9201-e0d907138ebb","ios":"levelo://app?vid=d7008070-6baa-46b2-9201-e0d907138ebb"},"vehicle_type_id":"4","last_reported":1676932617,"current_range_meters":4000,"station_id":"ce4bh692rcd13ifvqe90","pricing_plan_id":"free"},{"bike_id":"8aef3b74-11e5-4346-bc3a-53a501d7c425","system_id":"levelo_inurba_marseille","lat":43.28944,"lon":5.36642,"is_reserved":false,"is_disabled":false,"rental_uris":{"android":"levelo://app?vid=8aef3b74-11e5-4346-bc3a-53a501d7c425","ios":"levelo://app?vid=8aef3b74-11e5-4346-bc3a-53a501d7c425"},"vehicle_type_id":"4","last_reported":1676932617,"current_range_meters":18400,"station_id":"","pricing_plan_id":"free"},{"bike_id":"3eddaa74-82a3-49ed-8293-e10407da6f20","system_id":"levelo_inurba_marseille","lat":43.28944,"lon":5.36626,"is_reserved":false,"is_disabled":false,"rental_uris":{"android":"levelo://app?vid=3eddaa74-82a3-49ed-8293-e10407da6f20","ios":"levelo://app?vid=3eddaa74-82a3-49ed-8293-e10407da6f20"},"vehicle_type_id":"4","last_reported":1676932617,"current_range_meters":6000,"station_id":"","pricing_plan_id":"free"},{"bike_id":"e9a2688d-d42c-441c-87ef-7581b3474254","system_id":"levelo_inurba_marseille","lat":43.28941,"lon":5.3663,"is_reserved":false,"is_disabled":false,"rental_uris":{"android":"levelo://app?vid=e9a2688d-d42c-441c-87ef-7581b3474254","ios":"levelo://app?vid=e9a2688d-d42c-441c-87ef-7581b3474254"},"vehicle_type_id":"4","last_reported":1676932617,"current_range_meters":10400,"station_id":"","pricing_plan_id":"free"},{"bike_id":"38dd7d0d-a4a1-45d7-b3c4-931af4b14bfc","system_id":"levelo_inurba_marseille","lat":43.289356,"lon":5.3663,"is_reserved":false,"is_disabled":false,"rental_uris":{"android":"levelo://app?vid=38dd7d0d-a4a1-45d7-b3c4-931af4b14bfc","ios":"levelo://app?vid=38dd7d0d-a4a1-45d7-b3c4-931af4b14bfc"},"vehicle_type_id":"4","last_reported":1676932617,"current_range_meters":14400,"station_id":"","pricing_plan_id":"free"},{"bike_id":"0a670153-4f39-4b6b-9829-3bc1f5e28634","system_id":"levelo_inurba_marseille","lat":43.28945,"lon":5.36391,"is_reserved":false,"is_disabled":false,"rental_uris":{"android":"levelo://app?vid=0a670153-4f39-4b6b-9829-3bc1f5e28634","ios":"levelo://app?vid=0a670153-4f39-4b6b-9829-3bc1f5e28634"},"vehicle_type_id":"4","last_reported":1676932617,"current_range_meters":7600,"station_id":"ce4bhc92rcd13ifvqetg","pricing_plan_id":"free"},{"bike_id":"12cc4130-52db-44fe-a541-b89a8319a76f","system_id":"levelo_inurba_marseille","lat":43.289184,"lon":5.366408,"is_reserved":false,"is_disabled":false,"rental_uris":{"android":"levelo://app?vid=12cc4130-52db-44fe-a541-b89a8319a76f","ios":"levelo://app?vid=12cc4130-52db-44fe-a541-b89a8319a76f"},"vehicle_type_id":"4","last_reported":1676932617,"current_range_meters":20800,"station_id":"ce4bhap2rcd13ifvqek0","pricing_plan_id":"free"},{"bike_id":"f0d9b89a-3466-435b-b2fc-3584a8ae5ec9","system_id":"levelo_inurba_marseille","lat":43.289468,"lon":5.363719,"is_reserved":false,"is_disabled":false,"rental_uris":{"android":"levelo://app?vid=f0d9b89a-3466-435b-b2fc-3584a8ae5ec9","ios":"levelo://app?vid=f0d9b89a-3466-435b-b2fc-3584a8ae5ec9"},"vehicle_type_id":"4","last_reported":1676932617,"current_range_meters":26800,"station_id":"ce4bhc92rcd13ifvqetg","pricing_plan_id":"free"},{"bike_id":"2ebfe459-4a12-4f7d-b1d9-c35bf3cc71cd","system_id":"levelo_inurba_marseille","lat":43.29271,"lon":5.3844,"is_reserved":false,"is_disabled":false,"rental_uris":{"android":"levelo://app?vid=2ebfe459-4a12-4f7d-b1d9-c35bf3cc71cd","ios":"levelo://app?vid=2ebfe459-4a12-4f7d-b1d9-c35bf3cc71cd"},"vehicle_type_id":"4","last_reported":1676932617,"current_range_meters":16400,"station_id":"","pricing_plan_id":"free"},{"bike_id":"178c92ac-f595-45e7-b597-7d21405dc102","system_id":"levelo_inurba_marseille","lat":43.330442,"lon":5.389148,"is_reserved":false,"is_disabled":false,"rental_uris":{"android":"levelo://app?vid=178c92ac-f595-45e7-b597-7d21405dc102","ios":"levelo://app?vid=178c92ac-f595-45e7-b597-7d21405dc102"},"vehicle_type_id":"4","last_reported":1676932617,"current_range_meters":21600,"station_id":"ce4bhr92rcd13ifvqhrg","pricing_plan_id":"free"},{"bike_id":"6bde3431-c3f8-420c-9e4c-0719be1e23cf","system_id":"levelo_inurba_marseille","lat":43.330393,"lon":5.389148,"is_reserved":false,"is_disabled":false,"rental_uris":{"android":"levelo://app?vid=6bde3431-c3f8-420c-9e4c-0719be1e23cf","ios":"levelo://app?vid=6bde3431-c3f8-420c-9e4c-0719be1e23cf"},"vehicle_type_id":"4","last_reported":1676932617,"current_range_meters":29600,"station_id":"ce4bhr92rcd13ifvqhrg","pricing_plan_id":"free"},{"bike_id":"37479b13-9891-4107-b1b0-ef27756bb701","system_id":"levelo_inurba_marseille","lat":43.330442,"lon":5.389148,"is_reserved":false,"is_disabled":false,"rental_uris":{"android":"levelo://app?vid=37479b13-9891-4107-b1b0-ef27756bb701","ios":"levelo://app?vid=37479b13-9891-4107-b1b0-ef27756bb701"},"vehicle_type_id":"4","last_reported":1676932617,"current_range_meters":31200,"station_id":"ce4bhr92rcd13ifvqhrg","pricing_plan_id":"free"},{"bike_id":"898bd0e3-a7f4-4757-aa34-2e64b09c2c1a","system_id":"levelo_inurba_marseille","lat":43.290104,"lon":5.356111,"is_reserved":false,"is_disabled":false,"rental_uris":{"android":"levelo://app?vid=898bd0e3-a7f4-4757-aa34-2e64b09c2c1a","ios":"levelo://app?vid=898bd0e3-a7f4-4757-aa34-2e64b09c2c1a"},"vehicle_type_id":"4","last_reported":1676932617,"current_range_meters":26400,"station_id":"ce4bhb92rcd13ifvqen0","pricing_plan_id":"free"},{"bike_id":"5b763896-9d0a-4a17-ade8-34bb6f0946c3","system_id":"levelo_inurba_marseille","lat":43.330382,"lon":5.389198,"is_reserved":false,"is_disabled":false,"rental_uris":{"android":"levelo://app?vid=5b763896-9d0a-4a17-ade8-34bb6f0946c3","ios":"levelo://app?vid=5b763896-9d0a-4a17-ade8-34bb6f0946c3"},"vehicle_type_id":"4","last_reported":1676932617,"current_range_meters":27200,"station_id":"ce4bhr92rcd13ifvqhrg","pricing_plan_id":"free"},{"bike_id":"2f57434c-886c-4573-9d55-ec6b247af0ae","system_id":"levelo_inurba_marseille","lat":43.33043,"lon":5.38916,"is_reserved":false,"is_disabled":false,"rental_uris":{"android":"levelo://app?vid=2f57434c-886c-4573-9d55-ec6b247af0ae","ios":"levelo://app?vid=2f57434c-886c-4573-9d55-ec6b247af0ae"},"vehicle_type_id":"4","last_reported":1676932617,"current_range_meters":26000,"station_id":"","pricing_plan_id":"free"},{"bike_id":"a9a533e2-a694-46d6-97ca-e53bd461fb9a","system_id":"levelo_inurba_marseille","lat":43.330442,"lon":5.389148,"is_reserved":false,"is_disabled":false,"rental_uris":{"android":"levelo://app?vid=a9a533e2-a694-46d6-97ca-e53bd461fb9a","ios":"levelo://app?vid=a9a533e2-a694-46d6-97ca-e53bd461fb9a"},"vehicle_type_id":"4","last_reported":1676932617,"current_range_meters":24800,"station_id":"ce4bhr92rcd13ifvqhrg","pricing_plan_id":"free"},{"bike_id":"dfbc8af8-c178-43d3-87d9-4d5cb0762399","system_id":"levelo_inurba_marseille","lat":43.330442,"lon":5.389148,"is_reserved":false,"is_disabled":false,"rental_uris":{"android":"levelo://app?vid=dfbc8af8-c178-43d3-87d9-4d5cb0762399","ios":"levelo://app?vid=dfbc8af8-c178-43d3-87d9-4d5cb0762399"},"vehicle_type_id":"4","last_reported":1676932617,"current_range_meters":31600,"station_id":"ce4bhr92rcd13ifvqhrg","pricing_plan_id":"free"},{"bike_id":"20f7eda5-39d3-4afe-ae56-9a840a04cab1","system_id":"levelo_inurba_marseille","lat":43.330442,"lon":5.389148,"is_reserved":false,"is_disabled":false,"rental_uris":{"android":"levelo://app?vid=20f7eda5-39d3-4afe-ae56-9a840a04cab1","ios":"levelo://app?vid=20f7eda5-39d3-4afe-ae56-9a840a04cab1"},"vehicle_type_id":"4","last_reported":1676932617,"current_range_meters":30400,"station_id":"ce4bhr92rcd13ifvqhrg","pricing_plan_id":"free"},{"bike_id":"4a9ff081-5f64-4a51-adbc-bc89785741d0","system_id":"levelo_inurba_marseille","lat":43.290104,"lon":5.356111,"is_reserved":false,"is_disabled":false,"rental_uris":{"android":"levelo://app?vid=4a9ff081-5f64-4a51-adbc-bc89785741d0","ios":"levelo://app?vid=4a9ff081-5f64-4a51-adbc-bc89785741d0"},"vehicle_type_id":"4","last_reported":1676932617,"current_range_meters":6400,"station_id":"ce4bhb92rcd13ifvqen0","pricing_plan_id":"free"},{"bike_id":"6c4bb5ad-bb60-46f6-afe2-03ea3ffd247c","system_id":"levelo_inurba_marseille","lat":43.330442,"lon":5.389148,"is_reserved":false,"is_disabled":false,"rental_uris":{"android":"levelo://app?vid=6c4bb5ad-bb60-46f6-afe2-03ea3ffd247c","ios":"levelo://app?vid=6c4bb5ad-bb60-46f6-afe2-03ea3ffd247c"},"vehicle_type_id":"4","last_reported":1676932617,"current_range_meters":28000,"station_id":"ce4bhr92rcd13ifvqhrg","pricing_plan_id":"free"},{"bike_id":"ef97761d-7708-4db6-b892-abd3b66682c3","system_id":"levelo_inurba_marseille","lat":43.330442,"lon":5.389148,"is_reserved":false,"is_disabled":false,"rental_uris":{"android":"levelo://app?vid=ef97761d-7708-4db6-b892-abd3b66682c3","ios":"levelo://app?vid=ef97761d-7708-4db6-b892-abd3b66682c3"},"vehicle_type_id":"4","last_reported":1676932617,"current_range_meters":25600,"station_id":"ce4bhr92rcd13ifvqhrg","pricing_plan_id":"free"},{"bike_id":"30e64a77-47b2-4bcf-8fd6-547206590b4f","system_id":"levelo_inurba_marseille","lat":43.330442,"lon":5.389148,"is_reserved":false,"is_disabled":false,"rental_uris":{"android":"levelo://app?vid=30e64a77-47b2-4bcf-8fd6-547206590b4f","ios":"levelo://app?vid=30e64a77-47b2-4bcf-8fd6-547206590b4f"},"vehicle_type_id":"4","last_reported":1676932617,"current_range_meters":30000,"station_id":"ce4bhr92rcd13ifvqhrg","pricing_plan_id":"free"},{"bike_id":"548e8dfc-1303-42b1-9ee6-24e67d3585bd","system_id":"levelo_inurba_marseille","lat":43.289741,"lon":5.378306,"is_reserved":false,"is_disabled":false,"rental_uris":{"android":"levelo://app?vid=548e8dfc-1303-42b1-9ee6-24e67d3585bd","ios":"levelo://app?vid=548e8dfc-1303-42b1-9ee6-24e67d3585bd"},"vehicle_type_id":"4","last_reported":1676932617,"current_range_meters":10800,"station_id":"ce4bh9p2rcd13ifvqed0","pricing_plan_id":"free"},{"bike_id":"95c39a39-bb43-47ec-8a44-6cf41d474845","system_id":"levelo_inurba_marseille","lat":43.295169,"lon":5.390426,"is_reserved":false,"is_disabled":false,"rental_uris":{"android":"levelo://app?vid=95c39a39-bb43-47ec-8a44-6cf41d474845","ios":"levelo://app?vid=95c39a39-bb43-47ec-8a44-6cf41d474845"},"vehicle_type_id":"4","last_reported":1676932617,"current_range_meters":23600,"station_id":"ce4bh3p2rcd13ifvqdp0","pricing_plan_id":"free"},{"bike_id":"6eb3b412-86db-4f49-a0ff-5d954631daae","system_id":"levelo_inurba_marseille","lat":43.295169,"lon":5.390426,"is_reserved":false,"is_disabled":false,"rental_uris":{"android":"levelo://app?vid=6eb3b412-86db-4f49-a0ff-5d954631daae","ios":"levelo://app?vid=6eb3b412-86db-4f49-a0ff-5d954631daae"},"vehicle_type_id":"4","last_reported":1676932617,"current_range_meters":29200,"station_id":"ce4bh3p2rcd13ifvqdp0","pricing_plan_id":"free"},{"bike_id":"1e2c64b9-648a-45b4-8481-84b6cb616594","system_id":"levelo_inurba_marseille","lat":43.295169,"lon":5.390426,"is_reserved":false,"is_disabled":false,"rental_uris":{"android":"levelo://app?vid=1e2c64b9-648a-45b4-8481-84b6cb616594","ios":"levelo://app?vid=1e2c64b9-648a-45b4-8481-84b6cb616594"},"vehicle_type_id":"4","last_reported":1676932617,"current_range_meters":30800,"station_id":"ce4bh3p2rcd13ifvqdp0","pricing_plan_id":"free"},{"bike_id":"92f10904-5a64-4fed-b1ca-fc4202d10f6e","system_id":"levelo_inurba_marseille","lat":43.295169,"lon":5.390426,"is_reserved":false,"is_disabled":false,"rental_uris":{"android":"levelo://app?vid=92f10904-5a64-4fed-b1ca-fc4202d10f6e","ios":"levelo://app?vid=92f10904-5a64-4fed-b1ca-fc4202d10f6e"},"vehicle_type_id":"4","last_reported":1676932617,"current_range_meters":24800,"station_id":"ce4bh3p2rcd13ifvqdp0","pricing_plan_id":"free"},{"bike_id":"5ef29cf6-d8ea-4e9c-9fff-834b48643af0","system_id":"levelo_inurba_marseille","lat":43.28856,"lon":5.358371,"is_reserved":false,"is_disabled":false,"rental_uris":{"android":"levelo://app?vid=5ef29cf6-d8ea-4e9c-9fff-834b48643af0","ios":"levelo://app?vid=5ef29cf6-d8ea-4e9c-9fff-834b48643af0"},"vehicle_type_id":"4","last_reported":1676932617,"current_range_meters":20800,"station_id":"ce4bhb12rcd13ifvqem0","pricing_plan_id":"free"},{"bike_id":"5ad3c0b7-363b-436f-bbae-86652cb64e94","system_id":"levelo_inurba_marseille","lat":43.28856,"lon":5.358371,"is_reserved":false,"is_disabled":false,"rental_uris":{"android":"levelo://app?vid=5ad3c0b7-363b-436f-bbae-86652cb64e94","ios":"levelo://app?vid=5ad3c0b7-363b-436f-bbae-86652cb64e94"},"vehicle_type_id":"4","last_reported":1676932617,"current_range_meters":16000,"station_id":"ce4bhb12rcd13ifvqem0","pricing_plan_id":"free"},{"bike_id":"3d7d5458-a0b6-43a6-b226-0c22167a477d","system_id":"levelo_inurba_marseille","lat":43.28856,"lon":5.358371,"is_reserved":false,"is_disabled":false,"rental_uris":{"android":"levelo://app?vid=3d7d5458-a0b6-43a6-b226-0c22167a477d","ios":"levelo://app?vid=3d7d5458-a0b6-43a6-b226-0c22167a477d"},"vehicle_type_id":"4","last_reported":1676932617,"current_range_meters":15200,"station_id":"ce4bhb12rcd13ifvqem0","pricing_plan_id":"free"},{"bike_id":"1147b6c2-2202-4c65-be84-a7f59128bf80","system_id":"levelo_inurba_marseille","lat":43.28856,"lon":5.358371,"is_reserved":false,"is_disabled":false,"rental_uris":{"android":"levelo://app?vid=1147b6c2-2202-4c65-be84-a7f59128bf80","ios":"levelo://app?vid=1147b6c2-2202-4c65-be84-a7f59128bf80"},"vehicle_type_id":"4","last_reported":1676932617,"current_range_meters":14000,"station_id":"ce4bhb12rcd13ifvqem0","pricing_plan_id":"free"},{"bike_id":"6d9d8f1f-8441-468d-ada7-956495ee7ae4","system_id":"levelo_inurba_marseille","lat":43.28856,"lon":5.358371,"is_reserved":false,"is_disabled":false,"rental_uris":{"android":"levelo://app?vid=6d9d8f1f-8441-468d-ada7-956495ee7ae4","ios":"levelo://app?vid=6d9d8f1f-8441-468d-ada7-956495ee7ae4"},"vehicle_type_id":"4","last_reported":1676932617,"current_range_meters":8000,"station_id":"ce4bhb12rcd13ifvqem0","pricing_plan_id":"free"},{"bike_id":"89b35039-6e5f-4b4d-93d2-59ec10d2d6e8","system_id":"levelo_inurba_marseille","lat":43.306504,"lon":5.400732,"is_reserved":false,"is_disabled":false,"rental_uris":{"android":"levelo://app?vid=89b35039-6e5f-4b4d-93d2-59ec10d2d6e8","ios":"levelo://app?vid=89b35039-6e5f-4b4d-93d2-59ec10d2d6e8"},"vehicle_type_id":"4","last_reported":1676932617,"current_range_meters":2800,"station_id":"","pricing_plan_id":"free"},{"bike_id":"a77fd495-dcc3-4ea1-96fc-01ff114b20f9","system_id":"levelo_inurba_marseille","lat":43.306412,"lon":5.401035,"is_reserved":false,"is_disabled":false,"rental_uris":{"android":"levelo://app?vid=a77fd495-dcc3-4ea1-96fc-01ff114b20f9","ios":"levelo://app?vid=a77fd495-dcc3-4ea1-96fc-01ff114b20f9"},"vehicle_type_id":"4","last_reported":1676932617,"current_range_meters":20000,"station_id":"ce4bh112rcd13ifvqda0","pricing_plan_id":"free"},{"bike_id":"4078e38c-5190-4372-8447-a2aaba5f498b","system_id":"levelo_inurba_marseille","lat":43.306473,"lon":5.400771,"is_reserved":false,"is_disabled":false,"rental_uris":{"android":"levelo://app?vid=4078e38c-5190-4372-8447-a2aaba5f498b","ios":"levelo://app?vid=4078e38c-5190-4372-8447-a2aaba5f498b"},"vehicle_type_id":"4","last_reported":1676932617,"current_range_meters":18800,"station_id":"","pricing_plan_id":"free"},{"bike_id":"32cf081f-68ff-443b-8aaf-7457c46559f1","system_id":"levelo_inurba_marseille","lat":43.30657,"lon":5.40082,"is_reserved":false,"is_disabled":false,"rental_uris":{"android":"levelo://app?vid=32cf081f-68ff-443b-8aaf-7457c46559f1","ios":"levelo://app?vid=32cf081f-68ff-443b-8aaf-7457c46559f1"},"vehicle_type_id":"4","last_reported":1676932617,"current_range_meters":20000,"station_id":"","pricing_plan_id":"free"},{"bike_id":"c1eb1b88-be4b-4548-a448-1f213d2be9ed","system_id":"levelo_inurba_marseille","lat":43.30642,"lon":5.401031,"is_reserved":false,"is_disabled":false,"rental_uris":{"android":"levelo://app?vid=c1eb1b88-be4b-4548-a448-1f213d2be9ed","ios":"levelo://app?vid=c1eb1b88-be4b-4548-a448-1f213d2be9ed"},"vehicle_type_id":"4","last_reported":1676932617,"current_range_meters":24800,"station_id":"ce4bh112rcd13ifvqda0","pricing_plan_id":"free"},{"bike_id":"7b69538c-e0b8-4a0f-ac72-1f2bf9b91168","system_id":"levelo_inurba_marseille","lat":43.306412,"lon":5.401035,"is_reserved":false,"is_disabled":false,"rental_uris":{"android":"levelo://app?vid=7b69538c-e0b8-4a0f-ac72-1f2bf9b91168","ios":"levelo://app?vid=7b69538c-e0b8-4a0f-ac72-1f2bf9b91168"},"vehicle_type_id":"4","last_reported":1676932617,"current_range_meters":25200,"station_id":"ce4bh112rcd13ifvqda0","pricing_plan_id":"free"},{"bike_id":"07bbd3e9-8813-4080-b461-d771f82bd647","system_id":"levelo_inurba_marseille","lat":43.30646,"lon":5.400828,"is_reserved":false,"is_disabled":false,"rental_uris":{"android":"levelo://app?vid=07bbd3e9-8813-4080-b461-d771f82bd647","ios":"levelo://app?vid=07bbd3e9-8813-4080-b461-d771f82bd647"},"vehicle_type_id":"4","last_reported":1676932617,"current_range_meters":13600,"station_id":"","pricing_plan_id":"free"},{"bike_id":"249c47cb-5dcf-495a-b20c-20081b998dd9","system_id":"levelo_inurba_marseille","lat":43.30642,"lon":5.401031,"is_reserved":false,"is_disabled":false,"rental_uris":{"android":"levelo://app?vid=249c47cb-5dcf-495a-b20c-20081b998dd9","ios":"levelo://app?vid=249c47cb-5dcf-495a-b20c-20081b998dd9"},"vehicle_type_id":"4","last_reported":1676932617,"current_range_meters":12800,"station_id":"ce4bh112rcd13ifvqda0","pricing_plan_id":"free"},{"bike_id":"65ef0d4d-2589-4c0f-b708-5712e0726151","system_id":"levelo_inurba_marseille","lat":43.301426,"lon":5.39853,"is_reserved":false,"is_disabled":false,"rental_uris":{"android":"levelo://app?vid=65ef0d4d-2589-4c0f-b708-5712e0726151","ios":"levelo://app?vid=65ef0d4d-2589-4c0f-b708-5712e0726151"},"vehicle_type_id":"4","last_reported":1676932617,"current_range_meters":10800,"station_id":"","pricing_plan_id":"free"},{"bike_id":"9069b1ef-b106-4b4e-9659-6f972909013d","system_id":"levelo_inurba_marseille","lat":43.30135,"lon":5.39856,"is_reserved":false,"is_disabled":false,"rental_uris":{"android":"levelo://app?vid=9069b1ef-b106-4b4e-9659-6f972909013d","ios":"levelo://app?vid=9069b1ef-b106-4b4e-9659-6f972909013d"},"vehicle_type_id":"4","last_reported":1676932617,"current_range_meters":14000,"station_id":"","pricing_plan_id":"free"},{"bike_id":"ad80c3e9-77f6-47b2-9ff9-f88b4a7a7b5b","system_id":"levelo_inurba_marseille","lat":43.301587,"lon":5.39881,"is_reserved":false,"is_disabled":false,"rental_uris":{"android":"levelo://app?vid=ad80c3e9-77f6-47b2-9ff9-f88b4a7a7b5b","ios":"levelo://app?vid=ad80c3e9-77f6-47b2-9ff9-f88b4a7a7b5b"},"vehicle_type_id":"4","last_reported":1676932617,"current_range_meters":11200,"station_id":"","pricing_plan_id":"free"},{"bike_id":"34a60612-4ee1-42aa-b98a-ca31d219cfa3","system_id":"levelo_inurba_marseille","lat":43.3013,"lon":5.39877,"is_reserved":false,"is_disabled":false,"rental_uris":{"android":"levelo://app?vid=34a60612-4ee1-42aa-b98a-ca31d219cfa3","ios":"levelo://app?vid=34a60612-4ee1-42aa-b98a-ca31d219cfa3"},"vehicle_type_id":"4","last_reported":1676932617,"current_range_meters":18400,"station_id":"ce4bh0h2rcd13ifvqd40","pricing_plan_id":"free"},{"bike_id":"87c736c8-d4b1-4bab-b877-47c0f5d3c9a4","system_id":"levelo_inurba_marseille","lat":43.29526,"lon":5.39402,"is_reserved":false,"is_disabled":false,"rental_uris":{"android":"levelo://app?vid=87c736c8-d4b1-4bab-b877-47c0f5d3c9a4","ios":"levelo://app?vid=87c736c8-d4b1-4bab-b877-47c0f5d3c9a4"},"vehicle_type_id":"4","last_reported":1676932617,"current_range_meters":30800,"station_id":"ce4bh212rcd13ifvqde0","pricing_plan_id":"free"},{"bike_id":"074adefd-8dac-47a4-8b4c-4f9c216dd63b","system_id":"levelo_inurba_marseille","lat":43.2952,"lon":5.39396,"is_reserved":false,"is_disabled":false,"rental_uris":{"android":"levelo://app?vid=074adefd-8dac-47a4-8b4c-4f9c216dd63b","ios":"levelo://app?vid=074adefd-8dac-47a4-8b4c-4f9c216dd63b"},"vehicle_type_id":"4","last_reported":1676932617,"current_range_meters":15200,"station_id":"ce4bh212rcd13ifvqde0","pricing_plan_id":"free"},{"bike_id":"f5106d28-afd5-44f0-b970-f70197a9d32f","system_id":"levelo_inurba_marseille","lat":43.295238,"lon":5.394016,"is_reserved":false,"is_disabled":false,"rental_uris":{"android":"levelo://app?vid=f5106d28-afd5-44f0-b970-f70197a9d32f","ios":"levelo://app?vid=f5106d28-afd5-44f0-b970-f70197a9d32f"},"vehicle_type_id":"4","last_reported":1676932617,"current_range_meters":29200,"station_id":"ce4bh212rcd13ifvqde0","pricing_plan_id":"free"},{"bike_id":"7b924db6-e78c-423b-94d1-7ef47e00d6dc","system_id":"levelo_inurba_marseille","lat":43.29523,"lon":5.39406,"is_reserved":false,"is_disabled":false,"rental_uris":{"android":"levelo://app?vid=7b924db6-e78c-423b-94d1-7ef47e00d6dc","ios":"levelo://app?vid=7b924db6-e78c-423b-94d1-7ef47e00d6dc"},"vehicle_type_id":"4","last_reported":1676932617,"current_range_meters":30800,"station_id":"ce4bh212rcd13ifvqde0","pricing_plan_id":"free"},{"bike_id":"5960e9b5-3310-4ea0-8967-35c2c8f75588","system_id":"levelo_inurba_marseille","lat":43.29522,"lon":5.39405,"is_reserved":false,"is_disabled":false,"rental_uris":{"android":"levelo://app?vid=5960e9b5-3310-4ea0-8967-35c2c8f75588","ios":"levelo://app?vid=5960e9b5-3310-4ea0-8967-35c2c8f75588"},"vehicle_type_id":"4","last_reported":1676932617,"current_range_meters":24800,"station_id":"ce4bh212rcd13ifvqde0","pricing_plan_id":"free"},{"bike_id":"b1e7d179-8289-409c-837c-54c8b32129a6","system_id":"levelo_inurba_marseille","lat":43.295228,"lon":5.394071,"is_reserved":false,"is_disabled":false,"rental_uris":{"android":"levelo://app?vid=b1e7d179-8289-409c-837c-54c8b32129a6","ios":"levelo://app?vid=b1e7d179-8289-409c-837c-54c8b32129a6"},"vehicle_type_id":"4","last_reported":1676932617,"current_range_meters":32000,"station_id":"ce4bh212rcd13ifvqde0","pricing_plan_id":"free"},{"bike_id":"5ec5b13f-73d9-4a5c-8648-40df7a5078cf","system_id":"levelo_inurba_marseille","lat":43.295166,"lon":5.394014,"is_reserved":false,"is_disabled":false,"rental_uris":{"android":"levelo://app?vid=5ec5b13f-73d9-4a5c-8648-40df7a5078cf","ios":"levelo://app?vid=5ec5b13f-73d9-4a5c-8648-40df7a5078cf"},"vehicle_type_id":"4","last_reported":1676932617,"current_range_meters":6400,"station_id":"ce4bh212rcd13ifvqde0","pricing_plan_id":"free"},{"bike_id":"63d0b890-54ff-495d-93ac-ccaddd883704","system_id":"levelo_inurba_marseille","lat":43.295162,"lon":5.394025,"is_reserved":false,"is_disabled":false,"rental_uris":{"android":"levelo://app?vid=63d0b890-54ff-495d-93ac-ccaddd883704","ios":"levelo://app?vid=63d0b890-54ff-495d-93ac-ccaddd883704"},"vehicle_type_id":"4","last_reported":1676932617,"current_range_meters":13200,"station_id":"ce4bh212rcd13ifvqde0","pricing_plan_id":"free"},{"bike_id":"8f5628ac-2e4f-4e29-a13d-8dc4adbf2a31","system_id":"levelo_inurba_marseille","lat":43.29512,"lon":5.393994,"is_reserved":false,"is_disabled":false,"rental_uris":{"android":"levelo://app?vid=8f5628ac-2e4f-4e29-a13d-8dc4adbf2a31","ios":"levelo://app?vid=8f5628ac-2e4f-4e29-a13d-8dc4adbf2a31"},"vehicle_type_id":"4","last_reported":1676932617,"current_range_meters":5600,"station_id":"ce4bh212rcd13ifvqde0","pricing_plan_id":"free"},{"bike_id":"ab515a50-eeb7-47bc-bc0a-be3693fbf160","system_id":"levelo_inurba_marseille","lat":43.29519,"lon":5.394087,"is_reserved":false,"is_disabled":false,"rental_uris":{"android":"levelo://app?vid=ab515a50-eeb7-47bc-bc0a-be3693fbf160","ios":"levelo://app?vid=ab515a50-eeb7-47bc-bc0a-be3693fbf160"},"vehicle_type_id":"4","last_reported":1676932617,"current_range_meters":16000,"station_id":"ce4bh212rcd13ifvqde0","pricing_plan_id":"free"},{"bike_id":"64f782d3-fb40-4fbf-9b47-5fb233d6f492","system_id":"levelo_inurba_marseille","lat":43.2952,"lon":5.39414,"is_reserved":false,"is_disabled":false,"rental_uris":{"android":"levelo://app?vid=64f782d3-fb40-4fbf-9b47-5fb233d6f492","ios":"levelo://app?vid=64f782d3-fb40-4fbf-9b47-5fb233d6f492"},"vehicle_type_id":"4","last_reported":1676932617,"current_range_meters":0,"station_id":"ce4bh212rcd13ifvqde0","pricing_plan_id":"free"},{"bike_id":"1cc2df88-35bc-4666-a9a5-c55964151e6b","system_id":"levelo_inurba_marseille","lat":43.295086,"lon":5.39408,"is_reserved":false,"is_disabled":false,"rental_uris":{"android":"levelo://app?vid=1cc2df88-35bc-4666-a9a5-c55964151e6b","ios":"levelo://app?vid=1cc2df88-35bc-4666-a9a5-c55964151e6b"},"vehicle_type_id":"4","last_reported":1676932617,"current_range_meters":9600,"station_id":"ce4bh212rcd13ifvqde0","pricing_plan_id":"free"},{"bike_id":"5945995e-2c90-44d0-9cc5-3b892cc647eb","system_id":"levelo_inurba_marseille","lat":43.302543,"lon":5.4006,"is_reserved":false,"is_disabled":false,"rental_uris":{"android":"levelo://app?vid=5945995e-2c90-44d0-9cc5-3b892cc647eb","ios":"levelo://app?vid=5945995e-2c90-44d0-9cc5-3b892cc647eb"},"vehicle_type_id":"4","last_reported":1676932617,"current_range_meters":12000,"station_id":"","pricing_plan_id":"free"},{"bike_id":"a4ddb93c-23bb-4738-8a86-cd48adac6e1b","system_id":"levelo_inurba_marseille","lat":43.302427,"lon":5.400612,"is_reserved":false,"is_disabled":false,"rental_uris":{"android":"levelo://app?vid=a4ddb93c-23bb-4738-8a86-cd48adac6e1b","ios":"levelo://app?vid=a4ddb93c-23bb-4738-8a86-cd48adac6e1b"},"vehicle_type_id":"4","last_reported":1676932617,"current_range_meters":24400,"station_id":"","pricing_plan_id":"free"},{"bike_id":"ddb7d64b-b053-4d31-8f5b-72725e6cfaae","system_id":"levelo_inurba_marseille","lat":43.302416,"lon":5.400707,"is_reserved":false,"is_disabled":false,"rental_uris":{"android":"levelo://app?vid=ddb7d64b-b053-4d31-8f5b-72725e6cfaae","ios":"levelo://app?vid=ddb7d64b-b053-4d31-8f5b-72725e6cfaae"},"vehicle_type_id":"4","last_reported":1676932617,"current_range_meters":28800,"station_id":"ce4bgvh2rcd13ifvqcs0","pricing_plan_id":"free"},{"bike_id":"7cda6621-6da0-4ef2-82c1-d55e4f3c0747","system_id":"levelo_inurba_marseille","lat":43.30257,"lon":5.40082,"is_reserved":false,"is_disabled":false,"rental_uris":{"android":"levelo://app?vid=7cda6621-6da0-4ef2-82c1-d55e4f3c0747","ios":"levelo://app?vid=7cda6621-6da0-4ef2-82c1-d55e4f3c0747"},"vehicle_type_id":"4","last_reported":1676932617,"current_range_meters":10400,"station_id":"","pricing_plan_id":"free"},{"bike_id":"94b9b4a3-1492-4691-afb7-dc1c562eff11","system_id":"levelo_inurba_marseille","lat":43.286039,"lon":5.370679,"is_reserved":false,"is_disabled":false,"rental_uris":{"android":"levelo://app?vid=94b9b4a3-1492-4691-afb7-dc1c562eff11","ios":"levelo://app?vid=94b9b4a3-1492-4691-afb7-dc1c562eff11"},"vehicle_type_id":"4","last_reported":1676932617,"current_range_meters":18800,"station_id":"ce4bht12rcd13ifvqi60","pricing_plan_id":"free"},{"bike_id":"6cce9e5b-be48-4f71-9655-8f3c97b32138","system_id":"levelo_inurba_marseille","lat":43.286039,"lon":5.370679,"is_reserved":false,"is_disabled":false,"rental_uris":{"android":"levelo://app?vid=6cce9e5b-be48-4f71-9655-8f3c97b32138","ios":"levelo://app?vid=6cce9e5b-be48-4f71-9655-8f3c97b32138"},"vehicle_type_id":"4","last_reported":1676932617,"current_range_meters":7200,"station_id":"ce4bht12rcd13ifvqi60","pricing_plan_id":"free"},{"bike_id":"c22dacc1-6edd-44b9-b047-6194595f746b","system_id":"levelo_inurba_marseille","lat":43.286039,"lon":5.370679,"is_reserved":false,"is_disabled":false,"rental_uris":{"android":"levelo://app?vid=c22dacc1-6edd-44b9-b047-6194595f746b","ios":"levelo://app?vid=c22dacc1-6edd-44b9-b047-6194595f746b"},"vehicle_type_id":"4","last_reported":1676932617,"current_range_meters":5200,"station_id":"ce4bht12rcd13ifvqi60","pricing_plan_id":"free"},{"bike_id":"a26d55e1-7d7c-4169-93ca-4d9dad65472c","system_id":"levelo_inurba_marseille","lat":43.286039,"lon":5.370679,"is_reserved":false,"is_disabled":false,"rental_uris":{"android":"levelo://app?vid=a26d55e1-7d7c-4169-93ca-4d9dad65472c","ios":"levelo://app?vid=a26d55e1-7d7c-4169-93ca-4d9dad65472c"},"vehicle_type_id":"4","last_reported":1676932617,"current_range_meters":11200,"station_id":"ce4bht12rcd13ifvqi60","pricing_plan_id":"free"},{"bike_id":"b41e6261-a7a5-45a5-9994-f80cf023833a","system_id":"levelo_inurba_marseille","lat":43.286039,"lon":5.370679,"is_reserved":false,"is_disabled":false,"rental_uris":{"android":"levelo://app?vid=b41e6261-a7a5-45a5-9994-f80cf023833a","ios":"levelo://app?vid=b41e6261-a7a5-45a5-9994-f80cf023833a"},"vehicle_type_id":"4","last_reported":1676932617,"current_range_meters":21200,"station_id":"ce4bht12rcd13ifvqi60","pricing_plan_id":"free"},{"bike_id":"e81fc217-d46f-410d-aadf-9f6e2d9d400b","system_id":"levelo_inurba_marseille","lat":43.287185,"lon":5.379373,"is_reserved":false,"is_disabled":false,"rental_uris":{"android":"levelo://app?vid=e81fc217-d46f-410d-aadf-9f6e2d9d400b","ios":"levelo://app?vid=e81fc217-d46f-410d-aadf-9f6e2d9d400b"},"vehicle_type_id":"4","last_reported":1676932617,"current_range_meters":16000,"station_id":"ce4bh9p2rcd13ifvqec0","pricing_plan_id":"free"},{"bike_id":"7098ed58-de92-4550-b2de-54bcbe4afbab","system_id":"levelo_inurba_marseille","lat":43.287185,"lon":5.379373,"is_reserved":false,"is_disabled":false,"rental_uris":{"android":"levelo://app?vid=7098ed58-de92-4550-b2de-54bcbe4afbab","ios":"levelo://app?vid=7098ed58-de92-4550-b2de-54bcbe4afbab"},"vehicle_type_id":"4","last_reported":1676932617,"current_range_meters":21200,"station_id":"ce4bh9p2rcd13ifvqec0","pricing_plan_id":"free"},{"bike_id":"10f154f6-7b9f-4089-9467-b5dd466bba84","system_id":"levelo_inurba_marseille","lat":43.287185,"lon":5.379373,"is_reserved":false,"is_disabled":false,"rental_uris":{"android":"levelo://app?vid=10f154f6-7b9f-4089-9467-b5dd466bba84","ios":"levelo://app?vid=10f154f6-7b9f-4089-9467-b5dd466bba84"},"vehicle_type_id":"4","last_reported":1676932617,"current_range_meters":24000,"station_id":"ce4bh9p2rcd13ifvqec0","pricing_plan_id":"free"},{"bike_id":"6ba49cc1-f1cd-47e8-b577-8a530a893cd3","system_id":"levelo_inurba_marseille","lat":43.287153,"lon":5.379372,"is_reserved":false,"is_disabled":false,"rental_uris":{"android":"levelo://app?vid=6ba49cc1-f1cd-47e8-b577-8a530a893cd3","ios":"levelo://app?vid=6ba49cc1-f1cd-47e8-b577-8a530a893cd3"},"vehicle_type_id":"4","last_reported":1676932617,"current_range_meters":0,"station_id":"","pricing_plan_id":"free"},{"bike_id":"b41b6470-70a0-44fc-8922-4a8615aa61eb","system_id":"levelo_inurba_marseille","lat":43.287125,"lon":5.379385,"is_reserved":false,"is_disabled":false,"rental_uris":{"android":"levelo://app?vid=b41b6470-70a0-44fc-8922-4a8615aa61eb","ios":"levelo://app?vid=b41b6470-70a0-44fc-8922-4a8615aa61eb"},"vehicle_type_id":"4","last_reported":1676932617,"current_range_meters":0,"station_id":"ce4bh9p2rcd13ifvqec0","pricing_plan_id":"free"},{"bike_id":"28158c69-6e83-41a2-b890-c6b7b8c59d5c","system_id":"levelo_inurba_marseille","lat":43.316517,"lon":5.404375,"is_reserved":false,"is_disabled":false,"rental_uris":{"android":"levelo://app?vid=28158c69-6e83-41a2-b890-c6b7b8c59d5c","ios":"levelo://app?vid=28158c69-6e83-41a2-b890-c6b7b8c59d5c"},"vehicle_type_id":"4","last_reported":1676932617,"current_range_meters":30000,"station_id":"ce4bh012rcd13ifvqd00","pricing_plan_id":"free"},{"bike_id":"c2d3c2e5-e1b8-4b7b-aee3-de205598cf5f","system_id":"levelo_inurba_marseille","lat":43.31645,"lon":5.40437,"is_reserved":false,"is_disabled":false,"rental_uris":{"android":"levelo://app?vid=c2d3c2e5-e1b8-4b7b-aee3-de205598cf5f","ios":"levelo://app?vid=c2d3c2e5-e1b8-4b7b-aee3-de205598cf5f"},"vehicle_type_id":"4","last_reported":1676932617,"current_range_meters":23200,"station_id":"ce4bh012rcd13ifvqd00","pricing_plan_id":"free"},{"bike_id":"612e0587-4191-48b1-bbec-cecb5f3ccd48","system_id":"levelo_inurba_marseille","lat":43.316414,"lon":5.404379,"is_reserved":false,"is_disabled":false,"rental_uris":{"android":"levelo://app?vid=612e0587-4191-48b1-bbec-cecb5f3ccd48","ios":"levelo://app?vid=612e0587-4191-48b1-bbec-cecb5f3ccd48"},"vehicle_type_id":"4","last_reported":1676932617,"current_range_meters":18400,"station_id":"","pricing_plan_id":"free"},{"bike_id":"3430dee9-a277-497e-8c56-8610e1fdb028","system_id":"levelo_inurba_marseille","lat":43.316517,"lon":5.404375,"is_reserved":false,"is_disabled":false,"rental_uris":{"android":"levelo://app?vid=3430dee9-a277-497e-8c56-8610e1fdb028","ios":"levelo://app?vid=3430dee9-a277-497e-8c56-8610e1fdb028"},"vehicle_type_id":"4","last_reported":1676932617,"current_range_meters":3600,"station_id":"ce4bh012rcd13ifvqd00","pricing_plan_id":"free"},{"bike_id":"a9193429-9004-4ff7-a258-7a996465ec38","system_id":"levelo_inurba_marseille","lat":43.316517,"lon":5.404375,"is_reserved":false,"is_disabled":false,"rental_uris":{"android":"levelo://app?vid=a9193429-9004-4ff7-a258-7a996465ec38","ios":"levelo://app?vid=a9193429-9004-4ff7-a258-7a996465ec38"},"vehicle_type_id":"4","last_reported":1676932617,"current_range_meters":22400,"station_id":"ce4bh012rcd13ifvqd00","pricing_plan_id":"free"},{"bike_id":"a8f36528-ab5f-47cb-aeb9-4ab289aca4e6","system_id":"levelo_inurba_marseille","lat":43.316517,"lon":5.404375,"is_reserved":false,"is_disabled":false,"rental_uris":{"android":"levelo://app?vid=a8f36528-ab5f-47cb-aeb9-4ab289aca4e6","ios":"levelo://app?vid=a8f36528-ab5f-47cb-aeb9-4ab289aca4e6"},"vehicle_type_id":"4","last_reported":1676932617,"current_range_meters":14400,"station_id":"ce4bh012rcd13ifvqd00","pricing_plan_id":"free"},{"bike_id":"dcdc2109-8b23-4856-93d5-458865a8fe02","system_id":"levelo_inurba_marseille","lat":43.3164,"lon":5.40441,"is_reserved":false,"is_disabled":false,"rental_uris":{"android":"levelo://app?vid=dcdc2109-8b23-4856-93d5-458865a8fe02","ios":"levelo://app?vid=dcdc2109-8b23-4856-93d5-458865a8fe02"},"vehicle_type_id":"4","last_reported":1676932617,"current_range_meters":19200,"station_id":"ce4bh012rcd13ifvqd00","pricing_plan_id":"free"},{"bike_id":"cf4bcc7f-437f-44f7-84fa-3f9a8eabbf5d","system_id":"levelo_inurba_marseille","lat":43.316517,"lon":5.404375,"is_reserved":false,"is_disabled":false,"rental_uris":{"android":"levelo://app?vid=cf4bcc7f-437f-44f7-84fa-3f9a8eabbf5d","ios":"levelo://app?vid=cf4bcc7f-437f-44f7-84fa-3f9a8eabbf5d"},"vehicle_type_id":"4","last_reported":1676932617,"current_range_meters":27600,"station_id":"ce4bh012rcd13ifvqd00","pricing_plan_id":"free"},{"bike_id":"2c9ab700-f53a-4660-a1bc-9c0464d8b6a5","system_id":"levelo_inurba_marseille","lat":43.31645,"lon":5.40441,"is_reserved":false,"is_disabled":false,"rental_uris":{"android":"levelo://app?vid=2c9ab700-f53a-4660-a1bc-9c0464d8b6a5","ios":"levelo://app?vid=2c9ab700-f53a-4660-a1bc-9c0464d8b6a5"},"vehicle_type_id":"4","last_reported":1676932617,"current_range_meters":10400,"station_id":"ce4bh012rcd13ifvqd00","pricing_plan_id":"free"},{"bike_id":"3bd888f9-57f3-486a-8c81-1a23e083154d","system_id":"levelo_inurba_marseille","lat":43.316517,"lon":5.404375,"is_reserved":false,"is_disabled":false,"rental_uris":{"android":"levelo://app?vid=3bd888f9-57f3-486a-8c81-1a23e083154d","ios":"levelo://app?vid=3bd888f9-57f3-486a-8c81-1a23e083154d"},"vehicle_type_id":"4","last_reported":1676932617,"current_range_meters":27200,"station_id":"ce4bh012rcd13ifvqd00","pricing_plan_id":"free"},{"bike_id":"b253af5e-2f95-403b-8a1b-f9897ce2ffe5","system_id":"levelo_inurba_marseille","lat":43.316517,"lon":5.404375,"is_reserved":false,"is_disabled":false,"rental_uris":{"android":"levelo://app?vid=b253af5e-2f95-403b-8a1b-f9897ce2ffe5","ios":"levelo://app?vid=b253af5e-2f95-403b-8a1b-f9897ce2ffe5"},"vehicle_type_id":"4","last_reported":1676932617,"current_range_meters":26800,"station_id":"ce4bh012rcd13ifvqd00","pricing_plan_id":"free"},{"bike_id":"5db713fe-8a64-4adf-b891-21857fee4221","system_id":"levelo_inurba_marseille","lat":43.284534,"lon":5.358662,"is_reserved":false,"is_disabled":false,"rental_uris":{"android":"levelo://app?vid=5db713fe-8a64-4adf-b891-21857fee4221","ios":"levelo://app?vid=5db713fe-8a64-4adf-b891-21857fee4221"},"vehicle_type_id":"4","last_reported":1676932617,"current_range_meters":18000,"station_id":"ce4bhah2rcd13ifvqei0","pricing_plan_id":"free"},{"bike_id":"229bc382-e3f4-4dae-a981-0178b90974de","system_id":"levelo_inurba_marseille","lat":43.284534,"lon":5.358662,"is_reserved":false,"is_disabled":false,"rental_uris":{"android":"levelo://app?vid=229bc382-e3f4-4dae-a981-0178b90974de","ios":"levelo://app?vid=229bc382-e3f4-4dae-a981-0178b90974de"},"vehicle_type_id":"4","last_reported":1676932617,"current_range_meters":8000,"station_id":"ce4bhah2rcd13ifvqei0","pricing_plan_id":"free"},{"bike_id":"a8e6966c-93e5-4cb9-96a4-135c60dac56b","system_id":"levelo_inurba_marseille","lat":43.284534,"lon":5.358662,"is_reserved":false,"is_disabled":false,"rental_uris":{"android":"levelo://app?vid=a8e6966c-93e5-4cb9-96a4-135c60dac56b","ios":"levelo://app?vid=a8e6966c-93e5-4cb9-96a4-135c60dac56b"},"vehicle_type_id":"4","last_reported":1676932617,"current_range_meters":2800,"station_id":"ce4bhah2rcd13ifvqei0","pricing_plan_id":"free"},{"bike_id":"4de0e4f8-0a98-4876-8b88-0f0701f91fae","system_id":"levelo_inurba_marseille","lat":43.284534,"lon":5.358662,"is_reserved":false,"is_disabled":false,"rental_uris":{"android":"levelo://app?vid=4de0e4f8-0a98-4876-8b88-0f0701f91fae","ios":"levelo://app?vid=4de0e4f8-0a98-4876-8b88-0f0701f91fae"},"vehicle_type_id":"4","last_reported":1676932617,"current_range_meters":26800,"station_id":"ce4bhah2rcd13ifvqei0","pricing_plan_id":"free"},{"bike_id":"abcbecbb-b762-4988-86f0-1479137f2ffc","system_id":"levelo_inurba_marseille","lat":43.284534,"lon":5.358662,"is_reserved":false,"is_disabled":false,"rental_uris":{"android":"levelo://app?vid=abcbecbb-b762-4988-86f0-1479137f2ffc","ios":"levelo://app?vid=abcbecbb-b762-4988-86f0-1479137f2ffc"},"vehicle_type_id":"4","last_reported":1676932617,"current_range_meters":16000,"station_id":"ce4bhah2rcd13ifvqei0","pricing_plan_id":"free"},{"bike_id":"dc6ca787-54e2-42bc-9aa4-7c15aabed629","system_id":"levelo_inurba_marseille","lat":43.284534,"lon":5.358662,"is_reserved":false,"is_disabled":false,"rental_uris":{"android":"levelo://app?vid=dc6ca787-54e2-42bc-9aa4-7c15aabed629","ios":"levelo://app?vid=dc6ca787-54e2-42bc-9aa4-7c15aabed629"},"vehicle_type_id":"4","last_reported":1676932617,"current_range_meters":0,"station_id":"ce4bhah2rcd13ifvqei0","pricing_plan_id":"free"},{"bike_id":"a54477e7-837f-4d93-845e-2a5adb39f2e1","system_id":"levelo_inurba_marseille","lat":43.284534,"lon":5.358662,"is_reserved":false,"is_disabled":false,"rental_uris":{"android":"levelo://app?vid=a54477e7-837f-4d93-845e-2a5adb39f2e1","ios":"levelo://app?vid=a54477e7-837f-4d93-845e-2a5adb39f2e1"},"vehicle_type_id":"4","last_reported":1676932617,"current_range_meters":18000,"station_id":"ce4bhah2rcd13ifvqei0","pricing_plan_id":"free"},{"bike_id":"97b5a58b-ec12-497d-8628-e444d236278c","system_id":"levelo_inurba_marseille","lat":43.28461,"lon":5.35881,"is_reserved":false,"is_disabled":false,"rental_uris":{"android":"levelo://app?vid=97b5a58b-ec12-497d-8628-e444d236278c","ios":"levelo://app?vid=97b5a58b-ec12-497d-8628-e444d236278c"},"vehicle_type_id":"4","last_reported":1676932617,"current_range_meters":13200,"station_id":"ce4bhah2rcd13ifvqei0","pricing_plan_id":"free"},{"bike_id":"c545f275-b00b-445a-ab37-8084571e584f","system_id":"levelo_inurba_marseille","lat":43.284582,"lon":5.358986,"is_reserved":false,"is_disabled":false,"rental_uris":{"android":"levelo://app?vid=c545f275-b00b-445a-ab37-8084571e584f","ios":"levelo://app?vid=c545f275-b00b-445a-ab37-8084571e584f"},"vehicle_type_id":"4","last_reported":1676932617,"current_range_meters":0,"station_id":"","pricing_plan_id":"free"},{"bike_id":"7bcaaef7-05a7-40df-91b1-9b3caa8c1a29","system_id":"levelo_inurba_marseille","lat":43.284534,"lon":5.358662,"is_reserved":false,"is_disabled":false,"rental_uris":{"android":"levelo://app?vid=7bcaaef7-05a7-40df-91b1-9b3caa8c1a29","ios":"levelo://app?vid=7bcaaef7-05a7-40df-91b1-9b3caa8c1a29"},"vehicle_type_id":"4","last_reported":1676932617,"current_range_meters":18800,"station_id":"ce4bhah2rcd13ifvqei0","pricing_plan_id":"free"},{"bike_id":"af56310b-5fec-44c6-9e13-8135e99da67c","system_id":"levelo_inurba_marseille","lat":43.284534,"lon":5.358662,"is_reserved":false,"is_disabled":false,"rental_uris":{"android":"levelo://app?vid=af56310b-5fec-44c6-9e13-8135e99da67c","ios":"levelo://app?vid=af56310b-5fec-44c6-9e13-8135e99da67c"},"vehicle_type_id":"4","last_reported":1676932617,"current_range_meters":15200,"station_id":"ce4bhah2rcd13ifvqei0","pricing_plan_id":"free"},{"bike_id":"99446bbd-1330-4fda-a7c0-4d65a35b5829","system_id":"levelo_inurba_marseille","lat":43.284534,"lon":5.358662,"is_reserved":false,"is_disabled":false,"rental_uris":{"android":"levelo://app?vid=99446bbd-1330-4fda-a7c0-4d65a35b5829","ios":"levelo://app?vid=99446bbd-1330-4fda-a7c0-4d65a35b5829"},"vehicle_type_id":"4","last_reported":1676932617,"current_range_meters":18400,"station_id":"ce4bhah2rcd13ifvqei0","pricing_plan_id":"free"},{"bike_id":"24af8c49-6907-4bcc-8a51-90891ca23e96","system_id":"levelo_inurba_marseille","lat":43.284534,"lon":5.358662,"is_reserved":false,"is_disabled":false,"rental_uris":{"android":"levelo://app?vid=24af8c49-6907-4bcc-8a51-90891ca23e96","ios":"levelo://app?vid=24af8c49-6907-4bcc-8a51-90891ca23e96"},"vehicle_type_id":"4","last_reported":1676932617,"current_range_meters":12400,"station_id":"ce4bhah2rcd13ifvqei0","pricing_plan_id":"free"},{"bike_id":"6500bd6f-95d9-48f8-8b84-130f7c7dc028","system_id":"levelo_inurba_marseille","lat":43.295713,"lon":5.399639,"is_reserved":false,"is_disabled":false,"rental_uris":{"android":"levelo://app?vid=6500bd6f-95d9-48f8-8b84-130f7c7dc028","ios":"levelo://app?vid=6500bd6f-95d9-48f8-8b84-130f7c7dc028"},"vehicle_type_id":"4","last_reported":1676932617,"current_range_meters":28400,"station_id":"ce4bh312rcd13ifvqdj0","pricing_plan_id":"free"},{"bike_id":"66fec806-078a-499d-ab5e-6101ac925bbd","system_id":"levelo_inurba_marseille","lat":43.29575,"lon":5.39982,"is_reserved":false,"is_disabled":false,"rental_uris":{"android":"levelo://app?vid=66fec806-078a-499d-ab5e-6101ac925bbd","ios":"levelo://app?vid=66fec806-078a-499d-ab5e-6101ac925bbd"},"vehicle_type_id":"4","last_reported":1676932617,"current_range_meters":5600,"station_id":"ce4bh312rcd13ifvqdj0","pricing_plan_id":"free"},{"bike_id":"45193954-c3be-4773-b748-8bef01576379","system_id":"levelo_inurba_marseille","lat":43.295713,"lon":5.399639,"is_reserved":false,"is_disabled":false,"rental_uris":{"android":"levelo://app?vid=45193954-c3be-4773-b748-8bef01576379","ios":"levelo://app?vid=45193954-c3be-4773-b748-8bef01576379"},"vehicle_type_id":"4","last_reported":1676932617,"current_range_meters":24000,"station_id":"ce4bh312rcd13ifvqdj0","pricing_plan_id":"free"},{"bike_id":"73297c87-b7fe-469a-8844-ea7b76731316","system_id":"levelo_inurba_marseille","lat":43.296248,"lon":5.400348,"is_reserved":false,"is_disabled":false,"rental_uris":{"android":"levelo://app?vid=73297c87-b7fe-469a-8844-ea7b76731316","ios":"levelo://app?vid=73297c87-b7fe-469a-8844-ea7b76731316"},"vehicle_type_id":"4","last_reported":1676932617,"current_range_meters":0,"station_id":"","pricing_plan_id":"free"},{"bike_id":"33860af0-5cb4-4fe4-9b58-543ab77e6e35","system_id":"levelo_inurba_marseille","lat":43.28688,"lon":5.38641,"is_reserved":false,"is_disabled":false,"rental_uris":{"android":"levelo://app?vid=33860af0-5cb4-4fe4-9b58-543ab77e6e35","ios":"levelo://app?vid=33860af0-5cb4-4fe4-9b58-543ab77e6e35"},"vehicle_type_id":"4","last_reported":1676932617,"current_range_meters":21600,"station_id":"","pricing_plan_id":"free"},{"bike_id":"466237a7-66a4-4a97-9c7e-d0ce0c8c2883","system_id":"levelo_inurba_marseille","lat":43.28685,"lon":5.38655,"is_reserved":false,"is_disabled":false,"rental_uris":{"android":"levelo://app?vid=466237a7-66a4-4a97-9c7e-d0ce0c8c2883","ios":"levelo://app?vid=466237a7-66a4-4a97-9c7e-d0ce0c8c2883"},"vehicle_type_id":"4","last_reported":1676932617,"current_range_meters":27600,"station_id":"","pricing_plan_id":"free"},{"bike_id":"0b10d921-a3ce-4fd3-944b-ca8b9510afc4","system_id":"levelo_inurba_marseille","lat":43.28685,"lon":5.386585,"is_reserved":false,"is_disabled":false,"rental_uris":{"android":"levelo://app?vid=0b10d921-a3ce-4fd3-944b-ca8b9510afc4","ios":"levelo://app?vid=0b10d921-a3ce-4fd3-944b-ca8b9510afc4"},"vehicle_type_id":"4","last_reported":1676932617,"current_range_meters":27200,"station_id":"","pricing_plan_id":"free"},{"bike_id":"7f05bf01-9d25-438d-9ac8-cf6f4b581712","system_id":"levelo_inurba_marseille","lat":43.28686,"lon":5.386646,"is_reserved":false,"is_disabled":false,"rental_uris":{"android":"levelo://app?vid=7f05bf01-9d25-438d-9ac8-cf6f4b581712","ios":"levelo://app?vid=7f05bf01-9d25-438d-9ac8-cf6f4b581712"},"vehicle_type_id":"4","last_reported":1676932617,"current_range_meters":26000,"station_id":"","pricing_plan_id":"free"},{"bike_id":"b39d1f94-2a60-4c4e-95a1-c41cb2466249","system_id":"levelo_inurba_marseille","lat":43.2868,"lon":5.386577,"is_reserved":false,"is_disabled":false,"rental_uris":{"android":"levelo://app?vid=b39d1f94-2a60-4c4e-95a1-c41cb2466249","ios":"levelo://app?vid=b39d1f94-2a60-4c4e-95a1-c41cb2466249"},"vehicle_type_id":"4","last_reported":1676932617,"current_range_meters":2000,"station_id":"","pricing_plan_id":"free"},{"bike_id":"24d197c3-b6dc-4851-999a-bb7e283608b2","system_id":"levelo_inurba_marseille","lat":43.286595,"lon":5.386795,"is_reserved":false,"is_disabled":false,"rental_uris":{"android":"levelo://app?vid=24d197c3-b6dc-4851-999a-bb7e283608b2","ios":"levelo://app?vid=24d197c3-b6dc-4851-999a-bb7e283608b2"},"vehicle_type_id":"4","last_reported":1676932617,"current_range_meters":12800,"station_id":"ce4bh492rcd13ifvqdug","pricing_plan_id":"free"},{"bike_id":"e7cb7af6-e8a9-47b3-bddd-e287e3e3dfce","system_id":"levelo_inurba_marseille","lat":43.286595,"lon":5.386795,"is_reserved":false,"is_disabled":false,"rental_uris":{"android":"levelo://app?vid=e7cb7af6-e8a9-47b3-bddd-e287e3e3dfce","ios":"levelo://app?vid=e7cb7af6-e8a9-47b3-bddd-e287e3e3dfce"},"vehicle_type_id":"4","last_reported":1676932617,"current_range_meters":23600,"station_id":"ce4bh492rcd13ifvqdug","pricing_plan_id":"free"},{"bike_id":"58954c53-6f67-4d06-bdc0-7fe6e60779a0","system_id":"levelo_inurba_marseille","lat":43.286762,"lon":5.386626,"is_reserved":false,"is_disabled":false,"rental_uris":{"android":"levelo://app?vid=58954c53-6f67-4d06-bdc0-7fe6e60779a0","ios":"levelo://app?vid=58954c53-6f67-4d06-bdc0-7fe6e60779a0"},"vehicle_type_id":"4","last_reported":1676932617,"current_range_meters":22400,"station_id":"","pricing_plan_id":"free"},{"bike_id":"01ac8ed5-b1d8-4e1d-a2d5-63a1823b73aa","system_id":"levelo_inurba_marseille","lat":43.286787,"lon":5.386692,"is_reserved":false,"is_disabled":false,"rental_uris":{"android":"levelo://app?vid=01ac8ed5-b1d8-4e1d-a2d5-63a1823b73aa","ios":"levelo://app?vid=01ac8ed5-b1d8-4e1d-a2d5-63a1823b73aa"},"vehicle_type_id":"4","last_reported":1676932617,"current_range_meters":20000,"station_id":"ce4bh492rcd13ifvqdug","pricing_plan_id":"free"},{"bike_id":"41079c71-3722-4f06-8740-fba93368a5e6","system_id":"levelo_inurba_marseille","lat":43.28678,"lon":5.38672,"is_reserved":false,"is_disabled":false,"rental_uris":{"android":"levelo://app?vid=41079c71-3722-4f06-8740-fba93368a5e6","ios":"levelo://app?vid=41079c71-3722-4f06-8740-fba93368a5e6"},"vehicle_type_id":"4","last_reported":1676932617,"current_range_meters":2400,"station_id":"ce4bh492rcd13ifvqdug","pricing_plan_id":"free"},{"bike_id":"3856382d-62d5-4744-b955-9fe7f7c9f929","system_id":"levelo_inurba_marseille","lat":43.28674,"lon":5.38672,"is_reserved":false,"is_disabled":false,"rental_uris":{"android":"levelo://app?vid=3856382d-62d5-4744-b955-9fe7f7c9f929","ios":"levelo://app?vid=3856382d-62d5-4744-b955-9fe7f7c9f929"},"vehicle_type_id":"4","last_reported":1676932617,"current_range_meters":21200,"station_id":"ce4bh492rcd13ifvqdug","pricing_plan_id":"free"},{"bike_id":"035c051b-0a17-45fd-ba6a-c5dc1e86e9c0","system_id":"levelo_inurba_marseille","lat":43.28675,"lon":5.38675,"is_reserved":false,"is_disabled":false,"rental_uris":{"android":"levelo://app?vid=035c051b-0a17-45fd-ba6a-c5dc1e86e9c0","ios":"levelo://app?vid=035c051b-0a17-45fd-ba6a-c5dc1e86e9c0"},"vehicle_type_id":"4","last_reported":1676932617,"current_range_meters":7200,"station_id":"","pricing_plan_id":"free"},