{"last_updated":1756336171,"ttl":60,"version":"2.2","data":{"bikes":[{"bike_id":"299e038d-8222-4a82-9499-75c9ebc0e9c2","system_id":"levelo_inurba_marseille","lat":43.29038,"lon":5.38139,"is_reserved":false,"is_disabled":false,"rental_uris":{"android":"levelo://app?vid=299e038d-8222-4a82-9499-75c9ebc0e9c2","ios":"levelo://app?vid=299e038d-8222-4a82-9499-75c9ebc0e9c2"},"vehicle_type_id":"4","last_reported":1756336171,"current_range_meters":2800,"station_id":"ce4bh4p2rcd13ifvqe1g","pricing_plan_id":"cebpf4jnsgd1na2vs0mg"},{"bike_id":"744db9db-88cd-4c7b-b8bb-432d78b3aaab","system_id":"levelo_inurba_marseille","lat":43.29529,"lon":5.38547,"is_reserved":false,"is_disabled":false,"rental_uris":{"android":"levelo://app?vid=744db9db-88cd-4c7b-b8bb-432d78b3aaab","ios":"levelo://app?vid=744db9db-88cd-4c7b-b8bb-432d78b3aaab"},"vehicle_type_id":"4","last_reported":1756336171,"current_range_meters":2800,"station_id":"ce4bgih2rcd13ifvqba0","pricing_plan_id":"cebpf4jnsgd1na2vs0mg"},{"bike_id":"6720535e-3c5b-49b5-98fe-d506937d59a1","system_id":"levelo_inurba_marseille","lat":43.32,"lon":5.38167,"is_reserved":false,"is_disabled":false,"rental_uris":{"android":"levelo://app?vid=6720535e-3c5b-49b5-98fe-d506937d59a1","ios":"levelo://app?vid=6720535e-3c5b-49b5-98fe-d506937d59a1"},"vehicle_type_id":"4","last_reported":1756336171,"current_range_meters":2800,"station_id":"ce4bhr12rcd13ifvqhpg","pricing_plan_id":"cebpf4jnsgd1na2vs0mg"},{"bike_id":"92911782-3023-4e5d-ad4a-0723850ad8c1","system_id":"levelo_inurba_marseille","lat":43.29284,"lon":5.40124,"is_reserved":false,"is_disabled":false,"rental_uris":{"android":"levelo://app?vid=92911782-3023-4e5d-ad4a-0723850ad8c1","ios":"levelo://app?vid=92911782-3023-4e5d-ad4a-0723850ad8c1"},"vehicle_type_id":"4","last_reported":1756336171,"current_range_meters":2800,"station_id":"ce4bh312rcd13ifvqdk0","pricing_plan_id":"cebpf4jnsgd1na2vs0mg"},{"bike_id":"919403d1-9d41-4322-8f42-253c1dba9d3b","system_id":"levelo_inurba_marseille","lat":43.21761,"lon":5.34612,"is_reserved":false,"is_disabled":false,"rental_uris":{"android":"levelo://app?vid=919403d1-9d41-4322-8f42-253c1dba9d3b","ios":"levelo://app?vid=919403d1-9d41-4322-8f42-253c1dba9d3b"},"vehicle_type_id":"4","last_reported":1756336171,"current_range_meters":3200,"station_id":"st_cvj6r9ubvosntc0bgbag","pricing_plan_id":"cebpf4jnsgd1na2vs0mg"},{"bike_id":"c8c64e70-fd24-47a9-a5f3-9c4412b6e49e","system_id":"levelo_inurba_marseille","lat":43.29057,"lon":5.37155,"is_reserved":false,"is_disabled":false,"rental_uris":{"android":"levelo://app?vid=c8c64e70-fd24-47a9-a5f3-9c4412b6e49e","ios":"levelo://app?vid=c8c64e70-fd24-47a9-a5f3-9c4412b6e49e"},"vehicle_type_id":"4","last_reported":1756336171,"current_range_meters":3200,"station_id":"ce4bh5p2rcd13ifvqe4g","pricing_plan_id":"cebpf4jnsgd1na2vs0mg"},{"bike_id":"e6d2571a-6c5c-44d1-9ca1-e7687bbc9598","system_id":"levelo_inurba_marseille","lat":43.3094,"lon":5.40142,"is_reserved":false,"is_disabled":false,"rental_uris":{"android":"levelo://app?vid=e6d2571a-6c5c-44d1-9ca1-e7687bbc9598","ios":"levelo://app?vid=e6d2571a-6c5c-44d1-9ca1-e7687bbc9598"},"vehicle_type_id":"4","last_reported":1756336171,"current_range_meters":3200,"station_id":"ce4bgvp2rcd13ifvqct0","pricing_plan_id":"cebpf4jnsgd1na2vs0mg"},{"bike_id":"7c494aa6-5cbe-490f-b90f-6193ab62c745","system_id":"levelo_inurba_marseille","lat":43.21186,"lon":5.350762,"is_reserved":false,"is_disabled":false,"rental_uris":{"android":"levelo://app?vid=7c494aa6-5cbe-490f-b90f-6193ab62c745","ios":"levelo://app?vid=7c494aa6-5cbe-490f-b90f-6193ab62c745"},"vehicle_type_id":"4","last_reported":1756336171,"current_range_meters":3200,"station_id":"st_cvj6sg6p6f1abm77japg","pricing_plan_id":"cebpf4jnsgd1na2vs0mg"},{"bike_id":"e5b2dac1-acfa-43b3-b039-fd69e91380de","system_id":"levelo_inurba_marseille","lat":43.32352,"lon":5.3672,"is_reserved":false,"is_disabled":false,"rental_uris":{"android":"levelo://app?vid=e5b2dac1-acfa-43b3-b039-fd69e91380de","ios":"levelo://app?vid=e5b2dac1-acfa-43b3-b039-fd69e91380de"},"vehicle_type_id":"4","last_reported":1756336171,"current_range_meters":3600,"station_id":"ce4bhsh2rcd13ifvqi2g","pricing_plan_id":"cebpf4jnsgd1na2vs0mg"},{"bike_id":"aa166d9f-b410-438b-858e-4ae0c7c3502d","system_id":"levelo_inurba_marseille","lat":43.28486,"lon":5.38447,"is_reserved":false,"is_disabled":false,"rental_uris":{"android":"levelo://app?vid=aa166d9f-b410-438b-858e-4ae0c7c3502d","ios":"levelo://app?vid=aa166d9f-b410-438b-858e-4ae0c7c3502d"},"vehicle_type_id":"4","last_reported":1756336171,"current_range_meters":3600,"station_id":"ce4bh512rcd13ifvqe3g","pricing_plan_id":"cebpf4jnsgd1na2vs0mg"},{"bike_id":"96186cc8-0561-4ae2-81ab-d0abdc6ef2d0","system_id":"levelo_inurba_marseille","lat":43.27042,"lon":5.37924,"is_reserved":false,"is_disabled":false,"rental_uris":{"android":"levelo://app?vid=96186cc8-0561-4ae2-81ab-d0abdc6ef2d0","ios":"levelo://app?vid=96186cc8-0561-4ae2-81ab-d0abdc6ef2d0"},"vehicle_type_id":"4","last_reported":1756336171,"current_range_meters":3600,"station_id":"","pricing_plan_id":"cebpf4jnsgd1na2vs0mg"},{"bike_id":"30a06b2b-be34-47a5-ab07-39f99c3dd9cc","system_id":"levelo_inurba_marseille","lat":43.30128,"lon":5.39848,"is_reserved":false,"is_disabled":false,"rental_uris":{"android":"levelo://app?vid=30a06b2b-be34-47a5-ab07-39f99c3dd9cc","ios":"levelo://app?vid=30a06b2b-be34-47a5-ab07-39f99c3dd9cc"},"vehicle_type_id":"4","last_reported":1756336171,"current_range_meters":3600,"station_id":"ce4bh0h2rcd13ifvqd40","pricing_plan_id":"cebpf4jnsgd1na2vs0mg"},{"bike_id":"64a8107d-9c63-448f-8903-c9408834ace9","system_id":"levelo_inurba_marseille","lat":43.29044,"lon":5.38126,"is_reserved":false,"is_disabled":false,"rental_uris":{"android":"levelo://app?vid=64a8107d-9c63-448f-8903-c9408834ace9","ios":"levelo://app?vid=64a8107d-9c63-448f-8903-c9408834ace9"},"vehicle_type_id":"4","last_reported":1756336171,"current_range_meters":3600,"station_id":"ce4bh4p2rcd13ifvqe1g","pricing_plan_id":"cebpf4jnsgd1na2vs0mg"},{"bike_id":"4443210f-2c47-46a7-abe2-4d58584ce7a3","system_id":"levelo_inurba_marseille","lat":43.23963,"lon":5.36627,"is_reserved":false,"is_disabled":false,"rental_uris":{"android":"levelo://app?vid=4443210f-2c47-46a7-abe2-4d58584ce7a3","ios":"levelo://app?vid=4443210f-2c47-46a7-abe2-4d58584ce7a3"},"vehicle_type_id":"4","last_reported":1756336171,"current_range_meters":4000,"station_id":"ce4bhi12rcd13ifvqfp0","pricing_plan_id":"cebpf4jnsgd1na2vs0mg"},{"bike_id":"e2e8b6d8-0d11-4251-b616-173776f7e5d5","system_id":"levelo_inurba_marseille","lat":43.32382,"lon":5.36748,"is_reserved":false,"is_disabled":false,"rental_uris":{"android":"levelo://app?vid=e2e8b6d8-0d11-4251-b616-173776f7e5d5","ios":"levelo://app?vid=e2e8b6d8-0d11-4251-b616-173776f7e5d5"},"vehicle_type_id":"4","last_reported":1756336171,"current_range_meters":4400,"station_id":"ce4bhsh2rcd13ifvqi2g","pricing_plan_id":"cebpf4jnsgd1na2vs0mg"},{"bike_id":"90a5b318-96d7-4050-a86a-74d1edb8c2ad","system_id":"levelo_inurba_marseille","lat":43.31994,"lon":5.38134,"is_reserved":false,"is_disabled":false,"rental_uris":{"android":"levelo://app?vid=90a5b318-96d7-4050-a86a-74d1edb8c2ad","ios":"levelo://app?vid=90a5b318-96d7-4050-a86a-74d1edb8c2ad"},"vehicle_type_id":"4","last_reported":1756336171,"current_range_meters":4400,"station_id":"ce4bhr12rcd13ifvqhpg","pricing_plan_id":"cebpf4jnsgd1na2vs0mg"},{"bike_id":"70698924-f07a-4421-af4c-f1094e75e7d4","system_id":"levelo_inurba_marseille","lat":43.211938,"lon":5.350706,"is_reserved":false,"is_disabled":false,"rental_uris":{"android":"levelo://app?vid=70698924-f07a-4421-af4c-f1094e75e7d4","ios":"levelo://app?vid=70698924-f07a-4421-af4c-f1094e75e7d4"},"vehicle_type_id":"4","last_reported":1756336171,"current_range_meters":4400,"station_id":"st_cvj6sg6p6f1abm77japg","pricing_plan_id":"cebpf4jnsgd1na2vs0mg"},{"bike_id":"b4355a8b-6620-41c5-aaa4-2b969fb59e8f","system_id":"levelo_inurba_marseille","lat":43.2668,"lon":5.38195,"is_reserved":false,"is_disabled":true,"rental_uris":{"android":"levelo://app?vid=b4355a8b-6620-41c5-aaa4-2b969fb59e8f","ios":"levelo://app?vid=b4355a8b-6620-41c5-aaa4-2b969fb59e8f"},"vehicle_type_id":"4","last_reported":1756336171,"current_range_meters":4800,"station_id":"","pricing_plan_id":"cebpf4jnsgd1na2vs0mg"},{"bike_id":"eeb42e78-373a-42a8-ad92-d1dc5831d4c3","system_id":"levelo_inurba_marseille","lat":43.24766,"lon":5.37518,"is_reserved":false,"is_disabled":true,"rental_uris":{"android":"levelo://app?vid=eeb42e78-373a-42a8-ad92-d1dc5831d4c3","ios":"levelo://app?vid=eeb42e78-373a-42a8-ad92-d1dc5831d4c3"},"vehicle_type_id":"4","last_reported":1756336171,"current_range_meters":5600,"station_id":"","pricing_plan_id":"cebpf4jnsgd1na2vs0mg"},{"bike_id":"a098d0ad-f11a-41c8-aa13-c4b4891c030a","system_id":"levelo_inurba_marseille","lat":43.28153,"lon":5.42644,"is_reserved":false,"is_disabled":false,"rental_uris":{"android":"levelo://app?vid=a098d0ad-f11a-41c8-aa13-c4b4891c030a","ios":"levelo://app?vid=a098d0ad-f11a-41c8-aa13-c4b4891c030a"},"vehicle_type_id":"4","last_reported":1756336171,"current_range_meters":5600,"station_id":"ce4bhnh2rcd13ifvqgug","pricing_plan_id":"cebpf4jnsgd1na2vs0mg"},{"bike_id":"2732b203-8d34-41ae-80bd-b4f151d77aad","system_id":"levelo_inurba_marseille","lat":43.30254,"lon":5.40558,"is_reserved":false,"is_disabled":false,"rental_uris":{"android":"levelo://app?vid=2732b203-8d34-41ae-80bd-b4f151d77aad","ios":"levelo://app?vid=2732b203-8d34-41ae-80bd-b4f151d77aad"},"vehicle_type_id":"4","last_reported":1756336171,"current_range_meters":5600,"station_id":"","pricing_plan_id":"cebpf4jnsgd1na2vs0mg"},{"bike_id":"0d502687-08ef-4491-8893-8a03d8688be8","system_id":"levelo_inurba_marseille","lat":43.29574,"lon":5.36144,"is_reserved":false,"is_disabled":false,"rental_uris":{"android":"levelo://app?vid=0d502687-08ef-4491-8893-8a03d8688be8","ios":"levelo://app?vid=0d502687-08ef-4491-8893-8a03d8688be8"},"vehicle_type_id":"4","last_reported":1756336171,"current_range_meters":6000,"station_id":"","pricing_plan_id":"cebpf4jnsgd1na2vs0mg"},{"bike_id":"69b4ff08-bcc7-439d-919d-ecacd6d9051a","system_id":"levelo_inurba_marseille","lat":43.28397,"lon":5.45595,"is_reserved":false,"is_disabled":false,"rental_uris":{"android":"levelo://app?vid=69b4ff08-bcc7-439d-919d-ecacd6d9051a","ios":"levelo://app?vid=69b4ff08-bcc7-439d-919d-ecacd6d9051a"},"vehicle_type_id":"4","last_reported":1756336171,"current_range_meters":18800,"station_id":"","pricing_plan_id":"cebpf4jnsgd1na2vs0mg"},{"bike_id":"ff202b66-e4c7-412a-a886-fea6a2f01062","system_id":"levelo_inurba_marseille","lat":43.28618,"lon":5.351,"is_reserved":false,"is_disabled":false,"rental_uris":{"android":"levelo://app?vid=ff202b66-e4c7-412a-a886-fea6a2f01062","ios":"levelo://app?vid=ff202b66-e4c7-412a-a886-fea6a2f01062"},"vehicle_type_id":"4","last_reported":1756336171,"current_range_meters":6400,"station_id":"ce4bhch2rcd13ifvqeug","pricing_plan_id":"cebpf4jnsgd1na2vs0mg"},{"bike_id":"19c77996-aa2c-4de1-9594-61ca7c265d23","system_id":"levelo_inurba_marseille","lat":43.2466,"lon":5.38172,"is_reserved":false,"is_disabled":false,"rental_uris":{"android":"levelo://app?vid=19c77996-aa2c-4de1-9594-61ca7c265d23","ios":"levelo://app?vid=19c77996-aa2c-4de1-9594-61ca7c265d23"},"vehicle_type_id":"4","last_reported":1756336171,"current_range_meters":6400,"station_id":"ce4bhih2rcd13ifvqfr0","pricing_plan_id":"cebpf4jnsgd1na2vs0mg"},{"bike_id":"07a20f3a-56e5-4ad8-9408-6e989d6fc4b4","system_id":"levelo_inurba_marseille","lat":43.28443,"lon":5.39166,"is_reserved":false,"is_disabled":false,"rental_uris":{"android":"levelo://app?vid=07a20f3a-56e5-4ad8-9408-6e989d6fc4b4","ios":"levelo://app?vid=07a20f3a-56e5-4ad8-9408-6e989d6fc4b4"},"vehicle_type_id":"4","last_reported":1756336171,"current_range_meters":6800,"station_id":"ce4bhoh2rcd13ifvqh5g","pricing_plan_id":"cebpf4jnsgd1na2vs0mg"},{"bike_id":"d0929797-eccc-45d1-a5f1-aea03c095a59","system_id":"levelo_inurba_marseille","lat":43.28051,"lon":5.41668,"is_reserved":false,"is_disabled":true,"rental_uris":{"android":"levelo://app?vid=d0929797-eccc-45d1-a5f1-aea03c095a59","ios":"levelo://app?vid=d0929797-eccc-45d1-a5f1-aea03c095a59"},"vehicle_type_id":"4","last_reported":1756336171,"current_range_meters":6800,"station_id":"","pricing_plan_id":"cebpf4jnsgd1na2vs0mg"},{"bike_id":"239c3a58-272b-4f2f-886f-e847e601674d","system_id":"levelo_inurba_marseille","lat":43.30419,"lon":5.39751,"is_reserved":false,"is_disabled":false,"rental_uris":{"android":"levelo://app?vid=239c3a58-272b-4f2f-886f-e847e601674d","ios":"levelo://app?vid=239c3a58-272b-4f2f-886f-e847e601674d"},"vehicle_type_id":"4","last_reported":1756336171,"current_range_meters":7200,"station_id":"ce4bh092rcd13ifvqd20","pricing_plan_id":"cebpf4jnsgd1na2vs0mg"},{"bike_id":"19453317-7841-4e65-89da-f7108166fcfe","system_id":"levelo_inurba_marseille","lat":43.29308,"lon":5.40183,"is_reserved":false,"is_disabled":false,"rental_uris":{"android":"levelo://app?vid=19453317-7841-4e65-89da-f7108166fcfe","ios":"levelo://app?vid=19453317-7841-4e65-89da-f7108166fcfe"},"vehicle_type_id":"4","last_reported":1756336171,"current_range_meters":7200,"station_id":"","pricing_plan_id":"cebpf4jnsgd1na2vs0mg"},{"bike_id":"e1cc485f-c6f0-41fe-b8d8-b5e94a231de5","system_id":"levelo_inurba_marseille","lat":43.30775,"lon":5.37708,"is_reserved":false,"is_disabled":false,"rental_uris":{"android":"levelo://app?vid=e1cc485f-c6f0-41fe-b8d8-b5e94a231de5","ios":"levelo://app?vid=e1cc485f-c6f0-41fe-b8d8-b5e94a231de5"},"vehicle_type_id":"4","last_reported":1756336171,"current_range_meters":7200,"station_id":"","pricing_plan_id":"cebpf4jnsgd1na2vs0mg"},{"bike_id":"17cb2fe0-534a-4cc2-9379-c36300902e12","system_id":"levelo_inurba_marseille","lat":43.29043,"lon":5.39981,"is_reserved":false,"is_disabled":false,"rental_uris":{"android":"levelo://app?vid=17cb2fe0-534a-4cc2-9379-c36300902e12","ios":"levelo://app?vid=17cb2fe0-534a-4cc2-9379-c36300902e12"},"vehicle_type_id":"4","last_reported":1756336171,"current_range_meters":7200,"station_id":"ce4bh392rcd13ifvqdm0","pricing_plan_id":"cebpf4jnsgd1na2vs0mg"},{"bike_id":"51842e17-ef10-4624-a23e-c8a182427991","system_id":"levelo_inurba_marseille","lat":43.3165,"lon":5.38173,"is_reserved":false,"is_disabled":false,"rental_uris":{"android":"levelo://app?vid=51842e17-ef10-4624-a23e-c8a182427991","ios":"levelo://app?vid=51842e17-ef10-4624-a23e-c8a182427991"},"vehicle_type_id":"4","last_reported":1756336171,"current_range_meters":7200,"station_id":"","pricing_plan_id":"cebpf4jnsgd1na2vs0mg"},{"bike_id":"69a01144-4cb0-4f43-b8a7-d8bba1210d75","system_id":"levelo_inurba_marseille","lat":43.315895,"lon":5.374493,"is_reserved":false,"is_disabled":false,"rental_uris":{"android":"levelo://app?vid=69a01144-4cb0-4f43-b8a7-d8bba1210d75","ios":"levelo://app?vid=69a01144-4cb0-4f43-b8a7-d8bba1210d75"},"vehicle_type_id":"4","last_reported":1756336171,"current_range_meters":7200,"station_id":"","pricing_plan_id":"cebpf4jnsgd1na2vs0mg"},{"bike_id":"49f60e81-aa7a-4e46-bbc1-fc06ed848e16","system_id":"levelo_inurba_marseille","lat":43.30614,"lon":5.39343,"is_reserved":false,"is_disabled":false,"rental_uris":{"android":"levelo://app?vid=49f60e81-aa7a-4e46-bbc1-fc06ed848e16","ios":"levelo://app?vid=49f60e81-aa7a-4e46-bbc1-fc06ed848e16"},"vehicle_type_id":"4","last_reported":1756336171,"current_range_meters":7200,"station_id":"ce4bh0p2rcd13ifvqd80","pricing_plan_id":"cebpf4jnsgd1na2vs0mg"},{"bike_id":"bd9a734c-0498-4639-a49e-8c272d88d418","system_id":"levelo_inurba_marseille","lat":43.28849,"lon":5.39316,"is_reserved":false,"is_disabled":false,"rental_uris":{"android":"levelo://app?vid=bd9a734c-0498-4639-a49e-8c272d88d418","ios":"levelo://app?vid=bd9a734c-0498-4639-a49e-8c272d88d418"},"vehicle_type_id":"4","last_reported":1756336171,"current_range_meters":7200,"station_id":"ce4bh2p2rcd13ifvqdi0","pricing_plan_id":"cebpf4jnsgd1na2vs0mg"},{"bike_id":"24df2c59-c2ae-4cf6-8d73-b821e9ca9612","system_id":"levelo_inurba_marseille","lat":43.28008,"lon":5.39969,"is_reserved":false,"is_disabled":true,"rental_uris":{"android":"levelo://app?vid=24df2c59-c2ae-4cf6-8d73-b821e9ca9612","ios":"levelo://app?vid=24df2c59-c2ae-4cf6-8d73-b821e9ca9612"},"vehicle_type_id":"4","last_reported":1756336171,"current_range_meters":7200,"station_id":"ce4bho92rcd13ifvqh4g","pricing_plan_id":"cebpf4jnsgd1na2vs0mg"},{"bike_id":"ff5465dc-9541-471e-98d9-07471195f129","system_id":"levelo_inurba_marseille","lat":43.30901,"lon":5.39657,"is_reserved":false,"is_disabled":false,"rental_uris":{"android":"levelo://app?vid=ff5465dc-9541-471e-98d9-07471195f129","ios":"levelo://app?vid=ff5465dc-9541-471e-98d9-07471195f129"},"vehicle_type_id":"4","last_reported":1756336171,"current_range_meters":7200,"station_id":"ce4bh012rcd13ifvqcv0","pricing_plan_id":"cebpf4jnsgd1na2vs0mg"},{"bike_id":"8ff3ebc3-b8cc-483f-9232-7e0c6220b0be","system_id":"levelo_inurba_marseille","lat":43.29959,"lon":5.41319,"is_reserved":false,"is_disabled":true,"rental_uris":{"android":"levelo://app?vid=8ff3ebc3-b8cc-483f-9232-7e0c6220b0be","ios":"levelo://app?vid=8ff3ebc3-b8cc-483f-9232-7e0c6220b0be"},"vehicle_type_id":"4","last_reported":1756336171,"current_range_meters":8000,"station_id":"ce4bhp12rcd13ifvqh9g","pricing_plan_id":"cebpf4jnsgd1na2vs0mg"},{"bike_id":"1503ae73-ca23-45ec-8a68-02e967b0ead8","system_id":"levelo_inurba_marseille","lat":43.2321,"lon":5.35553,"is_reserved":false,"is_disabled":false,"rental_uris":{"android":"levelo://app?vid=1503ae73-ca23-45ec-8a68-02e967b0ead8","ios":"levelo://app?vid=1503ae73-ca23-45ec-8a68-02e967b0ead8"},"vehicle_type_id":"4","last_reported":1756336171,"current_range_meters":8000,"station_id":"ce4bhu92rcd13ifvqi70","pricing_plan_id":"cebpf4jnsgd1na2vs0mg"},{"bike_id":"0f2017f4-e5c1-46a2-a7d8-e957ce265a72","system_id":"levelo_inurba_marseille","lat":43.33781,"lon":5.37389,"is_reserved":false,"is_disabled":false,"rental_uris":{"android":"levelo://app?vid=0f2017f4-e5c1-46a2-a7d8-e957ce265a72","ios":"levelo://app?vid=0f2017f4-e5c1-46a2-a7d8-e957ce265a72"},"vehicle_type_id":"4","last_reported":1756336171,"current_range_meters":8000,"station_id":"","pricing_plan_id":"cebpf4jnsgd1na2vs0mg"},{"bike_id":"76e24de3-aa6c-41b2-abc0-ed38b8c337f5","system_id":"levelo_inurba_marseille","lat":43.27948,"lon":5.41043,"is_reserved":false,"is_disabled":false,"rental_uris":{"android":"levelo://app?vid=76e24de3-aa6c-41b2-abc0-ed38b8c337f5","ios":"levelo://app?vid=76e24de3-aa6c-41b2-abc0-ed38b8c337f5"},"vehicle_type_id":"4","last_reported":1756336171,"current_range_meters":8000,"station_id":"ce4bhnp2rcd13ifvqh0g","pricing_plan_id":"cebpf4jnsgd1na2vs0mg"},{"bike_id":"899ef22f-86b1-41e7-8c70-f9240174a6d4","system_id":"levelo_inurba_marseille","lat":43.28675,"lon":5.38667,"is_reserved":false,"is_disabled":false,"rental_uris":{"android":"levelo://app?vid=899ef22f-86b1-41e7-8c70-f9240174a6d4","ios":"levelo://app?vid=899ef22f-86b1-41e7-8c70-f9240174a6d4"},"vehicle_type_id":"4","last_reported":1756336171,"current_range_meters":8000,"station_id":"ce4bh492rcd13ifvqdug","pricing_plan_id":"cebpf4jnsgd1na2vs0mg"},{"bike_id":"d6f6730b-8ea9-42a3-a1eb-3405a2d763f0","system_id":"levelo_inurba_marseille","lat":43.31482,"lon":5.373126,"is_reserved":false,"is_disabled":false,"rental_uris":{"android":"levelo://app?vid=d6f6730b-8ea9-42a3-a1eb-3405a2d763f0","ios":"levelo://app?vid=d6f6730b-8ea9-42a3-a1eb-3405a2d763f0"},"vehicle_type_id":"4","last_reported":1756336171,"current_range_meters":8000,"station_id":"ce4bgt12rcd13ifvqcd0","pricing_plan_id":"cebpf4jnsgd1na2vs0mg"},{"bike_id":"70bc0557-fd9c-41a8-91e4-86034aeb9bc7","system_id":"levelo_inurba_marseille","lat":43.3214,"lon":5.36791,"is_reserved":false,"is_disabled":false,"rental_uris":{"android":"levelo://app?vid=70bc0557-fd9c-41a8-91e4-86034aeb9bc7","ios":"levelo://app?vid=70bc0557-fd9c-41a8-91e4-86034aeb9bc7"},"vehicle_type_id":"4","last_reported":1756336171,"current_range_meters":8400,"station_id":"ce4bhrh2rcd13ifvqhug","pricing_plan_id":"cebpf4jnsgd1na2vs0mg"},{"bike_id":"a79b6166-93d1-40ff-986d-a995e819e2c5","system_id":"levelo_inurba_marseille","lat":43.323601,"lon":5.388795,"is_reserved":false,"is_disabled":false,"rental_uris":{"android":"levelo://app?vid=a79b6166-93d1-40ff-986d-a995e819e2c5","ios":"levelo://app?vid=a79b6166-93d1-40ff-986d-a995e819e2c5"},"vehicle_type_id":"4","last_reported":1756336171,"current_range_meters":8400,"station_id":"ce4bhqp2rcd13ifvqhog","pricing_plan_id":"cebpf4jnsgd1na2vs0mg"},{"bike_id":"e2301651-255d-4245-aed6-849adf68f82c","system_id":"levelo_inurba_marseille","lat":43.24542,"lon":5.39517,"is_reserved":false,"is_disabled":false,"rental_uris":{"android":"levelo://app?vid=e2301651-255d-4245-aed6-849adf68f82c","ios":"levelo://app?vid=e2301651-255d-4245-aed6-849adf68f82c"},"vehicle_type_id":"4","last_reported":1756336171,"current_range_meters":8400,"station_id":"ce4bhlp2rcd13ifvqgjg","pricing_plan_id":"cebpf4jnsgd1na2vs0mg"},{"bike_id":"e9099ed8-f39c-4735-a545-38ff6ccc85d8","system_id":"levelo_inurba_marseille","lat":43.322403,"lon":5.385509,"is_reserved":false,"is_disabled":false,"rental_uris":{"android":"levelo://app?vid=e9099ed8-f39c-4735-a545-38ff6ccc85d8","ios":"levelo://app?vid=e9099ed8-f39c-4735-a545-38ff6ccc85d8"},"vehicle_type_id":"4","last_reported":1756336171,"current_range_meters":8400,"station_id":"","pricing_plan_id":"cebpf4jnsgd1na2vs0mg"},{"bike_id":"2b5e68ba-3047-4a6f-83c8-6846c8cf58c2","system_id":"levelo_inurba_marseille","lat":43.31365,"lon":5.38488,"is_reserved":false,"is_disabled":false,"rental_uris":{"android":"levelo://app?vid=2b5e68ba-3047-4a6f-83c8-6846c8cf58c2","ios":"levelo://app?vid=2b5e68ba-3047-4a6f-83c8-6846c8cf58c2"},"vehicle_type_id":"4","last_reported":1756336171,"current_range_meters":8400,"station_id":"ce4bgt92rcd13ifvqcf0","pricing_plan_id":"cebpf4jnsgd1na2vs0mg"},{"bike_id":"dcc2681a-36be-4c6a-b3ad-e35044d051a5","system_id":"levelo_inurba_marseille","lat":43.2587,"lon":5.39897,"is_reserved":false,"is_disabled":false,"rental_uris":{"android":"levelo://app?vid=dcc2681a-36be-4c6a-b3ad-e35044d051a5","ios":"levelo://app?vid=dcc2681a-36be-4c6a-b3ad-e35044d051a5"},"vehicle_type_id":"4","last_reported":1756336171,"current_range_meters":8400,"station_id":"ce4bhl92rcd13ifvqghg","pricing_plan_id":"cebpf4jnsgd1na2vs0mg"},{"bike_id":"a6ef8657-5b8a-423b-993f-c3df43dec0a0","system_id":"levelo_inurba_marseille","lat":43.326998,"lon":5.392208,"is_reserved":false,"is_disabled":false,"rental_uris":{"android":"levelo://app?vid=a6ef8657-5b8a-423b-993f-c3df43dec0a0","ios":"levelo://app?vid=a6ef8657-5b8a-423b-993f-c3df43dec0a0"},"vehicle_type_id":"4","last_reported":1756336171,"current_range_meters":8400,"station_id":"","pricing_plan_id":"cebpf4jnsgd1na2vs0mg"},{"bike_id":"1f08a4dd-6681-494e-9d7a-28b2e1f45f0c","system_id":"levelo_inurba_marseille","lat":43.31758,"lon":5.39,"is_reserved":false,"is_disabled":false,"rental_uris":{"android":"levelo://app?vid=1f08a4dd-6681-494e-9d7a-28b2e1f45f0c","ios":"levelo://app?vid=1f08a4dd-6681-494e-9d7a-28b2e1f45f0c"},"vehicle_type_id":"4","last_reported":1756336171,"current_range_meters":8400,"station_id":"ce4bhqp2rcd13ifvqhng","pricing_plan_id":"cebpf4jnsgd1na2vs0mg"},{"bike_id":"1388f353-775c-4a68-bdba-7b85ae4b8ddc","system_id":"levelo_inurba_marseille","lat":43.28703,"lon":5.39981,"is_reserved":false,"is_disabled":false,"rental_uris":{"android":"levelo://app?vid=1388f353-775c-4a68-bdba-7b85ae4b8ddc","ios":"levelo://app?vid=1388f353-775c-4a68-bdba-7b85ae4b8ddc"},"vehicle_type_id":"4","last_reported":1756336171,"current_range_meters":8800,"station_id":"ce4bho92rcd13ifvqh3g","pricing_plan_id":"cebpf4jnsgd1na2vs0mg"},{"bike_id":"1d7023ef-959e-48df-b075-0a4bd90cc9ae","system_id":"levelo_inurba_marseille","lat":43.27365,"lon":5.36253,"is_reserved":false,"is_disabled":true,"rental_uris":{"android":"levelo://app?vid=1d7023ef-959e-48df-b075-0a4bd90cc9ae","ios":"levelo://app?vid=1d7023ef-959e-48df-b075-0a4bd90cc9ae"},"vehicle_type_id":"4","last_reported":1756336171,"current_range_meters":8800,"station_id":"ce4bhbh2rcd13ifvqeo0","pricing_plan_id":"cebpf4jnsgd1na2vs0mg"},{"bike_id":"23038a23-8213-4d5b-a784-616373105311","system_id":"levelo_inurba_marseille","lat":43.29896,"lon":5.43653,"is_reserved":false,"is_disabled":false,"rental_uris":{"android":"levelo://app?vid=23038a23-8213-4d5b-a784-616373105311","ios":"levelo://app?vid=23038a23-8213-4d5b-a784-616373105311"},"vehicle_type_id":"4","last_reported":1756336171,"current_range_meters":8800,"station_id":"ce4bhpp2rcd13ifvqhfg","pricing_plan_id":"cebpf4jnsgd1na2vs0mg"},{"bike_id":"f3bb904f-d661-40ef-be78-9711efb5e494","system_id":"levelo_inurba_marseille","lat":43.28728,"lon":5.37942,"is_reserved":false,"is_disabled":false,"rental_uris":{"android":"levelo://app?vid=f3bb904f-d661-40ef-be78-9711efb5e494","ios":"levelo://app?vid=f3bb904f-d661-40ef-be78-9711efb5e494"},"vehicle_type_id":"4","last_reported":1756336171,"current_range_meters":8800,"station_id":"ce4bh9p2rcd13ifvqec0","pricing_plan_id":"cebpf4jnsgd1na2vs0mg"},{"bike_id":"29fc8535-fcb9-42f5-8620-052867ccd337","system_id":"levelo_inurba_marseille","lat":43.26047,"lon":5.37543,"is_reserved":false,"is_disabled":true,"rental_uris":{"android":"levelo://app?vid=29fc8535-fcb9-42f5-8620-052867ccd337","ios":"levelo://app?vid=29fc8535-fcb9-42f5-8620-052867ccd337"},"vehicle_type_id":"4","last_reported":1756336171,"current_range_meters":8800,"station_id":"ce4bhgh2rcd13ifvqfa0","pricing_plan_id":"cebpf4jnsgd1na2vs0mg"},{"bike_id":"3a8b134a-3743-4c3a-a67a-59bcb3f19a1e","system_id":"levelo_inurba_marseille","lat":43.2845,"lon":5.3918,"is_reserved":false,"is_disabled":false,"rental_uris":{"android":"levelo://app?vid=3a8b134a-3743-4c3a-a67a-59bcb3f19a1e","ios":"levelo://app?vid=3a8b134a-3743-4c3a-a67a-59bcb3f19a1e"},"vehicle_type_id":"4","last_reported":1756336171,"current_range_meters":8800,"station_id":"ce4bhoh2rcd13ifvqh5g","pricing_plan_id":"cebpf4jnsgd1na2vs0mg"},{"bike_id":"2d0e77b8-c9d8-4e57-b6d3-0a222f73256a","system_id":"levelo_inurba_marseille","lat":43.26199,"lon":5.37451,"is_reserved":false,"is_disabled":true,"rental_uris":{"android":"levelo://app?vid=2d0e77b8-c9d8-4e57-b6d3-0a222f73256a","ios":"levelo://app?vid=2d0e77b8-c9d8-4e57-b6d3-0a222f73256a"},"vehicle_type_id":"4","last_reported":1756336171,"current_range_meters":9200,"station_id":"ce4bhgp2rcd13ifvqfc0","pricing_plan_id":"cebpf4jnsgd1na2vs0mg"},{"bike_id":"1546df9e-d1cb-482b-8d1f-d121540fd829","system_id":"levelo_inurba_marseille","lat":43.2121,"lon":5.35112,"is_reserved":false,"is_disabled":false,"rental_uris":{"android":"levelo://app?vid=1546df9e-d1cb-482b-8d1f-d121540fd829","ios":"levelo://app?vid=1546df9e-d1cb-482b-8d1f-d121540fd829"},"vehicle_type_id":"4","last_reported":1756336171,"current_range_meters":9200,"station_id":"st_cvj6sg6p6f1abm77japg","pricing_plan_id":"cebpf4jnsgd1na2vs0mg"},{"bike_id":"cceb5e99-5104-49c8-8506-8e6a58d67871","system_id":"levelo_inurba_marseille","lat":43.24188,"lon":5.39707,"is_reserved":false,"is_disabled":true,"rental_uris":{"android":"levelo://app?vid=cceb5e99-5104-49c8-8506-8e6a58d67871","ios":"levelo://app?vid=cceb5e99-5104-49c8-8506-8e6a58d67871"},"vehicle_type_id":"4","last_reported":1756336171,"current_range_meters":9200,"station_id":"ce4bhn12rcd13ifvqgpg","pricing_plan_id":"cebpf4jnsgd1na2vs0mg"},{"bike_id":"9db809c4-df14-4176-9bc2-0c7552374d82","system_id":"levelo_inurba_marseille","lat":43.29439,"lon":5.38548,"is_reserved":false,"is_disabled":false,"rental_uris":{"android":"levelo://app?vid=9db809c4-df14-4176-9bc2-0c7552374d82","ios":"levelo://app?vid=9db809c4-df14-4176-9bc2-0c7552374d82"},"vehicle_type_id":"4","last_reported":1756336171,"current_range_meters":9600,"station_id":"","pricing_plan_id":"cebpf4jnsgd1na2vs0mg"},{"bike_id":"5bce688b-fc81-4596-8277-b66f54be87c1","system_id":"levelo_inurba_marseille","lat":43.33768,"lon":5.37438,"is_reserved":false,"is_disabled":false,"rental_uris":{"android":"levelo://app?vid=5bce688b-fc81-4596-8277-b66f54be87c1","ios":"levelo://app?vid=5bce688b-fc81-4596-8277-b66f54be87c1"},"vehicle_type_id":"4","last_reported":1756336171,"current_range_meters":9600,"station_id":"","pricing_plan_id":"cebpf4jnsgd1na2vs0mg"},{"bike_id":"cbeedab3-ddb3-41d4-8c36-91a332d7ad50","system_id":"levelo_inurba_marseille","lat":43.28847,"lon":5.39328,"is_reserved":false,"is_disabled":false,"rental_uris":{"android":"levelo://app?vid=cbeedab3-ddb3-41d4-8c36-91a332d7ad50","ios":"levelo://app?vid=cbeedab3-ddb3-41d4-8c36-91a332d7ad50"},"vehicle_type_id":"4","last_reported":1756336171,"current_range_meters":9200,"station_id":"ce4bh2p2rcd13ifvqdi0","pricing_plan_id":"cebpf4jnsgd1na2vs0mg"},{"bike_id":"58d77b98-97a4-448c-bc74-3a9b57b863de","system_id":"levelo_inurba_marseille","lat":43.29004,"lon":5.35606,"is_reserved":false,"is_disabled":false,"rental_uris":{"android":"levelo://app?vid=58d77b98-97a4-448c-bc74-3a9b57b863de","ios":"levelo://app?vid=58d77b98-97a4-448c-bc74-3a9b57b863de"},"vehicle_type_id":"4","last_reported":1756336171,"current_range_meters":9600,"station_id":"ce4bhb92rcd13ifvqen0","pricing_plan_id":"cebpf4jnsgd1na2vs0mg"},{"bike_id":"e337d582-364a-4312-af91-67d0c81052aa","system_id":"levelo_inurba_marseille","lat":43.32544,"lon":5.364435,"is_reserved":false,"is_disabled":false,"rental_uris":{"android":"levelo://app?vid=e337d582-364a-4312-af91-67d0c81052aa","ios":"levelo://app?vid=e337d582-364a-4312-af91-67d0c81052aa"},"vehicle_type_id":"4","last_reported":1756336171,"current_range_meters":9600,"station_id":"","pricing_plan_id":"cebpf4jnsgd1na2vs0mg"},{"bike_id":"98b5d953-937e-48a2-a5e5-1c6a780d56ce","system_id":"levelo_inurba_marseille","lat":43.28114,"lon":5.37848,"is_reserved":false,"is_disabled":false,"rental_uris":{"android":"levelo://app?vid=98b5d953-937e-48a2-a5e5-1c6a780d56ce","ios":"levelo://app?vid=98b5d953-937e-48a2-a5e5-1c6a780d56ce"},"vehicle_type_id":"4","last_reported":1756336171,"current_range_meters":10000,"station_id":"ce4bha12rcd13ifvqee0","pricing_plan_id":"cebpf4jnsgd1na2vs0mg"},{"bike_id":"615536c0-7490-4a03-8c16-de2f1db26853","system_id":"levelo_inurba_marseille","lat":43.24182,"lon":5.39722,"is_reserved":false,"is_disabled":false,"rental_uris":{"android":"levelo://app?vid=615536c0-7490-4a03-8c16-de2f1db26853","ios":"levelo://app?vid=615536c0-7490-4a03-8c16-de2f1db26853"},"vehicle_type_id":"4","last_reported":1756336171,"current_range_meters":10000,"station_id":"ce4bhn12rcd13ifvqgpg","pricing_plan_id":"cebpf4jnsgd1na2vs0mg"},{"bike_id":"30c70dcd-7df1-4ccc-8605-2571fe8e85b6","system_id":"levelo_inurba_marseille","lat":43.3176,"lon":5.39017,"is_reserved":false,"is_disabled":false,"rental_uris":{"android":"levelo://app?vid=30c70dcd-7df1-4ccc-8605-2571fe8e85b6","ios":"levelo://app?vid=30c70dcd-7df1-4ccc-8605-2571fe8e85b6"},"vehicle_type_id":"4","last_reported":1756336171,"current_range_meters":10000,"station_id":"ce4bhqp2rcd13ifvqhng","pricing_plan_id":"cebpf4jnsgd1na2vs0mg"},{"bike_id":"a7c879e6-fbdc-41cc-b936-a235aa17adb5","system_id":"levelo_inurba_marseille","lat":43.33127,"lon":5.38157,"is_reserved":false,"is_disabled":false,"rental_uris":{"android":"levelo://app?vid=a7c879e6-fbdc-41cc-b936-a235aa17adb5","ios":"levelo://app?vid=a7c879e6-fbdc-41cc-b936-a235aa17adb5"},"vehicle_type_id":"4","last_reported":1756336171,"current_range_meters":10000,"station_id":"","pricing_plan_id":"cebpf4jnsgd1na2vs0mg"},{"bike_id":"de673112-5180-43d0-8ef8-0a252ad874e9","system_id":"levelo_inurba_marseille","lat":43.30777,"lon":5.37655,"is_reserved":false,"is_disabled":false,"rental_uris":{"android":"levelo://app?vid=de673112-5180-43d0-8ef8-0a252ad874e9","ios":"levelo://app?vid=de673112-5180-43d0-8ef8-0a252ad874e9"},"vehicle_type_id":"4","last_reported":1756336171,"current_range_meters":10000,"station_id":"ce4bgv92rcd13ifvqcq0","pricing_plan_id":"cebpf4jnsgd1na2vs0mg"},{"bike_id":"cefdc3dc-57fd-4ef3-82de-126f897351ed","system_id":"levelo_inurba_marseille","lat":43.32114,"lon":5.38301,"is_reserved":false,"is_disabled":false,"rental_uris":{"android":"levelo://app?vid=cefdc3dc-57fd-4ef3-82de-126f897351ed","ios":"levelo://app?vid=cefdc3dc-57fd-4ef3-82de-126f897351ed"},"vehicle_type_id":"4","last_reported":1756336171,"current_range_meters":10800,"station_id":"","pricing_plan_id":"cebpf4jnsgd1na2vs0mg"},{"bike_id":"1d118750-c146-4f12-a2a8-f834b871f0ae","system_id":"levelo_inurba_marseille","lat":43.3095,"lon":5.39032,"is_reserved":false,"is_disabled":false,"rental_uris":{"android":"levelo://app?vid=1d118750-c146-4f12-a2a8-f834b871f0ae","ios":"levelo://app?vid=1d118750-c146-4f12-a2a8-f834b871f0ae"},"vehicle_type_id":"4","last_reported":1756336171,"current_range_meters":10800,"station_id":"ce4bgup2rcd13ifvqco0","pricing_plan_id":"cebpf4jnsgd1na2vs0mg"},{"bike_id":"396e6393-ff1d-48db-ac68-69ce93d81e81","system_id":"levelo_inurba_marseille","lat":43.31361,"lon":5.38488,"is_reserved":false,"is_disabled":false,"rental_uris":{"android":"levelo://app?vid=396e6393-ff1d-48db-ac68-69ce93d81e81","ios":"levelo://app?vid=396e6393-ff1d-48db-ac68-69ce93d81e81"},"vehicle_type_id":"4","last_reported":1756336171,"current_range_meters":10000,"station_id":"ce4bgt92rcd13ifvqcf0","pricing_plan_id":"cebpf4jnsgd1na2vs0mg"},{"bike_id":"e5eabf25-4e1c-476e-b130-9f83cdcfc80c","system_id":"levelo_inurba_marseille","lat":43.29826,"lon":5.41686,"is_reserved":false,"is_disabled":false,"rental_uris":{"android":"levelo://app?vid=e5eabf25-4e1c-476e-b130-9f83cdcfc80c","ios":"levelo://app?vid=e5eabf25-4e1c-476e-b130-9f83cdcfc80c"},"vehicle_type_id":"4","last_reported":1756336171,"current_range_meters":10800,"station_id":"","pricing_plan_id":"cebpf4jnsgd1na2vs0mg"},{"bike_id":"2b2ebf1d-a923-4959-8b1a-e5f303b7fe84","system_id":"levelo_inurba_marseille","lat":43.29308,"lon":5.4016,"is_reserved":false,"is_disabled":false,"rental_uris":{"android":"levelo://app?vid=2b2ebf1d-a923-4959-8b1a-e5f303b7fe84","ios":"levelo://app?vid=2b2ebf1d-a923-4959-8b1a-e5f303b7fe84"},"vehicle_type_id":"4","last_reported":1756336171,"current_range_meters":10800,"station_id":"ce4bh312rcd13ifvqdk0","pricing_plan_id":"cebpf4jnsgd1na2vs0mg"},{"bike_id":"452c64c1-c18e-429f-ac02-5f3cc7af3941","system_id":"levelo_inurba_marseille","lat":43.21769,"lon":5.34595,"is_reserved":false,"is_disabled":false,"rental_uris":{"android":"levelo://app?vid=452c64c1-c18e-429f-ac02-5f3cc7af3941","ios":"levelo://app?vid=452c64c1-c18e-429f-ac02-5f3cc7af3941"},"vehicle_type_id":"4","last_reported":1756336171,"current_range_meters":10800,"station_id":"st_cvj6r9ubvosntc0bgbag","pricing_plan_id":"cebpf4jnsgd1na2vs0mg"},{"bike_id":"40359052-9f3d-44f8-a43b-f486217c4075","system_id":"levelo_inurba_marseille","lat":43.28109,"lon":5.37858,"is_reserved":false,"is_disabled":false,"rental_uris":{"android":"levelo://app?vid=40359052-9f3d-44f8-a43b-f486217c4075","ios":"levelo://app?vid=40359052-9f3d-44f8-a43b-f486217c4075"},"vehicle_type_id":"4","last_reported":1756336171,"current_range_meters":11200,"station_id":"ce4bha12rcd13ifvqee0","pricing_plan_id":"cebpf4jnsgd1na2vs0mg"},{"bike_id":"aa375831-c987-4042-97d7-4bc96d6caa6a","system_id":"levelo_inurba_marseille","lat":43.26312,"lon":5.37392,"is_reserved":false,"is_disabled":true,"rental_uris":{"android":"levelo://app?vid=aa375831-c987-4042-97d7-4bc96d6caa6a","ios":"levelo://app?vid=aa375831-c987-4042-97d7-4bc96d6caa6a"},"vehicle_type_id":"4","last_reported":1756336171,"current_range_meters":11200,"station_id":"","pricing_plan_id":"cebpf4jnsgd1na2vs0mg"},{"bike_id":"9308f021-ec84-4fe8-8c25-145b6405b7e0","system_id":"levelo_inurba_marseille","lat":43.30552,"lon":5.36677,"is_reserved":false,"is_disabled":true,"rental_uris":{"android":"levelo://app?vid=9308f021-ec84-4fe8-8c25-145b6405b7e0","ios":"levelo://app?vid=9308f021-ec84-4fe8-8c25-145b6405b7e0"},"vehicle_type_id":"4","last_reported":1756336171,"current_range_meters":11200,"station_id":"ce4bgrp2rcd13ifvqc9g","pricing_plan_id":"cebpf4jnsgd1na2vs0mg"},{"bike_id":"39a51af9-efaa-4fdb-be3f-6d96dd7c74f0","system_id":"levelo_inurba_marseille","lat":43.23154,"lon":5.43718,"is_reserved":false,"is_disabled":false,"rental_uris":{"android":"levelo://app?vid=39a51af9-efaa-4fdb-be3f-6d96dd7c74f0","ios":"levelo://app?vid=39a51af9-efaa-4fdb-be3f-6d96dd7c74f0"},"vehicle_type_id":"4","last_reported":1756336171,"current_range_meters":11600,"station_id":"ce4bhmp2rcd13ifvqgog","pricing_plan_id":"cebpf4jnsgd1na2vs0mg"},{"bike_id":"79cbc755-377b-4ae0-b5de-02a92bc23c94","system_id":"levelo_inurba_marseille","lat":43.28379,"lon":5.37447,"is_reserved":false,"is_disabled":false,"rental_uris":{"android":"levelo://app?vid=79cbc755-377b-4ae0-b5de-02a92bc23c94","ios":"levelo://app?vid=79cbc755-377b-4ae0-b5de-02a92bc23c94"},"vehicle_type_id":"4","last_reported":1756336171,"current_range_meters":11200,"station_id":"ce4bh412rcd13ifvqds0","pricing_plan_id":"cebpf4jnsgd1na2vs0mg"},{"bike_id":"c585dd86-e6af-4090-bba4-a9ee7f425450","system_id":"levelo_inurba_marseille","lat":43.28374,"lon":5.38614,"is_reserved":false,"is_disabled":false,"rental_uris":{"android":"levelo://app?vid=c585dd86-e6af-4090-bba4-a9ee7f425450","ios":"levelo://app?vid=c585dd86-e6af-4090-bba4-a9ee7f425450"},"vehicle_type_id":"4","last_reported":1756336171,"current_range_meters":11600,"station_id":"ce4bh492rcd13ifvqdvg","pricing_plan_id":"cebpf4jnsgd1na2vs0mg"},{"bike_id":"d2d39256-6788-442b-b27b-5120dd8b53ef","system_id":"levelo_inurba_marseille","lat":43.28939,"lon":5.36639,"is_reserved":false,"is_disabled":false,"rental_uris":{"android":"levelo://app?vid=d2d39256-6788-442b-b27b-5120dd8b53ef","ios":"levelo://app?vid=d2d39256-6788-442b-b27b-5120dd8b53ef"},"vehicle_type_id":"4","last_reported":1756336171,"current_range_meters":11600,"station_id":"ce4bhap2rcd13ifvqek0","pricing_plan_id":"cebpf4jnsgd1na2vs0mg"},{"bike_id":"f9bee4e7-3272-4bb4-b05c-cd5fb342938a","system_id":"levelo_inurba_marseille","lat":43.32121,"lon":5.367687,"is_reserved":false,"is_disabled":false,"rental_uris":{"android":"levelo://app?vid=f9bee4e7-3272-4bb4-b05c-cd5fb342938a","ios":"levelo://app?vid=f9bee4e7-3272-4bb4-b05c-cd5fb342938a"},"vehicle_type_id":"4","last_reported":1756336171,"current_range_meters":11600,"station_id":"ce4bhrh2rcd13ifvqhug","pricing_plan_id":"cebpf4jnsgd1na2vs0mg"},{"bike_id":"ee7ce96d-e991-4a76-b682-c0ec8d4eac5d","system_id":"levelo_inurba_marseille","lat":43.25586,"lon":5.38242,"is_reserved":false,"is_disabled":false,"rental_uris":{"android":"levelo://app?vid=ee7ce96d-e991-4a76-b682-c0ec8d4eac5d","ios":"levelo://app?vid=ee7ce96d-e991-4a76-b682-c0ec8d4eac5d"},"vehicle_type_id":"4","last_reported":1756336171,"current_range_meters":11600,"station_id":"ce4bhih2rcd13ifvqfs0","pricing_plan_id":"cebpf4jnsgd1na2vs0mg"},{"bike_id":"d2b8e1bf-43cb-4b2b-a455-72ceb4e51688","system_id":"levelo_inurba_marseille","lat":43.29039,"lon":5.37564,"is_reserved":false,"is_disabled":false,"rental_uris":{"android":"levelo://app?vid=d2b8e1bf-43cb-4b2b-a455-72ceb4e51688","ios":"levelo://app?vid=d2b8e1bf-43cb-4b2b-a455-72ceb4e51688"},"vehicle_type_id":"4","last_reported":1756336171,"current_range_meters":11600,"station_id":"ce4bh692rcd13ifvqe90","pricing_plan_id":"cebpf4jnsgd1na2vs0mg"},{"bike_id":"04b7a9f3-b443-44fd-b605-c1e0083e2b14","system_id":"levelo_inurba_marseille","lat":43.28054,"lon":5.39633,"is_reserved":false,"is_disabled":false,"rental_uris":{"android":"levelo://app?vid=04b7a9f3-b443-44fd-b605-c1e0083e2b14","ios":"levelo://app?vid=04b7a9f3-b443-44fd-b605-c1e0083e2b14"},"vehicle_type_id":"4","last_reported":1756336171,"current_range_meters":12000,"station_id":"ce4bho12rcd13ifvqh2g","pricing_plan_id":"cebpf4jnsgd1na2vs0mg"},{"bike_id":"37a599c4-f0bd-4f3b-a34e-473e9bfc60d5","system_id":"levelo_inurba_marseille","lat":43.28718,"lon":5.36096,"is_reserved":false,"is_disabled":false,"rental_uris":{"android":"levelo://app?vid=37a599c4-f0bd-4f3b-a34e-473e9bfc60d5","ios":"levelo://app?vid=37a599c4-f0bd-4f3b-a34e-473e9bfc60d5"},"vehicle_type_id":"4","last_reported":1756336171,"current_range_meters":12000,"station_id":"cki0cbj6b192h4jlfktg","pricing_plan_id":"cebpf4jnsgd1na2vs0mg"},{"bike_id":"6bfbf7b1-a4a1-4287-abfb-a1fa867bee3a","system_id":"levelo_inurba_marseille","lat":43.2306,"lon":5.3549,"is_reserved":false,"is_disabled":false,"rental_uris":{"android":"levelo://app?vid=6bfbf7b1-a4a1-4287-abfb-a1fa867bee3a","ios":"levelo://app?vid=6bfbf7b1-a4a1-4287-abfb-a1fa867bee3a"},"vehicle_type_id":"4","last_reported":1756336171,"current_range_meters":12000,"station_id":"cpo3342slgdg3j2ifvpg","pricing_plan_id":"cebpf4jnsgd1na2vs0mg"},{"bike_id":"758925e6-bd9a-4169-81c0-f7af7a29a755","system_id":"levelo_inurba_marseille","lat":43.2603,"lon":5.37504,"is_reserved":false,"is_disabled":true,"rental_uris":{"android":"levelo://app?vid=758925e6-bd9a-4169-81c0-f7af7a29a755","ios":"levelo://app?vid=758925e6-bd9a-4169-81c0-f7af7a29a755"},"vehicle_type_id":"4","last_reported":1756336171,"current_range_meters":12000,"station_id":"ce4bhgh2rcd13ifvqfa0","pricing_plan_id":"cebpf4jnsgd1na2vs0mg"},{"bike_id":"25de00eb-0735-499a-be50-84086b7d08d4","system_id":"levelo_inurba_marseille","lat":43.30975,"lon":5.40152,"is_reserved":false,"is_disabled":false,"rental_uris":{"android":"levelo://app?vid=25de00eb-0735-499a-be50-84086b7d08d4","ios":"levelo://app?vid=25de00eb-0735-499a-be50-84086b7d08d4"},"vehicle_type_id":"4","last_reported":1756336171,"current_range_meters":12000,"station_id":"ce4bgvp2rcd13ifvqct0","pricing_plan_id":"cebpf4jnsgd1na2vs0mg"},{"bike_id":"57d77259-e64a-40b9-b711-05759afb0982","system_id":"levelo_inurba_marseille","lat":43.302124,"lon":5.396205,"is_reserved":false,"is_disabled":false,"rental_uris":{"android":"levelo://app?vid=57d77259-e64a-40b9-b711-05759afb0982","ios":"levelo://app?vid=57d77259-e64a-40b9-b711-05759afb0982"},"vehicle_type_id":"4","last_reported":1756336171,"current_range_meters":12400,"station_id":"ce4bh012rcd13ifvqd00","pricing_plan_id":"cebpf4jnsgd1na2vs0mg"},{"bike_id":"4ecd415b-a9da-4bbe-a69e-f6401b37a3d4","system_id":"levelo_inurba_marseille","lat":43.30153,"lon":5.39882,"is_reserved":false,"is_disabled":false,"rental_uris":{"android":"levelo://app?vid=4ecd415b-a9da-4bbe-a69e-f6401b37a3d4","ios":"levelo://app?vid=4ecd415b-a9da-4bbe-a69e-f6401b37a3d4"},"vehicle_type_id":"4","last_reported":1756336171,"current_range_meters":12400,"station_id":"ce4bh0h2rcd13ifvqd40","pricing_plan_id":"cebpf4jnsgd1na2vs0mg"},{"bike_id":"3dff11d5-3872-4ffe-8cce-b5631d6c6058","system_id":"levelo_inurba_marseille","lat":43.32065,"lon":5.38651,"is_reserved":false,"is_disabled":false,"rental_uris":{"android":"levelo://app?vid=3dff11d5-3872-4ffe-8cce-b5631d6c6058","ios":"levelo://app?vid=3dff11d5-3872-4ffe-8cce-b5631d6c6058"},"vehicle_type_id":"4","last_reported":1756336171,"current_range_meters":12400,"station_id":"","pricing_plan_id":"cebpf4jnsgd1na2vs0mg"},{"bike_id":"07f3c348-251f-475b-bdcc-b91dd94163be","system_id":"levelo_inurba_marseille","lat":43.21757,"lon":5.34592,"is_reserved":false,"is_disabled":true,"rental_uris":{"android":"levelo://app?vid=07f3c348-251f-475b-bdcc-b91dd94163be","ios":"levelo://app?vid=07f3c348-251f-475b-bdcc-b91dd94163be"},"vehicle_type_id":"4","last_reported":1756336171,"current_range_meters":12400,"station_id":"st_cvj6r9ubvosntc0bgbag","pricing_plan_id":"cebpf4jnsgd1na2vs0mg"},{"bike_id":"685105d1-bcda-4899-9d64-d94adf158a64","system_id":"levelo_inurba_marseille","lat":43.314676,"lon":5.373608,"is_reserved":false,"is_disabled":true,"rental_uris":{"android":"levelo://app?vid=685105d1-bcda-4899-9d64-d94adf158a64","ios":"levelo://app?vid=685105d1-bcda-4899-9d64-d94adf158a64"},"vehicle_type_id":"4","last_reported":1756336171,"current_range_meters":12800,"station_id":"","pricing_plan_id":"cebpf4jnsgd1na2vs0mg"},{"bike_id":"780b5477-ed16-4c5f-bf7a-93c5728ecc9b","system_id":"levelo_inurba_marseille","lat":43.24087,"lon":5.37708,"is_reserved":false,"is_disabled":false,"rental_uris":{"android":"levelo://app?vid=780b5477-ed16-4c5f-bf7a-93c5728ecc9b","ios":"levelo://app?vid=780b5477-ed16-4c5f-bf7a-93c5728ecc9b"},"vehicle_type_id":"4","last_reported":1756336171,"current_range_meters":12800,"station_id":"ce4bhnp2rcd13ifvqgvg","pricing_plan_id":"cebpf4jnsgd1na2vs0mg"},{"bike_id":"8d3d5947-84ea-4cd6-b722-368b0b69afde","system_id":"levelo_inurba_marseille","lat":43.24679,"lon":5.3814,"is_reserved":false,"is_disabled":false,"rental_uris":{"android":"levelo://app?vid=8d3d5947-84ea-4cd6-b722-368b0b69afde","ios":"levelo://app?vid=8d3d5947-84ea-4cd6-b722-368b0b69afde"},"vehicle_type_id":"4","last_reported":1756336171,"current_range_meters":12800,"station_id":"ce4bhih2rcd13ifvqfr0","pricing_plan_id":"cebpf4jnsgd1na2vs0mg"},{"bike_id":"8179721e-b9a4-401e-a8af-cbcc4bd1bdb5","system_id":"levelo_inurba_marseille","lat":43.27915,"lon":5.39578,"is_reserved":false,"is_disabled":false,"rental_uris":{"android":"levelo://app?vid=8179721e-b9a4-401e-a8af-cbcc4bd1bdb5","ios":"levelo://app?vid=8179721e-b9a4-401e-a8af-cbcc4bd1bdb5"},"vehicle_type_id":"4","last_reported":1756336171,"current_range_meters":12800,"station_id":"ce4bhf92rcd13ifvqf40","pricing_plan_id":"cebpf4jnsgd1na2vs0mg"},{"bike_id":"4c761566-67f1-43f3-8b06-20ead8018613","system_id":"levelo_inurba_marseille","lat":43.28935,"lon":5.36641,"is_reserved":false,"is_disabled":false,"rental_uris":{"android":"levelo://app?vid=4c761566-67f1-43f3-8b06-20ead8018613","ios":"levelo://app?vid=4c761566-67f1-43f3-8b06-20ead8018613"},"vehicle_type_id":"4","last_reported":1756336171,"current_range_meters":12800,"station_id":"ce4bhap2rcd13ifvqek0","pricing_plan_id":"cebpf4jnsgd1na2vs0mg"},{"bike_id":"cf3b540f-229a-4c49-afcd-5ac0eeae1279","system_id":"levelo_inurba_marseille","lat":43.2318,"lon":5.39993,"is_reserved":false,"is_disabled":false,"rental_uris":{"android":"levelo://app?vid=cf3b540f-229a-4c49-afcd-5ac0eeae1279","ios":"levelo://app?vid=cf3b540f-229a-4c49-afcd-5ac0eeae1279"},"vehicle_type_id":"4","last_reported":1756336171,"current_range_meters":12800,"station_id":"ce4bhn12rcd13ifvqgqg","pricing_plan_id":"cebpf4jnsgd1na2vs0mg"},{"bike_id":"976e6874-cdb6-40f1-baf4-b538889b867c","system_id":"levelo_inurba_marseille","lat":43.2511,"lon":5.40323,"is_reserved":false,"is_disabled":false,"rental_uris":{"android":"levelo://app?vid=976e6874-cdb6-40f1-baf4-b538889b867c","ios":"levelo://app?vid=976e6874-cdb6-40f1-baf4-b538889b867c"},"vehicle_type_id":"4","last_reported":1756336171,"current_range_meters":12800,"station_id":"ce4bhlh2rcd13ifvqgig","pricing_plan_id":"cebpf4jnsgd1na2vs0mg"},{"bike_id":"901693be-e0fd-48c6-abfc-fe8f5561b51a","system_id":"levelo_inurba_marseille","lat":43.26035,"lon":5.37548,"is_reserved":false,"is_disabled":false,"rental_uris":{"android":"levelo://app?vid=901693be-e0fd-48c6-abfc-fe8f5561b51a","ios":"levelo://app?vid=901693be-e0fd-48c6-abfc-fe8f5561b51a"},"vehicle_type_id":"4","last_reported":1756336171,"current_range_meters":12800,"station_id":"ce4bhgh2rcd13ifvqfa0","pricing_plan_id":"cebpf4jnsgd1na2vs0mg"},{"bike_id":"f1aef343-304c-4831-b1dd-7d55fb883f05","system_id":"levelo_inurba_marseille","lat":43.28667,"lon":5.36347,"is_reserved":false,"is_disabled":false,"rental_uris":{"android":"levelo://app?vid=f1aef343-304c-4831-b1dd-7d55fb883f05","ios":"levelo://app?vid=f1aef343-304c-4831-b1dd-7d55fb883f05"},"vehicle_type_id":"4","last_reported":1756336171,"current_range_meters":12800,"station_id":"ce4bhah2rcd13ifvqej0","pricing_plan_id":"cebpf4jnsgd1na2vs0mg"},{"bike_id":"e7053849-28ce-4c1e-8361-f2a391a8ba85","system_id":"levelo_inurba_marseille","lat":43.27946,"lon":5.38765,"is_reserved":false,"is_disabled":false,"rental_uris":{"android":"levelo://app?vid=e7053849-28ce-4c1e-8361-f2a391a8ba85","ios":"levelo://app?vid=e7053849-28ce-4c1e-8361-f2a391a8ba85"},"vehicle_type_id":"4","last_reported":1756336171,"current_range_meters":12800,"station_id":"ce4bhg12rcd13ifvqf80","pricing_plan_id":"cebpf4jnsgd1na2vs0mg"},{"bike_id":"52d2afe1-82d8-4a9f-bb49-adfaa73de3a0","system_id":"levelo_inurba_marseille","lat":43.28578,"lon":5.39502,"is_reserved":false,"is_disabled":false,"rental_uris":{"android":"levelo://app?vid=52d2afe1-82d8-4a9f-bb49-adfaa73de3a0","ios":"levelo://app?vid=52d2afe1-82d8-4a9f-bb49-adfaa73de3a0"},"vehicle_type_id":"4","last_reported":1756336171,"current_range_meters":12800,"station_id":"ce4bh292rcd13ifvqdg0","pricing_plan_id":"cebpf4jnsgd1na2vs0mg"},{"bike_id":"c0fd8e0f-a6d0-4606-8308-6cfd04a69d5d","system_id":"levelo_inurba_marseille","lat":43.28859,"lon":5.39315,"is_reserved":false,"is_disabled":false,"rental_uris":{"android":"levelo://app?vid=c0fd8e0f-a6d0-4606-8308-6cfd04a69d5d","ios":"levelo://app?vid=c0fd8e0f-a6d0-4606-8308-6cfd04a69d5d"},"vehicle_type_id":"4","last_reported":1756336171,"current_range_meters":13600,"station_id":"ce4bh2p2rcd13ifvqdi0","pricing_plan_id":"cebpf4jnsgd1na2vs0mg"},{"bike_id":"5c26a54e-1e97-4ad3-a16d-614ad930b130","system_id":"levelo_inurba_marseille","lat":43.32104,"lon":5.36774,"is_reserved":false,"is_disabled":false,"rental_uris":{"android":"levelo://app?vid=5c26a54e-1e97-4ad3-a16d-614ad930b130","ios":"levelo://app?vid=5c26a54e-1e97-4ad3-a16d-614ad930b130"},"vehicle_type_id":"4","last_reported":1756336171,"current_range_meters":13600,"station_id":"ce4bhrh2rcd13ifvqhug","pricing_plan_id":"cebpf4jnsgd1na2vs0mg"},{"bike_id":"db526668-1205-422f-99f2-dc09210cda94","system_id":"levelo_inurba_marseille","lat":43.29277,"lon":5.36839,"is_reserved":false,"is_disabled":false,"rental_uris":{"android":"levelo://app?vid=db526668-1205-422f-99f2-dc09210cda94","ios":"levelo://app?vid=db526668-1205-422f-99f2-dc09210cda94"},"vehicle_type_id":"4","last_reported":1756336171,"current_range_meters":13600,"station_id":"ce4bhbp2rcd13ifvqesg","pricing_plan_id":"cebpf4jnsgd1na2vs0mg"},{"bike_id":"c903a825-5ba9-4790-bb65-4782e8d26369","system_id":"levelo_inurba_marseille","lat":43.30115,"lon":5.3985,"is_reserved":false,"is_disabled":false,"rental_uris":{"android":"levelo://app?vid=c903a825-5ba9-4790-bb65-4782e8d26369","ios":"levelo://app?vid=c903a825-5ba9-4790-bb65-4782e8d26369"},"vehicle_type_id":"4","last_reported":1756336171,"current_range_meters":13600,"station_id":"ce4bh0h2rcd13ifvqd40","pricing_plan_id":"cebpf4jnsgd1na2vs0mg"},{"bike_id":"f67c8e5e-7af8-4847-a4ce-1e12088b4291","system_id":"levelo_inurba_marseille","lat":43.33026,"lon":5.39247,"is_reserved":false,"is_disabled":false,"rental_uris":{"android":"levelo://app?vid=f67c8e5e-7af8-4847-a4ce-1e12088b4291","ios":"levelo://app?vid=f67c8e5e-7af8-4847-a4ce-1e12088b4291"},"vehicle_type_id":"4","last_reported":1756336171,"current_range_meters":13600,"station_id":"","pricing_plan_id":"cebpf4jnsgd1na2vs0mg"},{"bike_id":"98c96329-3edb-4eec-a3f6-606d0522135f","system_id":"levelo_inurba_marseille","lat":43.21214,"lon":5.3505,"is_reserved":false,"is_disabled":false,"rental_uris":{"android":"levelo://app?vid=98c96329-3edb-4eec-a3f6-606d0522135f","ios":"levelo://app?vid=98c96329-3edb-4eec-a3f6-606d0522135f"},"vehicle_type_id":"4","last_reported":1756336171,"current_range_meters":13600,"station_id":"st_cvj6sg6p6f1abm77japg","pricing_plan_id":"cebpf4jnsgd1na2vs0mg"},{"bike_id":"d1e0c5c0-2021-47c7-80fe-e78f82330db3","system_id":"levelo_inurba_marseille","lat":43.21218,"lon":5.35047,"is_reserved":false,"is_disabled":false,"rental_uris":{"android":"levelo://app?vid=d1e0c5c0-2021-47c7-80fe-e78f82330db3","ios":"levelo://app?vid=d1e0c5c0-2021-47c7-80fe-e78f82330db3"},"vehicle_type_id":"4","last_reported":1756336171,"current_range_meters":13600,"station_id":"","pricing_plan_id":"cebpf4jnsgd1na2vs0mg"},{"bike_id":"99a1f6e8-f9f4-47c7-aa48-e7c25f733bb1","system_id":"levelo_inurba_marseille","lat":43.24633,"lon":5.43146,"is_reserved":false,"is_disabled":false,"rental_uris":{"android":"levelo://app?vid=99a1f6e8-f9f4-47c7-aa48-e7c25f733bb1","ios":"levelo://app?vid=99a1f6e8-f9f4-47c7-aa48-e7c25f733bb1"},"vehicle_type_id":"4","last_reported":1756336171,"current_range_meters":13600,"station_id":"st_d2m6c4gdas8pm72e190g","pricing_plan_id":"cebpf4jnsgd1na2vs0mg"},{"bike_id":"c58c221b-a6ac-40bc-a169-25cdd37b3652","system_id":"levelo_inurba_marseille","lat":43.28006,"lon":5.38801,"is_reserved":false,"is_disabled":false,"rental_uris":{"android":"levelo://app?vid=c58c221b-a6ac-40bc-a169-25cdd37b3652","ios":"levelo://app?vid=c58c221b-a6ac-40bc-a169-25cdd37b3652"},"vehicle_type_id":"4","last_reported":1756336171,"current_range_meters":13600,"station_id":"ce4bhg12rcd13ifvqf80","pricing_plan_id":"cebpf4jnsgd1na2vs0mg"},{"bike_id":"f5ee2120-b8b8-472b-9bcc-efc824cd719b","system_id":"levelo_inurba_marseille","lat":43.29547,"lon":5.42272,"is_reserved":false,"is_disabled":false,"rental_uris":{"android":"levelo://app?vid=f5ee2120-b8b8-472b-9bcc-efc824cd719b","ios":"levelo://app?vid=f5ee2120-b8b8-472b-9bcc-efc824cd719b"},"vehicle_type_id":"4","last_reported":1756336171,"current_range_meters":13600,"station_id":"ce4bhph2rcd13ifvqhdg","pricing_plan_id":"cebpf4jnsgd1na2vs0mg"},{"bike_id":"3d399bfe-7fbc-42b7-a070-a73b13325d3f","system_id":"levelo_inurba_marseille","lat":43.2312,"lon":5.35489,"is_reserved":false,"is_disabled":false,"rental_uris":{"android":"levelo://app?vid=3d399bfe-7fbc-42b7-a070-a73b13325d3f","ios":"levelo://app?vid=3d399bfe-7fbc-42b7-a070-a73b13325d3f"},"vehicle_type_id":"4","last_reported":1756336171,"current_range_meters":13600,"station_id":"","pricing_plan_id":"cebpf4jnsgd1na2vs0mg"},{"bike_id":"1c492bfa-292c-4943-bcbd-81f1631d88de","system_id":"levelo_inurba_marseille","lat":43.31217,"lon":5.368389,"is_reserved":false,"is_disabled":false,"rental_uris":{"android":"levelo://app?vid=1c492bfa-292c-4943-bcbd-81f1631d88de","ios":"levelo://app?vid=1c492bfa-292c-4943-bcbd-81f1631d88de"},"vehicle_type_id":"4","last_reported":1756336171,"current_range_meters":13600,"station_id":"ce4bgl92rcd13ifvqbq0","pricing_plan_id":"cebpf4jnsgd1na2vs0mg"},{"bike_id":"729739b4-f167-4b2d-a0cd-f111e90e83bc","system_id":"levelo_inurba_marseille","lat":43.27295,"lon":5.36287,"is_reserved":false,"is_disabled":false,"rental_uris":{"android":"levelo://app?vid=729739b4-f167-4b2d-a0cd-f111e90e83bc","ios":"levelo://app?vid=729739b4-f167-4b2d-a0cd-f111e90e83bc"},"vehicle_type_id":"4","last_reported":1756336171,"current_range_meters":13600,"station_id":"","pricing_plan_id":"cebpf4jnsgd1na2vs0mg"},{"bike_id":"11a38367-deb6-4141-b3c1-0cba6ea43c8d","system_id":"levelo_inurba_marseille","lat":43.29008,"lon":5.35626,"is_reserved":false,"is_disabled":true,"rental_uris":{"android":"levelo://app?vid=11a38367-deb6-4141-b3c1-0cba6ea43c8d","ios":"levelo://app?vid=11a38367-deb6-4141-b3c1-0cba6ea43c8d"},"vehicle_type_id":"4","last_reported":1756336171,"current_range_meters":14000,"station_id":"ce4bhb92rcd13ifvqen0","pricing_plan_id":"cebpf4jnsgd1na2vs0mg"},{"bike_id":"e7adfa58-9cff-4ae4-9f5c-c741f262e33a","system_id":"levelo_inurba_marseille","lat":43.28761,"lon":5.37921,"is_reserved":false,"is_disabled":false,"rental_uris":{"android":"levelo://app?vid=e7adfa58-9cff-4ae4-9f5c-c741f262e33a","ios":"levelo://app?vid=e7adfa58-9cff-4ae4-9f5c-c741f262e33a"},"vehicle_type_id":"4","last_reported":1756336171,"current_range_meters":14000,"station_id":"ce4bh9p2rcd13ifvqec0","pricing_plan_id":"cebpf4jnsgd1na2vs0mg"},{"bike_id":"19eabc24-80d3-4327-b947-9ec7f85cd494","system_id":"levelo_inurba_marseille","lat":43.27333,"lon":5.39117,"is_reserved":false,"is_disabled":true,"rental_uris":{"android":"levelo://app?vid=19eabc24-80d3-4327-b947-9ec7f85cd494","ios":"levelo://app?vid=19eabc24-80d3-4327-b947-9ec7f85cd494"},"vehicle_type_id":"4","last_reported":1756336171,"current_range_meters":14000,"station_id":"ce4bhgp2rcd13ifvqfe0","pricing_plan_id":"cebpf4jnsgd1na2vs0mg"},{"bike_id":"e156dac0-2ce7-49fd-8840-1e3df2d87f9b","system_id":"levelo_inurba_marseille","lat":43.28586,"lon":5.39498,"is_reserved":false,"is_disabled":false,"rental_uris":{"android":"levelo://app?vid=e156dac0-2ce7-49fd-8840-1e3df2d87f9b","ios":"levelo://app?vid=e156dac0-2ce7-49fd-8840-1e3df2d87f9b"},"vehicle_type_id":"4","last_reported":1756336171,"current_range_meters":14000,"station_id":"ce4bh292rcd13ifvqdg0","pricing_plan_id":"cebpf4jnsgd1na2vs0mg"},{"bike_id":"06d7a368-7156-454c-a01c-b0a0ebbf9e53","system_id":"levelo_inurba_marseille","lat":43.2798,"lon":5.38691,"is_reserved":false,"is_disabled":false,"rental_uris":{"android":"levelo://app?vid=06d7a368-7156-454c-a01c-b0a0ebbf9e53","ios":"levelo://app?vid=06d7a368-7156-454c-a01c-b0a0ebbf9e53"},"vehicle_type_id":"4","last_reported":1756336171,"current_range_meters":14000,"station_id":"ce4bhg12rcd13ifvqf80","pricing_plan_id":"cebpf4jnsgd1na2vs0mg"},{"bike_id":"61e0aeb8-5699-47ea-a3ed-bf5e89f7b855","system_id":"levelo_inurba_marseille","lat":43.28103,"lon":5.37839,"is_reserved":false,"is_disabled":false,"rental_uris":{"android":"levelo://app?vid=61e0aeb8-5699-47ea-a3ed-bf5e89f7b855","ios":"levelo://app?vid=61e0aeb8-5699-47ea-a3ed-bf5e89f7b855"},"vehicle_type_id":"4","last_reported":1756336171,"current_range_meters":14000,"station_id":"ce4bha12rcd13ifvqee0","pricing_plan_id":"cebpf4jnsgd1na2vs0mg"},{"bike_id":"996955b4-96d3-4239-ac3d-b65655960acf","system_id":"levelo_inurba_marseille","lat":43.28595,"lon":5.39484,"is_reserved":false,"is_disabled":false,"rental_uris":{"android":"levelo://app?vid=996955b4-96d3-4239-ac3d-b65655960acf","ios":"levelo://app?vid=996955b4-96d3-4239-ac3d-b65655960acf"},"vehicle_type_id":"4","last_reported":1756336171,"current_range_meters":14400,"station_id":"ce4bh292rcd13ifvqdg0","pricing_plan_id":"cebpf4jnsgd1na2vs0mg"},{"bike_id":"e82552c7-913c-4c92-9e73-cdd5e1395b6f","system_id":"levelo_inurba_marseille","lat":43.29033,"lon":5.39961,"is_reserved":false,"is_disabled":false,"rental_uris":{"android":"levelo://app?vid=e82552c7-913c-4c92-9e73-cdd5e1395b6f","ios":"levelo://app?vid=e82552c7-913c-4c92-9e73-cdd5e1395b6f"},"vehicle_type_id":"4","last_reported":1756336171,"current_range_meters":14400,"station_id":"","pricing_plan_id":"cebpf4jnsgd1na2vs0mg"},{"bike_id":"7237fe4e-ffd5-4df0-8000-3e42be288929","system_id":"levelo_inurba_marseille","lat":43.25504,"lon":5.37655,"is_reserved":false,"is_disabled":false,"rental_uris":{"android":"levelo://app?vid=7237fe4e-ffd5-4df0-8000-3e42be288929","ios":"levelo://app?vid=7237fe4e-ffd5-4df0-8000-3e42be288929"},"vehicle_type_id":"4","last_reported":1756336171,"current_range_meters":14400,"station_id":"ce4bhh12rcd13ifvqff0","pricing_plan_id":"cebpf4jnsgd1na2vs0mg"},{"bike_id":"44d9d2d8-1bb9-431f-bdd1-622d8e0ea90c","system_id":"levelo_inurba_marseille","lat":43.26249,"lon":5.396834,"is_reserved":false,"is_disabled":false,"rental_uris":{"android":"levelo://app?vid=44d9d2d8-1bb9-431f-bdd1-622d8e0ea90c","ios":"levelo://app?vid=44d9d2d8-1bb9-431f-bdd1-622d8e0ea90c"},"vehicle_type_id":"4","last_reported":1756336171,"current_range_meters":14400,"station_id":"","pricing_plan_id":"cebpf4jnsgd1na2vs0mg"},{"bike_id":"4cb373c2-c866-4ffe-be1f-de93e275c529","system_id":"levelo_inurba_marseille","lat":43.29007,"lon":5.36764,"is_reserved":false,"is_disabled":false,"rental_uris":{"android":"levelo://app?vid=4cb373c2-c866-4ffe-be1f-de93e275c529","ios":"levelo://app?vid=4cb373c2-c866-4ffe-be1f-de93e275c529"},"vehicle_type_id":"4","last_reported":1756336171,"current_range_meters":14400,"station_id":"","pricing_plan_id":"cebpf4jnsgd1na2vs0mg"},{"bike_id":"9c401436-7aa7-494a-9cc1-967079e60b6f","system_id":"levelo_inurba_marseille","lat":43.25941,"lon":5.40905,"is_reserved":false,"is_disabled":false,"rental_uris":{"android":"levelo://app?vid=9c401436-7aa7-494a-9cc1-967079e60b6f","ios":"levelo://app?vid=9c401436-7aa7-494a-9cc1-967079e60b6f"},"vehicle_type_id":"4","last_reported":1756336171,"current_range_meters":14400,"station_id":"ce4bhm92rcd13ifvqglg","pricing_plan_id":"cebpf4jnsgd1na2vs0mg"},{"bike_id":"fa17454f-4e46-4ff2-9ddd-c7285b6a38f9","system_id":"levelo_inurba_marseille","lat":43.27921,"lon":5.39583,"is_reserved":false,"is_disabled":false,"rental_uris":{"android":"levelo://app?vid=fa17454f-4e46-4ff2-9ddd-c7285b6a38f9","ios":"levelo://app?vid=fa17454f-4e46-4ff2-9ddd-c7285b6a38f9"},"vehicle_type_id":"4","last_reported":1756336171,"current_range_meters":14400,"station_id":"ce4bhf92rcd13ifvqf40","pricing_plan_id":"cebpf4jnsgd1na2vs0mg"},{"bike_id":"8498fa8e-4f91-459d-a0f4-2fbed7e50f59","system_id":"levelo_inurba_marseille","lat":43.28705,"lon":5.39988,"is_reserved":false,"is_disabled":false,"rental_uris":{"android":"levelo://app?vid=8498fa8e-4f91-459d-a0f4-2fbed7e50f59","ios":"levelo://app?vid=8498fa8e-4f91-459d-a0f4-2fbed7e50f59"},"vehicle_type_id":"4","last_reported":1756336171,"current_range_meters":14400,"station_id":"ce4bho92rcd13ifvqh3g","pricing_plan_id":"cebpf4jnsgd1na2vs0mg"},{"bike_id":"657578a2-8337-49f8-b96e-fa24e3a82841","system_id":"levelo_inurba_marseille","lat":43.29815,"lon":5.39363,"is_reserved":false,"is_disabled":false,"rental_uris":{"android":"levelo://app?vid=657578a2-8337-49f8-b96e-fa24e3a82841","ios":"levelo://app?vid=657578a2-8337-49f8-b96e-fa24e3a82841"},"vehicle_type_id":"4","last_reported":1756336171,"current_range_meters":14800,"station_id":"chh1huq6cuj3fo74tm60","pricing_plan_id":"cebpf4jnsgd1na2vs0mg"},{"bike_id":"8d86e82e-f0ad-4fc8-af5b-5787d176b397","system_id":"levelo_inurba_marseille","lat":43.30641,"lon":5.40098,"is_reserved":false,"is_disabled":false,"rental_uris":{"android":"levelo://app?vid=8d86e82e-f0ad-4fc8-af5b-5787d176b397","ios":"levelo://app?vid=8d86e82e-f0ad-4fc8-af5b-5787d176b397"},"vehicle_type_id":"4","last_reported":1756336171,"current_range_meters":14800,"station_id":"ce4bh112rcd13ifvqda0","pricing_plan_id":"cebpf4jnsgd1na2vs0mg"},{"bike_id":"d810acf0-5bd2-4bf1-848d-31cd30d105e6","system_id":"levelo_inurba_marseille","lat":43.269831,"lon":5.392782,"is_reserved":false,"is_disabled":false,"rental_uris":{"android":"levelo://app?vid=d810acf0-5bd2-4bf1-848d-31cd30d105e6","ios":"levelo://app?vid=d810acf0-5bd2-4bf1-848d-31cd30d105e6"},"vehicle_type_id":"4","last_reported":1756336171,"current_range_meters":14800,"station_id":"","pricing_plan_id":"cebpf4jnsgd1na2vs0mg"},{"bike_id":"ffd21136-ae47-45ee-8fc5-e7f85ea84802","system_id":"levelo_inurba_marseille","lat":43.29766,"lon":5.38305,"is_reserved":false,"is_disabled":false,"rental_uris":{"android":"levelo://app?vid=ffd21136-ae47-45ee-8fc5-e7f85ea84802","ios":"levelo://app?vid=ffd21136-ae47-45ee-8fc5-e7f85ea84802"},"vehicle_type_id":"4","last_reported":1756336171,"current_range_meters":14800,"station_id":"","pricing_plan_id":"cebpf4jnsgd1na2vs0mg"},{"bike_id":"39dec849-b61b-4e36-8148-0080f86d037d","system_id":"levelo_inurba_marseille","lat":43.303583,"lon":5.418667,"is_reserved":false,"is_disabled":false,"rental_uris":{"android":"levelo://app?vid=39dec849-b61b-4e36-8148-0080f86d037d","ios":"levelo://app?vid=39dec849-b61b-4e36-8148-0080f86d037d"},"vehicle_type_id":"4","last_reported":1756336171,"current_range_meters":14800,"station_id":"ce4bhop2rcd13ifvqh7g","pricing_plan_id":"cebpf4jnsgd1na2vs0mg"},{"bike_id":"b7e004ff-e4d8-46d5-8683-b85c40a4cc3e","system_id":"levelo_inurba_marseille","lat":43.26025,"lon":5.37543,"is_reserved":false,"is_disabled":false,"rental_uris":{"android":"levelo://app?vid=b7e004ff-e4d8-46d5-8683-b85c40a4cc3e","ios":"levelo://app?vid=b7e004ff-e4d8-46d5-8683-b85c40a4cc3e"},"vehicle_type_id":"4","last_reported":1756336171,"current_range_meters":14800,"station_id":"ce4bhgh2rcd13ifvqfa0","pricing_plan_id":"cebpf4jnsgd1na2vs0mg"},{"bike_id":"ddb358c1-62d4-45c6-afcf-b1c4ff0c210b","system_id":"levelo_inurba_marseille","lat":43.28675,"lon":5.39998,"is_reserved":false,"is_disabled":false,"rental_uris":{"android":"levelo://app?vid=ddb358c1-62d4-45c6-afcf-b1c4ff0c210b","ios":"levelo://app?vid=ddb358c1-62d4-45c6-afcf-b1c4ff0c210b"},"vehicle_type_id":"4","last_reported":1756336171,"current_range_meters":14800,"station_id":"ce4bho92rcd13ifvqh3g","pricing_plan_id":"cebpf4jnsgd1na2vs0mg"},{"bike_id":"1efdb9a0-275b-422e-aab3-4fb6404d513c","system_id":"levelo_inurba_marseille","lat":43.25589,"lon":5.38243,"is_reserved":false,"is_disabled":false,"rental_uris":{"android":"levelo://app?vid=1efdb9a0-275b-422e-aab3-4fb6404d513c","ios":"levelo://app?vid=1efdb9a0-275b-422e-aab3-4fb6404d513c"},"vehicle_type_id":"4","last_reported":1756336171,"current_range_meters":14800,"station_id":"ce4bhih2rcd13ifvqfs0","pricing_plan_id":"cebpf4jnsgd1na2vs0mg"},{"bike_id":"80a1b9c0-3c81-4afb-9b6e-98e75f27b215","system_id":"levelo_inurba_marseille","lat":43.262261,"lon":5.4045,"is_reserved":false,"is_disabled":false,"rental_uris":{"android":"levelo://app?vid=80a1b9c0-3c81-4afb-9b6e-98e75f27b215","ios":"levelo://app?vid=80a1b9c0-3c81-4afb-9b6e-98e75f27b215"},"vehicle_type_id":"4","last_reported":1756336171,"current_range_meters":14800,"station_id":"ce4bhmh2rcd13ifvqgmg","pricing_plan_id":"cebpf4jnsgd1na2vs0mg"},{"bike_id":"48bce130-f4d9-4be0-b479-1ef9eb4281d3","system_id":"levelo_inurba_marseille","lat":43.339,"lon":5.35529,"is_reserved":false,"is_disabled":false,"rental_uris":{"android":"levelo://app?vid=48bce130-f4d9-4be0-b479-1ef9eb4281d3","ios":"levelo://app?vid=48bce130-f4d9-4be0-b479-1ef9eb4281d3"},"vehicle_type_id":"4","last_reported":1756336171,"current_range_meters":14800,"station_id":"","pricing_plan_id":"cebpf4jnsgd1na2vs0mg"},{"bike_id":"5b0cb2b1-1e26-487a-9af8-654a14732b39","system_id":"levelo_inurba_marseille","lat":43.30353,"lon":5.41876,"is_reserved":false,"is_disabled":false,"rental_uris":{"android":"levelo://app?vid=5b0cb2b1-1e26-487a-9af8-654a14732b39","ios":"levelo://app?vid=5b0cb2b1-1e26-487a-9af8-654a14732b39"},"vehicle_type_id":"4","last_reported":1756336171,"current_range_meters":15200,"station_id":"ce4bhop2rcd13ifvqh7g","pricing_plan_id":"cebpf4jnsgd1na2vs0mg"},{"bike_id":"c67682e4-ad86-4b65-b4ef-e774963b7e60","system_id":"levelo_inurba_marseille","lat":43.23193,"lon":5.35548,"is_reserved":false,"is_disabled":false,"rental_uris":{"android":"levelo://app?vid=c67682e4-ad86-4b65-b4ef-e774963b7e60","ios":"levelo://app?vid=c67682e4-ad86-4b65-b4ef-e774963b7e60"},"vehicle_type_id":"4","last_reported":1756336171,"current_range_meters":15200,"station_id":"ce4bhu92rcd13ifvqi70","pricing_plan_id":"cebpf4jnsgd1na2vs0mg"},{"bike_id":"c361e3e0-44af-4eaf-aa8a-86e2cae37080","system_id":"levelo_inurba_marseille","lat":43.31375,"lon":5.38502,"is_reserved":false,"is_disabled":false,"rental_uris":{"android":"levelo://app?vid=c361e3e0-44af-4eaf-aa8a-86e2cae37080","ios":"levelo://app?vid=c361e3e0-44af-4eaf-aa8a-86e2cae37080"},"vehicle_type_id":"4","last_reported":1756336171,"current_range_meters":15200,"station_id":"ce4bgt92rcd13ifvqcf0","pricing_plan_id":"cebpf4jnsgd1na2vs0mg"},{"bike_id":"00d02647-b073-44ee-ac2f-af1186296d5e","system_id":"levelo_inurba_marseille","lat":43.3176,"lon":5.39013,"is_reserved":false,"is_disabled":false,"rental_uris":{"android":"levelo://app?vid=00d02647-b073-44ee-ac2f-af1186296d5e","ios":"levelo://app?vid=00d02647-b073-44ee-ac2f-af1186296d5e"},"vehicle_type_id":"4","last_reported":1756336171,"current_range_meters":14800,"station_id":"ce4bhqp2rcd13ifvqhng","pricing_plan_id":"cebpf4jnsgd1na2vs0mg"},{"bike_id":"a7668575-95a7-454a-b35f-d58c8e9e5d47","system_id":"levelo_inurba_marseille","lat":43.28671,"lon":5.38667,"is_reserved":false,"is_disabled":false,"rental_uris":{"android":"levelo://app?vid=a7668575-95a7-454a-b35f-d58c8e9e5d47","ios":"levelo://app?vid=a7668575-95a7-454a-b35f-d58c8e9e5d47"},"vehicle_type_id":"4","last_reported":1756336171,"current_range_meters":15200,"station_id":"ce4bh492rcd13ifvqdug","pricing_plan_id":"cebpf4jnsgd1na2vs0mg"},{"bike_id":"3cb1136c-a9d5-487f-9a54-2cd07783e631","system_id":"levelo_inurba_marseille","lat":43.25501,"lon":5.37647,"is_reserved":false,"is_disabled":false,"rental_uris":{"android":"levelo://app?vid=3cb1136c-a9d5-487f-9a54-2cd07783e631","ios":"levelo://app?vid=3cb1136c-a9d5-487f-9a54-2cd07783e631"},"vehicle_type_id":"4","last_reported":1756336171,"current_range_meters":15200,"station_id":"ce4bhh12rcd13ifvqff0","pricing_plan_id":"cebpf4jnsgd1na2vs0mg"},{"bike_id":"ffe6df59-3fc1-4d81-9326-f6f6418e7718","system_id":"levelo_inurba_marseille","lat":43.29756,"lon":5.37354,"is_reserved":false,"is_disabled":false,"rental_uris":{"android":"levelo://app?vid=ffe6df59-3fc1-4d81-9326-f6f6418e7718","ios":"levelo://app?vid=ffe6df59-3fc1-4d81-9326-f6f6418e7718"},"vehicle_type_id":"4","last_reported":1756336171,"current_range_meters":16000,"station_id":"","pricing_plan_id":"cebpf4jnsgd1na2vs0mg"},{"bike_id":"77e96fd5-8857-43d1-b79e-f050f29ec889","system_id":"levelo_inurba_marseille","lat":43.304361,"lon":5.388967,"is_reserved":false,"is_disabled":false,"rental_uris":{"android":"levelo://app?vid=77e96fd5-8857-43d1-b79e-f050f29ec889","ios":"levelo://app?vid=77e96fd5-8857-43d1-b79e-f050f29ec889"},"vehicle_type_id":"4","last_reported":1756336171,"current_range_meters":16000,"station_id":"ce4bgk12rcd13ifvqbi0","pricing_plan_id":"cebpf4jnsgd1na2vs0mg"},{"bike_id":"12b63ee0-45c1-4b1e-9474-a4f21a198892","system_id":"levelo_inurba_marseille","lat":43.29312,"lon":5.37168,"is_reserved":false,"is_disabled":false,"rental_uris":{"android":"levelo://app?vid=12b63ee0-45c1-4b1e-9474-a4f21a198892","ios":"levelo://app?vid=12b63ee0-45c1-4b1e-9474-a4f21a198892"},"vehicle_type_id":"4","last_reported":1756336171,"current_range_meters":16000,"station_id":"ce4bgh92rcd13ifvqb40","pricing_plan_id":"cebpf4jnsgd1na2vs0mg"},{"bike_id":"5bd0bf94-8107-4b1e-947c-e216ba33810b","system_id":"levelo_inurba_marseille","lat":43.31174,"lon":5.387151,"is_reserved":false,"is_disabled":false,"rental_uris":{"android":"levelo://app?vid=5bd0bf94-8107-4b1e-947c-e216ba33810b","ios":"levelo://app?vid=5bd0bf94-8107-4b1e-947c-e216ba33810b"},"vehicle_type_id":"4","last_reported":1756336171,"current_range_meters":5600,"station_id":"ce4bgv12rcd13ifvqcp0","pricing_plan_id":"cebpf4jnsgd1na2vs0mg"},{"bike_id":"ff5d5661-33cc-4b3f-b9f9-2adbb1f667a2","system_id":"levelo_inurba_marseille","lat":43.30949,"lon":5.39036,"is_reserved":false,"is_disabled":false,"rental_uris":{"android":"levelo://app?vid=ff5d5661-33cc-4b3f-b9f9-2adbb1f667a2","ios":"levelo://app?vid=ff5d5661-33cc-4b3f-b9f9-2adbb1f667a2"},"vehicle_type_id":"4","last_reported":1756336171,"current_range_meters":15200,"station_id":"ce4bgup2rcd13ifvqco0","pricing_plan_id":"cebpf4jnsgd1na2vs0mg"},{"bike_id":"424a2955-b205-49f4-ad7b-dc229419e507","system_id":"levelo_inurba_marseille","lat":43.28836,"lon":5.39325,"is_reserved":false,"is_disabled":false,"rental_uris":{"android":"levelo://app?vid=424a2955-b205-49f4-ad7b-dc229419e507","ios":"levelo://app?vid=424a2955-b205-49f4-ad7b-dc229419e507"},"vehicle_type_id":"4","last_reported":1756336171,"current_range_meters":16400,"station_id":"ce4bh2p2rcd13ifvqdi0","pricing_plan_id":"cebpf4jnsgd1na2vs0mg"},{"bike_id":"9fe0c008-4c21-480c-82eb-ccabb02ab573","system_id":"levelo_inurba_marseille","lat":43.26576,"lon":5.39005,"is_reserved":false,"is_disabled":false,"rental_uris":{"android":"levelo://app?vid=9fe0c008-4c21-480c-82eb-ccabb02ab573","ios":"levelo://app?vid=9fe0c008-4c21-480c-82eb-ccabb02ab573"},"vehicle_type_id":"4","last_reported":1756336171,"current_range_meters":16400,"station_id":"ce4bhe12rcd13ifvqf30","pricing_plan_id":"cebpf4jnsgd1na2vs0mg"},{"bike_id":"23ae6fed-deff-411b-8b6e-f95e32ccd4d0","system_id":"levelo_inurba_marseille","lat":43.32126,"lon":5.36762,"is_reserved":false,"is_disabled":false,"rental_uris":{"android":"levelo://app?vid=23ae6fed-deff-411b-8b6e-f95e32ccd4d0","ios":"levelo://app?vid=23ae6fed-deff-411b-8b6e-f95e32ccd4d0"},"vehicle_type_id":"4","last_reported":1756336171,"current_range_meters":16400,"station_id":"ce4bhrh2rcd13ifvqhug","pricing_plan_id":"cebpf4jnsgd1na2vs0mg"},{"bike_id":"5d572912-f124-4c0c-8714-282331f8c6f2","system_id":"levelo_inurba_marseille","lat":43.3097,"lon":5.40162,"is_reserved":false,"is_disabled":false,"rental_uris":{"android":"levelo://app?vid=5d572912-f124-4c0c-8714-282331f8c6f2","ios":"levelo://app?vid=5d572912-f124-4c0c-8714-282331f8c6f2"},"vehicle_type_id":"4","last_reported":1756336171,"current_range_meters":16400,"station_id":"ce4bgvp2rcd13ifvqct0","pricing_plan_id":"cebpf4jnsgd1na2vs0mg"},{"bike_id":"43485147-2ceb-4191-89c1-80fb0a5527a5","system_id":"levelo_inurba_marseille","lat":43.292763,"lon":5.368495,"is_reserved":false,"is_disabled":false,"rental_uris":{"android":"levelo://app?vid=43485147-2ceb-4191-89c1-80fb0a5527a5","ios":"levelo://app?vid=43485147-2ceb-4191-89c1-80fb0a5527a5"},"vehicle_type_id":"4","last_reported":1756336171,"current_range_meters":16400,"station_id":"ce4bhbp2rcd13ifvqesg","pricing_plan_id":"cebpf4jnsgd1na2vs0mg"},{"bike_id":"01acadab-cadc-479f-8160-13b317197971","system_id":"levelo_inurba_marseille","lat":43.28113,"lon":5.37851,"is_reserved":false,"is_disabled":false,"rental_uris":{"android":"levelo://app?vid=01acadab-cadc-479f-8160-13b317197971","ios":"levelo://app?vid=01acadab-cadc-479f-8160-13b317197971"},"vehicle_type_id":"4","last_reported":1756336171,"current_range_meters":16400,"station_id":"ce4bha12rcd13ifvqee0","pricing_plan_id":"cebpf4jnsgd1na2vs0mg"},{"bike_id":"50ffaa2c-7bf6-45b3-8b8e-135dbae3a90b","system_id":"levelo_inurba_marseille","lat":43.27947,"lon":5.38707,"is_reserved":false,"is_disabled":false,"rental_uris":{"android":"levelo://app?vid=50ffaa2c-7bf6-45b3-8b8e-135dbae3a90b","ios":"levelo://app?vid=50ffaa2c-7bf6-45b3-8b8e-135dbae3a90b"},"vehicle_type_id":"4","last_reported":1756336171,"current_range_meters":16400,"station_id":"ce4bhg12rcd13ifvqf80","pricing_plan_id":"cebpf4jnsgd1na2vs0mg"},{"bike_id":"0793473c-7c91-4d1f-8ffb-c00486129b1d","system_id":"levelo_inurba_marseille","lat":43.30077,"lon":5.39091,"is_reserved":false,"is_disabled":true,"rental_uris":{"android":"levelo://app?vid=0793473c-7c91-4d1f-8ffb-c00486129b1d","ios":"levelo://app?vid=0793473c-7c91-4d1f-8ffb-c00486129b1d"},"vehicle_type_id":"4","last_reported":1756336171,"current_range_meters":16400,"station_id":"ce4bh192rcd13ifvqdb0","pricing_plan_id":"cebpf4jnsgd1na2vs0mg"},{"bike_id":"8df4d72a-2534-4225-b0d0-5b48bd4c7385","system_id":"levelo_inurba_marseille","lat":43.29452,"lon":5.39776,"is_reserved":false,"is_disabled":false,"rental_uris":{"android":"levelo://app?vid=8df4d72a-2534-4225-b0d0-5b48bd4c7385","ios":"levelo://app?vid=8df4d72a-2534-4225-b0d0-5b48bd4c7385"},"vehicle_type_id":"4","last_reported":1756336171,"current_range_meters":16800,"station_id":"ce4bh3h2rcd13ifvqdo0","pricing_plan_id":"cebpf4jnsgd1na2vs0mg"},{"bike_id":"8e24ebe6-2c97-4691-b6fd-34ce77ea55c9","system_id":"levelo_inurba_marseille","lat":43.2964,"lon":5.4059,"is_reserved":false,"is_disabled":false,"rental_uris":{"android":"levelo://app?vid=8e24ebe6-2c97-4691-b6fd-34ce77ea55c9","ios":"levelo://app?vid=8e24ebe6-2c97-4691-b6fd-34ce77ea55c9"},"vehicle_type_id":"4","last_reported":1756336171,"current_range_meters":16800,"station_id":"ce4bh0h2rcd13ifvqd60","pricing_plan_id":"cebpf4jnsgd1na2vs0mg"},{"bike_id":"50015baa-2cc6-4aef-b9af-1b853ed5a318","system_id":"levelo_inurba_marseille","lat":43.27913,"lon":5.3958,"is_reserved":false,"is_disabled":false,"rental_uris":{"android":"levelo://app?vid=50015baa-2cc6-4aef-b9af-1b853ed5a318","ios":"levelo://app?vid=50015baa-2cc6-4aef-b9af-1b853ed5a318"},"vehicle_type_id":"4","last_reported":1756336171,"current_range_meters":16800,"station_id":"ce4bhf92rcd13ifvqf40","pricing_plan_id":"cebpf4jnsgd1na2vs0mg"},{"bike_id":"7a0d8021-3a24-4739-a180-920a2308c697","system_id":"levelo_inurba_marseille","lat":43.30151,"lon":5.37451,"is_reserved":false,"is_disabled":false,"rental_uris":{"android":"levelo://app?vid=7a0d8021-3a24-4739-a180-920a2308c697","ios":"levelo://app?vid=7a0d8021-3a24-4739-a180-920a2308c697"},"vehicle_type_id":"4","last_reported":1756336171,"current_range_meters":16800,"station_id":"ce4bgs92rcd13ifvqcc0","pricing_plan_id":"cebpf4jnsgd1na2vs0mg"},{"bike_id":"1091f287-02ee-4a66-888b-59c35fd65791","system_id":"levelo_inurba_marseille","lat":43.231943,"lon":5.355588,"is_reserved":false,"is_disabled":false,"rental_uris":{"android":"levelo://app?vid=1091f287-02ee-4a66-888b-59c35fd65791","ios":"levelo://app?vid=1091f287-02ee-4a66-888b-59c35fd65791"},"vehicle_type_id":"4","last_reported":1756336171,"current_range_meters":16800,"station_id":"ce4bhu92rcd13ifvqi70","pricing_plan_id":"cebpf4jnsgd1na2vs0mg"},{"bike_id":"ec0f9f0d-0796-42ac-9cf5-bb8596cdf342","system_id":"levelo_inurba_marseille","lat":43.21209,"lon":5.35049,"is_reserved":false,"is_disabled":false,"rental_uris":{"android":"levelo://app?vid=ec0f9f0d-0796-42ac-9cf5-bb8596cdf342","ios":"levelo://app?vid=ec0f9f0d-0796-42ac-9cf5-bb8596cdf342"},"vehicle_type_id":"4","last_reported":1756336171,"current_range_meters":16800,"station_id":"","pricing_plan_id":"cebpf4jnsgd1na2vs0mg"},{"bike_id":"03274b9c-e910-4d9e-87c3-4c3ae49410cd","system_id":"levelo_inurba_marseille","lat":43.30154,"lon":5.37412,"is_reserved":false,"is_disabled":false,"rental_uris":{"android":"levelo://app?vid=03274b9c-e910-4d9e-87c3-4c3ae49410cd","ios":"levelo://app?vid=03274b9c-e910-4d9e-87c3-4c3ae49410cd"},"vehicle_type_id":"4","last_reported":1756336171,"current_range_meters":16800,"station_id":"ce4bgs92rcd13ifvqcc0","pricing_plan_id":"cebpf4jnsgd1na2vs0mg"},{"bike_id":"3c1d8ebb-3684-4da5-b53d-50ab8d6c0833","system_id":"levelo_inurba_marseille","lat":43.29586,"lon":5.375227,"is_reserved":false,"is_disabled":false,"rental_uris":{"android":"levelo://app?vid=3c1d8ebb-3684-4da5-b53d-50ab8d6c0833","ios":"levelo://app?vid=3c1d8ebb-3684-4da5-b53d-50ab8d6c0833"},"vehicle_type_id":"4","last_reported":1756336171,"current_range_meters":17200,"station_id":"","pricing_plan_id":"cebpf4jnsgd1na2vs0mg"},{"bike_id":"f6170492-023a-4521-897b-02eda2834075","system_id":"levelo_inurba_marseille","lat":43.299642,"lon":5.38499,"is_reserved":false,"is_disabled":false,"rental_uris":{"android":"levelo://app?vid=f6170492-023a-4521-897b-02eda2834075","ios":"levelo://app?vid=f6170492-023a-4521-897b-02eda2834075"},"vehicle_type_id":"4","last_reported":1756336171,"current_range_meters":17200,"station_id":"ce4bh312rcd13ifvqdj0","pricing_plan_id":"cebpf4jnsgd1na2vs0mg"},{"bike_id":"615f9cb4-bc08-43f1-87ef-884359fe2e39","system_id":"levelo_inurba_marseille","lat":43.3236,"lon":5.36759,"is_reserved":false,"is_disabled":false,"rental_uris":{"android":"levelo://app?vid=615f9cb4-bc08-43f1-87ef-884359fe2e39","ios":"levelo://app?vid=615f9cb4-bc08-43f1-87ef-884359fe2e39"},"vehicle_type_id":"4","last_reported":1756336171,"current_range_meters":17200,"station_id":"ce4bhsh2rcd13ifvqi2g","pricing_plan_id":"cebpf4jnsgd1na2vs0mg"},{"bike_id":"f81d9078-265a-4cc3-81fe-a4e37d459336","system_id":"levelo_inurba_marseille","lat":43.2669,"lon":5.38289,"is_reserved":false,"is_disabled":true,"rental_uris":{"android":"levelo://app?vid=f81d9078-265a-4cc3-81fe-a4e37d459336","ios":"levelo://app?vid=f81d9078-265a-4cc3-81fe-a4e37d459336"},"vehicle_type_id":"4","last_reported":1756336171,"current_range_meters":17200,"station_id":"ce4bhg92rcd13ifvqf90","pricing_plan_id":"cebpf4jnsgd1na2vs0mg"},{"bike_id":"17e913a4-9bad-45a2-a833-803e708ff009","system_id":"levelo_inurba_marseille","lat":43.27947,"lon":5.38705,"is_reserved":false,"is_disabled":false,"rental_uris":{"android":"levelo://app?vid=17e913a4-9bad-45a2-a833-803e708ff009","ios":"levelo://app?vid=17e913a4-9bad-45a2-a833-803e708ff009"},"vehicle_type_id":"4","last_reported":1756336171,"current_range_meters":17200,"station_id":"ce4bhg12rcd13ifvqf80","pricing_plan_id":"cebpf4jnsgd1na2vs0mg"},{"bike_id":"831a2354-0919-4530-8e5a-84c32dcc2c03","system_id":"levelo_inurba_marseille","lat":43.272052,"lon":5.391826,"is_reserved":false,"is_disabled":false,"rental_uris":{"android":"levelo://app?vid=831a2354-0919-4530-8e5a-84c32dcc2c03","ios":"levelo://app?vid=831a2354-0919-4530-8e5a-84c32dcc2c03"},"vehicle_type_id":"4","last_reported":1756336171,"current_range_meters":17200,"station_id":"","pricing_plan_id":"cebpf4jnsgd1na2vs0mg"},{"bike_id":"74708e55-13ec-4825-b2e1-6b14158b5d70","system_id":"levelo_inurba_marseille","lat":43.28381,"lon":5.38627,"is_reserved":false,"is_disabled":false,"rental_uris":{"android":"levelo://app?vid=74708e55-13ec-4825-b2e1-6b14158b5d70","ios":"levelo://app?vid=74708e55-13ec-4825-b2e1-6b14158b5d70"},"vehicle_type_id":"4","last_reported":1756336171,"current_range_meters":17200,"station_id":"ce4bh492rcd13ifvqdvg","pricing_plan_id":"cebpf4jnsgd1na2vs0mg"},{"bike_id":"2c246624-962d-4f72-8341-3c6523db29ef","system_id":"levelo_inurba_marseille","lat":43.26554,"lon":5.372911,"is_reserved":false,"is_disabled":true,"rental_uris":{"android":"levelo://app?vid=2c246624-962d-4f72-8341-3c6523db29ef","ios":"levelo://app?vid=2c246624-962d-4f72-8341-3c6523db29ef"},"vehicle_type_id":"4","last_reported":1756336171,"current_range_meters":17200,"station_id":"ce4bhg12rcd13ifvqf70","pricing_plan_id":"cebpf4jnsgd1na2vs0mg"},{"bike_id":"cddd7129-2972-4408-becb-877207b06e82","system_id":"levelo_inurba_marseille","lat":43.28453,"lon":5.35883,"is_reserved":false,"is_disabled":false,"rental_uris":{"android":"levelo://app?vid=cddd7129-2972-4408-becb-877207b06e82","ios":"levelo://app?vid=cddd7129-2972-4408-becb-877207b06e82"},"vehicle_type_id":"4","last_reported":1756336171,"current_range_meters":17200,"station_id":"ce4bhah2rcd13ifvqei0","pricing_plan_id":"cebpf4jnsgd1na2vs0mg"},{"bike_id":"1efaa925-7e59-4b2f-a6a3-4bdebac58ce2","system_id":"levelo_inurba_marseille","lat":43.28443,"lon":5.39201,"is_reserved":false,"is_disabled":false,"rental_uris":{"android":"levelo://app?vid=1efaa925-7e59-4b2f-a6a3-4bdebac58ce2","ios":"levelo://app?vid=1efaa925-7e59-4b2f-a6a3-4bdebac58ce2"},"vehicle_type_id":"4","last_reported":1756336171,"current_range_meters":16800,"station_id":"ce4bhoh2rcd13ifvqh5g","pricing_plan_id":"cebpf4jnsgd1na2vs0mg"},{"bike_id":"7f96cfc7-6b62-4cd3-a164-5a1ee471a17d","system_id":"levelo_inurba_marseille","lat":43.30572,"lon":5.36523,"is_reserved":false,"is_disabled":false,"rental_uris":{"android":"levelo://app?vid=7f96cfc7-6b62-4cd3-a164-5a1ee471a17d","ios":"levelo://app?vid=7f96cfc7-6b62-4cd3-a164-5a1ee471a17d"},"vehicle_type_id":"4","last_reported":1756336171,"current_range_meters":17200,"station_id":"ce4bgs12rcd13ifvqcag","pricing_plan_id":"cebpf4jnsgd1na2vs0mg"},{"bike_id":"9a7edf6e-5f68-421e-a102-2ef5b337d341","system_id":"levelo_inurba_marseille","lat":43.27973,"lon":5.41068,"is_reserved":false,"is_disabled":true,"rental_uris":{"android":"levelo://app?vid=9a7edf6e-5f68-421e-a102-2ef5b337d341","ios":"levelo://app?vid=9a7edf6e-5f68-421e-a102-2ef5b337d341"},"vehicle_type_id":"4","last_reported":1756336171,"current_range_meters":17600,"station_id":"ce4bhnp2rcd13ifvqh0g","pricing_plan_id":"cebpf4jnsgd1na2vs0mg"},{"bike_id":"1f366495-4294-4431-b3e5-b08979960d7c","system_id":"levelo_inurba_marseille","lat":43.30262,"lon":5.40065,"is_reserved":false,"is_disabled":false,"rental_uris":{"android":"levelo://app?vid=1f366495-4294-4431-b3e5-b08979960d7c","ios":"levelo://app?vid=1f366495-4294-4431-b3e5-b08979960d7c"},"vehicle_type_id":"4","last_reported":1756336171,"current_range_meters":17600,"station_id":"ce4bgvh2rcd13ifvqcs0","pricing_plan_id":"cebpf4jnsgd1na2vs0mg"},{"bike_id":"259905c0-0b2a-48d2-8997-dcb3931ef5bd","system_id":"levelo_inurba_marseille","lat":43.28079,"lon":5.37792,"is_reserved":false,"is_disabled":false,"rental_uris":{"android":"levelo://app?vid=259905c0-0b2a-48d2-8997-dcb3931ef5bd","ios":"levelo://app?vid=259905c0-0b2a-48d2-8997-dcb3931ef5bd"},"vehicle_type_id":"4","last_reported":1756336171,"current_range_meters":17600,"station_id":"ce4bha12rcd13ifvqee0","pricing_plan_id":"cebpf4jnsgd1na2vs0mg"},{"bike_id":"8a72b4e3-dba1-4109-8dd9-232fe8116587","system_id":"levelo_inurba_marseille","lat":43.24718,"lon":5.38105,"is_reserved":false,"is_disabled":false,"rental_uris":{"android":"levelo://app?vid=8a72b4e3-dba1-4109-8dd9-232fe8116587","ios":"levelo://app?vid=8a72b4e3-dba1-4109-8dd9-232fe8116587"},"vehicle_type_id":"4","last_reported":1756336171,"current_range_meters":17600,"station_id":"","pricing_plan_id":"cebpf4jnsgd1na2vs0mg"},{"bike_id":"07296681-3400-48d5-88e2-c863a00e5bf3","system_id":"levelo_inurba_marseille","lat":43.2286,"lon":5.35152,"is_reserved":false,"is_disabled":false,"rental_uris":{"android":"levelo://app?vid=07296681-3400-48d5-88e2-c863a00e5bf3","ios":"levelo://app?vid=07296681-3400-48d5-88e2-c863a00e5bf3"},"vehicle_type_id":"4","last_reported":1756336171,"current_range_meters":17600,"station_id":"cpo3532slgdg3j2ikp40","pricing_plan_id":"cebpf4jnsgd1na2vs0mg"},{"bike_id":"c48a169d-f83a-4cd2-9071-fb03788061d4","system_id":"levelo_inurba_marseille","lat":43.29706,"lon":5.37694,"is_reserved":false,"is_disabled":false,"rental_uris":{"android":"levelo://app?vid=c48a169d-f83a-4cd2-9071-fb03788061d4","ios":"levelo://app?vid=c48a169d-f83a-4cd2-9071-fb03788061d4"},"vehicle_type_id":"4","last_reported":1756336171,"current_range_meters":17600,"station_id":"ce4bgkh2rcd13ifvqbl0","pricing_plan_id":"cebpf4jnsgd1na2vs0mg"},{"bike_id":"c8dcab13-dbf7-47fe-a263-e2e39fcf121b","system_id":"levelo_inurba_marseille","lat":43.317143,"lon":5.377511,"is_reserved":false,"is_disabled":false,"rental_uris":{"android":"levelo://app?vid=c8dcab13-dbf7-47fe-a263-e2e39fcf121b","ios":"levelo://app?vid=c8dcab13-dbf7-47fe-a263-e2e39fcf121b"},"vehicle_type_id":"4","last_reported":1756336171,"current_range_meters":18000,"station_id":"ce4bgth2rcd13ifvqch0","pricing_plan_id":"cebpf4jnsgd1na2vs0mg"},{"bike_id":"e6caca03-e4c1-40ce-9f4e-cc5046f7af92","system_id":"levelo_inurba_marseille","lat":43.32022,"lon":5.38109,"is_reserved":false,"is_disabled":false,"rental_uris":{"android":"levelo://app?vid=e6caca03-e4c1-40ce-9f4e-cc5046f7af92","ios":"levelo://app?vid=e6caca03-e4c1-40ce-9f4e-cc5046f7af92"},"vehicle_type_id":"4","last_reported":1756336171,"current_range_meters":18000,"station_id":"","pricing_plan_id":"cebpf4jnsgd1na2vs0mg"},{"bike_id":"731ff345-1377-45e9-acf9-0825f15b172a","system_id":"levelo_inurba_marseille","lat":43.22931,"lon":5.353809,"is_reserved":false,"is_disabled":false,"rental_uris":{"android":"levelo://app?vid=731ff345-1377-45e9-acf9-0825f15b172a","ios":"levelo://app?vid=731ff345-1377-45e9-acf9-0825f15b172a"},"vehicle_type_id":"4","last_reported":1756336171,"current_range_meters":18000,"station_id":"cpo3532slgdg3j2ikp40","pricing_plan_id":"cebpf4jnsgd1na2vs0mg"},{"bike_id":"48067166-6c59-44a6-ba6e-ae441c3fbcd7","system_id":"levelo_inurba_marseille","lat":43.30934,"lon":5.4014,"is_reserved":false,"is_disabled":false,"rental_uris":{"android":"levelo://app?vid=48067166-6c59-44a6-ba6e-ae441c3fbcd7","ios":"levelo://app?vid=48067166-6c59-44a6-ba6e-ae441c3fbcd7"},"vehicle_type_id":"4","last_reported":1756336171,"current_range_meters":18000,"station_id":"ce4bgvp2rcd13ifvqct0","pricing_plan_id":"cebpf4jnsgd1na2vs0mg"},{"bike_id":"00865bff-72de-47be-acda-9cf6ec16a836","system_id":"levelo_inurba_marseille","lat":43.32112,"lon":5.36777,"is_reserved":false,"is_disabled":false,"rental_uris":{"android":"levelo://app?vid=00865bff-72de-47be-acda-9cf6ec16a836","ios":"levelo://app?vid=00865bff-72de-47be-acda-9cf6ec16a836"},"vehicle_type_id":"4","last_reported":1756336171,"current_range_meters":18000,"station_id":"ce4bhrh2rcd13ifvqhug","pricing_plan_id":"cebpf4jnsgd1na2vs0mg"},{"bike_id":"086fb8bd-6d0b-46ba-bd91-901ac277021b","system_id":"levelo_inurba_marseille","lat":43.269705,"lon":5.390362,"is_reserved":false,"is_disabled":false,"rental_uris":{"android":"levelo://app?vid=086fb8bd-6d0b-46ba-bd91-901ac277021b","ios":"levelo://app?vid=086fb8bd-6d0b-46ba-bd91-901ac277021b"},"vehicle_type_id":"4","last_reported":1756336171,"current_range_meters":18000,"station_id":"","pricing_plan_id":"cebpf4jnsgd1na2vs0mg"},{"bike_id":"d32b9a70-e7b0-474a-9b44-fdb298f1556a","system_id":"levelo_inurba_marseille","lat":43.30949,"lon":5.39034,"is_reserved":false,"is_disabled":false,"rental_uris":{"android":"levelo://app?vid=d32b9a70-e7b0-474a-9b44-fdb298f1556a","ios":"levelo://app?vid=d32b9a70-e7b0-474a-9b44-fdb298f1556a"},"vehicle_type_id":"4","last_reported":1756336171,"current_range_meters":18000,"station_id":"ce4bgup2rcd13ifvqco0","pricing_plan_id":"cebpf4jnsgd1na2vs0mg"},{"bike_id":"dcd1abdc-b426-4fff-a2e6-bec26e183f65","system_id":"levelo_inurba_marseille","lat":43.24183,"lon":5.3973,"is_reserved":false,"is_disabled":false,"rental_uris":{"android":"levelo://app?vid=dcd1abdc-b426-4fff-a2e6-bec26e183f65","ios":"levelo://app?vid=dcd1abdc-b426-4fff-a2e6-bec26e183f65"},"vehicle_type_id":"4","last_reported":1756336171,"current_range_meters":18000,"station_id":"ce4bhn12rcd13ifvqgpg","pricing_plan_id":"cebpf4jnsgd1na2vs0mg"},{"bike_id":"fad509bb-f53b-44b6-a94f-044ddb828f7d","system_id":"levelo_inurba_marseille","lat":43.27064,"lon":5.40258,"is_reserved":false,"is_disabled":true,"rental_uris":{"android":"levelo://app?vid=fad509bb-f53b-44b6-a94f-044ddb828f7d","ios":"levelo://app?vid=fad509bb-f53b-44b6-a94f-044ddb828f7d"},"vehicle_type_id":"4","last_reported":1756336171,"current_range_meters":18000,"station_id":"cjm6bp8fraef2m0cb0m0","pricing_plan_id":"cebpf4jnsgd1na2vs0mg"},{"bike_id":"fb6a8521-484d-4352-b1eb-1592447f7f98","system_id":"levelo_inurba_marseille","lat":43.28454,"lon":5.3589,"is_reserved":false,"is_disabled":false,"rental_uris":{"android":"levelo://app?vid=fb6a8521-484d-4352-b1eb-1592447f7f98","ios":"levelo://app?vid=fb6a8521-484d-4352-b1eb-1592447f7f98"},"vehicle_type_id":"4","last_reported":1756336171,"current_range_meters":18000,"station_id":"ce4bhah2rcd13ifvqei0","pricing_plan_id":"cebpf4jnsgd1na2vs0mg"},{"bike_id":"d5b5907d-1d02-4eef-aa20-0746cf4d0eac","system_id":"levelo_inurba_marseille","lat":43.28948,"lon":5.3639,"is_reserved":false,"is_disabled":false,"rental_uris":{"android":"levelo://app?vid=d5b5907d-1d02-4eef-aa20-0746cf4d0eac","ios":"levelo://app?vid=d5b5907d-1d02-4eef-aa20-0746cf4d0eac"},"vehicle_type_id":"4","last_reported":1756336171,"current_range_meters":18000,"station_id":"ce4bhc92rcd13ifvqetg","pricing_plan_id":"cebpf4jnsgd1na2vs0mg"},{"bike_id":"b43d7a83-48eb-4bc3-814f-5aeaa6724e9a","system_id":"levelo_inurba_marseille","lat":43.31364,"lon":5.38488,"is_reserved":false,"is_disabled":false,"rental_uris":{"android":"levelo://app?vid=b43d7a83-48eb-4bc3-814f-5aeaa6724e9a","ios":"levelo://app?vid=b43d7a83-48eb-4bc3-814f-5aeaa6724e9a"},"vehicle_type_id":"4","last_reported":1756336171,"current_range_meters":18000,"station_id":"ce4bgt92rcd13ifvqcf0","pricing_plan_id":"cebpf4jnsgd1na2vs0mg"},{"bike_id":"29c55d68-58c5-4ef2-b442-72bb9c55ddb0","system_id":"levelo_inurba_marseille","lat":43.323616,"lon":5.367403,"is_reserved":false,"is_disabled":false,"rental_uris":{"android":"levelo://app?vid=29c55d68-58c5-4ef2-b442-72bb9c55ddb0","ios":"levelo://app?vid=29c55d68-58c5-4ef2-b442-72bb9c55ddb0"},"vehicle_type_id":"4","last_reported":1756336171,"current_range_meters":18000,"station_id":"ce4bhsh2rcd13ifvqi2g","pricing_plan_id":"cebpf4jnsgd1na2vs0mg"},{"bike_id":"a66cf846-0eb4-49c2-a409-deac34f83121","system_id":"levelo_inurba_marseille","lat":43.29985,"lon":5.38476,"is_reserved":false,"is_disabled":true,"rental_uris":{"android":"levelo://app?vid=a66cf846-0eb4-49c2-a409-deac34f83121","ios":"levelo://app?vid=a66cf846-0eb4-49c2-a409-deac34f83121"},"vehicle_type_id":"4","last_reported":1756336171,"current_range_meters":18000,"station_id":"ce4bgj92rcd13ifvqbd0","pricing_plan_id":"cebpf4jnsgd1na2vs0mg"},{"bike_id":"b04f3934-c3ac-453d-bd76-79a8003278b0","system_id":"levelo_inurba_marseille","lat":43.30096,"lon":5.39081,"is_reserved":false,"is_disabled":false,"rental_uris":{"android":"levelo://app?vid=b04f3934-c3ac-453d-bd76-79a8003278b0","ios":"levelo://app?vid=b04f3934-c3ac-453d-bd76-79a8003278b0"},"vehicle_type_id":"4","last_reported":1756336171,"current_range_meters":18000,"station_id":"ce4bh192rcd13ifvqdb0","pricing_plan_id":"cebpf4jnsgd1na2vs0mg"},{"bike_id":"8cd383a6-fbd9-4809-9873-430c643e5314","system_id":"levelo_inurba_marseille","lat":43.24393,"lon":5.37057,"is_reserved":false,"is_disabled":false,"rental_uris":{"android":"levelo://app?vid=8cd383a6-fbd9-4809-9873-430c643e5314","ios":"levelo://app?vid=8cd383a6-fbd9-4809-9873-430c643e5314"},"vehicle_type_id":"4","last_reported":1756336171,"current_range_meters":18000,"station_id":"ce4bhhh2rcd13ifvqfk0","pricing_plan_id":"cebpf4jnsgd1na2vs0mg"},{"bike_id":"4c9c5e8f-e8ef-4293-bfce-8e0678777f42","system_id":"levelo_inurba_marseille","lat":43.29038,"lon":5.39973,"is_reserved":false,"is_disabled":false,"rental_uris":{"android":"levelo://app?vid=4c9c5e8f-e8ef-4293-bfce-8e0678777f42","ios":"levelo://app?vid=4c9c5e8f-e8ef-4293-bfce-8e0678777f42"},"vehicle_type_id":"4","last_reported":1756336171,"current_range_meters":18000,"station_id":"ce4bh392rcd13ifvqdm0","pricing_plan_id":"cebpf4jnsgd1na2vs0mg"},{"bike_id":"d4411ce1-1269-4134-adda-1eb61c16980f","system_id":"levelo_inurba_marseille","lat":43.28119,"lon":5.37864,"is_reserved":false,"is_disabled":true,"rental_uris":{"android":"levelo://app?vid=d4411ce1-1269-4134-adda-1eb61c16980f","ios":"levelo://app?vid=d4411ce1-1269-4134-adda-1eb61c16980f"},"vehicle_type_id":"4","last_reported":1756336171,"current_range_meters":18800,"station_id":"ce4bha12rcd13ifvqee0","pricing_plan_id":"cebpf4jnsgd1na2vs0mg"},{"bike_id":"5c71e373-97a3-4b9e-aa44-15d736b0d6c4","system_id":"levelo_inurba_marseille","lat":43.30305,"lon":5.39208,"is_reserved":false,"is_disabled":false,"rental_uris":{"android":"levelo://app?vid=5c71e373-97a3-4b9e-aa44-15d736b0d6c4","ios":"levelo://app?vid=5c71e373-97a3-4b9e-aa44-15d736b0d6c4"},"vehicle_type_id":"4","last_reported":1756336171,"current_range_meters":18800,"station_id":"ce4bgkh2rcd13ifvqbk0","pricing_plan_id":"cebpf4jnsgd1na2vs0mg"},{"bike_id":"db886a6e-1dd7-4ad6-80af-762275a5c8b0","system_id":"levelo_inurba_marseille","lat":43.27943,"lon":5.41046,"is_reserved":false,"is_disabled":false,"rental_uris":{"android":"levelo://app?vid=db886a6e-1dd7-4ad6-80af-762275a5c8b0","ios":"levelo://app?vid=db886a6e-1dd7-4ad6-80af-762275a5c8b0"},"vehicle_type_id":"4","last_reported":1756336171,"current_range_meters":18800,"station_id":"ce4bhnp2rcd13ifvqh0g","pricing_plan_id":"cebpf4jnsgd1na2vs0mg"},{"bike_id":"4065efaf-7189-487d-b340-7559ec59c7d4","system_id":"levelo_inurba_marseille","lat":43.29989,"lon":5.37155,"is_reserved":false,"is_disabled":true,"rental_uris":{"android":"levelo://app?vid=4065efaf-7189-487d-b340-7559ec59c7d4","ios":"levelo://app?vid=4065efaf-7189-487d-b340-7559ec59c7d4"},"vehicle_type_id":"4","last_reported":1756336171,"current_range_meters":18800,"station_id":"ce4bgr92rcd13ifvqc7g","pricing_plan_id":"cebpf4jnsgd1na2vs0mg"},{"bike_id":"44c3e0a1-f0f1-44e3-8ad0-3a65a48f5329","system_id":"levelo_inurba_marseille","lat":43.28588,"lon":5.39474,"is_reserved":false,"is_disabled":false,"rental_uris":{"android":"levelo://app?vid=44c3e0a1-f0f1-44e3-8ad0-3a65a48f5329","ios":"levelo://app?vid=44c3e0a1-f0f1-44e3-8ad0-3a65a48f5329"},"vehicle_type_id":"4","last_reported":1756336171,"current_range_meters":18800,"station_id":"ce4bh292rcd13ifvqdg0","pricing_plan_id":"cebpf4jnsgd1na2vs0mg"},{"bike_id":"0c3508f6-1b7b-4f6e-9680-e2f3f1eab143","system_id":"levelo_inurba_marseille","lat":43.30142,"lon":5.39861,"is_reserved":false,"is_disabled":false,"rental_uris":{"android":"levelo://app?vid=0c3508f6-1b7b-4f6e-9680-e2f3f1eab143","ios":"levelo://app?vid=0c3508f6-1b7b-4f6e-9680-e2f3f1eab143"},"vehicle_type_id":"4","last_reported":1756336171,"current_range_meters":18800,"station_id":"ce4bh0h2rcd13ifvqd40","pricing_plan_id":"cebpf4jnsgd1na2vs0mg"},{"bike_id":"4db00c46-fd2c-4f92-af00-732ea18acab4","system_id":"levelo_inurba_marseille","lat":43.28113,"lon":5.37842,"is_reserved":false,"is_disabled":false,"rental_uris":{"android":"levelo://app?vid=4db00c46-fd2c-4f92-af00-732ea18acab4","ios":"levelo://app?vid=4db00c46-fd2c-4f92-af00-732ea18acab4"},"vehicle_type_id":"4","last_reported":1756336171,"current_range_meters":18800,"station_id":"ce4bha12rcd13ifvqee0","pricing_plan_id":"cebpf4jnsgd1na2vs0mg"},{"bike_id":"d535bf59-462f-46ae-b9fb-52bfa64316d1","system_id":"levelo_inurba_marseille","lat":43.24189,"lon":5.39712,"is_reserved":false,"is_disabled":false,"rental_uris":{"android":"levelo://app?vid=d535bf59-462f-46ae-b9fb-52bfa64316d1","ios":"levelo://app?vid=d535bf59-462f-46ae-b9fb-52bfa64316d1"},"vehicle_type_id":"4","last_reported":1756336171,"current_range_meters":19200,"station_id":"ce4bhn12rcd13ifvqgpg","pricing_plan_id":"cebpf4jnsgd1na2vs0mg"},{"bike_id":"4fbce97f-acb9-4c6a-8eb5-11735db2ebfe","system_id":"levelo_inurba_marseille","lat":43.28219,"lon":5.39044,"is_reserved":false,"is_disabled":false,"rental_uris":{"android":"levelo://app?vid=4fbce97f-acb9-4c6a-8eb5-11735db2ebfe","ios":"levelo://app?vid=4fbce97f-acb9-4c6a-8eb5-11735db2ebfe"},"vehicle_type_id":"4","last_reported":1756336171,"current_range_meters":19200,"station_id":"ce4bhn92rcd13ifvqgsg","pricing_plan_id":"cebpf4jnsgd1na2vs0mg"},{"bike_id":"9c8400d3-bf6a-452a-a361-cb727e9c5324","system_id":"levelo_inurba_marseille","lat":43.29254,"lon":5.37151,"is_reserved":false,"is_disabled":false,"rental_uris":{"android":"levelo://app?vid=9c8400d3-bf6a-452a-a361-cb727e9c5324","ios":"levelo://app?vid=9c8400d3-bf6a-452a-a361-cb727e9c5324"},"vehicle_type_id":"4","last_reported":1756336171,"current_range_meters":19200,"station_id":"","pricing_plan_id":"cebpf4jnsgd1na2vs0mg"},{"bike_id":"491a51e4-1469-463f-b9cc-ff15d2c85312","system_id":"levelo_inurba_marseille","lat":43.29548,"lon":5.38548,"is_reserved":false,"is_disabled":true,"rental_uris":{"android":"levelo://app?vid=491a51e4-1469-463f-b9cc-ff15d2c85312","ios":"levelo://app?vid=491a51e4-1469-463f-b9cc-ff15d2c85312"},"vehicle_type_id":"4","last_reported":1756336171,"current_range_meters":19200,"station_id":"ce4bgih2rcd13ifvqba0","pricing_plan_id":"cebpf4jnsgd1na2vs0mg"},{"bike_id":"62a8c0bf-06af-44b2-acbd-3e96055782c5","system_id":"levelo_inurba_marseille","lat":43.23028,"lon":5.35353,"is_reserved":false,"is_disabled":false,"rental_uris":{"android":"levelo://app?vid=62a8c0bf-06af-44b2-acbd-3e96055782c5","ios":"levelo://app?vid=62a8c0bf-06af-44b2-acbd-3e96055782c5"},"vehicle_type_id":"4","last_reported":1756336171,"current_range_meters":19200,"station_id":"","pricing_plan_id":"cebpf4jnsgd1na2vs0mg"},{"bike_id":"140fbd12-3c5b-40b3-bace-5e3780ce1a44","system_id":"levelo_inurba_marseille","lat":43.28339,"lon":5.38101,"is_reserved":false,"is_disabled":false,"rental_uris":{"android":"levelo://app?vid=140fbd12-3c5b-40b3-bace-5e3780ce1a44","ios":"levelo://app?vid=140fbd12-3c5b-40b3-bace-5e3780ce1a44"},"vehicle_type_id":"4","last_reported":1756336171,"current_range_meters":19200,"station_id":"ce4bh412rcd13ifvqdr0","pricing_plan_id":"cebpf4jnsgd1na2vs0mg"},{"bike_id":"8b29b749-bc81-4c76-9fbe-41a119eee602","system_id":"levelo_inurba_marseille","lat":43.29115,"lon":5.40096,"is_reserved":false,"is_disabled":true,"rental_uris":{"android":"levelo://app?vid=8b29b749-bc81-4c76-9fbe-41a119eee602","ios":"levelo://app?vid=8b29b749-bc81-4c76-9fbe-41a119eee602"},"vehicle_type_id":"4","last_reported":1756336171,"current_range_meters":19200,"station_id":"","pricing_plan_id":"cebpf4jnsgd1na2vs0mg"},{"bike_id":"cfe53b48-36fb-4d9d-8d47-0e19f434fbb4","system_id":"levelo_inurba_marseille","lat":43.24818,"lon":5.3745,"is_reserved":false,"is_disabled":false,"rental_uris":{"android":"levelo://app?vid=cfe53b48-36fb-4d9d-8d47-0e19f434fbb4","ios":"levelo://app?vid=cfe53b48-36fb-4d9d-8d47-0e19f434fbb4"},"vehicle_type_id":"4","last_reported":1756336171,"current_range_meters":19200,"station_id":"ce4bhgh2rcd13ifvqfb0","pricing_plan_id":"cebpf4jnsgd1na2vs0mg"},{"bike_id":"c8ed8afa-4750-4d5e-b29e-7da3cd8f4dc7","system_id":"levelo_inurba_marseille","lat":43.32372,"lon":5.36776,"is_reserved":false,"is_disabled":false,"rental_uris":{"android":"levelo://app?vid=c8ed8afa-4750-4d5e-b29e-7da3cd8f4dc7","ios":"levelo://app?vid=c8ed8afa-4750-4d5e-b29e-7da3cd8f4dc7"},"vehicle_type_id":"4","last_reported":1756336171,"current_range_meters":19200,"station_id":"ce4bhsh2rcd13ifvqi2g","pricing_plan_id":"cebpf4jnsgd1na2vs0mg"},{"bike_id":"f7e07c08-1777-40c8-9ba2-19d2422a4b4b","system_id":"levelo_inurba_marseille","lat":43.3118,"lon":5.38709,"is_reserved":false,"is_disabled":false,"rental_uris":{"android":"levelo://app?vid=f7e07c08-1777-40c8-9ba2-19d2422a4b4b","ios":"levelo://app?vid=f7e07c08-1777-40c8-9ba2-19d2422a4b4b"},"vehicle_type_id":"4","last_reported":1756336171,"current_range_meters":19200,"station_id":"ce4bgv12rcd13ifvqcp0","pricing_plan_id":"cebpf4jnsgd1na2vs0mg"},{"bike_id":"42515969-df58-4bc3-81b4-d2c5b3092781","system_id":"levelo_inurba_marseille","lat":43.27726,"lon":5.41984,"is_reserved":false,"is_disabled":false,"rental_uris":{"android":"levelo://app?vid=42515969-df58-4bc3-81b4-d2c5b3092781","ios":"levelo://app?vid=42515969-df58-4bc3-81b4-d2c5b3092781"},