{"last_updated":1748652822,"ttl":60,"version":"2.2","data":{"bikes":[{"bike_id":"55d42eeb-6b71-4987-a0f2-3d758b10d43e","system_id":"levelo_inurba_marseille","lat":43.33771,"lon":5.37424,"is_reserved":false,"is_disabled":true,"rental_uris":{"android":"levelo://app?vid=55d42eeb-6b71-4987-a0f2-3d758b10d43e","ios":"levelo://app?vid=55d42eeb-6b71-4987-a0f2-3d758b10d43e"},"vehicle_type_id":"4","last_reported":1748652822,"current_range_meters":0,"station_id":"","pricing_plan_id":"cebpf4jnsgd1na2vs0mg"},{"bike_id":"b7fe4621-b706-42f0-9085-4811142f84e8","system_id":"levelo_inurba_marseille","lat":43.337499,"lon":5.374469,"is_reserved":false,"is_disabled":true,"rental_uris":{"android":"levelo://app?vid=b7fe4621-b706-42f0-9085-4811142f84e8","ios":"levelo://app?vid=b7fe4621-b706-42f0-9085-4811142f84e8"},"vehicle_type_id":"4","last_reported":1748652822,"current_range_meters":0,"station_id":"","pricing_plan_id":"cebpf4jnsgd1na2vs0mg"},{"bike_id":"ad402f0f-3192-410c-afac-8cf064a40c6d","system_id":"levelo_inurba_marseille","lat":43.337444,"lon":5.374475,"is_reserved":false,"is_disabled":true,"rental_uris":{"android":"levelo://app?vid=ad402f0f-3192-410c-afac-8cf064a40c6d","ios":"levelo://app?vid=ad402f0f-3192-410c-afac-8cf064a40c6d"},"vehicle_type_id":"4","last_reported":1748652822,"current_range_meters":0,"station_id":"","pricing_plan_id":"cebpf4jnsgd1na2vs0mg"},{"bike_id":"d90baf97-e6b3-4c48-bcd2-63bc44243da4","system_id":"levelo_inurba_marseille","lat":43.21647,"lon":5.34302,"is_reserved":false,"is_disabled":true,"rental_uris":{"android":"levelo://app?vid=d90baf97-e6b3-4c48-bcd2-63bc44243da4","ios":"levelo://app?vid=d90baf97-e6b3-4c48-bcd2-63bc44243da4"},"vehicle_type_id":"4","last_reported":1748652822,"current_range_meters":0,"station_id":"","pricing_plan_id":"cebpf4jnsgd1na2vs0mg"},{"bike_id":"e8d8ddad-17f0-4297-b743-7c17818146e6","system_id":"levelo_inurba_marseille","lat":43.28208,"lon":5.429823,"is_reserved":false,"is_disabled":true,"rental_uris":{"android":"levelo://app?vid=e8d8ddad-17f0-4297-b743-7c17818146e6","ios":"levelo://app?vid=e8d8ddad-17f0-4297-b743-7c17818146e6"},"vehicle_type_id":"4","last_reported":1748652822,"current_range_meters":0,"station_id":"","pricing_plan_id":"cebpf4jnsgd1na2vs0mg"},{"bike_id":"80dc1064-d63f-4a22-ad21-d8abd70986c0","system_id":"levelo_inurba_marseille","lat":43.33811,"lon":5.37503,"is_reserved":false,"is_disabled":true,"rental_uris":{"android":"levelo://app?vid=80dc1064-d63f-4a22-ad21-d8abd70986c0","ios":"levelo://app?vid=80dc1064-d63f-4a22-ad21-d8abd70986c0"},"vehicle_type_id":"4","last_reported":1748652822,"current_range_meters":0,"station_id":"","pricing_plan_id":"cebpf4jnsgd1na2vs0mg"},{"bike_id":"bab9b8de-9af3-4736-9107-3b1ec5552f03","system_id":"levelo_inurba_marseille","lat":43.321067,"lon":5.36761,"is_reserved":false,"is_disabled":true,"rental_uris":{"android":"levelo://app?vid=bab9b8de-9af3-4736-9107-3b1ec5552f03","ios":"levelo://app?vid=bab9b8de-9af3-4736-9107-3b1ec5552f03"},"vehicle_type_id":"4","last_reported":1748652822,"current_range_meters":0,"station_id":"ce4bhrh2rcd13ifvqhug","pricing_plan_id":"cebpf4jnsgd1na2vs0mg"},{"bike_id":"773c1455-d022-4f8e-8c6e-cf957b22d221","system_id":"levelo_inurba_marseille","lat":43.2175,"lon":5.34591,"is_reserved":false,"is_disabled":true,"rental_uris":{"android":"levelo://app?vid=773c1455-d022-4f8e-8c6e-cf957b22d221","ios":"levelo://app?vid=773c1455-d022-4f8e-8c6e-cf957b22d221"},"vehicle_type_id":"4","last_reported":1748652822,"current_range_meters":0,"station_id":"st_cvj6r9ubvosntc0bgbag","pricing_plan_id":"cebpf4jnsgd1na2vs0mg"},{"bike_id":"ab9c9983-bf72-44ed-ad75-a96b382dad3c","system_id":"levelo_inurba_marseille","lat":43.21742,"lon":5.34606,"is_reserved":false,"is_disabled":true,"rental_uris":{"android":"levelo://app?vid=ab9c9983-bf72-44ed-ad75-a96b382dad3c","ios":"levelo://app?vid=ab9c9983-bf72-44ed-ad75-a96b382dad3c"},"vehicle_type_id":"4","last_reported":1748652822,"current_range_meters":0,"station_id":"st_cvj6r9ubvosntc0bgbag","pricing_plan_id":"cebpf4jnsgd1na2vs0mg"},{"bike_id":"db111e29-c7bc-419e-9b00-20231fbec330","system_id":"levelo_inurba_marseille","lat":43.21763,"lon":5.34617,"is_reserved":false,"is_disabled":true,"rental_uris":{"android":"levelo://app?vid=db111e29-c7bc-419e-9b00-20231fbec330","ios":"levelo://app?vid=db111e29-c7bc-419e-9b00-20231fbec330"},"vehicle_type_id":"4","last_reported":1748652822,"current_range_meters":0,"station_id":"st_cvj6r9ubvosntc0bgbag","pricing_plan_id":"cebpf4jnsgd1na2vs0mg"},{"bike_id":"edcb0dfe-bdaa-4cf7-84cb-f40080951379","system_id":"levelo_inurba_marseille","lat":43.2174,"lon":5.346008,"is_reserved":false,"is_disabled":true,"rental_uris":{"android":"levelo://app?vid=edcb0dfe-bdaa-4cf7-84cb-f40080951379","ios":"levelo://app?vid=edcb0dfe-bdaa-4cf7-84cb-f40080951379"},"vehicle_type_id":"4","last_reported":1748652822,"current_range_meters":0,"station_id":"st_cvj6r9ubvosntc0bgbag","pricing_plan_id":"cebpf4jnsgd1na2vs0mg"},{"bike_id":"c8db4e53-1959-4129-b007-36bf92cfe0f1","system_id":"levelo_inurba_marseille","lat":43.31768,"lon":5.389443,"is_reserved":false,"is_disabled":true,"rental_uris":{"android":"levelo://app?vid=c8db4e53-1959-4129-b007-36bf92cfe0f1","ios":"levelo://app?vid=c8db4e53-1959-4129-b007-36bf92cfe0f1"},"vehicle_type_id":"4","last_reported":1748652822,"current_range_meters":400,"station_id":"","pricing_plan_id":"cebpf4jnsgd1na2vs0mg"},{"bike_id":"dd0821c7-dd47-4d0f-bba3-1a9e49bc6a26","system_id":"levelo_inurba_marseille","lat":43.29975,"lon":5.41329,"is_reserved":false,"is_disabled":true,"rental_uris":{"android":"levelo://app?vid=dd0821c7-dd47-4d0f-bba3-1a9e49bc6a26","ios":"levelo://app?vid=dd0821c7-dd47-4d0f-bba3-1a9e49bc6a26"},"vehicle_type_id":"4","last_reported":1748652822,"current_range_meters":400,"station_id":"ce4bhp12rcd13ifvqh9g","pricing_plan_id":"cebpf4jnsgd1na2vs0mg"},{"bike_id":"e3f4a748-d432-4598-9895-6507bad78d39","system_id":"levelo_inurba_marseille","lat":43.33605,"lon":5.43327,"is_reserved":false,"is_disabled":true,"rental_uris":{"android":"levelo://app?vid=e3f4a748-d432-4598-9895-6507bad78d39","ios":"levelo://app?vid=e3f4a748-d432-4598-9895-6507bad78d39"},"vehicle_type_id":"4","last_reported":1748652822,"current_range_meters":800,"station_id":"","pricing_plan_id":"cebpf4jnsgd1na2vs0mg"},{"bike_id":"738d2cf9-b57b-4b88-9b52-ed11f90f4e81","system_id":"levelo_inurba_marseille","lat":43.28485,"lon":5.38415,"is_reserved":false,"is_disabled":true,"rental_uris":{"android":"levelo://app?vid=738d2cf9-b57b-4b88-9b52-ed11f90f4e81","ios":"levelo://app?vid=738d2cf9-b57b-4b88-9b52-ed11f90f4e81"},"vehicle_type_id":"4","last_reported":1748652822,"current_range_meters":1200,"station_id":"ce4bh512rcd13ifvqe3g","pricing_plan_id":"cebpf4jnsgd1na2vs0mg"},{"bike_id":"bb21dbe0-b12f-4edc-a49e-f3401f3f3d23","system_id":"levelo_inurba_marseille","lat":43.317403,"lon":5.387703,"is_reserved":false,"is_disabled":false,"rental_uris":{"android":"levelo://app?vid=bb21dbe0-b12f-4edc-a49e-f3401f3f3d23","ios":"levelo://app?vid=bb21dbe0-b12f-4edc-a49e-f3401f3f3d23"},"vehicle_type_id":"4","last_reported":1748652822,"current_range_meters":2800,"station_id":"","pricing_plan_id":"cebpf4jnsgd1na2vs0mg"},{"bike_id":"1a5dc4a7-780c-46f7-b2c2-5a5f08311f81","system_id":"levelo_inurba_marseille","lat":43.2871,"lon":5.40006,"is_reserved":false,"is_disabled":false,"rental_uris":{"android":"levelo://app?vid=1a5dc4a7-780c-46f7-b2c2-5a5f08311f81","ios":"levelo://app?vid=1a5dc4a7-780c-46f7-b2c2-5a5f08311f81"},"vehicle_type_id":"4","last_reported":1748652822,"current_range_meters":2800,"station_id":"ce4bho92rcd13ifvqh3g","pricing_plan_id":"cebpf4jnsgd1na2vs0mg"},{"bike_id":"697d924a-ea53-411b-88e3-ed7542c4178d","system_id":"levelo_inurba_marseille","lat":43.337777,"lon":5.374833,"is_reserved":false,"is_disabled":false,"rental_uris":{"android":"levelo://app?vid=697d924a-ea53-411b-88e3-ed7542c4178d","ios":"levelo://app?vid=697d924a-ea53-411b-88e3-ed7542c4178d"},"vehicle_type_id":"4","last_reported":1748652822,"current_range_meters":3200,"station_id":"","pricing_plan_id":"cebpf4jnsgd1na2vs0mg"},{"bike_id":"d2e35f2d-86c3-4457-8dc2-70e3badeb9e5","system_id":"levelo_inurba_marseille","lat":43.298775,"lon":5.397349,"is_reserved":false,"is_disabled":false,"rental_uris":{"android":"levelo://app?vid=d2e35f2d-86c3-4457-8dc2-70e3badeb9e5","ios":"levelo://app?vid=d2e35f2d-86c3-4457-8dc2-70e3badeb9e5"},"vehicle_type_id":"4","last_reported":1748652822,"current_range_meters":3200,"station_id":"ce4bh0h2rcd13ifvqd50","pricing_plan_id":"cebpf4jnsgd1na2vs0mg"},{"bike_id":"5109d588-00b3-4931-bed6-4b061390889a","system_id":"levelo_inurba_marseille","lat":43.2707,"lon":5.42277,"is_reserved":false,"is_disabled":false,"rental_uris":{"android":"levelo://app?vid=5109d588-00b3-4931-bed6-4b061390889a","ios":"levelo://app?vid=5109d588-00b3-4931-bed6-4b061390889a"},"vehicle_type_id":"4","last_reported":1748652822,"current_range_meters":3200,"station_id":"ce4bhk92rcd13ifvqgb0","pricing_plan_id":"cebpf4jnsgd1na2vs0mg"},{"bike_id":"8d7ca252-8bae-49d7-b555-baf508d38b5e","system_id":"levelo_inurba_marseille","lat":43.28153,"lon":5.42647,"is_reserved":false,"is_disabled":false,"rental_uris":{"android":"levelo://app?vid=8d7ca252-8bae-49d7-b555-baf508d38b5e","ios":"levelo://app?vid=8d7ca252-8bae-49d7-b555-baf508d38b5e"},"vehicle_type_id":"4","last_reported":1748652822,"current_range_meters":3200,"station_id":"ce4bhnh2rcd13ifvqgug","pricing_plan_id":"cebpf4jnsgd1na2vs0mg"},{"bike_id":"e10b415f-3aac-4f28-963b-0075245bd60e","system_id":"levelo_inurba_marseille","lat":43.307976,"lon":5.381576,"is_reserved":false,"is_disabled":false,"rental_uris":{"android":"levelo://app?vid=e10b415f-3aac-4f28-963b-0075245bd60e","ios":"levelo://app?vid=e10b415f-3aac-4f28-963b-0075245bd60e"},"vehicle_type_id":"4","last_reported":1748652822,"current_range_meters":3600,"station_id":"ce4bgt12rcd13ifvqce0","pricing_plan_id":"cebpf4jnsgd1na2vs0mg"},{"bike_id":"df6dbf45-a1a4-42e0-bf67-75e287a1491a","system_id":"levelo_inurba_marseille","lat":43.29278,"lon":5.40116,"is_reserved":false,"is_disabled":false,"rental_uris":{"android":"levelo://app?vid=df6dbf45-a1a4-42e0-bf67-75e287a1491a","ios":"levelo://app?vid=df6dbf45-a1a4-42e0-bf67-75e287a1491a"},"vehicle_type_id":"4","last_reported":1748652822,"current_range_meters":3600,"station_id":"ce4bh312rcd13ifvqdk0","pricing_plan_id":"cebpf4jnsgd1na2vs0mg"},{"bike_id":"bdce9aec-dd60-4afa-a459-60fb605d4dd0","system_id":"levelo_inurba_marseille","lat":43.25112,"lon":5.4032,"is_reserved":false,"is_disabled":false,"rental_uris":{"android":"levelo://app?vid=bdce9aec-dd60-4afa-a459-60fb605d4dd0","ios":"levelo://app?vid=bdce9aec-dd60-4afa-a459-60fb605d4dd0"},"vehicle_type_id":"4","last_reported":1748652822,"current_range_meters":3600,"station_id":"ce4bhlh2rcd13ifvqgig","pricing_plan_id":"cebpf4jnsgd1na2vs0mg"},{"bike_id":"8f05191b-979e-40e9-bf01-c5cd21653b68","system_id":"levelo_inurba_marseille","lat":43.26216,"lon":5.40445,"is_reserved":false,"is_disabled":false,"rental_uris":{"android":"levelo://app?vid=8f05191b-979e-40e9-bf01-c5cd21653b68","ios":"levelo://app?vid=8f05191b-979e-40e9-bf01-c5cd21653b68"},"vehicle_type_id":"4","last_reported":1748652822,"current_range_meters":3600,"station_id":"ce4bhmh2rcd13ifvqgmg","pricing_plan_id":"cebpf4jnsgd1na2vs0mg"},{"bike_id":"8af5e327-fbf3-4fc0-8b8a-501df6d392b0","system_id":"levelo_inurba_marseille","lat":43.30928,"lon":5.40141,"is_reserved":false,"is_disabled":false,"rental_uris":{"android":"levelo://app?vid=8af5e327-fbf3-4fc0-8b8a-501df6d392b0","ios":"levelo://app?vid=8af5e327-fbf3-4fc0-8b8a-501df6d392b0"},"vehicle_type_id":"4","last_reported":1748652822,"current_range_meters":4000,"station_id":"ce4bgvp2rcd13ifvqct0","pricing_plan_id":"cebpf4jnsgd1na2vs0mg"},{"bike_id":"299bc464-0062-40b9-b8fd-94e53cb49a69","system_id":"levelo_inurba_marseille","lat":43.29641,"lon":5.36229,"is_reserved":false,"is_disabled":false,"rental_uris":{"android":"levelo://app?vid=299bc464-0062-40b9-b8fd-94e53cb49a69","ios":"levelo://app?vid=299bc464-0062-40b9-b8fd-94e53cb49a69"},"vehicle_type_id":"4","last_reported":1748652822,"current_range_meters":4400,"station_id":"","pricing_plan_id":"cebpf4jnsgd1na2vs0mg"},{"bike_id":"bfd3b341-01f6-4fef-bebe-7c1cb9bc6efa","system_id":"levelo_inurba_marseille","lat":43.27935,"lon":5.4104,"is_reserved":false,"is_disabled":false,"rental_uris":{"android":"levelo://app?vid=bfd3b341-01f6-4fef-bebe-7c1cb9bc6efa","ios":"levelo://app?vid=bfd3b341-01f6-4fef-bebe-7c1cb9bc6efa"},"vehicle_type_id":"4","last_reported":1748652822,"current_range_meters":4400,"station_id":"ce4bhnp2rcd13ifvqh0g","pricing_plan_id":"cebpf4jnsgd1na2vs0mg"},{"bike_id":"ad393117-4263-4eff-9e0c-b3e4944d7867","system_id":"levelo_inurba_marseille","lat":43.28419,"lon":5.375,"is_reserved":false,"is_disabled":false,"rental_uris":{"android":"levelo://app?vid=ad393117-4263-4eff-9e0c-b3e4944d7867","ios":"levelo://app?vid=ad393117-4263-4eff-9e0c-b3e4944d7867"},"vehicle_type_id":"4","last_reported":1748652822,"current_range_meters":4800,"station_id":"ce4bh412rcd13ifvqds0","pricing_plan_id":"cebpf4jnsgd1na2vs0mg"},{"bike_id":"ff5fcda2-1c7a-4b76-95d8-baf7faacd788","system_id":"levelo_inurba_marseille","lat":43.28936,"lon":5.38394,"is_reserved":false,"is_disabled":false,"rental_uris":{"android":"levelo://app?vid=ff5fcda2-1c7a-4b76-95d8-baf7faacd788","ios":"levelo://app?vid=ff5fcda2-1c7a-4b76-95d8-baf7faacd788"},"vehicle_type_id":"4","last_reported":1748652822,"current_range_meters":4800,"station_id":"ce4bh612rcd13ifvqe6g","pricing_plan_id":"cebpf4jnsgd1na2vs0mg"},{"bike_id":"f0792c51-be2b-4590-bb53-7f6c5964cdb8","system_id":"levelo_inurba_marseille","lat":43.28921,"lon":5.384,"is_reserved":false,"is_disabled":false,"rental_uris":{"android":"levelo://app?vid=f0792c51-be2b-4590-bb53-7f6c5964cdb8","ios":"levelo://app?vid=f0792c51-be2b-4590-bb53-7f6c5964cdb8"},"vehicle_type_id":"4","last_reported":1748652822,"current_range_meters":4800,"station_id":"ce4bh612rcd13ifvqe6g","pricing_plan_id":"cebpf4jnsgd1na2vs0mg"},{"bike_id":"31f139d4-a740-4bbd-af2e-0384b6df6fa4","system_id":"levelo_inurba_marseille","lat":43.28257,"lon":5.35083,"is_reserved":false,"is_disabled":false,"rental_uris":{"android":"levelo://app?vid=31f139d4-a740-4bbd-af2e-0384b6df6fa4","ios":"levelo://app?vid=31f139d4-a740-4bbd-af2e-0384b6df6fa4"},"vehicle_type_id":"4","last_reported":1748652822,"current_range_meters":4800,"station_id":"ce4bhbp2rcd13ifvqerg","pricing_plan_id":"cebpf4jnsgd1na2vs0mg"},{"bike_id":"36240f0a-66a2-43ec-8330-1f3a9d08cc7e","system_id":"levelo_inurba_marseille","lat":43.23905,"lon":5.36267,"is_reserved":false,"is_disabled":false,"rental_uris":{"android":"levelo://app?vid=36240f0a-66a2-43ec-8330-1f3a9d08cc7e","ios":"levelo://app?vid=36240f0a-66a2-43ec-8330-1f3a9d08cc7e"},"vehicle_type_id":"4","last_reported":1748652822,"current_range_meters":5600,"station_id":"","pricing_plan_id":"cebpf4jnsgd1na2vs0mg"},{"bike_id":"a24ed859-7ffe-447b-a280-957c836eb856","system_id":"levelo_inurba_marseille","lat":43.31357,"lon":5.37592,"is_reserved":false,"is_disabled":false,"rental_uris":{"android":"levelo://app?vid=a24ed859-7ffe-447b-a280-957c836eb856","ios":"levelo://app?vid=a24ed859-7ffe-447b-a280-957c836eb856"},"vehicle_type_id":"4","last_reported":1748652822,"current_range_meters":5600,"station_id":"","pricing_plan_id":"cebpf4jnsgd1na2vs0mg"},{"bike_id":"6c2503a3-b7fe-44de-8eaa-1f9afb106b42","system_id":"levelo_inurba_marseille","lat":43.295704,"lon":5.399567,"is_reserved":false,"is_disabled":false,"rental_uris":{"android":"levelo://app?vid=6c2503a3-b7fe-44de-8eaa-1f9afb106b42","ios":"levelo://app?vid=6c2503a3-b7fe-44de-8eaa-1f9afb106b42"},"vehicle_type_id":"4","last_reported":1748652822,"current_range_meters":5600,"station_id":"ce4bh312rcd13ifvqdj0","pricing_plan_id":"cebpf4jnsgd1na2vs0mg"},{"bike_id":"e5d113e9-a907-4483-a607-193e3c6f0534","system_id":"levelo_inurba_marseille","lat":43.24164,"lon":5.36395,"is_reserved":false,"is_disabled":false,"rental_uris":{"android":"levelo://app?vid=e5d113e9-a907-4483-a607-193e3c6f0534","ios":"levelo://app?vid=e5d113e9-a907-4483-a607-193e3c6f0534"},"vehicle_type_id":"4","last_reported":1748652822,"current_range_meters":5600,"station_id":"cpo36qri1sfpv3e86is0","pricing_plan_id":"cebpf4jnsgd1na2vs0mg"},{"bike_id":"89db46bf-bb1e-44da-9fc2-8e4e7411625a","system_id":"levelo_inurba_marseille","lat":43.2856,"lon":5.38503,"is_reserved":false,"is_disabled":false,"rental_uris":{"android":"levelo://app?vid=89db46bf-bb1e-44da-9fc2-8e4e7411625a","ios":"levelo://app?vid=89db46bf-bb1e-44da-9fc2-8e4e7411625a"},"vehicle_type_id":"4","last_reported":1748652822,"current_range_meters":6000,"station_id":"ce4bh492rcd13ifvqdvg","pricing_plan_id":"cebpf4jnsgd1na2vs0mg"},{"bike_id":"8ce7b395-f929-44b1-8503-aab82a77a9cb","system_id":"levelo_inurba_marseille","lat":43.262,"lon":5.37932,"is_reserved":false,"is_disabled":false,"rental_uris":{"android":"levelo://app?vid=8ce7b395-f929-44b1-8503-aab82a77a9cb","ios":"levelo://app?vid=8ce7b395-f929-44b1-8503-aab82a77a9cb"},"vehicle_type_id":"4","last_reported":1748652822,"current_range_meters":6000,"station_id":"ce4bhjp2rcd13ifvqg90","pricing_plan_id":"cebpf4jnsgd1na2vs0mg"},{"bike_id":"4e421ceb-31a9-4887-87b7-78f1ddb76f80","system_id":"levelo_inurba_marseille","lat":43.29557,"lon":5.42288,"is_reserved":false,"is_disabled":false,"rental_uris":{"android":"levelo://app?vid=4e421ceb-31a9-4887-87b7-78f1ddb76f80","ios":"levelo://app?vid=4e421ceb-31a9-4887-87b7-78f1ddb76f80"},"vehicle_type_id":"4","last_reported":1748652822,"current_range_meters":6000,"station_id":"ce4bhph2rcd13ifvqhdg","pricing_plan_id":"cebpf4jnsgd1na2vs0mg"},{"bike_id":"00f77637-c960-45d0-b516-a2f6a0285858","system_id":"levelo_inurba_marseille","lat":43.297368,"lon":5.385418,"is_reserved":false,"is_disabled":false,"rental_uris":{"android":"levelo://app?vid=00f77637-c960-45d0-b516-a2f6a0285858","ios":"levelo://app?vid=00f77637-c960-45d0-b516-a2f6a0285858"},"vehicle_type_id":"4","last_reported":1748652822,"current_range_meters":6400,"station_id":"","pricing_plan_id":"cebpf4jnsgd1na2vs0mg"},{"bike_id":"2b251bb1-6ca3-4cf2-ab11-3fbd43b0b79b","system_id":"levelo_inurba_marseille","lat":43.29372,"lon":5.37839,"is_reserved":false,"is_disabled":false,"rental_uris":{"android":"levelo://app?vid=2b251bb1-6ca3-4cf2-ab11-3fbd43b0b79b","ios":"levelo://app?vid=2b251bb1-6ca3-4cf2-ab11-3fbd43b0b79b"},"vehicle_type_id":"4","last_reported":1748652822,"current_range_meters":6400,"station_id":"ce4bgjh2rcd13ifvqbf0","pricing_plan_id":"cebpf4jnsgd1na2vs0mg"},{"bike_id":"7df4b11c-d794-4f10-836d-cd9d9535e997","system_id":"levelo_inurba_marseille","lat":43.30281,"lon":5.37703,"is_reserved":false,"is_disabled":false,"rental_uris":{"android":"levelo://app?vid=7df4b11c-d794-4f10-836d-cd9d9535e997","ios":"levelo://app?vid=7df4b11c-d794-4f10-836d-cd9d9535e997"},"vehicle_type_id":"4","last_reported":1748652822,"current_range_meters":6800,"station_id":"ce4bguh2rcd13ifvqcj0","pricing_plan_id":"cebpf4jnsgd1na2vs0mg"},{"bike_id":"7eef1f8f-5d95-4320-a013-277c66264c38","system_id":"levelo_inurba_marseille","lat":43.30933,"lon":5.40146,"is_reserved":false,"is_disabled":false,"rental_uris":{"android":"levelo://app?vid=7eef1f8f-5d95-4320-a013-277c66264c38","ios":"levelo://app?vid=7eef1f8f-5d95-4320-a013-277c66264c38"},"vehicle_type_id":"4","last_reported":1748652822,"current_range_meters":6800,"station_id":"ce4bgvp2rcd13ifvqct0","pricing_plan_id":"cebpf4jnsgd1na2vs0mg"},{"bike_id":"4a409268-ab2e-4de4-8d7b-4dc99d1f3c6d","system_id":"levelo_inurba_marseille","lat":43.308872,"lon":5.396125,"is_reserved":false,"is_disabled":false,"rental_uris":{"android":"levelo://app?vid=4a409268-ab2e-4de4-8d7b-4dc99d1f3c6d","ios":"levelo://app?vid=4a409268-ab2e-4de4-8d7b-4dc99d1f3c6d"},"vehicle_type_id":"4","last_reported":1748652822,"current_range_meters":6800,"station_id":"ce4bh012rcd13ifvqcv0","pricing_plan_id":"cebpf4jnsgd1na2vs0mg"},{"bike_id":"54641a7d-e837-477a-93c8-1f56bbd4e84f","system_id":"levelo_inurba_marseille","lat":43.29899,"lon":5.39746,"is_reserved":false,"is_disabled":false,"rental_uris":{"android":"levelo://app?vid=54641a7d-e837-477a-93c8-1f56bbd4e84f","ios":"levelo://app?vid=54641a7d-e837-477a-93c8-1f56bbd4e84f"},"vehicle_type_id":"4","last_reported":1748652822,"current_range_meters":6800,"station_id":"ce4bh0h2rcd13ifvqd50","pricing_plan_id":"cebpf4jnsgd1na2vs0mg"},{"bike_id":"a426f99b-d34a-41bf-bbda-59f7dfd6939b","system_id":"levelo_inurba_marseille","lat":43.255796,"lon":5.382262,"is_reserved":false,"is_disabled":false,"rental_uris":{"android":"levelo://app?vid=a426f99b-d34a-41bf-bbda-59f7dfd6939b","ios":"levelo://app?vid=a426f99b-d34a-41bf-bbda-59f7dfd6939b"},"vehicle_type_id":"4","last_reported":1748652822,"current_range_meters":6800,"station_id":"ce501612rcd8frsf0b60","pricing_plan_id":"cebpf4jnsgd1na2vs0mg"},{"bike_id":"4e072d55-941c-40ec-8614-c3a0528abcd9","system_id":"levelo_inurba_marseille","lat":43.30881,"lon":5.39635,"is_reserved":false,"is_disabled":false,"rental_uris":{"android":"levelo://app?vid=4e072d55-941c-40ec-8614-c3a0528abcd9","ios":"levelo://app?vid=4e072d55-941c-40ec-8614-c3a0528abcd9"},"vehicle_type_id":"4","last_reported":1748652822,"current_range_meters":7200,"station_id":"","pricing_plan_id":"cebpf4jnsgd1na2vs0mg"},{"bike_id":"da5921cd-e75b-4ce7-b109-06c28f720590","system_id":"levelo_inurba_marseille","lat":43.2876,"lon":5.36157,"is_reserved":false,"is_disabled":false,"rental_uris":{"android":"levelo://app?vid=da5921cd-e75b-4ce7-b109-06c28f720590","ios":"levelo://app?vid=da5921cd-e75b-4ce7-b109-06c28f720590"},"vehicle_type_id":"4","last_reported":1748652822,"current_range_meters":7200,"station_id":"","pricing_plan_id":"cebpf4jnsgd1na2vs0mg"},{"bike_id":"120bfe28-237d-4914-8468-444c42382b49","system_id":"levelo_inurba_marseille","lat":43.28416,"lon":5.3751,"is_reserved":false,"is_disabled":false,"rental_uris":{"android":"levelo://app?vid=120bfe28-237d-4914-8468-444c42382b49","ios":"levelo://app?vid=120bfe28-237d-4914-8468-444c42382b49"},"vehicle_type_id":"4","last_reported":1748652822,"current_range_meters":7200,"station_id":"ce4bh412rcd13ifvqds0","pricing_plan_id":"cebpf4jnsgd1na2vs0mg"},{"bike_id":"97c383a9-35fd-4379-9f90-721945a5c5e9","system_id":"levelo_inurba_marseille","lat":43.230609,"lon":5.35496,"is_reserved":false,"is_disabled":false,"rental_uris":{"android":"levelo://app?vid=97c383a9-35fd-4379-9f90-721945a5c5e9","ios":"levelo://app?vid=97c383a9-35fd-4379-9f90-721945a5c5e9"},"vehicle_type_id":"4","last_reported":1748652822,"current_range_meters":7200,"station_id":"cpo3342slgdg3j2ifvpg","pricing_plan_id":"cebpf4jnsgd1na2vs0mg"},{"bike_id":"a31656a4-5217-4c2d-91ea-e636b7cf9b1f","system_id":"levelo_inurba_marseille","lat":43.28536,"lon":5.38446,"is_reserved":false,"is_disabled":false,"rental_uris":{"android":"levelo://app?vid=a31656a4-5217-4c2d-91ea-e636b7cf9b1f","ios":"levelo://app?vid=a31656a4-5217-4c2d-91ea-e636b7cf9b1f"},"vehicle_type_id":"4","last_reported":1748652822,"current_range_meters":8000,"station_id":"","pricing_plan_id":"cebpf4jnsgd1na2vs0mg"},{"bike_id":"55cb35ea-46ae-4d0e-9e17-49b11249cd0b","system_id":"levelo_inurba_marseille","lat":43.31491,"lon":5.37261,"is_reserved":false,"is_disabled":false,"rental_uris":{"android":"levelo://app?vid=55cb35ea-46ae-4d0e-9e17-49b11249cd0b","ios":"levelo://app?vid=55cb35ea-46ae-4d0e-9e17-49b11249cd0b"},"vehicle_type_id":"4","last_reported":1748652822,"current_range_meters":8000,"station_id":"ce4bgt12rcd13ifvqcd0","pricing_plan_id":"cebpf4jnsgd1na2vs0mg"},{"bike_id":"1f7ebc70-8e15-4aea-adb3-010beac9c8f2","system_id":"levelo_inurba_marseille","lat":43.28565,"lon":5.3951,"is_reserved":false,"is_disabled":false,"rental_uris":{"android":"levelo://app?vid=1f7ebc70-8e15-4aea-adb3-010beac9c8f2","ios":"levelo://app?vid=1f7ebc70-8e15-4aea-adb3-010beac9c8f2"},"vehicle_type_id":"4","last_reported":1748652822,"current_range_meters":8000,"station_id":"ce4bh292rcd13ifvqdg0","pricing_plan_id":"cebpf4jnsgd1na2vs0mg"},{"bike_id":"b2180ee4-aae6-4351-850e-916d6a62455d","system_id":"levelo_inurba_marseille","lat":43.24657,"lon":5.38172,"is_reserved":false,"is_disabled":false,"rental_uris":{"android":"levelo://app?vid=b2180ee4-aae6-4351-850e-916d6a62455d","ios":"levelo://app?vid=b2180ee4-aae6-4351-850e-916d6a62455d"},"vehicle_type_id":"4","last_reported":1748652822,"current_range_meters":8000,"station_id":"ce4bhih2rcd13ifvqfr0","pricing_plan_id":"cebpf4jnsgd1na2vs0mg"},{"bike_id":"18c1bc8d-773b-414a-b410-344762faee23","system_id":"levelo_inurba_marseille","lat":43.27174,"lon":5.40973,"is_reserved":false,"is_disabled":false,"rental_uris":{"android":"levelo://app?vid=18c1bc8d-773b-414a-b410-344762faee23","ios":"levelo://app?vid=18c1bc8d-773b-414a-b410-344762faee23"},"vehicle_type_id":"4","last_reported":1748652822,"current_range_meters":8000,"station_id":"ce4bhl12rcd13ifvqgf0","pricing_plan_id":"cebpf4jnsgd1na2vs0mg"},{"bike_id":"fc60c407-9ea3-470d-8473-757e26d9beaf","system_id":"levelo_inurba_marseille","lat":43.262239,"lon":5.404471,"is_reserved":false,"is_disabled":false,"rental_uris":{"android":"levelo://app?vid=fc60c407-9ea3-470d-8473-757e26d9beaf","ios":"levelo://app?vid=fc60c407-9ea3-470d-8473-757e26d9beaf"},"vehicle_type_id":"4","last_reported":1748652822,"current_range_meters":8000,"station_id":"ce4bhmh2rcd13ifvqgmg","pricing_plan_id":"cebpf4jnsgd1na2vs0mg"},{"bike_id":"62701939-a076-4a8b-b941-4fb55c920153","system_id":"levelo_inurba_marseille","lat":43.33604,"lon":5.41034,"is_reserved":false,"is_disabled":false,"rental_uris":{"android":"levelo://app?vid=62701939-a076-4a8b-b941-4fb55c920153","ios":"levelo://app?vid=62701939-a076-4a8b-b941-4fb55c920153"},"vehicle_type_id":"4","last_reported":1748652822,"current_range_meters":8000,"station_id":"ce4bhqh2rcd13ifvqhmg","pricing_plan_id":"cebpf4jnsgd1na2vs0mg"},{"bike_id":"d451e630-8fd8-4701-9cd1-43ccfdcc67c9","system_id":"levelo_inurba_marseille","lat":43.31521,"lon":5.38029,"is_reserved":false,"is_disabled":false,"rental_uris":{"android":"levelo://app?vid=d451e630-8fd8-4701-9cd1-43ccfdcc67c9","ios":"levelo://app?vid=d451e630-8fd8-4701-9cd1-43ccfdcc67c9"},"vehicle_type_id":"4","last_reported":1748652822,"current_range_meters":8000,"station_id":"ce4bhsp2rcd13ifvqi50","pricing_plan_id":"cebpf4jnsgd1na2vs0mg"},{"bike_id":"764b93a0-026f-4bda-8b3f-829144a02e78","system_id":"levelo_inurba_marseille","lat":43.28848,"lon":5.393107,"is_reserved":false,"is_disabled":false,"rental_uris":{"android":"levelo://app?vid=764b93a0-026f-4bda-8b3f-829144a02e78","ios":"levelo://app?vid=764b93a0-026f-4bda-8b3f-829144a02e78"},"vehicle_type_id":"4","last_reported":1748652822,"current_range_meters":8400,"station_id":"ce4bh2p2rcd13ifvqdi0","pricing_plan_id":"cebpf4jnsgd1na2vs0mg"},{"bike_id":"91194276-c829-42e5-a6ed-8393753c90e5","system_id":"levelo_inurba_marseille","lat":43.243989,"lon":5.370571,"is_reserved":false,"is_disabled":false,"rental_uris":{"android":"levelo://app?vid=91194276-c829-42e5-a6ed-8393753c90e5","ios":"levelo://app?vid=91194276-c829-42e5-a6ed-8393753c90e5"},"vehicle_type_id":"4","last_reported":1748652822,"current_range_meters":8400,"station_id":"ce4bhhh2rcd13ifvqfk0","pricing_plan_id":"cebpf4jnsgd1na2vs0mg"},{"bike_id":"b9d2b2ba-8d78-40c4-8208-96a2920c63a7","system_id":"levelo_inurba_marseille","lat":43.27836,"lon":5.39204,"is_reserved":false,"is_disabled":false,"rental_uris":{"android":"levelo://app?vid=b9d2b2ba-8d78-40c4-8208-96a2920c63a7","ios":"levelo://app?vid=b9d2b2ba-8d78-40c4-8208-96a2920c63a7"},"vehicle_type_id":"4","last_reported":1748652822,"current_range_meters":8400,"station_id":"ce4bhjp2rcd13ifvqga0","pricing_plan_id":"cebpf4jnsgd1na2vs0mg"},{"bike_id":"b953c4ab-62d9-49e1-b582-366b8568892e","system_id":"levelo_inurba_marseille","lat":43.29242,"lon":5.40903,"is_reserved":false,"is_disabled":false,"rental_uris":{"android":"levelo://app?vid=b953c4ab-62d9-49e1-b582-366b8568892e","ios":"levelo://app?vid=b953c4ab-62d9-49e1-b582-366b8568892e"},"vehicle_type_id":"4","last_reported":1748652822,"current_range_meters":8800,"station_id":"ce4bh192rcd13ifvqdc0","pricing_plan_id":"cebpf4jnsgd1na2vs0mg"},{"bike_id":"19290f31-a068-40ba-bbe8-ccf0933dee0a","system_id":"levelo_inurba_marseille","lat":43.27924,"lon":5.39562,"is_reserved":false,"is_disabled":false,"rental_uris":{"android":"levelo://app?vid=19290f31-a068-40ba-bbe8-ccf0933dee0a","ios":"levelo://app?vid=19290f31-a068-40ba-bbe8-ccf0933dee0a"},"vehicle_type_id":"4","last_reported":1748652822,"current_range_meters":8800,"station_id":"ce4bhf92rcd13ifvqf40","pricing_plan_id":"cebpf4jnsgd1na2vs0mg"},{"bike_id":"0280afc4-d6c7-45d5-9976-1c2b5d2fedd2","system_id":"levelo_inurba_marseille","lat":43.25106,"lon":5.4035,"is_reserved":false,"is_disabled":false,"rental_uris":{"android":"levelo://app?vid=0280afc4-d6c7-45d5-9976-1c2b5d2fedd2","ios":"levelo://app?vid=0280afc4-d6c7-45d5-9976-1c2b5d2fedd2"},"vehicle_type_id":"4","last_reported":1748652822,"current_range_meters":8800,"station_id":"ce4bhlh2rcd13ifvqgig","pricing_plan_id":"cebpf4jnsgd1na2vs0mg"},{"bike_id":"e80c2554-a5fd-4f6a-80de-c3bb2b4cc78a","system_id":"levelo_inurba_marseille","lat":43.251167,"lon":5.403173,"is_reserved":false,"is_disabled":false,"rental_uris":{"android":"levelo://app?vid=e80c2554-a5fd-4f6a-80de-c3bb2b4cc78a","ios":"levelo://app?vid=e80c2554-a5fd-4f6a-80de-c3bb2b4cc78a"},"vehicle_type_id":"4","last_reported":1748652822,"current_range_meters":8800,"station_id":"ce4bhlh2rcd13ifvqgig","pricing_plan_id":"cebpf4jnsgd1na2vs0mg"},{"bike_id":"a882f5db-172f-4f11-bf66-7e2c36364bb7","system_id":"levelo_inurba_marseille","lat":43.29541,"lon":5.42288,"is_reserved":false,"is_disabled":false,"rental_uris":{"android":"levelo://app?vid=a882f5db-172f-4f11-bf66-7e2c36364bb7","ios":"levelo://app?vid=a882f5db-172f-4f11-bf66-7e2c36364bb7"},"vehicle_type_id":"4","last_reported":1748652822,"current_range_meters":8800,"station_id":"ce4bhph2rcd13ifvqhdg","pricing_plan_id":"cebpf4jnsgd1na2vs0mg"},{"bike_id":"9620a207-22d7-433e-bf43-b808069c5c75","system_id":"levelo_inurba_marseille","lat":43.33565,"lon":5.41007,"is_reserved":false,"is_disabled":false,"rental_uris":{"android":"levelo://app?vid=9620a207-22d7-433e-bf43-b808069c5c75","ios":"levelo://app?vid=9620a207-22d7-433e-bf43-b808069c5c75"},"vehicle_type_id":"4","last_reported":1748652822,"current_range_meters":9200,"station_id":"","pricing_plan_id":"cebpf4jnsgd1na2vs0mg"},{"bike_id":"8345fba8-f53d-4169-9265-3aeb7405da51","system_id":"levelo_inurba_marseille","lat":43.29789,"lon":5.37945,"is_reserved":false,"is_disabled":false,"rental_uris":{"android":"levelo://app?vid=8345fba8-f53d-4169-9265-3aeb7405da51","ios":"levelo://app?vid=8345fba8-f53d-4169-9265-3aeb7405da51"},"vehicle_type_id":"4","last_reported":1748652822,"current_range_meters":9200,"station_id":"","pricing_plan_id":"cebpf4jnsgd1na2vs0mg"},{"bike_id":"b9986bcd-d935-43b4-9761-6db0c42f4dd8","system_id":"levelo_inurba_marseille","lat":43.31686,"lon":5.40467,"is_reserved":false,"is_disabled":false,"rental_uris":{"android":"levelo://app?vid=b9986bcd-d935-43b4-9761-6db0c42f4dd8","ios":"levelo://app?vid=b9986bcd-d935-43b4-9761-6db0c42f4dd8"},"vehicle_type_id":"4","last_reported":1748652822,"current_range_meters":9200,"station_id":"ce4bh012rcd13ifvqd00","pricing_plan_id":"cebpf4jnsgd1na2vs0mg"},{"bike_id":"c361e603-1ecb-4610-ad2f-3e9e0c199f5c","system_id":"levelo_inurba_marseille","lat":43.29622,"lon":5.405934,"is_reserved":false,"is_disabled":false,"rental_uris":{"android":"levelo://app?vid=c361e603-1ecb-4610-ad2f-3e9e0c199f5c","ios":"levelo://app?vid=c361e603-1ecb-4610-ad2f-3e9e0c199f5c"},"vehicle_type_id":"4","last_reported":1748652822,"current_range_meters":9200,"station_id":"ce4bh0h2rcd13ifvqd60","pricing_plan_id":"cebpf4jnsgd1na2vs0mg"},{"bike_id":"ce96d62b-f211-41db-a166-1ccaa0fede80","system_id":"levelo_inurba_marseille","lat":43.27838,"lon":5.392063,"is_reserved":false,"is_disabled":false,"rental_uris":{"android":"levelo://app?vid=ce96d62b-f211-41db-a166-1ccaa0fede80","ios":"levelo://app?vid=ce96d62b-f211-41db-a166-1ccaa0fede80"},"vehicle_type_id":"4","last_reported":1748652822,"current_range_meters":9200,"station_id":"ce4bhjp2rcd13ifvqga0","pricing_plan_id":"cebpf4jnsgd1na2vs0mg"},{"bike_id":"1b178ea1-044a-4bf5-83e5-c6b8ba930547","system_id":"levelo_inurba_marseille","lat":43.271734,"lon":5.409909,"is_reserved":false,"is_disabled":false,"rental_uris":{"android":"levelo://app?vid=1b178ea1-044a-4bf5-83e5-c6b8ba930547","ios":"levelo://app?vid=1b178ea1-044a-4bf5-83e5-c6b8ba930547"},"vehicle_type_id":"4","last_reported":1748652822,"current_range_meters":9200,"station_id":"ce4bhl12rcd13ifvqgf0","pricing_plan_id":"cebpf4jnsgd1na2vs0mg"},{"bike_id":"8b2dc9c8-8ddb-4863-9def-a132a0a57f13","system_id":"levelo_inurba_marseille","lat":43.287,"lon":5.39988,"is_reserved":false,"is_disabled":false,"rental_uris":{"android":"levelo://app?vid=8b2dc9c8-8ddb-4863-9def-a132a0a57f13","ios":"levelo://app?vid=8b2dc9c8-8ddb-4863-9def-a132a0a57f13"},"vehicle_type_id":"4","last_reported":1748652822,"current_range_meters":9200,"station_id":"ce4bho92rcd13ifvqh3g","pricing_plan_id":"cebpf4jnsgd1na2vs0mg"},{"bike_id":"3d36103b-c043-47dc-a225-42e79dcf6cf6","system_id":"levelo_inurba_marseille","lat":43.32273,"lon":5.38319,"is_reserved":false,"is_disabled":false,"rental_uris":{"android":"levelo://app?vid=3d36103b-c043-47dc-a225-42e79dcf6cf6","ios":"levelo://app?vid=3d36103b-c043-47dc-a225-42e79dcf6cf6"},"vehicle_type_id":"4","last_reported":1748652822,"current_range_meters":9200,"station_id":"ce4bhr12rcd13ifvqhqg","pricing_plan_id":"cebpf4jnsgd1na2vs0mg"},{"bike_id":"7243d7c8-02f5-4392-89cf-8c360e846d55","system_id":"levelo_inurba_marseille","lat":43.25277,"lon":5.3783,"is_reserved":false,"is_disabled":false,"rental_uris":{"android":"levelo://app?vid=7243d7c8-02f5-4392-89cf-8c360e846d55","ios":"levelo://app?vid=7243d7c8-02f5-4392-89cf-8c360e846d55"},"vehicle_type_id":"4","last_reported":1748652822,"current_range_meters":9600,"station_id":"","pricing_plan_id":"cebpf4jnsgd1na2vs0mg"},{"bike_id":"a807c8dd-75ce-4f49-b322-50ddd08ec8d0","system_id":"levelo_inurba_marseille","lat":43.347486,"lon":5.373231,"is_reserved":false,"is_disabled":false,"rental_uris":{"android":"levelo://app?vid=a807c8dd-75ce-4f49-b322-50ddd08ec8d0","ios":"levelo://app?vid=a807c8dd-75ce-4f49-b322-50ddd08ec8d0"},"vehicle_type_id":"4","last_reported":1748652822,"current_range_meters":9600,"station_id":"","pricing_plan_id":"cebpf4jnsgd1na2vs0mg"},{"bike_id":"4dc07d80-e63c-43e9-9b6b-30ab182521fd","system_id":"levelo_inurba_marseille","lat":43.273077,"lon":5.391282,"is_reserved":false,"is_disabled":false,"rental_uris":{"android":"levelo://app?vid=4dc07d80-e63c-43e9-9b6b-30ab182521fd","ios":"levelo://app?vid=4dc07d80-e63c-43e9-9b6b-30ab182521fd"},"vehicle_type_id":"4","last_reported":1748652822,"current_range_meters":9600,"station_id":"ce4bhgp2rcd13ifvqfe0","pricing_plan_id":"cebpf4jnsgd1na2vs0mg"},{"bike_id":"ade80f1c-1963-4723-aaac-612c2803ccad","system_id":"levelo_inurba_marseille","lat":43.276812,"lon":5.389226,"is_reserved":false,"is_disabled":false,"rental_uris":{"android":"levelo://app?vid=ade80f1c-1963-4723-aaac-612c2803ccad","ios":"levelo://app?vid=ade80f1c-1963-4723-aaac-612c2803ccad"},"vehicle_type_id":"4","last_reported":1748652822,"current_range_meters":9600,"station_id":"ce4bhi12rcd13ifvqfo0","pricing_plan_id":"cebpf4jnsgd1na2vs0mg"},{"bike_id":"11d5a3c3-b5c3-45ee-9c59-63e06770cf8b","system_id":"levelo_inurba_marseille","lat":43.25128,"lon":5.40318,"is_reserved":false,"is_disabled":false,"rental_uris":{"android":"levelo://app?vid=11d5a3c3-b5c3-45ee-9c59-63e06770cf8b","ios":"levelo://app?vid=11d5a3c3-b5c3-45ee-9c59-63e06770cf8b"},"vehicle_type_id":"4","last_reported":1748652822,"current_range_meters":9600,"station_id":"ce4bhlh2rcd13ifvqgig","pricing_plan_id":"cebpf4jnsgd1na2vs0mg"},{"bike_id":"adec08ad-7cab-4b8d-984d-1616c13b6452","system_id":"levelo_inurba_marseille","lat":43.26949,"lon":5.40247,"is_reserved":false,"is_disabled":false,"rental_uris":{"android":"levelo://app?vid=adec08ad-7cab-4b8d-984d-1616c13b6452","ios":"levelo://app?vid=adec08ad-7cab-4b8d-984d-1616c13b6452"},"vehicle_type_id":"4","last_reported":1748652822,"current_range_meters":9600,"station_id":"cjm6bp8fraef2m0cb0m0","pricing_plan_id":"cebpf4jnsgd1na2vs0mg"},{"bike_id":"ef581f4c-67e6-4fec-a59f-aa7c8e6c7dec","system_id":"levelo_inurba_marseille","lat":43.295349,"lon":5.385439,"is_reserved":false,"is_disabled":false,"rental_uris":{"android":"levelo://app?vid=ef581f4c-67e6-4fec-a59f-aa7c8e6c7dec","ios":"levelo://app?vid=ef581f4c-67e6-4fec-a59f-aa7c8e6c7dec"},"vehicle_type_id":"4","last_reported":1748652822,"current_range_meters":10000,"station_id":"ce4bgih2rcd13ifvqba0","pricing_plan_id":"cebpf4jnsgd1na2vs0mg"},{"bike_id":"76749e45-957b-40bb-9b95-4da7298a2cca","system_id":"levelo_inurba_marseille","lat":43.30423,"lon":5.38887,"is_reserved":false,"is_disabled":false,"rental_uris":{"android":"levelo://app?vid=76749e45-957b-40bb-9b95-4da7298a2cca","ios":"levelo://app?vid=76749e45-957b-40bb-9b95-4da7298a2cca"},"vehicle_type_id":"4","last_reported":1748652822,"current_range_meters":10000,"station_id":"ce4bgk12rcd13ifvqbi0","pricing_plan_id":"cebpf4jnsgd1na2vs0mg"},{"bike_id":"b0200c1b-b66d-4346-bb99-0fa7af9fc6f4","system_id":"levelo_inurba_marseille","lat":43.30789,"lon":5.38155,"is_reserved":false,"is_disabled":false,"rental_uris":{"android":"levelo://app?vid=b0200c1b-b66d-4346-bb99-0fa7af9fc6f4","ios":"levelo://app?vid=b0200c1b-b66d-4346-bb99-0fa7af9fc6f4"},"vehicle_type_id":"4","last_reported":1748652822,"current_range_meters":10000,"station_id":"ce4bgt12rcd13ifvqce0","pricing_plan_id":"cebpf4jnsgd1na2vs0mg"},{"bike_id":"f7e01e19-4556-4ccb-be59-a64b8dafd365","system_id":"levelo_inurba_marseille","lat":43.31164,"lon":5.38714,"is_reserved":false,"is_disabled":false,"rental_uris":{"android":"levelo://app?vid=f7e01e19-4556-4ccb-be59-a64b8dafd365","ios":"levelo://app?vid=f7e01e19-4556-4ccb-be59-a64b8dafd365"},"vehicle_type_id":"4","last_reported":1748652822,"current_range_meters":10000,"station_id":"ce4bgv12rcd13ifvqcp0","pricing_plan_id":"cebpf4jnsgd1na2vs0mg"},{"bike_id":"5a59c85a-af1a-46af-9f13-fc058b89bcbb","system_id":"levelo_inurba_marseille","lat":43.30881,"lon":5.39654,"is_reserved":false,"is_disabled":false,"rental_uris":{"android":"levelo://app?vid=5a59c85a-af1a-46af-9f13-fc058b89bcbb","ios":"levelo://app?vid=5a59c85a-af1a-46af-9f13-fc058b89bcbb"},"vehicle_type_id":"4","last_reported":1748652822,"current_range_meters":10000,"station_id":"ce4bh012rcd13ifvqcv0","pricing_plan_id":"cebpf4jnsgd1na2vs0mg"},{"bike_id":"4e82788a-76ec-40e1-8d87-7dbcf56d978b","system_id":"levelo_inurba_marseille","lat":43.303266,"lon":5.404438,"is_reserved":false,"is_disabled":false,"rental_uris":{"android":"levelo://app?vid=4e82788a-76ec-40e1-8d87-7dbcf56d978b","ios":"levelo://app?vid=4e82788a-76ec-40e1-8d87-7dbcf56d978b"},"vehicle_type_id":"4","last_reported":1748652822,"current_range_meters":10000,"station_id":"ce4bh012rcd13ifvqd10","pricing_plan_id":"cebpf4jnsgd1na2vs0mg"},{"bike_id":"79d5dd5f-2e4a-472a-8c9e-1db11d7a9fc0","system_id":"levelo_inurba_marseille","lat":43.28927,"lon":5.3841,"is_reserved":false,"is_disabled":false,"rental_uris":{"android":"levelo://app?vid=79d5dd5f-2e4a-472a-8c9e-1db11d7a9fc0","ios":"levelo://app?vid=79d5dd5f-2e4a-472a-8c9e-1db11d7a9fc0"},"vehicle_type_id":"4","last_reported":1748652822,"current_range_meters":10000,"station_id":"ce4bh612rcd13ifvqe6g","pricing_plan_id":"cebpf4jnsgd1na2vs0mg"},{"bike_id":"6cab2d10-7f2c-4dac-ba3d-4f103803cc6a","system_id":"levelo_inurba_marseille","lat":43.28929,"lon":5.38424,"is_reserved":false,"is_disabled":false,"rental_uris":{"android":"levelo://app?vid=6cab2d10-7f2c-4dac-ba3d-4f103803cc6a","ios":"levelo://app?vid=6cab2d10-7f2c-4dac-ba3d-4f103803cc6a"},"vehicle_type_id":"4","last_reported":1748652822,"current_range_meters":10000,"station_id":"ce4bh612rcd13ifvqe6g","pricing_plan_id":"cebpf4jnsgd1na2vs0mg"},{"bike_id":"662af0d9-b4f1-4513-bbd2-fd65be6229e5","system_id":"levelo_inurba_marseille","lat":43.259291,"lon":5.408769,"is_reserved":false,"is_disabled":false,"rental_uris":{"android":"levelo://app?vid=662af0d9-b4f1-4513-bbd2-fd65be6229e5","ios":"levelo://app?vid=662af0d9-b4f1-4513-bbd2-fd65be6229e5"},"vehicle_type_id":"4","last_reported":1748652822,"current_range_meters":10000,"station_id":"ce4bhm92rcd13ifvqglg","pricing_plan_id":"cebpf4jnsgd1na2vs0mg"},{"bike_id":"d42b65af-38ed-48b1-9f62-d79f47c848dd","system_id":"levelo_inurba_marseille","lat":43.24082,"lon":5.37777,"is_reserved":false,"is_disabled":false,"rental_uris":{"android":"levelo://app?vid=d42b65af-38ed-48b1-9f62-d79f47c848dd","ios":"levelo://app?vid=d42b65af-38ed-48b1-9f62-d79f47c848dd"},"vehicle_type_id":"4","last_reported":1748652822,"current_range_meters":10000,"station_id":"ce4bhnp2rcd13ifvqgvg","pricing_plan_id":"cebpf4jnsgd1na2vs0mg"},{"bike_id":"acdeb330-e3c4-4bf4-893d-ac949dc0c305","system_id":"levelo_inurba_marseille","lat":43.26809,"lon":5.40253,"is_reserved":false,"is_disabled":false,"rental_uris":{"android":"levelo://app?vid=acdeb330-e3c4-4bf4-893d-ac949dc0c305","ios":"levelo://app?vid=acdeb330-e3c4-4bf4-893d-ac949dc0c305"},"vehicle_type_id":"4","last_reported":1748652822,"current_range_meters":10000,"station_id":"ce501612rcd8frsf0b60","pricing_plan_id":"cebpf4jnsgd1na2vs0mg"},{"bike_id":"d16f5222-3d1e-4d65-a992-1bc93f719178","system_id":"levelo_inurba_marseille","lat":43.30324,"lon":5.36596,"is_reserved":false,"is_disabled":false,"rental_uris":{"android":"levelo://app?vid=d16f5222-3d1e-4d65-a992-1bc93f719178","ios":"levelo://app?vid=d16f5222-3d1e-4d65-a992-1bc93f719178"},"vehicle_type_id":"4","last_reported":1748652822,"current_range_meters":10800,"station_id":"","pricing_plan_id":"cebpf4jnsgd1na2vs0mg"},{"bike_id":"64a3d9b3-30f8-4a8c-b831-0d99a9fae7a2","system_id":"levelo_inurba_marseille","lat":43.31695,"lon":5.40492,"is_reserved":false,"is_disabled":false,"rental_uris":{"android":"levelo://app?vid=64a3d9b3-30f8-4a8c-b831-0d99a9fae7a2","ios":"levelo://app?vid=64a3d9b3-30f8-4a8c-b831-0d99a9fae7a2"},"vehicle_type_id":"4","last_reported":1748652822,"current_range_meters":10800,"station_id":"ce4bh012rcd13ifvqd00","pricing_plan_id":"cebpf4jnsgd1na2vs0mg"},{"bike_id":"4d37d630-e567-4a17-8738-5c2ba19a10ee","system_id":"levelo_inurba_marseille","lat":43.30325,"lon":5.40434,"is_reserved":false,"is_disabled":false,"rental_uris":{"android":"levelo://app?vid=4d37d630-e567-4a17-8738-5c2ba19a10ee","ios":"levelo://app?vid=4d37d630-e567-4a17-8738-5c2ba19a10ee"},"vehicle_type_id":"4","last_reported":1748652822,"current_range_meters":10800,"station_id":"ce4bh012rcd13ifvqd10","pricing_plan_id":"cebpf4jnsgd1na2vs0mg"},{"bike_id":"7fa0e9c2-571e-4491-9879-e641683c80c0","system_id":"levelo_inurba_marseille","lat":43.30227,"lon":5.39456,"is_reserved":false,"is_disabled":false,"rental_uris":{"android":"levelo://app?vid=7fa0e9c2-571e-4491-9879-e641683c80c0","ios":"levelo://app?vid=7fa0e9c2-571e-4491-9879-e641683c80c0"},"vehicle_type_id":"4","last_reported":1748652822,"current_range_meters":10800,"station_id":"ce4bh0p2rcd13ifvqd70","pricing_plan_id":"cebpf4jnsgd1na2vs0mg"},{"bike_id":"2b41f1b2-a9a5-49f2-b554-b0b122a5c1c4","system_id":"levelo_inurba_marseille","lat":43.30641,"lon":5.40087,"is_reserved":false,"is_disabled":false,"rental_uris":{"android":"levelo://app?vid=2b41f1b2-a9a5-49f2-b554-b0b122a5c1c4","ios":"levelo://app?vid=2b41f1b2-a9a5-49f2-b554-b0b122a5c1c4"},"vehicle_type_id":"4","last_reported":1748652822,"current_range_meters":10800,"station_id":"ce4bh112rcd13ifvqda0","pricing_plan_id":"cebpf4jnsgd1na2vs0mg"},{"bike_id":"ec695b5d-b960-464b-94b1-b383014fd058","system_id":"levelo_inurba_marseille","lat":43.29503,"lon":5.39406,"is_reserved":false,"is_disabled":false,"rental_uris":{"android":"levelo://app?vid=ec695b5d-b960-464b-94b1-b383014fd058","ios":"levelo://app?vid=ec695b5d-b960-464b-94b1-b383014fd058"},"vehicle_type_id":"4","last_reported":1748652822,"current_range_meters":10800,"station_id":"ce4bh292rcd13ifvqdf0","pricing_plan_id":"cebpf4jnsgd1na2vs0mg"},{"bike_id":"bac667cf-137e-4ea7-b037-7ebd6a2ad77c","system_id":"levelo_inurba_marseille","lat":43.282548,"lon":5.350987,"is_reserved":false,"is_disabled":false,"rental_uris":{"android":"levelo://app?vid=bac667cf-137e-4ea7-b037-7ebd6a2ad77c","ios":"levelo://app?vid=bac667cf-137e-4ea7-b037-7ebd6a2ad77c"},"vehicle_type_id":"4","last_reported":1748652822,"current_range_meters":10800,"station_id":"ce4bhbp2rcd13ifvqerg","pricing_plan_id":"cebpf4jnsgd1na2vs0mg"},{"bike_id":"9ee87dbe-3990-4764-9a6b-2020fac42886","system_id":"levelo_inurba_marseille","lat":43.32106,"lon":5.367785,"is_reserved":false,"is_disabled":false,"rental_uris":{"android":"levelo://app?vid=9ee87dbe-3990-4764-9a6b-2020fac42886","ios":"levelo://app?vid=9ee87dbe-3990-4764-9a6b-2020fac42886"},"vehicle_type_id":"4","last_reported":1748652822,"current_range_meters":10800,"station_id":"ce4bhrh2rcd13ifvqhug","pricing_plan_id":"cebpf4jnsgd1na2vs0mg"},{"bike_id":"a672e2ce-ff65-491a-baf8-b5fcce4f4059","system_id":"levelo_inurba_marseille","lat":43.31711,"lon":5.39044,"is_reserved":false,"is_disabled":false,"rental_uris":{"android":"levelo://app?vid=a672e2ce-ff65-491a-baf8-b5fcce4f4059","ios":"levelo://app?vid=a672e2ce-ff65-491a-baf8-b5fcce4f4059"},"vehicle_type_id":"4","last_reported":1748652822,"current_range_meters":11200,"station_id":"","pricing_plan_id":"cebpf4jnsgd1na2vs0mg"},{"bike_id":"f86183e6-3897-41a1-97fc-4d508dda07c1","system_id":"levelo_inurba_marseille","lat":43.31324,"lon":5.39707,"is_reserved":false,"is_disabled":false,"rental_uris":{"android":"levelo://app?vid=f86183e6-3897-41a1-97fc-4d508dda07c1","ios":"levelo://app?vid=f86183e6-3897-41a1-97fc-4d508dda07c1"},"vehicle_type_id":"4","last_reported":1748652822,"current_range_meters":11200,"station_id":"ce4bgvp2rcd13ifvqcu0","pricing_plan_id":"cebpf4jnsgd1na2vs0mg"},{"bike_id":"13e1bdb8-10c1-431e-b25d-97209144813a","system_id":"levelo_inurba_marseille","lat":43.29439,"lon":5.39748,"is_reserved":false,"is_disabled":false,"rental_uris":{"android":"levelo://app?vid=13e1bdb8-10c1-431e-b25d-97209144813a","ios":"levelo://app?vid=13e1bdb8-10c1-431e-b25d-97209144813a"},"vehicle_type_id":"4","last_reported":1748652822,"current_range_meters":11200,"station_id":"ce4bh3h2rcd13ifvqdo0","pricing_plan_id":"cebpf4jnsgd1na2vs0mg"},{"bike_id":"9483a7bd-846c-4c6e-a304-71a2f38946f5","system_id":"levelo_inurba_marseille","lat":43.27927,"lon":5.39584,"is_reserved":false,"is_disabled":false,"rental_uris":{"android":"levelo://app?vid=9483a7bd-846c-4c6e-a304-71a2f38946f5","ios":"levelo://app?vid=9483a7bd-846c-4c6e-a304-71a2f38946f5"},"vehicle_type_id":"4","last_reported":1748652822,"current_range_meters":11200,"station_id":"ce4bhf92rcd13ifvqf40","pricing_plan_id":"cebpf4jnsgd1na2vs0mg"},{"bike_id":"72b23615-0b78-4a19-8c4c-ff25f55f5ef9","system_id":"levelo_inurba_marseille","lat":43.27498,"lon":5.42459,"is_reserved":false,"is_disabled":false,"rental_uris":{"android":"levelo://app?vid=72b23615-0b78-4a19-8c4c-ff25f55f5ef9","ios":"levelo://app?vid=72b23615-0b78-4a19-8c4c-ff25f55f5ef9"},"vehicle_type_id":"4","last_reported":1748652822,"current_range_meters":11200,"station_id":"ce4bhn92rcd13ifvqgrg","pricing_plan_id":"cebpf4jnsgd1na2vs0mg"},{"bike_id":"008a8b5c-da32-426f-bdcf-6db4c9f404d8","system_id":"levelo_inurba_marseille","lat":43.22927,"lon":5.35386,"is_reserved":false,"is_disabled":false,"rental_uris":{"android":"levelo://app?vid=008a8b5c-da32-426f-bdcf-6db4c9f404d8","ios":"levelo://app?vid=008a8b5c-da32-426f-bdcf-6db4c9f404d8"},"vehicle_type_id":"4","last_reported":1748652822,"current_range_meters":11200,"station_id":"cpo3532slgdg3j2ikp40","pricing_plan_id":"cebpf4jnsgd1na2vs0mg"},{"bike_id":"b601bd0b-d384-4fb2-9e4d-ad2cc6a1b992","system_id":"levelo_inurba_marseille","lat":43.23265,"lon":5.36085,"is_reserved":false,"is_disabled":false,"rental_uris":{"android":"levelo://app?vid=b601bd0b-d384-4fb2-9e4d-ad2cc6a1b992","ios":"levelo://app?vid=b601bd0b-d384-4fb2-9e4d-ad2cc6a1b992"},"vehicle_type_id":"4","last_reported":1748652822,"current_range_meters":11600,"station_id":"","pricing_plan_id":"cebpf4jnsgd1na2vs0mg"},{"bike_id":"dd34afa2-f665-4263-85a8-7de7dbd3a196","system_id":"levelo_inurba_marseille","lat":43.276339,"lon":5.396806,"is_reserved":false,"is_disabled":false,"rental_uris":{"android":"levelo://app?vid=dd34afa2-f665-4263-85a8-7de7dbd3a196","ios":"levelo://app?vid=dd34afa2-f665-4263-85a8-7de7dbd3a196"},"vehicle_type_id":"4","last_reported":1748652822,"current_range_meters":11600,"station_id":"","pricing_plan_id":"cebpf4jnsgd1na2vs0mg"},{"bike_id":"bba393dc-635b-4fd8-bfc7-d43bcf548e28","system_id":"levelo_inurba_marseille","lat":43.29786,"lon":5.37098,"is_reserved":false,"is_disabled":false,"rental_uris":{"android":"levelo://app?vid=bba393dc-635b-4fd8-bfc7-d43bcf548e28","ios":"levelo://app?vid=bba393dc-635b-4fd8-bfc7-d43bcf548e28"},"vehicle_type_id":"4","last_reported":1748652822,"current_range_meters":11600,"station_id":"ce4bgop2rcd13ifvqc1g","pricing_plan_id":"cebpf4jnsgd1na2vs0mg"},{"bike_id":"611431ba-0dbb-4a95-a0e3-6a07119ff3ce","system_id":"levelo_inurba_marseille","lat":43.30585,"lon":5.39358,"is_reserved":false,"is_disabled":false,"rental_uris":{"android":"levelo://app?vid=611431ba-0dbb-4a95-a0e3-6a07119ff3ce","ios":"levelo://app?vid=611431ba-0dbb-4a95-a0e3-6a07119ff3ce"},"vehicle_type_id":"4","last_reported":1748652822,"current_range_meters":11600,"station_id":"ce4bh0p2rcd13ifvqd80","pricing_plan_id":"cebpf4jnsgd1na2vs0mg"},{"bike_id":"b18036e4-cdbb-441f-a4f1-99c9cdbece34","system_id":"levelo_inurba_marseille","lat":43.294996,"lon":5.390715,"is_reserved":false,"is_disabled":false,"rental_uris":{"android":"levelo://app?vid=b18036e4-cdbb-441f-a4f1-99c9cdbece34","ios":"levelo://app?vid=b18036e4-cdbb-441f-a4f1-99c9cdbece34"},"vehicle_type_id":"4","last_reported":1748652822,"current_range_meters":11600,"station_id":"ce4bh3p2rcd13ifvqdp0","pricing_plan_id":"cebpf4jnsgd1na2vs0mg"},{"bike_id":"ee5ba2d6-4df2-47c2-b67d-c4459e448d78","system_id":"levelo_inurba_marseille","lat":43.28694,"lon":5.38656,"is_reserved":false,"is_disabled":false,"rental_uris":{"android":"levelo://app?vid=ee5ba2d6-4df2-47c2-b67d-c4459e448d78","ios":"levelo://app?vid=ee5ba2d6-4df2-47c2-b67d-c4459e448d78"},"vehicle_type_id":"4","last_reported":1748652822,"current_range_meters":11600,"station_id":"ce4bh492rcd13ifvqdug","pricing_plan_id":"cebpf4jnsgd1na2vs0mg"},{"bike_id":"baa9ae91-cf2b-4902-bc78-4d8c41a40b35","system_id":"levelo_inurba_marseille","lat":43.26571,"lon":5.39053,"is_reserved":false,"is_disabled":false,"rental_uris":{"android":"levelo://app?vid=baa9ae91-cf2b-4902-bc78-4d8c41a40b35","ios":"levelo://app?vid=baa9ae91-cf2b-4902-bc78-4d8c41a40b35"},"vehicle_type_id":"4","last_reported":1748652822,"current_range_meters":11600,"station_id":"ce4bhe12rcd13ifvqf30","pricing_plan_id":"cebpf4jnsgd1na2vs0mg"},{"bike_id":"8d48119e-760e-4c00-b401-59af0a322afa","system_id":"levelo_inurba_marseille","lat":43.2565,"lon":5.40872,"is_reserved":false,"is_disabled":false,"rental_uris":{"android":"levelo://app?vid=8d48119e-760e-4c00-b401-59af0a322afa","ios":"levelo://app?vid=8d48119e-760e-4c00-b401-59af0a322afa"},"vehicle_type_id":"4","last_reported":1748652822,"current_range_meters":12000,"station_id":"","pricing_plan_id":"cebpf4jnsgd1na2vs0mg"},{"bike_id":"6b5f4852-177e-4567-ae76-6705d14c17b3","system_id":"levelo_inurba_marseille","lat":43.27916,"lon":5.39594,"is_reserved":false,"is_disabled":false,"rental_uris":{"android":"levelo://app?vid=6b5f4852-177e-4567-ae76-6705d14c17b3","ios":"levelo://app?vid=6b5f4852-177e-4567-ae76-6705d14c17b3"},"vehicle_type_id":"4","last_reported":1748652822,"current_range_meters":12000,"station_id":"ce4bhf92rcd13ifvqf40","pricing_plan_id":"cebpf4jnsgd1na2vs0mg"},{"bike_id":"d6d1ada7-d095-4848-a9c7-71d520f6d868","system_id":"levelo_inurba_marseille","lat":43.299666,"lon":5.384894,"is_reserved":false,"is_disabled":false,"rental_uris":{"android":"levelo://app?vid=d6d1ada7-d095-4848-a9c7-71d520f6d868","ios":"levelo://app?vid=d6d1ada7-d095-4848-a9c7-71d520f6d868"},"vehicle_type_id":"4","last_reported":1748652822,"current_range_meters":12400,"station_id":"","pricing_plan_id":"cebpf4jnsgd1na2vs0mg"},{"bike_id":"990df701-79a7-41ec-b963-3693dc590a87","system_id":"levelo_inurba_marseille","lat":43.30163,"lon":5.37904,"is_reserved":false,"is_disabled":false,"rental_uris":{"android":"levelo://app?vid=990df701-79a7-41ec-b963-3693dc590a87","ios":"levelo://app?vid=990df701-79a7-41ec-b963-3693dc590a87"},"vehicle_type_id":"4","last_reported":1748652822,"current_range_meters":12400,"station_id":"","pricing_plan_id":"cebpf4jnsgd1na2vs0mg"},{"bike_id":"cacdfd12-b7d0-4475-bcc3-4c155bd5f4f3","system_id":"levelo_inurba_marseille","lat":43.314813,"lon":5.37309,"is_reserved":false,"is_disabled":false,"rental_uris":{"android":"levelo://app?vid=cacdfd12-b7d0-4475-bcc3-4c155bd5f4f3","ios":"levelo://app?vid=cacdfd12-b7d0-4475-bcc3-4c155bd5f4f3"},"vehicle_type_id":"4","last_reported":1748652822,"current_range_meters":12400,"station_id":"ce4bgt12rcd13ifvqcd0","pricing_plan_id":"cebpf4jnsgd1na2vs0mg"},{"bike_id":"515721c5-a03f-4c0f-9dda-cc628eb412d9","system_id":"levelo_inurba_marseille","lat":43.30427,"lon":5.397415,"is_reserved":false,"is_disabled":false,"rental_uris":{"android":"levelo://app?vid=515721c5-a03f-4c0f-9dda-cc628eb412d9","ios":"levelo://app?vid=515721c5-a03f-4c0f-9dda-cc628eb412d9"},"vehicle_type_id":"4","last_reported":1748652822,"current_range_meters":12400,"station_id":"ce4bh092rcd13ifvqd20","pricing_plan_id":"cebpf4jnsgd1na2vs0mg"},{"bike_id":"3577627d-af97-482d-b7f9-51152459a64e","system_id":"levelo_inurba_marseille","lat":43.29286,"lon":5.40124,"is_reserved":false,"is_disabled":false,"rental_uris":{"android":"levelo://app?vid=3577627d-af97-482d-b7f9-51152459a64e","ios":"levelo://app?vid=3577627d-af97-482d-b7f9-51152459a64e"},"vehicle_type_id":"4","last_reported":1748652822,"current_range_meters":12400,"station_id":"ce4bh312rcd13ifvqdk0","pricing_plan_id":"cebpf4jnsgd1na2vs0mg"},{"bike_id":"850a5210-252f-45a8-818c-61bc54df4fb5","system_id":"levelo_inurba_marseille","lat":43.31073,"lon":5.38345,"is_reserved":false,"is_disabled":false,"rental_uris":{"android":"levelo://app?vid=850a5210-252f-45a8-818c-61bc54df4fb5","ios":"levelo://app?vid=850a5210-252f-45a8-818c-61bc54df4fb5"},"vehicle_type_id":"4","last_reported":1748652822,"current_range_meters":12800,"station_id":"ce4bgv92rcd13ifvqcr0","pricing_plan_id":"cebpf4jnsgd1na2vs0mg"},{"bike_id":"cc8d8bc8-f428-474a-99b2-8ca176d500fb","system_id":"levelo_inurba_marseille","lat":43.29028,"lon":5.38638,"is_reserved":false,"is_disabled":false,"rental_uris":{"android":"levelo://app?vid=cc8d8bc8-f428-474a-99b2-8ca176d500fb","ios":"levelo://app?vid=cc8d8bc8-f428-474a-99b2-8ca176d500fb"},"vehicle_type_id":"4","last_reported":1748652822,"current_range_meters":12800,"station_id":"ce4bh4p2rcd13ifvqe0g","pricing_plan_id":"cebpf4jnsgd1na2vs0mg"},{"bike_id":"71930e17-fe3c-443f-b621-4d725e50390f","system_id":"levelo_inurba_marseille","lat":43.33723,"lon":5.39188,"is_reserved":false,"is_disabled":false,"rental_uris":{"android":"levelo://app?vid=71930e17-fe3c-443f-b621-4d725e50390f","ios":"levelo://app?vid=71930e17-fe3c-443f-b621-4d725e50390f"},"vehicle_type_id":"4","last_reported":1748652822,"current_range_meters":12800,"station_id":"ce4bhr92rcd13ifvqhsg","pricing_plan_id":"cebpf4jnsgd1na2vs0mg"},{"bike_id":"59e69c29-8b04-43ef-8a5c-dcd319d2ce6a","system_id":"levelo_inurba_marseille","lat":43.29794,"lon":5.39345,"is_reserved":false,"is_disabled":false,"rental_uris":{"android":"levelo://app?vid=59e69c29-8b04-43ef-8a5c-dcd319d2ce6a","ios":"levelo://app?vid=59e69c29-8b04-43ef-8a5c-dcd319d2ce6a"},"vehicle_type_id":"4","last_reported":1748652822,"current_range_meters":12800,"station_id":"chh1huq6cuj3fo74tm60","pricing_plan_id":"cebpf4jnsgd1na2vs0mg"},{"bike_id":"a016949d-1b83-4525-b8e5-eb28776c83ba","system_id":"levelo_inurba_marseille","lat":43.282185,"lon":5.39076,"is_reserved":false,"is_disabled":false,"rental_uris":{"android":"levelo://app?vid=a016949d-1b83-4525-b8e5-eb28776c83ba","ios":"levelo://app?vid=a016949d-1b83-4525-b8e5-eb28776c83ba"},"vehicle_type_id":"4","last_reported":1748652822,"current_range_meters":13600,"station_id":"","pricing_plan_id":"cebpf4jnsgd1na2vs0mg"},{"bike_id":"eb0c13db-5a56-4232-8592-d9efc93c07ac","system_id":"levelo_inurba_marseille","lat":43.31171,"lon":5.38714,"is_reserved":false,"is_disabled":false,"rental_uris":{"android":"levelo://app?vid=eb0c13db-5a56-4232-8592-d9efc93c07ac","ios":"levelo://app?vid=eb0c13db-5a56-4232-8592-d9efc93c07ac"},"vehicle_type_id":"4","last_reported":1748652822,"current_range_meters":13600,"station_id":"ce4bgv12rcd13ifvqcp0","pricing_plan_id":"cebpf4jnsgd1na2vs0mg"},{"bike_id":"80276b70-d128-4510-a003-e57dd1d62c68","system_id":"levelo_inurba_marseille","lat":43.30925,"lon":5.40139,"is_reserved":false,"is_disabled":false,"rental_uris":{"android":"levelo://app?vid=80276b70-d128-4510-a003-e57dd1d62c68","ios":"levelo://app?vid=80276b70-d128-4510-a003-e57dd1d62c68"},"vehicle_type_id":"4","last_reported":1748652822,"current_range_meters":13600,"station_id":"ce4bgvp2rcd13ifvqct0","pricing_plan_id":"cebpf4jnsgd1na2vs0mg"},{"bike_id":"bd8d8b06-7f5c-4717-a31e-7376ee9502f7","system_id":"levelo_inurba_marseille","lat":43.286731,"lon":5.386672,"is_reserved":false,"is_disabled":false,"rental_uris":{"android":"levelo://app?vid=bd8d8b06-7f5c-4717-a31e-7376ee9502f7","ios":"levelo://app?vid=bd8d8b06-7f5c-4717-a31e-7376ee9502f7"},"vehicle_type_id":"4","last_reported":1748652822,"current_range_meters":13600,"station_id":"ce4bh492rcd13ifvqdug","pricing_plan_id":"cebpf4jnsgd1na2vs0mg"},{"bike_id":"bbf25ded-718e-41f5-8ebc-a2000cac04a7","system_id":"levelo_inurba_marseille","lat":43.30763,"lon":5.38151,"is_reserved":false,"is_disabled":false,"rental_uris":{"android":"levelo://app?vid=bbf25ded-718e-41f5-8ebc-a2000cac04a7","ios":"levelo://app?vid=bbf25ded-718e-41f5-8ebc-a2000cac04a7"},"vehicle_type_id":"4","last_reported":1748652822,"current_range_meters":14000,"station_id":"ce4bgt12rcd13ifvqce0","pricing_plan_id":"cebpf4jnsgd1na2vs0mg"},{"bike_id":"b35fd950-24e0-465e-96d1-082254f22158","system_id":"levelo_inurba_marseille","lat":43.27845,"lon":5.39208,"is_reserved":false,"is_disabled":false,"rental_uris":{"android":"levelo://app?vid=b35fd950-24e0-465e-96d1-082254f22158","ios":"levelo://app?vid=b35fd950-24e0-465e-96d1-082254f22158"},"vehicle_type_id":"4","last_reported":1748652822,"current_range_meters":14000,"station_id":"ce4bhjp2rcd13ifvqga0","pricing_plan_id":"cebpf4jnsgd1na2vs0mg"},{"bike_id":"03bb06f4-b491-4340-b745-0a2641be143b","system_id":"levelo_inurba_marseille","lat":43.30798,"lon":5.41849,"is_reserved":false,"is_disabled":false,"rental_uris":{"android":"levelo://app?vid=03bb06f4-b491-4340-b745-0a2641be143b","ios":"levelo://app?vid=03bb06f4-b491-4340-b745-0a2641be143b"},"vehicle_type_id":"4","last_reported":1748652822,"current_range_meters":14400,"station_id":"","pricing_plan_id":"cebpf4jnsgd1na2vs0mg"},{"bike_id":"893cccc3-5573-41c4-a76f-851cbc7df082","system_id":"levelo_inurba_marseille","lat":43.30935,"lon":5.40183,"is_reserved":false,"is_disabled":false,"rental_uris":{"android":"levelo://app?vid=893cccc3-5573-41c4-a76f-851cbc7df082","ios":"levelo://app?vid=893cccc3-5573-41c4-a76f-851cbc7df082"},"vehicle_type_id":"4","last_reported":1748652822,"current_range_meters":14400,"station_id":"ce4bgvp2rcd13ifvqct0","pricing_plan_id":"cebpf4jnsgd1na2vs0mg"},{"bike_id":"4438ed49-9224-4546-aa41-1e074a905093","system_id":"levelo_inurba_marseille","lat":43.30926,"lon":5.40144,"is_reserved":false,"is_disabled":false,"rental_uris":{"android":"levelo://app?vid=4438ed49-9224-4546-aa41-1e074a905093","ios":"levelo://app?vid=4438ed49-9224-4546-aa41-1e074a905093"},"vehicle_type_id":"4","last_reported":1748652822,"current_range_meters":14400,"station_id":"ce4bgvp2rcd13ifvqct0","pricing_plan_id":"cebpf4jnsgd1na2vs0mg"},{"bike_id":"f237b67b-c90a-4bde-9d04-487ff2d0298c","system_id":"levelo_inurba_marseille","lat":43.29251,"lon":5.40914,"is_reserved":false,"is_disabled":false,"rental_uris":{"android":"levelo://app?vid=f237b67b-c90a-4bde-9d04-487ff2d0298c","ios":"levelo://app?vid=f237b67b-c90a-4bde-9d04-487ff2d0298c"},"vehicle_type_id":"4","last_reported":1748652822,"current_range_meters":14400,"station_id":"ce4bh192rcd13ifvqdc0","pricing_plan_id":"cebpf4jnsgd1na2vs0mg"},{"bike_id":"099ae7f8-da2f-4e1e-85e1-bd2cc4e2608a","system_id":"levelo_inurba_marseille","lat":43.290289,"lon":5.386379,"is_reserved":false,"is_disabled":false,"rental_uris":{"android":"levelo://app?vid=099ae7f8-da2f-4e1e-85e1-bd2cc4e2608a","ios":"levelo://app?vid=099ae7f8-da2f-4e1e-85e1-bd2cc4e2608a"},"vehicle_type_id":"4","last_reported":1748652822,"current_range_meters":14400,"station_id":"ce4bh4p2rcd13ifvqe0g","pricing_plan_id":"cebpf4jnsgd1na2vs0mg"},{"bike_id":"98c649e0-2bae-46eb-9e4d-669548a5301f","system_id":"levelo_inurba_marseille","lat":43.251068,"lon":5.403239,"is_reserved":false,"is_disabled":false,"rental_uris":{"android":"levelo://app?vid=98c649e0-2bae-46eb-9e4d-669548a5301f","ios":"levelo://app?vid=98c649e0-2bae-46eb-9e4d-669548a5301f"},"vehicle_type_id":"4","last_reported":1748652822,"current_range_meters":14400,"station_id":"ce4bhlh2rcd13ifvqgig","pricing_plan_id":"cebpf4jnsgd1na2vs0mg"},{"bike_id":"4fc8e160-bdd8-4f6f-85a4-5b4ed3086ca5","system_id":"levelo_inurba_marseille","lat":43.28076,"lon":5.39642,"is_reserved":false,"is_disabled":false,"rental_uris":{"android":"levelo://app?vid=4fc8e160-bdd8-4f6f-85a4-5b4ed3086ca5","ios":"levelo://app?vid=4fc8e160-bdd8-4f6f-85a4-5b4ed3086ca5"},"vehicle_type_id":"4","last_reported":1748652822,"current_range_meters":14400,"station_id":"ce4bho12rcd13ifvqh2g","pricing_plan_id":"cebpf4jnsgd1na2vs0mg"},{"bike_id":"4eb27fe7-2925-45a1-b43c-b8c44fea6a4a","system_id":"levelo_inurba_marseille","lat":43.31074,"lon":5.42429,"is_reserved":false,"is_disabled":false,"rental_uris":{"android":"levelo://app?vid=4eb27fe7-2925-45a1-b43c-b8c44fea6a4a","ios":"levelo://app?vid=4eb27fe7-2925-45a1-b43c-b8c44fea6a4a"},"vehicle_type_id":"4","last_reported":1748652822,"current_range_meters":14400,"station_id":"ce4bhp92rcd13ifvqhag","pricing_plan_id":"cebpf4jnsgd1na2vs0mg"},{"bike_id":"5a0f9c43-81b8-4fde-9937-0577c074501c","system_id":"levelo_inurba_marseille","lat":43.29546,"lon":5.38523,"is_reserved":false,"is_disabled":false,"rental_uris":{"android":"levelo://app?vid=5a0f9c43-81b8-4fde-9937-0577c074501c","ios":"levelo://app?vid=5a0f9c43-81b8-4fde-9937-0577c074501c"},"vehicle_type_id":"4","last_reported":1748652822,"current_range_meters":14800,"station_id":"ce4bgih2rcd13ifvqba0","pricing_plan_id":"cebpf4jnsgd1na2vs0mg"},{"bike_id":"71ab4f34-8f23-488e-bda8-6b81db36f261","system_id":"levelo_inurba_marseille","lat":43.29574,"lon":5.39965,"is_reserved":false,"is_disabled":false,"rental_uris":{"android":"levelo://app?vid=71ab4f34-8f23-488e-bda8-6b81db36f261","ios":"levelo://app?vid=71ab4f34-8f23-488e-bda8-6b81db36f261"},"vehicle_type_id":"4","last_reported":1748652822,"current_range_meters":14800,"station_id":"ce4bh312rcd13ifvqdj0","pricing_plan_id":"cebpf4jnsgd1na2vs0mg"},{"bike_id":"cc31aa97-960e-43f1-ae43-2eb9e73839b4","system_id":"levelo_inurba_marseille","lat":43.28346,"lon":5.38112,"is_reserved":false,"is_disabled":false,"rental_uris":{"android":"levelo://app?vid=cc31aa97-960e-43f1-ae43-2eb9e73839b4","ios":"levelo://app?vid=cc31aa97-960e-43f1-ae43-2eb9e73839b4"},"vehicle_type_id":"4","last_reported":1748652822,"current_range_meters":14800,"station_id":"ce4bh412rcd13ifvqdr0","pricing_plan_id":"cebpf4jnsgd1na2vs0mg"},{"bike_id":"91d451cd-fd12-4c58-9642-67ff33efe050","system_id":"levelo_inurba_marseille","lat":43.29029,"lon":5.38652,"is_reserved":false,"is_disabled":false,"rental_uris":{"android":"levelo://app?vid=91d451cd-fd12-4c58-9642-67ff33efe050","ios":"levelo://app?vid=91d451cd-fd12-4c58-9642-67ff33efe050"},"vehicle_type_id":"4","last_reported":1748652822,"current_range_meters":14800,"station_id":"ce4bh4p2rcd13ifvqe0g","pricing_plan_id":"cebpf4jnsgd1na2vs0mg"},{"bike_id":"67614841-9f24-4f1f-81f7-acf09b9bb6b8","system_id":"levelo_inurba_marseille","lat":43.257206,"lon":5.411081,"is_reserved":false,"is_disabled":false,"rental_uris":{"android":"levelo://app?vid=67614841-9f24-4f1f-81f7-acf09b9bb6b8","ios":"levelo://app?vid=67614841-9f24-4f1f-81f7-acf09b9bb6b8"},"vehicle_type_id":"4","last_reported":1748652822,"current_range_meters":14800,"station_id":"ce4bhkp2rcd13ifvqgd0","pricing_plan_id":"cebpf4jnsgd1na2vs0mg"},{"bike_id":"d5d0bfbb-f2bc-4297-a453-115bac476736","system_id":"levelo_inurba_marseille","lat":43.293713,"lon":5.375779,"is_reserved":false,"is_disabled":false,"rental_uris":{"android":"levelo://app?vid=d5d0bfbb-f2bc-4297-a453-115bac476736","ios":"levelo://app?vid=d5d0bfbb-f2bc-4297-a453-115bac476736"},"vehicle_type_id":"4","last_reported":1748652822,"current_range_meters":15200,"station_id":"","pricing_plan_id":"cebpf4jnsgd1na2vs0mg"},{"bike_id":"b39b16dc-f183-4cb5-86c3-5371fdcfe54c","system_id":"levelo_inurba_marseille","lat":43.3104,"lon":5.38336,"is_reserved":false,"is_disabled":false,"rental_uris":{"android":"levelo://app?vid=b39b16dc-f183-4cb5-86c3-5371fdcfe54c","ios":"levelo://app?vid=b39b16dc-f183-4cb5-86c3-5371fdcfe54c"},"vehicle_type_id":"4","last_reported":1748652822,"current_range_meters":15200,"station_id":"ce4bgv92rcd13ifvqcr0","pricing_plan_id":"cebpf4jnsgd1na2vs0mg"},{"bike_id":"56118c5b-a7b2-448d-9e9f-37905a3f02ee","system_id":"levelo_inurba_marseille","lat":43.290186,"lon":5.386364,"is_reserved":false,"is_disabled":false,"rental_uris":{"android":"levelo://app?vid=56118c5b-a7b2-448d-9e9f-37905a3f02ee","ios":"levelo://app?vid=56118c5b-a7b2-448d-9e9f-37905a3f02ee"},"vehicle_type_id":"4","last_reported":1748652822,"current_range_meters":15200,"station_id":"ce4bh4p2rcd13ifvqe0g","pricing_plan_id":"cebpf4jnsgd1na2vs0mg"},{"bike_id":"70cd6256-b5f2-4f83-83c9-e546d2f57272","system_id":"levelo_inurba_marseille","lat":43.275689,"lon":5.384024,"is_reserved":false,"is_disabled":false,"rental_uris":{"android":"levelo://app?vid=70cd6256-b5f2-4f83-83c9-e546d2f57272","ios":"levelo://app?vid=70cd6256-b5f2-4f83-83c9-e546d2f57272"},"vehicle_type_id":"4","last_reported":1748652822,"current_range_meters":15200,"station_id":"ce4bhh92rcd13ifvqfi0","pricing_plan_id":"cebpf4jnsgd1na2vs0mg"},{"bike_id":"d8af0821-bc5d-459f-b24d-bbfca9521714","system_id":"levelo_inurba_marseille","lat":43.24163,"lon":5.39756,"is_reserved":false,"is_disabled":false,"rental_uris":{"android":"levelo://app?vid=d8af0821-bc5d-459f-b24d-bbfca9521714","ios":"levelo://app?vid=d8af0821-bc5d-459f-b24d-bbfca9521714"},"vehicle_type_id":"4","last_reported":1748652822,"current_range_meters":15200,"station_id":"ce4bhn12rcd13ifvqgpg","pricing_plan_id":"cebpf4jnsgd1na2vs0mg"},{"bike_id":"e25e3f32-3551-46af-8f23-13516017a9d5","system_id":"levelo_inurba_marseille","lat":43.30472,"lon":5.3791,"is_reserved":false,"is_disabled":false,"rental_uris":{"android":"levelo://app?vid=e25e3f32-3551-46af-8f23-13516017a9d5","ios":"levelo://app?vid=e25e3f32-3551-46af-8f23-13516017a9d5"},"vehicle_type_id":"4","last_reported":1748652822,"current_range_meters":16000,"station_id":"ce4bgup2rcd13ifvqcn0","pricing_plan_id":"cebpf4jnsgd1na2vs0mg"},{"bike_id":"0a2aa0a3-8994-4921-90a8-560f5e55f68b","system_id":"levelo_inurba_marseille","lat":43.31329,"lon":5.39723,"is_reserved":false,"is_disabled":false,"rental_uris":{"android":"levelo://app?vid=0a2aa0a3-8994-4921-90a8-560f5e55f68b","ios":"levelo://app?vid=0a2aa0a3-8994-4921-90a8-560f5e55f68b"},"vehicle_type_id":"4","last_reported":1748652822,"current_range_meters":16000,"station_id":"ce4bgvp2rcd13ifvqcu0","pricing_plan_id":"cebpf4jnsgd1na2vs0mg"},{"bike_id":"5b4dcac3-2414-4b03-841e-6020b2253a14","system_id":"levelo_inurba_marseille","lat":43.30117,"lon":5.39858,"is_reserved":false,"is_disabled":false,"rental_uris":{"android":"levelo://app?vid=5b4dcac3-2414-4b03-841e-6020b2253a14","ios":"levelo://app?vid=5b4dcac3-2414-4b03-841e-6020b2253a14"},"vehicle_type_id":"4","last_reported":1748652822,"current_range_meters":16000,"station_id":"ce4bh0h2rcd13ifvqd40","pricing_plan_id":"cebpf4jnsgd1na2vs0mg"},{"bike_id":"6a94b091-ee86-4b2c-8ec2-68818103e06f","system_id":"levelo_inurba_marseille","lat":43.3059,"lon":5.39355,"is_reserved":false,"is_disabled":false,"rental_uris":{"android":"levelo://app?vid=6a94b091-ee86-4b2c-8ec2-68818103e06f","ios":"levelo://app?vid=6a94b091-ee86-4b2c-8ec2-68818103e06f"},"vehicle_type_id":"4","last_reported":1748652822,"current_range_meters":16000,"station_id":"ce4bh0p2rcd13ifvqd80","pricing_plan_id":"cebpf4jnsgd1na2vs0mg"},{"bike_id":"e2ae118e-d72e-4689-8ce8-ded84aed50bd","system_id":"levelo_inurba_marseille","lat":43.27836,"lon":5.39213,"is_reserved":false,"is_disabled":false,"rental_uris":{"android":"levelo://app?vid=e2ae118e-d72e-4689-8ce8-ded84aed50bd","ios":"levelo://app?vid=e2ae118e-d72e-4689-8ce8-ded84aed50bd"},"vehicle_type_id":"4","last_reported":1748652822,"current_range_meters":16000,"station_id":"ce4bhjp2rcd13ifvqga0","pricing_plan_id":"cebpf4jnsgd1na2vs0mg"},{"bike_id":"b3138513-1acc-4e68-94cd-ba12e52278b5","system_id":"levelo_inurba_marseille","lat":43.25724,"lon":5.41107,"is_reserved":false,"is_disabled":false,"rental_uris":{"android":"levelo://app?vid=b3138513-1acc-4e68-94cd-ba12e52278b5","ios":"levelo://app?vid=b3138513-1acc-4e68-94cd-ba12e52278b5"},"vehicle_type_id":"4","last_reported":1748652822,"current_range_meters":16000,"station_id":"ce4bhkp2rcd13ifvqgd0","pricing_plan_id":"cebpf4jnsgd1na2vs0mg"},{"bike_id":"99586cd6-a2a0-47d9-ab46-a364f046973a","system_id":"levelo_inurba_marseille","lat":43.25111,"lon":5.40356,"is_reserved":false,"is_disabled":false,"rental_uris":{"android":"levelo://app?vid=99586cd6-a2a0-47d9-ab46-a364f046973a","ios":"levelo://app?vid=99586cd6-a2a0-47d9-ab46-a364f046973a"},"vehicle_type_id":"4","last_reported":1748652822,"current_range_meters":16000,"station_id":"ce4bhlh2rcd13ifvqgig","pricing_plan_id":"cebpf4jnsgd1na2vs0mg"},{"bike_id":"a1afee0d-636a-4145-8e38-9b2384426a66","system_id":"levelo_inurba_marseille","lat":43.32278,"lon":5.383,"is_reserved":false,"is_disabled":false,"rental_uris":{"android":"levelo://app?vid=a1afee0d-636a-4145-8e38-9b2384426a66","ios":"levelo://app?vid=a1afee0d-636a-4145-8e38-9b2384426a66"},"vehicle_type_id":"4","last_reported":1748652822,"current_range_meters":16000,"station_id":"ce4bhr12rcd13ifvqhqg","pricing_plan_id":"cebpf4jnsgd1na2vs0mg"},{"bike_id":"14036455-f919-44f7-8d5e-0b2e84f48674","system_id":"levelo_inurba_marseille","lat":43.309258,"lon":5.403826,"is_reserved":false,"is_disabled":false,"rental_uris":{"android":"levelo://app?vid=14036455-f919-44f7-8d5e-0b2e84f48674","ios":"levelo://app?vid=14036455-f919-44f7-8d5e-0b2e84f48674"},"vehicle_type_id":"4","last_reported":1748652822,"current_range_meters":16400,"station_id":"","pricing_plan_id":"cebpf4jnsgd1na2vs0mg"},{"bike_id":"03c1751e-ef60-4175-a52f-4759bb9df88b","system_id":"levelo_inurba_marseille","lat":43.29903,"lon":5.38138,"is_reserved":false,"is_disabled":false,"rental_uris":{"android":"levelo://app?vid=03c1751e-ef60-4175-a52f-4759bb9df88b","ios":"levelo://app?vid=03c1751e-ef60-4175-a52f-4759bb9df88b"},"vehicle_type_id":"4","last_reported":1748652822,"current_range_meters":16400,"station_id":"ce4bgj12rcd13ifvqbc0","pricing_plan_id":"cebpf4jnsgd1na2vs0mg"},{"bike_id":"7c75b060-060f-4b1c-8ccf-f18bc7ff396a","system_id":"levelo_inurba_marseille","lat":43.28411,"lon":5.37516,"is_reserved":false,"is_disabled":false,"rental_uris":{"android":"levelo://app?vid=7c75b060-060f-4b1c-8ccf-f18bc7ff396a","ios":"levelo://app?vid=7c75b060-060f-4b1c-8ccf-f18bc7ff396a"},"vehicle_type_id":"4","last_reported":1748652822,"current_range_meters":16400,"station_id":"ce4bh412rcd13ifvqds0","pricing_plan_id":"cebpf4jnsgd1na2vs0mg"},{"bike_id":"f4abb64a-4ef3-4b56-b69d-5e78f7f800d1","system_id":"levelo_inurba_marseille","lat":43.29039,"lon":5.38645,"is_reserved":false,"is_disabled":false,"rental_uris":{"android":"levelo://app?vid=f4abb64a-4ef3-4b56-b69d-5e78f7f800d1","ios":"levelo://app?vid=f4abb64a-4ef3-4b56-b69d-5e78f7f800d1"},"vehicle_type_id":"4","last_reported":1748652822,"current_range_meters":16400,"station_id":"ce4bh4p2rcd13ifvqe0g","pricing_plan_id":"cebpf4jnsgd1na2vs0mg"},{"bike_id":"e80a24f9-e015-4620-963b-ad1c5c3fa3f7","system_id":"levelo_inurba_marseille","lat":43.29034,"lon":5.38645,"is_reserved":false,"is_disabled":false,"rental_uris":{"android":"levelo://app?vid=e80a24f9-e015-4620-963b-ad1c5c3fa3f7","ios":"levelo://app?vid=e80a24f9-e015-4620-963b-ad1c5c3fa3f7"},"vehicle_type_id":"4","last_reported":1748652822,"current_range_meters":16400,"station_id":"ce4bh4p2rcd13ifvqe0g","pricing_plan_id":"cebpf4jnsgd1na2vs0mg"},{"bike_id":"a203cef1-97cb-47f9-9ab1-78869ad668ec","system_id":"levelo_inurba_marseille","lat":43.24391,"lon":5.37057,"is_reserved":false,"is_disabled":false,"rental_uris":{"android":"levelo://app?vid=a203cef1-97cb-47f9-9ab1-78869ad668ec","ios":"levelo://app?vid=a203cef1-97cb-47f9-9ab1-78869ad668ec"},"vehicle_type_id":"4","last_reported":1748652822,"current_range_meters":16400,"station_id":"ce4bhhh2rcd13ifvqfk0","pricing_plan_id":"cebpf4jnsgd1na2vs0mg"},{"bike_id":"c2319c95-523a-4385-a540-a2f6322d592b","system_id":"levelo_inurba_marseille","lat":43.27827,"lon":5.39213,"is_reserved":false,"is_disabled":false,"rental_uris":{"android":"levelo://app?vid=c2319c95-523a-4385-a540-a2f6322d592b","ios":"levelo://app?vid=c2319c95-523a-4385-a540-a2f6322d592b"},"vehicle_type_id":"4","last_reported":1748652822,"current_range_meters":16400,"station_id":"ce4bhjp2rcd13ifvqga0","pricing_plan_id":"cebpf4jnsgd1na2vs0mg"},{"bike_id":"f5c92089-c385-41e8-bd22-786c20787e82","system_id":"levelo_inurba_marseille","lat":43.27944,"lon":5.41047,"is_reserved":false,"is_disabled":false,"rental_uris":{"android":"levelo://app?vid=f5c92089-c385-41e8-bd22-786c20787e82","ios":"levelo://app?vid=f5c92089-c385-41e8-bd22-786c20787e82"},"vehicle_type_id":"4","last_reported":1748652822,"current_range_meters":16400,"station_id":"ce4bhnp2rcd13ifvqh0g","pricing_plan_id":"cebpf4jnsgd1na2vs0mg"},{"bike_id":"3684317d-8c7d-4406-83d3-99a336dbaba1","system_id":"levelo_inurba_marseille","lat":43.27947,"lon":5.41067,"is_reserved":false,"is_disabled":false,"rental_uris":{"android":"levelo://app?vid=3684317d-8c7d-4406-83d3-99a336dbaba1","ios":"levelo://app?vid=3684317d-8c7d-4406-83d3-99a336dbaba1"},"vehicle_type_id":"4","last_reported":1748652822,"current_range_meters":16400,"station_id":"ce4bhnp2rcd13ifvqh0g","pricing_plan_id":"cebpf4jnsgd1na2vs0mg"},{"bike_id":"37a1772a-40ff-49a9-89f8-2169aa59c1aa","system_id":"levelo_inurba_marseille","lat":43.300903,"lon":5.390808,"is_reserved":false,"is_disabled":false,"rental_uris":{"android":"levelo://app?vid=37a1772a-40ff-49a9-89f8-2169aa59c1aa","ios":"levelo://app?vid=37a1772a-40ff-49a9-89f8-2169aa59c1aa"},"vehicle_type_id":"4","last_reported":1748652822,"current_range_meters":16800,"station_id":"ce4bh192rcd13ifvqdb0","pricing_plan_id":"cebpf4jnsgd1na2vs0mg"},{"bike_id":"480f043b-d440-4de0-ad40-c9601fac61aa","system_id":"levelo_inurba_marseille","lat":43.279023,"lon":5.395743,"is_reserved":false,"is_disabled":false,"rental_uris":{"android":"levelo://app?vid=480f043b-d440-4de0-ad40-c9601fac61aa","ios":"levelo://app?vid=480f043b-d440-4de0-ad40-c9601fac61aa"},"vehicle_type_id":"4","last_reported":1748652822,"current_range_meters":16800,"station_id":"ce4bhf92rcd13ifvqf40","pricing_plan_id":"cebpf4jnsgd1na2vs0mg"},{"bike_id":"e878270b-d4b9-4a41-9720-9dfc581bead7","system_id":"levelo_inurba_marseille","lat":43.257255,"lon":5.410925,"is_reserved":false,"is_disabled":false,"rental_uris":{"android":"levelo://app?vid=e878270b-d4b9-4a41-9720-9dfc581bead7","ios":"levelo://app?vid=e878270b-d4b9-4a41-9720-9dfc581bead7"},"vehicle_type_id":"4","last_reported":1748652822,"current_range_meters":16800,"station_id":"ce4bhkp2rcd13ifvqgd0","pricing_plan_id":"cebpf4jnsgd1na2vs0mg"},{"bike_id":"54a6e89f-ade8-4e13-89a6-7d78485bfd6f","system_id":"levelo_inurba_marseille","lat":43.25735,"lon":5.41103,"is_reserved":false,"is_disabled":false,"rental_uris":{"android":"levelo://app?vid=54a6e89f-ade8-4e13-89a6-7d78485bfd6f","ios":"levelo://app?vid=54a6e89f-ade8-4e13-89a6-7d78485bfd6f"},"vehicle_type_id":"4","last_reported":1748652822,"current_range_meters":16800,"station_id":"ce4bhkp2rcd13ifvqgd0","pricing_plan_id":"cebpf4jnsgd1na2vs0mg"},{"bike_id":"e943eb65-5385-4e18-8168-21b674560739","system_id":"levelo_inurba_marseille","lat":43.27164,"lon":5.40999,"is_reserved":false,"is_disabled":false,"rental_uris":{"android":"levelo://app?vid=e943eb65-5385-4e18-8168-21b674560739","ios":"levelo://app?vid=e943eb65-5385-4e18-8168-21b674560739"},"vehicle_type_id":"4","last_reported":1748652822,"current_range_meters":16800,"station_id":"ce4bhl12rcd13ifvqgf0","pricing_plan_id":"cebpf4jnsgd1na2vs0mg"},{"bike_id":"741bde16-c1c0-420b-83ea-5f83d349a2cf","system_id":"levelo_inurba_marseille","lat":43.23145,"lon":5.43714,"is_reserved":false,"is_disabled":false,"rental_uris":{"android":"levelo://app?vid=741bde16-c1c0-420b-83ea-5f83d349a2cf","ios":"levelo://app?vid=741bde16-c1c0-420b-83ea-5f83d349a2cf"},"vehicle_type_id":"4","last_reported":1748652822,"current_range_meters":16800,"station_id":"ce4bhmp2rcd13ifvqgog","pricing_plan_id":"cebpf4jnsgd1na2vs0mg"},{"bike_id":"348ddc31-f232-46b0-bbef-5931b86212cf","system_id":"levelo_inurba_marseille","lat":43.241785,"lon":5.397281,"is_reserved":false,"is_disabled":false,"rental_uris":{"android":"levelo://app?vid=348ddc31-f232-46b0-bbef-5931b86212cf","ios":"levelo://app?vid=348ddc31-f232-46b0-bbef-5931b86212cf"},"vehicle_type_id":"4","last_reported":1748652822,"current_range_meters":16800,"station_id":"ce4bhn12rcd13ifvqgpg","pricing_plan_id":"cebpf4jnsgd1na2vs0mg"},{"bike_id":"3de55df9-7d7b-4304-b06e-95e8f06b7b5d","system_id":"levelo_inurba_marseille","lat":43.29802,"lon":5.38101,"is_reserved":false,"is_disabled":false,"rental_uris":{"android":"levelo://app?vid=3de55df9-7d7b-4304-b06e-95e8f06b7b5d","ios":"levelo://app?vid=3de55df9-7d7b-4304-b06e-95e8f06b7b5d"},"vehicle_type_id":"4","last_reported":1748652822,"current_range_meters":17200,"station_id":"ce4bgip2rcd13ifvqbb0","pricing_plan_id":"cebpf4jnsgd1na2vs0mg"},{"bike_id":"0e8140bd-38ea-4c9d-bf02-7bae7173c7cc","system_id":"levelo_inurba_marseille","lat":43.27601,"lon":5.36126,"is_reserved":false,"is_disabled":false,"rental_uris":{"android":"levelo://app?vid=0e8140bd-38ea-4c9d-bf02-7bae7173c7cc","ios":"levelo://app?vid=0e8140bd-38ea-4c9d-bf02-7bae7173c7cc"},"vehicle_type_id":"4","last_reported":1748652822,"current_range_meters":17200,"station_id":"ce4bgj92rcd13ifvqbe0","pricing_plan_id":"cebpf4jnsgd1na2vs0mg"},{"bike_id":"12e5b650-6721-47fc-bca9-139993e2375f","system_id":"levelo_inurba_marseille","lat":43.27831,"lon":5.39202,"is_reserved":false,"is_disabled":false,"rental_uris":{"android":"levelo://app?vid=12e5b650-6721-47fc-bca9-139993e2375f","ios":"levelo://app?vid=12e5b650-6721-47fc-bca9-139993e2375f"},"vehicle_type_id":"4","last_reported":1748652822,"current_range_meters":17200,"station_id":"ce4bhjp2rcd13ifvqga0","pricing_plan_id":"cebpf4jnsgd1na2vs0mg"},{"bike_id":"093bbd9a-3376-4f5e-8a41-7cc8b8b4e4b7","system_id":"levelo_inurba_marseille","lat":43.251165,"lon":5.403215,"is_reserved":false,"is_disabled":false,"rental_uris":{"android":"levelo://app?vid=093bbd9a-3376-4f5e-8a41-7cc8b8b4e4b7","ios":"levelo://app?vid=093bbd9a-3376-4f5e-8a41-7cc8b8b4e4b7"},"vehicle_type_id":"4","last_reported":1748652822,"current_range_meters":17200,"station_id":"ce4bhlh2rcd13ifvqgig","pricing_plan_id":"cebpf4jnsgd1na2vs0mg"},{"bike_id":"a6b5881b-b0b8-4bc7-b058-b9203f85809d","system_id":"levelo_inurba_marseille","lat":43.24543,"lon":5.39529,"is_reserved":false,"is_disabled":false,"rental_uris":{"android":"levelo://app?vid=a6b5881b-b0b8-4bc7-b058-b9203f85809d","ios":"levelo://app?vid=a6b5881b-b0b8-4bc7-b058-b9203f85809d"},"vehicle_type_id":"4","last_reported":1748652822,"current_range_meters":17200,"station_id":"ce4bhlp2rcd13ifvqgjg","pricing_plan_id":"cebpf4jnsgd1na2vs0mg"},{"bike_id":"1f72df3b-3eb6-4e22-98b3-16e8c40786d5","system_id":"levelo_inurba_marseille","lat":43.240755,"lon":5.37748,"is_reserved":false,"is_disabled":false,"rental_uris":{"android":"levelo://app?vid=1f72df3b-3eb6-4e22-98b3-16e8c40786d5","ios":"levelo://app?vid=1f72df3b-3eb6-4e22-98b3-16e8c40786d5"},"vehicle_type_id":"4","last_reported":1748652822,"current_range_meters":17200,"station_id":"ce4bhnp2rcd13ifvqgvg","pricing_plan_id":"cebpf4jnsgd1na2vs0mg"},{"bike_id":"c6eba481-8ee4-49b0-a228-bff3efbb83b0","system_id":"levelo_inurba_marseille","lat":43.27943,"lon":5.41046,"is_reserved":false,"is_disabled":false,"rental_uris":{"android":"levelo://app?vid=c6eba481-8ee4-49b0-a228-bff3efbb83b0","ios":"levelo://app?vid=c6eba481-8ee4-49b0-a228-bff3efbb83b0"},"vehicle_type_id":"4","last_reported":1748652822,"current_range_meters":17200,"station_id":"ce4bhnp2rcd13ifvqh0g","pricing_plan_id":"cebpf4jnsgd1na2vs0mg"},{"bike_id":"bbb06921-e716-4ace-a092-eccc1bcc3204","system_id":"levelo_inurba_marseille","lat":43.313008,"lon":5.382746,"is_reserved":false,"is_disabled":false,"rental_uris":{"android":"levelo://app?vid=bbb06921-e716-4ace-a092-eccc1bcc3204","ios":"levelo://app?vid=bbb06921-e716-4ace-a092-eccc1bcc3204"},"vehicle_type_id":"4","last_reported":1748652822,"current_range_meters":17600,"station_id":"","pricing_plan_id":"cebpf4jnsgd1na2vs0mg"},{"bike_id":"21784205-f144-4b4d-921a-765ac0dfbf97","system_id":"levelo_inurba_marseille","lat":43.34818,"lon":5.348477,"is_reserved":false,"is_disabled":false,"rental_uris":{"android":"levelo://app?vid=21784205-f144-4b4d-921a-765ac0dfbf97","ios":"levelo://app?vid=21784205-f144-4b4d-921a-765ac0dfbf97"},"vehicle_type_id":"4","last_reported":1748652822,"current_range_meters":17600,"station_id":"","pricing_plan_id":"cebpf4jnsgd1na2vs0mg"},{"bike_id":"4a3787ec-31e9-492d-affe-7a59adf0c4d7","system_id":"levelo_inurba_marseille","lat":43.29364,"lon":5.37841,"is_reserved":false,"is_disabled":false,"rental_uris":{"android":"levelo://app?vid=4a3787ec-31e9-492d-affe-7a59adf0c4d7","ios":"levelo://app?vid=4a3787ec-31e9-492d-affe-7a59adf0c4d7"},"vehicle_type_id":"4","last_reported":1748652822,"current_range_meters":17600,"station_id":"ce4bgjh2rcd13ifvqbf0","pricing_plan_id":"cebpf4jnsgd1na2vs0mg"},{"bike_id":"35ef5a10-b532-4816-b90a-b5882420f0b1","system_id":"levelo_inurba_marseille","lat":43.30785,"lon":5.38147,"is_reserved":false,"is_disabled":false,"rental_uris":{"android":"levelo://app?vid=35ef5a10-b532-4816-b90a-b5882420f0b1","ios":"levelo://app?vid=35ef5a10-b532-4816-b90a-b5882420f0b1"},"vehicle_type_id":"4","last_reported":1748652822,"current_range_meters":17600,"station_id":"ce4bgt12rcd13ifvqce0","pricing_plan_id":"cebpf4jnsgd1na2vs0mg"},{"bike_id":"bcbbe9e8-dbf7-4e1d-8071-c5eed199d5d0","system_id":"levelo_inurba_marseille","lat":43.303196,"lon":5.404472,"is_reserved":false,"is_disabled":false,"rental_uris":{"android":"levelo://app?vid=bcbbe9e8-dbf7-4e1d-8071-c5eed199d5d0","ios":"levelo://app?vid=bcbbe9e8-dbf7-4e1d-8071-c5eed199d5d0"},"vehicle_type_id":"4","last_reported":1748652822,"current_range_meters":17600,"station_id":"ce4bh012rcd13ifvqd10","pricing_plan_id":"cebpf4jnsgd1na2vs0mg"},{"bike_id":"fd4ed28b-44f0-454f-a77a-7fcd296665fa","system_id":"levelo_inurba_marseille","lat":43.29808,"lon":5.40399,"is_reserved":false,"is_disabled":false,"rental_uris":{"android":"levelo://app?vid=fd4ed28b-44f0-454f-a77a-7fcd296665fa","ios":"levelo://app?vid=fd4ed28b-44f0-454f-a77a-7fcd296665fa"},"vehicle_type_id":"4","last_reported":1748652822,"current_range_meters":17600,"station_id":"ce4bh112rcd13ifvqd90","pricing_plan_id":"cebpf4jnsgd1na2vs0mg"},{"bike_id":"b36e4e75-5606-4b46-8bfb-fdc8a5fb7522","system_id":"levelo_inurba_marseille","lat":43.29572,"lon":5.39973,"is_reserved":false,"is_disabled":false,"rental_uris":{"android":"levelo://app?vid=b36e4e75-5606-4b46-8bfb-fdc8a5fb7522","ios":"levelo://app?vid=b36e4e75-5606-4b46-8bfb-fdc8a5fb7522"},"vehicle_type_id":"4","last_reported":1748652822,"current_range_meters":17600,"station_id":"ce4bh312rcd13ifvqdj0","pricing_plan_id":"cebpf4jnsgd1na2vs0mg"},{"bike_id":"716a2310-8de8-4c37-83e1-85fc28389444","system_id":"levelo_inurba_marseille","lat":43.279135,"lon":5.395802,"is_reserved":false,"is_disabled":false,"rental_uris":{"android":"levelo://app?vid=716a2310-8de8-4c37-83e1-85fc28389444","ios":"levelo://app?vid=716a2310-8de8-4c37-83e1-85fc28389444"},"vehicle_type_id":"4","last_reported":1748652822,"current_range_meters":17600,"station_id":"ce4bhf92rcd13ifvqf40","pricing_plan_id":"cebpf4jnsgd1na2vs0mg"},{"bike_id":"f4f1fd10-7f02-4ec2-8cb0-c8c5fa3e09c2","system_id":"levelo_inurba_marseille","lat":43.27933,"lon":5.41039,"is_reserved":false,"is_disabled":false,"rental_uris":{"android":"levelo://app?vid=f4f1fd10-7f02-4ec2-8cb0-c8c5fa3e09c2","ios":"levelo://app?vid=f4f1fd10-7f02-4ec2-8cb0-c8c5fa3e09c2"},"vehicle_type_id":"4","last_reported":1748652822,"current_range_meters":17600,"station_id":"ce4bhnp2rcd13ifvqh0g","pricing_plan_id":"cebpf4jnsgd1na2vs0mg"},{"bike_id":"9a189ee8-27ed-444b-b171-f705371af28f","system_id":"levelo_inurba_marseille","lat":43.28253,"lon":5.34908,"is_reserved":false,"is_disabled":false,"rental_uris":{"android":"levelo://app?vid=9a189ee8-27ed-444b-b171-f705371af28f","ios":"levelo://app?vid=9a189ee8-27ed-444b-b171-f705371af28f"},"vehicle_type_id":"4","last_reported":1748652822,"current_range_meters":18000,"station_id":"","pricing_plan_id":"cebpf4jnsgd1na2vs0mg"},{"bike_id":"e210be7e-07b8-44d3-ae09-6702f28e2ae8","system_id":"levelo_inurba_marseille","lat":43.25123,"lon":5.39354,"is_reserved":false,"is_disabled":false,"rental_uris":{"android":"levelo://app?vid=e210be7e-07b8-44d3-ae09-6702f28e2ae8","ios":"levelo://app?vid=e210be7e-07b8-44d3-ae09-6702f28e2ae8"},"vehicle_type_id":"4","last_reported":1748652822,"current_range_meters":18000,"station_id":"","pricing_plan_id":"cebpf4jnsgd1na2vs0mg"},{"bike_id":"aa732485-43cf-4818-b780-95241493f162","system_id":"levelo_inurba_marseille","lat":43.3148,"lon":5.37346,"is_reserved":false,"is_disabled":false,"rental_uris":{"android":"levelo://app?vid=aa732485-43cf-4818-b780-95241493f162","ios":"levelo://app?vid=aa732485-43cf-4818-b780-95241493f162"},"vehicle_type_id":"4","last_reported":1748652822,"current_range_meters":18000,"station_id":"ce4bgt12rcd13ifvqcd0","pricing_plan_id":"cebpf4jnsgd1na2vs0mg"},{"bike_id":"00131897-496e-4e97-8ef5-f0e85782eb28","system_id":"levelo_inurba_marseille","lat":43.30464,"lon":5.37914,"is_reserved":false,"is_disabled":false,"rental_uris":{"android":"levelo://app?vid=00131897-496e-4e97-8ef5-f0e85782eb28","ios":"levelo://app?vid=00131897-496e-4e97-8ef5-f0e85782eb28"},"vehicle_type_id":"4","last_reported":1748652822,"current_range_meters":18000,"station_id":"ce4bgup2rcd13ifvqcn0","pricing_plan_id":"cebpf4jnsgd1na2vs0mg"},{"bike_id":"98ec307e-7ec1-4c12-8327-791809e3259d","system_id":"levelo_inurba_marseille","lat":43.27843,"lon":5.39225,"is_reserved":false,"is_disabled":false,"rental_uris":{"android":"levelo://app?vid=98ec307e-7ec1-4c12-8327-791809e3259d","ios":"levelo://app?vid=98ec307e-7ec1-4c12-8327-791809e3259d"},"vehicle_type_id":"4","last_reported":1748652822,"current_range_meters":18000,"station_id":"ce4bhjp2rcd13ifvqga0","pricing_plan_id":"cebpf4jnsgd1na2vs0mg"},{"bike_id":"622f2786-ec7a-42e5-a8fa-63ee4bf3ae10","system_id":"levelo_inurba_marseille","lat":43.28418,"lon":5.39194,"is_reserved":false,"is_disabled":false,"rental_uris":{"android":"levelo://app?vid=622f2786-ec7a-42e5-a8fa-63ee4bf3ae10","ios":"levelo://app?vid=622f2786-ec7a-42e5-a8fa-63ee4bf3ae10"},"vehicle_type_id":"4","last_reported":1748652822,"current_range_meters":18000,"station_id":"ce4bhoh2rcd13ifvqh5g","pricing_plan_id":"cebpf4jnsgd1na2vs0mg"},{"bike_id":"f5a90625-b7e8-48a8-90c6-777efe255a32","system_id":"levelo_inurba_marseille","lat":43.25105,"lon":5.40972,"is_reserved":false,"is_disabled":false,"rental_uris":{"android":"levelo://app?vid=f5a90625-b7e8-48a8-90c6-777efe255a32","ios":"levelo://app?vid=f5a90625-b7e8-48a8-90c6-777efe255a32"},"vehicle_type_id":"4","last_reported":1748652822,"current_range_meters":18800,"station_id":"","pricing_plan_id":"cebpf4jnsgd1na2vs0mg"},{"bike_id":"d08043a3-1509-42c0-b312-c58c26f0b5ec","system_id":"levelo_inurba_marseille","lat":43.31333,"lon":5.39707,"is_reserved":false,"is_disabled":false,"rental_uris":{"android":"levelo://app?vid=d08043a3-1509-42c0-b312-c58c26f0b5ec","ios":"levelo://app?vid=d08043a3-1509-42c0-b312-c58c26f0b5ec"},"vehicle_type_id":"4","last_reported":1748652822,"current_range_meters":18800,"station_id":"ce4bgvp2rcd13ifvqcu0","pricing_plan_id":"cebpf4jnsgd1na2vs0mg"},{"bike_id":"5e6bcb07-66df-4ace-8e59-9db839396e6d","system_id":"levelo_inurba_marseille","lat":43.2834,"lon":5.38121,"is_reserved":false,"is_disabled":false,"rental_uris":{"android":"levelo://app?vid=5e6bcb07-66df-4ace-8e59-9db839396e6d","ios":"levelo://app?vid=5e6bcb07-66df-4ace-8e59-9db839396e6d"},"vehicle_type_id":"4","last_reported":1748652822,"current_range_meters":18800,"station_id":"ce4bh412rcd13ifvqdr0","pricing_plan_id":"cebpf4jnsgd1na2vs0mg"},{"bike_id":"11b79d64-3454-4a1a-aee0-363b46bc3876","system_id":"levelo_inurba_marseille","lat":43.27916,"lon":5.3958,"is_reserved":false,"is_disabled":false,"rental_uris":{"android":"levelo://app?vid=11b79d64-3454-4a1a-aee0-363b46bc3876","ios":"levelo://app?vid=11b79d64-3454-4a1a-aee0-363b46bc3876"},"vehicle_type_id":"4","last_reported":1748652822,"current_range_meters":18800,"station_id":"ce4bhf92rcd13ifvqf40","pricing_plan_id":"cebpf4jnsgd1na2vs0mg"},{"bike_id":"f325a15f-9ad8-4375-8169-5c64975bd201","system_id":"levelo_inurba_marseille","lat":43.251216,"lon":5.403131,"is_reserved":false,"is_disabled":false,"rental_uris":{"android":"levelo://app?vid=f325a15f-9ad8-4375-8169-5c64975bd201","ios":"levelo://app?vid=f325a15f-9ad8-4375-8169-5c64975bd201"},"vehicle_type_id":"4","last_reported":1748652822,"current_range_meters":18800,"station_id":"ce4bhlh2rcd13ifvqgig","pricing_plan_id":"cebpf4jnsgd1na2vs0mg"},{"bike_id":"10cccf0e-5e24-4b75-8e4f-e089b2d3e656","system_id":"levelo_inurba_marseille","lat":43.23199,"lon":5.39987,"is_reserved":false,"is_disabled":false,"rental_uris":{"android":"levelo://app?vid=10cccf0e-5e24-4b75-8e4f-e089b2d3e656","ios":"levelo://app?vid=10cccf0e-5e24-4b75-8e4f-e089b2d3e656"},"vehicle_type_id":"4","last_reported":1748652822,"current_range_meters":18800,"station_id":"ce4bhn12rcd13ifvqgqg","pricing_plan_id":"cebpf4jnsgd1na2vs0mg"},{"bike_id":"9a87b717-f8e2-4016-bc78-03583a62a953","system_id":"levelo_inurba_marseille","lat":43.26551,"lon":5.40333,"is_reserved":false,"is_disabled":false,"rental_uris":{"android":"levelo://app?vid=9a87b717-f8e2-4016-bc78-03583a62a953","ios":"levelo://app?vid=9a87b717-f8e2-4016-bc78-03583a62a953"},"vehicle_type_id":"4","last_reported":1748652822,"current_range_meters":19200,"station_id":"","pricing_plan_id":"cebpf4jnsgd1na2vs0mg"},{"bike_id":"b433c371-fa62-4ef0-9c6a-19d8581a9331","system_id":"levelo_inurba_marseille","lat":43.28141,"lon":5.38193,"is_reserved":false,"is_disabled":false,"rental_uris":{"android":"levelo://app?vid=b433c371-fa62-4ef0-9c6a-19d8581a9331","ios":"levelo://app?vid=b433c371-fa62-4ef0-9c6a-19d8581a9331"},"vehicle_type_id":"4","last_reported":1748652822,"current_range_meters":19200,"station_id":"","pricing_plan_id":"cebpf4jnsgd1na2vs0mg"},{"bike_id":"a71dc80a-1481-49c2-8742-137342881992","system_id":"levelo_inurba_marseille","lat":43.30452,"lon":5.38864,"is_reserved":false,"is_disabled":false,"rental_uris":{"android":"levelo://app?vid=a71dc80a-1481-49c2-8742-137342881992","ios":"levelo://app?vid=a71dc80a-1481-49c2-8742-137342881992"},"vehicle_type_id":"4","last_reported":1748652822,"current_range_meters":19200,"station_id":"ce4bgk12rcd13ifvqbi0","pricing_plan_id":"cebpf4jnsgd1na2vs0mg"},{"bike_id":"b0a19a86-a34f-494d-9114-422bdec55090","system_id":"levelo_inurba_marseille","lat":43.30797,"lon":5.38152,"is_reserved":false,"is_disabled":false,"rental_uris":{"android":"levelo://app?vid=b0a19a86-a34f-494d-9114-422bdec55090","ios":"levelo://app?vid=b0a19a86-a34f-494d-9114-422bdec55090"},"vehicle_type_id":"4","last_reported":1748652822,"current_range_meters":19200,"station_id":"ce4bgt12rcd13ifvqce0","pricing_plan_id":"cebpf4jnsgd1na2vs0mg"},{"bike_id":"2440e1c5-035d-43e7-be76-275fc3ec932a","system_id":"levelo_inurba_marseille","lat":43.30464,"lon":5.37906,"is_reserved":false,"is_disabled":false,"rental_uris":{"android":"levelo://app?vid=2440e1c5-035d-43e7-be76-275fc3ec932a","ios":"levelo://app?vid=2440e1c5-035d-43e7-be76-275fc3ec932a"},"vehicle_type_id":"4","last_reported":1748652822,"current_range_meters":19200,"station_id":"ce4bgup2rcd13ifvqcn0","pricing_plan_id":"cebpf4jnsgd1na2vs0mg"},{"bike_id":"339176a5-854d-42d8-903a-78530d788788","system_id":"levelo_inurba_marseille","lat":43.31167,"lon":5.38711,"is_reserved":false,"is_disabled":false,"rental_uris":{"android":"levelo://app?vid=339176a5-854d-42d8-903a-78530d788788","ios":"levelo://app?vid=339176a5-854d-42d8-903a-78530d788788"},"vehicle_type_id":"4","last_reported":1748652822,"current_range_meters":19200,"station_id":"ce4bgv12rcd13ifvqcp0","pricing_plan_id":"cebpf4jnsgd1na2vs0mg"},{"bike_id":"9151d4d6-ced7-49f5-ba62-ca041c75878a","system_id":"levelo_inurba_marseille","lat":43.30237,"lon":5.40041,"is_reserved":false,"is_disabled":false,"rental_uris":{"android":"levelo://app?vid=9151d4d6-ced7-49f5-ba62-ca041c75878a","ios":"levelo://app?vid=9151d4d6-ced7-49f5-ba62-ca041c75878a"},"vehicle_type_id":"4","last_reported":1748652822,"current_range_meters":19200,"station_id":"ce4bgvh2rcd13ifvqcs0","pricing_plan_id":"cebpf4jnsgd1na2vs0mg"},{"bike_id":"5ce80a09-7c7c-4dec-8130-369e14cc0e45","system_id":"levelo_inurba_marseille","lat":43.29032,"lon":5.386573,"is_reserved":false,"is_disabled":false,"rental_uris":{"android":"levelo://app?vid=5ce80a09-7c7c-4dec-8130-369e14cc0e45","ios":"levelo://app?vid=5ce80a09-7c7c-4dec-8130-369e14cc0e45"},"vehicle_type_id":"4","last_reported":1748652822,"current_range_meters":19200,"station_id":"ce4bh4p2rcd13ifvqe0g","pricing_plan_id":"cebpf4jnsgd1na2vs0mg"},{"bike_id":"58bdc00c-5a04-40bc-89cb-e7f4f427f55a","system_id":"levelo_inurba_marseille","lat":43.24064,"lon":5.37701,"is_reserved":false,"is_disabled":false,"rental_uris":{"android":"levelo://app?vid=58bdc00c-5a04-40bc-89cb-e7f4f427f55a","ios":"levelo://app?vid=58bdc00c-5a04-40bc-89cb-e7f4f427f55a"},"vehicle_type_id":"4","last_reported":1748652822,"current_range_meters":19200,"station_id":"ce4bhnp2rcd13ifvqgvg","pricing_plan_id":"cebpf4jnsgd1na2vs0mg"},{"bike_id":"77520d45-03bf-4b26-9f9b-8ac6c162ce6b","system_id":"levelo_inurba_marseille","lat":43.243516,"lon":5.411438,"is_reserved":false,"is_disabled":false,"rental_uris":{"android":"levelo://app?vid=77520d45-03bf-4b26-9f9b-8ac6c162ce6b","ios":"levelo://app?vid=77520d45-03bf-4b26-9f9b-8ac6c162ce6b"},"vehicle_type_id":"4","last_reported":1748652822,"current_range_meters":19600,"station_id":"","pricing_plan_id":"cebpf4jnsgd1na2vs0mg"},{"bike_id":"5f4bde3e-fe3b-4f53-9445-a659fa50a877","system_id":"levelo_inurba_marseille","lat":43.310727,"lon":5.383505,"is_reserved":false,"is_disabled":false,"rental_uris":{"android":"levelo://app?vid=5f4bde3e-fe3b-4f53-9445-a659fa50a877","ios":"levelo://app?vid=5f4bde3e-fe3b-4f53-9445-a659fa50a877"},"vehicle_type_id":"4","last_reported":1748652822,"current_range_meters":19600,"station_id":"ce4bgv92rcd13ifvqcr0","pricing_plan_id":"cebpf4jnsgd1na2vs0mg"},{"bike_id":"6e3bad04-5f49-4376-a93d-f09b70ddc0b0","system_id":"levelo_inurba_marseille","lat":43.29032,"lon":5.39969,"is_reserved":false,"is_disabled":false,"rental_uris":{"android":"levelo://app?vid=6e3bad04-5f49-4376-a93d-f09b70ddc0b0","ios":"levelo://app?vid=6e3bad04-5f49-4376-a93d-f09b70ddc0b0"},"vehicle_type_id":"4","last_reported":1748652822,"current_range_meters":19600,"station_id":"ce4bh392rcd13ifvqdm0","pricing_plan_id":"cebpf4jnsgd1na2vs0mg"},{"bike_id":"be81cfe4-92f2-4aca-a9c6-982defcf3b09","system_id":"levelo_inurba_marseille","lat":43.27443,"lon":5.39376,"is_reserved":false,"is_disabled":false,"rental_uris":{"android":"levelo://app?vid=be81cfe4-92f2-4aca-a9c6-982defcf3b09","ios":"levelo://app?vid=be81cfe4-92f2-4aca-a9c6-982defcf3b09"},"vehicle_type_id":"4","last_reported":1748652822,"current_range_meters":19600,"station_id":"ce4bhdp2rcd13ifvqf20","pricing_plan_id":"cebpf4jnsgd1na2vs0mg"},{"bike_id":"a993f46b-1688-45db-9e91-305ff8e5502a","system_id":"levelo_inurba_marseille","lat":43.24382,"lon":5.37087,"is_reserved":false,"is_disabled":false,"rental_uris":{"android":"levelo://app?vid=a993f46b-1688-45db-9e91-305ff8e5502a","ios":"levelo://app?vid=a993f46b-1688-45db-9e91-305ff8e5502a"},"vehicle_type_id":"4","last_reported":1748652822,"current_range_meters":19600,"station_id":"ce4bhhh2rcd13ifvqfk0","pricing_plan_id":"cebpf4jnsgd1na2vs0mg"},{"bike_id":"e30757e1-f101-4442-b172-d191304e9b62","system_id":"levelo_inurba_marseille","lat":43.27837,"lon":5.3921,"is_reserved":false,"is_disabled":false,"rental_uris":{"android":"levelo://app?vid=e30757e1-f101-4442-b172-d191304e9b62","ios":"levelo://app?vid=e30757e1-f101-4442-b172-d191304e9b62"},"vehicle_type_id":"4","last_reported":1748652822,"current_range_meters":19600,"station_id":"ce4bhjp2rcd13ifvqga0","pricing_plan_id":"cebpf4jnsgd1na2vs0mg"},{"bike_id":"545fc5fb-3e30-49d3-8106-daeb04955392","system_id":"levelo_inurba_marseille","lat":43.27832,"lon":5.3922,"is_reserved":false,"is_disabled":false,"rental_uris":{"android":"levelo://app?vid=545fc5fb-3e30-49d3-8106-daeb04955392","ios":"levelo://app?vid=545fc5fb-3e30-49d3-8106-daeb04955392"},"vehicle_type_id":"4","last_reported":1748652822,"current_range_meters":19600,"station_id":"ce4bhjp2rcd13ifvqga0","pricing_plan_id":"cebpf4jnsgd1na2vs0mg"},{"bike_id":"04d82eab-0c52-4e82-a1da-39804f44aa58","system_id":"levelo_inurba_marseille","lat":43.30413,"lon":5.41287,"is_reserved":false,"is_disabled":false,"rental_uris":{"android":"levelo://app?vid=04d82eab-0c52-4e82-a1da-39804f44aa58","ios":"levelo://app?vid=04d82eab-0c52-4e82-a1da-39804f44aa58"},"vehicle_type_id":"4","last_reported":1748652822,"current_range_meters":19600,"station_id":"ce4bhop2rcd13ifvqh8g","pricing_plan_id":"cebpf4jnsgd1na2vs0mg"},{"bike_id":"9c8ca113-e9a4-4c52-adc3-c1eb6f69cab1","system_id":"levelo_inurba_marseille","lat":43.323381,"lon":5.406149,"is_reserved":false,"is_disabled":false,"rental_uris":{"android":"levelo://app?vid=9c8ca113-e9a4-4c52-adc3-c1eb6f69cab1","ios":"levelo://app?vid=9c8ca113-e9a4-4c52-adc3-c1eb6f69cab1"},"vehicle_type_id":"4","last_reported":1748652822,"current_range_meters":19600,"station_id":"ce4bhq92rcd13ifvqhjg","pricing_plan_id":"cebpf4jnsgd1na2vs0mg"},{"bike_id":"5e767af6-5cfb-494f-aa73-62abfa91f3e7","system_id":"levelo_inurba_marseille","lat":43.31506,"lon":5.37305,"is_reserved":false,"is_disabled":false,"rental_uris":{"android":"levelo://app?vid=5e767af6-5cfb-494f-aa73-62abfa91f3e7","ios":"levelo://app?vid=5e767af6-5cfb-494f-aa73-62abfa91f3e7"},"vehicle_type_id":"4","last_reported":1748652822,"current_range_meters":20000,"station_id":"ce4bgt12rcd13ifvqcd0","pricing_plan_id":"cebpf4jnsgd1na2vs0mg"},{"bike_id":"aba2eafb-5fd3-4205-840d-ab4087ac29b0","system_id":"levelo_inurba_marseille","lat":43.29257,"lon":5.409078,"is_reserved":false,"is_disabled":false,"rental_uris":{"android":"levelo://app?vid=aba2eafb-5fd3-4205-840d-ab4087ac29b0","ios":"levelo://app?vid=aba2eafb-5fd3-4205-840d-ab4087ac29b0"},"vehicle_type_id":"4","last_reported":1748652822,"current_range_meters":20000,"station_id":"ce4bh192rcd13ifvqdc0","pricing_plan_id":"cebpf4jnsgd1na2vs0mg"},{"bike_id":"dfddba87-c4db-4002-9530-9318eda314e0","system_id":"levelo_inurba_marseille","lat":43.28352,"lon":5.38113,"is_reserved":false,"is_disabled":false,"rental_uris":{"android":"levelo://app?vid=dfddba87-c4db-4002-9530-9318eda314e0","ios":"levelo://app?vid=dfddba87-c4db-4002-9530-9318eda314e0"},"vehicle_type_id":"4","last_reported":1748652822,"current_range_meters":20000,"station_id":"ce4bh412rcd13ifvqdr0","pricing_plan_id":"cebpf4jnsgd1na2vs0mg"},