{"last_updated":1761592088,"ttl":60,"version":"2.2","data":{"bikes":[{"bike_id":"0c5ccfa0-c9c8-4a2d-b50b-77e84beabfde","system_id":"levelo_inurba_marseille","lat":43.26952,"lon":5.38626,"is_reserved":false,"is_disabled":false,"rental_uris":{"android":"levelo://app?vid=0c5ccfa0-c9c8-4a2d-b50b-77e84beabfde","ios":"levelo://app?vid=0c5ccfa0-c9c8-4a2d-b50b-77e84beabfde"},"vehicle_type_id":"4","last_reported":1761592088,"current_range_meters":2800,"station_id":"ce4bhh92rcd13ifvqfh0","pricing_plan_id":"cebpf4jnsgd1na2vs0mg"},{"bike_id":"047d4078-e34e-478c-941d-3d3059846df9","system_id":"levelo_inurba_marseille","lat":43.29449,"lon":5.38646,"is_reserved":false,"is_disabled":false,"rental_uris":{"android":"levelo://app?vid=047d4078-e34e-478c-941d-3d3059846df9","ios":"levelo://app?vid=047d4078-e34e-478c-941d-3d3059846df9"},"vehicle_type_id":"4","last_reported":1761592088,"current_range_meters":2800,"station_id":"","pricing_plan_id":"cebpf4jnsgd1na2vs0mg"},{"bike_id":"28c5d412-f9dc-4fa2-9c52-1e855b061e71","system_id":"levelo_inurba_marseille","lat":43.28418,"lon":5.349788,"is_reserved":false,"is_disabled":false,"rental_uris":{"android":"levelo://app?vid=28c5d412-f9dc-4fa2-9c52-1e855b061e71","ios":"levelo://app?vid=28c5d412-f9dc-4fa2-9c52-1e855b061e71"},"vehicle_type_id":"4","last_reported":1761592088,"current_range_meters":2800,"station_id":"ce4bhbh2rcd13ifvqepg","pricing_plan_id":"cebpf4jnsgd1na2vs0mg"},{"bike_id":"69880247-38f2-48e7-ab49-326f3d5eca30","system_id":"levelo_inurba_marseille","lat":43.21195,"lon":5.35071,"is_reserved":false,"is_disabled":false,"rental_uris":{"android":"levelo://app?vid=69880247-38f2-48e7-ab49-326f3d5eca30","ios":"levelo://app?vid=69880247-38f2-48e7-ab49-326f3d5eca30"},"vehicle_type_id":"4","last_reported":1761592088,"current_range_meters":3200,"station_id":"st_cvj6sg6p6f1abm77japg","pricing_plan_id":"cebpf4jnsgd1na2vs0mg"},{"bike_id":"de530e6f-d365-4c88-83af-d36f32717309","system_id":"levelo_inurba_marseille","lat":43.28674,"lon":5.36346,"is_reserved":false,"is_disabled":false,"rental_uris":{"android":"levelo://app?vid=de530e6f-d365-4c88-83af-d36f32717309","ios":"levelo://app?vid=de530e6f-d365-4c88-83af-d36f32717309"},"vehicle_type_id":"4","last_reported":1761592088,"current_range_meters":3200,"station_id":"ce4bhah2rcd13ifvqej0","pricing_plan_id":"cebpf4jnsgd1na2vs0mg"},{"bike_id":"7b085dd6-f512-411e-a7ff-5e96fd9750e3","system_id":"levelo_inurba_marseille","lat":43.2894,"lon":5.36635,"is_reserved":false,"is_disabled":false,"rental_uris":{"android":"levelo://app?vid=7b085dd6-f512-411e-a7ff-5e96fd9750e3","ios":"levelo://app?vid=7b085dd6-f512-411e-a7ff-5e96fd9750e3"},"vehicle_type_id":"4","last_reported":1761592088,"current_range_meters":3200,"station_id":"ce4bhap2rcd13ifvqek0","pricing_plan_id":"cebpf4jnsgd1na2vs0mg"},{"bike_id":"149a8e3c-c6a6-4cda-9037-1e0cecc3356c","system_id":"levelo_inurba_marseille","lat":43.29525,"lon":5.39393,"is_reserved":false,"is_disabled":false,"rental_uris":{"android":"levelo://app?vid=149a8e3c-c6a6-4cda-9037-1e0cecc3356c","ios":"levelo://app?vid=149a8e3c-c6a6-4cda-9037-1e0cecc3356c"},"vehicle_type_id":"4","last_reported":1761592088,"current_range_meters":3600,"station_id":"ce4bh292rcd13ifvqdf0","pricing_plan_id":"cebpf4jnsgd1na2vs0mg"},{"bike_id":"b50f62db-e10a-4da2-94d0-3e27f82e0cec","system_id":"levelo_inurba_marseille","lat":43.23792,"lon":5.36631,"is_reserved":false,"is_disabled":false,"rental_uris":{"android":"levelo://app?vid=b50f62db-e10a-4da2-94d0-3e27f82e0cec","ios":"levelo://app?vid=b50f62db-e10a-4da2-94d0-3e27f82e0cec"},"vehicle_type_id":"4","last_reported":1761592088,"current_range_meters":3600,"station_id":"st_d3nk18o9ro0c73en2l3g","pricing_plan_id":"cebpf4jnsgd1na2vs0mg"},{"bike_id":"e8a883c1-ae58-45f0-97a7-d9368c4b611d","system_id":"levelo_inurba_marseille","lat":43.28549,"lon":5.44096,"is_reserved":false,"is_disabled":false,"rental_uris":{"android":"levelo://app?vid=e8a883c1-ae58-45f0-97a7-d9368c4b611d","ios":"levelo://app?vid=e8a883c1-ae58-45f0-97a7-d9368c4b611d"},"vehicle_type_id":"4","last_reported":1761592088,"current_range_meters":3600,"station_id":"st_d3j3df2ikq2c7380ej80","pricing_plan_id":"cebpf4jnsgd1na2vs0mg"},{"bike_id":"889a3327-8e96-4833-bf76-80a5f0eec965","system_id":"levelo_inurba_marseille","lat":43.29296,"lon":5.37439,"is_reserved":false,"is_disabled":false,"rental_uris":{"android":"levelo://app?vid=889a3327-8e96-4833-bf76-80a5f0eec965","ios":"levelo://app?vid=889a3327-8e96-4833-bf76-80a5f0eec965"},"vehicle_type_id":"4","last_reported":1761592088,"current_range_meters":3600,"station_id":"ce4bgi12rcd13ifvqb70","pricing_plan_id":"cebpf4jnsgd1na2vs0mg"},{"bike_id":"b5fe4945-cf41-4e34-8a43-0e80f9d84c39","system_id":"levelo_inurba_marseille","lat":43.2952,"lon":5.39402,"is_reserved":false,"is_disabled":false,"rental_uris":{"android":"levelo://app?vid=b5fe4945-cf41-4e34-8a43-0e80f9d84c39","ios":"levelo://app?vid=b5fe4945-cf41-4e34-8a43-0e80f9d84c39"},"vehicle_type_id":"4","last_reported":1761592088,"current_range_meters":4000,"station_id":"ce4bh292rcd13ifvqdf0","pricing_plan_id":"cebpf4jnsgd1na2vs0mg"},{"bike_id":"a86571b0-e5e3-47de-88b7-ee24073724c7","system_id":"levelo_inurba_marseille","lat":43.25496,"lon":5.376392,"is_reserved":false,"is_disabled":false,"rental_uris":{"android":"levelo://app?vid=a86571b0-e5e3-47de-88b7-ee24073724c7","ios":"levelo://app?vid=a86571b0-e5e3-47de-88b7-ee24073724c7"},"vehicle_type_id":"4","last_reported":1761592088,"current_range_meters":4000,"station_id":"ce4bhh12rcd13ifvqff0","pricing_plan_id":"cebpf4jnsgd1na2vs0mg"},{"bike_id":"89abeeba-9e25-4bc9-93a2-2530546dc0cc","system_id":"levelo_inurba_marseille","lat":43.29035,"lon":5.375659,"is_reserved":false,"is_disabled":false,"rental_uris":{"android":"levelo://app?vid=89abeeba-9e25-4bc9-93a2-2530546dc0cc","ios":"levelo://app?vid=89abeeba-9e25-4bc9-93a2-2530546dc0cc"},"vehicle_type_id":"4","last_reported":1761592088,"current_range_meters":4000,"station_id":"ce4bh692rcd13ifvqe90","pricing_plan_id":"cebpf4jnsgd1na2vs0mg"},{"bike_id":"d38f0814-870f-434c-8d94-93ec17e8ddef","system_id":"levelo_inurba_marseille","lat":43.29795,"lon":5.39346,"is_reserved":false,"is_disabled":false,"rental_uris":{"android":"levelo://app?vid=d38f0814-870f-434c-8d94-93ec17e8ddef","ios":"levelo://app?vid=d38f0814-870f-434c-8d94-93ec17e8ddef"},"vehicle_type_id":"4","last_reported":1761592088,"current_range_meters":4000,"station_id":"chh1huq6cuj3fo74tm60","pricing_plan_id":"cebpf4jnsgd1na2vs0mg"},{"bike_id":"11de6fcc-7d8e-4443-a1ba-15f1685ac212","system_id":"levelo_inurba_marseille","lat":43.335693,"lon":5.410365,"is_reserved":false,"is_disabled":false,"rental_uris":{"android":"levelo://app?vid=11de6fcc-7d8e-4443-a1ba-15f1685ac212","ios":"levelo://app?vid=11de6fcc-7d8e-4443-a1ba-15f1685ac212"},"vehicle_type_id":"4","last_reported":1761592088,"current_range_meters":4000,"station_id":"ce4bhqh2rcd13ifvqhmg","pricing_plan_id":"cebpf4jnsgd1na2vs0mg"},{"bike_id":"2554b5af-6f76-4f03-9afb-e616f07800fd","system_id":"levelo_inurba_marseille","lat":43.313629,"lon":5.384885,"is_reserved":false,"is_disabled":false,"rental_uris":{"android":"levelo://app?vid=2554b5af-6f76-4f03-9afb-e616f07800fd","ios":"levelo://app?vid=2554b5af-6f76-4f03-9afb-e616f07800fd"},"vehicle_type_id":"4","last_reported":1761592088,"current_range_meters":4000,"station_id":"ce4bgt92rcd13ifvqcf0","pricing_plan_id":"cebpf4jnsgd1na2vs0mg"},{"bike_id":"43f205a2-e983-4614-8736-553bf1acc168","system_id":"levelo_inurba_marseille","lat":43.2381,"lon":5.36636,"is_reserved":false,"is_disabled":false,"rental_uris":{"android":"levelo://app?vid=43f205a2-e983-4614-8736-553bf1acc168","ios":"levelo://app?vid=43f205a2-e983-4614-8736-553bf1acc168"},"vehicle_type_id":"4","last_reported":1761592088,"current_range_meters":4000,"station_id":"st_d3nk18o9ro0c73en2l3g","pricing_plan_id":"cebpf4jnsgd1na2vs0mg"},{"bike_id":"b46bdf52-4cdb-4a90-a88d-d6930918d633","system_id":"levelo_inurba_marseille","lat":43.29408,"lon":5.386716,"is_reserved":false,"is_disabled":false,"rental_uris":{"android":"levelo://app?vid=b46bdf52-4cdb-4a90-a88d-d6930918d633","ios":"levelo://app?vid=b46bdf52-4cdb-4a90-a88d-d6930918d633"},"vehicle_type_id":"4","last_reported":1761592088,"current_range_meters":4400,"station_id":"ce4bhr12rcd13ifvqhpg","pricing_plan_id":"cebpf4jnsgd1na2vs0mg"},{"bike_id":"3496652c-9ee4-4d0f-8501-e13df3c02251","system_id":"levelo_inurba_marseille","lat":43.289588,"lon":5.364771,"is_reserved":false,"is_disabled":false,"rental_uris":{"android":"levelo://app?vid=3496652c-9ee4-4d0f-8501-e13df3c02251","ios":"levelo://app?vid=3496652c-9ee4-4d0f-8501-e13df3c02251"},"vehicle_type_id":"4","last_reported":1761592088,"current_range_meters":4400,"station_id":"ce4bhc92rcd13ifvqetg","pricing_plan_id":"cebpf4jnsgd1na2vs0mg"},{"bike_id":"f2bf56ae-18d7-49a8-a267-3eec76cfad78","system_id":"levelo_inurba_marseille","lat":43.30128,"lon":5.39883,"is_reserved":false,"is_disabled":true,"rental_uris":{"android":"levelo://app?vid=f2bf56ae-18d7-49a8-a267-3eec76cfad78","ios":"levelo://app?vid=f2bf56ae-18d7-49a8-a267-3eec76cfad78"},"vehicle_type_id":"4","last_reported":1761592088,"current_range_meters":4400,"station_id":"ce4bh0h2rcd13ifvqd40","pricing_plan_id":"cebpf4jnsgd1na2vs0mg"},{"bike_id":"a02c8306-92cb-4d0f-a4c9-0cc3bdc274d4","system_id":"levelo_inurba_marseille","lat":43.29537,"lon":5.39411,"is_reserved":false,"is_disabled":false,"rental_uris":{"android":"levelo://app?vid=a02c8306-92cb-4d0f-a4c9-0cc3bdc274d4","ios":"levelo://app?vid=a02c8306-92cb-4d0f-a4c9-0cc3bdc274d4"},"vehicle_type_id":"4","last_reported":1761592088,"current_range_meters":4800,"station_id":"ce4bh292rcd13ifvqdf0","pricing_plan_id":"cebpf4jnsgd1na2vs0mg"},{"bike_id":"4c0cc699-7645-4e7e-90a0-b85a345c9829","system_id":"levelo_inurba_marseille","lat":43.28444,"lon":5.39186,"is_reserved":false,"is_disabled":false,"rental_uris":{"android":"levelo://app?vid=4c0cc699-7645-4e7e-90a0-b85a345c9829","ios":"levelo://app?vid=4c0cc699-7645-4e7e-90a0-b85a345c9829"},"vehicle_type_id":"4","last_reported":1761592088,"current_range_meters":4800,"station_id":"ce4bhoh2rcd13ifvqh5g","pricing_plan_id":"cebpf4jnsgd1na2vs0mg"},{"bike_id":"ee066bd7-fb1a-4d32-806c-9462852b3050","system_id":"levelo_inurba_marseille","lat":43.28493,"lon":5.38431,"is_reserved":false,"is_disabled":false,"rental_uris":{"android":"levelo://app?vid=ee066bd7-fb1a-4d32-806c-9462852b3050","ios":"levelo://app?vid=ee066bd7-fb1a-4d32-806c-9462852b3050"},"vehicle_type_id":"4","last_reported":1761592088,"current_range_meters":5600,"station_id":"ce4bh512rcd13ifvqe3g","pricing_plan_id":"cebpf4jnsgd1na2vs0mg"},{"bike_id":"b5b62287-d3ee-447e-9fe2-9f2b8112a684","system_id":"levelo_inurba_marseille","lat":43.21228,"lon":5.35065,"is_reserved":false,"is_disabled":true,"rental_uris":{"android":"levelo://app?vid=b5b62287-d3ee-447e-9fe2-9f2b8112a684","ios":"levelo://app?vid=b5b62287-d3ee-447e-9fe2-9f2b8112a684"},"vehicle_type_id":"4","last_reported":1761592088,"current_range_meters":5600,"station_id":"","pricing_plan_id":"cebpf4jnsgd1na2vs0mg"},{"bike_id":"b82f6484-e08d-4f33-84cf-d718d0147f6c","system_id":"levelo_inurba_marseille","lat":43.30874,"lon":5.36836,"is_reserved":false,"is_disabled":false,"rental_uris":{"android":"levelo://app?vid=b82f6484-e08d-4f33-84cf-d718d0147f6c","ios":"levelo://app?vid=b82f6484-e08d-4f33-84cf-d718d0147f6c"},"vehicle_type_id":"4","last_reported":1761592088,"current_range_meters":5600,"station_id":"ce4bgn92rcd13ifvqbvg","pricing_plan_id":"cebpf4jnsgd1na2vs0mg"},{"bike_id":"d91b205d-fa53-4bae-8401-9ff3f32bfd23","system_id":"levelo_inurba_marseille","lat":43.288524,"lon":5.400249,"is_reserved":false,"is_disabled":false,"rental_uris":{"android":"levelo://app?vid=d91b205d-fa53-4bae-8401-9ff3f32bfd23","ios":"levelo://app?vid=d91b205d-fa53-4bae-8401-9ff3f32bfd23"},"vehicle_type_id":"4","last_reported":1761592088,"current_range_meters":5600,"station_id":"ce4bh312rcd13ifvqdj0","pricing_plan_id":"cebpf4jnsgd1na2vs0mg"},{"bike_id":"51417bc5-d921-46a1-9f2e-9fd4dafc80b4","system_id":"levelo_inurba_marseille","lat":43.29275,"lon":5.36842,"is_reserved":false,"is_disabled":false,"rental_uris":{"android":"levelo://app?vid=51417bc5-d921-46a1-9f2e-9fd4dafc80b4","ios":"levelo://app?vid=51417bc5-d921-46a1-9f2e-9fd4dafc80b4"},"vehicle_type_id":"4","last_reported":1761592088,"current_range_meters":5600,"station_id":"ce4bhbp2rcd13ifvqesg","pricing_plan_id":"cebpf4jnsgd1na2vs0mg"},{"bike_id":"e1aa20f8-799a-4567-bfd0-31e71eee617f","system_id":"levelo_inurba_marseille","lat":43.31437,"lon":5.38885,"is_reserved":false,"is_disabled":false,"rental_uris":{"android":"levelo://app?vid=e1aa20f8-799a-4567-bfd0-31e71eee617f","ios":"levelo://app?vid=e1aa20f8-799a-4567-bfd0-31e71eee617f"},"vehicle_type_id":"4","last_reported":1761592088,"current_range_meters":6000,"station_id":"","pricing_plan_id":"cebpf4jnsgd1na2vs0mg"},{"bike_id":"c20b10a0-8acd-4198-b164-a6e939a4a094","system_id":"levelo_inurba_marseille","lat":43.27831,"lon":5.39188,"is_reserved":false,"is_disabled":false,"rental_uris":{"android":"levelo://app?vid=c20b10a0-8acd-4198-b164-a6e939a4a094","ios":"levelo://app?vid=c20b10a0-8acd-4198-b164-a6e939a4a094"},"vehicle_type_id":"4","last_reported":1761592088,"current_range_meters":6000,"station_id":"ce4bhjp2rcd13ifvqga0","pricing_plan_id":"cebpf4jnsgd1na2vs0mg"},{"bike_id":"13905163-fd50-4434-b36b-ebc53683ab00","system_id":"levelo_inurba_marseille","lat":43.25825,"lon":5.39427,"is_reserved":false,"is_disabled":false,"rental_uris":{"android":"levelo://app?vid=13905163-fd50-4434-b36b-ebc53683ab00","ios":"levelo://app?vid=13905163-fd50-4434-b36b-ebc53683ab00"},"vehicle_type_id":"4","last_reported":1761592088,"current_range_meters":6000,"station_id":"ce4bhip2rcd13ifvqft0","pricing_plan_id":"cebpf4jnsgd1na2vs0mg"},{"bike_id":"42361ce2-2b3e-4f9f-bfad-fee50d3448bf","system_id":"levelo_inurba_marseille","lat":43.28705,"lon":5.37387,"is_reserved":false,"is_disabled":false,"rental_uris":{"android":"levelo://app?vid=42361ce2-2b3e-4f9f-bfad-fee50d3448bf","ios":"levelo://app?vid=42361ce2-2b3e-4f9f-bfad-fee50d3448bf"},"vehicle_type_id":"4","last_reported":1761592088,"current_range_meters":6000,"station_id":"ce4bh3p2rcd13ifvqdq0","pricing_plan_id":"cebpf4jnsgd1na2vs0mg"},{"bike_id":"396c961b-93db-42ed-9e17-b61ce685df97","system_id":"levelo_inurba_marseille","lat":43.29318,"lon":5.37174,"is_reserved":false,"is_disabled":false,"rental_uris":{"android":"levelo://app?vid=396c961b-93db-42ed-9e17-b61ce685df97","ios":"levelo://app?vid=396c961b-93db-42ed-9e17-b61ce685df97"},"vehicle_type_id":"4","last_reported":1761592088,"current_range_meters":6000,"station_id":"ce4bgh92rcd13ifvqb40","pricing_plan_id":"cebpf4jnsgd1na2vs0mg"},{"bike_id":"c2209c58-00a6-451f-968c-8782e2acabe9","system_id":"levelo_inurba_marseille","lat":43.24957,"lon":5.405,"is_reserved":false,"is_disabled":false,"rental_uris":{"android":"levelo://app?vid=c2209c58-00a6-451f-968c-8782e2acabe9","ios":"levelo://app?vid=c2209c58-00a6-451f-968c-8782e2acabe9"},"vehicle_type_id":"4","last_reported":1761592088,"current_range_meters":6000,"station_id":"st_d2ngiaodas8pm72gd1h0","pricing_plan_id":"cebpf4jnsgd1na2vs0mg"},{"bike_id":"4ade9d83-f2d5-4d19-a54e-74fbd9ec2b53","system_id":"levelo_inurba_marseille","lat":43.32336,"lon":5.38518,"is_reserved":false,"is_disabled":false,"rental_uris":{"android":"levelo://app?vid=4ade9d83-f2d5-4d19-a54e-74fbd9ec2b53","ios":"levelo://app?vid=4ade9d83-f2d5-4d19-a54e-74fbd9ec2b53"},"vehicle_type_id":"4","last_reported":1761592088,"current_range_meters":6000,"station_id":"","pricing_plan_id":"cebpf4jnsgd1na2vs0mg"},{"bike_id":"55c84edb-3a1c-4b6e-9768-db15309d8925","system_id":"levelo_inurba_marseille","lat":43.250883,"lon":5.395251,"is_reserved":false,"is_disabled":false,"rental_uris":{"android":"levelo://app?vid=55c84edb-3a1c-4b6e-9768-db15309d8925","ios":"levelo://app?vid=55c84edb-3a1c-4b6e-9768-db15309d8925"},"vehicle_type_id":"4","last_reported":1761592088,"current_range_meters":6000,"station_id":"ce4bhm12rcd13ifvqgkg","pricing_plan_id":"cebpf4jnsgd1na2vs0mg"},{"bike_id":"2111fa69-8f2d-4b0b-b878-3e2100139745","system_id":"levelo_inurba_marseille","lat":43.323623,"lon":5.367583,"is_reserved":false,"is_disabled":false,"rental_uris":{"android":"levelo://app?vid=2111fa69-8f2d-4b0b-b878-3e2100139745","ios":"levelo://app?vid=2111fa69-8f2d-4b0b-b878-3e2100139745"},"vehicle_type_id":"4","last_reported":1761592088,"current_range_meters":6400,"station_id":"ce4bhsh2rcd13ifvqi2g","pricing_plan_id":"cebpf4jnsgd1na2vs0mg"},{"bike_id":"4ccff53a-38fa-408f-8ce5-ffd97c2cec07","system_id":"levelo_inurba_marseille","lat":43.30133,"lon":5.39863,"is_reserved":false,"is_disabled":false,"rental_uris":{"android":"levelo://app?vid=4ccff53a-38fa-408f-8ce5-ffd97c2cec07","ios":"levelo://app?vid=4ccff53a-38fa-408f-8ce5-ffd97c2cec07"},"vehicle_type_id":"4","last_reported":1761592088,"current_range_meters":6400,"station_id":"ce4bh0h2rcd13ifvqd40","pricing_plan_id":"cebpf4jnsgd1na2vs0mg"},{"bike_id":"50c08264-e517-4cd4-bc5a-216ba735ac58","system_id":"levelo_inurba_marseille","lat":43.29653,"lon":5.40648,"is_reserved":false,"is_disabled":false,"rental_uris":{"android":"levelo://app?vid=50c08264-e517-4cd4-bc5a-216ba735ac58","ios":"levelo://app?vid=50c08264-e517-4cd4-bc5a-216ba735ac58"},"vehicle_type_id":"4","last_reported":1761592088,"current_range_meters":6800,"station_id":"ce4bh0h2rcd13ifvqd60","pricing_plan_id":"cebpf4jnsgd1na2vs0mg"},{"bike_id":"4e1e5de5-463d-4e6d-998d-9f691d670e90","system_id":"levelo_inurba_marseille","lat":43.30158,"lon":5.39859,"is_reserved":false,"is_disabled":false,"rental_uris":{"android":"levelo://app?vid=4e1e5de5-463d-4e6d-998d-9f691d670e90","ios":"levelo://app?vid=4e1e5de5-463d-4e6d-998d-9f691d670e90"},"vehicle_type_id":"4","last_reported":1761592088,"current_range_meters":6800,"station_id":"ce4bh0h2rcd13ifvqd40","pricing_plan_id":"cebpf4jnsgd1na2vs0mg"},{"bike_id":"ddfa6d9d-48ba-479f-9e13-6a72e52c8f39","system_id":"levelo_inurba_marseille","lat":43.31081,"lon":5.38358,"is_reserved":false,"is_disabled":false,"rental_uris":{"android":"levelo://app?vid=ddfa6d9d-48ba-479f-9e13-6a72e52c8f39","ios":"levelo://app?vid=ddfa6d9d-48ba-479f-9e13-6a72e52c8f39"},"vehicle_type_id":"4","last_reported":1761592088,"current_range_meters":6800,"station_id":"ce4bgv92rcd13ifvqcr0","pricing_plan_id":"cebpf4jnsgd1na2vs0mg"},{"bike_id":"e695752a-8345-4b32-966f-7cbf6b31257e","system_id":"levelo_inurba_marseille","lat":43.29798,"lon":5.40395,"is_reserved":false,"is_disabled":false,"rental_uris":{"android":"levelo://app?vid=e695752a-8345-4b32-966f-7cbf6b31257e","ios":"levelo://app?vid=e695752a-8345-4b32-966f-7cbf6b31257e"},"vehicle_type_id":"4","last_reported":1761592088,"current_range_meters":6800,"station_id":"ce4bh112rcd13ifvqd90","pricing_plan_id":"cebpf4jnsgd1na2vs0mg"},{"bike_id":"b92a3040-6e86-4eab-9c89-b2f3ec64c600","system_id":"levelo_inurba_marseille","lat":43.28696,"lon":5.38661,"is_reserved":false,"is_disabled":true,"rental_uris":{"android":"levelo://app?vid=b92a3040-6e86-4eab-9c89-b2f3ec64c600","ios":"levelo://app?vid=b92a3040-6e86-4eab-9c89-b2f3ec64c600"},"vehicle_type_id":"4","last_reported":1761592088,"current_range_meters":6800,"station_id":"ce4bh492rcd13ifvqdug","pricing_plan_id":"cebpf4jnsgd1na2vs0mg"},{"bike_id":"89dc8d2c-2ca5-41a0-bdca-cb4530a7a44d","system_id":"levelo_inurba_marseille","lat":43.30653,"lon":5.40095,"is_reserved":false,"is_disabled":false,"rental_uris":{"android":"levelo://app?vid=89dc8d2c-2ca5-41a0-bdca-cb4530a7a44d","ios":"levelo://app?vid=89dc8d2c-2ca5-41a0-bdca-cb4530a7a44d"},"vehicle_type_id":"4","last_reported":1761592088,"current_range_meters":7200,"station_id":"ce4bh112rcd13ifvqda0","pricing_plan_id":"cebpf4jnsgd1na2vs0mg"},{"bike_id":"082e1df6-b1d5-4263-bc06-c58783199e6b","system_id":"levelo_inurba_marseille","lat":43.28419,"lon":5.37518,"is_reserved":false,"is_disabled":false,"rental_uris":{"android":"levelo://app?vid=082e1df6-b1d5-4263-bc06-c58783199e6b","ios":"levelo://app?vid=082e1df6-b1d5-4263-bc06-c58783199e6b"},"vehicle_type_id":"4","last_reported":1761592088,"current_range_meters":7200,"station_id":"ce4bh412rcd13ifvqds0","pricing_plan_id":"cebpf4jnsgd1na2vs0mg"},{"bike_id":"6d963d41-87a3-45a6-a6ac-202ab0814d9b","system_id":"levelo_inurba_marseille","lat":43.280731,"lon":5.396559,"is_reserved":false,"is_disabled":false,"rental_uris":{"android":"levelo://app?vid=6d963d41-87a3-45a6-a6ac-202ab0814d9b","ios":"levelo://app?vid=6d963d41-87a3-45a6-a6ac-202ab0814d9b"},"vehicle_type_id":"4","last_reported":1761592088,"current_range_meters":7200,"station_id":"","pricing_plan_id":"cebpf4jnsgd1na2vs0mg"},{"bike_id":"c0b81f28-bbba-4247-a74b-c55a34b31846","system_id":"levelo_inurba_marseille","lat":43.33258,"lon":5.41086,"is_reserved":false,"is_disabled":false,"rental_uris":{"android":"levelo://app?vid=c0b81f28-bbba-4247-a74b-c55a34b31846","ios":"levelo://app?vid=c0b81f28-bbba-4247-a74b-c55a34b31846"},"vehicle_type_id":"4","last_reported":1761592088,"current_range_meters":8000,"station_id":"","pricing_plan_id":"cebpf4jnsgd1na2vs0mg"},{"bike_id":"41d45b45-3a52-4b5a-b2b3-1e62d5490ada","system_id":"levelo_inurba_marseille","lat":43.28532,"lon":5.44094,"is_reserved":false,"is_disabled":false,"rental_uris":{"android":"levelo://app?vid=41d45b45-3a52-4b5a-b2b3-1e62d5490ada","ios":"levelo://app?vid=41d45b45-3a52-4b5a-b2b3-1e62d5490ada"},"vehicle_type_id":"4","last_reported":1761592088,"current_range_meters":8000,"station_id":"st_d3j3df2ikq2c7380ej80","pricing_plan_id":"cebpf4jnsgd1na2vs0mg"},{"bike_id":"d6e8c59e-ae6f-414c-ac0d-f2e9506cb6ac","system_id":"levelo_inurba_marseille","lat":43.295166,"lon":5.390425,"is_reserved":false,"is_disabled":false,"rental_uris":{"android":"levelo://app?vid=d6e8c59e-ae6f-414c-ac0d-f2e9506cb6ac","ios":"levelo://app?vid=d6e8c59e-ae6f-414c-ac0d-f2e9506cb6ac"},"vehicle_type_id":"4","last_reported":1761592088,"current_range_meters":8000,"station_id":"ce4bh3p2rcd13ifvqdp0","pricing_plan_id":"cebpf4jnsgd1na2vs0mg"},{"bike_id":"ca1b5968-0d59-43a2-9222-8e012a7ef5c7","system_id":"levelo_inurba_marseille","lat":43.306421,"lon":5.400991,"is_reserved":false,"is_disabled":false,"rental_uris":{"android":"levelo://app?vid=ca1b5968-0d59-43a2-9222-8e012a7ef5c7","ios":"levelo://app?vid=ca1b5968-0d59-43a2-9222-8e012a7ef5c7"},"vehicle_type_id":"4","last_reported":1761592088,"current_range_meters":8000,"station_id":"ce4bh112rcd13ifvqda0","pricing_plan_id":"cebpf4jnsgd1na2vs0mg"},{"bike_id":"1c8b30c6-5ddd-47bf-95af-5d2ae237d8c4","system_id":"levelo_inurba_marseille","lat":43.29006,"lon":5.35604,"is_reserved":false,"is_disabled":false,"rental_uris":{"android":"levelo://app?vid=1c8b30c6-5ddd-47bf-95af-5d2ae237d8c4","ios":"levelo://app?vid=1c8b30c6-5ddd-47bf-95af-5d2ae237d8c4"},"vehicle_type_id":"4","last_reported":1761592088,"current_range_meters":8400,"station_id":"ce4bhb92rcd13ifvqen0","pricing_plan_id":"cebpf4jnsgd1na2vs0mg"},{"bike_id":"21fd2e9c-84e4-48f3-8d41-5ec58305056a","system_id":"levelo_inurba_marseille","lat":43.30883,"lon":5.37179,"is_reserved":false,"is_disabled":false,"rental_uris":{"android":"levelo://app?vid=21fd2e9c-84e4-48f3-8d41-5ec58305056a","ios":"levelo://app?vid=21fd2e9c-84e4-48f3-8d41-5ec58305056a"},"vehicle_type_id":"4","last_reported":1761592088,"current_range_meters":8400,"station_id":"ce4bguh2rcd13ifvqckg","pricing_plan_id":"cebpf4jnsgd1na2vs0mg"},{"bike_id":"64b75b4a-3497-4861-8cc2-90dd62cd9f5e","system_id":"levelo_inurba_marseille","lat":43.29304,"lon":5.43448,"is_reserved":false,"is_disabled":false,"rental_uris":{"android":"levelo://app?vid=64b75b4a-3497-4861-8cc2-90dd62cd9f5e","ios":"levelo://app?vid=64b75b4a-3497-4861-8cc2-90dd62cd9f5e"},"vehicle_type_id":"4","last_reported":1761592088,"current_range_meters":8400,"station_id":"","pricing_plan_id":"cebpf4jnsgd1na2vs0mg"},{"bike_id":"2e619179-19cb-4583-80a9-97bad33f6f1a","system_id":"levelo_inurba_marseille","lat":43.301178,"lon":5.398681,"is_reserved":false,"is_disabled":false,"rental_uris":{"android":"levelo://app?vid=2e619179-19cb-4583-80a9-97bad33f6f1a","ios":"levelo://app?vid=2e619179-19cb-4583-80a9-97bad33f6f1a"},"vehicle_type_id":"4","last_reported":1761592088,"current_range_meters":8400,"station_id":"ce4bh0h2rcd13ifvqd40","pricing_plan_id":"cebpf4jnsgd1na2vs0mg"},{"bike_id":"e4ccce50-4824-4895-aa8c-033835526f23","system_id":"levelo_inurba_marseille","lat":43.31913,"lon":5.40011,"is_reserved":false,"is_disabled":false,"rental_uris":{"android":"levelo://app?vid=e4ccce50-4824-4895-aa8c-033835526f23","ios":"levelo://app?vid=e4ccce50-4824-4895-aa8c-033835526f23"},"vehicle_type_id":"4","last_reported":1761592088,"current_range_meters":8400,"station_id":"","pricing_plan_id":"cebpf4jnsgd1na2vs0mg"},{"bike_id":"b4161da3-6410-487c-842a-c71723a5ee6e","system_id":"levelo_inurba_marseille","lat":43.23488,"lon":5.35978,"is_reserved":false,"is_disabled":false,"rental_uris":{"android":"levelo://app?vid=b4161da3-6410-487c-842a-c71723a5ee6e","ios":"levelo://app?vid=b4161da3-6410-487c-842a-c71723a5ee6e"},"vehicle_type_id":"4","last_reported":1761592088,"current_range_meters":8400,"station_id":"","pricing_plan_id":"cebpf4jnsgd1na2vs0mg"},{"bike_id":"de5cece4-6186-4ccb-b70e-a25e8bd3fc86","system_id":"levelo_inurba_marseille","lat":43.337444,"lon":5.374475,"is_reserved":false,"is_disabled":false,"rental_uris":{"android":"levelo://app?vid=de5cece4-6186-4ccb-b70e-a25e8bd3fc86","ios":"levelo://app?vid=de5cece4-6186-4ccb-b70e-a25e8bd3fc86"},"vehicle_type_id":"4","last_reported":1761592088,"current_range_meters":8400,"station_id":"","pricing_plan_id":"cebpf4jnsgd1na2vs0mg"},{"bike_id":"455990a8-5c6b-4725-bcca-4220ddf18698","system_id":"levelo_inurba_marseille","lat":43.27579,"lon":5.38402,"is_reserved":false,"is_disabled":false,"rental_uris":{"android":"levelo://app?vid=455990a8-5c6b-4725-bcca-4220ddf18698","ios":"levelo://app?vid=455990a8-5c6b-4725-bcca-4220ddf18698"},"vehicle_type_id":"4","last_reported":1761592088,"current_range_meters":8400,"station_id":"ce4bhh92rcd13ifvqfi0","pricing_plan_id":"cebpf4jnsgd1na2vs0mg"},{"bike_id":"be9ffb2c-8fe9-41e8-aa42-b3d346fd010b","system_id":"levelo_inurba_marseille","lat":43.31691,"lon":5.40473,"is_reserved":false,"is_disabled":false,"rental_uris":{"android":"levelo://app?vid=be9ffb2c-8fe9-41e8-aa42-b3d346fd010b","ios":"levelo://app?vid=be9ffb2c-8fe9-41e8-aa42-b3d346fd010b"},"vehicle_type_id":"4","last_reported":1761592088,"current_range_meters":8400,"station_id":"ce4bh012rcd13ifvqd00","pricing_plan_id":"cebpf4jnsgd1na2vs0mg"},{"bike_id":"4138d7f9-1746-48a7-a043-b88e6a819d33","system_id":"levelo_inurba_marseille","lat":43.29305,"lon":5.40938,"is_reserved":false,"is_disabled":false,"rental_uris":{"android":"levelo://app?vid=4138d7f9-1746-48a7-a043-b88e6a819d33","ios":"levelo://app?vid=4138d7f9-1746-48a7-a043-b88e6a819d33"},"vehicle_type_id":"4","last_reported":1761592088,"current_range_meters":8800,"station_id":"","pricing_plan_id":"cebpf4jnsgd1na2vs0mg"},{"bike_id":"8847af5d-c1ad-4d8d-a5c1-273c3b41c105","system_id":"levelo_inurba_marseille","lat":43.322429,"lon":5.419625,"is_reserved":false,"is_disabled":false,"rental_uris":{"android":"levelo://app?vid=8847af5d-c1ad-4d8d-a5c1-273c3b41c105","ios":"levelo://app?vid=8847af5d-c1ad-4d8d-a5c1-273c3b41c105"},"vehicle_type_id":"4","last_reported":1761592088,"current_range_meters":8800,"station_id":"","pricing_plan_id":"cebpf4jnsgd1na2vs0mg"},{"bike_id":"de0ca7a8-116a-46c8-8c50-6b445a473423","system_id":"levelo_inurba_marseille","lat":43.28878,"lon":5.42516,"is_reserved":false,"is_disabled":false,"rental_uris":{"android":"levelo://app?vid=de0ca7a8-116a-46c8-8c50-6b445a473423","ios":"levelo://app?vid=de0ca7a8-116a-46c8-8c50-6b445a473423"},"vehicle_type_id":"4","last_reported":1761592088,"current_range_meters":8800,"station_id":"st_d3b462108ojc7389ooeg","pricing_plan_id":"cebpf4jnsgd1na2vs0mg"},{"bike_id":"4189118c-7991-4a55-beb6-6bfaedd31ac0","system_id":"levelo_inurba_marseille","lat":43.293581,"lon":5.374273,"is_reserved":false,"is_disabled":false,"rental_uris":{"android":"levelo://app?vid=4189118c-7991-4a55-beb6-6bfaedd31ac0","ios":"levelo://app?vid=4189118c-7991-4a55-beb6-6bfaedd31ac0"},"vehicle_type_id":"4","last_reported":1761592088,"current_range_meters":8800,"station_id":"ce4bgi12rcd13ifvqb70","pricing_plan_id":"cebpf4jnsgd1na2vs0mg"},{"bike_id":"8fd41579-5eb5-4659-bec8-91a435ef135d","system_id":"levelo_inurba_marseille","lat":43.29226,"lon":5.3606,"is_reserved":false,"is_disabled":false,"rental_uris":{"android":"levelo://app?vid=8fd41579-5eb5-4659-bec8-91a435ef135d","ios":"levelo://app?vid=8fd41579-5eb5-4659-bec8-91a435ef135d"},"vehicle_type_id":"4","last_reported":1761592088,"current_range_meters":8800,"station_id":"ce4bhbh2rcd13ifvqeqg","pricing_plan_id":"cebpf4jnsgd1na2vs0mg"},{"bike_id":"5ccebb53-eefb-4d21-a011-0adb204e3ed1","system_id":"levelo_inurba_marseille","lat":43.28276,"lon":5.35058,"is_reserved":false,"is_disabled":false,"rental_uris":{"android":"levelo://app?vid=5ccebb53-eefb-4d21-a011-0adb204e3ed1","ios":"levelo://app?vid=5ccebb53-eefb-4d21-a011-0adb204e3ed1"},"vehicle_type_id":"4","last_reported":1761592088,"current_range_meters":8800,"station_id":"ce4bhbp2rcd13ifvqerg","pricing_plan_id":"cebpf4jnsgd1na2vs0mg"},{"bike_id":"09bda0b1-4d94-4724-b719-47abb99cfe60","system_id":"levelo_inurba_marseille","lat":43.29292,"lon":5.37447,"is_reserved":false,"is_disabled":false,"rental_uris":{"android":"levelo://app?vid=09bda0b1-4d94-4724-b719-47abb99cfe60","ios":"levelo://app?vid=09bda0b1-4d94-4724-b719-47abb99cfe60"},"vehicle_type_id":"4","last_reported":1761592088,"current_range_meters":8800,"station_id":"ce4bgi12rcd13ifvqb70","pricing_plan_id":"cebpf4jnsgd1na2vs0mg"},{"bike_id":"e68ca745-2024-4975-999c-7e63cca0928d","system_id":"levelo_inurba_marseille","lat":43.246578,"lon":5.381685,"is_reserved":false,"is_disabled":false,"rental_uris":{"android":"levelo://app?vid=e68ca745-2024-4975-999c-7e63cca0928d","ios":"levelo://app?vid=e68ca745-2024-4975-999c-7e63cca0928d"},"vehicle_type_id":"4","last_reported":1761592088,"current_range_meters":8800,"station_id":"ce4bhih2rcd13ifvqfr0","pricing_plan_id":"cebpf4jnsgd1na2vs0mg"},{"bike_id":"552ef6da-708e-4110-95f8-f1eba3bca6a0","system_id":"levelo_inurba_marseille","lat":43.28701,"lon":5.37379,"is_reserved":false,"is_disabled":false,"rental_uris":{"android":"levelo://app?vid=552ef6da-708e-4110-95f8-f1eba3bca6a0","ios":"levelo://app?vid=552ef6da-708e-4110-95f8-f1eba3bca6a0"},"vehicle_type_id":"4","last_reported":1761592088,"current_range_meters":8800,"station_id":"ce4bh3p2rcd13ifvqdq0","pricing_plan_id":"cebpf4jnsgd1na2vs0mg"},{"bike_id":"2283896b-c941-41b3-a4e2-ac2bcf8551df","system_id":"levelo_inurba_marseille","lat":43.30636,"lon":5.40071,"is_reserved":false,"is_disabled":false,"rental_uris":{"android":"levelo://app?vid=2283896b-c941-41b3-a4e2-ac2bcf8551df","ios":"levelo://app?vid=2283896b-c941-41b3-a4e2-ac2bcf8551df"},"vehicle_type_id":"4","last_reported":1761592088,"current_range_meters":9200,"station_id":"ce4bh112rcd13ifvqda0","pricing_plan_id":"cebpf4jnsgd1na2vs0mg"},{"bike_id":"d9bb607d-1ecc-49cc-9f82-e52383a3bc84","system_id":"levelo_inurba_marseille","lat":43.29324,"lon":5.41165,"is_reserved":false,"is_disabled":false,"rental_uris":{"android":"levelo://app?vid=d9bb607d-1ecc-49cc-9f82-e52383a3bc84","ios":"levelo://app?vid=d9bb607d-1ecc-49cc-9f82-e52383a3bc84"},"vehicle_type_id":"4","last_reported":1761592088,"current_range_meters":9200,"station_id":"","pricing_plan_id":"cebpf4jnsgd1na2vs0mg"},{"bike_id":"e952f415-b06f-4b78-b076-49cc821c3f8a","system_id":"levelo_inurba_marseille","lat":43.29867,"lon":5.39731,"is_reserved":false,"is_disabled":false,"rental_uris":{"android":"levelo://app?vid=e952f415-b06f-4b78-b076-49cc821c3f8a","ios":"levelo://app?vid=e952f415-b06f-4b78-b076-49cc821c3f8a"},"vehicle_type_id":"4","last_reported":1761592088,"current_range_meters":9200,"station_id":"ce4bh0h2rcd13ifvqd50","pricing_plan_id":"cebpf4jnsgd1na2vs0mg"},{"bike_id":"3eec1dc0-8652-41f6-b33e-6cdb07f1c2c8","system_id":"levelo_inurba_marseille","lat":43.23181,"lon":5.39991,"is_reserved":false,"is_disabled":false,"rental_uris":{"android":"levelo://app?vid=3eec1dc0-8652-41f6-b33e-6cdb07f1c2c8","ios":"levelo://app?vid=3eec1dc0-8652-41f6-b33e-6cdb07f1c2c8"},"vehicle_type_id":"4","last_reported":1761592088,"current_range_meters":9200,"station_id":"ce4bhn12rcd13ifvqgqg","pricing_plan_id":"cebpf4jnsgd1na2vs0mg"},{"bike_id":"45176878-d21b-4d9b-9fb9-05bf3494c876","system_id":"levelo_inurba_marseille","lat":43.30155,"lon":5.39865,"is_reserved":false,"is_disabled":false,"rental_uris":{"android":"levelo://app?vid=45176878-d21b-4d9b-9fb9-05bf3494c876","ios":"levelo://app?vid=45176878-d21b-4d9b-9fb9-05bf3494c876"},"vehicle_type_id":"4","last_reported":1761592088,"current_range_meters":9200,"station_id":"ce4bh0h2rcd13ifvqd40","pricing_plan_id":"cebpf4jnsgd1na2vs0mg"},{"bike_id":"9fff157d-5b33-41f8-a3c7-61d5b15f0238","system_id":"levelo_inurba_marseille","lat":43.24662,"lon":5.38161,"is_reserved":false,"is_disabled":false,"rental_uris":{"android":"levelo://app?vid=9fff157d-5b33-41f8-a3c7-61d5b15f0238","ios":"levelo://app?vid=9fff157d-5b33-41f8-a3c7-61d5b15f0238"},"vehicle_type_id":"4","last_reported":1761592088,"current_range_meters":9600,"station_id":"ce4bhih2rcd13ifvqfr0","pricing_plan_id":"cebpf4jnsgd1na2vs0mg"},{"bike_id":"74ad1e51-e842-41b7-aab9-70c940e25f55","system_id":"levelo_inurba_marseille","lat":43.21743,"lon":5.34604,"is_reserved":false,"is_disabled":true,"rental_uris":{"android":"levelo://app?vid=74ad1e51-e842-41b7-aab9-70c940e25f55","ios":"levelo://app?vid=74ad1e51-e842-41b7-aab9-70c940e25f55"},"vehicle_type_id":"4","last_reported":1761592088,"current_range_meters":9600,"station_id":"st_cvj6r9ubvosntc0bgbag","pricing_plan_id":"cebpf4jnsgd1na2vs0mg"},{"bike_id":"7348219f-62a2-4f61-9dc3-4c6ae6e126f0","system_id":"levelo_inurba_marseille","lat":43.33752,"lon":5.37454,"is_reserved":false,"is_disabled":false,"rental_uris":{"android":"levelo://app?vid=7348219f-62a2-4f61-9dc3-4c6ae6e126f0","ios":"levelo://app?vid=7348219f-62a2-4f61-9dc3-4c6ae6e126f0"},"vehicle_type_id":"4","last_reported":1761592088,"current_range_meters":10000,"station_id":"","pricing_plan_id":"cebpf4jnsgd1na2vs0mg"},{"bike_id":"ea494b1c-0192-4569-a7aa-0b25e01a4cbf","system_id":"levelo_inurba_marseille","lat":43.31884,"lon":5.40732,"is_reserved":false,"is_disabled":false,"rental_uris":{"android":"levelo://app?vid=ea494b1c-0192-4569-a7aa-0b25e01a4cbf","ios":"levelo://app?vid=ea494b1c-0192-4569-a7aa-0b25e01a4cbf"},"vehicle_type_id":"4","last_reported":1761592088,"current_range_meters":10000,"station_id":"ce4bhq12rcd13ifvqhig","pricing_plan_id":"cebpf4jnsgd1na2vs0mg"},{"bike_id":"e18d5454-41be-42f0-93d8-50b22e2bef5b","system_id":"levelo_inurba_marseille","lat":43.30127,"lon":5.43107,"is_reserved":false,"is_disabled":false,"rental_uris":{"android":"levelo://app?vid=e18d5454-41be-42f0-93d8-50b22e2bef5b","ios":"levelo://app?vid=e18d5454-41be-42f0-93d8-50b22e2bef5b"},"vehicle_type_id":"4","last_reported":1761592088,"current_range_meters":10000,"station_id":"st_d3js3co5814s73ftftug","pricing_plan_id":"cebpf4jnsgd1na2vs0mg"},{"bike_id":"6218bb76-64fb-44bc-bca6-ca8ec8224a1e","system_id":"levelo_inurba_marseille","lat":43.29533,"lon":5.39408,"is_reserved":false,"is_disabled":false,"rental_uris":{"android":"levelo://app?vid=6218bb76-64fb-44bc-bca6-ca8ec8224a1e","ios":"levelo://app?vid=6218bb76-64fb-44bc-bca6-ca8ec8224a1e"},"vehicle_type_id":"4","last_reported":1761592088,"current_range_meters":10000,"station_id":"ce4bh292rcd13ifvqdf0","pricing_plan_id":"cebpf4jnsgd1na2vs0mg"},{"bike_id":"97934c55-64b2-46ea-b00d-189a4ee59791","system_id":"levelo_inurba_marseille","lat":43.24087,"lon":5.37758,"is_reserved":false,"is_disabled":false,"rental_uris":{"android":"levelo://app?vid=97934c55-64b2-46ea-b00d-189a4ee59791","ios":"levelo://app?vid=97934c55-64b2-46ea-b00d-189a4ee59791"},"vehicle_type_id":"4","last_reported":1761592088,"current_range_meters":10000,"station_id":"ce4bhnp2rcd13ifvqgvg","pricing_plan_id":"cebpf4jnsgd1na2vs0mg"},{"bike_id":"21781a70-201c-4092-a5e0-70fe14e2283d","system_id":"levelo_inurba_marseille","lat":43.28572,"lon":5.39499,"is_reserved":false,"is_disabled":false,"rental_uris":{"android":"levelo://app?vid=21781a70-201c-4092-a5e0-70fe14e2283d","ios":"levelo://app?vid=21781a70-201c-4092-a5e0-70fe14e2283d"},"vehicle_type_id":"4","last_reported":1761592088,"current_range_meters":10000,"station_id":"ce4bh292rcd13ifvqdg0","pricing_plan_id":"cebpf4jnsgd1na2vs0mg"},{"bike_id":"520a923d-8393-46c2-9fe4-754780c4305a","system_id":"levelo_inurba_marseille","lat":43.29482,"lon":5.43311,"is_reserved":false,"is_disabled":false,"rental_uris":{"android":"levelo://app?vid=520a923d-8393-46c2-9fe4-754780c4305a","ios":"levelo://app?vid=520a923d-8393-46c2-9fe4-754780c4305a"},"vehicle_type_id":"4","last_reported":1761592088,"current_range_meters":10000,"station_id":"st_d3j5ugp08ojc73fj9d10","pricing_plan_id":"cebpf4jnsgd1na2vs0mg"},{"bike_id":"641ce5a1-a2af-42f5-86d3-02a2312cb1fe","system_id":"levelo_inurba_marseille","lat":43.29611,"lon":5.38102,"is_reserved":false,"is_disabled":false,"rental_uris":{"android":"levelo://app?vid=641ce5a1-a2af-42f5-86d3-02a2312cb1fe","ios":"levelo://app?vid=641ce5a1-a2af-42f5-86d3-02a2312cb1fe"},"vehicle_type_id":"4","last_reported":1761592088,"current_range_meters":10800,"station_id":"ce4bgl12rcd13ifvqbo0","pricing_plan_id":"cebpf4jnsgd1na2vs0mg"},{"bike_id":"c2ba2153-1aa5-400a-a2d8-f243d355caf5","system_id":"levelo_inurba_marseille","lat":43.24387,"lon":5.370557,"is_reserved":false,"is_disabled":false,"rental_uris":{"android":"levelo://app?vid=c2ba2153-1aa5-400a-a2d8-f243d355caf5","ios":"levelo://app?vid=c2ba2153-1aa5-400a-a2d8-f243d355caf5"},"vehicle_type_id":"4","last_reported":1761592088,"current_range_meters":10800,"station_id":"ce4bhhh2rcd13ifvqfk0","pricing_plan_id":"cebpf4jnsgd1na2vs0mg"},{"bike_id":"97d65480-1b76-4993-9eb6-6fc0b084d154","system_id":"levelo_inurba_marseille","lat":43.24666,"lon":5.38165,"is_reserved":false,"is_disabled":false,"rental_uris":{"android":"levelo://app?vid=97d65480-1b76-4993-9eb6-6fc0b084d154","ios":"levelo://app?vid=97d65480-1b76-4993-9eb6-6fc0b084d154"},"vehicle_type_id":"4","last_reported":1761592088,"current_range_meters":10800,"station_id":"ce4bhih2rcd13ifvqfr0","pricing_plan_id":"cebpf4jnsgd1na2vs0mg"},{"bike_id":"ac8b7b2d-6b7a-4d54-9d40-e2a426c544a8","system_id":"levelo_inurba_marseille","lat":43.24076,"lon":5.37763,"is_reserved":false,"is_disabled":false,"rental_uris":{"android":"levelo://app?vid=ac8b7b2d-6b7a-4d54-9d40-e2a426c544a8","ios":"levelo://app?vid=ac8b7b2d-6b7a-4d54-9d40-e2a426c544a8"},"vehicle_type_id":"4","last_reported":1761592088,"current_range_meters":10800,"station_id":"ce4bhnp2rcd13ifvqgvg","pricing_plan_id":"cebpf4jnsgd1na2vs0mg"},{"bike_id":"9e766c0e-118a-4b7d-8f04-112f1f817cd3","system_id":"levelo_inurba_marseille","lat":43.28983,"lon":5.37822,"is_reserved":false,"is_disabled":true,"rental_uris":{"android":"levelo://app?vid=9e766c0e-118a-4b7d-8f04-112f1f817cd3","ios":"levelo://app?vid=9e766c0e-118a-4b7d-8f04-112f1f817cd3"},"vehicle_type_id":"4","last_reported":1761592088,"current_range_meters":10800,"station_id":"ce4bh9p2rcd13ifvqed0","pricing_plan_id":"cebpf4jnsgd1na2vs0mg"},{"bike_id":"b7531513-9777-4616-a58e-9e4082c21c54","system_id":"levelo_inurba_marseille","lat":43.29202,"lon":5.39323,"is_reserved":false,"is_disabled":false,"rental_uris":{"android":"levelo://app?vid=b7531513-9777-4616-a58e-9e4082c21c54","ios":"levelo://app?vid=b7531513-9777-4616-a58e-9e4082c21c54"},"vehicle_type_id":"4","last_reported":1761592088,"current_range_meters":10800,"station_id":"ce4bh192rcd13ifvqdd0","pricing_plan_id":"cebpf4jnsgd1na2vs0mg"},{"bike_id":"47497c28-52d8-4c70-8a11-d876a5b3231c","system_id":"levelo_inurba_marseille","lat":43.291859,"lon":5.357921,"is_reserved":false,"is_disabled":false,"rental_uris":{"android":"levelo://app?vid=47497c28-52d8-4c70-8a11-d876a5b3231c","ios":"levelo://app?vid=47497c28-52d8-4c70-8a11-d876a5b3231c"},"vehicle_type_id":"4","last_reported":1761592088,"current_range_meters":11200,"station_id":"ce4bhb12rcd13ifvqel0","pricing_plan_id":"cebpf4jnsgd1na2vs0mg"},{"bike_id":"a5e97cf5-21a8-40b7-8e91-21aa332d6351","system_id":"levelo_inurba_marseille","lat":43.30131,"lon":5.43124,"is_reserved":false,"is_disabled":false,"rental_uris":{"android":"levelo://app?vid=a5e97cf5-21a8-40b7-8e91-21aa332d6351","ios":"levelo://app?vid=a5e97cf5-21a8-40b7-8e91-21aa332d6351"},"vehicle_type_id":"4","last_reported":1761592088,"current_range_meters":11200,"station_id":"st_d3js3co5814s73ftftug","pricing_plan_id":"cebpf4jnsgd1na2vs0mg"},{"bike_id":"2798a86e-4e35-485e-9588-4a4fe2c36f61","system_id":"levelo_inurba_marseille","lat":43.284614,"lon":5.34999,"is_reserved":false,"is_disabled":false,"rental_uris":{"android":"levelo://app?vid=2798a86e-4e35-485e-9588-4a4fe2c36f61","ios":"levelo://app?vid=2798a86e-4e35-485e-9588-4a4fe2c36f61"},"vehicle_type_id":"4","last_reported":1761592088,"current_range_meters":11200,"station_id":"","pricing_plan_id":"cebpf4jnsgd1na2vs0mg"},{"bike_id":"bcd0a22d-d648-4437-b925-c1d5078ffda6","system_id":"levelo_inurba_marseille","lat":43.2956,"lon":5.42289,"is_reserved":false,"is_disabled":false,"rental_uris":{"android":"levelo://app?vid=bcd0a22d-d648-4437-b925-c1d5078ffda6","ios":"levelo://app?vid=bcd0a22d-d648-4437-b925-c1d5078ffda6"},"vehicle_type_id":"4","last_reported":1761592088,"current_range_meters":11200,"station_id":"ce4bhph2rcd13ifvqhdg","pricing_plan_id":"cebpf4jnsgd1na2vs0mg"},{"bike_id":"7ad9dfce-3464-4a65-9b7c-7bf2a274e395","system_id":"levelo_inurba_marseille","lat":43.29583,"lon":5.37731,"is_reserved":false,"is_disabled":false,"rental_uris":{"android":"levelo://app?vid=7ad9dfce-3464-4a65-9b7c-7bf2a274e395","ios":"levelo://app?vid=7ad9dfce-3464-4a65-9b7c-7bf2a274e395"},"vehicle_type_id":"4","last_reported":1761592088,"current_range_meters":11200,"station_id":"ce4bgi92rcd13ifvqb90","pricing_plan_id":"cebpf4jnsgd1na2vs0mg"},{"bike_id":"97d4ce55-e0f1-43ae-843a-117dc12883bc","system_id":"levelo_inurba_marseille","lat":43.30292,"lon":5.36746,"is_reserved":false,"is_disabled":false,"rental_uris":{"android":"levelo://app?vid=97d4ce55-e0f1-43ae-843a-117dc12883bc","ios":"levelo://app?vid=97d4ce55-e0f1-43ae-843a-117dc12883bc"},"vehicle_type_id":"4","last_reported":1761592088,"current_range_meters":11200,"station_id":"","pricing_plan_id":"cebpf4jnsgd1na2vs0mg"},{"bike_id":"ed28e871-fd08-4d9e-baf9-3b1ae29441bf","system_id":"levelo_inurba_marseille","lat":43.2989,"lon":5.38903,"is_reserved":false,"is_disabled":false,"rental_uris":{"android":"levelo://app?vid=ed28e871-fd08-4d9e-baf9-3b1ae29441bf","ios":"levelo://app?vid=ed28e871-fd08-4d9e-baf9-3b1ae29441bf"},"vehicle_type_id":"4","last_reported":1761592088,"current_range_meters":11600,"station_id":"ce4bh392rcd13ifvqdl0","pricing_plan_id":"cebpf4jnsgd1na2vs0mg"},{"bike_id":"f6c67015-35e5-40f3-8e3f-a9cbc37730e1","system_id":"levelo_inurba_marseille","lat":43.30939,"lon":5.40144,"is_reserved":false,"is_disabled":false,"rental_uris":{"android":"levelo://app?vid=f6c67015-35e5-40f3-8e3f-a9cbc37730e1","ios":"levelo://app?vid=f6c67015-35e5-40f3-8e3f-a9cbc37730e1"},"vehicle_type_id":"4","last_reported":1761592088,"current_range_meters":11600,"station_id":"ce4bgvp2rcd13ifvqct0","pricing_plan_id":"cebpf4jnsgd1na2vs0mg"},{"bike_id":"fe84f64e-7d86-4a32-beff-349b4ab179be","system_id":"levelo_inurba_marseille","lat":43.3073,"lon":5.42451,"is_reserved":false,"is_disabled":false,"rental_uris":{"android":"levelo://app?vid=fe84f64e-7d86-4a32-beff-349b4ab179be","ios":"levelo://app?vid=fe84f64e-7d86-4a32-beff-349b4ab179be"},"vehicle_type_id":"4","last_reported":1761592088,"current_range_meters":11600,"station_id":"st_cvj6ca6bvosntc0bfgr0","pricing_plan_id":"cebpf4jnsgd1na2vs0mg"},{"bike_id":"6f39e333-e3c4-458c-9af4-d8a84fd7db7c","system_id":"levelo_inurba_marseille","lat":43.26032,"lon":5.37546,"is_reserved":false,"is_disabled":false,"rental_uris":{"android":"levelo://app?vid=6f39e333-e3c4-458c-9af4-d8a84fd7db7c","ios":"levelo://app?vid=6f39e333-e3c4-458c-9af4-d8a84fd7db7c"},"vehicle_type_id":"4","last_reported":1761592088,"current_range_meters":11600,"station_id":"ce4bhgh2rcd13ifvqfa0","pricing_plan_id":"cebpf4jnsgd1na2vs0mg"},{"bike_id":"f6f41915-49e3-4fb8-8c5c-96d42e084e15","system_id":"levelo_inurba_marseille","lat":43.32057,"lon":5.37107,"is_reserved":false,"is_disabled":false,"rental_uris":{"android":"levelo://app?vid=f6f41915-49e3-4fb8-8c5c-96d42e084e15","ios":"levelo://app?vid=f6f41915-49e3-4fb8-8c5c-96d42e084e15"},"vehicle_type_id":"4","last_reported":1761592088,"current_range_meters":11600,"station_id":"","pricing_plan_id":"cebpf4jnsgd1na2vs0mg"},{"bike_id":"3abfb477-e317-490a-a407-164ef4d69634","system_id":"levelo_inurba_marseille","lat":43.28415,"lon":5.37497,"is_reserved":false,"is_disabled":false,"rental_uris":{"android":"levelo://app?vid=3abfb477-e317-490a-a407-164ef4d69634","ios":"levelo://app?vid=3abfb477-e317-490a-a407-164ef4d69634"},"vehicle_type_id":"4","last_reported":1761592088,"current_range_meters":11600,"station_id":"ce4bh412rcd13ifvqds0","pricing_plan_id":"cebpf4jnsgd1na2vs0mg"},{"bike_id":"2750492c-2b2a-461b-b4d4-accb4cb60a3a","system_id":"levelo_inurba_marseille","lat":43.25507,"lon":5.37658,"is_reserved":false,"is_disabled":false,"rental_uris":{"android":"levelo://app?vid=2750492c-2b2a-461b-b4d4-accb4cb60a3a","ios":"levelo://app?vid=2750492c-2b2a-461b-b4d4-accb4cb60a3a"},"vehicle_type_id":"4","last_reported":1761592088,"current_range_meters":11600,"station_id":"ce4bhh12rcd13ifvqff0","pricing_plan_id":"cebpf4jnsgd1na2vs0mg"},{"bike_id":"715a3e9c-092e-494a-87c9-7acfae91d643","system_id":"levelo_inurba_marseille","lat":43.30594,"lon":5.39357,"is_reserved":false,"is_disabled":false,"rental_uris":{"android":"levelo://app?vid=715a3e9c-092e-494a-87c9-7acfae91d643","ios":"levelo://app?vid=715a3e9c-092e-494a-87c9-7acfae91d643"},"vehicle_type_id":"4","last_reported":1761592088,"current_range_meters":11600,"station_id":"ce4bh0p2rcd13ifvqd80","pricing_plan_id":"cebpf4jnsgd1na2vs0mg"},{"bike_id":"a3d92f72-97ac-4dba-a91b-f007ba1d3202","system_id":"levelo_inurba_marseille","lat":43.30323,"lon":5.39201,"is_reserved":false,"is_disabled":false,"rental_uris":{"android":"levelo://app?vid=a3d92f72-97ac-4dba-a91b-f007ba1d3202","ios":"levelo://app?vid=a3d92f72-97ac-4dba-a91b-f007ba1d3202"},"vehicle_type_id":"4","last_reported":1761592088,"current_range_meters":11600,"station_id":"ce4bgkh2rcd13ifvqbk0","pricing_plan_id":"cebpf4jnsgd1na2vs0mg"},{"bike_id":"267dba7c-4d5d-4861-b43e-6a9a4e649f1b","system_id":"levelo_inurba_marseille","lat":43.253852,"lon":5.421489,"is_reserved":false,"is_disabled":false,"rental_uris":{"android":"levelo://app?vid=267dba7c-4d5d-4861-b43e-6a9a4e649f1b","ios":"levelo://app?vid=267dba7c-4d5d-4861-b43e-6a9a4e649f1b"},"vehicle_type_id":"4","last_reported":1761592088,"current_range_meters":11600,"station_id":"st_d2m65c5bi1j21697t3ng","pricing_plan_id":"cebpf4jnsgd1na2vs0mg"},{"bike_id":"b83891d3-7971-45ae-9af3-651a6e6209e2","system_id":"levelo_inurba_marseille","lat":43.23202,"lon":5.35569,"is_reserved":false,"is_disabled":true,"rental_uris":{"android":"levelo://app?vid=b83891d3-7971-45ae-9af3-651a6e6209e2","ios":"levelo://app?vid=b83891d3-7971-45ae-9af3-651a6e6209e2"},"vehicle_type_id":"4","last_reported":1761592088,"current_range_meters":12000,"station_id":"ce4bhu92rcd13ifvqi70","pricing_plan_id":"cebpf4jnsgd1na2vs0mg"},{"bike_id":"d0c081ad-3486-48c9-8966-70405df77a5b","system_id":"levelo_inurba_marseille","lat":43.22934,"lon":5.35374,"is_reserved":false,"is_disabled":false,"rental_uris":{"android":"levelo://app?vid=d0c081ad-3486-48c9-8966-70405df77a5b","ios":"levelo://app?vid=d0c081ad-3486-48c9-8966-70405df77a5b"},"vehicle_type_id":"4","last_reported":1761592088,"current_range_meters":12000,"station_id":"cpo3532slgdg3j2ikp40","pricing_plan_id":"cebpf4jnsgd1na2vs0mg"},{"bike_id":"4788a354-1162-4753-956c-b8fde655adcf","system_id":"levelo_inurba_marseille","lat":43.29554,"lon":5.42276,"is_reserved":false,"is_disabled":false,"rental_uris":{"android":"levelo://app?vid=4788a354-1162-4753-956c-b8fde655adcf","ios":"levelo://app?vid=4788a354-1162-4753-956c-b8fde655adcf"},"vehicle_type_id":"4","last_reported":1761592088,"current_range_meters":12000,"station_id":"ce4bhph2rcd13ifvqhdg","pricing_plan_id":"cebpf4jnsgd1na2vs0mg"},{"bike_id":"9b8b2087-b793-493f-bee6-322912ca3e80","system_id":"levelo_inurba_marseille","lat":43.33606,"lon":5.41033,"is_reserved":false,"is_disabled":false,"rental_uris":{"android":"levelo://app?vid=9b8b2087-b793-493f-bee6-322912ca3e80","ios":"levelo://app?vid=9b8b2087-b793-493f-bee6-322912ca3e80"},"vehicle_type_id":"4","last_reported":1761592088,"current_range_meters":12000,"station_id":"ce4bhqh2rcd13ifvqhmg","pricing_plan_id":"cebpf4jnsgd1na2vs0mg"},{"bike_id":"ce10892a-afd9-4f41-be42-6840a1f48567","system_id":"levelo_inurba_marseille","lat":43.30158,"lon":5.3989,"is_reserved":false,"is_disabled":false,"rental_uris":{"android":"levelo://app?vid=ce10892a-afd9-4f41-be42-6840a1f48567","ios":"levelo://app?vid=ce10892a-afd9-4f41-be42-6840a1f48567"},"vehicle_type_id":"4","last_reported":1761592088,"current_range_meters":12000,"station_id":"ce4bh0h2rcd13ifvqd40","pricing_plan_id":"cebpf4jnsgd1na2vs0mg"},{"bike_id":"71fe0d6a-f99e-45a0-9c75-e294b78524b2","system_id":"levelo_inurba_marseille","lat":43.21668,"lon":5.34628,"is_reserved":false,"is_disabled":false,"rental_uris":{"android":"levelo://app?vid=71fe0d6a-f99e-45a0-9c75-e294b78524b2","ios":"levelo://app?vid=71fe0d6a-f99e-45a0-9c75-e294b78524b2"},"vehicle_type_id":"4","last_reported":1761592088,"current_range_meters":12000,"station_id":"","pricing_plan_id":"cebpf4jnsgd1na2vs0mg"},{"bike_id":"f5adc0f6-8f78-420c-a3cc-2381696afa4a","system_id":"levelo_inurba_marseille","lat":43.28879,"lon":5.42516,"is_reserved":false,"is_disabled":false,"rental_uris":{"android":"levelo://app?vid=f5adc0f6-8f78-420c-a3cc-2381696afa4a","ios":"levelo://app?vid=f5adc0f6-8f78-420c-a3cc-2381696afa4a"},"vehicle_type_id":"4","last_reported":1761592088,"current_range_meters":12000,"station_id":"st_d3b462108ojc7389ooeg","pricing_plan_id":"cebpf4jnsgd1na2vs0mg"},{"bike_id":"33536d63-32c5-4dda-b600-be1d3fbb9bcc","system_id":"levelo_inurba_marseille","lat":43.21191,"lon":5.3507,"is_reserved":false,"is_disabled":true,"rental_uris":{"android":"levelo://app?vid=33536d63-32c5-4dda-b600-be1d3fbb9bcc","ios":"levelo://app?vid=33536d63-32c5-4dda-b600-be1d3fbb9bcc"},"vehicle_type_id":"4","last_reported":1761592088,"current_range_meters":12400,"station_id":"","pricing_plan_id":"cebpf4jnsgd1na2vs0mg"},{"bike_id":"bbbf3dbb-fbe2-4b7e-bfad-c027ca4e1c25","system_id":"levelo_inurba_marseille","lat":43.284754,"lon":5.483966,"is_reserved":false,"is_disabled":false,"rental_uris":{"android":"levelo://app?vid=bbbf3dbb-fbe2-4b7e-bfad-c027ca4e1c25","ios":"levelo://app?vid=bbbf3dbb-fbe2-4b7e-bfad-c027ca4e1c25"},"vehicle_type_id":"4","last_reported":1761592088,"current_range_meters":12400,"station_id":"st_d3svhcjqgbts73a3dn0g","pricing_plan_id":"cebpf4jnsgd1na2vs0mg"},{"bike_id":"569bc549-be69-43dd-980a-c0df23c0523d","system_id":"levelo_inurba_marseille","lat":43.28941,"lon":5.36637,"is_reserved":false,"is_disabled":false,"rental_uris":{"android":"levelo://app?vid=569bc549-be69-43dd-980a-c0df23c0523d","ios":"levelo://app?vid=569bc549-be69-43dd-980a-c0df23c0523d"},"vehicle_type_id":"4","last_reported":1761592088,"current_range_meters":12400,"station_id":"ce4bhap2rcd13ifvqek0","pricing_plan_id":"cebpf4jnsgd1na2vs0mg"},{"bike_id":"1dc9ba42-c81c-4960-a8c6-a1d1249c6591","system_id":"levelo_inurba_marseille","lat":43.30725,"lon":5.42453,"is_reserved":false,"is_disabled":false,"rental_uris":{"android":"levelo://app?vid=1dc9ba42-c81c-4960-a8c6-a1d1249c6591","ios":"levelo://app?vid=1dc9ba42-c81c-4960-a8c6-a1d1249c6591"},"vehicle_type_id":"4","last_reported":1761592088,"current_range_meters":12400,"station_id":"st_cvj6ca6bvosntc0bfgr0","pricing_plan_id":"cebpf4jnsgd1na2vs0mg"},{"bike_id":"f3673a60-efd2-465f-aa18-cb0baaf105f7","system_id":"levelo_inurba_marseille","lat":43.32332,"lon":5.38522,"is_reserved":false,"is_disabled":false,"rental_uris":{"android":"levelo://app?vid=f3673a60-efd2-465f-aa18-cb0baaf105f7","ios":"levelo://app?vid=f3673a60-efd2-465f-aa18-cb0baaf105f7"},"vehicle_type_id":"4","last_reported":1761592088,"current_range_meters":12400,"station_id":"","pricing_plan_id":"cebpf4jnsgd1na2vs0mg"},{"bike_id":"851e01ff-9c1c-4d3e-805d-0781e4877a09","system_id":"levelo_inurba_marseille","lat":43.26687,"lon":5.38264,"is_reserved":false,"is_disabled":false,"rental_uris":{"android":"levelo://app?vid=851e01ff-9c1c-4d3e-805d-0781e4877a09","ios":"levelo://app?vid=851e01ff-9c1c-4d3e-805d-0781e4877a09"},"vehicle_type_id":"4","last_reported":1761592088,"current_range_meters":12400,"station_id":"ce4bhg92rcd13ifvqf90","pricing_plan_id":"cebpf4jnsgd1na2vs0mg"},{"bike_id":"02dd205b-e97c-4104-9683-066d2523fd3f","system_id":"levelo_inurba_marseille","lat":43.2196,"lon":5.34548,"is_reserved":false,"is_disabled":false,"rental_uris":{"android":"levelo://app?vid=02dd205b-e97c-4104-9683-066d2523fd3f","ios":"levelo://app?vid=02dd205b-e97c-4104-9683-066d2523fd3f"},"vehicle_type_id":"4","last_reported":1761592088,"current_range_meters":12400,"station_id":"","pricing_plan_id":"cebpf4jnsgd1na2vs0mg"},{"bike_id":"2319520a-fc10-4ea5-a5ca-d3a4702f6c7b","system_id":"levelo_inurba_marseille","lat":43.29906,"lon":5.43673,"is_reserved":false,"is_disabled":true,"rental_uris":{"android":"levelo://app?vid=2319520a-fc10-4ea5-a5ca-d3a4702f6c7b","ios":"levelo://app?vid=2319520a-fc10-4ea5-a5ca-d3a4702f6c7b"},"vehicle_type_id":"4","last_reported":1761592088,"current_range_meters":12800,"station_id":"ce4bhpp2rcd13ifvqhfg","pricing_plan_id":"cebpf4jnsgd1na2vs0mg"},{"bike_id":"26dca54a-604f-4a86-b5ca-fafebb5b01e5","system_id":"levelo_inurba_marseille","lat":43.26568,"lon":5.3901,"is_reserved":false,"is_disabled":false,"rental_uris":{"android":"levelo://app?vid=26dca54a-604f-4a86-b5ca-fafebb5b01e5","ios":"levelo://app?vid=26dca54a-604f-4a86-b5ca-fafebb5b01e5"},"vehicle_type_id":"4","last_reported":1761592088,"current_range_meters":12800,"station_id":"ce4bhe12rcd13ifvqf30","pricing_plan_id":"cebpf4jnsgd1na2vs0mg"},{"bike_id":"e92a5181-3093-4535-adde-2230374de0aa","system_id":"levelo_inurba_marseille","lat":43.31365,"lon":5.37695,"is_reserved":false,"is_disabled":false,"rental_uris":{"android":"levelo://app?vid=e92a5181-3093-4535-adde-2230374de0aa","ios":"levelo://app?vid=e92a5181-3093-4535-adde-2230374de0aa"},"vehicle_type_id":"4","last_reported":1761592088,"current_range_meters":12800,"station_id":"","pricing_plan_id":"cebpf4jnsgd1na2vs0mg"},{"bike_id":"96e135e9-3840-4218-9e65-152a5c604a6f","system_id":"levelo_inurba_marseille","lat":43.28864,"lon":5.42517,"is_reserved":false,"is_disabled":false,"rental_uris":{"android":"levelo://app?vid=96e135e9-3840-4218-9e65-152a5c604a6f","ios":"levelo://app?vid=96e135e9-3840-4218-9e65-152a5c604a6f"},"vehicle_type_id":"4","last_reported":1761592088,"current_range_meters":12800,"station_id":"st_d3b462108ojc7389ooeg","pricing_plan_id":"cebpf4jnsgd1na2vs0mg"},{"bike_id":"a198c618-2d74-40d4-9df5-21dad2a691d9","system_id":"levelo_inurba_marseille","lat":43.25824,"lon":5.39429,"is_reserved":false,"is_disabled":false,"rental_uris":{"android":"levelo://app?vid=a198c618-2d74-40d4-9df5-21dad2a691d9","ios":"levelo://app?vid=a198c618-2d74-40d4-9df5-21dad2a691d9"},"vehicle_type_id":"4","last_reported":1761592088,"current_range_meters":12800,"station_id":"ce4bhip2rcd13ifvqft0","pricing_plan_id":"cebpf4jnsgd1na2vs0mg"},{"bike_id":"005e8283-8c6a-4c8c-970d-ec93fa7ed259","system_id":"levelo_inurba_marseille","lat":43.28926,"lon":5.38384,"is_reserved":false,"is_disabled":false,"rental_uris":{"android":"levelo://app?vid=005e8283-8c6a-4c8c-970d-ec93fa7ed259","ios":"levelo://app?vid=005e8283-8c6a-4c8c-970d-ec93fa7ed259"},"vehicle_type_id":"4","last_reported":1761592088,"current_range_meters":12800,"station_id":"ce4bh612rcd13ifvqe6g","pricing_plan_id":"cebpf4jnsgd1na2vs0mg"},{"bike_id":"763dedad-f3f7-4198-bc42-a8f8d4bc1d9e","system_id":"levelo_inurba_marseille","lat":43.22931,"lon":5.35377,"is_reserved":false,"is_disabled":false,"rental_uris":{"android":"levelo://app?vid=763dedad-f3f7-4198-bc42-a8f8d4bc1d9e","ios":"levelo://app?vid=763dedad-f3f7-4198-bc42-a8f8d4bc1d9e"},"vehicle_type_id":"4","last_reported":1761592088,"current_range_meters":12800,"station_id":"cpo3532slgdg3j2ikp40","pricing_plan_id":"cebpf4jnsgd1na2vs0mg"},{"bike_id":"6b27b53b-ade4-4e59-9555-b40b30fb2fb2","system_id":"levelo_inurba_marseille","lat":43.25335,"lon":5.42145,"is_reserved":false,"is_disabled":false,"rental_uris":{"android":"levelo://app?vid=6b27b53b-ade4-4e59-9555-b40b30fb2fb2","ios":"levelo://app?vid=6b27b53b-ade4-4e59-9555-b40b30fb2fb2"},"vehicle_type_id":"4","last_reported":1761592088,"current_range_meters":12800,"station_id":"st_d2m65c5bi1j21697t3ng","pricing_plan_id":"cebpf4jnsgd1na2vs0mg"},{"bike_id":"99f71ea2-5580-4c1d-b149-5fed2b68821c","system_id":"levelo_inurba_marseille","lat":43.28139,"lon":5.4266,"is_reserved":false,"is_disabled":false,"rental_uris":{"android":"levelo://app?vid=99f71ea2-5580-4c1d-b149-5fed2b68821c","ios":"levelo://app?vid=99f71ea2-5580-4c1d-b149-5fed2b68821c"},"vehicle_type_id":"4","last_reported":1761592088,"current_range_meters":13600,"station_id":"ce4bhnh2rcd13ifvqgug","pricing_plan_id":"cebpf4jnsgd1na2vs0mg"},{"bike_id":"72692e77-b537-477c-ba7d-fdff69794bfb","system_id":"levelo_inurba_marseille","lat":43.25333,"lon":5.42167,"is_reserved":false,"is_disabled":false,"rental_uris":{"android":"levelo://app?vid=72692e77-b537-477c-ba7d-fdff69794bfb","ios":"levelo://app?vid=72692e77-b537-477c-ba7d-fdff69794bfb"},"vehicle_type_id":"4","last_reported":1761592088,"current_range_meters":13600,"station_id":"st_d2m65c5bi1j21697t3ng","pricing_plan_id":"cebpf4jnsgd1na2vs0mg"},{"bike_id":"f79d2817-e79e-42b3-b5a0-70e5fd342e62","system_id":"levelo_inurba_marseille","lat":43.30798,"lon":5.38163,"is_reserved":false,"is_disabled":false,"rental_uris":{"android":"levelo://app?vid=f79d2817-e79e-42b3-b5a0-70e5fd342e62","ios":"levelo://app?vid=f79d2817-e79e-42b3-b5a0-70e5fd342e62"},"vehicle_type_id":"4","last_reported":1761592088,"current_range_meters":13600,"station_id":"ce4bgt12rcd13ifvqce0","pricing_plan_id":"cebpf4jnsgd1na2vs0mg"},{"bike_id":"8c71c05b-dd29-470b-8b05-4159f459865a","system_id":"levelo_inurba_marseille","lat":43.27673,"lon":5.38873,"is_reserved":false,"is_disabled":false,"rental_uris":{"android":"levelo://app?vid=8c71c05b-dd29-470b-8b05-4159f459865a","ios":"levelo://app?vid=8c71c05b-dd29-470b-8b05-4159f459865a"},"vehicle_type_id":"4","last_reported":1761592088,"current_range_meters":13600,"station_id":"ce4bhi12rcd13ifvqfo0","pricing_plan_id":"cebpf4jnsgd1na2vs0mg"},{"bike_id":"0d30d321-a5c1-4df9-bb01-58285c66b73b","system_id":"levelo_inurba_marseille","lat":43.29179,"lon":5.35791,"is_reserved":false,"is_disabled":true,"rental_uris":{"android":"levelo://app?vid=0d30d321-a5c1-4df9-bb01-58285c66b73b","ios":"levelo://app?vid=0d30d321-a5c1-4df9-bb01-58285c66b73b"},"vehicle_type_id":"4","last_reported":1761592088,"current_range_meters":13600,"station_id":"ce4bhb12rcd13ifvqel0","pricing_plan_id":"cebpf4jnsgd1na2vs0mg"},{"bike_id":"bc7a1613-f99c-428f-9421-dcf9ef9e4fc3","system_id":"levelo_inurba_marseille","lat":43.2606,"lon":5.39394,"is_reserved":false,"is_disabled":false,"rental_uris":{"android":"levelo://app?vid=bc7a1613-f99c-428f-9421-dcf9ef9e4fc3","ios":"levelo://app?vid=bc7a1613-f99c-428f-9421-dcf9ef9e4fc3"},"vehicle_type_id":"4","last_reported":1761592088,"current_range_meters":14000,"station_id":"ce4bhh92rcd13ifvqfj0","pricing_plan_id":"cebpf4jnsgd1na2vs0mg"},{"bike_id":"1880ebb9-7edb-463e-976b-226e958b9ebe","system_id":"levelo_inurba_marseille","lat":43.31097,"lon":5.37487,"is_reserved":false,"is_disabled":false,"rental_uris":{"android":"levelo://app?vid=1880ebb9-7edb-463e-976b-226e958b9ebe","ios":"levelo://app?vid=1880ebb9-7edb-463e-976b-226e958b9ebe"},"vehicle_type_id":"4","last_reported":1761592088,"current_range_meters":14000,"station_id":"ce4bgt12rcd13ifvqce0","pricing_plan_id":"cebpf4jnsgd1na2vs0mg"},{"bike_id":"0b4cc5f4-c6b9-4e81-8ba9-74cdecab57fb","system_id":"levelo_inurba_marseille","lat":43.26274,"lon":5.41603,"is_reserved":false,"is_disabled":false,"rental_uris":{"android":"levelo://app?vid=0b4cc5f4-c6b9-4e81-8ba9-74cdecab57fb","ios":"levelo://app?vid=0b4cc5f4-c6b9-4e81-8ba9-74cdecab57fb"},"vehicle_type_id":"4","last_reported":1761592088,"current_range_meters":14000,"station_id":"","pricing_plan_id":"cebpf4jnsgd1na2vs0mg"},{"bike_id":"7fdef00d-cb5d-4810-ad30-5dd693a1b52f","system_id":"levelo_inurba_marseille","lat":43.28107,"lon":5.37838,"is_reserved":false,"is_disabled":false,"rental_uris":{"android":"levelo://app?vid=7fdef00d-cb5d-4810-ad30-5dd693a1b52f","ios":"levelo://app?vid=7fdef00d-cb5d-4810-ad30-5dd693a1b52f"},"vehicle_type_id":"4","last_reported":1761592088,"current_range_meters":14000,"station_id":"ce4bha12rcd13ifvqee0","pricing_plan_id":"cebpf4jnsgd1na2vs0mg"},{"bike_id":"a3100ff0-76ab-498b-bebf-b9c52f3d2538","system_id":"levelo_inurba_marseille","lat":43.28568,"lon":5.4837,"is_reserved":false,"is_disabled":false,"rental_uris":{"android":"levelo://app?vid=a3100ff0-76ab-498b-bebf-b9c52f3d2538","ios":"levelo://app?vid=a3100ff0-76ab-498b-bebf-b9c52f3d2538"},"vehicle_type_id":"4","last_reported":1761592088,"current_range_meters":14000,"station_id":"","pricing_plan_id":"cebpf4jnsgd1na2vs0mg"},{"bike_id":"4c888f7a-a3cd-4aff-ab0b-fe318b78464b","system_id":"levelo_inurba_marseille","lat":43.21765,"lon":5.34599,"is_reserved":false,"is_disabled":false,"rental_uris":{"android":"levelo://app?vid=4c888f7a-a3cd-4aff-ab0b-fe318b78464b","ios":"levelo://app?vid=4c888f7a-a3cd-4aff-ab0b-fe318b78464b"},"vehicle_type_id":"4","last_reported":1761592088,"current_range_meters":14000,"station_id":"st_cvj6r9ubvosntc0bgbag","pricing_plan_id":"cebpf4jnsgd1na2vs0mg"},{"bike_id":"20f45349-3f98-403d-8636-0b1f40024741","system_id":"levelo_inurba_marseille","lat":43.27497,"lon":5.42452,"is_reserved":false,"is_disabled":false,"rental_uris":{"android":"levelo://app?vid=20f45349-3f98-403d-8636-0b1f40024741","ios":"levelo://app?vid=20f45349-3f98-403d-8636-0b1f40024741"},"vehicle_type_id":"4","last_reported":1761592088,"current_range_meters":14400,"station_id":"ce4bhn92rcd13ifvqgrg","pricing_plan_id":"cebpf4jnsgd1na2vs0mg"},{"bike_id":"ff806bd2-c7e9-493a-9703-ad992684e451","system_id":"levelo_inurba_marseille","lat":43.296263,"lon":5.377142,"is_reserved":false,"is_disabled":false,"rental_uris":{"android":"levelo://app?vid=ff806bd2-c7e9-493a-9703-ad992684e451","ios":"levelo://app?vid=ff806bd2-c7e9-493a-9703-ad992684e451"},"vehicle_type_id":"4","last_reported":1761592088,"current_range_meters":14400,"station_id":"","pricing_plan_id":"cebpf4jnsgd1na2vs0mg"},{"bike_id":"a507e789-f440-40a8-85cf-09841d81676c","system_id":"levelo_inurba_marseille","lat":43.22536,"lon":5.34835,"is_reserved":false,"is_disabled":false,"rental_uris":{"android":"levelo://app?vid=a507e789-f440-40a8-85cf-09841d81676c","ios":"levelo://app?vid=a507e789-f440-40a8-85cf-09841d81676c"},"vehicle_type_id":"4","last_reported":1761592088,"current_range_meters":14400,"station_id":"","pricing_plan_id":"cebpf4jnsgd1na2vs0mg"},{"bike_id":"eea3c3c3-734f-4fd3-8061-ed84cfe47b38","system_id":"levelo_inurba_marseille","lat":43.32564,"lon":5.39135,"is_reserved":false,"is_disabled":false,"rental_uris":{"android":"levelo://app?vid=eea3c3c3-734f-4fd3-8061-ed84cfe47b38","ios":"levelo://app?vid=eea3c3c3-734f-4fd3-8061-ed84cfe47b38"},"vehicle_type_id":"4","last_reported":1761592088,"current_range_meters":14400,"station_id":"","pricing_plan_id":"cebpf4jnsgd1na2vs0mg"},{"bike_id":"6702790c-1f90-41b6-a1bb-95e4a81982bb","system_id":"levelo_inurba_marseille","lat":43.29259,"lon":5.38437,"is_reserved":false,"is_disabled":false,"rental_uris":{"android":"levelo://app?vid=6702790c-1f90-41b6-a1bb-95e4a81982bb","ios":"levelo://app?vid=6702790c-1f90-41b6-a1bb-95e4a81982bb"},"vehicle_type_id":"4","last_reported":1761592088,"current_range_meters":14400,"station_id":"ce4bh692rcd13ifvqea0","pricing_plan_id":"cebpf4jnsgd1na2vs0mg"},{"bike_id":"276fce45-4f2f-48bf-bb09-c7ddc6806551","system_id":"levelo_inurba_marseille","lat":43.303144,"lon":5.367477,"is_reserved":false,"is_disabled":false,"rental_uris":{"android":"levelo://app?vid=276fce45-4f2f-48bf-bb09-c7ddc6806551","ios":"levelo://app?vid=276fce45-4f2f-48bf-bb09-c7ddc6806551"},"vehicle_type_id":"4","last_reported":1761592088,"current_range_meters":14400,"station_id":"","pricing_plan_id":"cebpf4jnsgd1na2vs0mg"},{"bike_id":"54317329-1b14-4957-8f07-2baa7436d39c","system_id":"levelo_inurba_marseille","lat":43.28619,"lon":5.35108,"is_reserved":false,"is_disabled":false,"rental_uris":{"android":"levelo://app?vid=54317329-1b14-4957-8f07-2baa7436d39c","ios":"levelo://app?vid=54317329-1b14-4957-8f07-2baa7436d39c"},"vehicle_type_id":"4","last_reported":1761592088,"current_range_meters":14800,"station_id":"ce4bhch2rcd13ifvqeug","pricing_plan_id":"cebpf4jnsgd1na2vs0mg"},{"bike_id":"ee3ae1b1-780c-499e-b8b7-41bb6484eb30","system_id":"levelo_inurba_marseille","lat":43.30893,"lon":5.37176,"is_reserved":false,"is_disabled":false,"rental_uris":{"android":"levelo://app?vid=ee3ae1b1-780c-499e-b8b7-41bb6484eb30","ios":"levelo://app?vid=ee3ae1b1-780c-499e-b8b7-41bb6484eb30"},"vehicle_type_id":"4","last_reported":1761592088,"current_range_meters":14800,"station_id":"ce4bguh2rcd13ifvqckg","pricing_plan_id":"cebpf4jnsgd1na2vs0mg"},{"bike_id":"6c585561-4c2e-41e3-a06c-bbe123b248dd","system_id":"levelo_inurba_marseille","lat":43.307861,"lon":5.376541,"is_reserved":false,"is_disabled":false,"rental_uris":{"android":"levelo://app?vid=6c585561-4c2e-41e3-a06c-bbe123b248dd","ios":"levelo://app?vid=6c585561-4c2e-41e3-a06c-bbe123b248dd"},"vehicle_type_id":"4","last_reported":1761592088,"current_range_meters":14800,"station_id":"ce4bhp12rcd13ifvqh9g","pricing_plan_id":"cebpf4jnsgd1na2vs0mg"},{"bike_id":"7cf658ae-9423-48c9-8475-74542d756be3","system_id":"levelo_inurba_marseille","lat":43.28935,"lon":5.36632,"is_reserved":false,"is_disabled":false,"rental_uris":{"android":"levelo://app?vid=7cf658ae-9423-48c9-8475-74542d756be3","ios":"levelo://app?vid=7cf658ae-9423-48c9-8475-74542d756be3"},"vehicle_type_id":"4","last_reported":1761592088,"current_range_meters":14800,"station_id":"ce4bhap2rcd13ifvqek0","pricing_plan_id":"cebpf4jnsgd1na2vs0mg"},{"bike_id":"26d57427-b2ea-4811-baf7-21e356d49b53","system_id":"levelo_inurba_marseille","lat":43.30255,"lon":5.40078,"is_reserved":false,"is_disabled":false,"rental_uris":{"android":"levelo://app?vid=26d57427-b2ea-4811-baf7-21e356d49b53","ios":"levelo://app?vid=26d57427-b2ea-4811-baf7-21e356d49b53"},"vehicle_type_id":"4","last_reported":1761592088,"current_range_meters":14800,"station_id":"ce4bgvh2rcd13ifvqcs0","pricing_plan_id":"cebpf4jnsgd1na2vs0mg"},{"bike_id":"30fb2cde-d9fd-40ac-bedf-d73a6980ec0f","system_id":"levelo_inurba_marseille","lat":43.302969,"lon":5.368839,"is_reserved":false,"is_disabled":false,"rental_uris":{"android":"levelo://app?vid=30fb2cde-d9fd-40ac-bedf-d73a6980ec0f","ios":"levelo://app?vid=30fb2cde-d9fd-40ac-bedf-d73a6980ec0f"},"vehicle_type_id":"4","last_reported":1761592088,"current_range_meters":14800,"station_id":"","pricing_plan_id":"cebpf4jnsgd1na2vs0mg"},{"bike_id":"207f3e1b-6ed3-435b-ab8a-2228c0f61742","system_id":"levelo_inurba_marseille","lat":43.31763,"lon":5.39007,"is_reserved":false,"is_disabled":false,"rental_uris":{"android":"levelo://app?vid=207f3e1b-6ed3-435b-ab8a-2228c0f61742","ios":"levelo://app?vid=207f3e1b-6ed3-435b-ab8a-2228c0f61742"},"vehicle_type_id":"4","last_reported":1761592088,"current_range_meters":14800,"station_id":"ce4bhqp2rcd13ifvqhng","pricing_plan_id":"cebpf4jnsgd1na2vs0mg"},{"bike_id":"cb7f068c-39ce-4be0-b9b9-05a5ac0d4c21","system_id":"levelo_inurba_marseille","lat":43.24632,"lon":5.43145,"is_reserved":false,"is_disabled":false,"rental_uris":{"android":"levelo://app?vid=cb7f068c-39ce-4be0-b9b9-05a5ac0d4c21","ios":"levelo://app?vid=cb7f068c-39ce-4be0-b9b9-05a5ac0d4c21"},"vehicle_type_id":"4","last_reported":1761592088,"current_range_meters":14800,"station_id":"st_d2m6c4gdas8pm72e190g","pricing_plan_id":"cebpf4jnsgd1na2vs0mg"},{"bike_id":"4d484170-abe0-4870-a69f-28d560590073","system_id":"levelo_inurba_marseille","lat":43.30248,"lon":5.40062,"is_reserved":false,"is_disabled":false,"rental_uris":{"android":"levelo://app?vid=4d484170-abe0-4870-a69f-28d560590073","ios":"levelo://app?vid=4d484170-abe0-4870-a69f-28d560590073"},"vehicle_type_id":"4","last_reported":1761592088,"current_range_meters":15200,"station_id":"ce4bgvh2rcd13ifvqcs0","pricing_plan_id":"cebpf4jnsgd1na2vs0mg"},{"bike_id":"32e77a2c-5674-499e-b96b-be7fe1a9b1b5","system_id":"levelo_inurba_marseille","lat":43.30191,"lon":5.3662,"is_reserved":false,"is_disabled":false,"rental_uris":{"android":"levelo://app?vid=32e77a2c-5674-499e-b96b-be7fe1a9b1b5","ios":"levelo://app?vid=32e77a2c-5674-499e-b96b-be7fe1a9b1b5"},"vehicle_type_id":"4","last_reported":1761592088,"current_range_meters":15200,"station_id":"ce4bgrh2rcd13ifvqc8g","pricing_plan_id":"cebpf4jnsgd1na2vs0mg"},{"bike_id":"10f8de54-45d5-499e-8d07-a534eff23f0a","system_id":"levelo_inurba_marseille","lat":43.3025,"lon":5.40069,"is_reserved":false,"is_disabled":false,"rental_uris":{"android":"levelo://app?vid=10f8de54-45d5-499e-8d07-a534eff23f0a","ios":"levelo://app?vid=10f8de54-45d5-499e-8d07-a534eff23f0a"},"vehicle_type_id":"4","last_reported":1761592088,"current_range_meters":15200,"station_id":"ce4bgvh2rcd13ifvqcs0","pricing_plan_id":"cebpf4jnsgd1na2vs0mg"},{"bike_id":"21dbf7f2-eb19-4663-b1c0-879822879492","system_id":"levelo_inurba_marseille","lat":43.337631,"lon":5.374577,"is_reserved":false,"is_disabled":false,"rental_uris":{"android":"levelo://app?vid=21dbf7f2-eb19-4663-b1c0-879822879492","ios":"levelo://app?vid=21dbf7f2-eb19-4663-b1c0-879822879492"},"vehicle_type_id":"4","last_reported":1761592088,"current_range_meters":15200,"station_id":"","pricing_plan_id":"cebpf4jnsgd1na2vs0mg"},{"bike_id":"c36d6923-e898-4369-b223-9bd47a9c0292","system_id":"levelo_inurba_marseille","lat":43.288485,"lon":5.393117,"is_reserved":false,"is_disabled":false,"rental_uris":{"android":"levelo://app?vid=c36d6923-e898-4369-b223-9bd47a9c0292","ios":"levelo://app?vid=c36d6923-e898-4369-b223-9bd47a9c0292"},"vehicle_type_id":"4","last_reported":1761592088,"current_range_meters":16000,"station_id":"ce4bh2p2rcd13ifvqdi0","pricing_plan_id":"cebpf4jnsgd1na2vs0mg"},{"bike_id":"18088c08-6235-47bd-9f7a-926c56c478c9","system_id":"levelo_inurba_marseille","lat":43.299106,"lon":5.381437,"is_reserved":false,"is_disabled":false,"rental_uris":{"android":"levelo://app?vid=18088c08-6235-47bd-9f7a-926c56c478c9","ios":"levelo://app?vid=18088c08-6235-47bd-9f7a-926c56c478c9"},"vehicle_type_id":"4","last_reported":1761592088,"current_range_meters":16000,"station_id":"ce4bgj12rcd13ifvqbc0","pricing_plan_id":"cebpf4jnsgd1na2vs0mg"},{"bike_id":"afee1c76-71b2-4120-93ef-f818cafd9df0","system_id":"levelo_inurba_marseille","lat":43.29523,"lon":5.39397,"is_reserved":false,"is_disabled":false,"rental_uris":{"android":"levelo://app?vid=afee1c76-71b2-4120-93ef-f818cafd9df0","ios":"levelo://app?vid=afee1c76-71b2-4120-93ef-f818cafd9df0"},"vehicle_type_id":"4","last_reported":1761592088,"current_range_meters":16000,"station_id":"ce4bh292rcd13ifvqdf0","pricing_plan_id":"cebpf4jnsgd1na2vs0mg"},{"bike_id":"9f2bff64-4885-4ae4-adfa-9247578f5b29","system_id":"levelo_inurba_marseille","lat":43.292926,"lon":5.406073,"is_reserved":false,"is_disabled":false,"rental_uris":{"android":"levelo://app?vid=9f2bff64-4885-4ae4-adfa-9247578f5b29","ios":"levelo://app?vid=9f2bff64-4885-4ae4-adfa-9247578f5b29"},"vehicle_type_id":"4","last_reported":1761592088,"current_range_meters":16000,"station_id":"ce4bh192rcd13ifvqdc0","pricing_plan_id":"cebpf4jnsgd1na2vs0mg"},{"bike_id":"0045d293-fc25-4f9a-9434-47036bd87e67","system_id":"levelo_inurba_marseille","lat":43.229289,"lon":5.35376,"is_reserved":false,"is_disabled":false,"rental_uris":{"android":"levelo://app?vid=0045d293-fc25-4f9a-9434-47036bd87e67","ios":"levelo://app?vid=0045d293-fc25-4f9a-9434-47036bd87e67"},"vehicle_type_id":"4","last_reported":1761592088,"current_range_meters":16000,"station_id":"cpo3532slgdg3j2ikp40","pricing_plan_id":"cebpf4jnsgd1na2vs0mg"},{"bike_id":"507a6194-3500-47da-bba0-ad801aa7b875","system_id":"levelo_inurba_marseille","lat":43.24399,"lon":5.37046,"is_reserved":false,"is_disabled":false,"rental_uris":{"android":"levelo://app?vid=507a6194-3500-47da-bba0-ad801aa7b875","ios":"levelo://app?vid=507a6194-3500-47da-bba0-ad801aa7b875"},"vehicle_type_id":"4","last_reported":1761592088,"current_range_meters":16000,"station_id":"ce4bhhh2rcd13ifvqfk0","pricing_plan_id":"cebpf4jnsgd1na2vs0mg"},{"bike_id":"d9c89d14-ffce-46f4-8ae6-64b1c7d2adfc","system_id":"levelo_inurba_marseille","lat":43.295433,"lon":5.385447,"is_reserved":false,"is_disabled":false,"rental_uris":{"android":"levelo://app?vid=d9c89d14-ffce-46f4-8ae6-64b1c7d2adfc","ios":"levelo://app?vid=d9c89d14-ffce-46f4-8ae6-64b1c7d2adfc"},"vehicle_type_id":"4","last_reported":1761592088,"current_range_meters":16000,"station_id":"ce4bgih2rcd13ifvqba0","pricing_plan_id":"cebpf4jnsgd1na2vs0mg"},{"bike_id":"6448df28-18c5-4251-b6f0-af469e90f2e6","system_id":"levelo_inurba_marseille","lat":43.31187,"lon":5.38709,"is_reserved":false,"is_disabled":false,"rental_uris":{"android":"levelo://app?vid=6448df28-18c5-4251-b6f0-af469e90f2e6","ios":"levelo://app?vid=6448df28-18c5-4251-b6f0-af469e90f2e6"},"vehicle_type_id":"4","last_reported":1761592088,"current_range_meters":16000,"station_id":"ce4bgv12rcd13ifvqcp0","pricing_plan_id":"cebpf4jnsgd1na2vs0mg"},{"bike_id":"13e416b0-1824-4e43-b78f-55e46e4f709f","system_id":"levelo_inurba_marseille","lat":43.27809,"lon":5.39205,"is_reserved":false,"is_disabled":false,"rental_uris":{"android":"levelo://app?vid=13e416b0-1824-4e43-b78f-55e46e4f709f","ios":"levelo://app?vid=13e416b0-1824-4e43-b78f-55e46e4f709f"},"vehicle_type_id":"4","last_reported":1761592088,"current_range_meters":16000,"station_id":"ce4bhjp2rcd13ifvqga0","pricing_plan_id":"cebpf4jnsgd1na2vs0mg"},{"bike_id":"2cf644fd-b8cd-429f-8320-7ca52ce7abde","system_id":"levelo_inurba_marseille","lat":43.28854,"lon":5.39305,"is_reserved":false,"is_disabled":false,"rental_uris":{"android":"levelo://app?vid=2cf644fd-b8cd-429f-8320-7ca52ce7abde","ios":"levelo://app?vid=2cf644fd-b8cd-429f-8320-7ca52ce7abde"},"vehicle_type_id":"4","last_reported":1761592088,"current_range_meters":16000,"station_id":"ce4bh2p2rcd13ifvqdi0","pricing_plan_id":"cebpf4jnsgd1na2vs0mg"},{"bike_id":"d962fb9a-4f39-4899-8933-9e6dd4158eaa","system_id":"levelo_inurba_marseille","lat":43.29761,"lon":5.42783,"is_reserved":false,"is_disabled":false,"rental_uris":{"android":"levelo://app?vid=d962fb9a-4f39-4899-8933-9e6dd4158eaa","ios":"levelo://app?vid=d962fb9a-4f39-4899-8933-9e6dd4158eaa"},"vehicle_type_id":"4","last_reported":1761592088,"current_range_meters":16400,"station_id":"st_d3md5207bmas73dh9klg","pricing_plan_id":"cebpf4jnsgd1na2vs0mg"},{"bike_id":"61582872-d791-4b1e-b140-850838a7e879","system_id":"levelo_inurba_marseille","lat":43.24185,"lon":5.36393,"is_reserved":false,"is_disabled":false,"rental_uris":{"android":"levelo://app?vid=61582872-d791-4b1e-b140-850838a7e879","ios":"levelo://app?vid=61582872-d791-4b1e-b140-850838a7e879"},"vehicle_type_id":"4","last_reported":1761592088,"current_range_meters":16400,"station_id":"cpo36qri1sfpv3e86is0","pricing_plan_id":"cebpf4jnsgd1na2vs0mg"},{"bike_id":"32a926a2-77c8-43a1-86bc-8d4b9dda0244","system_id":"levelo_inurba_marseille","lat":43.28458,"lon":5.3588,"is_reserved":false,"is_disabled":false,"rental_uris":{"android":"levelo://app?vid=32a926a2-77c8-43a1-86bc-8d4b9dda0244","ios":"levelo://app?vid=32a926a2-77c8-43a1-86bc-8d4b9dda0244"},"vehicle_type_id":"4","last_reported":1761592088,"current_range_meters":16400,"station_id":"ce4bhah2rcd13ifvqei0","pricing_plan_id":"cebpf4jnsgd1na2vs0mg"},{"bike_id":"13b6a6b6-4997-40a0-861f-460de0cd5056","system_id":"levelo_inurba_marseille","lat":43.25586,"lon":5.38242,"is_reserved":false,"is_disabled":false,"rental_uris":{"android":"levelo://app?vid=13b6a6b6-4997-40a0-861f-460de0cd5056","ios":"levelo://app?vid=13b6a6b6-4997-40a0-861f-460de0cd5056"},"vehicle_type_id":"4","last_reported":1761592088,"current_range_meters":16400,"station_id":"ce4bhih2rcd13ifvqfs0","pricing_plan_id":"cebpf4jnsgd1na2vs0mg"},{"bike_id":"f0eb90ee-1135-4753-8042-a8905f5cd276","system_id":"levelo_inurba_marseille","lat":43.26567,"lon":5.39018,"is_reserved":false,"is_disabled":false,"rental_uris":{"android":"levelo://app?vid=f0eb90ee-1135-4753-8042-a8905f5cd276","ios":"levelo://app?vid=f0eb90ee-1135-4753-8042-a8905f5cd276"},"vehicle_type_id":"4","last_reported":1761592088,"current_range_meters":16400,"station_id":"ce4bhe12rcd13ifvqf30","pricing_plan_id":"cebpf4jnsgd1na2vs0mg"},{"bike_id":"595b9055-888d-4a8b-89e8-b8a1d6f98ff7","system_id":"levelo_inurba_marseille","lat":43.29547,"lon":5.38546,"is_reserved":false,"is_disabled":false,"rental_uris":{"android":"levelo://app?vid=595b9055-888d-4a8b-89e8-b8a1d6f98ff7","ios":"levelo://app?vid=595b9055-888d-4a8b-89e8-b8a1d6f98ff7"},"vehicle_type_id":"4","last_reported":1761592088,"current_range_meters":16400,"station_id":"ce4bgih2rcd13ifvqba0","pricing_plan_id":"cebpf4jnsgd1na2vs0mg"},{"bike_id":"9fbd96ee-563a-43f7-87fd-6fffaeedac55","system_id":"levelo_inurba_marseille","lat":43.25824,"lon":5.39911,"is_reserved":false,"is_disabled":true,"rental_uris":{"android":"levelo://app?vid=9fbd96ee-563a-43f7-87fd-6fffaeedac55","ios":"levelo://app?vid=9fbd96ee-563a-43f7-87fd-6fffaeedac55"},"vehicle_type_id":"4","last_reported":1761592088,"current_range_meters":16400,"station_id":"ce4bhl92rcd13ifvqghg","pricing_plan_id":"cebpf4jnsgd1na2vs0mg"},{"bike_id":"b1a13ed2-a977-4f71-b206-ab34a7f83b41","system_id":"levelo_inurba_marseille","lat":43.32368,"lon":5.38908,"is_reserved":false,"is_disabled":false,"rental_uris":{"android":"levelo://app?vid=b1a13ed2-a977-4f71-b206-ab34a7f83b41","ios":"levelo://app?vid=b1a13ed2-a977-4f71-b206-ab34a7f83b41"},"vehicle_type_id":"4","last_reported":1761592088,"current_range_meters":16400,"station_id":"ce4bhqp2rcd13ifvqhog","pricing_plan_id":"cebpf4jnsgd1na2vs0mg"},{"bike_id":"266488d3-4677-4b2c-b163-8d1ad61d8414","system_id":"levelo_inurba_marseille","lat":43.28503,"lon":5.38446,"is_reserved":false,"is_disabled":true,"rental_uris":{"android":"levelo://app?vid=266488d3-4677-4b2c-b163-8d1ad61d8414","ios":"levelo://app?vid=266488d3-4677-4b2c-b163-8d1ad61d8414"},"vehicle_type_id":"4","last_reported":1761592088,"current_range_meters":16400,"station_id":"ce4bh512rcd13ifvqe3g","pricing_plan_id":"cebpf4jnsgd1na2vs0mg"},{"bike_id":"d5ca831f-8041-403e-ada8-7b4196c3d5be","system_id":"levelo_inurba_marseille","lat":43.293714,"lon":5.379385,"is_reserved":false,"is_disabled":false,"rental_uris":{"android":"levelo://app?vid=d5ca831f-8041-403e-ada8-7b4196c3d5be","ios":"levelo://app?vid=d5ca831f-8041-403e-ada8-7b4196c3d5be"},"vehicle_type_id":"4","last_reported":1761592088,"current_range_meters":16400,"station_id":"","pricing_plan_id":"cebpf4jnsgd1na2vs0mg"},{"bike_id":"874591d8-e407-49af-b2d3-95e72c4a2de2","system_id":"levelo_inurba_marseille","lat":43.26482,"lon":5.39552,"is_reserved":false,"is_disabled":false,"rental_uris":{"android":"levelo://app?vid=874591d8-e407-49af-b2d3-95e72c4a2de2","ios":"levelo://app?vid=874591d8-e407-49af-b2d3-95e72c4a2de2"},"vehicle_type_id":"4","last_reported":1761592088,"current_range_meters":16400,"station_id":"ce4bhi12rcd13ifvqfq0","pricing_plan_id":"cebpf4jnsgd1na2vs0mg"},{"bike_id":"78825769-cf11-48fc-beea-f2658330aaa5","system_id":"levelo_inurba_marseille","lat":43.29543,"lon":5.3854,"is_reserved":false,"is_disabled":false,"rental_uris":{"android":"levelo://app?vid=78825769-cf11-48fc-beea-f2658330aaa5","ios":"levelo://app?vid=78825769-cf11-48fc-beea-f2658330aaa5"},"vehicle_type_id":"4","last_reported":1761592088,"current_range_meters":16800,"station_id":"ce4bgih2rcd13ifvqba0","pricing_plan_id":"cebpf4jnsgd1na2vs0mg"},{"bike_id":"7b1b6fda-acbf-4bcc-9c4e-eb02a7bb672a","system_id":"levelo_inurba_marseille","lat":43.24165,"lon":5.36391,"is_reserved":false,"is_disabled":false,"rental_uris":{"android":"levelo://app?vid=7b1b6fda-acbf-4bcc-9c4e-eb02a7bb672a","ios":"levelo://app?vid=7b1b6fda-acbf-4bcc-9c4e-eb02a7bb672a"},"vehicle_type_id":"4","last_reported":1761592088,"current_range_meters":16800,"station_id":"cpo36qri1sfpv3e86is0","pricing_plan_id":"cebpf4jnsgd1na2vs0mg"},{"bike_id":"c67ae694-23a2-454f-927a-f51983af8d58","system_id":"levelo_inurba_marseille","lat":43.28967,"lon":5.36658,"is_reserved":false,"is_disabled":false,"rental_uris":{"android":"levelo://app?vid=c67ae694-23a2-454f-927a-f51983af8d58","ios":"levelo://app?vid=c67ae694-23a2-454f-927a-f51983af8d58"},"vehicle_type_id":"4","last_reported":1761592088,"current_range_meters":16800,"station_id":"","pricing_plan_id":"cebpf4jnsgd1na2vs0mg"},{"bike_id":"d7b556e6-ac3d-4fe4-b136-c7cd05c756e3","system_id":"levelo_inurba_marseille","lat":43.23097,"lon":5.35512,"is_reserved":false,"is_disabled":false,"rental_uris":{"android":"levelo://app?vid=d7b556e6-ac3d-4fe4-b136-c7cd05c756e3","ios":"levelo://app?vid=d7b556e6-ac3d-4fe4-b136-c7cd05c756e3"},"vehicle_type_id":"4","last_reported":1761592088,"current_range_meters":16800,"station_id":"","pricing_plan_id":"cebpf4jnsgd1na2vs0mg"},{"bike_id":"0fc77fbd-33b9-4397-81a7-07deca3f85be","system_id":"levelo_inurba_marseille","lat":43.26033,"lon":5.37545,"is_reserved":false,"is_disabled":false,"rental_uris":{"android":"levelo://app?vid=0fc77fbd-33b9-4397-81a7-07deca3f85be","ios":"levelo://app?vid=0fc77fbd-33b9-4397-81a7-07deca3f85be"},"vehicle_type_id":"4","last_reported":1761592088,"current_range_meters":16800,"station_id":"ce4bhgh2rcd13ifvqfa0","pricing_plan_id":"cebpf4jnsgd1na2vs0mg"},{"bike_id":"3db6a2dd-fe1c-402c-86db-98bcbba6d226","system_id":"levelo_inurba_marseille","lat":43.30143,"lon":5.39876,"is_reserved":false,"is_disabled":false,"rental_uris":{"android":"levelo://app?vid=3db6a2dd-fe1c-402c-86db-98bcbba6d226","ios":"levelo://app?vid=3db6a2dd-fe1c-402c-86db-98bcbba6d226"},"vehicle_type_id":"4","last_reported":1761592088,"current_range_meters":16800,"station_id":"ce4bh0h2rcd13ifvqd40","pricing_plan_id":"cebpf4jnsgd1na2vs0mg"},{"bike_id":"9c9a2425-94c4-43e1-8d16-7c7ef42929ef","system_id":"levelo_inurba_marseille","lat":43.29531,"lon":5.38542,"is_reserved":false,"is_disabled":false,"rental_uris":{"android":"levelo://app?vid=9c9a2425-94c4-43e1-8d16-7c7ef42929ef","ios":"levelo://app?vid=9c9a2425-94c4-43e1-8d16-7c7ef42929ef"},"vehicle_type_id":"4","last_reported":1761592088,"current_range_meters":16800,"station_id":"ce4bgih2rcd13ifvqba0","pricing_plan_id":"cebpf4jnsgd1na2vs0mg"},{"bike_id":"a5e47790-056f-4504-b7d8-e054f808d787","system_id":"levelo_inurba_marseille","lat":43.30431,"lon":5.38891,"is_reserved":false,"is_disabled":false,"rental_uris":{"android":"levelo://app?vid=a5e47790-056f-4504-b7d8-e054f808d787","ios":"levelo://app?vid=a5e47790-056f-4504-b7d8-e054f808d787"},"vehicle_type_id":"4","last_reported":1761592088,"current_range_meters":16800,"station_id":"ce4bgk12rcd13ifvqbi0","pricing_plan_id":"cebpf4jnsgd1na2vs0mg"},{"bike_id":"a630ed88-3f05-4926-bbab-8387ab6b6a28","system_id":"levelo_inurba_marseille","lat":43.23169,"lon":5.43691,"is_reserved":false,"is_disabled":true,"rental_uris":{"android":"levelo://app?vid=a630ed88-3f05-4926-bbab-8387ab6b6a28","ios":"levelo://app?vid=a630ed88-3f05-4926-bbab-8387ab6b6a28"},"vehicle_type_id":"4","last_reported":1761592088,"current_range_meters":16800,"station_id":"ce4bhmp2rcd13ifvqgog","pricing_plan_id":"cebpf4jnsgd1na2vs0mg"},{"bike_id":"f8283462-9ef3-42fc-9902-05774b9ee389","system_id":"levelo_inurba_marseille","lat":43.28156,"lon":5.4262,"is_reserved":false,"is_disabled":false,"rental_uris":{"android":"levelo://app?vid=f8283462-9ef3-42fc-9902-05774b9ee389","ios":"levelo://app?vid=f8283462-9ef3-42fc-9902-05774b9ee389"},"vehicle_type_id":"4","last_reported":1761592088,"current_range_meters":16800,"station_id":"ce4bhnh2rcd13ifvqgug","pricing_plan_id":"cebpf4jnsgd1na2vs0mg"},{"bike_id":"15e7b709-b24d-41d3-aef5-a693b0f53e5b","system_id":"levelo_inurba_marseille","lat":43.29537,"lon":5.38539,"is_reserved":false,"is_disabled":false,"rental_uris":{"android":"levelo://app?vid=15e7b709-b24d-41d3-aef5-a693b0f53e5b","ios":"levelo://app?vid=15e7b709-b24d-41d3-aef5-a693b0f53e5b"},"vehicle_type_id":"4","last_reported":1761592088,"current_range_meters":16800,"station_id":"ce4bgih2rcd13ifvqba0","pricing_plan_id":"cebpf4jnsgd1na2vs0mg"},{"bike_id":"db88a8a5-5637-4384-a6d7-41d8f099747a","system_id":"levelo_inurba_marseille","lat":43.312379,"lon":5.368484,"is_reserved":false,"is_disabled":false,"rental_uris":{"android":"levelo://app?vid=db88a8a5-5637-4384-a6d7-41d8f099747a","ios":"levelo://app?vid=db88a8a5-5637-4384-a6d7-41d8f099747a"},"vehicle_type_id":"4","last_reported":1761592088,"current_range_meters":17200,"station_id":"ce4bgr92rcd13ifvqc6g","pricing_plan_id":"cebpf4jnsgd1na2vs0mg"},{"bike_id":"883bc9b4-cfb9-4127-8706-5d33bb052860","system_id":"levelo_inurba_marseille","lat":43.24789,"lon":5.37466,"is_reserved":false,"is_disabled":false,"rental_uris":{"android":"levelo://app?vid=883bc9b4-cfb9-4127-8706-5d33bb052860","ios":"levelo://app?vid=883bc9b4-cfb9-4127-8706-5d33bb052860"},"vehicle_type_id":"4","last_reported":1761592088,"current_range_meters":17200,"station_id":"ce4bhgh2rcd13ifvqfb0","pricing_plan_id":"cebpf4jnsgd1na2vs0mg"},{"bike_id":"29283b19-8cb7-4629-bfcd-37dcb369e8b8","system_id":"levelo_inurba_marseille","lat":43.28941,"lon":5.36629,"is_reserved":false,"is_disabled":false,"rental_uris":{"android":"levelo://app?vid=29283b19-8cb7-4629-bfcd-37dcb369e8b8","ios":"levelo://app?vid=29283b19-8cb7-4629-bfcd-37dcb369e8b8"},"vehicle_type_id":"4","last_reported":1761592088,"current_range_meters":17200,"station_id":"ce4bhap2rcd13ifvqek0","pricing_plan_id":"cebpf4jnsgd1na2vs0mg"},{"bike_id":"788d35c5-5925-408c-9a41-f1e8ba910495","system_id":"levelo_inurba_marseille","lat":43.31474,"lon":5.37278,"is_reserved":false,"is_disabled":false,"rental_uris":{"android":"levelo://app?vid=788d35c5-5925-408c-9a41-f1e8ba910495","ios":"levelo://app?vid=788d35c5-5925-408c-9a41-f1e8ba910495"},"vehicle_type_id":"4","last_reported":1761592088,"current_range_meters":17200,"station_id":"","pricing_plan_id":"cebpf4jnsgd1na2vs0mg"},{"bike_id":"6e71b972-d279-435f-b20d-ed8a5fd1de21","system_id":"levelo_inurba_marseille","lat":43.29561,"lon":5.38536,"is_reserved":false,"is_disabled":false,"rental_uris":{"android":"levelo://app?vid=6e71b972-d279-435f-b20d-ed8a5fd1de21","ios":"levelo://app?vid=6e71b972-d279-435f-b20d-ed8a5fd1de21"},"vehicle_type_id":"4","last_reported":1761592088,"current_range_meters":17200,"station_id":"ce4bgih2rcd13ifvqba0","pricing_plan_id":"cebpf4jnsgd1na2vs0mg"},{"bike_id":"74cd8338-a4b2-42fe-9981-9f2d2909db46","system_id":"levelo_inurba_marseille","lat":43.29525,"lon":5.39041,"is_reserved":false,"is_disabled":false,"rental_uris":{"android":"levelo://app?vid=74cd8338-a4b2-42fe-9981-9f2d2909db46","ios":"levelo://app?vid=74cd8338-a4b2-42fe-9981-9f2d2909db46"},"vehicle_type_id":"4","last_reported":1761592088,"current_range_meters":17600,"station_id":"ce4bh3p2rcd13ifvqdp0","pricing_plan_id":"cebpf4jnsgd1na2vs0mg"},{"bike_id":"6201f8aa-5536-4d54-8d38-ab4667dc2485","system_id":"levelo_inurba_marseille","lat":43.23152,"lon":5.43715,"is_reserved":false,"is_disabled":false,"rental_uris":{"android":"levelo://app?vid=6201f8aa-5536-4d54-8d38-ab4667dc2485","ios":"levelo://app?vid=6201f8aa-5536-4d54-8d38-ab4667dc2485"},"vehicle_type_id":"4","last_reported":1761592088,"current_range_meters":17600,"station_id":"ce4bhmp2rcd13ifvqgog","pricing_plan_id":"cebpf4jnsgd1na2vs0mg"},{"bike_id":"375de74a-a6d2-44a3-b043-8387ee6c02b5","system_id":"levelo_inurba_marseille","lat":43.27496,"lon":5.42464,"is_reserved":false,"is_disabled":false,"rental_uris":{"android":"levelo://app?vid=375de74a-a6d2-44a3-b043-8387ee6c02b5","ios":"levelo://app?vid=375de74a-a6d2-44a3-b043-8387ee6c02b5"},"vehicle_type_id":"4","last_reported":1761592088,"current_range_meters":17600,"station_id":"ce4bhn92rcd13ifvqgrg","pricing_plan_id":"cebpf4jnsgd1na2vs0mg"},{"bike_id":"b9b7d8cd-773e-4f8d-8b02-c134bfe969e7","system_id":"levelo_inurba_marseille","lat":43.284105,"lon":5.349772,"is_reserved":false,"is_disabled":false,"rental_uris":{"android":"levelo://app?vid=b9b7d8cd-773e-4f8d-8b02-c134bfe969e7","ios":"levelo://app?vid=b9b7d8cd-773e-4f8d-8b02-c134bfe969e7"},"vehicle_type_id":"4","last_reported":1761592088,"current_range_meters":17600,"station_id":"ce4bhbh2rcd13ifvqepg","pricing_plan_id":"cebpf4jnsgd1na2vs0mg"},{"bike_id":"70c57b2c-44e1-4b66-921d-a18927a7fdf5","system_id":"levelo_inurba_marseille","lat":43.2604,"lon":5.37552,"is_reserved":false,"is_disabled":false,"rental_uris":{"android":"levelo://app?vid=70c57b2c-44e1-4b66-921d-a18927a7fdf5","ios":"levelo://app?vid=70c57b2c-44e1-4b66-921d-a18927a7fdf5"},"vehicle_type_id":"4","last_reported":1761592088,"current_range_meters":17600,"station_id":"ce4bhgh2rcd13ifvqfa0","pricing_plan_id":"cebpf4jnsgd1na2vs0mg"},{"bike_id":"e1ca1064-3ac1-495e-b8d2-df8047d11b2e","system_id":"levelo_inurba_marseille","lat":43.28477,"lon":5.48382,"is_reserved":false,"is_disabled":false,"rental_uris":{"android":"levelo://app?vid=e1ca1064-3ac1-495e-b8d2-df8047d11b2e","ios":"levelo://app?vid=e1ca1064-3ac1-495e-b8d2-df8047d11b2e"},"vehicle_type_id":"4","last_reported":1761592088,"current_range_meters":17600,"station_id":"st_d3svhcjqgbts73a3dn0g","pricing_plan_id":"cebpf4jnsgd1na2vs0mg"},{"bike_id":"0cb31705-eb96-4557-ab4a-e877714da55c","system_id":"levelo_inurba_marseille","lat":43.31169,"lon":5.38716,"is_reserved":false,"is_disabled":false,"rental_uris":{"android":"levelo://app?vid=0cb31705-eb96-4557-ab4a-e877714da55c","ios":"levelo://app?vid=0cb31705-eb96-4557-ab4a-e877714da55c"},"vehicle_type_id":"4","last_reported":1761592088,"current_range_meters":17600,"station_id":"ce4bgv12rcd13ifvqcp0","pricing_plan_id":"cebpf4jnsgd1na2vs0mg"},{"bike_id":"32a444c0-ff8d-4a61-8c24-5fa13742cb61","system_id":"levelo_inurba_marseille","lat":43.28687,"lon":5.38667,"is_reserved":false,"is_disabled":false,"rental_uris":{"android":"levelo://app?vid=32a444c0-ff8d-4a61-8c24-5fa13742cb61","ios":"levelo://app?vid=32a444c0-ff8d-4a61-8c24-5fa13742cb61"},"vehicle_type_id":"4","last_reported":1761592088,"current_range_meters":18000,"station_id":"ce4bh492rcd13ifvqdug","pricing_plan_id":"cebpf4jnsgd1na2vs0mg"},{"bike_id":"310e927d-d5b8-4a6f-82be-2d623690659d","system_id":"levelo_inurba_marseille","lat":43.3129,"lon":5.37794,"is_reserved":false,"is_disabled":false,"rental_uris":{"android":"levelo://app?vid=310e927d-d5b8-4a6f-82be-2d623690659d","ios":"levelo://app?vid=310e927d-d5b8-4a6f-82be-2d623690659d"},"vehicle_type_id":"4","last_reported":1761592088,"current_range_meters":18000,"station_id":"","pricing_plan_id":"cebpf4jnsgd1na2vs0mg"},{"bike_id":"4d166009-4ea7-4ae0-b0d1-9b30d6cb8a98","system_id":"levelo_inurba_marseille","lat":43.31528,"lon":5.38034,"is_reserved":false,"is_disabled":false,"rental_uris":{"android":"levelo://app?vid=4d166009-4ea7-4ae0-b0d1-9b30d6cb8a98","ios":"levelo://app?vid=4d166009-4ea7-4ae0-b0d1-9b30d6cb8a98"},"vehicle_type_id":"4","last_reported":1761592088,"current_range_meters":18000,"station_id":"ce4bhsp2rcd13ifvqi50","pricing_plan_id":"cebpf4jnsgd1na2vs0mg"},{"bike_id":"aadc6893-1401-4a17-9f58-cb0c319638b0","system_id":"levelo_inurba_marseille","lat":43.27909,"lon":5.39579,"is_reserved":false,"is_disabled":false,"rental_uris":{"android":"levelo://app?vid=aadc6893-1401-4a17-9f58-cb0c319638b0","ios":"levelo://app?vid=aadc6893-1401-4a17-9f58-cb0c319638b0"},"vehicle_type_id":"4","last_reported":1761592088,"current_range_meters":18000,"station_id":"ce4bhf92rcd13ifvqf40","pricing_plan_id":"cebpf4jnsgd1na2vs0mg"},{"bike_id":"9199c4e4-9055-4bcd-ab08-08feb765f3b6","system_id":"levelo_inurba_marseille","lat":43.282416,"lon":5.379112,"is_reserved":false,"is_disabled":false,"rental_uris":{"android":"levelo://app?vid=9199c4e4-9055-4bcd-ab08-08feb765f3b6","ios":"levelo://app?vid=9199c4e4-9055-4bcd-ab08-08feb765f3b6"},"vehicle_type_id":"4","last_reported":1761592088,"current_range_meters":18000,"station_id":"ce4bha12rcd13ifvqee0","pricing_plan_id":"cebpf4jnsgd1na2vs0mg"},{"bike_id":"d5a49dbd-284f-44d1-bf21-988be425a5e5","system_id":"levelo_inurba_marseille","lat":43.25582,"lon":5.38241,"is_reserved":false,"is_disabled":true,"rental_uris":{"android":"levelo://app?vid=d5a49dbd-284f-44d1-bf21-988be425a5e5","ios":"levelo://app?vid=d5a49dbd-284f-44d1-bf21-988be425a5e5"},"vehicle_type_id":"4","last_reported":1761592088,"current_range_meters":18000,"station_id":"ce4bhih2rcd13ifvqfs0","pricing_plan_id":"cebpf4jnsgd1na2vs0mg"},{"bike_id":"8957da31-2549-4ab6-abc0-615293ac1acd","system_id":"levelo_inurba_marseille","lat":43.26571,"lon":5.39001,"is_reserved":false,"is_disabled":true,"rental_uris":{"android":"levelo://app?vid=8957da31-2549-4ab6-abc0-615293ac1acd","ios":"levelo://app?vid=8957da31-2549-4ab6-abc0-615293ac1acd"},"vehicle_type_id":"4","last_reported":1761592088,"current_range_meters":18000,"station_id":"ce4bhe12rcd13ifvqf30","pricing_plan_id":"cebpf4jnsgd1na2vs0mg"},{"bike_id":"f490b8db-0660-4c12-ae72-f0ba5726287c","system_id":"levelo_inurba_marseille","lat":43.31124,"lon":5.37776,"is_reserved":false,"is_disabled":false,"rental_uris":{"android":"levelo://app?vid=f490b8db-0660-4c12-ae72-f0ba5726287c","ios":"levelo://app?vid=f490b8db-0660-4c12-ae72-f0ba5726287c"},"vehicle_type_id":"4","last_reported":1761592088,"current_range_meters":18000,"station_id":"ce4bgt92rcd13ifvqcg0","pricing_plan_id":"cebpf4jnsgd1na2vs0mg"},{"bike_id":"b0547b29-ebbb-4a2f-9050-9346c06dcd7d","system_id":"levelo_inurba_marseille","lat":43.27577,"lon":5.38425,"is_reserved":false,"is_disabled":false,"rental_uris":{"android":"levelo://app?vid=b0547b29-ebbb-4a2f-9050-9346c06dcd7d","ios":"levelo://app?vid=b0547b29-ebbb-4a2f-9050-9346c06dcd7d"},"vehicle_type_id":"4","last_reported":1761592088,"current_range_meters":18000,"station_id":"ce4bhh92rcd13ifvqfi0","pricing_plan_id":"cebpf4jnsgd1na2vs0mg"},{"bike_id":"84794921-69e3-4124-81c1-e188aeb4806f","system_id":"levelo_inurba_marseille","lat":43.291925,"lon":5.39318,"is_reserved":false,"is_disabled":false,"rental_uris":{"android":"levelo://app?vid=84794921-69e3-4124-81c1-e188aeb4806f","ios":"levelo://app?vid=84794921-69e3-4124-81c1-e188aeb4806f"},"vehicle_type_id":"4","last_reported":1761592088,"current_range_meters":18000,"station_id":"ce4bh192rcd13ifvqdd0","pricing_plan_id":"cebpf4jnsgd1na2vs0mg"},{"bike_id":"2f1672b1-3a1a-46c0-9536-6ee5f8fac4c8","system_id":"levelo_inurba_marseille","lat":43.311737,"lon":5.38721,"is_reserved":false,"is_disabled":false,"rental_uris":{"android":"levelo://app?vid=2f1672b1-3a1a-46c0-9536-6ee5f8fac4c8","ios":"levelo://app?vid=2f1672b1-3a1a-46c0-9536-6ee5f8fac4c8"},"vehicle_type_id":"4","last_reported":1761592088,"current_range_meters":18000,"station_id":"ce4bgv12rcd13ifvqcp0","pricing_plan_id":"cebpf4jnsgd1na2vs0mg"},{"bike_id":"303b1117-b58b-4d7f-be67-2161ed08ebe7","system_id":"levelo_inurba_marseille","lat":43.28943,"lon":5.36644,"is_reserved":false,"is_disabled":false,"rental_uris":{"android":"levelo://app?vid=303b1117-b58b-4d7f-be67-2161ed08ebe7","ios":"levelo://app?vid=303b1117-b58b-4d7f-be67-2161ed08ebe7"},"vehicle_type_id":"4","last_reported":1761592088,"current_range_meters":18800,"station_id":"ce4bhap2rcd13ifvqek0","pricing_plan_id":"cebpf4jnsgd1na2vs0mg"},{"bike_id":"ba3ad1c3-6f87-41bb-ac1b-9c24af1516f8","system_id":"levelo_inurba_marseille","lat":43.30333,"lon":5.40432,"is_reserved":false,"is_disabled":false,"rental_uris":{"android":"levelo://app?vid=ba3ad1c3-6f87-41bb-ac1b-9c24af1516f8","ios":"levelo://app?vid=ba3ad1c3-6f87-41bb-ac1b-9c24af1516f8"},"vehicle_type_id":"4","last_reported":1761592088,"current_range_meters":18800,"station_id":"ce4bh012rcd13ifvqd10","pricing_plan_id":"cebpf4jnsgd1na2vs0mg"},{"bike_id":"4623ab64-da47-41ba-9b64-f7581d644a30","system_id":"levelo_inurba_marseille","lat":43.29808,"lon":5.38081,"is_reserved":false,"is_disabled":false,"rental_uris":{"android":"levelo://app?vid=4623ab64-da47-41ba-9b64-f7581d644a30","ios":"levelo://app?vid=4623ab64-da47-41ba-9b64-f7581d644a30"},"vehicle_type_id":"4","last_reported":1761592088,"current_range_meters":18800,"station_id":"ce4bgip2rcd13ifvqbb0","pricing_plan_id":"cebpf4jnsgd1na2vs0mg"},{"bike_id":"316ded5d-28c9-4663-be5c-04dc90d5b34c","system_id":"levelo_inurba_marseille","lat":43.2842,"lon":5.38781,"is_reserved":false,"is_disabled":false,"rental_uris":{"android":"levelo://app?vid=316ded5d-28c9-4663-be5c-04dc90d5b34c","ios":"levelo://app?vid=316ded5d-28c9-4663-be5c-04dc90d5b34c"},"vehicle_type_id":"4","last_reported":1761592088,"current_range_meters":18800,"station_id":"","pricing_plan_id":"cebpf4jnsgd1na2vs0mg"},{"bike_id":"54974198-6099-415f-9175-748b399bc759","system_id":"levelo_inurba_marseille","lat":43.28439,"lon":5.39202,"is_reserved":false,"is_disabled":false,"rental_uris":{"android":"levelo://app?vid=54974198-6099-415f-9175-748b399bc759","ios":"levelo://app?vid=54974198-6099-415f-9175-748b399bc759"},"vehicle_type_id":"4","last_reported":1761592088,"current_range_meters":18800,"station_id":"ce4bhoh2rcd13ifvqh5g","pricing_plan_id":"cebpf4jnsgd1na2vs0mg"},{"bike_id":"dccef0b1-edb3-49b5-866c-43e10e5763cc","system_id":"levelo_inurba_marseille","lat":43.28831,"lon":5.43827,"is_reserved":false,"is_disabled":false,"rental_uris":{"android":"levelo://app?vid=dccef0b1-edb3-49b5-866c-43e10e5763cc","ios":"levelo://app?vid=dccef0b1-edb3-49b5-866c-43e10e5763cc"},"vehicle_type_id":"4","last_reported":1761592088,"current_range_meters":18800,"station_id":"","pricing_plan_id":"cebpf4jnsgd1na2vs0mg"},{"bike_id":"f4ae8a8d-d71a-4e48-9339-66550bde7b84","system_id":"levelo_inurba_marseille","lat":43.296782,"lon":5.378637,"is_reserved":false,"is_disabled":false,"rental_uris":{"android":"levelo://app?vid=f4ae8a8d-d71a-4e48-9339-66550bde7b84","ios":"levelo://app?vid=f4ae8a8d-d71a-4e48-9339-66550bde7b84"},"vehicle_type_id":"4","last_reported":1761592088,"current_range_meters":18800,"station_id":"","pricing_plan_id":"cebpf4jnsgd1na2vs0mg"},{"bike_id":"dced2bcc-e95f-44ce-b7d8-7bb47def612a","system_id":"levelo_inurba_marseille","lat":43.23059,"lon":5.35493,"is_reserved":false,"is_disabled":false,"rental_uris":{"android":"levelo://app?vid=dced2bcc-e95f-44ce-b7d8-7bb47def612a","ios":"levelo://app?vid=dced2bcc-e95f-44ce-b7d8-7bb47def612a"},"vehicle_type_id":"4","last_reported":1761592088,"current_range_meters":18800,"station_id":"cpo3342slgdg3j2ifvpg","pricing_plan_id":"cebpf4jnsgd1na2vs0mg"},{"bike_id":"2be3bf9b-39f4-4c37-8c01-9e9bcabe1c53","system_id":"levelo_inurba_marseille","lat":43.33741,"lon":5.37444,"is_reserved":false,"is_disabled":false,"rental_uris":{"android":"levelo://app?vid=2be3bf9b-39f4-4c37-8c01-9e9bcabe1c53","ios":"levelo://app?vid=2be3bf9b-39f4-4c37-8c01-9e9bcabe1c53"},"vehicle_type_id":"4","last_reported":1761592088,"current_range_meters":18800,"station_id":"","pricing_plan_id":"cebpf4jnsgd1na2vs0mg"},{"bike_id":"f568391f-b71f-4807-9099-53eb6b0dc22d","system_id":"levelo_inurba_marseille","lat":43.297726,"lon":5.381679,"is_reserved":false,"is_disabled":false,"rental_uris":{"android":"levelo://app?vid=f568391f-b71f-4807-9099-53eb6b0dc22d","ios":"levelo://app?vid=f568391f-b71f-4807-9099-53eb6b0dc22d"},"vehicle_type_id":"4","last_reported":1761592088,"current_range_meters":18800,"station_id":"","pricing_plan_id":"cebpf4jnsgd1na2vs0mg"},{"bike_id":"dc2bd6e0-d305-44b3-b209-f37f02144b4a","system_id":"levelo_inurba_marseille","lat":43.26928,"lon":5.38919,"is_reserved":false,"is_disabled":false,"rental_uris":{"android":"levelo://app?vid=dc2bd6e0-d305-44b3-b209-f37f02144b4a","ios":"levelo://app?vid=dc2bd6e0-d305-44b3-b209-f37f02144b4a"},"vehicle_type_id":"4","last_reported":1761592088,"current_range_meters":18800,"station_id":"ce4bhhh2rcd13ifvqfl0","pricing_plan_id":"cebpf4jnsgd1na2vs0mg"},