{"last_updated":1737699147,"ttl":60,"version":"2.2","data":{"bikes":[{"bike_id":"71025e83-daff-40eb-8f70-b8e1fc9300fb","system_id":"levelo_inurba_marseille","lat":43.22913,"lon":5.35372,"is_reserved":false,"is_disabled":false,"rental_uris":{"android":"levelo://app?vid=71025e83-daff-40eb-8f70-b8e1fc9300fb","ios":"levelo://app?vid=71025e83-daff-40eb-8f70-b8e1fc9300fb"},"vehicle_type_id":"4","last_reported":1737699148,"current_range_meters":38400,"station_id":"cpo3532slgdg3j2ikp40","pricing_plan_id":"cebpf4jnsgd1na2vs0mg"},{"bike_id":"10bc401f-3887-44dc-a9ac-580507b30748","system_id":"levelo_inurba_marseille","lat":43.28453,"lon":5.35883,"is_reserved":false,"is_disabled":false,"rental_uris":{"android":"levelo://app?vid=10bc401f-3887-44dc-a9ac-580507b30748","ios":"levelo://app?vid=10bc401f-3887-44dc-a9ac-580507b30748"},"vehicle_type_id":"4","last_reported":1737699148,"current_range_meters":31200,"station_id":"ce4bhah2rcd13ifvqei0","pricing_plan_id":"cebpf4jnsgd1na2vs0mg"},{"bike_id":"9c7eaa63-fad9-42a1-ac6c-648c1755a7f5","system_id":"levelo_inurba_marseille","lat":43.300811,"lon":5.372926,"is_reserved":false,"is_disabled":false,"rental_uris":{"android":"levelo://app?vid=9c7eaa63-fad9-42a1-ac6c-648c1755a7f5","ios":"levelo://app?vid=9c7eaa63-fad9-42a1-ac6c-648c1755a7f5"},"vehicle_type_id":"4","last_reported":1737699148,"current_range_meters":32800,"station_id":"","pricing_plan_id":"cebpf4jnsgd1na2vs0mg"},{"bike_id":"96a4acfa-91c0-4cba-8f0a-1c0260d67c12","system_id":"levelo_inurba_marseille","lat":43.302,"lon":5.36589,"is_reserved":false,"is_disabled":false,"rental_uris":{"android":"levelo://app?vid=96a4acfa-91c0-4cba-8f0a-1c0260d67c12","ios":"levelo://app?vid=96a4acfa-91c0-4cba-8f0a-1c0260d67c12"},"vehicle_type_id":"4","last_reported":1737699148,"current_range_meters":38800,"station_id":"ce4bgrh2rcd13ifvqc8g","pricing_plan_id":"cebpf4jnsgd1na2vs0mg"},{"bike_id":"eccf0d1b-bc05-4442-912e-9450590b779a","system_id":"levelo_inurba_marseille","lat":43.319982,"lon":5.381444,"is_reserved":false,"is_disabled":false,"rental_uris":{"android":"levelo://app?vid=eccf0d1b-bc05-4442-912e-9450590b779a","ios":"levelo://app?vid=eccf0d1b-bc05-4442-912e-9450590b779a"},"vehicle_type_id":"4","last_reported":1737699148,"current_range_meters":14800,"station_id":"ce4bhr12rcd13ifvqhpg","pricing_plan_id":"cebpf4jnsgd1na2vs0mg"},{"bike_id":"238ad59b-1642-42b9-a814-d1e79f66fdda","system_id":"levelo_inurba_marseille","lat":43.298513,"lon":5.362819,"is_reserved":false,"is_disabled":false,"rental_uris":{"android":"levelo://app?vid=238ad59b-1642-42b9-a814-d1e79f66fdda","ios":"levelo://app?vid=238ad59b-1642-42b9-a814-d1e79f66fdda"},"vehicle_type_id":"4","last_reported":1737699148,"current_range_meters":10800,"station_id":"ce4bgpp2rcd13ifvqc3g","pricing_plan_id":"cebpf4jnsgd1na2vs0mg"},{"bike_id":"d5e872fd-88ad-4d26-bf6b-08aaaf1253ee","system_id":"levelo_inurba_marseille","lat":43.284585,"lon":5.358894,"is_reserved":false,"is_disabled":false,"rental_uris":{"android":"levelo://app?vid=d5e872fd-88ad-4d26-bf6b-08aaaf1253ee","ios":"levelo://app?vid=d5e872fd-88ad-4d26-bf6b-08aaaf1253ee"},"vehicle_type_id":"4","last_reported":1737699148,"current_range_meters":16000,"station_id":"ce4bhah2rcd13ifvqei0","pricing_plan_id":"cebpf4jnsgd1na2vs0mg"},{"bike_id":"9cc0c7ef-0803-47e3-9731-691efc00014c","system_id":"levelo_inurba_marseille","lat":43.248114,"lon":5.374581,"is_reserved":false,"is_disabled":false,"rental_uris":{"android":"levelo://app?vid=9cc0c7ef-0803-47e3-9731-691efc00014c","ios":"levelo://app?vid=9cc0c7ef-0803-47e3-9731-691efc00014c"},"vehicle_type_id":"4","last_reported":1737699148,"current_range_meters":6400,"station_id":"ce4bhgh2rcd13ifvqfb0","pricing_plan_id":"cebpf4jnsgd1na2vs0mg"},{"bike_id":"b5cb07e6-6ffd-4db4-8954-0084503b2aef","system_id":"levelo_inurba_marseille","lat":43.33015,"lon":5.39037,"is_reserved":false,"is_disabled":false,"rental_uris":{"android":"levelo://app?vid=b5cb07e6-6ffd-4db4-8954-0084503b2aef","ios":"levelo://app?vid=b5cb07e6-6ffd-4db4-8954-0084503b2aef"},"vehicle_type_id":"4","last_reported":1737699148,"current_range_meters":36800,"station_id":"ce4bhr92rcd13ifvqhrg","pricing_plan_id":"cebpf4jnsgd1na2vs0mg"},{"bike_id":"c71bbc0d-9aef-4e5d-8186-791e46cd2b58","system_id":"levelo_inurba_marseille","lat":43.26179,"lon":5.37451,"is_reserved":false,"is_disabled":true,"rental_uris":{"android":"levelo://app?vid=c71bbc0d-9aef-4e5d-8186-791e46cd2b58","ios":"levelo://app?vid=c71bbc0d-9aef-4e5d-8186-791e46cd2b58"},"vehicle_type_id":"4","last_reported":1737699148,"current_range_meters":35200,"station_id":"ce4bhgp2rcd13ifvqfc0","pricing_plan_id":"cebpf4jnsgd1na2vs0mg"},{"bike_id":"4a081956-cbf5-4d73-bd8f-6f5096af4df8","system_id":"levelo_inurba_marseille","lat":43.24792,"lon":5.37446,"is_reserved":false,"is_disabled":false,"rental_uris":{"android":"levelo://app?vid=4a081956-cbf5-4d73-bd8f-6f5096af4df8","ios":"levelo://app?vid=4a081956-cbf5-4d73-bd8f-6f5096af4df8"},"vehicle_type_id":"4","last_reported":1737699148,"current_range_meters":38400,"station_id":"ce4bhgh2rcd13ifvqfb0","pricing_plan_id":"cebpf4jnsgd1na2vs0mg"},{"bike_id":"fa235921-264c-45fa-9486-36940e44284c","system_id":"levelo_inurba_marseille","lat":43.255795,"lon":5.382436,"is_reserved":false,"is_disabled":false,"rental_uris":{"android":"levelo://app?vid=fa235921-264c-45fa-9486-36940e44284c","ios":"levelo://app?vid=fa235921-264c-45fa-9486-36940e44284c"},"vehicle_type_id":"4","last_reported":1737699148,"current_range_meters":38800,"station_id":"ce4bhih2rcd13ifvqfs0","pricing_plan_id":"cebpf4jnsgd1na2vs0mg"},{"bike_id":"169ecae1-c3c7-456b-beb7-b62287b76c83","system_id":"levelo_inurba_marseille","lat":43.31331,"lon":5.39696,"is_reserved":false,"is_disabled":false,"rental_uris":{"android":"levelo://app?vid=169ecae1-c3c7-456b-beb7-b62287b76c83","ios":"levelo://app?vid=169ecae1-c3c7-456b-beb7-b62287b76c83"},"vehicle_type_id":"4","last_reported":1737699148,"current_range_meters":8400,"station_id":"ce4bgvp2rcd13ifvqcu0","pricing_plan_id":"cebpf4jnsgd1na2vs0mg"},{"bike_id":"1a092bf7-35e4-40a3-a6a3-f4c3e6f23ce6","system_id":"levelo_inurba_marseille","lat":43.282673,"lon":5.350799,"is_reserved":false,"is_disabled":false,"rental_uris":{"android":"levelo://app?vid=1a092bf7-35e4-40a3-a6a3-f4c3e6f23ce6","ios":"levelo://app?vid=1a092bf7-35e4-40a3-a6a3-f4c3e6f23ce6"},"vehicle_type_id":"4","last_reported":1737699148,"current_range_meters":19600,"station_id":"ce4bhbp2rcd13ifvqerg","pricing_plan_id":"cebpf4jnsgd1na2vs0mg"},{"bike_id":"2bdb348d-ebfc-4fd5-a8f6-4500a8748716","system_id":"levelo_inurba_marseille","lat":43.29038,"lon":5.35895,"is_reserved":false,"is_disabled":false,"rental_uris":{"android":"levelo://app?vid=2bdb348d-ebfc-4fd5-a8f6-4500a8748716","ios":"levelo://app?vid=2bdb348d-ebfc-4fd5-a8f6-4500a8748716"},"vehicle_type_id":"4","last_reported":1737699148,"current_range_meters":38800,"station_id":"ce4bha92rcd13ifvqeg0","pricing_plan_id":"cebpf4jnsgd1na2vs0mg"},{"bike_id":"e21a3a38-0931-49da-bd00-54e3f3f67b09","system_id":"levelo_inurba_marseille","lat":43.30664,"lon":5.40084,"is_reserved":false,"is_disabled":false,"rental_uris":{"android":"levelo://app?vid=e21a3a38-0931-49da-bd00-54e3f3f67b09","ios":"levelo://app?vid=e21a3a38-0931-49da-bd00-54e3f3f67b09"},"vehicle_type_id":"4","last_reported":1737699148,"current_range_meters":12800,"station_id":"ce4bh112rcd13ifvqda0","pricing_plan_id":"cebpf4jnsgd1na2vs0mg"},{"bike_id":"1472ea52-8fc9-449d-8cdc-fb5de31126e2","system_id":"levelo_inurba_marseille","lat":43.324734,"lon":5.365612,"is_reserved":false,"is_disabled":false,"rental_uris":{"android":"levelo://app?vid=1472ea52-8fc9-449d-8cdc-fb5de31126e2","ios":"levelo://app?vid=1472ea52-8fc9-449d-8cdc-fb5de31126e2"},"vehicle_type_id":"4","last_reported":1737699148,"current_range_meters":27600,"station_id":"ce4bhs12rcd13ifvqhvg","pricing_plan_id":"cebpf4jnsgd1na2vs0mg"},{"bike_id":"a7096c56-ee6c-4caa-8cc5-7bc6b6306671","system_id":"levelo_inurba_marseille","lat":43.31324,"lon":5.36712,"is_reserved":false,"is_disabled":false,"rental_uris":{"android":"levelo://app?vid=a7096c56-ee6c-4caa-8cc5-7bc6b6306671","ios":"levelo://app?vid=a7096c56-ee6c-4caa-8cc5-7bc6b6306671"},"vehicle_type_id":"4","last_reported":1737699148,"current_range_meters":27600,"station_id":"ce4bgr92rcd13ifvqc6g","pricing_plan_id":"cebpf4jnsgd1na2vs0mg"},{"bike_id":"fb25aff4-7712-412a-885d-4665f45586cc","system_id":"levelo_inurba_marseille","lat":43.24682,"lon":5.38195,"is_reserved":false,"is_disabled":false,"rental_uris":{"android":"levelo://app?vid=fb25aff4-7712-412a-885d-4665f45586cc","ios":"levelo://app?vid=fb25aff4-7712-412a-885d-4665f45586cc"},"vehicle_type_id":"4","last_reported":1737699148,"current_range_meters":38800,"station_id":"ce4bhih2rcd13ifvqfr0","pricing_plan_id":"cebpf4jnsgd1na2vs0mg"},{"bike_id":"988e5b10-b8de-4d02-a07b-390cd3853a35","system_id":"levelo_inurba_marseille","lat":43.29555,"lon":5.42286,"is_reserved":false,"is_disabled":false,"rental_uris":{"android":"levelo://app?vid=988e5b10-b8de-4d02-a07b-390cd3853a35","ios":"levelo://app?vid=988e5b10-b8de-4d02-a07b-390cd3853a35"},"vehicle_type_id":"4","last_reported":1737699148,"current_range_meters":38800,"station_id":"ce4bhph2rcd13ifvqhdg","pricing_plan_id":"cebpf4jnsgd1na2vs0mg"},{"bike_id":"545d0c7e-8955-4a7d-89ad-8eb345691954","system_id":"levelo_inurba_marseille","lat":43.26197,"lon":5.37454,"is_reserved":false,"is_disabled":false,"rental_uris":{"android":"levelo://app?vid=545d0c7e-8955-4a7d-89ad-8eb345691954","ios":"levelo://app?vid=545d0c7e-8955-4a7d-89ad-8eb345691954"},"vehicle_type_id":"4","last_reported":1737699148,"current_range_meters":4400,"station_id":"ce4bhgp2rcd13ifvqfc0","pricing_plan_id":"cebpf4jnsgd1na2vs0mg"},{"bike_id":"8306911c-1b49-4f25-b658-2afe8ce20858","system_id":"levelo_inurba_marseille","lat":43.28459,"lon":5.35906,"is_reserved":false,"is_disabled":false,"rental_uris":{"android":"levelo://app?vid=8306911c-1b49-4f25-b658-2afe8ce20858","ios":"levelo://app?vid=8306911c-1b49-4f25-b658-2afe8ce20858"},"vehicle_type_id":"4","last_reported":1737699148,"current_range_meters":28800,"station_id":"ce4bhah2rcd13ifvqei0","pricing_plan_id":"cebpf4jnsgd1na2vs0mg"},{"bike_id":"9ff82f04-39f6-4159-b167-3cccca622048","system_id":"levelo_inurba_marseille","lat":43.29723,"lon":5.37688,"is_reserved":false,"is_disabled":false,"rental_uris":{"android":"levelo://app?vid=9ff82f04-39f6-4159-b167-3cccca622048","ios":"levelo://app?vid=9ff82f04-39f6-4159-b167-3cccca622048"},"vehicle_type_id":"4","last_reported":1737699148,"current_range_meters":38400,"station_id":"ce4bgkh2rcd13ifvqbl0","pricing_plan_id":"cebpf4jnsgd1na2vs0mg"},{"bike_id":"0aaa049d-0f24-4e97-8f12-c04bc7a90c66","system_id":"levelo_inurba_marseille","lat":43.30872,"lon":5.39661,"is_reserved":false,"is_disabled":true,"rental_uris":{"android":"levelo://app?vid=0aaa049d-0f24-4e97-8f12-c04bc7a90c66","ios":"levelo://app?vid=0aaa049d-0f24-4e97-8f12-c04bc7a90c66"},"vehicle_type_id":"4","last_reported":1737699148,"current_range_meters":0,"station_id":"ce4bh012rcd13ifvqcv0","pricing_plan_id":"cebpf4jnsgd1na2vs0mg"},{"bike_id":"35c79f21-6765-4f5b-9a01-5c1ffab2abff","system_id":"levelo_inurba_marseille","lat":43.29626,"lon":5.40606,"is_reserved":false,"is_disabled":false,"rental_uris":{"android":"levelo://app?vid=35c79f21-6765-4f5b-9a01-5c1ffab2abff","ios":"levelo://app?vid=35c79f21-6765-4f5b-9a01-5c1ffab2abff"},"vehicle_type_id":"4","last_reported":1737699148,"current_range_meters":38000,"station_id":"ce4bh0h2rcd13ifvqd60","pricing_plan_id":"cebpf4jnsgd1na2vs0mg"},{"bike_id":"803a7190-7cb1-4647-887b-4d3816a74552","system_id":"levelo_inurba_marseille","lat":43.287048,"lon":5.399819,"is_reserved":false,"is_disabled":false,"rental_uris":{"android":"levelo://app?vid=803a7190-7cb1-4647-887b-4d3816a74552","ios":"levelo://app?vid=803a7190-7cb1-4647-887b-4d3816a74552"},"vehicle_type_id":"4","last_reported":1737699148,"current_range_meters":14800,"station_id":"ce4bho92rcd13ifvqh3g","pricing_plan_id":"cebpf4jnsgd1na2vs0mg"},{"bike_id":"644e1c08-c502-4c85-94d4-d4a064391ff0","system_id":"levelo_inurba_marseille","lat":43.32887,"lon":5.40048,"is_reserved":false,"is_disabled":false,"rental_uris":{"android":"levelo://app?vid=644e1c08-c502-4c85-94d4-d4a064391ff0","ios":"levelo://app?vid=644e1c08-c502-4c85-94d4-d4a064391ff0"},"vehicle_type_id":"4","last_reported":1737699148,"current_range_meters":5600,"station_id":"","pricing_plan_id":"cebpf4jnsgd1na2vs0mg"},{"bike_id":"60d6bd6c-3c1e-4ed7-aea1-57024152bec1","system_id":"levelo_inurba_marseille","lat":43.29801,"lon":5.40417,"is_reserved":false,"is_disabled":false,"rental_uris":{"android":"levelo://app?vid=60d6bd6c-3c1e-4ed7-aea1-57024152bec1","ios":"levelo://app?vid=60d6bd6c-3c1e-4ed7-aea1-57024152bec1"},"vehicle_type_id":"4","last_reported":1737699148,"current_range_meters":38400,"station_id":"ce4bh112rcd13ifvqd90","pricing_plan_id":"cebpf4jnsgd1na2vs0mg"},{"bike_id":"ae228f41-c392-4584-84a2-d13d12efb667","system_id":"levelo_inurba_marseille","lat":43.25863,"lon":5.39923,"is_reserved":false,"is_disabled":false,"rental_uris":{"android":"levelo://app?vid=ae228f41-c392-4584-84a2-d13d12efb667","ios":"levelo://app?vid=ae228f41-c392-4584-84a2-d13d12efb667"},"vehicle_type_id":"4","last_reported":1737699148,"current_range_meters":28000,"station_id":"ce4bhl92rcd13ifvqghg","pricing_plan_id":"cebpf4jnsgd1na2vs0mg"},{"bike_id":"553e4976-b27f-47dc-8e32-f79d8de69447","system_id":"levelo_inurba_marseille","lat":43.290002,"lon":5.356077,"is_reserved":false,"is_disabled":false,"rental_uris":{"android":"levelo://app?vid=553e4976-b27f-47dc-8e32-f79d8de69447","ios":"levelo://app?vid=553e4976-b27f-47dc-8e32-f79d8de69447"},"vehicle_type_id":"4","last_reported":1737699148,"current_range_meters":38800,"station_id":"ce4bhb92rcd13ifvqen0","pricing_plan_id":"cebpf4jnsgd1na2vs0mg"},{"bike_id":"9cee2336-138f-4fec-ad14-6de103ba7df1","system_id":"levelo_inurba_marseille","lat":43.26949,"lon":5.38633,"is_reserved":false,"is_disabled":false,"rental_uris":{"android":"levelo://app?vid=9cee2336-138f-4fec-ad14-6de103ba7df1","ios":"levelo://app?vid=9cee2336-138f-4fec-ad14-6de103ba7df1"},"vehicle_type_id":"4","last_reported":1737699148,"current_range_meters":22000,"station_id":"ce4bhh92rcd13ifvqfh0","pricing_plan_id":"cebpf4jnsgd1na2vs0mg"},{"bike_id":"f661d58f-2e40-447b-b91e-4edb47052daf","system_id":"levelo_inurba_marseille","lat":43.30595,"lon":5.3722,"is_reserved":false,"is_disabled":false,"rental_uris":{"android":"levelo://app?vid=f661d58f-2e40-447b-b91e-4edb47052daf","ios":"levelo://app?vid=f661d58f-2e40-447b-b91e-4edb47052daf"},"vehicle_type_id":"4","last_reported":1737699148,"current_range_meters":38800,"station_id":"ce4bgqh2rcd13ifvqc4g","pricing_plan_id":"cebpf4jnsgd1na2vs0mg"},{"bike_id":"25cbbd9d-d7e5-4227-b21a-32aaa818c92b","system_id":"levelo_inurba_marseille","lat":43.2872,"lon":5.36089,"is_reserved":false,"is_disabled":false,"rental_uris":{"android":"levelo://app?vid=25cbbd9d-d7e5-4227-b21a-32aaa818c92b","ios":"levelo://app?vid=25cbbd9d-d7e5-4227-b21a-32aaa818c92b"},"vehicle_type_id":"4","last_reported":1737699148,"current_range_meters":4800,"station_id":"cki0cbj6b192h4jlfktg","pricing_plan_id":"cebpf4jnsgd1na2vs0mg"},{"bike_id":"820d236e-1578-4ddc-b946-1dd3b5ad3eb4","system_id":"levelo_inurba_marseille","lat":43.30873,"lon":5.39626,"is_reserved":false,"is_disabled":false,"rental_uris":{"android":"levelo://app?vid=820d236e-1578-4ddc-b946-1dd3b5ad3eb4","ios":"levelo://app?vid=820d236e-1578-4ddc-b946-1dd3b5ad3eb4"},"vehicle_type_id":"4","last_reported":1737699148,"current_range_meters":38800,"station_id":"ce4bh012rcd13ifvqcv0","pricing_plan_id":"cebpf4jnsgd1na2vs0mg"},{"bike_id":"651de9ba-34f8-4bea-93ad-15a01c05be45","system_id":"levelo_inurba_marseille","lat":43.32094,"lon":5.3678,"is_reserved":false,"is_disabled":false,"rental_uris":{"android":"levelo://app?vid=651de9ba-34f8-4bea-93ad-15a01c05be45","ios":"levelo://app?vid=651de9ba-34f8-4bea-93ad-15a01c05be45"},"vehicle_type_id":"4","last_reported":1737699148,"current_range_meters":32400,"station_id":"ce4bhrh2rcd13ifvqhug","pricing_plan_id":"cebpf4jnsgd1na2vs0mg"},{"bike_id":"ecdcd66c-35b6-4d2a-8e62-d1a753e47211","system_id":"levelo_inurba_marseille","lat":43.29912,"lon":5.38166,"is_reserved":false,"is_disabled":true,"rental_uris":{"android":"levelo://app?vid=ecdcd66c-35b6-4d2a-8e62-d1a753e47211","ios":"levelo://app?vid=ecdcd66c-35b6-4d2a-8e62-d1a753e47211"},"vehicle_type_id":"4","last_reported":1737699148,"current_range_meters":400,"station_id":"ce4bgj12rcd13ifvqbc0","pricing_plan_id":"cebpf4jnsgd1na2vs0mg"},{"bike_id":"df919f89-fed5-4c37-ad82-a346d39144e4","system_id":"levelo_inurba_marseille","lat":43.31325,"lon":5.39705,"is_reserved":false,"is_disabled":true,"rental_uris":{"android":"levelo://app?vid=df919f89-fed5-4c37-ad82-a346d39144e4","ios":"levelo://app?vid=df919f89-fed5-4c37-ad82-a346d39144e4"},"vehicle_type_id":"4","last_reported":1737699148,"current_range_meters":0,"station_id":"ce4bgvp2rcd13ifvqcu0","pricing_plan_id":"cebpf4jnsgd1na2vs0mg"},{"bike_id":"42cd3826-563d-4e6b-9c23-fbdedcac40bb","system_id":"levelo_inurba_marseille","lat":43.31176,"lon":5.38707,"is_reserved":false,"is_disabled":false,"rental_uris":{"android":"levelo://app?vid=42cd3826-563d-4e6b-9c23-fbdedcac40bb","ios":"levelo://app?vid=42cd3826-563d-4e6b-9c23-fbdedcac40bb"},"vehicle_type_id":"4","last_reported":1737699148,"current_range_meters":29600,"station_id":"ce4bgv12rcd13ifvqcp0","pricing_plan_id":"cebpf4jnsgd1na2vs0mg"},{"bike_id":"1fbcfb52-8929-4f0c-a9d8-51ffbe3630c4","system_id":"levelo_inurba_marseille","lat":43.31324,"lon":5.3971,"is_reserved":false,"is_disabled":false,"rental_uris":{"android":"levelo://app?vid=1fbcfb52-8929-4f0c-a9d8-51ffbe3630c4","ios":"levelo://app?vid=1fbcfb52-8929-4f0c-a9d8-51ffbe3630c4"},"vehicle_type_id":"4","last_reported":1737699148,"current_range_meters":30800,"station_id":"ce4bgvp2rcd13ifvqcu0","pricing_plan_id":"cebpf4jnsgd1na2vs0mg"},{"bike_id":"545ed6e3-0d7c-44d7-afc3-19d942ccdead","system_id":"levelo_inurba_marseille","lat":43.282655,"lon":5.350865,"is_reserved":false,"is_disabled":false,"rental_uris":{"android":"levelo://app?vid=545ed6e3-0d7c-44d7-afc3-19d942ccdead","ios":"levelo://app?vid=545ed6e3-0d7c-44d7-afc3-19d942ccdead"},"vehicle_type_id":"4","last_reported":1737699148,"current_range_meters":24400,"station_id":"ce4bhbp2rcd13ifvqerg","pricing_plan_id":"cebpf4jnsgd1na2vs0mg"},{"bike_id":"0af6d497-19c9-433b-9557-19fa7238658c","system_id":"levelo_inurba_marseille","lat":43.279557,"lon":5.386846,"is_reserved":false,"is_disabled":true,"rental_uris":{"android":"levelo://app?vid=0af6d497-19c9-433b-9557-19fa7238658c","ios":"levelo://app?vid=0af6d497-19c9-433b-9557-19fa7238658c"},"vehicle_type_id":"4","last_reported":1737699148,"current_range_meters":36800,"station_id":"","pricing_plan_id":"cebpf4jnsgd1na2vs0mg"},{"bike_id":"de20accc-6af8-4084-b9d0-4b5a517d8a91","system_id":"levelo_inurba_marseille","lat":43.33016,"lon":5.390385,"is_reserved":false,"is_disabled":false,"rental_uris":{"android":"levelo://app?vid=de20accc-6af8-4084-b9d0-4b5a517d8a91","ios":"levelo://app?vid=de20accc-6af8-4084-b9d0-4b5a517d8a91"},"vehicle_type_id":"4","last_reported":1737699148,"current_range_meters":37600,"station_id":"ce4bhr92rcd13ifvqhrg","pricing_plan_id":"cebpf4jnsgd1na2vs0mg"},{"bike_id":"9b15961a-519b-48f9-b2f2-98b164cb9095","system_id":"levelo_inurba_marseille","lat":43.33114,"lon":5.38215,"is_reserved":false,"is_disabled":false,"rental_uris":{"android":"levelo://app?vid=9b15961a-519b-48f9-b2f2-98b164cb9095","ios":"levelo://app?vid=9b15961a-519b-48f9-b2f2-98b164cb9095"},"vehicle_type_id":"4","last_reported":1737699148,"current_range_meters":33600,"station_id":"","pricing_plan_id":"cebpf4jnsgd1na2vs0mg"},{"bike_id":"bfc7c4c8-160f-422f-88d7-f1006cae57bb","system_id":"levelo_inurba_marseille","lat":43.31135,"lon":5.37784,"is_reserved":false,"is_disabled":false,"rental_uris":{"android":"levelo://app?vid=bfc7c4c8-160f-422f-88d7-f1006cae57bb","ios":"levelo://app?vid=bfc7c4c8-160f-422f-88d7-f1006cae57bb"},"vehicle_type_id":"4","last_reported":1737699148,"current_range_meters":9200,"station_id":"ce4bgt92rcd13ifvqcg0","pricing_plan_id":"cebpf4jnsgd1na2vs0mg"},{"bike_id":"a97bd20e-fb6e-42d8-8c93-7c1bb4f2b31d","system_id":"levelo_inurba_marseille","lat":43.30931,"lon":5.40165,"is_reserved":false,"is_disabled":false,"rental_uris":{"android":"levelo://app?vid=a97bd20e-fb6e-42d8-8c93-7c1bb4f2b31d","ios":"levelo://app?vid=a97bd20e-fb6e-42d8-8c93-7c1bb4f2b31d"},"vehicle_type_id":"4","last_reported":1737699148,"current_range_meters":19200,"station_id":"ce4bgvp2rcd13ifvqct0","pricing_plan_id":"cebpf4jnsgd1na2vs0mg"},{"bike_id":"cddfddb2-750c-4eb5-81cb-d5e65f4765d7","system_id":"levelo_inurba_marseille","lat":43.246874,"lon":5.424569,"is_reserved":false,"is_disabled":true,"rental_uris":{"android":"levelo://app?vid=cddfddb2-750c-4eb5-81cb-d5e65f4765d7","ios":"levelo://app?vid=cddfddb2-750c-4eb5-81cb-d5e65f4765d7"},"vehicle_type_id":"4","last_reported":1737699148,"current_range_meters":0,"station_id":"","pricing_plan_id":"cebpf4jnsgd1na2vs0mg"},{"bike_id":"bbdfc660-e997-4a11-9591-bbb56c89be46","system_id":"levelo_inurba_marseille","lat":43.33013,"lon":5.39028,"is_reserved":false,"is_disabled":false,"rental_uris":{"android":"levelo://app?vid=bbdfc660-e997-4a11-9591-bbb56c89be46","ios":"levelo://app?vid=bbdfc660-e997-4a11-9591-bbb56c89be46"},"vehicle_type_id":"4","last_reported":1737699148,"current_range_meters":35200,"station_id":"ce4bhr92rcd13ifvqhrg","pricing_plan_id":"cebpf4jnsgd1na2vs0mg"},{"bike_id":"5e75dd30-ab3b-44d3-8dcb-cb5fd4a0eb65","system_id":"levelo_inurba_marseille","lat":43.24635,"lon":5.38917,"is_reserved":false,"is_disabled":false,"rental_uris":{"android":"levelo://app?vid=5e75dd30-ab3b-44d3-8dcb-cb5fd4a0eb65","ios":"levelo://app?vid=5e75dd30-ab3b-44d3-8dcb-cb5fd4a0eb65"},"vehicle_type_id":"4","last_reported":1737699148,"current_range_meters":36000,"station_id":"ce4bhg12rcd13ifvqf60","pricing_plan_id":"cebpf4jnsgd1na2vs0mg"},{"bike_id":"676733c9-fe1d-42d8-bf38-dc5bea0c803b","system_id":"levelo_inurba_marseille","lat":43.317044,"lon":5.377649,"is_reserved":false,"is_disabled":false,"rental_uris":{"android":"levelo://app?vid=676733c9-fe1d-42d8-bf38-dc5bea0c803b","ios":"levelo://app?vid=676733c9-fe1d-42d8-bf38-dc5bea0c803b"},"vehicle_type_id":"4","last_reported":1737699148,"current_range_meters":39200,"station_id":"ce4bgth2rcd13ifvqch0","pricing_plan_id":"cebpf4jnsgd1na2vs0mg"},{"bike_id":"c44d511c-dfb0-4fd8-80e7-f0da811246ef","system_id":"levelo_inurba_marseille","lat":43.30302,"lon":5.36887,"is_reserved":false,"is_disabled":false,"rental_uris":{"android":"levelo://app?vid=c44d511c-dfb0-4fd8-80e7-f0da811246ef","ios":"levelo://app?vid=c44d511c-dfb0-4fd8-80e7-f0da811246ef"},"vehicle_type_id":"4","last_reported":1737699148,"current_range_meters":28400,"station_id":"ce4bgqh2rcd13ifvqc5g","pricing_plan_id":"cebpf4jnsgd1na2vs0mg"},{"bike_id":"88236e53-8607-4bd3-866b-71b91b96bff0","system_id":"levelo_inurba_marseille","lat":43.29272,"lon":5.40133,"is_reserved":false,"is_disabled":false,"rental_uris":{"android":"levelo://app?vid=88236e53-8607-4bd3-866b-71b91b96bff0","ios":"levelo://app?vid=88236e53-8607-4bd3-866b-71b91b96bff0"},"vehicle_type_id":"4","last_reported":1737699148,"current_range_meters":34000,"station_id":"ce4bh312rcd13ifvqdk0","pricing_plan_id":"cebpf4jnsgd1na2vs0mg"},{"bike_id":"1f4cc9a1-a6f1-42ee-8f62-d3fd1b2849a6","system_id":"levelo_inurba_marseille","lat":43.23189,"lon":5.39991,"is_reserved":false,"is_disabled":false,"rental_uris":{"android":"levelo://app?vid=1f4cc9a1-a6f1-42ee-8f62-d3fd1b2849a6","ios":"levelo://app?vid=1f4cc9a1-a6f1-42ee-8f62-d3fd1b2849a6"},"vehicle_type_id":"4","last_reported":1737699148,"current_range_meters":6000,"station_id":"ce4bhn12rcd13ifvqgqg","pricing_plan_id":"cebpf4jnsgd1na2vs0mg"},{"bike_id":"821b3960-6089-4a10-b2bd-4157d4f3a896","system_id":"levelo_inurba_marseille","lat":43.28149,"lon":5.42637,"is_reserved":false,"is_disabled":false,"rental_uris":{"android":"levelo://app?vid=821b3960-6089-4a10-b2bd-4157d4f3a896","ios":"levelo://app?vid=821b3960-6089-4a10-b2bd-4157d4f3a896"},"vehicle_type_id":"4","last_reported":1737699148,"current_range_meters":36800,"station_id":"ce4bhnh2rcd13ifvqgug","pricing_plan_id":"cebpf4jnsgd1na2vs0mg"},{"bike_id":"3c05eb8d-c05d-46b2-be01-437254b39937","system_id":"levelo_inurba_marseille","lat":43.30108,"lon":5.39857,"is_reserved":false,"is_disabled":false,"rental_uris":{"android":"levelo://app?vid=3c05eb8d-c05d-46b2-be01-437254b39937","ios":"levelo://app?vid=3c05eb8d-c05d-46b2-be01-437254b39937"},"vehicle_type_id":"4","last_reported":1737699148,"current_range_meters":25200,"station_id":"ce4bh0h2rcd13ifvqd40","pricing_plan_id":"cebpf4jnsgd1na2vs0mg"},{"bike_id":"77a12100-d260-4f7f-997e-94d8d05bfd42","system_id":"levelo_inurba_marseille","lat":43.28031,"lon":5.36929,"is_reserved":false,"is_disabled":false,"rental_uris":{"android":"levelo://app?vid=77a12100-d260-4f7f-997e-94d8d05bfd42","ios":"levelo://app?vid=77a12100-d260-4f7f-997e-94d8d05bfd42"},"vehicle_type_id":"4","last_reported":1737699148,"current_range_meters":9600,"station_id":"ce4bha12rcd13ifvqef0","pricing_plan_id":"cebpf4jnsgd1na2vs0mg"},{"bike_id":"9838cc78-2b53-49d3-ae13-82df62c4fd64","system_id":"levelo_inurba_marseille","lat":43.28413,"lon":5.40939,"is_reserved":false,"is_disabled":true,"rental_uris":{"android":"levelo://app?vid=9838cc78-2b53-49d3-ae13-82df62c4fd64","ios":"levelo://app?vid=9838cc78-2b53-49d3-ae13-82df62c4fd64"},"vehicle_type_id":"4","last_reported":1737699148,"current_range_meters":2000,"station_id":"","pricing_plan_id":"cebpf4jnsgd1na2vs0mg"},{"bike_id":"d9d67e50-ff60-4024-bb97-06b4cc192a7e","system_id":"levelo_inurba_marseille","lat":43.30217,"lon":5.37514,"is_reserved":false,"is_disabled":true,"rental_uris":{"android":"levelo://app?vid=d9d67e50-ff60-4024-bb97-06b4cc192a7e","ios":"levelo://app?vid=d9d67e50-ff60-4024-bb97-06b4cc192a7e"},"vehicle_type_id":"4","last_reported":1737699148,"current_range_meters":36800,"station_id":"","pricing_plan_id":"cebpf4jnsgd1na2vs0mg"},{"bike_id":"16c4e9f2-dab4-463e-bb52-9c7cc22a6f09","system_id":"levelo_inurba_marseille","lat":43.27207,"lon":5.39177,"is_reserved":false,"is_disabled":false,"rental_uris":{"android":"levelo://app?vid=16c4e9f2-dab4-463e-bb52-9c7cc22a6f09","ios":"levelo://app?vid=16c4e9f2-dab4-463e-bb52-9c7cc22a6f09"},"vehicle_type_id":"4","last_reported":1737699148,"current_range_meters":28000,"station_id":"ce4bhhp2rcd13ifvqfm0","pricing_plan_id":"cebpf4jnsgd1na2vs0mg"},{"bike_id":"1cd34acd-7820-4884-9d33-5f477e633809","system_id":"levelo_inurba_marseille","lat":43.3234,"lon":5.40636,"is_reserved":false,"is_disabled":false,"rental_uris":{"android":"levelo://app?vid=1cd34acd-7820-4884-9d33-5f477e633809","ios":"levelo://app?vid=1cd34acd-7820-4884-9d33-5f477e633809"},"vehicle_type_id":"4","last_reported":1737699148,"current_range_meters":38800,"station_id":"ce4bhq92rcd13ifvqhjg","pricing_plan_id":"cebpf4jnsgd1na2vs0mg"},{"bike_id":"bf096a89-ee72-4f37-85bd-7b3cf9f0cb41","system_id":"levelo_inurba_marseille","lat":43.319309,"lon":5.379009,"is_reserved":false,"is_disabled":false,"rental_uris":{"android":"levelo://app?vid=bf096a89-ee72-4f37-85bd-7b3cf9f0cb41","ios":"levelo://app?vid=bf096a89-ee72-4f37-85bd-7b3cf9f0cb41"},"vehicle_type_id":"4","last_reported":1737699148,"current_range_meters":36400,"station_id":"","pricing_plan_id":"cebpf4jnsgd1na2vs0mg"},{"bike_id":"81a1ee1f-b7a3-487f-abfc-c81babfe5d0a","system_id":"levelo_inurba_marseille","lat":43.23192,"lon":5.39989,"is_reserved":false,"is_disabled":false,"rental_uris":{"android":"levelo://app?vid=81a1ee1f-b7a3-487f-abfc-c81babfe5d0a","ios":"levelo://app?vid=81a1ee1f-b7a3-487f-abfc-c81babfe5d0a"},"vehicle_type_id":"4","last_reported":1737699148,"current_range_meters":6400,"station_id":"ce4bhn12rcd13ifvqgqg","pricing_plan_id":"cebpf4jnsgd1na2vs0mg"},{"bike_id":"f83b4d52-2311-4585-9810-27cf269554a2","system_id":"levelo_inurba_marseille","lat":43.30305,"lon":5.36897,"is_reserved":false,"is_disabled":false,"rental_uris":{"android":"levelo://app?vid=f83b4d52-2311-4585-9810-27cf269554a2","ios":"levelo://app?vid=f83b4d52-2311-4585-9810-27cf269554a2"},"vehicle_type_id":"4","last_reported":1737699148,"current_range_meters":34000,"station_id":"ce4bgqh2rcd13ifvqc5g","pricing_plan_id":"cebpf4jnsgd1na2vs0mg"},{"bike_id":"634d56c1-a2c0-4178-97ec-f77ccc52b51c","system_id":"levelo_inurba_marseille","lat":43.23176,"lon":5.39954,"is_reserved":false,"is_disabled":false,"rental_uris":{"android":"levelo://app?vid=634d56c1-a2c0-4178-97ec-f77ccc52b51c","ios":"levelo://app?vid=634d56c1-a2c0-4178-97ec-f77ccc52b51c"},"vehicle_type_id":"4","last_reported":1737699148,"current_range_meters":32400,"station_id":"ce4bhn12rcd13ifvqgqg","pricing_plan_id":"cebpf4jnsgd1na2vs0mg"},{"bike_id":"7da2dc43-ec86-444b-b170-22e5a144ea03","system_id":"levelo_inurba_marseille","lat":43.28556,"lon":5.39489,"is_reserved":false,"is_disabled":false,"rental_uris":{"android":"levelo://app?vid=7da2dc43-ec86-444b-b170-22e5a144ea03","ios":"levelo://app?vid=7da2dc43-ec86-444b-b170-22e5a144ea03"},"vehicle_type_id":"4","last_reported":1737699148,"current_range_meters":38800,"station_id":"ce4bh292rcd13ifvqdg0","pricing_plan_id":"cebpf4jnsgd1na2vs0mg"},{"bike_id":"7a2298db-3181-4dc6-9dc2-6c0b4192a1ea","system_id":"levelo_inurba_marseille","lat":43.31284,"lon":5.40167,"is_reserved":false,"is_disabled":false,"rental_uris":{"android":"levelo://app?vid=7a2298db-3181-4dc6-9dc2-6c0b4192a1ea","ios":"levelo://app?vid=7a2298db-3181-4dc6-9dc2-6c0b4192a1ea"},"vehicle_type_id":"4","last_reported":1737699148,"current_range_meters":4000,"station_id":"ce4bh092rcd13ifvqd30","pricing_plan_id":"cebpf4jnsgd1na2vs0mg"},{"bike_id":"df8c43c7-a91e-44ad-ac9b-073dcc3138f1","system_id":"levelo_inurba_marseille","lat":43.31271,"lon":5.40162,"is_reserved":false,"is_disabled":false,"rental_uris":{"android":"levelo://app?vid=df8c43c7-a91e-44ad-ac9b-073dcc3138f1","ios":"levelo://app?vid=df8c43c7-a91e-44ad-ac9b-073dcc3138f1"},"vehicle_type_id":"4","last_reported":1737699148,"current_range_meters":25600,"station_id":"ce4bh092rcd13ifvqd30","pricing_plan_id":"cebpf4jnsgd1na2vs0mg"},{"bike_id":"11af7151-cc28-4301-8f2f-3050d9fc8d9c","system_id":"levelo_inurba_marseille","lat":43.26915,"lon":5.38673,"is_reserved":false,"is_disabled":false,"rental_uris":{"android":"levelo://app?vid=11af7151-cc28-4301-8f2f-3050d9fc8d9c","ios":"levelo://app?vid=11af7151-cc28-4301-8f2f-3050d9fc8d9c"},"vehicle_type_id":"4","last_reported":1737699148,"current_range_meters":38800,"station_id":"ce4bhh92rcd13ifvqfh0","pricing_plan_id":"cebpf4jnsgd1na2vs0mg"},{"bike_id":"ca086e44-bf3e-42cf-9cdd-4fb5146d5c95","system_id":"levelo_inurba_marseille","lat":43.30482,"lon":5.37897,"is_reserved":false,"is_disabled":false,"rental_uris":{"android":"levelo://app?vid=ca086e44-bf3e-42cf-9cdd-4fb5146d5c95","ios":"levelo://app?vid=ca086e44-bf3e-42cf-9cdd-4fb5146d5c95"},"vehicle_type_id":"4","last_reported":1737699148,"current_range_meters":38800,"station_id":"ce4bgup2rcd13ifvqcn0","pricing_plan_id":"cebpf4jnsgd1na2vs0mg"},{"bike_id":"a79c1454-a618-4883-baba-55f13f06650c","system_id":"levelo_inurba_marseille","lat":43.30647,"lon":5.40083,"is_reserved":false,"is_disabled":false,"rental_uris":{"android":"levelo://app?vid=a79c1454-a618-4883-baba-55f13f06650c","ios":"levelo://app?vid=a79c1454-a618-4883-baba-55f13f06650c"},"vehicle_type_id":"4","last_reported":1737699148,"current_range_meters":32400,"station_id":"ce4bh112rcd13ifvqda0","pricing_plan_id":"cebpf4jnsgd1na2vs0mg"},{"bike_id":"bf232eb6-ff63-4ac8-9eb0-5e3d769ec9cd","system_id":"levelo_inurba_marseille","lat":43.313514,"lon":5.367117,"is_reserved":false,"is_disabled":false,"rental_uris":{"android":"levelo://app?vid=bf232eb6-ff63-4ac8-9eb0-5e3d769ec9cd","ios":"levelo://app?vid=bf232eb6-ff63-4ac8-9eb0-5e3d769ec9cd"},"vehicle_type_id":"4","last_reported":1737699148,"current_range_meters":33600,"station_id":"ce4bgr92rcd13ifvqc6g","pricing_plan_id":"cebpf4jnsgd1na2vs0mg"},{"bike_id":"1f9e9dd7-f28f-4cb0-aff0-74dd18ed4c57","system_id":"levelo_inurba_marseille","lat":43.239661,"lon":5.366559,"is_reserved":false,"is_disabled":false,"rental_uris":{"android":"levelo://app?vid=1f9e9dd7-f28f-4cb0-aff0-74dd18ed4c57","ios":"levelo://app?vid=1f9e9dd7-f28f-4cb0-aff0-74dd18ed4c57"},"vehicle_type_id":"4","last_reported":1737699148,"current_range_meters":9600,"station_id":"ce4bhi12rcd13ifvqfp0","pricing_plan_id":"cebpf4jnsgd1na2vs0mg"},{"bike_id":"fba17d17-580a-40d8-8216-24fc3709ba86","system_id":"levelo_inurba_marseille","lat":43.30646,"lon":5.40089,"is_reserved":false,"is_disabled":false,"rental_uris":{"android":"levelo://app?vid=fba17d17-580a-40d8-8216-24fc3709ba86","ios":"levelo://app?vid=fba17d17-580a-40d8-8216-24fc3709ba86"},"vehicle_type_id":"4","last_reported":1737699148,"current_range_meters":34000,"station_id":"ce4bh112rcd13ifvqda0","pricing_plan_id":"cebpf4jnsgd1na2vs0mg"},{"bike_id":"58e04e08-346e-461f-85c7-12eadb78d927","system_id":"levelo_inurba_marseille","lat":43.313341,"lon":5.396908,"is_reserved":false,"is_disabled":false,"rental_uris":{"android":"levelo://app?vid=58e04e08-346e-461f-85c7-12eadb78d927","ios":"levelo://app?vid=58e04e08-346e-461f-85c7-12eadb78d927"},"vehicle_type_id":"4","last_reported":1737699148,"current_range_meters":38800,"station_id":"ce4bgvp2rcd13ifvqcu0","pricing_plan_id":"cebpf4jnsgd1na2vs0mg"},{"bike_id":"536484ed-d967-41c5-8f88-22ed70378acb","system_id":"levelo_inurba_marseille","lat":43.27479,"lon":5.39782,"is_reserved":false,"is_disabled":false,"rental_uris":{"android":"levelo://app?vid=536484ed-d967-41c5-8f88-22ed70378acb","ios":"levelo://app?vid=536484ed-d967-41c5-8f88-22ed70378acb"},"vehicle_type_id":"4","last_reported":1737699148,"current_range_meters":6400,"station_id":"","pricing_plan_id":"cebpf4jnsgd1na2vs0mg"},{"bike_id":"e3f96e7a-23eb-45fe-9920-f6ed2a39d29c","system_id":"levelo_inurba_marseille","lat":43.31341,"lon":5.39683,"is_reserved":false,"is_disabled":false,"rental_uris":{"android":"levelo://app?vid=e3f96e7a-23eb-45fe-9920-f6ed2a39d29c","ios":"levelo://app?vid=e3f96e7a-23eb-45fe-9920-f6ed2a39d29c"},"vehicle_type_id":"4","last_reported":1737699148,"current_range_meters":28400,"station_id":"ce4bgvp2rcd13ifvqcu0","pricing_plan_id":"cebpf4jnsgd1na2vs0mg"},{"bike_id":"a48a1d35-3f13-45af-a2ef-e29bf30d3d17","system_id":"levelo_inurba_marseille","lat":43.30786,"lon":5.4352,"is_reserved":false,"is_disabled":false,"rental_uris":{"android":"levelo://app?vid=a48a1d35-3f13-45af-a2ef-e29bf30d3d17","ios":"levelo://app?vid=a48a1d35-3f13-45af-a2ef-e29bf30d3d17"},"vehicle_type_id":"4","last_reported":1737699148,"current_range_meters":8400,"station_id":"ce4bhph2rcd13ifvqheg","pricing_plan_id":"cebpf4jnsgd1na2vs0mg"},{"bike_id":"958cdda4-cef5-45e7-a19d-cf9011d44ae0","system_id":"levelo_inurba_marseille","lat":43.29711,"lon":5.36606,"is_reserved":false,"is_disabled":false,"rental_uris":{"android":"levelo://app?vid=958cdda4-cef5-45e7-a19d-cf9011d44ae0","ios":"levelo://app?vid=958cdda4-cef5-45e7-a19d-cf9011d44ae0"},"vehicle_type_id":"4","last_reported":1737699148,"current_range_meters":38000,"station_id":"ce4bgn12rcd13ifvqbt0","pricing_plan_id":"cebpf4jnsgd1na2vs0mg"},{"bike_id":"050bd42b-0fa4-4ea3-8a02-3c1196960ece","system_id":"levelo_inurba_marseille","lat":43.31641,"lon":5.37408,"is_reserved":false,"is_disabled":false,"rental_uris":{"android":"levelo://app?vid=050bd42b-0fa4-4ea3-8a02-3c1196960ece","ios":"levelo://app?vid=050bd42b-0fa4-4ea3-8a02-3c1196960ece"},"vehicle_type_id":"4","last_reported":1737699148,"current_range_meters":24800,"station_id":"","pricing_plan_id":"cebpf4jnsgd1na2vs0mg"},{"bike_id":"4de417ca-a2c4-4c35-8f92-84f19975fa1b","system_id":"levelo_inurba_marseille","lat":43.257164,"lon":5.411143,"is_reserved":false,"is_disabled":false,"rental_uris":{"android":"levelo://app?vid=4de417ca-a2c4-4c35-8f92-84f19975fa1b","ios":"levelo://app?vid=4de417ca-a2c4-4c35-8f92-84f19975fa1b"},"vehicle_type_id":"4","last_reported":1737699148,"current_range_meters":37600,"station_id":"ce4bhkp2rcd13ifvqgd0","pricing_plan_id":"cebpf4jnsgd1na2vs0mg"},{"bike_id":"a86e3ddc-f40c-4132-8858-52acf51c44bd","system_id":"levelo_inurba_marseille","lat":43.3082,"lon":5.38178,"is_reserved":false,"is_disabled":false,"rental_uris":{"android":"levelo://app?vid=a86e3ddc-f40c-4132-8858-52acf51c44bd","ios":"levelo://app?vid=a86e3ddc-f40c-4132-8858-52acf51c44bd"},"vehicle_type_id":"4","last_reported":1737699148,"current_range_meters":36000,"station_id":"ce4bgt12rcd13ifvqce0","pricing_plan_id":"cebpf4jnsgd1na2vs0mg"},{"bike_id":"0ad149d9-6e33-405d-aa3c-5e42e0c0ed7d","system_id":"levelo_inurba_marseille","lat":43.28152,"lon":5.42654,"is_reserved":false,"is_disabled":false,"rental_uris":{"android":"levelo://app?vid=0ad149d9-6e33-405d-aa3c-5e42e0c0ed7d","ios":"levelo://app?vid=0ad149d9-6e33-405d-aa3c-5e42e0c0ed7d"},"vehicle_type_id":"4","last_reported":1737699148,"current_range_meters":29600,"station_id":"ce4bhnh2rcd13ifvqgug","pricing_plan_id":"cebpf4jnsgd1na2vs0mg"},{"bike_id":"2f4fa984-4c44-4974-abb6-1d4b539de1f0","system_id":"levelo_inurba_marseille","lat":43.286813,"lon":5.386646,"is_reserved":false,"is_disabled":true,"rental_uris":{"android":"levelo://app?vid=2f4fa984-4c44-4974-abb6-1d4b539de1f0","ios":"levelo://app?vid=2f4fa984-4c44-4974-abb6-1d4b539de1f0"},"vehicle_type_id":"4","last_reported":1737699148,"current_range_meters":33200,"station_id":"ce4bh492rcd13ifvqdug","pricing_plan_id":"cebpf4jnsgd1na2vs0mg"},{"bike_id":"347dd29e-9a9e-4a37-8ddd-6e2050aaff03","system_id":"levelo_inurba_marseille","lat":43.33709,"lon":5.39214,"is_reserved":false,"is_disabled":false,"rental_uris":{"android":"levelo://app?vid=347dd29e-9a9e-4a37-8ddd-6e2050aaff03","ios":"levelo://app?vid=347dd29e-9a9e-4a37-8ddd-6e2050aaff03"},"vehicle_type_id":"4","last_reported":1737699148,"current_range_meters":38800,"station_id":"ce4bhr92rcd13ifvqhsg","pricing_plan_id":"cebpf4jnsgd1na2vs0mg"},{"bike_id":"e171ea3d-34a7-4bed-9418-eb3dcd6fd5da","system_id":"levelo_inurba_marseille","lat":43.30144,"lon":5.38107,"is_reserved":false,"is_disabled":true,"rental_uris":{"android":"levelo://app?vid=e171ea3d-34a7-4bed-9418-eb3dcd6fd5da","ios":"levelo://app?vid=e171ea3d-34a7-4bed-9418-eb3dcd6fd5da"},"vehicle_type_id":"4","last_reported":1737699148,"current_range_meters":0,"station_id":"ce4bgjp2rcd13ifvqbh0","pricing_plan_id":"cebpf4jnsgd1na2vs0mg"},{"bike_id":"69ae49c8-dae4-483c-a6fa-9d4961c23e96","system_id":"levelo_inurba_marseille","lat":43.25833,"lon":5.3944,"is_reserved":false,"is_disabled":false,"rental_uris":{"android":"levelo://app?vid=69ae49c8-dae4-483c-a6fa-9d4961c23e96","ios":"levelo://app?vid=69ae49c8-dae4-483c-a6fa-9d4961c23e96"},"vehicle_type_id":"4","last_reported":1737699148,"current_range_meters":23200,"station_id":"ce4bhip2rcd13ifvqft0","pricing_plan_id":"cebpf4jnsgd1na2vs0mg"},{"bike_id":"8d629a2a-349e-4f79-9155-46642e1714ff","system_id":"levelo_inurba_marseille","lat":43.2857,"lon":5.39489,"is_reserved":false,"is_disabled":false,"rental_uris":{"android":"levelo://app?vid=8d629a2a-349e-4f79-9155-46642e1714ff","ios":"levelo://app?vid=8d629a2a-349e-4f79-9155-46642e1714ff"},"vehicle_type_id":"4","last_reported":1737699148,"current_range_meters":39200,"station_id":"ce4bh292rcd13ifvqdg0","pricing_plan_id":"cebpf4jnsgd1na2vs0mg"},{"bike_id":"a71d48fb-0e6d-4ab5-aa6d-78375a31d0e8","system_id":"levelo_inurba_marseille","lat":43.28721,"lon":5.36094,"is_reserved":false,"is_disabled":false,"rental_uris":{"android":"levelo://app?vid=a71d48fb-0e6d-4ab5-aa6d-78375a31d0e8","ios":"levelo://app?vid=a71d48fb-0e6d-4ab5-aa6d-78375a31d0e8"},"vehicle_type_id":"4","last_reported":1737699148,"current_range_meters":16800,"station_id":"cki0cbj6b192h4jlfktg","pricing_plan_id":"cebpf4jnsgd1na2vs0mg"},{"bike_id":"0f29d1f4-f2e5-4e89-bd55-62e38b10dc53","system_id":"levelo_inurba_marseille","lat":43.28264,"lon":5.35072,"is_reserved":false,"is_disabled":false,"rental_uris":{"android":"levelo://app?vid=0f29d1f4-f2e5-4e89-bd55-62e38b10dc53","ios":"levelo://app?vid=0f29d1f4-f2e5-4e89-bd55-62e38b10dc53"},"vehicle_type_id":"4","last_reported":1737699148,"current_range_meters":8400,"station_id":"ce4bhbp2rcd13ifvqerg","pricing_plan_id":"cebpf4jnsgd1na2vs0mg"},{"bike_id":"ae68ba39-5270-41c9-9b4e-60dc844918bf","system_id":"levelo_inurba_marseille","lat":43.30423,"lon":5.39741,"is_reserved":false,"is_disabled":false,"rental_uris":{"android":"levelo://app?vid=ae68ba39-5270-41c9-9b4e-60dc844918bf","ios":"levelo://app?vid=ae68ba39-5270-41c9-9b4e-60dc844918bf"},"vehicle_type_id":"4","last_reported":1737699148,"current_range_meters":35200,"station_id":"ce4bh092rcd13ifvqd20","pricing_plan_id":"cebpf4jnsgd1na2vs0mg"},{"bike_id":"90b8a1b1-ad54-458d-9362-f5197bbdf048","system_id":"levelo_inurba_marseille","lat":43.22926,"lon":5.35385,"is_reserved":false,"is_disabled":false,"rental_uris":{"android":"levelo://app?vid=90b8a1b1-ad54-458d-9362-f5197bbdf048","ios":"levelo://app?vid=90b8a1b1-ad54-458d-9362-f5197bbdf048"},"vehicle_type_id":"4","last_reported":1737699148,"current_range_meters":38800,"station_id":"cpo3532slgdg3j2ikp40","pricing_plan_id":"cebpf4jnsgd1na2vs0mg"},{"bike_id":"a75f5e55-2434-4577-aea6-4fb68eba1fa4","system_id":"levelo_inurba_marseille","lat":43.2467,"lon":5.38172,"is_reserved":false,"is_disabled":false,"rental_uris":{"android":"levelo://app?vid=a75f5e55-2434-4577-aea6-4fb68eba1fa4","ios":"levelo://app?vid=a75f5e55-2434-4577-aea6-4fb68eba1fa4"},"vehicle_type_id":"4","last_reported":1737699148,"current_range_meters":38800,"station_id":"ce4bhih2rcd13ifvqfr0","pricing_plan_id":"cebpf4jnsgd1na2vs0mg"},{"bike_id":"f8c6f012-709c-4d1f-9969-bb54cb3e2705","system_id":"levelo_inurba_marseille","lat":43.311253,"lon":5.377623,"is_reserved":false,"is_disabled":false,"rental_uris":{"android":"levelo://app?vid=f8c6f012-709c-4d1f-9969-bb54cb3e2705","ios":"levelo://app?vid=f8c6f012-709c-4d1f-9969-bb54cb3e2705"},"vehicle_type_id":"4","last_reported":1737699148,"current_range_meters":32000,"station_id":"ce4bgt92rcd13ifvqcg0","pricing_plan_id":"cebpf4jnsgd1na2vs0mg"},{"bike_id":"3aac3800-3bfc-4c11-9c09-d76a92ad1f34","system_id":"levelo_inurba_marseille","lat":43.279932,"lon":5.416581,"is_reserved":false,"is_disabled":false,"rental_uris":{"android":"levelo://app?vid=3aac3800-3bfc-4c11-9c09-d76a92ad1f34","ios":"levelo://app?vid=3aac3800-3bfc-4c11-9c09-d76a92ad1f34"},"vehicle_type_id":"4","last_reported":1737699148,"current_range_meters":7200,"station_id":"ce4bho12rcd13ifvqh1g","pricing_plan_id":"cebpf4jnsgd1na2vs0mg"},{"bike_id":"42b6bd41-39ad-43e0-8aa0-3ac177fb760e","system_id":"levelo_inurba_marseille","lat":43.29442,"lon":5.39754,"is_reserved":false,"is_disabled":false,"rental_uris":{"android":"levelo://app?vid=42b6bd41-39ad-43e0-8aa0-3ac177fb760e","ios":"levelo://app?vid=42b6bd41-39ad-43e0-8aa0-3ac177fb760e"},"vehicle_type_id":"4","last_reported":1737699148,"current_range_meters":38400,"station_id":"ce4bh3h2rcd13ifvqdo0","pricing_plan_id":"cebpf4jnsgd1na2vs0mg"},{"bike_id":"62069f6c-3dd9-4b79-9f44-941214b1a57f","system_id":"levelo_inurba_marseille","lat":43.299435,"lon":5.36522,"is_reserved":false,"is_disabled":false,"rental_uris":{"android":"levelo://app?vid=62069f6c-3dd9-4b79-9f44-941214b1a57f","ios":"levelo://app?vid=62069f6c-3dd9-4b79-9f44-941214b1a57f"},"vehicle_type_id":"4","last_reported":1737699148,"current_range_meters":38000,"station_id":"ce4bgm92rcd13ifvqbr0","pricing_plan_id":"cebpf4jnsgd1na2vs0mg"},{"bike_id":"1c521484-0b29-41a9-9bd2-15ebb17b6cb5","system_id":"levelo_inurba_marseille","lat":43.27627,"lon":5.36118,"is_reserved":false,"is_disabled":false,"rental_uris":{"android":"levelo://app?vid=1c521484-0b29-41a9-9bd2-15ebb17b6cb5","ios":"levelo://app?vid=1c521484-0b29-41a9-9bd2-15ebb17b6cb5"},"vehicle_type_id":"4","last_reported":1737699148,"current_range_meters":38800,"station_id":"ce4bgj92rcd13ifvqbe0","pricing_plan_id":"cebpf4jnsgd1na2vs0mg"},{"bike_id":"ce90fea6-ff2a-4d0b-bd4f-45ced0acf4c0","system_id":"levelo_inurba_marseille","lat":43.32361,"lon":5.36745,"is_reserved":false,"is_disabled":false,"rental_uris":{"android":"levelo://app?vid=ce90fea6-ff2a-4d0b-bd4f-45ced0acf4c0","ios":"levelo://app?vid=ce90fea6-ff2a-4d0b-bd4f-45ced0acf4c0"},"vehicle_type_id":"4","last_reported":1737699148,"current_range_meters":8400,"station_id":"ce4bhsh2rcd13ifvqi2g","pricing_plan_id":"cebpf4jnsgd1na2vs0mg"},{"bike_id":"6a138139-3d91-48e3-a712-79103a837cbd","system_id":"levelo_inurba_marseille","lat":43.27563,"lon":5.38428,"is_reserved":false,"is_disabled":false,"rental_uris":{"android":"levelo://app?vid=6a138139-3d91-48e3-a712-79103a837cbd","ios":"levelo://app?vid=6a138139-3d91-48e3-a712-79103a837cbd"},"vehicle_type_id":"4","last_reported":1737699148,"current_range_meters":37600,"station_id":"ce4bhh92rcd13ifvqfi0","pricing_plan_id":"cebpf4jnsgd1na2vs0mg"},{"bike_id":"ab13439f-1c4b-4b83-ac72-9f4e6d1f64cb","system_id":"levelo_inurba_marseille","lat":43.3125,"lon":5.37985,"is_reserved":false,"is_disabled":true,"rental_uris":{"android":"levelo://app?vid=ab13439f-1c4b-4b83-ac72-9f4e6d1f64cb","ios":"levelo://app?vid=ab13439f-1c4b-4b83-ac72-9f4e6d1f64cb"},"vehicle_type_id":"4","last_reported":1737699148,"current_range_meters":8400,"station_id":"","pricing_plan_id":"cebpf4jnsgd1na2vs0mg"},{"bike_id":"02394dc5-85af-47df-a8e1-31c154c9e2cc","system_id":"levelo_inurba_marseille","lat":43.23186,"lon":5.39978,"is_reserved":false,"is_disabled":false,"rental_uris":{"android":"levelo://app?vid=02394dc5-85af-47df-a8e1-31c154c9e2cc","ios":"levelo://app?vid=02394dc5-85af-47df-a8e1-31c154c9e2cc"},"vehicle_type_id":"4","last_reported":1737699148,"current_range_meters":38000,"station_id":"ce4bhn12rcd13ifvqgqg","pricing_plan_id":"cebpf4jnsgd1na2vs0mg"},{"bike_id":"48555a19-9927-46f2-ab55-dddb364d57a8","system_id":"levelo_inurba_marseille","lat":43.287276,"lon":5.360795,"is_reserved":false,"is_disabled":false,"rental_uris":{"android":"levelo://app?vid=48555a19-9927-46f2-ab55-dddb364d57a8","ios":"levelo://app?vid=48555a19-9927-46f2-ab55-dddb364d57a8"},"vehicle_type_id":"4","last_reported":1737699148,"current_range_meters":32400,"station_id":"cki0cbj6b192h4jlfktg","pricing_plan_id":"cebpf4jnsgd1na2vs0mg"},{"bike_id":"f727cadd-b012-439d-9f69-5c90e77b0085","system_id":"levelo_inurba_marseille","lat":43.31755,"lon":5.39022,"is_reserved":false,"is_disabled":false,"rental_uris":{"android":"levelo://app?vid=f727cadd-b012-439d-9f69-5c90e77b0085","ios":"levelo://app?vid=f727cadd-b012-439d-9f69-5c90e77b0085"},"vehicle_type_id":"4","last_reported":1737699148,"current_range_meters":9200,"station_id":"ce4bhqp2rcd13ifvqhng","pricing_plan_id":"cebpf4jnsgd1na2vs0mg"},{"bike_id":"228f0a1b-072c-43d1-950f-7e9ee325d458","system_id":"levelo_inurba_marseille","lat":43.27319,"lon":5.39077,"is_reserved":false,"is_disabled":false,"rental_uris":{"android":"levelo://app?vid=228f0a1b-072c-43d1-950f-7e9ee325d458","ios":"levelo://app?vid=228f0a1b-072c-43d1-950f-7e9ee325d458"},"vehicle_type_id":"4","last_reported":1737699148,"current_range_meters":8000,"station_id":"ce4bhgp2rcd13ifvqfe0","pricing_plan_id":"cebpf4jnsgd1na2vs0mg"},{"bike_id":"2825fd6c-bf20-4dc1-b613-1bf2bcd1213d","system_id":"levelo_inurba_marseille","lat":43.31372,"lon":5.38492,"is_reserved":false,"is_disabled":false,"rental_uris":{"android":"levelo://app?vid=2825fd6c-bf20-4dc1-b613-1bf2bcd1213d","ios":"levelo://app?vid=2825fd6c-bf20-4dc1-b613-1bf2bcd1213d"},"vehicle_type_id":"4","last_reported":1737699148,"current_range_meters":38800,"station_id":"ce4bgt92rcd13ifvqcf0","pricing_plan_id":"cebpf4jnsgd1na2vs0mg"},{"bike_id":"78b03264-0c2d-45b5-9b0a-cf7cc454c0c6","system_id":"levelo_inurba_marseille","lat":43.324696,"lon":5.365902,"is_reserved":false,"is_disabled":false,"rental_uris":{"android":"levelo://app?vid=78b03264-0c2d-45b5-9b0a-cf7cc454c0c6","ios":"levelo://app?vid=78b03264-0c2d-45b5-9b0a-cf7cc454c0c6"},"vehicle_type_id":"4","last_reported":1737699148,"current_range_meters":38800,"station_id":"ce4bhs12rcd13ifvqhvg","pricing_plan_id":"cebpf4jnsgd1na2vs0mg"},{"bike_id":"8b8cad2f-0e7c-40af-8c9c-c4805c9fc5c2","system_id":"levelo_inurba_marseille","lat":43.29776,"lon":5.377,"is_reserved":false,"is_disabled":true,"rental_uris":{"android":"levelo://app?vid=8b8cad2f-0e7c-40af-8c9c-c4805c9fc5c2","ios":"levelo://app?vid=8b8cad2f-0e7c-40af-8c9c-c4805c9fc5c2"},"vehicle_type_id":"4","last_reported":1737699148,"current_range_meters":0,"station_id":"","pricing_plan_id":"cebpf4jnsgd1na2vs0mg"},{"bike_id":"78fdab03-275f-4f4e-89ae-49e9a29fa9c1","system_id":"levelo_inurba_marseille","lat":43.24173,"lon":5.39728,"is_reserved":false,"is_disabled":false,"rental_uris":{"android":"levelo://app?vid=78fdab03-275f-4f4e-89ae-49e9a29fa9c1","ios":"levelo://app?vid=78fdab03-275f-4f4e-89ae-49e9a29fa9c1"},"vehicle_type_id":"4","last_reported":1737699148,"current_range_meters":11200,"station_id":"ce4bhn12rcd13ifvqgpg","pricing_plan_id":"cebpf4jnsgd1na2vs0mg"},{"bike_id":"6c4cccf7-41c9-46ed-a849-58513dcefd65","system_id":"levelo_inurba_marseille","lat":43.22936,"lon":5.35381,"is_reserved":false,"is_disabled":false,"rental_uris":{"android":"levelo://app?vid=6c4cccf7-41c9-46ed-a849-58513dcefd65","ios":"levelo://app?vid=6c4cccf7-41c9-46ed-a849-58513dcefd65"},"vehicle_type_id":"4","last_reported":1737699148,"current_range_meters":38400,"station_id":"cpo3532slgdg3j2ikp40","pricing_plan_id":"cebpf4jnsgd1na2vs0mg"},{"bike_id":"26e28195-4ad7-4d72-be5e-ab3e9acfade7","system_id":"levelo_inurba_marseille","lat":43.27172,"lon":5.40981,"is_reserved":false,"is_disabled":false,"rental_uris":{"android":"levelo://app?vid=26e28195-4ad7-4d72-be5e-ab3e9acfade7","ios":"levelo://app?vid=26e28195-4ad7-4d72-be5e-ab3e9acfade7"},"vehicle_type_id":"4","last_reported":1737699148,"current_range_meters":32000,"station_id":"ce4bhl12rcd13ifvqgf0","pricing_plan_id":"cebpf4jnsgd1na2vs0mg"},{"bike_id":"a6589423-f81d-43db-8547-4d93d0a4d5b1","system_id":"levelo_inurba_marseille","lat":43.309355,"lon":5.401537,"is_reserved":false,"is_disabled":false,"rental_uris":{"android":"levelo://app?vid=a6589423-f81d-43db-8547-4d93d0a4d5b1","ios":"levelo://app?vid=a6589423-f81d-43db-8547-4d93d0a4d5b1"},"vehicle_type_id":"4","last_reported":1737699148,"current_range_meters":36800,"station_id":"ce4bgvp2rcd13ifvqct0","pricing_plan_id":"cebpf4jnsgd1na2vs0mg"},{"bike_id":"d9116d70-9fe4-4bfa-813f-a05c0ef23908","system_id":"levelo_inurba_marseille","lat":43.28568,"lon":5.39492,"is_reserved":false,"is_disabled":false,"rental_uris":{"android":"levelo://app?vid=d9116d70-9fe4-4bfa-813f-a05c0ef23908","ios":"levelo://app?vid=d9116d70-9fe4-4bfa-813f-a05c0ef23908"},"vehicle_type_id":"4","last_reported":1737699148,"current_range_meters":38800,"station_id":"ce4bh292rcd13ifvqdg0","pricing_plan_id":"cebpf4jnsgd1na2vs0mg"},{"bike_id":"ce8f1cb6-0493-4046-a4eb-2ab4d191046d","system_id":"levelo_inurba_marseille","lat":43.3236,"lon":5.38885,"is_reserved":false,"is_disabled":false,"rental_uris":{"android":"levelo://app?vid=ce8f1cb6-0493-4046-a4eb-2ab4d191046d","ios":"levelo://app?vid=ce8f1cb6-0493-4046-a4eb-2ab4d191046d"},"vehicle_type_id":"4","last_reported":1737699148,"current_range_meters":37600,"station_id":"ce4bhqp2rcd13ifvqhog","pricing_plan_id":"cebpf4jnsgd1na2vs0mg"},{"bike_id":"ee89b6e2-23cc-4264-9831-ca60870e078c","system_id":"levelo_inurba_marseille","lat":43.27994,"lon":5.40011,"is_reserved":false,"is_disabled":false,"rental_uris":{"android":"levelo://app?vid=ee89b6e2-23cc-4264-9831-ca60870e078c","ios":"levelo://app?vid=ee89b6e2-23cc-4264-9831-ca60870e078c"},"vehicle_type_id":"4","last_reported":1737699148,"current_range_meters":38400,"station_id":"ce4bho92rcd13ifvqh4g","pricing_plan_id":"cebpf4jnsgd1na2vs0mg"},{"bike_id":"d90fa84e-7c68-41a7-ad7b-dfeefc6268f3","system_id":"levelo_inurba_marseille","lat":43.30291,"lon":5.39216,"is_reserved":false,"is_disabled":true,"rental_uris":{"android":"levelo://app?vid=d90fa84e-7c68-41a7-ad7b-dfeefc6268f3","ios":"levelo://app?vid=d90fa84e-7c68-41a7-ad7b-dfeefc6268f3"},"vehicle_type_id":"4","last_reported":1737699148,"current_range_meters":0,"station_id":"ce4bgkh2rcd13ifvqbk0","pricing_plan_id":"cebpf4jnsgd1na2vs0mg"},{"bike_id":"91a93a6a-90c2-4b55-8bfa-a5975747e452","system_id":"levelo_inurba_marseille","lat":43.23186,"lon":5.399831,"is_reserved":false,"is_disabled":false,"rental_uris":{"android":"levelo://app?vid=91a93a6a-90c2-4b55-8bfa-a5975747e452","ios":"levelo://app?vid=91a93a6a-90c2-4b55-8bfa-a5975747e452"},"vehicle_type_id":"4","last_reported":1737699148,"current_range_meters":24400,"station_id":"ce4bhn12rcd13ifvqgqg","pricing_plan_id":"cebpf4jnsgd1na2vs0mg"},{"bike_id":"85a3042a-99ef-4a57-92d9-e9fccf7a3989","system_id":"levelo_inurba_marseille","lat":43.30496,"lon":5.37911,"is_reserved":false,"is_disabled":false,"rental_uris":{"android":"levelo://app?vid=85a3042a-99ef-4a57-92d9-e9fccf7a3989","ios":"levelo://app?vid=85a3042a-99ef-4a57-92d9-e9fccf7a3989"},"vehicle_type_id":"4","last_reported":1737699148,"current_range_meters":35200,"station_id":"ce4bgup2rcd13ifvqcn0","pricing_plan_id":"cebpf4jnsgd1na2vs0mg"},{"bike_id":"1cf55402-87c5-435d-85af-2c6c0e9ef152","system_id":"levelo_inurba_marseille","lat":43.32479,"lon":5.36566,"is_reserved":false,"is_disabled":false,"rental_uris":{"android":"levelo://app?vid=1cf55402-87c5-435d-85af-2c6c0e9ef152","ios":"levelo://app?vid=1cf55402-87c5-435d-85af-2c6c0e9ef152"},"vehicle_type_id":"4","last_reported":1737699148,"current_range_meters":38800,"station_id":"ce4bhs12rcd13ifvqhvg","pricing_plan_id":"cebpf4jnsgd1na2vs0mg"},{"bike_id":"85c4b304-0a15-4fc1-b75d-cfc16b5afe60","system_id":"levelo_inurba_marseille","lat":43.22928,"lon":5.35403,"is_reserved":false,"is_disabled":false,"rental_uris":{"android":"levelo://app?vid=85c4b304-0a15-4fc1-b75d-cfc16b5afe60","ios":"levelo://app?vid=85c4b304-0a15-4fc1-b75d-cfc16b5afe60"},"vehicle_type_id":"4","last_reported":1737699148,"current_range_meters":38800,"station_id":"cpo3532slgdg3j2ikp40","pricing_plan_id":"cebpf4jnsgd1na2vs0mg"},{"bike_id":"6ed63443-9ee2-4547-a9d8-232a8ac89f23","system_id":"levelo_inurba_marseille","lat":43.30804,"lon":5.38156,"is_reserved":false,"is_disabled":false,"rental_uris":{"android":"levelo://app?vid=6ed63443-9ee2-4547-a9d8-232a8ac89f23","ios":"levelo://app?vid=6ed63443-9ee2-4547-a9d8-232a8ac89f23"},"vehicle_type_id":"4","last_reported":1737699148,"current_range_meters":10800,"station_id":"ce4bgt12rcd13ifvqce0","pricing_plan_id":"cebpf4jnsgd1na2vs0mg"},{"bike_id":"f7f20ea8-ac89-40b3-bd17-c73f31722701","system_id":"levelo_inurba_marseille","lat":43.298939,"lon":5.436636,"is_reserved":false,"is_disabled":false,"rental_uris":{"android":"levelo://app?vid=f7f20ea8-ac89-40b3-bd17-c73f31722701","ios":"levelo://app?vid=f7f20ea8-ac89-40b3-bd17-c73f31722701"},"vehicle_type_id":"4","last_reported":1737699148,"current_range_meters":38800,"station_id":"ce4bhpp2rcd13ifvqhfg","pricing_plan_id":"cebpf4jnsgd1na2vs0mg"},{"bike_id":"0e553e26-2ebb-4e33-ac27-ae31df0f1b3c","system_id":"levelo_inurba_marseille","lat":43.29781,"lon":5.39324,"is_reserved":false,"is_disabled":false,"rental_uris":{"android":"levelo://app?vid=0e553e26-2ebb-4e33-ac27-ae31df0f1b3c","ios":"levelo://app?vid=0e553e26-2ebb-4e33-ac27-ae31df0f1b3c"},"vehicle_type_id":"4","last_reported":1737699148,"current_range_meters":38800,"station_id":"chh1huq6cuj3fo74tm60","pricing_plan_id":"cebpf4jnsgd1na2vs0mg"},{"bike_id":"16f8fa85-21fc-417b-b198-1ababf247410","system_id":"levelo_inurba_marseille","lat":43.30953,"lon":5.39059,"is_reserved":false,"is_disabled":false,"rental_uris":{"android":"levelo://app?vid=16f8fa85-21fc-417b-b198-1ababf247410","ios":"levelo://app?vid=16f8fa85-21fc-417b-b198-1ababf247410"},"vehicle_type_id":"4","last_reported":1737699148,"current_range_meters":7200,"station_id":"ce4bgup2rcd13ifvqco0","pricing_plan_id":"cebpf4jnsgd1na2vs0mg"},{"bike_id":"90e4484f-f385-4b0c-bc5c-dd8acf87649e","system_id":"levelo_inurba_marseille","lat":43.31069,"lon":5.38356,"is_reserved":false,"is_disabled":false,"rental_uris":{"android":"levelo://app?vid=90e4484f-f385-4b0c-bc5c-dd8acf87649e","ios":"levelo://app?vid=90e4484f-f385-4b0c-bc5c-dd8acf87649e"},"vehicle_type_id":"4","last_reported":1737699148,"current_range_meters":8800,"station_id":"ce4bgv92rcd13ifvqcr0","pricing_plan_id":"cebpf4jnsgd1na2vs0mg"},{"bike_id":"57ce499e-d4f7-4b47-be4a-ba8113d200a0","system_id":"levelo_inurba_marseille","lat":43.27995,"lon":5.41661,"is_reserved":false,"is_disabled":false,"rental_uris":{"android":"levelo://app?vid=57ce499e-d4f7-4b47-be4a-ba8113d200a0","ios":"levelo://app?vid=57ce499e-d4f7-4b47-be4a-ba8113d200a0"},"vehicle_type_id":"4","last_reported":1737699148,"current_range_meters":38000,"station_id":"ce4bho12rcd13ifvqh1g","pricing_plan_id":"cebpf4jnsgd1na2vs0mg"},{"bike_id":"599afb41-b8cd-484a-8674-cf40b4cd7f0e","system_id":"levelo_inurba_marseille","lat":43.280064,"lon":5.400164,"is_reserved":false,"is_disabled":false,"rental_uris":{"android":"levelo://app?vid=599afb41-b8cd-484a-8674-cf40b4cd7f0e","ios":"levelo://app?vid=599afb41-b8cd-484a-8674-cf40b4cd7f0e"},"vehicle_type_id":"4","last_reported":1737699148,"current_range_meters":38800,"station_id":"ce4bho92rcd13ifvqh4g","pricing_plan_id":"cebpf4jnsgd1na2vs0mg"},{"bike_id":"be962e47-7e59-48a9-a01c-e785b54cd4b9","system_id":"levelo_inurba_marseille","lat":43.27994,"lon":5.40025,"is_reserved":false,"is_disabled":false,"rental_uris":{"android":"levelo://app?vid=be962e47-7e59-48a9-a01c-e785b54cd4b9","ios":"levelo://app?vid=be962e47-7e59-48a9-a01c-e785b54cd4b9"},"vehicle_type_id":"4","last_reported":1737699148,"current_range_meters":38000,"station_id":"ce4bho92rcd13ifvqh4g","pricing_plan_id":"cebpf4jnsgd1na2vs0mg"},{"bike_id":"2a9b189e-7a98-44c5-a378-7702209d6cd8","system_id":"levelo_inurba_marseille","lat":43.257219,"lon":5.41116,"is_reserved":false,"is_disabled":false,"rental_uris":{"android":"levelo://app?vid=2a9b189e-7a98-44c5-a378-7702209d6cd8","ios":"levelo://app?vid=2a9b189e-7a98-44c5-a378-7702209d6cd8"},"vehicle_type_id":"4","last_reported":1737699148,"current_range_meters":37600,"station_id":"ce4bhkp2rcd13ifvqgd0","pricing_plan_id":"cebpf4jnsgd1na2vs0mg"},{"bike_id":"03fa5bc2-5527-486f-81ae-e62a683449b8","system_id":"levelo_inurba_marseille","lat":43.31721,"lon":5.42406,"is_reserved":false,"is_disabled":false,"rental_uris":{"android":"levelo://app?vid=03fa5bc2-5527-486f-81ae-e62a683449b8","ios":"levelo://app?vid=03fa5bc2-5527-486f-81ae-e62a683449b8"},"vehicle_type_id":"4","last_reported":1737699148,"current_range_meters":19600,"station_id":"ce4bhp92rcd13ifvqhbg","pricing_plan_id":"cebpf4jnsgd1na2vs0mg"},{"bike_id":"30ed8981-71e0-41df-b6b9-8ded3a4ddb47","system_id":"levelo_inurba_marseille","lat":43.30779,"lon":5.37645,"is_reserved":false,"is_disabled":false,"rental_uris":{"android":"levelo://app?vid=30ed8981-71e0-41df-b6b9-8ded3a4ddb47","ios":"levelo://app?vid=30ed8981-71e0-41df-b6b9-8ded3a4ddb47"},"vehicle_type_id":"4","last_reported":1737699148,"current_range_meters":37600,"station_id":"ce4bgv92rcd13ifvqcq0","pricing_plan_id":"cebpf4jnsgd1na2vs0mg"},{"bike_id":"7a55f28a-5a5b-4ca4-9825-dee123c17d08","system_id":"levelo_inurba_marseille","lat":43.32098,"lon":5.36783,"is_reserved":false,"is_disabled":false,"rental_uris":{"android":"levelo://app?vid=7a55f28a-5a5b-4ca4-9825-dee123c17d08","ios":"levelo://app?vid=7a55f28a-5a5b-4ca4-9825-dee123c17d08"},"vehicle_type_id":"4","last_reported":1737699148,"current_range_meters":38000,"station_id":"ce4bhrh2rcd13ifvqhug","pricing_plan_id":"cebpf4jnsgd1na2vs0mg"},{"bike_id":"95eb5782-f129-4048-839b-b75fb484b557","system_id":"levelo_inurba_marseille","lat":43.251068,"lon":5.403273,"is_reserved":false,"is_disabled":false,"rental_uris":{"android":"levelo://app?vid=95eb5782-f129-4048-839b-b75fb484b557","ios":"levelo://app?vid=95eb5782-f129-4048-839b-b75fb484b557"},"vehicle_type_id":"4","last_reported":1737699148,"current_range_meters":34000,"station_id":"ce4bhlh2rcd13ifvqgig","pricing_plan_id":"cebpf4jnsgd1na2vs0mg"},{"bike_id":"089ff1c3-d2e3-4a3f-b92e-2d0b9865a4ab","system_id":"levelo_inurba_marseille","lat":43.28696,"lon":5.40025,"is_reserved":false,"is_disabled":false,"rental_uris":{"android":"levelo://app?vid=089ff1c3-d2e3-4a3f-b92e-2d0b9865a4ab","ios":"levelo://app?vid=089ff1c3-d2e3-4a3f-b92e-2d0b9865a4ab"},"vehicle_type_id":"4","last_reported":1737699148,"current_range_meters":36800,"station_id":"ce4bho92rcd13ifvqh3g","pricing_plan_id":"cebpf4jnsgd1na2vs0mg"},{"bike_id":"553fb1e9-2cc4-4af4-b989-6ce7ea1c8a84","system_id":"levelo_inurba_marseille","lat":43.28454,"lon":5.358954,"is_reserved":false,"is_disabled":false,"rental_uris":{"android":"levelo://app?vid=553fb1e9-2cc4-4af4-b989-6ce7ea1c8a84","ios":"levelo://app?vid=553fb1e9-2cc4-4af4-b989-6ce7ea1c8a84"},"vehicle_type_id":"4","last_reported":1737699148,"current_range_meters":38000,"station_id":"ce4bhah2rcd13ifvqei0","pricing_plan_id":"cebpf4jnsgd1na2vs0mg"},{"bike_id":"7ae57d4a-987c-4a94-bf67-7089b41c8d83","system_id":"levelo_inurba_marseille","lat":43.27609,"lon":5.36112,"is_reserved":false,"is_disabled":false,"rental_uris":{"android":"levelo://app?vid=7ae57d4a-987c-4a94-bf67-7089b41c8d83","ios":"levelo://app?vid=7ae57d4a-987c-4a94-bf67-7089b41c8d83"},"vehicle_type_id":"4","last_reported":1737699148,"current_range_meters":38800,"station_id":"ce4bgj92rcd13ifvqbe0","pricing_plan_id":"cebpf4jnsgd1na2vs0mg"},{"bike_id":"30179832-5a65-44ae-a5a5-1af37f487ed1","system_id":"levelo_inurba_marseille","lat":43.314998,"lon":5.372984,"is_reserved":false,"is_disabled":false,"rental_uris":{"android":"levelo://app?vid=30179832-5a65-44ae-a5a5-1af37f487ed1","ios":"levelo://app?vid=30179832-5a65-44ae-a5a5-1af37f487ed1"},"vehicle_type_id":"4","last_reported":1737699148,"current_range_meters":38800,"station_id":"ce4bgt12rcd13ifvqcd0","pricing_plan_id":"cebpf4jnsgd1na2vs0mg"},{"bike_id":"acc9e968-42f2-443f-bb58-cd32856c66f2","system_id":"levelo_inurba_marseille","lat":43.28412,"lon":5.37517,"is_reserved":false,"is_disabled":false,"rental_uris":{"android":"levelo://app?vid=acc9e968-42f2-443f-bb58-cd32856c66f2","ios":"levelo://app?vid=acc9e968-42f2-443f-bb58-cd32856c66f2"},"vehicle_type_id":"4","last_reported":1737699148,"current_range_meters":26000,"station_id":"ce4bh412rcd13ifvqds0","pricing_plan_id":"cebpf4jnsgd1na2vs0mg"},{"bike_id":"a9d5e1db-41a7-4c05-bdc9-54e576288f5a","system_id":"levelo_inurba_marseille","lat":43.30948,"lon":5.39039,"is_reserved":false,"is_disabled":false,"rental_uris":{"android":"levelo://app?vid=a9d5e1db-41a7-4c05-bdc9-54e576288f5a","ios":"levelo://app?vid=a9d5e1db-41a7-4c05-bdc9-54e576288f5a"},"vehicle_type_id":"4","last_reported":1737699148,"current_range_meters":39200,"station_id":"ce4bgup2rcd13ifvqco0","pricing_plan_id":"cebpf4jnsgd1na2vs0mg"},{"bike_id":"df8b68b0-a61c-401e-bc1c-616ed6cec7e0","system_id":"levelo_inurba_marseille","lat":43.26939,"lon":5.38626,"is_reserved":false,"is_disabled":true,"rental_uris":{"android":"levelo://app?vid=df8b68b0-a61c-401e-bc1c-616ed6cec7e0","ios":"levelo://app?vid=df8b68b0-a61c-401e-bc1c-616ed6cec7e0"},"vehicle_type_id":"4","last_reported":1737699148,"current_range_meters":38800,"station_id":"ce4bhh92rcd13ifvqfh0","pricing_plan_id":"cebpf4jnsgd1na2vs0mg"},{"bike_id":"35614ed7-a0df-4792-bca2-a1978fcd9fab","system_id":"levelo_inurba_marseille","lat":43.30794,"lon":5.43514,"is_reserved":false,"is_disabled":false,"rental_uris":{"android":"levelo://app?vid=35614ed7-a0df-4792-bca2-a1978fcd9fab","ios":"levelo://app?vid=35614ed7-a0df-4792-bca2-a1978fcd9fab"},"vehicle_type_id":"4","last_reported":1737699148,"current_range_meters":38800,"station_id":"ce4bhph2rcd13ifvqheg","pricing_plan_id":"cebpf4jnsgd1na2vs0mg"},{"bike_id":"59330309-df9a-48c4-9235-796da7a2782d","system_id":"levelo_inurba_marseille","lat":43.30817,"lon":5.43516,"is_reserved":false,"is_disabled":false,"rental_uris":{"android":"levelo://app?vid=59330309-df9a-48c4-9235-796da7a2782d","ios":"levelo://app?vid=59330309-df9a-48c4-9235-796da7a2782d"},"vehicle_type_id":"4","last_reported":1737699148,"current_range_meters":37600,"station_id":"ce4bhph2rcd13ifvqheg","pricing_plan_id":"cebpf4jnsgd1na2vs0mg"},{"bike_id":"f5bef47d-ef3f-4ff9-ad3d-6bd7156a3eac","system_id":"levelo_inurba_marseille","lat":43.30645,"lon":5.40088,"is_reserved":false,"is_disabled":false,"rental_uris":{"android":"levelo://app?vid=f5bef47d-ef3f-4ff9-ad3d-6bd7156a3eac","ios":"levelo://app?vid=f5bef47d-ef3f-4ff9-ad3d-6bd7156a3eac"},"vehicle_type_id":"4","last_reported":1737699148,"current_range_meters":4800,"station_id":"ce4bh112rcd13ifvqda0","pricing_plan_id":"cebpf4jnsgd1na2vs0mg"},{"bike_id":"8661b5e3-5c50-41b5-9990-f6cea7332865","system_id":"levelo_inurba_marseille","lat":43.29168,"lon":5.35791,"is_reserved":false,"is_disabled":false,"rental_uris":{"android":"levelo://app?vid=8661b5e3-5c50-41b5-9990-f6cea7332865","ios":"levelo://app?vid=8661b5e3-5c50-41b5-9990-f6cea7332865"},"vehicle_type_id":"4","last_reported":1737699148,"current_range_meters":37600,"station_id":"ce4bhb12rcd13ifvqel0","pricing_plan_id":"cebpf4jnsgd1na2vs0mg"},{"bike_id":"b38e2d04-7f91-4ad7-b5ad-04e07c399e90","system_id":"levelo_inurba_marseille","lat":43.29258,"lon":5.40895,"is_reserved":false,"is_disabled":false,"rental_uris":{"android":"levelo://app?vid=b38e2d04-7f91-4ad7-b5ad-04e07c399e90","ios":"levelo://app?vid=b38e2d04-7f91-4ad7-b5ad-04e07c399e90"},"vehicle_type_id":"4","last_reported":1737699148,"current_range_meters":27200,"station_id":"ce4bh192rcd13ifvqdc0","pricing_plan_id":"cebpf4jnsgd1na2vs0mg"},{"bike_id":"5e0169dd-cfb6-4345-b9e5-59ab64e75e4d","system_id":"levelo_inurba_marseille","lat":43.322901,"lon":5.382716,"is_reserved":false,"is_disabled":false,"rental_uris":{"android":"levelo://app?vid=5e0169dd-cfb6-4345-b9e5-59ab64e75e4d","ios":"levelo://app?vid=5e0169dd-cfb6-4345-b9e5-59ab64e75e4d"},"vehicle_type_id":"4","last_reported":1737699148,"current_range_meters":38800,"station_id":"ce4bhr12rcd13ifvqhqg","pricing_plan_id":"cebpf4jnsgd1na2vs0mg"},{"bike_id":"bf49bae2-9c26-4641-9558-b17e1f3df312","system_id":"levelo_inurba_marseille","lat":43.231864,"lon":5.399773,"is_reserved":false,"is_disabled":false,"rental_uris":{"android":"levelo://app?vid=bf49bae2-9c26-4641-9558-b17e1f3df312","ios":"levelo://app?vid=bf49bae2-9c26-4641-9558-b17e1f3df312"},"vehicle_type_id":"4","last_reported":1737699148,"current_range_meters":38400,"station_id":"ce4bhn12rcd13ifvqgqg","pricing_plan_id":"cebpf4jnsgd1na2vs0mg"},{"bike_id":"96bd9e64-ec79-445f-af92-f8aeeeeb8575","system_id":"levelo_inurba_marseille","lat":43.2842,"lon":5.37524,"is_reserved":false,"is_disabled":false,"rental_uris":{"android":"levelo://app?vid=96bd9e64-ec79-445f-af92-f8aeeeeb8575","ios":"levelo://app?vid=96bd9e64-ec79-445f-af92-f8aeeeeb8575"},"vehicle_type_id":"4","last_reported":1737699148,"current_range_meters":6800,"station_id":"ce4bh412rcd13ifvqds0","pricing_plan_id":"cebpf4jnsgd1na2vs0mg"},{"bike_id":"48cba4dc-b9e7-46eb-8c75-2173ea699cdd","system_id":"levelo_inurba_marseille","lat":43.28567,"lon":5.39502,"is_reserved":false,"is_disabled":false,"rental_uris":{"android":"levelo://app?vid=48cba4dc-b9e7-46eb-8c75-2173ea699cdd","ios":"levelo://app?vid=48cba4dc-b9e7-46eb-8c75-2173ea699cdd"},"vehicle_type_id":"4","last_reported":1737699148,"current_range_meters":8800,"station_id":"ce4bh292rcd13ifvqdg0","pricing_plan_id":"cebpf4jnsgd1na2vs0mg"},{"bike_id":"5d6541b6-e1d6-4ea5-ae79-89252b517ba2","system_id":"levelo_inurba_marseille","lat":43.29274,"lon":5.4011,"is_reserved":false,"is_disabled":false,"rental_uris":{"android":"levelo://app?vid=5d6541b6-e1d6-4ea5-ae79-89252b517ba2","ios":"levelo://app?vid=5d6541b6-e1d6-4ea5-ae79-89252b517ba2"},"vehicle_type_id":"4","last_reported":1737699148,"current_range_meters":33600,"station_id":"ce4bh312rcd13ifvqdk0","pricing_plan_id":"cebpf4jnsgd1na2vs0mg"},{"bike_id":"eb3ca7ae-a1ea-4fc7-908d-1a734718f0d6","system_id":"levelo_inurba_marseille","lat":43.28406,"lon":5.37505,"is_reserved":false,"is_disabled":false,"rental_uris":{"android":"levelo://app?vid=eb3ca7ae-a1ea-4fc7-908d-1a734718f0d6","ios":"levelo://app?vid=eb3ca7ae-a1ea-4fc7-908d-1a734718f0d6"},"vehicle_type_id":"4","last_reported":1737699148,"current_range_meters":8800,"station_id":"ce4bh412rcd13ifvqds0","pricing_plan_id":"cebpf4jnsgd1na2vs0mg"},{"bike_id":"6c45b451-34fd-4c6c-849a-c3d4c4498316","system_id":"levelo_inurba_marseille","lat":43.31761,"lon":5.39039,"is_reserved":false,"is_disabled":false,"rental_uris":{"android":"levelo://app?vid=6c45b451-34fd-4c6c-849a-c3d4c4498316","ios":"levelo://app?vid=6c45b451-34fd-4c6c-849a-c3d4c4498316"},"vehicle_type_id":"4","last_reported":1737699148,"current_range_meters":38800,"station_id":"ce4bhqp2rcd13ifvqhng","pricing_plan_id":"cebpf4jnsgd1na2vs0mg"},{"bike_id":"3356eebb-996e-4270-8e94-bfe961fe8440","system_id":"levelo_inurba_marseille","lat":43.304459,"lon":5.381359,"is_reserved":false,"is_disabled":false,"rental_uris":{"android":"levelo://app?vid=3356eebb-996e-4270-8e94-bfe961fe8440","ios":"levelo://app?vid=3356eebb-996e-4270-8e94-bfe961fe8440"},"vehicle_type_id":"4","last_reported":1737699148,"current_range_meters":34000,"station_id":"ce4bgup2rcd13ifvqcn0","pricing_plan_id":"cebpf4jnsgd1na2vs0mg"},{"bike_id":"61e72528-5de1-4c6b-b1a4-02485f947e82","system_id":"levelo_inurba_marseille","lat":43.308919,"lon":5.396265,"is_reserved":false,"is_disabled":false,"rental_uris":{"android":"levelo://app?vid=61e72528-5de1-4c6b-b1a4-02485f947e82","ios":"levelo://app?vid=61e72528-5de1-4c6b-b1a4-02485f947e82"},"vehicle_type_id":"4","last_reported":1737699148,"current_range_meters":36000,"station_id":"ce4bh012rcd13ifvqcv0","pricing_plan_id":"cebpf4jnsgd1na2vs0mg"},{"bike_id":"730a19d7-8638-4500-9d66-b33219f24537","system_id":"levelo_inurba_marseille","lat":43.30785,"lon":5.43513,"is_reserved":false,"is_disabled":false,"rental_uris":{"android":"levelo://app?vid=730a19d7-8638-4500-9d66-b33219f24537","ios":"levelo://app?vid=730a19d7-8638-4500-9d66-b33219f24537"},"vehicle_type_id":"4","last_reported":1737699148,"current_range_meters":23200,"station_id":"ce4bhph2rcd13ifvqheg","pricing_plan_id":"cebpf4jnsgd1na2vs0mg"},{"bike_id":"c54405f6-19ca-4898-9c27-b06f2510a17d","system_id":"levelo_inurba_marseille","lat":43.29225,"lon":5.36067,"is_reserved":false,"is_disabled":false,"rental_uris":{"android":"levelo://app?vid=c54405f6-19ca-4898-9c27-b06f2510a17d","ios":"levelo://app?vid=c54405f6-19ca-4898-9c27-b06f2510a17d"},"vehicle_type_id":"4","last_reported":1737699148,"current_range_meters":36000,"station_id":"ce4bhbh2rcd13ifvqeqg","pricing_plan_id":"cebpf4jnsgd1na2vs0mg"},{"bike_id":"9fc9bbda-d990-4084-9d7e-f4d001cbbd89","system_id":"levelo_inurba_marseille","lat":43.305978,"lon":5.393516,"is_reserved":false,"is_disabled":false,"rental_uris":{"android":"levelo://app?vid=9fc9bbda-d990-4084-9d7e-f4d001cbbd89","ios":"levelo://app?vid=9fc9bbda-d990-4084-9d7e-f4d001cbbd89"},"vehicle_type_id":"4","last_reported":1737699148,"current_range_meters":37600,"station_id":"ce4bh0p2rcd13ifvqd80","pricing_plan_id":"cebpf4jnsgd1na2vs0mg"},{"bike_id":"90562b19-8802-4e76-a682-f90dad6ec469","system_id":"levelo_inurba_marseille","lat":43.29558,"lon":5.38551,"is_reserved":false,"is_disabled":true,"rental_uris":{"android":"levelo://app?vid=90562b19-8802-4e76-a682-f90dad6ec469","ios":"levelo://app?vid=90562b19-8802-4e76-a682-f90dad6ec469"},"vehicle_type_id":"4","last_reported":1737699148,"current_range_meters":0,"station_id":"ce4bgih2rcd13ifvqba0","pricing_plan_id":"cebpf4jnsgd1na2vs0mg"},{"bike_id":"9863b7f9-4316-4322-9f6c-3cc66b0448e2","system_id":"levelo_inurba_marseille","lat":43.279439,"lon":5.389008,"is_reserved":false,"is_disabled":true,"rental_uris":{"android":"levelo://app?vid=9863b7f9-4316-4322-9f6c-3cc66b0448e2","ios":"levelo://app?vid=9863b7f9-4316-4322-9f6c-3cc66b0448e2"},"vehicle_type_id":"4","last_reported":1737699148,"current_range_meters":21600,"station_id":"","pricing_plan_id":"cebpf4jnsgd1na2vs0mg"},{"bike_id":"4f941221-8603-4861-be77-745234c6becc","system_id":"levelo_inurba_marseille","lat":43.23181,"lon":5.39978,"is_reserved":false,"is_disabled":false,"rental_uris":{"android":"levelo://app?vid=4f941221-8603-4861-be77-745234c6becc","ios":"levelo://app?vid=4f941221-8603-4861-be77-745234c6becc"},"vehicle_type_id":"4","last_reported":1737699148,"current_range_meters":26000,"station_id":"ce4bhn12rcd13ifvqgqg","pricing_plan_id":"cebpf4jnsgd1na2vs0mg"},{"bike_id":"ab927040-bfc3-4782-b1b3-ffbf9d71bc34","system_id":"levelo_inurba_marseille","lat":43.266954,"lon":5.382762,"is_reserved":false,"is_disabled":true,"rental_uris":{"android":"levelo://app?vid=ab927040-bfc3-4782-b1b3-ffbf9d71bc34","ios":"levelo://app?vid=ab927040-bfc3-4782-b1b3-ffbf9d71bc34"},"vehicle_type_id":"4","last_reported":1737699148,"current_range_meters":38000,"station_id":"ce4bhg92rcd13ifvqf90","pricing_plan_id":"cebpf4jnsgd1na2vs0mg"},{"bike_id":"4b2e5d0d-85a8-4331-8ba7-b3ba8a3e8183","system_id":"levelo_inurba_marseille","lat":43.30878,"lon":5.39608,"is_reserved":false,"is_disabled":false,"rental_uris":{"android":"levelo://app?vid=4b2e5d0d-85a8-4331-8ba7-b3ba8a3e8183","ios":"levelo://app?vid=4b2e5d0d-85a8-4331-8ba7-b3ba8a3e8183"},"vehicle_type_id":"4","last_reported":1737699148,"current_range_meters":24400,"station_id":"ce4bh012rcd13ifvqcv0","pricing_plan_id":"cebpf4jnsgd1na2vs0mg"},{"bike_id":"9e2d13b9-d1b0-4762-93f4-a7dd29fa0c55","system_id":"levelo_inurba_marseille","lat":43.29225,"lon":5.36076,"is_reserved":false,"is_disabled":false,"rental_uris":{"android":"levelo://app?vid=9e2d13b9-d1b0-4762-93f4-a7dd29fa0c55","ios":"levelo://app?vid=9e2d13b9-d1b0-4762-93f4-a7dd29fa0c55"},"vehicle_type_id":"4","last_reported":1737699148,"current_range_meters":26000,"station_id":"ce4bhbh2rcd13ifvqeqg","pricing_plan_id":"cebpf4jnsgd1na2vs0mg"},{"bike_id":"e11d5e25-e272-47e7-bd8a-065bf108edeb","system_id":"levelo_inurba_marseille","lat":43.29255,"lon":5.38422,"is_reserved":false,"is_disabled":true,"rental_uris":{"android":"levelo://app?vid=e11d5e25-e272-47e7-bd8a-065bf108edeb","ios":"levelo://app?vid=e11d5e25-e272-47e7-bd8a-065bf108edeb"},"vehicle_type_id":"4","last_reported":1737699148,"current_range_meters":16000,"station_id":"ce4bh692rcd13ifvqea0","pricing_plan_id":"cebpf4jnsgd1na2vs0mg"},{"bike_id":"e3da0c61-152e-4b90-a420-82400cdfe415","system_id":"levelo_inurba_marseille","lat":43.28829,"lon":5.35847,"is_reserved":false,"is_disabled":false,"rental_uris":{"android":"levelo://app?vid=e3da0c61-152e-4b90-a420-82400cdfe415","ios":"levelo://app?vid=e3da0c61-152e-4b90-a420-82400cdfe415"},"vehicle_type_id":"4","last_reported":1737699148,"current_range_meters":23200,"station_id":"ce4bhb12rcd13ifvqem0","pricing_plan_id":"cebpf4jnsgd1na2vs0mg"},{"bike_id":"4f5f5256-4484-429c-92dc-c790881aa830","system_id":"levelo_inurba_marseille","lat":43.25083,"lon":5.39508,"is_reserved":false,"is_disabled":false,"rental_uris":{"android":"levelo://app?vid=4f5f5256-4484-429c-92dc-c790881aa830","ios":"levelo://app?vid=4f5f5256-4484-429c-92dc-c790881aa830"},"vehicle_type_id":"4","last_reported":1737699148,"current_range_meters":6800,"station_id":"ce4bhm12rcd13ifvqgkg","pricing_plan_id":"cebpf4jnsgd1na2vs0mg"},{"bike_id":"60318fc5-5989-49ff-a06c-7e7d2d8673a3","system_id":"levelo_inurba_marseille","lat":43.29814,"lon":5.40399,"is_reserved":false,"is_disabled":false,"rental_uris":{"android":"levelo://app?vid=60318fc5-5989-49ff-a06c-7e7d2d8673a3","ios":"levelo://app?vid=60318fc5-5989-49ff-a06c-7e7d2d8673a3"},"vehicle_type_id":"4","last_reported":1737699148,"current_range_meters":38800,"station_id":"ce4bh112rcd13ifvqd90","pricing_plan_id":"cebpf4jnsgd1na2vs0mg"},{"bike_id":"f69ac267-4fba-4ae9-9816-b6b11f640ef8","system_id":"levelo_inurba_marseille","lat":43.31324,"lon":5.39697,"is_reserved":false,"is_disabled":false,"rental_uris":{"android":"levelo://app?vid=f69ac267-4fba-4ae9-9816-b6b11f640ef8","ios":"levelo://app?vid=f69ac267-4fba-4ae9-9816-b6b11f640ef8"},"vehicle_type_id":"4","last_reported":1737699148,"current_range_meters":31200,"station_id":"ce4bgvp2rcd13ifvqcu0","pricing_plan_id":"cebpf4jnsgd1na2vs0mg"},{"bike_id":"89755512-a191-4337-a2e9-b7f75b594ae4","system_id":"levelo_inurba_marseille","lat":43.29789,"lon":5.39323,"is_reserved":false,"is_disabled":false,"rental_uris":{"android":"levelo://app?vid=89755512-a191-4337-a2e9-b7f75b594ae4","ios":"levelo://app?vid=89755512-a191-4337-a2e9-b7f75b594ae4"},"vehicle_type_id":"4","last_reported":1737699148,"current_range_meters":36800,"station_id":"chh1huq6cuj3fo74tm60","pricing_plan_id":"cebpf4jnsgd1na2vs0mg"},{"bike_id":"3c2e08d8-61dc-48d1-a5b2-8e18420ecf7c","system_id":"levelo_inurba_marseille","lat":43.302833,"lon":5.376946,"is_reserved":false,"is_disabled":true,"rental_uris":{"android":"levelo://app?vid=3c2e08d8-61dc-48d1-a5b2-8e18420ecf7c","ios":"levelo://app?vid=3c2e08d8-61dc-48d1-a5b2-8e18420ecf7c"},"vehicle_type_id":"4","last_reported":1737699148,"current_range_meters":0,"station_id":"ce4bguh2rcd13ifvqcj0","pricing_plan_id":"cebpf4jnsgd1na2vs0mg"},{"bike_id":"4db7fffe-6e14-4108-abd0-8b9edc36f470","system_id":"levelo_inurba_marseille","lat":43.265579,"lon":5.372881,"is_reserved":false,"is_disabled":false,"rental_uris":{"android":"levelo://app?vid=4db7fffe-6e14-4108-abd0-8b9edc36f470","ios":"levelo://app?vid=4db7fffe-6e14-4108-abd0-8b9edc36f470"},"vehicle_type_id":"4","last_reported":1737699148,"current_range_meters":22400,"station_id":"ce4bhg12rcd13ifvqf70","pricing_plan_id":"cebpf4jnsgd1na2vs0mg"},{"bike_id":"88c68bd3-ae6d-44f9-8c55-92579b0843ad","system_id":"levelo_inurba_marseille","lat":43.31989,"lon":5.38148,"is_reserved":false,"is_disabled":false,"rental_uris":{"android":"levelo://app?vid=88c68bd3-ae6d-44f9-8c55-92579b0843ad","ios":"levelo://app?vid=88c68bd3-ae6d-44f9-8c55-92579b0843ad"},"vehicle_type_id":"4","last_reported":1737699148,"current_range_meters":39200,"station_id":"ce4bhr12rcd13ifvqhpg","pricing_plan_id":"cebpf4jnsgd1na2vs0mg"},{"bike_id":"c400706d-11d8-4109-af7f-04e1a2259d9b","system_id":"levelo_inurba_marseille","lat":43.298961,"lon":5.436657,"is_reserved":false,"is_disabled":false,"rental_uris":{"android":"levelo://app?vid=c400706d-11d8-4109-af7f-04e1a2259d9b","ios":"levelo://app?vid=c400706d-11d8-4109-af7f-04e1a2259d9b"},"vehicle_type_id":"4","last_reported":1737699148,"current_range_meters":6800,"station_id":"ce4bhpp2rcd13ifvqhfg","pricing_plan_id":"cebpf4jnsgd1na2vs0mg"},{"bike_id":"7f1953fa-e75d-4180-817f-fad6975a8888","system_id":"levelo_inurba_marseille","lat":43.28471,"lon":5.35868,"is_reserved":false,"is_disabled":false,"rental_uris":{"android":"levelo://app?vid=7f1953fa-e75d-4180-817f-fad6975a8888","ios":"levelo://app?vid=7f1953fa-e75d-4180-817f-fad6975a8888"},"vehicle_type_id":"4","last_reported":1737699148,"current_range_meters":23200,"station_id":"ce4bhah2rcd13ifvqei0","pricing_plan_id":"cebpf4jnsgd1na2vs0mg"},{"bike_id":"b1ad8785-7662-4e91-8fb4-75c4cccca7cd","system_id":"levelo_inurba_marseille","lat":43.30786,"lon":5.37653,"is_reserved":false,"is_disabled":false,"rental_uris":{"android":"levelo://app?vid=b1ad8785-7662-4e91-8fb4-75c4cccca7cd","ios":"levelo://app?vid=b1ad8785-7662-4e91-8fb4-75c4cccca7cd"},"vehicle_type_id":"4","last_reported":1737699148,"current_range_meters":37600,"station_id":"ce4bgv92rcd13ifvqcq0","pricing_plan_id":"cebpf4jnsgd1na2vs0mg"},{"bike_id":"44bc0d6a-787a-4625-8e11-4124b907db82","system_id":"levelo_inurba_marseille","lat":43.29247,"lon":5.40905,"is_reserved":false,"is_disabled":false,"rental_uris":{"android":"levelo://app?vid=44bc0d6a-787a-4625-8e11-4124b907db82","ios":"levelo://app?vid=44bc0d6a-787a-4625-8e11-4124b907db82"},"vehicle_type_id":"4","last_reported":1737699148,"current_range_meters":6800,"station_id":"ce4bh192rcd13ifvqdc0","pricing_plan_id":"cebpf4jnsgd1na2vs0mg"},{"bike_id":"be48aa8d-21b2-4ab9-89b3-9ea8a82b40a8","system_id":"levelo_inurba_marseille","lat":43.27936,"lon":5.41042,"is_reserved":false,"is_disabled":false,"rental_uris":{"android":"levelo://app?vid=be48aa8d-21b2-4ab9-89b3-9ea8a82b40a8","ios":"levelo://app?vid=be48aa8d-21b2-4ab9-89b3-9ea8a82b40a8"},"vehicle_type_id":"4","last_reported":1737699148,"current_range_meters":38800,"station_id":"ce4bhnp2rcd13ifvqh0g","pricing_plan_id":"cebpf4jnsgd1na2vs0mg"},{"bike_id":"2d90fad4-f4df-46d5-8f34-efc44e9ef7d7","system_id":"levelo_inurba_marseille","lat":43.31273,"lon":5.40163,"is_reserved":false,"is_disabled":false,"rental_uris":{"android":"levelo://app?vid=2d90fad4-f4df-46d5-8f34-efc44e9ef7d7","ios":"levelo://app?vid=2d90fad4-f4df-46d5-8f34-efc44e9ef7d7"},"vehicle_type_id":"4","last_reported":1737699148,"current_range_meters":16400,"station_id":"ce4bh092rcd13ifvqd30","pricing_plan_id":"cebpf4jnsgd1na2vs0mg"},{"bike_id":"7c78a755-c7f5-4f07-a96b-621451d47948","system_id":"levelo_inurba_marseille","lat":43.298996,"lon":5.436646,"is_reserved":false,"is_disabled":false,"rental_uris":{"android":"levelo://app?vid=7c78a755-c7f5-4f07-a96b-621451d47948","ios":"levelo://app?vid=7c78a755-c7f5-4f07-a96b-621451d47948"},"vehicle_type_id":"4","last_reported":1737699148,"current_range_meters":8400,"station_id":"ce4bhpp2rcd13ifvqhfg","pricing_plan_id":"cebpf4jnsgd1na2vs0mg"},{"bike_id":"1af35610-d2b0-4920-a332-ef3ac2ed0224","system_id":"levelo_inurba_marseille","lat":43.30461,"lon":5.37903,"is_reserved":false,"is_disabled":false,"rental_uris":{"android":"levelo://app?vid=1af35610-d2b0-4920-a332-ef3ac2ed0224","ios":"levelo://app?vid=1af35610-d2b0-4920-a332-ef3ac2ed0224"},"vehicle_type_id":"4","last_reported":1737699148,"current_range_meters":29600,"station_id":"ce4bgup2rcd13ifvqcn0","pricing_plan_id":"cebpf4jnsgd1na2vs0mg"},{"bike_id":"7610bd40-27eb-48ba-8532-89715990a4fa","system_id":"levelo_inurba_marseille","lat":43.29242,"lon":5.40928,"is_reserved":false,"is_disabled":true,"rental_uris":{"android":"levelo://app?vid=7610bd40-27eb-48ba-8532-89715990a4fa","ios":"levelo://app?vid=7610bd40-27eb-48ba-8532-89715990a4fa"},"vehicle_type_id":"4","last_reported":1737699148,"current_range_meters":1600,"station_id":"ce4bh192rcd13ifvqdc0","pricing_plan_id":"cebpf4jnsgd1na2vs0mg"},{"bike_id":"52e3375d-f2b1-471c-bdfe-8428c026fbdc","system_id":"levelo_inurba_marseille","lat":43.29251,"lon":5.384432,"is_reserved":false,"is_disabled":true,"rental_uris":{"android":"levelo://app?vid=52e3375d-f2b1-471c-bdfe-8428c026fbdc","ios":"levelo://app?vid=52e3375d-f2b1-471c-bdfe-8428c026fbdc"},"vehicle_type_id":"4","last_reported":1737699148,"current_range_meters":38800,"station_id":"ce4bh692rcd13ifvqea0","pricing_plan_id":"cebpf4jnsgd1na2vs0mg"},{"bike_id":"b01fce57-63c8-454c-9252-5518a237155b","system_id":"levelo_inurba_marseille","lat":43.23188,"lon":5.39978,"is_reserved":false,"is_disabled":false,"rental_uris":{"android":"levelo://app?vid=b01fce57-63c8-454c-9252-5518a237155b","ios":"levelo://app?vid=b01fce57-63c8-454c-9252-5518a237155b"},"vehicle_type_id":"4","last_reported":1737699148,"current_range_meters":16800,"station_id":"ce4bhn12rcd13ifvqgqg","pricing_plan_id":"cebpf4jnsgd1na2vs0mg"},{"bike_id":"9c45686f-f590-453b-ac55-f16438195cf9","system_id":"levelo_inurba_marseille","lat":43.28413,"lon":5.37505,"is_reserved":false,"is_disabled":false,"rental_uris":{"android":"levelo://app?vid=9c45686f-f590-453b-ac55-f16438195cf9","ios":"levelo://app?vid=9c45686f-f590-453b-ac55-f16438195cf9"},"vehicle_type_id":"4","last_reported":1737699148,"current_range_meters":4800,"station_id":"ce4bh412rcd13ifvqds0","pricing_plan_id":"cebpf4jnsgd1na2vs0mg"},{"bike_id":"cd1680d3-9e89-4add-921b-b8e7af2be884","system_id":"levelo_inurba_marseille","lat":43.27985,"lon":5.40012,"is_reserved":false,"is_disabled":false,"rental_uris":{"android":"levelo://app?vid=cd1680d3-9e89-4add-921b-b8e7af2be884","ios":"levelo://app?vid=cd1680d3-9e89-4add-921b-b8e7af2be884"},"vehicle_type_id":"4","last_reported":1737699148,"current_range_meters":28800,"station_id":"ce4bho92rcd13ifvqh4g","pricing_plan_id":"cebpf4jnsgd1na2vs0mg"},{"bike_id":"be81e2f7-9a8e-4339-b1b5-551a0a5db6fc","system_id":"levelo_inurba_marseille","lat":43.23189,"lon":5.40001,"is_reserved":false,"is_disabled":false,"rental_uris":{"android":"levelo://app?vid=be81e2f7-9a8e-4339-b1b5-551a0a5db6fc","ios":"levelo://app?vid=be81e2f7-9a8e-4339-b1b5-551a0a5db6fc"},"vehicle_type_id":"4","last_reported":1737699148,"current_range_meters":28400,"station_id":"ce4bhn12rcd13ifvqgqg","pricing_plan_id":"cebpf4jnsgd1na2vs0mg"},{"bike_id":"e834d110-9757-4aa5-8921-77cbfa7c7c6e","system_id":"levelo_inurba_marseille","lat":43.28561,"lon":5.39486,"is_reserved":false,"is_disabled":true,"rental_uris":{"android":"levelo://app?vid=e834d110-9757-4aa5-8921-77cbfa7c7c6e","ios":"levelo://app?vid=e834d110-9757-4aa5-8921-77cbfa7c7c6e"},"vehicle_type_id":"4","last_reported":1737699148,"current_range_meters":38800,"station_id":"ce4bh292rcd13ifvqdg0","pricing_plan_id":"cebpf4jnsgd1na2vs0mg"},{"bike_id":"4193fc48-384c-4cc7-8a16-5c5208672efb","system_id":"levelo_inurba_marseille","lat":43.2407,"lon":5.3776,"is_reserved":false,"is_disabled":false,"rental_uris":{"android":"levelo://app?vid=4193fc48-384c-4cc7-8a16-5c5208672efb","ios":"levelo://app?vid=4193fc48-384c-4cc7-8a16-5c5208672efb"},"vehicle_type_id":"4","last_reported":1737699148,"current_range_meters":25200,"station_id":"ce4bhnp2rcd13ifvqgvg","pricing_plan_id":"cebpf4jnsgd1na2vs0mg"},{"bike_id":"041f6de5-32e0-4c26-99f4-0ade1acea330","system_id":"levelo_inurba_marseille","lat":43.2789,"lon":5.38022,"is_reserved":false,"is_disabled":false,"rental_uris":{"android":"levelo://app?vid=041f6de5-32e0-4c26-99f4-0ade1acea330","ios":"levelo://app?vid=041f6de5-32e0-4c26-99f4-0ade1acea330"},"vehicle_type_id":"4","last_reported":1737699148,"current_range_meters":38000,"station_id":"ce4bhf92rcd13ifvqf50","pricing_plan_id":"cebpf4jnsgd1na2vs0mg"},{"bike_id":"8091da5a-cc04-462d-bb09-ae380ca5e4ce","system_id":"levelo_inurba_marseille","lat":43.23181,"lon":5.39985,"is_reserved":false,"is_disabled":false,"rental_uris":{"android":"levelo://app?vid=8091da5a-cc04-462d-bb09-ae380ca5e4ce","ios":"levelo://app?vid=8091da5a-cc04-462d-bb09-ae380ca5e4ce"},"vehicle_type_id":"4","last_reported":1737699148,"current_range_meters":8400,"station_id":"ce4bhn12rcd13ifvqgqg","pricing_plan_id":"cebpf4jnsgd1na2vs0mg"},{"bike_id":"a33b274c-21ae-4303-b7be-9ae00bb12c0a","system_id":"levelo_inurba_marseille","lat":43.2926,"lon":5.40133,"is_reserved":false,"is_disabled":false,"rental_uris":{"android":"levelo://app?vid=a33b274c-21ae-4303-b7be-9ae00bb12c0a","ios":"levelo://app?vid=a33b274c-21ae-4303-b7be-9ae00bb12c0a"},"vehicle_type_id":"4","last_reported":1737699148,"current_range_meters":7200,"station_id":"ce4bh312rcd13ifvqdk0","pricing_plan_id":"cebpf4jnsgd1na2vs0mg"},{"bike_id":"bb0d6a47-36d5-4d38-9ea0-8de29b3c251a","system_id":"levelo_inurba_marseille","lat":43.31116,"lon":5.37757,"is_reserved":false,"is_disabled":false,"rental_uris":{"android":"levelo://app?vid=bb0d6a47-36d5-4d38-9ea0-8de29b3c251a","ios":"levelo://app?vid=bb0d6a47-36d5-4d38-9ea0-8de29b3c251a"},"vehicle_type_id":"4","last_reported":1737699148,"current_range_meters":38800,"station_id":"ce4bgt92rcd13ifvqcg0","pricing_plan_id":"cebpf4jnsgd1na2vs0mg"},{"bike_id":"7e916c70-1472-4e6d-89ea-6d1e635df53b","system_id":"levelo_inurba_marseille","lat":43.278144,"lon":5.407126,"is_reserved":false,"is_disabled":false,"rental_uris":{"android":"levelo://app?vid=7e916c70-1472-4e6d-89ea-6d1e635df53b","ios":"levelo://app?vid=7e916c70-1472-4e6d-89ea-6d1e635df53b"},"vehicle_type_id":"4","last_reported":1737699148,"current_range_meters":36000,"station_id":"ce4bhnh2rcd13ifvqgtg","pricing_plan_id":"cebpf4jnsgd1na2vs0mg"},{"bike_id":"bd28a8d1-43a3-411b-8e89-e91fc33f5dc5","system_id":"levelo_inurba_marseille","lat":43.25003,"lon":5.38921,"is_reserved":false,"is_disabled":false,"rental_uris":{"android":"levelo://app?vid=bd28a8d1-43a3-411b-8e89-e91fc33f5dc5","ios":"levelo://app?vid=bd28a8d1-43a3-411b-8e89-e91fc33f5dc5"},"vehicle_type_id":"4","last_reported":1737699148,"current_range_meters":30800,"station_id":"ce4bhgp2rcd13ifvqfd0","pricing_plan_id":"cebpf4jnsgd1na2vs0mg"},{"bike_id":"72428ff6-b760-4407-bd52-28cdb9f11441","system_id":"levelo_inurba_marseille","lat":43.27373,"lon":5.36248,"is_reserved":false,"is_disabled":false,"rental_uris":{"android":"levelo://app?vid=72428ff6-b760-4407-bd52-28cdb9f11441","ios":"levelo://app?vid=72428ff6-b760-4407-bd52-28cdb9f11441"},"vehicle_type_id":"4","last_reported":1737699148,"current_range_meters":19200,"station_id":"ce4bhbh2rcd13ifvqeo0","pricing_plan_id":"cebpf4jnsgd1na2vs0mg"},{"bike_id":"51b693ec-6376-489f-b989-9f78de29a1f3","system_id":"levelo_inurba_marseille","lat":43.24158,"lon":5.36415,"is_reserved":false,"is_disabled":false,"rental_uris":{"android":"levelo://app?vid=51b693ec-6376-489f-b989-9f78de29a1f3","ios":"levelo://app?vid=51b693ec-6376-489f-b989-9f78de29a1f3"},"vehicle_type_id":"4","last_reported":1737699148,"current_range_meters":19200,"station_id":"cpo36qri1sfpv3e86is0","pricing_plan_id":"cebpf4jnsgd1na2vs0mg"},{"bike_id":"145191d5-f39c-46b8-b037-c8e765df34c6","system_id":"levelo_inurba_marseille","lat":43.29033,"lon":5.39973,"is_reserved":false,"is_disabled":false,"rental_uris":{"android":"levelo://app?vid=145191d5-f39c-46b8-b037-c8e765df34c6","ios":"levelo://app?vid=145191d5-f39c-46b8-b037-c8e765df34c6"},"vehicle_type_id":"4","last_reported":1737699148,"current_range_meters":38800,"station_id":"ce4bh392rcd13ifvqdm0","pricing_plan_id":"cebpf4jnsgd1na2vs0mg"},{"bike_id":"de6fd782-7134-4e64-b9c3-cc2cfbe12552","system_id":"levelo_inurba_marseille","lat":43.31081,"lon":5.38823,"is_reserved":false,"is_disabled":false,"rental_uris":{"android":"levelo://app?vid=de6fd782-7134-4e64-b9c3-cc2cfbe12552","ios":"levelo://app?vid=de6fd782-7134-4e64-b9c3-cc2cfbe12552"},"vehicle_type_id":"4","last_reported":1737699148,"current_range_meters":33600,"station_id":"","pricing_plan_id":"cebpf4jnsgd1na2vs0mg"},{"bike_id":"13ff516e-16cf-4543-8540-9030b8b296b4","system_id":"levelo_inurba_marseille","lat":43.23181,"lon":5.35573,"is_reserved":false,"is_disabled":false,"rental_uris":{"android":"levelo://app?vid=13ff516e-16cf-4543-8540-9030b8b296b4","ios":"levelo://app?vid=13ff516e-16cf-4543-8540-9030b8b296b4"},"vehicle_type_id":"4","last_reported":1737699148,"current_range_meters":26800,"station_id":"ce4bhu92rcd13ifvqi70","pricing_plan_id":"cebpf4jnsgd1na2vs0mg"},{"bike_id":"c05ca229-c4d6-4f15-961c-1504be3ec12f","system_id":"levelo_inurba_marseille","lat":43.30885,"lon":5.39634,"is_reserved":false,"is_disabled":false,"rental_uris":{"android":"levelo://app?vid=c05ca229-c4d6-4f15-961c-1504be3ec12f","ios":"levelo://app?vid=c05ca229-c4d6-4f15-961c-1504be3ec12f"},"vehicle_type_id":"4","last_reported":1737699148,"current_range_meters":10800,"station_id":"ce4bh012rcd13ifvqcv0","pricing_plan_id":"cebpf4jnsgd1na2vs0mg"},{"bike_id":"382b1d8c-119f-472b-8efe-763a8ffd1020","system_id":"levelo_inurba_marseille","lat":43.279493,"lon":5.410396,"is_reserved":false,"is_disabled":false,"rental_uris":{"android":"levelo://app?vid=382b1d8c-119f-472b-8efe-763a8ffd1020","ios":"levelo://app?vid=382b1d8c-119f-472b-8efe-763a8ffd1020"},"vehicle_type_id":"4","last_reported":1737699148,"current_range_meters":38400,"station_id":"ce4bhnp2rcd13ifvqh0g","pricing_plan_id":"cebpf4jnsgd1na2vs0mg"},{"bike_id":"bd1ae243-006e-47c8-9898-bbe0b7356432","system_id":"levelo_inurba_marseille","lat":43.330171,"lon":5.390468,"is_reserved":false,"is_disabled":false,"rental_uris":{"android":"levelo://app?vid=bd1ae243-006e-47c8-9898-bbe0b7356432","ios":"levelo://app?vid=bd1ae243-006e-47c8-9898-bbe0b7356432"},"vehicle_type_id":"4","last_reported":1737699148,"current_range_meters":38800,"station_id":"ce4bhr92rcd13ifvqhrg","pricing_plan_id":"cebpf4jnsgd1na2vs0mg"},{"bike_id":"8a151ccc-edf6-40ab-a6a3-42b4ac96f698","system_id":"levelo_inurba_marseille","lat":43.28264,"lon":5.35085,"is_reserved":false,"is_disabled":true,"rental_uris":{"android":"levelo://app?vid=8a151ccc-edf6-40ab-a6a3-42b4ac96f698","ios":"levelo://app?vid=8a151ccc-edf6-40ab-a6a3-42b4ac96f698"},"vehicle_type_id":"4","last_reported":1737699148,"current_range_meters":24800,"station_id":"ce4bhbp2rcd13ifvqerg","pricing_plan_id":"cebpf4jnsgd1na2vs0mg"},{"bike_id":"5971ad5e-a484-4d3d-bdf2-2b149d5328ab","system_id":"levelo_inurba_marseille","lat":43.29047,"lon":5.39971,"is_reserved":false,"is_disabled":false,"rental_uris":{"android":"levelo://app?vid=5971ad5e-a484-4d3d-bdf2-2b149d5328ab","ios":"levelo://app?vid=5971ad5e-a484-4d3d-bdf2-2b149d5328ab"},"vehicle_type_id":"4","last_reported":1737699148,"current_range_meters":39200,"station_id":"ce4bh392rcd13ifvqdm0","pricing_plan_id":"cebpf4jnsgd1na2vs0mg"},{"bike_id":"7f0b73c5-af9a-4c10-9ae6-a4a4e527bef1","system_id":"levelo_inurba_marseille","lat":43.25588,"lon":5.38249,"is_reserved":false,"is_disabled":false,"rental_uris":{"android":"levelo://app?vid=7f0b73c5-af9a-4c10-9ae6-a4a4e527bef1","ios":"levelo://app?vid=7f0b73c5-af9a-4c10-9ae6-a4a4e527bef1"},"vehicle_type_id":"4","last_reported":1737699148,"current_range_meters":27200,"station_id":"ce4bhih2rcd13ifvqfs0","pricing_plan_id":"cebpf4jnsgd1na2vs0mg"},{"bike_id":"6c55b5b0-9255-4b50-8d73-33b8cb858c0e","system_id":"levelo_inurba_marseille","lat":43.30934,"lon":5.40141,"is_reserved":false,"is_disabled":false,"rental_uris":{"android":"levelo://app?vid=6c55b5b0-9255-4b50-8d73-33b8cb858c0e","ios":"levelo://app?vid=6c55b5b0-9255-4b50-8d73-33b8cb858c0e"},"vehicle_type_id":"4","last_reported":1737699148,"current_range_meters":20000,"station_id":"ce4bgvp2rcd13ifvqct0","pricing_plan_id":"cebpf4jnsgd1na2vs0mg"},{"bike_id":"b1cdb7de-fb8a-4962-9da7-7ce8e9965a8f","system_id":"levelo_inurba_marseille","lat":43.31721,"lon":5.42403,"is_reserved":false,"is_disabled":false,"rental_uris":{"android":"levelo://app?vid=b1cdb7de-fb8a-4962-9da7-7ce8e9965a8f","ios":"levelo://app?vid=b1cdb7de-fb8a-4962-9da7-7ce8e9965a8f"},"vehicle_type_id":"4","last_reported":1737699148,"current_range_meters":3200,"station_id":"ce4bhp92rcd13ifvqhbg","pricing_plan_id":"cebpf4jnsgd1na2vs0mg"},{"bike_id":"5cefcaef-c8d0-426e-85a3-d6a61a1b5e27","system_id":"levelo_inurba_marseille","lat":43.27816,"lon":5.40694,"is_reserved":false,"is_disabled":false,"rental_uris":{"android":"levelo://app?vid=5cefcaef-c8d0-426e-85a3-d6a61a1b5e27","ios":"levelo://app?vid=5cefcaef-c8d0-426e-85a3-d6a61a1b5e27"},"vehicle_type_id":"4","last_reported":1737699148,"current_range_meters":34800,"station_id":"ce4bhnh2rcd13ifvqgtg","pricing_plan_id":"cebpf4jnsgd1na2vs0mg"},{"bike_id":"5ba89a38-2294-4a3f-a884-84d53abdc93f","system_id":"levelo_inurba_marseille","lat":43.308806,"lon":5.396405,"is_reserved":false,"is_disabled":false,"rental_uris":{"android":"levelo://app?vid=5ba89a38-2294-4a3f-a884-84d53abdc93f","ios":"levelo://app?vid=5ba89a38-2294-4a3f-a884-84d53abdc93f"},"vehicle_type_id":"4","last_reported":1737699148,"current_range_meters":33600,"station_id":"ce4bh012rcd13ifvqcv0","pricing_plan_id":"cebpf4jnsgd1na2vs0mg"},{"bike_id":"62ff22d4-69f2-4245-8b57-d98265067279","system_id":"levelo_inurba_marseille","lat":43.299842,"lon":5.371776,"is_reserved":false,"is_disabled":false,"rental_uris":{"android":"levelo://app?vid=62ff22d4-69f2-4245-8b57-d98265067279","ios":"levelo://app?vid=62ff22d4-69f2-4245-8b57-d98265067279"},"vehicle_type_id":"4","last_reported":1737699148,"current_range_meters":38400,"station_id":"ce4bgr92rcd13ifvqc7g","pricing_plan_id":"cebpf4jnsgd1na2vs0mg"},{"bike_id":"a7a5e5ac-a8ef-4955-b1ae-1d314c428a63","system_id":"levelo_inurba_marseille","lat":43.317069,"lon":5.377559,"is_reserved":false,"is_disabled":false,"rental_uris":{"android":"levelo://app?vid=a7a5e5ac-a8ef-4955-b1ae-1d314c428a63","ios":"levelo://app?vid=a7a5e5ac-a8ef-4955-b1ae-1d314c428a63"},"vehicle_type_id":"4","last_reported":1737699148,"current_range_meters":39200,"station_id":"ce4bgth2rcd13ifvqch0","pricing_plan_id":"cebpf4jnsgd1na2vs0mg"},{"bike_id":"caa30493-616a-4890-af9b-1f4a106c82f0","system_id":"levelo_inurba_marseille","lat":43.309418,"lon":5.401496,"is_reserved":false,"is_disabled":false,"rental_uris":{"android":"levelo://app?vid=caa30493-616a-4890-af9b-1f4a106c82f0","ios":"levelo://app?vid=caa30493-616a-4890-af9b-1f4a106c82f0"},"vehicle_type_id":"4","last_reported":1737699148,"current_range_meters":18000,"station_id":"ce4bgvp2rcd13ifvqct0","pricing_plan_id":"cebpf4jnsgd1na2vs0mg"},{"bike_id":"f4e747ed-e2d8-43b6-83e7-4a1141131a2f","system_id":"levelo_inurba_marseille","lat":43.27902,"lon":5.38004,"is_reserved":false,"is_disabled":false,"rental_uris":{"android":"levelo://app?vid=f4e747ed-e2d8-43b6-83e7-4a1141131a2f","ios":"levelo://app?vid=f4e747ed-e2d8-43b6-83e7-4a1141131a2f"},"vehicle_type_id":"4","last_reported":1737699148,"current_range_meters":38800,"station_id":"ce4bhf92rcd13ifvqf50","pricing_plan_id":"cebpf4jnsgd1na2vs0mg"},{"bike_id":"5436ef51-1ce0-4baa-a060-c4cccd38005a","system_id":"levelo_inurba_marseille","lat":43.301831,"lon":5.36616,"is_reserved":false,"is_disabled":false,"rental_uris":{"android":"levelo://app?vid=5436ef51-1ce0-4baa-a060-c4cccd38005a","ios":"levelo://app?vid=5436ef51-1ce0-4baa-a060-c4cccd38005a"},"vehicle_type_id":"4","last_reported":1737699148,"current_range_meters":22400,"station_id":"ce4bgrh2rcd13ifvqc8g","pricing_plan_id":"cebpf4jnsgd1na2vs0mg"},{"bike_id":"19d887ae-ab27-4a38-b7c2-f64dc5349e85","system_id":"levelo_inurba_marseille","lat":43.28567,"lon":5.39504,"is_reserved":false,"is_disabled":false,"rental_uris":{"android":"levelo://app?vid=19d887ae-ab27-4a38-b7c2-f64dc5349e85","ios":"levelo://app?vid=19d887ae-ab27-4a38-b7c2-f64dc5349e85"},"vehicle_type_id":"4","last_reported":1737699148,"current_range_meters":35600,"station_id":"ce4bh292rcd13ifvqdg0","pricing_plan_id":"cebpf4jnsgd1na2vs0mg"},{"bike_id":"8cec88b6-5987-4fdd-a71c-a36410e8b4a8","system_id":"levelo_inurba_marseille","lat":43.3094,"lon":5.40146,"is_reserved":false,"is_disabled":false,"rental_uris":{"android":"levelo://app?vid=8cec88b6-5987-4fdd-a71c-a36410e8b4a8","ios":"levelo://app?vid=8cec88b6-5987-4fdd-a71c-a36410e8b4a8"},"vehicle_type_id":"4","last_reported":1737699148,"current_range_meters":10000,"station_id":"ce4bgvp2rcd13ifvqct0","pricing_plan_id":"cebpf4jnsgd1na2vs0mg"},{"bike_id":"421d447e-f137-48f8-b50a-3cef6ba73d00","system_id":"levelo_inurba_marseille","lat":43.32361,"lon":5.36767,"is_reserved":false,"is_disabled":false,"rental_uris":{"android":"levelo://app?vid=421d447e-f137-48f8-b50a-3cef6ba73d00","ios":"levelo://app?vid=421d447e-f137-48f8-b50a-3cef6ba73d00"},"vehicle_type_id":"4","last_reported":1737699148,"current_range_meters":10800,"station_id":"ce4bhsh2rcd13ifvqi2g","pricing_plan_id":"cebpf4jnsgd1na2vs0mg"},{"bike_id":"75208fea-e4c3-48f8-b6e1-d73e822fb61e","system_id":"levelo_inurba_marseille","lat":43.28262,"lon":5.35074,"is_reserved":false,"is_disabled":false,"rental_uris":{"android":"levelo://app?vid=75208fea-e4c3-48f8-b6e1-d73e822fb61e","ios":"levelo://app?vid=75208fea-e4c3-48f8-b6e1-d73e822fb61e"},"vehicle_type_id":"4","last_reported":1737699148,"current_range_meters":8000,"station_id":"ce4bhbp2rcd13ifvqerg","pricing_plan_id":"cebpf4jnsgd1na2vs0mg"},{"bike_id":"4384d240-dc41-4658-97ee-153ff9a044f8","system_id":"levelo_inurba_marseille","lat":43.308861,"lon":5.396424,"is_reserved":false,"is_disabled":false,"rental_uris":{"android":"levelo://app?vid=4384d240-dc41-4658-97ee-153ff9a044f8","ios":"levelo://app?vid=4384d240-dc41-4658-97ee-153ff9a044f8"},"vehicle_type_id":"4","last_reported":1737699148,"current_range_meters":4000,"station_id":"ce4bh012rcd13ifvqcv0","pricing_plan_id":"cebpf4jnsgd1na2vs0mg"},{"bike_id":"f38f63fd-8f6f-4b91-9c49-8b65f256ffe9","system_id":"levelo_inurba_marseille","lat":43.29844,"lon":5.36249,"is_reserved":false,"is_disabled":true,"rental_uris":{"android":"levelo://app?vid=f38f63fd-8f6f-4b91-9c49-8b65f256ffe9","ios":"levelo://app?vid=f38f63fd-8f6f-4b91-9c49-8b65f256ffe9"},"vehicle_type_id":"4","last_reported":1737699148,"current_range_meters":36800,"station_id":"ce4bgpp2rcd13ifvqc3g","pricing_plan_id":"cebpf4jnsgd1na2vs0mg"},{"bike_id":"f78360e8-7068-4642-b875-4cd7f8f281ec","system_id":"levelo_inurba_marseille","lat":43.291892,"lon":5.358094,"is_reserved":false,"is_disabled":false,"rental_uris":{"android":"levelo://app?vid=f78360e8-7068-4642-b875-4cd7f8f281ec","ios":"levelo://app?vid=f78360e8-7068-4642-b875-4cd7f8f281ec"},"vehicle_type_id":"4","last_reported":1737699148,"current_range_meters":27600,"station_id":"ce4bhb12rcd13ifvqel0","pricing_plan_id":"cebpf4jnsgd1na2vs0mg"},