{"last_updated":1730270398,"ttl":60,"version":"2.2","data":{"bikes":[{"bike_id":"e0594c9b-1912-4f09-958a-91f8a4561c29","system_id":"levelo_inurba_marseille","lat":43.24389,"lon":5.37045,"is_reserved":false,"is_disabled":false,"rental_uris":{"android":"levelo://app?vid=e0594c9b-1912-4f09-958a-91f8a4561c29","ios":"levelo://app?vid=e0594c9b-1912-4f09-958a-91f8a4561c29"},"vehicle_type_id":"4","last_reported":1730270398,"current_range_meters":40000,"station_id":"ce4bhhh2rcd13ifvqfk0","pricing_plan_id":"cebpf4jnsgd1na2vs0mg"},{"bike_id":"4ec6463a-7997-42f6-88b2-6fda5a71c163","system_id":"levelo_inurba_marseille","lat":43.25104,"lon":5.40319,"is_reserved":false,"is_disabled":false,"rental_uris":{"android":"levelo://app?vid=4ec6463a-7997-42f6-88b2-6fda5a71c163","ios":"levelo://app?vid=4ec6463a-7997-42f6-88b2-6fda5a71c163"},"vehicle_type_id":"4","last_reported":1730270398,"current_range_meters":38400,"station_id":"ce4bhlh2rcd13ifvqgig","pricing_plan_id":"cebpf4jnsgd1na2vs0mg"},{"bike_id":"5bd092db-49d3-45b7-8bcc-b623fd13ba1e","system_id":"levelo_inurba_marseille","lat":43.274939,"lon":5.424531,"is_reserved":false,"is_disabled":false,"rental_uris":{"android":"levelo://app?vid=5bd092db-49d3-45b7-8bcc-b623fd13ba1e","ios":"levelo://app?vid=5bd092db-49d3-45b7-8bcc-b623fd13ba1e"},"vehicle_type_id":"4","last_reported":1730270398,"current_range_meters":20000,"station_id":"ce4bhn92rcd13ifvqgrg","pricing_plan_id":"cebpf4jnsgd1na2vs0mg"},{"bike_id":"6daefb7d-890b-4927-bca4-1e9b57c2727d","system_id":"levelo_inurba_marseille","lat":43.27187,"lon":5.41001,"is_reserved":false,"is_disabled":false,"rental_uris":{"android":"levelo://app?vid=6daefb7d-890b-4927-bca4-1e9b57c2727d","ios":"levelo://app?vid=6daefb7d-890b-4927-bca4-1e9b57c2727d"},"vehicle_type_id":"4","last_reported":1730270398,"current_range_meters":37600,"station_id":"ce4bhl12rcd13ifvqgf0","pricing_plan_id":"cebpf4jnsgd1na2vs0mg"},{"bike_id":"e1d18b81-986d-4e87-b61a-22535be9c7fe","system_id":"levelo_inurba_marseille","lat":43.27073,"lon":5.42281,"is_reserved":false,"is_disabled":false,"rental_uris":{"android":"levelo://app?vid=e1d18b81-986d-4e87-b61a-22535be9c7fe","ios":"levelo://app?vid=e1d18b81-986d-4e87-b61a-22535be9c7fe"},"vehicle_type_id":"4","last_reported":1730270398,"current_range_meters":40000,"station_id":"ce4bhk92rcd13ifvqgb0","pricing_plan_id":"cebpf4jnsgd1na2vs0mg"},{"bike_id":"389a0521-41ae-44e7-b647-f0e587e1b12f","system_id":"levelo_inurba_marseille","lat":43.24184,"lon":5.39739,"is_reserved":false,"is_disabled":false,"rental_uris":{"android":"levelo://app?vid=389a0521-41ae-44e7-b647-f0e587e1b12f","ios":"levelo://app?vid=389a0521-41ae-44e7-b647-f0e587e1b12f"},"vehicle_type_id":"4","last_reported":1730270398,"current_range_meters":10800,"station_id":"ce4bhn12rcd13ifvqgpg","pricing_plan_id":"cebpf4jnsgd1na2vs0mg"},{"bike_id":"1a5154eb-f122-438b-b30e-b16adba008c7","system_id":"levelo_inurba_marseille","lat":43.3151,"lon":5.37301,"is_reserved":false,"is_disabled":false,"rental_uris":{"android":"levelo://app?vid=1a5154eb-f122-438b-b30e-b16adba008c7","ios":"levelo://app?vid=1a5154eb-f122-438b-b30e-b16adba008c7"},"vehicle_type_id":"4","last_reported":1730270398,"current_range_meters":38800,"station_id":"ce4bgt12rcd13ifvqcd0","pricing_plan_id":"cebpf4jnsgd1na2vs0mg"},{"bike_id":"e69003c5-61d9-410c-8600-03d60dc443c9","system_id":"levelo_inurba_marseille","lat":43.324834,"lon":5.365733,"is_reserved":false,"is_disabled":false,"rental_uris":{"android":"levelo://app?vid=e69003c5-61d9-410c-8600-03d60dc443c9","ios":"levelo://app?vid=e69003c5-61d9-410c-8600-03d60dc443c9"},"vehicle_type_id":"4","last_reported":1730270398,"current_range_meters":30800,"station_id":"ce4bhs12rcd13ifvqhvg","pricing_plan_id":"cebpf4jnsgd1na2vs0mg"},{"bike_id":"9cd28ed1-51d4-469f-80b1-db1aa7224fd9","system_id":"levelo_inurba_marseille","lat":43.31891,"lon":5.40747,"is_reserved":false,"is_disabled":false,"rental_uris":{"android":"levelo://app?vid=9cd28ed1-51d4-469f-80b1-db1aa7224fd9","ios":"levelo://app?vid=9cd28ed1-51d4-469f-80b1-db1aa7224fd9"},"vehicle_type_id":"4","last_reported":1730270398,"current_range_meters":30400,"station_id":"ce4bhq12rcd13ifvqhig","pricing_plan_id":"cebpf4jnsgd1na2vs0mg"},{"bike_id":"00408809-526a-4e3b-bd4d-a27fc6e05da8","system_id":"levelo_inurba_marseille","lat":43.24813,"lon":5.3745,"is_reserved":false,"is_disabled":false,"rental_uris":{"android":"levelo://app?vid=00408809-526a-4e3b-bd4d-a27fc6e05da8","ios":"levelo://app?vid=00408809-526a-4e3b-bd4d-a27fc6e05da8"},"vehicle_type_id":"4","last_reported":1730270398,"current_range_meters":38400,"station_id":"ce4bhgh2rcd13ifvqfb0","pricing_plan_id":"cebpf4jnsgd1na2vs0mg"},{"bike_id":"515e3cda-ebf4-4224-a67b-bc5f9d833f60","system_id":"levelo_inurba_marseille","lat":43.24555,"lon":5.39526,"is_reserved":false,"is_disabled":false,"rental_uris":{"android":"levelo://app?vid=515e3cda-ebf4-4224-a67b-bc5f9d833f60","ios":"levelo://app?vid=515e3cda-ebf4-4224-a67b-bc5f9d833f60"},"vehicle_type_id":"4","last_reported":1730270398,"current_range_meters":28000,"station_id":"ce4bhlp2rcd13ifvqgjg","pricing_plan_id":"cebpf4jnsgd1na2vs0mg"},{"bike_id":"a0f5d9ec-bdca-49ed-9410-eea9bb121fec","system_id":"levelo_inurba_marseille","lat":43.32663,"lon":5.40991,"is_reserved":false,"is_disabled":false,"rental_uris":{"android":"levelo://app?vid=a0f5d9ec-bdca-49ed-9410-eea9bb121fec","ios":"levelo://app?vid=a0f5d9ec-bdca-49ed-9410-eea9bb121fec"},"vehicle_type_id":"4","last_reported":1730270398,"current_range_meters":38000,"station_id":"ce4bhpp2rcd13ifvqhgg","pricing_plan_id":"cebpf4jnsgd1na2vs0mg"},{"bike_id":"66a04495-273a-47df-ac95-d7c1740f1ef3","system_id":"levelo_inurba_marseille","lat":43.278245,"lon":5.406905,"is_reserved":false,"is_disabled":false,"rental_uris":{"android":"levelo://app?vid=66a04495-273a-47df-ac95-d7c1740f1ef3","ios":"levelo://app?vid=66a04495-273a-47df-ac95-d7c1740f1ef3"},"vehicle_type_id":"4","last_reported":1730270398,"current_range_meters":24400,"station_id":"ce4bhnh2rcd13ifvqgtg","pricing_plan_id":"cebpf4jnsgd1na2vs0mg"},{"bike_id":"98af7aaf-680f-4013-9acb-3127feae2bb0","system_id":"levelo_inurba_marseille","lat":43.33019,"lon":5.39037,"is_reserved":false,"is_disabled":false,"rental_uris":{"android":"levelo://app?vid=98af7aaf-680f-4013-9acb-3127feae2bb0","ios":"levelo://app?vid=98af7aaf-680f-4013-9acb-3127feae2bb0"},"vehicle_type_id":"4","last_reported":1730270398,"current_range_meters":40000,"station_id":"ce4bhr92rcd13ifvqhrg","pricing_plan_id":"cebpf4jnsgd1na2vs0mg"},{"bike_id":"7521e550-9a43-4fd3-a3fd-d34415b2a0c9","system_id":"levelo_inurba_marseille","lat":43.28842,"lon":5.3585,"is_reserved":false,"is_disabled":false,"rental_uris":{"android":"levelo://app?vid=7521e550-9a43-4fd3-a3fd-d34415b2a0c9","ios":"levelo://app?vid=7521e550-9a43-4fd3-a3fd-d34415b2a0c9"},"vehicle_type_id":"4","last_reported":1730270398,"current_range_meters":24000,"station_id":"ce4bhb12rcd13ifvqem0","pricing_plan_id":"cebpf4jnsgd1na2vs0mg"},{"bike_id":"5607110e-580f-48db-ba88-212c55d8989d","system_id":"levelo_inurba_marseille","lat":43.23194,"lon":5.39991,"is_reserved":false,"is_disabled":false,"rental_uris":{"android":"levelo://app?vid=5607110e-580f-48db-ba88-212c55d8989d","ios":"levelo://app?vid=5607110e-580f-48db-ba88-212c55d8989d"},"vehicle_type_id":"4","last_reported":1730270398,"current_range_meters":7200,"station_id":"ce4bhn12rcd13ifvqgqg","pricing_plan_id":"cebpf4jnsgd1na2vs0mg"},{"bike_id":"0a10b831-c8aa-4a94-8398-ed11a9a88924","system_id":"levelo_inurba_marseille","lat":43.28004,"lon":5.40012,"is_reserved":false,"is_disabled":false,"rental_uris":{"android":"levelo://app?vid=0a10b831-c8aa-4a94-8398-ed11a9a88924","ios":"levelo://app?vid=0a10b831-c8aa-4a94-8398-ed11a9a88924"},"vehicle_type_id":"4","last_reported":1730270398,"current_range_meters":14800,"station_id":"ce4bho92rcd13ifvqh4g","pricing_plan_id":"cebpf4jnsgd1na2vs0mg"},{"bike_id":"f6b3f819-3ef8-4d8b-bb7e-8a1694cd4398","system_id":"levelo_inurba_marseille","lat":43.30467,"lon":5.37911,"is_reserved":false,"is_disabled":false,"rental_uris":{"android":"levelo://app?vid=f6b3f819-3ef8-4d8b-bb7e-8a1694cd4398","ios":"levelo://app?vid=f6b3f819-3ef8-4d8b-bb7e-8a1694cd4398"},"vehicle_type_id":"4","last_reported":1730270398,"current_range_meters":28800,"station_id":"ce4bgup2rcd13ifvqcn0","pricing_plan_id":"cebpf4jnsgd1na2vs0mg"},{"bike_id":"0c074560-8ac3-46f4-bbf6-3d47e9833728","system_id":"levelo_inurba_marseille","lat":43.25015,"lon":5.38929,"is_reserved":false,"is_disabled":false,"rental_uris":{"android":"levelo://app?vid=0c074560-8ac3-46f4-bbf6-3d47e9833728","ios":"levelo://app?vid=0c074560-8ac3-46f4-bbf6-3d47e9833728"},"vehicle_type_id":"4","last_reported":1730270398,"current_range_meters":38000,"station_id":"ce4bhgp2rcd13ifvqfd0","pricing_plan_id":"cebpf4jnsgd1na2vs0mg"},{"bike_id":"aa8e5bc8-4af6-4a20-b890-90006b3b95bd","system_id":"levelo_inurba_marseille","lat":43.2791,"lon":5.39587,"is_reserved":false,"is_disabled":false,"rental_uris":{"android":"levelo://app?vid=aa8e5bc8-4af6-4a20-b890-90006b3b95bd","ios":"levelo://app?vid=aa8e5bc8-4af6-4a20-b890-90006b3b95bd"},"vehicle_type_id":"4","last_reported":1730270398,"current_range_meters":38000,"station_id":"ce4bhf92rcd13ifvqf40","pricing_plan_id":"cebpf4jnsgd1na2vs0mg"},{"bike_id":"6b0189db-9ba7-4826-af05-684ac6cdd587","system_id":"levelo_inurba_marseille","lat":43.3093,"lon":5.40152,"is_reserved":false,"is_disabled":false,"rental_uris":{"android":"levelo://app?vid=6b0189db-9ba7-4826-af05-684ac6cdd587","ios":"levelo://app?vid=6b0189db-9ba7-4826-af05-684ac6cdd587"},"vehicle_type_id":"4","last_reported":1730270398,"current_range_meters":39200,"station_id":"ce4bgvp2rcd13ifvqct0","pricing_plan_id":"cebpf4jnsgd1na2vs0mg"},{"bike_id":"3713ca50-eced-45b1-bf48-4c2e0879cc91","system_id":"levelo_inurba_marseille","lat":43.24547,"lon":5.39531,"is_reserved":false,"is_disabled":false,"rental_uris":{"android":"levelo://app?vid=3713ca50-eced-45b1-bf48-4c2e0879cc91","ios":"levelo://app?vid=3713ca50-eced-45b1-bf48-4c2e0879cc91"},"vehicle_type_id":"4","last_reported":1730270398,"current_range_meters":14000,"station_id":"ce4bhlp2rcd13ifvqgjg","pricing_plan_id":"cebpf4jnsgd1na2vs0mg"},{"bike_id":"7e1dac73-d14a-4cac-9a8f-3d04b3161b4c","system_id":"levelo_inurba_marseille","lat":43.26539,"lon":5.37288,"is_reserved":false,"is_disabled":false,"rental_uris":{"android":"levelo://app?vid=7e1dac73-d14a-4cac-9a8f-3d04b3161b4c","ios":"levelo://app?vid=7e1dac73-d14a-4cac-9a8f-3d04b3161b4c"},"vehicle_type_id":"4","last_reported":1730270398,"current_range_meters":38000,"station_id":"ce4bhg12rcd13ifvqf70","pricing_plan_id":"cebpf4jnsgd1na2vs0mg"},{"bike_id":"44452cab-0ed3-46c5-ae89-8653a35bc3ed","system_id":"levelo_inurba_marseille","lat":43.29265,"lon":5.40923,"is_reserved":false,"is_disabled":false,"rental_uris":{"android":"levelo://app?vid=44452cab-0ed3-46c5-ae89-8653a35bc3ed","ios":"levelo://app?vid=44452cab-0ed3-46c5-ae89-8653a35bc3ed"},"vehicle_type_id":"4","last_reported":1730270398,"current_range_meters":40000,"station_id":"ce4bh192rcd13ifvqdc0","pricing_plan_id":"cebpf4jnsgd1na2vs0mg"},{"bike_id":"caf349c8-ed3b-4304-909b-160d602b00a5","system_id":"levelo_inurba_marseille","lat":43.31704,"lon":5.37745,"is_reserved":false,"is_disabled":false,"rental_uris":{"android":"levelo://app?vid=caf349c8-ed3b-4304-909b-160d602b00a5","ios":"levelo://app?vid=caf349c8-ed3b-4304-909b-160d602b00a5"},"vehicle_type_id":"4","last_reported":1730270398,"current_range_meters":6400,"station_id":"ce4bgth2rcd13ifvqch0","pricing_plan_id":"cebpf4jnsgd1na2vs0mg"},{"bike_id":"8d1620e7-e5ab-4df0-827f-1b7a5189e865","system_id":"levelo_inurba_marseille","lat":43.27997,"lon":5.4002,"is_reserved":false,"is_disabled":false,"rental_uris":{"android":"levelo://app?vid=8d1620e7-e5ab-4df0-827f-1b7a5189e865","ios":"levelo://app?vid=8d1620e7-e5ab-4df0-827f-1b7a5189e865"},"vehicle_type_id":"4","last_reported":1730270398,"current_range_meters":38800,"station_id":"ce4bho92rcd13ifvqh4g","pricing_plan_id":"cebpf4jnsgd1na2vs0mg"},{"bike_id":"3cc74485-2795-4d4f-aa5a-b06c312e894e","system_id":"levelo_inurba_marseille","lat":43.2293,"lon":5.35376,"is_reserved":false,"is_disabled":false,"rental_uris":{"android":"levelo://app?vid=3cc74485-2795-4d4f-aa5a-b06c312e894e","ios":"levelo://app?vid=3cc74485-2795-4d4f-aa5a-b06c312e894e"},"vehicle_type_id":"4","last_reported":1730270398,"current_range_meters":38000,"station_id":"cpo3532slgdg3j2ikp40","pricing_plan_id":"cebpf4jnsgd1na2vs0mg"},{"bike_id":"197951b6-f51d-4e0e-9015-1307af51213e","system_id":"levelo_inurba_marseille","lat":43.31486,"lon":5.37307,"is_reserved":false,"is_disabled":false,"rental_uris":{"android":"levelo://app?vid=197951b6-f51d-4e0e-9015-1307af51213e","ios":"levelo://app?vid=197951b6-f51d-4e0e-9015-1307af51213e"},"vehicle_type_id":"4","last_reported":1730270398,"current_range_meters":6400,"station_id":"ce4bgt12rcd13ifvqcd0","pricing_plan_id":"cebpf4jnsgd1na2vs0mg"},{"bike_id":"83e8370a-0578-402b-b179-be4cd80c393d","system_id":"levelo_inurba_marseille","lat":43.313653,"lon":5.384913,"is_reserved":false,"is_disabled":false,"rental_uris":{"android":"levelo://app?vid=83e8370a-0578-402b-b179-be4cd80c393d","ios":"levelo://app?vid=83e8370a-0578-402b-b179-be4cd80c393d"},"vehicle_type_id":"4","last_reported":1730270398,"current_range_meters":36400,"station_id":"ce4bgt92rcd13ifvqcf0","pricing_plan_id":"cebpf4jnsgd1na2vs0mg"},{"bike_id":"5350987e-6b1e-48a4-9d22-80eb92ebd932","system_id":"levelo_inurba_marseille","lat":43.317138,"lon":5.437133,"is_reserved":false,"is_disabled":false,"rental_uris":{"android":"levelo://app?vid=5350987e-6b1e-48a4-9d22-80eb92ebd932","ios":"levelo://app?vid=5350987e-6b1e-48a4-9d22-80eb92ebd932"},"vehicle_type_id":"4","last_reported":1730270398,"current_range_meters":12400,"station_id":"ce4bhp92rcd13ifvqhcg","pricing_plan_id":"cebpf4jnsgd1na2vs0mg"},{"bike_id":"84f26cf8-5f63-4734-b9e0-23c9b5de6ad1","system_id":"levelo_inurba_marseille","lat":43.3081,"lon":5.38156,"is_reserved":false,"is_disabled":false,"rental_uris":{"android":"levelo://app?vid=84f26cf8-5f63-4734-b9e0-23c9b5de6ad1","ios":"levelo://app?vid=84f26cf8-5f63-4734-b9e0-23c9b5de6ad1"},"vehicle_type_id":"4","last_reported":1730270398,"current_range_meters":12800,"station_id":"ce4bgt12rcd13ifvqce0","pricing_plan_id":"cebpf4jnsgd1na2vs0mg"},{"bike_id":"a7df28aa-87c8-4736-aecb-96c1ea5fecdb","system_id":"levelo_inurba_marseille","lat":43.27618,"lon":5.36123,"is_reserved":false,"is_disabled":false,"rental_uris":{"android":"levelo://app?vid=a7df28aa-87c8-4736-aecb-96c1ea5fecdb","ios":"levelo://app?vid=a7df28aa-87c8-4736-aecb-96c1ea5fecdb"},"vehicle_type_id":"4","last_reported":1730270398,"current_range_meters":20400,"station_id":"ce4bgj92rcd13ifvqbe0","pricing_plan_id":"cebpf4jnsgd1na2vs0mg"},{"bike_id":"b064c4d6-367c-48e1-ba77-b9d395acae51","system_id":"levelo_inurba_marseille","lat":43.30464,"lon":5.37897,"is_reserved":false,"is_disabled":false,"rental_uris":{"android":"levelo://app?vid=b064c4d6-367c-48e1-ba77-b9d395acae51","ios":"levelo://app?vid=b064c4d6-367c-48e1-ba77-b9d395acae51"},"vehicle_type_id":"4","last_reported":1730270398,"current_range_meters":26800,"station_id":"ce4bgup2rcd13ifvqcn0","pricing_plan_id":"cebpf4jnsgd1na2vs0mg"},{"bike_id":"79753c44-2696-48d8-8503-a28f55e7f2ea","system_id":"levelo_inurba_marseille","lat":43.3133,"lon":5.39695,"is_reserved":false,"is_disabled":false,"rental_uris":{"android":"levelo://app?vid=79753c44-2696-48d8-8503-a28f55e7f2ea","ios":"levelo://app?vid=79753c44-2696-48d8-8503-a28f55e7f2ea"},"vehicle_type_id":"4","last_reported":1730270398,"current_range_meters":38800,"station_id":"ce4bgvp2rcd13ifvqcu0","pricing_plan_id":"cebpf4jnsgd1na2vs0mg"},{"bike_id":"e68ce33f-f1a1-4e57-9764-2f2b65f5c8c3","system_id":"levelo_inurba_marseille","lat":43.27183,"lon":5.40992,"is_reserved":false,"is_disabled":false,"rental_uris":{"android":"levelo://app?vid=e68ce33f-f1a1-4e57-9764-2f2b65f5c8c3","ios":"levelo://app?vid=e68ce33f-f1a1-4e57-9764-2f2b65f5c8c3"},"vehicle_type_id":"4","last_reported":1730270398,"current_range_meters":27600,"station_id":"ce4bhl12rcd13ifvqgf0","pricing_plan_id":"cebpf4jnsgd1na2vs0mg"},{"bike_id":"77ef2a38-e3ef-4510-81b3-93939981e4f1","system_id":"levelo_inurba_marseille","lat":43.306,"lon":5.39357,"is_reserved":false,"is_disabled":false,"rental_uris":{"android":"levelo://app?vid=77ef2a38-e3ef-4510-81b3-93939981e4f1","ios":"levelo://app?vid=77ef2a38-e3ef-4510-81b3-93939981e4f1"},"vehicle_type_id":"4","last_reported":1730270398,"current_range_meters":18000,"station_id":"ce4bh0p2rcd13ifvqd80","pricing_plan_id":"cebpf4jnsgd1na2vs0mg"},{"bike_id":"04074040-bacb-4d8e-9554-b6d48202d7e9","system_id":"levelo_inurba_marseille","lat":43.27922,"lon":5.3959,"is_reserved":false,"is_disabled":false,"rental_uris":{"android":"levelo://app?vid=04074040-bacb-4d8e-9554-b6d48202d7e9","ios":"levelo://app?vid=04074040-bacb-4d8e-9554-b6d48202d7e9"},"vehicle_type_id":"4","last_reported":1730270398,"current_range_meters":36800,"station_id":"ce4bhf92rcd13ifvqf40","pricing_plan_id":"cebpf4jnsgd1na2vs0mg"},{"bike_id":"34630d18-75dd-4aec-9bb1-0ce7aab0afdf","system_id":"levelo_inurba_marseille","lat":43.2467,"lon":5.38155,"is_reserved":false,"is_disabled":false,"rental_uris":{"android":"levelo://app?vid=34630d18-75dd-4aec-9bb1-0ce7aab0afdf","ios":"levelo://app?vid=34630d18-75dd-4aec-9bb1-0ce7aab0afdf"},"vehicle_type_id":"4","last_reported":1730270398,"current_range_meters":40000,"station_id":"ce4bhih2rcd13ifvqfr0","pricing_plan_id":"cebpf4jnsgd1na2vs0mg"},{"bike_id":"fca70fb1-2c2b-46bb-a35c-c4971041e2df","system_id":"levelo_inurba_marseille","lat":43.23193,"lon":5.39977,"is_reserved":false,"is_disabled":false,"rental_uris":{"android":"levelo://app?vid=fca70fb1-2c2b-46bb-a35c-c4971041e2df","ios":"levelo://app?vid=fca70fb1-2c2b-46bb-a35c-c4971041e2df"},"vehicle_type_id":"4","last_reported":1730270398,"current_range_meters":22800,"station_id":"ce4bhn12rcd13ifvqgqg","pricing_plan_id":"cebpf4jnsgd1na2vs0mg"},{"bike_id":"a71e0e1d-8afd-477b-8167-6508ea637736","system_id":"levelo_inurba_marseille","lat":43.3019,"lon":5.36609,"is_reserved":false,"is_disabled":false,"rental_uris":{"android":"levelo://app?vid=a71e0e1d-8afd-477b-8167-6508ea637736","ios":"levelo://app?vid=a71e0e1d-8afd-477b-8167-6508ea637736"},"vehicle_type_id":"4","last_reported":1730270398,"current_range_meters":38800,"station_id":"ce4bgrh2rcd13ifvqc8g","pricing_plan_id":"cebpf4jnsgd1na2vs0mg"},{"bike_id":"c5ab8f86-3c93-447c-b767-f885bdebd2ff","system_id":"levelo_inurba_marseille","lat":43.27072,"lon":5.42281,"is_reserved":false,"is_disabled":false,"rental_uris":{"android":"levelo://app?vid=c5ab8f86-3c93-447c-b767-f885bdebd2ff","ios":"levelo://app?vid=c5ab8f86-3c93-447c-b767-f885bdebd2ff"},"vehicle_type_id":"4","last_reported":1730270398,"current_range_meters":40000,"station_id":"ce4bhk92rcd13ifvqgb0","pricing_plan_id":"cebpf4jnsgd1na2vs0mg"},{"bike_id":"b897df0c-07b0-4360-98f1-1f35c31cddbb","system_id":"levelo_inurba_marseille","lat":43.27059,"lon":5.40268,"is_reserved":false,"is_disabled":false,"rental_uris":{"android":"levelo://app?vid=b897df0c-07b0-4360-98f1-1f35c31cddbb","ios":"levelo://app?vid=b897df0c-07b0-4360-98f1-1f35c31cddbb"},"vehicle_type_id":"4","last_reported":1730270398,"current_range_meters":38000,"station_id":"ce4bhk92rcd13ifvqgc0","pricing_plan_id":"cebpf4jnsgd1na2vs0mg"},{"bike_id":"6bfb62a6-63c3-4bd5-8676-7b2f3dd6580d","system_id":"levelo_inurba_marseille","lat":43.28149,"lon":5.42639,"is_reserved":false,"is_disabled":false,"rental_uris":{"android":"levelo://app?vid=6bfb62a6-63c3-4bd5-8676-7b2f3dd6580d","ios":"levelo://app?vid=6bfb62a6-63c3-4bd5-8676-7b2f3dd6580d"},"vehicle_type_id":"4","last_reported":1730270398,"current_range_meters":14400,"station_id":"ce4bhnh2rcd13ifvqgug","pricing_plan_id":"cebpf4jnsgd1na2vs0mg"},{"bike_id":"70bb78fe-4bef-4d56-a833-affc0bdfc9f3","system_id":"levelo_inurba_marseille","lat":43.23193,"lon":5.35555,"is_reserved":false,"is_disabled":false,"rental_uris":{"android":"levelo://app?vid=70bb78fe-4bef-4d56-a833-affc0bdfc9f3","ios":"levelo://app?vid=70bb78fe-4bef-4d56-a833-affc0bdfc9f3"},"vehicle_type_id":"4","last_reported":1730270398,"current_range_meters":38000,"station_id":"ce4bhu92rcd13ifvqi70","pricing_plan_id":"cebpf4jnsgd1na2vs0mg"},{"bike_id":"e4233d94-ec75-499d-89c5-1d74a9d45e94","system_id":"levelo_inurba_marseille","lat":43.30476,"lon":5.379,"is_reserved":false,"is_disabled":false,"rental_uris":{"android":"levelo://app?vid=e4233d94-ec75-499d-89c5-1d74a9d45e94","ios":"levelo://app?vid=e4233d94-ec75-499d-89c5-1d74a9d45e94"},"vehicle_type_id":"4","last_reported":1730270398,"current_range_meters":38800,"station_id":"ce4bgup2rcd13ifvqcn0","pricing_plan_id":"cebpf4jnsgd1na2vs0mg"},{"bike_id":"f93e13e9-5e33-4f80-b6e9-8ad091302a43","system_id":"levelo_inurba_marseille","lat":43.28847,"lon":5.35856,"is_reserved":false,"is_disabled":false,"rental_uris":{"android":"levelo://app?vid=f93e13e9-5e33-4f80-b6e9-8ad091302a43","ios":"levelo://app?vid=f93e13e9-5e33-4f80-b6e9-8ad091302a43"},"vehicle_type_id":"4","last_reported":1730270398,"current_range_meters":38800,"station_id":"ce4bhb12rcd13ifvqem0","pricing_plan_id":"cebpf4jnsgd1na2vs0mg"},{"bike_id":"1a23e5a8-eaa2-49bf-921e-448b5e886ed3","system_id":"levelo_inurba_marseille","lat":43.28109,"lon":5.37845,"is_reserved":false,"is_disabled":false,"rental_uris":{"android":"levelo://app?vid=1a23e5a8-eaa2-49bf-921e-448b5e886ed3","ios":"levelo://app?vid=1a23e5a8-eaa2-49bf-921e-448b5e886ed3"},"vehicle_type_id":"4","last_reported":1730270398,"current_range_meters":39200,"station_id":"ce4bha12rcd13ifvqee0","pricing_plan_id":"cebpf4jnsgd1na2vs0mg"},{"bike_id":"0790b19d-aa7b-4cc8-b334-e3c9e4892b72","system_id":"levelo_inurba_marseille","lat":43.28574,"lon":5.39504,"is_reserved":false,"is_disabled":false,"rental_uris":{"android":"levelo://app?vid=0790b19d-aa7b-4cc8-b334-e3c9e4892b72","ios":"levelo://app?vid=0790b19d-aa7b-4cc8-b334-e3c9e4892b72"},"vehicle_type_id":"4","last_reported":1730270398,"current_range_meters":24800,"station_id":"ce4bh292rcd13ifvqdg0","pricing_plan_id":"cebpf4jnsgd1na2vs0mg"},{"bike_id":"5c244c3d-8fd7-4c95-b825-2f7fe2f15994","system_id":"levelo_inurba_marseille","lat":43.23193,"lon":5.35547,"is_reserved":false,"is_disabled":false,"rental_uris":{"android":"levelo://app?vid=5c244c3d-8fd7-4c95-b825-2f7fe2f15994","ios":"levelo://app?vid=5c244c3d-8fd7-4c95-b825-2f7fe2f15994"},"vehicle_type_id":"4","last_reported":1730270398,"current_range_meters":40000,"station_id":"ce4bhu92rcd13ifvqi70","pricing_plan_id":"cebpf4jnsgd1na2vs0mg"},{"bike_id":"82c2f2b2-a482-4f77-a2c1-f6babf5f01cf","system_id":"levelo_inurba_marseille","lat":43.29482,"lon":5.44496,"is_reserved":false,"is_disabled":false,"rental_uris":{"android":"levelo://app?vid=82c2f2b2-a482-4f77-a2c1-f6babf5f01cf","ios":"levelo://app?vid=82c2f2b2-a482-4f77-a2c1-f6babf5f01cf"},"vehicle_type_id":"4","last_reported":1730270398,"current_range_meters":36000,"station_id":"","pricing_plan_id":"cebpf4jnsgd1na2vs0mg"},{"bike_id":"5efd5148-f738-4c82-8164-c1739863b28d","system_id":"levelo_inurba_marseille","lat":43.269432,"lon":5.402382,"is_reserved":false,"is_disabled":false,"rental_uris":{"android":"levelo://app?vid=5efd5148-f738-4c82-8164-c1739863b28d","ios":"levelo://app?vid=5efd5148-f738-4c82-8164-c1739863b28d"},"vehicle_type_id":"4","last_reported":1730270398,"current_range_meters":16800,"station_id":"cjm6bp8fraef2m0cb0m0","pricing_plan_id":"cebpf4jnsgd1na2vs0mg"},{"bike_id":"e10ff328-93b2-4d6a-af26-12f189d78479","system_id":"levelo_inurba_marseille","lat":43.3373,"lon":5.3918,"is_reserved":false,"is_disabled":false,"rental_uris":{"android":"levelo://app?vid=e10ff328-93b2-4d6a-af26-12f189d78479","ios":"levelo://app?vid=e10ff328-93b2-4d6a-af26-12f189d78479"},"vehicle_type_id":"4","last_reported":1730270398,"current_range_meters":38000,"station_id":"ce4bhr92rcd13ifvqhsg","pricing_plan_id":"cebpf4jnsgd1na2vs0mg"},{"bike_id":"8fe952c7-d1f5-486e-a32b-0e7b70cce917","system_id":"levelo_inurba_marseille","lat":43.32362,"lon":5.38892,"is_reserved":false,"is_disabled":false,"rental_uris":{"android":"levelo://app?vid=8fe952c7-d1f5-486e-a32b-0e7b70cce917","ios":"levelo://app?vid=8fe952c7-d1f5-486e-a32b-0e7b70cce917"},"vehicle_type_id":"4","last_reported":1730270398,"current_range_meters":31200,"station_id":"ce4bhqp2rcd13ifvqhog","pricing_plan_id":"cebpf4jnsgd1na2vs0mg"},{"bike_id":"66d7efc4-2248-47d0-915c-c5c49c23ff79","system_id":"levelo_inurba_marseille","lat":43.33603,"lon":5.41026,"is_reserved":false,"is_disabled":false,"rental_uris":{"android":"levelo://app?vid=66d7efc4-2248-47d0-915c-c5c49c23ff79","ios":"levelo://app?vid=66d7efc4-2248-47d0-915c-c5c49c23ff79"},"vehicle_type_id":"4","last_reported":1730270398,"current_range_meters":38000,"station_id":"ce4bhqh2rcd13ifvqhmg","pricing_plan_id":"cebpf4jnsgd1na2vs0mg"},{"bike_id":"40303298-86d3-46fd-adad-a05df47dcacf","system_id":"levelo_inurba_marseille","lat":43.28458,"lon":5.3587,"is_reserved":false,"is_disabled":false,"rental_uris":{"android":"levelo://app?vid=40303298-86d3-46fd-adad-a05df47dcacf","ios":"levelo://app?vid=40303298-86d3-46fd-adad-a05df47dcacf"},"vehicle_type_id":"4","last_reported":1730270398,"current_range_meters":38000,"station_id":"ce4bhah2rcd13ifvqei0","pricing_plan_id":"cebpf4jnsgd1na2vs0mg"},{"bike_id":"c6472a4b-15fb-475c-a800-9db188055ce2","system_id":"levelo_inurba_marseille","lat":43.258339,"lon":5.394296,"is_reserved":false,"is_disabled":false,"rental_uris":{"android":"levelo://app?vid=c6472a4b-15fb-475c-a800-9db188055ce2","ios":"levelo://app?vid=c6472a4b-15fb-475c-a800-9db188055ce2"},"vehicle_type_id":"4","last_reported":1730270398,"current_range_meters":14400,"station_id":"ce4bhip2rcd13ifvqft0","pricing_plan_id":"cebpf4jnsgd1na2vs0mg"},{"bike_id":"8cf45733-7884-4d00-89cb-dcc5bdeb6bc8","system_id":"levelo_inurba_marseille","lat":43.27906,"lon":5.38015,"is_reserved":false,"is_disabled":false,"rental_uris":{"android":"levelo://app?vid=8cf45733-7884-4d00-89cb-dcc5bdeb6bc8","ios":"levelo://app?vid=8cf45733-7884-4d00-89cb-dcc5bdeb6bc8"},"vehicle_type_id":"4","last_reported":1730270398,"current_range_meters":38800,"station_id":"ce4bhf92rcd13ifvqf50","pricing_plan_id":"cebpf4jnsgd1na2vs0mg"},{"bike_id":"5605e7e8-7b5f-4b34-8547-b7b667c952c4","system_id":"levelo_inurba_marseille","lat":43.24677,"lon":5.38153,"is_reserved":false,"is_disabled":false,"rental_uris":{"android":"levelo://app?vid=5605e7e8-7b5f-4b34-8547-b7b667c952c4","ios":"levelo://app?vid=5605e7e8-7b5f-4b34-8547-b7b667c952c4"},"vehicle_type_id":"4","last_reported":1730270398,"current_range_meters":27200,"station_id":"ce4bhih2rcd13ifvqfr0","pricing_plan_id":"cebpf4jnsgd1na2vs0mg"},{"bike_id":"56dc04b7-06b7-4e88-ac29-730a7abdd49b","system_id":"levelo_inurba_marseille","lat":43.3137,"lon":5.38504,"is_reserved":false,"is_disabled":false,"rental_uris":{"android":"levelo://app?vid=56dc04b7-06b7-4e88-ac29-730a7abdd49b","ios":"levelo://app?vid=56dc04b7-06b7-4e88-ac29-730a7abdd49b"},"vehicle_type_id":"4","last_reported":1730270398,"current_range_meters":38400,"station_id":"ce4bgt92rcd13ifvqcf0","pricing_plan_id":"cebpf4jnsgd1na2vs0mg"},{"bike_id":"ee9927da-db62-4b18-894c-b5fe829dc733","system_id":"levelo_inurba_marseille","lat":43.3092,"lon":5.36844,"is_reserved":false,"is_disabled":false,"rental_uris":{"android":"levelo://app?vid=ee9927da-db62-4b18-894c-b5fe829dc733","ios":"levelo://app?vid=ee9927da-db62-4b18-894c-b5fe829dc733"},"vehicle_type_id":"4","last_reported":1730270398,"current_range_meters":5600,"station_id":"ce4bgn92rcd13ifvqbvg","pricing_plan_id":"cebpf4jnsgd1na2vs0mg"},{"bike_id":"87f4bfe6-ba53-4505-af1d-e98051898d3c","system_id":"levelo_inurba_marseille","lat":43.28473,"lon":5.38423,"is_reserved":false,"is_disabled":false,"rental_uris":{"android":"levelo://app?vid=87f4bfe6-ba53-4505-af1d-e98051898d3c","ios":"levelo://app?vid=87f4bfe6-ba53-4505-af1d-e98051898d3c"},"vehicle_type_id":"4","last_reported":1730270398,"current_range_meters":40000,"station_id":"ce4bh512rcd13ifvqe3g","pricing_plan_id":"cebpf4jnsgd1na2vs0mg"},{"bike_id":"92adf987-4779-4b78-ad9c-8e29ab9175f3","system_id":"levelo_inurba_marseille","lat":43.23188,"lon":5.35557,"is_reserved":false,"is_disabled":false,"rental_uris":{"android":"levelo://app?vid=92adf987-4779-4b78-ad9c-8e29ab9175f3","ios":"levelo://app?vid=92adf987-4779-4b78-ad9c-8e29ab9175f3"},"vehicle_type_id":"4","last_reported":1730270398,"current_range_meters":14400,"station_id":"ce4bhu92rcd13ifvqi70","pricing_plan_id":"cebpf4jnsgd1na2vs0mg"},{"bike_id":"6ccddc45-787b-4e0a-8482-1abb83f99cfc","system_id":"levelo_inurba_marseille","lat":43.28464,"lon":5.35896,"is_reserved":false,"is_disabled":false,"rental_uris":{"android":"levelo://app?vid=6ccddc45-787b-4e0a-8482-1abb83f99cfc","ios":"levelo://app?vid=6ccddc45-787b-4e0a-8482-1abb83f99cfc"},"vehicle_type_id":"4","last_reported":1730270398,"current_range_meters":37600,"station_id":"ce4bhah2rcd13ifvqei0","pricing_plan_id":"cebpf4jnsgd1na2vs0mg"},{"bike_id":"aa1f6486-b24c-41dd-80c6-60bef14d02b3","system_id":"levelo_inurba_marseille","lat":43.27206,"lon":5.39191,"is_reserved":false,"is_disabled":false,"rental_uris":{"android":"levelo://app?vid=aa1f6486-b24c-41dd-80c6-60bef14d02b3","ios":"levelo://app?vid=aa1f6486-b24c-41dd-80c6-60bef14d02b3"},"vehicle_type_id":"4","last_reported":1730270398,"current_range_meters":38400,"station_id":"ce4bhhp2rcd13ifvqfm0","pricing_plan_id":"cebpf4jnsgd1na2vs0mg"},{"bike_id":"c03f3456-93bb-418a-8ce0-ca351e254b4e","system_id":"levelo_inurba_marseille","lat":43.31756,"lon":5.39014,"is_reserved":false,"is_disabled":false,"rental_uris":{"android":"levelo://app?vid=c03f3456-93bb-418a-8ce0-ca351e254b4e","ios":"levelo://app?vid=c03f3456-93bb-418a-8ce0-ca351e254b4e"},"vehicle_type_id":"4","last_reported":1730270398,"current_range_meters":37600,"station_id":"ce4bhqp2rcd13ifvqhng","pricing_plan_id":"cebpf4jnsgd1na2vs0mg"},{"bike_id":"37cb0773-ba21-47be-9d4f-f925cfb4f6e7","system_id":"levelo_inurba_marseille","lat":43.29054,"lon":5.37729,"is_reserved":false,"is_disabled":false,"rental_uris":{"android":"levelo://app?vid=37cb0773-ba21-47be-9d4f-f925cfb4f6e7","ios":"levelo://app?vid=37cb0773-ba21-47be-9d4f-f925cfb4f6e7"},"vehicle_type_id":"4","last_reported":1730270398,"current_range_meters":29600,"station_id":"","pricing_plan_id":"cebpf4jnsgd1na2vs0mg"},{"bike_id":"3f42b5bf-2a79-45d5-b497-6ae8dd1c3625","system_id":"levelo_inurba_marseille","lat":43.27907,"lon":5.39597,"is_reserved":false,"is_disabled":false,"rental_uris":{"android":"levelo://app?vid=3f42b5bf-2a79-45d5-b497-6ae8dd1c3625","ios":"levelo://app?vid=3f42b5bf-2a79-45d5-b497-6ae8dd1c3625"},"vehicle_type_id":"4","last_reported":1730270398,"current_range_meters":38400,"station_id":"ce4bhf92rcd13ifvqf40","pricing_plan_id":"cebpf4jnsgd1na2vs0mg"},{"bike_id":"f9f1fac0-f85f-464b-8d90-12df2d11e889","system_id":"levelo_inurba_marseille","lat":43.262025,"lon":5.379195,"is_reserved":false,"is_disabled":false,"rental_uris":{"android":"levelo://app?vid=f9f1fac0-f85f-464b-8d90-12df2d11e889","ios":"levelo://app?vid=f9f1fac0-f85f-464b-8d90-12df2d11e889"},"vehicle_type_id":"4","last_reported":1730270398,"current_range_meters":38400,"station_id":"ce4bhjp2rcd13ifvqg90","pricing_plan_id":"cebpf4jnsgd1na2vs0mg"},{"bike_id":"14845b02-4ac0-4d16-91a9-9d8bd69c6b18","system_id":"levelo_inurba_marseille","lat":43.3016,"lon":5.38093,"is_reserved":false,"is_disabled":false,"rental_uris":{"android":"levelo://app?vid=14845b02-4ac0-4d16-91a9-9d8bd69c6b18","ios":"levelo://app?vid=14845b02-4ac0-4d16-91a9-9d8bd69c6b18"},"vehicle_type_id":"4","last_reported":1730270398,"current_range_meters":36400,"station_id":"ce4bgjp2rcd13ifvqbh0","pricing_plan_id":"cebpf4jnsgd1na2vs0mg"},{"bike_id":"269a4193-03a6-4fe1-93c0-2b8610ca1e7f","system_id":"levelo_inurba_marseille","lat":43.24384,"lon":5.37051,"is_reserved":false,"is_disabled":false,"rental_uris":{"android":"levelo://app?vid=269a4193-03a6-4fe1-93c0-2b8610ca1e7f","ios":"levelo://app?vid=269a4193-03a6-4fe1-93c0-2b8610ca1e7f"},"vehicle_type_id":"4","last_reported":1730270398,"current_range_meters":19200,"station_id":"ce4bhhh2rcd13ifvqfk0","pricing_plan_id":"cebpf4jnsgd1na2vs0mg"},{"bike_id":"3928d2b2-5322-4bfc-935c-f02931565366","system_id":"levelo_inurba_marseille","lat":43.28007,"lon":5.41662,"is_reserved":false,"is_disabled":false,"rental_uris":{"android":"levelo://app?vid=3928d2b2-5322-4bfc-935c-f02931565366","ios":"levelo://app?vid=3928d2b2-5322-4bfc-935c-f02931565366"},"vehicle_type_id":"4","last_reported":1730270398,"current_range_meters":11600,"station_id":"ce4bho12rcd13ifvqh1g","pricing_plan_id":"cebpf4jnsgd1na2vs0mg"},{"bike_id":"669541bb-ec23-44c5-bb83-c3650de83fee","system_id":"levelo_inurba_marseille","lat":43.27999,"lon":5.41666,"is_reserved":false,"is_disabled":false,"rental_uris":{"android":"levelo://app?vid=669541bb-ec23-44c5-bb83-c3650de83fee","ios":"levelo://app?vid=669541bb-ec23-44c5-bb83-c3650de83fee"},"vehicle_type_id":"4","last_reported":1730270398,"current_range_meters":38000,"station_id":"ce4bho12rcd13ifvqh1g","pricing_plan_id":"cebpf4jnsgd1na2vs0mg"},{"bike_id":"eb95fe5d-06a7-4185-9c5d-85ad221adc22","system_id":"levelo_inurba_marseille","lat":43.28356,"lon":5.38106,"is_reserved":false,"is_disabled":false,"rental_uris":{"android":"levelo://app?vid=eb95fe5d-06a7-4185-9c5d-85ad221adc22","ios":"levelo://app?vid=eb95fe5d-06a7-4185-9c5d-85ad221adc22"},"vehicle_type_id":"4","last_reported":1730270398,"current_range_meters":38400,"station_id":"ce4bh412rcd13ifvqdr0","pricing_plan_id":"cebpf4jnsgd1na2vs0mg"},{"bike_id":"d42f4a6b-23fc-4c16-b6cf-e48fe37c5c2e","system_id":"levelo_inurba_marseille","lat":43.284608,"lon":5.358922,"is_reserved":false,"is_disabled":false,"rental_uris":{"android":"levelo://app?vid=d42f4a6b-23fc-4c16-b6cf-e48fe37c5c2e","ios":"levelo://app?vid=d42f4a6b-23fc-4c16-b6cf-e48fe37c5c2e"},"vehicle_type_id":"4","last_reported":1730270398,"current_range_meters":38400,"station_id":"ce4bhah2rcd13ifvqei0","pricing_plan_id":"cebpf4jnsgd1na2vs0mg"},{"bike_id":"50efb473-e071-4c9e-8739-08992c06337d","system_id":"levelo_inurba_marseille","lat":43.3017,"lon":5.38082,"is_reserved":false,"is_disabled":false,"rental_uris":{"android":"levelo://app?vid=50efb473-e071-4c9e-8739-08992c06337d","ios":"levelo://app?vid=50efb473-e071-4c9e-8739-08992c06337d"},"vehicle_type_id":"4","last_reported":1730270398,"current_range_meters":4800,"station_id":"ce4bgjp2rcd13ifvqbh0","pricing_plan_id":"cebpf4jnsgd1na2vs0mg"},{"bike_id":"ce2ce550-e7d1-4609-9f9b-d0349ecd3e7d","system_id":"levelo_inurba_marseille","lat":43.26496,"lon":5.39535,"is_reserved":false,"is_disabled":false,"rental_uris":{"android":"levelo://app?vid=ce2ce550-e7d1-4609-9f9b-d0349ecd3e7d","ios":"levelo://app?vid=ce2ce550-e7d1-4609-9f9b-d0349ecd3e7d"},"vehicle_type_id":"4","last_reported":1730270398,"current_range_meters":32000,"station_id":"ce4bhi12rcd13ifvqfq0","pricing_plan_id":"cebpf4jnsgd1na2vs0mg"},{"bike_id":"4a223b58-dbe5-49aa-8129-929248ef0a09","system_id":"levelo_inurba_marseille","lat":43.31367,"lon":5.38508,"is_reserved":false,"is_disabled":false,"rental_uris":{"android":"levelo://app?vid=4a223b58-dbe5-49aa-8129-929248ef0a09","ios":"levelo://app?vid=4a223b58-dbe5-49aa-8129-929248ef0a09"},"vehicle_type_id":"4","last_reported":1730270398,"current_range_meters":18800,"station_id":"ce4bgt92rcd13ifvqcf0","pricing_plan_id":"cebpf4jnsgd1na2vs0mg"},{"bike_id":"491171d5-0527-410a-ada1-acc25421f1b3","system_id":"levelo_inurba_marseille","lat":43.30783,"lon":5.37657,"is_reserved":false,"is_disabled":false,"rental_uris":{"android":"levelo://app?vid=491171d5-0527-410a-ada1-acc25421f1b3","ios":"levelo://app?vid=491171d5-0527-410a-ada1-acc25421f1b3"},"vehicle_type_id":"4","last_reported":1730270398,"current_range_meters":16000,"station_id":"ce4bgv92rcd13ifvqcq0","pricing_plan_id":"cebpf4jnsgd1na2vs0mg"},{"bike_id":"defdda9f-a11b-4b2f-8fc8-580691ee0a13","system_id":"levelo_inurba_marseille","lat":43.30558,"lon":5.36538,"is_reserved":false,"is_disabled":false,"rental_uris":{"android":"levelo://app?vid=defdda9f-a11b-4b2f-8fc8-580691ee0a13","ios":"levelo://app?vid=defdda9f-a11b-4b2f-8fc8-580691ee0a13"},"vehicle_type_id":"4","last_reported":1730270398,"current_range_meters":30400,"station_id":"ce4bgs12rcd13ifvqcag","pricing_plan_id":"cebpf4jnsgd1na2vs0mg"},{"bike_id":"99a3f4d5-9ad7-4614-a88f-03f2ed75ead3","system_id":"levelo_inurba_marseille","lat":43.31701,"lon":5.37751,"is_reserved":false,"is_disabled":false,"rental_uris":{"android":"levelo://app?vid=99a3f4d5-9ad7-4614-a88f-03f2ed75ead3","ios":"levelo://app?vid=99a3f4d5-9ad7-4614-a88f-03f2ed75ead3"},"vehicle_type_id":"4","last_reported":1730270398,"current_range_meters":38800,"station_id":"ce4bgth2rcd13ifvqch0","pricing_plan_id":"cebpf4jnsgd1na2vs0mg"},{"bike_id":"5867dd38-1697-41f0-976b-2886f1b58d27","system_id":"levelo_inurba_marseille","lat":43.28439,"lon":5.39196,"is_reserved":false,"is_disabled":false,"rental_uris":{"android":"levelo://app?vid=5867dd38-1697-41f0-976b-2886f1b58d27","ios":"levelo://app?vid=5867dd38-1697-41f0-976b-2886f1b58d27"},"vehicle_type_id":"4","last_reported":1730270398,"current_range_meters":38400,"station_id":"ce4bhoh2rcd13ifvqh5g","pricing_plan_id":"cebpf4jnsgd1na2vs0mg"},{"bike_id":"3e6d7896-2b44-40ea-a659-73ee7fe5c818","system_id":"levelo_inurba_marseille","lat":43.308044,"lon":5.381485,"is_reserved":false,"is_disabled":false,"rental_uris":{"android":"levelo://app?vid=3e6d7896-2b44-40ea-a659-73ee7fe5c818","ios":"levelo://app?vid=3e6d7896-2b44-40ea-a659-73ee7fe5c818"},"vehicle_type_id":"4","last_reported":1730270398,"current_range_meters":24800,"station_id":"ce4bgt12rcd13ifvqce0","pricing_plan_id":"cebpf4jnsgd1na2vs0mg"},{"bike_id":"a499e673-4f57-4342-9063-be4db69af0ba","system_id":"levelo_inurba_marseille","lat":43.314925,"lon":5.373038,"is_reserved":false,"is_disabled":false,"rental_uris":{"android":"levelo://app?vid=a499e673-4f57-4342-9063-be4db69af0ba","ios":"levelo://app?vid=a499e673-4f57-4342-9063-be4db69af0ba"},"vehicle_type_id":"4","last_reported":1730270398,"current_range_meters":38800,"station_id":"ce4bgt12rcd13ifvqcd0","pricing_plan_id":"cebpf4jnsgd1na2vs0mg"},{"bike_id":"54454bef-56f4-4fd7-9cf7-c57a75a8c623","system_id":"levelo_inurba_marseille","lat":43.31704,"lon":5.37763,"is_reserved":false,"is_disabled":false,"rental_uris":{"android":"levelo://app?vid=54454bef-56f4-4fd7-9cf7-c57a75a8c623","ios":"levelo://app?vid=54454bef-56f4-4fd7-9cf7-c57a75a8c623"},"vehicle_type_id":"4","last_reported":1730270398,"current_range_meters":39200,"station_id":"ce4bgth2rcd13ifvqch0","pricing_plan_id":"cebpf4jnsgd1na2vs0mg"},{"bike_id":"68a95aee-44f8-4ed6-81dc-62ee58f0c73d","system_id":"levelo_inurba_marseille","lat":43.31727,"lon":5.42414,"is_reserved":false,"is_disabled":false,"rental_uris":{"android":"levelo://app?vid=68a95aee-44f8-4ed6-81dc-62ee58f0c73d","ios":"levelo://app?vid=68a95aee-44f8-4ed6-81dc-62ee58f0c73d"},"vehicle_type_id":"4","last_reported":1730270398,"current_range_meters":37600,"station_id":"ce4bhp92rcd13ifvqhbg","pricing_plan_id":"cebpf4jnsgd1na2vs0mg"},{"bike_id":"eee9c5fa-83df-4254-ab63-d1b0a0bb2f45","system_id":"levelo_inurba_marseille","lat":43.30931,"lon":5.40143,"is_reserved":false,"is_disabled":false,"rental_uris":{"android":"levelo://app?vid=eee9c5fa-83df-4254-ab63-d1b0a0bb2f45","ios":"levelo://app?vid=eee9c5fa-83df-4254-ab63-d1b0a0bb2f45"},"vehicle_type_id":"4","last_reported":1730270398,"current_range_meters":38000,"station_id":"ce4bgvp2rcd13ifvqct0","pricing_plan_id":"cebpf4jnsgd1na2vs0mg"},{"bike_id":"0b0066f3-3fd0-4097-b8c9-d0c6df0d8297","system_id":"levelo_inurba_marseille","lat":43.27293,"lon":5.407,"is_reserved":false,"is_disabled":false,"rental_uris":{"android":"levelo://app?vid=0b0066f3-3fd0-4097-b8c9-d0c6df0d8297","ios":"levelo://app?vid=0b0066f3-3fd0-4097-b8c9-d0c6df0d8297"},"vehicle_type_id":"4","last_reported":1730270398,"current_range_meters":23200,"station_id":"","pricing_plan_id":"cebpf4jnsgd1na2vs0mg"},{"bike_id":"1a67a705-8172-492b-8141-6a524fd2a861","system_id":"levelo_inurba_marseille","lat":43.29032,"lon":5.38131,"is_reserved":false,"is_disabled":false,"rental_uris":{"android":"levelo://app?vid=1a67a705-8172-492b-8141-6a524fd2a861","ios":"levelo://app?vid=1a67a705-8172-492b-8141-6a524fd2a861"},"vehicle_type_id":"4","last_reported":1730270398,"current_range_meters":38400,"station_id":"ce4bh4p2rcd13ifvqe1g","pricing_plan_id":"cebpf4jnsgd1na2vs0mg"},{"bike_id":"d4f897cd-5722-42fb-bbae-84fadb33bd3a","system_id":"levelo_inurba_marseille","lat":43.28849,"lon":5.35864,"is_reserved":false,"is_disabled":false,"rental_uris":{"android":"levelo://app?vid=d4f897cd-5722-42fb-bbae-84fadb33bd3a","ios":"levelo://app?vid=d4f897cd-5722-42fb-bbae-84fadb33bd3a"},"vehicle_type_id":"4","last_reported":1730270398,"current_range_meters":38800,"station_id":"ce4bhb12rcd13ifvqem0","pricing_plan_id":"cebpf4jnsgd1na2vs0mg"},{"bike_id":"538c6c97-8738-4e40-afde-1ced2fc6b778","system_id":"levelo_inurba_marseille","lat":43.33717,"lon":5.39178,"is_reserved":false,"is_disabled":false,"rental_uris":{"android":"levelo://app?vid=538c6c97-8738-4e40-afde-1ced2fc6b778","ios":"levelo://app?vid=538c6c97-8738-4e40-afde-1ced2fc6b778"},"vehicle_type_id":"4","last_reported":1730270398,"current_range_meters":37600,"station_id":"ce4bhr92rcd13ifvqhsg","pricing_plan_id":"cebpf4jnsgd1na2vs0mg"},{"bike_id":"4f4d288a-f5df-49fa-a13b-b4fefdfdb182","system_id":"levelo_inurba_marseille","lat":43.30795,"lon":5.43528,"is_reserved":false,"is_disabled":false,"rental_uris":{"android":"levelo://app?vid=4f4d288a-f5df-49fa-a13b-b4fefdfdb182","ios":"levelo://app?vid=4f4d288a-f5df-49fa-a13b-b4fefdfdb182"},"vehicle_type_id":"4","last_reported":1730270398,"current_range_meters":38800,"station_id":"ce4bhph2rcd13ifvqheg","pricing_plan_id":"cebpf4jnsgd1na2vs0mg"},{"bike_id":"499c6c2d-aadc-4271-97cd-4fcd6d5d8eeb","system_id":"levelo_inurba_marseille","lat":43.26579,"lon":5.39022,"is_reserved":false,"is_disabled":false,"rental_uris":{"android":"levelo://app?vid=499c6c2d-aadc-4271-97cd-4fcd6d5d8eeb","ios":"levelo://app?vid=499c6c2d-aadc-4271-97cd-4fcd6d5d8eeb"},"vehicle_type_id":"4","last_reported":1730270398,"current_range_meters":10800,"station_id":"ce4bhe12rcd13ifvqf30","pricing_plan_id":"cebpf4jnsgd1na2vs0mg"},{"bike_id":"03e26363-1adc-494c-8098-91070571fba5","system_id":"levelo_inurba_marseille","lat":43.23202,"lon":5.35548,"is_reserved":false,"is_disabled":false,"rental_uris":{"android":"levelo://app?vid=03e26363-1adc-494c-8098-91070571fba5","ios":"levelo://app?vid=03e26363-1adc-494c-8098-91070571fba5"},"vehicle_type_id":"4","last_reported":1730270398,"current_range_meters":32000,"station_id":"ce4bhu92rcd13ifvqi70","pricing_plan_id":"cebpf4jnsgd1na2vs0mg"},{"bike_id":"c497513d-9d1d-4320-a1e3-875a8b21d4c5","system_id":"levelo_inurba_marseille","lat":43.27181,"lon":5.40995,"is_reserved":false,"is_disabled":false,"rental_uris":{"android":"levelo://app?vid=c497513d-9d1d-4320-a1e3-875a8b21d4c5","ios":"levelo://app?vid=c497513d-9d1d-4320-a1e3-875a8b21d4c5"},"vehicle_type_id":"4","last_reported":1730270398,"current_range_meters":33600,"station_id":"ce4bhl12rcd13ifvqgf0","pricing_plan_id":"cebpf4jnsgd1na2vs0mg"},{"bike_id":"3f296890-19ce-46b6-884b-d2e34dba8783","system_id":"levelo_inurba_marseille","lat":43.24816,"lon":5.37459,"is_reserved":false,"is_disabled":false,"rental_uris":{"android":"levelo://app?vid=3f296890-19ce-46b6-884b-d2e34dba8783","ios":"levelo://app?vid=3f296890-19ce-46b6-884b-d2e34dba8783"},"vehicle_type_id":"4","last_reported":1730270398,"current_range_meters":38400,"station_id":"ce4bhgh2rcd13ifvqfb0","pricing_plan_id":"cebpf4jnsgd1na2vs0mg"},{"bike_id":"e0fe10b0-ce38-4f4b-aa95-0e43ac241740","system_id":"levelo_inurba_marseille","lat":43.32364,"lon":5.38895,"is_reserved":false,"is_disabled":false,"rental_uris":{"android":"levelo://app?vid=e0fe10b0-ce38-4f4b-aa95-0e43ac241740","ios":"levelo://app?vid=e0fe10b0-ce38-4f4b-aa95-0e43ac241740"},"vehicle_type_id":"4","last_reported":1730270398,"current_range_meters":30000,"station_id":"ce4bhqp2rcd13ifvqhog","pricing_plan_id":"cebpf4jnsgd1na2vs0mg"},{"bike_id":"7ed824f7-78ab-4040-b2d3-c0c41cb6a1fe","system_id":"levelo_inurba_marseille","lat":43.275696,"lon":5.384194,"is_reserved":false,"is_disabled":false,"rental_uris":{"android":"levelo://app?vid=7ed824f7-78ab-4040-b2d3-c0c41cb6a1fe","ios":"levelo://app?vid=7ed824f7-78ab-4040-b2d3-c0c41cb6a1fe"},"vehicle_type_id":"4","last_reported":1730270398,"current_range_meters":37600,"station_id":"ce4bhi12rcd13ifvqfo0","pricing_plan_id":"cebpf4jnsgd1na2vs0mg"},{"bike_id":"e9141b44-30ab-459c-94b2-99dbe6b7a845","system_id":"levelo_inurba_marseille","lat":43.29559,"lon":5.42288,"is_reserved":false,"is_disabled":false,"rental_uris":{"android":"levelo://app?vid=e9141b44-30ab-459c-94b2-99dbe6b7a845","ios":"levelo://app?vid=e9141b44-30ab-459c-94b2-99dbe6b7a845"},"vehicle_type_id":"4","last_reported":1730270398,"current_range_meters":36800,"station_id":"ce4bhph2rcd13ifvqhdg","pricing_plan_id":"cebpf4jnsgd1na2vs0mg"},{"bike_id":"f490c3ab-626b-499d-8386-3a1696334506","system_id":"levelo_inurba_marseille","lat":43.25827,"lon":5.39425,"is_reserved":false,"is_disabled":false,"rental_uris":{"android":"levelo://app?vid=f490c3ab-626b-499d-8386-3a1696334506","ios":"levelo://app?vid=f490c3ab-626b-499d-8386-3a1696334506"},"vehicle_type_id":"4","last_reported":1730270398,"current_range_meters":28400,"station_id":"ce4bhip2rcd13ifvqft0","pricing_plan_id":"cebpf4jnsgd1na2vs0mg"},{"bike_id":"75313b0b-fea0-43a4-930b-001fbd31ad06","system_id":"levelo_inurba_marseille","lat":43.33601,"lon":5.41026,"is_reserved":false,"is_disabled":false,"rental_uris":{"android":"levelo://app?vid=75313b0b-fea0-43a4-930b-001fbd31ad06","ios":"levelo://app?vid=75313b0b-fea0-43a4-930b-001fbd31ad06"},"vehicle_type_id":"4","last_reported":1730270398,"current_range_meters":14000,"station_id":"ce4bhqh2rcd13ifvqhmg","pricing_plan_id":"cebpf4jnsgd1na2vs0mg"},{"bike_id":"8fc8f69f-228e-4754-8013-e3713d197b92","system_id":"levelo_inurba_marseille","lat":43.24673,"lon":5.38158,"is_reserved":false,"is_disabled":false,"rental_uris":{"android":"levelo://app?vid=8fc8f69f-228e-4754-8013-e3713d197b92","ios":"levelo://app?vid=8fc8f69f-228e-4754-8013-e3713d197b92"},"vehicle_type_id":"4","last_reported":1730270398,"current_range_meters":40000,"station_id":"ce4bhih2rcd13ifvqfr0","pricing_plan_id":"cebpf4jnsgd1na2vs0mg"},{"bike_id":"6b778970-7ca1-4912-8b3b-f071e3ca997e","system_id":"levelo_inurba_marseille","lat":43.31274,"lon":5.40169,"is_reserved":false,"is_disabled":false,"rental_uris":{"android":"levelo://app?vid=6b778970-7ca1-4912-8b3b-f071e3ca997e","ios":"levelo://app?vid=6b778970-7ca1-4912-8b3b-f071e3ca997e"},"vehicle_type_id":"4","last_reported":1730270398,"current_range_meters":36400,"station_id":"ce4bh092rcd13ifvqd30","pricing_plan_id":"cebpf4jnsgd1na2vs0mg"},{"bike_id":"a306c469-7544-4489-af82-e9fb1e9b4215","system_id":"levelo_inurba_marseille","lat":43.23191,"lon":5.39985,"is_reserved":false,"is_disabled":false,"rental_uris":{"android":"levelo://app?vid=a306c469-7544-4489-af82-e9fb1e9b4215","ios":"levelo://app?vid=a306c469-7544-4489-af82-e9fb1e9b4215"},"vehicle_type_id":"4","last_reported":1730270398,"current_range_meters":38800,"station_id":"ce4bhn12rcd13ifvqgqg","pricing_plan_id":"cebpf4jnsgd1na2vs0mg"},{"bike_id":"670dd631-18b7-4713-a903-23b5a1df838c","system_id":"levelo_inurba_marseille","lat":43.285764,"lon":5.394987,"is_reserved":false,"is_disabled":false,"rental_uris":{"android":"levelo://app?vid=670dd631-18b7-4713-a903-23b5a1df838c","ios":"levelo://app?vid=670dd631-18b7-4713-a903-23b5a1df838c"},"vehicle_type_id":"4","last_reported":1730270398,"current_range_meters":40000,"station_id":"ce4bh292rcd13ifvqdg0","pricing_plan_id":"cebpf4jnsgd1na2vs0mg"},{"bike_id":"c8b0ddcb-9c74-47bf-bfe0-29fe3f9c6036","system_id":"levelo_inurba_marseille","lat":43.30597,"lon":5.3936,"is_reserved":false,"is_disabled":false,"rental_uris":{"android":"levelo://app?vid=c8b0ddcb-9c74-47bf-bfe0-29fe3f9c6036","ios":"levelo://app?vid=c8b0ddcb-9c74-47bf-bfe0-29fe3f9c6036"},"vehicle_type_id":"4","last_reported":1730270398,"current_range_meters":39200,"station_id":"ce4bh0p2rcd13ifvqd80","pricing_plan_id":"cebpf4jnsgd1na2vs0mg"},{"bike_id":"8a887737-7e46-46e5-b8c8-107a72ab24e0","system_id":"levelo_inurba_marseille","lat":43.28367,"lon":5.38641,"is_reserved":false,"is_disabled":false,"rental_uris":{"android":"levelo://app?vid=8a887737-7e46-46e5-b8c8-107a72ab24e0","ios":"levelo://app?vid=8a887737-7e46-46e5-b8c8-107a72ab24e0"},"vehicle_type_id":"4","last_reported":1730270398,"current_range_meters":38000,"station_id":"ce4bh492rcd13ifvqdvg","pricing_plan_id":"cebpf4jnsgd1na2vs0mg"},{"bike_id":"949f6ed7-a890-4a64-beb2-6928cdd2f3a5","system_id":"levelo_inurba_marseille","lat":43.29732,"lon":5.37678,"is_reserved":false,"is_disabled":false,"rental_uris":{"android":"levelo://app?vid=949f6ed7-a890-4a64-beb2-6928cdd2f3a5","ios":"levelo://app?vid=949f6ed7-a890-4a64-beb2-6928cdd2f3a5"},"vehicle_type_id":"4","last_reported":1730270398,"current_range_meters":38400,"station_id":"ce4bgkh2rcd13ifvqbl0","pricing_plan_id":"cebpf4jnsgd1na2vs0mg"},{"bike_id":"65ebd49a-94e0-4731-b170-9f1ac0fc0675","system_id":"levelo_inurba_marseille","lat":43.31531,"lon":5.38041,"is_reserved":false,"is_disabled":false,"rental_uris":{"android":"levelo://app?vid=65ebd49a-94e0-4731-b170-9f1ac0fc0675","ios":"levelo://app?vid=65ebd49a-94e0-4731-b170-9f1ac0fc0675"},"vehicle_type_id":"4","last_reported":1730270398,"current_range_meters":26800,"station_id":"ce4bhsp2rcd13ifvqi50","pricing_plan_id":"cebpf4jnsgd1na2vs0mg"},{"bike_id":"b87636ba-074b-49ec-8abf-f6529ae02217","system_id":"levelo_inurba_marseille","lat":43.27903,"lon":5.3801,"is_reserved":false,"is_disabled":false,"rental_uris":{"android":"levelo://app?vid=b87636ba-074b-49ec-8abf-f6529ae02217","ios":"levelo://app?vid=b87636ba-074b-49ec-8abf-f6529ae02217"},"vehicle_type_id":"4","last_reported":1730270398,"current_range_meters":3600,"station_id":"ce4bhf92rcd13ifvqf50","pricing_plan_id":"cebpf4jnsgd1na2vs0mg"},{"bike_id":"adc4ccfa-08cc-485d-bffe-b868b40b0ee8","system_id":"levelo_inurba_marseille","lat":43.30866,"lon":5.38107,"is_reserved":false,"is_disabled":false,"rental_uris":{"android":"levelo://app?vid=adc4ccfa-08cc-485d-bffe-b868b40b0ee8","ios":"levelo://app?vid=adc4ccfa-08cc-485d-bffe-b868b40b0ee8"},"vehicle_type_id":"4","last_reported":1730270398,"current_range_meters":3600,"station_id":"","pricing_plan_id":"cebpf4jnsgd1na2vs0mg"},{"bike_id":"ec06eb51-e6dd-407e-90ef-bd6841b0a5f2","system_id":"levelo_inurba_marseille","lat":43.29279,"lon":5.40126,"is_reserved":false,"is_disabled":false,"rental_uris":{"android":"levelo://app?vid=ec06eb51-e6dd-407e-90ef-bd6841b0a5f2","ios":"levelo://app?vid=ec06eb51-e6dd-407e-90ef-bd6841b0a5f2"},"vehicle_type_id":"4","last_reported":1730270398,"current_range_meters":38400,"station_id":"ce4bh312rcd13ifvqdk0","pricing_plan_id":"cebpf4jnsgd1na2vs0mg"},{"bike_id":"6e5174db-5df0-4a3e-b32e-08282eb0eb4d","system_id":"levelo_inurba_marseille","lat":43.27434,"lon":5.39416,"is_reserved":false,"is_disabled":false,"rental_uris":{"android":"levelo://app?vid=6e5174db-5df0-4a3e-b32e-08282eb0eb4d","ios":"levelo://app?vid=6e5174db-5df0-4a3e-b32e-08282eb0eb4d"},"vehicle_type_id":"4","last_reported":1730270398,"current_range_meters":33200,"station_id":"ce4bhdp2rcd13ifvqf20","pricing_plan_id":"cebpf4jnsgd1na2vs0mg"},{"bike_id":"ee26da9d-e8bb-4883-b9e7-7b9a7f97a4ae","system_id":"levelo_inurba_marseille","lat":43.28855,"lon":5.39331,"is_reserved":false,"is_disabled":false,"rental_uris":{"android":"levelo://app?vid=ee26da9d-e8bb-4883-b9e7-7b9a7f97a4ae","ios":"levelo://app?vid=ee26da9d-e8bb-4883-b9e7-7b9a7f97a4ae"},"vehicle_type_id":"4","last_reported":1730270398,"current_range_meters":38800,"station_id":"ce4bh2p2rcd13ifvqdi0","pricing_plan_id":"cebpf4jnsgd1na2vs0mg"},{"bike_id":"f1307045-8336-4a78-aa5d-7b1378f3299d","system_id":"levelo_inurba_marseille","lat":43.29269,"lon":5.40123,"is_reserved":false,"is_disabled":false,"rental_uris":{"android":"levelo://app?vid=f1307045-8336-4a78-aa5d-7b1378f3299d","ios":"levelo://app?vid=f1307045-8336-4a78-aa5d-7b1378f3299d"},"vehicle_type_id":"4","last_reported":1730270398,"current_range_meters":38400,"station_id":"ce4bh312rcd13ifvqdk0","pricing_plan_id":"cebpf4jnsgd1na2vs0mg"},{"bike_id":"ce7f53a8-fe67-42bd-8325-277e01780d4d","system_id":"levelo_inurba_marseille","lat":43.30446,"lon":5.38886,"is_reserved":false,"is_disabled":false,"rental_uris":{"android":"levelo://app?vid=ce7f53a8-fe67-42bd-8325-277e01780d4d","ios":"levelo://app?vid=ce7f53a8-fe67-42bd-8325-277e01780d4d"},"vehicle_type_id":"4","last_reported":1730270398,"current_range_meters":24800,"station_id":"ce4bgk12rcd13ifvqbi0","pricing_plan_id":"cebpf4jnsgd1na2vs0mg"},{"bike_id":"6027c491-4a6f-4240-840e-9fc7edb281f2","system_id":"levelo_inurba_marseille","lat":43.30472,"lon":5.37904,"is_reserved":false,"is_disabled":false,"rental_uris":{"android":"levelo://app?vid=6027c491-4a6f-4240-840e-9fc7edb281f2","ios":"levelo://app?vid=6027c491-4a6f-4240-840e-9fc7edb281f2"},"vehicle_type_id":"4","last_reported":1730270398,"current_range_meters":36800,"station_id":"ce4bgup2rcd13ifvqcn0","pricing_plan_id":"cebpf4jnsgd1na2vs0mg"},{"bike_id":"9de933d3-fff1-475d-89e5-6045653c385a","system_id":"levelo_inurba_marseille","lat":43.33612,"lon":5.41032,"is_reserved":false,"is_disabled":false,"rental_uris":{"android":"levelo://app?vid=9de933d3-fff1-475d-89e5-6045653c385a","ios":"levelo://app?vid=9de933d3-fff1-475d-89e5-6045653c385a"},"vehicle_type_id":"4","last_reported":1730270398,"current_range_meters":34800,"station_id":"ce4bhqh2rcd13ifvqhmg","pricing_plan_id":"cebpf4jnsgd1na2vs0mg"},{"bike_id":"fe2904da-4ac6-42de-b232-dbec16338c49","system_id":"levelo_inurba_marseille","lat":43.33686,"lon":5.35747,"is_reserved":false,"is_disabled":false,"rental_uris":{"android":"levelo://app?vid=fe2904da-4ac6-42de-b232-dbec16338c49","ios":"levelo://app?vid=fe2904da-4ac6-42de-b232-dbec16338c49"},"vehicle_type_id":"4","last_reported":1730270398,"current_range_meters":25600,"station_id":"","pricing_plan_id":"cebpf4jnsgd1na2vs0mg"},{"bike_id":"5b1007b0-01bd-4d0f-9ce8-225a1a897a4a","system_id":"levelo_inurba_marseille","lat":43.30145,"lon":5.3878,"is_reserved":false,"is_disabled":false,"rental_uris":{"android":"levelo://app?vid=5b1007b0-01bd-4d0f-9ce8-225a1a897a4a","ios":"levelo://app?vid=5b1007b0-01bd-4d0f-9ce8-225a1a897a4a"},"vehicle_type_id":"4","last_reported":1730270398,"current_range_meters":36800,"station_id":"ce4bghh2rcd13ifvqb60","pricing_plan_id":"cebpf4jnsgd1na2vs0mg"},{"bike_id":"dbfafde0-c582-408a-8e0f-30168d4bd53c","system_id":"levelo_inurba_marseille","lat":43.25581,"lon":5.38249,"is_reserved":false,"is_disabled":false,"rental_uris":{"android":"levelo://app?vid=dbfafde0-c582-408a-8e0f-30168d4bd53c","ios":"levelo://app?vid=dbfafde0-c582-408a-8e0f-30168d4bd53c"},"vehicle_type_id":"4","last_reported":1730270398,"current_range_meters":28400,"station_id":"ce4bhih2rcd13ifvqfs0","pricing_plan_id":"cebpf4jnsgd1na2vs0mg"},{"bike_id":"288f8dcf-45f6-4787-9211-21bf95dc6ebe","system_id":"levelo_inurba_marseille","lat":43.29966,"lon":5.41324,"is_reserved":false,"is_disabled":false,"rental_uris":{"android":"levelo://app?vid=288f8dcf-45f6-4787-9211-21bf95dc6ebe","ios":"levelo://app?vid=288f8dcf-45f6-4787-9211-21bf95dc6ebe"},"vehicle_type_id":"4","last_reported":1730270398,"current_range_meters":28800,"station_id":"ce4bhp12rcd13ifvqh9g","pricing_plan_id":"cebpf4jnsgd1na2vs0mg"},{"bike_id":"9fb02925-e4c3-48e2-94e9-d105ec3f767a","system_id":"levelo_inurba_marseille","lat":43.30782,"lon":5.37668,"is_reserved":false,"is_disabled":false,"rental_uris":{"android":"levelo://app?vid=9fb02925-e4c3-48e2-94e9-d105ec3f767a","ios":"levelo://app?vid=9fb02925-e4c3-48e2-94e9-d105ec3f767a"},"vehicle_type_id":"4","last_reported":1730270398,"current_range_meters":38800,"station_id":"ce4bgv92rcd13ifvqcq0","pricing_plan_id":"cebpf4jnsgd1na2vs0mg"},{"bike_id":"56e7cf53-9329-4857-afd0-bf9c5007df45","system_id":"levelo_inurba_marseille","lat":43.25829,"lon":5.3943,"is_reserved":false,"is_disabled":false,"rental_uris":{"android":"levelo://app?vid=56e7cf53-9329-4857-afd0-bf9c5007df45","ios":"levelo://app?vid=56e7cf53-9329-4857-afd0-bf9c5007df45"},"vehicle_type_id":"4","last_reported":1730270398,"current_range_meters":38800,"station_id":"ce4bhip2rcd13ifvqft0","pricing_plan_id":"cebpf4jnsgd1na2vs0mg"},{"bike_id":"539f9a48-f3c4-4b3d-b50a-f20cbac5b70d","system_id":"levelo_inurba_marseille","lat":43.32114,"lon":5.36775,"is_reserved":false,"is_disabled":false,"rental_uris":{"android":"levelo://app?vid=539f9a48-f3c4-4b3d-b50a-f20cbac5b70d","ios":"levelo://app?vid=539f9a48-f3c4-4b3d-b50a-f20cbac5b70d"},"vehicle_type_id":"4","last_reported":1730270398,"current_range_meters":30000,"station_id":"ce4bhrh2rcd13ifvqhug","pricing_plan_id":"cebpf4jnsgd1na2vs0mg"},{"bike_id":"5d0ab462-5e9c-4a72-bbdf-6ab74cea48c8","system_id":"levelo_inurba_marseille","lat":43.28476,"lon":5.38418,"is_reserved":false,"is_disabled":false,"rental_uris":{"android":"levelo://app?vid=5d0ab462-5e9c-4a72-bbdf-6ab74cea48c8","ios":"levelo://app?vid=5d0ab462-5e9c-4a72-bbdf-6ab74cea48c8"},"vehicle_type_id":"4","last_reported":1730270398,"current_range_meters":12400,"station_id":"ce4bh512rcd13ifvqe3g","pricing_plan_id":"cebpf4jnsgd1na2vs0mg"},{"bike_id":"ab4cc59a-4920-4d7d-94ba-8acedb63f9c5","system_id":"levelo_inurba_marseille","lat":43.27056,"lon":5.40269,"is_reserved":false,"is_disabled":false,"rental_uris":{"android":"levelo://app?vid=ab4cc59a-4920-4d7d-94ba-8acedb63f9c5","ios":"levelo://app?vid=ab4cc59a-4920-4d7d-94ba-8acedb63f9c5"},"vehicle_type_id":"4","last_reported":1730270398,"current_range_meters":38800,"station_id":"ce4bhk92rcd13ifvqgc0","pricing_plan_id":"cebpf4jnsgd1na2vs0mg"},{"bike_id":"25e90825-819c-494a-9a04-12bbb0c56b6b","system_id":"levelo_inurba_marseille","lat":43.3153,"lon":5.38037,"is_reserved":false,"is_disabled":false,"rental_uris":{"android":"levelo://app?vid=25e90825-819c-494a-9a04-12bbb0c56b6b","ios":"levelo://app?vid=25e90825-819c-494a-9a04-12bbb0c56b6b"},"vehicle_type_id":"4","last_reported":1730270398,"current_range_meters":29600,"station_id":"ce4bhsp2rcd13ifvqi50","pricing_plan_id":"cebpf4jnsgd1na2vs0mg"},{"bike_id":"2dc2e7aa-c9cc-457e-aadf-e56119f0ec59","system_id":"levelo_inurba_marseille","lat":43.23196,"lon":5.35546,"is_reserved":false,"is_disabled":false,"rental_uris":{"android":"levelo://app?vid=2dc2e7aa-c9cc-457e-aadf-e56119f0ec59","ios":"levelo://app?vid=2dc2e7aa-c9cc-457e-aadf-e56119f0ec59"},"vehicle_type_id":"4","last_reported":1730270398,"current_range_meters":27600,"station_id":"ce4bhu92rcd13ifvqi70","pricing_plan_id":"cebpf4jnsgd1na2vs0mg"},{"bike_id":"2b575ed5-87bd-4034-925a-491ff39f79c1","system_id":"levelo_inurba_marseille","lat":43.26062,"lon":5.39397,"is_reserved":false,"is_disabled":false,"rental_uris":{"android":"levelo://app?vid=2b575ed5-87bd-4034-925a-491ff39f79c1","ios":"levelo://app?vid=2b575ed5-87bd-4034-925a-491ff39f79c1"},"vehicle_type_id":"4","last_reported":1730270398,"current_range_meters":16400,"station_id":"ce4bhh92rcd13ifvqfj0","pricing_plan_id":"cebpf4jnsgd1na2vs0mg"},{"bike_id":"c4f705f9-cb6e-4d01-b200-9f8930e5dd6b","system_id":"levelo_inurba_marseille","lat":43.24185,"lon":5.39741,"is_reserved":false,"is_disabled":false,"rental_uris":{"android":"levelo://app?vid=c4f705f9-cb6e-4d01-b200-9f8930e5dd6b","ios":"levelo://app?vid=c4f705f9-cb6e-4d01-b200-9f8930e5dd6b"},"vehicle_type_id":"4","last_reported":1730270398,"current_range_meters":38400,"station_id":"ce4bhn12rcd13ifvqgpg","pricing_plan_id":"cebpf4jnsgd1na2vs0mg"},{"bike_id":"32724ce4-79b3-4766-bd7f-1b32301ca45e","system_id":"levelo_inurba_marseille","lat":43.25584,"lon":5.3825,"is_reserved":false,"is_disabled":false,"rental_uris":{"android":"levelo://app?vid=32724ce4-79b3-4766-bd7f-1b32301ca45e","ios":"levelo://app?vid=32724ce4-79b3-4766-bd7f-1b32301ca45e"},"vehicle_type_id":"4","last_reported":1730270398,"current_range_meters":16800,"station_id":"ce4bhih2rcd13ifvqfs0","pricing_plan_id":"cebpf4jnsgd1na2vs0mg"},{"bike_id":"28cbcf23-5ad0-4746-be8b-7a028cbebf33","system_id":"levelo_inurba_marseille","lat":43.32649,"lon":5.38876,"is_reserved":false,"is_disabled":false,"rental_uris":{"android":"levelo://app?vid=28cbcf23-5ad0-4746-be8b-7a028cbebf33","ios":"levelo://app?vid=28cbcf23-5ad0-4746-be8b-7a028cbebf33"},"vehicle_type_id":"4","last_reported":1730270398,"current_range_meters":33200,"station_id":"","pricing_plan_id":"cebpf4jnsgd1na2vs0mg"},{"bike_id":"05ff2f50-a7f4-433e-8942-cf2114158062","system_id":"levelo_inurba_marseille","lat":43.2606,"lon":5.39395,"is_reserved":false,"is_disabled":false,"rental_uris":{"android":"levelo://app?vid=05ff2f50-a7f4-433e-8942-cf2114158062","ios":"levelo://app?vid=05ff2f50-a7f4-433e-8942-cf2114158062"},"vehicle_type_id":"4","last_reported":1730270398,"current_range_meters":2000,"station_id":"ce4bhh92rcd13ifvqfj0","pricing_plan_id":"cebpf4jnsgd1na2vs0mg"},{"bike_id":"249f4139-b1bb-4fc2-87b9-dd8c4909e5b1","system_id":"levelo_inurba_marseille","lat":43.29551,"lon":5.42287,"is_reserved":false,"is_disabled":false,"rental_uris":{"android":"levelo://app?vid=249f4139-b1bb-4fc2-87b9-dd8c4909e5b1","ios":"levelo://app?vid=249f4139-b1bb-4fc2-87b9-dd8c4909e5b1"},"vehicle_type_id":"4","last_reported":1730270398,"current_range_meters":39200,"station_id":"ce4bhph2rcd13ifvqhdg","pricing_plan_id":"cebpf4jnsgd1na2vs0mg"},{"bike_id":"1b07f283-46fb-41a4-9864-1dfd968369c3","system_id":"levelo_inurba_marseille","lat":43.32364,"lon":5.3889,"is_reserved":false,"is_disabled":false,"rental_uris":{"android":"levelo://app?vid=1b07f283-46fb-41a4-9864-1dfd968369c3","ios":"levelo://app?vid=1b07f283-46fb-41a4-9864-1dfd968369c3"},"vehicle_type_id":"4","last_reported":1730270398,"current_range_meters":16800,"station_id":"ce4bhqp2rcd13ifvqhog","pricing_plan_id":"cebpf4jnsgd1na2vs0mg"},{"bike_id":"8651d626-8e95-4744-a4e4-f4a48cdab093","system_id":"levelo_inurba_marseille","lat":43.26558,"lon":5.37286,"is_reserved":false,"is_disabled":false,"rental_uris":{"android":"levelo://app?vid=8651d626-8e95-4744-a4e4-f4a48cdab093","ios":"levelo://app?vid=8651d626-8e95-4744-a4e4-f4a48cdab093"},"vehicle_type_id":"4","last_reported":1730270398,"current_range_meters":30000,"station_id":"ce4bhg12rcd13ifvqf70","pricing_plan_id":"cebpf4jnsgd1na2vs0mg"},{"bike_id":"e9d5f856-d46f-47de-8318-6124ee5e67ab","system_id":"levelo_inurba_marseille","lat":43.30809,"lon":5.38151,"is_reserved":false,"is_disabled":false,"rental_uris":{"android":"levelo://app?vid=e9d5f856-d46f-47de-8318-6124ee5e67ab","ios":"levelo://app?vid=e9d5f856-d46f-47de-8318-6124ee5e67ab"},"vehicle_type_id":"4","last_reported":1730270398,"current_range_meters":8000,"station_id":"ce4bgt12rcd13ifvqce0","pricing_plan_id":"cebpf4jnsgd1na2vs0mg"},{"bike_id":"a6f58eb3-48b5-407c-af5b-cace4621f776","system_id":"levelo_inurba_marseille","lat":43.287074,"lon":5.399852,"is_reserved":false,"is_disabled":false,"rental_uris":{"android":"levelo://app?vid=a6f58eb3-48b5-407c-af5b-cace4621f776","ios":"levelo://app?vid=a6f58eb3-48b5-407c-af5b-cace4621f776"},"vehicle_type_id":"4","last_reported":1730270398,"current_range_meters":32800,"station_id":"ce4bho92rcd13ifvqh3g","pricing_plan_id":"cebpf4jnsgd1na2vs0mg"},{"bike_id":"2d198377-2c19-4e5f-b7b9-5acc4795c543","system_id":"levelo_inurba_marseille","lat":43.31757,"lon":5.39021,"is_reserved":false,"is_disabled":false,"rental_uris":{"android":"levelo://app?vid=2d198377-2c19-4e5f-b7b9-5acc4795c543","ios":"levelo://app?vid=2d198377-2c19-4e5f-b7b9-5acc4795c543"},"vehicle_type_id":"4","last_reported":1730270398,"current_range_meters":9600,"station_id":"ce4bhqp2rcd13ifvqhng","pricing_plan_id":"cebpf4jnsgd1na2vs0mg"},{"bike_id":"c14c7f66-0e2c-436a-94dc-9cb9f4071e75","system_id":"levelo_inurba_marseille","lat":43.30145,"lon":5.38081,"is_reserved":false,"is_disabled":false,"rental_uris":{"android":"levelo://app?vid=c14c7f66-0e2c-436a-94dc-9cb9f4071e75","ios":"levelo://app?vid=c14c7f66-0e2c-436a-94dc-9cb9f4071e75"},"vehicle_type_id":"4","last_reported":1730270398,"current_range_meters":31200,"station_id":"ce4bgjp2rcd13ifvqbh0","pricing_plan_id":"cebpf4jnsgd1na2vs0mg"},{"bike_id":"5da84c8a-0785-4f55-b177-f17040c2e314","system_id":"levelo_inurba_marseille","lat":43.31885,"lon":5.4073,"is_reserved":false,"is_disabled":false,"rental_uris":{"android":"levelo://app?vid=5da84c8a-0785-4f55-b177-f17040c2e314","ios":"levelo://app?vid=5da84c8a-0785-4f55-b177-f17040c2e314"},"vehicle_type_id":"4","last_reported":1730270398,"current_range_meters":9200,"station_id":"ce4bhq12rcd13ifvqhig","pricing_plan_id":"cebpf4jnsgd1na2vs0mg"},{"bike_id":"9445a670-8cad-4552-a342-d1a968da3c5a","system_id":"levelo_inurba_marseille","lat":43.32061,"lon":5.41547,"is_reserved":false,"is_disabled":false,"rental_uris":{"android":"levelo://app?vid=9445a670-8cad-4552-a342-d1a968da3c5a","ios":"levelo://app?vid=9445a670-8cad-4552-a342-d1a968da3c5a"},"vehicle_type_id":"4","last_reported":1730270398,"current_range_meters":38800,"station_id":"ce4bhq92rcd13ifvqhkg","pricing_plan_id":"cebpf4jnsgd1na2vs0mg"},{"bike_id":"d2c17046-9896-432f-9e17-bbc2b6ac2460","system_id":"levelo_inurba_marseille","lat":43.29228,"lon":5.36056,"is_reserved":false,"is_disabled":false,"rental_uris":{"android":"levelo://app?vid=d2c17046-9896-432f-9e17-bbc2b6ac2460","ios":"levelo://app?vid=d2c17046-9896-432f-9e17-bbc2b6ac2460"},"vehicle_type_id":"4","last_reported":1730270398,"current_range_meters":37600,"station_id":"ce4bhbh2rcd13ifvqeqg","pricing_plan_id":"cebpf4jnsgd1na2vs0mg"},{"bike_id":"fc857e95-ca7f-4c06-b13e-5bb6b2b76a8b","system_id":"levelo_inurba_marseille","lat":43.23192,"lon":5.39982,"is_reserved":false,"is_disabled":false,"rental_uris":{"android":"levelo://app?vid=fc857e95-ca7f-4c06-b13e-5bb6b2b76a8b","ios":"levelo://app?vid=fc857e95-ca7f-4c06-b13e-5bb6b2b76a8b"},"vehicle_type_id":"4","last_reported":1730270398,"current_range_meters":40000,"station_id":"ce4bhn12rcd13ifvqgqg","pricing_plan_id":"cebpf4jnsgd1na2vs0mg"},{"bike_id":"a1f83bf3-eed6-45ed-a98a-d29a1a4fe512","system_id":"levelo_inurba_marseille","lat":43.29933,"lon":5.4131,"is_reserved":false,"is_disabled":false,"rental_uris":{"android":"levelo://app?vid=a1f83bf3-eed6-45ed-a98a-d29a1a4fe512","ios":"levelo://app?vid=a1f83bf3-eed6-45ed-a98a-d29a1a4fe512"},"vehicle_type_id":"4","last_reported":1730270398,"current_range_meters":24400,"station_id":"ce4bhp12rcd13ifvqh9g","pricing_plan_id":"cebpf4jnsgd1na2vs0mg"},{"bike_id":"1b036d37-0f1b-4561-ab87-73126aa178df","system_id":"levelo_inurba_marseille","lat":43.28002,"lon":5.41663,"is_reserved":false,"is_disabled":false,"rental_uris":{"android":"levelo://app?vid=1b036d37-0f1b-4561-ab87-73126aa178df","ios":"levelo://app?vid=1b036d37-0f1b-4561-ab87-73126aa178df"},"vehicle_type_id":"4","last_reported":1730270398,"current_range_meters":38800,"station_id":"ce4bho12rcd13ifvqh1g","pricing_plan_id":"cebpf4jnsgd1na2vs0mg"},{"bike_id":"9678c87f-0fe5-42fe-8091-e9f73268dc70","system_id":"levelo_inurba_marseille","lat":43.28463,"lon":5.35891,"is_reserved":false,"is_disabled":false,"rental_uris":{"android":"levelo://app?vid=9678c87f-0fe5-42fe-8091-e9f73268dc70","ios":"levelo://app?vid=9678c87f-0fe5-42fe-8091-e9f73268dc70"},"vehicle_type_id":"4","last_reported":1730270398,"current_range_meters":38800,"station_id":"ce4bhah2rcd13ifvqei0","pricing_plan_id":"cebpf4jnsgd1na2vs0mg"},{"bike_id":"4aea2264-7c38-4c9d-b643-fddc90b2caa0","system_id":"levelo_inurba_marseille","lat":43.274987,"lon":5.424448,"is_reserved":false,"is_disabled":false,"rental_uris":{"android":"levelo://app?vid=4aea2264-7c38-4c9d-b643-fddc90b2caa0","ios":"levelo://app?vid=4aea2264-7c38-4c9d-b643-fddc90b2caa0"},"vehicle_type_id":"4","last_reported":1730270398,"current_range_meters":40000,"station_id":"ce4bhn92rcd13ifvqgrg","pricing_plan_id":"cebpf4jnsgd1na2vs0mg"},{"bike_id":"16f1ac84-028c-48a2-af24-761342c1b89f","system_id":"levelo_inurba_marseille","lat":43.26686,"lon":5.38269,"is_reserved":false,"is_disabled":false,"rental_uris":{"android":"levelo://app?vid=16f1ac84-028c-48a2-af24-761342c1b89f","ios":"levelo://app?vid=16f1ac84-028c-48a2-af24-761342c1b89f"},"vehicle_type_id":"4","last_reported":1730270398,"current_range_meters":36400,"station_id":"ce4bhg92rcd13ifvqf90","pricing_plan_id":"cebpf4jnsgd1na2vs0mg"},{"bike_id":"52fea5e1-5085-45ba-9106-30292305cb80","system_id":"levelo_inurba_marseille","lat":43.25117,"lon":5.40324,"is_reserved":false,"is_disabled":false,"rental_uris":{"android":"levelo://app?vid=52fea5e1-5085-45ba-9106-30292305cb80","ios":"levelo://app?vid=52fea5e1-5085-45ba-9106-30292305cb80"},"vehicle_type_id":"4","last_reported":1730270398,"current_range_meters":4000,"station_id":"ce4bhlh2rcd13ifvqgig","pricing_plan_id":"cebpf4jnsgd1na2vs0mg"},{"bike_id":"31d8acc7-b248-42e9-89fe-8107bf8c6790","system_id":"levelo_inurba_marseille","lat":43.28484,"lon":5.38576,"is_reserved":false,"is_disabled":false,"rental_uris":{"android":"levelo://app?vid=31d8acc7-b248-42e9-89fe-8107bf8c6790","ios":"levelo://app?vid=31d8acc7-b248-42e9-89fe-8107bf8c6790"},"vehicle_type_id":"4","last_reported":1730270398,"current_range_meters":20400,"station_id":"ce4bh8p2rcd13ifvqeb0","pricing_plan_id":"cebpf4jnsgd1na2vs0mg"},{"bike_id":"766801a5-7dbd-464a-bc56-398e14b9cf78","system_id":"levelo_inurba_marseille","lat":43.29805,"lon":5.37136,"is_reserved":false,"is_disabled":false,"rental_uris":{"android":"levelo://app?vid=766801a5-7dbd-464a-bc56-398e14b9cf78","ios":"levelo://app?vid=766801a5-7dbd-464a-bc56-398e14b9cf78"},"vehicle_type_id":"4","last_reported":1730270398,"current_range_meters":7200,"station_id":"","pricing_plan_id":"cebpf4jnsgd1na2vs0mg"},{"bike_id":"afc8a59e-718c-432c-b226-d6be0903e5fb","system_id":"levelo_inurba_marseille","lat":43.24397,"lon":5.37062,"is_reserved":false,"is_disabled":false,"rental_uris":{"android":"levelo://app?vid=afc8a59e-718c-432c-b226-d6be0903e5fb","ios":"levelo://app?vid=afc8a59e-718c-432c-b226-d6be0903e5fb"},"vehicle_type_id":"4","last_reported":1730270398,"current_range_meters":34800,"station_id":"ce4bhhh2rcd13ifvqfk0","pricing_plan_id":"cebpf4jnsgd1na2vs0mg"},{"bike_id":"82b84855-c758-4a47-9f5e-92c4c940506e","system_id":"levelo_inurba_marseille","lat":43.31075,"lon":5.38352,"is_reserved":false,"is_disabled":false,"rental_uris":{"android":"levelo://app?vid=82b84855-c758-4a47-9f5e-92c4c940506e","ios":"levelo://app?vid=82b84855-c758-4a47-9f5e-92c4c940506e"},"vehicle_type_id":"4","last_reported":1730270398,"current_range_meters":28800,"station_id":"ce4bgv92rcd13ifvqcr0","pricing_plan_id":"cebpf4jnsgd1na2vs0mg"},{"bike_id":"72e37474-1bc8-4568-aec8-ce5464e6b828","system_id":"levelo_inurba_marseille","lat":43.23199,"lon":5.35548,"is_reserved":false,"is_disabled":false,"rental_uris":{"android":"levelo://app?vid=72e37474-1bc8-4568-aec8-ce5464e6b828","ios":"levelo://app?vid=72e37474-1bc8-4568-aec8-ce5464e6b828"},"vehicle_type_id":"4","last_reported":1730270398,"current_range_meters":30000,"station_id":"ce4bhu92rcd13ifvqi70","pricing_plan_id":"cebpf4jnsgd1na2vs0mg"},{"bike_id":"0e1fd082-d5f2-4414-95b1-59e222e0e6af","system_id":"levelo_inurba_marseille","lat":43.30427,"lon":5.39756,"is_reserved":false,"is_disabled":false,"rental_uris":{"android":"levelo://app?vid=0e1fd082-d5f2-4414-95b1-59e222e0e6af","ios":"levelo://app?vid=0e1fd082-d5f2-4414-95b1-59e222e0e6af"},"vehicle_type_id":"4","last_reported":1730270398,"current_range_meters":26800,"station_id":"ce4bh092rcd13ifvqd20","pricing_plan_id":"cebpf4jnsgd1na2vs0mg"},{"bike_id":"456cbe5f-5d22-41ce-8d7b-d9113261b82f","system_id":"levelo_inurba_marseille","lat":43.26059,"lon":5.39397,"is_reserved":false,"is_disabled":false,"rental_uris":{"android":"levelo://app?vid=456cbe5f-5d22-41ce-8d7b-d9113261b82f","ios":"levelo://app?vid=456cbe5f-5d22-41ce-8d7b-d9113261b82f"},"vehicle_type_id":"4","last_reported":1730270398,"current_range_meters":40000,"station_id":"ce4bhh92rcd13ifvqfj0","pricing_plan_id":"cebpf4jnsgd1na2vs0mg"},{"bike_id":"b44a1a41-2a48-4e63-b7c8-462ef7e93632","system_id":"levelo_inurba_marseille","lat":43.30941,"lon":5.40152,"is_reserved":false,"is_disabled":false,"rental_uris":{"android":"levelo://app?vid=b44a1a41-2a48-4e63-b7c8-462ef7e93632","ios":"levelo://app?vid=b44a1a41-2a48-4e63-b7c8-462ef7e93632"},"vehicle_type_id":"4","last_reported":1730270398,"current_range_meters":21600,"station_id":"ce4bgvp2rcd13ifvqct0","pricing_plan_id":"cebpf4jnsgd1na2vs0mg"},{"bike_id":"c4c57f20-696d-45af-b1ec-7caa4b949f8d","system_id":"levelo_inurba_marseille","lat":43.26687,"lon":5.38277,"is_reserved":false,"is_disabled":false,"rental_uris":{"android":"levelo://app?vid=c4c57f20-696d-45af-b1ec-7caa4b949f8d","ios":"levelo://app?vid=c4c57f20-696d-45af-b1ec-7caa4b949f8d"},"vehicle_type_id":"4","last_reported":1730270398,"current_range_meters":18000,"station_id":"ce4bhg92rcd13ifvqf90","pricing_plan_id":"cebpf4jnsgd1na2vs0mg"},{"bike_id":"77dc0b08-ea4e-4b2d-b82f-fcf9cdff2fbe","system_id":"levelo_inurba_marseille","lat":43.28671,"lon":5.36348,"is_reserved":false,"is_disabled":false,"rental_uris":{"android":"levelo://app?vid=77dc0b08-ea4e-4b2d-b82f-fcf9cdff2fbe","ios":"levelo://app?vid=77dc0b08-ea4e-4b2d-b82f-fcf9cdff2fbe"},"vehicle_type_id":"4","last_reported":1730270398,"current_range_meters":38800,"station_id":"ce4bhah2rcd13ifvqej0","pricing_plan_id":"cebpf4jnsgd1na2vs0mg"},{"bike_id":"84a34f64-d710-4f7b-8f16-f367a9f930e0","system_id":"levelo_inurba_marseille","lat":43.26064,"lon":5.39392,"is_reserved":false,"is_disabled":false,"rental_uris":{"android":"levelo://app?vid=84a34f64-d710-4f7b-8f16-f367a9f930e0","ios":"levelo://app?vid=84a34f64-d710-4f7b-8f16-f367a9f930e0"},"vehicle_type_id":"4","last_reported":1730270398,"current_range_meters":27200,"station_id":"ce4bhh92rcd13ifvqfj0","pricing_plan_id":"cebpf4jnsgd1na2vs0mg"},{"bike_id":"a1a6c8b4-85d6-4f26-805f-292d516d4f6e","system_id":"levelo_inurba_marseille","lat":43.304203,"lon":5.412923,"is_reserved":false,"is_disabled":false,"rental_uris":{"android":"levelo://app?vid=a1a6c8b4-85d6-4f26-805f-292d516d4f6e","ios":"levelo://app?vid=a1a6c8b4-85d6-4f26-805f-292d516d4f6e"},"vehicle_type_id":"4","last_reported":1730270398,"current_range_meters":38800,"station_id":"ce4bhop2rcd13ifvqh8g","pricing_plan_id":"cebpf4jnsgd1na2vs0mg"},{"bike_id":"7acc5dbd-a490-496c-85f2-7896bb564043","system_id":"levelo_inurba_marseille","lat":43.29038,"lon":5.38158,"is_reserved":false,"is_disabled":false,"rental_uris":{"android":"levelo://app?vid=7acc5dbd-a490-496c-85f2-7896bb564043","ios":"levelo://app?vid=7acc5dbd-a490-496c-85f2-7896bb564043"},"vehicle_type_id":"4","last_reported":1730270398,"current_range_meters":16400,"station_id":"ce4bh4p2rcd13ifvqe1g","pricing_plan_id":"cebpf4jnsgd1na2vs0mg"},{"bike_id":"d6e7be28-f5b8-4d36-af4f-c3475ff7ed29","system_id":"levelo_inurba_marseille","lat":43.27818,"lon":5.40712,"is_reserved":false,"is_disabled":false,"rental_uris":{"android":"levelo://app?vid=d6e7be28-f5b8-4d36-af4f-c3475ff7ed29","ios":"levelo://app?vid=d6e7be28-f5b8-4d36-af4f-c3475ff7ed29"},"vehicle_type_id":"4","last_reported":1730270398,"current_range_meters":38800,"station_id":"ce4bhnh2rcd13ifvqgtg","pricing_plan_id":"cebpf4jnsgd1na2vs0mg"},{"bike_id":"cf1bf93e-b987-4f03-9549-b984bb838aa3","system_id":"levelo_inurba_marseille","lat":43.26782,"lon":5.394186,"is_reserved":false,"is_disabled":false,"rental_uris":{"android":"levelo://app?vid=cf1bf93e-b987-4f03-9549-b984bb838aa3","ios":"levelo://app?vid=cf1bf93e-b987-4f03-9549-b984bb838aa3"},"vehicle_type_id":"4","last_reported":1730270398,"current_range_meters":38400,"station_id":"ce4bhh12rcd13ifvqfg0","pricing_plan_id":"cebpf4jnsgd1na2vs0mg"},{"bike_id":"b76a38e9-45ec-4afc-b514-c5026792aa86","system_id":"levelo_inurba_marseille","lat":43.24077,"lon":5.37753,"is_reserved":false,"is_disabled":false,"rental_uris":{"android":"levelo://app?vid=b76a38e9-45ec-4afc-b514-c5026792aa86","ios":"levelo://app?vid=b76a38e9-45ec-4afc-b514-c5026792aa86"},"vehicle_type_id":"4","last_reported":1730270398,"current_range_meters":33600,"station_id":"ce4bhnp2rcd13ifvqgvg","pricing_plan_id":"cebpf4jnsgd1na2vs0mg"},{"bike_id":"9347617c-923c-4626-8d4c-ed2ece29b864","system_id":"levelo_inurba_marseille","lat":43.28157,"lon":5.42652,"is_reserved":false,"is_disabled":false,"rental_uris":{"android":"levelo://app?vid=9347617c-923c-4626-8d4c-ed2ece29b864","ios":"levelo://app?vid=9347617c-923c-4626-8d4c-ed2ece29b864"},"vehicle_type_id":"4","last_reported":1730270398,"current_range_meters":34000,"station_id":"ce4bhnh2rcd13ifvqgug","pricing_plan_id":"cebpf4jnsgd1na2vs0mg"},{"bike_id":"e1b5f1ad-a4dd-4981-bcdb-fa984ea6644b","system_id":"levelo_inurba_marseille","lat":43.28344,"lon":5.38111,"is_reserved":false,"is_disabled":false,"rental_uris":{"android":"levelo://app?vid=e1b5f1ad-a4dd-4981-bcdb-fa984ea6644b","ios":"levelo://app?vid=e1b5f1ad-a4dd-4981-bcdb-fa984ea6644b"},"vehicle_type_id":"4","last_reported":1730270398,"current_range_meters":20400,"station_id":"ce4bh412rcd13ifvqdr0","pricing_plan_id":"cebpf4jnsgd1na2vs0mg"},{"bike_id":"302c2992-9ae4-4d64-9a46-0be4fd8c2cee","system_id":"levelo_inurba_marseille","lat":43.30104,"lon":5.39078,"is_reserved":false,"is_disabled":false,"rental_uris":{"android":"levelo://app?vid=302c2992-9ae4-4d64-9a46-0be4fd8c2cee","ios":"levelo://app?vid=302c2992-9ae4-4d64-9a46-0be4fd8c2cee"},"vehicle_type_id":"4","last_reported":1730270398,"current_range_meters":37600,"station_id":"ce4bh192rcd13ifvqdb0","pricing_plan_id":"cebpf4jnsgd1na2vs0mg"},{"bike_id":"75645640-a347-4705-966c-cee9dcce09c4","system_id":"levelo_inurba_marseille","lat":43.26114,"lon":5.400909,"is_reserved":false,"is_disabled":false,"rental_uris":{"android":"levelo://app?vid=75645640-a347-4705-966c-cee9dcce09c4","ios":"levelo://app?vid=75645640-a347-4705-966c-cee9dcce09c4"},"vehicle_type_id":"4","last_reported":1730270398,"current_range_meters":8000,"station_id":"","pricing_plan_id":"cebpf4jnsgd1na2vs0mg"},{"bike_id":"ed4542ec-a766-43c5-bc78-9617bcbbe71c","system_id":"levelo_inurba_marseille","lat":43.2587,"lon":5.39899,"is_reserved":false,"is_disabled":false,"rental_uris":{"android":"levelo://app?vid=ed4542ec-a766-43c5-bc78-9617bcbbe71c","ios":"levelo://app?vid=ed4542ec-a766-43c5-bc78-9617bcbbe71c"},"vehicle_type_id":"4","last_reported":1730270398,"current_range_meters":9600,"station_id":"ce4bhl92rcd13ifvqghg","pricing_plan_id":"cebpf4jnsgd1na2vs0mg"},{"bike_id":"0aeb71ea-245d-4298-9663-d4980e16b03f","system_id":"levelo_inurba_marseille","lat":43.30931,"lon":5.4015,"is_reserved":false,"is_disabled":false,"rental_uris":{"android":"levelo://app?vid=0aeb71ea-245d-4298-9663-d4980e16b03f","ios":"levelo://app?vid=0aeb71ea-245d-4298-9663-d4980e16b03f"},"vehicle_type_id":"4","last_reported":1730270398,"current_range_meters":38400,"station_id":"ce4bgvp2rcd13ifvqct0","pricing_plan_id":"cebpf4jnsgd1na2vs0mg"},{"bike_id":"572b4c7a-2636-416f-973c-22c6ab936199","system_id":"levelo_inurba_marseille","lat":43.291713,"lon":5.371569,"is_reserved":false,"is_disabled":false,"rental_uris":{"android":"levelo://app?vid=572b4c7a-2636-416f-973c-22c6ab936199","ios":"levelo://app?vid=572b4c7a-2636-416f-973c-22c6ab936199"},"vehicle_type_id":"4","last_reported":1730270398,"current_range_meters":38400,"station_id":"ce4bha92rcd13ifvqeh0","pricing_plan_id":"cebpf4jnsgd1na2vs0mg"},{"bike_id":"e1076c3b-90da-4316-a469-492badcea040","system_id":"levelo_inurba_marseille","lat":43.30537,"lon":5.38427,"is_reserved":false,"is_disabled":false,"rental_uris":{"android":"levelo://app?vid=e1076c3b-90da-4316-a469-492badcea040","ios":"levelo://app?vid=e1076c3b-90da-4316-a469-492badcea040"},"vehicle_type_id":"4","last_reported":1730270398,"current_range_meters":37600,"station_id":"ce4bgg92rcd13ifvqb30","pricing_plan_id":"cebpf4jnsgd1na2vs0mg"},{"bike_id":"a06aaa3a-469c-4c08-9a71-0d7e5c362262","system_id":"levelo_inurba_marseille","lat":43.33713,"lon":5.39178,"is_reserved":false,"is_disabled":false,"rental_uris":{"android":"levelo://app?vid=a06aaa3a-469c-4c08-9a71-0d7e5c362262","ios":"levelo://app?vid=a06aaa3a-469c-4c08-9a71-0d7e5c362262"},"vehicle_type_id":"4","last_reported":1730270398,"current_range_meters":28400,"station_id":"ce4bhr92rcd13ifvqhsg","pricing_plan_id":"cebpf4jnsgd1na2vs0mg"},{"bike_id":"658773aa-24df-4cd9-bf76-abb236a8b05e","system_id":"levelo_inurba_marseille","lat":43.3234,"lon":5.40619,"is_reserved":false,"is_disabled":false,"rental_uris":{"android":"levelo://app?vid=658773aa-24df-4cd9-bf76-abb236a8b05e","ios":"levelo://app?vid=658773aa-24df-4cd9-bf76-abb236a8b05e"},"vehicle_type_id":"4","last_reported":1730270398,"current_range_meters":27600,"station_id":"ce4bhq92rcd13ifvqhjg","pricing_plan_id":"cebpf4jnsgd1na2vs0mg"},{"bike_id":"02708bf0-c603-4183-b09d-ef1307f56110","system_id":"levelo_inurba_marseille","lat":43.30467,"lon":5.37902,"is_reserved":false,"is_disabled":false,"rental_uris":{"android":"levelo://app?vid=02708bf0-c603-4183-b09d-ef1307f56110","ios":"levelo://app?vid=02708bf0-c603-4183-b09d-ef1307f56110"},"vehicle_type_id":"4","last_reported":1730270398,"current_range_meters":36800,"station_id":"ce4bgup2rcd13ifvqcn0","pricing_plan_id":"cebpf4jnsgd1na2vs0mg"},{"bike_id":"9edc36f4-135d-42d2-92a2-d0261c2f2bbe","system_id":"levelo_inurba_marseille","lat":43.32045,"lon":5.41575,"is_reserved":false,"is_disabled":false,"rental_uris":{"android":"levelo://app?vid=9edc36f4-135d-42d2-92a2-d0261c2f2bbe","ios":"levelo://app?vid=9edc36f4-135d-42d2-92a2-d0261c2f2bbe"},"vehicle_type_id":"4","last_reported":1730270398,"current_range_meters":37600,"station_id":"ce4bhq92rcd13ifvqhkg","pricing_plan_id":"cebpf4jnsgd1na2vs0mg"},{"bike_id":"692f4667-f76c-430b-b818-4551bb65a622","system_id":"levelo_inurba_marseille","lat":43.313691,"lon":5.384926,"is_reserved":false,"is_disabled":false,"rental_uris":{"android":"levelo://app?vid=692f4667-f76c-430b-b818-4551bb65a622","ios":"levelo://app?vid=692f4667-f76c-430b-b818-4551bb65a622"},"vehicle_type_id":"4","last_reported":1730270398,"current_range_meters":32400,"station_id":"ce4bgt92rcd13ifvqcf0","pricing_plan_id":"cebpf4jnsgd1na2vs0mg"},{"bike_id":"d3834406-5180-48ae-986e-7eca8f9a66e3","system_id":"levelo_inurba_marseille","lat":43.27075,"lon":5.42281,"is_reserved":false,"is_disabled":false,"rental_uris":{"android":"levelo://app?vid=d3834406-5180-48ae-986e-7eca8f9a66e3","ios":"levelo://app?vid=d3834406-5180-48ae-986e-7eca8f9a66e3"},"vehicle_type_id":"4","last_reported":1730270398,"current_range_meters":22000,"station_id":"ce4bhk92rcd13ifvqgb0","pricing_plan_id":"cebpf4jnsgd1na2vs0mg"},{"bike_id":"d286e519-bda2-4e77-b545-2cdf7f03129a","system_id":"levelo_inurba_marseille","lat":43.31171,"lon":5.387096,"is_reserved":false,"is_disabled":false,"rental_uris":{"android":"levelo://app?vid=d286e519-bda2-4e77-b545-2cdf7f03129a","ios":"levelo://app?vid=d286e519-bda2-4e77-b545-2cdf7f03129a"},"vehicle_type_id":"4","last_reported":1730270398,"current_range_meters":39200,"station_id":"ce4bgv12rcd13ifvqcp0","pricing_plan_id":"cebpf4jnsgd1na2vs0mg"},{"bike_id":"96cd2a77-e3b6-47fc-955f-5080a2bfaf42","system_id":"levelo_inurba_marseille","lat":43.23194,"lon":5.39983,"is_reserved":false,"is_disabled":false,"rental_uris":{"android":"levelo://app?vid=96cd2a77-e3b6-47fc-955f-5080a2bfaf42","ios":"levelo://app?vid=96cd2a77-e3b6-47fc-955f-5080a2bfaf42"},"vehicle_type_id":"4","last_reported":1730270398,"current_range_meters":38800,"station_id":"ce4bhn12rcd13ifvqgqg","pricing_plan_id":"cebpf4jnsgd1na2vs0mg"},{"bike_id":"440a1209-24a9-496b-b976-9e17002d1022","system_id":"levelo_inurba_marseille","lat":43.31365,"lon":5.38501,"is_reserved":false,"is_disabled":false,"rental_uris":{"android":"levelo://app?vid=440a1209-24a9-496b-b976-9e17002d1022","ios":"levelo://app?vid=440a1209-24a9-496b-b976-9e17002d1022"},"vehicle_type_id":"4","last_reported":1730270398,"current_range_meters":36800,"station_id":"ce4bgt92rcd13ifvqcf0","pricing_plan_id":"cebpf4jnsgd1na2vs0mg"},{"bike_id":"13c85d59-c7cb-409d-b7e2-9aa757f7035f","system_id":"levelo_inurba_marseille","lat":43.32655,"lon":5.40991,"is_reserved":false,"is_disabled":false,"rental_uris":{"android":"levelo://app?vid=13c85d59-c7cb-409d-b7e2-9aa757f7035f","ios":"levelo://app?vid=13c85d59-c7cb-409d-b7e2-9aa757f7035f"},"vehicle_type_id":"4","last_reported":1730270398,"current_range_meters":8000,"station_id":"ce4bhpp2rcd13ifvqhgg","pricing_plan_id":"cebpf4jnsgd1na2vs0mg"},{"bike_id":"99d2b6c3-4379-4a9a-933b-2d5a9480f4f1","system_id":"levelo_inurba_marseille","lat":43.31528,"lon":5.38033,"is_reserved":false,"is_disabled":false,"rental_uris":{"android":"levelo://app?vid=99d2b6c3-4379-4a9a-933b-2d5a9480f4f1","ios":"levelo://app?vid=99d2b6c3-4379-4a9a-933b-2d5a9480f4f1"},"vehicle_type_id":"4","last_reported":1730270398,"current_range_meters":37600,"station_id":"ce4bhsp2rcd13ifvqi50","pricing_plan_id":"cebpf4jnsgd1na2vs0mg"},{"bike_id":"b48eacfa-a4c4-4e90-acf3-6e3bbaaa5f6e","system_id":"levelo_inurba_marseille","lat":43.30922,"lon":5.40141,"is_reserved":false,"is_disabled":false,"rental_uris":{"android":"levelo://app?vid=b48eacfa-a4c4-4e90-acf3-6e3bbaaa5f6e","ios":"levelo://app?vid=b48eacfa-a4c4-4e90-acf3-6e3bbaaa5f6e"},"vehicle_type_id":"4","last_reported":1730270398,"current_range_meters":38800,"station_id":"ce4bgvp2rcd13ifvqct0","pricing_plan_id":"cebpf4jnsgd1na2vs0mg"},{"bike_id":"178829a6-3513-4378-82e9-610d5d5943c5","system_id":"levelo_inurba_marseille","lat":43.3128,"lon":5.40175,"is_reserved":false,"is_disabled":false,"rental_uris":{"android":"levelo://app?vid=178829a6-3513-4378-82e9-610d5d5943c5","ios":"levelo://app?vid=178829a6-3513-4378-82e9-610d5d5943c5"},"vehicle_type_id":"4","last_reported":1730270398,"current_range_meters":40000,"station_id":"ce4bh092rcd13ifvqd30","pricing_plan_id":"cebpf4jnsgd1na2vs0mg"},{"bike_id":"5ea475d8-fbf3-460f-872c-01c8b0273f69","system_id":"levelo_inurba_marseille","lat":43.23049,"lon":5.35497,"is_reserved":false,"is_disabled":false,"rental_uris":{"android":"levelo://app?vid=5ea475d8-fbf3-460f-872c-01c8b0273f69","ios":"levelo://app?vid=5ea475d8-fbf3-460f-872c-01c8b0273f69"},"vehicle_type_id":"4","last_reported":1730270398,"current_range_meters":9600,"station_id":"cpo3342slgdg3j2ifvpg","pricing_plan_id":"cebpf4jnsgd1na2vs0mg"},{"bike_id":"2be9bc22-5c5c-4737-9da1-744ca95ac8b4","system_id":"levelo_inurba_marseille","lat":43.32662,"lon":5.40992,"is_reserved":false,"is_disabled":false,"rental_uris":{"android":"levelo://app?vid=2be9bc22-5c5c-4737-9da1-744ca95ac8b4","ios":"levelo://app?vid=2be9bc22-5c5c-4737-9da1-744ca95ac8b4"},"vehicle_type_id":"4","last_reported":1730270398,"current_range_meters":6400,"station_id":"ce4bhpp2rcd13ifvqhgg","pricing_plan_id":"cebpf4jnsgd1na2vs0mg"},{"bike_id":"59c7403a-36af-4ab9-a8fb-4e8f180bdcbe","system_id":"levelo_inurba_marseille","lat":43.24084,"lon":5.37753,"is_reserved":false,"is_disabled":false,"rental_uris":{"android":"levelo://app?vid=59c7403a-36af-4ab9-a8fb-4e8f180bdcbe","ios":"levelo://app?vid=59c7403a-36af-4ab9-a8fb-4e8f180bdcbe"},"vehicle_type_id":"4","last_reported":1730270398,"current_range_meters":8400,"station_id":"ce4bhnp2rcd13ifvqgvg","pricing_plan_id":"cebpf4jnsgd1na2vs0mg"},{"bike_id":"319628af-6ed0-4c6b-85da-8e8cbc64e217","system_id":"levelo_inurba_marseille","lat":43.24388,"lon":5.37058,"is_reserved":false,"is_disabled":false,"rental_uris":{"android":"levelo://app?vid=319628af-6ed0-4c6b-85da-8e8cbc64e217","ios":"levelo://app?vid=319628af-6ed0-4c6b-85da-8e8cbc64e217"},"vehicle_type_id":"4","last_reported":1730270398,"current_range_meters":37600,"station_id":"ce4bhhh2rcd13ifvqfk0","pricing_plan_id":"cebpf4jnsgd1na2vs0mg"},{"bike_id":"6c148448-02bd-4d4e-8cd0-da2c27aa9132","system_id":"levelo_inurba_marseille","lat":43.2799,"lon":5.40014,"is_reserved":false,"is_disabled":false,"rental_uris":{"android":"levelo://app?vid=6c148448-02bd-4d4e-8cd0-da2c27aa9132","ios":"levelo://app?vid=6c148448-02bd-4d4e-8cd0-da2c27aa9132"},"vehicle_type_id":"4","last_reported":1730270398,"current_range_meters":38000,"station_id":"ce4bho92rcd13ifvqh4g","pricing_plan_id":"cebpf4jnsgd1na2vs0mg"},{"bike_id":"9093d695-bec2-4727-9c9c-01c6d9e2075a","system_id":"levelo_inurba_marseille","lat":43.25924,"lon":5.40887,"is_reserved":false,"is_disabled":false,"rental_uris":{"android":"levelo://app?vid=9093d695-bec2-4727-9c9c-01c6d9e2075a","ios":"levelo://app?vid=9093d695-bec2-4727-9c9c-01c6d9e2075a"},"vehicle_type_id":"4","last_reported":1730270398,"current_range_meters":28000,"station_id":"ce4bhm92rcd13ifvqglg","pricing_plan_id":"cebpf4jnsgd1na2vs0mg"},{"bike_id":"2a59e468-664b-4487-a13d-372ee2a99421","system_id":"levelo_inurba_marseille","lat":43.302773,"lon":5.377028,"is_reserved":false,"is_disabled":false,"rental_uris":{"android":"levelo://app?vid=2a59e468-664b-4487-a13d-372ee2a99421","ios":"levelo://app?vid=2a59e468-664b-4487-a13d-372ee2a99421"},"vehicle_type_id":"4","last_reported":1730270398,"current_range_meters":40000,"station_id":"ce4bguh2rcd13ifvqcj0","pricing_plan_id":"cebpf4jnsgd1na2vs0mg"},{"bike_id":"5aecf52a-143c-4328-8118-c219e78a16dc","system_id":"levelo_inurba_marseille","lat":43.24801,"lon":5.37451,"is_reserved":false,"is_disabled":false,"rental_uris":{"android":"levelo://app?vid=5aecf52a-143c-4328-8118-c219e78a16dc","ios":"levelo://app?vid=5aecf52a-143c-4328-8118-c219e78a16dc"},"vehicle_type_id":"4","last_reported":1730270398,"current_range_meters":32400,"station_id":"ce4bhgh2rcd13ifvqfb0","pricing_plan_id":"cebpf4jnsgd1na2vs0mg"},{"bike_id":"77f9416c-2752-4d2f-ba7e-9dd2db802b3e","system_id":"levelo_inurba_marseille","lat":43.31285,"lon":5.4017,"is_reserved":false,"is_disabled":false,"rental_uris":{"android":"levelo://app?vid=77f9416c-2752-4d2f-ba7e-9dd2db802b3e","ios":"levelo://app?vid=77f9416c-2752-4d2f-ba7e-9dd2db802b3e"},"vehicle_type_id":"4","last_reported":1730270398,"current_range_meters":40000,"station_id":"ce4bh092rcd13ifvqd30","pricing_plan_id":"cebpf4jnsgd1na2vs0mg"},{"bike_id":"03f650f6-9da9-4967-a3bb-cbff6438c43f","system_id":"levelo_inurba_marseille","lat":43.30332,"lon":5.4044,"is_reserved":false,"is_disabled":false,"rental_uris":{"android":"levelo://app?vid=03f650f6-9da9-4967-a3bb-cbff6438c43f","ios":"levelo://app?vid=03f650f6-9da9-4967-a3bb-cbff6438c43f"},"vehicle_type_id":"4","last_reported":1730270398,"current_range_meters":36800,"station_id":"ce4bh012rcd13ifvqd10","pricing_plan_id":"cebpf4jnsgd1na2vs0mg"},{"bike_id":"b032dfcf-4e26-4322-bd52-698311f945e5","system_id":"levelo_inurba_marseille","lat":43.31167,"lon":5.3871,"is_reserved":false,"is_disabled":false,"rental_uris":{"android":"levelo://app?vid=b032dfcf-4e26-4322-bd52-698311f945e5","ios":"levelo://app?vid=b032dfcf-4e26-4322-bd52-698311f945e5"},"vehicle_type_id":"4","last_reported":1730270398,"current_range_meters":37600,"station_id":"ce4bgv12rcd13ifvqcp0","pricing_plan_id":"cebpf4jnsgd1na2vs0mg"},{"bike_id":"5a0a6089-a30b-4bc3-acd2-1a625f83eeb8","system_id":"levelo_inurba_marseille","lat":43.31895,"lon":5.40726,"is_reserved":false,"is_disabled":false,"rental_uris":{"android":"levelo://app?vid=5a0a6089-a30b-4bc3-acd2-1a625f83eeb8","ios":"levelo://app?vid=5a0a6089-a30b-4bc3-acd2-1a625f83eeb8"},"vehicle_type_id":"4","last_reported":1730270398,"current_range_meters":38800,"station_id":"ce4bhq12rcd13ifvqhig","pricing_plan_id":"cebpf4jnsgd1na2vs0mg"},{"bike_id":"572442fc-4e1c-456d-9c2a-27bcb4264a4b","system_id":"levelo_inurba_marseille","lat":43.31889,"lon":5.40731,"is_reserved":false,"is_disabled":false,"rental_uris":{"android":"levelo://app?vid=572442fc-4e1c-456d-9c2a-27bcb4264a4b","ios":"levelo://app?vid=572442fc-4e1c-456d-9c2a-27bcb4264a4b"},"vehicle_type_id":"4","last_reported":1730270398,"current_range_meters":32000,"station_id":"ce4bhq12rcd13ifvqhig","pricing_plan_id":"cebpf4jnsgd1na2vs0mg"},{"bike_id":"be6f7096-3550-4f48-8b46-8782e354c08f","system_id":"levelo_inurba_marseille","lat":43.28671,"lon":5.36345,"is_reserved":false,"is_disabled":false,"rental_uris":{"android":"levelo://app?vid=be6f7096-3550-4f48-8b46-8782e354c08f","ios":"levelo://app?vid=be6f7096-3550-4f48-8b46-8782e354c08f"},"vehicle_type_id":"4","last_reported":1730270398,"current_range_meters":38400,"station_id":"ce4bhah2rcd13ifvqej0","pricing_plan_id":"cebpf4jnsgd1na2vs0mg"},{"bike_id":"4a595e2d-8edf-4bb0-9aa0-66a379b7bc81","system_id":"levelo_inurba_marseille","lat":43.31121,"lon":5.37762,"is_reserved":false,"is_disabled":false,"rental_uris":{"android":"levelo://app?vid=4a595e2d-8edf-4bb0-9aa0-66a379b7bc81","ios":"levelo://app?vid=4a595e2d-8edf-4bb0-9aa0-66a379b7bc81"},"vehicle_type_id":"4","last_reported":1730270398,"current_range_meters":38400,"station_id":"ce4bgt92rcd13ifvqcg0","pricing_plan_id":"cebpf4jnsgd1na2vs0mg"},{"bike_id":"95dd2396-3110-4697-a8b6-aefd8c3e126c","system_id":"levelo_inurba_marseille","lat":43.27618,"lon":5.36121,"is_reserved":false,"is_disabled":false,"rental_uris":{"android":"levelo://app?vid=95dd2396-3110-4697-a8b6-aefd8c3e126c","ios":"levelo://app?vid=95dd2396-3110-4697-a8b6-aefd8c3e126c"},"vehicle_type_id":"4","last_reported":1730270398,"current_range_meters":35600,"station_id":"ce4bgj92rcd13ifvqbe0","pricing_plan_id":"cebpf4jnsgd1na2vs0mg"},{"bike_id":"b790193a-8708-4799-82fd-b210d26e523e","system_id":"levelo_inurba_marseille","lat":43.30807,"lon":5.38167,"is_reserved":false,"is_disabled":false,"rental_uris":{"android":"levelo://app?vid=b790193a-8708-4799-82fd-b210d26e523e","ios":"levelo://app?vid=b790193a-8708-4799-82fd-b210d26e523e"},"vehicle_type_id":"4","last_reported":1730270398,"current_range_meters":8000,"station_id":"ce4bgt12rcd13ifvqce0","pricing_plan_id":"cebpf4jnsgd1na2vs0mg"},{"bike_id":"9177b0ec-4fc4-4fa3-8db0-540a3c4999b6","system_id":"levelo_inurba_marseille","lat":43.28727,"lon":5.36093,"is_reserved":false,"is_disabled":false,"rental_uris":{"android":"levelo://app?vid=9177b0ec-4fc4-4fa3-8db0-540a3c4999b6","ios":"levelo://app?vid=9177b0ec-4fc4-4fa3-8db0-540a3c4999b6"},"vehicle_type_id":"4","last_reported":1730270398,"current_range_meters":23200,"station_id":"cki0cbj6b192h4jlfktg","pricing_plan_id":"cebpf4jnsgd1na2vs0mg"},{"bike_id":"cb6da5ef-8d54-462a-ac5c-1582820bec3a","system_id":"levelo_inurba_marseille","lat":43.26499,"lon":5.39545,"is_reserved":false,"is_disabled":false,"rental_uris":{"android":"levelo://app?vid=cb6da5ef-8d54-462a-ac5c-1582820bec3a","ios":"levelo://app?vid=cb6da5ef-8d54-462a-ac5c-1582820bec3a"},"vehicle_type_id":"4","last_reported":1730270398,"current_range_meters":10000,"station_id":"ce4bhi12rcd13ifvqfq0","pricing_plan_id":"cebpf4jnsgd1na2vs0mg"},{"bike_id":"c8ef3d06-424b-4084-a839-d037aab9cd63","system_id":"levelo_inurba_marseille","lat":43.31364,"lon":5.38514,"is_reserved":false,"is_disabled":false,"rental_uris":{"android":"levelo://app?vid=c8ef3d06-424b-4084-a839-d037aab9cd63","ios":"levelo://app?vid=c8ef3d06-424b-4084-a839-d037aab9cd63"},"vehicle_type_id":"4","last_reported":1730270398,"current_range_meters":38400,"station_id":"ce4bgt92rcd13ifvqcf0","pricing_plan_id":"cebpf4jnsgd1na2vs0mg"},{"bike_id":"5e6e7647-d9c7-4d96-97e1-c3d85180c219","system_id":"levelo_inurba_marseille","lat":43.292557,"lon":5.408998,"is_reserved":false,"is_disabled":false,"rental_uris":{"android":"levelo://app?vid=5e6e7647-d9c7-4d96-97e1-c3d85180c219","ios":"levelo://app?vid=5e6e7647-d9c7-4d96-97e1-c3d85180c219"},"vehicle_type_id":"4","last_reported":1730270398,"current_range_meters":38400,"station_id":"ce4bh192rcd13ifvqdc0","pricing_plan_id":"cebpf4jnsgd1na2vs0mg"},{"bike_id":"46f2d309-31ac-4b44-9b8c-3d6b64e54188","system_id":"levelo_inurba_marseille","lat":43.30651,"lon":5.40075,"is_reserved":false,"is_disabled":false,"rental_uris":{"android":"levelo://app?vid=46f2d309-31ac-4b44-9b8c-3d6b64e54188","ios":"levelo://app?vid=46f2d309-31ac-4b44-9b8c-3d6b64e54188"},"vehicle_type_id":"4","last_reported":1730270398,"current_range_meters":26800,"station_id":"ce4bh112rcd13ifvqda0","pricing_plan_id":"cebpf4jnsgd1na2vs0mg"},{"bike_id":"ea848b0a-5785-4e5d-83d4-e4515f54c692","system_id":"levelo_inurba_marseille","lat":43.23193,"lon":5.39983,"is_reserved":false,"is_disabled":false,"rental_uris":{"android":"levelo://app?vid=ea848b0a-5785-4e5d-83d4-e4515f54c692","ios":"levelo://app?vid=ea848b0a-5785-4e5d-83d4-e4515f54c692"},"vehicle_type_id":"4","last_reported":1730270398,"current_range_meters":27200,"station_id":"ce4bhn12rcd13ifvqgqg","pricing_plan_id":"cebpf4jnsgd1na2vs0mg"},{"bike_id":"d330032c-578a-40e3-99e4-e077b38f5f89","system_id":"levelo_inurba_marseille","lat":43.30885,"lon":5.3964,"is_reserved":false,"is_disabled":false,"rental_uris":{"android":"levelo://app?vid=d330032c-578a-40e3-99e4-e077b38f5f89","ios":"levelo://app?vid=d330032c-578a-40e3-99e4-e077b38f5f89"},"vehicle_type_id":"4","last_reported":1730270398,"current_range_meters":37600,"station_id":"ce4bh012rcd13ifvqcv0","pricing_plan_id":"cebpf4jnsgd1na2vs0mg"},{"bike_id":"cba2a67d-6fda-44bd-86a3-7d37451102af","system_id":"levelo_inurba_marseille","lat":43.30149,"lon":5.38077,"is_reserved":false,"is_disabled":false,"rental_uris":{"android":"levelo://app?vid=cba2a67d-6fda-44bd-86a3-7d37451102af","ios":"levelo://app?vid=cba2a67d-6fda-44bd-86a3-7d37451102af"},"vehicle_type_id":"4","last_reported":1730270398,"current_range_meters":35600,"station_id":"ce4bgjp2rcd13ifvqbh0","pricing_plan_id":"cebpf4jnsgd1na2vs0mg"},{"bike_id":"1768b2ed-b293-42f5-a095-345317bb060b","system_id":"levelo_inurba_marseille","lat":43.30905,"lon":5.36844,"is_reserved":false,"is_disabled":false,"rental_uris":{"android":"levelo://app?vid=1768b2ed-b293-42f5-a095-345317bb060b","ios":"levelo://app?vid=1768b2ed-b293-42f5-a095-345317bb060b"},"vehicle_type_id":"4","last_reported":1730270398,"current_range_meters":22400,"station_id":"ce4bgn92rcd13ifvqbvg","pricing_plan_id":"cebpf4jnsgd1na2vs0mg"},{"bike_id":"e1d5344e-a6d4-4068-bf2e-e347a3432fb0","system_id":"levelo_inurba_marseille","lat":43.30274,"lon":5.37697,"is_reserved":false,"is_disabled":false,"rental_uris":{"android":"levelo://app?vid=e1d5344e-a6d4-4068-bf2e-e347a3432fb0","ios":"levelo://app?vid=e1d5344e-a6d4-4068-bf2e-e347a3432fb0"},"vehicle_type_id":"4","last_reported":1730270398,"current_range_meters":35600,"station_id":"ce4bguh2rcd13ifvqcj0","pricing_plan_id":"cebpf4jnsgd1na2vs0mg"},{"bike_id":"a0a2b278-3c52-4c26-9330-91fb0b590d02","system_id":"levelo_inurba_marseille","lat":43.3016,"lon":5.38093,"is_reserved":false,"is_disabled":false,"rental_uris":{"android":"levelo://app?vid=a0a2b278-3c52-4c26-9330-91fb0b590d02","ios":"levelo://app?vid=a0a2b278-3c52-4c26-9330-91fb0b590d02"},"vehicle_type_id":"4","last_reported":1730270398,"current_range_meters":33200,"station_id":"ce4bgjp2rcd13ifvqbh0","pricing_plan_id":"cebpf4jnsgd1na2vs0mg"},{"bike_id":"160c3125-d109-49e3-a687-ede78b99dea2","system_id":"levelo_inurba_marseille","lat":43.23196,"lon":5.35544,"is_reserved":false,"is_disabled":false,"rental_uris":{"android":"levelo://app?vid=160c3125-d109-49e3-a687-ede78b99dea2","ios":"levelo://app?vid=160c3125-d109-49e3-a687-ede78b99dea2"},"vehicle_type_id":"4","last_reported":1730270398,"current_range_meters":11200,"station_id":"ce4bhu92rcd13ifvqi70","pricing_plan_id":"cebpf4jnsgd1na2vs0mg"},{"bike_id":"5dabbc13-411e-42f2-b6b7-494430433cbb","system_id":"levelo_inurba_marseille","lat":43.28459,"lon":5.35892,"is_reserved":false,"is_disabled":false,"rental_uris":{"android":"levelo://app?vid=5dabbc13-411e-42f2-b6b7-494430433cbb","ios":"levelo://app?vid=5dabbc13-411e-42f2-b6b7-494430433cbb"},"vehicle_type_id":"4","last_reported":1730270398,"current_range_meters":33600,"station_id":"ce4bhah2rcd13ifvqei0","pricing_plan_id":"cebpf4jnsgd1na2vs0mg"},{"bike_id":"d15e5a3a-5812-42ae-8a22-b064b9e316b7","system_id":"levelo_inurba_marseille","lat":43.27989,"lon":5.40023,"is_reserved":false,"is_disabled":false,"rental_uris":{"android":"levelo://app?vid=d15e5a3a-5812-42ae-8a22-b064b9e316b7","ios":"levelo://app?vid=d15e5a3a-5812-42ae-8a22-b064b9e316b7"},"vehicle_type_id":"4","last_reported":1730270398,"current_range_meters":37600,"station_id":"ce4bho92rcd13ifvqh4g","pricing_plan_id":"cebpf4jnsgd1na2vs0mg"},{"bike_id":"8f188676-4d1a-47bb-8a85-2b7cad668116","system_id":"levelo_inurba_marseille","lat":43.27204,"lon":5.39188,"is_reserved":false,"is_disabled":false,"rental_uris":{"android":"levelo://app?vid=8f188676-4d1a-47bb-8a85-2b7cad668116","ios":"levelo://app?vid=8f188676-4d1a-47bb-8a85-2b7cad668116"},"vehicle_type_id":"4","last_reported":1730270398,"current_range_meters":38000,"station_id":"ce4bhhp2rcd13ifvqfm0","pricing_plan_id":"cebpf4jnsgd1na2vs0mg"},