{"last_updated":1770961921,"ttl":60,"version":"2.2","data":{"bikes":[{"bike_id":"d96f1086-8d9b-4b38-8774-136993319875","system_id":"levelo_inurba_marseille","lat":43.24641,"lon":5.388953,"is_reserved":false,"is_disabled":false,"rental_uris":{"android":"levelo://app?vid=d96f1086-8d9b-4b38-8774-136993319875","ios":"levelo://app?vid=d96f1086-8d9b-4b38-8774-136993319875"},"vehicle_type_id":"4","last_reported":1770961921,"current_range_meters":26000,"station_id":"ce4bhg12rcd13ifvqf60","pricing_plan_id":"cebpf4jnsgd1na2vs0mg"},{"bike_id":"c5571452-c3a9-4836-8b2a-9d93f59b5759","system_id":"levelo_inurba_marseille","lat":43.284766,"lon":5.483964,"is_reserved":false,"is_disabled":false,"rental_uris":{"android":"levelo://app?vid=c5571452-c3a9-4836-8b2a-9d93f59b5759","ios":"levelo://app?vid=c5571452-c3a9-4836-8b2a-9d93f59b5759"},"vehicle_type_id":"4","last_reported":1770961921,"current_range_meters":12000,"station_id":"st_d3svhcjqgbts73a3dn0g","pricing_plan_id":"cebpf4jnsgd1na2vs0mg"},{"bike_id":"597ba019-6a14-4724-bfeb-cc559411f270","system_id":"levelo_inurba_marseille","lat":43.27612,"lon":5.3612,"is_reserved":false,"is_disabled":false,"rental_uris":{"android":"levelo://app?vid=597ba019-6a14-4724-bfeb-cc559411f270","ios":"levelo://app?vid=597ba019-6a14-4724-bfeb-cc559411f270"},"vehicle_type_id":"4","last_reported":1770961921,"current_range_meters":39200,"station_id":"ce4bgj92rcd13ifvqbe0","pricing_plan_id":"cebpf4jnsgd1na2vs0mg"},{"bike_id":"80ee9136-fcc3-4159-a9b6-95e99816d5df","system_id":"levelo_inurba_marseille","lat":43.30467,"lon":5.37918,"is_reserved":false,"is_disabled":false,"rental_uris":{"android":"levelo://app?vid=80ee9136-fcc3-4159-a9b6-95e99816d5df","ios":"levelo://app?vid=80ee9136-fcc3-4159-a9b6-95e99816d5df"},"vehicle_type_id":"4","last_reported":1770961921,"current_range_meters":35600,"station_id":"ce4bgup2rcd13ifvqcn0","pricing_plan_id":"cebpf4jnsgd1na2vs0mg"},{"bike_id":"16b6a5c1-5836-4824-afce-dc154cffff82","system_id":"levelo_inurba_marseille","lat":43.312735,"lon":5.40173,"is_reserved":false,"is_disabled":false,"rental_uris":{"android":"levelo://app?vid=16b6a5c1-5836-4824-afce-dc154cffff82","ios":"levelo://app?vid=16b6a5c1-5836-4824-afce-dc154cffff82"},"vehicle_type_id":"4","last_reported":1770961921,"current_range_meters":17200,"station_id":"ce4bh092rcd13ifvqd30","pricing_plan_id":"cebpf4jnsgd1na2vs0mg"},{"bike_id":"fc148e1b-2eeb-4bb0-8155-e98e097f71ae","system_id":"levelo_inurba_marseille","lat":43.28328,"lon":5.38938,"is_reserved":false,"is_disabled":false,"rental_uris":{"android":"levelo://app?vid=fc148e1b-2eeb-4bb0-8155-e98e097f71ae","ios":"levelo://app?vid=fc148e1b-2eeb-4bb0-8155-e98e097f71ae"},"vehicle_type_id":"4","last_reported":1770961921,"current_range_meters":29600,"station_id":"","pricing_plan_id":"cebpf4jnsgd1na2vs0mg"},{"bike_id":"007dd422-bd9c-4750-828e-10e5b1290676","system_id":"levelo_inurba_marseille","lat":43.286154,"lon":5.389267,"is_reserved":false,"is_disabled":false,"rental_uris":{"android":"levelo://app?vid=007dd422-bd9c-4750-828e-10e5b1290676","ios":"levelo://app?vid=007dd422-bd9c-4750-828e-10e5b1290676"},"vehicle_type_id":"4","last_reported":1770961921,"current_range_meters":30000,"station_id":"","pricing_plan_id":"cebpf4jnsgd1na2vs0mg"},{"bike_id":"b4ed104e-788d-4b33-aad1-d33937fae292","system_id":"levelo_inurba_marseille","lat":43.28944,"lon":5.39661,"is_reserved":false,"is_disabled":true,"rental_uris":{"android":"levelo://app?vid=b4ed104e-788d-4b33-aad1-d33937fae292","ios":"levelo://app?vid=b4ed104e-788d-4b33-aad1-d33937fae292"},"vehicle_type_id":"4","last_reported":1770961921,"current_range_meters":28800,"station_id":"ce4bh3h2rcd13ifvqdn0","pricing_plan_id":"cebpf4jnsgd1na2vs0mg"},{"bike_id":"022767c9-f523-4ead-b102-658b025cab8d","system_id":"levelo_inurba_marseille","lat":43.24768,"lon":5.37458,"is_reserved":false,"is_disabled":false,"rental_uris":{"android":"levelo://app?vid=022767c9-f523-4ead-b102-658b025cab8d","ios":"levelo://app?vid=022767c9-f523-4ead-b102-658b025cab8d"},"vehicle_type_id":"4","last_reported":1770961921,"current_range_meters":38400,"station_id":"ce4bhgh2rcd13ifvqfb0","pricing_plan_id":"cebpf4jnsgd1na2vs0mg"},{"bike_id":"b6e7429c-cc3c-4004-b8fc-f3875d0aace7","system_id":"levelo_inurba_marseille","lat":43.30154,"lon":5.38028,"is_reserved":false,"is_disabled":false,"rental_uris":{"android":"levelo://app?vid=b6e7429c-cc3c-4004-b8fc-f3875d0aace7","ios":"levelo://app?vid=b6e7429c-cc3c-4004-b8fc-f3875d0aace7"},"vehicle_type_id":"4","last_reported":1770961921,"current_range_meters":31200,"station_id":"ce4bgjp2rcd13ifvqbh0","pricing_plan_id":"cebpf4jnsgd1na2vs0mg"},{"bike_id":"c4642fce-6679-473d-841d-309d722b18fd","system_id":"levelo_inurba_marseille","lat":43.29585,"lon":5.36735,"is_reserved":false,"is_disabled":false,"rental_uris":{"android":"levelo://app?vid=c4642fce-6679-473d-841d-309d722b18fd","ios":"levelo://app?vid=c4642fce-6679-473d-841d-309d722b18fd"},"vehicle_type_id":"4","last_reported":1770961921,"current_range_meters":35600,"station_id":"ce4bgph2rcd13ifvqc2g","pricing_plan_id":"cebpf4jnsgd1na2vs0mg"},{"bike_id":"245d8399-0abe-420d-bc4b-93336612c814","system_id":"levelo_inurba_marseille","lat":43.25863,"lon":5.39895,"is_reserved":false,"is_disabled":false,"rental_uris":{"android":"levelo://app?vid=245d8399-0abe-420d-bc4b-93336612c814","ios":"levelo://app?vid=245d8399-0abe-420d-bc4b-93336612c814"},"vehicle_type_id":"4","last_reported":1770961921,"current_range_meters":22800,"station_id":"ce4bhl92rcd13ifvqghg","pricing_plan_id":"cebpf4jnsgd1na2vs0mg"},{"bike_id":"eceb30dd-f202-4183-92b0-f3face85ee0f","system_id":"levelo_inurba_marseille","lat":43.262161,"lon":5.374356,"is_reserved":false,"is_disabled":false,"rental_uris":{"android":"levelo://app?vid=eceb30dd-f202-4183-92b0-f3face85ee0f","ios":"levelo://app?vid=eceb30dd-f202-4183-92b0-f3face85ee0f"},"vehicle_type_id":"4","last_reported":1770961921,"current_range_meters":11600,"station_id":"ce4bhgp2rcd13ifvqfc0","pricing_plan_id":"cebpf4jnsgd1na2vs0mg"},{"bike_id":"8db296e1-6b6a-4c6d-8f82-f43c21884e25","system_id":"levelo_inurba_marseille","lat":43.330195,"lon":5.390374,"is_reserved":false,"is_disabled":false,"rental_uris":{"android":"levelo://app?vid=8db296e1-6b6a-4c6d-8f82-f43c21884e25","ios":"levelo://app?vid=8db296e1-6b6a-4c6d-8f82-f43c21884e25"},"vehicle_type_id":"4","last_reported":1770961921,"current_range_meters":13600,"station_id":"ce4bhr92rcd13ifvqhrg","pricing_plan_id":"cebpf4jnsgd1na2vs0mg"},{"bike_id":"26e1f116-11fa-42b9-928c-4d2fb88853f6","system_id":"levelo_inurba_marseille","lat":43.30235,"lon":5.39483,"is_reserved":false,"is_disabled":false,"rental_uris":{"android":"levelo://app?vid=26e1f116-11fa-42b9-928c-4d2fb88853f6","ios":"levelo://app?vid=26e1f116-11fa-42b9-928c-4d2fb88853f6"},"vehicle_type_id":"4","last_reported":1770961921,"current_range_meters":38800,"station_id":"ce4bh0p2rcd13ifvqd70","pricing_plan_id":"cebpf4jnsgd1na2vs0mg"},{"bike_id":"c57a3473-db26-4825-b0c3-9acd480d89cc","system_id":"levelo_inurba_marseille","lat":43.30712,"lon":5.42452,"is_reserved":false,"is_disabled":false,"rental_uris":{"android":"levelo://app?vid=c57a3473-db26-4825-b0c3-9acd480d89cc","ios":"levelo://app?vid=c57a3473-db26-4825-b0c3-9acd480d89cc"},"vehicle_type_id":"4","last_reported":1770961921,"current_range_meters":20000,"station_id":"st_cvj6ca6bvosntc0bfgr0","pricing_plan_id":"cebpf4jnsgd1na2vs0mg"},{"bike_id":"581a942e-7f4c-4b59-961d-e47e562daab6","system_id":"levelo_inurba_marseille","lat":43.33526,"lon":5.37464,"is_reserved":false,"is_disabled":false,"rental_uris":{"android":"levelo://app?vid=581a942e-7f4c-4b59-961d-e47e562daab6","ios":"levelo://app?vid=581a942e-7f4c-4b59-961d-e47e562daab6"},"vehicle_type_id":"4","last_reported":1770961921,"current_range_meters":27200,"station_id":"st_d46tts09ee8s73dlu43g","pricing_plan_id":"cebpf4jnsgd1na2vs0mg"},{"bike_id":"42ec1b08-4ea1-4b89-8312-7958b7ae7f2e","system_id":"levelo_inurba_marseille","lat":43.29198,"lon":5.39326,"is_reserved":false,"is_disabled":true,"rental_uris":{"android":"levelo://app?vid=42ec1b08-4ea1-4b89-8312-7958b7ae7f2e","ios":"levelo://app?vid=42ec1b08-4ea1-4b89-8312-7958b7ae7f2e"},"vehicle_type_id":"4","last_reported":1770961921,"current_range_meters":25200,"station_id":"ce4bh192rcd13ifvqdd0","pricing_plan_id":"cebpf4jnsgd1na2vs0mg"},{"bike_id":"8bdaefbd-4792-4e98-a33e-13831766efc7","system_id":"levelo_inurba_marseille","lat":43.246614,"lon":5.381444,"is_reserved":false,"is_disabled":false,"rental_uris":{"android":"levelo://app?vid=8bdaefbd-4792-4e98-a33e-13831766efc7","ios":"levelo://app?vid=8bdaefbd-4792-4e98-a33e-13831766efc7"},"vehicle_type_id":"4","last_reported":1770961921,"current_range_meters":12400,"station_id":"ce4bhih2rcd13ifvqfr0","pricing_plan_id":"cebpf4jnsgd1na2vs0mg"},{"bike_id":"375dea6e-9d0d-4201-bab5-e343be855177","system_id":"levelo_inurba_marseille","lat":43.29552,"lon":5.42272,"is_reserved":false,"is_disabled":false,"rental_uris":{"android":"levelo://app?vid=375dea6e-9d0d-4201-bab5-e343be855177","ios":"levelo://app?vid=375dea6e-9d0d-4201-bab5-e343be855177"},"vehicle_type_id":"4","last_reported":1770961921,"current_range_meters":20800,"station_id":"ce4bhph2rcd13ifvqhdg","pricing_plan_id":"cebpf4jnsgd1na2vs0mg"},{"bike_id":"3e3231f6-7f34-4e79-a208-8e160f324ca7","system_id":"levelo_inurba_marseille","lat":43.31128,"lon":5.3776,"is_reserved":false,"is_disabled":false,"rental_uris":{"android":"levelo://app?vid=3e3231f6-7f34-4e79-a208-8e160f324ca7","ios":"levelo://app?vid=3e3231f6-7f34-4e79-a208-8e160f324ca7"},"vehicle_type_id":"4","last_reported":1770961921,"current_range_meters":17600,"station_id":"ce4bgt92rcd13ifvqcg0","pricing_plan_id":"cebpf4jnsgd1na2vs0mg"},{"bike_id":"a4be4eed-32c8-419a-8fa0-bd3decf6c558","system_id":"levelo_inurba_marseille","lat":43.300058,"lon":5.380886,"is_reserved":false,"is_disabled":false,"rental_uris":{"android":"levelo://app?vid=a4be4eed-32c8-419a-8fa0-bd3decf6c558","ios":"levelo://app?vid=a4be4eed-32c8-419a-8fa0-bd3decf6c558"},"vehicle_type_id":"4","last_reported":1770961921,"current_range_meters":24000,"station_id":"ce4bgjp2rcd13ifvqbh0","pricing_plan_id":"cebpf4jnsgd1na2vs0mg"},{"bike_id":"a34fd21e-938f-42e8-aee8-e723b46b6ece","system_id":"levelo_inurba_marseille","lat":43.305981,"lon":5.393564,"is_reserved":false,"is_disabled":false,"rental_uris":{"android":"levelo://app?vid=a34fd21e-938f-42e8-aee8-e723b46b6ece","ios":"levelo://app?vid=a34fd21e-938f-42e8-aee8-e723b46b6ece"},"vehicle_type_id":"4","last_reported":1770961921,"current_range_meters":7200,"station_id":"ce4bh0p2rcd13ifvqd80","pricing_plan_id":"cebpf4jnsgd1na2vs0mg"},{"bike_id":"98214e5a-feef-4bd8-98ac-e96e32b1d2da","system_id":"levelo_inurba_marseille","lat":43.28337,"lon":5.38109,"is_reserved":false,"is_disabled":false,"rental_uris":{"android":"levelo://app?vid=98214e5a-feef-4bd8-98ac-e96e32b1d2da","ios":"levelo://app?vid=98214e5a-feef-4bd8-98ac-e96e32b1d2da"},"vehicle_type_id":"4","last_reported":1770961921,"current_range_meters":36800,"station_id":"ce4bh412rcd13ifvqdr0","pricing_plan_id":"cebpf4jnsgd1na2vs0mg"},{"bike_id":"6d22b095-ac89-44fb-a85d-e5f85c2365e2","system_id":"levelo_inurba_marseille","lat":43.32121,"lon":5.36803,"is_reserved":false,"is_disabled":false,"rental_uris":{"android":"levelo://app?vid=6d22b095-ac89-44fb-a85d-e5f85c2365e2","ios":"levelo://app?vid=6d22b095-ac89-44fb-a85d-e5f85c2365e2"},"vehicle_type_id":"4","last_reported":1770961921,"current_range_meters":33600,"station_id":"ce4bhrh2rcd13ifvqhug","pricing_plan_id":"cebpf4jnsgd1na2vs0mg"},{"bike_id":"53fadabc-c99e-4229-8390-1aef31b8f88b","system_id":"levelo_inurba_marseille","lat":43.28695,"lon":5.38653,"is_reserved":false,"is_disabled":true,"rental_uris":{"android":"levelo://app?vid=53fadabc-c99e-4229-8390-1aef31b8f88b","ios":"levelo://app?vid=53fadabc-c99e-4229-8390-1aef31b8f88b"},"vehicle_type_id":"4","last_reported":1770961921,"current_range_meters":0,"station_id":"ce4bh492rcd13ifvqdug","pricing_plan_id":"cebpf4jnsgd1na2vs0mg"},{"bike_id":"da6d29e8-9360-4ed3-8562-2408c1cf78c6","system_id":"levelo_inurba_marseille","lat":43.27818,"lon":5.40733,"is_reserved":false,"is_disabled":false,"rental_uris":{"android":"levelo://app?vid=da6d29e8-9360-4ed3-8562-2408c1cf78c6","ios":"levelo://app?vid=da6d29e8-9360-4ed3-8562-2408c1cf78c6"},"vehicle_type_id":"4","last_reported":1770961921,"current_range_meters":39200,"station_id":"ce4bhnh2rcd13ifvqgtg","pricing_plan_id":"cebpf4jnsgd1na2vs0mg"},{"bike_id":"c70613bb-0fb4-4214-9810-e4d4c22df343","system_id":"levelo_inurba_marseille","lat":43.28577,"lon":5.39498,"is_reserved":false,"is_disabled":false,"rental_uris":{"android":"levelo://app?vid=c70613bb-0fb4-4214-9810-e4d4c22df343","ios":"levelo://app?vid=c70613bb-0fb4-4214-9810-e4d4c22df343"},"vehicle_type_id":"4","last_reported":1770961921,"current_range_meters":26800,"station_id":"ce4bh292rcd13ifvqdg0","pricing_plan_id":"cebpf4jnsgd1na2vs0mg"},{"bike_id":"63e5475a-c84d-49cf-b48c-553fbca4bc0e","system_id":"levelo_inurba_marseille","lat":43.2827,"lon":5.35075,"is_reserved":false,"is_disabled":false,"rental_uris":{"android":"levelo://app?vid=63e5475a-c84d-49cf-b48c-553fbca4bc0e","ios":"levelo://app?vid=63e5475a-c84d-49cf-b48c-553fbca4bc0e"},"vehicle_type_id":"4","last_reported":1770961921,"current_range_meters":12000,"station_id":"ce4bhbp2rcd13ifvqerg","pricing_plan_id":"cebpf4jnsgd1na2vs0mg"},{"bike_id":"8b06d2f9-1f63-41aa-a9b1-7b3be7e68ff4","system_id":"levelo_inurba_marseille","lat":43.28272,"lon":5.3508,"is_reserved":false,"is_disabled":false,"rental_uris":{"android":"levelo://app?vid=8b06d2f9-1f63-41aa-a9b1-7b3be7e68ff4","ios":"levelo://app?vid=8b06d2f9-1f63-41aa-a9b1-7b3be7e68ff4"},"vehicle_type_id":"4","last_reported":1770961921,"current_range_meters":18800,"station_id":"ce4bhbp2rcd13ifvqerg","pricing_plan_id":"cebpf4jnsgd1na2vs0mg"},{"bike_id":"f522a37b-7b1a-4bf2-902e-61d1ad81f21a","system_id":"levelo_inurba_marseille","lat":43.31163,"lon":5.36851,"is_reserved":false,"is_disabled":false,"rental_uris":{"android":"levelo://app?vid=f522a37b-7b1a-4bf2-902e-61d1ad81f21a","ios":"levelo://app?vid=f522a37b-7b1a-4bf2-902e-61d1ad81f21a"},"vehicle_type_id":"4","last_reported":1770961921,"current_range_meters":36800,"station_id":"","pricing_plan_id":"cebpf4jnsgd1na2vs0mg"},{"bike_id":"5f8b2072-38eb-4d09-864c-862c31eaae8f","system_id":"levelo_inurba_marseille","lat":43.29245,"lon":5.40903,"is_reserved":false,"is_disabled":false,"rental_uris":{"android":"levelo://app?vid=5f8b2072-38eb-4d09-864c-862c31eaae8f","ios":"levelo://app?vid=5f8b2072-38eb-4d09-864c-862c31eaae8f"},"vehicle_type_id":"4","last_reported":1770961921,"current_range_meters":39200,"station_id":"ce4bh192rcd13ifvqdc0","pricing_plan_id":"cebpf4jnsgd1na2vs0mg"},{"bike_id":"727904f8-1bd1-455c-b4d3-c46a58221b5f","system_id":"levelo_inurba_marseille","lat":43.284636,"lon":5.358756,"is_reserved":false,"is_disabled":false,"rental_uris":{"android":"levelo://app?vid=727904f8-1bd1-455c-b4d3-c46a58221b5f","ios":"levelo://app?vid=727904f8-1bd1-455c-b4d3-c46a58221b5f"},"vehicle_type_id":"4","last_reported":1770961921,"current_range_meters":34000,"station_id":"ce4bhah2rcd13ifvqei0","pricing_plan_id":"cebpf4jnsgd1na2vs0mg"},{"bike_id":"a5fe1c20-72b4-4682-b620-89adcd4da9ee","system_id":"levelo_inurba_marseille","lat":43.30103,"lon":5.39083,"is_reserved":false,"is_disabled":false,"rental_uris":{"android":"levelo://app?vid=a5fe1c20-72b4-4682-b620-89adcd4da9ee","ios":"levelo://app?vid=a5fe1c20-72b4-4682-b620-89adcd4da9ee"},"vehicle_type_id":"4","last_reported":1770961921,"current_range_meters":19200,"station_id":"ce4bh192rcd13ifvqdb0","pricing_plan_id":"cebpf4jnsgd1na2vs0mg"},{"bike_id":"d7e55b74-244d-40ff-92ca-08279a596dd1","system_id":"levelo_inurba_marseille","lat":43.29889,"lon":5.43671,"is_reserved":false,"is_disabled":false,"rental_uris":{"android":"levelo://app?vid=d7e55b74-244d-40ff-92ca-08279a596dd1","ios":"levelo://app?vid=d7e55b74-244d-40ff-92ca-08279a596dd1"},"vehicle_type_id":"4","last_reported":1770961921,"current_range_meters":36800,"station_id":"ce4bhpp2rcd13ifvqhfg","pricing_plan_id":"cebpf4jnsgd1na2vs0mg"},{"bike_id":"34597344-3517-4161-8c4e-ad3953cc8cfb","system_id":"levelo_inurba_marseille","lat":43.28742,"lon":5.37391,"is_reserved":false,"is_disabled":false,"rental_uris":{"android":"levelo://app?vid=34597344-3517-4161-8c4e-ad3953cc8cfb","ios":"levelo://app?vid=34597344-3517-4161-8c4e-ad3953cc8cfb"},"vehicle_type_id":"4","last_reported":1770961921,"current_range_meters":8800,"station_id":"","pricing_plan_id":"cebpf4jnsgd1na2vs0mg"},{"bike_id":"6d761bb5-7ab8-45e9-be07-540108f494e4","system_id":"levelo_inurba_marseille","lat":43.2694,"lon":5.40239,"is_reserved":false,"is_disabled":false,"rental_uris":{"android":"levelo://app?vid=6d761bb5-7ab8-45e9-be07-540108f494e4","ios":"levelo://app?vid=6d761bb5-7ab8-45e9-be07-540108f494e4"},"vehicle_type_id":"4","last_reported":1770961921,"current_range_meters":17200,"station_id":"cjm6bp8fraef2m0cb0m0","pricing_plan_id":"cebpf4jnsgd1na2vs0mg"},{"bike_id":"f300d22b-b3ab-42d6-ad72-e92af3306e75","system_id":"levelo_inurba_marseille","lat":43.310587,"lon":5.37187,"is_reserved":false,"is_disabled":false,"rental_uris":{"android":"levelo://app?vid=f300d22b-b3ab-42d6-ad72-e92af3306e75","ios":"levelo://app?vid=f300d22b-b3ab-42d6-ad72-e92af3306e75"},"vehicle_type_id":"4","last_reported":1770961921,"current_range_meters":23200,"station_id":"st_d4kl2rp97mjs73e7tdfg","pricing_plan_id":"cebpf4jnsgd1na2vs0mg"},{"bike_id":"70ceded8-7120-49fc-ae14-eaafe9d747f2","system_id":"levelo_inurba_marseille","lat":43.29899,"lon":5.39724,"is_reserved":false,"is_disabled":false,"rental_uris":{"android":"levelo://app?vid=70ceded8-7120-49fc-ae14-eaafe9d747f2","ios":"levelo://app?vid=70ceded8-7120-49fc-ae14-eaafe9d747f2"},"vehicle_type_id":"4","last_reported":1770961921,"current_range_meters":39200,"station_id":"ce4bh0h2rcd13ifvqd50","pricing_plan_id":"cebpf4jnsgd1na2vs0mg"},{"bike_id":"827d9cc5-5a68-4366-b1e5-3c6d00dec312","system_id":"levelo_inurba_marseille","lat":43.27474,"lon":5.39409,"is_reserved":false,"is_disabled":false,"rental_uris":{"android":"levelo://app?vid=827d9cc5-5a68-4366-b1e5-3c6d00dec312","ios":"levelo://app?vid=827d9cc5-5a68-4366-b1e5-3c6d00dec312"},"vehicle_type_id":"4","last_reported":1770961921,"current_range_meters":38800,"station_id":"ce4bhdp2rcd13ifvqf20","pricing_plan_id":"cebpf4jnsgd1na2vs0mg"},{"bike_id":"241b3e74-a71f-4c45-8122-0768114fc5a0","system_id":"levelo_inurba_marseille","lat":43.29854,"lon":5.36285,"is_reserved":false,"is_disabled":false,"rental_uris":{"android":"levelo://app?vid=241b3e74-a71f-4c45-8122-0768114fc5a0","ios":"levelo://app?vid=241b3e74-a71f-4c45-8122-0768114fc5a0"},"vehicle_type_id":"4","last_reported":1770961921,"current_range_meters":38800,"station_id":"ce4bgpp2rcd13ifvqc3g","pricing_plan_id":"cebpf4jnsgd1na2vs0mg"},{"bike_id":"263c3f01-3edb-40a1-83fb-093dde8e9282","system_id":"levelo_inurba_marseille","lat":43.337289,"lon":5.39179,"is_reserved":false,"is_disabled":false,"rental_uris":{"android":"levelo://app?vid=263c3f01-3edb-40a1-83fb-093dde8e9282","ios":"levelo://app?vid=263c3f01-3edb-40a1-83fb-093dde8e9282"},"vehicle_type_id":"4","last_reported":1770961921,"current_range_meters":37600,"station_id":"ce4bhr92rcd13ifvqhsg","pricing_plan_id":"cebpf4jnsgd1na2vs0mg"},{"bike_id":"b8b273a9-ad07-47df-8f89-3ea01ba1e037","system_id":"levelo_inurba_marseille","lat":43.27582,"lon":5.38425,"is_reserved":false,"is_disabled":false,"rental_uris":{"android":"levelo://app?vid=b8b273a9-ad07-47df-8f89-3ea01ba1e037","ios":"levelo://app?vid=b8b273a9-ad07-47df-8f89-3ea01ba1e037"},"vehicle_type_id":"4","last_reported":1770961921,"current_range_meters":39200,"station_id":"ce4bhh92rcd13ifvqfi0","pricing_plan_id":"cebpf4jnsgd1na2vs0mg"},{"bike_id":"f38fccb3-9422-4c98-b4a5-9320cdfa4c27","system_id":"levelo_inurba_marseille","lat":43.282698,"lon":5.350721,"is_reserved":false,"is_disabled":false,"rental_uris":{"android":"levelo://app?vid=f38fccb3-9422-4c98-b4a5-9320cdfa4c27","ios":"levelo://app?vid=f38fccb3-9422-4c98-b4a5-9320cdfa4c27"},"vehicle_type_id":"4","last_reported":1770961921,"current_range_meters":27200,"station_id":"ce4bhbp2rcd13ifvqerg","pricing_plan_id":"cebpf4jnsgd1na2vs0mg"},{"bike_id":"6e2fc0d4-a25b-4469-96ca-042c68399b84","system_id":"levelo_inurba_marseille","lat":43.29061,"lon":5.371521,"is_reserved":false,"is_disabled":false,"rental_uris":{"android":"levelo://app?vid=6e2fc0d4-a25b-4469-96ca-042c68399b84","ios":"levelo://app?vid=6e2fc0d4-a25b-4469-96ca-042c68399b84"},"vehicle_type_id":"4","last_reported":1770961921,"current_range_meters":4000,"station_id":"ce4bh5p2rcd13ifvqe4g","pricing_plan_id":"cebpf4jnsgd1na2vs0mg"},{"bike_id":"6888d293-0d81-4cf8-b7da-18b5fd60abad","system_id":"levelo_inurba_marseille","lat":43.2932,"lon":5.37231,"is_reserved":false,"is_disabled":false,"rental_uris":{"android":"levelo://app?vid=6888d293-0d81-4cf8-b7da-18b5fd60abad","ios":"levelo://app?vid=6888d293-0d81-4cf8-b7da-18b5fd60abad"},"vehicle_type_id":"4","last_reported":1770961921,"current_range_meters":24800,"station_id":"","pricing_plan_id":"cebpf4jnsgd1na2vs0mg"},{"bike_id":"03cdc9a8-cbc9-4cc4-9252-8ea84903bad4","system_id":"levelo_inurba_marseille","lat":43.257236,"lon":5.411081,"is_reserved":false,"is_disabled":false,"rental_uris":{"android":"levelo://app?vid=03cdc9a8-cbc9-4cc4-9252-8ea84903bad4","ios":"levelo://app?vid=03cdc9a8-cbc9-4cc4-9252-8ea84903bad4"},"vehicle_type_id":"4","last_reported":1770961921,"current_range_meters":38800,"station_id":"ce4bhkp2rcd13ifvqgd0","pricing_plan_id":"cebpf4jnsgd1na2vs0mg"},{"bike_id":"54174f9a-82c6-4185-9348-2931b546c925","system_id":"levelo_inurba_marseille","lat":43.2929,"lon":5.36841,"is_reserved":false,"is_disabled":false,"rental_uris":{"android":"levelo://app?vid=54174f9a-82c6-4185-9348-2931b546c925","ios":"levelo://app?vid=54174f9a-82c6-4185-9348-2931b546c925"},"vehicle_type_id":"4","last_reported":1770961921,"current_range_meters":31200,"station_id":"ce4bhbp2rcd13ifvqesg","pricing_plan_id":"cebpf4jnsgd1na2vs0mg"},{"bike_id":"b7fcb2da-5243-440b-926b-4edc89af4b76","system_id":"levelo_inurba_marseille","lat":43.28001,"lon":5.40002,"is_reserved":false,"is_disabled":false,"rental_uris":{"android":"levelo://app?vid=b7fcb2da-5243-440b-926b-4edc89af4b76","ios":"levelo://app?vid=b7fcb2da-5243-440b-926b-4edc89af4b76"},"vehicle_type_id":"4","last_reported":1770961921,"current_range_meters":30400,"station_id":"ce4bho92rcd13ifvqh4g","pricing_plan_id":"cebpf4jnsgd1na2vs0mg"},{"bike_id":"40f3706d-b7bf-4373-93a2-4873f590c36f","system_id":"levelo_inurba_marseille","lat":43.29199,"lon":5.35806,"is_reserved":false,"is_disabled":false,"rental_uris":{"android":"levelo://app?vid=40f3706d-b7bf-4373-93a2-4873f590c36f","ios":"levelo://app?vid=40f3706d-b7bf-4373-93a2-4873f590c36f"},"vehicle_type_id":"4","last_reported":1770961921,"current_range_meters":28400,"station_id":"ce4bhb12rcd13ifvqel0","pricing_plan_id":"cebpf4jnsgd1na2vs0mg"},{"bike_id":"48d4a83c-c716-41c6-8fd3-cb0153dd2afb","system_id":"levelo_inurba_marseille","lat":43.31257,"lon":5.36851,"is_reserved":false,"is_disabled":false,"rental_uris":{"android":"levelo://app?vid=48d4a83c-c716-41c6-8fd3-cb0153dd2afb","ios":"levelo://app?vid=48d4a83c-c716-41c6-8fd3-cb0153dd2afb"},"vehicle_type_id":"4","last_reported":1770961921,"current_range_meters":33600,"station_id":"ce4bgl92rcd13ifvqbq0","pricing_plan_id":"cebpf4jnsgd1na2vs0mg"},{"bike_id":"e532d849-9da4-492c-974e-21e564fe6f6a","system_id":"levelo_inurba_marseille","lat":43.3106,"lon":5.37193,"is_reserved":false,"is_disabled":false,"rental_uris":{"android":"levelo://app?vid=e532d849-9da4-492c-974e-21e564fe6f6a","ios":"levelo://app?vid=e532d849-9da4-492c-974e-21e564fe6f6a"},"vehicle_type_id":"4","last_reported":1770961921,"current_range_meters":34800,"station_id":"st_d4kl2rp97mjs73e7tdfg","pricing_plan_id":"cebpf4jnsgd1na2vs0mg"},{"bike_id":"1abbadd6-2e69-43c8-83af-b993d8b481b8","system_id":"levelo_inurba_marseille","lat":43.29923,"lon":5.36535,"is_reserved":false,"is_disabled":false,"rental_uris":{"android":"levelo://app?vid=1abbadd6-2e69-43c8-83af-b993d8b481b8","ios":"levelo://app?vid=1abbadd6-2e69-43c8-83af-b993d8b481b8"},"vehicle_type_id":"4","last_reported":1770961921,"current_range_meters":38000,"station_id":"ce4bgm92rcd13ifvqbr0","pricing_plan_id":"cebpf4jnsgd1na2vs0mg"},{"bike_id":"991c13dc-fd9f-4b28-9c78-fd5b4127837e","system_id":"levelo_inurba_marseille","lat":43.26943,"lon":5.40246,"is_reserved":false,"is_disabled":false,"rental_uris":{"android":"levelo://app?vid=991c13dc-fd9f-4b28-9c78-fd5b4127837e","ios":"levelo://app?vid=991c13dc-fd9f-4b28-9c78-fd5b4127837e"},"vehicle_type_id":"4","last_reported":1770961921,"current_range_meters":38800,"station_id":"cjm6bp8fraef2m0cb0m0","pricing_plan_id":"cebpf4jnsgd1na2vs0mg"},{"bike_id":"603e2fd3-7aea-4ce6-b28e-1e2a09dc79f8","system_id":"levelo_inurba_marseille","lat":43.30153,"lon":5.39924,"is_reserved":false,"is_disabled":false,"rental_uris":{"android":"levelo://app?vid=603e2fd3-7aea-4ce6-b28e-1e2a09dc79f8","ios":"levelo://app?vid=603e2fd3-7aea-4ce6-b28e-1e2a09dc79f8"},"vehicle_type_id":"4","last_reported":1770961921,"current_range_meters":39200,"station_id":"ce4bh0h2rcd13ifvqd40","pricing_plan_id":"cebpf4jnsgd1na2vs0mg"},{"bike_id":"5d6b226c-0296-4bc0-9929-39689db3e4b1","system_id":"levelo_inurba_marseille","lat":43.32105,"lon":5.36765,"is_reserved":false,"is_disabled":false,"rental_uris":{"android":"levelo://app?vid=5d6b226c-0296-4bc0-9929-39689db3e4b1","ios":"levelo://app?vid=5d6b226c-0296-4bc0-9929-39689db3e4b1"},"vehicle_type_id":"4","last_reported":1770961921,"current_range_meters":22800,"station_id":"ce4bhrh2rcd13ifvqhug","pricing_plan_id":"cebpf4jnsgd1na2vs0mg"},{"bike_id":"f9036967-be2e-4b3a-b296-f81c635f7c21","system_id":"levelo_inurba_marseille","lat":43.287,"lon":5.40003,"is_reserved":false,"is_disabled":true,"rental_uris":{"android":"levelo://app?vid=f9036967-be2e-4b3a-b296-f81c635f7c21","ios":"levelo://app?vid=f9036967-be2e-4b3a-b296-f81c635f7c21"},"vehicle_type_id":"4","last_reported":1770961921,"current_range_meters":38000,"station_id":"ce4bho92rcd13ifvqh3g","pricing_plan_id":"cebpf4jnsgd1na2vs0mg"},{"bike_id":"9664a5c4-41bd-49a0-bca7-ccecab569b6a","system_id":"levelo_inurba_marseille","lat":43.32071,"lon":5.415322,"is_reserved":false,"is_disabled":false,"rental_uris":{"android":"levelo://app?vid=9664a5c4-41bd-49a0-bca7-ccecab569b6a","ios":"levelo://app?vid=9664a5c4-41bd-49a0-bca7-ccecab569b6a"},"vehicle_type_id":"4","last_reported":1770961921,"current_range_meters":38000,"station_id":"ce4bhq92rcd13ifvqhkg","pricing_plan_id":"cebpf4jnsgd1na2vs0mg"},{"bike_id":"5c8c3d05-5a98-4394-b47e-3e04535ddbbc","system_id":"levelo_inurba_marseille","lat":43.25511,"lon":5.376511,"is_reserved":false,"is_disabled":false,"rental_uris":{"android":"levelo://app?vid=5c8c3d05-5a98-4394-b47e-3e04535ddbbc","ios":"levelo://app?vid=5c8c3d05-5a98-4394-b47e-3e04535ddbbc"},"vehicle_type_id":"4","last_reported":1770961921,"current_range_meters":24400,"station_id":"ce4bhh12rcd13ifvqff0","pricing_plan_id":"cebpf4jnsgd1na2vs0mg"},{"bike_id":"5353ffdd-9960-4d0e-b5c4-72c9a34c5d8b","system_id":"levelo_inurba_marseille","lat":43.3031,"lon":5.40448,"is_reserved":false,"is_disabled":false,"rental_uris":{"android":"levelo://app?vid=5353ffdd-9960-4d0e-b5c4-72c9a34c5d8b","ios":"levelo://app?vid=5353ffdd-9960-4d0e-b5c4-72c9a34c5d8b"},"vehicle_type_id":"4","last_reported":1770961921,"current_range_meters":39200,"station_id":"ce4bh012rcd13ifvqd10","pricing_plan_id":"cebpf4jnsgd1na2vs0mg"},{"bike_id":"054dfe09-6850-42bc-929a-9e19a7bd09ca","system_id":"levelo_inurba_marseille","lat":43.31122,"lon":5.37764,"is_reserved":false,"is_disabled":false,"rental_uris":{"android":"levelo://app?vid=054dfe09-6850-42bc-929a-9e19a7bd09ca","ios":"levelo://app?vid=054dfe09-6850-42bc-929a-9e19a7bd09ca"},"vehicle_type_id":"4","last_reported":1770961921,"current_range_meters":20800,"station_id":"ce4bgt92rcd13ifvqcg0","pricing_plan_id":"cebpf4jnsgd1na2vs0mg"},{"bike_id":"1666b265-643d-41e7-bcc3-6167a6d49f91","system_id":"levelo_inurba_marseille","lat":43.22528,"lon":5.3485,"is_reserved":false,"is_disabled":false,"rental_uris":{"android":"levelo://app?vid=1666b265-643d-41e7-bcc3-6167a6d49f91","ios":"levelo://app?vid=1666b265-643d-41e7-bcc3-6167a6d49f91"},"vehicle_type_id":"4","last_reported":1770961921,"current_range_meters":6400,"station_id":"st_cvj5dfep6f1abm77gieg","pricing_plan_id":"cebpf4jnsgd1na2vs0mg"},{"bike_id":"0686c1cd-6b47-4403-9258-151597036ac0","system_id":"levelo_inurba_marseille","lat":43.30006,"lon":5.3712,"is_reserved":false,"is_disabled":false,"rental_uris":{"android":"levelo://app?vid=0686c1cd-6b47-4403-9258-151597036ac0","ios":"levelo://app?vid=0686c1cd-6b47-4403-9258-151597036ac0"},"vehicle_type_id":"4","last_reported":1770961921,"current_range_meters":26000,"station_id":"","pricing_plan_id":"cebpf4jnsgd1na2vs0mg"},{"bike_id":"0cef8616-1d65-4182-99dc-824443a67ce0","system_id":"levelo_inurba_marseille","lat":43.24473,"lon":5.42547,"is_reserved":false,"is_disabled":false,"rental_uris":{"android":"levelo://app?vid=0cef8616-1d65-4182-99dc-824443a67ce0","ios":"levelo://app?vid=0cef8616-1d65-4182-99dc-824443a67ce0"},"vehicle_type_id":"4","last_reported":1770961921,"current_range_meters":10000,"station_id":"st_d4a3vfp97mjs738cd8kg","pricing_plan_id":"cebpf4jnsgd1na2vs0mg"},{"bike_id":"5f12005e-04e5-44aa-9036-56a982f265e1","system_id":"levelo_inurba_marseille","lat":43.292193,"lon":5.360505,"is_reserved":false,"is_disabled":false,"rental_uris":{"android":"levelo://app?vid=5f12005e-04e5-44aa-9036-56a982f265e1","ios":"levelo://app?vid=5f12005e-04e5-44aa-9036-56a982f265e1"},"vehicle_type_id":"4","last_reported":1770961921,"current_range_meters":34800,"station_id":"ce4bhbh2rcd13ifvqeqg","pricing_plan_id":"cebpf4jnsgd1na2vs0mg"},{"bike_id":"9eaba793-1048-4356-b61b-744ee2b1ebbc","system_id":"levelo_inurba_marseille","lat":43.29204,"lon":5.36052,"is_reserved":false,"is_disabled":false,"rental_uris":{"android":"levelo://app?vid=9eaba793-1048-4356-b61b-744ee2b1ebbc","ios":"levelo://app?vid=9eaba793-1048-4356-b61b-744ee2b1ebbc"},"vehicle_type_id":"4","last_reported":1770961921,"current_range_meters":35200,"station_id":"ce4bhbh2rcd13ifvqeqg","pricing_plan_id":"cebpf4jnsgd1na2vs0mg"},{"bike_id":"6684f561-c8e5-447e-b2b4-87fceaf4640b","system_id":"levelo_inurba_marseille","lat":43.265685,"lon":5.390237,"is_reserved":false,"is_disabled":false,"rental_uris":{"android":"levelo://app?vid=6684f561-c8e5-447e-b2b4-87fceaf4640b","ios":"levelo://app?vid=6684f561-c8e5-447e-b2b4-87fceaf4640b"},"vehicle_type_id":"4","last_reported":1770961921,"current_range_meters":22000,"station_id":"ce4bhe12rcd13ifvqf30","pricing_plan_id":"cebpf4jnsgd1na2vs0mg"},{"bike_id":"05e02630-2abe-4591-ba0b-2fbc6348cd43","system_id":"levelo_inurba_marseille","lat":43.2835,"lon":5.38127,"is_reserved":false,"is_disabled":false,"rental_uris":{"android":"levelo://app?vid=05e02630-2abe-4591-ba0b-2fbc6348cd43","ios":"levelo://app?vid=05e02630-2abe-4591-ba0b-2fbc6348cd43"},"vehicle_type_id":"4","last_reported":1770961921,"current_range_meters":39200,"station_id":"ce4bh412rcd13ifvqdr0","pricing_plan_id":"cebpf4jnsgd1na2vs0mg"},{"bike_id":"705379f0-9f22-461e-8900-3556f13ec82c","system_id":"levelo_inurba_marseille","lat":43.31719,"lon":5.37755,"is_reserved":false,"is_disabled":false,"rental_uris":{"android":"levelo://app?vid=705379f0-9f22-461e-8900-3556f13ec82c","ios":"levelo://app?vid=705379f0-9f22-461e-8900-3556f13ec82c"},"vehicle_type_id":"4","last_reported":1770961921,"current_range_meters":36000,"station_id":"ce4bgth2rcd13ifvqch0","pricing_plan_id":"cebpf4jnsgd1na2vs0mg"},{"bike_id":"0956e1fc-144a-4d60-ae46-5e1a303cb93e","system_id":"levelo_inurba_marseille","lat":43.29025,"lon":5.40013,"is_reserved":false,"is_disabled":true,"rental_uris":{"android":"levelo://app?vid=0956e1fc-144a-4d60-ae46-5e1a303cb93e","ios":"levelo://app?vid=0956e1fc-144a-4d60-ae46-5e1a303cb93e"},"vehicle_type_id":"4","last_reported":1770961921,"current_range_meters":0,"station_id":"ce4bh392rcd13ifvqdm0","pricing_plan_id":"cebpf4jnsgd1na2vs0mg"},{"bike_id":"bcad26e7-801b-45a3-9a6f-b11851106eac","system_id":"levelo_inurba_marseille","lat":43.2859,"lon":5.38332,"is_reserved":false,"is_disabled":false,"rental_uris":{"android":"levelo://app?vid=bcad26e7-801b-45a3-9a6f-b11851106eac","ios":"levelo://app?vid=bcad26e7-801b-45a3-9a6f-b11851106eac"},"vehicle_type_id":"4","last_reported":1770961921,"current_range_meters":9200,"station_id":"","pricing_plan_id":"cebpf4jnsgd1na2vs0mg"},{"bike_id":"35e4b27f-bf66-4c05-b34c-6458f1faa95d","system_id":"levelo_inurba_marseille","lat":43.24633,"lon":5.43148,"is_reserved":false,"is_disabled":false,"rental_uris":{"android":"levelo://app?vid=35e4b27f-bf66-4c05-b34c-6458f1faa95d","ios":"levelo://app?vid=35e4b27f-bf66-4c05-b34c-6458f1faa95d"},"vehicle_type_id":"4","last_reported":1770961921,"current_range_meters":27200,"station_id":"st_d2m6c4gdas8pm72e190g","pricing_plan_id":"cebpf4jnsgd1na2vs0mg"},{"bike_id":"6068ab39-5054-4c82-bfb6-3a4eef3bba44","system_id":"levelo_inurba_marseille","lat":43.231446,"lon":5.437242,"is_reserved":false,"is_disabled":false,"rental_uris":{"android":"levelo://app?vid=6068ab39-5054-4c82-bfb6-3a4eef3bba44","ios":"levelo://app?vid=6068ab39-5054-4c82-bfb6-3a4eef3bba44"},"vehicle_type_id":"4","last_reported":1770961921,"current_range_meters":24000,"station_id":"ce4bhmp2rcd13ifvqgog","pricing_plan_id":"cebpf4jnsgd1na2vs0mg"},{"bike_id":"9608066a-cdb2-49b3-a28b-2cea2519cf49","system_id":"levelo_inurba_marseille","lat":43.305391,"lon":5.365376,"is_reserved":false,"is_disabled":false,"rental_uris":{"android":"levelo://app?vid=9608066a-cdb2-49b3-a28b-2cea2519cf49","ios":"levelo://app?vid=9608066a-cdb2-49b3-a28b-2cea2519cf49"},"vehicle_type_id":"4","last_reported":1770961921,"current_range_meters":38000,"station_id":"","pricing_plan_id":"cebpf4jnsgd1na2vs0mg"},{"bike_id":"7add6c40-4260-44ba-be97-0842098e9c4e","system_id":"levelo_inurba_marseille","lat":43.24709,"lon":5.38168,"is_reserved":false,"is_disabled":false,"rental_uris":{"android":"levelo://app?vid=7add6c40-4260-44ba-be97-0842098e9c4e","ios":"levelo://app?vid=7add6c40-4260-44ba-be97-0842098e9c4e"},"vehicle_type_id":"4","last_reported":1770961921,"current_range_meters":36800,"station_id":"","pricing_plan_id":"cebpf4jnsgd1na2vs0mg"},{"bike_id":"bb22b417-2211-49a2-8f12-7d2df92428b1","system_id":"levelo_inurba_marseille","lat":43.311797,"lon":5.38706,"is_reserved":false,"is_disabled":false,"rental_uris":{"android":"levelo://app?vid=bb22b417-2211-49a2-8f12-7d2df92428b1","ios":"levelo://app?vid=bb22b417-2211-49a2-8f12-7d2df92428b1"},"vehicle_type_id":"4","last_reported":1770961921,"current_range_meters":38400,"station_id":"ce4bgv12rcd13ifvqcp0","pricing_plan_id":"cebpf4jnsgd1na2vs0mg"},{"bike_id":"65692a0b-6fff-4898-810f-59e1ffae1d1d","system_id":"levelo_inurba_marseille","lat":43.28449,"lon":5.35898,"is_reserved":false,"is_disabled":false,"rental_uris":{"android":"levelo://app?vid=65692a0b-6fff-4898-810f-59e1ffae1d1d","ios":"levelo://app?vid=65692a0b-6fff-4898-810f-59e1ffae1d1d"},"vehicle_type_id":"4","last_reported":1770961921,"current_range_meters":38800,"station_id":"ce4bhah2rcd13ifvqei0","pricing_plan_id":"cebpf4jnsgd1na2vs0mg"},{"bike_id":"89897b2f-390b-4435-8a27-ee6fe48891c5","system_id":"levelo_inurba_marseille","lat":43.2979,"lon":5.3935,"is_reserved":false,"is_disabled":false,"rental_uris":{"android":"levelo://app?vid=89897b2f-390b-4435-8a27-ee6fe48891c5","ios":"levelo://app?vid=89897b2f-390b-4435-8a27-ee6fe48891c5"},"vehicle_type_id":"4","last_reported":1770961921,"current_range_meters":38800,"station_id":"chh1huq6cuj3fo74tm60","pricing_plan_id":"cebpf4jnsgd1na2vs0mg"},{"bike_id":"b59d9f9b-fec0-4bfc-9f83-31c8ed5f5ebd","system_id":"levelo_inurba_marseille","lat":43.28101,"lon":5.37844,"is_reserved":false,"is_disabled":false,"rental_uris":{"android":"levelo://app?vid=b59d9f9b-fec0-4bfc-9f83-31c8ed5f5ebd","ios":"levelo://app?vid=b59d9f9b-fec0-4bfc-9f83-31c8ed5f5ebd"},"vehicle_type_id":"4","last_reported":1770961921,"current_range_meters":36400,"station_id":"ce4bha12rcd13ifvqee0","pricing_plan_id":"cebpf4jnsgd1na2vs0mg"},{"bike_id":"a18aa286-269e-4963-b039-81f99ce774de","system_id":"levelo_inurba_marseille","lat":43.288715,"lon":5.358376,"is_reserved":false,"is_disabled":false,"rental_uris":{"android":"levelo://app?vid=a18aa286-269e-4963-b039-81f99ce774de","ios":"levelo://app?vid=a18aa286-269e-4963-b039-81f99ce774de"},"vehicle_type_id":"4","last_reported":1770961921,"current_range_meters":8800,"station_id":"ce4bhb12rcd13ifvqem0","pricing_plan_id":"cebpf4jnsgd1na2vs0mg"},{"bike_id":"2707734e-33a5-4bb7-9e75-871e3e06a9a7","system_id":"levelo_inurba_marseille","lat":43.2901,"lon":5.35627,"is_reserved":false,"is_disabled":false,"rental_uris":{"android":"levelo://app?vid=2707734e-33a5-4bb7-9e75-871e3e06a9a7","ios":"levelo://app?vid=2707734e-33a5-4bb7-9e75-871e3e06a9a7"},"vehicle_type_id":"4","last_reported":1770961921,"current_range_meters":11200,"station_id":"ce4bhb92rcd13ifvqen0","pricing_plan_id":"cebpf4jnsgd1na2vs0mg"},{"bike_id":"ac0b6a02-f142-481f-ae2c-756fa64d98fa","system_id":"levelo_inurba_marseille","lat":43.2995,"lon":5.36511,"is_reserved":false,"is_disabled":false,"rental_uris":{"android":"levelo://app?vid=ac0b6a02-f142-481f-ae2c-756fa64d98fa","ios":"levelo://app?vid=ac0b6a02-f142-481f-ae2c-756fa64d98fa"},"vehicle_type_id":"4","last_reported":1770961921,"current_range_meters":27200,"station_id":"ce4bgm92rcd13ifvqbr0","pricing_plan_id":"cebpf4jnsgd1na2vs0mg"},{"bike_id":"1b166688-417c-495d-82c5-e7b7d7f6c39a","system_id":"levelo_inurba_marseille","lat":43.29725,"lon":5.36636,"is_reserved":false,"is_disabled":false,"rental_uris":{"android":"levelo://app?vid=1b166688-417c-495d-82c5-e7b7d7f6c39a","ios":"levelo://app?vid=1b166688-417c-495d-82c5-e7b7d7f6c39a"},"vehicle_type_id":"4","last_reported":1770961921,"current_range_meters":27200,"station_id":"ce4bgn12rcd13ifvqbt0","pricing_plan_id":"cebpf4jnsgd1na2vs0mg"},{"bike_id":"01e3a05a-3083-4175-91c1-2026bf669a88","system_id":"levelo_inurba_marseille","lat":43.28439,"lon":5.37594,"is_reserved":false,"is_disabled":true,"rental_uris":{"android":"levelo://app?vid=01e3a05a-3083-4175-91c1-2026bf669a88","ios":"levelo://app?vid=01e3a05a-3083-4175-91c1-2026bf669a88"},"vehicle_type_id":"4","last_reported":1770961921,"current_range_meters":16800,"station_id":"ce4bh412rcd13ifvqds0","pricing_plan_id":"cebpf4jnsgd1na2vs0mg"},{"bike_id":"6a77d0ea-d435-4de7-9919-85676c5866e3","system_id":"levelo_inurba_marseille","lat":43.29983,"lon":5.37161,"is_reserved":false,"is_disabled":false,"rental_uris":{"android":"levelo://app?vid=6a77d0ea-d435-4de7-9919-85676c5866e3","ios":"levelo://app?vid=6a77d0ea-d435-4de7-9919-85676c5866e3"},"vehicle_type_id":"4","last_reported":1770961921,"current_range_meters":37600,"station_id":"ce4bgr92rcd13ifvqc7g","pricing_plan_id":"cebpf4jnsgd1na2vs0mg"},{"bike_id":"8e2a6bdd-3868-4795-80f0-6045872e16c6","system_id":"levelo_inurba_marseille","lat":43.24679,"lon":5.38179,"is_reserved":false,"is_disabled":false,"rental_uris":{"android":"levelo://app?vid=8e2a6bdd-3868-4795-80f0-6045872e16c6","ios":"levelo://app?vid=8e2a6bdd-3868-4795-80f0-6045872e16c6"},"vehicle_type_id":"4","last_reported":1770961921,"current_range_meters":28000,"station_id":"ce4bhih2rcd13ifvqfr0","pricing_plan_id":"cebpf4jnsgd1na2vs0mg"},{"bike_id":"cae3340b-dabf-42ee-b29f-fab64d3e6b2c","system_id":"levelo_inurba_marseille","lat":43.240906,"lon":5.377439,"is_reserved":false,"is_disabled":false,"rental_uris":{"android":"levelo://app?vid=cae3340b-dabf-42ee-b29f-fab64d3e6b2c","ios":"levelo://app?vid=cae3340b-dabf-42ee-b29f-fab64d3e6b2c"},"vehicle_type_id":"4","last_reported":1770961921,"current_range_meters":8400,"station_id":"ce4bhnp2rcd13ifvqgvg","pricing_plan_id":"cebpf4jnsgd1na2vs0mg"},{"bike_id":"c0705002-253b-4e3a-9a9f-bf195343afde","system_id":"levelo_inurba_marseille","lat":43.28113,"lon":5.37855,"is_reserved":false,"is_disabled":true,"rental_uris":{"android":"levelo://app?vid=c0705002-253b-4e3a-9a9f-bf195343afde","ios":"levelo://app?vid=c0705002-253b-4e3a-9a9f-bf195343afde"},"vehicle_type_id":"4","last_reported":1770961921,"current_range_meters":2000,"station_id":"ce4bha12rcd13ifvqee0","pricing_plan_id":"cebpf4jnsgd1na2vs0mg"},{"bike_id":"01adf697-a0b1-4672-92f7-51b13b766b4e","system_id":"levelo_inurba_marseille","lat":43.27041,"lon":5.402664,"is_reserved":false,"is_disabled":true,"rental_uris":{"android":"levelo://app?vid=01adf697-a0b1-4672-92f7-51b13b766b4e","ios":"levelo://app?vid=01adf697-a0b1-4672-92f7-51b13b766b4e"},"vehicle_type_id":"4","last_reported":1770961921,"current_range_meters":30800,"station_id":"ce4bhk92rcd13ifvqgc0","pricing_plan_id":"cebpf4jnsgd1na2vs0mg"},{"bike_id":"70adca96-bb6c-4152-966a-66ff8ce4576a","system_id":"levelo_inurba_marseille","lat":43.26573,"lon":5.39455,"is_reserved":false,"is_disabled":false,"rental_uris":{"android":"levelo://app?vid=70adca96-bb6c-4152-966a-66ff8ce4576a","ios":"levelo://app?vid=70adca96-bb6c-4152-966a-66ff8ce4576a"},"vehicle_type_id":"4","last_reported":1770961921,"current_range_meters":35600,"station_id":"","pricing_plan_id":"cebpf4jnsgd1na2vs0mg"},{"bike_id":"60815d74-cf24-4748-be74-0881db2c8042","system_id":"levelo_inurba_marseille","lat":43.320084,"lon":5.381391,"is_reserved":false,"is_disabled":false,"rental_uris":{"android":"levelo://app?vid=60815d74-cf24-4748-be74-0881db2c8042","ios":"levelo://app?vid=60815d74-cf24-4748-be74-0881db2c8042"},"vehicle_type_id":"4","last_reported":1770961921,"current_range_meters":24400,"station_id":"","pricing_plan_id":"cebpf4jnsgd1na2vs0mg"},{"bike_id":"e2cd456a-7b24-41a8-9c55-b22191217c47","system_id":"levelo_inurba_marseille","lat":43.29715,"lon":5.366119,"is_reserved":false,"is_disabled":false,"rental_uris":{"android":"levelo://app?vid=e2cd456a-7b24-41a8-9c55-b22191217c47","ios":"levelo://app?vid=e2cd456a-7b24-41a8-9c55-b22191217c47"},"vehicle_type_id":"4","last_reported":1770961921,"current_range_meters":6000,"station_id":"ce4bgn12rcd13ifvqbt0","pricing_plan_id":"cebpf4jnsgd1na2vs0mg"},{"bike_id":"451234f1-1684-4d00-8320-1607318757d2","system_id":"levelo_inurba_marseille","lat":43.331547,"lon":5.376918,"is_reserved":false,"is_disabled":false,"rental_uris":{"android":"levelo://app?vid=451234f1-1684-4d00-8320-1607318757d2","ios":"levelo://app?vid=451234f1-1684-4d00-8320-1607318757d2"},"vehicle_type_id":"4","last_reported":1770961921,"current_range_meters":17600,"station_id":"st_d46cu089ee8s73dldbu0","pricing_plan_id":"cebpf4jnsgd1na2vs0mg"},{"bike_id":"f4388598-0fe9-4895-90f2-b32d9b275360","system_id":"levelo_inurba_marseille","lat":43.30103,"lon":5.390809,"is_reserved":false,"is_disabled":false,"rental_uris":{"android":"levelo://app?vid=f4388598-0fe9-4895-90f2-b32d9b275360","ios":"levelo://app?vid=f4388598-0fe9-4895-90f2-b32d9b275360"},"vehicle_type_id":"4","last_reported":1770961921,"current_range_meters":8400,"station_id":"ce4bh192rcd13ifvqdb0","pricing_plan_id":"cebpf4jnsgd1na2vs0mg"},{"bike_id":"917d9683-a902-48d9-9f0b-4231358e812e","system_id":"levelo_inurba_marseille","lat":43.335385,"lon":5.374645,"is_reserved":false,"is_disabled":false,"rental_uris":{"android":"levelo://app?vid=917d9683-a902-48d9-9f0b-4231358e812e","ios":"levelo://app?vid=917d9683-a902-48d9-9f0b-4231358e812e"},"vehicle_type_id":"4","last_reported":1770961921,"current_range_meters":20400,"station_id":"st_d46tts09ee8s73dlu43g","pricing_plan_id":"cebpf4jnsgd1na2vs0mg"},{"bike_id":"35acab90-84ba-4560-801f-445890a09ed0","system_id":"levelo_inurba_marseille","lat":43.24986,"lon":5.38934,"is_reserved":false,"is_disabled":false,"rental_uris":{"android":"levelo://app?vid=35acab90-84ba-4560-801f-445890a09ed0","ios":"levelo://app?vid=35acab90-84ba-4560-801f-445890a09ed0"},"vehicle_type_id":"4","last_reported":1770961921,"current_range_meters":39200,"station_id":"ce4bhgp2rcd13ifvqfd0","pricing_plan_id":"cebpf4jnsgd1na2vs0mg"},{"bike_id":"6e09a5ce-1df5-4c34-80f5-a3db09bca322","system_id":"levelo_inurba_marseille","lat":43.300976,"lon":5.390925,"is_reserved":false,"is_disabled":false,"rental_uris":{"android":"levelo://app?vid=6e09a5ce-1df5-4c34-80f5-a3db09bca322","ios":"levelo://app?vid=6e09a5ce-1df5-4c34-80f5-a3db09bca322"},"vehicle_type_id":"4","last_reported":1770961921,"current_range_meters":23200,"station_id":"ce4bh192rcd13ifvqdb0","pricing_plan_id":"cebpf4jnsgd1na2vs0mg"},{"bike_id":"926eeb80-8d6b-46b8-8031-175f7acbffd0","system_id":"levelo_inurba_marseille","lat":43.322813,"lon":5.382679,"is_reserved":false,"is_disabled":false,"rental_uris":{"android":"levelo://app?vid=926eeb80-8d6b-46b8-8031-175f7acbffd0","ios":"levelo://app?vid=926eeb80-8d6b-46b8-8031-175f7acbffd0"},"vehicle_type_id":"4","last_reported":1770961921,"current_range_meters":38800,"station_id":"ce4bhr12rcd13ifvqhqg","pricing_plan_id":"cebpf4jnsgd1na2vs0mg"},{"bike_id":"fad4d1f7-83ba-4bdb-8065-06476e250127","system_id":"levelo_inurba_marseille","lat":43.28941,"lon":5.36396,"is_reserved":false,"is_disabled":false,"rental_uris":{"android":"levelo://app?vid=fad4d1f7-83ba-4bdb-8065-06476e250127","ios":"levelo://app?vid=fad4d1f7-83ba-4bdb-8065-06476e250127"},"vehicle_type_id":"4","last_reported":1770961921,"current_range_meters":38800,"station_id":"ce4bhc92rcd13ifvqetg","pricing_plan_id":"cebpf4jnsgd1na2vs0mg"},{"bike_id":"ae51de62-5f74-41bb-a9ae-ad08fb6bc18e","system_id":"levelo_inurba_marseille","lat":43.25936,"lon":5.40905,"is_reserved":false,"is_disabled":false,"rental_uris":{"android":"levelo://app?vid=ae51de62-5f74-41bb-a9ae-ad08fb6bc18e","ios":"levelo://app?vid=ae51de62-5f74-41bb-a9ae-ad08fb6bc18e"},"vehicle_type_id":"4","last_reported":1770961921,"current_range_meters":24000,"station_id":"ce4bhm92rcd13ifvqglg","pricing_plan_id":"cebpf4jnsgd1na2vs0mg"},{"bike_id":"eb153995-5d33-4b1d-a5c0-ee8cc4302ea8","system_id":"levelo_inurba_marseille","lat":43.2655,"lon":5.39018,"is_reserved":false,"is_disabled":false,"rental_uris":{"android":"levelo://app?vid=eb153995-5d33-4b1d-a5c0-ee8cc4302ea8","ios":"levelo://app?vid=eb153995-5d33-4b1d-a5c0-ee8cc4302ea8"},"vehicle_type_id":"4","last_reported":1770961921,"current_range_meters":2800,"station_id":"ce4bhe12rcd13ifvqf30","pricing_plan_id":"cebpf4jnsgd1na2vs0mg"},{"bike_id":"d70814e4-d968-4b8e-817b-88544a1bc9d1","system_id":"levelo_inurba_marseille","lat":43.250034,"lon":5.389264,"is_reserved":false,"is_disabled":false,"rental_uris":{"android":"levelo://app?vid=d70814e4-d968-4b8e-817b-88544a1bc9d1","ios":"levelo://app?vid=d70814e4-d968-4b8e-817b-88544a1bc9d1"},"vehicle_type_id":"4","last_reported":1770961921,"current_range_meters":39200,"station_id":"ce4bhgp2rcd13ifvqfd0","pricing_plan_id":"cebpf4jnsgd1na2vs0mg"},{"bike_id":"6f0148b8-f53f-49a4-a9cc-467182e29110","system_id":"levelo_inurba_marseille","lat":43.24674,"lon":5.3813,"is_reserved":false,"is_disabled":false,"rental_uris":{"android":"levelo://app?vid=6f0148b8-f53f-49a4-a9cc-467182e29110","ios":"levelo://app?vid=6f0148b8-f53f-49a4-a9cc-467182e29110"},"vehicle_type_id":"4","last_reported":1770961921,"current_range_meters":39200,"station_id":"ce4bhih2rcd13ifvqfr0","pricing_plan_id":"cebpf4jnsgd1na2vs0mg"},{"bike_id":"ae5b5494-76f1-4d54-9e14-d5637e617585","system_id":"levelo_inurba_marseille","lat":43.28344,"lon":5.38106,"is_reserved":false,"is_disabled":false,"rental_uris":{"android":"levelo://app?vid=ae5b5494-76f1-4d54-9e14-d5637e617585","ios":"levelo://app?vid=ae5b5494-76f1-4d54-9e14-d5637e617585"},"vehicle_type_id":"4","last_reported":1770961921,"current_range_meters":37600,"station_id":"ce4bh412rcd13ifvqdr0","pricing_plan_id":"cebpf4jnsgd1na2vs0mg"},{"bike_id":"45ef4cb1-1a7b-4aba-b84c-4d3de631715f","system_id":"levelo_inurba_marseille","lat":43.301393,"lon":5.38567,"is_reserved":false,"is_disabled":false,"rental_uris":{"android":"levelo://app?vid=45ef4cb1-1a7b-4aba-b84c-4d3de631715f","ios":"levelo://app?vid=45ef4cb1-1a7b-4aba-b84c-4d3de631715f"},"vehicle_type_id":"4","last_reported":1770961921,"current_range_meters":29600,"station_id":"","pricing_plan_id":"cebpf4jnsgd1na2vs0mg"},{"bike_id":"c02ef371-4425-4fa5-a74b-6b52b60b9c45","system_id":"levelo_inurba_marseille","lat":43.31117,"lon":5.37773,"is_reserved":false,"is_disabled":false,"rental_uris":{"android":"levelo://app?vid=c02ef371-4425-4fa5-a74b-6b52b60b9c45","ios":"levelo://app?vid=c02ef371-4425-4fa5-a74b-6b52b60b9c45"},"vehicle_type_id":"4","last_reported":1770961921,"current_range_meters":36000,"station_id":"ce4bgt92rcd13ifvqcg0","pricing_plan_id":"cebpf4jnsgd1na2vs0mg"},{"bike_id":"e85900b6-be3c-455e-bed5-93376dfddf1a","system_id":"levelo_inurba_marseille","lat":43.297146,"lon":5.365823,"is_reserved":false,"is_disabled":false,"rental_uris":{"android":"levelo://app?vid=e85900b6-be3c-455e-bed5-93376dfddf1a","ios":"levelo://app?vid=e85900b6-be3c-455e-bed5-93376dfddf1a"},"vehicle_type_id":"4","last_reported":1770961921,"current_range_meters":37600,"station_id":"ce4bgn12rcd13ifvqbt0","pricing_plan_id":"cebpf4jnsgd1na2vs0mg"},{"bike_id":"da0e2d24-584f-41fd-a38b-655c395c13a2","system_id":"levelo_inurba_marseille","lat":43.30224,"lon":5.4009,"is_reserved":false,"is_disabled":false,"rental_uris":{"android":"levelo://app?vid=da0e2d24-584f-41fd-a38b-655c395c13a2","ios":"levelo://app?vid=da0e2d24-584f-41fd-a38b-655c395c13a2"},"vehicle_type_id":"4","last_reported":1770961921,"current_range_meters":13600,"station_id":"ce4bgvh2rcd13ifvqcs0","pricing_plan_id":"cebpf4jnsgd1na2vs0mg"},{"bike_id":"301746f6-125c-4bdf-bbf9-cba390153d9c","system_id":"levelo_inurba_marseille","lat":43.28704,"lon":5.37383,"is_reserved":false,"is_disabled":false,"rental_uris":{"android":"levelo://app?vid=301746f6-125c-4bdf-bbf9-cba390153d9c","ios":"levelo://app?vid=301746f6-125c-4bdf-bbf9-cba390153d9c"},"vehicle_type_id":"4","last_reported":1770961921,"current_range_meters":35200,"station_id":"ce4bh3p2rcd13ifvqdq0","pricing_plan_id":"cebpf4jnsgd1na2vs0mg"},{"bike_id":"2646436a-3916-4749-b0c4-4e2a11063978","system_id":"levelo_inurba_marseille","lat":43.29737,"lon":5.37705,"is_reserved":false,"is_disabled":true,"rental_uris":{"android":"levelo://app?vid=2646436a-3916-4749-b0c4-4e2a11063978","ios":"levelo://app?vid=2646436a-3916-4749-b0c4-4e2a11063978"},"vehicle_type_id":"4","last_reported":1770961921,"current_range_meters":39200,"station_id":"ce4bgkh2rcd13ifvqbl0","pricing_plan_id":"cebpf4jnsgd1na2vs0mg"},{"bike_id":"d6513438-5bdb-499c-85d0-a58f2a8cda31","system_id":"levelo_inurba_marseille","lat":43.249606,"lon":5.404881,"is_reserved":false,"is_disabled":false,"rental_uris":{"android":"levelo://app?vid=d6513438-5bdb-499c-85d0-a58f2a8cda31","ios":"levelo://app?vid=d6513438-5bdb-499c-85d0-a58f2a8cda31"},"vehicle_type_id":"4","last_reported":1770961921,"current_range_meters":24000,"station_id":"st_d2ngiaodas8pm72gd1h0","pricing_plan_id":"cebpf4jnsgd1na2vs0mg"},{"bike_id":"ff892a04-ae98-4fdf-81ac-3050c7d2c38a","system_id":"levelo_inurba_marseille","lat":43.26575,"lon":5.39057,"is_reserved":false,"is_disabled":false,"rental_uris":{"android":"levelo://app?vid=ff892a04-ae98-4fdf-81ac-3050c7d2c38a","ios":"levelo://app?vid=ff892a04-ae98-4fdf-81ac-3050c7d2c38a"},"vehicle_type_id":"4","last_reported":1770961921,"current_range_meters":3600,"station_id":"ce4bhe12rcd13ifvqf30","pricing_plan_id":"cebpf4jnsgd1na2vs0mg"},{"bike_id":"8d6a5e90-b09f-4cf7-a432-f2daefeda48b","system_id":"levelo_inurba_marseille","lat":43.29685,"lon":5.37301,"is_reserved":false,"is_disabled":false,"rental_uris":{"android":"levelo://app?vid=8d6a5e90-b09f-4cf7-a432-f2daefeda48b","ios":"levelo://app?vid=8d6a5e90-b09f-4cf7-a432-f2daefeda48b"},"vehicle_type_id":"4","last_reported":1770961921,"current_range_meters":38400,"station_id":"ce4bgk12rcd13ifvqbj0","pricing_plan_id":"cebpf4jnsgd1na2vs0mg"},{"bike_id":"3952ba36-15fe-4b7d-adae-45bc351b598d","system_id":"levelo_inurba_marseille","lat":43.26789,"lon":5.39413,"is_reserved":false,"is_disabled":false,"rental_uris":{"android":"levelo://app?vid=3952ba36-15fe-4b7d-adae-45bc351b598d","ios":"levelo://app?vid=3952ba36-15fe-4b7d-adae-45bc351b598d"},"vehicle_type_id":"4","last_reported":1770961921,"current_range_meters":38400,"station_id":"ce4bhh12rcd13ifvqfg0","pricing_plan_id":"cebpf4jnsgd1na2vs0mg"},{"bike_id":"4e8e0241-acb1-4e10-a2b7-feb0952472c9","system_id":"levelo_inurba_marseille","lat":43.316928,"lon":5.404664,"is_reserved":false,"is_disabled":false,"rental_uris":{"android":"levelo://app?vid=4e8e0241-acb1-4e10-a2b7-feb0952472c9","ios":"levelo://app?vid=4e8e0241-acb1-4e10-a2b7-feb0952472c9"},"vehicle_type_id":"4","last_reported":1770961921,"current_range_meters":34800,"station_id":"ce4bh012rcd13ifvqd00","pricing_plan_id":"cebpf4jnsgd1na2vs0mg"},{"bike_id":"5e2d1c41-5354-4bec-a50b-be4af81b7536","system_id":"levelo_inurba_marseille","lat":43.31334,"lon":5.39686,"is_reserved":false,"is_disabled":false,"rental_uris":{"android":"levelo://app?vid=5e2d1c41-5354-4bec-a50b-be4af81b7536","ios":"levelo://app?vid=5e2d1c41-5354-4bec-a50b-be4af81b7536"},"vehicle_type_id":"4","last_reported":1770961921,"current_range_meters":19600,"station_id":"ce4bgvp2rcd13ifvqcu0","pricing_plan_id":"cebpf4jnsgd1na2vs0mg"},{"bike_id":"a677308b-2ed1-419e-910c-6b11ded7bc88","system_id":"levelo_inurba_marseille","lat":43.30111,"lon":5.3985,"is_reserved":false,"is_disabled":false,"rental_uris":{"android":"levelo://app?vid=a677308b-2ed1-419e-910c-6b11ded7bc88","ios":"levelo://app?vid=a677308b-2ed1-419e-910c-6b11ded7bc88"},"vehicle_type_id":"4","last_reported":1770961921,"current_range_meters":37600,"station_id":"ce4bh0h2rcd13ifvqd40","pricing_plan_id":"cebpf4jnsgd1na2vs0mg"},{"bike_id":"28aca305-7f7d-4b12-a0ae-cfabbf96c8f2","system_id":"levelo_inurba_marseille","lat":43.246646,"lon":5.381555,"is_reserved":false,"is_disabled":false,"rental_uris":{"android":"levelo://app?vid=28aca305-7f7d-4b12-a0ae-cfabbf96c8f2","ios":"levelo://app?vid=28aca305-7f7d-4b12-a0ae-cfabbf96c8f2"},"vehicle_type_id":"4","last_reported":1770961921,"current_range_meters":8400,"station_id":"ce4bhih2rcd13ifvqfr0","pricing_plan_id":"cebpf4jnsgd1na2vs0mg"},{"bike_id":"014613de-69aa-4aca-9291-67750cce2e69","system_id":"levelo_inurba_marseille","lat":43.284725,"lon":5.484001,"is_reserved":false,"is_disabled":false,"rental_uris":{"android":"levelo://app?vid=014613de-69aa-4aca-9291-67750cce2e69","ios":"levelo://app?vid=014613de-69aa-4aca-9291-67750cce2e69"},"vehicle_type_id":"4","last_reported":1770961921,"current_range_meters":8400,"station_id":"","pricing_plan_id":"cebpf4jnsgd1na2vs0mg"},{"bike_id":"ceafdd97-9709-4666-acdc-c6b8a34aace5","system_id":"levelo_inurba_marseille","lat":43.27186,"lon":5.40999,"is_reserved":false,"is_disabled":true,"rental_uris":{"android":"levelo://app?vid=ceafdd97-9709-4666-acdc-c6b8a34aace5","ios":"levelo://app?vid=ceafdd97-9709-4666-acdc-c6b8a34aace5"},"vehicle_type_id":"4","last_reported":1770961921,"current_range_meters":8800,"station_id":"ce4bhl12rcd13ifvqgf0","pricing_plan_id":"cebpf4jnsgd1na2vs0mg"},{"bike_id":"24f72b2d-f1d0-4464-9d8f-a4324cf4920c","system_id":"levelo_inurba_marseille","lat":43.29919,"lon":5.39745,"is_reserved":false,"is_disabled":false,"rental_uris":{"android":"levelo://app?vid=24f72b2d-f1d0-4464-9d8f-a4324cf4920c","ios":"levelo://app?vid=24f72b2d-f1d0-4464-9d8f-a4324cf4920c"},"vehicle_type_id":"4","last_reported":1770961921,"current_range_meters":34000,"station_id":"","pricing_plan_id":"cebpf4jnsgd1na2vs0mg"},{"bike_id":"9ed7300e-a4d4-493c-95a2-a0b857cf6348","system_id":"levelo_inurba_marseille","lat":43.22552,"lon":5.41629,"is_reserved":false,"is_disabled":false,"rental_uris":{"android":"levelo://app?vid=9ed7300e-a4d4-493c-95a2-a0b857cf6348","ios":"levelo://app?vid=9ed7300e-a4d4-493c-95a2-a0b857cf6348"},"vehicle_type_id":"4","last_reported":1770961921,"current_range_meters":24800,"station_id":"st_d2o4gvlbi1j2169b742g","pricing_plan_id":"cebpf4jnsgd1na2vs0mg"},{"bike_id":"ce7f455d-43e5-4e79-a273-d77ed686dc20","system_id":"levelo_inurba_marseille","lat":43.29793,"lon":5.39344,"is_reserved":false,"is_disabled":false,"rental_uris":{"android":"levelo://app?vid=ce7f455d-43e5-4e79-a273-d77ed686dc20","ios":"levelo://app?vid=ce7f455d-43e5-4e79-a273-d77ed686dc20"},"vehicle_type_id":"4","last_reported":1770961921,"current_range_meters":38800,"station_id":"chh1huq6cuj3fo74tm60","pricing_plan_id":"cebpf4jnsgd1na2vs0mg"},{"bike_id":"603ec718-9201-43e0-8396-ece58cf1c462","system_id":"levelo_inurba_marseille","lat":43.29763,"lon":5.42784,"is_reserved":false,"is_disabled":false,"rental_uris":{"android":"levelo://app?vid=603ec718-9201-43e0-8396-ece58cf1c462","ios":"levelo://app?vid=603ec718-9201-43e0-8396-ece58cf1c462"},"vehicle_type_id":"4","last_reported":1770961921,"current_range_meters":20000,"station_id":"st_d3md5207bmas73dh9klg","pricing_plan_id":"cebpf4jnsgd1na2vs0mg"},{"bike_id":"d2ae2440-e92a-40be-b95d-c1574a1fed11","system_id":"levelo_inurba_marseille","lat":43.331649,"lon":5.376845,"is_reserved":false,"is_disabled":false,"rental_uris":{"android":"levelo://app?vid=d2ae2440-e92a-40be-b95d-c1574a1fed11","ios":"levelo://app?vid=d2ae2440-e92a-40be-b95d-c1574a1fed11"},"vehicle_type_id":"4","last_reported":1770961921,"current_range_meters":21600,"station_id":"st_d46cu089ee8s73dldbu0","pricing_plan_id":"cebpf4jnsgd1na2vs0mg"},{"bike_id":"bd9b5e04-3abe-4098-a415-308df53cc83b","system_id":"levelo_inurba_marseille","lat":43.303,"lon":5.39215,"is_reserved":false,"is_disabled":true,"rental_uris":{"android":"levelo://app?vid=bd9b5e04-3abe-4098-a415-308df53cc83b","ios":"levelo://app?vid=bd9b5e04-3abe-4098-a415-308df53cc83b"},"vehicle_type_id":"4","last_reported":1770961921,"current_range_meters":34800,"station_id":"ce4bgkh2rcd13ifvqbk0","pricing_plan_id":"cebpf4jnsgd1na2vs0mg"},{"bike_id":"f8471a2c-87e1-4cbd-bb5b-57438b2e01d6","system_id":"levelo_inurba_marseille","lat":43.292628,"lon":5.368481,"is_reserved":false,"is_disabled":false,"rental_uris":{"android":"levelo://app?vid=f8471a2c-87e1-4cbd-bb5b-57438b2e01d6","ios":"levelo://app?vid=f8471a2c-87e1-4cbd-bb5b-57438b2e01d6"},"vehicle_type_id":"4","last_reported":1770961921,"current_range_meters":6800,"station_id":"ce4bhbp2rcd13ifvqesg","pricing_plan_id":"cebpf4jnsgd1na2vs0mg"},{"bike_id":"7c3214e4-011e-406b-980a-35e392dbba5a","system_id":"levelo_inurba_marseille","lat":43.31311,"lon":5.39724,"is_reserved":false,"is_disabled":false,"rental_uris":{"android":"levelo://app?vid=7c3214e4-011e-406b-980a-35e392dbba5a","ios":"levelo://app?vid=7c3214e4-011e-406b-980a-35e392dbba5a"},"vehicle_type_id":"4","last_reported":1770961921,"current_range_meters":16800,"station_id":"ce4bgvp2rcd13ifvqcu0","pricing_plan_id":"cebpf4jnsgd1na2vs0mg"},{"bike_id":"db473b28-2923-43be-a5b8-27a3cb55c92a","system_id":"levelo_inurba_marseille","lat":43.29518,"lon":5.39388,"is_reserved":false,"is_disabled":false,"rental_uris":{"android":"levelo://app?vid=db473b28-2923-43be-a5b8-27a3cb55c92a","ios":"levelo://app?vid=db473b28-2923-43be-a5b8-27a3cb55c92a"},"vehicle_type_id":"4","last_reported":1770961921,"current_range_meters":38400,"station_id":"ce4bh292rcd13ifvqdf0","pricing_plan_id":"cebpf4jnsgd1na2vs0mg"},{"bike_id":"485340dc-805a-4777-95bd-384b16fa6b7a","system_id":"levelo_inurba_marseille","lat":43.30126,"lon":5.39861,"is_reserved":false,"is_disabled":false,"rental_uris":{"android":"levelo://app?vid=485340dc-805a-4777-95bd-384b16fa6b7a","ios":"levelo://app?vid=485340dc-805a-4777-95bd-384b16fa6b7a"},"vehicle_type_id":"4","last_reported":1770961921,"current_range_meters":36800,"station_id":"ce4bh0h2rcd13ifvqd40","pricing_plan_id":"cebpf4jnsgd1na2vs0mg"},{"bike_id":"50654183-b1f8-4460-be30-4796b7df6d9d","system_id":"levelo_inurba_marseille","lat":43.26809,"lon":5.39457,"is_reserved":false,"is_disabled":false,"rental_uris":{"android":"levelo://app?vid=50654183-b1f8-4460-be30-4796b7df6d9d","ios":"levelo://app?vid=50654183-b1f8-4460-be30-4796b7df6d9d"},"vehicle_type_id":"4","last_reported":1770961921,"current_range_meters":39200,"station_id":"ce4bhh12rcd13ifvqfg0","pricing_plan_id":"cebpf4jnsgd1na2vs0mg"},{"bike_id":"01f78c5a-3be0-4e2e-96cf-84a67ad0e642","system_id":"levelo_inurba_marseille","lat":43.2753,"lon":5.38444,"is_reserved":false,"is_disabled":false,"rental_uris":{"android":"levelo://app?vid=01f78c5a-3be0-4e2e-96cf-84a67ad0e642","ios":"levelo://app?vid=01f78c5a-3be0-4e2e-96cf-84a67ad0e642"},"vehicle_type_id":"4","last_reported":1770961921,"current_range_meters":39200,"station_id":"ce4bhh92rcd13ifvqfi0","pricing_plan_id":"cebpf4jnsgd1na2vs0mg"},{"bike_id":"59db9114-896d-40ef-9452-d2ba8d74bb7e","system_id":"levelo_inurba_marseille","lat":43.309276,"lon":5.401496,"is_reserved":false,"is_disabled":false,"rental_uris":{"android":"levelo://app?vid=59db9114-896d-40ef-9452-d2ba8d74bb7e","ios":"levelo://app?vid=59db9114-896d-40ef-9452-d2ba8d74bb7e"},"vehicle_type_id":"4","last_reported":1770961921,"current_range_meters":28400,"station_id":"ce4bgvp2rcd13ifvqct0","pricing_plan_id":"cebpf4jnsgd1na2vs0mg"},{"bike_id":"c4d613f2-80b4-43ae-a351-7a7403b9e345","system_id":"levelo_inurba_marseille","lat":43.28358,"lon":5.38637,"is_reserved":false,"is_disabled":false,"rental_uris":{"android":"levelo://app?vid=c4d613f2-80b4-43ae-a351-7a7403b9e345","ios":"levelo://app?vid=c4d613f2-80b4-43ae-a351-7a7403b9e345"},"vehicle_type_id":"4","last_reported":1770961921,"current_range_meters":14800,"station_id":"ce4bh492rcd13ifvqdvg","pricing_plan_id":"cebpf4jnsgd1na2vs0mg"},{"bike_id":"d8bbcb80-4405-4339-94e8-a3a4a59ae180","system_id":"levelo_inurba_marseille","lat":43.30212,"lon":5.3947,"is_reserved":false,"is_disabled":false,"rental_uris":{"android":"levelo://app?vid=d8bbcb80-4405-4339-94e8-a3a4a59ae180","ios":"levelo://app?vid=d8bbcb80-4405-4339-94e8-a3a4a59ae180"},"vehicle_type_id":"4","last_reported":1770961921,"current_range_meters":37600,"station_id":"ce4bh0p2rcd13ifvqd70","pricing_plan_id":"cebpf4jnsgd1na2vs0mg"},{"bike_id":"ffe3fbd4-6746-48bb-b0b5-fa7f3d6ff56c","system_id":"levelo_inurba_marseille","lat":43.31092,"lon":5.37198,"is_reserved":false,"is_disabled":false,"rental_uris":{"android":"levelo://app?vid=ffe3fbd4-6746-48bb-b0b5-fa7f3d6ff56c","ios":"levelo://app?vid=ffe3fbd4-6746-48bb-b0b5-fa7f3d6ff56c"},"vehicle_type_id":"4","last_reported":1770961921,"current_range_meters":20800,"station_id":"st_d4kl2rp97mjs73e7tdfg","pricing_plan_id":"cebpf4jnsgd1na2vs0mg"},{"bike_id":"5071b43d-0bf5-4c33-bee0-7bb9b5d21dc9","system_id":"levelo_inurba_marseille","lat":43.250024,"lon":5.389269,"is_reserved":false,"is_disabled":false,"rental_uris":{"android":"levelo://app?vid=5071b43d-0bf5-4c33-bee0-7bb9b5d21dc9","ios":"levelo://app?vid=5071b43d-0bf5-4c33-bee0-7bb9b5d21dc9"},"vehicle_type_id":"4","last_reported":1770961921,"current_range_meters":32800,"station_id":"ce4bhgp2rcd13ifvqfd0","pricing_plan_id":"cebpf4jnsgd1na2vs0mg"},{"bike_id":"c61daee2-0168-42ff-a8e8-58e75dcb8f23","system_id":"levelo_inurba_marseille","lat":43.26507,"lon":5.39544,"is_reserved":false,"is_disabled":false,"rental_uris":{"android":"levelo://app?vid=c61daee2-0168-42ff-a8e8-58e75dcb8f23","ios":"levelo://app?vid=c61daee2-0168-42ff-a8e8-58e75dcb8f23"},"vehicle_type_id":"4","last_reported":1770961921,"current_range_meters":38400,"station_id":"ce4bhi12rcd13ifvqfq0","pricing_plan_id":"cebpf4jnsgd1na2vs0mg"},{"bike_id":"51ad0198-092e-4860-b994-3420575955f1","system_id":"levelo_inurba_marseille","lat":43.22527,"lon":5.34833,"is_reserved":false,"is_disabled":false,"rental_uris":{"android":"levelo://app?vid=51ad0198-092e-4860-b994-3420575955f1","ios":"levelo://app?vid=51ad0198-092e-4860-b994-3420575955f1"},"vehicle_type_id":"4","last_reported":1770961921,"current_range_meters":6400,"station_id":"st_cvj5dfep6f1abm77gieg","pricing_plan_id":"cebpf4jnsgd1na2vs0mg"},{"bike_id":"313d98b7-e392-4489-8902-a504e0cb6171","system_id":"levelo_inurba_marseille","lat":43.2962,"lon":5.40618,"is_reserved":false,"is_disabled":false,"rental_uris":{"android":"levelo://app?vid=313d98b7-e392-4489-8902-a504e0cb6171","ios":"levelo://app?vid=313d98b7-e392-4489-8902-a504e0cb6171"},"vehicle_type_id":"4","last_reported":1770961921,"current_range_meters":39200,"station_id":"ce4bh0h2rcd13ifvqd60","pricing_plan_id":"cebpf4jnsgd1na2vs0mg"},{"bike_id":"96dce03c-0583-4126-9bf0-45335884c78e","system_id":"levelo_inurba_marseille","lat":43.32258,"lon":5.38294,"is_reserved":false,"is_disabled":false,"rental_uris":{"android":"levelo://app?vid=96dce03c-0583-4126-9bf0-45335884c78e","ios":"levelo://app?vid=96dce03c-0583-4126-9bf0-45335884c78e"},"vehicle_type_id":"4","last_reported":1770961921,"current_range_meters":39200,"station_id":"ce4bhr12rcd13ifvqhqg","pricing_plan_id":"cebpf4jnsgd1na2vs0mg"},{"bike_id":"2aa05e06-5366-4cfd-80c1-a6e66487250b","system_id":"levelo_inurba_marseille","lat":43.28461,"lon":5.48428,"is_reserved":false,"is_disabled":false,"rental_uris":{"android":"levelo://app?vid=2aa05e06-5366-4cfd-80c1-a6e66487250b","ios":"levelo://app?vid=2aa05e06-5366-4cfd-80c1-a6e66487250b"},"vehicle_type_id":"4","last_reported":1770961921,"current_range_meters":30800,"station_id":"","pricing_plan_id":"cebpf4jnsgd1na2vs0mg"},{"bike_id":"cc41e0a1-d158-400e-9907-ae5cf6141b96","system_id":"levelo_inurba_marseille","lat":43.30454,"lon":5.3791,"is_reserved":false,"is_disabled":false,"rental_uris":{"android":"levelo://app?vid=cc41e0a1-d158-400e-9907-ae5cf6141b96","ios":"levelo://app?vid=cc41e0a1-d158-400e-9907-ae5cf6141b96"},"vehicle_type_id":"4","last_reported":1770961921,"current_range_meters":34800,"station_id":"ce4bgup2rcd13ifvqcn0","pricing_plan_id":"cebpf4jnsgd1na2vs0mg"},{"bike_id":"541fff98-b96f-4b5d-94af-a1127f2e4454","system_id":"levelo_inurba_marseille","lat":43.29521,"lon":5.39395,"is_reserved":false,"is_disabled":false,"rental_uris":{"android":"levelo://app?vid=541fff98-b96f-4b5d-94af-a1127f2e4454","ios":"levelo://app?vid=541fff98-b96f-4b5d-94af-a1127f2e4454"},"vehicle_type_id":"4","last_reported":1770961921,"current_range_meters":26000,"station_id":"ce4bh292rcd13ifvqdf0","pricing_plan_id":"cebpf4jnsgd1na2vs0mg"},{"bike_id":"eee3b56e-14ba-425a-9dc1-5dcaeeae6056","system_id":"levelo_inurba_marseille","lat":43.24954,"lon":5.40487,"is_reserved":false,"is_disabled":false,"rental_uris":{"android":"levelo://app?vid=eee3b56e-14ba-425a-9dc1-5dcaeeae6056","ios":"levelo://app?vid=eee3b56e-14ba-425a-9dc1-5dcaeeae6056"},"vehicle_type_id":"4","last_reported":1770961921,"current_range_meters":6800,"station_id":"st_d2ngiaodas8pm72gd1h0","pricing_plan_id":"cebpf4jnsgd1na2vs0mg"},{"bike_id":"6fb6e675-460f-4429-987e-5c8d5ca05444","system_id":"levelo_inurba_marseille","lat":43.32349,"lon":5.36731,"is_reserved":false,"is_disabled":false,"rental_uris":{"android":"levelo://app?vid=6fb6e675-460f-4429-987e-5c8d5ca05444","ios":"levelo://app?vid=6fb6e675-460f-4429-987e-5c8d5ca05444"},"vehicle_type_id":"4","last_reported":1770961921,"current_range_meters":19200,"station_id":"ce4bhsh2rcd13ifvqi2g","pricing_plan_id":"cebpf4jnsgd1na2vs0mg"},{"bike_id":"bf3cb6e8-1a91-4ca0-b7f3-fc8011ca9cd8","system_id":"levelo_inurba_marseille","lat":43.30875,"lon":5.39643,"is_reserved":false,"is_disabled":false,"rental_uris":{"android":"levelo://app?vid=bf3cb6e8-1a91-4ca0-b7f3-fc8011ca9cd8","ios":"levelo://app?vid=bf3cb6e8-1a91-4ca0-b7f3-fc8011ca9cd8"},"vehicle_type_id":"4","last_reported":1770961921,"current_range_meters":38400,"station_id":"ce4bh012rcd13ifvqcv0","pricing_plan_id":"cebpf4jnsgd1na2vs0mg"},{"bike_id":"8864f6b7-1b6c-416e-9bf7-d904161c6757","system_id":"levelo_inurba_marseille","lat":43.25818,"lon":5.39442,"is_reserved":false,"is_disabled":false,"rental_uris":{"android":"levelo://app?vid=8864f6b7-1b6c-416e-9bf7-d904161c6757","ios":"levelo://app?vid=8864f6b7-1b6c-416e-9bf7-d904161c6757"},"vehicle_type_id":"4","last_reported":1770961921,"current_range_meters":17200,"station_id":"ce4bhip2rcd13ifvqft0","pricing_plan_id":"cebpf4jnsgd1na2vs0mg"},{"bike_id":"7ff8f1b8-aa67-4d09-9b1e-6734c846f83c","system_id":"levelo_inurba_marseille","lat":43.26563,"lon":5.39001,"is_reserved":false,"is_disabled":true,"rental_uris":{"android":"levelo://app?vid=7ff8f1b8-aa67-4d09-9b1e-6734c846f83c","ios":"levelo://app?vid=7ff8f1b8-aa67-4d09-9b1e-6734c846f83c"},"vehicle_type_id":"4","last_reported":1770961921,"current_range_meters":12800,"station_id":"ce4bhe12rcd13ifvqf30","pricing_plan_id":"cebpf4jnsgd1na2vs0mg"},{"bike_id":"e44616d2-0949-4941-adde-d5514a4c8e20","system_id":"levelo_inurba_marseille","lat":43.28115,"lon":5.37898,"is_reserved":false,"is_disabled":false,"rental_uris":{"android":"levelo://app?vid=e44616d2-0949-4941-adde-d5514a4c8e20","ios":"levelo://app?vid=e44616d2-0949-4941-adde-d5514a4c8e20"},"vehicle_type_id":"4","last_reported":1770961921,"current_range_meters":8400,"station_id":"","pricing_plan_id":"cebpf4jnsgd1na2vs0mg"},{"bike_id":"bc39af2e-f995-4080-81bb-b48ae08bae95","system_id":"levelo_inurba_marseille","lat":43.30739,"lon":5.42444,"is_reserved":false,"is_disabled":false,"rental_uris":{"android":"levelo://app?vid=bc39af2e-f995-4080-81bb-b48ae08bae95","ios":"levelo://app?vid=bc39af2e-f995-4080-81bb-b48ae08bae95"},"vehicle_type_id":"4","last_reported":1770961921,"current_range_meters":39200,"station_id":"st_cvj6ca6bvosntc0bfgr0","pricing_plan_id":"cebpf4jnsgd1na2vs0mg"},{"bike_id":"7352bfb0-d229-4d9d-b3ab-fbae5297c18b","system_id":"levelo_inurba_marseille","lat":43.28845,"lon":5.39305,"is_reserved":false,"is_disabled":false,"rental_uris":{"android":"levelo://app?vid=7352bfb0-d229-4d9d-b3ab-fbae5297c18b","ios":"levelo://app?vid=7352bfb0-d229-4d9d-b3ab-fbae5297c18b"},"vehicle_type_id":"4","last_reported":1770961921,"current_range_meters":7200,"station_id":"ce4bh2p2rcd13ifvqdi0","pricing_plan_id":"cebpf4jnsgd1na2vs0mg"},{"bike_id":"0b4aaea2-35f7-42c2-b087-ed81f1658c46","system_id":"levelo_inurba_marseille","lat":43.29577,"lon":5.36751,"is_reserved":false,"is_disabled":false,"rental_uris":{"android":"levelo://app?vid=0b4aaea2-35f7-42c2-b087-ed81f1658c46","ios":"levelo://app?vid=0b4aaea2-35f7-42c2-b087-ed81f1658c46"},"vehicle_type_id":"4","last_reported":1770961921,"current_range_meters":12000,"station_id":"ce4bgph2rcd13ifvqc2g","pricing_plan_id":"cebpf4jnsgd1na2vs0mg"},{"bike_id":"7be9b5cd-2937-447d-86be-539a0c97ddbd","system_id":"levelo_inurba_marseille","lat":43.287,"lon":5.37425,"is_reserved":false,"is_disabled":false,"rental_uris":{"android":"levelo://app?vid=7be9b5cd-2937-447d-86be-539a0c97ddbd","ios":"levelo://app?vid=7be9b5cd-2937-447d-86be-539a0c97ddbd"},"vehicle_type_id":"4","last_reported":1770961921,"current_range_meters":10800,"station_id":"ce4bh3p2rcd13ifvqdq0","pricing_plan_id":"cebpf4jnsgd1na2vs0mg"},{"bike_id":"2a6c10cf-0d47-485e-bda1-55d6c3f306fc","system_id":"levelo_inurba_marseille","lat":43.2848,"lon":5.3588,"is_reserved":false,"is_disabled":false,"rental_uris":{"android":"levelo://app?vid=2a6c10cf-0d47-485e-bda1-55d6c3f306fc","ios":"levelo://app?vid=2a6c10cf-0d47-485e-bda1-55d6c3f306fc"},"vehicle_type_id":"4","last_reported":1770961921,"current_range_meters":16400,"station_id":"ce4bhah2rcd13ifvqei0","pricing_plan_id":"cebpf4jnsgd1na2vs0mg"},{"bike_id":"52683c27-ad63-43c1-8a50-a75fb84808e6","system_id":"levelo_inurba_marseille","lat":43.25076,"lon":5.39526,"is_reserved":false,"is_disabled":true,"rental_uris":{"android":"levelo://app?vid=52683c27-ad63-43c1-8a50-a75fb84808e6","ios":"levelo://app?vid=52683c27-ad63-43c1-8a50-a75fb84808e6"},"vehicle_type_id":"4","last_reported":1770961921,"current_range_meters":1600,"station_id":"ce4bhm12rcd13ifvqgkg","pricing_plan_id":"cebpf4jnsgd1na2vs0mg"},{"bike_id":"47d3fa90-dc1b-48fa-87c9-4b4f1cb97e7a","system_id":"levelo_inurba_marseille","lat":43.29887,"lon":5.39746,"is_reserved":false,"is_disabled":false,"rental_uris":{"android":"levelo://app?vid=47d3fa90-dc1b-48fa-87c9-4b4f1cb97e7a","ios":"levelo://app?vid=47d3fa90-dc1b-48fa-87c9-4b4f1cb97e7a"},"vehicle_type_id":"4","last_reported":1770961921,"current_range_meters":36800,"station_id":"ce4bh0h2rcd13ifvqd50","pricing_plan_id":"cebpf4jnsgd1na2vs0mg"},{"bike_id":"91a16e74-f75c-43e6-9998-5c1ca801894b","system_id":"levelo_inurba_marseille","lat":43.2902,"lon":5.37571,"is_reserved":false,"is_disabled":true,"rental_uris":{"android":"levelo://app?vid=91a16e74-f75c-43e6-9998-5c1ca801894b","ios":"levelo://app?vid=91a16e74-f75c-43e6-9998-5c1ca801894b"},"vehicle_type_id":"4","last_reported":1770961921,"current_range_meters":22000,"station_id":"ce4bh692rcd13ifvqe90","pricing_plan_id":"cebpf4jnsgd1na2vs0mg"},{"bike_id":"dccfc238-30d1-44f3-9713-c1cc91044624","system_id":"levelo_inurba_marseille","lat":43.30418,"lon":5.39833,"is_reserved":false,"is_disabled":false,"rental_uris":{"android":"levelo://app?vid=dccfc238-30d1-44f3-9713-c1cc91044624","ios":"levelo://app?vid=dccfc238-30d1-44f3-9713-c1cc91044624"},"vehicle_type_id":"4","last_reported":1770961921,"current_range_meters":23200,"station_id":"","pricing_plan_id":"cebpf4jnsgd1na2vs0mg"},{"bike_id":"e29024b3-288c-4d8b-ba32-8553041a7294","system_id":"levelo_inurba_marseille","lat":43.25936,"lon":5.40906,"is_reserved":false,"is_disabled":false,"rental_uris":{"android":"levelo://app?vid=e29024b3-288c-4d8b-ba32-8553041a7294","ios":"levelo://app?vid=e29024b3-288c-4d8b-ba32-8553041a7294"},"vehicle_type_id":"4","last_reported":1770961921,"current_range_meters":8800,"station_id":"ce4bhm92rcd13ifvqglg","pricing_plan_id":"cebpf4jnsgd1na2vs0mg"},{"bike_id":"dfa42615-cf49-4c98-8217-a89505bcbda5","system_id":"levelo_inurba_marseille","lat":43.28877,"lon":5.35868,"is_reserved":false,"is_disabled":false,"rental_uris":{"android":"levelo://app?vid=dfa42615-cf49-4c98-8217-a89505bcbda5","ios":"levelo://app?vid=dfa42615-cf49-4c98-8217-a89505bcbda5"},"vehicle_type_id":"4","last_reported":1770961921,"current_range_meters":39200,"station_id":"ce4bhb12rcd13ifvqem0","pricing_plan_id":"cebpf4jnsgd1na2vs0mg"},{"bike_id":"3c189d89-9ba1-4956-b004-0844860e5628","system_id":"levelo_inurba_marseille","lat":43.28546,"lon":5.35187,"is_reserved":false,"is_disabled":false,"rental_uris":{"android":"levelo://app?vid=3c189d89-9ba1-4956-b004-0844860e5628","ios":"levelo://app?vid=3c189d89-9ba1-4956-b004-0844860e5628"},"vehicle_type_id":"4","last_reported":1770961921,"current_range_meters":39200,"station_id":"","pricing_plan_id":"cebpf4jnsgd1na2vs0mg"},{"bike_id":"d4078c0d-0ab2-4898-ba9f-81aff7cd2cef","system_id":"levelo_inurba_marseille","lat":43.30502,"lon":5.36536,"is_reserved":false,"is_disabled":false,"rental_uris":{"android":"levelo://app?vid=d4078c0d-0ab2-4898-ba9f-81aff7cd2cef","ios":"levelo://app?vid=d4078c0d-0ab2-4898-ba9f-81aff7cd2cef"},"vehicle_type_id":"4","last_reported":1770961921,"current_range_meters":38000,"station_id":"","pricing_plan_id":"cebpf4jnsgd1na2vs0mg"},{"bike_id":"3029fd03-fcab-4cd9-9277-025369248c19","system_id":"levelo_inurba_marseille","lat":43.26188,"lon":5.37446,"is_reserved":false,"is_disabled":false,"rental_uris":{"android":"levelo://app?vid=3029fd03-fcab-4cd9-9277-025369248c19","ios":"levelo://app?vid=3029fd03-fcab-4cd9-9277-025369248c19"},"vehicle_type_id":"4","last_reported":1770961921,"current_range_meters":25200,"station_id":"ce4bhgp2rcd13ifvqfc0","pricing_plan_id":"cebpf4jnsgd1na2vs0mg"},{"bike_id":"bb47fa3d-14c5-48b9-b404-68e6e61715cc","system_id":"levelo_inurba_marseille","lat":43.29286,"lon":5.38481,"is_reserved":false,"is_disabled":false,"rental_uris":{"android":"levelo://app?vid=bb47fa3d-14c5-48b9-b404-68e6e61715cc","ios":"levelo://app?vid=bb47fa3d-14c5-48b9-b404-68e6e61715cc"},"vehicle_type_id":"4","last_reported":1770961921,"current_range_meters":18000,"station_id":"","pricing_plan_id":"cebpf4jnsgd1na2vs0mg"},{"bike_id":"921b0057-d893-4ab5-aa0e-ecd53624d92c","system_id":"levelo_inurba_marseille","lat":43.29185,"lon":5.35819,"is_reserved":false,"is_disabled":false,"rental_uris":{"android":"levelo://app?vid=921b0057-d893-4ab5-aa0e-ecd53624d92c","ios":"levelo://app?vid=921b0057-d893-4ab5-aa0e-ecd53624d92c"},"vehicle_type_id":"4","last_reported":1770961921,"current_range_meters":16400,"station_id":"ce4bhb12rcd13ifvqel0","pricing_plan_id":"cebpf4jnsgd1na2vs0mg"},{"bike_id":"397ed6fc-1199-48c5-967c-38ee35525083","system_id":"levelo_inurba_marseille","lat":43.28668,"lon":5.36345,"is_reserved":false,"is_disabled":false,"rental_uris":{"android":"levelo://app?vid=397ed6fc-1199-48c5-967c-38ee35525083","ios":"levelo://app?vid=397ed6fc-1199-48c5-967c-38ee35525083"},"vehicle_type_id":"4","last_reported":1770961921,"current_range_meters":39200,"station_id":"ce4bhah2rcd13ifvqej0","pricing_plan_id":"cebpf4jnsgd1na2vs0mg"},{"bike_id":"9ef7c1f7-2341-4bfa-8b00-eef4bbbdbfcb","system_id":"levelo_inurba_marseille","lat":43.26753,"lon":5.40322,"is_reserved":false,"is_disabled":false,"rental_uris":{"android":"levelo://app?vid=9ef7c1f7-2341-4bfa-8b00-eef4bbbdbfcb","ios":"levelo://app?vid=9ef7c1f7-2341-4bfa-8b00-eef4bbbdbfcb"},"vehicle_type_id":"4","last_reported":1770961921,"current_range_meters":21600,"station_id":"","pricing_plan_id":"cebpf4jnsgd1na2vs0mg"},{"bike_id":"f06d538b-97fe-4530-9d3d-a633bac60e6e","system_id":"levelo_inurba_marseille","lat":43.269408,"lon":5.402476,"is_reserved":false,"is_disabled":false,"rental_uris":{"android":"levelo://app?vid=f06d538b-97fe-4530-9d3d-a633bac60e6e","ios":"levelo://app?vid=f06d538b-97fe-4530-9d3d-a633bac60e6e"},"vehicle_type_id":"4","last_reported":1770961921,"current_range_meters":8800,"station_id":"cjm6bp8fraef2m0cb0m0","pricing_plan_id":"cebpf4jnsgd1na2vs0mg"},{"bike_id":"f0c79e1e-cbee-4a27-8ee6-70d2ba36f872","system_id":"levelo_inurba_marseille","lat":43.2927,"lon":5.37609,"is_reserved":false,"is_disabled":false,"rental_uris":{"android":"levelo://app?vid=f0c79e1e-cbee-4a27-8ee6-70d2ba36f872","ios":"levelo://app?vid=f0c79e1e-cbee-4a27-8ee6-70d2ba36f872"},"vehicle_type_id":"4","last_reported":1770961921,"current_range_meters":7200,"station_id":"ce4bgi12rcd13ifvqb80","pricing_plan_id":"cebpf4jnsgd1na2vs0mg"},{"bike_id":"0f15744b-0709-4e51-83fe-16a870824f44","system_id":"levelo_inurba_marseille","lat":43.25825,"lon":5.39431,"is_reserved":false,"is_disabled":false,"rental_uris":{"android":"levelo://app?vid=0f15744b-0709-4e51-83fe-16a870824f44","ios":"levelo://app?vid=0f15744b-0709-4e51-83fe-16a870824f44"},"vehicle_type_id":"4","last_reported":1770961921,"current_range_meters":39200,"station_id":"ce4bhip2rcd13ifvqft0","pricing_plan_id":"cebpf4jnsgd1na2vs0mg"},{"bike_id":"74f94a67-e011-404f-98b5-f3a8a330be7c","system_id":"levelo_inurba_marseille","lat":43.2856,"lon":5.39518,"is_reserved":false,"is_disabled":false,"rental_uris":{"android":"levelo://app?vid=74f94a67-e011-404f-98b5-f3a8a330be7c","ios":"levelo://app?vid=74f94a67-e011-404f-98b5-f3a8a330be7c"},"vehicle_type_id":"4","last_reported":1770961921,"current_range_meters":39200,"station_id":"ce4bh292rcd13ifvqdg0","pricing_plan_id":"cebpf4jnsgd1na2vs0mg"},{"bike_id":"11bbe498-cd8f-4b2e-8e45-54529a7a0a47","system_id":"levelo_inurba_marseille","lat":43.29761,"lon":5.42791,"is_reserved":false,"is_disabled":false,"rental_uris":{"android":"levelo://app?vid=11bbe498-cd8f-4b2e-8e45-54529a7a0a47","ios":"levelo://app?vid=11bbe498-cd8f-4b2e-8e45-54529a7a0a47"},"vehicle_type_id":"4","last_reported":1770961921,"current_range_meters":18800,"station_id":"st_d3md5207bmas73dh9klg","pricing_plan_id":"cebpf4jnsgd1na2vs0mg"},{"bike_id":"31f296ea-cff6-49b5-89b1-3475fa6fea1c","system_id":"levelo_inurba_marseille","lat":43.288484,"lon":5.393379,"is_reserved":false,"is_disabled":false,"rental_uris":{"android":"levelo://app?vid=31f296ea-cff6-49b5-89b1-3475fa6fea1c","ios":"levelo://app?vid=31f296ea-cff6-49b5-89b1-3475fa6fea1c"},"vehicle_type_id":"4","last_reported":1770961921,"current_range_meters":33600,"station_id":"ce4bh2p2rcd13ifvqdi0","pricing_plan_id":"cebpf4jnsgd1na2vs0mg"},{"bike_id":"90b2eb3d-b8cf-47c7-bcb8-5d5b5f49b9b7","system_id":"levelo_inurba_marseille","lat":43.265575,"lon":5.390388,"is_reserved":false,"is_disabled":true,"rental_uris":{"android":"levelo://app?vid=90b2eb3d-b8cf-47c7-bcb8-5d5b5f49b9b7","ios":"levelo://app?vid=90b2eb3d-b8cf-47c7-bcb8-5d5b5f49b9b7"},"vehicle_type_id":"4","last_reported":1770961921,"current_range_meters":36400,"station_id":"ce4bhe12rcd13ifvqf30","pricing_plan_id":"cebpf4jnsgd1na2vs0mg"},{"bike_id":"e57a4ebc-623c-4649-942c-2656f94045ed","system_id":"levelo_inurba_marseille","lat":43.3132,"lon":5.39702,"is_reserved":false,"is_disabled":false,"rental_uris":{"android":"levelo://app?vid=e57a4ebc-623c-4649-942c-2656f94045ed","ios":"levelo://app?vid=e57a4ebc-623c-4649-942c-2656f94045ed"},"vehicle_type_id":"4","last_reported":1770961921,"current_range_meters":13600,"station_id":"ce4bgvp2rcd13ifvqcu0","pricing_plan_id":"cebpf4jnsgd1na2vs0mg"},{"bike_id":"11434cf1-d6f8-4e1a-8ad6-be51503532dc","system_id":"levelo_inurba_marseille","lat":43.30486,"lon":5.37926,"is_reserved":false,"is_disabled":false,"rental_uris":{"android":"levelo://app?vid=11434cf1-d6f8-4e1a-8ad6-be51503532dc","ios":"levelo://app?vid=11434cf1-d6f8-4e1a-8ad6-be51503532dc"},"vehicle_type_id":"4","last_reported":1770961921,"current_range_meters":39200,"station_id":"ce4bgup2rcd13ifvqcn0","pricing_plan_id":"cebpf4jnsgd1na2vs0mg"},{"bike_id":"6f6a04ad-dd00-4f4a-bdfd-a835cfa0cc11","system_id":"levelo_inurba_marseille","lat":43.27072,"lon":5.38324,"is_reserved":false,"is_disabled":false,"rental_uris":{"android":"levelo://app?vid=6f6a04ad-dd00-4f4a-bdfd-a835cfa0cc11","ios":"levelo://app?vid=6f6a04ad-dd00-4f4a-bdfd-a835cfa0cc11"},"vehicle_type_id":"4","last_reported":1770961921,"current_range_meters":38800,"station_id":"st_d3n2fo6cfp8s73cte1j0","pricing_plan_id":"cebpf4jnsgd1na2vs0mg"},{"bike_id":"9a611395-3659-4973-af34-0d33d9b7f480","system_id":"levelo_inurba_marseille","lat":43.30305,"lon":5.39202,"is_reserved":false,"is_disabled":false,"rental_uris":{"android":"levelo://app?vid=9a611395-3659-4973-af34-0d33d9b7f480","ios":"levelo://app?vid=9a611395-3659-4973-af34-0d33d9b7f480"},"vehicle_type_id":"4","last_reported":1770961921,"current_range_meters":24000,"station_id":"ce4bgkh2rcd13ifvqbk0","pricing_plan_id":"cebpf4jnsgd1na2vs0mg"},{"bike_id":"4e4c79b4-286f-458a-a494-98664f2e8591","system_id":"levelo_inurba_marseille","lat":43.330239,"lon":5.390331,"is_reserved":false,"is_disabled":false,"rental_uris":{"android":"levelo://app?vid=4e4c79b4-286f-458a-a494-98664f2e8591","ios":"levelo://app?vid=4e4c79b4-286f-458a-a494-98664f2e8591"},"vehicle_type_id":"4","last_reported":1770961921,"current_range_meters":39200,"station_id":"ce4bhr92rcd13ifvqhrg","pricing_plan_id":"cebpf4jnsgd1na2vs0mg"},{"bike_id":"9a33d1bd-abfc-489f-948a-79a1516c3474","system_id":"levelo_inurba_marseille","lat":43.2731,"lon":5.39095,"is_reserved":false,"is_disabled":false,"rental_uris":{"android":"levelo://app?vid=9a33d1bd-abfc-489f-948a-79a1516c3474","ios":"levelo://app?vid=9a33d1bd-abfc-489f-948a-79a1516c3474"},"vehicle_type_id":"4","last_reported":1770961921,"current_range_meters":38000,"station_id":"ce4bhgp2rcd13ifvqfe0","pricing_plan_id":"cebpf4jnsgd1na2vs0mg"},{"bike_id":"76d60a75-dcac-494e-a96c-1212b660edc7","system_id":"levelo_inurba_marseille","lat":43.30307,"lon":5.36911,"is_reserved":false,"is_disabled":false,"rental_uris":{"android":"levelo://app?vid=76d60a75-dcac-494e-a96c-1212b660edc7","ios":"levelo://app?vid=76d60a75-dcac-494e-a96c-1212b660edc7"},"vehicle_type_id":"4","last_reported":1770961921,"current_range_meters":35200,"station_id":"ce4bgqh2rcd13ifvqc5g","pricing_plan_id":"cebpf4jnsgd1na2vs0mg"},{"bike_id":"c8d3deb4-912b-417b-a80c-9490cc095215","system_id":"levelo_inurba_marseille","lat":43.29787,"lon":5.37592,"is_reserved":false,"is_disabled":false,"rental_uris":{"android":"levelo://app?vid=c8d3deb4-912b-417b-a80c-9490cc095215","ios":"levelo://app?vid=c8d3deb4-912b-417b-a80c-9490cc095215"},"vehicle_type_id":"4","last_reported":1770961921,"current_range_meters":35600,"station_id":"","pricing_plan_id":"cebpf4jnsgd1na2vs0mg"},{"bike_id":"dbd40afb-0d84-4f0f-b160-b60a14900963","system_id":"levelo_inurba_marseille","lat":43.260741,"lon":5.393963,"is_reserved":false,"is_disabled":false,"rental_uris":{"android":"levelo://app?vid=dbd40afb-0d84-4f0f-b160-b60a14900963","ios":"levelo://app?vid=dbd40afb-0d84-4f0f-b160-b60a14900963"},"vehicle_type_id":"4","last_reported":1770961921,"current_range_meters":38400,"station_id":"ce4bhh92rcd13ifvqfj0","pricing_plan_id":"cebpf4jnsgd1na2vs0mg"},{"bike_id":"36c5e8b7-81fd-45d9-8e6d-03b19edce201","system_id":"levelo_inurba_marseille","lat":43.30168,"lon":5.36641,"is_reserved":false,"is_disabled":false,"rental_uris":{"android":"levelo://app?vid=36c5e8b7-81fd-45d9-8e6d-03b19edce201","ios":"levelo://app?vid=36c5e8b7-81fd-45d9-8e6d-03b19edce201"},"vehicle_type_id":"4","last_reported":1770961921,"current_range_meters":39200,"station_id":"ce4bgrh2rcd13ifvqc8g","pricing_plan_id":"cebpf4jnsgd1na2vs0mg"},{"bike_id":"beb8391b-c8c1-405a-b527-a4be01cb6949","system_id":"levelo_inurba_marseille","lat":43.248036,"lon":5.374558,"is_reserved":false,"is_disabled":false,"rental_uris":{"android":"levelo://app?vid=beb8391b-c8c1-405a-b527-a4be01cb6949","ios":"levelo://app?vid=beb8391b-c8c1-405a-b527-a4be01cb6949"},"vehicle_type_id":"4","last_reported":1770961921,"current_range_meters":29600,"station_id":"ce4bhgh2rcd13ifvqfb0","pricing_plan_id":"cebpf4jnsgd1na2vs0mg"},{"bike_id":"d8a21cf0-3eda-42f6-b76b-99e4c0602b17","system_id":"levelo_inurba_marseille","lat":43.24452,"lon":5.37652,"is_reserved":false,"is_disabled":false,"rental_uris":{"android":"levelo://app?vid=d8a21cf0-3eda-42f6-b76b-99e4c0602b17","ios":"levelo://app?vid=d8a21cf0-3eda-42f6-b76b-99e4c0602b17"},"vehicle_type_id":"4","last_reported":1770961921,"current_range_meters":37600,"station_id":"","pricing_plan_id":"cebpf4jnsgd1na2vs0mg"},{"bike_id":"bb9d4fa8-a6c6-4b37-8296-006d271da3f9","system_id":"levelo_inurba_marseille","lat":43.249989,"lon":5.389416,"is_reserved":false,"is_disabled":false,"rental_uris":{"android":"levelo://app?vid=bb9d4fa8-a6c6-4b37-8296-006d271da3f9","ios":"levelo://app?vid=bb9d4fa8-a6c6-4b37-8296-006d271da3f9"},"vehicle_type_id":"4","last_reported":1770961921,"current_range_meters":30000,"station_id":"ce4bhgp2rcd13ifvqfd0","pricing_plan_id":"cebpf4jnsgd1na2vs0mg"},{"bike_id":"9326bb6a-10f4-4219-97c3-64d7c59774cf","system_id":"levelo_inurba_marseille","lat":43.310369,"lon":5.371769,"is_reserved":false,"is_disabled":false,"rental_uris":{"android":"levelo://app?vid=9326bb6a-10f4-4219-97c3-64d7c59774cf","ios":"levelo://app?vid=9326bb6a-10f4-4219-97c3-64d7c59774cf"},"vehicle_type_id":"4","last_reported":1770961921,"current_range_meters":9600,"station_id":"st_d4kl2rp97mjs73e7tdfg","pricing_plan_id":"cebpf4jnsgd1na2vs0mg"},{"bike_id":"8ae1aee6-ac8a-4eca-88d1-3b74d9a44fff","system_id":"levelo_inurba_marseille","lat":43.28849,"lon":5.35881,"is_reserved":false,"is_disabled":false,"rental_uris":{"android":"levelo://app?vid=8ae1aee6-ac8a-4eca-88d1-3b74d9a44fff","ios":"levelo://app?vid=8ae1aee6-ac8a-4eca-88d1-3b74d9a44fff"},"vehicle_type_id":"4","last_reported":1770961921,"current_range_meters":32000,"station_id":"ce4bhb12rcd13ifvqem0","pricing_plan_id":"cebpf4jnsgd1na2vs0mg"},{"bike_id":"978d2f99-2f31-4c4e-be2a-4e68224c9eda","system_id":"levelo_inurba_marseille","lat":43.268093,"lon":5.402688,"is_reserved":false,"is_disabled":false,"rental_uris":{"android":"levelo://app?vid=978d2f99-2f31-4c4e-be2a-4e68224c9eda","ios":"levelo://app?vid=978d2f99-2f31-4c4e-be2a-4e68224c9eda"},"vehicle_type_id":"4","last_reported":1770961921,"current_range_meters":31200,"station_id":"ce501612rcd8frsf0b60","pricing_plan_id":"cebpf4jnsgd1na2vs0mg"},{"bike_id":"db4f636e-b232-46b1-867e-c76f4ae9dc3e","system_id":"levelo_inurba_marseille","lat":43.321035,"lon":5.36778,"is_reserved":false,"is_disabled":false,"rental_uris":{"android":"levelo://app?vid=db4f636e-b232-46b1-867e-c76f4ae9dc3e","ios":"levelo://app?vid=db4f636e-b232-46b1-867e-c76f4ae9dc3e"},"vehicle_type_id":"4","last_reported":1770961921,"current_range_meters":24000,"station_id":"ce4bhrh2rcd13ifvqhug","pricing_plan_id":"cebpf4jnsgd1na2vs0mg"},{"bike_id":"b0216917-7a6a-43d4-828a-3d19c993f376","system_id":"levelo_inurba_marseille","lat":43.28666,"lon":5.36335,"is_reserved":false,"is_disabled":false,"rental_uris":{"android":"levelo://app?vid=b0216917-7a6a-43d4-828a-3d19c993f376","ios":"levelo://app?vid=b0216917-7a6a-43d4-828a-3d19c993f376"},"vehicle_type_id":"4","last_reported":1770961921,"current_range_meters":39200,"station_id":"ce4bhah2rcd13ifvqej0","pricing_plan_id":"cebpf4jnsgd1na2vs0mg"},{"bike_id":"24404e2f-7907-4c0b-a8da-161f9e441968","system_id":"levelo_inurba_marseille","lat":43.26921,"lon":5.40286,"is_reserved":false,"is_disabled":true,"rental_uris":{"android":"levelo://app?vid=24404e2f-7907-4c0b-a8da-161f9e441968","ios":"levelo://app?vid=24404e2f-7907-4c0b-a8da-161f9e441968"},"vehicle_type_id":"4","last_reported":1770961921,"current_range_meters":36800,"station_id":"cjm6bp8fraef2m0cb0m0","pricing_plan_id":"cebpf4jnsgd1na2vs0mg"},{"bike_id":"9db55965-84bb-4dc9-bbc7-389095a5d9b3","system_id":"levelo_inurba_marseille","lat":43.27614,"lon":5.36141,"is_reserved":false,"is_disabled":false,"rental_uris":{"android":"levelo://app?vid=9db55965-84bb-4dc9-bbc7-389095a5d9b3","ios":"levelo://app?vid=9db55965-84bb-4dc9-bbc7-389095a5d9b3"},"vehicle_type_id":"4","last_reported":1770961921,"current_range_meters":38400,"station_id":"ce4bgj92rcd13ifvqbe0","pricing_plan_id":"cebpf4jnsgd1na2vs0mg"},{"bike_id":"88ff9439-db02-4be2-a9f2-dbfd8e7a5968","system_id":"levelo_inurba_marseille","lat":43.25855,"lon":5.39893,"is_reserved":false,"is_disabled":false,"rental_uris":{"android":"levelo://app?vid=88ff9439-db02-4be2-a9f2-dbfd8e7a5968","ios":"levelo://app?vid=88ff9439-db02-4be2-a9f2-dbfd8e7a5968"},"vehicle_type_id":"4","last_reported":1770961921,"current_range_meters":38400,"station_id":"ce4bhl92rcd13ifvqghg","pricing_plan_id":"cebpf4jnsgd1na2vs0mg"},{"bike_id":"0d60f49b-2168-485f-9c8c-8bf326d0ba55","system_id":"levelo_inurba_marseille","lat":43.24505,"lon":5.42452,"is_reserved":false,"is_disabled":true,"rental_uris":{"android":"levelo://app?vid=0d60f49b-2168-485f-9c8c-8bf326d0ba55","ios":"levelo://app?vid=0d60f49b-2168-485f-9c8c-8bf326d0ba55"},"vehicle_type_id":"4","last_reported":1770961921,"current_range_meters":0,"station_id":"","pricing_plan_id":"cebpf4jnsgd1na2vs0mg"},{"bike_id":"fb6e3715-5cf4-44c9-b456-0645a8903b17","system_id":"levelo_inurba_marseille","lat":43.278154,"lon":5.407135,"is_reserved":false,"is_disabled":false,"rental_uris":{"android":"levelo://app?vid=fb6e3715-5cf4-44c9-b456-0645a8903b17","ios":"levelo://app?vid=fb6e3715-5cf4-44c9-b456-0645a8903b17"},"vehicle_type_id":"4","last_reported":1770961921,"current_range_meters":33600,"station_id":"","pricing_plan_id":"cebpf4jnsgd1na2vs0mg"},{"bike_id":"d30d7d9e-611d-4920-9b2d-b4a912454982","system_id":"levelo_inurba_marseille","lat":43.312738,"lon":5.377413,"is_reserved":false,"is_disabled":false,"rental_uris":{"android":"levelo://app?vid=d30d7d9e-611d-4920-9b2d-b4a912454982","ios":"levelo://app?vid=d30d7d9e-611d-4920-9b2d-b4a912454982"},"vehicle_type_id":"4","last_reported":1770961921,"current_range_meters":7200,"station_id":"","pricing_plan_id":"cebpf4jnsgd1na2vs0mg"},{"bike_id":"4af5268c-ca5d-4006-a3b3-566120e542f5","system_id":"levelo_inurba_marseille","lat":43.29535,"lon":5.38557,"is_reserved":false,"is_disabled":false,"rental_uris":{"android":"levelo://app?vid=4af5268c-ca5d-4006-a3b3-566120e542f5","ios":"levelo://app?vid=4af5268c-ca5d-4006-a3b3-566120e542f5"},"vehicle_type_id":"4","last_reported":1770961921,"current_range_meters":38000,"station_id":"ce4bgih2rcd13ifvqba0","pricing_plan_id":"cebpf4jnsgd1na2vs0mg"},{"bike_id":"37e8122a-c89a-431e-828d-072ace026f01","system_id":"levelo_inurba_marseille","lat":43.247954,"lon":5.374529,"is_reserved":false,"is_disabled":false,"rental_uris":{"android":"levelo://app?vid=37e8122a-c89a-431e-828d-072ace026f01","ios":"levelo://app?vid=37e8122a-c89a-431e-828d-072ace026f01"},"vehicle_type_id":"4","last_reported":1770961921,"current_range_meters":10000,"station_id":"ce4bhgh2rcd13ifvqfb0","pricing_plan_id":"cebpf4jnsgd1na2vs0mg"},{"bike_id":"8fd4569f-4513-4bcf-9440-02144f737ba7","system_id":"levelo_inurba_marseille","lat":43.311552,"lon":5.371121,"is_reserved":false,"is_disabled":false,"rental_uris":{"android":"levelo://app?vid=8fd4569f-4513-4bcf-9440-02144f737ba7","ios":"levelo://app?vid=8fd4569f-4513-4bcf-9440-02144f737ba7"},"vehicle_type_id":"4","last_reported":1770961921,"current_range_meters":24000,"station_id":"st_d4kl2rp97mjs73e7tdfg","pricing_plan_id":"cebpf4jnsgd1na2vs0mg"},{"bike_id":"8491b334-0ba7-4277-9797-3edac002b21f","system_id":"levelo_inurba_marseille","lat":43.26201,"lon":5.4048,"is_reserved":false,"is_disabled":true,"rental_uris":{"android":"levelo://app?vid=8491b334-0ba7-4277-9797-3edac002b21f","ios":"levelo://app?vid=8491b334-0ba7-4277-9797-3edac002b21f"},"vehicle_type_id":"4","last_reported":1770961921,"current_range_meters":18800,"station_id":"ce4bhmh2rcd13ifvqgmg","pricing_plan_id":"cebpf4jnsgd1na2vs0mg"},{"bike_id":"6c78efb4-21ea-48b6-a077-5447702c0f63","system_id":"levelo_inurba_marseille","lat":43.29877,"lon":5.43649,"is_reserved":false,"is_disabled":false,"rental_uris":{"android":"levelo://app?vid=6c78efb4-21ea-48b6-a077-5447702c0f63","ios":"levelo://app?vid=6c78efb4-21ea-48b6-a077-5447702c0f63"},"vehicle_type_id":"4","last_reported":1770961921,"current_range_meters":34800,"station_id":"ce4bhpp2rcd13ifvqhfg","pricing_plan_id":"cebpf4jnsgd1na2vs0mg"},{"bike_id":"87e52233-7157-484b-968d-b0beff0b44bb","system_id":"levelo_inurba_marseille","lat":43.26938,"lon":5.40269,"is_reserved":false,"is_disabled":false,"rental_uris":{"android":"levelo://app?vid=87e52233-7157-484b-968d-b0beff0b44bb","ios":"levelo://app?vid=87e52233-7157-484b-968d-b0beff0b44bb"},"vehicle_type_id":"4","last_reported":1770961921,"current_range_meters":27600,"station_id":"cjm6bp8fraef2m0cb0m0","pricing_plan_id":"cebpf4jnsgd1na2vs0mg"},{"bike_id":"1ada22f9-5027-45d1-bf0f-6aaf8ce92ed1","system_id":"levelo_inurba_marseille","lat":43.30601,"lon":5.39321,"is_reserved":false,"is_disabled":false,"rental_uris":{"android":"levelo://app?vid=1ada22f9-5027-45d1-bf0f-6aaf8ce92ed1","ios":"levelo://app?vid=1ada22f9-5027-45d1-bf0f-6aaf8ce92ed1"},"vehicle_type_id":"4","last_reported":1770961921,"current_range_meters":13600,"station_id":"ce4bh0p2rcd13ifvqd80","pricing_plan_id":"cebpf4jnsgd1na2vs0mg"},{"bike_id":"8b377953-fd2c-48a1-8649-b79517c278f6","system_id":"levelo_inurba_marseille","lat":43.28101,"lon":5.37835,"is_reserved":false,"is_disabled":false,"rental_uris":{"android":"levelo://app?vid=8b377953-fd2c-48a1-8649-b79517c278f6","ios":"levelo://app?vid=8b377953-fd2c-48a1-8649-b79517c278f6"},"vehicle_type_id":"4","last_reported":1770961921,"current_range_meters":28400,"station_id":"ce4bha12rcd13ifvqee0","pricing_plan_id":"cebpf4jnsgd1na2vs0mg"},{"bike_id":"97a62e35-510e-4a73-8eca-01c7ca2af946","system_id":"levelo_inurba_marseille","lat":43.31709,"lon":5.37765,"is_reserved":false,"is_disabled":false,"rental_uris":{"android":"levelo://app?vid=97a62e35-510e-4a73-8eca-01c7ca2af946","ios":"levelo://app?vid=97a62e35-510e-4a73-8eca-01c7ca2af946"},"vehicle_type_id":"4","last_reported":1770961921,"current_range_meters":24800,"station_id":"ce4bgth2rcd13ifvqch0","pricing_plan_id":"cebpf4jnsgd1na2vs0mg"},{"bike_id":"fb018fac-6eef-49af-bd5b-057049b63181","system_id":"levelo_inurba_marseille","lat":43.28638,"lon":5.35079,"is_reserved":false,"is_disabled":false,"rental_uris":{"android":"levelo://app?vid=fb018fac-6eef-49af-bd5b-057049b63181","ios":"levelo://app?vid=fb018fac-6eef-49af-bd5b-057049b63181"},"vehicle_type_id":"4","last_reported":1770961921,"current_range_meters":19600,"station_id":"ce4bhch2rcd13ifvqeug","pricing_plan_id":"cebpf4jnsgd1na2vs0mg"},{"bike_id":"3bb5bc67-1d0a-4908-8016-273223517602","system_id":"levelo_inurba_marseille","lat":43.260704,"lon":5.393922,"is_reserved":false,"is_disabled":false,"rental_uris":{"android":"levelo://app?vid=3bb5bc67-1d0a-4908-8016-273223517602","ios":"levelo://app?vid=3bb5bc67-1d0a-4908-8016-273223517602"},"vehicle_type_id":"4","last_reported":1770961921,"current_range_meters":11600,"station_id":"","pricing_plan_id":"cebpf4jnsgd1na2vs0mg"},{"bike_id":"2343f786-5218-4a99-8de9-4404ca433701","system_id":"levelo_inurba_marseille","lat":43.26212,"lon":5.37453,"is_reserved":false,"is_disabled":false,"rental_uris":{"android":"levelo://app?vid=2343f786-5218-4a99-8de9-4404ca433701","ios":"levelo://app?vid=2343f786-5218-4a99-8de9-4404ca433701"},"vehicle_type_id":"4","last_reported":1770961921,"current_range_meters":35600,"station_id":"ce4bhgp2rcd13ifvqfc0","pricing_plan_id":"cebpf4jnsgd1na2vs0mg"},{"bike_id":"c1b36981-2407-4376-85d9-fb3bd1a789c0","system_id":"levelo_inurba_marseille","lat":43.280335,"lon":5.369514,"is_reserved":false,"is_disabled":false,"rental_uris":{"android":"levelo://app?vid=c1b36981-2407-4376-85d9-fb3bd1a789c0","ios":"levelo://app?vid=c1b36981-2407-4376-85d9-fb3bd1a789c0"},"vehicle_type_id":"4","last_reported":1770961921,"current_range_meters":38800,"station_id":"ce4bha12rcd13ifvqef0","pricing_plan_id":"cebpf4jnsgd1na2vs0mg"},{"bike_id":"daf88a4a-38c1-4a48-9faf-8edd173ac368","system_id":"levelo_inurba_marseille","lat":43.31192,"lon":5.38715,"is_reserved":false,"is_disabled":true,"rental_uris":{"android":"levelo://app?vid=daf88a4a-38c1-4a48-9faf-8edd173ac368","ios":"levelo://app?vid=daf88a4a-38c1-4a48-9faf-8edd173ac368"},"vehicle_type_id":"4","last_reported":1770961921,"current_range_meters":34800,"station_id":"ce4bgv12rcd13ifvqcp0","pricing_plan_id":"cebpf4jnsgd1na2vs0mg"},{"bike_id":"24beea5a-2b5a-498b-8ea8-a6b69dfa911e","system_id":"levelo_inurba_marseille","lat":43.24631,"lon":5.43139,"is_reserved":false,"is_disabled":false,"rental_uris":{"android":"levelo://app?vid=24beea5a-2b5a-498b-8ea8-a6b69dfa911e","ios":"levelo://app?vid=24beea5a-2b5a-498b-8ea8-a6b69dfa911e"},"vehicle_type_id":"4","last_reported":1770961921,"current_range_meters":38000,"station_id":"st_d2m6c4gdas8pm72e190g","pricing_plan_id":"cebpf4jnsgd1na2vs0mg"},{"bike_id":"244dce9a-d954-4b37-ae15-1ed94931cff6","system_id":"levelo_inurba_marseille","lat":43.30416,"lon":5.41267,"is_reserved":false,"is_disabled":false,"rental_uris":{"android":"levelo://app?vid=244dce9a-d954-4b37-ae15-1ed94931cff6","ios":"levelo://app?vid=244dce9a-d954-4b37-ae15-1ed94931cff6"},"vehicle_type_id":"4","last_reported":1770961921,"current_range_meters":24400,"station_id":"ce4bhop2rcd13ifvqh8g","pricing_plan_id":"cebpf4jnsgd1na2vs0mg"},{"bike_id":"b83bc942-822a-4d1e-8290-a8b480c1b19e","system_id":"levelo_inurba_marseille","lat":43.27882,"lon":5.3803,"is_reserved":false,"is_disabled":false,"rental_uris":{"android":"levelo://app?vid=b83bc942-822a-4d1e-8290-a8b480c1b19e","ios":"levelo://app?vid=b83bc942-822a-4d1e-8290-a8b480c1b19e"},"vehicle_type_id":"4","last_reported":1770961921,"current_range_meters":39200,"station_id":"ce4bhf92rcd13ifvqf50","pricing_plan_id":"cebpf4jnsgd1na2vs0mg"},{"bike_id":"d71db69c-c1ed-4115-9a4f-32aa86e9209d","system_id":"levelo_inurba_marseille","lat":43.249951,"lon":5.389253,"is_reserved":false,"is_disabled":false,"rental_uris":{"android":"levelo://app?vid=d71db69c-c1ed-4115-9a4f-32aa86e9209d","ios":"levelo://app?vid=d71db69c-c1ed-4115-9a4f-32aa86e9209d"},"vehicle_type_id":"4","last_reported":1770961921,"current_range_meters":32000,"station_id":"ce4bhgp2rcd13ifvqfd0","pricing_plan_id":"cebpf4jnsgd1na2vs0mg"},{"bike_id":"d2229b13-3c01-426f-a1c3-3c9e5d3accfe","system_id":"levelo_inurba_marseille","lat":43.23343,"lon":5.41299,"is_reserved":false,"is_disabled":false,"rental_uris":{"android":"levelo://app?vid=d2229b13-3c01-426f-a1c3-3c9e5d3accfe","ios":"levelo://app?vid=d2229b13-3c01-426f-a1c3-3c9e5d3accfe"},"vehicle_type_id":"4","last_reported":1770961921,"current_range_meters":13600,"station_id":"","pricing_plan_id":"cebpf4jnsgd1na2vs0mg"},{"bike_id":"3160a97f-9089-4a8d-91ae-0fdceead8b96","system_id":"levelo_inurba_marseille","lat":43.24808,"lon":5.37471,"is_reserved":false,"is_disabled":false,"rental_uris":{"android":"levelo://app?vid=3160a97f-9089-4a8d-91ae-0fdceead8b96","ios":"levelo://app?vid=3160a97f-9089-4a8d-91ae-0fdceead8b96"},"vehicle_type_id":"4","last_reported":1770961921,"current_range_meters":19200,"station_id":"ce4bhgh2rcd13ifvqfb0","pricing_plan_id":"cebpf4jnsgd1na2vs0mg"},{"bike_id":"0bc9d2d9-88ab-4fdc-86f6-4c68d4cb1fc0","system_id":"levelo_inurba_marseille","lat":43.26492,"lon":5.39543,"is_reserved":false,"is_disabled":false,"rental_uris":{"android":"levelo://app?vid=0bc9d2d9-88ab-4fdc-86f6-4c68d4cb1fc0","ios":"levelo://app?vid=0bc9d2d9-88ab-4fdc-86f6-4c68d4cb1fc0"},