{"last_updated":1729887011,"ttl":60,"version":"2.2","data":{"bikes":[{"bike_id":"d8a299f6-9441-4d42-984d-8fe010a840ae","system_id":"levelo_inurba_marseille","lat":43.29261,"lon":5.38439,"is_reserved":false,"is_disabled":false,"rental_uris":{"android":"levelo://app?vid=d8a299f6-9441-4d42-984d-8fe010a840ae","ios":"levelo://app?vid=d8a299f6-9441-4d42-984d-8fe010a840ae"},"vehicle_type_id":"4","last_reported":1729887011,"current_range_meters":31200,"station_id":"ce4bh692rcd13ifvqea0","pricing_plan_id":"cebpf4jnsgd1na2vs0mg"},{"bike_id":"e7acb64b-c61f-47b2-a8af-1a312a4d2a8b","system_id":"levelo_inurba_marseille","lat":43.2808,"lon":5.39662,"is_reserved":false,"is_disabled":false,"rental_uris":{"android":"levelo://app?vid=e7acb64b-c61f-47b2-a8af-1a312a4d2a8b","ios":"levelo://app?vid=e7acb64b-c61f-47b2-a8af-1a312a4d2a8b"},"vehicle_type_id":"4","last_reported":1729887011,"current_range_meters":28400,"station_id":"ce4bho12rcd13ifvqh2g","pricing_plan_id":"cebpf4jnsgd1na2vs0mg"},{"bike_id":"4659a70b-c2a2-453e-aeb0-2d762d64b6db","system_id":"levelo_inurba_marseille","lat":43.27084,"lon":5.42296,"is_reserved":false,"is_disabled":false,"rental_uris":{"android":"levelo://app?vid=4659a70b-c2a2-453e-aeb0-2d762d64b6db","ios":"levelo://app?vid=4659a70b-c2a2-453e-aeb0-2d762d64b6db"},"vehicle_type_id":"4","last_reported":1729887011,"current_range_meters":10800,"station_id":"ce4bhk92rcd13ifvqgb0","pricing_plan_id":"cebpf4jnsgd1na2vs0mg"},{"bike_id":"bddddada-322c-432e-a1b4-7a7503ec4a2e","system_id":"levelo_inurba_marseille","lat":43.29164,"lon":5.37156,"is_reserved":false,"is_disabled":false,"rental_uris":{"android":"levelo://app?vid=bddddada-322c-432e-a1b4-7a7503ec4a2e","ios":"levelo://app?vid=bddddada-322c-432e-a1b4-7a7503ec4a2e"},"vehicle_type_id":"4","last_reported":1729887011,"current_range_meters":9600,"station_id":"ce4bha92rcd13ifvqeh0","pricing_plan_id":"cebpf4jnsgd1na2vs0mg"},{"bike_id":"14055475-ea9e-4773-b397-4de751cf750e","system_id":"levelo_inurba_marseille","lat":43.30425,"lon":5.39748,"is_reserved":false,"is_disabled":false,"rental_uris":{"android":"levelo://app?vid=14055475-ea9e-4773-b397-4de751cf750e","ios":"levelo://app?vid=14055475-ea9e-4773-b397-4de751cf750e"},"vehicle_type_id":"4","last_reported":1729887011,"current_range_meters":38800,"station_id":"ce4bh092rcd13ifvqd20","pricing_plan_id":"cebpf4jnsgd1na2vs0mg"},{"bike_id":"84524af5-cab8-45d6-a697-cd4124bee7ac","system_id":"levelo_inurba_marseille","lat":43.25122,"lon":5.40317,"is_reserved":false,"is_disabled":false,"rental_uris":{"android":"levelo://app?vid=84524af5-cab8-45d6-a697-cd4124bee7ac","ios":"levelo://app?vid=84524af5-cab8-45d6-a697-cd4124bee7ac"},"vehicle_type_id":"4","last_reported":1729887011,"current_range_meters":38800,"station_id":"ce4bhlh2rcd13ifvqgig","pricing_plan_id":"cebpf4jnsgd1na2vs0mg"},{"bike_id":"7dea3e7e-d097-49d0-a088-22b8f2f11a9f","system_id":"levelo_inurba_marseille","lat":43.29102,"lon":5.38146,"is_reserved":false,"is_disabled":false,"rental_uris":{"android":"levelo://app?vid=7dea3e7e-d097-49d0-a088-22b8f2f11a9f","ios":"levelo://app?vid=7dea3e7e-d097-49d0-a088-22b8f2f11a9f"},"vehicle_type_id":"4","last_reported":1729887011,"current_range_meters":34000,"station_id":"ce4bh512rcd13ifvqe2g","pricing_plan_id":"cebpf4jnsgd1na2vs0mg"},{"bike_id":"c5aafe13-b899-44c2-abf6-843ce01ed788","system_id":"levelo_inurba_marseille","lat":43.28373,"lon":5.38621,"is_reserved":false,"is_disabled":false,"rental_uris":{"android":"levelo://app?vid=c5aafe13-b899-44c2-abf6-843ce01ed788","ios":"levelo://app?vid=c5aafe13-b899-44c2-abf6-843ce01ed788"},"vehicle_type_id":"4","last_reported":1729887011,"current_range_meters":23200,"station_id":"ce4bh492rcd13ifvqdvg","pricing_plan_id":"cebpf4jnsgd1na2vs0mg"},{"bike_id":"841662d0-f257-4608-a6c6-ca3bef331737","system_id":"levelo_inurba_marseille","lat":43.32658,"lon":5.40997,"is_reserved":false,"is_disabled":false,"rental_uris":{"android":"levelo://app?vid=841662d0-f257-4608-a6c6-ca3bef331737","ios":"levelo://app?vid=841662d0-f257-4608-a6c6-ca3bef331737"},"vehicle_type_id":"4","last_reported":1729887011,"current_range_meters":37600,"station_id":"ce4bhpp2rcd13ifvqhgg","pricing_plan_id":"cebpf4jnsgd1na2vs0mg"},{"bike_id":"b4c756f2-e430-4255-9c97-c5520c13fb0d","system_id":"levelo_inurba_marseille","lat":43.29892,"lon":5.436767,"is_reserved":false,"is_disabled":false,"rental_uris":{"android":"levelo://app?vid=b4c756f2-e430-4255-9c97-c5520c13fb0d","ios":"levelo://app?vid=b4c756f2-e430-4255-9c97-c5520c13fb0d"},"vehicle_type_id":"4","last_reported":1729887011,"current_range_meters":18000,"station_id":"ce4bhpp2rcd13ifvqhfg","pricing_plan_id":"cebpf4jnsgd1na2vs0mg"},{"bike_id":"658bfff3-7447-4dd6-9000-656b6647cd35","system_id":"levelo_inurba_marseille","lat":43.29863,"lon":5.39736,"is_reserved":false,"is_disabled":false,"rental_uris":{"android":"levelo://app?vid=658bfff3-7447-4dd6-9000-656b6647cd35","ios":"levelo://app?vid=658bfff3-7447-4dd6-9000-656b6647cd35"},"vehicle_type_id":"4","last_reported":1729887011,"current_range_meters":20000,"station_id":"ce4bh0h2rcd13ifvqd50","pricing_plan_id":"cebpf4jnsgd1na2vs0mg"},{"bike_id":"ba23ff9b-4577-427e-a1be-4c831a6f0132","system_id":"levelo_inurba_marseille","lat":43.28045,"lon":5.36948,"is_reserved":false,"is_disabled":false,"rental_uris":{"android":"levelo://app?vid=ba23ff9b-4577-427e-a1be-4c831a6f0132","ios":"levelo://app?vid=ba23ff9b-4577-427e-a1be-4c831a6f0132"},"vehicle_type_id":"4","last_reported":1729887011,"current_range_meters":38800,"station_id":"ce4bha12rcd13ifvqef0","pricing_plan_id":"cebpf4jnsgd1na2vs0mg"},{"bike_id":"9ffb85a6-582c-466a-a86d-2d71ad8b44fe","system_id":"levelo_inurba_marseille","lat":43.26779,"lon":5.39424,"is_reserved":false,"is_disabled":false,"rental_uris":{"android":"levelo://app?vid=9ffb85a6-582c-466a-a86d-2d71ad8b44fe","ios":"levelo://app?vid=9ffb85a6-582c-466a-a86d-2d71ad8b44fe"},"vehicle_type_id":"4","last_reported":1729887011,"current_range_meters":38800,"station_id":"ce4bhh12rcd13ifvqfg0","pricing_plan_id":"cebpf4jnsgd1na2vs0mg"},{"bike_id":"9b32293b-81be-45fa-8866-6b871c88cbf7","system_id":"levelo_inurba_marseille","lat":43.29423,"lon":5.38626,"is_reserved":false,"is_disabled":false,"rental_uris":{"android":"levelo://app?vid=9b32293b-81be-45fa-8866-6b871c88cbf7","ios":"levelo://app?vid=9b32293b-81be-45fa-8866-6b871c88cbf7"},"vehicle_type_id":"4","last_reported":1729887011,"current_range_meters":35200,"station_id":"ce4bh2h2rcd13ifvqdh0","pricing_plan_id":"cebpf4jnsgd1na2vs0mg"},{"bike_id":"2818ef3d-c10c-4252-882d-b244205aa826","system_id":"levelo_inurba_marseille","lat":43.29418,"lon":5.38628,"is_reserved":false,"is_disabled":false,"rental_uris":{"android":"levelo://app?vid=2818ef3d-c10c-4252-882d-b244205aa826","ios":"levelo://app?vid=2818ef3d-c10c-4252-882d-b244205aa826"},"vehicle_type_id":"4","last_reported":1729887011,"current_range_meters":38800,"station_id":"ce4bh2h2rcd13ifvqdh0","pricing_plan_id":"cebpf4jnsgd1na2vs0mg"},{"bike_id":"1542f6de-3dd1-481c-99dc-f28588a5d22a","system_id":"levelo_inurba_marseille","lat":43.31335,"lon":5.39699,"is_reserved":false,"is_disabled":false,"rental_uris":{"android":"levelo://app?vid=1542f6de-3dd1-481c-99dc-f28588a5d22a","ios":"levelo://app?vid=1542f6de-3dd1-481c-99dc-f28588a5d22a"},"vehicle_type_id":"4","last_reported":1729887011,"current_range_meters":14400,"station_id":"ce4bgvp2rcd13ifvqcu0","pricing_plan_id":"cebpf4jnsgd1na2vs0mg"},{"bike_id":"865124a8-5cf8-4f1f-ba5e-7dd42a2c84cc","system_id":"levelo_inurba_marseille","lat":43.28273,"lon":5.3506,"is_reserved":false,"is_disabled":false,"rental_uris":{"android":"levelo://app?vid=865124a8-5cf8-4f1f-ba5e-7dd42a2c84cc","ios":"levelo://app?vid=865124a8-5cf8-4f1f-ba5e-7dd42a2c84cc"},"vehicle_type_id":"4","last_reported":1729887011,"current_range_meters":17200,"station_id":"ce4bhbp2rcd13ifvqerg","pricing_plan_id":"cebpf4jnsgd1na2vs0mg"},{"bike_id":"d5ea47c9-768a-468d-bdf2-2b85271b8d40","system_id":"levelo_inurba_marseille","lat":43.2943,"lon":5.3861,"is_reserved":false,"is_disabled":false,"rental_uris":{"android":"levelo://app?vid=d5ea47c9-768a-468d-bdf2-2b85271b8d40","ios":"levelo://app?vid=d5ea47c9-768a-468d-bdf2-2b85271b8d40"},"vehicle_type_id":"4","last_reported":1729887011,"current_range_meters":20800,"station_id":"ce4bh2h2rcd13ifvqdh0","pricing_plan_id":"cebpf4jnsgd1na2vs0mg"},{"bike_id":"18804063-331e-4991-93e0-ffec814a97d6","system_id":"levelo_inurba_marseille","lat":43.29963,"lon":5.3853,"is_reserved":false,"is_disabled":false,"rental_uris":{"android":"levelo://app?vid=18804063-331e-4991-93e0-ffec814a97d6","ios":"levelo://app?vid=18804063-331e-4991-93e0-ffec814a97d6"},"vehicle_type_id":"4","last_reported":1729887011,"current_range_meters":20800,"station_id":"ce4bgj92rcd13ifvqbd0","pricing_plan_id":"cebpf4jnsgd1na2vs0mg"},{"bike_id":"f4526530-9fcc-4329-9755-efd0fbf82cd5","system_id":"levelo_inurba_marseille","lat":43.301788,"lon":5.377942,"is_reserved":false,"is_disabled":false,"rental_uris":{"android":"levelo://app?vid=f4526530-9fcc-4329-9755-efd0fbf82cd5","ios":"levelo://app?vid=f4526530-9fcc-4329-9755-efd0fbf82cd5"},"vehicle_type_id":"4","last_reported":1729887011,"current_range_meters":18800,"station_id":"","pricing_plan_id":"cebpf4jnsgd1na2vs0mg"},{"bike_id":"6808fcb5-90eb-4a1a-b9d1-e9cbf1894174","system_id":"levelo_inurba_marseille","lat":43.31176,"lon":5.38713,"is_reserved":false,"is_disabled":false,"rental_uris":{"android":"levelo://app?vid=6808fcb5-90eb-4a1a-b9d1-e9cbf1894174","ios":"levelo://app?vid=6808fcb5-90eb-4a1a-b9d1-e9cbf1894174"},"vehicle_type_id":"4","last_reported":1729887011,"current_range_meters":37600,"station_id":"ce4bgv12rcd13ifvqcp0","pricing_plan_id":"cebpf4jnsgd1na2vs0mg"},{"bike_id":"1bebfdbd-c17c-441e-a4f8-3f500ea76e5c","system_id":"levelo_inurba_marseille","lat":43.29219,"lon":5.39324,"is_reserved":false,"is_disabled":false,"rental_uris":{"android":"levelo://app?vid=1bebfdbd-c17c-441e-a4f8-3f500ea76e5c","ios":"levelo://app?vid=1bebfdbd-c17c-441e-a4f8-3f500ea76e5c"},"vehicle_type_id":"4","last_reported":1729887011,"current_range_meters":36400,"station_id":"ce4bh192rcd13ifvqdd0","pricing_plan_id":"cebpf4jnsgd1na2vs0mg"},{"bike_id":"fe7c44a1-56eb-4d12-9924-492e13140e6b","system_id":"levelo_inurba_marseille","lat":43.2942,"lon":5.38627,"is_reserved":false,"is_disabled":false,"rental_uris":{"android":"levelo://app?vid=fe7c44a1-56eb-4d12-9924-492e13140e6b","ios":"levelo://app?vid=fe7c44a1-56eb-4d12-9924-492e13140e6b"},"vehicle_type_id":"4","last_reported":1729887011,"current_range_meters":32400,"station_id":"ce4bh2h2rcd13ifvqdh0","pricing_plan_id":"cebpf4jnsgd1na2vs0mg"},{"bike_id":"9b63ee65-32d7-4702-869c-3c04224851e5","system_id":"levelo_inurba_marseille","lat":43.29419,"lon":5.38627,"is_reserved":false,"is_disabled":false,"rental_uris":{"android":"levelo://app?vid=9b63ee65-32d7-4702-869c-3c04224851e5","ios":"levelo://app?vid=9b63ee65-32d7-4702-869c-3c04224851e5"},"vehicle_type_id":"4","last_reported":1729887011,"current_range_meters":25200,"station_id":"ce4bh2h2rcd13ifvqdh0","pricing_plan_id":"cebpf4jnsgd1na2vs0mg"},{"bike_id":"a1579f1f-1039-467b-99c0-eff8c469a9f1","system_id":"levelo_inurba_marseille","lat":43.27837,"lon":5.39199,"is_reserved":false,"is_disabled":false,"rental_uris":{"android":"levelo://app?vid=a1579f1f-1039-467b-99c0-eff8c469a9f1","ios":"levelo://app?vid=a1579f1f-1039-467b-99c0-eff8c469a9f1"},"vehicle_type_id":"4","last_reported":1729887011,"current_range_meters":12400,"station_id":"ce4bhjp2rcd13ifvqga0","pricing_plan_id":"cebpf4jnsgd1na2vs0mg"},{"bike_id":"b0ed08f1-3bc6-4da5-ad00-65687ed7db87","system_id":"levelo_inurba_marseille","lat":43.29868,"lon":5.39747,"is_reserved":false,"is_disabled":false,"rental_uris":{"android":"levelo://app?vid=b0ed08f1-3bc6-4da5-ad00-65687ed7db87","ios":"levelo://app?vid=b0ed08f1-3bc6-4da5-ad00-65687ed7db87"},"vehicle_type_id":"4","last_reported":1729887011,"current_range_meters":34800,"station_id":"ce4bh0h2rcd13ifvqd50","pricing_plan_id":"cebpf4jnsgd1na2vs0mg"},{"bike_id":"cbc5287e-dce8-418e-bac7-864a68889123","system_id":"levelo_inurba_marseille","lat":43.28418,"lon":5.34986,"is_reserved":false,"is_disabled":false,"rental_uris":{"android":"levelo://app?vid=cbc5287e-dce8-418e-bac7-864a68889123","ios":"levelo://app?vid=cbc5287e-dce8-418e-bac7-864a68889123"},"vehicle_type_id":"4","last_reported":1729887011,"current_range_meters":9200,"station_id":"ce4bhbh2rcd13ifvqepg","pricing_plan_id":"cebpf4jnsgd1na2vs0mg"},{"bike_id":"11f74dc2-d7f0-4370-95f5-87920a527352","system_id":"levelo_inurba_marseille","lat":43.26493,"lon":5.39547,"is_reserved":false,"is_disabled":false,"rental_uris":{"android":"levelo://app?vid=11f74dc2-d7f0-4370-95f5-87920a527352","ios":"levelo://app?vid=11f74dc2-d7f0-4370-95f5-87920a527352"},"vehicle_type_id":"4","last_reported":1729887011,"current_range_meters":19200,"station_id":"ce4bhi12rcd13ifvqfq0","pricing_plan_id":"cebpf4jnsgd1na2vs0mg"},{"bike_id":"d3ad0654-8b42-424b-9819-4bfe010ac5af","system_id":"levelo_inurba_marseille","lat":43.24545,"lon":5.39523,"is_reserved":false,"is_disabled":false,"rental_uris":{"android":"levelo://app?vid=d3ad0654-8b42-424b-9819-4bfe010ac5af","ios":"levelo://app?vid=d3ad0654-8b42-424b-9819-4bfe010ac5af"},"vehicle_type_id":"4","last_reported":1729887011,"current_range_meters":38000,"station_id":"ce4bhlp2rcd13ifvqgjg","pricing_plan_id":"cebpf4jnsgd1na2vs0mg"},{"bike_id":"0f5617b7-0195-4f65-9258-9fd6f248d86e","system_id":"levelo_inurba_marseille","lat":43.29006,"lon":5.35598,"is_reserved":false,"is_disabled":false,"rental_uris":{"android":"levelo://app?vid=0f5617b7-0195-4f65-9258-9fd6f248d86e","ios":"levelo://app?vid=0f5617b7-0195-4f65-9258-9fd6f248d86e"},"vehicle_type_id":"4","last_reported":1729887011,"current_range_meters":20000,"station_id":"ce4bhb92rcd13ifvqen0","pricing_plan_id":"cebpf4jnsgd1na2vs0mg"},{"bike_id":"911987a0-1fc2-4e65-a7da-1d0539091a28","system_id":"levelo_inurba_marseille","lat":43.28153,"lon":5.42647,"is_reserved":false,"is_disabled":false,"rental_uris":{"android":"levelo://app?vid=911987a0-1fc2-4e65-a7da-1d0539091a28","ios":"levelo://app?vid=911987a0-1fc2-4e65-a7da-1d0539091a28"},"vehicle_type_id":"4","last_reported":1729887011,"current_range_meters":26800,"station_id":"ce4bhnh2rcd13ifvqgug","pricing_plan_id":"cebpf4jnsgd1na2vs0mg"},{"bike_id":"63a1a4b4-12bd-4f7e-833d-a9eb98822fc0","system_id":"levelo_inurba_marseille","lat":43.29252,"lon":5.3844,"is_reserved":false,"is_disabled":false,"rental_uris":{"android":"levelo://app?vid=63a1a4b4-12bd-4f7e-833d-a9eb98822fc0","ios":"levelo://app?vid=63a1a4b4-12bd-4f7e-833d-a9eb98822fc0"},"vehicle_type_id":"4","last_reported":1729887011,"current_range_meters":5600,"station_id":"ce4bh692rcd13ifvqea0","pricing_plan_id":"cebpf4jnsgd1na2vs0mg"},{"bike_id":"16f01b80-c7fb-4fde-83a6-d307c062a13d","system_id":"levelo_inurba_marseille","lat":43.29433,"lon":5.38628,"is_reserved":false,"is_disabled":false,"rental_uris":{"android":"levelo://app?vid=16f01b80-c7fb-4fde-83a6-d307c062a13d","ios":"levelo://app?vid=16f01b80-c7fb-4fde-83a6-d307c062a13d"},"vehicle_type_id":"4","last_reported":1729887011,"current_range_meters":19200,"station_id":"ce4bh2h2rcd13ifvqdh0","pricing_plan_id":"cebpf4jnsgd1na2vs0mg"},{"bike_id":"bbbf1317-0cef-47f4-b80a-4dcb1e32720d","system_id":"levelo_inurba_marseille","lat":43.32342,"lon":5.40623,"is_reserved":false,"is_disabled":false,"rental_uris":{"android":"levelo://app?vid=bbbf1317-0cef-47f4-b80a-4dcb1e32720d","ios":"levelo://app?vid=bbbf1317-0cef-47f4-b80a-4dcb1e32720d"},"vehicle_type_id":"4","last_reported":1729887011,"current_range_meters":38800,"station_id":"ce4bhq92rcd13ifvqhjg","pricing_plan_id":"cebpf4jnsgd1na2vs0mg"},{"bike_id":"b3109803-d47b-436f-b74c-95452c892363","system_id":"levelo_inurba_marseille","lat":43.27818,"lon":5.40712,"is_reserved":false,"is_disabled":false,"rental_uris":{"android":"levelo://app?vid=b3109803-d47b-436f-b74c-95452c892363","ios":"levelo://app?vid=b3109803-d47b-436f-b74c-95452c892363"},"vehicle_type_id":"4","last_reported":1729887011,"current_range_meters":38800,"station_id":"ce4bhnh2rcd13ifvqgtg","pricing_plan_id":"cebpf4jnsgd1na2vs0mg"},{"bike_id":"914671d9-159b-452e-80e3-3092799d2235","system_id":"levelo_inurba_marseille","lat":43.32334,"lon":5.40618,"is_reserved":false,"is_disabled":false,"rental_uris":{"android":"levelo://app?vid=914671d9-159b-452e-80e3-3092799d2235","ios":"levelo://app?vid=914671d9-159b-452e-80e3-3092799d2235"},"vehicle_type_id":"4","last_reported":1729887011,"current_range_meters":27200,"station_id":"ce4bhq92rcd13ifvqhjg","pricing_plan_id":"cebpf4jnsgd1na2vs0mg"},{"bike_id":"08b2c4fc-6de9-4b68-86be-0eac11f0ad49","system_id":"levelo_inurba_marseille","lat":43.29205,"lon":5.39319,"is_reserved":false,"is_disabled":false,"rental_uris":{"android":"levelo://app?vid=08b2c4fc-6de9-4b68-86be-0eac11f0ad49","ios":"levelo://app?vid=08b2c4fc-6de9-4b68-86be-0eac11f0ad49"},"vehicle_type_id":"4","last_reported":1729887011,"current_range_meters":36400,"station_id":"ce4bh192rcd13ifvqdd0","pricing_plan_id":"cebpf4jnsgd1na2vs0mg"},{"bike_id":"db7f3dcb-7f8d-40dc-8b80-c10b2d2d308b","system_id":"levelo_inurba_marseille","lat":43.27553,"lon":5.38421,"is_reserved":false,"is_disabled":false,"rental_uris":{"android":"levelo://app?vid=db7f3dcb-7f8d-40dc-8b80-c10b2d2d308b","ios":"levelo://app?vid=db7f3dcb-7f8d-40dc-8b80-c10b2d2d308b"},"vehicle_type_id":"4","last_reported":1729887011,"current_range_meters":31200,"station_id":"ce4bhh92rcd13ifvqfi0","pricing_plan_id":"cebpf4jnsgd1na2vs0mg"},{"bike_id":"574321db-1f88-46d0-ae4f-abf349feeaad","system_id":"levelo_inurba_marseille","lat":43.29422,"lon":5.38606,"is_reserved":false,"is_disabled":false,"rental_uris":{"android":"levelo://app?vid=574321db-1f88-46d0-ae4f-abf349feeaad","ios":"levelo://app?vid=574321db-1f88-46d0-ae4f-abf349feeaad"},"vehicle_type_id":"4","last_reported":1729887011,"current_range_meters":6400,"station_id":"ce4bh2h2rcd13ifvqdh0","pricing_plan_id":"cebpf4jnsgd1na2vs0mg"},{"bike_id":"89206673-fdc6-4c61-b767-c66677e18d0b","system_id":"levelo_inurba_marseille","lat":43.22931,"lon":5.35378,"is_reserved":false,"is_disabled":false,"rental_uris":{"android":"levelo://app?vid=89206673-fdc6-4c61-b767-c66677e18d0b","ios":"levelo://app?vid=89206673-fdc6-4c61-b767-c66677e18d0b"},"vehicle_type_id":"4","last_reported":1729887011,"current_range_meters":35200,"station_id":"cpo3532slgdg3j2ikp40","pricing_plan_id":"cebpf4jnsgd1na2vs0mg"},{"bike_id":"ced98659-8758-459e-b747-193d45b4c0dd","system_id":"levelo_inurba_marseille","lat":43.31684,"lon":5.40473,"is_reserved":false,"is_disabled":false,"rental_uris":{"android":"levelo://app?vid=ced98659-8758-459e-b747-193d45b4c0dd","ios":"levelo://app?vid=ced98659-8758-459e-b747-193d45b4c0dd"},"vehicle_type_id":"4","last_reported":1729887011,"current_range_meters":38800,"station_id":"ce4bh012rcd13ifvqd00","pricing_plan_id":"cebpf4jnsgd1na2vs0mg"},{"bike_id":"a8c759c2-8ab0-4ec9-aa09-a4fa585359a0","system_id":"levelo_inurba_marseille","lat":43.2656,"lon":5.37287,"is_reserved":false,"is_disabled":false,"rental_uris":{"android":"levelo://app?vid=a8c759c2-8ab0-4ec9-aa09-a4fa585359a0","ios":"levelo://app?vid=a8c759c2-8ab0-4ec9-aa09-a4fa585359a0"},"vehicle_type_id":"4","last_reported":1729887011,"current_range_meters":31200,"station_id":"ce4bhg12rcd13ifvqf70","pricing_plan_id":"cebpf4jnsgd1na2vs0mg"},{"bike_id":"157da5b6-adf6-47cb-9e35-f1ed9c9ad62a","system_id":"levelo_inurba_marseille","lat":43.26932,"lon":5.38912,"is_reserved":false,"is_disabled":false,"rental_uris":{"android":"levelo://app?vid=157da5b6-adf6-47cb-9e35-f1ed9c9ad62a","ios":"levelo://app?vid=157da5b6-adf6-47cb-9e35-f1ed9c9ad62a"},"vehicle_type_id":"4","last_reported":1729887011,"current_range_meters":22400,"station_id":"ce4bhhh2rcd13ifvqfl0","pricing_plan_id":"cebpf4jnsgd1na2vs0mg"},{"bike_id":"e3692c96-52f3-4ad7-b841-66a6b18dd100","system_id":"levelo_inurba_marseille","lat":43.290375,"lon":5.359238,"is_reserved":false,"is_disabled":false,"rental_uris":{"android":"levelo://app?vid=e3692c96-52f3-4ad7-b841-66a6b18dd100","ios":"levelo://app?vid=e3692c96-52f3-4ad7-b841-66a6b18dd100"},"vehicle_type_id":"4","last_reported":1729887011,"current_range_meters":36800,"station_id":"ce4bha92rcd13ifvqeg0","pricing_plan_id":"cebpf4jnsgd1na2vs0mg"},{"bike_id":"f0ce356b-f139-4755-9793-739614dc5c5c","system_id":"levelo_inurba_marseille","lat":43.27064,"lon":5.40247,"is_reserved":false,"is_disabled":false,"rental_uris":{"android":"levelo://app?vid=f0ce356b-f139-4755-9793-739614dc5c5c","ios":"levelo://app?vid=f0ce356b-f139-4755-9793-739614dc5c5c"},"vehicle_type_id":"4","last_reported":1729887011,"current_range_meters":35600,"station_id":"ce4bhk92rcd13ifvqgc0","pricing_plan_id":"cebpf4jnsgd1na2vs0mg"},{"bike_id":"fbda76cf-ad32-44f5-8e46-a16eaabd2829","system_id":"levelo_inurba_marseille","lat":43.22936,"lon":5.35376,"is_reserved":false,"is_disabled":false,"rental_uris":{"android":"levelo://app?vid=fbda76cf-ad32-44f5-8e46-a16eaabd2829","ios":"levelo://app?vid=fbda76cf-ad32-44f5-8e46-a16eaabd2829"},"vehicle_type_id":"4","last_reported":1729887011,"current_range_meters":17600,"station_id":"cpo3532slgdg3j2ikp40","pricing_plan_id":"cebpf4jnsgd1na2vs0mg"},{"bike_id":"d916e714-9a1c-426b-b0df-8f9ca106fed4","system_id":"levelo_inurba_marseille","lat":43.30897,"lon":5.42607,"is_reserved":false,"is_disabled":false,"rental_uris":{"android":"levelo://app?vid=d916e714-9a1c-426b-b0df-8f9ca106fed4","ios":"levelo://app?vid=d916e714-9a1c-426b-b0df-8f9ca106fed4"},"vehicle_type_id":"4","last_reported":1729887011,"current_range_meters":30000,"station_id":"","pricing_plan_id":"cebpf4jnsgd1na2vs0mg"},{"bike_id":"1b7b1361-5e49-45ff-8027-9b2bf3a7c822","system_id":"levelo_inurba_marseille","lat":43.28044,"lon":5.36948,"is_reserved":false,"is_disabled":false,"rental_uris":{"android":"levelo://app?vid=1b7b1361-5e49-45ff-8027-9b2bf3a7c822","ios":"levelo://app?vid=1b7b1361-5e49-45ff-8027-9b2bf3a7c822"},"vehicle_type_id":"4","last_reported":1729887011,"current_range_meters":22400,"station_id":"ce4bha12rcd13ifvqef0","pricing_plan_id":"cebpf4jnsgd1na2vs0mg"},{"bike_id":"80f527fb-9c45-46f6-8b3a-38dc8685d303","system_id":"levelo_inurba_marseille","lat":43.29875,"lon":5.39735,"is_reserved":false,"is_disabled":false,"rental_uris":{"android":"levelo://app?vid=80f527fb-9c45-46f6-8b3a-38dc8685d303","ios":"levelo://app?vid=80f527fb-9c45-46f6-8b3a-38dc8685d303"},"vehicle_type_id":"4","last_reported":1729887011,"current_range_meters":38800,"station_id":"ce4bh0h2rcd13ifvqd50","pricing_plan_id":"cebpf4jnsgd1na2vs0mg"},{"bike_id":"99024db2-b5db-4737-935e-7f92bf8cf3b3","system_id":"levelo_inurba_marseille","lat":43.29593,"lon":5.39972,"is_reserved":false,"is_disabled":false,"rental_uris":{"android":"levelo://app?vid=99024db2-b5db-4737-935e-7f92bf8cf3b3","ios":"levelo://app?vid=99024db2-b5db-4737-935e-7f92bf8cf3b3"},"vehicle_type_id":"4","last_reported":1729887011,"current_range_meters":38800,"station_id":"ce4bh312rcd13ifvqdj0","pricing_plan_id":"cebpf4jnsgd1na2vs0mg"},{"bike_id":"8fac51d6-c255-4d52-a52c-3a6892999a9d","system_id":"levelo_inurba_marseille","lat":43.29417,"lon":5.38621,"is_reserved":false,"is_disabled":false,"rental_uris":{"android":"levelo://app?vid=8fac51d6-c255-4d52-a52c-3a6892999a9d","ios":"levelo://app?vid=8fac51d6-c255-4d52-a52c-3a6892999a9d"},"vehicle_type_id":"4","last_reported":1729887011,"current_range_meters":14800,"station_id":"ce4bh2h2rcd13ifvqdh0","pricing_plan_id":"cebpf4jnsgd1na2vs0mg"},{"bike_id":"d410a422-d192-420f-99cb-6334954f7d62","system_id":"levelo_inurba_marseille","lat":43.25836,"lon":5.39431,"is_reserved":false,"is_disabled":false,"rental_uris":{"android":"levelo://app?vid=d410a422-d192-420f-99cb-6334954f7d62","ios":"levelo://app?vid=d410a422-d192-420f-99cb-6334954f7d62"},"vehicle_type_id":"4","last_reported":1729887011,"current_range_meters":40000,"station_id":"ce4bhip2rcd13ifvqft0","pricing_plan_id":"cebpf4jnsgd1na2vs0mg"},{"bike_id":"904a5ea3-d5dd-4aa3-853f-ea7a93bbc745","system_id":"levelo_inurba_marseille","lat":43.31758,"lon":5.39015,"is_reserved":false,"is_disabled":false,"rental_uris":{"android":"levelo://app?vid=904a5ea3-d5dd-4aa3-853f-ea7a93bbc745","ios":"levelo://app?vid=904a5ea3-d5dd-4aa3-853f-ea7a93bbc745"},"vehicle_type_id":"4","last_reported":1729887011,"current_range_meters":29600,"station_id":"ce4bhqp2rcd13ifvqhng","pricing_plan_id":"cebpf4jnsgd1na2vs0mg"},{"bike_id":"bde40782-2920-4539-8da9-36e90758d17d","system_id":"levelo_inurba_marseille","lat":43.28703,"lon":5.39981,"is_reserved":false,"is_disabled":false,"rental_uris":{"android":"levelo://app?vid=bde40782-2920-4539-8da9-36e90758d17d","ios":"levelo://app?vid=bde40782-2920-4539-8da9-36e90758d17d"},"vehicle_type_id":"4","last_reported":1729887011,"current_range_meters":15200,"station_id":"ce4bho92rcd13ifvqh3g","pricing_plan_id":"cebpf4jnsgd1na2vs0mg"},{"bike_id":"433de629-f82d-43ab-8665-baa9160d552a","system_id":"levelo_inurba_marseille","lat":43.254983,"lon":5.376519,"is_reserved":false,"is_disabled":false,"rental_uris":{"android":"levelo://app?vid=433de629-f82d-43ab-8665-baa9160d552a","ios":"levelo://app?vid=433de629-f82d-43ab-8665-baa9160d552a"},"vehicle_type_id":"4","last_reported":1729887011,"current_range_meters":38800,"station_id":"ce4bhh12rcd13ifvqff0","pricing_plan_id":"cebpf4jnsgd1na2vs0mg"},{"bike_id":"a377c508-e273-402f-9064-dab880143860","system_id":"levelo_inurba_marseille","lat":43.28078,"lon":5.39662,"is_reserved":false,"is_disabled":false,"rental_uris":{"android":"levelo://app?vid=a377c508-e273-402f-9064-dab880143860","ios":"levelo://app?vid=a377c508-e273-402f-9064-dab880143860"},"vehicle_type_id":"4","last_reported":1729887011,"current_range_meters":17600,"station_id":"ce4bho12rcd13ifvqh2g","pricing_plan_id":"cebpf4jnsgd1na2vs0mg"},{"bike_id":"a579f22c-42af-4cbb-b1a9-0cf86de7789f","system_id":"levelo_inurba_marseille","lat":43.28046,"lon":5.3695,"is_reserved":false,"is_disabled":false,"rental_uris":{"android":"levelo://app?vid=a579f22c-42af-4cbb-b1a9-0cf86de7789f","ios":"levelo://app?vid=a579f22c-42af-4cbb-b1a9-0cf86de7789f"},"vehicle_type_id":"4","last_reported":1729887011,"current_range_meters":24800,"station_id":"ce4bha12rcd13ifvqef0","pricing_plan_id":"cebpf4jnsgd1na2vs0mg"},{"bike_id":"b2a76e7c-6aed-4b52-80bb-a0bf382c76cd","system_id":"levelo_inurba_marseille","lat":43.30933,"lon":5.40145,"is_reserved":false,"is_disabled":false,"rental_uris":{"android":"levelo://app?vid=b2a76e7c-6aed-4b52-80bb-a0bf382c76cd","ios":"levelo://app?vid=b2a76e7c-6aed-4b52-80bb-a0bf382c76cd"},"vehicle_type_id":"4","last_reported":1729887011,"current_range_meters":31200,"station_id":"ce4bgvp2rcd13ifvqct0","pricing_plan_id":"cebpf4jnsgd1na2vs0mg"},{"bike_id":"0443e84c-a2f4-461c-8b03-96d09e48717c","system_id":"levelo_inurba_marseille","lat":43.30198,"lon":5.36626,"is_reserved":false,"is_disabled":false,"rental_uris":{"android":"levelo://app?vid=0443e84c-a2f4-461c-8b03-96d09e48717c","ios":"levelo://app?vid=0443e84c-a2f4-461c-8b03-96d09e48717c"},"vehicle_type_id":"4","last_reported":1729887011,"current_range_meters":29600,"station_id":"ce4bgrh2rcd13ifvqc8g","pricing_plan_id":"cebpf4jnsgd1na2vs0mg"},{"bike_id":"30a58045-5e86-4621-8a97-37f74aea516a","system_id":"levelo_inurba_marseille","lat":43.31522,"lon":5.38741,"is_reserved":false,"is_disabled":false,"rental_uris":{"android":"levelo://app?vid=30a58045-5e86-4621-8a97-37f74aea516a","ios":"levelo://app?vid=30a58045-5e86-4621-8a97-37f74aea516a"},"vehicle_type_id":"4","last_reported":1729887011,"current_range_meters":12400,"station_id":"","pricing_plan_id":"cebpf4jnsgd1na2vs0mg"},{"bike_id":"585bddab-23a5-4e78-9e57-9779c242dddb","system_id":"levelo_inurba_marseille","lat":43.2942,"lon":5.38622,"is_reserved":false,"is_disabled":false,"rental_uris":{"android":"levelo://app?vid=585bddab-23a5-4e78-9e57-9779c242dddb","ios":"levelo://app?vid=585bddab-23a5-4e78-9e57-9779c242dddb"},"vehicle_type_id":"4","last_reported":1729887011,"current_range_meters":37600,"station_id":"ce4bh2h2rcd13ifvqdh0","pricing_plan_id":"cebpf4jnsgd1na2vs0mg"},{"bike_id":"e0b18b6e-ce93-4742-a184-6aa34e85b991","system_id":"levelo_inurba_marseille","lat":43.25933,"lon":5.40914,"is_reserved":false,"is_disabled":false,"rental_uris":{"android":"levelo://app?vid=e0b18b6e-ce93-4742-a184-6aa34e85b991","ios":"levelo://app?vid=e0b18b6e-ce93-4742-a184-6aa34e85b991"},"vehicle_type_id":"4","last_reported":1729887011,"current_range_meters":37600,"station_id":"ce4bhm92rcd13ifvqglg","pricing_plan_id":"cebpf4jnsgd1na2vs0mg"},{"bike_id":"ab2daa8c-0e0d-4562-8a05-b595f8f32529","system_id":"levelo_inurba_marseille","lat":43.31353,"lon":5.38488,"is_reserved":false,"is_disabled":false,"rental_uris":{"android":"levelo://app?vid=ab2daa8c-0e0d-4562-8a05-b595f8f32529","ios":"levelo://app?vid=ab2daa8c-0e0d-4562-8a05-b595f8f32529"},"vehicle_type_id":"4","last_reported":1729887011,"current_range_meters":12000,"station_id":"ce4bgt92rcd13ifvqcf0","pricing_plan_id":"cebpf4jnsgd1na2vs0mg"},{"bike_id":"6ac25fcb-3d66-4087-abc4-1a1333df56c1","system_id":"levelo_inurba_marseille","lat":43.29553,"lon":5.42288,"is_reserved":false,"is_disabled":false,"rental_uris":{"android":"levelo://app?vid=6ac25fcb-3d66-4087-abc4-1a1333df56c1","ios":"levelo://app?vid=6ac25fcb-3d66-4087-abc4-1a1333df56c1"},"vehicle_type_id":"4","last_reported":1729887011,"current_range_meters":3600,"station_id":"ce4bhph2rcd13ifvqhdg","pricing_plan_id":"cebpf4jnsgd1na2vs0mg"},{"bike_id":"7fd9032d-6b0f-4d6b-b8e0-23495d7481ec","system_id":"levelo_inurba_marseille","lat":43.29533,"lon":5.38551,"is_reserved":false,"is_disabled":false,"rental_uris":{"android":"levelo://app?vid=7fd9032d-6b0f-4d6b-b8e0-23495d7481ec","ios":"levelo://app?vid=7fd9032d-6b0f-4d6b-b8e0-23495d7481ec"},"vehicle_type_id":"4","last_reported":1729887011,"current_range_meters":15200,"station_id":"ce4bgih2rcd13ifvqba0","pricing_plan_id":"cebpf4jnsgd1na2vs0mg"},{"bike_id":"b197022e-4972-4ed7-9e4b-6213d4675ad7","system_id":"levelo_inurba_marseille","lat":43.25122,"lon":5.40325,"is_reserved":false,"is_disabled":false,"rental_uris":{"android":"levelo://app?vid=b197022e-4972-4ed7-9e4b-6213d4675ad7","ios":"levelo://app?vid=b197022e-4972-4ed7-9e4b-6213d4675ad7"},"vehicle_type_id":"4","last_reported":1729887011,"current_range_meters":38800,"station_id":"ce4bhlh2rcd13ifvqgig","pricing_plan_id":"cebpf4jnsgd1na2vs0mg"},{"bike_id":"4e22b1f2-b744-4471-9588-d46e48170dbb","system_id":"levelo_inurba_marseille","lat":43.2953,"lon":5.38535,"is_reserved":false,"is_disabled":false,"rental_uris":{"android":"levelo://app?vid=4e22b1f2-b744-4471-9588-d46e48170dbb","ios":"levelo://app?vid=4e22b1f2-b744-4471-9588-d46e48170dbb"},"vehicle_type_id":"4","last_reported":1729887011,"current_range_meters":8000,"station_id":"ce4bgih2rcd13ifvqba0","pricing_plan_id":"cebpf4jnsgd1na2vs0mg"},{"bike_id":"ec517bc8-aab9-4441-9a5a-13b6295f2e39","system_id":"levelo_inurba_marseille","lat":43.22933,"lon":5.35376,"is_reserved":false,"is_disabled":false,"rental_uris":{"android":"levelo://app?vid=ec517bc8-aab9-4441-9a5a-13b6295f2e39","ios":"levelo://app?vid=ec517bc8-aab9-4441-9a5a-13b6295f2e39"},"vehicle_type_id":"4","last_reported":1729887011,"current_range_meters":38800,"station_id":"cpo3532slgdg3j2ikp40","pricing_plan_id":"cebpf4jnsgd1na2vs0mg"},{"bike_id":"aa7e778b-c887-460a-a1e9-246263a8857a","system_id":"levelo_inurba_marseille","lat":43.30497,"lon":5.40171,"is_reserved":false,"is_disabled":false,"rental_uris":{"android":"levelo://app?vid=aa7e778b-c887-460a-a1e9-246263a8857a","ios":"levelo://app?vid=aa7e778b-c887-460a-a1e9-246263a8857a"},"vehicle_type_id":"4","last_reported":1729887011,"current_range_meters":6800,"station_id":"ce4bgh92rcd13ifvqb50","pricing_plan_id":"cebpf4jnsgd1na2vs0mg"},{"bike_id":"d2027fc6-06b6-44c6-8c4c-8e9c5f487c78","system_id":"levelo_inurba_marseille","lat":43.28726,"lon":5.36091,"is_reserved":false,"is_disabled":false,"rental_uris":{"android":"levelo://app?vid=d2027fc6-06b6-44c6-8c4c-8e9c5f487c78","ios":"levelo://app?vid=d2027fc6-06b6-44c6-8c4c-8e9c5f487c78"},"vehicle_type_id":"4","last_reported":1729887011,"current_range_meters":20000,"station_id":"cki0cbj6b192h4jlfktg","pricing_plan_id":"cebpf4jnsgd1na2vs0mg"},{"bike_id":"94b6cc63-b376-42e2-a4f5-f421dd5b9574","system_id":"levelo_inurba_marseille","lat":43.28039,"lon":5.36938,"is_reserved":false,"is_disabled":false,"rental_uris":{"android":"levelo://app?vid=94b6cc63-b376-42e2-a4f5-f421dd5b9574","ios":"levelo://app?vid=94b6cc63-b376-42e2-a4f5-f421dd5b9574"},"vehicle_type_id":"4","last_reported":1729887011,"current_range_meters":16800,"station_id":"ce4bha12rcd13ifvqef0","pricing_plan_id":"cebpf4jnsgd1na2vs0mg"},{"bike_id":"b9a3d8f1-373e-496f-a603-3b8a7b2fe558","system_id":"levelo_inurba_marseille","lat":43.25002,"lon":5.3893,"is_reserved":false,"is_disabled":false,"rental_uris":{"android":"levelo://app?vid=b9a3d8f1-373e-496f-a603-3b8a7b2fe558","ios":"levelo://app?vid=b9a3d8f1-373e-496f-a603-3b8a7b2fe558"},"vehicle_type_id":"4","last_reported":1729887011,"current_range_meters":39200,"station_id":"ce4bhgp2rcd13ifvqfd0","pricing_plan_id":"cebpf4jnsgd1na2vs0mg"},{"bike_id":"b9aecf99-bf4e-49f6-9a16-7fb4e4914b0b","system_id":"levelo_inurba_marseille","lat":43.29206,"lon":5.39324,"is_reserved":false,"is_disabled":false,"rental_uris":{"android":"levelo://app?vid=b9aecf99-bf4e-49f6-9a16-7fb4e4914b0b","ios":"levelo://app?vid=b9aecf99-bf4e-49f6-9a16-7fb4e4914b0b"},"vehicle_type_id":"4","last_reported":1729887011,"current_range_meters":28000,"station_id":"ce4bh192rcd13ifvqdd0","pricing_plan_id":"cebpf4jnsgd1na2vs0mg"},{"bike_id":"6cb0d09c-4434-41fe-bab7-3f2ab7b0ac84","system_id":"levelo_inurba_marseille","lat":43.23055,"lon":5.35495,"is_reserved":false,"is_disabled":false,"rental_uris":{"android":"levelo://app?vid=6cb0d09c-4434-41fe-bab7-3f2ab7b0ac84","ios":"levelo://app?vid=6cb0d09c-4434-41fe-bab7-3f2ab7b0ac84"},"vehicle_type_id":"4","last_reported":1729887011,"current_range_meters":19200,"station_id":"cpo3342slgdg3j2ifvpg","pricing_plan_id":"cebpf4jnsgd1na2vs0mg"},{"bike_id":"dd92a27d-e026-4a95-b923-a64e06dadb9c","system_id":"levelo_inurba_marseille","lat":43.308655,"lon":5.367911,"is_reserved":false,"is_disabled":false,"rental_uris":{"android":"levelo://app?vid=dd92a27d-e026-4a95-b923-a64e06dadb9c","ios":"levelo://app?vid=dd92a27d-e026-4a95-b923-a64e06dadb9c"},"vehicle_type_id":"4","last_reported":1729887011,"current_range_meters":28800,"station_id":"ce4bgt12rcd13ifvqcd0","pricing_plan_id":"cebpf4jnsgd1na2vs0mg"},{"bike_id":"93d9c1a5-13fa-4234-9322-cf08e4c097b5","system_id":"levelo_inurba_marseille","lat":43.29874,"lon":5.38899,"is_reserved":false,"is_disabled":false,"rental_uris":{"android":"levelo://app?vid=93d9c1a5-13fa-4234-9322-cf08e4c097b5","ios":"levelo://app?vid=93d9c1a5-13fa-4234-9322-cf08e4c097b5"},"vehicle_type_id":"4","last_reported":1729887011,"current_range_meters":32800,"station_id":"ce4bh392rcd13ifvqdl0","pricing_plan_id":"cebpf4jnsgd1na2vs0mg"},{"bike_id":"28714978-4dce-46c8-9c95-88092c7e6a13","system_id":"levelo_inurba_marseille","lat":43.23191,"lon":5.35555,"is_reserved":false,"is_disabled":false,"rental_uris":{"android":"levelo://app?vid=28714978-4dce-46c8-9c95-88092c7e6a13","ios":"levelo://app?vid=28714978-4dce-46c8-9c95-88092c7e6a13"},"vehicle_type_id":"4","last_reported":1729887011,"current_range_meters":18000,"station_id":"ce4bhu92rcd13ifvqi70","pricing_plan_id":"cebpf4jnsgd1na2vs0mg"},{"bike_id":"4b07c825-704e-4308-b459-a21aa16bfee0","system_id":"levelo_inurba_marseille","lat":43.30143,"lon":5.38055,"is_reserved":false,"is_disabled":false,"rental_uris":{"android":"levelo://app?vid=4b07c825-704e-4308-b459-a21aa16bfee0","ios":"levelo://app?vid=4b07c825-704e-4308-b459-a21aa16bfee0"},"vehicle_type_id":"4","last_reported":1729887011,"current_range_meters":7200,"station_id":"ce4bgjp2rcd13ifvqbh0","pricing_plan_id":"cebpf4jnsgd1na2vs0mg"},{"bike_id":"d6e7075b-5904-40d4-8eb8-9161dab45b57","system_id":"levelo_inurba_marseille","lat":43.23183,"lon":5.39988,"is_reserved":false,"is_disabled":false,"rental_uris":{"android":"levelo://app?vid=d6e7075b-5904-40d4-8eb8-9161dab45b57","ios":"levelo://app?vid=d6e7075b-5904-40d4-8eb8-9161dab45b57"},"vehicle_type_id":"4","last_reported":1729887011,"current_range_meters":14400,"station_id":"ce4bhn12rcd13ifvqgqg","pricing_plan_id":"cebpf4jnsgd1na2vs0mg"},{"bike_id":"029dc37c-41a7-4fb3-8dc5-395a4427f329","system_id":"levelo_inurba_marseille","lat":43.30432,"lon":5.39742,"is_reserved":false,"is_disabled":false,"rental_uris":{"android":"levelo://app?vid=029dc37c-41a7-4fb3-8dc5-395a4427f329","ios":"levelo://app?vid=029dc37c-41a7-4fb3-8dc5-395a4427f329"},"vehicle_type_id":"4","last_reported":1729887011,"current_range_meters":35200,"station_id":"ce4bh092rcd13ifvqd20","pricing_plan_id":"cebpf4jnsgd1na2vs0mg"},{"bike_id":"26bf9af7-cead-45ec-93ad-b1276f459fbc","system_id":"levelo_inurba_marseille","lat":43.288478,"lon":5.393236,"is_reserved":false,"is_disabled":false,"rental_uris":{"android":"levelo://app?vid=26bf9af7-cead-45ec-93ad-b1276f459fbc","ios":"levelo://app?vid=26bf9af7-cead-45ec-93ad-b1276f459fbc"},"vehicle_type_id":"4","last_reported":1729887011,"current_range_meters":8800,"station_id":"ce4bh2p2rcd13ifvqdi0","pricing_plan_id":"cebpf4jnsgd1na2vs0mg"},{"bike_id":"1eddc096-4e0d-4a67-a58f-388b7ad23292","system_id":"levelo_inurba_marseille","lat":43.29265,"lon":5.38431,"is_reserved":false,"is_disabled":false,"rental_uris":{"android":"levelo://app?vid=1eddc096-4e0d-4a67-a58f-388b7ad23292","ios":"levelo://app?vid=1eddc096-4e0d-4a67-a58f-388b7ad23292"},"vehicle_type_id":"4","last_reported":1729887011,"current_range_meters":11200,"station_id":"ce4bh692rcd13ifvqea0","pricing_plan_id":"cebpf4jnsgd1na2vs0mg"},{"bike_id":"35c91c4b-0d56-404c-b0f0-cd18927d71b0","system_id":"levelo_inurba_marseille","lat":43.26559,"lon":5.39001,"is_reserved":false,"is_disabled":false,"rental_uris":{"android":"levelo://app?vid=35c91c4b-0d56-404c-b0f0-cd18927d71b0","ios":"levelo://app?vid=35c91c4b-0d56-404c-b0f0-cd18927d71b0"},"vehicle_type_id":"4","last_reported":1729887011,"current_range_meters":38800,"station_id":"ce4bhe12rcd13ifvqf30","pricing_plan_id":"cebpf4jnsgd1na2vs0mg"},{"bike_id":"3ed92a29-5c44-4b6c-b46b-0d6d23a4fe6a","system_id":"levelo_inurba_marseille","lat":43.29558,"lon":5.4227,"is_reserved":false,"is_disabled":false,"rental_uris":{"android":"levelo://app?vid=3ed92a29-5c44-4b6c-b46b-0d6d23a4fe6a","ios":"levelo://app?vid=3ed92a29-5c44-4b6c-b46b-0d6d23a4fe6a"},"vehicle_type_id":"4","last_reported":1729887011,"current_range_meters":34800,"station_id":"ce4bhph2rcd13ifvqhdg","pricing_plan_id":"cebpf4jnsgd1na2vs0mg"},{"bike_id":"07d1e332-63a2-467e-88d9-4eaaeb91b8fb","system_id":"levelo_inurba_marseille","lat":43.31727,"lon":5.42404,"is_reserved":false,"is_disabled":false,"rental_uris":{"android":"levelo://app?vid=07d1e332-63a2-467e-88d9-4eaaeb91b8fb","ios":"levelo://app?vid=07d1e332-63a2-467e-88d9-4eaaeb91b8fb"},"vehicle_type_id":"4","last_reported":1729887011,"current_range_meters":37600,"station_id":"ce4bhp92rcd13ifvqhbg","pricing_plan_id":"cebpf4jnsgd1na2vs0mg"},{"bike_id":"49c8c9ac-0d23-4ffb-8845-ed7257616396","system_id":"levelo_inurba_marseille","lat":43.27919,"lon":5.39582,"is_reserved":false,"is_disabled":false,"rental_uris":{"android":"levelo://app?vid=49c8c9ac-0d23-4ffb-8845-ed7257616396","ios":"levelo://app?vid=49c8c9ac-0d23-4ffb-8845-ed7257616396"},"vehicle_type_id":"4","last_reported":1729887011,"current_range_meters":27600,"station_id":"ce4bhf92rcd13ifvqf40","pricing_plan_id":"cebpf4jnsgd1na2vs0mg"},{"bike_id":"c4329532-0090-472b-b592-010648eb41e0","system_id":"levelo_inurba_marseille","lat":43.25003,"lon":5.38916,"is_reserved":false,"is_disabled":false,"rental_uris":{"android":"levelo://app?vid=c4329532-0090-472b-b592-010648eb41e0","ios":"levelo://app?vid=c4329532-0090-472b-b592-010648eb41e0"},"vehicle_type_id":"4","last_reported":1729887011,"current_range_meters":38800,"station_id":"ce4bhgp2rcd13ifvqfd0","pricing_plan_id":"cebpf4jnsgd1na2vs0mg"},{"bike_id":"d27cec62-1d00-43c5-a294-6ec7896d59e3","system_id":"levelo_inurba_marseille","lat":43.2926,"lon":5.38436,"is_reserved":false,"is_disabled":false,"rental_uris":{"android":"levelo://app?vid=d27cec62-1d00-43c5-a294-6ec7896d59e3","ios":"levelo://app?vid=d27cec62-1d00-43c5-a294-6ec7896d59e3"},"vehicle_type_id":"4","last_reported":1729887011,"current_range_meters":38800,"station_id":"ce4bh692rcd13ifvqea0","pricing_plan_id":"cebpf4jnsgd1na2vs0mg"},{"bike_id":"8af9a3cc-7638-4c64-9971-b8b24db5a73d","system_id":"levelo_inurba_marseille","lat":43.29527,"lon":5.38545,"is_reserved":false,"is_disabled":false,"rental_uris":{"android":"levelo://app?vid=8af9a3cc-7638-4c64-9971-b8b24db5a73d","ios":"levelo://app?vid=8af9a3cc-7638-4c64-9971-b8b24db5a73d"},"vehicle_type_id":"4","last_reported":1729887011,"current_range_meters":5600,"station_id":"ce4bgih2rcd13ifvqba0","pricing_plan_id":"cebpf4jnsgd1na2vs0mg"},{"bike_id":"6ff8afb5-4784-4247-ad42-fc6d5c3739a9","system_id":"levelo_inurba_marseille","lat":43.29423,"lon":5.38619,"is_reserved":false,"is_disabled":false,"rental_uris":{"android":"levelo://app?vid=6ff8afb5-4784-4247-ad42-fc6d5c3739a9","ios":"levelo://app?vid=6ff8afb5-4784-4247-ad42-fc6d5c3739a9"},"vehicle_type_id":"4","last_reported":1729887011,"current_range_meters":8000,"station_id":"ce4bh2h2rcd13ifvqdh0","pricing_plan_id":"cebpf4jnsgd1na2vs0mg"},{"bike_id":"ac1edf0e-fc15-48a0-9174-5ed1bde4cd07","system_id":"levelo_inurba_marseille","lat":43.30356,"lon":5.41882,"is_reserved":false,"is_disabled":false,"rental_uris":{"android":"levelo://app?vid=ac1edf0e-fc15-48a0-9174-5ed1bde4cd07","ios":"levelo://app?vid=ac1edf0e-fc15-48a0-9174-5ed1bde4cd07"},"vehicle_type_id":"4","last_reported":1729887011,"current_range_meters":19200,"station_id":"ce4bhop2rcd13ifvqh7g","pricing_plan_id":"cebpf4jnsgd1na2vs0mg"},{"bike_id":"0f63b7b6-e848-443e-8837-2bcdfd518641","system_id":"levelo_inurba_marseille","lat":43.2656,"lon":5.37288,"is_reserved":false,"is_disabled":false,"rental_uris":{"android":"levelo://app?vid=0f63b7b6-e848-443e-8837-2bcdfd518641","ios":"levelo://app?vid=0f63b7b6-e848-443e-8837-2bcdfd518641"},"vehicle_type_id":"4","last_reported":1729887011,"current_range_meters":34800,"station_id":"ce4bhg12rcd13ifvqf70","pricing_plan_id":"cebpf4jnsgd1na2vs0mg"},{"bike_id":"25596ccd-8388-452e-9656-2a293e16965b","system_id":"levelo_inurba_marseille","lat":43.29541,"lon":5.38536,"is_reserved":false,"is_disabled":false,"rental_uris":{"android":"levelo://app?vid=25596ccd-8388-452e-9656-2a293e16965b","ios":"levelo://app?vid=25596ccd-8388-452e-9656-2a293e16965b"},"vehicle_type_id":"4","last_reported":1729887011,"current_range_meters":18800,"station_id":"ce4bgih2rcd13ifvqba0","pricing_plan_id":"cebpf4jnsgd1na2vs0mg"},{"bike_id":"5602e2ca-6524-49d7-acee-1364e8d9af55","system_id":"levelo_inurba_marseille","lat":43.28042,"lon":5.36943,"is_reserved":false,"is_disabled":false,"rental_uris":{"android":"levelo://app?vid=5602e2ca-6524-49d7-acee-1364e8d9af55","ios":"levelo://app?vid=5602e2ca-6524-49d7-acee-1364e8d9af55"},"vehicle_type_id":"4","last_reported":1729887011,"current_range_meters":26800,"station_id":"ce4bha12rcd13ifvqef0","pricing_plan_id":"cebpf4jnsgd1na2vs0mg"},{"bike_id":"78f272a1-2c74-4489-8c36-83bc93a6d452","system_id":"levelo_inurba_marseille","lat":43.23968,"lon":5.36623,"is_reserved":false,"is_disabled":false,"rental_uris":{"android":"levelo://app?vid=78f272a1-2c74-4489-8c36-83bc93a6d452","ios":"levelo://app?vid=78f272a1-2c74-4489-8c36-83bc93a6d452"},"vehicle_type_id":"4","last_reported":1729887011,"current_range_meters":19200,"station_id":"ce4bhi12rcd13ifvqfp0","pricing_plan_id":"cebpf4jnsgd1na2vs0mg"},{"bike_id":"ccb07e96-0642-4cd3-9c6b-e6eb51bc1b00","system_id":"levelo_inurba_marseille","lat":43.27621,"lon":5.36109,"is_reserved":false,"is_disabled":false,"rental_uris":{"android":"levelo://app?vid=ccb07e96-0642-4cd3-9c6b-e6eb51bc1b00","ios":"levelo://app?vid=ccb07e96-0642-4cd3-9c6b-e6eb51bc1b00"},"vehicle_type_id":"4","last_reported":1729887011,"current_range_meters":38000,"station_id":"ce4bgj92rcd13ifvqbe0","pricing_plan_id":"cebpf4jnsgd1na2vs0mg"},{"bike_id":"70dbd4d0-1475-4984-a720-0152dd05be94","system_id":"levelo_inurba_marseille","lat":43.27915,"lon":5.3958,"is_reserved":false,"is_disabled":false,"rental_uris":{"android":"levelo://app?vid=70dbd4d0-1475-4984-a720-0152dd05be94","ios":"levelo://app?vid=70dbd4d0-1475-4984-a720-0152dd05be94"},"vehicle_type_id":"4","last_reported":1729887011,"current_range_meters":8000,"station_id":"ce4bhf92rcd13ifvqf40","pricing_plan_id":"cebpf4jnsgd1na2vs0mg"},{"bike_id":"a42b0bdd-1f10-437f-813e-02df169ed0a9","system_id":"levelo_inurba_marseille","lat":43.22933,"lon":5.35386,"is_reserved":false,"is_disabled":false,"rental_uris":{"android":"levelo://app?vid=a42b0bdd-1f10-437f-813e-02df169ed0a9","ios":"levelo://app?vid=a42b0bdd-1f10-437f-813e-02df169ed0a9"},"vehicle_type_id":"4","last_reported":1729887011,"current_range_meters":26000,"station_id":"cpo3532slgdg3j2ikp40","pricing_plan_id":"cebpf4jnsgd1na2vs0mg"},{"bike_id":"bb3cf711-4b9a-4346-a21f-120ee676afb8","system_id":"levelo_inurba_marseille","lat":43.29524,"lon":5.38539,"is_reserved":false,"is_disabled":false,"rental_uris":{"android":"levelo://app?vid=bb3cf711-4b9a-4346-a21f-120ee676afb8","ios":"levelo://app?vid=bb3cf711-4b9a-4346-a21f-120ee676afb8"},"vehicle_type_id":"4","last_reported":1729887011,"current_range_meters":35600,"station_id":"ce4bgih2rcd13ifvqba0","pricing_plan_id":"cebpf4jnsgd1na2vs0mg"},{"bike_id":"48a67f93-254d-4336-93b9-22f908da2752","system_id":"levelo_inurba_marseille","lat":43.30424,"lon":5.41283,"is_reserved":false,"is_disabled":false,"rental_uris":{"android":"levelo://app?vid=48a67f93-254d-4336-93b9-22f908da2752","ios":"levelo://app?vid=48a67f93-254d-4336-93b9-22f908da2752"},"vehicle_type_id":"4","last_reported":1729887011,"current_range_meters":8400,"station_id":"ce4bhop2rcd13ifvqh8g","pricing_plan_id":"cebpf4jnsgd1na2vs0mg"},{"bike_id":"7c69ef53-da66-4dc4-af18-978542ec31bd","system_id":"levelo_inurba_marseille","lat":43.27958,"lon":5.38695,"is_reserved":false,"is_disabled":false,"rental_uris":{"android":"levelo://app?vid=7c69ef53-da66-4dc4-af18-978542ec31bd","ios":"levelo://app?vid=7c69ef53-da66-4dc4-af18-978542ec31bd"},"vehicle_type_id":"4","last_reported":1729887011,"current_range_meters":29600,"station_id":"ce4bhg12rcd13ifvqf80","pricing_plan_id":"cebpf4jnsgd1na2vs0mg"},{"bike_id":"fc2c990b-f933-41ca-ad84-1dd5d62b98ad","system_id":"levelo_inurba_marseille","lat":43.29569,"lon":5.37507,"is_reserved":false,"is_disabled":false,"rental_uris":{"android":"levelo://app?vid=fc2c990b-f933-41ca-ad84-1dd5d62b98ad","ios":"levelo://app?vid=fc2c990b-f933-41ca-ad84-1dd5d62b98ad"},"vehicle_type_id":"4","last_reported":1729887011,"current_range_meters":38800,"station_id":"ce4bgh92rcd13ifvqb50","pricing_plan_id":"cebpf4jnsgd1na2vs0mg"},{"bike_id":"5916f0e5-3f71-4a78-9fb4-0b56d6cff84b","system_id":"levelo_inurba_marseille","lat":43.25088,"lon":5.39522,"is_reserved":false,"is_disabled":false,"rental_uris":{"android":"levelo://app?vid=5916f0e5-3f71-4a78-9fb4-0b56d6cff84b","ios":"levelo://app?vid=5916f0e5-3f71-4a78-9fb4-0b56d6cff84b"},"vehicle_type_id":"4","last_reported":1729887011,"current_range_meters":20000,"station_id":"ce4bhm12rcd13ifvqgkg","pricing_plan_id":"cebpf4jnsgd1na2vs0mg"},{"bike_id":"4f65bbc0-6cb6-418f-becd-51a28217c1e2","system_id":"levelo_inurba_marseille","lat":43.29304,"lon":5.37442,"is_reserved":false,"is_disabled":false,"rental_uris":{"android":"levelo://app?vid=4f65bbc0-6cb6-418f-becd-51a28217c1e2","ios":"levelo://app?vid=4f65bbc0-6cb6-418f-becd-51a28217c1e2"},"vehicle_type_id":"4","last_reported":1729887011,"current_range_meters":14400,"station_id":"ce4bgi12rcd13ifvqb70","pricing_plan_id":"cebpf4jnsgd1na2vs0mg"},{"bike_id":"ae129253-300b-4fc2-816c-74a792b2b200","system_id":"levelo_inurba_marseille","lat":43.29424,"lon":5.38636,"is_reserved":false,"is_disabled":false,"rental_uris":{"android":"levelo://app?vid=ae129253-300b-4fc2-816c-74a792b2b200","ios":"levelo://app?vid=ae129253-300b-4fc2-816c-74a792b2b200"},"vehicle_type_id":"4","last_reported":1729887011,"current_range_meters":21600,"station_id":"ce4bh2h2rcd13ifvqdh0","pricing_plan_id":"cebpf4jnsgd1na2vs0mg"},{"bike_id":"c0e554d9-55fa-422b-a700-8138dfa6e81f","system_id":"levelo_inurba_marseille","lat":43.28115,"lon":5.37832,"is_reserved":false,"is_disabled":false,"rental_uris":{"android":"levelo://app?vid=c0e554d9-55fa-422b-a700-8138dfa6e81f","ios":"levelo://app?vid=c0e554d9-55fa-422b-a700-8138dfa6e81f"},"vehicle_type_id":"4","last_reported":1729887011,"current_range_meters":16400,"station_id":"ce4bha12rcd13ifvqee0","pricing_plan_id":"cebpf4jnsgd1na2vs0mg"},{"bike_id":"3a49133b-c2eb-4904-a05a-e1c486f40d45","system_id":"levelo_inurba_marseille","lat":43.258467,"lon":5.394288,"is_reserved":false,"is_disabled":false,"rental_uris":{"android":"levelo://app?vid=3a49133b-c2eb-4904-a05a-e1c486f40d45","ios":"levelo://app?vid=3a49133b-c2eb-4904-a05a-e1c486f40d45"},"vehicle_type_id":"4","last_reported":1729887011,"current_range_meters":1200,"station_id":"ce4bhip2rcd13ifvqft0","pricing_plan_id":"cebpf4jnsgd1na2vs0mg"},{"bike_id":"14b32013-16c9-4a3a-9b24-38e904708fdb","system_id":"levelo_inurba_marseille","lat":43.2828,"lon":5.35062,"is_reserved":false,"is_disabled":false,"rental_uris":{"android":"levelo://app?vid=14b32013-16c9-4a3a-9b24-38e904708fdb","ios":"levelo://app?vid=14b32013-16c9-4a3a-9b24-38e904708fdb"},"vehicle_type_id":"4","last_reported":1729887011,"current_range_meters":25600,"station_id":"ce4bhbp2rcd13ifvqerg","pricing_plan_id":"cebpf4jnsgd1na2vs0mg"},{"bike_id":"19c3aeb8-d560-4388-9e80-397e00ab5d14","system_id":"levelo_inurba_marseille","lat":43.3043,"lon":5.41281,"is_reserved":false,"is_disabled":false,"rental_uris":{"android":"levelo://app?vid=19c3aeb8-d560-4388-9e80-397e00ab5d14","ios":"levelo://app?vid=19c3aeb8-d560-4388-9e80-397e00ab5d14"},"vehicle_type_id":"4","last_reported":1729887011,"current_range_meters":17200,"station_id":"ce4bhop2rcd13ifvqh8g","pricing_plan_id":"cebpf4jnsgd1na2vs0mg"},{"bike_id":"9250c223-7060-40be-83d3-146dade6eaad","system_id":"levelo_inurba_marseille","lat":43.28079,"lon":5.39662,"is_reserved":false,"is_disabled":false,"rental_uris":{"android":"levelo://app?vid=9250c223-7060-40be-83d3-146dade6eaad","ios":"levelo://app?vid=9250c223-7060-40be-83d3-146dade6eaad"},"vehicle_type_id":"4","last_reported":1729887011,"current_range_meters":38000,"station_id":"ce4bho12rcd13ifvqh2g","pricing_plan_id":"cebpf4jnsgd1na2vs0mg"},{"bike_id":"82b1e3c6-0934-4d80-9944-3dba941c026e","system_id":"levelo_inurba_marseille","lat":43.2945,"lon":5.39744,"is_reserved":false,"is_disabled":false,"rental_uris":{"android":"levelo://app?vid=82b1e3c6-0934-4d80-9944-3dba941c026e","ios":"levelo://app?vid=82b1e3c6-0934-4d80-9944-3dba941c026e"},"vehicle_type_id":"4","last_reported":1729887011,"current_range_meters":10000,"station_id":"ce4bh3h2rcd13ifvqdo0","pricing_plan_id":"cebpf4jnsgd1na2vs0mg"},{"bike_id":"353dd1d1-aedf-4e9f-b96e-2d6c13c12501","system_id":"levelo_inurba_marseille","lat":43.25005,"lon":5.38916,"is_reserved":false,"is_disabled":false,"rental_uris":{"android":"levelo://app?vid=353dd1d1-aedf-4e9f-b96e-2d6c13c12501","ios":"levelo://app?vid=353dd1d1-aedf-4e9f-b96e-2d6c13c12501"},"vehicle_type_id":"4","last_reported":1729887011,"current_range_meters":12800,"station_id":"ce4bhgp2rcd13ifvqfd0","pricing_plan_id":"cebpf4jnsgd1na2vs0mg"},{"bike_id":"c280d134-d9f0-4b63-868a-9b65ba385550","system_id":"levelo_inurba_marseille","lat":43.27915,"lon":5.39585,"is_reserved":false,"is_disabled":false,"rental_uris":{"android":"levelo://app?vid=c280d134-d9f0-4b63-868a-9b65ba385550","ios":"levelo://app?vid=c280d134-d9f0-4b63-868a-9b65ba385550"},"vehicle_type_id":"4","last_reported":1729887011,"current_range_meters":20800,"station_id":"ce4bhf92rcd13ifvqf40","pricing_plan_id":"cebpf4jnsgd1na2vs0mg"},{"bike_id":"9547fe9f-7da9-478b-9033-f446ea71bb69","system_id":"levelo_inurba_marseille","lat":43.3109,"lon":5.4243,"is_reserved":false,"is_disabled":false,"rental_uris":{"android":"levelo://app?vid=9547fe9f-7da9-478b-9033-f446ea71bb69","ios":"levelo://app?vid=9547fe9f-7da9-478b-9033-f446ea71bb69"},"vehicle_type_id":"4","last_reported":1729887011,"current_range_meters":36000,"station_id":"ce4bhp92rcd13ifvqhag","pricing_plan_id":"cebpf4jnsgd1na2vs0mg"},{"bike_id":"df68c236-3429-47dc-8d0d-da0fa7924a52","system_id":"levelo_inurba_marseille","lat":43.29424,"lon":5.3863,"is_reserved":false,"is_disabled":false,"rental_uris":{"android":"levelo://app?vid=df68c236-3429-47dc-8d0d-da0fa7924a52","ios":"levelo://app?vid=df68c236-3429-47dc-8d0d-da0fa7924a52"},"vehicle_type_id":"4","last_reported":1729887011,"current_range_meters":38800,"station_id":"ce4bh2h2rcd13ifvqdh0","pricing_plan_id":"cebpf4jnsgd1na2vs0mg"},{"bike_id":"914712da-9129-49a4-ad21-34c49f788602","system_id":"levelo_inurba_marseille","lat":43.308878,"lon":5.396362,"is_reserved":false,"is_disabled":false,"rental_uris":{"android":"levelo://app?vid=914712da-9129-49a4-ad21-34c49f788602","ios":"levelo://app?vid=914712da-9129-49a4-ad21-34c49f788602"},"vehicle_type_id":"4","last_reported":1729887011,"current_range_meters":36800,"station_id":"ce4bh012rcd13ifvqcv0","pricing_plan_id":"cebpf4jnsgd1na2vs0mg"},{"bike_id":"eb137f78-f01f-49fa-a254-07b4711bba32","system_id":"levelo_inurba_marseille","lat":43.2942,"lon":5.38626,"is_reserved":false,"is_disabled":false,"rental_uris":{"android":"levelo://app?vid=eb137f78-f01f-49fa-a254-07b4711bba32","ios":"levelo://app?vid=eb137f78-f01f-49fa-a254-07b4711bba32"},"vehicle_type_id":"4","last_reported":1729887011,"current_range_meters":32400,"station_id":"ce4bh2h2rcd13ifvqdh0","pricing_plan_id":"cebpf4jnsgd1na2vs0mg"},{"bike_id":"58afcffd-31ed-44e7-99ff-2fa445db19b3","system_id":"levelo_inurba_marseille","lat":43.29869,"lon":5.39739,"is_reserved":false,"is_disabled":false,"rental_uris":{"android":"levelo://app?vid=58afcffd-31ed-44e7-99ff-2fa445db19b3","ios":"levelo://app?vid=58afcffd-31ed-44e7-99ff-2fa445db19b3"},"vehicle_type_id":"4","last_reported":1729887011,"current_range_meters":22400,"station_id":"ce4bh0h2rcd13ifvqd50","pricing_plan_id":"cebpf4jnsgd1na2vs0mg"},{"bike_id":"866b0d50-2d2d-4bb2-aa91-ede19b59e424","system_id":"levelo_inurba_marseille","lat":43.32375,"lon":5.38876,"is_reserved":false,"is_disabled":false,"rental_uris":{"android":"levelo://app?vid=866b0d50-2d2d-4bb2-aa91-ede19b59e424","ios":"levelo://app?vid=866b0d50-2d2d-4bb2-aa91-ede19b59e424"},"vehicle_type_id":"4","last_reported":1729887011,"current_range_meters":12800,"station_id":"ce4bhqp2rcd13ifvqhog","pricing_plan_id":"cebpf4jnsgd1na2vs0mg"},{"bike_id":"c0f91bbc-eee5-4f55-9eae-b709e326d700","system_id":"levelo_inurba_marseille","lat":43.29878,"lon":5.38907,"is_reserved":false,"is_disabled":false,"rental_uris":{"android":"levelo://app?vid=c0f91bbc-eee5-4f55-9eae-b709e326d700","ios":"levelo://app?vid=c0f91bbc-eee5-4f55-9eae-b709e326d700"},"vehicle_type_id":"4","last_reported":1729887011,"current_range_meters":27200,"station_id":"ce4bh392rcd13ifvqdl0","pricing_plan_id":"cebpf4jnsgd1na2vs0mg"},{"bike_id":"d797a8a7-f4a5-4cc7-9d17-b5c4e5d83251","system_id":"levelo_inurba_marseille","lat":43.31232,"lon":5.36858,"is_reserved":false,"is_disabled":false,"rental_uris":{"android":"levelo://app?vid=d797a8a7-f4a5-4cc7-9d17-b5c4e5d83251","ios":"levelo://app?vid=d797a8a7-f4a5-4cc7-9d17-b5c4e5d83251"},"vehicle_type_id":"4","last_reported":1729887011,"current_range_meters":6000,"station_id":"ce4bgl92rcd13ifvqbq0","pricing_plan_id":"cebpf4jnsgd1na2vs0mg"},{"bike_id":"db6496d6-f15f-49b1-8463-d25a834d71f3","system_id":"levelo_inurba_marseille","lat":43.31329,"lon":5.39691,"is_reserved":false,"is_disabled":false,"rental_uris":{"android":"levelo://app?vid=db6496d6-f15f-49b1-8463-d25a834d71f3","ios":"levelo://app?vid=db6496d6-f15f-49b1-8463-d25a834d71f3"},"vehicle_type_id":"4","last_reported":1729887011,"current_range_meters":28400,"station_id":"ce4bgvp2rcd13ifvqcu0","pricing_plan_id":"cebpf4jnsgd1na2vs0mg"},{"bike_id":"79b2f6c1-374d-4415-8fed-c1b83fa15adc","system_id":"levelo_inurba_marseille","lat":43.29011,"lon":5.38123,"is_reserved":false,"is_disabled":false,"rental_uris":{"android":"levelo://app?vid=79b2f6c1-374d-4415-8fed-c1b83fa15adc","ios":"levelo://app?vid=79b2f6c1-374d-4415-8fed-c1b83fa15adc"},"vehicle_type_id":"4","last_reported":1729887011,"current_range_meters":38000,"station_id":"ce4bh4p2rcd13ifvqe1g","pricing_plan_id":"cebpf4jnsgd1na2vs0mg"},{"bike_id":"d363dda5-fe4c-44e1-9d47-1ce2ad1625a8","system_id":"levelo_inurba_marseille","lat":43.28936,"lon":5.39628,"is_reserved":false,"is_disabled":false,"rental_uris":{"android":"levelo://app?vid=d363dda5-fe4c-44e1-9d47-1ce2ad1625a8","ios":"levelo://app?vid=d363dda5-fe4c-44e1-9d47-1ce2ad1625a8"},"vehicle_type_id":"4","last_reported":1729887011,"current_range_meters":38800,"station_id":"ce4bh3h2rcd13ifvqdn0","pricing_plan_id":"cebpf4jnsgd1na2vs0mg"},{"bike_id":"31b7db78-d83e-4bcc-a6e2-1a7a1428b1d6","system_id":"levelo_inurba_marseille","lat":43.32426,"lon":5.36986,"is_reserved":false,"is_disabled":false,"rental_uris":{"android":"levelo://app?vid=31b7db78-d83e-4bcc-a6e2-1a7a1428b1d6","ios":"levelo://app?vid=31b7db78-d83e-4bcc-a6e2-1a7a1428b1d6"},"vehicle_type_id":"4","last_reported":1729887011,"current_range_meters":6400,"station_id":"","pricing_plan_id":"cebpf4jnsgd1na2vs0mg"},{"bike_id":"c53cc5ca-3378-47e6-8e17-bb39a6d4c4b7","system_id":"levelo_inurba_marseille","lat":43.28707,"lon":5.37936,"is_reserved":false,"is_disabled":false,"rental_uris":{"android":"levelo://app?vid=c53cc5ca-3378-47e6-8e17-bb39a6d4c4b7","ios":"levelo://app?vid=c53cc5ca-3378-47e6-8e17-bb39a6d4c4b7"},"vehicle_type_id":"4","last_reported":1729887011,"current_range_meters":38800,"station_id":"ce4bh9p2rcd13ifvqec0","pricing_plan_id":"cebpf4jnsgd1na2vs0mg"},{"bike_id":"49541619-bb55-4bb9-826b-bb7236f217e7","system_id":"levelo_inurba_marseille","lat":43.27913,"lon":5.38002,"is_reserved":false,"is_disabled":false,"rental_uris":{"android":"levelo://app?vid=49541619-bb55-4bb9-826b-bb7236f217e7","ios":"levelo://app?vid=49541619-bb55-4bb9-826b-bb7236f217e7"},"vehicle_type_id":"4","last_reported":1729887011,"current_range_meters":36000,"station_id":"ce4bhf92rcd13ifvqf50","pricing_plan_id":"cebpf4jnsgd1na2vs0mg"},{"bike_id":"a3eeba97-8d75-45c7-8ce4-166d75a9b74d","system_id":"levelo_inurba_marseille","lat":43.29532,"lon":5.38538,"is_reserved":false,"is_disabled":false,"rental_uris":{"android":"levelo://app?vid=a3eeba97-8d75-45c7-8ce4-166d75a9b74d","ios":"levelo://app?vid=a3eeba97-8d75-45c7-8ce4-166d75a9b74d"},"vehicle_type_id":"4","last_reported":1729887011,"current_range_meters":38800,"station_id":"ce4bgih2rcd13ifvqba0","pricing_plan_id":"cebpf4jnsgd1na2vs0mg"},{"bike_id":"7ed179a5-09db-442c-b1b3-3e5dd21573fb","system_id":"levelo_inurba_marseille","lat":43.29899,"lon":5.43665,"is_reserved":false,"is_disabled":false,"rental_uris":{"android":"levelo://app?vid=7ed179a5-09db-442c-b1b3-3e5dd21573fb","ios":"levelo://app?vid=7ed179a5-09db-442c-b1b3-3e5dd21573fb"},"vehicle_type_id":"4","last_reported":1729887011,"current_range_meters":6400,"station_id":"ce4bhpp2rcd13ifvqhfg","pricing_plan_id":"cebpf4jnsgd1na2vs0mg"},{"bike_id":"81bf64e0-fa04-4a2e-907a-c2ef7df0cc84","system_id":"levelo_inurba_marseille","lat":43.24662,"lon":5.38893,"is_reserved":false,"is_disabled":false,"rental_uris":{"android":"levelo://app?vid=81bf64e0-fa04-4a2e-907a-c2ef7df0cc84","ios":"levelo://app?vid=81bf64e0-fa04-4a2e-907a-c2ef7df0cc84"},"vehicle_type_id":"4","last_reported":1729887011,"current_range_meters":23200,"station_id":"ce4bhg12rcd13ifvqf60","pricing_plan_id":"cebpf4jnsgd1na2vs0mg"},{"bike_id":"1461f07b-5d65-443b-9ddb-c47ce788341c","system_id":"levelo_inurba_marseille","lat":43.304291,"lon":5.388862,"is_reserved":false,"is_disabled":false,"rental_uris":{"android":"levelo://app?vid=1461f07b-5d65-443b-9ddb-c47ce788341c","ios":"levelo://app?vid=1461f07b-5d65-443b-9ddb-c47ce788341c"},"vehicle_type_id":"4","last_reported":1729887011,"current_range_meters":15200,"station_id":"ce4bgk12rcd13ifvqbi0","pricing_plan_id":"cebpf4jnsgd1na2vs0mg"},{"bike_id":"7691659f-eea1-4b4d-8db5-2728fcde3a23","system_id":"levelo_inurba_marseille","lat":43.29805,"lon":5.37136,"is_reserved":false,"is_disabled":false,"rental_uris":{"android":"levelo://app?vid=7691659f-eea1-4b4d-8db5-2728fcde3a23","ios":"levelo://app?vid=7691659f-eea1-4b4d-8db5-2728fcde3a23"},"vehicle_type_id":"4","last_reported":1729887011,"current_range_meters":27600,"station_id":"ce4bgop2rcd13ifvqc1g","pricing_plan_id":"cebpf4jnsgd1na2vs0mg"},{"bike_id":"0e7bf933-7a3d-47d7-8f7d-90a83c6103e4","system_id":"levelo_inurba_marseille","lat":43.29428,"lon":5.38607,"is_reserved":false,"is_disabled":false,"rental_uris":{"android":"levelo://app?vid=0e7bf933-7a3d-47d7-8f7d-90a83c6103e4","ios":"levelo://app?vid=0e7bf933-7a3d-47d7-8f7d-90a83c6103e4"},"vehicle_type_id":"4","last_reported":1729887011,"current_range_meters":27600,"station_id":"ce4bh2h2rcd13ifvqdh0","pricing_plan_id":"cebpf4jnsgd1na2vs0mg"},{"bike_id":"06089c0b-49ea-476a-bf0e-a663e10d1811","system_id":"levelo_inurba_marseille","lat":43.29292,"lon":5.37441,"is_reserved":false,"is_disabled":false,"rental_uris":{"android":"levelo://app?vid=06089c0b-49ea-476a-bf0e-a663e10d1811","ios":"levelo://app?vid=06089c0b-49ea-476a-bf0e-a663e10d1811"},"vehicle_type_id":"4","last_reported":1729887011,"current_range_meters":38800,"station_id":"ce4bgi12rcd13ifvqb70","pricing_plan_id":"cebpf4jnsgd1na2vs0mg"},{"bike_id":"96e47009-b670-4532-afa3-ce6621ab9ab1","system_id":"levelo_inurba_marseille","lat":43.2841,"lon":5.34976,"is_reserved":false,"is_disabled":false,"rental_uris":{"android":"levelo://app?vid=96e47009-b670-4532-afa3-ce6621ab9ab1","ios":"levelo://app?vid=96e47009-b670-4532-afa3-ce6621ab9ab1"},"vehicle_type_id":"4","last_reported":1729887011,"current_range_meters":38800,"station_id":"ce4bhbh2rcd13ifvqepg","pricing_plan_id":"cebpf4jnsgd1na2vs0mg"},{"bike_id":"50562db3-e3a5-4c84-a2e2-f49db56936f7","system_id":"levelo_inurba_marseille","lat":43.30294,"lon":5.36872,"is_reserved":false,"is_disabled":false,"rental_uris":{"android":"levelo://app?vid=50562db3-e3a5-4c84-a2e2-f49db56936f7","ios":"levelo://app?vid=50562db3-e3a5-4c84-a2e2-f49db56936f7"},"vehicle_type_id":"4","last_reported":1729887011,"current_range_meters":12800,"station_id":"ce4bgqh2rcd13ifvqc5g","pricing_plan_id":"cebpf4jnsgd1na2vs0mg"},{"bike_id":"a105fe2b-c050-45cc-8d79-e25758638f0b","system_id":"levelo_inurba_marseille","lat":43.25006,"lon":5.38935,"is_reserved":false,"is_disabled":false,"rental_uris":{"android":"levelo://app?vid=a105fe2b-c050-45cc-8d79-e25758638f0b","ios":"levelo://app?vid=a105fe2b-c050-45cc-8d79-e25758638f0b"},"vehicle_type_id":"4","last_reported":1729887011,"current_range_meters":38800,"station_id":"ce4bhgp2rcd13ifvqfd0","pricing_plan_id":"cebpf4jnsgd1na2vs0mg"},{"bike_id":"fccca9a3-13e9-4ff0-9aaf-5a5448e0ee71","system_id":"levelo_inurba_marseille","lat":43.29861,"lon":5.39733,"is_reserved":false,"is_disabled":false,"rental_uris":{"android":"levelo://app?vid=fccca9a3-13e9-4ff0-9aaf-5a5448e0ee71","ios":"levelo://app?vid=fccca9a3-13e9-4ff0-9aaf-5a5448e0ee71"},"vehicle_type_id":"4","last_reported":1729887011,"current_range_meters":6800,"station_id":"ce4bh0h2rcd13ifvqd50","pricing_plan_id":"cebpf4jnsgd1na2vs0mg"},{"bike_id":"32366732-5f4b-4b66-8da6-abdbd8569264","system_id":"levelo_inurba_marseille","lat":43.33028,"lon":5.39036,"is_reserved":false,"is_disabled":false,"rental_uris":{"android":"levelo://app?vid=32366732-5f4b-4b66-8da6-abdbd8569264","ios":"levelo://app?vid=32366732-5f4b-4b66-8da6-abdbd8569264"},"vehicle_type_id":"4","last_reported":1729887011,"current_range_meters":38800,"station_id":"ce4bhr92rcd13ifvqhrg","pricing_plan_id":"cebpf4jnsgd1na2vs0mg"},{"bike_id":"591eb340-5daa-476d-9a3a-e5d37b4d9d7e","system_id":"levelo_inurba_marseille","lat":43.30224,"lon":5.39468,"is_reserved":false,"is_disabled":false,"rental_uris":{"android":"levelo://app?vid=591eb340-5daa-476d-9a3a-e5d37b4d9d7e","ios":"levelo://app?vid=591eb340-5daa-476d-9a3a-e5d37b4d9d7e"},"vehicle_type_id":"4","last_reported":1729887011,"current_range_meters":38800,"station_id":"ce4bh0p2rcd13ifvqd70","pricing_plan_id":"cebpf4jnsgd1na2vs0mg"},{"bike_id":"18cd883a-f1cd-4f34-98dc-7580d7e4256d","system_id":"levelo_inurba_marseille","lat":43.24645,"lon":5.38894,"is_reserved":false,"is_disabled":false,"rental_uris":{"android":"levelo://app?vid=18cd883a-f1cd-4f34-98dc-7580d7e4256d","ios":"levelo://app?vid=18cd883a-f1cd-4f34-98dc-7580d7e4256d"},"vehicle_type_id":"4","last_reported":1729887011,"current_range_meters":37600,"station_id":"ce4bhg12rcd13ifvqf60","pricing_plan_id":"cebpf4jnsgd1na2vs0mg"},{"bike_id":"f0fc82ca-f5ec-4e02-8e94-135a203ff8d2","system_id":"levelo_inurba_marseille","lat":43.24812,"lon":5.37458,"is_reserved":false,"is_disabled":false,"rental_uris":{"android":"levelo://app?vid=f0fc82ca-f5ec-4e02-8e94-135a203ff8d2","ios":"levelo://app?vid=f0fc82ca-f5ec-4e02-8e94-135a203ff8d2"},"vehicle_type_id":"4","last_reported":1729887011,"current_range_meters":38800,"station_id":"ce4bhgh2rcd13ifvqfb0","pricing_plan_id":"cebpf4jnsgd1na2vs0mg"},{"bike_id":"20cf6f1c-7236-412b-8689-5f9328ef8039","system_id":"levelo_inurba_marseille","lat":43.2925,"lon":5.38441,"is_reserved":false,"is_disabled":false,"rental_uris":{"android":"levelo://app?vid=20cf6f1c-7236-412b-8689-5f9328ef8039","ios":"levelo://app?vid=20cf6f1c-7236-412b-8689-5f9328ef8039"},"vehicle_type_id":"4","last_reported":1729887011,"current_range_meters":8400,"station_id":"ce4bh692rcd13ifvqea0","pricing_plan_id":"cebpf4jnsgd1na2vs0mg"},{"bike_id":"1aac1f7a-a64c-43c7-9fea-28291f50e750","system_id":"levelo_inurba_marseille","lat":43.295277,"lon":5.385439,"is_reserved":false,"is_disabled":false,"rental_uris":{"android":"levelo://app?vid=1aac1f7a-a64c-43c7-9fea-28291f50e750","ios":"levelo://app?vid=1aac1f7a-a64c-43c7-9fea-28291f50e750"},"vehicle_type_id":"4","last_reported":1729887011,"current_range_meters":38800,"station_id":"ce4bgih2rcd13ifvqba0","pricing_plan_id":"cebpf4jnsgd1na2vs0mg"},{"bike_id":"a4916ca8-8cea-41ca-9bd0-83ea66e6f362","system_id":"levelo_inurba_marseille","lat":43.22937,"lon":5.35377,"is_reserved":false,"is_disabled":false,"rental_uris":{"android":"levelo://app?vid=a4916ca8-8cea-41ca-9bd0-83ea66e6f362","ios":"levelo://app?vid=a4916ca8-8cea-41ca-9bd0-83ea66e6f362"},"vehicle_type_id":"4","last_reported":1729887011,"current_range_meters":38800,"station_id":"cpo3532slgdg3j2ikp40","pricing_plan_id":"cebpf4jnsgd1na2vs0mg"},{"bike_id":"35bc0fba-a740-43af-8968-e677af9ffdfb","system_id":"levelo_inurba_marseille","lat":43.295804,"lon":5.375299,"is_reserved":false,"is_disabled":false,"rental_uris":{"android":"levelo://app?vid=35bc0fba-a740-43af-8968-e677af9ffdfb","ios":"levelo://app?vid=35bc0fba-a740-43af-8968-e677af9ffdfb"},"vehicle_type_id":"4","last_reported":1729887011,"current_range_meters":24800,"station_id":"","pricing_plan_id":"cebpf4jnsgd1na2vs0mg"},{"bike_id":"96ca645b-061e-4c05-892f-ad432490af5f","system_id":"levelo_inurba_marseille","lat":43.30648,"lon":5.40066,"is_reserved":false,"is_disabled":false,"rental_uris":{"android":"levelo://app?vid=96ca645b-061e-4c05-892f-ad432490af5f","ios":"levelo://app?vid=96ca645b-061e-4c05-892f-ad432490af5f"},"vehicle_type_id":"4","last_reported":1729887011,"current_range_meters":15200,"station_id":"ce4bh112rcd13ifvqda0","pricing_plan_id":"cebpf4jnsgd1na2vs0mg"},{"bike_id":"a9d80a19-88db-4d40-8b71-4a0311146273","system_id":"levelo_inurba_marseille","lat":43.28413,"lon":5.34978,"is_reserved":false,"is_disabled":false,"rental_uris":{"android":"levelo://app?vid=a9d80a19-88db-4d40-8b71-4a0311146273","ios":"levelo://app?vid=a9d80a19-88db-4d40-8b71-4a0311146273"},"vehicle_type_id":"4","last_reported":1729887011,"current_range_meters":23200,"station_id":"ce4bhbh2rcd13ifvqepg","pricing_plan_id":"cebpf4jnsgd1na2vs0mg"},{"bike_id":"a2a92060-b838-4051-b6b8-e444b7827b79","system_id":"levelo_inurba_marseille","lat":43.30637,"lon":5.40079,"is_reserved":false,"is_disabled":false,"rental_uris":{"android":"levelo://app?vid=a2a92060-b838-4051-b6b8-e444b7827b79","ios":"levelo://app?vid=a2a92060-b838-4051-b6b8-e444b7827b79"},"vehicle_type_id":"4","last_reported":1729887011,"current_range_meters":38800,"station_id":"ce4bh112rcd13ifvqda0","pricing_plan_id":"cebpf4jnsgd1na2vs0mg"},{"bike_id":"71e3850b-a3bf-483f-9d73-a9c8fc924917","system_id":"levelo_inurba_marseille","lat":43.3012,"lon":5.39849,"is_reserved":false,"is_disabled":false,"rental_uris":{"android":"levelo://app?vid=71e3850b-a3bf-483f-9d73-a9c8fc924917","ios":"levelo://app?vid=71e3850b-a3bf-483f-9d73-a9c8fc924917"},"vehicle_type_id":"4","last_reported":1729887011,"current_range_meters":12800,"station_id":"ce4bh0h2rcd13ifvqd40","pricing_plan_id":"cebpf4jnsgd1na2vs0mg"},{"bike_id":"19bd8ade-2c53-47ee-9430-afe5409ecd59","system_id":"levelo_inurba_marseille","lat":43.2987,"lon":5.39745,"is_reserved":false,"is_disabled":false,"rental_uris":{"android":"levelo://app?vid=19bd8ade-2c53-47ee-9430-afe5409ecd59","ios":"levelo://app?vid=19bd8ade-2c53-47ee-9430-afe5409ecd59"},"vehicle_type_id":"4","last_reported":1729887011,"current_range_meters":38800,"station_id":"ce4bh0h2rcd13ifvqd50","pricing_plan_id":"cebpf4jnsgd1na2vs0mg"},{"bike_id":"a3bda255-9938-4c59-b96b-910ba5463f40","system_id":"levelo_inurba_marseille","lat":43.29255,"lon":5.38441,"is_reserved":false,"is_disabled":false,"rental_uris":{"android":"levelo://app?vid=a3bda255-9938-4c59-b96b-910ba5463f40","ios":"levelo://app?vid=a3bda255-9938-4c59-b96b-910ba5463f40"},"vehicle_type_id":"4","last_reported":1729887011,"current_range_meters":18000,"station_id":"ce4bh692rcd13ifvqea0","pricing_plan_id":"cebpf4jnsgd1na2vs0mg"},{"bike_id":"719f3a72-678f-4d07-945c-cac36cff36b3","system_id":"levelo_inurba_marseille","lat":43.289368,"lon":5.366401,"is_reserved":false,"is_disabled":false,"rental_uris":{"android":"levelo://app?vid=719f3a72-678f-4d07-945c-cac36cff36b3","ios":"levelo://app?vid=719f3a72-678f-4d07-945c-cac36cff36b3"},"vehicle_type_id":"4","last_reported":1729887011,"current_range_meters":24400,"station_id":"ce4bhap2rcd13ifvqek0","pricing_plan_id":"cebpf4jnsgd1na2vs0mg"},{"bike_id":"0b52d4ae-fe12-4ef4-ab08-e7e9dc4d9fd5","system_id":"levelo_inurba_marseille","lat":43.29366,"lon":5.37843,"is_reserved":false,"is_disabled":false,"rental_uris":{"android":"levelo://app?vid=0b52d4ae-fe12-4ef4-ab08-e7e9dc4d9fd5","ios":"levelo://app?vid=0b52d4ae-fe12-4ef4-ab08-e7e9dc4d9fd5"},"vehicle_type_id":"4","last_reported":1729887011,"current_range_meters":34800,"station_id":"ce4bgjh2rcd13ifvqbf0","pricing_plan_id":"cebpf4jnsgd1na2vs0mg"},{"bike_id":"b69629f5-3119-4609-ab12-4016242cb5ca","system_id":"levelo_inurba_marseille","lat":43.27071,"lon":5.42274,"is_reserved":false,"is_disabled":false,"rental_uris":{"android":"levelo://app?vid=b69629f5-3119-4609-ab12-4016242cb5ca","ios":"levelo://app?vid=b69629f5-3119-4609-ab12-4016242cb5ca"},"vehicle_type_id":"4","last_reported":1729887011,"current_range_meters":39200,"station_id":"ce4bhk92rcd13ifvqgb0","pricing_plan_id":"cebpf4jnsgd1na2vs0mg"},{"bike_id":"a177cf92-fe46-44a6-8fe0-6df07ad8a3cd","system_id":"levelo_inurba_marseille","lat":43.27072,"lon":5.42279,"is_reserved":false,"is_disabled":false,"rental_uris":{"android":"levelo://app?vid=a177cf92-fe46-44a6-8fe0-6df07ad8a3cd","ios":"levelo://app?vid=a177cf92-fe46-44a6-8fe0-6df07ad8a3cd"},"vehicle_type_id":"4","last_reported":1729887011,"current_range_meters":34800,"station_id":"ce4bhk92rcd13ifvqgb0","pricing_plan_id":"cebpf4jnsgd1na2vs0mg"},{"bike_id":"f4aeffd8-297a-4b4d-b6de-b284ffe5d030","system_id":"levelo_inurba_marseille","lat":43.30649,"lon":5.4007,"is_reserved":false,"is_disabled":false,"rental_uris":{"android":"levelo://app?vid=f4aeffd8-297a-4b4d-b6de-b284ffe5d030","ios":"levelo://app?vid=f4aeffd8-297a-4b4d-b6de-b284ffe5d030"},"vehicle_type_id":"4","last_reported":1729887011,"current_range_meters":19600,"station_id":"ce4bh112rcd13ifvqda0","pricing_plan_id":"cebpf4jnsgd1na2vs0mg"},{"bike_id":"0e3f35aa-dbea-4e8d-ae62-562a614ef22b","system_id":"levelo_inurba_marseille","lat":43.25721,"lon":5.41117,"is_reserved":false,"is_disabled":false,"rental_uris":{"android":"levelo://app?vid=0e3f35aa-dbea-4e8d-ae62-562a614ef22b","ios":"levelo://app?vid=0e3f35aa-dbea-4e8d-ae62-562a614ef22b"},"vehicle_type_id":"4","last_reported":1729887011,"current_range_meters":4800,"station_id":"ce4bhkp2rcd13ifvqgd0","pricing_plan_id":"cebpf4jnsgd1na2vs0mg"},{"bike_id":"1fb83cb8-0476-4063-9cc1-9c5249a8f2fa","system_id":"levelo_inurba_marseille","lat":43.29679,"lon":5.42753,"is_reserved":false,"is_disabled":false,"rental_uris":{"android":"levelo://app?vid=1fb83cb8-0476-4063-9cc1-9c5249a8f2fa","ios":"levelo://app?vid=1fb83cb8-0476-4063-9cc1-9c5249a8f2fa"},"vehicle_type_id":"4","last_reported":1729887011,"current_range_meters":9600,"station_id":"","pricing_plan_id":"cebpf4jnsgd1na2vs0mg"},{"bike_id":"1228afda-d23b-4fdf-88bc-f80aeadb337d","system_id":"levelo_inurba_marseille","lat":43.29792,"lon":5.38076,"is_reserved":false,"is_disabled":false,"rental_uris":{"android":"levelo://app?vid=1228afda-d23b-4fdf-88bc-f80aeadb337d","ios":"levelo://app?vid=1228afda-d23b-4fdf-88bc-f80aeadb337d"},"vehicle_type_id":"4","last_reported":1729887011,"current_range_meters":6400,"station_id":"ce4bgip2rcd13ifvqbb0","pricing_plan_id":"cebpf4jnsgd1na2vs0mg"},{"bike_id":"a86d5fa3-82db-4bf0-96c5-46db93f24618","system_id":"levelo_inurba_marseille","lat":43.25113,"lon":5.4032,"is_reserved":false,"is_disabled":false,"rental_uris":{"android":"levelo://app?vid=a86d5fa3-82db-4bf0-96c5-46db93f24618","ios":"levelo://app?vid=a86d5fa3-82db-4bf0-96c5-46db93f24618"},"vehicle_type_id":"4","last_reported":1729887011,"current_range_meters":31200,"station_id":"ce4bhlh2rcd13ifvqgig","pricing_plan_id":"cebpf4jnsgd1na2vs0mg"},{"bike_id":"a8be9e79-195a-451a-86ec-5c494e9f3ff8","system_id":"levelo_inurba_marseille","lat":43.30884,"lon":5.37175,"is_reserved":false,"is_disabled":false,"rental_uris":{"android":"levelo://app?vid=a8be9e79-195a-451a-86ec-5c494e9f3ff8","ios":"levelo://app?vid=a8be9e79-195a-451a-86ec-5c494e9f3ff8"},"vehicle_type_id":"4","last_reported":1729887011,"current_range_meters":16800,"station_id":"ce4bguh2rcd13ifvqckg","pricing_plan_id":"cebpf4jnsgd1na2vs0mg"},{"bike_id":"84d4df44-d567-4b06-8611-b3811f688902","system_id":"levelo_inurba_marseille","lat":43.24806,"lon":5.37456,"is_reserved":false,"is_disabled":false,"rental_uris":{"android":"levelo://app?vid=84d4df44-d567-4b06-8611-b3811f688902","ios":"levelo://app?vid=84d4df44-d567-4b06-8611-b3811f688902"},"vehicle_type_id":"4","last_reported":1729887011,"current_range_meters":38400,"station_id":"ce4bhgh2rcd13ifvqfb0","pricing_plan_id":"cebpf4jnsgd1na2vs0mg"},{"bike_id":"8b34db6e-7ac5-421b-8140-e12375d73aa9","system_id":"levelo_inurba_marseille","lat":43.29534,"lon":5.38538,"is_reserved":false,"is_disabled":false,"rental_uris":{"android":"levelo://app?vid=8b34db6e-7ac5-421b-8140-e12375d73aa9","ios":"levelo://app?vid=8b34db6e-7ac5-421b-8140-e12375d73aa9"},"vehicle_type_id":"4","last_reported":1729887011,"current_range_meters":25600,"station_id":"ce4bgih2rcd13ifvqba0","pricing_plan_id":"cebpf4jnsgd1na2vs0mg"},{"bike_id":"191b21fb-5041-45e0-826e-0d2912d8de42","system_id":"levelo_inurba_marseille","lat":43.2783,"lon":5.39203,"is_reserved":false,"is_disabled":false,"rental_uris":{"android":"levelo://app?vid=191b21fb-5041-45e0-826e-0d2912d8de42","ios":"levelo://app?vid=191b21fb-5041-45e0-826e-0d2912d8de42"},"vehicle_type_id":"4","last_reported":1729887011,"current_range_meters":14400,"station_id":"ce4bhjp2rcd13ifvqga0","pricing_plan_id":"cebpf4jnsgd1na2vs0mg"},{"bike_id":"a2c88912-f2d5-4af6-8b93-b4c6a4138c6c","system_id":"levelo_inurba_marseille","lat":43.2926,"lon":5.38442,"is_reserved":false,"is_disabled":false,"rental_uris":{"android":"levelo://app?vid=a2c88912-f2d5-4af6-8b93-b4c6a4138c6c","ios":"levelo://app?vid=a2c88912-f2d5-4af6-8b93-b4c6a4138c6c"},"vehicle_type_id":"4","last_reported":1729887011,"current_range_meters":8800,"station_id":"ce4bh692rcd13ifvqea0","pricing_plan_id":"cebpf4jnsgd1na2vs0mg"},{"bike_id":"a64b3754-53de-42eb-978d-641562e11181","system_id":"levelo_inurba_marseille","lat":43.25727,"lon":5.41099,"is_reserved":false,"is_disabled":false,"rental_uris":{"android":"levelo://app?vid=a64b3754-53de-42eb-978d-641562e11181","ios":"levelo://app?vid=a64b3754-53de-42eb-978d-641562e11181"},"vehicle_type_id":"4","last_reported":1729887011,"current_range_meters":38800,"station_id":"ce4bhkp2rcd13ifvqgd0","pricing_plan_id":"cebpf4jnsgd1na2vs0mg"},{"bike_id":"53b22b21-1bb3-41fc-bc85-31ae0a413f0c","system_id":"levelo_inurba_marseille","lat":43.300866,"lon":5.390795,"is_reserved":false,"is_disabled":false,"rental_uris":{"android":"levelo://app?vid=53b22b21-1bb3-41fc-bc85-31ae0a413f0c","ios":"levelo://app?vid=53b22b21-1bb3-41fc-bc85-31ae0a413f0c"},"vehicle_type_id":"4","last_reported":1729887011,"current_range_meters":10000,"station_id":"ce4bh192rcd13ifvqdb0","pricing_plan_id":"cebpf4jnsgd1na2vs0mg"},{"bike_id":"8504cc8a-b51f-4a89-b58a-1a83986f5f7e","system_id":"levelo_inurba_marseille","lat":43.29424,"lon":5.38624,"is_reserved":false,"is_disabled":false,"rental_uris":{"android":"levelo://app?vid=8504cc8a-b51f-4a89-b58a-1a83986f5f7e","ios":"levelo://app?vid=8504cc8a-b51f-4a89-b58a-1a83986f5f7e"},"vehicle_type_id":"4","last_reported":1729887011,"current_range_meters":32000,"station_id":"ce4bh2h2rcd13ifvqdh0","pricing_plan_id":"cebpf4jnsgd1na2vs0mg"},{"bike_id":"596be825-098f-44c6-8b18-f1ed8c1bf80b","system_id":"levelo_inurba_marseille","lat":43.28445,"lon":5.39186,"is_reserved":false,"is_disabled":false,"rental_uris":{"android":"levelo://app?vid=596be825-098f-44c6-8b18-f1ed8c1bf80b","ios":"levelo://app?vid=596be825-098f-44c6-8b18-f1ed8c1bf80b"},"vehicle_type_id":"4","last_reported":1729887011,"current_range_meters":36000,"station_id":"ce4bhoh2rcd13ifvqh5g","pricing_plan_id":"cebpf4jnsgd1na2vs0mg"},{"bike_id":"70288195-9660-4e89-b2a5-7605fbb408d9","system_id":"levelo_inurba_marseille","lat":43.29525,"lon":5.38535,"is_reserved":false,"is_disabled":false,"rental_uris":{"android":"levelo://app?vid=70288195-9660-4e89-b2a5-7605fbb408d9","ios":"levelo://app?vid=70288195-9660-4e89-b2a5-7605fbb408d9"},"vehicle_type_id":"4","last_reported":1729887011,"current_range_meters":32400,"station_id":"ce4bgih2rcd13ifvqba0","pricing_plan_id":"cebpf4jnsgd1na2vs0mg"},{"bike_id":"ac3b9782-3be2-4d9d-bf0c-504bc8d09b14","system_id":"levelo_inurba_marseille","lat":43.29053,"lon":5.35916,"is_reserved":false,"is_disabled":false,"rental_uris":{"android":"levelo://app?vid=ac3b9782-3be2-4d9d-bf0c-504bc8d09b14","ios":"levelo://app?vid=ac3b9782-3be2-4d9d-bf0c-504bc8d09b14"},"vehicle_type_id":"4","last_reported":1729887011,"current_range_meters":4000,"station_id":"ce4bha92rcd13ifvqeg0","pricing_plan_id":"cebpf4jnsgd1na2vs0mg"},{"bike_id":"11f0ba88-01b5-46af-893d-1b1f2b5b2c88","system_id":"levelo_inurba_marseille","lat":43.29025,"lon":5.38628,"is_reserved":false,"is_disabled":false,"rental_uris":{"android":"levelo://app?vid=11f0ba88-01b5-46af-893d-1b1f2b5b2c88","ios":"levelo://app?vid=11f0ba88-01b5-46af-893d-1b1f2b5b2c88"},"vehicle_type_id":"4","last_reported":1729887011,"current_range_meters":38800,"station_id":"ce4bh4p2rcd13ifvqe0g","pricing_plan_id":"cebpf4jnsgd1na2vs0mg"},{"bike_id":"31724bd9-cefc-426b-889e-ca01889ec1cb","system_id":"levelo_inurba_marseille","lat":43.29175,"lon":5.3716,"is_reserved":false,"is_disabled":false,"rental_uris":{"android":"levelo://app?vid=31724bd9-cefc-426b-889e-ca01889ec1cb","ios":"levelo://app?vid=31724bd9-cefc-426b-889e-ca01889ec1cb"},"vehicle_type_id":"4","last_reported":1729887011,"current_range_meters":38800,"station_id":"ce4bha92rcd13ifvqeh0","pricing_plan_id":"cebpf4jnsgd1na2vs0mg"},{"bike_id":"1bc1ec86-1dfc-454c-ac14-34e1a5af2151","system_id":"levelo_inurba_marseille","lat":43.2954,"lon":5.38543,"is_reserved":false,"is_disabled":false,"rental_uris":{"android":"levelo://app?vid=1bc1ec86-1dfc-454c-ac14-34e1a5af2151","ios":"levelo://app?vid=1bc1ec86-1dfc-454c-ac14-34e1a5af2151"},"vehicle_type_id":"4","last_reported":1729887011,"current_range_meters":27600,"station_id":"ce4bgih2rcd13ifvqba0","pricing_plan_id":"cebpf4jnsgd1na2vs0mg"},{"bike_id":"3f0f2bc4-a0c4-4af9-a75d-1a43a8a53e9d","system_id":"levelo_inurba_marseille","lat":43.29883,"lon":5.39742,"is_reserved":false,"is_disabled":false,"rental_uris":{"android":"levelo://app?vid=3f0f2bc4-a0c4-4af9-a75d-1a43a8a53e9d","ios":"levelo://app?vid=3f0f2bc4-a0c4-4af9-a75d-1a43a8a53e9d"},"vehicle_type_id":"4","last_reported":1729887011,"current_range_meters":38800,"station_id":"ce4bh0h2rcd13ifvqd50","pricing_plan_id":"cebpf4jnsgd1na2vs0mg"},{"bike_id":"33652ae4-d0cf-4b34-af11-1fabfa2e1716","system_id":"levelo_inurba_marseille","lat":43.24663,"lon":5.38161,"is_reserved":false,"is_disabled":false,"rental_uris":{"android":"levelo://app?vid=33652ae4-d0cf-4b34-af11-1fabfa2e1716","ios":"levelo://app?vid=33652ae4-d0cf-4b34-af11-1fabfa2e1716"},"vehicle_type_id":"4","last_reported":1729887011,"current_range_meters":17200,"station_id":"ce4bhih2rcd13ifvqfr0","pricing_plan_id":"cebpf4jnsgd1na2vs0mg"},{"bike_id":"468b30a9-647b-4efb-85b2-a19741ef2aea","system_id":"levelo_inurba_marseille","lat":43.28104,"lon":5.37834,"is_reserved":false,"is_disabled":false,"rental_uris":{"android":"levelo://app?vid=468b30a9-647b-4efb-85b2-a19741ef2aea","ios":"levelo://app?vid=468b30a9-647b-4efb-85b2-a19741ef2aea"},"vehicle_type_id":"4","last_reported":1729887011,"current_range_meters":17600,"station_id":"ce4bha12rcd13ifvqee0","pricing_plan_id":"cebpf4jnsgd1na2vs0mg"},{"bike_id":"528d4c0e-03aa-4c98-9909-7515be7be69e","system_id":"levelo_inurba_marseille","lat":43.29531,"lon":5.38532,"is_reserved":false,"is_disabled":false,"rental_uris":{"android":"levelo://app?vid=528d4c0e-03aa-4c98-9909-7515be7be69e","ios":"levelo://app?vid=528d4c0e-03aa-4c98-9909-7515be7be69e"},"vehicle_type_id":"4","last_reported":1729887011,"current_range_meters":28400,"station_id":"ce4bgih2rcd13ifvqba0","pricing_plan_id":"cebpf4jnsgd1na2vs0mg"},{"bike_id":"993213e6-6063-466a-bdfd-588dc3c51d3c","system_id":"levelo_inurba_marseille","lat":43.28431,"lon":5.34994,"is_reserved":false,"is_disabled":false,"rental_uris":{"android":"levelo://app?vid=993213e6-6063-466a-bdfd-588dc3c51d3c","ios":"levelo://app?vid=993213e6-6063-466a-bdfd-588dc3c51d3c"},"vehicle_type_id":"4","last_reported":1729887011,"current_range_meters":38800,"station_id":"ce4bhbh2rcd13ifvqepg","pricing_plan_id":"cebpf4jnsgd1na2vs0mg"},{"bike_id":"44460db4-113d-4331-9546-a5ed508f442d","system_id":"levelo_inurba_marseille","lat":43.29255,"lon":5.38439,"is_reserved":false,"is_disabled":false,"rental_uris":{"android":"levelo://app?vid=44460db4-113d-4331-9546-a5ed508f442d","ios":"levelo://app?vid=44460db4-113d-4331-9546-a5ed508f442d"},"vehicle_type_id":"4","last_reported":1729887011,"current_range_meters":29600,"station_id":"ce4bh692rcd13ifvqea0","pricing_plan_id":"cebpf4jnsgd1na2vs0mg"},{"bike_id":"43e0342e-7c69-4ef3-9959-2e5c770bab9f","system_id":"levelo_inurba_marseille","lat":43.22937,"lon":5.35381,"is_reserved":false,"is_disabled":false,"rental_uris":{"android":"levelo://app?vid=43e0342e-7c69-4ef3-9959-2e5c770bab9f","ios":"levelo://app?vid=43e0342e-7c69-4ef3-9959-2e5c770bab9f"},"vehicle_type_id":"4","last_reported":1729887011,"current_range_meters":16800,"station_id":"cpo3532slgdg3j2ikp40","pricing_plan_id":"cebpf4jnsgd1na2vs0mg"},{"bike_id":"0f085e31-07de-4f41-95c6-2d68be9ee07c","system_id":"levelo_inurba_marseille","lat":43.311707,"lon":5.387162,"is_reserved":false,"is_disabled":false,"rental_uris":{"android":"levelo://app?vid=0f085e31-07de-4f41-95c6-2d68be9ee07c","ios":"levelo://app?vid=0f085e31-07de-4f41-95c6-2d68be9ee07c"},"vehicle_type_id":"4","last_reported":1729887011,"current_range_meters":8000,"station_id":"ce4bgv12rcd13ifvqcp0","pricing_plan_id":"cebpf4jnsgd1na2vs0mg"},{"bike_id":"12eab7e7-f4fe-4359-8aa7-32541bf69683","system_id":"levelo_inurba_marseille","lat":43.28946,"lon":5.36641,"is_reserved":false,"is_disabled":false,"rental_uris":{"android":"levelo://app?vid=12eab7e7-f4fe-4359-8aa7-32541bf69683","ios":"levelo://app?vid=12eab7e7-f4fe-4359-8aa7-32541bf69683"},"vehicle_type_id":"4","last_reported":1729887011,"current_range_meters":16400,"station_id":"ce4bhap2rcd13ifvqek0","pricing_plan_id":"cebpf4jnsgd1na2vs0mg"},{"bike_id":"9e9ce6d5-3884-43ab-8d3b-315287324e2c","system_id":"levelo_inurba_marseille","lat":43.29504,"lon":5.38532,"is_reserved":false,"is_disabled":false,"rental_uris":{"android":"levelo://app?vid=9e9ce6d5-3884-43ab-8d3b-315287324e2c","ios":"levelo://app?vid=9e9ce6d5-3884-43ab-8d3b-315287324e2c"},"vehicle_type_id":"4","last_reported":1729887011,"current_range_meters":22000,"station_id":"ce4bgih2rcd13ifvqba0","pricing_plan_id":"cebpf4jnsgd1na2vs0mg"},{"bike_id":"1400a03e-321b-4fa1-ac65-2d62dbeb7c7b","system_id":"levelo_inurba_marseille","lat":43.3134,"lon":5.36728,"is_reserved":false,"is_disabled":false,"rental_uris":{"android":"levelo://app?vid=1400a03e-321b-4fa1-ac65-2d62dbeb7c7b","ios":"levelo://app?vid=1400a03e-321b-4fa1-ac65-2d62dbeb7c7b"},"vehicle_type_id":"4","last_reported":1729887011,"current_range_meters":28000,"station_id":"ce4bgr92rcd13ifvqc6g","pricing_plan_id":"cebpf4jnsgd1na2vs0mg"},{"bike_id":"e0ff9feb-638f-4997-bb17-c8e055e04ced","system_id":"levelo_inurba_marseille","lat":43.29261,"lon":5.38445,"is_reserved":false,"is_disabled":false,"rental_uris":{"android":"levelo://app?vid=e0ff9feb-638f-4997-bb17-c8e055e04ced","ios":"levelo://app?vid=e0ff9feb-638f-4997-bb17-c8e055e04ced"},"vehicle_type_id":"4","last_reported":1729887011,"current_range_meters":38800,"station_id":"ce4bh692rcd13ifvqea0","pricing_plan_id":"cebpf4jnsgd1na2vs0mg"},{"bike_id":"262be662-568c-432a-9d4c-665a48d6ec0d","system_id":"levelo_inurba_marseille","lat":43.29421,"lon":5.38625,"is_reserved":false,"is_disabled":false,"rental_uris":{"android":"levelo://app?vid=262be662-568c-432a-9d4c-665a48d6ec0d","ios":"levelo://app?vid=262be662-568c-432a-9d4c-665a48d6ec0d"},"vehicle_type_id":"4","last_reported":1729887011,"current_range_meters":24800,"station_id":"ce4bh2h2rcd13ifvqdh0","pricing_plan_id":"cebpf4jnsgd1na2vs0mg"},{"bike_id":"496d6be2-bdd4-4ed8-8f8f-a287e502af39","system_id":"levelo_inurba_marseille","lat":43.2892,"lon":5.38388,"is_reserved":false,"is_disabled":false,"rental_uris":{"android":"levelo://app?vid=496d6be2-bdd4-4ed8-8f8f-a287e502af39","ios":"levelo://app?vid=496d6be2-bdd4-4ed8-8f8f-a287e502af39"},"vehicle_type_id":"4","last_reported":1729887011,"current_range_meters":11600,"station_id":"ce4bh612rcd13ifvqe6g","pricing_plan_id":"cebpf4jnsgd1na2vs0mg"},{"bike_id":"90ced139-6bd8-448a-a9bc-8eca846b1d3f","system_id":"levelo_inurba_marseille","lat":43.24807,"lon":5.37461,"is_reserved":false,"is_disabled":false,"rental_uris":{"android":"levelo://app?vid=90ced139-6bd8-448a-a9bc-8eca846b1d3f","ios":"levelo://app?vid=90ced139-6bd8-448a-a9bc-8eca846b1d3f"},"vehicle_type_id":"4","last_reported":1729887011,"current_range_meters":38800,"station_id":"ce4bhgh2rcd13ifvqfb0","pricing_plan_id":"cebpf4jnsgd1na2vs0mg"},{"bike_id":"bd630f5b-03af-4f2e-9cf9-73efb8c3c229","system_id":"levelo_inurba_marseille","lat":43.29244,"lon":5.38441,"is_reserved":false,"is_disabled":false,"rental_uris":{"android":"levelo://app?vid=bd630f5b-03af-4f2e-9cf9-73efb8c3c229","ios":"levelo://app?vid=bd630f5b-03af-4f2e-9cf9-73efb8c3c229"},"vehicle_type_id":"4","last_reported":1729887011,"current_range_meters":30800,"station_id":"ce4bh692rcd13ifvqea0","pricing_plan_id":"cebpf4jnsgd1na2vs0mg"},{"bike_id":"365a5e76-e012-4983-b8a9-1a07480bde83","system_id":"levelo_inurba_marseille","lat":43.23198,"lon":5.3555,"is_reserved":false,"is_disabled":false,"rental_uris":{"android":"levelo://app?vid=365a5e76-e012-4983-b8a9-1a07480bde83","ios":"levelo://app?vid=365a5e76-e012-4983-b8a9-1a07480bde83"},"vehicle_type_id":"4","last_reported":1729887011,"current_range_meters":39200,"station_id":"ce4bhu92rcd13ifvqi70","pricing_plan_id":"cebpf4jnsgd1na2vs0mg"},{"bike_id":"51415f0c-2178-478b-9fba-4bd40eccdf40","system_id":"levelo_inurba_marseille","lat":43.30934,"lon":5.40142,"is_reserved":false,"is_disabled":false,"rental_uris":{"android":"levelo://app?vid=51415f0c-2178-478b-9fba-4bd40eccdf40","ios":"levelo://app?vid=51415f0c-2178-478b-9fba-4bd40eccdf40"},"vehicle_type_id":"4","last_reported":1729887011,"current_range_meters":20800,"station_id":"ce4bgvp2rcd13ifvqct0","pricing_plan_id":"cebpf4jnsgd1na2vs0mg"},{"bike_id":"bf7a5d18-d9bc-4381-81e7-d9447c9f9b92","system_id":"levelo_inurba_marseille","lat":43.31179,"lon":5.38709,"is_reserved":false,"is_disabled":false,"rental_uris":{"android":"levelo://app?vid=bf7a5d18-d9bc-4381-81e7-d9447c9f9b92","ios":"levelo://app?vid=bf7a5d18-d9bc-4381-81e7-d9447c9f9b92"},"vehicle_type_id":"4","last_reported":1729887011,"current_range_meters":19200,"station_id":"ce4bgv12rcd13ifvqcp0","pricing_plan_id":"cebpf4jnsgd1na2vs0mg"},{"bike_id":"96cdd95e-3482-4a43-addc-7928483a6278","system_id":"levelo_inurba_marseille","lat":43.23193,"lon":5.35561,"is_reserved":false,"is_disabled":false,"rental_uris":{"android":"levelo://app?vid=96cdd95e-3482-4a43-addc-7928483a6278","ios":"levelo://app?vid=96cdd95e-3482-4a43-addc-7928483a6278"},"vehicle_type_id":"4","last_reported":1729887011,"current_range_meters":24000,"station_id":"ce4bhu92rcd13ifvqi70","pricing_plan_id":"cebpf4jnsgd1na2vs0mg"},{"bike_id":"12c608b5-8d08-402f-9740-14c729cb411d","system_id":"levelo_inurba_marseille","lat":43.32636,"lon":5.38889,"is_reserved":false,"is_disabled":false,"rental_uris":{"android":"levelo://app?vid=12c608b5-8d08-402f-9740-14c729cb411d","ios":"levelo://app?vid=12c608b5-8d08-402f-9740-14c729cb411d"},"vehicle_type_id":"4","last_reported":1729887011,"current_range_meters":27200,"station_id":"","pricing_plan_id":"cebpf4jnsgd1na2vs0mg"},{"bike_id":"25b56222-17a5-40f4-b2d7-0f34167f9053","system_id":"levelo_inurba_marseille","lat":43.29541,"lon":5.38543,"is_reserved":false,"is_disabled":false,"rental_uris":{"android":"levelo://app?vid=25b56222-17a5-40f4-b2d7-0f34167f9053","ios":"levelo://app?vid=25b56222-17a5-40f4-b2d7-0f34167f9053"},"vehicle_type_id":"4","last_reported":1729887011,"current_range_meters":18800,"station_id":"ce4bgih2rcd13ifvqba0","pricing_plan_id":"cebpf4jnsgd1na2vs0mg"},{"bike_id":"9080dd97-505a-4355-a316-f71e71f02496","system_id":"levelo_inurba_marseille","lat":43.27999,"lon":5.40015,"is_reserved":false,"is_disabled":false,"rental_uris":{"android":"levelo://app?vid=9080dd97-505a-4355-a316-f71e71f02496","ios":"levelo://app?vid=9080dd97-505a-4355-a316-f71e71f02496"},"vehicle_type_id":"4","last_reported":1729887011,"current_range_meters":6400,"station_id":"ce4bho92rcd13ifvqh4g","pricing_plan_id":"cebpf4jnsgd1na2vs0mg"},{"bike_id":"74d75183-1557-4e7e-98a5-3d92cdb98e67","system_id":"levelo_inurba_marseille","lat":43.25112,"lon":5.40324,"is_reserved":false,"is_disabled":false,"rental_uris":{"android":"levelo://app?vid=74d75183-1557-4e7e-98a5-3d92cdb98e67","ios":"levelo://app?vid=74d75183-1557-4e7e-98a5-3d92cdb98e67"},"vehicle_type_id":"4","last_reported":1729887011,"current_range_meters":39200,"station_id":"ce4bhlh2rcd13ifvqgig","pricing_plan_id":"cebpf4jnsgd1na2vs0mg"},{"bike_id":"36fb0594-ea6d-4e03-8107-03cf576f3096","system_id":"levelo_inurba_marseille","lat":43.29419,"lon":5.38619,"is_reserved":false,"is_disabled":false,"rental_uris":{"android":"levelo://app?vid=36fb0594-ea6d-4e03-8107-03cf576f3096","ios":"levelo://app?vid=36fb0594-ea6d-4e03-8107-03cf576f3096"},"vehicle_type_id":"4","last_reported":1729887011,"current_range_meters":38800,"station_id":"ce4bh2h2rcd13ifvqdh0","pricing_plan_id":"cebpf4jnsgd1na2vs0mg"},{"bike_id":"8fbb5018-d780-4512-8f51-d9ee6b357ec0","system_id":"levelo_inurba_marseille","lat":43.2942,"lon":5.38628,"is_reserved":false,"is_disabled":false,"rental_uris":{"android":"levelo://app?vid=8fbb5018-d780-4512-8f51-d9ee6b357ec0","ios":"levelo://app?vid=8fbb5018-d780-4512-8f51-d9ee6b357ec0"},"vehicle_type_id":"4","last_reported":1729887011,"current_range_meters":6800,"station_id":"ce4bh2h2rcd13ifvqdh0","pricing_plan_id":"cebpf4jnsgd1na2vs0mg"},{"bike_id":"9a8a51ad-40a4-4fb4-9a3f-def9c436fed0","system_id":"levelo_inurba_marseille","lat":43.27916,"lon":5.39575,"is_reserved":false,"is_disabled":false,"rental_uris":{"android":"levelo://app?vid=9a8a51ad-40a4-4fb4-9a3f-def9c436fed0","ios":"levelo://app?vid=9a8a51ad-40a4-4fb4-9a3f-def9c436fed0"},"vehicle_type_id":"4","last_reported":1729887011,"current_range_meters":22800,"station_id":"ce4bhf92rcd13ifvqf40","pricing_plan_id":"cebpf4jnsgd1na2vs0mg"},{"bike_id":"0b1f8152-fa24-402f-b2cf-4a0283d5698f","system_id":"levelo_inurba_marseille","lat":43.29422,"lon":5.38623,"is_reserved":false,"is_disabled":false,"rental_uris":{"android":"levelo://app?vid=0b1f8152-fa24-402f-b2cf-4a0283d5698f","ios":"levelo://app?vid=0b1f8152-fa24-402f-b2cf-4a0283d5698f"},"vehicle_type_id":"4","last_reported":1729887011,"current_range_meters":37600,"station_id":"ce4bh2h2rcd13ifvqdh0","pricing_plan_id":"cebpf4jnsgd1na2vs0mg"},{"bike_id":"fd3565e6-8228-423c-aa35-7eb256beac6f","system_id":"levelo_inurba_marseille","lat":43.29268,"lon":5.38439,"is_reserved":false,"is_disabled":false,"rental_uris":{"android":"levelo://app?vid=fd3565e6-8228-423c-aa35-7eb256beac6f","ios":"levelo://app?vid=fd3565e6-8228-423c-aa35-7eb256beac6f"},"vehicle_type_id":"4","last_reported":1729887011,"current_range_meters":9600,"station_id":"ce4bh692rcd13ifvqea0","pricing_plan_id":"cebpf4jnsgd1na2vs0mg"},{"bike_id":"71cda5a0-571c-4b08-8476-48efcbdc28b3","system_id":"levelo_inurba_marseille","lat":43.24664,"lon":5.38167,"is_reserved":false,"is_disabled":false,"rental_uris":{"android":"levelo://app?vid=71cda5a0-571c-4b08-8476-48efcbdc28b3","ios":"levelo://app?vid=71cda5a0-571c-4b08-8476-48efcbdc28b3"},"vehicle_type_id":"4","last_reported":1729887011,"current_range_meters":6800,"station_id":"ce4bhih2rcd13ifvqfr0","pricing_plan_id":"cebpf4jnsgd1na2vs0mg"},{"bike_id":"08a2ab05-3f95-4a71-8a30-9173f725e207","system_id":"levelo_inurba_marseille","lat":43.22931,"lon":5.35375,"is_reserved":false,"is_disabled":false,"rental_uris":{"android":"levelo://app?vid=08a2ab05-3f95-4a71-8a30-9173f725e207","ios":"levelo://app?vid=08a2ab05-3f95-4a71-8a30-9173f725e207"},"vehicle_type_id":"4","last_reported":1729887011,"current_range_meters":16800,"station_id":"cpo3532slgdg3j2ikp40","pricing_plan_id":"cebpf4jnsgd1na2vs0mg"},{"bike_id":"54848889-c91f-4b23-adb6-ba657ff3416c","system_id":"levelo_inurba_marseille","lat":43.29037,"lon":5.38626,"is_reserved":false,"is_disabled":false,"rental_uris":{"android":"levelo://app?vid=54848889-c91f-4b23-adb6-ba657ff3416c","ios":"levelo://app?vid=54848889-c91f-4b23-adb6-ba657ff3416c"},"vehicle_type_id":"4","last_reported":1729887011,"current_range_meters":16000,"station_id":"ce4bh4p2rcd13ifvqe0g","pricing_plan_id":"cebpf4jnsgd1na2vs0mg"},{"bike_id":"8282dbc9-ef98-4f76-bfe9-7b2d373ee239","system_id":"levelo_inurba_marseille","lat":43.24814,"lon":5.3746,"is_reserved":false,"is_disabled":false,"rental_uris":{"android":"levelo://app?vid=8282dbc9-ef98-4f76-bfe9-7b2d373ee239","ios":"levelo://app?vid=8282dbc9-ef98-4f76-bfe9-7b2d373ee239"},"vehicle_type_id":"4","last_reported":1729887011,"current_range_meters":38800,"station_id":"ce4bhgh2rcd13ifvqfb0","pricing_plan_id":"cebpf4jnsgd1na2vs0mg"},{"bike_id":"a302f868-243a-43dc-8bbf-4d75a02c1967","system_id":"levelo_inurba_marseille","lat":43.261993,"lon":5.379094,"is_reserved":false,"is_disabled":false,"rental_uris":{"android":"levelo://app?vid=a302f868-243a-43dc-8bbf-4d75a02c1967","ios":"levelo://app?vid=a302f868-243a-43dc-8bbf-4d75a02c1967"},"vehicle_type_id":"4","last_reported":1729887011,"current_range_meters":29600,"station_id":"ce4bhjp2rcd13ifvqg90","pricing_plan_id":"cebpf4jnsgd1na2vs0mg"},{"bike_id":"82396d12-f8f0-47cf-8a72-3cdcc3a9bdc9","system_id":"levelo_inurba_marseille","lat":43.23971,"lon":5.36631,"is_reserved":false,"is_disabled":false,"rental_uris":{"android":"levelo://app?vid=82396d12-f8f0-47cf-8a72-3cdcc3a9bdc9","ios":"levelo://app?vid=82396d12-f8f0-47cf-8a72-3cdcc3a9bdc9"},"vehicle_type_id":"4","last_reported":1729887011,"current_range_meters":30800,"station_id":"ce4bhi12rcd13ifvqfp0","pricing_plan_id":"cebpf4jnsgd1na2vs0mg"},{"bike_id":"ff653983-4c71-4f3d-a11e-335448110aad","system_id":"levelo_inurba_marseille","lat":43.30779,"lon":5.37655,"is_reserved":false,"is_disabled":false,"rental_uris":{"android":"levelo://app?vid=ff653983-4c71-4f3d-a11e-335448110aad","ios":"levelo://app?vid=ff653983-4c71-4f3d-a11e-335448110aad"},"vehicle_type_id":"4","last_reported":1729887011,"current_range_meters":27600,"station_id":"ce4bgv92rcd13ifvqcq0","pricing_plan_id":"cebpf4jnsgd1na2vs0mg"},{"bike_id":"5505122f-cb50-4d28-b27e-e1481acf5e62","system_id":"levelo_inurba_marseille","lat":43.29418,"lon":5.38631,"is_reserved":false,"is_disabled":false,"rental_uris":{"android":"levelo://app?vid=5505122f-cb50-4d28-b27e-e1481acf5e62","ios":"levelo://app?vid=5505122f-cb50-4d28-b27e-e1481acf5e62"},"vehicle_type_id":"4","last_reported":1729887011,"current_range_meters":38800,"station_id":"ce4bh2h2rcd13ifvqdh0","pricing_plan_id":"cebpf4jnsgd1na2vs0mg"},{"bike_id":"8aa2c645-1c7e-496a-b079-b99ce51cbb27","system_id":"levelo_inurba_marseille","lat":43.29258,"lon":5.40917,"is_reserved":false,"is_disabled":false,"rental_uris":{"android":"levelo://app?vid=8aa2c645-1c7e-496a-b079-b99ce51cbb27","ios":"levelo://app?vid=8aa2c645-1c7e-496a-b079-b99ce51cbb27"},"vehicle_type_id":"4","last_reported":1729887011,"current_range_meters":22800,"station_id":"ce4bh192rcd13ifvqdc0","pricing_plan_id":"cebpf4jnsgd1na2vs0mg"},{"bike_id":"292c4b55-b337-4606-8812-4ebc5ed208c0","system_id":"levelo_inurba_marseille","lat":43.28108,"lon":5.3784,"is_reserved":false,"is_disabled":false,"rental_uris":{"android":"levelo://app?vid=292c4b55-b337-4606-8812-4ebc5ed208c0","ios":"levelo://app?vid=292c4b55-b337-4606-8812-4ebc5ed208c0"},"vehicle_type_id":"4","last_reported":1729887011,"current_range_meters":10000,"station_id":"ce4bha12rcd13ifvqee0","pricing_plan_id":"cebpf4jnsgd1na2vs0mg"},{"bike_id":"c101c88a-9aa2-42fc-9230-0cbb655efb72","system_id":"levelo_inurba_marseille","lat":43.31324,"lon":5.39695,"is_reserved":false,"is_disabled":false,"rental_uris":{"android":"levelo://app?vid=c101c88a-9aa2-42fc-9230-0cbb655efb72","ios":"levelo://app?vid=c101c88a-9aa2-42fc-9230-0cbb655efb72"},"vehicle_type_id":"4","last_reported":1729887011,"current_range_meters":38800,"station_id":"ce4bgvp2rcd13ifvqcu0","pricing_plan_id":"cebpf4jnsgd1na2vs0mg"},{"bike_id":"0bfcd8c2-86c6-4e10-8313-d08296d5eb46","system_id":"levelo_inurba_marseille","lat":43.30496,"lon":5.40172,"is_reserved":false,"is_disabled":false,"rental_uris":{"android":"levelo://app?vid=0bfcd8c2-86c6-4e10-8313-d08296d5eb46","ios":"levelo://app?vid=0bfcd8c2-86c6-4e10-8313-d08296d5eb46"},"vehicle_type_id":"4","last_reported":1729887011,"current_range_meters":30800,"station_id":"","pricing_plan_id":"cebpf4jnsgd1na2vs0mg"},{"bike_id":"099019b3-477c-412e-9dca-05df2a11f68a","system_id":"levelo_inurba_marseille","lat":43.34142,"lon":5.40895,"is_reserved":false,"is_disabled":false,"rental_uris":{"android":"levelo://app?vid=099019b3-477c-412e-9dca-05df2a11f68a","ios":"levelo://app?vid=099019b3-477c-412e-9dca-05df2a11f68a"},"vehicle_type_id":"4","last_reported":1729887011,"current_range_meters":11600,"station_id":"ce4bhqh2rcd13ifvqhlg","pricing_plan_id":"cebpf4jnsgd1na2vs0mg"},{"bike_id":"748175fc-06ab-4a0c-9926-5c6537d5d944","system_id":"levelo_inurba_marseille","lat":43.32365,"lon":5.38883,"is_reserved":false,"is_disabled":false,"rental_uris":{"android":"levelo://app?vid=748175fc-06ab-4a0c-9926-5c6537d5d944","ios":"levelo://app?vid=748175fc-06ab-4a0c-9926-5c6537d5d944"},"vehicle_type_id":"4","last_reported":1729887011,"current_range_meters":39200,"station_id":"ce4bhqp2rcd13ifvqhog","pricing_plan_id":"cebpf4jnsgd1na2vs0mg"},{"bike_id":"6980f02b-4404-4a9e-b957-8959d72800f4","system_id":"levelo_inurba_marseille","lat":43.29535,"lon":5.38537,"is_reserved":false,"is_disabled":false,"rental_uris":{"android":"levelo://app?vid=6980f02b-4404-4a9e-b957-8959d72800f4","ios":"levelo://app?vid=6980f02b-4404-4a9e-b957-8959d72800f4"},"vehicle_type_id":"4","last_reported":1729887011,"current_range_meters":8400,"station_id":"ce4bgih2rcd13ifvqba0","pricing_plan_id":"cebpf4jnsgd1na2vs0mg"},