{"last_updated":1715976528,"ttl":30,"version":"2.2","data":{"bikes":[{"bike_id":"d3bc2334-2750-47f2-8d1b-97315f67a099","system_id":"levelo_inurba_marseille","lat":43.31341,"lon":5.367098,"is_reserved":false,"is_disabled":false,"rental_uris":{"android":"levelo://app?vid=d3bc2334-2750-47f2-8d1b-97315f67a099","ios":"levelo://app?vid=d3bc2334-2750-47f2-8d1b-97315f67a099"},"vehicle_type_id":"4","last_reported":1715976528,"current_range_meters":17200,"station_id":"ce4bgr92rcd13ifvqc6g","pricing_plan_id":"cebpf4jnsgd1na2vs0mg"},{"bike_id":"b205abba-39ed-4cf8-bd62-330ca0e868bf","system_id":"levelo_inurba_marseille","lat":43.312239,"lon":5.368562,"is_reserved":false,"is_disabled":false,"rental_uris":{"android":"levelo://app?vid=b205abba-39ed-4cf8-bd62-330ca0e868bf","ios":"levelo://app?vid=b205abba-39ed-4cf8-bd62-330ca0e868bf"},"vehicle_type_id":"4","last_reported":1715976528,"current_range_meters":17200,"station_id":"ce4bgl92rcd13ifvqbq0","pricing_plan_id":"cebpf4jnsgd1na2vs0mg"},{"bike_id":"d5406eba-2878-4e4d-b420-251d235d777d","system_id":"levelo_inurba_marseille","lat":43.312239,"lon":5.368562,"is_reserved":false,"is_disabled":false,"rental_uris":{"android":"levelo://app?vid=d5406eba-2878-4e4d-b420-251d235d777d","ios":"levelo://app?vid=d5406eba-2878-4e4d-b420-251d235d777d"},"vehicle_type_id":"4","last_reported":1715976528,"current_range_meters":8400,"station_id":"ce4bgl92rcd13ifvqbq0","pricing_plan_id":"cebpf4jnsgd1na2vs0mg"},{"bike_id":"8c087cfe-fa46-42be-9e41-308ff31364b8","system_id":"levelo_inurba_marseille","lat":43.312239,"lon":5.368562,"is_reserved":false,"is_disabled":false,"rental_uris":{"android":"levelo://app?vid=8c087cfe-fa46-42be-9e41-308ff31364b8","ios":"levelo://app?vid=8c087cfe-fa46-42be-9e41-308ff31364b8"},"vehicle_type_id":"4","last_reported":1715976528,"current_range_meters":26800,"station_id":"ce4bgl92rcd13ifvqbq0","pricing_plan_id":"cebpf4jnsgd1na2vs0mg"},{"bike_id":"a5a5e7cf-a468-4381-b3c2-8d1584ced943","system_id":"levelo_inurba_marseille","lat":43.309076,"lon":5.368465,"is_reserved":false,"is_disabled":false,"rental_uris":{"android":"levelo://app?vid=a5a5e7cf-a468-4381-b3c2-8d1584ced943","ios":"levelo://app?vid=a5a5e7cf-a468-4381-b3c2-8d1584ced943"},"vehicle_type_id":"4","last_reported":1715976528,"current_range_meters":4800,"station_id":"ce4bgn92rcd13ifvqbvg","pricing_plan_id":"cebpf4jnsgd1na2vs0mg"},{"bike_id":"67e7f24f-df65-4a99-83f9-490073e94ba7","system_id":"levelo_inurba_marseille","lat":43.309076,"lon":5.368465,"is_reserved":false,"is_disabled":false,"rental_uris":{"android":"levelo://app?vid=67e7f24f-df65-4a99-83f9-490073e94ba7","ios":"levelo://app?vid=67e7f24f-df65-4a99-83f9-490073e94ba7"},"vehicle_type_id":"4","last_reported":1715976528,"current_range_meters":7200,"station_id":"ce4bgn92rcd13ifvqbvg","pricing_plan_id":"cebpf4jnsgd1na2vs0mg"},{"bike_id":"b1495c46-7568-4e1c-a92e-67a156dbd2d0","system_id":"levelo_inurba_marseille","lat":43.309076,"lon":5.368465,"is_reserved":false,"is_disabled":false,"rental_uris":{"android":"levelo://app?vid=b1495c46-7568-4e1c-a92e-67a156dbd2d0","ios":"levelo://app?vid=b1495c46-7568-4e1c-a92e-67a156dbd2d0"},"vehicle_type_id":"4","last_reported":1715976528,"current_range_meters":0,"station_id":"ce4bgn92rcd13ifvqbvg","pricing_plan_id":"cebpf4jnsgd1na2vs0mg"},{"bike_id":"8cd8eb4d-bc6b-4c9e-ade8-5875ef2bc14e","system_id":"levelo_inurba_marseille","lat":43.314811,"lon":5.373103,"is_reserved":false,"is_disabled":false,"rental_uris":{"android":"levelo://app?vid=8cd8eb4d-bc6b-4c9e-ade8-5875ef2bc14e","ios":"levelo://app?vid=8cd8eb4d-bc6b-4c9e-ade8-5875ef2bc14e"},"vehicle_type_id":"4","last_reported":1715976528,"current_range_meters":8800,"station_id":"ce4bgt12rcd13ifvqcd0","pricing_plan_id":"cebpf4jnsgd1na2vs0mg"},{"bike_id":"9a0e3e4c-cd2c-43ce-b94d-3fe7b4c663f6","system_id":"levelo_inurba_marseille","lat":43.31489,"lon":5.37316,"is_reserved":false,"is_disabled":false,"rental_uris":{"android":"levelo://app?vid=9a0e3e4c-cd2c-43ce-b94d-3fe7b4c663f6","ios":"levelo://app?vid=9a0e3e4c-cd2c-43ce-b94d-3fe7b4c663f6"},"vehicle_type_id":"4","last_reported":1715976528,"current_range_meters":0,"station_id":"ce4bgt12rcd13ifvqcd0","pricing_plan_id":"cebpf4jnsgd1na2vs0mg"},{"bike_id":"fac301f7-45c9-410d-b35b-06acfa5ddd03","system_id":"levelo_inurba_marseille","lat":43.314811,"lon":5.373104,"is_reserved":false,"is_disabled":false,"rental_uris":{"android":"levelo://app?vid=fac301f7-45c9-410d-b35b-06acfa5ddd03","ios":"levelo://app?vid=fac301f7-45c9-410d-b35b-06acfa5ddd03"},"vehicle_type_id":"4","last_reported":1715976528,"current_range_meters":8400,"station_id":"ce4bgt12rcd13ifvqcd0","pricing_plan_id":"cebpf4jnsgd1na2vs0mg"},{"bike_id":"84f45cca-52f7-4aa5-b13b-59f97b9a11ed","system_id":"levelo_inurba_marseille","lat":43.30881,"lon":5.37198,"is_reserved":false,"is_disabled":false,"rental_uris":{"android":"levelo://app?vid=84f45cca-52f7-4aa5-b13b-59f97b9a11ed","ios":"levelo://app?vid=84f45cca-52f7-4aa5-b13b-59f97b9a11ed"},"vehicle_type_id":"4","last_reported":1715976528,"current_range_meters":3600,"station_id":"ce4bguh2rcd13ifvqckg","pricing_plan_id":"cebpf4jnsgd1na2vs0mg"},{"bike_id":"e50708b2-fa48-43a2-b02d-d0fef810dce2","system_id":"levelo_inurba_marseille","lat":43.30537,"lon":5.367345,"is_reserved":false,"is_disabled":false,"rental_uris":{"android":"levelo://app?vid=e50708b2-fa48-43a2-b02d-d0fef810dce2","ios":"levelo://app?vid=e50708b2-fa48-43a2-b02d-d0fef810dce2"},"vehicle_type_id":"4","last_reported":1715976528,"current_range_meters":19200,"station_id":"ce4bgrp2rcd13ifvqc9g","pricing_plan_id":"cebpf4jnsgd1na2vs0mg"},{"bike_id":"ff70a959-2f1b-4106-9ae8-b78ffbc4370d","system_id":"levelo_inurba_marseille","lat":43.30551,"lon":5.36541,"is_reserved":false,"is_disabled":false,"rental_uris":{"android":"levelo://app?vid=ff70a959-2f1b-4106-9ae8-b78ffbc4370d","ios":"levelo://app?vid=ff70a959-2f1b-4106-9ae8-b78ffbc4370d"},"vehicle_type_id":"4","last_reported":1715976528,"current_range_meters":16400,"station_id":"ce4bgs12rcd13ifvqcag","pricing_plan_id":"cebpf4jnsgd1na2vs0mg"},{"bike_id":"bb79e991-648c-4a4c-a171-c4d9325ca27e","system_id":"levelo_inurba_marseille","lat":43.305714,"lon":5.365633,"is_reserved":false,"is_disabled":false,"rental_uris":{"android":"levelo://app?vid=bb79e991-648c-4a4c-a171-c4d9325ca27e","ios":"levelo://app?vid=bb79e991-648c-4a4c-a171-c4d9325ca27e"},"vehicle_type_id":"4","last_reported":1715976528,"current_range_meters":28400,"station_id":"ce4bgs12rcd13ifvqcag","pricing_plan_id":"cebpf4jnsgd1na2vs0mg"},{"bike_id":"be219fae-fc10-4eee-b289-2df9e01cc6dd","system_id":"levelo_inurba_marseille","lat":43.305706,"lon":5.365654,"is_reserved":false,"is_disabled":false,"rental_uris":{"android":"levelo://app?vid=be219fae-fc10-4eee-b289-2df9e01cc6dd","ios":"levelo://app?vid=be219fae-fc10-4eee-b289-2df9e01cc6dd"},"vehicle_type_id":"4","last_reported":1715976528,"current_range_meters":27200,"station_id":"ce4bgs12rcd13ifvqcag","pricing_plan_id":"cebpf4jnsgd1na2vs0mg"},{"bike_id":"582bb9ea-b05e-4962-8346-714a86af9e82","system_id":"levelo_inurba_marseille","lat":43.305706,"lon":5.365654,"is_reserved":false,"is_disabled":false,"rental_uris":{"android":"levelo://app?vid=582bb9ea-b05e-4962-8346-714a86af9e82","ios":"levelo://app?vid=582bb9ea-b05e-4962-8346-714a86af9e82"},"vehicle_type_id":"4","last_reported":1715976528,"current_range_meters":28000,"station_id":"ce4bgs12rcd13ifvqcag","pricing_plan_id":"cebpf4jnsgd1na2vs0mg"},{"bike_id":"140d1524-5a58-4374-a7d8-a1bf3b4ed627","system_id":"levelo_inurba_marseille","lat":43.311125,"lon":5.377624,"is_reserved":false,"is_disabled":false,"rental_uris":{"android":"levelo://app?vid=140d1524-5a58-4374-a7d8-a1bf3b4ed627","ios":"levelo://app?vid=140d1524-5a58-4374-a7d8-a1bf3b4ed627"},"vehicle_type_id":"4","last_reported":1715976528,"current_range_meters":6800,"station_id":"ce4bgt92rcd13ifvqcg0","pricing_plan_id":"cebpf4jnsgd1na2vs0mg"},{"bike_id":"f24f5f18-e0a6-4ad3-baf5-fb007f3d4cad","system_id":"levelo_inurba_marseille","lat":43.311125,"lon":5.377624,"is_reserved":false,"is_disabled":false,"rental_uris":{"android":"levelo://app?vid=f24f5f18-e0a6-4ad3-baf5-fb007f3d4cad","ios":"levelo://app?vid=f24f5f18-e0a6-4ad3-baf5-fb007f3d4cad"},"vehicle_type_id":"4","last_reported":1715976528,"current_range_meters":22800,"station_id":"ce4bgt92rcd13ifvqcg0","pricing_plan_id":"cebpf4jnsgd1na2vs0mg"},{"bike_id":"5968fb77-5fac-4c01-a933-194843e5f108","system_id":"levelo_inurba_marseille","lat":43.311125,"lon":5.377624,"is_reserved":false,"is_disabled":false,"rental_uris":{"android":"levelo://app?vid=5968fb77-5fac-4c01-a933-194843e5f108","ios":"levelo://app?vid=5968fb77-5fac-4c01-a933-194843e5f108"},"vehicle_type_id":"4","last_reported":1715976528,"current_range_meters":400,"station_id":"ce4bgt92rcd13ifvqcg0","pricing_plan_id":"cebpf4jnsgd1na2vs0mg"},{"bike_id":"ccecdaee-dcfc-495f-b201-275903d7e8cb","system_id":"levelo_inurba_marseille","lat":43.317075,"lon":5.377367,"is_reserved":false,"is_disabled":false,"rental_uris":{"android":"levelo://app?vid=ccecdaee-dcfc-495f-b201-275903d7e8cb","ios":"levelo://app?vid=ccecdaee-dcfc-495f-b201-275903d7e8cb"},"vehicle_type_id":"4","last_reported":1715976528,"current_range_meters":5600,"station_id":"ce4bgth2rcd13ifvqch0","pricing_plan_id":"cebpf4jnsgd1na2vs0mg"},{"bike_id":"2ca93583-f8ef-4cab-b63b-0bd60cf56f8d","system_id":"levelo_inurba_marseille","lat":43.317075,"lon":5.377367,"is_reserved":false,"is_disabled":false,"rental_uris":{"android":"levelo://app?vid=2ca93583-f8ef-4cab-b63b-0bd60cf56f8d","ios":"levelo://app?vid=2ca93583-f8ef-4cab-b63b-0bd60cf56f8d"},"vehicle_type_id":"4","last_reported":1715976528,"current_range_meters":14800,"station_id":"ce4bgth2rcd13ifvqch0","pricing_plan_id":"cebpf4jnsgd1na2vs0mg"},{"bike_id":"f673e677-d4c8-421e-9042-9eff9f34ccae","system_id":"levelo_inurba_marseille","lat":43.317087,"lon":5.377463,"is_reserved":false,"is_disabled":false,"rental_uris":{"android":"levelo://app?vid=f673e677-d4c8-421e-9042-9eff9f34ccae","ios":"levelo://app?vid=f673e677-d4c8-421e-9042-9eff9f34ccae"},"vehicle_type_id":"4","last_reported":1715976528,"current_range_meters":0,"station_id":"ce4bgth2rcd13ifvqch0","pricing_plan_id":"cebpf4jnsgd1na2vs0mg"},{"bike_id":"10f35097-2643-4e5e-a8b9-c09f86f89747","system_id":"levelo_inurba_marseille","lat":43.317075,"lon":5.377367,"is_reserved":false,"is_disabled":false,"rental_uris":{"android":"levelo://app?vid=10f35097-2643-4e5e-a8b9-c09f86f89747","ios":"levelo://app?vid=10f35097-2643-4e5e-a8b9-c09f86f89747"},"vehicle_type_id":"4","last_reported":1715976528,"current_range_meters":25600,"station_id":"ce4bgth2rcd13ifvqch0","pricing_plan_id":"cebpf4jnsgd1na2vs0mg"},{"bike_id":"84b12753-80bf-47af-9502-f8e46524e089","system_id":"levelo_inurba_marseille","lat":43.317118,"lon":5.377658,"is_reserved":false,"is_disabled":false,"rental_uris":{"android":"levelo://app?vid=84b12753-80bf-47af-9502-f8e46524e089","ios":"levelo://app?vid=84b12753-80bf-47af-9502-f8e46524e089"},"vehicle_type_id":"4","last_reported":1715976528,"current_range_meters":5200,"station_id":"ce4bgth2rcd13ifvqch0","pricing_plan_id":"cebpf4jnsgd1na2vs0mg"},{"bike_id":"a7ac0c28-fd81-47ff-bb40-898a3350d36c","system_id":"levelo_inurba_marseille","lat":43.30304,"lon":5.368987,"is_reserved":false,"is_disabled":false,"rental_uris":{"android":"levelo://app?vid=a7ac0c28-fd81-47ff-bb40-898a3350d36c","ios":"levelo://app?vid=a7ac0c28-fd81-47ff-bb40-898a3350d36c"},"vehicle_type_id":"4","last_reported":1715976528,"current_range_meters":25200,"station_id":"ce4bgqh2rcd13ifvqc5g","pricing_plan_id":"cebpf4jnsgd1na2vs0mg"},{"bike_id":"dae36f3f-60c1-4434-b2c9-513bd7afe340","system_id":"levelo_inurba_marseille","lat":43.315289,"lon":5.380349,"is_reserved":false,"is_disabled":false,"rental_uris":{"android":"levelo://app?vid=dae36f3f-60c1-4434-b2c9-513bd7afe340","ios":"levelo://app?vid=dae36f3f-60c1-4434-b2c9-513bd7afe340"},"vehicle_type_id":"4","last_reported":1715976528,"current_range_meters":0,"station_id":"ce4bhsp2rcd13ifvqi50","pricing_plan_id":"cebpf4jnsgd1na2vs0mg"},{"bike_id":"1ec53050-4ef0-4ddd-8896-0b93a91c5a16","system_id":"levelo_inurba_marseille","lat":43.315289,"lon":5.380349,"is_reserved":false,"is_disabled":false,"rental_uris":{"android":"levelo://app?vid=1ec53050-4ef0-4ddd-8896-0b93a91c5a16","ios":"levelo://app?vid=1ec53050-4ef0-4ddd-8896-0b93a91c5a16"},"vehicle_type_id":"4","last_reported":1715976528,"current_range_meters":3200,"station_id":"ce4bhsp2rcd13ifvqi50","pricing_plan_id":"cebpf4jnsgd1na2vs0mg"},{"bike_id":"4d41b6b4-bb6b-4287-855d-d2873371475d","system_id":"levelo_inurba_marseille","lat":43.30143,"lon":5.37413,"is_reserved":false,"is_disabled":false,"rental_uris":{"android":"levelo://app?vid=4d41b6b4-bb6b-4287-855d-d2873371475d","ios":"levelo://app?vid=4d41b6b4-bb6b-4287-855d-d2873371475d"},"vehicle_type_id":"4","last_reported":1715976528,"current_range_meters":26800,"station_id":"ce4bgs92rcd13ifvqcc0","pricing_plan_id":"cebpf4jnsgd1na2vs0mg"},{"bike_id":"54cb7ab3-258e-418e-8a61-89e4da4ddd97","system_id":"levelo_inurba_marseille","lat":43.308012,"lon":5.381511,"is_reserved":false,"is_disabled":false,"rental_uris":{"android":"levelo://app?vid=54cb7ab3-258e-418e-8a61-89e4da4ddd97","ios":"levelo://app?vid=54cb7ab3-258e-418e-8a61-89e4da4ddd97"},"vehicle_type_id":"4","last_reported":1715976528,"current_range_meters":6400,"station_id":"ce4bgt12rcd13ifvqce0","pricing_plan_id":"cebpf4jnsgd1na2vs0mg"},{"bike_id":"49028c98-6ccf-456f-8756-adbe9337cdd1","system_id":"levelo_inurba_marseille","lat":43.308053,"lon":5.381517,"is_reserved":false,"is_disabled":false,"rental_uris":{"android":"levelo://app?vid=49028c98-6ccf-456f-8756-adbe9337cdd1","ios":"levelo://app?vid=49028c98-6ccf-456f-8756-adbe9337cdd1"},"vehicle_type_id":"4","last_reported":1715976528,"current_range_meters":800,"station_id":"ce4bgt12rcd13ifvqce0","pricing_plan_id":"cebpf4jnsgd1na2vs0mg"},{"bike_id":"7522fd6a-8a27-4544-97ec-c630c74fb350","system_id":"levelo_inurba_marseille","lat":43.304606,"lon":5.379026,"is_reserved":false,"is_disabled":false,"rental_uris":{"android":"levelo://app?vid=7522fd6a-8a27-4544-97ec-c630c74fb350","ios":"levelo://app?vid=7522fd6a-8a27-4544-97ec-c630c74fb350"},"vehicle_type_id":"4","last_reported":1715976528,"current_range_meters":0,"station_id":"ce4bgup2rcd13ifvqcn0","pricing_plan_id":"cebpf4jnsgd1na2vs0mg"},{"bike_id":"9d8f7ee6-be7b-4b2e-ba1c-92986d40dc97","system_id":"levelo_inurba_marseille","lat":43.304606,"lon":5.379026,"is_reserved":false,"is_disabled":false,"rental_uris":{"android":"levelo://app?vid=9d8f7ee6-be7b-4b2e-ba1c-92986d40dc97","ios":"levelo://app?vid=9d8f7ee6-be7b-4b2e-ba1c-92986d40dc97"},"vehicle_type_id":"4","last_reported":1715976528,"current_range_meters":2400,"station_id":"ce4bgup2rcd13ifvqcn0","pricing_plan_id":"cebpf4jnsgd1na2vs0mg"},{"bike_id":"0966ce54-736f-458c-8704-b68c8f1ff913","system_id":"levelo_inurba_marseille","lat":43.304606,"lon":5.379026,"is_reserved":false,"is_disabled":false,"rental_uris":{"android":"levelo://app?vid=0966ce54-736f-458c-8704-b68c8f1ff913","ios":"levelo://app?vid=0966ce54-736f-458c-8704-b68c8f1ff913"},"vehicle_type_id":"4","last_reported":1715976528,"current_range_meters":6800,"station_id":"ce4bgup2rcd13ifvqcn0","pricing_plan_id":"cebpf4jnsgd1na2vs0mg"},{"bike_id":"acdd2d5d-e0e6-4111-85b6-f95a1b8f54c5","system_id":"levelo_inurba_marseille","lat":43.304606,"lon":5.379026,"is_reserved":false,"is_disabled":false,"rental_uris":{"android":"levelo://app?vid=acdd2d5d-e0e6-4111-85b6-f95a1b8f54c5","ios":"levelo://app?vid=acdd2d5d-e0e6-4111-85b6-f95a1b8f54c5"},"vehicle_type_id":"4","last_reported":1715976528,"current_range_meters":1600,"station_id":"ce4bgup2rcd13ifvqcn0","pricing_plan_id":"cebpf4jnsgd1na2vs0mg"},{"bike_id":"1b503cc2-a953-48c8-8288-825a1200e307","system_id":"levelo_inurba_marseille","lat":43.304606,"lon":5.379026,"is_reserved":false,"is_disabled":false,"rental_uris":{"android":"levelo://app?vid=1b503cc2-a953-48c8-8288-825a1200e307","ios":"levelo://app?vid=1b503cc2-a953-48c8-8288-825a1200e307"},"vehicle_type_id":"4","last_reported":1715976528,"current_range_meters":8400,"station_id":"ce4bgup2rcd13ifvqcn0","pricing_plan_id":"cebpf4jnsgd1na2vs0mg"},{"bike_id":"58d52356-6fe8-41fe-8b76-f112b8c7aca0","system_id":"levelo_inurba_marseille","lat":43.324771,"lon":5.36557,"is_reserved":false,"is_disabled":false,"rental_uris":{"android":"levelo://app?vid=58d52356-6fe8-41fe-8b76-f112b8c7aca0","ios":"levelo://app?vid=58d52356-6fe8-41fe-8b76-f112b8c7aca0"},"vehicle_type_id":"4","last_reported":1715976528,"current_range_meters":31200,"station_id":"ce4bhs12rcd13ifvqhvg","pricing_plan_id":"cebpf4jnsgd1na2vs0mg"},{"bike_id":"bf44b839-a72e-457a-a95b-a061a3b96cf8","system_id":"levelo_inurba_marseille","lat":43.32477,"lon":5.36563,"is_reserved":false,"is_disabled":false,"rental_uris":{"android":"levelo://app?vid=bf44b839-a72e-457a-a95b-a061a3b96cf8","ios":"levelo://app?vid=bf44b839-a72e-457a-a95b-a061a3b96cf8"},"vehicle_type_id":"4","last_reported":1715976528,"current_range_meters":7200,"station_id":"ce4bhs12rcd13ifvqhvg","pricing_plan_id":"cebpf4jnsgd1na2vs0mg"},{"bike_id":"7e0f5720-6220-4adb-979a-5e49b2333554","system_id":"levelo_inurba_marseille","lat":43.324771,"lon":5.36557,"is_reserved":false,"is_disabled":false,"rental_uris":{"android":"levelo://app?vid=7e0f5720-6220-4adb-979a-5e49b2333554","ios":"levelo://app?vid=7e0f5720-6220-4adb-979a-5e49b2333554"},"vehicle_type_id":"4","last_reported":1715976528,"current_range_meters":14800,"station_id":"ce4bhs12rcd13ifvqhvg","pricing_plan_id":"cebpf4jnsgd1na2vs0mg"},{"bike_id":"d23eb76e-7790-442c-b794-448e71d72c62","system_id":"levelo_inurba_marseille","lat":43.30143,"lon":5.37413,"is_reserved":false,"is_disabled":false,"rental_uris":{"android":"levelo://app?vid=d23eb76e-7790-442c-b794-448e71d72c62","ios":"levelo://app?vid=d23eb76e-7790-442c-b794-448e71d72c62"},"vehicle_type_id":"4","last_reported":1715976528,"current_range_meters":17600,"station_id":"ce4bgs92rcd13ifvqcc0","pricing_plan_id":"cebpf4jnsgd1na2vs0mg"},{"bike_id":"b0753bbe-7da9-4aa5-9328-1da5b20cf44f","system_id":"levelo_inurba_marseille","lat":43.302784,"lon":5.377158,"is_reserved":false,"is_disabled":false,"rental_uris":{"android":"levelo://app?vid=b0753bbe-7da9-4aa5-9328-1da5b20cf44f","ios":"levelo://app?vid=b0753bbe-7da9-4aa5-9328-1da5b20cf44f"},"vehicle_type_id":"4","last_reported":1715976528,"current_range_meters":28400,"station_id":"ce4bguh2rcd13ifvqcj0","pricing_plan_id":"cebpf4jnsgd1na2vs0mg"},{"bike_id":"e3f3a087-17a9-405c-a68a-f25e13490c9c","system_id":"levelo_inurba_marseille","lat":43.30143,"lon":5.37413,"is_reserved":false,"is_disabled":false,"rental_uris":{"android":"levelo://app?vid=e3f3a087-17a9-405c-a68a-f25e13490c9c","ios":"levelo://app?vid=e3f3a087-17a9-405c-a68a-f25e13490c9c"},"vehicle_type_id":"4","last_reported":1715976528,"current_range_meters":22800,"station_id":"ce4bgs92rcd13ifvqcc0","pricing_plan_id":"cebpf4jnsgd1na2vs0mg"},{"bike_id":"3d7a0b06-3300-4f07-8015-5ceebfe8c3d3","system_id":"levelo_inurba_marseille","lat":43.301429,"lon":5.37413,"is_reserved":false,"is_disabled":false,"rental_uris":{"android":"levelo://app?vid=3d7a0b06-3300-4f07-8015-5ceebfe8c3d3","ios":"levelo://app?vid=3d7a0b06-3300-4f07-8015-5ceebfe8c3d3"},"vehicle_type_id":"4","last_reported":1715976528,"current_range_meters":22800,"station_id":"ce4bgs92rcd13ifvqcc0","pricing_plan_id":"cebpf4jnsgd1na2vs0mg"},{"bike_id":"781d6d7f-327a-4290-b31d-b854b25f2f3d","system_id":"levelo_inurba_marseille","lat":43.302784,"lon":5.377158,"is_reserved":false,"is_disabled":false,"rental_uris":{"android":"levelo://app?vid=781d6d7f-327a-4290-b31d-b854b25f2f3d","ios":"levelo://app?vid=781d6d7f-327a-4290-b31d-b854b25f2f3d"},"vehicle_type_id":"4","last_reported":1715976528,"current_range_meters":400,"station_id":"ce4bguh2rcd13ifvqcj0","pricing_plan_id":"cebpf4jnsgd1na2vs0mg"},{"bike_id":"df1f984b-8584-4545-b57a-d6e936964d5d","system_id":"levelo_inurba_marseille","lat":43.30143,"lon":5.37413,"is_reserved":false,"is_disabled":false,"rental_uris":{"android":"levelo://app?vid=df1f984b-8584-4545-b57a-d6e936964d5d","ios":"levelo://app?vid=df1f984b-8584-4545-b57a-d6e936964d5d"},"vehicle_type_id":"4","last_reported":1715976528,"current_range_meters":24000,"station_id":"ce4bgs92rcd13ifvqcc0","pricing_plan_id":"cebpf4jnsgd1na2vs0mg"},{"bike_id":"9544cc7a-2105-4f34-8a1d-4f6e30fbb7c9","system_id":"levelo_inurba_marseille","lat":43.302784,"lon":5.377158,"is_reserved":false,"is_disabled":false,"rental_uris":{"android":"levelo://app?vid=9544cc7a-2105-4f34-8a1d-4f6e30fbb7c9","ios":"levelo://app?vid=9544cc7a-2105-4f34-8a1d-4f6e30fbb7c9"},"vehicle_type_id":"4","last_reported":1715976528,"current_range_meters":27600,"station_id":"ce4bguh2rcd13ifvqcj0","pricing_plan_id":"cebpf4jnsgd1na2vs0mg"},{"bike_id":"84fe97a8-fe07-4579-85a9-812334d20b67","system_id":"levelo_inurba_marseille","lat":43.30143,"lon":5.37413,"is_reserved":false,"is_disabled":false,"rental_uris":{"android":"levelo://app?vid=84fe97a8-fe07-4579-85a9-812334d20b67","ios":"levelo://app?vid=84fe97a8-fe07-4579-85a9-812334d20b67"},"vehicle_type_id":"4","last_reported":1715976528,"current_range_meters":28400,"station_id":"ce4bgs92rcd13ifvqcc0","pricing_plan_id":"cebpf4jnsgd1na2vs0mg"},{"bike_id":"56651f4f-b3ab-4a79-a8f0-becc3dc17146","system_id":"levelo_inurba_marseille","lat":43.313571,"lon":5.384829,"is_reserved":false,"is_disabled":false,"rental_uris":{"android":"levelo://app?vid=56651f4f-b3ab-4a79-a8f0-becc3dc17146","ios":"levelo://app?vid=56651f4f-b3ab-4a79-a8f0-becc3dc17146"},"vehicle_type_id":"4","last_reported":1715976528,"current_range_meters":10400,"station_id":"ce4bgt92rcd13ifvqcf0","pricing_plan_id":"cebpf4jnsgd1na2vs0mg"},{"bike_id":"1468c17a-bb27-4864-9b9c-e329d0b099fb","system_id":"levelo_inurba_marseille","lat":43.31368,"lon":5.38491,"is_reserved":false,"is_disabled":false,"rental_uris":{"android":"levelo://app?vid=1468c17a-bb27-4864-9b9c-e329d0b099fb","ios":"levelo://app?vid=1468c17a-bb27-4864-9b9c-e329d0b099fb"},"vehicle_type_id":"4","last_reported":1715976528,"current_range_meters":4000,"station_id":"ce4bgt92rcd13ifvqcf0","pricing_plan_id":"cebpf4jnsgd1na2vs0mg"},{"bike_id":"bd72cc7b-fa86-457c-9c70-e0a3401dd69c","system_id":"levelo_inurba_marseille","lat":43.31365,"lon":5.38492,"is_reserved":false,"is_disabled":false,"rental_uris":{"android":"levelo://app?vid=bd72cc7b-fa86-457c-9c70-e0a3401dd69c","ios":"levelo://app?vid=bd72cc7b-fa86-457c-9c70-e0a3401dd69c"},"vehicle_type_id":"4","last_reported":1715976528,"current_range_meters":11200,"station_id":"ce4bgt92rcd13ifvqcf0","pricing_plan_id":"cebpf4jnsgd1na2vs0mg"},{"bike_id":"a8245950-47bf-4e80-acf1-892a878d359d","system_id":"levelo_inurba_marseille","lat":43.313571,"lon":5.384829,"is_reserved":false,"is_disabled":false,"rental_uris":{"android":"levelo://app?vid=a8245950-47bf-4e80-acf1-892a878d359d","ios":"levelo://app?vid=a8245950-47bf-4e80-acf1-892a878d359d"},"vehicle_type_id":"4","last_reported":1715976528,"current_range_meters":4800,"station_id":"ce4bgt92rcd13ifvqcf0","pricing_plan_id":"cebpf4jnsgd1na2vs0mg"},{"bike_id":"0e59246d-3e7a-4e1b-b15a-e2e12e36d4c1","system_id":"levelo_inurba_marseille","lat":43.313571,"lon":5.384829,"is_reserved":false,"is_disabled":false,"rental_uris":{"android":"levelo://app?vid=0e59246d-3e7a-4e1b-b15a-e2e12e36d4c1","ios":"levelo://app?vid=0e59246d-3e7a-4e1b-b15a-e2e12e36d4c1"},"vehicle_type_id":"4","last_reported":1715976528,"current_range_meters":21200,"station_id":"ce4bgt92rcd13ifvqcf0","pricing_plan_id":"cebpf4jnsgd1na2vs0mg"},{"bike_id":"b43712b2-9fcd-4c29-b2a1-ab3499da4d06","system_id":"levelo_inurba_marseille","lat":43.3137,"lon":5.38493,"is_reserved":false,"is_disabled":false,"rental_uris":{"android":"levelo://app?vid=b43712b2-9fcd-4c29-b2a1-ab3499da4d06","ios":"levelo://app?vid=b43712b2-9fcd-4c29-b2a1-ab3499da4d06"},"vehicle_type_id":"4","last_reported":1715976528,"current_range_meters":10400,"station_id":"ce4bgt92rcd13ifvqcf0","pricing_plan_id":"cebpf4jnsgd1na2vs0mg"},{"bike_id":"bdb2f496-f1c4-4bb6-a7bf-98c51f2fa8aa","system_id":"levelo_inurba_marseille","lat":43.313571,"lon":5.384829,"is_reserved":false,"is_disabled":false,"rental_uris":{"android":"levelo://app?vid=bdb2f496-f1c4-4bb6-a7bf-98c51f2fa8aa","ios":"levelo://app?vid=bdb2f496-f1c4-4bb6-a7bf-98c51f2fa8aa"},"vehicle_type_id":"4","last_reported":1715976528,"current_range_meters":0,"station_id":"ce4bgt92rcd13ifvqcf0","pricing_plan_id":"cebpf4jnsgd1na2vs0mg"},{"bike_id":"08d2b0c5-5560-4912-bb54-e320f7c7d912","system_id":"levelo_inurba_marseille","lat":43.31353,"lon":5.38506,"is_reserved":false,"is_disabled":false,"rental_uris":{"android":"levelo://app?vid=08d2b0c5-5560-4912-bb54-e320f7c7d912","ios":"levelo://app?vid=08d2b0c5-5560-4912-bb54-e320f7c7d912"},"vehicle_type_id":"4","last_reported":1715976528,"current_range_meters":0,"station_id":"ce4bgt92rcd13ifvqcf0","pricing_plan_id":"cebpf4jnsgd1na2vs0mg"},{"bike_id":"0a5d0723-4fcd-45ab-b5d0-21df0ceca442","system_id":"levelo_inurba_marseille","lat":43.313571,"lon":5.384829,"is_reserved":false,"is_disabled":false,"rental_uris":{"android":"levelo://app?vid=0a5d0723-4fcd-45ab-b5d0-21df0ceca442","ios":"levelo://app?vid=0a5d0723-4fcd-45ab-b5d0-21df0ceca442"},"vehicle_type_id":"4","last_reported":1715976528,"current_range_meters":24000,"station_id":"ce4bgt92rcd13ifvqcf0","pricing_plan_id":"cebpf4jnsgd1na2vs0mg"},{"bike_id":"00816b64-1bc0-4bed-b34e-9830273d8f7d","system_id":"levelo_inurba_marseille","lat":43.299724,"lon":5.371829,"is_reserved":false,"is_disabled":false,"rental_uris":{"android":"levelo://app?vid=00816b64-1bc0-4bed-b34e-9830273d8f7d","ios":"levelo://app?vid=00816b64-1bc0-4bed-b34e-9830273d8f7d"},"vehicle_type_id":"4","last_reported":1715976528,"current_range_meters":14400,"station_id":"ce4bgr92rcd13ifvqc7g","pricing_plan_id":"cebpf4jnsgd1na2vs0mg"},{"bike_id":"d5df03ea-3b94-44f9-b633-97ff13e1ae70","system_id":"levelo_inurba_marseille","lat":43.29985,"lon":5.37178,"is_reserved":false,"is_disabled":false,"rental_uris":{"android":"levelo://app?vid=d5df03ea-3b94-44f9-b633-97ff13e1ae70","ios":"levelo://app?vid=d5df03ea-3b94-44f9-b633-97ff13e1ae70"},"vehicle_type_id":"4","last_reported":1715976528,"current_range_meters":6400,"station_id":"ce4bgr92rcd13ifvqc7g","pricing_plan_id":"cebpf4jnsgd1na2vs0mg"},{"bike_id":"d20c448a-868b-4603-8eac-cf1250b44450","system_id":"levelo_inurba_marseille","lat":43.29978,"lon":5.37181,"is_reserved":false,"is_disabled":false,"rental_uris":{"android":"levelo://app?vid=d20c448a-868b-4603-8eac-cf1250b44450","ios":"levelo://app?vid=d20c448a-868b-4603-8eac-cf1250b44450"},"vehicle_type_id":"4","last_reported":1715976528,"current_range_meters":22000,"station_id":"ce4bgr92rcd13ifvqc7g","pricing_plan_id":"cebpf4jnsgd1na2vs0mg"},{"bike_id":"b70df51d-9ad5-4ded-9520-9842bb7daf20","system_id":"levelo_inurba_marseille","lat":43.29976,"lon":5.37175,"is_reserved":false,"is_disabled":false,"rental_uris":{"android":"levelo://app?vid=b70df51d-9ad5-4ded-9520-9842bb7daf20","ios":"levelo://app?vid=b70df51d-9ad5-4ded-9520-9842bb7daf20"},"vehicle_type_id":"4","last_reported":1715976528,"current_range_meters":12400,"station_id":"ce4bgr92rcd13ifvqc7g","pricing_plan_id":"cebpf4jnsgd1na2vs0mg"},{"bike_id":"a8420d12-5ea1-4553-ba77-74153419b9a1","system_id":"levelo_inurba_marseille","lat":43.305364,"lon":5.384119,"is_reserved":false,"is_disabled":false,"rental_uris":{"android":"levelo://app?vid=a8420d12-5ea1-4553-ba77-74153419b9a1","ios":"levelo://app?vid=a8420d12-5ea1-4553-ba77-74153419b9a1"},"vehicle_type_id":"4","last_reported":1715976528,"current_range_meters":30800,"station_id":"ce4bgg92rcd13ifvqb30","pricing_plan_id":"cebpf4jnsgd1na2vs0mg"},{"bike_id":"c10d5cc2-dc00-4941-b34c-6b1c9bce69b0","system_id":"levelo_inurba_marseille","lat":43.305364,"lon":5.384119,"is_reserved":false,"is_disabled":false,"rental_uris":{"android":"levelo://app?vid=c10d5cc2-dc00-4941-b34c-6b1c9bce69b0","ios":"levelo://app?vid=c10d5cc2-dc00-4941-b34c-6b1c9bce69b0"},"vehicle_type_id":"4","last_reported":1715976528,"current_range_meters":0,"station_id":"ce4bgg92rcd13ifvqb30","pricing_plan_id":"cebpf4jnsgd1na2vs0mg"},{"bike_id":"0c4eb777-e5e3-4e3a-851d-89925a8a8d85","system_id":"levelo_inurba_marseille","lat":43.305364,"lon":5.384119,"is_reserved":false,"is_disabled":false,"rental_uris":{"android":"levelo://app?vid=0c4eb777-e5e3-4e3a-851d-89925a8a8d85","ios":"levelo://app?vid=0c4eb777-e5e3-4e3a-851d-89925a8a8d85"},"vehicle_type_id":"4","last_reported":1715976528,"current_range_meters":31200,"station_id":"ce4bgg92rcd13ifvqb30","pricing_plan_id":"cebpf4jnsgd1na2vs0mg"},{"bike_id":"4c9d77f7-44a5-4803-8152-491329783143","system_id":"levelo_inurba_marseille","lat":43.305364,"lon":5.384119,"is_reserved":false,"is_disabled":false,"rental_uris":{"android":"levelo://app?vid=4c9d77f7-44a5-4803-8152-491329783143","ios":"levelo://app?vid=4c9d77f7-44a5-4803-8152-491329783143"},"vehicle_type_id":"4","last_reported":1715976528,"current_range_meters":5600,"station_id":"ce4bgg92rcd13ifvqb30","pricing_plan_id":"cebpf4jnsgd1na2vs0mg"},{"bike_id":"46ee22aa-9446-419d-b195-e694d40e0b0e","system_id":"levelo_inurba_marseille","lat":43.305364,"lon":5.384119,"is_reserved":false,"is_disabled":false,"rental_uris":{"android":"levelo://app?vid=46ee22aa-9446-419d-b195-e694d40e0b0e","ios":"levelo://app?vid=46ee22aa-9446-419d-b195-e694d40e0b0e"},"vehicle_type_id":"4","last_reported":1715976528,"current_range_meters":0,"station_id":"ce4bgg92rcd13ifvqb30","pricing_plan_id":"cebpf4jnsgd1na2vs0mg"},{"bike_id":"a93b66fc-127a-40b1-99e4-d0882089b219","system_id":"levelo_inurba_marseille","lat":43.298433,"lon":5.362774,"is_reserved":false,"is_disabled":false,"rental_uris":{"android":"levelo://app?vid=a93b66fc-127a-40b1-99e4-d0882089b219","ios":"levelo://app?vid=a93b66fc-127a-40b1-99e4-d0882089b219"},"vehicle_type_id":"4","last_reported":1715976528,"current_range_meters":31200,"station_id":"ce4bgpp2rcd13ifvqc3g","pricing_plan_id":"cebpf4jnsgd1na2vs0mg"},{"bike_id":"9e7c228c-e7be-433d-bc45-365e053c0515","system_id":"levelo_inurba_marseille","lat":43.311722,"lon":5.387247,"is_reserved":false,"is_disabled":false,"rental_uris":{"android":"levelo://app?vid=9e7c228c-e7be-433d-bc45-365e053c0515","ios":"levelo://app?vid=9e7c228c-e7be-433d-bc45-365e053c0515"},"vehicle_type_id":"4","last_reported":1715976528,"current_range_meters":14400,"station_id":"ce4bgv12rcd13ifvqcp0","pricing_plan_id":"cebpf4jnsgd1na2vs0mg"},{"bike_id":"9b91e0ef-7fc4-4b52-a63b-e673b722d423","system_id":"levelo_inurba_marseille","lat":43.311722,"lon":5.387247,"is_reserved":false,"is_disabled":false,"rental_uris":{"android":"levelo://app?vid=9b91e0ef-7fc4-4b52-a63b-e673b722d423","ios":"levelo://app?vid=9b91e0ef-7fc4-4b52-a63b-e673b722d423"},"vehicle_type_id":"4","last_reported":1715976528,"current_range_meters":22400,"station_id":"ce4bgv12rcd13ifvqcp0","pricing_plan_id":"cebpf4jnsgd1na2vs0mg"},{"bike_id":"e451d665-da30-4c3a-ae5b-31410aaed7dc","system_id":"levelo_inurba_marseille","lat":43.311722,"lon":5.387247,"is_reserved":false,"is_disabled":false,"rental_uris":{"android":"levelo://app?vid=e451d665-da30-4c3a-ae5b-31410aaed7dc","ios":"levelo://app?vid=e451d665-da30-4c3a-ae5b-31410aaed7dc"},"vehicle_type_id":"4","last_reported":1715976528,"current_range_meters":6400,"station_id":"ce4bgv12rcd13ifvqcp0","pricing_plan_id":"cebpf4jnsgd1na2vs0mg"},{"bike_id":"a49f4a15-8396-46c5-b343-75183e2887e5","system_id":"levelo_inurba_marseille","lat":43.311722,"lon":5.387247,"is_reserved":false,"is_disabled":false,"rental_uris":{"android":"levelo://app?vid=a49f4a15-8396-46c5-b343-75183e2887e5","ios":"levelo://app?vid=a49f4a15-8396-46c5-b343-75183e2887e5"},"vehicle_type_id":"4","last_reported":1715976528,"current_range_meters":16800,"station_id":"ce4bgv12rcd13ifvqcp0","pricing_plan_id":"cebpf4jnsgd1na2vs0mg"},{"bike_id":"9c1ed24f-b6e6-44d4-ae8d-470af449d6cd","system_id":"levelo_inurba_marseille","lat":43.311722,"lon":5.387247,"is_reserved":false,"is_disabled":false,"rental_uris":{"android":"levelo://app?vid=9c1ed24f-b6e6-44d4-ae8d-470af449d6cd","ios":"levelo://app?vid=9c1ed24f-b6e6-44d4-ae8d-470af449d6cd"},"vehicle_type_id":"4","last_reported":1715976528,"current_range_meters":14400,"station_id":"ce4bgv12rcd13ifvqcp0","pricing_plan_id":"cebpf4jnsgd1na2vs0mg"},{"bike_id":"c26a9d58-79a4-4a69-b096-f83caab18d38","system_id":"levelo_inurba_marseille","lat":43.311722,"lon":5.387247,"is_reserved":false,"is_disabled":false,"rental_uris":{"android":"levelo://app?vid=c26a9d58-79a4-4a69-b096-f83caab18d38","ios":"levelo://app?vid=c26a9d58-79a4-4a69-b096-f83caab18d38"},"vehicle_type_id":"4","last_reported":1715976528,"current_range_meters":18000,"station_id":"ce4bgv12rcd13ifvqcp0","pricing_plan_id":"cebpf4jnsgd1na2vs0mg"},{"bike_id":"ccb74aca-4be4-4a07-a6ff-c2c51018e500","system_id":"levelo_inurba_marseille","lat":43.311722,"lon":5.387247,"is_reserved":false,"is_disabled":false,"rental_uris":{"android":"levelo://app?vid=ccb74aca-4be4-4a07-a6ff-c2c51018e500","ios":"levelo://app?vid=ccb74aca-4be4-4a07-a6ff-c2c51018e500"},"vehicle_type_id":"4","last_reported":1715976528,"current_range_meters":0,"station_id":"ce4bgv12rcd13ifvqcp0","pricing_plan_id":"cebpf4jnsgd1na2vs0mg"},{"bike_id":"2e815cd5-72f7-4a0a-92e5-860d1da39a63","system_id":"levelo_inurba_marseille","lat":43.297794,"lon":5.370888,"is_reserved":false,"is_disabled":false,"rental_uris":{"android":"levelo://app?vid=2e815cd5-72f7-4a0a-92e5-860d1da39a63","ios":"levelo://app?vid=2e815cd5-72f7-4a0a-92e5-860d1da39a63"},"vehicle_type_id":"4","last_reported":1715976528,"current_range_meters":14400,"station_id":"ce4bgop2rcd13ifvqc1g","pricing_plan_id":"cebpf4jnsgd1na2vs0mg"},{"bike_id":"7431a6ca-eaeb-4deb-a139-d4470106149b","system_id":"levelo_inurba_marseille","lat":43.297794,"lon":5.370888,"is_reserved":false,"is_disabled":false,"rental_uris":{"android":"levelo://app?vid=7431a6ca-eaeb-4deb-a139-d4470106149b","ios":"levelo://app?vid=7431a6ca-eaeb-4deb-a139-d4470106149b"},"vehicle_type_id":"4","last_reported":1715976528,"current_range_meters":8000,"station_id":"ce4bgop2rcd13ifvqc1g","pricing_plan_id":"cebpf4jnsgd1na2vs0mg"},{"bike_id":"b810b6f1-c294-499d-9d7e-505214e4394d","system_id":"levelo_inurba_marseille","lat":43.297794,"lon":5.370888,"is_reserved":false,"is_disabled":false,"rental_uris":{"android":"levelo://app?vid=b810b6f1-c294-499d-9d7e-505214e4394d","ios":"levelo://app?vid=b810b6f1-c294-499d-9d7e-505214e4394d"},"vehicle_type_id":"4","last_reported":1715976528,"current_range_meters":8000,"station_id":"ce4bgop2rcd13ifvqc1g","pricing_plan_id":"cebpf4jnsgd1na2vs0mg"},{"bike_id":"c79614d0-6967-4ce6-ba2d-5aac2612c2c4","system_id":"levelo_inurba_marseille","lat":43.322872,"lon":5.382756,"is_reserved":false,"is_disabled":false,"rental_uris":{"android":"levelo://app?vid=c79614d0-6967-4ce6-ba2d-5aac2612c2c4","ios":"levelo://app?vid=c79614d0-6967-4ce6-ba2d-5aac2612c2c4"},"vehicle_type_id":"4","last_reported":1715976528,"current_range_meters":26400,"station_id":"ce4bhr12rcd13ifvqhqg","pricing_plan_id":"cebpf4jnsgd1na2vs0mg"},{"bike_id":"59d8a93f-7a0d-459e-9a57-d07f1f7e8f63","system_id":"levelo_inurba_marseille","lat":43.322872,"lon":5.382756,"is_reserved":false,"is_disabled":false,"rental_uris":{"android":"levelo://app?vid=59d8a93f-7a0d-459e-9a57-d07f1f7e8f63","ios":"levelo://app?vid=59d8a93f-7a0d-459e-9a57-d07f1f7e8f63"},"vehicle_type_id":"4","last_reported":1715976528,"current_range_meters":4400,"station_id":"ce4bhr12rcd13ifvqhqg","pricing_plan_id":"cebpf4jnsgd1na2vs0mg"},{"bike_id":"35c22c7a-6344-4130-9f7c-399c8c9a3015","system_id":"levelo_inurba_marseille","lat":43.322872,"lon":5.382756,"is_reserved":false,"is_disabled":false,"rental_uris":{"android":"levelo://app?vid=35c22c7a-6344-4130-9f7c-399c8c9a3015","ios":"levelo://app?vid=35c22c7a-6344-4130-9f7c-399c8c9a3015"},"vehicle_type_id":"4","last_reported":1715976528,"current_range_meters":21600,"station_id":"ce4bhr12rcd13ifvqhqg","pricing_plan_id":"cebpf4jnsgd1na2vs0mg"},{"bike_id":"dc4e2c22-2b98-48e3-81e8-5190da65c058","system_id":"levelo_inurba_marseille","lat":43.297163,"lon":5.365866,"is_reserved":false,"is_disabled":false,"rental_uris":{"android":"levelo://app?vid=dc4e2c22-2b98-48e3-81e8-5190da65c058","ios":"levelo://app?vid=dc4e2c22-2b98-48e3-81e8-5190da65c058"},"vehicle_type_id":"4","last_reported":1715976528,"current_range_meters":25200,"station_id":"ce4bgn12rcd13ifvqbt0","pricing_plan_id":"cebpf4jnsgd1na2vs0mg"},{"bike_id":"e8b74b53-1f66-4822-bc9f-59e0cd63ffdc","system_id":"levelo_inurba_marseille","lat":43.297078,"lon":5.369005,"is_reserved":false,"is_disabled":false,"rental_uris":{"android":"levelo://app?vid=e8b74b53-1f66-4822-bc9f-59e0cd63ffdc","ios":"levelo://app?vid=e8b74b53-1f66-4822-bc9f-59e0cd63ffdc"},"vehicle_type_id":"4","last_reported":1715976528,"current_range_meters":4800,"station_id":"","pricing_plan_id":"cebpf4jnsgd1na2vs0mg"},{"bike_id":"cda25f39-bc1c-4172-b8ee-dc35fcb07493","system_id":"levelo_inurba_marseille","lat":43.2968,"lon":5.37291,"is_reserved":false,"is_disabled":false,"rental_uris":{"android":"levelo://app?vid=cda25f39-bc1c-4172-b8ee-dc35fcb07493","ios":"levelo://app?vid=cda25f39-bc1c-4172-b8ee-dc35fcb07493"},"vehicle_type_id":"4","last_reported":1715976528,"current_range_meters":18000,"station_id":"ce4bgk12rcd13ifvqbj0","pricing_plan_id":"cebpf4jnsgd1na2vs0mg"},{"bike_id":"544174c6-5640-46e8-be1c-d1dcbbf0a788","system_id":"levelo_inurba_marseille","lat":43.296935,"lon":5.376544,"is_reserved":false,"is_disabled":false,"rental_uris":{"android":"levelo://app?vid=544174c6-5640-46e8-be1c-d1dcbbf0a788","ios":"levelo://app?vid=544174c6-5640-46e8-be1c-d1dcbbf0a788"},"vehicle_type_id":"4","last_reported":1715976528,"current_range_meters":15200,"station_id":"ce4bgkh2rcd13ifvqbl0","pricing_plan_id":"cebpf4jnsgd1na2vs0mg"},{"bike_id":"a36198a7-5b65-415a-898c-476bdb49964f","system_id":"levelo_inurba_marseille","lat":43.299227,"lon":5.381488,"is_reserved":false,"is_disabled":false,"rental_uris":{"android":"levelo://app?vid=a36198a7-5b65-415a-898c-476bdb49964f","ios":"levelo://app?vid=a36198a7-5b65-415a-898c-476bdb49964f"},"vehicle_type_id":"4","last_reported":1715976528,"current_range_meters":15200,"station_id":"ce4bgj12rcd13ifvqbc0","pricing_plan_id":"cebpf4jnsgd1na2vs0mg"},{"bike_id":"e0d66c0d-6c38-44bd-ba74-65991d3aa24d","system_id":"levelo_inurba_marseille","lat":43.29907,"lon":5.38137,"is_reserved":false,"is_disabled":false,"rental_uris":{"android":"levelo://app?vid=e0d66c0d-6c38-44bd-ba74-65991d3aa24d","ios":"levelo://app?vid=e0d66c0d-6c38-44bd-ba74-65991d3aa24d"},"vehicle_type_id":"4","last_reported":1715976528,"current_range_meters":0,"station_id":"ce4bgj12rcd13ifvqbc0","pricing_plan_id":"cebpf4jnsgd1na2vs0mg"},{"bike_id":"764c579c-d315-41ff-b77a-d8d3a3ba31ca","system_id":"levelo_inurba_marseille","lat":43.299028,"lon":5.381509,"is_reserved":false,"is_disabled":false,"rental_uris":{"android":"levelo://app?vid=764c579c-d315-41ff-b77a-d8d3a3ba31ca","ios":"levelo://app?vid=764c579c-d315-41ff-b77a-d8d3a3ba31ca"},"vehicle_type_id":"4","last_reported":1715976528,"current_range_meters":21200,"station_id":"ce4bgj12rcd13ifvqbc0","pricing_plan_id":"cebpf4jnsgd1na2vs0mg"},{"bike_id":"f772d31f-5e2a-4127-9467-45f6678ec199","system_id":"levelo_inurba_marseille","lat":43.29911,"lon":5.38147,"is_reserved":false,"is_disabled":false,"rental_uris":{"android":"levelo://app?vid=f772d31f-5e2a-4127-9467-45f6678ec199","ios":"levelo://app?vid=f772d31f-5e2a-4127-9467-45f6678ec199"},"vehicle_type_id":"4","last_reported":1715976528,"current_range_meters":6000,"station_id":"ce4bgj12rcd13ifvqbc0","pricing_plan_id":"cebpf4jnsgd1na2vs0mg"},{"bike_id":"1ea8d176-c311-44c7-9f94-a111f69eaed4","system_id":"levelo_inurba_marseille","lat":43.299028,"lon":5.381509,"is_reserved":false,"is_disabled":false,"rental_uris":{"android":"levelo://app?vid=1ea8d176-c311-44c7-9f94-a111f69eaed4","ios":"levelo://app?vid=1ea8d176-c311-44c7-9f94-a111f69eaed4"},"vehicle_type_id":"4","last_reported":1715976528,"current_range_meters":7600,"station_id":"ce4bgj12rcd13ifvqbc0","pricing_plan_id":"cebpf4jnsgd1na2vs0mg"},{"bike_id":"4cc60957-8ec9-452d-93e7-86dae391980f","system_id":"levelo_inurba_marseille","lat":43.296935,"lon":5.376544,"is_reserved":false,"is_disabled":false,"rental_uris":{"android":"levelo://app?vid=4cc60957-8ec9-452d-93e7-86dae391980f","ios":"levelo://app?vid=4cc60957-8ec9-452d-93e7-86dae391980f"},"vehicle_type_id":"4","last_reported":1715976528,"current_range_meters":7200,"station_id":"ce4bgkh2rcd13ifvqbl0","pricing_plan_id":"cebpf4jnsgd1na2vs0mg"},{"bike_id":"888724ba-44a3-4f3a-8240-f6152cf014d8","system_id":"levelo_inurba_marseille","lat":43.309589,"lon":5.390258,"is_reserved":false,"is_disabled":false,"rental_uris":{"android":"levelo://app?vid=888724ba-44a3-4f3a-8240-f6152cf014d8","ios":"levelo://app?vid=888724ba-44a3-4f3a-8240-f6152cf014d8"},"vehicle_type_id":"4","last_reported":1715976528,"current_range_meters":7200,"station_id":"ce4bgup2rcd13ifvqco0","pricing_plan_id":"cebpf4jnsgd1na2vs0mg"},{"bike_id":"8996f0cd-b861-4f61-a461-d09b581c914c","system_id":"levelo_inurba_marseille","lat":43.299028,"lon":5.381509,"is_reserved":false,"is_disabled":false,"rental_uris":{"android":"levelo://app?vid=8996f0cd-b861-4f61-a461-d09b581c914c","ios":"levelo://app?vid=8996f0cd-b861-4f61-a461-d09b581c914c"},"vehicle_type_id":"4","last_reported":1715976528,"current_range_meters":20800,"station_id":"ce4bgj12rcd13ifvqbc0","pricing_plan_id":"cebpf4jnsgd1na2vs0mg"},{"bike_id":"3dea0b90-7d6d-4cf4-a1f6-a1680411ee9b","system_id":"levelo_inurba_marseille","lat":43.29908,"lon":5.38154,"is_reserved":false,"is_disabled":false,"rental_uris":{"android":"levelo://app?vid=3dea0b90-7d6d-4cf4-a1f6-a1680411ee9b","ios":"levelo://app?vid=3dea0b90-7d6d-4cf4-a1f6-a1680411ee9b"},"vehicle_type_id":"4","last_reported":1715976528,"current_range_meters":11600,"station_id":"ce4bgj12rcd13ifvqbc0","pricing_plan_id":"cebpf4jnsgd1na2vs0mg"},{"bike_id":"aeb0afea-b2f5-4a03-9810-9453fd4cae7f","system_id":"levelo_inurba_marseille","lat":43.299028,"lon":5.381509,"is_reserved":false,"is_disabled":false,"rental_uris":{"android":"levelo://app?vid=aeb0afea-b2f5-4a03-9810-9453fd4cae7f","ios":"levelo://app?vid=aeb0afea-b2f5-4a03-9810-9453fd4cae7f"},"vehicle_type_id":"4","last_reported":1715976528,"current_range_meters":8000,"station_id":"ce4bgj12rcd13ifvqbc0","pricing_plan_id":"cebpf4jnsgd1na2vs0mg"},{"bike_id":"45cd0528-9e82-4a12-b525-28c9397e2160","system_id":"levelo_inurba_marseille","lat":43.309589,"lon":5.390258,"is_reserved":false,"is_disabled":false,"rental_uris":{"android":"levelo://app?vid=45cd0528-9e82-4a12-b525-28c9397e2160","ios":"levelo://app?vid=45cd0528-9e82-4a12-b525-28c9397e2160"},"vehicle_type_id":"4","last_reported":1715976528,"current_range_meters":11200,"station_id":"ce4bgup2rcd13ifvqco0","pricing_plan_id":"cebpf4jnsgd1na2vs0mg"},{"bike_id":"fe4d2e18-cfca-44bb-8d63-e426da664ebc","system_id":"levelo_inurba_marseille","lat":43.309492,"lon":5.390318,"is_reserved":false,"is_disabled":false,"rental_uris":{"android":"levelo://app?vid=fe4d2e18-cfca-44bb-8d63-e426da664ebc","ios":"levelo://app?vid=fe4d2e18-cfca-44bb-8d63-e426da664ebc"},"vehicle_type_id":"4","last_reported":1715976528,"current_range_meters":31200,"station_id":"ce4bgup2rcd13ifvqco0","pricing_plan_id":"cebpf4jnsgd1na2vs0mg"},{"bike_id":"db2781b9-cd03-436a-9589-0a0763679e58","system_id":"levelo_inurba_marseille","lat":43.309589,"lon":5.390258,"is_reserved":false,"is_disabled":false,"rental_uris":{"android":"levelo://app?vid=db2781b9-cd03-436a-9589-0a0763679e58","ios":"levelo://app?vid=db2781b9-cd03-436a-9589-0a0763679e58"},"vehicle_type_id":"4","last_reported":1715976528,"current_range_meters":4400,"station_id":"ce4bgup2rcd13ifvqco0","pricing_plan_id":"cebpf4jnsgd1na2vs0mg"},{"bike_id":"e29ce095-3f03-4b6a-844d-d60880ab8a6b","system_id":"levelo_inurba_marseille","lat":43.309589,"lon":5.390258,"is_reserved":false,"is_disabled":false,"rental_uris":{"android":"levelo://app?vid=e29ce095-3f03-4b6a-844d-d60880ab8a6b","ios":"levelo://app?vid=e29ce095-3f03-4b6a-844d-d60880ab8a6b"},"vehicle_type_id":"4","last_reported":1715976528,"current_range_meters":17200,"station_id":"ce4bgup2rcd13ifvqco0","pricing_plan_id":"cebpf4jnsgd1na2vs0mg"},{"bike_id":"cae80257-98a5-4e4a-89b6-cf85ddd29a93","system_id":"levelo_inurba_marseille","lat":43.309589,"lon":5.390258,"is_reserved":false,"is_disabled":false,"rental_uris":{"android":"levelo://app?vid=cae80257-98a5-4e4a-89b6-cf85ddd29a93","ios":"levelo://app?vid=cae80257-98a5-4e4a-89b6-cf85ddd29a93"},"vehicle_type_id":"4","last_reported":1715976528,"current_range_meters":1600,"station_id":"ce4bgup2rcd13ifvqco0","pricing_plan_id":"cebpf4jnsgd1na2vs0mg"},{"bike_id":"bd7dd078-0a51-486a-9058-744a16580558","system_id":"levelo_inurba_marseille","lat":43.29904,"lon":5.38153,"is_reserved":false,"is_disabled":false,"rental_uris":{"android":"levelo://app?vid=bd7dd078-0a51-486a-9058-744a16580558","ios":"levelo://app?vid=bd7dd078-0a51-486a-9058-744a16580558"},"vehicle_type_id":"4","last_reported":1715976528,"current_range_meters":13600,"station_id":"ce4bgj12rcd13ifvqbc0","pricing_plan_id":"cebpf4jnsgd1na2vs0mg"},{"bike_id":"c494c3b8-8478-462d-9ed7-d8d78c228a46","system_id":"levelo_inurba_marseille","lat":43.309589,"lon":5.390258,"is_reserved":false,"is_disabled":false,"rental_uris":{"android":"levelo://app?vid=c494c3b8-8478-462d-9ed7-d8d78c228a46","ios":"levelo://app?vid=c494c3b8-8478-462d-9ed7-d8d78c228a46"},"vehicle_type_id":"4","last_reported":1715976528,"current_range_meters":12000,"station_id":"ce4bgup2rcd13ifvqco0","pricing_plan_id":"cebpf4jnsgd1na2vs0mg"},{"bike_id":"78abd96a-6772-4616-a8ca-e36875b6c03a","system_id":"levelo_inurba_marseille","lat":43.309589,"lon":5.390258,"is_reserved":false,"is_disabled":false,"rental_uris":{"android":"levelo://app?vid=78abd96a-6772-4616-a8ca-e36875b6c03a","ios":"levelo://app?vid=78abd96a-6772-4616-a8ca-e36875b6c03a"},"vehicle_type_id":"4","last_reported":1715976528,"current_range_meters":17200,"station_id":"ce4bgup2rcd13ifvqco0","pricing_plan_id":"cebpf4jnsgd1na2vs0mg"},{"bike_id":"a2cf89ff-25aa-4fee-8fc9-56edb9e0a061","system_id":"levelo_inurba_marseille","lat":43.309589,"lon":5.390258,"is_reserved":false,"is_disabled":false,"rental_uris":{"android":"levelo://app?vid=a2cf89ff-25aa-4fee-8fc9-56edb9e0a061","ios":"levelo://app?vid=a2cf89ff-25aa-4fee-8fc9-56edb9e0a061"},"vehicle_type_id":"4","last_reported":1715976528,"current_range_meters":1600,"station_id":"ce4bgup2rcd13ifvqco0","pricing_plan_id":"cebpf4jnsgd1na2vs0mg"},{"bike_id":"c521848b-17f8-4262-b783-dba8db93c2f9","system_id":"levelo_inurba_marseille","lat":43.309589,"lon":5.390258,"is_reserved":false,"is_disabled":false,"rental_uris":{"android":"levelo://app?vid=c521848b-17f8-4262-b783-dba8db93c2f9","ios":"levelo://app?vid=c521848b-17f8-4262-b783-dba8db93c2f9"},"vehicle_type_id":"4","last_reported":1715976528,"current_range_meters":0,"station_id":"ce4bgup2rcd13ifvqco0","pricing_plan_id":"cebpf4jnsgd1na2vs0mg"},{"bike_id":"d4603411-4579-4210-b660-f1eb009512c8","system_id":"levelo_inurba_marseille","lat":43.309589,"lon":5.390258,"is_reserved":false,"is_disabled":false,"rental_uris":{"android":"levelo://app?vid=d4603411-4579-4210-b660-f1eb009512c8","ios":"levelo://app?vid=d4603411-4579-4210-b660-f1eb009512c8"},"vehicle_type_id":"4","last_reported":1715976528,"current_range_meters":31200,"station_id":"ce4bgup2rcd13ifvqco0","pricing_plan_id":"cebpf4jnsgd1na2vs0mg"},{"bike_id":"bdc95fef-8728-4703-83e0-5b59e3af01f5","system_id":"levelo_inurba_marseille","lat":43.309589,"lon":5.390258,"is_reserved":false,"is_disabled":false,"rental_uris":{"android":"levelo://app?vid=bdc95fef-8728-4703-83e0-5b59e3af01f5","ios":"levelo://app?vid=bdc95fef-8728-4703-83e0-5b59e3af01f5"},"vehicle_type_id":"4","last_reported":1715976528,"current_range_meters":14800,"station_id":"ce4bgup2rcd13ifvqco0","pricing_plan_id":"cebpf4jnsgd1na2vs0mg"},{"bike_id":"fc238e07-b9d8-4366-837e-788ed46bcf56","system_id":"levelo_inurba_marseille","lat":43.309589,"lon":5.390258,"is_reserved":false,"is_disabled":false,"rental_uris":{"android":"levelo://app?vid=fc238e07-b9d8-4366-837e-788ed46bcf56","ios":"levelo://app?vid=fc238e07-b9d8-4366-837e-788ed46bcf56"},"vehicle_type_id":"4","last_reported":1715976528,"current_range_meters":28400,"station_id":"ce4bgup2rcd13ifvqco0","pricing_plan_id":"cebpf4jnsgd1na2vs0mg"},{"bike_id":"77f72742-4ca4-42a6-ab56-92b36066e957","system_id":"levelo_inurba_marseille","lat":43.309589,"lon":5.390258,"is_reserved":false,"is_disabled":false,"rental_uris":{"android":"levelo://app?vid=77f72742-4ca4-42a6-ab56-92b36066e957","ios":"levelo://app?vid=77f72742-4ca4-42a6-ab56-92b36066e957"},"vehicle_type_id":"4","last_reported":1715976528,"current_range_meters":0,"station_id":"ce4bgup2rcd13ifvqco0","pricing_plan_id":"cebpf4jnsgd1na2vs0mg"},{"bike_id":"178939aa-a7f5-4e26-9890-7ae60d6141aa","system_id":"levelo_inurba_marseille","lat":43.309563,"lon":5.39042,"is_reserved":false,"is_disabled":false,"rental_uris":{"android":"levelo://app?vid=178939aa-a7f5-4e26-9890-7ae60d6141aa","ios":"levelo://app?vid=178939aa-a7f5-4e26-9890-7ae60d6141aa"},"vehicle_type_id":"4","last_reported":1715976528,"current_range_meters":11600,"station_id":"ce4bgup2rcd13ifvqco0","pricing_plan_id":"cebpf4jnsgd1na2vs0mg"},{"bike_id":"1424a9c1-688d-47e8-854d-83c57dcfcdb2","system_id":"levelo_inurba_marseille","lat":43.309589,"lon":5.390258,"is_reserved":false,"is_disabled":false,"rental_uris":{"android":"levelo://app?vid=1424a9c1-688d-47e8-854d-83c57dcfcdb2","ios":"levelo://app?vid=1424a9c1-688d-47e8-854d-83c57dcfcdb2"},"vehicle_type_id":"4","last_reported":1715976528,"current_range_meters":18400,"station_id":"ce4bgup2rcd13ifvqco0","pricing_plan_id":"cebpf4jnsgd1na2vs0mg"},{"bike_id":"cf4e173d-3349-4b0d-b3ee-83c931c737d2","system_id":"levelo_inurba_marseille","lat":43.309589,"lon":5.390258,"is_reserved":false,"is_disabled":false,"rental_uris":{"android":"levelo://app?vid=cf4e173d-3349-4b0d-b3ee-83c931c737d2","ios":"levelo://app?vid=cf4e173d-3349-4b0d-b3ee-83c931c737d2"},"vehicle_type_id":"4","last_reported":1715976528,"current_range_meters":16800,"station_id":"ce4bgup2rcd13ifvqco0","pricing_plan_id":"cebpf4jnsgd1na2vs0mg"},{"bike_id":"8f5e919a-470c-4835-a52d-269590b719d7","system_id":"levelo_inurba_marseille","lat":43.309589,"lon":5.390258,"is_reserved":false,"is_disabled":false,"rental_uris":{"android":"levelo://app?vid=8f5e919a-470c-4835-a52d-269590b719d7","ios":"levelo://app?vid=8f5e919a-470c-4835-a52d-269590b719d7"},"vehicle_type_id":"4","last_reported":1715976528,"current_range_meters":16800,"station_id":"ce4bgup2rcd13ifvqco0","pricing_plan_id":"cebpf4jnsgd1na2vs0mg"},{"bike_id":"274b21bc-fa61-4bc8-9757-a79ea84a14df","system_id":"levelo_inurba_marseille","lat":43.309589,"lon":5.390258,"is_reserved":false,"is_disabled":false,"rental_uris":{"android":"levelo://app?vid=274b21bc-fa61-4bc8-9757-a79ea84a14df","ios":"levelo://app?vid=274b21bc-fa61-4bc8-9757-a79ea84a14df"},"vehicle_type_id":"4","last_reported":1715976528,"current_range_meters":0,"station_id":"ce4bgup2rcd13ifvqco0","pricing_plan_id":"cebpf4jnsgd1na2vs0mg"},{"bike_id":"8e930d01-762c-40b7-a48f-7dcb0fa356c7","system_id":"levelo_inurba_marseille","lat":43.309589,"lon":5.390258,"is_reserved":false,"is_disabled":false,"rental_uris":{"android":"levelo://app?vid=8e930d01-762c-40b7-a48f-7dcb0fa356c7","ios":"levelo://app?vid=8e930d01-762c-40b7-a48f-7dcb0fa356c7"},"vehicle_type_id":"4","last_reported":1715976528,"current_range_meters":20800,"station_id":"ce4bgup2rcd13ifvqco0","pricing_plan_id":"cebpf4jnsgd1na2vs0mg"},{"bike_id":"e75b6bbe-bac5-456c-8085-46ec708822d4","system_id":"levelo_inurba_marseille","lat":43.309589,"lon":5.390258,"is_reserved":false,"is_disabled":false,"rental_uris":{"android":"levelo://app?vid=e75b6bbe-bac5-456c-8085-46ec708822d4","ios":"levelo://app?vid=e75b6bbe-bac5-456c-8085-46ec708822d4"},"vehicle_type_id":"4","last_reported":1715976528,"current_range_meters":30400,"station_id":"ce4bgup2rcd13ifvqco0","pricing_plan_id":"cebpf4jnsgd1na2vs0mg"},{"bike_id":"73133b33-343d-423e-8b13-9c95ef36bde4","system_id":"levelo_inurba_marseille","lat":43.309589,"lon":5.390258,"is_reserved":false,"is_disabled":false,"rental_uris":{"android":"levelo://app?vid=73133b33-343d-423e-8b13-9c95ef36bde4","ios":"levelo://app?vid=73133b33-343d-423e-8b13-9c95ef36bde4"},"vehicle_type_id":"4","last_reported":1715976528,"current_range_meters":9600,"station_id":"ce4bgup2rcd13ifvqco0","pricing_plan_id":"cebpf4jnsgd1na2vs0mg"},{"bike_id":"ad4851c3-216c-4828-962d-58e05e740c57","system_id":"levelo_inurba_marseille","lat":43.317557,"lon":5.390173,"is_reserved":false,"is_disabled":false,"rental_uris":{"android":"levelo://app?vid=ad4851c3-216c-4828-962d-58e05e740c57","ios":"levelo://app?vid=ad4851c3-216c-4828-962d-58e05e740c57"},"vehicle_type_id":"4","last_reported":1715976528,"current_range_meters":20400,"station_id":"ce4bhqp2rcd13ifvqhng","pricing_plan_id":"cebpf4jnsgd1na2vs0mg"},{"bike_id":"66025fac-5e8f-4193-864b-139ef98250d4","system_id":"levelo_inurba_marseille","lat":43.317544,"lon":5.390097,"is_reserved":false,"is_disabled":false,"rental_uris":{"android":"levelo://app?vid=66025fac-5e8f-4193-864b-139ef98250d4","ios":"levelo://app?vid=66025fac-5e8f-4193-864b-139ef98250d4"},"vehicle_type_id":"4","last_reported":1715976528,"current_range_meters":20800,"station_id":"ce4bhqp2rcd13ifvqhng","pricing_plan_id":"cebpf4jnsgd1na2vs0mg"},{"bike_id":"7e87f7a8-044f-45f4-b232-efd2a391017e","system_id":"levelo_inurba_marseille","lat":43.31761,"lon":5.39017,"is_reserved":false,"is_disabled":false,"rental_uris":{"android":"levelo://app?vid=7e87f7a8-044f-45f4-b232-efd2a391017e","ios":"levelo://app?vid=7e87f7a8-044f-45f4-b232-efd2a391017e"},"vehicle_type_id":"4","last_reported":1715976528,"current_range_meters":13200,"station_id":"ce4bhqp2rcd13ifvqhng","pricing_plan_id":"cebpf4jnsgd1na2vs0mg"},{"bike_id":"43f2a1ed-3caf-4e24-acdb-45d8c7591e57","system_id":"levelo_inurba_marseille","lat":43.317547,"lon":5.390217,"is_reserved":false,"is_disabled":false,"rental_uris":{"android":"levelo://app?vid=43f2a1ed-3caf-4e24-acdb-45d8c7591e57","ios":"levelo://app?vid=43f2a1ed-3caf-4e24-acdb-45d8c7591e57"},"vehicle_type_id":"4","last_reported":1715976528,"current_range_meters":20800,"station_id":"ce4bhqp2rcd13ifvqhng","pricing_plan_id":"cebpf4jnsgd1na2vs0mg"},{"bike_id":"2d899684-77f8-4fb7-8297-1abfccd107bb","system_id":"levelo_inurba_marseille","lat":43.31764,"lon":5.39018,"is_reserved":false,"is_disabled":false,"rental_uris":{"android":"levelo://app?vid=2d899684-77f8-4fb7-8297-1abfccd107bb","ios":"levelo://app?vid=2d899684-77f8-4fb7-8297-1abfccd107bb"},"vehicle_type_id":"4","last_reported":1715976528,"current_range_meters":0,"station_id":"ce4bhqp2rcd13ifvqhng","pricing_plan_id":"cebpf4jnsgd1na2vs0mg"},{"bike_id":"a505dbc5-a713-47a7-b2e7-be4a214645df","system_id":"levelo_inurba_marseille","lat":43.298037,"lon":5.381066,"is_reserved":false,"is_disabled":false,"rental_uris":{"android":"levelo://app?vid=a505dbc5-a713-47a7-b2e7-be4a214645df","ios":"levelo://app?vid=a505dbc5-a713-47a7-b2e7-be4a214645df"},"vehicle_type_id":"4","last_reported":1715976528,"current_range_meters":16800,"station_id":"ce4bgip2rcd13ifvqbb0","pricing_plan_id":"cebpf4jnsgd1na2vs0mg"},{"bike_id":"6a435423-fe15-46a9-9ae5-93b5a1f0f1ec","system_id":"levelo_inurba_marseille","lat":43.29797,"lon":5.38086,"is_reserved":false,"is_disabled":false,"rental_uris":{"android":"levelo://app?vid=6a435423-fe15-46a9-9ae5-93b5a1f0f1ec","ios":"levelo://app?vid=6a435423-fe15-46a9-9ae5-93b5a1f0f1ec"},"vehicle_type_id":"4","last_reported":1715976528,"current_range_meters":14800,"station_id":"ce4bgip2rcd13ifvqbb0","pricing_plan_id":"cebpf4jnsgd1na2vs0mg"},{"bike_id":"07386157-26b4-4bfb-b784-30d6ac96cdac","system_id":"levelo_inurba_marseille","lat":43.29802,"lon":5.38097,"is_reserved":false,"is_disabled":false,"rental_uris":{"android":"levelo://app?vid=07386157-26b4-4bfb-b784-30d6ac96cdac","ios":"levelo://app?vid=07386157-26b4-4bfb-b784-30d6ac96cdac"},"vehicle_type_id":"4","last_reported":1715976528,"current_range_meters":30000,"station_id":"ce4bgip2rcd13ifvqbb0","pricing_plan_id":"cebpf4jnsgd1na2vs0mg"},{"bike_id":"08ef62ff-94e6-4259-9679-a1b79e15fda7","system_id":"levelo_inurba_marseille","lat":43.295748,"lon":5.37522,"is_reserved":false,"is_disabled":false,"rental_uris":{"android":"levelo://app?vid=08ef62ff-94e6-4259-9679-a1b79e15fda7","ios":"levelo://app?vid=08ef62ff-94e6-4259-9679-a1b79e15fda7"},"vehicle_type_id":"4","last_reported":1715976528,"current_range_meters":0,"station_id":"ce4bgh92rcd13ifvqb50","pricing_plan_id":"cebpf4jnsgd1na2vs0mg"},{"bike_id":"3b7e7f70-b026-4ef3-8573-b37090f53016","system_id":"levelo_inurba_marseille","lat":43.298037,"lon":5.381066,"is_reserved":false,"is_disabled":false,"rental_uris":{"android":"levelo://app?vid=3b7e7f70-b026-4ef3-8573-b37090f53016","ios":"levelo://app?vid=3b7e7f70-b026-4ef3-8573-b37090f53016"},"vehicle_type_id":"4","last_reported":1715976528,"current_range_meters":4400,"station_id":"ce4bgip2rcd13ifvqbb0","pricing_plan_id":"cebpf4jnsgd1na2vs0mg"},{"bike_id":"88864caf-60e9-4c66-9eb6-414f67442bc4","system_id":"levelo_inurba_marseille","lat":43.298037,"lon":5.381066,"is_reserved":false,"is_disabled":false,"rental_uris":{"android":"levelo://app?vid=88864caf-60e9-4c66-9eb6-414f67442bc4","ios":"levelo://app?vid=88864caf-60e9-4c66-9eb6-414f67442bc4"},"vehicle_type_id":"4","last_reported":1715976528,"current_range_meters":0,"station_id":"ce4bgip2rcd13ifvqbb0","pricing_plan_id":"cebpf4jnsgd1na2vs0mg"},{"bike_id":"9ebcb99c-d23b-4642-b069-d8b6a93463d7","system_id":"levelo_inurba_marseille","lat":43.29797,"lon":5.38104,"is_reserved":false,"is_disabled":false,"rental_uris":{"android":"levelo://app?vid=9ebcb99c-d23b-4642-b069-d8b6a93463d7","ios":"levelo://app?vid=9ebcb99c-d23b-4642-b069-d8b6a93463d7"},"vehicle_type_id":"4","last_reported":1715976528,"current_range_meters":6400,"station_id":"ce4bgip2rcd13ifvqbb0","pricing_plan_id":"cebpf4jnsgd1na2vs0mg"},{"bike_id":"eb9f94e0-1565-4d7e-8666-632228759bc8","system_id":"levelo_inurba_marseille","lat":43.29578,"lon":5.3752,"is_reserved":false,"is_disabled":false,"rental_uris":{"android":"levelo://app?vid=eb9f94e0-1565-4d7e-8666-632228759bc8","ios":"levelo://app?vid=eb9f94e0-1565-4d7e-8666-632228759bc8"},"vehicle_type_id":"4","last_reported":1715976528,"current_range_meters":0,"station_id":"ce4bgh92rcd13ifvqb50","pricing_plan_id":"cebpf4jnsgd1na2vs0mg"},{"bike_id":"50a89682-36ac-46e9-8707-5f68266c8a46","system_id":"levelo_inurba_marseille","lat":43.298037,"lon":5.381066,"is_reserved":false,"is_disabled":false,"rental_uris":{"android":"levelo://app?vid=50a89682-36ac-46e9-8707-5f68266c8a46","ios":"levelo://app?vid=50a89682-36ac-46e9-8707-5f68266c8a46"},"vehicle_type_id":"4","last_reported":1715976528,"current_range_meters":8800,"station_id":"ce4bgip2rcd13ifvqbb0","pricing_plan_id":"cebpf4jnsgd1na2vs0mg"},{"bike_id":"3485225d-b1a4-4881-b619-1d85196dfda8","system_id":"levelo_inurba_marseille","lat":43.298037,"lon":5.381066,"is_reserved":false,"is_disabled":false,"rental_uris":{"android":"levelo://app?vid=3485225d-b1a4-4881-b619-1d85196dfda8","ios":"levelo://app?vid=3485225d-b1a4-4881-b619-1d85196dfda8"},"vehicle_type_id":"4","last_reported":1715976528,"current_range_meters":18400,"station_id":"ce4bgip2rcd13ifvqbb0","pricing_plan_id":"cebpf4jnsgd1na2vs0mg"},{"bike_id":"29963626-08a0-497c-81a2-c6157bc1d824","system_id":"levelo_inurba_marseille","lat":43.304278,"lon":5.388868,"is_reserved":false,"is_disabled":false,"rental_uris":{"android":"levelo://app?vid=29963626-08a0-497c-81a2-c6157bc1d824","ios":"levelo://app?vid=29963626-08a0-497c-81a2-c6157bc1d824"},"vehicle_type_id":"4","last_reported":1715976528,"current_range_meters":3600,"station_id":"ce4bgk12rcd13ifvqbi0","pricing_plan_id":"cebpf4jnsgd1na2vs0mg"},{"bike_id":"1a0614e3-d22e-49d5-b81f-c2ffa4d2e47f","system_id":"levelo_inurba_marseille","lat":43.304274,"lon":5.388873,"is_reserved":false,"is_disabled":false,"rental_uris":{"android":"levelo://app?vid=1a0614e3-d22e-49d5-b81f-c2ffa4d2e47f","ios":"levelo://app?vid=1a0614e3-d22e-49d5-b81f-c2ffa4d2e47f"},"vehicle_type_id":"4","last_reported":1715976528,"current_range_meters":17200,"station_id":"ce4bgk12rcd13ifvqbi0","pricing_plan_id":"cebpf4jnsgd1na2vs0mg"},{"bike_id":"339ffa21-3f3a-4f8c-a325-db3942d05bdb","system_id":"levelo_inurba_marseille","lat":43.30427,"lon":5.38884,"is_reserved":false,"is_disabled":false,"rental_uris":{"android":"levelo://app?vid=339ffa21-3f3a-4f8c-a325-db3942d05bdb","ios":"levelo://app?vid=339ffa21-3f3a-4f8c-a325-db3942d05bdb"},"vehicle_type_id":"4","last_reported":1715976528,"current_range_meters":0,"station_id":"ce4bgk12rcd13ifvqbi0","pricing_plan_id":"cebpf4jnsgd1na2vs0mg"},{"bike_id":"d5f8e0b7-2f14-4d3d-b1e9-3687a88da88d","system_id":"levelo_inurba_marseille","lat":43.29571,"lon":5.37518,"is_reserved":false,"is_disabled":false,"rental_uris":{"android":"levelo://app?vid=d5f8e0b7-2f14-4d3d-b1e9-3687a88da88d","ios":"levelo://app?vid=d5f8e0b7-2f14-4d3d-b1e9-3687a88da88d"},"vehicle_type_id":"4","last_reported":1715976528,"current_range_meters":0,"station_id":"ce4bgh92rcd13ifvqb50","pricing_plan_id":"cebpf4jnsgd1na2vs0mg"},{"bike_id":"f3b07c95-07ea-4e65-be4e-2479a7f1d5d4","system_id":"levelo_inurba_marseille","lat":43.304274,"lon":5.388873,"is_reserved":false,"is_disabled":false,"rental_uris":{"android":"levelo://app?vid=f3b07c95-07ea-4e65-be4e-2479a7f1d5d4","ios":"levelo://app?vid=f3b07c95-07ea-4e65-be4e-2479a7f1d5d4"},"vehicle_type_id":"4","last_reported":1715976528,"current_range_meters":9200,"station_id":"ce4bgk12rcd13ifvqbi0","pricing_plan_id":"cebpf4jnsgd1na2vs0mg"},{"bike_id":"cfe3b550-9328-4d41-a58d-8a3d73f500bf","system_id":"levelo_inurba_marseille","lat":43.29569,"lon":5.37516,"is_reserved":false,"is_disabled":false,"rental_uris":{"android":"levelo://app?vid=cfe3b550-9328-4d41-a58d-8a3d73f500bf","ios":"levelo://app?vid=cfe3b550-9328-4d41-a58d-8a3d73f500bf"},"vehicle_type_id":"4","last_reported":1715976528,"current_range_meters":0,"station_id":"ce4bgh92rcd13ifvqb50","pricing_plan_id":"cebpf4jnsgd1na2vs0mg"},{"bike_id":"5b184eac-fac3-4ecd-b70c-f0fbd7f31e8f","system_id":"levelo_inurba_marseille","lat":43.304278,"lon":5.388868,"is_reserved":false,"is_disabled":false,"rental_uris":{"android":"levelo://app?vid=5b184eac-fac3-4ecd-b70c-f0fbd7f31e8f","ios":"levelo://app?vid=5b184eac-fac3-4ecd-b70c-f0fbd7f31e8f"},"vehicle_type_id":"4","last_reported":1715976528,"current_range_meters":23200,"station_id":"ce4bgk12rcd13ifvqbi0","pricing_plan_id":"cebpf4jnsgd1na2vs0mg"},{"bike_id":"5997a2b8-de37-47e6-94f1-593ac7907736","system_id":"levelo_inurba_marseille","lat":43.29625,"lon":5.37717,"is_reserved":false,"is_disabled":false,"rental_uris":{"android":"levelo://app?vid=5997a2b8-de37-47e6-94f1-593ac7907736","ios":"levelo://app?vid=5997a2b8-de37-47e6-94f1-593ac7907736"},"vehicle_type_id":"4","last_reported":1715976528,"current_range_meters":800,"station_id":"ce4bgi92rcd13ifvqb90","pricing_plan_id":"cebpf4jnsgd1na2vs0mg"},{"bike_id":"234fca85-91ac-411c-9bd6-b55795bd5751","system_id":"levelo_inurba_marseille","lat":43.29623,"lon":5.377143,"is_reserved":false,"is_disabled":false,"rental_uris":{"android":"levelo://app?vid=234fca85-91ac-411c-9bd6-b55795bd5751","ios":"levelo://app?vid=234fca85-91ac-411c-9bd6-b55795bd5751"},"vehicle_type_id":"4","last_reported":1715976528,"current_range_meters":0,"station_id":"ce4bgi92rcd13ifvqb90","pricing_plan_id":"cebpf4jnsgd1na2vs0mg"},{"bike_id":"29be7dd4-b068-4a8c-b27c-9c7f94bfa70e","system_id":"levelo_inurba_marseille","lat":43.296263,"lon":5.377094,"is_reserved":false,"is_disabled":false,"rental_uris":{"android":"levelo://app?vid=29be7dd4-b068-4a8c-b27c-9c7f94bfa70e","ios":"levelo://app?vid=29be7dd4-b068-4a8c-b27c-9c7f94bfa70e"},"vehicle_type_id":"4","last_reported":1715976528,"current_range_meters":5600,"station_id":"ce4bgi92rcd13ifvqb90","pricing_plan_id":"cebpf4jnsgd1na2vs0mg"},{"bike_id":"dc2ba45b-6b1d-434f-9cd7-fbedc7411921","system_id":"levelo_inurba_marseille","lat":43.296138,"lon":5.377084,"is_reserved":false,"is_disabled":false,"rental_uris":{"android":"levelo://app?vid=dc2ba45b-6b1d-434f-9cd7-fbedc7411921","ios":"levelo://app?vid=dc2ba45b-6b1d-434f-9cd7-fbedc7411921"},"vehicle_type_id":"4","last_reported":1715976528,"current_range_meters":0,"station_id":"ce4bgi92rcd13ifvqb90","pricing_plan_id":"cebpf4jnsgd1na2vs0mg"},{"bike_id":"3a8255e2-7166-49c2-a137-8e603da9d33f","system_id":"levelo_inurba_marseille","lat":43.299724,"lon":5.384848,"is_reserved":false,"is_disabled":false,"rental_uris":{"android":"levelo://app?vid=3a8255e2-7166-49c2-a137-8e603da9d33f","ios":"levelo://app?vid=3a8255e2-7166-49c2-a137-8e603da9d33f"},"vehicle_type_id":"4","last_reported":1715976528,"current_range_meters":21200,"station_id":"ce4bgj92rcd13ifvqbd0","pricing_plan_id":"cebpf4jnsgd1na2vs0mg"},{"bike_id":"b1533cdf-37b6-45fd-b0ec-ac7d3e379bf1","system_id":"levelo_inurba_marseille","lat":43.29599,"lon":5.377292,"is_reserved":false,"is_disabled":false,"rental_uris":{"android":"levelo://app?vid=b1533cdf-37b6-45fd-b0ec-ac7d3e379bf1","ios":"levelo://app?vid=b1533cdf-37b6-45fd-b0ec-ac7d3e379bf1"},"vehicle_type_id":"4","last_reported":1715976528,"current_range_meters":0,"station_id":"ce4bgi92rcd13ifvqb90","pricing_plan_id":"cebpf4jnsgd1na2vs0mg"},{"bike_id":"0579cdef-71fb-4a74-af05-7432a7e09ecf","system_id":"levelo_inurba_marseille","lat":43.29975,"lon":5.38484,"is_reserved":false,"is_disabled":false,"rental_uris":{"android":"levelo://app?vid=0579cdef-71fb-4a74-af05-7432a7e09ecf","ios":"levelo://app?vid=0579cdef-71fb-4a74-af05-7432a7e09ecf"},"vehicle_type_id":"4","last_reported":1715976528,"current_range_meters":0,"station_id":"ce4bgj92rcd13ifvqbd0","pricing_plan_id":"cebpf4jnsgd1na2vs0mg"},{"bike_id":"5e7de680-8d06-4b20-9aa8-c99bd2cf1a56","system_id":"levelo_inurba_marseille","lat":43.29528,"lon":5.37498,"is_reserved":false,"is_disabled":false,"rental_uris":{"android":"levelo://app?vid=5e7de680-8d06-4b20-9aa8-c99bd2cf1a56","ios":"levelo://app?vid=5e7de680-8d06-4b20-9aa8-c99bd2cf1a56"},"vehicle_type_id":"4","last_reported":1715976528,"current_range_meters":0,"station_id":"ce4bgkp2rcd13ifvqbmg","pricing_plan_id":"cebpf4jnsgd1na2vs0mg"},{"bike_id":"6e28743c-f783-457a-a512-b1b694cb039e","system_id":"levelo_inurba_marseille","lat":43.295748,"lon":5.37522,"is_reserved":false,"is_disabled":false,"rental_uris":{"android":"levelo://app?vid=6e28743c-f783-457a-a512-b1b694cb039e","ios":"levelo://app?vid=6e28743c-f783-457a-a512-b1b694cb039e"},"vehicle_type_id":"4","last_reported":1715976528,"current_range_meters":0,"station_id":"ce4bgh92rcd13ifvqb50","pricing_plan_id":"cebpf4jnsgd1na2vs0mg"},{"bike_id":"0069c4af-9783-4fd5-bb70-05c9aaeabd5e","system_id":"levelo_inurba_marseille","lat":43.299707,"lon":5.384859,"is_reserved":false,"is_disabled":false,"rental_uris":{"android":"levelo://app?vid=0069c4af-9783-4fd5-bb70-05c9aaeabd5e","ios":"levelo://app?vid=0069c4af-9783-4fd5-bb70-05c9aaeabd5e"},"vehicle_type_id":"4","last_reported":1715976528,"current_range_meters":10400,"station_id":"ce4bgj92rcd13ifvqbd0","pricing_plan_id":"cebpf4jnsgd1na2vs0mg"},{"bike_id":"369f36f1-827d-4529-ae95-a49d1edd7124","system_id":"levelo_inurba_marseille","lat":43.309589,"lon":5.390258,"is_reserved":false,"is_disabled":false,"rental_uris":{"android":"levelo://app?vid=369f36f1-827d-4529-ae95-a49d1edd7124","ios":"levelo://app?vid=369f36f1-827d-4529-ae95-a49d1edd7124"},"vehicle_type_id":"4","last_reported":1715976528,"current_range_meters":31200,"station_id":"ce4bgup2rcd13ifvqco0","pricing_plan_id":"cebpf4jnsgd1na2vs0mg"},{"bike_id":"4f591589-0181-4f0c-8d94-f4c4a92db5db","system_id":"levelo_inurba_marseille","lat":43.2997,"lon":5.38496,"is_reserved":false,"is_disabled":false,"rental_uris":{"android":"levelo://app?vid=4f591589-0181-4f0c-8d94-f4c4a92db5db","ios":"levelo://app?vid=4f591589-0181-4f0c-8d94-f4c4a92db5db"},"vehicle_type_id":"4","last_reported":1715976528,"current_range_meters":30000,"station_id":"ce4bgj92rcd13ifvqbd0","pricing_plan_id":"cebpf4jnsgd1na2vs0mg"},{"bike_id":"75345122-91c5-44cc-a3cf-0e68161347cd","system_id":"levelo_inurba_marseille","lat":43.29968,"lon":5.38496,"is_reserved":false,"is_disabled":false,"rental_uris":{"android":"levelo://app?vid=75345122-91c5-44cc-a3cf-0e68161347cd","ios":"levelo://app?vid=75345122-91c5-44cc-a3cf-0e68161347cd"},"vehicle_type_id":"4","last_reported":1715976528,"current_range_meters":0,"station_id":"ce4bgj92rcd13ifvqbd0","pricing_plan_id":"cebpf4jnsgd1na2vs0mg"},{"bike_id":"5a34a6dc-bed8-4daa-8b66-b3cd0f996d38","system_id":"levelo_inurba_marseille","lat":43.299724,"lon":5.384848,"is_reserved":false,"is_disabled":false,"rental_uris":{"android":"levelo://app?vid=5a34a6dc-bed8-4daa-8b66-b3cd0f996d38","ios":"levelo://app?vid=5a34a6dc-bed8-4daa-8b66-b3cd0f996d38"},"vehicle_type_id":"4","last_reported":1715976528,"current_range_meters":16400,"station_id":"ce4bgj92rcd13ifvqbd0","pricing_plan_id":"cebpf4jnsgd1na2vs0mg"},{"bike_id":"8b8dc8ce-036d-41dd-801a-34ba32e97c81","system_id":"levelo_inurba_marseille","lat":43.29967,"lon":5.38496,"is_reserved":false,"is_disabled":false,"rental_uris":{"android":"levelo://app?vid=8b8dc8ce-036d-41dd-801a-34ba32e97c81","ios":"levelo://app?vid=8b8dc8ce-036d-41dd-801a-34ba32e97c81"},"vehicle_type_id":"4","last_reported":1715976528,"current_range_meters":0,"station_id":"ce4bgj92rcd13ifvqbd0","pricing_plan_id":"cebpf4jnsgd1na2vs0mg"},{"bike_id":"c1830aa0-a774-4f7c-bcf6-c28177da7d03","system_id":"levelo_inurba_marseille","lat":43.29966,"lon":5.38499,"is_reserved":false,"is_disabled":false,"rental_uris":{"android":"levelo://app?vid=c1830aa0-a774-4f7c-bcf6-c28177da7d03","ios":"levelo://app?vid=c1830aa0-a774-4f7c-bcf6-c28177da7d03"},"vehicle_type_id":"4","last_reported":1715976528,"current_range_meters":20800,"station_id":"ce4bgj92rcd13ifvqbd0","pricing_plan_id":"cebpf4jnsgd1na2vs0mg"},{"bike_id":"a305c909-71f8-4992-9c37-4eec04dc4eb3","system_id":"levelo_inurba_marseille","lat":43.29965,"lon":5.38499,"is_reserved":false,"is_disabled":false,"rental_uris":{"android":"levelo://app?vid=a305c909-71f8-4992-9c37-4eec04dc4eb3","ios":"levelo://app?vid=a305c909-71f8-4992-9c37-4eec04dc4eb3"},"vehicle_type_id":"4","last_reported":1715976528,"current_range_meters":26800,"station_id":"ce4bgj92rcd13ifvqbd0","pricing_plan_id":"cebpf4jnsgd1na2vs0mg"},{"bike_id":"b95ef66b-ea90-4821-81be-eaf04113b7c0","system_id":"levelo_inurba_marseille","lat":43.29964,"lon":5.38501,"is_reserved":false,"is_disabled":false,"rental_uris":{"android":"levelo://app?vid=b95ef66b-ea90-4821-81be-eaf04113b7c0","ios":"levelo://app?vid=b95ef66b-ea90-4821-81be-eaf04113b7c0"},"vehicle_type_id":"4","last_reported":1715976528,"current_range_meters":13200,"station_id":"ce4bgj92rcd13ifvqbd0","pricing_plan_id":"cebpf4jnsgd1na2vs0mg"},{"bike_id":"a00fc581-3d36-4512-8476-bc3fb33216d1","system_id":"levelo_inurba_marseille","lat":43.29961,"lon":5.38501,"is_reserved":false,"is_disabled":false,"rental_uris":{"android":"levelo://app?vid=a00fc581-3d36-4512-8476-bc3fb33216d1","ios":"levelo://app?vid=a00fc581-3d36-4512-8476-bc3fb33216d1"},"vehicle_type_id":"4","last_reported":1715976528,"current_range_meters":0,"station_id":"ce4bgj92rcd13ifvqbd0","pricing_plan_id":"cebpf4jnsgd1na2vs0mg"},{"bike_id":"ba9a207a-f9e7-4939-a0db-752566272738","system_id":"levelo_inurba_marseille","lat":43.29963,"lon":5.38505,"is_reserved":false,"is_disabled":false,"rental_uris":{"android":"levelo://app?vid=ba9a207a-f9e7-4939-a0db-752566272738","ios":"levelo://app?vid=ba9a207a-f9e7-4939-a0db-752566272738"},"vehicle_type_id":"4","last_reported":1715976528,"current_range_meters":16400,"station_id":"ce4bgj92rcd13ifvqbd0","pricing_plan_id":"cebpf4jnsgd1na2vs0mg"},{"bike_id":"4520ce2b-13e3-4d84-aba4-45da007e0c75","system_id":"levelo_inurba_marseille","lat":43.295279,"lon":5.375048,"is_reserved":false,"is_disabled":false,"rental_uris":{"android":"levelo://app?vid=4520ce2b-13e3-4d84-aba4-45da007e0c75","ios":"levelo://app?vid=4520ce2b-13e3-4d84-aba4-45da007e0c75"},"vehicle_type_id":"4","last_reported":1715976528,"current_range_meters":18400,"station_id":"ce4bgkp2rcd13ifvqbmg","pricing_plan_id":"cebpf4jnsgd1na2vs0mg"},{"bike_id":"55f9d514-6368-46f9-875b-30bcacdd8377","system_id":"levelo_inurba_marseille","lat":43.32367,"lon":5.38884,"is_reserved":false,"is_disabled":false,"rental_uris":{"android":"levelo://app?vid=55f9d514-6368-46f9-875b-30bcacdd8377","ios":"levelo://app?vid=55f9d514-6368-46f9-875b-30bcacdd8377"},"vehicle_type_id":"4","last_reported":1715976528,"current_range_meters":5600,"station_id":"ce4bhqp2rcd13ifvqhog","pricing_plan_id":"cebpf4jnsgd1na2vs0mg"},{"bike_id":"06afebc5-9a53-48b4-ae25-735ba2f926c5","system_id":"levelo_inurba_marseille","lat":43.32367,"lon":5.388836,"is_reserved":false,"is_disabled":false,"rental_uris":{"android":"levelo://app?vid=06afebc5-9a53-48b4-ae25-735ba2f926c5","ios":"levelo://app?vid=06afebc5-9a53-48b4-ae25-735ba2f926c5"},"vehicle_type_id":"4","last_reported":1715976528,"current_range_meters":0,"station_id":"ce4bhqp2rcd13ifvqhog","pricing_plan_id":"cebpf4jnsgd1na2vs0mg"},{"bike_id":"c912348e-4190-4713-860a-5dbb3bcd9065","system_id":"levelo_inurba_marseille","lat":43.32367,"lon":5.388836,"is_reserved":false,"is_disabled":false,"rental_uris":{"android":"levelo://app?vid=c912348e-4190-4713-860a-5dbb3bcd9065","ios":"levelo://app?vid=c912348e-4190-4713-860a-5dbb3bcd9065"},"vehicle_type_id":"4","last_reported":1715976528,"current_range_meters":4000,"station_id":"ce4bhqp2rcd13ifvqhog","pricing_plan_id":"cebpf4jnsgd1na2vs0mg"},{"bike_id":"e31dfdfc-fc9e-4808-8c4d-efc0db1183f2","system_id":"levelo_inurba_marseille","lat":43.29602,"lon":5.381084,"is_reserved":false,"is_disabled":false,"rental_uris":{"android":"levelo://app?vid=e31dfdfc-fc9e-4808-8c4d-efc0db1183f2","ios":"levelo://app?vid=e31dfdfc-fc9e-4808-8c4d-efc0db1183f2"},"vehicle_type_id":"4","last_reported":1715976528,"current_range_meters":26000,"station_id":"ce4bgl12rcd13ifvqbo0","pricing_plan_id":"cebpf4jnsgd1na2vs0mg"},{"bike_id":"bc0391f6-47e3-41c8-9d4e-8f1c2e6336a5","system_id":"levelo_inurba_marseille","lat":43.29601,"lon":5.381084,"is_reserved":false,"is_disabled":false,"rental_uris":{"android":"levelo://app?vid=bc0391f6-47e3-41c8-9d4e-8f1c2e6336a5","ios":"levelo://app?vid=bc0391f6-47e3-41c8-9d4e-8f1c2e6336a5"},"vehicle_type_id":"4","last_reported":1715976528,"current_range_meters":4800,"station_id":"ce4bgl12rcd13ifvqbo0","pricing_plan_id":"cebpf4jnsgd1na2vs0mg"},{"bike_id":"e66738df-e2c7-42f8-89fc-eff920daa423","system_id":"levelo_inurba_marseille","lat":43.29603,"lon":5.38094,"is_reserved":false,"is_disabled":false,"rental_uris":{"android":"levelo://app?vid=e66738df-e2c7-42f8-89fc-eff920daa423","ios":"levelo://app?vid=e66738df-e2c7-42f8-89fc-eff920daa423"},"vehicle_type_id":"4","last_reported":1715976528,"current_range_meters":29600,"station_id":"ce4bgl12rcd13ifvqbo0","pricing_plan_id":"cebpf4jnsgd1na2vs0mg"},{"bike_id":"045e2ddf-17c6-4b0f-b581-df3faede5ed4","system_id":"levelo_inurba_marseille","lat":43.29602,"lon":5.381084,"is_reserved":false,"is_disabled":false,"rental_uris":{"android":"levelo://app?vid=045e2ddf-17c6-4b0f-b581-df3faede5ed4","ios":"levelo://app?vid=045e2ddf-17c6-4b0f-b581-df3faede5ed4"},"vehicle_type_id":"4","last_reported":1715976528,"current_range_meters":17200,"station_id":"ce4bgl12rcd13ifvqbo0","pricing_plan_id":"cebpf4jnsgd1na2vs0mg"},{"bike_id":"781c1c26-f9aa-4e79-9f3b-b86d1c09f7ef","system_id":"levelo_inurba_marseille","lat":43.29438,"lon":5.37636,"is_reserved":false,"is_disabled":false,"rental_uris":{"android":"levelo://app?vid=781c1c26-f9aa-4e79-9f3b-b86d1c09f7ef","ios":"levelo://app?vid=781c1c26-f9aa-4e79-9f3b-b86d1c09f7ef"},"vehicle_type_id":"4","last_reported":1715976528,"current_range_meters":4800,"station_id":"","pricing_plan_id":"cebpf4jnsgd1na2vs0mg"},{"bike_id":"302bccfe-0d98-4730-bcb4-b618aa789d93","system_id":"levelo_inurba_marseille","lat":43.29602,"lon":5.381084,"is_reserved":false,"is_disabled":false,"rental_uris":{"android":"levelo://app?vid=302bccfe-0d98-4730-bcb4-b618aa789d93","ios":"levelo://app?vid=302bccfe-0d98-4730-bcb4-b618aa789d93"},"vehicle_type_id":"4","last_reported":1715976528,"current_range_meters":1200,"station_id":"ce4bgl12rcd13ifvqbo0","pricing_plan_id":"cebpf4jnsgd1na2vs0mg"},{"bike_id":"023e53b4-cdcc-490f-98bd-c379da0bd2ab","system_id":"levelo_inurba_marseille","lat":43.29602,"lon":5.381084,"is_reserved":false,"is_disabled":false,"rental_uris":{"android":"levelo://app?vid=023e53b4-cdcc-490f-98bd-c379da0bd2ab","ios":"levelo://app?vid=023e53b4-cdcc-490f-98bd-c379da0bd2ab"},"vehicle_type_id":"4","last_reported":1715976528,"current_range_meters":2000,"station_id":"ce4bgl12rcd13ifvqbo0","pricing_plan_id":"cebpf4jnsgd1na2vs0mg"},{"bike_id":"0201aa50-ca4c-49e9-bcf7-0d403344e79c","system_id":"levelo_inurba_marseille","lat":43.295984,"lon":5.381008,"is_reserved":false,"is_disabled":false,"rental_uris":{"android":"levelo://app?vid=0201aa50-ca4c-49e9-bcf7-0d403344e79c","ios":"levelo://app?vid=0201aa50-ca4c-49e9-bcf7-0d403344e79c"},"vehicle_type_id":"4","last_reported":1715976528,"current_range_meters":0,"station_id":"ce4bgl12rcd13ifvqbo0","pricing_plan_id":"cebpf4jnsgd1na2vs0mg"},{"bike_id":"fdd890b6-4429-4908-a08a-ec0345b537ee","system_id":"levelo_inurba_marseille","lat":43.29599,"lon":5.38104,"is_reserved":false,"is_disabled":false,"rental_uris":{"android":"levelo://app?vid=fdd890b6-4429-4908-a08a-ec0345b537ee","ios":"levelo://app?vid=fdd890b6-4429-4908-a08a-ec0345b537ee"},"vehicle_type_id":"4","last_reported":1715976528,"current_range_meters":3200,"station_id":"ce4bgl12rcd13ifvqbo0","pricing_plan_id":"cebpf4jnsgd1na2vs0mg"},{"bike_id":"9cce6cf4-b9a1-4c1a-b536-bb398a0fbb7b","system_id":"levelo_inurba_marseille","lat":43.29599,"lon":5.38107,"is_reserved":false,"is_disabled":false,"rental_uris":{"android":"levelo://app?vid=9cce6cf4-b9a1-4c1a-b536-bb398a0fbb7b","ios":"levelo://app?vid=9cce6cf4-b9a1-4c1a-b536-bb398a0fbb7b"},"vehicle_type_id":"4","last_reported":1715976528,"current_range_meters":25600,"station_id":"ce4bgl12rcd13ifvqbo0","pricing_plan_id":"cebpf4jnsgd1na2vs0mg"},{"bike_id":"3738eab4-1e26-40e4-82ab-f965506e6bd2","system_id":"levelo_inurba_marseille","lat":43.29597,"lon":5.38103,"is_reserved":false,"is_disabled":false,"rental_uris":{"android":"levelo://app?vid=3738eab4-1e26-40e4-82ab-f965506e6bd2","ios":"levelo://app?vid=3738eab4-1e26-40e4-82ab-f965506e6bd2"},"vehicle_type_id":"4","last_reported":1715976528,"current_range_meters":14800,"station_id":"ce4bgl12rcd13ifvqbo0","pricing_plan_id":"cebpf4jnsgd1na2vs0mg"},{"bike_id":"cd39747c-05f1-4dfc-83a7-b4f8ecdaebe4","system_id":"levelo_inurba_marseille","lat":43.29602,"lon":5.381084,"is_reserved":false,"is_disabled":false,"rental_uris":{"android":"levelo://app?vid=cd39747c-05f1-4dfc-83a7-b4f8ecdaebe4","ios":"levelo://app?vid=cd39747c-05f1-4dfc-83a7-b4f8ecdaebe4"},"vehicle_type_id":"4","last_reported":1715976528,"current_range_meters":11600,"station_id":"ce4bgl12rcd13ifvqbo0","pricing_plan_id":"cebpf4jnsgd1na2vs0mg"},{"bike_id":"ba04c569-05c2-4767-9d69-5c70c3600ba3","system_id":"levelo_inurba_marseille","lat":43.29601,"lon":5.381084,"is_reserved":false,"is_disabled":false,"rental_uris":{"android":"levelo://app?vid=ba04c569-05c2-4767-9d69-5c70c3600ba3","ios":"levelo://app?vid=ba04c569-05c2-4767-9d69-5c70c3600ba3"},"vehicle_type_id":"4","last_reported":1715976528,"current_range_meters":0,"station_id":"ce4bgl12rcd13ifvqbo0","pricing_plan_id":"cebpf4jnsgd1na2vs0mg"},{"bike_id":"6d9f61ef-45ca-45ea-be98-255c9e5bd457","system_id":"levelo_inurba_marseille","lat":43.29602,"lon":5.381084,"is_reserved":false,"is_disabled":false,"rental_uris":{"android":"levelo://app?vid=6d9f61ef-45ca-45ea-be98-255c9e5bd457","ios":"levelo://app?vid=6d9f61ef-45ca-45ea-be98-255c9e5bd457"},"vehicle_type_id":"4","last_reported":1715976528,"current_range_meters":400,"station_id":"ce4bgl12rcd13ifvqbo0","pricing_plan_id":"cebpf4jnsgd1na2vs0mg"},{"bike_id":"a75a5aee-da6a-4484-9e67-833bf9eebd46","system_id":"levelo_inurba_marseille","lat":43.29601,"lon":5.381084,"is_reserved":false,"is_disabled":false,"rental_uris":{"android":"levelo://app?vid=a75a5aee-da6a-4484-9e67-833bf9eebd46","ios":"levelo://app?vid=a75a5aee-da6a-4484-9e67-833bf9eebd46"},"vehicle_type_id":"4","last_reported":1715976528,"current_range_meters":15600,"station_id":"ce4bgl12rcd13ifvqbo0","pricing_plan_id":"cebpf4jnsgd1na2vs0mg"},{"bike_id":"df42e015-c3d7-48e9-886f-a30b709457a1","system_id":"levelo_inurba_marseille","lat":43.29307,"lon":5.37165,"is_reserved":false,"is_disabled":false,"rental_uris":{"android":"levelo://app?vid=df42e015-c3d7-48e9-886f-a30b709457a1","ios":"levelo://app?vid=df42e015-c3d7-48e9-886f-a30b709457a1"},"vehicle_type_id":"4","last_reported":1715976528,"current_range_meters":10000,"station_id":"","pricing_plan_id":"cebpf4jnsgd1na2vs0mg"},{"bike_id":"17b70488-b809-4a1a-8cf3-4c77d0d69e5c","system_id":"levelo_inurba_marseille","lat":43.305994,"lon":5.393687,"is_reserved":false,"is_disabled":false,"rental_uris":{"android":"levelo://app?vid=17b70488-b809-4a1a-8cf3-4c77d0d69e5c","ios":"levelo://app?vid=17b70488-b809-4a1a-8cf3-4c77d0d69e5c"},"vehicle_type_id":"4","last_reported":1715976528,"current_range_meters":25200,"station_id":"ce4bh0p2rcd13ifvqd80","pricing_plan_id":"cebpf4jnsgd1na2vs0mg"},{"bike_id":"511dfa75-5908-48ef-84dc-23c2cc1d1c21","system_id":"levelo_inurba_marseille","lat":43.293009,"lon":5.374584,"is_reserved":false,"is_disabled":false,"rental_uris":{"android":"levelo://app?vid=511dfa75-5908-48ef-84dc-23c2cc1d1c21","ios":"levelo://app?vid=511dfa75-5908-48ef-84dc-23c2cc1d1c21"},"vehicle_type_id":"4","last_reported":1715976528,"current_range_meters":0,"station_id":"ce4bgi12rcd13ifvqb70","pricing_plan_id":"cebpf4jnsgd1na2vs0mg"},{"bike_id":"953c7397-99dd-4a3a-b4ab-b3282a0f7aed","system_id":"levelo_inurba_marseille","lat":43.293093,"lon":5.374487,"is_reserved":false,"is_disabled":false,"rental_uris":{"android":"levelo://app?vid=953c7397-99dd-4a3a-b4ab-b3282a0f7aed","ios":"levelo://app?vid=953c7397-99dd-4a3a-b4ab-b3282a0f7aed"},"vehicle_type_id":"4","last_reported":1715976528,"current_range_meters":0,"station_id":"ce4bgi12rcd13ifvqb70","pricing_plan_id":"cebpf4jnsgd1na2vs0mg"},{"bike_id":"1097fb0d-96f9-416e-a319-e951c6500f8c","system_id":"levelo_inurba_marseille","lat":43.293075,"lon":5.374688,"is_reserved":false,"is_disabled":false,"rental_uris":{"android":"levelo://app?vid=1097fb0d-96f9-416e-a319-e951c6500f8c","ios":"levelo://app?vid=1097fb0d-96f9-416e-a319-e951c6500f8c"},"vehicle_type_id":"4","last_reported":1715976528,"current_range_meters":24400,"station_id":"ce4bgi12rcd13ifvqb70","pricing_plan_id":"cebpf4jnsgd1na2vs0mg"},{"bike_id":"769088c9-16f4-446f-a9c4-702d3ef55d95","system_id":"levelo_inurba_marseille","lat":43.29304,"lon":5.374593,"is_reserved":false,"is_disabled":false,"rental_uris":{"android":"levelo://app?vid=769088c9-16f4-446f-a9c4-702d3ef55d95","ios":"levelo://app?vid=769088c9-16f4-446f-a9c4-702d3ef55d95"},"vehicle_type_id":"4","last_reported":1715976528,"current_range_meters":0,"station_id":"ce4bgi12rcd13ifvqb70","pricing_plan_id":"cebpf4jnsgd1na2vs0mg"},{"bike_id":"c9292766-709a-474f-8129-aaf988dbfd9a","system_id":"levelo_inurba_marseille","lat":43.29302,"lon":5.37451,"is_reserved":false,"is_disabled":false,"rental_uris":{"android":"levelo://app?vid=c9292766-709a-474f-8129-aaf988dbfd9a","ios":"levelo://app?vid=c9292766-709a-474f-8129-aaf988dbfd9a"},"vehicle_type_id":"4","last_reported":1715976528,"current_range_meters":24400,"station_id":"ce4bgi12rcd13ifvqb70","pricing_plan_id":"cebpf4jnsgd1na2vs0mg"},{"bike_id":"1d63a672-65e6-4f8a-9485-17788579dfe0","system_id":"levelo_inurba_marseille","lat":43.305994,"lon":5.393687,"is_reserved":false,"is_disabled":false,"rental_uris":{"android":"levelo://app?vid=1d63a672-65e6-4f8a-9485-17788579dfe0","ios":"levelo://app?vid=1d63a672-65e6-4f8a-9485-17788579dfe0"},"vehicle_type_id":"4","last_reported":1715976528,"current_range_meters":28000,"station_id":"ce4bh0p2rcd13ifvqd80","pricing_plan_id":"cebpf4jnsgd1na2vs0mg"},{"bike_id":"3493889b-ba06-4e8d-8b0c-50836e2e1f47","system_id":"levelo_inurba_marseille","lat":43.293009,"lon":5.374584,"is_reserved":false,"is_disabled":false,"rental_uris":{"android":"levelo://app?vid=3493889b-ba06-4e8d-8b0c-50836e2e1f47","ios":"levelo://app?vid=3493889b-ba06-4e8d-8b0c-50836e2e1f47"},"vehicle_type_id":"4","last_reported":1715976528,"current_range_meters":1600,"station_id":"ce4bgi12rcd13ifvqb70","pricing_plan_id":"cebpf4jnsgd1na2vs0mg"},{"bike_id":"07f0a237-4661-4e2b-a2d5-f29e30fe5e85","system_id":"levelo_inurba_marseille","lat":43.305994,"lon":5.393687,"is_reserved":false,"is_disabled":false,"rental_uris":{"android":"levelo://app?vid=07f0a237-4661-4e2b-a2d5-f29e30fe5e85","ios":"levelo://app?vid=07f0a237-4661-4e2b-a2d5-f29e30fe5e85"},"vehicle_type_id":"4","last_reported":1715976528,"current_range_meters":21600,"station_id":"ce4bh0p2rcd13ifvqd80","pricing_plan_id":"cebpf4jnsgd1na2vs0mg"},{"bike_id":"949523fa-f5c2-442d-920e-83d970a80a0c","system_id":"levelo_inurba_marseille","lat":43.29299,"lon":5.37449,"is_reserved":false,"is_disabled":false,"rental_uris":{"android":"levelo://app?vid=949523fa-f5c2-442d-920e-83d970a80a0c","ios":"levelo://app?vid=949523fa-f5c2-442d-920e-83d970a80a0c"},"vehicle_type_id":"4","last_reported":1715976528,"current_range_meters":0,"station_id":"ce4bgi12rcd13ifvqb70","pricing_plan_id":"cebpf4jnsgd1na2vs0mg"},{"bike_id":"3f8554f5-812c-4d0c-b2d4-bb098fdb091b","system_id":"levelo_inurba_marseille","lat":43.305994,"lon":5.393687,"is_reserved":false,"is_disabled":false,"rental_uris":{"android":"levelo://app?vid=3f8554f5-812c-4d0c-b2d4-bb098fdb091b","ios":"levelo://app?vid=3f8554f5-812c-4d0c-b2d4-bb098fdb091b"},"vehicle_type_id":"4","last_reported":1715976528,"current_range_meters":8000,"station_id":"ce4bh0p2rcd13ifvqd80","pricing_plan_id":"cebpf4jnsgd1na2vs0mg"},{"bike_id":"faf7a0b3-f13c-4f69-b0ff-c979627e88f4","system_id":"levelo_inurba_marseille","lat":43.30592,"lon":5.39352,"is_reserved":false,"is_disabled":false,"rental_uris":{"android":"levelo://app?vid=faf7a0b3-f13c-4f69-b0ff-c979627e88f4","ios":"levelo://app?vid=faf7a0b3-f13c-4f69-b0ff-c979627e88f4"},"vehicle_type_id":"4","last_reported":1715976528,"current_range_meters":0,"station_id":"ce4bh0p2rcd13ifvqd80","pricing_plan_id":"cebpf4jnsgd1na2vs0mg"},{"bike_id":"5b2e8448-c620-441a-9895-77f332b5f90a","system_id":"levelo_inurba_marseille","lat":43.29301,"lon":5.3747,"is_reserved":false,"is_disabled":false,"rental_uris":{"android":"levelo://app?vid=5b2e8448-c620-441a-9895-77f332b5f90a","ios":"levelo://app?vid=5b2e8448-c620-441a-9895-77f332b5f90a"},"vehicle_type_id":"4","last_reported":1715976528,"current_range_meters":9200,"station_id":"ce4bgi12rcd13ifvqb70","pricing_plan_id":"cebpf4jnsgd1na2vs0mg"},{"bike_id":"247272b0-e28e-45c8-a6b3-a7001422b20b","system_id":"levelo_inurba_marseille","lat":43.305994,"lon":5.393687,"is_reserved":false,"is_disabled":false,"rental_uris":{"android":"levelo://app?vid=247272b0-e28e-45c8-a6b3-a7001422b20b","ios":"levelo://app?vid=247272b0-e28e-45c8-a6b3-a7001422b20b"},"vehicle_type_id":"4","last_reported":1715976528,"current_range_meters":8000,"station_id":"ce4bh0p2rcd13ifvqd80","pricing_plan_id":"cebpf4jnsgd1na2vs0mg"},{"bike_id":"edc0db3b-ecc2-49a9-9814-95ff9218a9f2","system_id":"levelo_inurba_marseille","lat":43.305994,"lon":5.393687,"is_reserved":false,"is_disabled":false,"rental_uris":{"android":"levelo://app?vid=edc0db3b-ecc2-49a9-9814-95ff9218a9f2","ios":"levelo://app?vid=edc0db3b-ecc2-49a9-9814-95ff9218a9f2"},"vehicle_type_id":"4","last_reported":1715976528,"current_range_meters":18400,"station_id":"ce4bh0p2rcd13ifvqd80","pricing_plan_id":"cebpf4jnsgd1na2vs0mg"},{"bike_id":"1aca28da-52a9-42e7-a8bb-f76d7a7bddba","system_id":"levelo_inurba_marseille","lat":43.305994,"lon":5.393687,"is_reserved":false,"is_disabled":false,"rental_uris":{"android":"levelo://app?vid=1aca28da-52a9-42e7-a8bb-f76d7a7bddba","ios":"levelo://app?vid=1aca28da-52a9-42e7-a8bb-f76d7a7bddba"},"vehicle_type_id":"4","last_reported":1715976528,"current_range_meters":19200,"station_id":"ce4bh0p2rcd13ifvqd80","pricing_plan_id":"cebpf4jnsgd1na2vs0mg"},{"bike_id":"a1eb2cc2-5554-4c37-ab2d-6cb715a0b4eb","system_id":"levelo_inurba_marseille","lat":43.305233,"lon":5.393414,"is_reserved":false,"is_disabled":false,"rental_uris":{"android":"levelo://app?vid=a1eb2cc2-5554-4c37-ab2d-6cb715a0b4eb","ios":"levelo://app?vid=a1eb2cc2-5554-4c37-ab2d-6cb715a0b4eb"},"vehicle_type_id":"4","last_reported":1715976528,"current_range_meters":21600,"station_id":"","pricing_plan_id":"cebpf4jnsgd1na2vs0mg"},{"bike_id":"eadb07ae-045f-4d4c-8bdf-5641aaa5b9e5","system_id":"levelo_inurba_marseille","lat":43.30302,"lon":5.39208,"is_reserved":false,"is_disabled":false,"rental_uris":{"android":"levelo://app?vid=eadb07ae-045f-4d4c-8bdf-5641aaa5b9e5","ios":"levelo://app?vid=eadb07ae-045f-4d4c-8bdf-5641aaa5b9e5"},"vehicle_type_id":"4","last_reported":1715976528,"current_range_meters":16800,"station_id":"","pricing_plan_id":"cebpf4jnsgd1na2vs0mg"},{"bike_id":"ecb7188a-57ad-4c4a-b556-2323de7b1b7c","system_id":"levelo_inurba_marseille","lat":43.30307,"lon":5.39212,"is_reserved":false,"is_disabled":false,"rental_uris":{"android":"levelo://app?vid=ecb7188a-57ad-4c4a-b556-2323de7b1b7c","ios":"levelo://app?vid=ecb7188a-57ad-4c4a-b556-2323de7b1b7c"},"vehicle_type_id":"4","last_reported":1715976528,"current_range_meters":0,"station_id":"ce4bgkh2rcd13ifvqbk0","pricing_plan_id":"cebpf4jnsgd1na2vs0mg"},{"bike_id":"5bd17d7a-e29e-452f-9262-4a0c361d7bc0","system_id":"levelo_inurba_marseille","lat":43.303002,"lon":5.392142,"is_reserved":false,"is_disabled":false,"rental_uris":{"android":"levelo://app?vid=5bd17d7a-e29e-452f-9262-4a0c361d7bc0","ios":"levelo://app?vid=5bd17d7a-e29e-452f-9262-4a0c361d7bc0"},"vehicle_type_id":"4","last_reported":1715976528,"current_range_meters":16800,"station_id":"ce4bgkh2rcd13ifvqbk0","pricing_plan_id":"cebpf4jnsgd1na2vs0mg"},{"bike_id":"27169ef2-b07b-4867-8a53-6dc513465814","system_id":"levelo_inurba_marseille","lat":43.30304,"lon":5.39216,"is_reserved":false,"is_disabled":false,"rental_uris":{"android":"levelo://app?vid=27169ef2-b07b-4867-8a53-6dc513465814","ios":"levelo://app?vid=27169ef2-b07b-4867-8a53-6dc513465814"},"vehicle_type_id":"4","last_reported":1715976528,"current_range_meters":0,"station_id":"","pricing_plan_id":"cebpf4jnsgd1na2vs0mg"},{"bike_id":"11fb8385-56e7-4b1d-9ad5-265bb2f423fa","system_id":"levelo_inurba_marseille","lat":43.302992,"lon":5.392136,"is_reserved":false,"is_disabled":false,"rental_uris":{"android":"levelo://app?vid=11fb8385-56e7-4b1d-9ad5-265bb2f423fa","ios":"levelo://app?vid=11fb8385-56e7-4b1d-9ad5-265bb2f423fa"},"vehicle_type_id":"4","last_reported":1715976528,"current_range_meters":2400,"station_id":"ce4bgkh2rcd13ifvqbk0","pricing_plan_id":"cebpf4jnsgd1na2vs0mg"},{"bike_id":"fd672851-b4ad-46f9-b9df-1e0230bbfb1c","system_id":"levelo_inurba_marseille","lat":43.2936,"lon":5.37835,"is_reserved":false,"is_disabled":false,"rental_uris":{"android":"levelo://app?vid=fd672851-b4ad-46f9-b9df-1e0230bbfb1c","ios":"levelo://app?vid=fd672851-b4ad-46f9-b9df-1e0230bbfb1c"},"vehicle_type_id":"4","last_reported":1715976528,"current_range_meters":14000,"station_id":"ce4bgjh2rcd13ifvqbf0","pricing_plan_id":"cebpf4jnsgd1na2vs0mg"},{"bike_id":"64c393f9-ed9a-4814-a345-64b275fe6200","system_id":"levelo_inurba_marseille","lat":43.2936,"lon":5.37835,"is_reserved":false,"is_disabled":false,"rental_uris":{"android":"levelo://app?vid=64c393f9-ed9a-4814-a345-64b275fe6200","ios":"levelo://app?vid=64c393f9-ed9a-4814-a345-64b275fe6200"},"vehicle_type_id":"4","last_reported":1715976528,"current_range_meters":5200,"station_id":"ce4bgjh2rcd13ifvqbf0","pricing_plan_id":"cebpf4jnsgd1na2vs0mg"},{"bike_id":"2248e319-1c05-4ce1-a9e4-5281321f73b6","system_id":"levelo_inurba_marseille","lat":43.29369,"lon":5.37842,"is_reserved":false,"is_disabled":false,"rental_uris":{"android":"levelo://app?vid=2248e319-1c05-4ce1-a9e4-5281321f73b6","ios":"levelo://app?vid=2248e319-1c05-4ce1-a9e4-5281321f73b6"},"vehicle_type_id":"4","last_reported":1715976528,"current_range_meters":800,"station_id":"ce4bgjh2rcd13ifvqbf0","pricing_plan_id":"cebpf4jnsgd1na2vs0mg"},{"bike_id":"5aae1f17-925c-4965-af1e-58fbad975d2f","system_id":"levelo_inurba_marseille","lat":43.2936,"lon":5.37835,"is_reserved":false,"is_disabled":false,"rental_uris":{"android":"levelo://app?vid=5aae1f17-925c-4965-af1e-58fbad975d2f","ios":"levelo://app?vid=5aae1f17-925c-4965-af1e-58fbad975d2f"},"vehicle_type_id":"4","last_reported":1715976528,"current_range_meters":27600,"station_id":"ce4bgjh2rcd13ifvqbf0","pricing_plan_id":"cebpf4jnsgd1na2vs0mg"},{"bike_id":"405349dd-2444-4959-a5c5-3149f5eb981b","system_id":"levelo_inurba_marseille","lat":43.29369,"lon":5.37852,"is_reserved":false,"is_disabled":false,"rental_uris":{"android":"levelo://app?vid=405349dd-2444-4959-a5c5-3149f5eb981b","ios":"levelo://app?vid=405349dd-2444-4959-a5c5-3149f5eb981b"},"vehicle_type_id":"4","last_reported":1715976528,"current_range_meters":4400,"station_id":"ce4bgjh2rcd13ifvqbf0","pricing_plan_id":"cebpf4jnsgd1na2vs0mg"},{"bike_id":"a3850371-5329-419c-a6e0-8e26a958468b","system_id":"levelo_inurba_marseille","lat":43.302992,"lon":5.392136,"is_reserved":false,"is_disabled":false,"rental_uris":{"android":"levelo://app?vid=a3850371-5329-419c-a6e0-8e26a958468b","ios":"levelo://app?vid=a3850371-5329-419c-a6e0-8e26a958468b"},"vehicle_type_id":"4","last_reported":1715976528,"current_range_meters":31200,"station_id":"ce4bgkh2rcd13ifvqbk0","pricing_plan_id":"cebpf4jnsgd1na2vs0mg"},{"bike_id":"1b06a37b-a5db-41f6-b2d9-bd5c3c8d1dba","system_id":"levelo_inurba_marseille","lat":43.2936,"lon":5.37835,"is_reserved":false,"is_disabled":false,"rental_uris":{"android":"levelo://app?vid=1b06a37b-a5db-41f6-b2d9-bd5c3c8d1dba","ios":"levelo://app?vid=1b06a37b-a5db-41f6-b2d9-bd5c3c8d1dba"},"vehicle_type_id":"4","last_reported":1715976528,"current_range_meters":14000,"station_id":"ce4bgjh2rcd13ifvqbf0","pricing_plan_id":"cebpf4jnsgd1na2vs0mg"},{"bike_id":"8e60da97-588d-43b4-9ea8-7b3c61c417b2","system_id":"levelo_inurba_marseille","lat":43.30085,"lon":5.390856,"is_reserved":false,"is_disabled":false,"rental_uris":{"android":"levelo://app?vid=8e60da97-588d-43b4-9ea8-7b3c61c417b2","ios":"levelo://app?vid=8e60da97-588d-43b4-9ea8-7b3c61c417b2"},"vehicle_type_id":"4","last_reported":1715976528,"current_range_meters":22800,"station_id":"ce4bh192rcd13ifvqdb0","pricing_plan_id":"cebpf4jnsgd1na2vs0mg"},{"bike_id":"614c81eb-f78f-42f3-9a7b-53d955a76202","system_id":"levelo_inurba_marseille","lat":43.300852,"lon":5.390859,"is_reserved":false,"is_disabled":false,"rental_uris":{"android":"levelo://app?vid=614c81eb-f78f-42f3-9a7b-53d955a76202","ios":"levelo://app?vid=614c81eb-f78f-42f3-9a7b-53d955a76202"},"vehicle_type_id":"4","last_reported":1715976528,"current_range_meters":11200,"station_id":"ce4bh192rcd13ifvqdb0","pricing_plan_id":"cebpf4jnsgd1na2vs0mg"},{"bike_id":"c2c52a2c-ae83-408d-acf7-231016b0f881","system_id":"levelo_inurba_marseille","lat":43.300852,"lon":5.390859,"is_reserved":false,"is_disabled":false,"rental_uris":{"android":"levelo://app?vid=c2c52a2c-ae83-408d-acf7-231016b0f881","ios":"levelo://app?vid=c2c52a2c-ae83-408d-acf7-231016b0f881"},"vehicle_type_id":"4","last_reported":1715976528,"current_range_meters":12800,"station_id":"ce4bh192rcd13ifvqdb0","pricing_plan_id":"cebpf4jnsgd1na2vs0mg"},{"bike_id":"09ece883-829b-4f85-9292-ef7c901ee970","system_id":"levelo_inurba_marseille","lat":43.30084,"lon":5.39077,"is_reserved":false,"is_disabled":false,"rental_uris":{"android":"levelo://app?vid=09ece883-829b-4f85-9292-ef7c901ee970","ios":"levelo://app?vid=09ece883-829b-4f85-9292-ef7c901ee970"},"vehicle_type_id":"4","last_reported":1715976528,"current_range_meters":9200,"station_id":"ce4bh192rcd13ifvqdb0","pricing_plan_id":"cebpf4jnsgd1na2vs0mg"},{"bike_id":"84a47960-320b-4421-b43d-de50f49a1124","system_id":"levelo_inurba_marseille","lat":43.30083,"lon":5.3908,"is_reserved":false,"is_disabled":false,"rental_uris":{"android":"levelo://app?vid=84a47960-320b-4421-b43d-de50f49a1124","ios":"levelo://app?vid=84a47960-320b-4421-b43d-de50f49a1124"},"vehicle_type_id":"4","last_reported":1715976528,"current_range_meters":17600,"station_id":"ce4bh192rcd13ifvqdb0","pricing_plan_id":"cebpf4jnsgd1na2vs0mg"},{"bike_id":"2a8795de-7f79-4838-ae86-5e9e420807a9","system_id":"levelo_inurba_marseille","lat":43.300848,"lon":5.390837,"is_reserved":false,"is_disabled":false,"rental_uris":{"android":"levelo://app?vid=2a8795de-7f79-4838-ae86-5e9e420807a9","ios":"levelo://app?vid=2a8795de-7f79-4838-ae86-5e9e420807a9"},"vehicle_type_id":"4","last_reported":1715976528,"current_range_meters":0,"station_id":"ce4bh192rcd13ifvqdb0","pricing_plan_id":"cebpf4jnsgd1na2vs0mg"},{"bike_id":"20ea6a49-038e-43b7-a098-b79ce5e85a9b","system_id":"levelo_inurba_marseille","lat":43.298764,"lon":5.388973,"is_reserved":false,"is_disabled":false,"rental_uris":{"android":"levelo://app?vid=20ea6a49-038e-43b7-a098-b79ce5e85a9b","ios":"levelo://app?vid=20ea6a49-038e-43b7-a098-b79ce5e85a9b"},"vehicle_type_id":"4","last_reported":1715976528,"current_range_meters":6400,"station_id":"ce4bh392rcd13ifvqdl0","pricing_plan_id":"cebpf4jnsgd1na2vs0mg"},{"bike_id":"62f91d4d-a324-4cc8-8a46-eb7ce1c0107f","system_id":"levelo_inurba_marseille","lat":43.298764,"lon":5.388973,"is_reserved":false,"is_disabled":false,"rental_uris":{"android":"levelo://app?vid=62f91d4d-a324-4cc8-8a46-eb7ce1c0107f","ios":"levelo://app?vid=62f91d4d-a324-4cc8-8a46-eb7ce1c0107f"},"vehicle_type_id":"4","last_reported":1715976528,"current_range_meters":4400,"station_id":"ce4bh392rcd13ifvqdl0","pricing_plan_id":"cebpf4jnsgd1na2vs0mg"},{"bike_id":"02797626-65a4-41a2-ac22-f84e93e68a1c","system_id":"levelo_inurba_marseille","lat":43.298764,"lon":5.388973,"is_reserved":false,"is_disabled":false,"rental_uris":{"android":"levelo://app?vid=02797626-65a4-41a2-ac22-f84e93e68a1c","ios":"levelo://app?vid=02797626-65a4-41a2-ac22-f84e93e68a1c"},"vehicle_type_id":"4","last_reported":1715976528,"current_range_meters":20000,"station_id":"ce4bh392rcd13ifvqdl0","pricing_plan_id":"cebpf4jnsgd1na2vs0mg"},{"bike_id":"cc10f484-944b-4d35-b23d-affe7cc84b15","system_id":"levelo_inurba_marseille","lat":43.29882,"lon":5.38913,"is_reserved":false,"is_disabled":false,"rental_uris":{"android":"levelo://app?vid=cc10f484-944b-4d35-b23d-affe7cc84b15","ios":"levelo://app?vid=cc10f484-944b-4d35-b23d-affe7cc84b15"},"vehicle_type_id":"4","last_reported":1715976528,"current_range_meters":12000,"station_id":"ce4bh392rcd13ifvqdl0","pricing_plan_id":"cebpf4jnsgd1na2vs0mg"},{"bike_id":"ae5fd61d-b773-4104-adac-c5f61822428d","system_id":"levelo_inurba_marseille","lat":43.298752,"lon":5.389055,"is_reserved":false,"is_disabled":false,"rental_uris":{"android":"levelo://app?vid=ae5fd61d-b773-4104-adac-c5f61822428d","ios":"levelo://app?vid=ae5fd61d-b773-4104-adac-c5f61822428d"},"vehicle_type_id":"4","last_reported":1715976528,"current_range_meters":7200,"station_id":"ce4bh392rcd13ifvqdl0","pricing_plan_id":"cebpf4jnsgd1na2vs0mg"},{"bike_id":"7d62d4ea-747c-4728-9d11-8873ccabccd3","system_id":"levelo_inurba_marseille","lat":43.298764,"lon":5.388973,"is_reserved":false,"is_disabled":false,"rental_uris":{"android":"levelo://app?vid=7d62d4ea-747c-4728-9d11-8873ccabccd3","ios":"levelo://app?vid=7d62d4ea-747c-4728-9d11-8873ccabccd3"},"vehicle_type_id":"4","last_reported":1715976528,"current_range_meters":2800,"station_id":"ce4bh392rcd13ifvqdl0","pricing_plan_id":"cebpf4jnsgd1na2vs0mg"},{"bike_id":"1dc9d584-0360-4907-9d76-449cf1055b82","system_id":"levelo_inurba_marseille","lat":43.307817,"lon":5.395636,"is_reserved":false,"is_disabled":false,"rental_uris":{"android":"levelo://app?vid=1dc9d584-0360-4907-9d76-449cf1055b82","ios":"levelo://app?vid=1dc9d584-0360-4907-9d76-449cf1055b82"},"vehicle_type_id":"4","last_reported":1715976528,"current_range_meters":7200,"station_id":"ce4bh012rcd13ifvqcv0","pricing_plan_id":"cebpf4jnsgd1na2vs0mg"},{"bike_id":"f0266771-0588-4208-8f86-6d91eee85557","system_id":"levelo_inurba_marseille","lat":43.30891,"lon":5.39633,"is_reserved":false,"is_disabled":false,"rental_uris":{"android":"levelo://app?vid=f0266771-0588-4208-8f86-6d91eee85557","ios":"levelo://app?vid=f0266771-0588-4208-8f86-6d91eee85557"},