{"last_updated":1748768991,"ttl":60,"version":"2.2","data":{"bikes":[{"bike_id":"33fe8c32-4b15-472a-9bf7-124687146537","system_id":"levelo_inurba_marseille","lat":43.32844,"lon":5.40593,"is_reserved":false,"is_disabled":false,"rental_uris":{"android":"levelo://app?vid=33fe8c32-4b15-472a-9bf7-124687146537","ios":"levelo://app?vid=33fe8c32-4b15-472a-9bf7-124687146537"},"vehicle_type_id":"4","last_reported":1748768991,"current_range_meters":2800,"station_id":"","pricing_plan_id":"cebpf4jnsgd1na2vs0mg"},{"bike_id":"a92e05e1-4b38-44a3-b6b4-eb562920f482","system_id":"levelo_inurba_marseille","lat":43.21485,"lon":5.34822,"is_reserved":false,"is_disabled":false,"rental_uris":{"android":"levelo://app?vid=a92e05e1-4b38-44a3-b6b4-eb562920f482","ios":"levelo://app?vid=a92e05e1-4b38-44a3-b6b4-eb562920f482"},"vehicle_type_id":"4","last_reported":1748768991,"current_range_meters":2800,"station_id":"","pricing_plan_id":"cebpf4jnsgd1na2vs0mg"},{"bike_id":"65854ec5-1428-44c8-842c-9adb66e2e495","system_id":"levelo_inurba_marseille","lat":43.26218,"lon":5.37432,"is_reserved":false,"is_disabled":false,"rental_uris":{"android":"levelo://app?vid=65854ec5-1428-44c8-842c-9adb66e2e495","ios":"levelo://app?vid=65854ec5-1428-44c8-842c-9adb66e2e495"},"vehicle_type_id":"4","last_reported":1748768991,"current_range_meters":2800,"station_id":"ce4bhgp2rcd13ifvqfc0","pricing_plan_id":"cebpf4jnsgd1na2vs0mg"},{"bike_id":"9161e28f-a3d1-4253-b76b-ceddd097b54b","system_id":"levelo_inurba_marseille","lat":43.299622,"lon":5.384824,"is_reserved":false,"is_disabled":false,"rental_uris":{"android":"levelo://app?vid=9161e28f-a3d1-4253-b76b-ceddd097b54b","ios":"levelo://app?vid=9161e28f-a3d1-4253-b76b-ceddd097b54b"},"vehicle_type_id":"4","last_reported":1748768991,"current_range_meters":2800,"station_id":"ce4bgj92rcd13ifvqbd0","pricing_plan_id":"cebpf4jnsgd1na2vs0mg"},{"bike_id":"9be25b50-142b-47bf-b454-4256e5935be8","system_id":"levelo_inurba_marseille","lat":43.26559,"lon":5.37278,"is_reserved":false,"is_disabled":false,"rental_uris":{"android":"levelo://app?vid=9be25b50-142b-47bf-b454-4256e5935be8","ios":"levelo://app?vid=9be25b50-142b-47bf-b454-4256e5935be8"},"vehicle_type_id":"4","last_reported":1748768991,"current_range_meters":2800,"station_id":"ce4bhg12rcd13ifvqf70","pricing_plan_id":"cebpf4jnsgd1na2vs0mg"},{"bike_id":"dc30289a-99e7-4b4d-bb7f-ca650bdbe19d","system_id":"levelo_inurba_marseille","lat":43.29032,"lon":5.3864,"is_reserved":false,"is_disabled":false,"rental_uris":{"android":"levelo://app?vid=dc30289a-99e7-4b4d-bb7f-ca650bdbe19d","ios":"levelo://app?vid=dc30289a-99e7-4b4d-bb7f-ca650bdbe19d"},"vehicle_type_id":"4","last_reported":1748768991,"current_range_meters":3200,"station_id":"ce4bh4p2rcd13ifvqe0g","pricing_plan_id":"cebpf4jnsgd1na2vs0mg"},{"bike_id":"c29b34f4-cff8-4f00-b66f-dcd5649a7131","system_id":"levelo_inurba_marseille","lat":43.211894,"lon":5.350734,"is_reserved":false,"is_disabled":false,"rental_uris":{"android":"levelo://app?vid=c29b34f4-cff8-4f00-b66f-dcd5649a7131","ios":"levelo://app?vid=c29b34f4-cff8-4f00-b66f-dcd5649a7131"},"vehicle_type_id":"4","last_reported":1748768991,"current_range_meters":3200,"station_id":"","pricing_plan_id":"cebpf4jnsgd1na2vs0mg"},{"bike_id":"fb4c890a-57de-47f7-ae8e-03e6ef5353a0","system_id":"levelo_inurba_marseille","lat":43.26206,"lon":5.37442,"is_reserved":false,"is_disabled":false,"rental_uris":{"android":"levelo://app?vid=fb4c890a-57de-47f7-ae8e-03e6ef5353a0","ios":"levelo://app?vid=fb4c890a-57de-47f7-ae8e-03e6ef5353a0"},"vehicle_type_id":"4","last_reported":1748768991,"current_range_meters":3600,"station_id":"ce4bhgp2rcd13ifvqfc0","pricing_plan_id":"cebpf4jnsgd1na2vs0mg"},{"bike_id":"f6c5b2f4-8872-45fb-bcb2-c024bfd4137f","system_id":"levelo_inurba_marseille","lat":43.26208,"lon":5.37442,"is_reserved":false,"is_disabled":false,"rental_uris":{"android":"levelo://app?vid=f6c5b2f4-8872-45fb-bcb2-c024bfd4137f","ios":"levelo://app?vid=f6c5b2f4-8872-45fb-bcb2-c024bfd4137f"},"vehicle_type_id":"4","last_reported":1748768991,"current_range_meters":3600,"station_id":"ce4bhgp2rcd13ifvqfc0","pricing_plan_id":"cebpf4jnsgd1na2vs0mg"},{"bike_id":"c2c0c293-ae72-4560-8bb3-ac18688ee339","system_id":"levelo_inurba_marseille","lat":43.30929,"lon":5.4014,"is_reserved":false,"is_disabled":false,"rental_uris":{"android":"levelo://app?vid=c2c0c293-ae72-4560-8bb3-ac18688ee339","ios":"levelo://app?vid=c2c0c293-ae72-4560-8bb3-ac18688ee339"},"vehicle_type_id":"4","last_reported":1748768991,"current_range_meters":3600,"station_id":"ce4bgvp2rcd13ifvqct0","pricing_plan_id":"cebpf4jnsgd1na2vs0mg"},{"bike_id":"e7ac8e4d-7c92-4571-b8ea-ffef2ad9bb4a","system_id":"levelo_inurba_marseille","lat":43.21753,"lon":5.34599,"is_reserved":false,"is_disabled":false,"rental_uris":{"android":"levelo://app?vid=e7ac8e4d-7c92-4571-b8ea-ffef2ad9bb4a","ios":"levelo://app?vid=e7ac8e4d-7c92-4571-b8ea-ffef2ad9bb4a"},"vehicle_type_id":"4","last_reported":1748768991,"current_range_meters":4000,"station_id":"st_cvj6r9ubvosntc0bgbag","pricing_plan_id":"cebpf4jnsgd1na2vs0mg"},{"bike_id":"3f7e2c8c-4046-42da-9470-1c720872b0e1","system_id":"levelo_inurba_marseille","lat":43.262259,"lon":5.404636,"is_reserved":false,"is_disabled":false,"rental_uris":{"android":"levelo://app?vid=3f7e2c8c-4046-42da-9470-1c720872b0e1","ios":"levelo://app?vid=3f7e2c8c-4046-42da-9470-1c720872b0e1"},"vehicle_type_id":"4","last_reported":1748768991,"current_range_meters":4000,"station_id":"ce4bhmh2rcd13ifvqgmg","pricing_plan_id":"cebpf4jnsgd1na2vs0mg"},{"bike_id":"e372cd62-3f54-4399-8b54-ee30195f8351","system_id":"levelo_inurba_marseille","lat":43.26238,"lon":5.40488,"is_reserved":false,"is_disabled":false,"rental_uris":{"android":"levelo://app?vid=e372cd62-3f54-4399-8b54-ee30195f8351","ios":"levelo://app?vid=e372cd62-3f54-4399-8b54-ee30195f8351"},"vehicle_type_id":"4","last_reported":1748768991,"current_range_meters":4000,"station_id":"ce4bhmh2rcd13ifvqgmg","pricing_plan_id":"cebpf4jnsgd1na2vs0mg"},{"bike_id":"bcd74814-190e-494b-989a-66bd5b3478e0","system_id":"levelo_inurba_marseille","lat":43.23284,"lon":5.36081,"is_reserved":false,"is_disabled":false,"rental_uris":{"android":"levelo://app?vid=bcd74814-190e-494b-989a-66bd5b3478e0","ios":"levelo://app?vid=bcd74814-190e-494b-989a-66bd5b3478e0"},"vehicle_type_id":"4","last_reported":1748768991,"current_range_meters":4000,"station_id":"","pricing_plan_id":"cebpf4jnsgd1na2vs0mg"},{"bike_id":"7744b0bc-9255-402e-8dd0-6b3090927fb9","system_id":"levelo_inurba_marseille","lat":43.269501,"lon":5.402708,"is_reserved":false,"is_disabled":true,"rental_uris":{"android":"levelo://app?vid=7744b0bc-9255-402e-8dd0-6b3090927fb9","ios":"levelo://app?vid=7744b0bc-9255-402e-8dd0-6b3090927fb9"},"vehicle_type_id":"4","last_reported":1748768991,"current_range_meters":4400,"station_id":"cjm6bp8fraef2m0cb0m0","pricing_plan_id":"cebpf4jnsgd1na2vs0mg"},{"bike_id":"414f50f9-4176-475f-adf2-0466f70c8059","system_id":"levelo_inurba_marseille","lat":43.25947,"lon":5.40928,"is_reserved":false,"is_disabled":false,"rental_uris":{"android":"levelo://app?vid=414f50f9-4176-475f-adf2-0466f70c8059","ios":"levelo://app?vid=414f50f9-4176-475f-adf2-0466f70c8059"},"vehicle_type_id":"4","last_reported":1748768991,"current_range_meters":4400,"station_id":"ce4bhm92rcd13ifvqglg","pricing_plan_id":"cebpf4jnsgd1na2vs0mg"},{"bike_id":"d6ace3bf-e87d-4347-a4e3-8c834f7002bf","system_id":"levelo_inurba_marseille","lat":43.31764,"lon":5.39013,"is_reserved":false,"is_disabled":false,"rental_uris":{"android":"levelo://app?vid=d6ace3bf-e87d-4347-a4e3-8c834f7002bf","ios":"levelo://app?vid=d6ace3bf-e87d-4347-a4e3-8c834f7002bf"},"vehicle_type_id":"4","last_reported":1748768991,"current_range_meters":4400,"station_id":"ce4bhqp2rcd13ifvqhng","pricing_plan_id":"cebpf4jnsgd1na2vs0mg"},{"bike_id":"ea1f019a-11dc-43d8-9095-9a5b356bf87d","system_id":"levelo_inurba_marseille","lat":43.26241,"lon":5.40437,"is_reserved":false,"is_disabled":false,"rental_uris":{"android":"levelo://app?vid=ea1f019a-11dc-43d8-9095-9a5b356bf87d","ios":"levelo://app?vid=ea1f019a-11dc-43d8-9095-9a5b356bf87d"},"vehicle_type_id":"4","last_reported":1748768991,"current_range_meters":4400,"station_id":"ce4bhmh2rcd13ifvqgmg","pricing_plan_id":"cebpf4jnsgd1na2vs0mg"},{"bike_id":"f2a9d16c-47c0-4612-8bf1-88597c5b6853","system_id":"levelo_inurba_marseille","lat":43.29914,"lon":5.37526,"is_reserved":false,"is_disabled":false,"rental_uris":{"android":"levelo://app?vid=f2a9d16c-47c0-4612-8bf1-88597c5b6853","ios":"levelo://app?vid=f2a9d16c-47c0-4612-8bf1-88597c5b6853"},"vehicle_type_id":"4","last_reported":1748768991,"current_range_meters":4400,"station_id":"ce4bgjh2rcd13ifvqbg0","pricing_plan_id":"cebpf4jnsgd1na2vs0mg"},{"bike_id":"8dddee99-59be-453b-bd90-8901eeefc0b0","system_id":"levelo_inurba_marseille","lat":43.27312,"lon":5.39088,"is_reserved":false,"is_disabled":false,"rental_uris":{"android":"levelo://app?vid=8dddee99-59be-453b-bd90-8901eeefc0b0","ios":"levelo://app?vid=8dddee99-59be-453b-bd90-8901eeefc0b0"},"vehicle_type_id":"4","last_reported":1748768991,"current_range_meters":4800,"station_id":"ce4bhgp2rcd13ifvqfe0","pricing_plan_id":"cebpf4jnsgd1na2vs0mg"},{"bike_id":"4e319f49-11fa-44d6-8326-9cf8cd71329b","system_id":"levelo_inurba_marseille","lat":43.26957,"lon":5.38628,"is_reserved":false,"is_disabled":false,"rental_uris":{"android":"levelo://app?vid=4e319f49-11fa-44d6-8326-9cf8cd71329b","ios":"levelo://app?vid=4e319f49-11fa-44d6-8326-9cf8cd71329b"},"vehicle_type_id":"4","last_reported":1748768991,"current_range_meters":4800,"station_id":"ce4bhh92rcd13ifvqfh0","pricing_plan_id":"cebpf4jnsgd1na2vs0mg"},{"bike_id":"780110d7-56b0-46f4-9c98-95dc54740b50","system_id":"levelo_inurba_marseille","lat":43.30919,"lon":5.40178,"is_reserved":false,"is_disabled":true,"rental_uris":{"android":"levelo://app?vid=780110d7-56b0-46f4-9c98-95dc54740b50","ios":"levelo://app?vid=780110d7-56b0-46f4-9c98-95dc54740b50"},"vehicle_type_id":"4","last_reported":1748768991,"current_range_meters":4800,"station_id":"ce4bgvp2rcd13ifvqct0","pricing_plan_id":"cebpf4jnsgd1na2vs0mg"},{"bike_id":"4587c898-1014-4728-ba58-926f5211c4f4","system_id":"levelo_inurba_marseille","lat":43.27937,"lon":5.4105,"is_reserved":false,"is_disabled":false,"rental_uris":{"android":"levelo://app?vid=4587c898-1014-4728-ba58-926f5211c4f4","ios":"levelo://app?vid=4587c898-1014-4728-ba58-926f5211c4f4"},"vehicle_type_id":"4","last_reported":1748768991,"current_range_meters":4800,"station_id":"ce4bhnp2rcd13ifvqh0g","pricing_plan_id":"cebpf4jnsgd1na2vs0mg"},{"bike_id":"0a1fde1f-17e7-4d4c-a357-fb0c7572573b","system_id":"levelo_inurba_marseille","lat":43.27999,"lon":5.41657,"is_reserved":false,"is_disabled":false,"rental_uris":{"android":"levelo://app?vid=0a1fde1f-17e7-4d4c-a357-fb0c7572573b","ios":"levelo://app?vid=0a1fde1f-17e7-4d4c-a357-fb0c7572573b"},"vehicle_type_id":"4","last_reported":1748768991,"current_range_meters":4800,"station_id":"ce4bho12rcd13ifvqh1g","pricing_plan_id":"cebpf4jnsgd1na2vs0mg"},{"bike_id":"12a0baac-0b13-468e-a2b2-bdc7511afcaa","system_id":"levelo_inurba_marseille","lat":43.27047,"lon":5.40249,"is_reserved":false,"is_disabled":false,"rental_uris":{"android":"levelo://app?vid=12a0baac-0b13-468e-a2b2-bdc7511afcaa","ios":"levelo://app?vid=12a0baac-0b13-468e-a2b2-bdc7511afcaa"},"vehicle_type_id":"4","last_reported":1748768991,"current_range_meters":5600,"station_id":"ce4bhk92rcd13ifvqgc0","pricing_plan_id":"cebpf4jnsgd1na2vs0mg"},{"bike_id":"391f01da-bda5-42cb-847e-5bd541a160b5","system_id":"levelo_inurba_marseille","lat":43.273793,"lon":5.36259,"is_reserved":false,"is_disabled":true,"rental_uris":{"android":"levelo://app?vid=391f01da-bda5-42cb-847e-5bd541a160b5","ios":"levelo://app?vid=391f01da-bda5-42cb-847e-5bd541a160b5"},"vehicle_type_id":"4","last_reported":1748768991,"current_range_meters":5600,"station_id":"ce4bhbh2rcd13ifvqeo0","pricing_plan_id":"cebpf4jnsgd1na2vs0mg"},{"bike_id":"fa9acd6d-2127-4e18-93e3-1917fe413853","system_id":"levelo_inurba_marseille","lat":43.33609,"lon":5.40997,"is_reserved":false,"is_disabled":false,"rental_uris":{"android":"levelo://app?vid=fa9acd6d-2127-4e18-93e3-1917fe413853","ios":"levelo://app?vid=fa9acd6d-2127-4e18-93e3-1917fe413853"},"vehicle_type_id":"4","last_reported":1748768991,"current_range_meters":5600,"station_id":"ce4bhqh2rcd13ifvqhmg","pricing_plan_id":"cebpf4jnsgd1na2vs0mg"},{"bike_id":"45ac2f13-23a7-48b8-9cda-9bdc80831753","system_id":"levelo_inurba_marseille","lat":43.27377,"lon":5.36253,"is_reserved":false,"is_disabled":false,"rental_uris":{"android":"levelo://app?vid=45ac2f13-23a7-48b8-9cda-9bdc80831753","ios":"levelo://app?vid=45ac2f13-23a7-48b8-9cda-9bdc80831753"},"vehicle_type_id":"4","last_reported":1748768991,"current_range_meters":5600,"station_id":"ce4bhbh2rcd13ifvqeo0","pricing_plan_id":"cebpf4jnsgd1na2vs0mg"},{"bike_id":"e7734b93-af1e-4f8f-9240-788afe3133cb","system_id":"levelo_inurba_marseille","lat":43.25106,"lon":5.40324,"is_reserved":false,"is_disabled":false,"rental_uris":{"android":"levelo://app?vid=e7734b93-af1e-4f8f-9240-788afe3133cb","ios":"levelo://app?vid=e7734b93-af1e-4f8f-9240-788afe3133cb"},"vehicle_type_id":"4","last_reported":1748768991,"current_range_meters":5600,"station_id":"ce4bhlh2rcd13ifvqgig","pricing_plan_id":"cebpf4jnsgd1na2vs0mg"},{"bike_id":"2a3251b9-f92b-44cb-9281-bfa58e538996","system_id":"levelo_inurba_marseille","lat":43.314896,"lon":5.373069,"is_reserved":false,"is_disabled":false,"rental_uris":{"android":"levelo://app?vid=2a3251b9-f92b-44cb-9281-bfa58e538996","ios":"levelo://app?vid=2a3251b9-f92b-44cb-9281-bfa58e538996"},"vehicle_type_id":"4","last_reported":1748768991,"current_range_meters":6000,"station_id":"ce4bgt12rcd13ifvqcd0","pricing_plan_id":"cebpf4jnsgd1na2vs0mg"},{"bike_id":"0d129f32-67d2-4b3a-91de-38a8d14832a9","system_id":"levelo_inurba_marseille","lat":43.309293,"lon":5.401529,"is_reserved":false,"is_disabled":false,"rental_uris":{"android":"levelo://app?vid=0d129f32-67d2-4b3a-91de-38a8d14832a9","ios":"levelo://app?vid=0d129f32-67d2-4b3a-91de-38a8d14832a9"},"vehicle_type_id":"4","last_reported":1748768991,"current_range_meters":6400,"station_id":"ce4bgvp2rcd13ifvqct0","pricing_plan_id":"cebpf4jnsgd1na2vs0mg"},{"bike_id":"64a30926-27ab-46b9-9e67-7a26cab27528","system_id":"levelo_inurba_marseille","lat":43.34156,"lon":5.409337,"is_reserved":false,"is_disabled":false,"rental_uris":{"android":"levelo://app?vid=64a30926-27ab-46b9-9e67-7a26cab27528","ios":"levelo://app?vid=64a30926-27ab-46b9-9e67-7a26cab27528"},"vehicle_type_id":"4","last_reported":1748768991,"current_range_meters":6400,"station_id":"ce4bhqh2rcd13ifvqhlg","pricing_plan_id":"cebpf4jnsgd1na2vs0mg"},{"bike_id":"8b9b6455-f705-477c-b3bc-36b00650ea20","system_id":"levelo_inurba_marseille","lat":43.25128,"lon":5.40355,"is_reserved":false,"is_disabled":false,"rental_uris":{"android":"levelo://app?vid=8b9b6455-f705-477c-b3bc-36b00650ea20","ios":"levelo://app?vid=8b9b6455-f705-477c-b3bc-36b00650ea20"},"vehicle_type_id":"4","last_reported":1748768991,"current_range_meters":6400,"station_id":"ce4bhlh2rcd13ifvqgig","pricing_plan_id":"cebpf4jnsgd1na2vs0mg"},{"bike_id":"cd0c4c59-6687-4b31-aeff-f950387c4f75","system_id":"levelo_inurba_marseille","lat":43.28619,"lon":5.35093,"is_reserved":false,"is_disabled":false,"rental_uris":{"android":"levelo://app?vid=cd0c4c59-6687-4b31-aeff-f950387c4f75","ios":"levelo://app?vid=cd0c4c59-6687-4b31-aeff-f950387c4f75"},"vehicle_type_id":"4","last_reported":1748768991,"current_range_meters":6800,"station_id":"ce4bhch2rcd13ifvqeug","pricing_plan_id":"cebpf4jnsgd1na2vs0mg"},{"bike_id":"3a085488-4aae-4226-a279-89bb81fa55fc","system_id":"levelo_inurba_marseille","lat":43.27057,"lon":5.40276,"is_reserved":false,"is_disabled":false,"rental_uris":{"android":"levelo://app?vid=3a085488-4aae-4226-a279-89bb81fa55fc","ios":"levelo://app?vid=3a085488-4aae-4226-a279-89bb81fa55fc"},"vehicle_type_id":"4","last_reported":1748768991,"current_range_meters":6800,"station_id":"ce4bhk92rcd13ifvqgc0","pricing_plan_id":"cebpf4jnsgd1na2vs0mg"},{"bike_id":"70f70429-b3a4-4bd4-900e-7624fcef71b2","system_id":"levelo_inurba_marseille","lat":43.314964,"lon":5.388838,"is_reserved":false,"is_disabled":false,"rental_uris":{"android":"levelo://app?vid=70f70429-b3a4-4bd4-900e-7624fcef71b2","ios":"levelo://app?vid=70f70429-b3a4-4bd4-900e-7624fcef71b2"},"vehicle_type_id":"4","last_reported":1748768991,"current_range_meters":6800,"station_id":"","pricing_plan_id":"cebpf4jnsgd1na2vs0mg"},{"bike_id":"742ea022-7ec3-403b-ab76-b027020c7592","system_id":"levelo_inurba_marseille","lat":43.32285,"lon":5.38271,"is_reserved":false,"is_disabled":false,"rental_uris":{"android":"levelo://app?vid=742ea022-7ec3-403b-ab76-b027020c7592","ios":"levelo://app?vid=742ea022-7ec3-403b-ab76-b027020c7592"},"vehicle_type_id":"4","last_reported":1748768991,"current_range_meters":6800,"station_id":"ce4bhr12rcd13ifvqhqg","pricing_plan_id":"cebpf4jnsgd1na2vs0mg"},{"bike_id":"2e5d65dc-7b75-4e49-9e17-db185fe11321","system_id":"levelo_inurba_marseille","lat":43.31143,"lon":5.36823,"is_reserved":false,"is_disabled":true,"rental_uris":{"android":"levelo://app?vid=2e5d65dc-7b75-4e49-9e17-db185fe11321","ios":"levelo://app?vid=2e5d65dc-7b75-4e49-9e17-db185fe11321"},"vehicle_type_id":"4","last_reported":1748768991,"current_range_meters":6800,"station_id":"","pricing_plan_id":"cebpf4jnsgd1na2vs0mg"},{"bike_id":"2b201de7-06ee-44b6-9c85-dda11376754f","system_id":"levelo_inurba_marseille","lat":43.2436,"lon":5.38007,"is_reserved":false,"is_disabled":false,"rental_uris":{"android":"levelo://app?vid=2b201de7-06ee-44b6-9c85-dda11376754f","ios":"levelo://app?vid=2b201de7-06ee-44b6-9c85-dda11376754f"},"vehicle_type_id":"4","last_reported":1748768991,"current_range_meters":6800,"station_id":"","pricing_plan_id":"cebpf4jnsgd1na2vs0mg"},{"bike_id":"a14d8e40-c994-4f1c-b643-8a3b58a2eb79","system_id":"levelo_inurba_marseille","lat":43.29271,"lon":5.38204,"is_reserved":false,"is_disabled":false,"rental_uris":{"android":"levelo://app?vid=a14d8e40-c994-4f1c-b643-8a3b58a2eb79","ios":"levelo://app?vid=a14d8e40-c994-4f1c-b643-8a3b58a2eb79"},"vehicle_type_id":"4","last_reported":1748768991,"current_range_meters":6800,"station_id":"","pricing_plan_id":"cebpf4jnsgd1na2vs0mg"},{"bike_id":"fa2a687e-25e8-4883-b46b-e1c22b1d42b2","system_id":"levelo_inurba_marseille","lat":43.25111,"lon":5.40327,"is_reserved":false,"is_disabled":false,"rental_uris":{"android":"levelo://app?vid=fa2a687e-25e8-4883-b46b-e1c22b1d42b2","ios":"levelo://app?vid=fa2a687e-25e8-4883-b46b-e1c22b1d42b2"},"vehicle_type_id":"4","last_reported":1748768991,"current_range_meters":6800,"station_id":"ce4bhlh2rcd13ifvqgig","pricing_plan_id":"cebpf4jnsgd1na2vs0mg"},{"bike_id":"f59880d3-0f5e-49df-8799-a7a887a6884c","system_id":"levelo_inurba_marseille","lat":43.286824,"lon":5.363605,"is_reserved":false,"is_disabled":false,"rental_uris":{"android":"levelo://app?vid=f59880d3-0f5e-49df-8799-a7a887a6884c","ios":"levelo://app?vid=f59880d3-0f5e-49df-8799-a7a887a6884c"},"vehicle_type_id":"4","last_reported":1748768991,"current_range_meters":6800,"station_id":"ce4bhah2rcd13ifvqej0","pricing_plan_id":"cebpf4jnsgd1na2vs0mg"},{"bike_id":"ef323aa9-256e-4f07-8057-c340cef24f12","system_id":"levelo_inurba_marseille","lat":43.29898,"lon":5.43671,"is_reserved":false,"is_disabled":false,"rental_uris":{"android":"levelo://app?vid=ef323aa9-256e-4f07-8057-c340cef24f12","ios":"levelo://app?vid=ef323aa9-256e-4f07-8057-c340cef24f12"},"vehicle_type_id":"4","last_reported":1748768991,"current_range_meters":7200,"station_id":"ce4bhpp2rcd13ifvqhfg","pricing_plan_id":"cebpf4jnsgd1na2vs0mg"},{"bike_id":"8159ea0f-20d8-4658-a5f5-ec8fd303169b","system_id":"levelo_inurba_marseille","lat":43.25139,"lon":5.403053,"is_reserved":false,"is_disabled":false,"rental_uris":{"android":"levelo://app?vid=8159ea0f-20d8-4658-a5f5-ec8fd303169b","ios":"levelo://app?vid=8159ea0f-20d8-4658-a5f5-ec8fd303169b"},"vehicle_type_id":"4","last_reported":1748768991,"current_range_meters":7200,"station_id":"ce4bhlh2rcd13ifvqgig","pricing_plan_id":"cebpf4jnsgd1na2vs0mg"},{"bike_id":"8d48119e-760e-4c00-b401-59af0a322afa","system_id":"levelo_inurba_marseille","lat":43.256592,"lon":5.408551,"is_reserved":false,"is_disabled":false,"rental_uris":{"android":"levelo://app?vid=8d48119e-760e-4c00-b401-59af0a322afa","ios":"levelo://app?vid=8d48119e-760e-4c00-b401-59af0a322afa"},"vehicle_type_id":"4","last_reported":1748768991,"current_range_meters":7200,"station_id":"","pricing_plan_id":"cebpf4jnsgd1na2vs0mg"},{"bike_id":"c663f627-a14e-4063-b0b1-5bbc0999bc43","system_id":"levelo_inurba_marseille","lat":43.3171,"lon":5.40462,"is_reserved":false,"is_disabled":false,"rental_uris":{"android":"levelo://app?vid=c663f627-a14e-4063-b0b1-5bbc0999bc43","ios":"levelo://app?vid=c663f627-a14e-4063-b0b1-5bbc0999bc43"},"vehicle_type_id":"4","last_reported":1748768991,"current_range_meters":7200,"station_id":"ce4bh012rcd13ifvqd00","pricing_plan_id":"cebpf4jnsgd1na2vs0mg"},{"bike_id":"138f76c7-af28-412e-8d82-764c6aca3bed","system_id":"levelo_inurba_marseille","lat":43.23199,"lon":5.35549,"is_reserved":false,"is_disabled":false,"rental_uris":{"android":"levelo://app?vid=138f76c7-af28-412e-8d82-764c6aca3bed","ios":"levelo://app?vid=138f76c7-af28-412e-8d82-764c6aca3bed"},"vehicle_type_id":"4","last_reported":1748768991,"current_range_meters":7200,"station_id":"ce4bhu92rcd13ifvqi70","pricing_plan_id":"cebpf4jnsgd1na2vs0mg"},{"bike_id":"0d3bab2f-26cf-41f1-82dd-bb5db963b288","system_id":"levelo_inurba_marseille","lat":43.32542,"lon":5.36483,"is_reserved":false,"is_disabled":true,"rental_uris":{"android":"levelo://app?vid=0d3bab2f-26cf-41f1-82dd-bb5db963b288","ios":"levelo://app?vid=0d3bab2f-26cf-41f1-82dd-bb5db963b288"},"vehicle_type_id":"4","last_reported":1748768991,"current_range_meters":7200,"station_id":"","pricing_plan_id":"cebpf4jnsgd1na2vs0mg"},{"bike_id":"8705aff5-c0af-44e7-9a73-da499d636bee","system_id":"levelo_inurba_marseille","lat":43.317577,"lon":5.390163,"is_reserved":false,"is_disabled":false,"rental_uris":{"android":"levelo://app?vid=8705aff5-c0af-44e7-9a73-da499d636bee","ios":"levelo://app?vid=8705aff5-c0af-44e7-9a73-da499d636bee"},"vehicle_type_id":"4","last_reported":1748768991,"current_range_meters":8000,"station_id":"ce4bhqp2rcd13ifvqhng","pricing_plan_id":"cebpf4jnsgd1na2vs0mg"},{"bike_id":"c2e49afe-c92b-4b84-8bac-c963a90a9c12","system_id":"levelo_inurba_marseille","lat":43.31705,"lon":5.40457,"is_reserved":false,"is_disabled":false,"rental_uris":{"android":"levelo://app?vid=c2e49afe-c92b-4b84-8bac-c963a90a9c12","ios":"levelo://app?vid=c2e49afe-c92b-4b84-8bac-c963a90a9c12"},"vehicle_type_id":"4","last_reported":1748768991,"current_range_meters":8000,"station_id":"ce4bh012rcd13ifvqd00","pricing_plan_id":"cebpf4jnsgd1na2vs0mg"},{"bike_id":"6dbec55b-fee0-4a3a-9ed2-723f9ae1c783","system_id":"levelo_inurba_marseille","lat":43.29889,"lon":5.43638,"is_reserved":false,"is_disabled":true,"rental_uris":{"android":"levelo://app?vid=6dbec55b-fee0-4a3a-9ed2-723f9ae1c783","ios":"levelo://app?vid=6dbec55b-fee0-4a3a-9ed2-723f9ae1c783"},"vehicle_type_id":"4","last_reported":1748768991,"current_range_meters":8000,"station_id":"ce4bhpp2rcd13ifvqhfg","pricing_plan_id":"cebpf4jnsgd1na2vs0mg"},{"bike_id":"37b1630f-1a3b-4e0c-98b3-0bddb17da4f4","system_id":"levelo_inurba_marseille","lat":43.2827,"lon":5.35059,"is_reserved":false,"is_disabled":false,"rental_uris":{"android":"levelo://app?vid=37b1630f-1a3b-4e0c-98b3-0bddb17da4f4","ios":"levelo://app?vid=37b1630f-1a3b-4e0c-98b3-0bddb17da4f4"},"vehicle_type_id":"4","last_reported":1748768991,"current_range_meters":8000,"station_id":"ce4bhbp2rcd13ifvqerg","pricing_plan_id":"cebpf4jnsgd1na2vs0mg"},{"bike_id":"91eb2bab-c3cf-49db-b643-1e076e91d0b8","system_id":"levelo_inurba_marseille","lat":43.27073,"lon":5.4228,"is_reserved":false,"is_disabled":false,"rental_uris":{"android":"levelo://app?vid=91eb2bab-c3cf-49db-b643-1e076e91d0b8","ios":"levelo://app?vid=91eb2bab-c3cf-49db-b643-1e076e91d0b8"},"vehicle_type_id":"4","last_reported":1748768991,"current_range_meters":8000,"station_id":"ce4bhk92rcd13ifvqgb0","pricing_plan_id":"cebpf4jnsgd1na2vs0mg"},{"bike_id":"01a3bd85-0cd6-4be7-9aa1-914feea5db05","system_id":"levelo_inurba_marseille","lat":43.29175,"lon":5.37152,"is_reserved":false,"is_disabled":false,"rental_uris":{"android":"levelo://app?vid=01a3bd85-0cd6-4be7-9aa1-914feea5db05","ios":"levelo://app?vid=01a3bd85-0cd6-4be7-9aa1-914feea5db05"},"vehicle_type_id":"4","last_reported":1748768991,"current_range_meters":8000,"station_id":"ce4bha92rcd13ifvqeh0","pricing_plan_id":"cebpf4jnsgd1na2vs0mg"},{"bike_id":"8ae16160-9348-492b-9270-6bee880ca5e3","system_id":"levelo_inurba_marseille","lat":43.359719,"lon":5.323509,"is_reserved":false,"is_disabled":false,"rental_uris":{"android":"levelo://app?vid=8ae16160-9348-492b-9270-6bee880ca5e3","ios":"levelo://app?vid=8ae16160-9348-492b-9270-6bee880ca5e3"},"vehicle_type_id":"4","last_reported":1748768991,"current_range_meters":8000,"station_id":"","pricing_plan_id":"cebpf4jnsgd1na2vs0mg"},{"bike_id":"251e5893-835c-454e-9cd2-0baaada8aed8","system_id":"levelo_inurba_marseille","lat":43.28266,"lon":5.35062,"is_reserved":false,"is_disabled":false,"rental_uris":{"android":"levelo://app?vid=251e5893-835c-454e-9cd2-0baaada8aed8","ios":"levelo://app?vid=251e5893-835c-454e-9cd2-0baaada8aed8"},"vehicle_type_id":"4","last_reported":1748768991,"current_range_meters":8000,"station_id":"ce4bhbp2rcd13ifvqerg","pricing_plan_id":"cebpf4jnsgd1na2vs0mg"},{"bike_id":"39c30834-140a-4375-850c-22aefa03482a","system_id":"levelo_inurba_marseille","lat":43.25198,"lon":5.40335,"is_reserved":false,"is_disabled":false,"rental_uris":{"android":"levelo://app?vid=39c30834-140a-4375-850c-22aefa03482a","ios":"levelo://app?vid=39c30834-140a-4375-850c-22aefa03482a"},"vehicle_type_id":"4","last_reported":1748768991,"current_range_meters":8000,"station_id":"","pricing_plan_id":"cebpf4jnsgd1na2vs0mg"},{"bike_id":"f4e49996-ce0c-42e7-9a15-35b5f4497b3e","system_id":"levelo_inurba_marseille","lat":43.322861,"lon":5.382824,"is_reserved":false,"is_disabled":false,"rental_uris":{"android":"levelo://app?vid=f4e49996-ce0c-42e7-9a15-35b5f4497b3e","ios":"levelo://app?vid=f4e49996-ce0c-42e7-9a15-35b5f4497b3e"},"vehicle_type_id":"4","last_reported":1748768991,"current_range_meters":8400,"station_id":"ce4bhr12rcd13ifvqhqg","pricing_plan_id":"cebpf4jnsgd1na2vs0mg"},{"bike_id":"2535efab-6a29-436e-bfc9-17963e2cb58d","system_id":"levelo_inurba_marseille","lat":43.25085,"lon":5.3952,"is_reserved":false,"is_disabled":false,"rental_uris":{"android":"levelo://app?vid=2535efab-6a29-436e-bfc9-17963e2cb58d","ios":"levelo://app?vid=2535efab-6a29-436e-bfc9-17963e2cb58d"},"vehicle_type_id":"4","last_reported":1748768991,"current_range_meters":8400,"station_id":"ce4bhm12rcd13ifvqgkg","pricing_plan_id":"cebpf4jnsgd1na2vs0mg"},{"bike_id":"23a8f3c4-21a6-46df-a7da-136674bed0a1","system_id":"levelo_inurba_marseille","lat":43.278141,"lon":5.407101,"is_reserved":false,"is_disabled":false,"rental_uris":{"android":"levelo://app?vid=23a8f3c4-21a6-46df-a7da-136674bed0a1","ios":"levelo://app?vid=23a8f3c4-21a6-46df-a7da-136674bed0a1"},"vehicle_type_id":"4","last_reported":1748768991,"current_range_meters":8400,"station_id":"ce4bhnh2rcd13ifvqgtg","pricing_plan_id":"cebpf4jnsgd1na2vs0mg"},{"bike_id":"cd37ea59-6265-4480-bb5b-d61aa34ee4d3","system_id":"levelo_inurba_marseille","lat":43.265536,"lon":5.37287,"is_reserved":false,"is_disabled":false,"rental_uris":{"android":"levelo://app?vid=cd37ea59-6265-4480-bb5b-d61aa34ee4d3","ios":"levelo://app?vid=cd37ea59-6265-4480-bb5b-d61aa34ee4d3"},"vehicle_type_id":"4","last_reported":1748768991,"current_range_meters":8400,"station_id":"ce4bhg12rcd13ifvqf70","pricing_plan_id":"cebpf4jnsgd1na2vs0mg"},{"bike_id":"fd46a80b-8b93-49cf-a34b-8cffcb0fc192","system_id":"levelo_inurba_marseille","lat":43.262329,"lon":5.404549,"is_reserved":false,"is_disabled":false,"rental_uris":{"android":"levelo://app?vid=fd46a80b-8b93-49cf-a34b-8cffcb0fc192","ios":"levelo://app?vid=fd46a80b-8b93-49cf-a34b-8cffcb0fc192"},"vehicle_type_id":"4","last_reported":1748768991,"current_range_meters":8400,"station_id":"ce4bhmh2rcd13ifvqgmg","pricing_plan_id":"cebpf4jnsgd1na2vs0mg"},{"bike_id":"79a5f6b8-3eb7-4888-b9a1-76e848c5f305","system_id":"levelo_inurba_marseille","lat":43.29542,"lon":5.39423,"is_reserved":false,"is_disabled":true,"rental_uris":{"android":"levelo://app?vid=79a5f6b8-3eb7-4888-b9a1-76e848c5f305","ios":"levelo://app?vid=79a5f6b8-3eb7-4888-b9a1-76e848c5f305"},"vehicle_type_id":"4","last_reported":1748768991,"current_range_meters":8400,"station_id":"ce4bh292rcd13ifvqdf0","pricing_plan_id":"cebpf4jnsgd1na2vs0mg"},{"bike_id":"16956ecc-ed47-44a5-bf64-7ac7c0de85fa","system_id":"levelo_inurba_marseille","lat":43.315697,"lon":5.369156,"is_reserved":false,"is_disabled":false,"rental_uris":{"android":"levelo://app?vid=16956ecc-ed47-44a5-bf64-7ac7c0de85fa","ios":"levelo://app?vid=16956ecc-ed47-44a5-bf64-7ac7c0de85fa"},"vehicle_type_id":"4","last_reported":1748768991,"current_range_meters":8400,"station_id":"","pricing_plan_id":"cebpf4jnsgd1na2vs0mg"},{"bike_id":"5153daa1-9f0d-448f-9a7d-2510905dcced","system_id":"levelo_inurba_marseille","lat":43.2706,"lon":5.40268,"is_reserved":false,"is_disabled":false,"rental_uris":{"android":"levelo://app?vid=5153daa1-9f0d-448f-9a7d-2510905dcced","ios":"levelo://app?vid=5153daa1-9f0d-448f-9a7d-2510905dcced"},"vehicle_type_id":"4","last_reported":1748768991,"current_range_meters":8800,"station_id":"ce4bhk92rcd13ifvqgc0","pricing_plan_id":"cebpf4jnsgd1na2vs0mg"},{"bike_id":"97ac0fc4-f6f5-448d-a44a-300fda446f55","system_id":"levelo_inurba_marseille","lat":43.31365,"lon":5.38493,"is_reserved":false,"is_disabled":false,"rental_uris":{"android":"levelo://app?vid=97ac0fc4-f6f5-448d-a44a-300fda446f55","ios":"levelo://app?vid=97ac0fc4-f6f5-448d-a44a-300fda446f55"},"vehicle_type_id":"4","last_reported":1748768991,"current_range_meters":8800,"station_id":"ce4bgt92rcd13ifvqcf0","pricing_plan_id":"cebpf4jnsgd1na2vs0mg"},{"bike_id":"5c227bb3-0d4c-43c4-8780-e400a236fb32","system_id":"levelo_inurba_marseille","lat":43.28419,"lon":5.34982,"is_reserved":false,"is_disabled":false,"rental_uris":{"android":"levelo://app?vid=5c227bb3-0d4c-43c4-8780-e400a236fb32","ios":"levelo://app?vid=5c227bb3-0d4c-43c4-8780-e400a236fb32"},"vehicle_type_id":"4","last_reported":1748768991,"current_range_meters":8800,"station_id":"ce4bhbh2rcd13ifvqepg","pricing_plan_id":"cebpf4jnsgd1na2vs0mg"},{"bike_id":"76a945ba-9ba8-414f-963a-73e1a106e0fc","system_id":"levelo_inurba_marseille","lat":43.26227,"lon":5.40415,"is_reserved":false,"is_disabled":false,"rental_uris":{"android":"levelo://app?vid=76a945ba-9ba8-414f-963a-73e1a106e0fc","ios":"levelo://app?vid=76a945ba-9ba8-414f-963a-73e1a106e0fc"},"vehicle_type_id":"4","last_reported":1748768991,"current_range_meters":8800,"station_id":"ce4bhmh2rcd13ifvqgmg","pricing_plan_id":"cebpf4jnsgd1na2vs0mg"},{"bike_id":"7d27568c-0d41-4ef7-9e7d-737e51630933","system_id":"levelo_inurba_marseille","lat":43.28466,"lon":5.38399,"is_reserved":false,"is_disabled":false,"rental_uris":{"android":"levelo://app?vid=7d27568c-0d41-4ef7-9e7d-737e51630933","ios":"levelo://app?vid=7d27568c-0d41-4ef7-9e7d-737e51630933"},"vehicle_type_id":"4","last_reported":1748768991,"current_range_meters":8800,"station_id":"ce4bh512rcd13ifvqe3g","pricing_plan_id":"cebpf4jnsgd1na2vs0mg"},{"bike_id":"424abc49-7098-476e-9563-b7acdbab96ad","system_id":"levelo_inurba_marseille","lat":43.2515,"lon":5.40324,"is_reserved":false,"is_disabled":false,"rental_uris":{"android":"levelo://app?vid=424abc49-7098-476e-9563-b7acdbab96ad","ios":"levelo://app?vid=424abc49-7098-476e-9563-b7acdbab96ad"},"vehicle_type_id":"4","last_reported":1748768991,"current_range_meters":9200,"station_id":"","pricing_plan_id":"cebpf4jnsgd1na2vs0mg"},{"bike_id":"ad6f47cd-8c88-4407-9927-40e17b78d68e","system_id":"levelo_inurba_marseille","lat":43.25101,"lon":5.403202,"is_reserved":false,"is_disabled":false,"rental_uris":{"android":"levelo://app?vid=ad6f47cd-8c88-4407-9927-40e17b78d68e","ios":"levelo://app?vid=ad6f47cd-8c88-4407-9927-40e17b78d68e"},"vehicle_type_id":"4","last_reported":1748768991,"current_range_meters":9200,"station_id":"ce4bhlh2rcd13ifvqgig","pricing_plan_id":"cebpf4jnsgd1na2vs0mg"},{"bike_id":"acfbab2f-8c03-44c7-8a2f-cb74efcc20a6","system_id":"levelo_inurba_marseille","lat":43.3026,"lon":5.37261,"is_reserved":false,"is_disabled":false,"rental_uris":{"android":"levelo://app?vid=acfbab2f-8c03-44c7-8a2f-cb74efcc20a6","ios":"levelo://app?vid=acfbab2f-8c03-44c7-8a2f-cb74efcc20a6"},"vehicle_type_id":"4","last_reported":1748768991,"current_range_meters":9200,"station_id":"","pricing_plan_id":"cebpf4jnsgd1na2vs0mg"},{"bike_id":"6de9fa7f-0f7c-4ede-a122-bcd1266ddc4f","system_id":"levelo_inurba_marseille","lat":43.274903,"lon":5.424609,"is_reserved":false,"is_disabled":false,"rental_uris":{"android":"levelo://app?vid=6de9fa7f-0f7c-4ede-a122-bcd1266ddc4f","ios":"levelo://app?vid=6de9fa7f-0f7c-4ede-a122-bcd1266ddc4f"},"vehicle_type_id":"4","last_reported":1748768991,"current_range_meters":9200,"station_id":"ce4bhn92rcd13ifvqgrg","pricing_plan_id":"cebpf4jnsgd1na2vs0mg"},{"bike_id":"a663fd9d-4411-4c68-9e8a-1296fe0d709d","system_id":"levelo_inurba_marseille","lat":43.260213,"lon":5.375543,"is_reserved":false,"is_disabled":false,"rental_uris":{"android":"levelo://app?vid=a663fd9d-4411-4c68-9e8a-1296fe0d709d","ios":"levelo://app?vid=a663fd9d-4411-4c68-9e8a-1296fe0d709d"},"vehicle_type_id":"4","last_reported":1748768991,"current_range_meters":9200,"station_id":"ce4bhgh2rcd13ifvqfa0","pricing_plan_id":"cebpf4jnsgd1na2vs0mg"},{"bike_id":"7f08a69a-2d5b-48e6-8e97-32333e7c1f12","system_id":"levelo_inurba_marseille","lat":43.2546,"lon":5.37539,"is_reserved":false,"is_disabled":false,"rental_uris":{"android":"levelo://app?vid=7f08a69a-2d5b-48e6-8e97-32333e7c1f12","ios":"levelo://app?vid=7f08a69a-2d5b-48e6-8e97-32333e7c1f12"},"vehicle_type_id":"4","last_reported":1748768991,"current_range_meters":9600,"station_id":"","pricing_plan_id":"cebpf4jnsgd1na2vs0mg"},{"bike_id":"b4a389d7-474d-4a9d-8dec-223a88612b5c","system_id":"levelo_inurba_marseille","lat":43.25004,"lon":5.37935,"is_reserved":false,"is_disabled":false,"rental_uris":{"android":"levelo://app?vid=b4a389d7-474d-4a9d-8dec-223a88612b5c","ios":"levelo://app?vid=b4a389d7-474d-4a9d-8dec-223a88612b5c"},"vehicle_type_id":"4","last_reported":1748768991,"current_range_meters":9600,"station_id":"","pricing_plan_id":"cebpf4jnsgd1na2vs0mg"},{"bike_id":"e6bf0c37-d2a0-4cf7-bda5-bdec7e2a1f23","system_id":"levelo_inurba_marseille","lat":43.3229,"lon":5.38269,"is_reserved":false,"is_disabled":false,"rental_uris":{"android":"levelo://app?vid=e6bf0c37-d2a0-4cf7-bda5-bdec7e2a1f23","ios":"levelo://app?vid=e6bf0c37-d2a0-4cf7-bda5-bdec7e2a1f23"},"vehicle_type_id":"4","last_reported":1748768991,"current_range_meters":9600,"station_id":"ce4bhr12rcd13ifvqhqg","pricing_plan_id":"cebpf4jnsgd1na2vs0mg"},{"bike_id":"87b0fc15-5979-44c1-a651-9b0adf59a939","system_id":"levelo_inurba_marseille","lat":43.25128,"lon":5.40314,"is_reserved":false,"is_disabled":false,"rental_uris":{"android":"levelo://app?vid=87b0fc15-5979-44c1-a651-9b0adf59a939","ios":"levelo://app?vid=87b0fc15-5979-44c1-a651-9b0adf59a939"},"vehicle_type_id":"4","last_reported":1748768991,"current_range_meters":9600,"station_id":"ce4bhlh2rcd13ifvqgig","pricing_plan_id":"cebpf4jnsgd1na2vs0mg"},{"bike_id":"d22e150b-1241-4f96-9fd8-75fddc11494e","system_id":"levelo_inurba_marseille","lat":43.29572,"lon":5.37525,"is_reserved":false,"is_disabled":false,"rental_uris":{"android":"levelo://app?vid=d22e150b-1241-4f96-9fd8-75fddc11494e","ios":"levelo://app?vid=d22e150b-1241-4f96-9fd8-75fddc11494e"},"vehicle_type_id":"4","last_reported":1748768991,"current_range_meters":9600,"station_id":"ce4bgh92rcd13ifvqb50","pricing_plan_id":"cebpf4jnsgd1na2vs0mg"},{"bike_id":"7720c79f-bbc6-41b7-8fe4-f72c2060cf53","system_id":"levelo_inurba_marseille","lat":43.23184,"lon":5.39996,"is_reserved":false,"is_disabled":false,"rental_uris":{"android":"levelo://app?vid=7720c79f-bbc6-41b7-8fe4-f72c2060cf53","ios":"levelo://app?vid=7720c79f-bbc6-41b7-8fe4-f72c2060cf53"},"vehicle_type_id":"4","last_reported":1748768991,"current_range_meters":9600,"station_id":"ce4bhn12rcd13ifvqgqg","pricing_plan_id":"cebpf4jnsgd1na2vs0mg"},{"bike_id":"d51671ee-6303-42e7-b801-1b95d056a89c","system_id":"levelo_inurba_marseille","lat":43.211935,"lon":5.350701,"is_reserved":false,"is_disabled":false,"rental_uris":{"android":"levelo://app?vid=d51671ee-6303-42e7-b801-1b95d056a89c","ios":"levelo://app?vid=d51671ee-6303-42e7-b801-1b95d056a89c"},"vehicle_type_id":"4","last_reported":1748768991,"current_range_meters":8800,"station_id":"st_cvj6sg6p6f1abm77japg","pricing_plan_id":"cebpf4jnsgd1na2vs0mg"},{"bike_id":"1cbc3454-ff5d-4ea4-b25c-b28e2bf616a9","system_id":"levelo_inurba_marseille","lat":43.251106,"lon":5.403338,"is_reserved":false,"is_disabled":false,"rental_uris":{"android":"levelo://app?vid=1cbc3454-ff5d-4ea4-b25c-b28e2bf616a9","ios":"levelo://app?vid=1cbc3454-ff5d-4ea4-b25c-b28e2bf616a9"},"vehicle_type_id":"4","last_reported":1748768991,"current_range_meters":9600,"station_id":"ce4bhlh2rcd13ifvqgig","pricing_plan_id":"cebpf4jnsgd1na2vs0mg"},{"bike_id":"0accf2fb-7186-4f60-a781-cc5337f307fa","system_id":"levelo_inurba_marseille","lat":43.25945,"lon":5.40892,"is_reserved":false,"is_disabled":false,"rental_uris":{"android":"levelo://app?vid=0accf2fb-7186-4f60-a781-cc5337f307fa","ios":"levelo://app?vid=0accf2fb-7186-4f60-a781-cc5337f307fa"},"vehicle_type_id":"4","last_reported":1748768991,"current_range_meters":9600,"station_id":"ce4bhm92rcd13ifvqglg","pricing_plan_id":"cebpf4jnsgd1na2vs0mg"},{"bike_id":"ae2c918a-d2e2-439b-aa6f-16e6722edd86","system_id":"levelo_inurba_marseille","lat":43.24333,"lon":5.380223,"is_reserved":false,"is_disabled":false,"rental_uris":{"android":"levelo://app?vid=ae2c918a-d2e2-439b-aa6f-16e6722edd86","ios":"levelo://app?vid=ae2c918a-d2e2-439b-aa6f-16e6722edd86"},"vehicle_type_id":"4","last_reported":1748768991,"current_range_meters":10000,"station_id":"","pricing_plan_id":"cebpf4jnsgd1na2vs0mg"},{"bike_id":"823a2611-9e4e-4938-83e1-63bacff8634d","system_id":"levelo_inurba_marseille","lat":43.3237,"lon":5.38872,"is_reserved":false,"is_disabled":false,"rental_uris":{"android":"levelo://app?vid=823a2611-9e4e-4938-83e1-63bacff8634d","ios":"levelo://app?vid=823a2611-9e4e-4938-83e1-63bacff8634d"},"vehicle_type_id":"4","last_reported":1748768991,"current_range_meters":10000,"station_id":"ce4bhqp2rcd13ifvqhog","pricing_plan_id":"cebpf4jnsgd1na2vs0mg"},{"bike_id":"89d08643-c2bf-40e9-a7e0-706bd3018791","system_id":"levelo_inurba_marseille","lat":43.28616,"lon":5.35104,"is_reserved":false,"is_disabled":false,"rental_uris":{"android":"levelo://app?vid=89d08643-c2bf-40e9-a7e0-706bd3018791","ios":"levelo://app?vid=89d08643-c2bf-40e9-a7e0-706bd3018791"},"vehicle_type_id":"4","last_reported":1748768991,"current_range_meters":10000,"station_id":"ce4bhch2rcd13ifvqeug","pricing_plan_id":"cebpf4jnsgd1na2vs0mg"},{"bike_id":"5e4cf6f1-c1b6-4bb0-a018-629de3512c8d","system_id":"levelo_inurba_marseille","lat":43.2417,"lon":5.39703,"is_reserved":false,"is_disabled":false,"rental_uris":{"android":"levelo://app?vid=5e4cf6f1-c1b6-4bb0-a018-629de3512c8d","ios":"levelo://app?vid=5e4cf6f1-c1b6-4bb0-a018-629de3512c8d"},"vehicle_type_id":"4","last_reported":1748768991,"current_range_meters":10000,"station_id":"ce4bhn12rcd13ifvqgpg","pricing_plan_id":"cebpf4jnsgd1na2vs0mg"},{"bike_id":"395725b1-48e3-44c2-879e-2f9d260a4d1a","system_id":"levelo_inurba_marseille","lat":43.312367,"lon":5.368685,"is_reserved":false,"is_disabled":false,"rental_uris":{"android":"levelo://app?vid=395725b1-48e3-44c2-879e-2f9d260a4d1a","ios":"levelo://app?vid=395725b1-48e3-44c2-879e-2f9d260a4d1a"},"vehicle_type_id":"4","last_reported":1748768991,"current_range_meters":10000,"station_id":"ce4bgl92rcd13ifvqbq0","pricing_plan_id":"cebpf4jnsgd1na2vs0mg"},{"bike_id":"30698ebb-2c2f-4dcf-8dbd-b595f410de1e","system_id":"levelo_inurba_marseille","lat":43.25933,"lon":5.40905,"is_reserved":false,"is_disabled":false,"rental_uris":{"android":"levelo://app?vid=30698ebb-2c2f-4dcf-8dbd-b595f410de1e","ios":"levelo://app?vid=30698ebb-2c2f-4dcf-8dbd-b595f410de1e"},"vehicle_type_id":"4","last_reported":1748768991,"current_range_meters":10000,"station_id":"ce4bhm92rcd13ifvqglg","pricing_plan_id":"cebpf4jnsgd1na2vs0mg"},{"bike_id":"f2d24b18-d214-4b88-99a9-26c99e5fd23c","system_id":"levelo_inurba_marseille","lat":43.246346,"lon":5.393244,"is_reserved":false,"is_disabled":false,"rental_uris":{"android":"levelo://app?vid=f2d24b18-d214-4b88-99a9-26c99e5fd23c","ios":"levelo://app?vid=f2d24b18-d214-4b88-99a9-26c99e5fd23c"},"vehicle_type_id":"4","last_reported":1748768991,"current_range_meters":10000,"station_id":"","pricing_plan_id":"cebpf4jnsgd1na2vs0mg"},{"bike_id":"5ef067e7-b281-4ef9-ad2a-1c6b02a54c04","system_id":"levelo_inurba_marseille","lat":43.319189,"lon":5.440465,"is_reserved":false,"is_disabled":false,"rental_uris":{"android":"levelo://app?vid=5ef067e7-b281-4ef9-ad2a-1c6b02a54c04","ios":"levelo://app?vid=5ef067e7-b281-4ef9-ad2a-1c6b02a54c04"},"vehicle_type_id":"4","last_reported":1748768991,"current_range_meters":10000,"station_id":"","pricing_plan_id":"cebpf4jnsgd1na2vs0mg"},{"bike_id":"4daa08ce-5a61-4bb9-918d-829727121f40","system_id":"levelo_inurba_marseille","lat":43.28732,"lon":5.39967,"is_reserved":false,"is_disabled":false,"rental_uris":{"android":"levelo://app?vid=4daa08ce-5a61-4bb9-918d-829727121f40","ios":"levelo://app?vid=4daa08ce-5a61-4bb9-918d-829727121f40"},"vehicle_type_id":"4","last_reported":1748768991,"current_range_meters":10000,"station_id":"ce4bho92rcd13ifvqh3g","pricing_plan_id":"cebpf4jnsgd1na2vs0mg"},{"bike_id":"f9389c2d-eb80-45a6-b0d4-b0b18b9163fd","system_id":"levelo_inurba_marseille","lat":43.30948,"lon":5.40122,"is_reserved":false,"is_disabled":false,"rental_uris":{"android":"levelo://app?vid=f9389c2d-eb80-45a6-b0d4-b0b18b9163fd","ios":"levelo://app?vid=f9389c2d-eb80-45a6-b0d4-b0b18b9163fd"},"vehicle_type_id":"4","last_reported":1748768991,"current_range_meters":10800,"station_id":"ce4bgvp2rcd13ifvqct0","pricing_plan_id":"cebpf4jnsgd1na2vs0mg"},{"bike_id":"c213034b-f9a3-48e8-9a07-6d97a3c51b73","system_id":"levelo_inurba_marseille","lat":43.25106,"lon":5.40317,"is_reserved":false,"is_disabled":false,"rental_uris":{"android":"levelo://app?vid=c213034b-f9a3-48e8-9a07-6d97a3c51b73","ios":"levelo://app?vid=c213034b-f9a3-48e8-9a07-6d97a3c51b73"},"vehicle_type_id":"4","last_reported":1748768991,"current_range_meters":10800,"station_id":"ce4bhlh2rcd13ifvqgig","pricing_plan_id":"cebpf4jnsgd1na2vs0mg"},{"bike_id":"c41c403c-ac0c-4f70-8437-6c7534f86220","system_id":"levelo_inurba_marseille","lat":43.30253,"lon":5.40054,"is_reserved":false,"is_disabled":false,"rental_uris":{"android":"levelo://app?vid=c41c403c-ac0c-4f70-8437-6c7534f86220","ios":"levelo://app?vid=c41c403c-ac0c-4f70-8437-6c7534f86220"},"vehicle_type_id":"4","last_reported":1748768991,"current_range_meters":10800,"station_id":"ce4bgvh2rcd13ifvqcs0","pricing_plan_id":"cebpf4jnsgd1na2vs0mg"},{"bike_id":"9e5c48c0-bcb6-4628-819c-7b78bfb6211d","system_id":"levelo_inurba_marseille","lat":43.32655,"lon":5.41001,"is_reserved":false,"is_disabled":false,"rental_uris":{"android":"levelo://app?vid=9e5c48c0-bcb6-4628-819c-7b78bfb6211d","ios":"levelo://app?vid=9e5c48c0-bcb6-4628-819c-7b78bfb6211d"},"vehicle_type_id":"4","last_reported":1748768991,"current_range_meters":10800,"station_id":"ce4bhpp2rcd13ifvqhgg","pricing_plan_id":"cebpf4jnsgd1na2vs0mg"},{"bike_id":"85374192-352a-46ff-825e-c281586b12e5","system_id":"levelo_inurba_marseille","lat":43.23962,"lon":5.36638,"is_reserved":false,"is_disabled":false,"rental_uris":{"android":"levelo://app?vid=85374192-352a-46ff-825e-c281586b12e5","ios":"levelo://app?vid=85374192-352a-46ff-825e-c281586b12e5"},"vehicle_type_id":"4","last_reported":1748768991,"current_range_meters":10800,"station_id":"ce4bhi12rcd13ifvqfp0","pricing_plan_id":"cebpf4jnsgd1na2vs0mg"},{"bike_id":"62b9fb40-b3b6-4001-a515-0c87ced39043","system_id":"levelo_inurba_marseille","lat":43.23967,"lon":5.36619,"is_reserved":false,"is_disabled":true,"rental_uris":{"android":"levelo://app?vid=62b9fb40-b3b6-4001-a515-0c87ced39043","ios":"levelo://app?vid=62b9fb40-b3b6-4001-a515-0c87ced39043"},"vehicle_type_id":"4","last_reported":1748768991,"current_range_meters":11200,"station_id":"ce4bhi12rcd13ifvqfp0","pricing_plan_id":"cebpf4jnsgd1na2vs0mg"},{"bike_id":"5df05316-524d-4046-90a8-d4f2dfb87ecf","system_id":"levelo_inurba_marseille","lat":43.24381,"lon":5.38019,"is_reserved":false,"is_disabled":false,"rental_uris":{"android":"levelo://app?vid=5df05316-524d-4046-90a8-d4f2dfb87ecf","ios":"levelo://app?vid=5df05316-524d-4046-90a8-d4f2dfb87ecf"},"vehicle_type_id":"4","last_reported":1748768991,"current_range_meters":11200,"station_id":"","pricing_plan_id":"cebpf4jnsgd1na2vs0mg"},{"bike_id":"d95a8927-9413-4ee6-b8dd-9b96d5af8d5e","system_id":"levelo_inurba_marseille","lat":43.28354,"lon":5.35051,"is_reserved":false,"is_disabled":false,"rental_uris":{"android":"levelo://app?vid=d95a8927-9413-4ee6-b8dd-9b96d5af8d5e","ios":"levelo://app?vid=d95a8927-9413-4ee6-b8dd-9b96d5af8d5e"},"vehicle_type_id":"4","last_reported":1748768991,"current_range_meters":11200,"station_id":"","pricing_plan_id":"cebpf4jnsgd1na2vs0mg"},{"bike_id":"87bd34e3-6b05-4e7d-8a02-686fc4cf4dd3","system_id":"levelo_inurba_marseille","lat":43.2847,"lon":5.38431,"is_reserved":false,"is_disabled":false,"rental_uris":{"android":"levelo://app?vid=87bd34e3-6b05-4e7d-8a02-686fc4cf4dd3","ios":"levelo://app?vid=87bd34e3-6b05-4e7d-8a02-686fc4cf4dd3"},"vehicle_type_id":"4","last_reported":1748768991,"current_range_meters":11200,"station_id":"ce4bh512rcd13ifvqe3g","pricing_plan_id":"cebpf4jnsgd1na2vs0mg"},{"bike_id":"e210be7e-07b8-44d3-ae09-6702f28e2ae8","system_id":"levelo_inurba_marseille","lat":43.2512,"lon":5.39347,"is_reserved":false,"is_disabled":false,"rental_uris":{"android":"levelo://app?vid=e210be7e-07b8-44d3-ae09-6702f28e2ae8","ios":"levelo://app?vid=e210be7e-07b8-44d3-ae09-6702f28e2ae8"},"vehicle_type_id":"4","last_reported":1748768991,"current_range_meters":11200,"station_id":"","pricing_plan_id":"cebpf4jnsgd1na2vs0mg"},{"bike_id":"1f987fb5-ac1b-49b2-a600-9eb715668a16","system_id":"levelo_inurba_marseille","lat":43.28433,"lon":5.37518,"is_reserved":false,"is_disabled":false,"rental_uris":{"android":"levelo://app?vid=1f987fb5-ac1b-49b2-a600-9eb715668a16","ios":"levelo://app?vid=1f987fb5-ac1b-49b2-a600-9eb715668a16"},"vehicle_type_id":"4","last_reported":1748768991,"current_range_meters":11200,"station_id":"ce4bh412rcd13ifvqds0","pricing_plan_id":"cebpf4jnsgd1na2vs0mg"},{"bike_id":"32503fa7-7208-4269-b40f-34ba3dae0f9e","system_id":"levelo_inurba_marseille","lat":43.308626,"lon":5.403674,"is_reserved":false,"is_disabled":false,"rental_uris":{"android":"levelo://app?vid=32503fa7-7208-4269-b40f-34ba3dae0f9e","ios":"levelo://app?vid=32503fa7-7208-4269-b40f-34ba3dae0f9e"},"vehicle_type_id":"4","last_reported":1748768991,"current_range_meters":11600,"station_id":"","pricing_plan_id":"cebpf4jnsgd1na2vs0mg"},{"bike_id":"5367baee-bb3e-48e1-a26a-353fe71ec5dd","system_id":"levelo_inurba_marseille","lat":43.28481,"lon":5.38425,"is_reserved":false,"is_disabled":false,"rental_uris":{"android":"levelo://app?vid=5367baee-bb3e-48e1-a26a-353fe71ec5dd","ios":"levelo://app?vid=5367baee-bb3e-48e1-a26a-353fe71ec5dd"},"vehicle_type_id":"4","last_reported":1748768991,"current_range_meters":11600,"station_id":"ce4bh512rcd13ifvqe3g","pricing_plan_id":"cebpf4jnsgd1na2vs0mg"},{"bike_id":"f8d6271e-8143-4c0a-a2b0-f0ef9bd8dfab","system_id":"levelo_inurba_marseille","lat":43.27507,"lon":5.42462,"is_reserved":false,"is_disabled":false,"rental_uris":{"android":"levelo://app?vid=f8d6271e-8143-4c0a-a2b0-f0ef9bd8dfab","ios":"levelo://app?vid=f8d6271e-8143-4c0a-a2b0-f0ef9bd8dfab"},"vehicle_type_id":"4","last_reported":1748768991,"current_range_meters":11600,"station_id":"ce4bhn92rcd13ifvqgrg","pricing_plan_id":"cebpf4jnsgd1na2vs0mg"},{"bike_id":"d449cc1d-4391-4016-8c94-f6774be1d7eb","system_id":"levelo_inurba_marseille","lat":43.31704,"lon":5.40459,"is_reserved":false,"is_disabled":false,"rental_uris":{"android":"levelo://app?vid=d449cc1d-4391-4016-8c94-f6774be1d7eb","ios":"levelo://app?vid=d449cc1d-4391-4016-8c94-f6774be1d7eb"},"vehicle_type_id":"4","last_reported":1748768991,"current_range_meters":11600,"station_id":"ce4bh012rcd13ifvqd00","pricing_plan_id":"cebpf4jnsgd1na2vs0mg"},{"bike_id":"4020df04-632b-4ee7-9c6c-7254b0c7be04","system_id":"levelo_inurba_marseille","lat":43.32336,"lon":5.40612,"is_reserved":false,"is_disabled":false,"rental_uris":{"android":"levelo://app?vid=4020df04-632b-4ee7-9c6c-7254b0c7be04","ios":"levelo://app?vid=4020df04-632b-4ee7-9c6c-7254b0c7be04"},"vehicle_type_id":"4","last_reported":1748768991,"current_range_meters":11600,"station_id":"ce4bhq92rcd13ifvqhjg","pricing_plan_id":"cebpf4jnsgd1na2vs0mg"},{"bike_id":"2190c100-2a90-4ba0-b080-a3cd68c5f6d8","system_id":"levelo_inurba_marseille","lat":43.29763,"lon":5.46002,"is_reserved":false,"is_disabled":false,"rental_uris":{"android":"levelo://app?vid=2190c100-2a90-4ba0-b080-a3cd68c5f6d8","ios":"levelo://app?vid=2190c100-2a90-4ba0-b080-a3cd68c5f6d8"},"vehicle_type_id":"4","last_reported":1748768991,"current_range_meters":11600,"station_id":"","pricing_plan_id":"cebpf4jnsgd1na2vs0mg"},{"bike_id":"e6de9a5b-4f39-4653-a575-2a50cf1b60dc","system_id":"levelo_inurba_marseille","lat":43.27321,"lon":5.39089,"is_reserved":false,"is_disabled":false,"rental_uris":{"android":"levelo://app?vid=e6de9a5b-4f39-4653-a575-2a50cf1b60dc","ios":"levelo://app?vid=e6de9a5b-4f39-4653-a575-2a50cf1b60dc"},"vehicle_type_id":"4","last_reported":1748768991,"current_range_meters":11600,"station_id":"ce4bhgp2rcd13ifvqfe0","pricing_plan_id":"cebpf4jnsgd1na2vs0mg"},{"bike_id":"9a189ee8-27ed-444b-b171-f705371af28f","system_id":"levelo_inurba_marseille","lat":43.28257,"lon":5.34909,"is_reserved":false,"is_disabled":false,"rental_uris":{"android":"levelo://app?vid=9a189ee8-27ed-444b-b171-f705371af28f","ios":"levelo://app?vid=9a189ee8-27ed-444b-b171-f705371af28f"},"vehicle_type_id":"4","last_reported":1748768991,"current_range_meters":12000,"station_id":"","pricing_plan_id":"cebpf4jnsgd1na2vs0mg"},{"bike_id":"c2f4feb8-42b5-42b5-9ed4-3cf882559179","system_id":"levelo_inurba_marseille","lat":43.29819,"lon":5.37423,"is_reserved":false,"is_disabled":false,"rental_uris":{"android":"levelo://app?vid=c2f4feb8-42b5-42b5-9ed4-3cf882559179","ios":"levelo://app?vid=c2f4feb8-42b5-42b5-9ed4-3cf882559179"},"vehicle_type_id":"4","last_reported":1748768991,"current_range_meters":12000,"station_id":"","pricing_plan_id":"cebpf4jnsgd1na2vs0mg"},{"bike_id":"21ff3fb6-d282-4e8f-8c65-749c73573e4b","system_id":"levelo_inurba_marseille","lat":43.3374,"lon":5.39191,"is_reserved":false,"is_disabled":false,"rental_uris":{"android":"levelo://app?vid=21ff3fb6-d282-4e8f-8c65-749c73573e4b","ios":"levelo://app?vid=21ff3fb6-d282-4e8f-8c65-749c73573e4b"},"vehicle_type_id":"4","last_reported":1748768991,"current_range_meters":12000,"station_id":"ce4bhr92rcd13ifvqhsg","pricing_plan_id":"cebpf4jnsgd1na2vs0mg"},{"bike_id":"ef3005a9-a42f-43de-b335-9c5d283288bd","system_id":"levelo_inurba_marseille","lat":43.23198,"lon":5.35554,"is_reserved":false,"is_disabled":false,"rental_uris":{"android":"levelo://app?vid=ef3005a9-a42f-43de-b335-9c5d283288bd","ios":"levelo://app?vid=ef3005a9-a42f-43de-b335-9c5d283288bd"},"vehicle_type_id":"4","last_reported":1748768991,"current_range_meters":12000,"station_id":"ce4bhu92rcd13ifvqi70","pricing_plan_id":"cebpf4jnsgd1na2vs0mg"},{"bike_id":"19acb86c-d41f-4c99-95c0-a1f69c0413f6","system_id":"levelo_inurba_marseille","lat":43.25119,"lon":5.40303,"is_reserved":false,"is_disabled":false,"rental_uris":{"android":"levelo://app?vid=19acb86c-d41f-4c99-95c0-a1f69c0413f6","ios":"levelo://app?vid=19acb86c-d41f-4c99-95c0-a1f69c0413f6"},"vehicle_type_id":"4","last_reported":1748768991,"current_range_meters":12000,"station_id":"ce4bhlh2rcd13ifvqgig","pricing_plan_id":"cebpf4jnsgd1na2vs0mg"},{"bike_id":"a97d7dd6-d54b-4f53-bc7b-aebfa8e74ac5","system_id":"levelo_inurba_marseille","lat":43.2318,"lon":5.39992,"is_reserved":false,"is_disabled":false,"rental_uris":{"android":"levelo://app?vid=a97d7dd6-d54b-4f53-bc7b-aebfa8e74ac5","ios":"levelo://app?vid=a97d7dd6-d54b-4f53-bc7b-aebfa8e74ac5"},"vehicle_type_id":"4","last_reported":1748768991,"current_range_meters":12400,"station_id":"ce4bhn12rcd13ifvqgqg","pricing_plan_id":"cebpf4jnsgd1na2vs0mg"},{"bike_id":"bf2309e8-5367-458a-a6dc-8b24de3dfdab","system_id":"levelo_inurba_marseille","lat":43.28605,"lon":5.35057,"is_reserved":false,"is_disabled":false,"rental_uris":{"android":"levelo://app?vid=bf2309e8-5367-458a-a6dc-8b24de3dfdab","ios":"levelo://app?vid=bf2309e8-5367-458a-a6dc-8b24de3dfdab"},"vehicle_type_id":"4","last_reported":1748768991,"current_range_meters":12400,"station_id":"ce4bhch2rcd13ifvqeug","pricing_plan_id":"cebpf4jnsgd1na2vs0mg"},{"bike_id":"84e94b65-0704-41b9-b45c-33b81545a7c4","system_id":"levelo_inurba_marseille","lat":43.303104,"lon":5.369201,"is_reserved":false,"is_disabled":true,"rental_uris":{"android":"levelo://app?vid=84e94b65-0704-41b9-b45c-33b81545a7c4","ios":"levelo://app?vid=84e94b65-0704-41b9-b45c-33b81545a7c4"},"vehicle_type_id":"4","last_reported":1748768991,"current_range_meters":12400,"station_id":"ce4bgqh2rcd13ifvqc5g","pricing_plan_id":"cebpf4jnsgd1na2vs0mg"},{"bike_id":"f5a90625-b7e8-48a8-90c6-777efe255a32","system_id":"levelo_inurba_marseille","lat":43.25117,"lon":5.40939,"is_reserved":false,"is_disabled":false,"rental_uris":{"android":"levelo://app?vid=f5a90625-b7e8-48a8-90c6-777efe255a32","ios":"levelo://app?vid=f5a90625-b7e8-48a8-90c6-777efe255a32"},"vehicle_type_id":"4","last_reported":1748768991,"current_range_meters":12800,"station_id":"","pricing_plan_id":"cebpf4jnsgd1na2vs0mg"},{"bike_id":"faaee13d-efcd-4109-8952-7a649c22b25b","system_id":"levelo_inurba_marseille","lat":43.28283,"lon":5.35037,"is_reserved":false,"is_disabled":false,"rental_uris":{"android":"levelo://app?vid=faaee13d-efcd-4109-8952-7a649c22b25b","ios":"levelo://app?vid=faaee13d-efcd-4109-8952-7a649c22b25b"},"vehicle_type_id":"4","last_reported":1748768991,"current_range_meters":12800,"station_id":"ce4bhbp2rcd13ifvqerg","pricing_plan_id":"cebpf4jnsgd1na2vs0mg"},{"bike_id":"ac08a224-e278-4da8-b823-4e8d52ac1e4b","system_id":"levelo_inurba_marseille","lat":43.232,"lon":5.39985,"is_reserved":false,"is_disabled":false,"rental_uris":{"android":"levelo://app?vid=ac08a224-e278-4da8-b823-4e8d52ac1e4b","ios":"levelo://app?vid=ac08a224-e278-4da8-b823-4e8d52ac1e4b"},"vehicle_type_id":"4","last_reported":1748768991,"current_range_meters":13600,"station_id":"ce4bhn12rcd13ifvqgqg","pricing_plan_id":"cebpf4jnsgd1na2vs0mg"},{"bike_id":"2eda5c82-e795-4bf3-a936-8e6b287768bb","system_id":"levelo_inurba_marseille","lat":43.2759,"lon":5.37798,"is_reserved":false,"is_disabled":false,"rental_uris":{"android":"levelo://app?vid=2eda5c82-e795-4bf3-a936-8e6b287768bb","ios":"levelo://app?vid=2eda5c82-e795-4bf3-a936-8e6b287768bb"},"vehicle_type_id":"4","last_reported":1748768991,"current_range_meters":13600,"station_id":"","pricing_plan_id":"cebpf4jnsgd1na2vs0mg"},{"bike_id":"8d0dc2bd-d579-4174-be71-d7fd28c50439","system_id":"levelo_inurba_marseille","lat":43.28619,"lon":5.35089,"is_reserved":false,"is_disabled":false,"rental_uris":{"android":"levelo://app?vid=8d0dc2bd-d579-4174-be71-d7fd28c50439","ios":"levelo://app?vid=8d0dc2bd-d579-4174-be71-d7fd28c50439"},"vehicle_type_id":"4","last_reported":1748768991,"current_range_meters":13600,"station_id":"ce4bhch2rcd13ifvqeug","pricing_plan_id":"cebpf4jnsgd1na2vs0mg"},{"bike_id":"52138315-f13b-4871-ab78-9e5155a1008c","system_id":"levelo_inurba_marseille","lat":43.32284,"lon":5.38262,"is_reserved":false,"is_disabled":false,"rental_uris":{"android":"levelo://app?vid=52138315-f13b-4871-ab78-9e5155a1008c","ios":"levelo://app?vid=52138315-f13b-4871-ab78-9e5155a1008c"},"vehicle_type_id":"4","last_reported":1748768991,"current_range_meters":13600,"station_id":"ce4bhr12rcd13ifvqhqg","pricing_plan_id":"cebpf4jnsgd1na2vs0mg"},{"bike_id":"3c714906-76f2-42cc-b185-ab332f5426c2","system_id":"levelo_inurba_marseille","lat":43.23035,"lon":5.40184,"is_reserved":false,"is_disabled":false,"rental_uris":{"android":"levelo://app?vid=3c714906-76f2-42cc-b185-ab332f5426c2","ios":"levelo://app?vid=3c714906-76f2-42cc-b185-ab332f5426c2"},"vehicle_type_id":"4","last_reported":1748768991,"current_range_meters":13600,"station_id":"","pricing_plan_id":"cebpf4jnsgd1na2vs0mg"},{"bike_id":"76f771a0-d27e-462d-a1fe-7bd311768559","system_id":"levelo_inurba_marseille","lat":43.28413,"lon":5.34979,"is_reserved":false,"is_disabled":true,"rental_uris":{"android":"levelo://app?vid=76f771a0-d27e-462d-a1fe-7bd311768559","ios":"levelo://app?vid=76f771a0-d27e-462d-a1fe-7bd311768559"},"vehicle_type_id":"4","last_reported":1748768991,"current_range_meters":13600,"station_id":"ce4bhbh2rcd13ifvqepg","pricing_plan_id":"cebpf4jnsgd1na2vs0mg"},{"bike_id":"3d43f809-d317-4bad-b40e-2cb777aad9e4","system_id":"levelo_inurba_marseille","lat":43.211929,"lon":5.350713,"is_reserved":false,"is_disabled":false,"rental_uris":{"android":"levelo://app?vid=3d43f809-d317-4bad-b40e-2cb777aad9e4","ios":"levelo://app?vid=3d43f809-d317-4bad-b40e-2cb777aad9e4"},"vehicle_type_id":"4","last_reported":1748768991,"current_range_meters":13600,"station_id":"st_cvj6sg6p6f1abm77japg","pricing_plan_id":"cebpf4jnsgd1na2vs0mg"},{"bike_id":"d1c4b609-d8f6-4720-9f4e-1255d9197b0e","system_id":"levelo_inurba_marseille","lat":43.24167,"lon":5.36406,"is_reserved":false,"is_disabled":false,"rental_uris":{"android":"levelo://app?vid=d1c4b609-d8f6-4720-9f4e-1255d9197b0e","ios":"levelo://app?vid=d1c4b609-d8f6-4720-9f4e-1255d9197b0e"},"vehicle_type_id":"4","last_reported":1748768991,"current_range_meters":14000,"station_id":"cpo36qri1sfpv3e86is0","pricing_plan_id":"cebpf4jnsgd1na2vs0mg"},{"bike_id":"77520d45-03bf-4b26-9f9b-8ac6c162ce6b","system_id":"levelo_inurba_marseille","lat":43.243622,"lon":5.411369,"is_reserved":false,"is_disabled":false,"rental_uris":{"android":"levelo://app?vid=77520d45-03bf-4b26-9f9b-8ac6c162ce6b","ios":"levelo://app?vid=77520d45-03bf-4b26-9f9b-8ac6c162ce6b"},"vehicle_type_id":"4","last_reported":1748768991,"current_range_meters":14000,"station_id":"","pricing_plan_id":"cebpf4jnsgd1na2vs0mg"},{"bike_id":"c6389d0a-bd2b-4d16-a883-90c1bbfbbbaa","system_id":"levelo_inurba_marseille","lat":43.26574,"lon":5.38999,"is_reserved":false,"is_disabled":false,"rental_uris":{"android":"levelo://app?vid=c6389d0a-bd2b-4d16-a883-90c1bbfbbbaa","ios":"levelo://app?vid=c6389d0a-bd2b-4d16-a883-90c1bbfbbbaa"},"vehicle_type_id":"4","last_reported":1748768991,"current_range_meters":14000,"station_id":"ce4bhe12rcd13ifvqf30","pricing_plan_id":"cebpf4jnsgd1na2vs0mg"},{"bike_id":"d787cfdb-50c2-451d-8448-0eff07939f1e","system_id":"levelo_inurba_marseille","lat":43.23155,"lon":5.4368,"is_reserved":false,"is_disabled":true,"rental_uris":{"android":"levelo://app?vid=d787cfdb-50c2-451d-8448-0eff07939f1e","ios":"levelo://app?vid=d787cfdb-50c2-451d-8448-0eff07939f1e"},"vehicle_type_id":"4","last_reported":1748768991,"current_range_meters":14400,"station_id":"ce4bhmp2rcd13ifvqgog","pricing_plan_id":"cebpf4jnsgd1na2vs0mg"},{"bike_id":"c0b307e2-f759-4feb-a351-9c4251bc7010","system_id":"levelo_inurba_marseille","lat":43.31323,"lon":5.39691,"is_reserved":false,"is_disabled":false,"rental_uris":{"android":"levelo://app?vid=c0b307e2-f759-4feb-a351-9c4251bc7010","ios":"levelo://app?vid=c0b307e2-f759-4feb-a351-9c4251bc7010"},"vehicle_type_id":"4","last_reported":1748768991,"current_range_meters":14400,"station_id":"ce4bgvp2rcd13ifvqcu0","pricing_plan_id":"cebpf4jnsgd1na2vs0mg"},{"bike_id":"7c5ff37d-4f19-4dbf-9d0b-2415859e89fd","system_id":"levelo_inurba_marseille","lat":43.29221,"lon":5.36064,"is_reserved":false,"is_disabled":false,"rental_uris":{"android":"levelo://app?vid=7c5ff37d-4f19-4dbf-9d0b-2415859e89fd","ios":"levelo://app?vid=7c5ff37d-4f19-4dbf-9d0b-2415859e89fd"},"vehicle_type_id":"4","last_reported":1748768991,"current_range_meters":14400,"station_id":"ce4bhbh2rcd13ifvqeqg","pricing_plan_id":"cebpf4jnsgd1na2vs0mg"},{"bike_id":"ef35ac5d-b05c-46f9-b672-c40e72beb034","system_id":"levelo_inurba_marseille","lat":43.27492,"lon":5.42441,"is_reserved":false,"is_disabled":false,"rental_uris":{"android":"levelo://app?vid=ef35ac5d-b05c-46f9-b672-c40e72beb034","ios":"levelo://app?vid=ef35ac5d-b05c-46f9-b672-c40e72beb034"},"vehicle_type_id":"4","last_reported":1748768991,"current_range_meters":14400,"station_id":"ce4bhn92rcd13ifvqgrg","pricing_plan_id":"cebpf4jnsgd1na2vs0mg"},{"bike_id":"ac16ac60-697c-4ed1-9c70-9fea8014fe0b","system_id":"levelo_inurba_marseille","lat":43.29261,"lon":5.401383,"is_reserved":false,"is_disabled":false,"rental_uris":{"android":"levelo://app?vid=ac16ac60-697c-4ed1-9c70-9fea8014fe0b","ios":"levelo://app?vid=ac16ac60-697c-4ed1-9c70-9fea8014fe0b"},"vehicle_type_id":"4","last_reported":1748768991,"current_range_meters":14400,"station_id":"ce4bh312rcd13ifvqdk0","pricing_plan_id":"cebpf4jnsgd1na2vs0mg"},{"bike_id":"5344a6f7-f2b1-43fb-956c-32a014cd9682","system_id":"levelo_inurba_marseille","lat":43.29415,"lon":5.38648,"is_reserved":false,"is_disabled":true,"rental_uris":{"android":"levelo://app?vid=5344a6f7-f2b1-43fb-956c-32a014cd9682","ios":"levelo://app?vid=5344a6f7-f2b1-43fb-956c-32a014cd9682"},"vehicle_type_id":"4","last_reported":1748768991,"current_range_meters":14400,"station_id":"ce4bh2h2rcd13ifvqdh0","pricing_plan_id":"cebpf4jnsgd1na2vs0mg"},{"bike_id":"bfc6dce9-77ca-4235-96b6-63b5fbc4d6e2","system_id":"levelo_inurba_marseille","lat":43.33643,"lon":5.38523,"is_reserved":false,"is_disabled":false,"rental_uris":{"android":"levelo://app?vid=bfc6dce9-77ca-4235-96b6-63b5fbc4d6e2","ios":"levelo://app?vid=bfc6dce9-77ca-4235-96b6-63b5fbc4d6e2"},"vehicle_type_id":"4","last_reported":1748768991,"current_range_meters":14800,"station_id":"","pricing_plan_id":"cebpf4jnsgd1na2vs0mg"},{"bike_id":"2970a54b-642c-49a6-b2cf-3db9b4bf6311","system_id":"levelo_inurba_marseille","lat":43.28705,"lon":5.374,"is_reserved":false,"is_disabled":false,"rental_uris":{"android":"levelo://app?vid=2970a54b-642c-49a6-b2cf-3db9b4bf6311","ios":"levelo://app?vid=2970a54b-642c-49a6-b2cf-3db9b4bf6311"},"vehicle_type_id":"4","last_reported":1748768991,"current_range_meters":14800,"station_id":"ce4bh3p2rcd13ifvqdq0","pricing_plan_id":"cebpf4jnsgd1na2vs0mg"},{"bike_id":"947823a9-6dc0-45c2-aff3-f9fb53bc49fb","system_id":"levelo_inurba_marseille","lat":43.26209,"lon":5.37442,"is_reserved":false,"is_disabled":false,"rental_uris":{"android":"levelo://app?vid=947823a9-6dc0-45c2-aff3-f9fb53bc49fb","ios":"levelo://app?vid=947823a9-6dc0-45c2-aff3-f9fb53bc49fb"},"vehicle_type_id":"4","last_reported":1748768991,"current_range_meters":14800,"station_id":"ce4bhgp2rcd13ifvqfc0","pricing_plan_id":"cebpf4jnsgd1na2vs0mg"},{"bike_id":"54c3128d-720d-47ff-b7ac-bc29f1f74f4f","system_id":"levelo_inurba_marseille","lat":43.315004,"lon":5.372973,"is_reserved":false,"is_disabled":false,"rental_uris":{"android":"levelo://app?vid=54c3128d-720d-47ff-b7ac-bc29f1f74f4f","ios":"levelo://app?vid=54c3128d-720d-47ff-b7ac-bc29f1f74f4f"},"vehicle_type_id":"4","last_reported":1748768991,"current_range_meters":14800,"station_id":"ce4bgt12rcd13ifvqcd0","pricing_plan_id":"cebpf4jnsgd1na2vs0mg"},{"bike_id":"8f8d1470-9bfc-4b14-b2b8-57a2b1273776","system_id":"levelo_inurba_marseille","lat":43.21195,"lon":5.35051,"is_reserved":false,"is_disabled":false,"rental_uris":{"android":"levelo://app?vid=8f8d1470-9bfc-4b14-b2b8-57a2b1273776","ios":"levelo://app?vid=8f8d1470-9bfc-4b14-b2b8-57a2b1273776"},"vehicle_type_id":"4","last_reported":1748768991,"current_range_meters":14800,"station_id":"","pricing_plan_id":"cebpf4jnsgd1na2vs0mg"},{"bike_id":"2e2ab3f7-acf1-4566-b771-345e3af3723b","system_id":"levelo_inurba_marseille","lat":43.28274,"lon":5.35058,"is_reserved":false,"is_disabled":false,"rental_uris":{"android":"levelo://app?vid=2e2ab3f7-acf1-4566-b771-345e3af3723b","ios":"levelo://app?vid=2e2ab3f7-acf1-4566-b771-345e3af3723b"},"vehicle_type_id":"4","last_reported":1748768991,"current_range_meters":14800,"station_id":"ce4bhbp2rcd13ifvqerg","pricing_plan_id":"cebpf4jnsgd1na2vs0mg"},{"bike_id":"ce44a7bf-c10b-4a61-b405-d5b8caf440c2","system_id":"levelo_inurba_marseille","lat":43.23153,"lon":5.43713,"is_reserved":false,"is_disabled":false,"rental_uris":{"android":"levelo://app?vid=ce44a7bf-c10b-4a61-b405-d5b8caf440c2","ios":"levelo://app?vid=ce44a7bf-c10b-4a61-b405-d5b8caf440c2"},"vehicle_type_id":"4","last_reported":1748768991,"current_range_meters":14800,"station_id":"ce4bhmp2rcd13ifvqgog","pricing_plan_id":"cebpf4jnsgd1na2vs0mg"},{"bike_id":"0e5817e7-2532-424e-9e9c-9768af9de8a9","system_id":"levelo_inurba_marseille","lat":43.231914,"lon":5.399819,"is_reserved":false,"is_disabled":false,"rental_uris":{"android":"levelo://app?vid=0e5817e7-2532-424e-9e9c-9768af9de8a9","ios":"levelo://app?vid=0e5817e7-2532-424e-9e9c-9768af9de8a9"},"vehicle_type_id":"4","last_reported":1748768991,"current_range_meters":15200,"station_id":"ce4bhn12rcd13ifvqgqg","pricing_plan_id":"cebpf4jnsgd1na2vs0mg"},{"bike_id":"eba1de49-a718-4496-abd4-05d97ed4dac3","system_id":"levelo_inurba_marseille","lat":43.29934,"lon":5.36557,"is_reserved":false,"is_disabled":false,"rental_uris":{"android":"levelo://app?vid=eba1de49-a718-4496-abd4-05d97ed4dac3","ios":"levelo://app?vid=eba1de49-a718-4496-abd4-05d97ed4dac3"},"vehicle_type_id":"4","last_reported":1748768991,"current_range_meters":15200,"station_id":"ce4bgm92rcd13ifvqbr0","pricing_plan_id":"cebpf4jnsgd1na2vs0mg"},{"bike_id":"b5806e8c-065c-41e5-8415-4e8c05eadebe","system_id":"levelo_inurba_marseille","lat":43.29229,"lon":5.36042,"is_reserved":false,"is_disabled":true,"rental_uris":{"android":"levelo://app?vid=b5806e8c-065c-41e5-8415-4e8c05eadebe","ios":"levelo://app?vid=b5806e8c-065c-41e5-8415-4e8c05eadebe"},"vehicle_type_id":"4","last_reported":1748768991,"current_range_meters":15200,"station_id":"ce4bhbh2rcd13ifvqeqg","pricing_plan_id":"cebpf4jnsgd1na2vs0mg"},{"bike_id":"333bdfb5-fcca-48ea-9fbe-dc86a618bdec","system_id":"levelo_inurba_marseille","lat":43.27377,"lon":5.36255,"is_reserved":false,"is_disabled":false,"rental_uris":{"android":"levelo://app?vid=333bdfb5-fcca-48ea-9fbe-dc86a618bdec","ios":"levelo://app?vid=333bdfb5-fcca-48ea-9fbe-dc86a618bdec"},"vehicle_type_id":"4","last_reported":1748768991,"current_range_meters":15200,"station_id":"ce4bhbh2rcd13ifvqeo0","pricing_plan_id":"cebpf4jnsgd1na2vs0mg"},{"bike_id":"9d166f89-4853-4abc-9129-61b3862b6ac8","system_id":"levelo_inurba_marseille","lat":43.28412,"lon":5.34973,"is_reserved":false,"is_disabled":false,"rental_uris":{"android":"levelo://app?vid=9d166f89-4853-4abc-9129-61b3862b6ac8","ios":"levelo://app?vid=9d166f89-4853-4abc-9129-61b3862b6ac8"},"vehicle_type_id":"4","last_reported":1748768991,"current_range_meters":16000,"station_id":"ce4bhbh2rcd13ifvqepg","pricing_plan_id":"cebpf4jnsgd1na2vs0mg"},{"bike_id":"6327a378-f239-4ddf-aa21-15250eb706bc","system_id":"levelo_inurba_marseille","lat":43.28622,"lon":5.351,"is_reserved":false,"is_disabled":false,"rental_uris":{"android":"levelo://app?vid=6327a378-f239-4ddf-aa21-15250eb706bc","ios":"levelo://app?vid=6327a378-f239-4ddf-aa21-15250eb706bc"},"vehicle_type_id":"4","last_reported":1748768991,"current_range_meters":16000,"station_id":"ce4bhch2rcd13ifvqeug","pricing_plan_id":"cebpf4jnsgd1na2vs0mg"},{"bike_id":"a863b8e4-3636-439d-8e68-9e00be284497","system_id":"levelo_inurba_marseille","lat":43.317217,"lon":5.43713,"is_reserved":false,"is_disabled":false,"rental_uris":{"android":"levelo://app?vid=a863b8e4-3636-439d-8e68-9e00be284497","ios":"levelo://app?vid=a863b8e4-3636-439d-8e68-9e00be284497"},"vehicle_type_id":"4","last_reported":1748768991,"current_range_meters":16000,"station_id":"ce4bhp92rcd13ifvqhcg","pricing_plan_id":"cebpf4jnsgd1na2vs0mg"},{"bike_id":"6194bd11-cbbb-4e68-a441-7b6e267c9cf8","system_id":"levelo_inurba_marseille","lat":43.263067,"lon":5.375815,"is_reserved":false,"is_disabled":false,"rental_uris":{"android":"levelo://app?vid=6194bd11-cbbb-4e68-a441-7b6e267c9cf8","ios":"levelo://app?vid=6194bd11-cbbb-4e68-a441-7b6e267c9cf8"},"vehicle_type_id":"4","last_reported":1748768991,"current_range_meters":16000,"station_id":"","pricing_plan_id":"cebpf4jnsgd1na2vs0mg"},{"bike_id":"56a82e03-2118-4920-8b59-3795928c0c5d","system_id":"levelo_inurba_marseille","lat":43.27827,"lon":5.40727,"is_reserved":false,"is_disabled":false,"rental_uris":{"android":"levelo://app?vid=56a82e03-2118-4920-8b59-3795928c0c5d","ios":"levelo://app?vid=56a82e03-2118-4920-8b59-3795928c0c5d"},"vehicle_type_id":"4","last_reported":1748768991,"current_range_meters":16000,"station_id":"ce4bhnh2rcd13ifvqgtg","pricing_plan_id":"cebpf4jnsgd1na2vs0mg"},{"bike_id":"c7939822-b6b3-4548-8559-c67fdcf79521","system_id":"levelo_inurba_marseille","lat":43.30126,"lon":5.39885,"is_reserved":false,"is_disabled":false,"rental_uris":{"android":"levelo://app?vid=c7939822-b6b3-4548-8559-c67fdcf79521","ios":"levelo://app?vid=c7939822-b6b3-4548-8559-c67fdcf79521"},"vehicle_type_id":"4","last_reported":1748768991,"current_range_meters":16000,"station_id":"ce4bh0h2rcd13ifvqd40","pricing_plan_id":"cebpf4jnsgd1na2vs0mg"},{"bike_id":"c2429b28-c4ab-4c5a-952b-4656120c21b2","system_id":"levelo_inurba_marseille","lat":43.3169,"lon":5.40446,"is_reserved":false,"is_disabled":false,"rental_uris":{"android":"levelo://app?vid=c2429b28-c4ab-4c5a-952b-4656120c21b2","ios":"levelo://app?vid=c2429b28-c4ab-4c5a-952b-4656120c21b2"},"vehicle_type_id":"4","last_reported":1748768991,"current_range_meters":16400,"station_id":"ce4bh012rcd13ifvqd00","pricing_plan_id":"cebpf4jnsgd1na2vs0mg"},{"bike_id":"2b06cee9-4100-49f3-bf12-1beaaa67e305","system_id":"levelo_inurba_marseille","lat":43.31093,"lon":5.42431,"is_reserved":false,"is_disabled":false,"rental_uris":{"android":"levelo://app?vid=2b06cee9-4100-49f3-bf12-1beaaa67e305","ios":"levelo://app?vid=2b06cee9-4100-49f3-bf12-1beaaa67e305"},"vehicle_type_id":"4","last_reported":1748768991,"current_range_meters":16400,"station_id":"ce4bhp92rcd13ifvqhag","pricing_plan_id":"cebpf4jnsgd1na2vs0mg"},{"bike_id":"97a58472-f76b-47e3-a716-281b120ccffa","system_id":"levelo_inurba_marseille","lat":43.27924,"lon":5.39559,"is_reserved":false,"is_disabled":true,"rental_uris":{"android":"levelo://app?vid=97a58472-f76b-47e3-a716-281b120ccffa","ios":"levelo://app?vid=97a58472-f76b-47e3-a716-281b120ccffa"},"vehicle_type_id":"4","last_reported":1748768991,"current_range_meters":16400,"station_id":"ce4bhf92rcd13ifvqf40","pricing_plan_id":"cebpf4jnsgd1na2vs0mg"},{"bike_id":"3135d829-6363-42a4-bdfc-7b782c3c708e","system_id":"levelo_inurba_marseille","lat":43.28659,"lon":5.36347,"is_reserved":false,"is_disabled":true,"rental_uris":{"android":"levelo://app?vid=3135d829-6363-42a4-bdfc-7b782c3c708e","ios":"levelo://app?vid=3135d829-6363-42a4-bdfc-7b782c3c708e"},"vehicle_type_id":"4","last_reported":1748768991,"current_range_meters":16400,"station_id":"ce4bhah2rcd13ifvqej0","pricing_plan_id":"cebpf4jnsgd1na2vs0mg"},{"bike_id":"ebee0f67-7511-4815-9dee-441ef33f2f9f","system_id":"levelo_inurba_marseille","lat":43.23206,"lon":5.40001,"is_reserved":false,"is_disabled":false,"rental_uris":{"android":"levelo://app?vid=ebee0f67-7511-4815-9dee-441ef33f2f9f","ios":"levelo://app?vid=ebee0f67-7511-4815-9dee-441ef33f2f9f"},"vehicle_type_id":"4","last_reported":1748768991,"current_range_meters":16400,"station_id":"ce4bhn12rcd13ifvqgqg","pricing_plan_id":"cebpf4jnsgd1na2vs0mg"},{"bike_id":"7ab94cd2-b39d-4fc9-b9f5-ca04f27bf79a","system_id":"levelo_inurba_marseille","lat":43.30866,"lon":5.39821,"is_reserved":false,"is_disabled":false,"rental_uris":{"android":"levelo://app?vid=7ab94cd2-b39d-4fc9-b9f5-ca04f27bf79a","ios":"levelo://app?vid=7ab94cd2-b39d-4fc9-b9f5-ca04f27bf79a"},"vehicle_type_id":"4","last_reported":1748768991,"current_range_meters":16800,"station_id":"","pricing_plan_id":"cebpf4jnsgd1na2vs0mg"},{"bike_id":"d698a491-2f13-4a4d-ada2-0f302f8e678a","system_id":"levelo_inurba_marseille","lat":43.28613,"lon":5.35107,"is_reserved":false,"is_disabled":false,"rental_uris":{"android":"levelo://app?vid=d698a491-2f13-4a4d-ada2-0f302f8e678a","ios":"levelo://app?vid=d698a491-2f13-4a4d-ada2-0f302f8e678a"},"vehicle_type_id":"4","last_reported":1748768991,"current_range_meters":16800,"station_id":"ce4bhch2rcd13ifvqeug","pricing_plan_id":"cebpf4jnsgd1na2vs0mg"},{"bike_id":"961987d2-ea39-4440-8303-26ff9a097ed5","system_id":"levelo_inurba_marseille","lat":43.29629,"lon":5.40615,"is_reserved":false,"is_disabled":false,"rental_uris":{"android":"levelo://app?vid=961987d2-ea39-4440-8303-26ff9a097ed5","ios":"levelo://app?vid=961987d2-ea39-4440-8303-26ff9a097ed5"},"vehicle_type_id":"4","last_reported":1748768991,"current_range_meters":16800,"station_id":"ce4bh0h2rcd13ifvqd60","pricing_plan_id":"cebpf4jnsgd1na2vs0mg"},{"bike_id":"77251605-7152-47a6-8432-cec7c4dc3a07","system_id":"levelo_inurba_marseille","lat":43.26476,"lon":5.39536,"is_reserved":false,"is_disabled":false,"rental_uris":{"android":"levelo://app?vid=77251605-7152-47a6-8432-cec7c4dc3a07","ios":"levelo://app?vid=77251605-7152-47a6-8432-cec7c4dc3a07"},"vehicle_type_id":"4","last_reported":1748768991,"current_range_meters":16800,"station_id":"ce4bhi12rcd13ifvqfq0","pricing_plan_id":"cebpf4jnsgd1na2vs0mg"},{"bike_id":"61783015-c8e8-4fa9-b868-4ee867b52e1d","system_id":"levelo_inurba_marseille","lat":43.28412,"lon":5.37518,"is_reserved":false,"is_disabled":false,"rental_uris":{"android":"levelo://app?vid=61783015-c8e8-4fa9-b868-4ee867b52e1d","ios":"levelo://app?vid=61783015-c8e8-4fa9-b868-4ee867b52e1d"},"vehicle_type_id":"4","last_reported":1748768991,"current_range_meters":17200,"station_id":"ce4bh412rcd13ifvqds0","pricing_plan_id":"cebpf4jnsgd1na2vs0mg"},{"bike_id":"773df2ef-590d-4954-996c-ac2e8a152fed","system_id":"levelo_inurba_marseille","lat":43.31239,"lon":5.36862,"is_reserved":false,"is_disabled":false,"rental_uris":{"android":"levelo://app?vid=773df2ef-590d-4954-996c-ac2e8a152fed","ios":"levelo://app?vid=773df2ef-590d-4954-996c-ac2e8a152fed"},"vehicle_type_id":"4","last_reported":1748768991,"current_range_meters":17200,"station_id":"ce4bgl92rcd13ifvqbq0","pricing_plan_id":"cebpf4jnsgd1na2vs0mg"},{"bike_id":"bee91618-6266-48b2-ae30-f7f89e154756","system_id":"levelo_inurba_marseille","lat":43.24179,"lon":5.39728,"is_reserved":false,"is_disabled":false,"rental_uris":{"android":"levelo://app?vid=bee91618-6266-48b2-ae30-f7f89e154756","ios":"levelo://app?vid=bee91618-6266-48b2-ae30-f7f89e154756"},"vehicle_type_id":"4","last_reported":1748768991,"current_range_meters":17200,"station_id":"ce4bhn12rcd13ifvqgpg","pricing_plan_id":"cebpf4jnsgd1na2vs0mg"},{"bike_id":"01d51a3b-bd36-4bae-b70d-feca5edf1a87","system_id":"levelo_inurba_marseille","lat":43.281186,"lon":5.398618,"is_reserved":false,"is_disabled":false,"rental_uris":{"android":"levelo://app?vid=01d51a3b-bd36-4bae-b70d-feca5edf1a87","ios":"levelo://app?vid=01d51a3b-bd36-4bae-b70d-feca5edf1a87"},"vehicle_type_id":"4","last_reported":1748768991,"current_range_meters":17200,"station_id":"","pricing_plan_id":"cebpf4jnsgd1na2vs0mg"},{"bike_id":"e4f2e553-75d1-42a7-95cb-b18b90074a93","system_id":"levelo_inurba_marseille","lat":43.31747,"lon":5.38772,"is_reserved":false,"is_disabled":false,"rental_uris":{"android":"levelo://app?vid=e4f2e553-75d1-42a7-95cb-b18b90074a93","ios":"levelo://app?vid=e4f2e553-75d1-42a7-95cb-b18b90074a93"},"vehicle_type_id":"4","last_reported":1748768991,"current_range_meters":17200,"station_id":"","pricing_plan_id":"cebpf4jnsgd1na2vs0mg"},{"bike_id":"eeec1ab4-e7e1-4281-8f31-817621443bb7","system_id":"levelo_inurba_marseille","lat":43.307018,"lon":5.373265,"is_reserved":false,"is_disabled":false,"rental_uris":{"android":"levelo://app?vid=eeec1ab4-e7e1-4281-8f31-817621443bb7","ios":"levelo://app?vid=eeec1ab4-e7e1-4281-8f31-817621443bb7"},"vehicle_type_id":"4","last_reported":1748768991,"current_range_meters":17200,"station_id":"","pricing_plan_id":"cebpf4jnsgd1na2vs0mg"},{"bike_id":"4c7952a1-2b3c-4b32-b7da-b9ae2e5501cf","system_id":"levelo_inurba_marseille","lat":43.26232,"lon":5.40428,"is_reserved":false,"is_disabled":false,"rental_uris":{"android":"levelo://app?vid=4c7952a1-2b3c-4b32-b7da-b9ae2e5501cf","ios":"levelo://app?vid=4c7952a1-2b3c-4b32-b7da-b9ae2e5501cf"},"vehicle_type_id":"4","last_reported":1748768991,"current_range_meters":17600,"station_id":"ce4bhmh2rcd13ifvqgmg","pricing_plan_id":"cebpf4jnsgd1na2vs0mg"},{"bike_id":"b746e8c3-0643-4514-ac09-53a5b1601808","system_id":"levelo_inurba_marseille","lat":43.26049,"lon":5.39397,"is_reserved":false,"is_disabled":false,"rental_uris":{"android":"levelo://app?vid=b746e8c3-0643-4514-ac09-53a5b1601808","ios":"levelo://app?vid=b746e8c3-0643-4514-ac09-53a5b1601808"},"vehicle_type_id":"4","last_reported":1748768991,"current_range_meters":17600,"station_id":"ce4bhh92rcd13ifvqfj0","pricing_plan_id":"cebpf4jnsgd1na2vs0mg"},{"bike_id":"ad74a644-57ab-466b-815d-76b8fa127ec8","system_id":"levelo_inurba_marseille","lat":43.311076,"lon":5.395775,"is_reserved":false,"is_disabled":false,"rental_uris":{"android":"levelo://app?vid=ad74a644-57ab-466b-815d-76b8fa127ec8","ios":"levelo://app?vid=ad74a644-57ab-466b-815d-76b8fa127ec8"},"vehicle_type_id":"4","last_reported":1748768991,"current_range_meters":17600,"station_id":"","pricing_plan_id":"cebpf4jnsgd1na2vs0mg"},{"bike_id":"2a22dd42-daeb-4061-9530-6600e8a9ef7e","system_id":"levelo_inurba_marseille","lat":43.27365,"lon":5.36247,"is_reserved":false,"is_disabled":false,"rental_uris":{"android":"levelo://app?vid=2a22dd42-daeb-4061-9530-6600e8a9ef7e","ios":"levelo://app?vid=2a22dd42-daeb-4061-9530-6600e8a9ef7e"},"vehicle_type_id":"4","last_reported":1748768991,"current_range_meters":17600,"station_id":"ce4bhbh2rcd13ifvqeo0","pricing_plan_id":"cebpf4jnsgd1na2vs0mg"},{"bike_id":"acb04c05-7db2-4740-aa48-2ebab1b63353","system_id":"levelo_inurba_marseille","lat":43.25126,"lon":5.403266,"is_reserved":false,"is_disabled":false,"rental_uris":{"android":"levelo://app?vid=acb04c05-7db2-4740-aa48-2ebab1b63353","ios":"levelo://app?vid=acb04c05-7db2-4740-aa48-2ebab1b63353"},"vehicle_type_id":"4","last_reported":1748768991,"current_range_meters":17600,"station_id":"ce4bhlh2rcd13ifvqgig","pricing_plan_id":"cebpf4jnsgd1na2vs0mg"},{"bike_id":"5f764f7f-912c-40f6-a10c-b9840305bfb7","system_id":"levelo_inurba_marseille","lat":43.28706,"lon":5.37421,"is_reserved":false,"is_disabled":false,"rental_uris":{"android":"levelo://app?vid=5f764f7f-912c-40f6-a10c-b9840305bfb7","ios":"levelo://app?vid=5f764f7f-912c-40f6-a10c-b9840305bfb7"},"vehicle_type_id":"4","last_reported":1748768991,"current_range_meters":18000,"station_id":"ce4bh3p2rcd13ifvqdq0","pricing_plan_id":"cebpf4jnsgd1na2vs0mg"},{"bike_id":"254e030c-a78f-41be-9494-6c89fd4aac35","system_id":"levelo_inurba_marseille","lat":43.28463,"lon":5.35895,"is_reserved":false,"is_disabled":true,"rental_uris":{"android":"levelo://app?vid=254e030c-a78f-41be-9494-6c89fd4aac35","ios":"levelo://app?vid=254e030c-a78f-41be-9494-6c89fd4aac35"},"vehicle_type_id":"4","last_reported":1748768991,"current_range_meters":18000,"station_id":"ce4bhah2rcd13ifvqei0","pricing_plan_id":"cebpf4jnsgd1na2vs0mg"},{"bike_id":"f9707e64-f3a2-4626-8e27-5509f44d3427","system_id":"levelo_inurba_marseille","lat":43.2418,"lon":5.36404,"is_reserved":false,"is_disabled":true,"rental_uris":{"android":"levelo://app?vid=f9707e64-f3a2-4626-8e27-5509f44d3427","ios":"levelo://app?vid=f9707e64-f3a2-4626-8e27-5509f44d3427"},"vehicle_type_id":"4","last_reported":1748768991,"current_range_meters":18000,"station_id":"cpo36qri1sfpv3e86is0","pricing_plan_id":"cebpf4jnsgd1na2vs0mg"},{"bike_id":"eae1b0c9-bd1d-46a3-afba-9424dcb5823b","system_id":"levelo_inurba_marseille","lat":43.30103,"lon":5.37423,"is_reserved":false,"is_disabled":false,"rental_uris":{"android":"levelo://app?vid=eae1b0c9-bd1d-46a3-afba-9424dcb5823b","ios":"levelo://app?vid=eae1b0c9-bd1d-46a3-afba-9424dcb5823b"},"vehicle_type_id":"4","last_reported":1748768991,"current_range_meters":18000,"station_id":"ce4bgs92rcd13ifvqcc0","pricing_plan_id":"cebpf4jnsgd1na2vs0mg"},{"bike_id":"1f22f489-fb8b-4a0e-b59b-883e01389413","system_id":"levelo_inurba_marseille","lat":43.28709,"lon":5.39984,"is_reserved":false,"is_disabled":false,"rental_uris":{"android":"levelo://app?vid=1f22f489-fb8b-4a0e-b59b-883e01389413","ios":"levelo://app?vid=1f22f489-fb8b-4a0e-b59b-883e01389413"},"vehicle_type_id":"4","last_reported":1748768991,"current_range_meters":18000,"station_id":"ce4bho92rcd13ifvqh3g","pricing_plan_id":"cebpf4jnsgd1na2vs0mg"},{"bike_id":"db90e230-9275-48d9-a8e1-bc7e7d5da86e","system_id":"levelo_inurba_marseille","lat":43.264758,"lon":5.383667,"is_reserved":false,"is_disabled":false,"rental_uris":{"android":"levelo://app?vid=db90e230-9275-48d9-a8e1-bc7e7d5da86e","ios":"levelo://app?vid=db90e230-9275-48d9-a8e1-bc7e7d5da86e"},"vehicle_type_id":"4","last_reported":1748768991,"current_range_meters":18800,"station_id":"","pricing_plan_id":"cebpf4jnsgd1na2vs0mg"},{"bike_id":"bd179f20-b5b3-4557-b557-ddb85df9d7e1","system_id":"levelo_inurba_marseille","lat":43.23156,"lon":5.43708,"is_reserved":false,"is_disabled":false,"rental_uris":{"android":"levelo://app?vid=bd179f20-b5b3-4557-b557-ddb85df9d7e1","ios":"levelo://app?vid=bd179f20-b5b3-4557-b557-ddb85df9d7e1"},"vehicle_type_id":"4","last_reported":1748768991,"current_range_meters":18800,"station_id":"ce4bhmp2rcd13ifvqgog","pricing_plan_id":"cebpf4jnsgd1na2vs0mg"},{"bike_id":"f7cc7ca3-ca62-4d76-997b-8a6c81cf76ed","system_id":"levelo_inurba_marseille","lat":43.289337,"lon":5.366414,"is_reserved":false,"is_disabled":false,"rental_uris":{"android":"levelo://app?vid=f7cc7ca3-ca62-4d76-997b-8a6c81cf76ed","ios":"levelo://app?vid=f7cc7ca3-ca62-4d76-997b-8a6c81cf76ed"},"vehicle_type_id":"4","last_reported":1748768991,"current_range_meters":18800,"station_id":"ce4bhap2rcd13ifvqek0","pricing_plan_id":"cebpf4jnsgd1na2vs0mg"},{"bike_id":"a8098407-1406-496b-81a1-4e156ddd1407","system_id":"levelo_inurba_marseille","lat":43.31349,"lon":5.38485,"is_reserved":false,"is_disabled":true,"rental_uris":{"android":"levelo://app?vid=a8098407-1406-496b-81a1-4e156ddd1407","ios":"levelo://app?vid=a8098407-1406-496b-81a1-4e156ddd1407"},"vehicle_type_id":"4","last_reported":1748768991,"current_range_meters":18800,"station_id":"ce4bgt92rcd13ifvqcf0","pricing_plan_id":"cebpf4jnsgd1na2vs0mg"},{"bike_id":"89afe3be-62bc-43f4-9a13-5822af12e086","system_id":"levelo_inurba_marseille","lat":43.286187,"lon":5.350986,"is_reserved":false,"is_disabled":false,"rental_uris":{"android":"levelo://app?vid=89afe3be-62bc-43f4-9a13-5822af12e086","ios":"levelo://app?vid=89afe3be-62bc-43f4-9a13-5822af12e086"},"vehicle_type_id":"4","last_reported":1748768991,"current_range_meters":18800,"station_id":"","pricing_plan_id":"cebpf4jnsgd1na2vs0mg"},{"bike_id":"f259b9ed-d69c-4f8b-b745-4ac929647d88","system_id":"levelo_inurba_marseille","lat":43.21192,"lon":5.35074,"is_reserved":false,"is_disabled":false,"rental_uris":{"android":"levelo://app?vid=f259b9ed-d69c-4f8b-b745-4ac929647d88","ios":"levelo://app?vid=f259b9ed-d69c-4f8b-b745-4ac929647d88"},"vehicle_type_id":"4","last_reported":1748768991,"current_range_meters":18800,"station_id":"st_cvj6sg6p6f1abm77japg","pricing_plan_id":"cebpf4jnsgd1na2vs0mg"},{"bike_id":"8253e802-cd0b-4f83-80a7-5a8eae276c3f","system_id":"levelo_inurba_marseille","lat":43.2835,"lon":5.43232,"is_reserved":false,"is_disabled":false,"rental_uris":{"android":"levelo://app?vid=8253e802-cd0b-4f83-80a7-5a8eae276c3f","ios":"levelo://app?vid=8253e802-cd0b-4f83-80a7-5a8eae276c3f"},"vehicle_type_id":"4","last_reported":1748768991,"current_range_meters":18800,"station_id":"","pricing_plan_id":"cebpf4jnsgd1na2vs0mg"},{"bike_id":"17a417da-052e-427d-bbdd-8f30e77b1b63","system_id":"levelo_inurba_marseille","lat":43.29631,"lon":5.40599,"is_reserved":false,"is_disabled":false,"rental_uris":{"android":"levelo://app?vid=17a417da-052e-427d-bbdd-8f30e77b1b63","ios":"levelo://app?vid=17a417da-052e-427d-bbdd-8f30e77b1b63"},"vehicle_type_id":"4","last_reported":1748768991,"current_range_meters":19200,"station_id":"ce4bh0h2rcd13ifvqd60","pricing_plan_id":"cebpf4jnsgd1na2vs0mg"},{"bike_id":"bd5b8e56-4c92-449b-a2dd-9a498211c9bd","system_id":"levelo_inurba_marseille","lat":43.23195,"lon":5.35554,"is_reserved":false,"is_disabled":false,"rental_uris":{"android":"levelo://app?vid=bd5b8e56-4c92-449b-a2dd-9a498211c9bd","ios":"levelo://app?vid=bd5b8e56-4c92-449b-a2dd-9a498211c9bd"},"vehicle_type_id":"4","last_reported":1748768991,"current_range_meters":19200,"station_id":"ce4bhu92rcd13ifvqi70","pricing_plan_id":"cebpf4jnsgd1na2vs0mg"},{"bike_id":"395c6529-57db-45f9-b924-761e15fc77d0","system_id":"levelo_inurba_marseille","lat":43.26231,"lon":5.40471,"is_reserved":false,"is_disabled":false,"rental_uris":{"android":"levelo://app?vid=395c6529-57db-45f9-b924-761e15fc77d0","ios":"levelo://app?vid=395c6529-57db-45f9-b924-761e15fc77d0"},"vehicle_type_id":"4","last_reported":1748768991,"current_range_meters":19200,"station_id":"ce4bhmh2rcd13ifvqgmg","pricing_plan_id":"cebpf4jnsgd1na2vs0mg"},{"bike_id":"f8dc6701-81bf-45af-81d9-3758213a1485","system_id":"levelo_inurba_marseille","lat":43.32364,"lon":5.38884,"is_reserved":false,"is_disabled":false,"rental_uris":{"android":"levelo://app?vid=f8dc6701-81bf-45af-81d9-3758213a1485","ios":"levelo://app?vid=f8dc6701-81bf-45af-81d9-3758213a1485"},"vehicle_type_id":"4","last_reported":1748768991,"current_range_meters":19200,"station_id":"ce4bhqp2rcd13ifvqhog","pricing_plan_id":"cebpf4jnsgd1na2vs0mg"},{"bike_id":"da95f25b-27df-45f4-ae30-9fbde1b4f1a5","system_id":"levelo_inurba_marseille","lat":43.28821,"lon":5.50591,"is_reserved":false,"is_disabled":false,"rental_uris":{"android":"levelo://app?vid=da95f25b-27df-45f4-ae30-9fbde1b4f1a5","ios":"levelo://app?vid=da95f25b-27df-45f4-ae30-9fbde1b4f1a5"},"vehicle_type_id":"4","last_reported":1748768991,"current_range_meters":19200,"station_id":"","pricing_plan_id":"cebpf4jnsgd1na2vs0mg"},{"bike_id":"2ccdda82-b6c9-4d72-b5bd-1c016814ef1a","system_id":"levelo_inurba_marseille","lat":43.282738,"lon":5.350775,"is_reserved":false,"is_disabled":false,"rental_uris":{"android":"levelo://app?vid=2ccdda82-b6c9-4d72-b5bd-1c016814ef1a","ios":"levelo://app?vid=2ccdda82-b6c9-4d72-b5bd-1c016814ef1a"},"vehicle_type_id":"4","last_reported":1748768991,"current_range_meters":18800,"station_id":"ce4bhbp2rcd13ifvqerg","pricing_plan_id":"cebpf4jnsgd1na2vs0mg"},{"bike_id":"ea1e9427-3597-417f-9ce6-88d690194abf","system_id":"levelo_inurba_marseille","lat":43.28349,"lon":5.38105,"is_reserved":false,"is_disabled":false,"rental_uris":{"android":"levelo://app?vid=ea1e9427-3597-417f-9ce6-88d690194abf","ios":"levelo://app?vid=ea1e9427-3597-417f-9ce6-88d690194abf"},"vehicle_type_id":"4","last_reported":1748768991,"current_range_meters":19200,"station_id":"ce4bh412rcd13ifvqdr0","pricing_plan_id":"cebpf4jnsgd1na2vs0mg"},{"bike_id":"7f8ab202-46c1-466e-a93d-685dd3763063","system_id":"levelo_inurba_marseille","lat":43.24169,"lon":5.36396,"is_reserved":false,"is_disabled":false,"rental_uris":{"android":"levelo://app?vid=7f8ab202-46c1-466e-a93d-685dd3763063","ios":"levelo://app?vid=7f8ab202-46c1-466e-a93d-685dd3763063"},"vehicle_type_id":"4","last_reported":1748768991,"current_range_meters":19200,"station_id":"cpo36qri1sfpv3e86is0","pricing_plan_id":"cebpf4jnsgd1na2vs0mg"},{"bike_id":"6c26eb68-71d5-48c5-a53d-13c04651eae2","system_id":"levelo_inurba_marseille","lat":43.295705,"lon":5.399784,"is_reserved":false,"is_disabled":false,"rental_uris":{"android":"levelo://app?vid=6c26eb68-71d5-48c5-a53d-13c04651eae2","ios":"levelo://app?vid=6c26eb68-71d5-48c5-a53d-13c04651eae2"},"vehicle_type_id":"4","last_reported":1748768991,"current_range_meters":19200,"station_id":"","pricing_plan_id":"cebpf4jnsgd1na2vs0mg"},{"bike_id":"e8c8946d-7d3a-4df0-ab4d-c9c5b180c30c","system_id":"levelo_inurba_marseille","lat":43.30268,"lon":5.38591,"is_reserved":false,"is_disabled":true,"rental_uris":{"android":"levelo://app?vid=e8c8946d-7d3a-4df0-ab4d-c9c5b180c30c","ios":"levelo://app?vid=e8c8946d-7d3a-4df0-ab4d-c9c5b180c30c"},"vehicle_type_id":"4","last_reported":1748768991,"current_range_meters":19600,"station_id":"","pricing_plan_id":"cebpf4jnsgd1na2vs0mg"},{"bike_id":"dd6490fd-4366-41df-b5a5-3456eb2fe1a2","system_id":"levelo_inurba_marseille","lat":43.30377,"lon":5.42482,"is_reserved":false,"is_disabled":false,"rental_uris":{"android":"levelo://app?vid=dd6490fd-4366-41df-b5a5-3456eb2fe1a2","ios":"levelo://app?vid=dd6490fd-4366-41df-b5a5-3456eb2fe1a2"},"vehicle_type_id":"4","last_reported":1748768991,"current_range_meters":19600,"station_id":"ce4bhoh2rcd13ifvqh6g","pricing_plan_id":"cebpf4jnsgd1na2vs0mg"},{"bike_id":"14530add-b8bc-4e8c-aaea-ed23066503de","system_id":"levelo_inurba_marseille","lat":43.21185,"lon":5.35058,"is_reserved":false,"is_disabled":false,"rental_uris":{"android":"levelo://app?vid=14530add-b8bc-4e8c-aaea-ed23066503de","ios":"levelo://app?vid=14530add-b8bc-4e8c-aaea-ed23066503de"},"vehicle_type_id":"4","last_reported":1748768991,"current_range_meters":19600,"station_id":"st_cvj6sg6p6f1abm77japg","pricing_plan_id":"cebpf4jnsgd1na2vs0mg"},{"bike_id":"61a91f3d-568d-4413-9a91-f4ed43150169","system_id":"levelo_inurba_marseille","lat":43.2558,"lon":5.38238,"is_reserved":false,"is_disabled":false,"rental_uris":{"android":"levelo://app?vid=61a91f3d-568d-4413-9a91-f4ed43150169","ios":"levelo://app?vid=61a91f3d-568d-4413-9a91-f4ed43150169"},"vehicle_type_id":"4","last_reported":1748768991,"current_range_meters":19600,"station_id":"ce4bhih2rcd13ifvqfs0","pricing_plan_id":"cebpf4jnsgd1na2vs0mg"},{"bike_id":"371a0118-faac-4216-802c-8c7df74eb5e1","system_id":"levelo_inurba_marseille","lat":43.28413,"lon":5.34979,"is_reserved":false,"is_disabled":false,"rental_uris":{"android":"levelo://app?vid=371a0118-faac-4216-802c-8c7df74eb5e1","ios":"levelo://app?vid=371a0118-faac-4216-802c-8c7df74eb5e1"},"vehicle_type_id":"4","last_reported":1748768991,"current_range_meters":19600,"station_id":"ce4bhbh2rcd13ifvqepg","pricing_plan_id":"cebpf4jnsgd1na2vs0mg"},{"bike_id":"f6a05ad1-ac12-4bc7-baf8-1d4af827b0a1","system_id":"levelo_inurba_marseille","lat":43.29373,"lon":5.37862,"is_reserved":false,"is_disabled":true,"rental_uris":{"android":"levelo://app?vid=f6a05ad1-ac12-4bc7-baf8-1d4af827b0a1","ios":"levelo://app?vid=f6a05ad1-ac12-4bc7-baf8-1d4af827b0a1"},"vehicle_type_id":"4","last_reported":1748768991,"current_range_meters":19600,"station_id":"ce4bgjh2rcd13ifvqbf0","pricing_plan_id":"cebpf4jnsgd1na2vs0mg"},{"bike_id":"21335fe1-e361-4f25-9703-649c07cc251d","system_id":"levelo_inurba_marseille","lat":43.32078,"lon":5.36768,"is_reserved":false,"is_disabled":false,"rental_uris":{"android":"levelo://app?vid=21335fe1-e361-4f25-9703-649c07cc251d","ios":"levelo://app?vid=21335fe1-e361-4f25-9703-649c07cc251d"},"vehicle_type_id":"4","last_reported":1748768991,"current_range_meters":20000,"station_id":"ce4bhrh2rcd13ifvqhug","pricing_plan_id":"cebpf4jnsgd1na2vs0mg"},{"bike_id":"10bce9a9-1208-4b02-9ace-6b5b3cbdf887","system_id":"levelo_inurba_marseille","lat":43.32274,"lon":5.39097,"is_reserved":false,"is_disabled":false,"rental_uris":{"android":"levelo://app?vid=10bce9a9-1208-4b02-9ace-6b5b3cbdf887","ios":"levelo://app?vid=10bce9a9-1208-4b02-9ace-6b5b3cbdf887"},"vehicle_type_id":"4","last_reported":1748768991,"current_range_meters":20000,"station_id":"","pricing_plan_id":"cebpf4jnsgd1na2vs0mg"},{"bike_id":"e1f02121-31a5-43ad-a327-2352971981c7","system_id":"levelo_inurba_marseille","lat":43.26223,"lon":5.40464,"is_reserved":false,"is_disabled":false,"rental_uris":{"android":"levelo://app?vid=e1f02121-31a5-43ad-a327-2352971981c7","ios":"levelo://app?vid=e1f02121-31a5-43ad-a327-2352971981c7"},"vehicle_type_id":"4","last_reported":1748768991,"current_range_meters":20000,"station_id":"ce4bhmh2rcd13ifvqgmg","pricing_plan_id":"cebpf4jnsgd1na2vs0mg"},{"bike_id":"fc22d443-285f-4dc1-90ef-c87ec7914ad8","system_id":"levelo_inurba_marseille","lat":43.23185,"lon":5.40003,"is_reserved":false,"is_disabled":false,"rental_uris":{"android":"levelo://app?vid=fc22d443-285f-4dc1-90ef-c87ec7914ad8","ios":"levelo://app?vid=fc22d443-285f-4dc1-90ef-c87ec7914ad8"},"vehicle_type_id":"4","last_reported":1748768991,"current_range_meters":20000,"station_id":"ce4bhn12rcd13ifvqgqg","pricing_plan_id":"cebpf4jnsgd1na2vs0mg"},{"bike_id":"819dea78-b6f5-4cea-97bb-e4607da451df","system_id":"levelo_inurba_marseille","lat":43.24399,"lon":5.37058,"is_reserved":false,"is_disabled":false,"rental_uris":{"android":"levelo://app?vid=819dea78-b6f5-4cea-97bb-e4607da451df","ios":"levelo://app?vid=819dea78-b6f5-4cea-97bb-e4607da451df"},"vehicle_type_id":"4","last_reported":1748768991,"current_range_meters":20000,"station_id":"ce4bhhh2rcd13ifvqfk0","pricing_plan_id":"cebpf4jnsgd1na2vs0mg"},{"bike_id":"157fac85-2c74-46dc-8373-f61ea8482be2","system_id":"levelo_inurba_marseille","lat":43.246693,"lon":5.381748,"is_reserved":false,"is_disabled":true,"rental_uris":{"android":"levelo://app?vid=157fac85-2c74-46dc-8373-f61ea8482be2","ios":"levelo://app?vid=157fac85-2c74-46dc-8373-f61ea8482be2"},"vehicle_type_id":"4","last_reported":1748768991,"current_range_meters":20000,"station_id":"ce4bhih2rcd13ifvqfr0","pricing_plan_id":"cebpf4jnsgd1na2vs0mg"},{"bike_id":"a5a49411-588e-4b5e-94a6-1c2ad2ee88eb","system_id":"levelo_inurba_marseille","lat":43.30803,"lon":5.43511,"is_reserved":false,"is_disabled":false,"rental_uris":{"android":"levelo://app?vid=a5a49411-588e-4b5e-94a6-1c2ad2ee88eb","ios":"levelo://app?vid=a5a49411-588e-4b5e-94a6-1c2ad2ee88eb"},"vehicle_type_id":"4","last_reported":1748768991,"current_range_meters":20000,"station_id":"ce4bhph2rcd13ifvqheg","pricing_plan_id":"cebpf4jnsgd1na2vs0mg"},{"bike_id":"27c72c2e-e353-40fa-96a6-d474094aaaa7","system_id":"levelo_inurba_marseille","lat":43.26498,"lon":5.3954,"is_reserved":false,"is_disabled":false,"rental_uris":{"android":"levelo://app?vid=27c72c2e-e353-40fa-96a6-d474094aaaa7","ios":"levelo://app?vid=27c72c2e-e353-40fa-96a6-d474094aaaa7"},"vehicle_type_id":"4","last_reported":1748768991,"current_range_meters":20400,"station_id":"ce4bhi12rcd13ifvqfq0","pricing_plan_id":"cebpf4jnsgd1na2vs0mg"},{"bike_id":"a96f4a0c-d4d9-4689-a3df-efc9002b7012","system_id":"levelo_inurba_marseille","lat":43.2958,"lon":5.37505,"is_reserved":false,"is_disabled":true,"rental_uris":{"android":"levelo://app?vid=a96f4a0c-d4d9-4689-a3df-efc9002b7012","ios":"levelo://app?vid=a96f4a0c-d4d9-4689-a3df-efc9002b7012"},"vehicle_type_id":"4","last_reported":1748768991,"current_range_meters":20400,"station_id":"ce4bgh92rcd13ifvqb50","pricing_plan_id":"cebpf4jnsgd1na2vs0mg"},{"bike_id":"5693bd5e-7477-4cf1-83a1-dd6858d8f65d","system_id":"levelo_inurba_marseille","lat":43.24397,"lon":5.37055,"is_reserved":false,"is_disabled":false,"rental_uris":{"android":"levelo://app?vid=5693bd5e-7477-4cf1-83a1-dd6858d8f65d","ios":"levelo://app?vid=5693bd5e-7477-4cf1-83a1-dd6858d8f65d"},"vehicle_type_id":"4","last_reported":1748768991,"current_range_meters":20400,"station_id":"ce4bhhh2rcd13ifvqfk0","pricing_plan_id":"cebpf4jnsgd1na2vs0mg"},{"bike_id":"af9afab1-b83d-4a03-9fe7-89466fb1f401","system_id":"levelo_inurba_marseille","lat":43.32353,"lon":5.40618,"is_reserved":false,"is_disabled":false,"rental_uris":{"android":"levelo://app?vid=af9afab1-b83d-4a03-9fe7-89466fb1f401","ios":"levelo://app?vid=af9afab1-b83d-4a03-9fe7-89466fb1f401"},"vehicle_type_id":"4","last_reported":1748768991,"current_range_meters":20400,"station_id":"ce4bhq92rcd13ifvqhjg","pricing_plan_id":"cebpf4jnsgd1na2vs0mg"},{"bike_id":"2b70b77d-bcb2-4f13-879b-926f81f00d96","system_id":"levelo_inurba_marseille","lat":43.28459,"lon":5.35877,"is_reserved":false,"is_disabled":false,"rental_uris":{"android":"levelo://app?vid=2b70b77d-bcb2-4f13-879b-926f81f00d96","ios":"levelo://app?vid=2b70b77d-bcb2-4f13-879b-926f81f00d96"},"vehicle_type_id":"4","last_reported":1748768991,"current_range_meters":20400,"station_id":"ce4bhah2rcd13ifvqei0","pricing_plan_id":"cebpf4jnsgd1na2vs0mg"},{"bike_id":"b711029d-22f4-4902-9399-c19cfe779401","system_id":"levelo_inurba_marseille","lat":43.31168,"lon":5.38714,"is_reserved":false,"is_disabled":false,"rental_uris":{"android":"levelo://app?vid=b711029d-22f4-4902-9399-c19cfe779401","ios":"levelo://app?vid=b711029d-22f4-4902-9399-c19cfe779401"},"vehicle_type_id":"4","last_reported":1748768991,"current_range_meters":20400,"station_id":"ce4bgv12rcd13ifvqcp0","pricing_plan_id":"cebpf4jnsgd1na2vs0mg"},{"bike_id":"08778219-d806-4dca-a519-c49e5573733f","system_id":"levelo_inurba_marseille","lat":43.31721,"lon":5.40453,"is_reserved":false,"is_disabled":false,"rental_uris":{"android":"levelo://app?vid=08778219-d806-4dca-a519-c49e5573733f","ios":"levelo://app?vid=08778219-d806-4dca-a519-c49e5573733f"},"vehicle_type_id":"4","last_reported":1748768991,"current_range_meters":20400,"station_id":"ce4bh012rcd13ifvqd00","pricing_plan_id":"cebpf4jnsgd1na2vs0mg"},{"bike_id":"fa22a2ef-143c-4924-9d69-fe1c3d154133","system_id":"levelo_inurba_marseille","lat":43.28096,"lon":5.37849,"is_reserved":false,"is_disabled":false,"rental_uris":{"android":"levelo://app?vid=fa22a2ef-143c-4924-9d69-fe1c3d154133","ios":"levelo://app?vid=fa22a2ef-143c-4924-9d69-fe1c3d154133"},"vehicle_type_id":"4","last_reported":1748768991,"current_range_meters":20400,"station_id":"ce4bha12rcd13ifvqee0","pricing_plan_id":"cebpf4jnsgd1na2vs0mg"},{"bike_id":"afcaae88-9576-40d0-bf15-5b7aa1670e7d","system_id":"levelo_inurba_marseille","lat":43.28421,"lon":5.34989,"is_reserved":false,"is_disabled":false,"rental_uris":{"android":"levelo://app?vid=afcaae88-9576-40d0-bf15-5b7aa1670e7d","ios":"levelo://app?vid=afcaae88-9576-40d0-bf15-5b7aa1670e7d"},"vehicle_type_id":"4","last_reported":1748768991,"current_range_meters":20400,"station_id":"ce4bhbh2rcd13ifvqepg","pricing_plan_id":"cebpf4jnsgd1na2vs0mg"},{"bike_id":"1b54f24c-e4df-481b-9e44-ac645e4278e6","system_id":"levelo_inurba_marseille","lat":43.29055,"lon":5.35926,"is_reserved":false,"is_disabled":false,"rental_uris":{"android":"levelo://app?vid=1b54f24c-e4df-481b-9e44-ac645e4278e6","ios":"levelo://app?vid=1b54f24c-e4df-481b-9e44-ac645e4278e6"},"vehicle_type_id":"4","last_reported":1748768991,"current_range_meters":20400,"station_id":"ce4bha92rcd13ifvqeg0","pricing_plan_id":"cebpf4jnsgd1na2vs0mg"},{"bike_id":"2a504654-ce7d-4acc-9a97-54e44447ffda","system_id":"levelo_inurba_marseille","lat":43.30535,"lon":5.36495,"is_reserved":false,"is_disabled":false,"rental_uris":{"android":"levelo://app?vid=2a504654-ce7d-4acc-9a97-54e44447ffda","ios":"levelo://app?vid=2a504654-ce7d-4acc-9a97-54e44447ffda"},"vehicle_type_id":"4","last_reported":1748768991,"current_range_meters":20800,"station_id":"ce4bgs12rcd13ifvqcag","pricing_plan_id":"cebpf4jnsgd1na2vs0mg"},{"bike_id":"99ae7878-ea7c-46f5-91d3-e83311153121","system_id":"levelo_inurba_marseille","lat":43.30453,"lon":5.37895,"is_reserved":false,"is_disabled":false,"rental_uris":{"android":"levelo://app?vid=99ae7878-ea7c-46f5-91d3-e83311153121","ios":"levelo://app?vid=99ae7878-ea7c-46f5-91d3-e83311153121"},"vehicle_type_id":"4","last_reported":1748768991,"current_range_meters":20800,"station_id":"ce4bgup2rcd13ifvqcn0","pricing_plan_id":"cebpf4jnsgd1na2vs0mg"},{"bike_id":"f1147a71-f428-4b75-ae77-618cb27dfb9d","system_id":"levelo_inurba_marseille","lat":43.24389,"lon":5.37065,"is_reserved":false,"is_disabled":false,"rental_uris":{"android":"levelo://app?vid=f1147a71-f428-4b75-ae77-618cb27dfb9d","ios":"levelo://app?vid=f1147a71-f428-4b75-ae77-618cb27dfb9d"},"vehicle_type_id":"4","last_reported":1748768991,"current_range_meters":20800,"station_id":"ce4bhhh2rcd13ifvqfk0","pricing_plan_id":"cebpf4jnsgd1na2vs0mg"},{"bike_id":"b0866d6d-e601-452b-9cd4-680e1db3b9cb","system_id":"levelo_inurba_marseille","lat":43.2416,"lon":5.36403,"is_reserved":false,"is_disabled":false,"rental_uris":{"android":"levelo://app?vid=b0866d6d-e601-452b-9cd4-680e1db3b9cb","ios":"levelo://app?vid=b0866d6d-e601-452b-9cd4-680e1db3b9cb"},