{"last_updated":1731366487,"ttl":60,"version":"2.2","data":{"bikes":[{"bike_id":"2afb4c00-67cc-42f1-ae32-502f5aecb4b2","system_id":"levelo_inurba_marseille","lat":43.24083,"lon":5.37738,"is_reserved":false,"is_disabled":false,"rental_uris":{"android":"levelo://app?vid=2afb4c00-67cc-42f1-ae32-502f5aecb4b2","ios":"levelo://app?vid=2afb4c00-67cc-42f1-ae32-502f5aecb4b2"},"vehicle_type_id":"4","last_reported":1731366487,"current_range_meters":32400,"station_id":"ce4bhnp2rcd13ifvqgvg","pricing_plan_id":"cebpf4jnsgd1na2vs0mg"},{"bike_id":"55f338da-564d-4339-bcb5-5d0a4b68c4e6","system_id":"levelo_inurba_marseille","lat":43.31063,"lon":5.40091,"is_reserved":false,"is_disabled":false,"rental_uris":{"android":"levelo://app?vid=55f338da-564d-4339-bcb5-5d0a4b68c4e6","ios":"levelo://app?vid=55f338da-564d-4339-bcb5-5d0a4b68c4e6"},"vehicle_type_id":"4","last_reported":1731366487,"current_range_meters":5600,"station_id":"","pricing_plan_id":"cebpf4jnsgd1na2vs0mg"},{"bike_id":"7d263089-dc22-413a-b37a-45490641fd7e","system_id":"levelo_inurba_marseille","lat":43.292814,"lon":5.401124,"is_reserved":false,"is_disabled":false,"rental_uris":{"android":"levelo://app?vid=7d263089-dc22-413a-b37a-45490641fd7e","ios":"levelo://app?vid=7d263089-dc22-413a-b37a-45490641fd7e"},"vehicle_type_id":"4","last_reported":1731366487,"current_range_meters":39200,"station_id":"ce4bh312rcd13ifvqdk0","pricing_plan_id":"cebpf4jnsgd1na2vs0mg"},{"bike_id":"069aa614-dd1f-40e4-8bb2-ffcfb069572f","system_id":"levelo_inurba_marseille","lat":43.28613,"lon":5.37066,"is_reserved":false,"is_disabled":false,"rental_uris":{"android":"levelo://app?vid=069aa614-dd1f-40e4-8bb2-ffcfb069572f","ios":"levelo://app?vid=069aa614-dd1f-40e4-8bb2-ffcfb069572f"},"vehicle_type_id":"4","last_reported":1731366487,"current_range_meters":37600,"station_id":"ce4bht12rcd13ifvqi60","pricing_plan_id":"cebpf4jnsgd1na2vs0mg"},{"bike_id":"1530414d-d91a-4225-a94e-c7652769064e","system_id":"levelo_inurba_marseille","lat":43.279437,"lon":5.410438,"is_reserved":false,"is_disabled":false,"rental_uris":{"android":"levelo://app?vid=1530414d-d91a-4225-a94e-c7652769064e","ios":"levelo://app?vid=1530414d-d91a-4225-a94e-c7652769064e"},"vehicle_type_id":"4","last_reported":1731366487,"current_range_meters":38800,"station_id":"ce4bhnp2rcd13ifvqh0g","pricing_plan_id":"cebpf4jnsgd1na2vs0mg"},{"bike_id":"a10cb60d-91b5-4173-bced-41641f7d5dc1","system_id":"levelo_inurba_marseille","lat":43.2904,"lon":5.4,"is_reserved":false,"is_disabled":false,"rental_uris":{"android":"levelo://app?vid=a10cb60d-91b5-4173-bced-41641f7d5dc1","ios":"levelo://app?vid=a10cb60d-91b5-4173-bced-41641f7d5dc1"},"vehicle_type_id":"4","last_reported":1731366487,"current_range_meters":37600,"station_id":"ce4bh392rcd13ifvqdm0","pricing_plan_id":"cebpf4jnsgd1na2vs0mg"},{"bike_id":"092dc3c4-ec94-48f1-bf24-36eadab65fb9","system_id":"levelo_inurba_marseille","lat":43.29034,"lon":5.38646,"is_reserved":false,"is_disabled":false,"rental_uris":{"android":"levelo://app?vid=092dc3c4-ec94-48f1-bf24-36eadab65fb9","ios":"levelo://app?vid=092dc3c4-ec94-48f1-bf24-36eadab65fb9"},"vehicle_type_id":"4","last_reported":1731366487,"current_range_meters":35200,"station_id":"ce4bh4p2rcd13ifvqe0g","pricing_plan_id":"cebpf4jnsgd1na2vs0mg"},{"bike_id":"2e21a847-6ba1-400f-a23d-9322a925cb91","system_id":"levelo_inurba_marseille","lat":43.28577,"lon":5.39494,"is_reserved":false,"is_disabled":false,"rental_uris":{"android":"levelo://app?vid=2e21a847-6ba1-400f-a23d-9322a925cb91","ios":"levelo://app?vid=2e21a847-6ba1-400f-a23d-9322a925cb91"},"vehicle_type_id":"4","last_reported":1731366487,"current_range_meters":37600,"station_id":"ce4bh292rcd13ifvqdg0","pricing_plan_id":"cebpf4jnsgd1na2vs0mg"},{"bike_id":"4168f567-a5e4-49ac-b248-24fb5a42d61e","system_id":"levelo_inurba_marseille","lat":43.30888,"lon":5.39646,"is_reserved":false,"is_disabled":false,"rental_uris":{"android":"levelo://app?vid=4168f567-a5e4-49ac-b248-24fb5a42d61e","ios":"levelo://app?vid=4168f567-a5e4-49ac-b248-24fb5a42d61e"},"vehicle_type_id":"4","last_reported":1731366487,"current_range_meters":38800,"station_id":"ce4bh012rcd13ifvqcv0","pricing_plan_id":"cebpf4jnsgd1na2vs0mg"},{"bike_id":"c1d4d46f-68bb-4094-ab1c-6d66217cdb82","system_id":"levelo_inurba_marseille","lat":43.31339,"lon":5.39684,"is_reserved":false,"is_disabled":false,"rental_uris":{"android":"levelo://app?vid=c1d4d46f-68bb-4094-ab1c-6d66217cdb82","ios":"levelo://app?vid=c1d4d46f-68bb-4094-ab1c-6d66217cdb82"},"vehicle_type_id":"4","last_reported":1731366487,"current_range_meters":22400,"station_id":"ce4bgvp2rcd13ifvqcu0","pricing_plan_id":"cebpf4jnsgd1na2vs0mg"},{"bike_id":"e8f6a345-613f-4d73-b3c6-ff7badec834d","system_id":"levelo_inurba_marseille","lat":43.291948,"lon":5.393114,"is_reserved":false,"is_disabled":false,"rental_uris":{"android":"levelo://app?vid=e8f6a345-613f-4d73-b3c6-ff7badec834d","ios":"levelo://app?vid=e8f6a345-613f-4d73-b3c6-ff7badec834d"},"vehicle_type_id":"4","last_reported":1731366487,"current_range_meters":36000,"station_id":"ce4bh192rcd13ifvqdd0","pricing_plan_id":"cebpf4jnsgd1na2vs0mg"},{"bike_id":"6bf6494e-2c22-47ab-a239-0d3ffefdcce6","system_id":"levelo_inurba_marseille","lat":43.28927,"lon":5.38402,"is_reserved":false,"is_disabled":false,"rental_uris":{"android":"levelo://app?vid=6bf6494e-2c22-47ab-a239-0d3ffefdcce6","ios":"levelo://app?vid=6bf6494e-2c22-47ab-a239-0d3ffefdcce6"},"vehicle_type_id":"4","last_reported":1731366487,"current_range_meters":7200,"station_id":"ce4bh612rcd13ifvqe6g","pricing_plan_id":"cebpf4jnsgd1na2vs0mg"},{"bike_id":"2970b8c0-0401-4bd0-a88e-3141032fc477","system_id":"levelo_inurba_marseille","lat":43.25111,"lon":5.40326,"is_reserved":false,"is_disabled":false,"rental_uris":{"android":"levelo://app?vid=2970b8c0-0401-4bd0-a88e-3141032fc477","ios":"levelo://app?vid=2970b8c0-0401-4bd0-a88e-3141032fc477"},"vehicle_type_id":"4","last_reported":1731366487,"current_range_meters":30800,"station_id":"ce4bhlh2rcd13ifvqgig","pricing_plan_id":"cebpf4jnsgd1na2vs0mg"},{"bike_id":"d55c2310-fff4-46f6-8c3d-bf3100f9edcb","system_id":"levelo_inurba_marseille","lat":43.30321,"lon":5.40443,"is_reserved":false,"is_disabled":false,"rental_uris":{"android":"levelo://app?vid=d55c2310-fff4-46f6-8c3d-bf3100f9edcb","ios":"levelo://app?vid=d55c2310-fff4-46f6-8c3d-bf3100f9edcb"},"vehicle_type_id":"4","last_reported":1731366487,"current_range_meters":38000,"station_id":"ce4bh012rcd13ifvqd10","pricing_plan_id":"cebpf4jnsgd1na2vs0mg"},{"bike_id":"5f671af9-34ec-4500-b1fd-c7f28d715cb9","system_id":"levelo_inurba_marseille","lat":43.28727,"lon":5.3609,"is_reserved":false,"is_disabled":false,"rental_uris":{"android":"levelo://app?vid=5f671af9-34ec-4500-b1fd-c7f28d715cb9","ios":"levelo://app?vid=5f671af9-34ec-4500-b1fd-c7f28d715cb9"},"vehicle_type_id":"4","last_reported":1731366487,"current_range_meters":39200,"station_id":"cki0cbj6b192h4jlfktg","pricing_plan_id":"cebpf4jnsgd1na2vs0mg"},{"bike_id":"9d1321dd-1fbe-408e-9e13-0e21e4e610ef","system_id":"levelo_inurba_marseille","lat":43.28037,"lon":5.36943,"is_reserved":false,"is_disabled":false,"rental_uris":{"android":"levelo://app?vid=9d1321dd-1fbe-408e-9e13-0e21e4e610ef","ios":"levelo://app?vid=9d1321dd-1fbe-408e-9e13-0e21e4e610ef"},"vehicle_type_id":"4","last_reported":1731366487,"current_range_meters":38800,"station_id":"ce4bha12rcd13ifvqef0","pricing_plan_id":"cebpf4jnsgd1na2vs0mg"},{"bike_id":"b5a0f60d-ed4f-4aae-8034-67433a67b848","system_id":"levelo_inurba_marseille","lat":43.29039,"lon":5.39962,"is_reserved":false,"is_disabled":false,"rental_uris":{"android":"levelo://app?vid=b5a0f60d-ed4f-4aae-8034-67433a67b848","ios":"levelo://app?vid=b5a0f60d-ed4f-4aae-8034-67433a67b848"},"vehicle_type_id":"4","last_reported":1731366487,"current_range_meters":34000,"station_id":"ce4bh392rcd13ifvqdm0","pricing_plan_id":"cebpf4jnsgd1na2vs0mg"},{"bike_id":"d58636f1-224d-48a3-ac68-59d52e30576f","system_id":"levelo_inurba_marseille","lat":43.32361,"lon":5.3888,"is_reserved":false,"is_disabled":false,"rental_uris":{"android":"levelo://app?vid=d58636f1-224d-48a3-ac68-59d52e30576f","ios":"levelo://app?vid=d58636f1-224d-48a3-ac68-59d52e30576f"},"vehicle_type_id":"4","last_reported":1731366487,"current_range_meters":33200,"station_id":"ce4bhqp2rcd13ifvqhog","pricing_plan_id":"cebpf4jnsgd1na2vs0mg"},{"bike_id":"00f7bd09-eb18-4ae0-9231-d3b4d0bbc19e","system_id":"levelo_inurba_marseille","lat":43.28414,"lon":5.37516,"is_reserved":false,"is_disabled":false,"rental_uris":{"android":"levelo://app?vid=00f7bd09-eb18-4ae0-9231-d3b4d0bbc19e","ios":"levelo://app?vid=00f7bd09-eb18-4ae0-9231-d3b4d0bbc19e"},"vehicle_type_id":"4","last_reported":1731366487,"current_range_meters":38800,"station_id":"ce4bh412rcd13ifvqds0","pricing_plan_id":"cebpf4jnsgd1na2vs0mg"},{"bike_id":"434cce1a-9eee-4e8b-8865-499812afcbe8","system_id":"levelo_inurba_marseille","lat":43.25821,"lon":5.39439,"is_reserved":false,"is_disabled":false,"rental_uris":{"android":"levelo://app?vid=434cce1a-9eee-4e8b-8865-499812afcbe8","ios":"levelo://app?vid=434cce1a-9eee-4e8b-8865-499812afcbe8"},"vehicle_type_id":"4","last_reported":1731366487,"current_range_meters":38800,"station_id":"ce4bhip2rcd13ifvqft0","pricing_plan_id":"cebpf4jnsgd1na2vs0mg"},{"bike_id":"b44abec3-41dd-4ca0-9892-41b999749fe3","system_id":"levelo_inurba_marseille","lat":43.31282,"lon":5.40174,"is_reserved":false,"is_disabled":false,"rental_uris":{"android":"levelo://app?vid=b44abec3-41dd-4ca0-9892-41b999749fe3","ios":"levelo://app?vid=b44abec3-41dd-4ca0-9892-41b999749fe3"},"vehicle_type_id":"4","last_reported":1731366487,"current_range_meters":26800,"station_id":"ce4bh092rcd13ifvqd30","pricing_plan_id":"cebpf4jnsgd1na2vs0mg"},{"bike_id":"45cbcec8-866a-410e-ac80-4597d326b6ff","system_id":"levelo_inurba_marseille","lat":43.29039,"lon":5.38671,"is_reserved":false,"is_disabled":false,"rental_uris":{"android":"levelo://app?vid=45cbcec8-866a-410e-ac80-4597d326b6ff","ios":"levelo://app?vid=45cbcec8-866a-410e-ac80-4597d326b6ff"},"vehicle_type_id":"4","last_reported":1731366487,"current_range_meters":35600,"station_id":"ce4bh4p2rcd13ifvqe0g","pricing_plan_id":"cebpf4jnsgd1na2vs0mg"},{"bike_id":"b3e9156c-7ae6-49e2-9b82-9b89f0e3e830","system_id":"levelo_inurba_marseille","lat":43.28612,"lon":5.351,"is_reserved":false,"is_disabled":false,"rental_uris":{"android":"levelo://app?vid=b3e9156c-7ae6-49e2-9b82-9b89f0e3e830","ios":"levelo://app?vid=b3e9156c-7ae6-49e2-9b82-9b89f0e3e830"},"vehicle_type_id":"4","last_reported":1731366487,"current_range_meters":25600,"station_id":"ce4bhch2rcd13ifvqeug","pricing_plan_id":"cebpf4jnsgd1na2vs0mg"},{"bike_id":"6e62b74d-c3a1-441b-bf00-0e1651e4eb84","system_id":"levelo_inurba_marseille","lat":43.28263,"lon":5.35057,"is_reserved":false,"is_disabled":false,"rental_uris":{"android":"levelo://app?vid=6e62b74d-c3a1-441b-bf00-0e1651e4eb84","ios":"levelo://app?vid=6e62b74d-c3a1-441b-bf00-0e1651e4eb84"},"vehicle_type_id":"4","last_reported":1731366487,"current_range_meters":20400,"station_id":"ce4bhbp2rcd13ifvqerg","pricing_plan_id":"cebpf4jnsgd1na2vs0mg"},{"bike_id":"af4b16b2-2793-4fea-9648-ff15d2a07b3d","system_id":"levelo_inurba_marseille","lat":43.25071,"lon":5.3951,"is_reserved":false,"is_disabled":false,"rental_uris":{"android":"levelo://app?vid=af4b16b2-2793-4fea-9648-ff15d2a07b3d","ios":"levelo://app?vid=af4b16b2-2793-4fea-9648-ff15d2a07b3d"},"vehicle_type_id":"4","last_reported":1731366487,"current_range_meters":38800,"station_id":"ce4bhm12rcd13ifvqgkg","pricing_plan_id":"cebpf4jnsgd1na2vs0mg"},{"bike_id":"ae6df8b6-b947-4982-b485-c1304b8fa66e","system_id":"levelo_inurba_marseille","lat":43.28728,"lon":5.3609,"is_reserved":false,"is_disabled":false,"rental_uris":{"android":"levelo://app?vid=ae6df8b6-b947-4982-b485-c1304b8fa66e","ios":"levelo://app?vid=ae6df8b6-b947-4982-b485-c1304b8fa66e"},"vehicle_type_id":"4","last_reported":1731366487,"current_range_meters":36000,"station_id":"cki0cbj6b192h4jlfktg","pricing_plan_id":"cebpf4jnsgd1na2vs0mg"},{"bike_id":"2bf17b7d-6c5d-4291-a5db-173f19a13335","system_id":"levelo_inurba_marseille","lat":43.24653,"lon":5.38894,"is_reserved":false,"is_disabled":false,"rental_uris":{"android":"levelo://app?vid=2bf17b7d-6c5d-4291-a5db-173f19a13335","ios":"levelo://app?vid=2bf17b7d-6c5d-4291-a5db-173f19a13335"},"vehicle_type_id":"4","last_reported":1731366487,"current_range_meters":34000,"station_id":"ce4bhg12rcd13ifvqf60","pricing_plan_id":"cebpf4jnsgd1na2vs0mg"},{"bike_id":"1ec31f50-d96c-47c6-9806-96f227089cd4","system_id":"levelo_inurba_marseille","lat":43.27484,"lon":5.42464,"is_reserved":false,"is_disabled":false,"rental_uris":{"android":"levelo://app?vid=1ec31f50-d96c-47c6-9806-96f227089cd4","ios":"levelo://app?vid=1ec31f50-d96c-47c6-9806-96f227089cd4"},"vehicle_type_id":"4","last_reported":1731366487,"current_range_meters":36000,"station_id":"ce4bhn92rcd13ifvqgrg","pricing_plan_id":"cebpf4jnsgd1na2vs0mg"},{"bike_id":"afc3c5b0-3896-4b74-beef-f6846cc7e6a4","system_id":"levelo_inurba_marseille","lat":43.31178,"lon":5.38728,"is_reserved":false,"is_disabled":false,"rental_uris":{"android":"levelo://app?vid=afc3c5b0-3896-4b74-beef-f6846cc7e6a4","ios":"levelo://app?vid=afc3c5b0-3896-4b74-beef-f6846cc7e6a4"},"vehicle_type_id":"4","last_reported":1731366487,"current_range_meters":39200,"station_id":"ce4bgv12rcd13ifvqcp0","pricing_plan_id":"cebpf4jnsgd1na2vs0mg"},{"bike_id":"ac6470e3-40ed-4af3-a282-515bdef8bca7","system_id":"levelo_inurba_marseille","lat":43.30767,"lon":5.37649,"is_reserved":false,"is_disabled":false,"rental_uris":{"android":"levelo://app?vid=ac6470e3-40ed-4af3-a282-515bdef8bca7","ios":"levelo://app?vid=ac6470e3-40ed-4af3-a282-515bdef8bca7"},"vehicle_type_id":"4","last_reported":1731366487,"current_range_meters":12400,"station_id":"ce4bgv92rcd13ifvqcq0","pricing_plan_id":"cebpf4jnsgd1na2vs0mg"},{"bike_id":"796f9777-628d-4d81-985f-572c33d47818","system_id":"levelo_inurba_marseille","lat":43.25583,"lon":5.38237,"is_reserved":false,"is_disabled":false,"rental_uris":{"android":"levelo://app?vid=796f9777-628d-4d81-985f-572c33d47818","ios":"levelo://app?vid=796f9777-628d-4d81-985f-572c33d47818"},"vehicle_type_id":"4","last_reported":1731366487,"current_range_meters":38400,"station_id":"ce4bhih2rcd13ifvqfs0","pricing_plan_id":"cebpf4jnsgd1na2vs0mg"},{"bike_id":"86a1e8ec-924c-482f-a632-e7f0600dca6f","system_id":"levelo_inurba_marseille","lat":43.33609,"lon":5.40978,"is_reserved":false,"is_disabled":false,"rental_uris":{"android":"levelo://app?vid=86a1e8ec-924c-482f-a632-e7f0600dca6f","ios":"levelo://app?vid=86a1e8ec-924c-482f-a632-e7f0600dca6f"},"vehicle_type_id":"4","last_reported":1731366487,"current_range_meters":38800,"station_id":"ce4bhqh2rcd13ifvqhmg","pricing_plan_id":"cebpf4jnsgd1na2vs0mg"},{"bike_id":"c8f0f6c6-06bf-46f5-bd4b-05ae21e43eef","system_id":"levelo_inurba_marseille","lat":43.28086,"lon":5.39662,"is_reserved":false,"is_disabled":false,"rental_uris":{"android":"levelo://app?vid=c8f0f6c6-06bf-46f5-bd4b-05ae21e43eef","ios":"levelo://app?vid=c8f0f6c6-06bf-46f5-bd4b-05ae21e43eef"},"vehicle_type_id":"4","last_reported":1731366487,"current_range_meters":29600,"station_id":"ce4bho12rcd13ifvqh2g","pricing_plan_id":"cebpf4jnsgd1na2vs0mg"},{"bike_id":"d70f17af-3f4a-45ba-b110-f13fc1483529","system_id":"levelo_inurba_marseille","lat":43.30414,"lon":5.39758,"is_reserved":false,"is_disabled":false,"rental_uris":{"android":"levelo://app?vid=d70f17af-3f4a-45ba-b110-f13fc1483529","ios":"levelo://app?vid=d70f17af-3f4a-45ba-b110-f13fc1483529"},"vehicle_type_id":"4","last_reported":1731366487,"current_range_meters":21600,"station_id":"ce4bh092rcd13ifvqd20","pricing_plan_id":"cebpf4jnsgd1na2vs0mg"},{"bike_id":"621b9599-71ec-4c56-8b3b-21f11173c704","system_id":"levelo_inurba_marseille","lat":43.3021,"lon":5.39475,"is_reserved":false,"is_disabled":false,"rental_uris":{"android":"levelo://app?vid=621b9599-71ec-4c56-8b3b-21f11173c704","ios":"levelo://app?vid=621b9599-71ec-4c56-8b3b-21f11173c704"},"vehicle_type_id":"4","last_reported":1731366487,"current_range_meters":38000,"station_id":"ce4bh0p2rcd13ifvqd70","pricing_plan_id":"cebpf4jnsgd1na2vs0mg"},{"bike_id":"a76dcffa-3fcf-4c4b-97c6-84d62e8f453f","system_id":"levelo_inurba_marseille","lat":43.28092,"lon":5.39658,"is_reserved":false,"is_disabled":false,"rental_uris":{"android":"levelo://app?vid=a76dcffa-3fcf-4c4b-97c6-84d62e8f453f","ios":"levelo://app?vid=a76dcffa-3fcf-4c4b-97c6-84d62e8f453f"},"vehicle_type_id":"4","last_reported":1731366487,"current_range_meters":36400,"station_id":"ce4bho12rcd13ifvqh2g","pricing_plan_id":"cebpf4jnsgd1na2vs0mg"},{"bike_id":"55f1a7c3-896e-434c-b890-0d70bff8f621","system_id":"levelo_inurba_marseille","lat":43.2465,"lon":5.38885,"is_reserved":false,"is_disabled":false,"rental_uris":{"android":"levelo://app?vid=55f1a7c3-896e-434c-b890-0d70bff8f621","ios":"levelo://app?vid=55f1a7c3-896e-434c-b890-0d70bff8f621"},"vehicle_type_id":"4","last_reported":1731366487,"current_range_meters":14000,"station_id":"ce4bhg12rcd13ifvqf60","pricing_plan_id":"cebpf4jnsgd1na2vs0mg"},{"bike_id":"4839c812-e2cb-432b-a0ef-e2817e346c52","system_id":"levelo_inurba_marseille","lat":43.292,"lon":5.39321,"is_reserved":false,"is_disabled":false,"rental_uris":{"android":"levelo://app?vid=4839c812-e2cb-432b-a0ef-e2817e346c52","ios":"levelo://app?vid=4839c812-e2cb-432b-a0ef-e2817e346c52"},"vehicle_type_id":"4","last_reported":1731366487,"current_range_meters":38000,"station_id":"ce4bh192rcd13ifvqdd0","pricing_plan_id":"cebpf4jnsgd1na2vs0mg"},{"bike_id":"ddb46d32-a809-4e74-a10a-eb15b0ade389","system_id":"levelo_inurba_marseille","lat":43.32662,"lon":5.40992,"is_reserved":false,"is_disabled":false,"rental_uris":{"android":"levelo://app?vid=ddb46d32-a809-4e74-a10a-eb15b0ade389","ios":"levelo://app?vid=ddb46d32-a809-4e74-a10a-eb15b0ade389"},"vehicle_type_id":"4","last_reported":1731366487,"current_range_meters":35200,"station_id":"ce4bhpp2rcd13ifvqhgg","pricing_plan_id":"cebpf4jnsgd1na2vs0mg"},{"bike_id":"c36e09f6-da29-469f-96f7-c387a11a0e2b","system_id":"levelo_inurba_marseille","lat":43.30207,"lon":5.39483,"is_reserved":false,"is_disabled":false,"rental_uris":{"android":"levelo://app?vid=c36e09f6-da29-469f-96f7-c387a11a0e2b","ios":"levelo://app?vid=c36e09f6-da29-469f-96f7-c387a11a0e2b"},"vehicle_type_id":"4","last_reported":1731366487,"current_range_meters":25600,"station_id":"ce4bh0p2rcd13ifvqd70","pricing_plan_id":"cebpf4jnsgd1na2vs0mg"},{"bike_id":"a7d71a95-aff9-47f9-8c01-defabf3b40db","system_id":"levelo_inurba_marseille","lat":43.28153,"lon":5.42645,"is_reserved":false,"is_disabled":false,"rental_uris":{"android":"levelo://app?vid=a7d71a95-aff9-47f9-8c01-defabf3b40db","ios":"levelo://app?vid=a7d71a95-aff9-47f9-8c01-defabf3b40db"},"vehicle_type_id":"4","last_reported":1731366487,"current_range_meters":8800,"station_id":"ce4bhnh2rcd13ifvqgug","pricing_plan_id":"cebpf4jnsgd1na2vs0mg"},{"bike_id":"471e1f62-51e4-4556-bb48-2828e393c998","system_id":"levelo_inurba_marseille","lat":43.31992,"lon":5.38154,"is_reserved":false,"is_disabled":false,"rental_uris":{"android":"levelo://app?vid=471e1f62-51e4-4556-bb48-2828e393c998","ios":"levelo://app?vid=471e1f62-51e4-4556-bb48-2828e393c998"},"vehicle_type_id":"4","last_reported":1731366487,"current_range_meters":39200,"station_id":"ce4bhr12rcd13ifvqhpg","pricing_plan_id":"cebpf4jnsgd1na2vs0mg"},{"bike_id":"30e18bba-f22a-4dbe-9837-4f97a1a00fad","system_id":"levelo_inurba_marseille","lat":43.31326,"lon":5.3969,"is_reserved":false,"is_disabled":false,"rental_uris":{"android":"levelo://app?vid=30e18bba-f22a-4dbe-9837-4f97a1a00fad","ios":"levelo://app?vid=30e18bba-f22a-4dbe-9837-4f97a1a00fad"},"vehicle_type_id":"4","last_reported":1731366487,"current_range_meters":38800,"station_id":"ce4bgvp2rcd13ifvqcu0","pricing_plan_id":"cebpf4jnsgd1na2vs0mg"},{"bike_id":"ee71311d-2126-4643-af97-c9cbb2c245b0","system_id":"levelo_inurba_marseille","lat":43.29261,"lon":5.40912,"is_reserved":false,"is_disabled":false,"rental_uris":{"android":"levelo://app?vid=ee71311d-2126-4643-af97-c9cbb2c245b0","ios":"levelo://app?vid=ee71311d-2126-4643-af97-c9cbb2c245b0"},"vehicle_type_id":"4","last_reported":1731366487,"current_range_meters":19600,"station_id":"ce4bh192rcd13ifvqdc0","pricing_plan_id":"cebpf4jnsgd1na2vs0mg"},{"bike_id":"ce71d16e-828d-465e-b8f9-c4f23825cc86","system_id":"levelo_inurba_marseille","lat":43.29277,"lon":5.40137,"is_reserved":false,"is_disabled":false,"rental_uris":{"android":"levelo://app?vid=ce71d16e-828d-465e-b8f9-c4f23825cc86","ios":"levelo://app?vid=ce71d16e-828d-465e-b8f9-c4f23825cc86"},"vehicle_type_id":"4","last_reported":1731366487,"current_range_meters":34800,"station_id":"ce4bh312rcd13ifvqdk0","pricing_plan_id":"cebpf4jnsgd1na2vs0mg"},{"bike_id":"db2427c1-db4e-4ce9-bdcb-63bb1fc9da9e","system_id":"levelo_inurba_marseille","lat":43.27433,"lon":5.39413,"is_reserved":false,"is_disabled":false,"rental_uris":{"android":"levelo://app?vid=db2427c1-db4e-4ce9-bdcb-63bb1fc9da9e","ios":"levelo://app?vid=db2427c1-db4e-4ce9-bdcb-63bb1fc9da9e"},"vehicle_type_id":"4","last_reported":1731366487,"current_range_meters":26000,"station_id":"ce4bhdp2rcd13ifvqf20","pricing_plan_id":"cebpf4jnsgd1na2vs0mg"},{"bike_id":"d6def4f4-d82d-4857-a542-c10ebf29be97","system_id":"levelo_inurba_marseille","lat":43.3133,"lon":5.39695,"is_reserved":false,"is_disabled":false,"rental_uris":{"android":"levelo://app?vid=d6def4f4-d82d-4857-a542-c10ebf29be97","ios":"levelo://app?vid=d6def4f4-d82d-4857-a542-c10ebf29be97"},"vehicle_type_id":"4","last_reported":1731366487,"current_range_meters":24800,"station_id":"ce4bgvp2rcd13ifvqcu0","pricing_plan_id":"cebpf4jnsgd1na2vs0mg"},{"bike_id":"d0d88b91-758d-4aab-bfa2-05edbfbbe66c","system_id":"levelo_inurba_marseille","lat":43.30906,"lon":5.36856,"is_reserved":false,"is_disabled":false,"rental_uris":{"android":"levelo://app?vid=d0d88b91-758d-4aab-bfa2-05edbfbbe66c","ios":"levelo://app?vid=d0d88b91-758d-4aab-bfa2-05edbfbbe66c"},"vehicle_type_id":"4","last_reported":1731366487,"current_range_meters":37600,"station_id":"ce4bgn92rcd13ifvqbvg","pricing_plan_id":"cebpf4jnsgd1na2vs0mg"},{"bike_id":"e2bf8ae0-838f-42c2-955c-451b1c90efc4","system_id":"levelo_inurba_marseille","lat":43.2903,"lon":5.38646,"is_reserved":false,"is_disabled":false,"rental_uris":{"android":"levelo://app?vid=e2bf8ae0-838f-42c2-955c-451b1c90efc4","ios":"levelo://app?vid=e2bf8ae0-838f-42c2-955c-451b1c90efc4"},"vehicle_type_id":"4","last_reported":1731366487,"current_range_meters":9200,"station_id":"ce4bh4p2rcd13ifvqe0g","pricing_plan_id":"cebpf4jnsgd1na2vs0mg"},{"bike_id":"213ebe40-36f1-4662-b159-1ff1ce218bf9","system_id":"levelo_inurba_marseille","lat":43.31707,"lon":5.3777,"is_reserved":false,"is_disabled":false,"rental_uris":{"android":"levelo://app?vid=213ebe40-36f1-4662-b159-1ff1ce218bf9","ios":"levelo://app?vid=213ebe40-36f1-4662-b159-1ff1ce218bf9"},"vehicle_type_id":"4","last_reported":1731366487,"current_range_meters":38800,"station_id":"ce4bgth2rcd13ifvqch0","pricing_plan_id":"cebpf4jnsgd1na2vs0mg"},{"bike_id":"d9a23c15-de1b-409c-a1bb-c645bf0c824f","system_id":"levelo_inurba_marseille","lat":43.28667,"lon":5.36361,"is_reserved":false,"is_disabled":false,"rental_uris":{"android":"levelo://app?vid=d9a23c15-de1b-409c-a1bb-c645bf0c824f","ios":"levelo://app?vid=d9a23c15-de1b-409c-a1bb-c645bf0c824f"},"vehicle_type_id":"4","last_reported":1731366487,"current_range_meters":35200,"station_id":"ce4bhah2rcd13ifvqej0","pricing_plan_id":"cebpf4jnsgd1na2vs0mg"},{"bike_id":"fa0311f8-b23f-406e-a708-49eae5db2178","system_id":"levelo_inurba_marseille","lat":43.25866,"lon":5.39901,"is_reserved":false,"is_disabled":false,"rental_uris":{"android":"levelo://app?vid=fa0311f8-b23f-406e-a708-49eae5db2178","ios":"levelo://app?vid=fa0311f8-b23f-406e-a708-49eae5db2178"},"vehicle_type_id":"4","last_reported":1731366487,"current_range_meters":39200,"station_id":"ce4bhl92rcd13ifvqghg","pricing_plan_id":"cebpf4jnsgd1na2vs0mg"},{"bike_id":"0dea3daa-f01b-4527-888d-2b6232c8f80b","system_id":"levelo_inurba_marseille","lat":43.30096,"lon":5.39096,"is_reserved":false,"is_disabled":false,"rental_uris":{"android":"levelo://app?vid=0dea3daa-f01b-4527-888d-2b6232c8f80b","ios":"levelo://app?vid=0dea3daa-f01b-4527-888d-2b6232c8f80b"},"vehicle_type_id":"4","last_reported":1731366487,"current_range_meters":38800,"station_id":"ce4bh192rcd13ifvqdb0","pricing_plan_id":"cebpf4jnsgd1na2vs0mg"},{"bike_id":"639e350b-e8f2-4cb1-be79-9adcdba8f7fa","system_id":"levelo_inurba_marseille","lat":43.284819,"lon":5.384307,"is_reserved":false,"is_disabled":false,"rental_uris":{"android":"levelo://app?vid=639e350b-e8f2-4cb1-be79-9adcdba8f7fa","ios":"levelo://app?vid=639e350b-e8f2-4cb1-be79-9adcdba8f7fa"},"vehicle_type_id":"4","last_reported":1731366487,"current_range_meters":38800,"station_id":"ce4bh512rcd13ifvqe3g","pricing_plan_id":"cebpf4jnsgd1na2vs0mg"},{"bike_id":"46e00f9b-6591-48d5-b1d3-dbeb150c13ea","system_id":"levelo_inurba_marseille","lat":43.27831,"lon":5.39207,"is_reserved":false,"is_disabled":false,"rental_uris":{"android":"levelo://app?vid=46e00f9b-6591-48d5-b1d3-dbeb150c13ea","ios":"levelo://app?vid=46e00f9b-6591-48d5-b1d3-dbeb150c13ea"},"vehicle_type_id":"4","last_reported":1731366487,"current_range_meters":33200,"station_id":"ce4bhjp2rcd13ifvqga0","pricing_plan_id":"cebpf4jnsgd1na2vs0mg"},{"bike_id":"047fda03-fe7d-4b79-a357-2b6fc387f4c3","system_id":"levelo_inurba_marseille","lat":43.31328,"lon":5.39694,"is_reserved":false,"is_disabled":false,"rental_uris":{"android":"levelo://app?vid=047fda03-fe7d-4b79-a357-2b6fc387f4c3","ios":"levelo://app?vid=047fda03-fe7d-4b79-a357-2b6fc387f4c3"},"vehicle_type_id":"4","last_reported":1731366487,"current_range_meters":38800,"station_id":"ce4bgvp2rcd13ifvqcu0","pricing_plan_id":"cebpf4jnsgd1na2vs0mg"},{"bike_id":"c976cdde-0993-47a0-9228-5a2ed120aff4","system_id":"levelo_inurba_marseille","lat":43.27566,"lon":5.3844,"is_reserved":false,"is_disabled":false,"rental_uris":{"android":"levelo://app?vid=c976cdde-0993-47a0-9228-5a2ed120aff4","ios":"levelo://app?vid=c976cdde-0993-47a0-9228-5a2ed120aff4"},"vehicle_type_id":"4","last_reported":1731366487,"current_range_meters":8800,"station_id":"ce4bhh92rcd13ifvqfi0","pricing_plan_id":"cebpf4jnsgd1na2vs0mg"},{"bike_id":"2972f759-c98e-4fe7-9758-85d215895273","system_id":"levelo_inurba_marseille","lat":43.23958,"lon":5.36627,"is_reserved":false,"is_disabled":false,"rental_uris":{"android":"levelo://app?vid=2972f759-c98e-4fe7-9758-85d215895273","ios":"levelo://app?vid=2972f759-c98e-4fe7-9758-85d215895273"},"vehicle_type_id":"4","last_reported":1731366487,"current_range_meters":28400,"station_id":"ce4bhi12rcd13ifvqfp0","pricing_plan_id":"cebpf4jnsgd1na2vs0mg"},{"bike_id":"d0ef08cf-1a61-4d5a-9612-ccfee90a1e32","system_id":"levelo_inurba_marseille","lat":43.24811,"lon":5.37467,"is_reserved":false,"is_disabled":false,"rental_uris":{"android":"levelo://app?vid=d0ef08cf-1a61-4d5a-9612-ccfee90a1e32","ios":"levelo://app?vid=d0ef08cf-1a61-4d5a-9612-ccfee90a1e32"},"vehicle_type_id":"4","last_reported":1731366487,"current_range_meters":38800,"station_id":"ce4bhgh2rcd13ifvqfb0","pricing_plan_id":"cebpf4jnsgd1na2vs0mg"},{"bike_id":"256bc4d1-8676-4063-967d-346e76627e85","system_id":"levelo_inurba_marseille","lat":43.30433,"lon":5.38887,"is_reserved":false,"is_disabled":false,"rental_uris":{"android":"levelo://app?vid=256bc4d1-8676-4063-967d-346e76627e85","ios":"levelo://app?vid=256bc4d1-8676-4063-967d-346e76627e85"},"vehicle_type_id":"4","last_reported":1731366487,"current_range_meters":37600,"station_id":"ce4bgk12rcd13ifvqbi0","pricing_plan_id":"cebpf4jnsgd1na2vs0mg"},{"bike_id":"718e2470-3b0b-4748-985e-dfeeef0c4b3b","system_id":"levelo_inurba_marseille","lat":43.29254,"lon":5.40902,"is_reserved":false,"is_disabled":false,"rental_uris":{"android":"levelo://app?vid=718e2470-3b0b-4748-985e-dfeeef0c4b3b","ios":"levelo://app?vid=718e2470-3b0b-4748-985e-dfeeef0c4b3b"},"vehicle_type_id":"4","last_reported":1731366487,"current_range_meters":38800,"station_id":"ce4bh192rcd13ifvqdc0","pricing_plan_id":"cebpf4jnsgd1na2vs0mg"},{"bike_id":"3028cdff-ede0-4f42-bdc9-11c7c92f380c","system_id":"levelo_inurba_marseille","lat":43.30419,"lon":5.39758,"is_reserved":false,"is_disabled":false,"rental_uris":{"android":"levelo://app?vid=3028cdff-ede0-4f42-bdc9-11c7c92f380c","ios":"levelo://app?vid=3028cdff-ede0-4f42-bdc9-11c7c92f380c"},"vehicle_type_id":"4","last_reported":1731366487,"current_range_meters":38400,"station_id":"ce4bh092rcd13ifvqd20","pricing_plan_id":"cebpf4jnsgd1na2vs0mg"},{"bike_id":"b819a652-8368-4390-b80a-73f224bb04bf","system_id":"levelo_inurba_marseille","lat":43.23183,"lon":5.39992,"is_reserved":false,"is_disabled":false,"rental_uris":{"android":"levelo://app?vid=b819a652-8368-4390-b80a-73f224bb04bf","ios":"levelo://app?vid=b819a652-8368-4390-b80a-73f224bb04bf"},"vehicle_type_id":"4","last_reported":1731366487,"current_range_meters":38800,"station_id":"ce4bhn12rcd13ifvqgqg","pricing_plan_id":"cebpf4jnsgd1na2vs0mg"},{"bike_id":"f1b68bd2-269f-4a84-b7e7-b5b02ae64077","system_id":"levelo_inurba_marseille","lat":43.2743,"lon":5.39424,"is_reserved":false,"is_disabled":false,"rental_uris":{"android":"levelo://app?vid=f1b68bd2-269f-4a84-b7e7-b5b02ae64077","ios":"levelo://app?vid=f1b68bd2-269f-4a84-b7e7-b5b02ae64077"},"vehicle_type_id":"4","last_reported":1731366487,"current_range_meters":38800,"station_id":"ce4bhdp2rcd13ifvqf20","pricing_plan_id":"cebpf4jnsgd1na2vs0mg"},{"bike_id":"0c0c226c-4311-40bc-966e-4d8a46b2c5c4","system_id":"levelo_inurba_marseille","lat":43.24072,"lon":5.37763,"is_reserved":false,"is_disabled":false,"rental_uris":{"android":"levelo://app?vid=0c0c226c-4311-40bc-966e-4d8a46b2c5c4","ios":"levelo://app?vid=0c0c226c-4311-40bc-966e-4d8a46b2c5c4"},"vehicle_type_id":"4","last_reported":1731366487,"current_range_meters":20800,"station_id":"ce4bhnp2rcd13ifvqgvg","pricing_plan_id":"cebpf4jnsgd1na2vs0mg"},{"bike_id":"fa0d82bf-057b-4d7f-b2a1-c89372f016b9","system_id":"levelo_inurba_marseille","lat":43.30646,"lon":5.4009,"is_reserved":false,"is_disabled":false,"rental_uris":{"android":"levelo://app?vid=fa0d82bf-057b-4d7f-b2a1-c89372f016b9","ios":"levelo://app?vid=fa0d82bf-057b-4d7f-b2a1-c89372f016b9"},"vehicle_type_id":"4","last_reported":1731366487,"current_range_meters":32800,"station_id":"ce4bh112rcd13ifvqda0","pricing_plan_id":"cebpf4jnsgd1na2vs0mg"},{"bike_id":"6bfdf342-641e-4583-81b7-36d00f017b81","system_id":"levelo_inurba_marseille","lat":43.25864,"lon":5.39903,"is_reserved":false,"is_disabled":false,"rental_uris":{"android":"levelo://app?vid=6bfdf342-641e-4583-81b7-36d00f017b81","ios":"levelo://app?vid=6bfdf342-641e-4583-81b7-36d00f017b81"},"vehicle_type_id":"4","last_reported":1731366487,"current_range_meters":2800,"station_id":"ce4bhl92rcd13ifvqghg","pricing_plan_id":"cebpf4jnsgd1na2vs0mg"},{"bike_id":"a54a1cc6-fb75-4d65-b6c0-1c9b0e3a2320","system_id":"levelo_inurba_marseille","lat":43.31166,"lon":5.38707,"is_reserved":false,"is_disabled":false,"rental_uris":{"android":"levelo://app?vid=a54a1cc6-fb75-4d65-b6c0-1c9b0e3a2320","ios":"levelo://app?vid=a54a1cc6-fb75-4d65-b6c0-1c9b0e3a2320"},"vehicle_type_id":"4","last_reported":1731366487,"current_range_meters":38800,"station_id":"ce4bgv12rcd13ifvqcp0","pricing_plan_id":"cebpf4jnsgd1na2vs0mg"},{"bike_id":"158b97eb-d890-4f70-b418-2a911b1da1d2","system_id":"levelo_inurba_marseille","lat":43.27954,"lon":5.41055,"is_reserved":false,"is_disabled":false,"rental_uris":{"android":"levelo://app?vid=158b97eb-d890-4f70-b418-2a911b1da1d2","ios":"levelo://app?vid=158b97eb-d890-4f70-b418-2a911b1da1d2"},"vehicle_type_id":"4","last_reported":1731366487,"current_range_meters":38800,"station_id":"ce4bhnp2rcd13ifvqh0g","pricing_plan_id":"cebpf4jnsgd1na2vs0mg"},{"bike_id":"f034f203-03ea-4fdf-93aa-a3635747d7f6","system_id":"levelo_inurba_marseille","lat":43.27613,"lon":5.36109,"is_reserved":false,"is_disabled":false,"rental_uris":{"android":"levelo://app?vid=f034f203-03ea-4fdf-93aa-a3635747d7f6","ios":"levelo://app?vid=f034f203-03ea-4fdf-93aa-a3635747d7f6"},"vehicle_type_id":"4","last_reported":1731366487,"current_range_meters":28800,"station_id":"ce4bgj92rcd13ifvqbe0","pricing_plan_id":"cebpf4jnsgd1na2vs0mg"},{"bike_id":"c2c0c158-e994-4346-894a-aa2c5884f6bb","system_id":"levelo_inurba_marseille","lat":43.25488,"lon":5.37647,"is_reserved":false,"is_disabled":false,"rental_uris":{"android":"levelo://app?vid=c2c0c158-e994-4346-894a-aa2c5884f6bb","ios":"levelo://app?vid=c2c0c158-e994-4346-894a-aa2c5884f6bb"},"vehicle_type_id":"4","last_reported":1731366487,"current_range_meters":38800,"station_id":"ce4bhh12rcd13ifvqff0","pricing_plan_id":"cebpf4jnsgd1na2vs0mg"},{"bike_id":"3260cc4a-31ee-4f29-b1d9-1f2c1c8e2cb4","system_id":"levelo_inurba_marseille","lat":43.25732,"lon":5.41111,"is_reserved":false,"is_disabled":false,"rental_uris":{"android":"levelo://app?vid=3260cc4a-31ee-4f29-b1d9-1f2c1c8e2cb4","ios":"levelo://app?vid=3260cc4a-31ee-4f29-b1d9-1f2c1c8e2cb4"},"vehicle_type_id":"4","last_reported":1731366487,"current_range_meters":28000,"station_id":"ce4bhkp2rcd13ifvqgd0","pricing_plan_id":"cebpf4jnsgd1na2vs0mg"},{"bike_id":"ee5ad2cd-7dcc-4d23-91f3-8c15ad1d383a","system_id":"levelo_inurba_marseille","lat":43.27822,"lon":5.39223,"is_reserved":false,"is_disabled":false,"rental_uris":{"android":"levelo://app?vid=ee5ad2cd-7dcc-4d23-91f3-8c15ad1d383a","ios":"levelo://app?vid=ee5ad2cd-7dcc-4d23-91f3-8c15ad1d383a"},"vehicle_type_id":"4","last_reported":1731366487,"current_range_meters":29600,"station_id":"ce4bhjp2rcd13ifvqga0","pricing_plan_id":"cebpf4jnsgd1na2vs0mg"},{"bike_id":"31f7560b-0f52-4d6b-ac39-46cf0a6c1468","system_id":"levelo_inurba_marseille","lat":43.24389,"lon":5.37053,"is_reserved":false,"is_disabled":false,"rental_uris":{"android":"levelo://app?vid=31f7560b-0f52-4d6b-ac39-46cf0a6c1468","ios":"levelo://app?vid=31f7560b-0f52-4d6b-ac39-46cf0a6c1468"},"vehicle_type_id":"4","last_reported":1731366487,"current_range_meters":38800,"station_id":"ce4bhhh2rcd13ifvqfk0","pricing_plan_id":"cebpf4jnsgd1na2vs0mg"},{"bike_id":"40292f36-b783-475a-a909-db6db3fc2686","system_id":"levelo_inurba_marseille","lat":43.29283,"lon":5.40122,"is_reserved":false,"is_disabled":false,"rental_uris":{"android":"levelo://app?vid=40292f36-b783-475a-a909-db6db3fc2686","ios":"levelo://app?vid=40292f36-b783-475a-a909-db6db3fc2686"},"vehicle_type_id":"4","last_reported":1731366487,"current_range_meters":36400,"station_id":"ce4bh312rcd13ifvqdk0","pricing_plan_id":"cebpf4jnsgd1na2vs0mg"},{"bike_id":"c9fa5281-4222-4ac9-beb0-46ec80e63e7c","system_id":"levelo_inurba_marseille","lat":43.28079,"lon":5.39659,"is_reserved":false,"is_disabled":false,"rental_uris":{"android":"levelo://app?vid=c9fa5281-4222-4ac9-beb0-46ec80e63e7c","ios":"levelo://app?vid=c9fa5281-4222-4ac9-beb0-46ec80e63e7c"},"vehicle_type_id":"4","last_reported":1731366487,"current_range_meters":24800,"station_id":"ce4bho12rcd13ifvqh2g","pricing_plan_id":"cebpf4jnsgd1na2vs0mg"},{"bike_id":"dd2b8768-f22e-480b-8778-9d9e6cf2b8b7","system_id":"levelo_inurba_marseille","lat":43.27427,"lon":5.39423,"is_reserved":false,"is_disabled":false,"rental_uris":{"android":"levelo://app?vid=dd2b8768-f22e-480b-8778-9d9e6cf2b8b7","ios":"levelo://app?vid=dd2b8768-f22e-480b-8778-9d9e6cf2b8b7"},"vehicle_type_id":"4","last_reported":1731366487,"current_range_meters":36400,"station_id":"ce4bhdp2rcd13ifvqf20","pricing_plan_id":"cebpf4jnsgd1na2vs0mg"},{"bike_id":"f3d38261-a20c-4abf-bd9c-4639d1d0adb0","system_id":"levelo_inurba_marseille","lat":43.33602,"lon":5.41025,"is_reserved":false,"is_disabled":false,"rental_uris":{"android":"levelo://app?vid=f3d38261-a20c-4abf-bd9c-4639d1d0adb0","ios":"levelo://app?vid=f3d38261-a20c-4abf-bd9c-4639d1d0adb0"},"vehicle_type_id":"4","last_reported":1731366487,"current_range_meters":25600,"station_id":"ce4bhqh2rcd13ifvqhmg","pricing_plan_id":"cebpf4jnsgd1na2vs0mg"},{"bike_id":"d64c790a-1100-4ff9-bdfd-7e142e7e79dd","system_id":"levelo_inurba_marseille","lat":43.26688,"lon":5.38278,"is_reserved":false,"is_disabled":false,"rental_uris":{"android":"levelo://app?vid=d64c790a-1100-4ff9-bdfd-7e142e7e79dd","ios":"levelo://app?vid=d64c790a-1100-4ff9-bdfd-7e142e7e79dd"},"vehicle_type_id":"4","last_reported":1731366487,"current_range_meters":38800,"station_id":"ce4bhg92rcd13ifvqf90","pricing_plan_id":"cebpf4jnsgd1na2vs0mg"},{"bike_id":"18c4fa3f-0de0-44da-924b-2b3b1416f07a","system_id":"levelo_inurba_marseille","lat":43.2992,"lon":5.37474,"is_reserved":false,"is_disabled":false,"rental_uris":{"android":"levelo://app?vid=18c4fa3f-0de0-44da-924b-2b3b1416f07a","ios":"levelo://app?vid=18c4fa3f-0de0-44da-924b-2b3b1416f07a"},"vehicle_type_id":"4","last_reported":1731366487,"current_range_meters":22000,"station_id":"ce4bgjh2rcd13ifvqbg0","pricing_plan_id":"cebpf4jnsgd1na2vs0mg"},{"bike_id":"46151979-4c1f-4bd2-b430-fb765931b76e","system_id":"levelo_inurba_marseille","lat":43.29374,"lon":5.37848,"is_reserved":false,"is_disabled":false,"rental_uris":{"android":"levelo://app?vid=46151979-4c1f-4bd2-b430-fb765931b76e","ios":"levelo://app?vid=46151979-4c1f-4bd2-b430-fb765931b76e"},"vehicle_type_id":"4","last_reported":1731366487,"current_range_meters":38000,"station_id":"ce4bgjh2rcd13ifvqbf0","pricing_plan_id":"cebpf4jnsgd1na2vs0mg"},{"bike_id":"f5f7adb1-08a0-41e5-84f8-4eacbb87fa6f","system_id":"levelo_inurba_marseille","lat":43.2396,"lon":5.36643,"is_reserved":false,"is_disabled":false,"rental_uris":{"android":"levelo://app?vid=f5f7adb1-08a0-41e5-84f8-4eacbb87fa6f","ios":"levelo://app?vid=f5f7adb1-08a0-41e5-84f8-4eacbb87fa6f"},"vehicle_type_id":"4","last_reported":1731366487,"current_range_meters":38800,"station_id":"ce4bhi12rcd13ifvqfp0","pricing_plan_id":"cebpf4jnsgd1na2vs0mg"},{"bike_id":"cd3763b4-c6c9-439a-8c88-6b6d78464d6e","system_id":"levelo_inurba_marseille","lat":43.337444,"lon":5.374475,"is_reserved":false,"is_disabled":false,"rental_uris":{"android":"levelo://app?vid=cd3763b4-c6c9-439a-8c88-6b6d78464d6e","ios":"levelo://app?vid=cd3763b4-c6c9-439a-8c88-6b6d78464d6e"},"vehicle_type_id":"4","last_reported":1731366487,"current_range_meters":34800,"station_id":"","pricing_plan_id":"cebpf4jnsgd1na2vs0mg"},{"bike_id":"a64e486f-ab51-45e7-ae26-9bf3a4451217","system_id":"levelo_inurba_marseille","lat":43.31997,"lon":5.3816,"is_reserved":false,"is_disabled":false,"rental_uris":{"android":"levelo://app?vid=a64e486f-ab51-45e7-ae26-9bf3a4451217","ios":"levelo://app?vid=a64e486f-ab51-45e7-ae26-9bf3a4451217"},"vehicle_type_id":"4","last_reported":1731366487,"current_range_meters":38800,"station_id":"ce4bhr12rcd13ifvqhpg","pricing_plan_id":"cebpf4jnsgd1na2vs0mg"},{"bike_id":"278e7ea9-a4f9-400f-9029-ec10e70e6e2f","system_id":"levelo_inurba_marseille","lat":43.30601,"lon":5.39374,"is_reserved":false,"is_disabled":false,"rental_uris":{"android":"levelo://app?vid=278e7ea9-a4f9-400f-9029-ec10e70e6e2f","ios":"levelo://app?vid=278e7ea9-a4f9-400f-9029-ec10e70e6e2f"},"vehicle_type_id":"4","last_reported":1731366487,"current_range_meters":9200,"station_id":"ce4bh0p2rcd13ifvqd80","pricing_plan_id":"cebpf4jnsgd1na2vs0mg"},{"bike_id":"fa012431-6b51-4c1a-9703-6517b7a85415","system_id":"levelo_inurba_marseille","lat":43.31139,"lon":5.38298,"is_reserved":false,"is_disabled":false,"rental_uris":{"android":"levelo://app?vid=fa012431-6b51-4c1a-9703-6517b7a85415","ios":"levelo://app?vid=fa012431-6b51-4c1a-9703-6517b7a85415"},"vehicle_type_id":"4","last_reported":1731366487,"current_range_meters":8400,"station_id":"ce4bh2h2rcd13ifvqdh0","pricing_plan_id":"cebpf4jnsgd1na2vs0mg"},{"bike_id":"29fd9c8f-5a7f-4c1f-9c19-eea4917c0fc8","system_id":"levelo_inurba_marseille","lat":43.25496,"lon":5.37652,"is_reserved":false,"is_disabled":false,"rental_uris":{"android":"levelo://app?vid=29fd9c8f-5a7f-4c1f-9c19-eea4917c0fc8","ios":"levelo://app?vid=29fd9c8f-5a7f-4c1f-9c19-eea4917c0fc8"},"vehicle_type_id":"4","last_reported":1731366487,"current_range_meters":38800,"station_id":"ce4bhh12rcd13ifvqff0","pricing_plan_id":"cebpf4jnsgd1na2vs0mg"},{"bike_id":"011e63d3-05b7-45e9-9aaa-fdfc6f62c27e","system_id":"levelo_inurba_marseille","lat":43.28716,"lon":5.37947,"is_reserved":false,"is_disabled":false,"rental_uris":{"android":"levelo://app?vid=011e63d3-05b7-45e9-9aaa-fdfc6f62c27e","ios":"levelo://app?vid=011e63d3-05b7-45e9-9aaa-fdfc6f62c27e"},"vehicle_type_id":"4","last_reported":1731366487,"current_range_meters":38800,"station_id":"ce4bh9p2rcd13ifvqec0","pricing_plan_id":"cebpf4jnsgd1na2vs0mg"},{"bike_id":"c85c23ca-d019-4d10-b7f8-59940ca10fe8","system_id":"levelo_inurba_marseille","lat":43.32337,"lon":5.40624,"is_reserved":false,"is_disabled":false,"rental_uris":{"android":"levelo://app?vid=c85c23ca-d019-4d10-b7f8-59940ca10fe8","ios":"levelo://app?vid=c85c23ca-d019-4d10-b7f8-59940ca10fe8"},"vehicle_type_id":"4","last_reported":1731366487,"current_range_meters":33600,"station_id":"ce4bhq92rcd13ifvqhjg","pricing_plan_id":"cebpf4jnsgd1na2vs0mg"},{"bike_id":"34d10464-eefe-40b0-9952-b9f7391e087f","system_id":"levelo_inurba_marseille","lat":43.34141,"lon":5.40911,"is_reserved":false,"is_disabled":false,"rental_uris":{"android":"levelo://app?vid=34d10464-eefe-40b0-9952-b9f7391e087f","ios":"levelo://app?vid=34d10464-eefe-40b0-9952-b9f7391e087f"},"vehicle_type_id":"4","last_reported":1731366487,"current_range_meters":38800,"station_id":"ce4bhqh2rcd13ifvqhlg","pricing_plan_id":"cebpf4jnsgd1na2vs0mg"},{"bike_id":"34c4e5fd-d09b-481c-889a-20f2df0a03b0","system_id":"levelo_inurba_marseille","lat":43.281548,"lon":5.426642,"is_reserved":false,"is_disabled":false,"rental_uris":{"android":"levelo://app?vid=34c4e5fd-d09b-481c-889a-20f2df0a03b0","ios":"levelo://app?vid=34c4e5fd-d09b-481c-889a-20f2df0a03b0"},"vehicle_type_id":"4","last_reported":1731366487,"current_range_meters":38800,"station_id":"ce4bhnh2rcd13ifvqgug","pricing_plan_id":"cebpf4jnsgd1na2vs0mg"},{"bike_id":"013eef84-722d-41db-b134-d56b32da95cf","system_id":"levelo_inurba_marseille","lat":43.29689,"lon":5.37303,"is_reserved":false,"is_disabled":false,"rental_uris":{"android":"levelo://app?vid=013eef84-722d-41db-b134-d56b32da95cf","ios":"levelo://app?vid=013eef84-722d-41db-b134-d56b32da95cf"},"vehicle_type_id":"4","last_reported":1731366487,"current_range_meters":38400,"station_id":"ce4bgk12rcd13ifvqbj0","pricing_plan_id":"cebpf4jnsgd1na2vs0mg"},{"bike_id":"b6e7a88b-4aa5-49c1-8146-a5de890828cf","system_id":"levelo_inurba_marseille","lat":43.29283,"lon":5.40119,"is_reserved":false,"is_disabled":false,"rental_uris":{"android":"levelo://app?vid=b6e7a88b-4aa5-49c1-8146-a5de890828cf","ios":"levelo://app?vid=b6e7a88b-4aa5-49c1-8146-a5de890828cf"},"vehicle_type_id":"4","last_reported":1731366487,"current_range_meters":20800,"station_id":"ce4bh312rcd13ifvqdk0","pricing_plan_id":"cebpf4jnsgd1na2vs0mg"},{"bike_id":"00df0da5-e326-4e92-bd9c-a0b3df25d56d","system_id":"levelo_inurba_marseille","lat":43.28408,"lon":5.37524,"is_reserved":false,"is_disabled":false,"rental_uris":{"android":"levelo://app?vid=00df0da5-e326-4e92-bd9c-a0b3df25d56d","ios":"levelo://app?vid=00df0da5-e326-4e92-bd9c-a0b3df25d56d"},"vehicle_type_id":"4","last_reported":1731366487,"current_range_meters":8400,"station_id":"ce4bh412rcd13ifvqds0","pricing_plan_id":"cebpf4jnsgd1na2vs0mg"},{"bike_id":"0d65accf-821c-4de6-8394-38c17b73e2e4","system_id":"levelo_inurba_marseille","lat":43.28728,"lon":5.3608,"is_reserved":false,"is_disabled":false,"rental_uris":{"android":"levelo://app?vid=0d65accf-821c-4de6-8394-38c17b73e2e4","ios":"levelo://app?vid=0d65accf-821c-4de6-8394-38c17b73e2e4"},"vehicle_type_id":"4","last_reported":1731366487,"current_range_meters":38800,"station_id":"cki0cbj6b192h4jlfktg","pricing_plan_id":"cebpf4jnsgd1na2vs0mg"},{"bike_id":"3a116df4-68e7-46d8-822d-162cfd330753","system_id":"levelo_inurba_marseille","lat":43.31073,"lon":5.38361,"is_reserved":false,"is_disabled":false,"rental_uris":{"android":"levelo://app?vid=3a116df4-68e7-46d8-822d-162cfd330753","ios":"levelo://app?vid=3a116df4-68e7-46d8-822d-162cfd330753"},"vehicle_type_id":"4","last_reported":1731366487,"current_range_meters":38800,"station_id":"ce4bgv92rcd13ifvqcr0","pricing_plan_id":"cebpf4jnsgd1na2vs0mg"},{"bike_id":"8b9e4e50-0d25-44d1-a11c-181613e63edd","system_id":"levelo_inurba_marseille","lat":43.28658,"lon":5.36361,"is_reserved":false,"is_disabled":false,"rental_uris":{"android":"levelo://app?vid=8b9e4e50-0d25-44d1-a11c-181613e63edd","ios":"levelo://app?vid=8b9e4e50-0d25-44d1-a11c-181613e63edd"},"vehicle_type_id":"4","last_reported":1731366487,"current_range_meters":36000,"station_id":"ce4bhah2rcd13ifvqej0","pricing_plan_id":"cebpf4jnsgd1na2vs0mg"},{"bike_id":"be92b951-fa38-407d-9b1f-c24eba11f49b","system_id":"levelo_inurba_marseille","lat":43.28847,"lon":5.35854,"is_reserved":false,"is_disabled":false,"rental_uris":{"android":"levelo://app?vid=be92b951-fa38-407d-9b1f-c24eba11f49b","ios":"levelo://app?vid=be92b951-fa38-407d-9b1f-c24eba11f49b"},"vehicle_type_id":"4","last_reported":1731366487,"current_range_meters":36800,"station_id":"ce4bhb12rcd13ifvqem0","pricing_plan_id":"cebpf4jnsgd1na2vs0mg"},{"bike_id":"37010a4f-ba42-44a3-8f03-5e4ffb819f09","system_id":"levelo_inurba_marseille","lat":43.31167,"lon":5.38715,"is_reserved":false,"is_disabled":false,"rental_uris":{"android":"levelo://app?vid=37010a4f-ba42-44a3-8f03-5e4ffb819f09","ios":"levelo://app?vid=37010a4f-ba42-44a3-8f03-5e4ffb819f09"},"vehicle_type_id":"4","last_reported":1731366487,"current_range_meters":24000,"station_id":"ce4bgv12rcd13ifvqcp0","pricing_plan_id":"cebpf4jnsgd1na2vs0mg"},{"bike_id":"b6649fd5-6529-4736-962c-37237ff042d4","system_id":"levelo_inurba_marseille","lat":43.26561,"lon":5.39016,"is_reserved":false,"is_disabled":false,"rental_uris":{"android":"levelo://app?vid=b6649fd5-6529-4736-962c-37237ff042d4","ios":"levelo://app?vid=b6649fd5-6529-4736-962c-37237ff042d4"},"vehicle_type_id":"4","last_reported":1731366487,"current_range_meters":38800,"station_id":"ce4bhe12rcd13ifvqf30","pricing_plan_id":"cebpf4jnsgd1na2vs0mg"},{"bike_id":"fc6fb18f-655f-44c3-9d33-3f6e0d2e6373","system_id":"levelo_inurba_marseille","lat":43.30144,"lon":5.39852,"is_reserved":false,"is_disabled":false,"rental_uris":{"android":"levelo://app?vid=fc6fb18f-655f-44c3-9d33-3f6e0d2e6373","ios":"levelo://app?vid=fc6fb18f-655f-44c3-9d33-3f6e0d2e6373"},"vehicle_type_id":"4","last_reported":1731366487,"current_range_meters":30400,"station_id":"ce4bh0h2rcd13ifvqd40","pricing_plan_id":"cebpf4jnsgd1na2vs0mg"},{"bike_id":"5847243e-3d84-47dc-98d1-c8e94c4067b9","system_id":"levelo_inurba_marseille","lat":43.27563,"lon":5.38425,"is_reserved":false,"is_disabled":false,"rental_uris":{"android":"levelo://app?vid=5847243e-3d84-47dc-98d1-c8e94c4067b9","ios":"levelo://app?vid=5847243e-3d84-47dc-98d1-c8e94c4067b9"},"vehicle_type_id":"4","last_reported":1731366487,"current_range_meters":38800,"station_id":"ce4bhh92rcd13ifvqfi0","pricing_plan_id":"cebpf4jnsgd1na2vs0mg"},{"bike_id":"2b46dcf1-83c7-4d4c-a851-d7211ef98abe","system_id":"levelo_inurba_marseille","lat":43.29254,"lon":5.40915,"is_reserved":false,"is_disabled":false,"rental_uris":{"android":"levelo://app?vid=2b46dcf1-83c7-4d4c-a851-d7211ef98abe","ios":"levelo://app?vid=2b46dcf1-83c7-4d4c-a851-d7211ef98abe"},"vehicle_type_id":"4","last_reported":1731366487,"current_range_meters":20000,"station_id":"ce4bh192rcd13ifvqdc0","pricing_plan_id":"cebpf4jnsgd1na2vs0mg"},{"bike_id":"b6fb0d0d-4fe7-44bf-8a25-4a4b216fe62f","system_id":"levelo_inurba_marseille","lat":43.30806,"lon":5.38157,"is_reserved":false,"is_disabled":false,"rental_uris":{"android":"levelo://app?vid=b6fb0d0d-4fe7-44bf-8a25-4a4b216fe62f","ios":"levelo://app?vid=b6fb0d0d-4fe7-44bf-8a25-4a4b216fe62f"},"vehicle_type_id":"4","last_reported":1731366487,"current_range_meters":38800,"station_id":"ce4bgt12rcd13ifvqce0","pricing_plan_id":"cebpf4jnsgd1na2vs0mg"},{"bike_id":"22a2914a-6d99-4b9f-a055-86e657c3c38f","system_id":"levelo_inurba_marseille","lat":43.31997,"lon":5.38174,"is_reserved":false,"is_disabled":false,"rental_uris":{"android":"levelo://app?vid=22a2914a-6d99-4b9f-a055-86e657c3c38f","ios":"levelo://app?vid=22a2914a-6d99-4b9f-a055-86e657c3c38f"},"vehicle_type_id":"4","last_reported":1731366487,"current_range_meters":6800,"station_id":"ce4bhr12rcd13ifvqhpg","pricing_plan_id":"cebpf4jnsgd1na2vs0mg"},{"bike_id":"1d75d4ce-da07-47a0-83ad-027ef32b7b53","system_id":"levelo_inurba_marseille","lat":43.27413,"lon":5.389489,"is_reserved":false,"is_disabled":false,"rental_uris":{"android":"levelo://app?vid=1d75d4ce-da07-47a0-83ad-027ef32b7b53","ios":"levelo://app?vid=1d75d4ce-da07-47a0-83ad-027ef32b7b53"},"vehicle_type_id":"4","last_reported":1731366487,"current_range_meters":19600,"station_id":"","pricing_plan_id":"cebpf4jnsgd1na2vs0mg"},{"bike_id":"94da1138-977c-4b77-87c1-3bd96a6839cd","system_id":"levelo_inurba_marseille","lat":43.28702,"lon":5.3998,"is_reserved":false,"is_disabled":false,"rental_uris":{"android":"levelo://app?vid=94da1138-977c-4b77-87c1-3bd96a6839cd","ios":"levelo://app?vid=94da1138-977c-4b77-87c1-3bd96a6839cd"},"vehicle_type_id":"4","last_reported":1731366487,"current_range_meters":8400,"station_id":"ce4bho92rcd13ifvqh3g","pricing_plan_id":"cebpf4jnsgd1na2vs0mg"},{"bike_id":"59c35e8b-3fa6-4e43-bbd3-8ded488b910a","system_id":"levelo_inurba_marseille","lat":43.30935,"lon":5.40144,"is_reserved":false,"is_disabled":false,"rental_uris":{"android":"levelo://app?vid=59c35e8b-3fa6-4e43-bbd3-8ded488b910a","ios":"levelo://app?vid=59c35e8b-3fa6-4e43-bbd3-8ded488b910a"},"vehicle_type_id":"4","last_reported":1731366487,"current_range_meters":38800,"station_id":"ce4bgvp2rcd13ifvqct0","pricing_plan_id":"cebpf4jnsgd1na2vs0mg"},{"bike_id":"d881a04b-7487-46c8-bcc3-e9689650446f","system_id":"levelo_inurba_marseille","lat":43.2619,"lon":5.37448,"is_reserved":false,"is_disabled":false,"rental_uris":{"android":"levelo://app?vid=d881a04b-7487-46c8-bcc3-e9689650446f","ios":"levelo://app?vid=d881a04b-7487-46c8-bcc3-e9689650446f"},"vehicle_type_id":"4","last_reported":1731366487,"current_range_meters":38800,"station_id":"ce4bhgp2rcd13ifvqfc0","pricing_plan_id":"cebpf4jnsgd1na2vs0mg"},{"bike_id":"58632566-7516-4af8-a200-57259a4e228c","system_id":"levelo_inurba_marseille","lat":43.31364,"lon":5.38495,"is_reserved":false,"is_disabled":false,"rental_uris":{"android":"levelo://app?vid=58632566-7516-4af8-a200-57259a4e228c","ios":"levelo://app?vid=58632566-7516-4af8-a200-57259a4e228c"},"vehicle_type_id":"4","last_reported":1731366487,"current_range_meters":37600,"station_id":"ce4bgt92rcd13ifvqcf0","pricing_plan_id":"cebpf4jnsgd1na2vs0mg"},{"bike_id":"4be7edbe-5982-45b2-a3b1-2e4ca0a06526","system_id":"levelo_inurba_marseille","lat":43.24072,"lon":5.37763,"is_reserved":false,"is_disabled":false,"rental_uris":{"android":"levelo://app?vid=4be7edbe-5982-45b2-a3b1-2e4ca0a06526","ios":"levelo://app?vid=4be7edbe-5982-45b2-a3b1-2e4ca0a06526"},"vehicle_type_id":"4","last_reported":1731366487,"current_range_meters":38800,"station_id":"ce4bhnp2rcd13ifvqgvg","pricing_plan_id":"cebpf4jnsgd1na2vs0mg"},{"bike_id":"58619a3d-722c-4d96-a931-d2f898b47aef","system_id":"levelo_inurba_marseille","lat":43.28666,"lon":5.38663,"is_reserved":false,"is_disabled":false,"rental_uris":{"android":"levelo://app?vid=58619a3d-722c-4d96-a931-d2f898b47aef","ios":"levelo://app?vid=58619a3d-722c-4d96-a931-d2f898b47aef"},"vehicle_type_id":"4","last_reported":1731366487,"current_range_meters":33200,"station_id":"ce4bh492rcd13ifvqdug","pricing_plan_id":"cebpf4jnsgd1na2vs0mg"},{"bike_id":"a63bf761-b669-40d4-a0c6-33f8c1f62671","system_id":"levelo_inurba_marseille","lat":43.28485,"lon":5.38533,"is_reserved":false,"is_disabled":false,"rental_uris":{"android":"levelo://app?vid=a63bf761-b669-40d4-a0c6-33f8c1f62671","ios":"levelo://app?vid=a63bf761-b669-40d4-a0c6-33f8c1f62671"},"vehicle_type_id":"4","last_reported":1731366487,"current_range_meters":38800,"station_id":"ce4bh8p2rcd13ifvqeb0","pricing_plan_id":"cebpf4jnsgd1na2vs0mg"},{"bike_id":"2c44972f-8dd9-4d13-991a-ded606a812ff","system_id":"levelo_inurba_marseille","lat":43.28606,"lon":5.37068,"is_reserved":false,"is_disabled":false,"rental_uris":{"android":"levelo://app?vid=2c44972f-8dd9-4d13-991a-ded606a812ff","ios":"levelo://app?vid=2c44972f-8dd9-4d13-991a-ded606a812ff"},"vehicle_type_id":"4","last_reported":1731366487,"current_range_meters":3200,"station_id":"ce4bht12rcd13ifvqi60","pricing_plan_id":"cebpf4jnsgd1na2vs0mg"},{"bike_id":"576a9fab-e31f-434f-aaae-e4a672ea42f2","system_id":"levelo_inurba_marseille","lat":43.28132,"lon":5.42648,"is_reserved":false,"is_disabled":false,"rental_uris":{"android":"levelo://app?vid=576a9fab-e31f-434f-aaae-e4a672ea42f2","ios":"levelo://app?vid=576a9fab-e31f-434f-aaae-e4a672ea42f2"},"vehicle_type_id":"4","last_reported":1731366487,"current_range_meters":38800,"station_id":"ce4bhnh2rcd13ifvqgug","pricing_plan_id":"cebpf4jnsgd1na2vs0mg"},{"bike_id":"ca0e2a16-32dc-46e0-aefd-c26276db1088","system_id":"levelo_inurba_marseille","lat":43.24647,"lon":5.38891,"is_reserved":false,"is_disabled":false,"rental_uris":{"android":"levelo://app?vid=ca0e2a16-32dc-46e0-aefd-c26276db1088","ios":"levelo://app?vid=ca0e2a16-32dc-46e0-aefd-c26276db1088"},"vehicle_type_id":"4","last_reported":1731366487,"current_range_meters":30400,"station_id":"ce4bhg12rcd13ifvqf60","pricing_plan_id":"cebpf4jnsgd1na2vs0mg"},{"bike_id":"053b604b-8b91-4de0-bb66-85b19d20c972","system_id":"levelo_inurba_marseille","lat":43.3094,"lon":5.39028,"is_reserved":false,"is_disabled":false,"rental_uris":{"android":"levelo://app?vid=053b604b-8b91-4de0-bb66-85b19d20c972","ios":"levelo://app?vid=053b604b-8b91-4de0-bb66-85b19d20c972"},"vehicle_type_id":"4","last_reported":1731366487,"current_range_meters":25600,"station_id":"ce4bgup2rcd13ifvqco0","pricing_plan_id":"cebpf4jnsgd1na2vs0mg"},{"bike_id":"bc2354e1-2a50-4b5c-93e6-2616e25c5e1b","system_id":"levelo_inurba_marseille","lat":43.24813,"lon":5.37457,"is_reserved":false,"is_disabled":false,"rental_uris":{"android":"levelo://app?vid=bc2354e1-2a50-4b5c-93e6-2616e25c5e1b","ios":"levelo://app?vid=bc2354e1-2a50-4b5c-93e6-2616e25c5e1b"},"vehicle_type_id":"4","last_reported":1731366487,"current_range_meters":38800,"station_id":"ce4bhgh2rcd13ifvqfb0","pricing_plan_id":"cebpf4jnsgd1na2vs0mg"},{"bike_id":"d5e6a2f8-7fd7-4cd3-be5b-3fd74cb9dc2f","system_id":"levelo_inurba_marseille","lat":43.281,"lon":5.37842,"is_reserved":false,"is_disabled":false,"rental_uris":{"android":"levelo://app?vid=d5e6a2f8-7fd7-4cd3-be5b-3fd74cb9dc2f","ios":"levelo://app?vid=d5e6a2f8-7fd7-4cd3-be5b-3fd74cb9dc2f"},"vehicle_type_id":"4","last_reported":1731366487,"current_range_meters":39200,"station_id":"ce4bha12rcd13ifvqee0","pricing_plan_id":"cebpf4jnsgd1na2vs0mg"},{"bike_id":"28ad4f00-1184-4f40-a4f0-20a53a31b967","system_id":"levelo_inurba_marseille","lat":43.26807,"lon":5.40266,"is_reserved":false,"is_disabled":false,"rental_uris":{"android":"levelo://app?vid=28ad4f00-1184-4f40-a4f0-20a53a31b967","ios":"levelo://app?vid=28ad4f00-1184-4f40-a4f0-20a53a31b967"},"vehicle_type_id":"4","last_reported":1731366487,"current_range_meters":38000,"station_id":"ce501612rcd8frsf0b60","pricing_plan_id":"cebpf4jnsgd1na2vs0mg"},{"bike_id":"c4deb4cc-b275-4266-9b30-a0a2f4b844b9","system_id":"levelo_inurba_marseille","lat":43.31171,"lon":5.38723,"is_reserved":false,"is_disabled":false,"rental_uris":{"android":"levelo://app?vid=c4deb4cc-b275-4266-9b30-a0a2f4b844b9","ios":"levelo://app?vid=c4deb4cc-b275-4266-9b30-a0a2f4b844b9"},"vehicle_type_id":"4","last_reported":1731366487,"current_range_meters":39200,"station_id":"ce4bgv12rcd13ifvqcp0","pricing_plan_id":"cebpf4jnsgd1na2vs0mg"},{"bike_id":"ff1b3a69-eee0-41f1-ab61-17424914ea54","system_id":"levelo_inurba_marseille","lat":43.2799,"lon":5.41657,"is_reserved":false,"is_disabled":false,"rental_uris":{"android":"levelo://app?vid=ff1b3a69-eee0-41f1-ab61-17424914ea54","ios":"levelo://app?vid=ff1b3a69-eee0-41f1-ab61-17424914ea54"},"vehicle_type_id":"4","last_reported":1731366487,"current_range_meters":4400,"station_id":"ce4bho12rcd13ifvqh1g","pricing_plan_id":"cebpf4jnsgd1na2vs0mg"},{"bike_id":"784616cb-3dcc-4a17-ae25-f5786a0d223a","system_id":"levelo_inurba_marseille","lat":43.337444,"lon":5.374475,"is_reserved":false,"is_disabled":false,"rental_uris":{"android":"levelo://app?vid=784616cb-3dcc-4a17-ae25-f5786a0d223a","ios":"levelo://app?vid=784616cb-3dcc-4a17-ae25-f5786a0d223a"},"vehicle_type_id":"4","last_reported":1731366487,"current_range_meters":35200,"station_id":"","pricing_plan_id":"cebpf4jnsgd1na2vs0mg"},{"bike_id":"c9e1ccaf-93e0-42a0-8847-25269c17c325","system_id":"levelo_inurba_marseille","lat":43.24388,"lon":5.37069,"is_reserved":false,"is_disabled":false,"rental_uris":{"android":"levelo://app?vid=c9e1ccaf-93e0-42a0-8847-25269c17c325","ios":"levelo://app?vid=c9e1ccaf-93e0-42a0-8847-25269c17c325"},"vehicle_type_id":"4","last_reported":1731366487,"current_range_meters":38800,"station_id":"ce4bhhh2rcd13ifvqfk0","pricing_plan_id":"cebpf4jnsgd1na2vs0mg"},{"bike_id":"bbfcbce8-7188-4bb5-8aac-7d52bbdbdcf7","system_id":"levelo_inurba_marseille","lat":43.26028,"lon":5.37551,"is_reserved":false,"is_disabled":false,"rental_uris":{"android":"levelo://app?vid=bbfcbce8-7188-4bb5-8aac-7d52bbdbdcf7","ios":"levelo://app?vid=bbfcbce8-7188-4bb5-8aac-7d52bbdbdcf7"},"vehicle_type_id":"4","last_reported":1731366487,"current_range_meters":27200,"station_id":"ce4bhgh2rcd13ifvqfa0","pricing_plan_id":"cebpf4jnsgd1na2vs0mg"},{"bike_id":"0f680548-73ca-42b9-993a-8c4145e99092","system_id":"levelo_inurba_marseille","lat":43.28725,"lon":5.36112,"is_reserved":false,"is_disabled":false,"rental_uris":{"android":"levelo://app?vid=0f680548-73ca-42b9-993a-8c4145e99092","ios":"levelo://app?vid=0f680548-73ca-42b9-993a-8c4145e99092"},"vehicle_type_id":"4","last_reported":1731366487,"current_range_meters":8400,"station_id":"cki0cbj6b192h4jlfktg","pricing_plan_id":"cebpf4jnsgd1na2vs0mg"},{"bike_id":"a981cddb-35b3-4b69-a3bf-cfde7e96370a","system_id":"levelo_inurba_marseille","lat":43.23149,"lon":5.43721,"is_reserved":false,"is_disabled":false,"rental_uris":{"android":"levelo://app?vid=a981cddb-35b3-4b69-a3bf-cfde7e96370a","ios":"levelo://app?vid=a981cddb-35b3-4b69-a3bf-cfde7e96370a"},"vehicle_type_id":"4","last_reported":1731366487,"current_range_meters":4800,"station_id":"ce4bhmp2rcd13ifvqgog","pricing_plan_id":"cebpf4jnsgd1na2vs0mg"},{"bike_id":"86cf46ef-a2fc-4fbb-8052-23fdfb3f2282","system_id":"levelo_inurba_marseille","lat":43.27882,"lon":5.37989,"is_reserved":false,"is_disabled":false,"rental_uris":{"android":"levelo://app?vid=86cf46ef-a2fc-4fbb-8052-23fdfb3f2282","ios":"levelo://app?vid=86cf46ef-a2fc-4fbb-8052-23fdfb3f2282"},"vehicle_type_id":"4","last_reported":1731366487,"current_range_meters":24000,"station_id":"ce4bhf92rcd13ifvqf50","pricing_plan_id":"cebpf4jnsgd1na2vs0mg"},{"bike_id":"38494b26-732c-4693-af81-a3cf4c4e1902","system_id":"levelo_inurba_marseille","lat":43.31368,"lon":5.37446,"is_reserved":false,"is_disabled":false,"rental_uris":{"android":"levelo://app?vid=38494b26-732c-4693-af81-a3cf4c4e1902","ios":"levelo://app?vid=38494b26-732c-4693-af81-a3cf4c4e1902"},"vehicle_type_id":"4","last_reported":1731366487,"current_range_meters":12000,"station_id":"","pricing_plan_id":"cebpf4jnsgd1na2vs0mg"},{"bike_id":"b790fa9b-fe63-49ae-a481-fcdcbdd6feab","system_id":"levelo_inurba_marseille","lat":43.30791,"lon":5.38159,"is_reserved":false,"is_disabled":false,"rental_uris":{"android":"levelo://app?vid=b790fa9b-fe63-49ae-a481-fcdcbdd6feab","ios":"levelo://app?vid=b790fa9b-fe63-49ae-a481-fcdcbdd6feab"},"vehicle_type_id":"4","last_reported":1731366487,"current_range_meters":29600,"station_id":"ce4bgt12rcd13ifvqce0","pricing_plan_id":"cebpf4jnsgd1na2vs0mg"},{"bike_id":"01fccc49-ac40-4cc9-90fc-950d9c6dd4ba","system_id":"levelo_inurba_marseille","lat":43.30601,"lon":5.393661,"is_reserved":false,"is_disabled":false,"rental_uris":{"android":"levelo://app?vid=01fccc49-ac40-4cc9-90fc-950d9c6dd4ba","ios":"levelo://app?vid=01fccc49-ac40-4cc9-90fc-950d9c6dd4ba"},"vehicle_type_id":"4","last_reported":1731366487,"current_range_meters":29600,"station_id":"ce4bh0p2rcd13ifvqd80","pricing_plan_id":"cebpf4jnsgd1na2vs0mg"},{"bike_id":"181fa628-fd06-4339-88f4-5d411c857699","system_id":"levelo_inurba_marseille","lat":43.27067,"lon":5.42275,"is_reserved":false,"is_disabled":false,"rental_uris":{"android":"levelo://app?vid=181fa628-fd06-4339-88f4-5d411c857699","ios":"levelo://app?vid=181fa628-fd06-4339-88f4-5d411c857699"},"vehicle_type_id":"4","last_reported":1731366487,"current_range_meters":35200,"station_id":"ce4bhk92rcd13ifvqgb0","pricing_plan_id":"cebpf4jnsgd1na2vs0mg"},{"bike_id":"f78d5976-a055-4d0c-afdb-4cc2a4b79214","system_id":"levelo_inurba_marseille","lat":43.3117,"lon":5.38716,"is_reserved":false,"is_disabled":false,"rental_uris":{"android":"levelo://app?vid=f78d5976-a055-4d0c-afdb-4cc2a4b79214","ios":"levelo://app?vid=f78d5976-a055-4d0c-afdb-4cc2a4b79214"},"vehicle_type_id":"4","last_reported":1731366487,"current_range_meters":39200,"station_id":"ce4bgv12rcd13ifvqcp0","pricing_plan_id":"cebpf4jnsgd1na2vs0mg"},{"bike_id":"58b0c114-eed4-4504-a004-75b4eaa2da17","system_id":"levelo_inurba_marseille","lat":43.29975,"lon":5.37187,"is_reserved":false,"is_disabled":false,"rental_uris":{"android":"levelo://app?vid=58b0c114-eed4-4504-a004-75b4eaa2da17","ios":"levelo://app?vid=58b0c114-eed4-4504-a004-75b4eaa2da17"},"vehicle_type_id":"4","last_reported":1731366487,"current_range_meters":30800,"station_id":"ce4bgr92rcd13ifvqc7g","pricing_plan_id":"cebpf4jnsgd1na2vs0mg"},{"bike_id":"fe88881f-4d0d-4590-a9c4-154cbfd945b3","system_id":"levelo_inurba_marseille","lat":43.26206,"lon":5.37448,"is_reserved":false,"is_disabled":false,"rental_uris":{"android":"levelo://app?vid=fe88881f-4d0d-4590-a9c4-154cbfd945b3","ios":"levelo://app?vid=fe88881f-4d0d-4590-a9c4-154cbfd945b3"},"vehicle_type_id":"4","last_reported":1731366487,"current_range_meters":17200,"station_id":"ce4bhgp2rcd13ifvqfc0","pricing_plan_id":"cebpf4jnsgd1na2vs0mg"},{"bike_id":"8046cf83-800a-4fbc-ad87-b439893e0919","system_id":"levelo_inurba_marseille","lat":43.292,"lon":5.39316,"is_reserved":false,"is_disabled":false,"rental_uris":{"android":"levelo://app?vid=8046cf83-800a-4fbc-ad87-b439893e0919","ios":"levelo://app?vid=8046cf83-800a-4fbc-ad87-b439893e0919"},"vehicle_type_id":"4","last_reported":1731366487,"current_range_meters":9600,"station_id":"ce4bh192rcd13ifvqdd0","pricing_plan_id":"cebpf4jnsgd1na2vs0mg"},{"bike_id":"38befafa-005a-48da-b8a2-6e79b9913cfd","system_id":"levelo_inurba_marseille","lat":43.30431,"lon":5.4255,"is_reserved":false,"is_disabled":false,"rental_uris":{"android":"levelo://app?vid=38befafa-005a-48da-b8a2-6e79b9913cfd","ios":"levelo://app?vid=38befafa-005a-48da-b8a2-6e79b9913cfd"},"vehicle_type_id":"4","last_reported":1731366487,"current_range_meters":4800,"station_id":"","pricing_plan_id":"cebpf4jnsgd1na2vs0mg"},{"bike_id":"d5e45547-3c6c-49d3-a9e5-782864bb2d0e","system_id":"levelo_inurba_marseille","lat":43.28463,"lon":5.35883,"is_reserved":false,"is_disabled":false,"rental_uris":{"android":"levelo://app?vid=d5e45547-3c6c-49d3-a9e5-782864bb2d0e","ios":"levelo://app?vid=d5e45547-3c6c-49d3-a9e5-782864bb2d0e"},"vehicle_type_id":"4","last_reported":1731366487,"current_range_meters":26000,"station_id":"ce4bhah2rcd13ifvqei0","pricing_plan_id":"cebpf4jnsgd1na2vs0mg"},{"bike_id":"941ea951-b8b2-41e8-9dc6-73721a59ab36","system_id":"levelo_inurba_marseille","lat":43.28079,"lon":5.39656,"is_reserved":false,"is_disabled":false,"rental_uris":{"android":"levelo://app?vid=941ea951-b8b2-41e8-9dc6-73721a59ab36","ios":"levelo://app?vid=941ea951-b8b2-41e8-9dc6-73721a59ab36"},"vehicle_type_id":"4","last_reported":1731366487,"current_range_meters":38000,"station_id":"ce4bho12rcd13ifvqh2g","pricing_plan_id":"cebpf4jnsgd1na2vs0mg"},{"bike_id":"e0dd5ad8-53cf-4379-b894-58b137568b15","system_id":"levelo_inurba_marseille","lat":43.229417,"lon":5.353451,"is_reserved":false,"is_disabled":false,"rental_uris":{"android":"levelo://app?vid=e0dd5ad8-53cf-4379-b894-58b137568b15","ios":"levelo://app?vid=e0dd5ad8-53cf-4379-b894-58b137568b15"},"vehicle_type_id":"4","last_reported":1731366487,"current_range_meters":38400,"station_id":"cpo3532slgdg3j2ikp40","pricing_plan_id":"cebpf4jnsgd1na2vs0mg"},{"bike_id":"c8035b49-1282-4835-acf2-b33647f9510b","system_id":"levelo_inurba_marseille","lat":43.31113,"lon":5.37784,"is_reserved":false,"is_disabled":false,"rental_uris":{"android":"levelo://app?vid=c8035b49-1282-4835-acf2-b33647f9510b","ios":"levelo://app?vid=c8035b49-1282-4835-acf2-b33647f9510b"},"vehicle_type_id":"4","last_reported":1731366487,"current_range_meters":38800,"station_id":"ce4bgt92rcd13ifvqcg0","pricing_plan_id":"cebpf4jnsgd1na2vs0mg"},{"bike_id":"0ff30c97-d032-4bd2-b806-0ba1b23f1458","system_id":"levelo_inurba_marseille","lat":43.29892,"lon":5.43672,"is_reserved":false,"is_disabled":false,"rental_uris":{"android":"levelo://app?vid=0ff30c97-d032-4bd2-b806-0ba1b23f1458","ios":"levelo://app?vid=0ff30c97-d032-4bd2-b806-0ba1b23f1458"},"vehicle_type_id":"4","last_reported":1731366487,"current_range_meters":38800,"station_id":"ce4bhpp2rcd13ifvqhfg","pricing_plan_id":"cebpf4jnsgd1na2vs0mg"},{"bike_id":"81bbffab-2294-4802-a46f-42950b37b5d6","system_id":"levelo_inurba_marseille","lat":43.23951,"lon":5.36631,"is_reserved":false,"is_disabled":false,"rental_uris":{"android":"levelo://app?vid=81bbffab-2294-4802-a46f-42950b37b5d6","ios":"levelo://app?vid=81bbffab-2294-4802-a46f-42950b37b5d6"},"vehicle_type_id":"4","last_reported":1731366487,"current_range_meters":38800,"station_id":"ce4bhi12rcd13ifvqfp0","pricing_plan_id":"cebpf4jnsgd1na2vs0mg"},{"bike_id":"b6459786-f7ad-4308-8fc7-9d430346d23e","system_id":"levelo_inurba_marseille","lat":43.2835,"lon":5.38126,"is_reserved":false,"is_disabled":false,"rental_uris":{"android":"levelo://app?vid=b6459786-f7ad-4308-8fc7-9d430346d23e","ios":"levelo://app?vid=b6459786-f7ad-4308-8fc7-9d430346d23e"},"vehicle_type_id":"4","last_reported":1731366487,"current_range_meters":38800,"station_id":"ce4bh412rcd13ifvqdr0","pricing_plan_id":"cebpf4jnsgd1na2vs0mg"},{"bike_id":"647db640-e6dc-4daa-9749-1b2ec76d71b3","system_id":"levelo_inurba_marseille","lat":43.27073,"lon":5.42289,"is_reserved":false,"is_disabled":false,"rental_uris":{"android":"levelo://app?vid=647db640-e6dc-4daa-9749-1b2ec76d71b3","ios":"levelo://app?vid=647db640-e6dc-4daa-9749-1b2ec76d71b3"},"vehicle_type_id":"4","last_reported":1731366487,"current_range_meters":32000,"station_id":"ce4bhk92rcd13ifvqgb0","pricing_plan_id":"cebpf4jnsgd1na2vs0mg"},{"bike_id":"88a7325a-e421-4e7d-8495-b42a2ef41c7b","system_id":"levelo_inurba_marseille","lat":43.24815,"lon":5.3746,"is_reserved":false,"is_disabled":false,"rental_uris":{"android":"levelo://app?vid=88a7325a-e421-4e7d-8495-b42a2ef41c7b","ios":"levelo://app?vid=88a7325a-e421-4e7d-8495-b42a2ef41c7b"},"vehicle_type_id":"4","last_reported":1731366487,"current_range_meters":38400,"station_id":"ce4bhgh2rcd13ifvqfb0","pricing_plan_id":"cebpf4jnsgd1na2vs0mg"},{"bike_id":"c93e58e1-1ffa-4103-834a-d45d32cec571","system_id":"levelo_inurba_marseille","lat":43.2656,"lon":5.37287,"is_reserved":false,"is_disabled":false,"rental_uris":{"android":"levelo://app?vid=c93e58e1-1ffa-4103-834a-d45d32cec571","ios":"levelo://app?vid=c93e58e1-1ffa-4103-834a-d45d32cec571"},"vehicle_type_id":"4","last_reported":1731366487,"current_range_meters":22000,"station_id":"ce4bhg12rcd13ifvqf70","pricing_plan_id":"cebpf4jnsgd1na2vs0mg"},{"bike_id":"4e66a56d-9be8-4549-8e96-74abaa4f7a6d","system_id":"levelo_inurba_marseille","lat":43.28152,"lon":5.42643,"is_reserved":false,"is_disabled":false,"rental_uris":{"android":"levelo://app?vid=4e66a56d-9be8-4549-8e96-74abaa4f7a6d","ios":"levelo://app?vid=4e66a56d-9be8-4549-8e96-74abaa4f7a6d"},"vehicle_type_id":"4","last_reported":1731366487,"current_range_meters":38800,"station_id":"ce4bhnh2rcd13ifvqgug","pricing_plan_id":"cebpf4jnsgd1na2vs0mg"},{"bike_id":"a0bfc5a0-e8d8-49ee-a67b-49ddf3cd60be","system_id":"levelo_inurba_marseille","lat":43.25488,"lon":5.37647,"is_reserved":false,"is_disabled":false,"rental_uris":{"android":"levelo://app?vid=a0bfc5a0-e8d8-49ee-a67b-49ddf3cd60be","ios":"levelo://app?vid=a0bfc5a0-e8d8-49ee-a67b-49ddf3cd60be"},"vehicle_type_id":"4","last_reported":1731366487,"current_range_meters":38800,"station_id":"ce4bhh12rcd13ifvqff0","pricing_plan_id":"cebpf4jnsgd1na2vs0mg"},{"bike_id":"fc01d943-4616-4d37-8e17-5947c751d06c","system_id":"levelo_inurba_marseille","lat":43.28102,"lon":5.37837,"is_reserved":false,"is_disabled":false,"rental_uris":{"android":"levelo://app?vid=fc01d943-4616-4d37-8e17-5947c751d06c","ios":"levelo://app?vid=fc01d943-4616-4d37-8e17-5947c751d06c"},"vehicle_type_id":"4","last_reported":1731366487,"current_range_meters":39200,"station_id":"ce4bha12rcd13ifvqee0","pricing_plan_id":"cebpf4jnsgd1na2vs0mg"},{"bike_id":"67cc3770-a002-43cd-b570-cbc91ec2f8f0","system_id":"levelo_inurba_marseille","lat":43.23967,"lon":5.36628,"is_reserved":false,"is_disabled":false,"rental_uris":{"android":"levelo://app?vid=67cc3770-a002-43cd-b570-cbc91ec2f8f0","ios":"levelo://app?vid=67cc3770-a002-43cd-b570-cbc91ec2f8f0"},"vehicle_type_id":"4","last_reported":1731366487,"current_range_meters":22800,"station_id":"ce4bhi12rcd13ifvqfp0","pricing_plan_id":"cebpf4jnsgd1na2vs0mg"},{"bike_id":"abd60e21-aebf-48b2-8331-8e8d6f687586","system_id":"levelo_inurba_marseille","lat":43.30779,"lon":5.37658,"is_reserved":false,"is_disabled":false,"rental_uris":{"android":"levelo://app?vid=abd60e21-aebf-48b2-8331-8e8d6f687586","ios":"levelo://app?vid=abd60e21-aebf-48b2-8331-8e8d6f687586"},"vehicle_type_id":"4","last_reported":1731366487,"current_range_meters":33600,"station_id":"ce4bgv92rcd13ifvqcq0","pricing_plan_id":"cebpf4jnsgd1na2vs0mg"},{"bike_id":"0ff33865-dd2d-4b5d-a4af-32bc3e306de6","system_id":"levelo_inurba_marseille","lat":43.28721,"lon":5.37942,"is_reserved":false,"is_disabled":false,"rental_uris":{"android":"levelo://app?vid=0ff33865-dd2d-4b5d-a4af-32bc3e306de6","ios":"levelo://app?vid=0ff33865-dd2d-4b5d-a4af-32bc3e306de6"},"vehicle_type_id":"4","last_reported":1731366487,"current_range_meters":31200,"station_id":"ce4bh9p2rcd13ifvqec0","pricing_plan_id":"cebpf4jnsgd1na2vs0mg"},{"bike_id":"64c3e9c6-c3fc-4058-9a43-212bf2779561","system_id":"levelo_inurba_marseille","lat":43.30315,"lon":5.36905,"is_reserved":false,"is_disabled":false,"rental_uris":{"android":"levelo://app?vid=64c3e9c6-c3fc-4058-9a43-212bf2779561","ios":"levelo://app?vid=64c3e9c6-c3fc-4058-9a43-212bf2779561"},"vehicle_type_id":"4","last_reported":1731366487,"current_range_meters":35600,"station_id":"ce4bgqh2rcd13ifvqc5g","pricing_plan_id":"cebpf4jnsgd1na2vs0mg"},{"bike_id":"c0434846-aad1-4a93-9112-01c1b18f6481","system_id":"levelo_inurba_marseille","lat":43.295218,"lon":5.39407,"is_reserved":false,"is_disabled":false,"rental_uris":{"android":"levelo://app?vid=c0434846-aad1-4a93-9112-01c1b18f6481","ios":"levelo://app?vid=c0434846-aad1-4a93-9112-01c1b18f6481"},"vehicle_type_id":"4","last_reported":1731366487,"current_range_meters":38800,"station_id":"ce4bh292rcd13ifvqdf0","pricing_plan_id":"cebpf4jnsgd1na2vs0mg"},{"bike_id":"3e50a673-a70a-4e99-8474-4a8234c1885d","system_id":"levelo_inurba_marseille","lat":43.31282,"lon":5.40173,"is_reserved":false,"is_disabled":false,"rental_uris":{"android":"levelo://app?vid=3e50a673-a70a-4e99-8474-4a8234c1885d","ios":"levelo://app?vid=3e50a673-a70a-4e99-8474-4a8234c1885d"},"vehicle_type_id":"4","last_reported":1731366487,"current_range_meters":38800,"station_id":"ce4bh092rcd13ifvqd30","pricing_plan_id":"cebpf4jnsgd1na2vs0mg"},{"bike_id":"ca470591-2acf-4dcf-8a9b-56688197c9a2","system_id":"levelo_inurba_marseille","lat":43.28651,"lon":5.36355,"is_reserved":false,"is_disabled":false,"rental_uris":{"android":"levelo://app?vid=ca470591-2acf-4dcf-8a9b-56688197c9a2","ios":"levelo://app?vid=ca470591-2acf-4dcf-8a9b-56688197c9a2"},"vehicle_type_id":"4","last_reported":1731366487,"current_range_meters":34800,"station_id":"ce4bhah2rcd13ifvqej0","pricing_plan_id":"cebpf4jnsgd1na2vs0mg"},{"bike_id":"eddb7f22-fd02-444f-86e9-92250a8d8b7c","system_id":"levelo_inurba_marseille","lat":43.26497,"lon":5.39547,"is_reserved":false,"is_disabled":false,"rental_uris":{"android":"levelo://app?vid=eddb7f22-fd02-444f-86e9-92250a8d8b7c","ios":"levelo://app?vid=eddb7f22-fd02-444f-86e9-92250a8d8b7c"},"vehicle_type_id":"4","last_reported":1731366487,"current_range_meters":34000,"station_id":"ce4bhi12rcd13ifvqfq0","pricing_plan_id":"cebpf4jnsgd1na2vs0mg"},{"bike_id":"a875991b-6091-43df-8026-3e7fab422ca5","system_id":"levelo_inurba_marseille","lat":43.31268,"lon":5.401652,"is_reserved":false,"is_disabled":false,"rental_uris":{"android":"levelo://app?vid=a875991b-6091-43df-8026-3e7fab422ca5","ios":"levelo://app?vid=a875991b-6091-43df-8026-3e7fab422ca5"},"vehicle_type_id":"4","last_reported":1731366487,"current_range_meters":38800,"station_id":"ce4bh092rcd13ifvqd30","pricing_plan_id":"cebpf4jnsgd1na2vs0mg"},{"bike_id":"3521dea3-7d7b-4beb-8009-d72124572435","system_id":"levelo_inurba_marseille","lat":43.29882,"lon":5.39733,"is_reserved":false,"is_disabled":false,"rental_uris":{"android":"levelo://app?vid=3521dea3-7d7b-4beb-8009-d72124572435","ios":"levelo://app?vid=3521dea3-7d7b-4beb-8009-d72124572435"},"vehicle_type_id":"4","last_reported":1731366487,"current_range_meters":38800,"station_id":"ce4bh0h2rcd13ifvqd50","pricing_plan_id":"cebpf4jnsgd1na2vs0mg"},{"bike_id":"9efc3f96-f8de-4885-9ec6-bfdcfe63dbb0","system_id":"levelo_inurba_marseille","lat":43.28465,"lon":5.35895,"is_reserved":false,"is_disabled":false,"rental_uris":{"android":"levelo://app?vid=9efc3f96-f8de-4885-9ec6-bfdcfe63dbb0","ios":"levelo://app?vid=9efc3f96-f8de-4885-9ec6-bfdcfe63dbb0"},"vehicle_type_id":"4","last_reported":1731366487,"current_range_meters":29600,"station_id":"ce4bhah2rcd13ifvqei0","pricing_plan_id":"cebpf4jnsgd1na2vs0mg"},{"bike_id":"8387641c-d2fc-46f9-9d28-2dcd2937657e","system_id":"levelo_inurba_marseille","lat":43.290222,"lon":5.375357,"is_reserved":false,"is_disabled":false,"rental_uris":{"android":"levelo://app?vid=8387641c-d2fc-46f9-9d28-2dcd2937657e","ios":"levelo://app?vid=8387641c-d2fc-46f9-9d28-2dcd2937657e"},"vehicle_type_id":"4","last_reported":1731366487,"current_range_meters":37600,"station_id":"ce4bhlh2rcd13ifvqgig","pricing_plan_id":"cebpf4jnsgd1na2vs0mg"},{"bike_id":"1bad3b27-c741-48c4-8cdf-a29a0bb8215c","system_id":"levelo_inurba_marseille","lat":43.33607,"lon":5.41006,"is_reserved":false,"is_disabled":false,"rental_uris":{"android":"levelo://app?vid=1bad3b27-c741-48c4-8cdf-a29a0bb8215c","ios":"levelo://app?vid=1bad3b27-c741-48c4-8cdf-a29a0bb8215c"},"vehicle_type_id":"4","last_reported":1731366487,"current_range_meters":20800,"station_id":"ce4bhqh2rcd13ifvqhmg","pricing_plan_id":"cebpf4jnsgd1na2vs0mg"},{"bike_id":"b11695a2-62a9-4501-a3c1-6ef6ad188fa0","system_id":"levelo_inurba_marseille","lat":43.2979,"lon":5.37098,"is_reserved":false,"is_disabled":false,"rental_uris":{"android":"levelo://app?vid=b11695a2-62a9-4501-a3c1-6ef6ad188fa0","ios":"levelo://app?vid=b11695a2-62a9-4501-a3c1-6ef6ad188fa0"},"vehicle_type_id":"4","last_reported":1731366487,"current_range_meters":27600,"station_id":"ce4bgop2rcd13ifvqc1g","pricing_plan_id":"cebpf4jnsgd1na2vs0mg"},{"bike_id":"fd1030fc-e8a0-452e-b7b8-fa801f8ab4b6","system_id":"levelo_inurba_marseille","lat":43.277964,"lon":5.406828,"is_reserved":false,"is_disabled":false,"rental_uris":{"android":"levelo://app?vid=fd1030fc-e8a0-452e-b7b8-fa801f8ab4b6","ios":"levelo://app?vid=fd1030fc-e8a0-452e-b7b8-fa801f8ab4b6"},"vehicle_type_id":"4","last_reported":1731366487,"current_range_meters":38800,"station_id":"ce4bhnh2rcd13ifvqgtg","pricing_plan_id":"cebpf4jnsgd1na2vs0mg"},{"bike_id":"0389f6ba-9b11-4bae-aa59-6c887bee55e5","system_id":"levelo_inurba_marseille","lat":43.32206,"lon":5.38718,"is_reserved":false,"is_disabled":false,"rental_uris":{"android":"levelo://app?vid=0389f6ba-9b11-4bae-aa59-6c887bee55e5","ios":"levelo://app?vid=0389f6ba-9b11-4bae-aa59-6c887bee55e5"},"vehicle_type_id":"4","last_reported":1731366487,"current_range_meters":28800,"station_id":"","pricing_plan_id":"cebpf4jnsgd1na2vs0mg"},{"bike_id":"835fa522-c4fa-49b1-9060-16512c31e15b","system_id":"levelo_inurba_marseille","lat":43.27169,"lon":5.40999,"is_reserved":false,"is_disabled":false,"rental_uris":{"android":"levelo://app?vid=835fa522-c4fa-49b1-9060-16512c31e15b","ios":"levelo://app?vid=835fa522-c4fa-49b1-9060-16512c31e15b"},"vehicle_type_id":"4","last_reported":1731366487,"current_range_meters":7200,"station_id":"ce4bhl12rcd13ifvqgf0","pricing_plan_id":"cebpf4jnsgd1na2vs0mg"},{"bike_id":"8e9bf724-6982-4dfb-96ee-5f3b35d93850","system_id":"levelo_inurba_marseille","lat":43.29048,"lon":5.35912,"is_reserved":false,"is_disabled":false,"rental_uris":{"android":"levelo://app?vid=8e9bf724-6982-4dfb-96ee-5f3b35d93850","ios":"levelo://app?vid=8e9bf724-6982-4dfb-96ee-5f3b35d93850"},"vehicle_type_id":"4","last_reported":1731366487,"current_range_meters":38800,"station_id":"ce4bha92rcd13ifvqeg0","pricing_plan_id":"cebpf4jnsgd1na2vs0mg"},{"bike_id":"43d89267-21f4-44a8-ad0d-6c58963bd3f5","system_id":"levelo_inurba_marseille","lat":43.31073,"lon":5.38362,"is_reserved":false,"is_disabled":false,"rental_uris":{"android":"levelo://app?vid=43d89267-21f4-44a8-ad0d-6c58963bd3f5","ios":"levelo://app?vid=43d89267-21f4-44a8-ad0d-6c58963bd3f5"},"vehicle_type_id":"4","last_reported":1731366487,"current_range_meters":38400,"station_id":"ce4bgv92rcd13ifvqcr0","pricing_plan_id":"cebpf4jnsgd1na2vs0mg"},{"bike_id":"93323a0d-c43d-4459-a1e2-fa128b85a9cb","system_id":"levelo_inurba_marseille","lat":43.27914,"lon":5.39579,"is_reserved":false,"is_disabled":false,"rental_uris":{"android":"levelo://app?vid=93323a0d-c43d-4459-a1e2-fa128b85a9cb","ios":"levelo://app?vid=93323a0d-c43d-4459-a1e2-fa128b85a9cb"},"vehicle_type_id":"4","last_reported":1731366487,"current_range_meters":38800,"station_id":"ce4bhf92rcd13ifvqf40","pricing_plan_id":"cebpf4jnsgd1na2vs0mg"},{"bike_id":"ac5941e1-3fd0-4a36-b1af-70a3352289e4","system_id":"levelo_inurba_marseille","lat":43.2804,"lon":5.36952,"is_reserved":false,"is_disabled":false,"rental_uris":{"android":"levelo://app?vid=ac5941e1-3fd0-4a36-b1af-70a3352289e4","ios":"levelo://app?vid=ac5941e1-3fd0-4a36-b1af-70a3352289e4"},"vehicle_type_id":"4","last_reported":1731366487,"current_range_meters":38800,"station_id":"ce4bha12rcd13ifvqef0","pricing_plan_id":"cebpf4jnsgd1na2vs0mg"},{"bike_id":"87560b99-eb6a-40f4-9edc-fe0557ad2c24","system_id":"levelo_inurba_marseille","lat":43.27534,"lon":5.4279,"is_reserved":false,"is_disabled":false,"rental_uris":{"android":"levelo://app?vid=87560b99-eb6a-40f4-9edc-fe0557ad2c24","ios":"levelo://app?vid=87560b99-eb6a-40f4-9edc-fe0557ad2c24"},"vehicle_type_id":"4","last_reported":1731366487,"current_range_meters":24000,"station_id":"ce4bgvh2rcd13ifvqcs0","pricing_plan_id":"cebpf4jnsgd1na2vs0mg"},{"bike_id":"47aea41a-bbe0-424b-9b57-bc3ae1f79104","system_id":"levelo_inurba_marseille","lat":43.28345,"lon":5.38107,"is_reserved":false,"is_disabled":false,"rental_uris":{"android":"levelo://app?vid=47aea41a-bbe0-424b-9b57-bc3ae1f79104","ios":"levelo://app?vid=47aea41a-bbe0-424b-9b57-bc3ae1f79104"},"vehicle_type_id":"4","last_reported":1731366487,"current_range_meters":23200,"station_id":"ce4bh412rcd13ifvqdr0","pricing_plan_id":"cebpf4jnsgd1na2vs0mg"},{"bike_id":"12912c0c-de93-400c-aa24-7610028721b8","system_id":"levelo_inurba_marseille","lat":43.26498,"lon":5.39549,"is_reserved":false,"is_disabled":false,"rental_uris":{"android":"levelo://app?vid=12912c0c-de93-400c-aa24-7610028721b8","ios":"levelo://app?vid=12912c0c-de93-400c-aa24-7610028721b8"},"vehicle_type_id":"4","last_reported":1731366487,"current_range_meters":33600,"station_id":"ce4bhi12rcd13ifvqfq0","pricing_plan_id":"cebpf4jnsgd1na2vs0mg"},{"bike_id":"dea8e24b-36b5-4c6f-a7a1-18720dbf8f12","system_id":"levelo_inurba_marseille","lat":43.3248,"lon":5.36573,"is_reserved":false,"is_disabled":false,"rental_uris":{"android":"levelo://app?vid=dea8e24b-36b5-4c6f-a7a1-18720dbf8f12","ios":"levelo://app?vid=dea8e24b-36b5-4c6f-a7a1-18720dbf8f12"},"vehicle_type_id":"4","last_reported":1731366487,"current_range_meters":38800,"station_id":"ce4bhs12rcd13ifvqhvg","pricing_plan_id":"cebpf4jnsgd1na2vs0mg"},{"bike_id":"141c2232-cbe0-4185-ad79-d7c5f01972be","system_id":"levelo_inurba_marseille","lat":43.28667,"lon":5.36362,"is_reserved":false,"is_disabled":false,"rental_uris":{"android":"levelo://app?vid=141c2232-cbe0-4185-ad79-d7c5f01972be","ios":"levelo://app?vid=141c2232-cbe0-4185-ad79-d7c5f01972be"},"vehicle_type_id":"4","last_reported":1731366487,"current_range_meters":20400,"station_id":"ce4bhah2rcd13ifvqej0","pricing_plan_id":"cebpf4jnsgd1na2vs0mg"},{"bike_id":"68ce2da4-cc01-46ce-a70e-a8b20aa5a816","system_id":"levelo_inurba_marseille","lat":43.28844,"lon":5.35856,"is_reserved":false,"is_disabled":false,"rental_uris":{"android":"levelo://app?vid=68ce2da4-cc01-46ce-a70e-a8b20aa5a816","ios":"levelo://app?vid=68ce2da4-cc01-46ce-a70e-a8b20aa5a816"},"vehicle_type_id":"4","last_reported":1731366487,"current_range_meters":38400,"station_id":"ce4bhb12rcd13ifvqem0","pricing_plan_id":"cebpf4jnsgd1na2vs0mg"},{"bike_id":"d36d2d16-7cbd-4f56-a381-5c3e5fc20d4e","system_id":"levelo_inurba_marseille","lat":43.29246,"lon":5.4091,"is_reserved":false,"is_disabled":false,"rental_uris":{"android":"levelo://app?vid=d36d2d16-7cbd-4f56-a381-5c3e5fc20d4e","ios":"levelo://app?vid=d36d2d16-7cbd-4f56-a381-5c3e5fc20d4e"},"vehicle_type_id":"4","last_reported":1731366487,"current_range_meters":22000,"station_id":"ce4bh192rcd13ifvqdc0","pricing_plan_id":"cebpf4jnsgd1na2vs0mg"},{"bike_id":"31cd73a2-0bc6-4fad-a343-da24ea76be5e","system_id":"levelo_inurba_marseille","lat":43.28851,"lon":5.39317,"is_reserved":false,"is_disabled":false,"rental_uris":{"android":"levelo://app?vid=31cd73a2-0bc6-4fad-a343-da24ea76be5e","ios":"levelo://app?vid=31cd73a2-0bc6-4fad-a343-da24ea76be5e"},"vehicle_type_id":"4","last_reported":1731366487,"current_range_meters":38400,"station_id":"ce4bh2p2rcd13ifvqdi0","pricing_plan_id":"cebpf4jnsgd1na2vs0mg"},{"bike_id":"e1fc5986-c912-42a7-bc17-c9585f14479d","system_id":"levelo_inurba_marseille","lat":43.31322,"lon":5.39699,"is_reserved":false,"is_disabled":false,"rental_uris":{"android":"levelo://app?vid=e1fc5986-c912-42a7-bc17-c9585f14479d","ios":"levelo://app?vid=e1fc5986-c912-42a7-bc17-c9585f14479d"},"vehicle_type_id":"4","last_reported":1731366487,"current_range_meters":18800,"station_id":"ce4bgvp2rcd13ifvqcu0","pricing_plan_id":"cebpf4jnsgd1na2vs0mg"},{"bike_id":"3b53d2c1-4997-47eb-afa8-687d16817ff8","system_id":"levelo_inurba_marseille","lat":43.3021,"lon":5.39464,"is_reserved":false,"is_disabled":false,"rental_uris":{"android":"levelo://app?vid=3b53d2c1-4997-47eb-afa8-687d16817ff8","ios":"levelo://app?vid=3b53d2c1-4997-47eb-afa8-687d16817ff8"},"vehicle_type_id":"4","last_reported":1731366487,"current_range_meters":37600,"station_id":"ce4bh0p2rcd13ifvqd70","pricing_plan_id":"cebpf4jnsgd1na2vs0mg"},{"bike_id":"9e22c680-5ff4-4adf-87bd-063d6a5c4995","system_id":"levelo_inurba_marseille","lat":43.27811,"lon":5.40719,"is_reserved":false,"is_disabled":false,"rental_uris":{"android":"levelo://app?vid=9e22c680-5ff4-4adf-87bd-063d6a5c4995","ios":"levelo://app?vid=9e22c680-5ff4-4adf-87bd-063d6a5c4995"},"vehicle_type_id":"4","last_reported":1731366487,"current_range_meters":30400,"station_id":"ce4bhnh2rcd13ifvqgtg","pricing_plan_id":"cebpf4jnsgd1na2vs0mg"},{"bike_id":"15ad8b44-55c9-4572-a02b-d7c6605dd1a3","system_id":"levelo_inurba_marseille","lat":43.25831,"lon":5.3944,"is_reserved":false,"is_disabled":false,"rental_uris":{"android":"levelo://app?vid=15ad8b44-55c9-4572-a02b-d7c6605dd1a3","ios":"levelo://app?vid=15ad8b44-55c9-4572-a02b-d7c6605dd1a3"},"vehicle_type_id":"4","last_reported":1731366487,"current_range_meters":33600,"station_id":"ce4bhip2rcd13ifvqft0","pricing_plan_id":"cebpf4jnsgd1na2vs0mg"},{"bike_id":"3731c9a3-566c-45fb-94bb-7f64fee6fcd7","system_id":"levelo_inurba_marseille","lat":43.28693,"lon":5.39989,"is_reserved":false,"is_disabled":false,"rental_uris":{"android":"levelo://app?vid=3731c9a3-566c-45fb-94bb-7f64fee6fcd7","ios":"levelo://app?vid=3731c9a3-566c-45fb-94bb-7f64fee6fcd7"},"vehicle_type_id":"4","last_reported":1731366487,"current_range_meters":24000,"station_id":"ce4bho92rcd13ifvqh3g","pricing_plan_id":"cebpf4jnsgd1na2vs0mg"},{"bike_id":"6551d46d-6bf3-4c7e-9fae-1492acb6e8e7","system_id":"levelo_inurba_marseille","lat":43.31725,"lon":5.42398,"is_reserved":false,"is_disabled":false,"rental_uris":{"android":"levelo://app?vid=6551d46d-6bf3-4c7e-9fae-1492acb6e8e7","ios":"levelo://app?vid=6551d46d-6bf3-4c7e-9fae-1492acb6e8e7"},"vehicle_type_id":"4","last_reported":1731366487,"current_range_meters":26000,"station_id":"ce4bhp92rcd13ifvqhbg","pricing_plan_id":"cebpf4jnsgd1na2vs0mg"},{"bike_id":"85a47318-0b48-4ac4-9075-2df1aeacaa9d","system_id":"levelo_inurba_marseille","lat":43.28708,"lon":5.37398,"is_reserved":false,"is_disabled":false,"rental_uris":{"android":"levelo://app?vid=85a47318-0b48-4ac4-9075-2df1aeacaa9d","ios":"levelo://app?vid=85a47318-0b48-4ac4-9075-2df1aeacaa9d"},"vehicle_type_id":"4","last_reported":1731366487,"current_range_meters":38400,"station_id":"ce4bh3p2rcd13ifvqdq0","pricing_plan_id":"cebpf4jnsgd1na2vs0mg"},{"bike_id":"8c0d0ab1-f28b-4b96-bdef-3496d20980e0","system_id":"levelo_inurba_marseille","lat":43.31169,"lon":5.38724,"is_reserved":false,"is_disabled":false,"rental_uris":{"android":"levelo://app?vid=8c0d0ab1-f28b-4b96-bdef-3496d20980e0","ios":"levelo://app?vid=8c0d0ab1-f28b-4b96-bdef-3496d20980e0"},"vehicle_type_id":"4","last_reported":1731366487,"current_range_meters":32400,"station_id":"ce4bgv12rcd13ifvqcp0","pricing_plan_id":"cebpf4jnsgd1na2vs0mg"},{"bike_id":"3a380d17-df8f-4b0b-9249-c031a1e66b20","system_id":"levelo_inurba_marseille","lat":43.25575,"lon":5.38239,"is_reserved":false,"is_disabled":false,"rental_uris":{"android":"levelo://app?vid=3a380d17-df8f-4b0b-9249-c031a1e66b20","ios":"levelo://app?vid=3a380d17-df8f-4b0b-9249-c031a1e66b20"},"vehicle_type_id":"4","last_reported":1731366487,"current_range_meters":36400,"station_id":"ce4bhih2rcd13ifvqfs0","pricing_plan_id":"cebpf4jnsgd1na2vs0mg"},{"bike_id":"24075d52-b22d-4189-acbb-f6fcf055ed5d","system_id":"levelo_inurba_marseille","lat":43.31886,"lon":5.40736,"is_reserved":false,"is_disabled":false,"rental_uris":{"android":"levelo://app?vid=24075d52-b22d-4189-acbb-f6fcf055ed5d","ios":"levelo://app?vid=24075d52-b22d-4189-acbb-f6fcf055ed5d"},"vehicle_type_id":"4","last_reported":1731366487,"current_range_meters":38400,"station_id":"ce4bhq12rcd13ifvqhig","pricing_plan_id":"cebpf4jnsgd1na2vs0mg"},{"bike_id":"0392daae-51fc-48e0-b3de-420a3af25192","system_id":"levelo_inurba_marseille","lat":43.28078,"lon":5.39657,"is_reserved":false,"is_disabled":false,"rental_uris":{"android":"levelo://app?vid=0392daae-51fc-48e0-b3de-420a3af25192","ios":"levelo://app?vid=0392daae-51fc-48e0-b3de-420a3af25192"},"vehicle_type_id":"4","last_reported":1731366487,"current_range_meters":33200,"station_id":"ce4bho12rcd13ifvqh2g","pricing_plan_id":"cebpf4jnsgd1na2vs0mg"},{"bike_id":"4c88044d-18dd-4d7b-a66b-04d4050242b5","system_id":"levelo_inurba_marseille","lat":43.27424,"lon":5.39416,"is_reserved":false,"is_disabled":false,"rental_uris":{"android":"levelo://app?vid=4c88044d-18dd-4d7b-a66b-04d4050242b5","ios":"levelo://app?vid=4c88044d-18dd-4d7b-a66b-04d4050242b5"},"vehicle_type_id":"4","last_reported":1731366487,"current_range_meters":34800,"station_id":"ce4bhdp2rcd13ifvqf20","pricing_plan_id":"cebpf4jnsgd1na2vs0mg"},{"bike_id":"987b6866-ee94-4904-82cd-c039be44a38b","system_id":"levelo_inurba_marseille","lat":43.28857,"lon":5.35854,"is_reserved":false,"is_disabled":false,"rental_uris":{"android":"levelo://app?vid=987b6866-ee94-4904-82cd-c039be44a38b","ios":"levelo://app?vid=987b6866-ee94-4904-82cd-c039be44a38b"},"vehicle_type_id":"4","last_reported":1731366487,"current_range_meters":23200,"station_id":"ce4bhb12rcd13ifvqem0","pricing_plan_id":"cebpf4jnsgd1na2vs0mg"},{"bike_id":"dae78a48-3da0-45bb-bd43-1861b1847e12","system_id":"levelo_inurba_marseille","lat":43.28348,"lon":5.38117,"is_reserved":false,"is_disabled":false,"rental_uris":{"android":"levelo://app?vid=dae78a48-3da0-45bb-bd43-1861b1847e12","ios":"levelo://app?vid=dae78a48-3da0-45bb-bd43-1861b1847e12"},"vehicle_type_id":"4","last_reported":1731366487,"current_range_meters":38800,"station_id":"ce4bh412rcd13ifvqdr0","pricing_plan_id":"cebpf4jnsgd1na2vs0mg"},{"bike_id":"f7403d44-18bb-4fcd-a284-5d8276d25914","system_id":"levelo_inurba_marseille","lat":43.24668,"lon":5.38151,"is_reserved":false,"is_disabled":false,"rental_uris":{"android":"levelo://app?vid=f7403d44-18bb-4fcd-a284-5d8276d25914","ios":"levelo://app?vid=f7403d44-18bb-4fcd-a284-5d8276d25914"},"vehicle_type_id":"4","last_reported":1731366487,"current_range_meters":38800,"station_id":"ce4bhih2rcd13ifvqfr0","pricing_plan_id":"cebpf4jnsgd1na2vs0mg"},{"bike_id":"a1c29d06-e30c-4263-99e6-77fcc59dbca1","system_id":"levelo_inurba_marseille","lat":43.31334,"lon":5.36731,"is_reserved":false,"is_disabled":false,"rental_uris":{"android":"levelo://app?vid=a1c29d06-e30c-4263-99e6-77fcc59dbca1","ios":"levelo://app?vid=a1c29d06-e30c-4263-99e6-77fcc59dbca1"},"vehicle_type_id":"4","last_reported":1731366487,"current_range_meters":37600,"station_id":"ce4bgr92rcd13ifvqc6g","pricing_plan_id":"cebpf4jnsgd1na2vs0mg"},{"bike_id":"a8e8c894-6c95-4028-8c3c-5e0aa80de26a","system_id":"levelo_inurba_marseille","lat":43.28712,"lon":5.37932,"is_reserved":false,"is_disabled":false,"rental_uris":{"android":"levelo://app?vid=a8e8c894-6c95-4028-8c3c-5e0aa80de26a","ios":"levelo://app?vid=a8e8c894-6c95-4028-8c3c-5e0aa80de26a"},"vehicle_type_id":"4","last_reported":1731366487,"current_range_meters":33200,"station_id":"ce4bh9p2rcd13ifvqec0","pricing_plan_id":"cebpf4jnsgd1na2vs0mg"},{"bike_id":"da4ee9a2-7d5a-4a76-9358-e8bc42011f15","system_id":"levelo_inurba_marseille","lat":43.33607,"lon":5.41017,"is_reserved":false,"is_disabled":false,"rental_uris":{"android":"levelo://app?vid=da4ee9a2-7d5a-4a76-9358-e8bc42011f15","ios":"levelo://app?vid=da4ee9a2-7d5a-4a76-9358-e8bc42011f15"},"vehicle_type_id":"4","last_reported":1731366487,"current_range_meters":24400,"station_id":"ce4bhqh2rcd13ifvqhmg","pricing_plan_id":"cebpf4jnsgd1na2vs0mg"},{"bike_id":"b2f3adca-b446-441d-a1ab-5903c30fd432","system_id":"levelo_inurba_marseille","lat":43.33772,"lon":5.37447,"is_reserved":false,"is_disabled":false,"rental_uris":{"android":"levelo://app?vid=b2f3adca-b446-441d-a1ab-5903c30fd432","ios":"levelo://app?vid=b2f3adca-b446-441d-a1ab-5903c30fd432"},"vehicle_type_id":"4","last_reported":1731366487,"current_range_meters":8800,"station_id":"","pricing_plan_id":"cebpf4jnsgd1na2vs0mg"},{"bike_id":"3772b6dd-11d7-47bd-9c13-b2f385717191","system_id":"levelo_inurba_marseille","lat":43.28038,"lon":5.36942,"is_reserved":false,"is_disabled":false,"rental_uris":{"android":"levelo://app?vid=3772b6dd-11d7-47bd-9c13-b2f385717191","ios":"levelo://app?vid=3772b6dd-11d7-47bd-9c13-b2f385717191"},"vehicle_type_id":"4","last_reported":1731366487,"current_range_meters":38800,"station_id":"ce4bha12rcd13ifvqef0","pricing_plan_id":"cebpf4jnsgd1na2vs0mg"},{"bike_id":"fd9fd0aa-0804-4953-a041-494b11c6f5c1","system_id":"levelo_inurba_marseille","lat":43.29874,"lon":5.38931,"is_reserved":false,"is_disabled":false,"rental_uris":{"android":"levelo://app?vid=fd9fd0aa-0804-4953-a041-494b11c6f5c1","ios":"levelo://app?vid=fd9fd0aa-0804-4953-a041-494b11c6f5c1"},"vehicle_type_id":"4","last_reported":1731366487,"current_range_meters":38800,"station_id":"ce4bh392rcd13ifvqdl0","pricing_plan_id":"cebpf4jnsgd1na2vs0mg"},{"bike_id":"ca5db060-c02c-4c9c-85b8-fa89c45fc361","system_id":"levelo_inurba_marseille","lat":43.281472,"lon":5.426454,"is_reserved":false,"is_disabled":false,"rental_uris":{"android":"levelo://app?vid=ca5db060-c02c-4c9c-85b8-fa89c45fc361","ios":"levelo://app?vid=ca5db060-c02c-4c9c-85b8-fa89c45fc361"},"vehicle_type_id":"4","last_reported":1731366487,"current_range_meters":38800,"station_id":"ce4bhnh2rcd13ifvqgug","pricing_plan_id":"cebpf4jnsgd1na2vs0mg"},{"bike_id":"d52e8493-76de-4e92-96df-12a00039b59b","system_id":"levelo_inurba_marseille","lat":43.25498,"lon":5.3765,"is_reserved":false,"is_disabled":false,"rental_uris":{"android":"levelo://app?vid=d52e8493-76de-4e92-96df-12a00039b59b","ios":"levelo://app?vid=d52e8493-76de-4e92-96df-12a00039b59b"},"vehicle_type_id":"4","last_reported":1731366487,"current_range_meters":38800,"station_id":"ce4bhh12rcd13ifvqff0","pricing_plan_id":"cebpf4jnsgd1na2vs0mg"},{"bike_id":"384f70a5-684a-462c-a686-d9b68c3ffecd","system_id":"levelo_inurba_marseille","lat":43.29876,"lon":5.376262,"is_reserved":false,"is_disabled":false,"rental_uris":{"android":"levelo://app?vid=384f70a5-684a-462c-a686-d9b68c3ffecd","ios":"levelo://app?vid=384f70a5-684a-462c-a686-d9b68c3ffecd"},"vehicle_type_id":"4","last_reported":1731366487,"current_range_meters":10000,"station_id":"","pricing_plan_id":"cebpf4jnsgd1na2vs0mg"},{"bike_id":"3c8d9402-5602-453f-a44f-c2080c1431b8","system_id":"levelo_inurba_marseille","lat":43.27489,"lon":5.42454,"is_reserved":false,"is_disabled":false,"rental_uris":{"android":"levelo://app?vid=3c8d9402-5602-453f-a44f-c2080c1431b8","ios":"levelo://app?vid=3c8d9402-5602-453f-a44f-c2080c1431b8"},"vehicle_type_id":"4","last_reported":1731366487,"current_range_meters":31200,"station_id":"ce4bhn92rcd13ifvqgrg","pricing_plan_id":"cebpf4jnsgd1na2vs0mg"},{"bike_id":"82323c86-9e09-49a0-90c5-d2ba6154b9cb","system_id":"levelo_inurba_marseille","lat":43.27998,"lon":5.40012,"is_reserved":false,"is_disabled":false,"rental_uris":{"android":"levelo://app?vid=82323c86-9e09-49a0-90c5-d2ba6154b9cb","ios":"levelo://app?vid=82323c86-9e09-49a0-90c5-d2ba6154b9cb"},"vehicle_type_id":"4","last_reported":1731366487,"current_range_meters":36000,"station_id":"ce4bho92rcd13ifvqh4g","pricing_plan_id":"cebpf4jnsgd1na2vs0mg"},{"bike_id":"e71c1695-30ee-46b9-9824-79fb48b13054","system_id":"levelo_inurba_marseille","lat":43.28615,"lon":5.35105,"is_reserved":false,"is_disabled":false,"rental_uris":{"android":"levelo://app?vid=e71c1695-30ee-46b9-9824-79fb48b13054","ios":"levelo://app?vid=e71c1695-30ee-46b9-9824-79fb48b13054"},"vehicle_type_id":"4","last_reported":1731366487,"current_range_meters":21600,"station_id":"ce4bhch2rcd13ifvqeug","pricing_plan_id":"cebpf4jnsgd1na2vs0mg"},{"bike_id":"a81d8d30-382e-4947-96ce-a26066150e7f","system_id":"levelo_inurba_marseille","lat":43.25114,"lon":5.40326,"is_reserved":false,"is_disabled":false,"rental_uris":{"android":"levelo://app?vid=a81d8d30-382e-4947-96ce-a26066150e7f","ios":"levelo://app?vid=a81d8d30-382e-4947-96ce-a26066150e7f"},"vehicle_type_id":"4","last_reported":1731366487,"current_range_meters":38400,"station_id":"ce4bhlh2rcd13ifvqgig","pricing_plan_id":"cebpf4jnsgd1na2vs0mg"},{"bike_id":"44a17869-d80c-4d5a-81cd-97b15c7e4788","system_id":"levelo_inurba_marseille","lat":43.2842,"lon":5.34992,"is_reserved":false,"is_disabled":false,"rental_uris":{"android":"levelo://app?vid=44a17869-d80c-4d5a-81cd-97b15c7e4788","ios":"levelo://app?vid=44a17869-d80c-4d5a-81cd-97b15c7e4788"},"vehicle_type_id":"4","last_reported":1731366487,"current_range_meters":37600,"station_id":"ce4bhbh2rcd13ifvqepg","pricing_plan_id":"cebpf4jnsgd1na2vs0mg"},{"bike_id":"e86b9b96-4c65-45e8-b0a4-0f51521e5e23","system_id":"levelo_inurba_marseille","lat":43.27912,"lon":5.39587,"is_reserved":false,"is_disabled":false,"rental_uris":{"android":"levelo://app?vid=e86b9b96-4c65-45e8-b0a4-0f51521e5e23","ios":"levelo://app?vid=e86b9b96-4c65-45e8-b0a4-0f51521e5e23"},"vehicle_type_id":"4","last_reported":1731366487,"current_range_meters":22400,"station_id":"ce4bhf92rcd13ifvqf40","pricing_plan_id":"cebpf4jnsgd1na2vs0mg"},{"bike_id":"2c3658be-5fd6-4e5c-86a1-a1519d529253","system_id":"levelo_inurba_marseille","lat":43.28463,"lon":5.35889,"is_reserved":false,"is_disabled":false,"rental_uris":{"android":"levelo://app?vid=2c3658be-5fd6-4e5c-86a1-a1519d529253","ios":"levelo://app?vid=2c3658be-5fd6-4e5c-86a1-a1519d529253"},"vehicle_type_id":"4","last_reported":1731366487,"current_range_meters":36000,"station_id":"ce4bhah2rcd13ifvqei0","pricing_plan_id":"cebpf4jnsgd1na2vs0mg"},{"bike_id":"ed9aca48-e626-4447-9918-9e283c73d09e","system_id":"levelo_inurba_marseille","lat":43.26072,"lon":5.39395,"is_reserved":false,"is_disabled":false,"rental_uris":{"android":"levelo://app?vid=ed9aca48-e626-4447-9918-9e283c73d09e","ios":"levelo://app?vid=ed9aca48-e626-4447-9918-9e283c73d09e"},"vehicle_type_id":"4","last_reported":1731366487,"current_range_meters":38400,"station_id":"ce4bhh92rcd13ifvqfj0","pricing_plan_id":"cebpf4jnsgd1na2vs0mg"},{"bike_id":"b72ca6e7-47e9-42be-9a97-b74e22acdc0e","system_id":"levelo_inurba_marseille","lat":43.32098,"lon":5.3678,"is_reserved":false,"is_disabled":false,"rental_uris":{"android":"levelo://app?vid=b72ca6e7-47e9-42be-9a97-b74e22acdc0e","ios":"levelo://app?vid=b72ca6e7-47e9-42be-9a97-b74e22acdc0e"},"vehicle_type_id":"4","last_reported":1731366487,"current_range_meters":28000,"station_id":"ce4bhrh2rcd13ifvqhug","pricing_plan_id":"cebpf4jnsgd1na2vs0mg"},{"bike_id":"0e8b328d-d250-4022-b102-700ab6c44fe0","system_id":"levelo_inurba_marseille","lat":43.28032,"lon":5.3695,"is_reserved":false,"is_disabled":false,"rental_uris":{"android":"levelo://app?vid=0e8b328d-d250-4022-b102-700ab6c44fe0","ios":"levelo://app?vid=0e8b328d-d250-4022-b102-700ab6c44fe0"},"vehicle_type_id":"4","last_reported":1731366487,"current_range_meters":36800,"station_id":"ce4bha12rcd13ifvqef0","pricing_plan_id":"cebpf4jnsgd1na2vs0mg"},{"bike_id":"f2289bf4-2038-4eb7-b270-ac009d16883d","system_id":"levelo_inurba_marseille","lat":43.24674,"lon":5.38166,"is_reserved":false,"is_disabled":false,"rental_uris":{"android":"levelo://app?vid=f2289bf4-2038-4eb7-b270-ac009d16883d","ios":"levelo://app?vid=f2289bf4-2038-4eb7-b270-ac009d16883d"},"vehicle_type_id":"4","last_reported":1731366487,"current_range_meters":10000,"station_id":"ce4bhih2rcd13ifvqfr0","pricing_plan_id":"cebpf4jnsgd1na2vs0mg"},{"bike_id":"755d47d5-03c1-4a41-9bbc-7f3962d7f720","system_id":"levelo_inurba_marseille","lat":43.2781,"lon":5.40724,"is_reserved":false,"is_disabled":false,"rental_uris":{"android":"levelo://app?vid=755d47d5-03c1-4a41-9bbc-7f3962d7f720","ios":"levelo://app?vid=755d47d5-03c1-4a41-9bbc-7f3962d7f720"},"vehicle_type_id":"4","last_reported":1731366487,"current_range_meters":39200,"station_id":"ce4bhnh2rcd13ifvqgtg","pricing_plan_id":"cebpf4jnsgd1na2vs0mg"},{"bike_id":"ecb4025f-2043-4ee8-88db-1aeae34d4bc8","system_id":"levelo_inurba_marseille","lat":43.28574,"lon":5.395,"is_reserved":false,"is_disabled":false,"rental_uris":{"android":"levelo://app?vid=ecb4025f-2043-4ee8-88db-1aeae34d4bc8","ios":"levelo://app?vid=ecb4025f-2043-4ee8-88db-1aeae34d4bc8"},"vehicle_type_id":"4","last_reported":1731366487,"current_range_meters":36400,"station_id":"ce4bh292rcd13ifvqdg0","pricing_plan_id":"cebpf4jnsgd1na2vs0mg"},{"bike_id":"d200f736-33ff-4949-a4fa-9c168ba1cf59","system_id":"levelo_inurba_marseille","lat":43.28417,"lon":5.34987,"is_reserved":false,"is_disabled":false,"rental_uris":{"android":"levelo://app?vid=d200f736-33ff-4949-a4fa-9c168ba1cf59","ios":"levelo://app?vid=d200f736-33ff-4949-a4fa-9c168ba1cf59"},"vehicle_type_id":"4","last_reported":1731366487,"current_range_meters":38400,"station_id":"ce4bhbh2rcd13ifvqepg","pricing_plan_id":"cebpf4jnsgd1na2vs0mg"},{"bike_id":"d41bde91-995f-4400-9bd0-c7f768fd0020","system_id":"levelo_inurba_marseille","lat":43.30441,"lon":5.38895,"is_reserved":false,"is_disabled":false,"rental_uris":{"android":"levelo://app?vid=d41bde91-995f-4400-9bd0-c7f768fd0020","ios":"levelo://app?vid=d41bde91-995f-4400-9bd0-c7f768fd0020"},"vehicle_type_id":"4","last_reported":1731366487,"current_range_meters":29600,"station_id":"ce4bgk12rcd13ifvqbi0","pricing_plan_id":"cebpf4jnsgd1na2vs0mg"},{"bike_id":"c491574e-8837-4ac2-ad3a-3851da71ea72","system_id":"levelo_inurba_marseille","lat":43.2417,"lon":5.39729,"is_reserved":false,"is_disabled":false,"rental_uris":{"android":"levelo://app?vid=c491574e-8837-4ac2-ad3a-3851da71ea72","ios":"levelo://app?vid=c491574e-8837-4ac2-ad3a-3851da71ea72"},"vehicle_type_id":"4","last_reported":1731366487,"current_range_meters":32800,"station_id":"ce4bhn12rcd13ifvqgpg","pricing_plan_id":"cebpf4jnsgd1na2vs0mg"},