{"last_updated":1745406506,"ttl":60,"version":"2.2","data":{"bikes":[{"bike_id":"0500ee3a-16fc-4264-86a2-cdb1b6c887a7","system_id":"levelo_inurba_marseille","lat":43.31758,"lon":5.39012,"is_reserved":false,"is_disabled":false,"rental_uris":{"android":"levelo://app?vid=0500ee3a-16fc-4264-86a2-cdb1b6c887a7","ios":"levelo://app?vid=0500ee3a-16fc-4264-86a2-cdb1b6c887a7"},"vehicle_type_id":"4","last_reported":1745406506,"current_range_meters":2000,"station_id":"ce4bhqp2rcd13ifvqhng","pricing_plan_id":"cebpf4jnsgd1na2vs0mg"},{"bike_id":"d5d0611c-9426-46bf-a198-fe1039f0025a","system_id":"levelo_inurba_marseille","lat":43.30929,"lon":5.40141,"is_reserved":false,"is_disabled":false,"rental_uris":{"android":"levelo://app?vid=d5d0611c-9426-46bf-a198-fe1039f0025a","ios":"levelo://app?vid=d5d0611c-9426-46bf-a198-fe1039f0025a"},"vehicle_type_id":"4","last_reported":1745406506,"current_range_meters":2000,"station_id":"ce4bgvp2rcd13ifvqct0","pricing_plan_id":"cebpf4jnsgd1na2vs0mg"},{"bike_id":"538acba4-286d-4ce7-bc8a-f66968183019","system_id":"levelo_inurba_marseille","lat":43.27494,"lon":5.42487,"is_reserved":false,"is_disabled":true,"rental_uris":{"android":"levelo://app?vid=538acba4-286d-4ce7-bc8a-f66968183019","ios":"levelo://app?vid=538acba4-286d-4ce7-bc8a-f66968183019"},"vehicle_type_id":"4","last_reported":1745406506,"current_range_meters":2800,"station_id":"ce4bhn92rcd13ifvqgrg","pricing_plan_id":"cebpf4jnsgd1na2vs0mg"},{"bike_id":"33656149-c963-4a26-abe3-92883f6e63d8","system_id":"levelo_inurba_marseille","lat":43.29897,"lon":5.43653,"is_reserved":false,"is_disabled":false,"rental_uris":{"android":"levelo://app?vid=33656149-c963-4a26-abe3-92883f6e63d8","ios":"levelo://app?vid=33656149-c963-4a26-abe3-92883f6e63d8"},"vehicle_type_id":"4","last_reported":1745406506,"current_range_meters":3200,"station_id":"ce4bhpp2rcd13ifvqhfg","pricing_plan_id":"cebpf4jnsgd1na2vs0mg"},{"bike_id":"f55e462f-3db3-47fc-92e4-121fc7b4f89d","system_id":"levelo_inurba_marseille","lat":43.29615,"lon":5.37397,"is_reserved":false,"is_disabled":false,"rental_uris":{"android":"levelo://app?vid=f55e462f-3db3-47fc-92e4-121fc7b4f89d","ios":"levelo://app?vid=f55e462f-3db3-47fc-92e4-121fc7b4f89d"},"vehicle_type_id":"4","last_reported":1745406506,"current_range_meters":3200,"station_id":"","pricing_plan_id":"cebpf4jnsgd1na2vs0mg"},{"bike_id":"f72dbbf3-5544-4e17-8188-fb592e1f0394","system_id":"levelo_inurba_marseille","lat":43.29267,"lon":5.37633,"is_reserved":false,"is_disabled":false,"rental_uris":{"android":"levelo://app?vid=f72dbbf3-5544-4e17-8188-fb592e1f0394","ios":"levelo://app?vid=f72dbbf3-5544-4e17-8188-fb592e1f0394"},"vehicle_type_id":"4","last_reported":1745406506,"current_range_meters":3200,"station_id":"ce4bgi12rcd13ifvqb80","pricing_plan_id":"cebpf4jnsgd1na2vs0mg"},{"bike_id":"cb1f7664-c59a-4a67-961e-80ffc5b87a8d","system_id":"levelo_inurba_marseille","lat":43.27943,"lon":5.3871,"is_reserved":false,"is_disabled":false,"rental_uris":{"android":"levelo://app?vid=cb1f7664-c59a-4a67-961e-80ffc5b87a8d","ios":"levelo://app?vid=cb1f7664-c59a-4a67-961e-80ffc5b87a8d"},"vehicle_type_id":"4","last_reported":1745406506,"current_range_meters":3600,"station_id":"ce4bhg12rcd13ifvqf80","pricing_plan_id":"cebpf4jnsgd1na2vs0mg"},{"bike_id":"34c614d5-1e78-4af9-bbc7-3ebce54fbdb1","system_id":"levelo_inurba_marseille","lat":43.30184,"lon":5.39357,"is_reserved":false,"is_disabled":false,"rental_uris":{"android":"levelo://app?vid=34c614d5-1e78-4af9-bbc7-3ebce54fbdb1","ios":"levelo://app?vid=34c614d5-1e78-4af9-bbc7-3ebce54fbdb1"},"vehicle_type_id":"4","last_reported":1745406506,"current_range_meters":3600,"station_id":"","pricing_plan_id":"cebpf4jnsgd1na2vs0mg"},{"bike_id":"3bac2911-a376-494c-b7b1-f4a64b7df355","system_id":"levelo_inurba_marseille","lat":43.25826,"lon":5.39438,"is_reserved":false,"is_disabled":false,"rental_uris":{"android":"levelo://app?vid=3bac2911-a376-494c-b7b1-f4a64b7df355","ios":"levelo://app?vid=3bac2911-a376-494c-b7b1-f4a64b7df355"},"vehicle_type_id":"4","last_reported":1745406506,"current_range_meters":3200,"station_id":"ce4bhip2rcd13ifvqft0","pricing_plan_id":"cebpf4jnsgd1na2vs0mg"},{"bike_id":"322fb907-d562-429a-b282-a9770b46eff1","system_id":"levelo_inurba_marseille","lat":43.29855,"lon":5.36291,"is_reserved":false,"is_disabled":false,"rental_uris":{"android":"levelo://app?vid=322fb907-d562-429a-b282-a9770b46eff1","ios":"levelo://app?vid=322fb907-d562-429a-b282-a9770b46eff1"},"vehicle_type_id":"4","last_reported":1745406506,"current_range_meters":3600,"station_id":"ce4bgpp2rcd13ifvqc3g","pricing_plan_id":"cebpf4jnsgd1na2vs0mg"},{"bike_id":"713668b6-d8f8-4dec-ab80-c12f97f5d83d","system_id":"levelo_inurba_marseille","lat":43.29907,"lon":5.37499,"is_reserved":false,"is_disabled":false,"rental_uris":{"android":"levelo://app?vid=713668b6-d8f8-4dec-ab80-c12f97f5d83d","ios":"levelo://app?vid=713668b6-d8f8-4dec-ab80-c12f97f5d83d"},"vehicle_type_id":"4","last_reported":1745406506,"current_range_meters":4400,"station_id":"ce4bgjh2rcd13ifvqbg0","pricing_plan_id":"cebpf4jnsgd1na2vs0mg"},{"bike_id":"cd6b8ed4-4594-410c-a2e9-dd4f2f5de1d5","system_id":"levelo_inurba_marseille","lat":43.29511,"lon":5.39405,"is_reserved":false,"is_disabled":false,"rental_uris":{"android":"levelo://app?vid=cd6b8ed4-4594-410c-a2e9-dd4f2f5de1d5","ios":"levelo://app?vid=cd6b8ed4-4594-410c-a2e9-dd4f2f5de1d5"},"vehicle_type_id":"4","last_reported":1745406506,"current_range_meters":6800,"station_id":"ce4bh292rcd13ifvqdf0","pricing_plan_id":"cebpf4jnsgd1na2vs0mg"},{"bike_id":"35ca16e2-99a8-4cab-87b8-cdc863f8af8a","system_id":"levelo_inurba_marseille","lat":43.24166,"lon":5.36393,"is_reserved":false,"is_disabled":false,"rental_uris":{"android":"levelo://app?vid=35ca16e2-99a8-4cab-87b8-cdc863f8af8a","ios":"levelo://app?vid=35ca16e2-99a8-4cab-87b8-cdc863f8af8a"},"vehicle_type_id":"4","last_reported":1745406506,"current_range_meters":4800,"station_id":"cpo36qri1sfpv3e86is0","pricing_plan_id":"cebpf4jnsgd1na2vs0mg"},{"bike_id":"0ca882d7-4949-4c05-8c84-e21aac0b1937","system_id":"levelo_inurba_marseille","lat":43.31736,"lon":5.40453,"is_reserved":false,"is_disabled":false,"rental_uris":{"android":"levelo://app?vid=0ca882d7-4949-4c05-8c84-e21aac0b1937","ios":"levelo://app?vid=0ca882d7-4949-4c05-8c84-e21aac0b1937"},"vehicle_type_id":"4","last_reported":1745406506,"current_range_meters":4800,"station_id":"","pricing_plan_id":"cebpf4jnsgd1na2vs0mg"},{"bike_id":"a754b563-0074-43f1-96d3-b51af44aee5a","system_id":"levelo_inurba_marseille","lat":43.33001,"lon":5.3905,"is_reserved":false,"is_disabled":false,"rental_uris":{"android":"levelo://app?vid=a754b563-0074-43f1-96d3-b51af44aee5a","ios":"levelo://app?vid=a754b563-0074-43f1-96d3-b51af44aee5a"},"vehicle_type_id":"4","last_reported":1745406506,"current_range_meters":5600,"station_id":"ce4bhr92rcd13ifvqhrg","pricing_plan_id":"cebpf4jnsgd1na2vs0mg"},{"bike_id":"b2def2d2-5aae-4143-820f-7a077556104a","system_id":"levelo_inurba_marseille","lat":43.31165,"lon":5.3871,"is_reserved":false,"is_disabled":false,"rental_uris":{"android":"levelo://app?vid=b2def2d2-5aae-4143-820f-7a077556104a","ios":"levelo://app?vid=b2def2d2-5aae-4143-820f-7a077556104a"},"vehicle_type_id":"4","last_reported":1745406506,"current_range_meters":4400,"station_id":"ce4bgv12rcd13ifvqcp0","pricing_plan_id":"cebpf4jnsgd1na2vs0mg"},{"bike_id":"46599006-15c2-4741-af48-ee4031030273","system_id":"levelo_inurba_marseille","lat":43.29894,"lon":5.43674,"is_reserved":false,"is_disabled":false,"rental_uris":{"android":"levelo://app?vid=46599006-15c2-4741-af48-ee4031030273","ios":"levelo://app?vid=46599006-15c2-4741-af48-ee4031030273"},"vehicle_type_id":"4","last_reported":1745406506,"current_range_meters":0,"station_id":"ce4bhpp2rcd13ifvqhfg","pricing_plan_id":"cebpf4jnsgd1na2vs0mg"},{"bike_id":"c4644969-f9bf-4342-a987-722ad64a3032","system_id":"levelo_inurba_marseille","lat":43.29862,"lon":5.36261,"is_reserved":false,"is_disabled":false,"rental_uris":{"android":"levelo://app?vid=c4644969-f9bf-4342-a987-722ad64a3032","ios":"levelo://app?vid=c4644969-f9bf-4342-a987-722ad64a3032"},"vehicle_type_id":"4","last_reported":1745406506,"current_range_meters":5600,"station_id":"ce4bgpp2rcd13ifvqc3g","pricing_plan_id":"cebpf4jnsgd1na2vs0mg"},{"bike_id":"bb4b96a0-def3-40f5-9288-68ec2867aafe","system_id":"levelo_inurba_marseille","lat":43.2175,"lon":5.34603,"is_reserved":false,"is_disabled":false,"rental_uris":{"android":"levelo://app?vid=bb4b96a0-def3-40f5-9288-68ec2867aafe","ios":"levelo://app?vid=bb4b96a0-def3-40f5-9288-68ec2867aafe"},"vehicle_type_id":"4","last_reported":1745406506,"current_range_meters":5600,"station_id":"","pricing_plan_id":"cebpf4jnsgd1na2vs0mg"},{"bike_id":"60f76300-2241-4c37-8665-8421fb752d9d","system_id":"levelo_inurba_marseille","lat":43.29926,"lon":5.37475,"is_reserved":false,"is_disabled":false,"rental_uris":{"android":"levelo://app?vid=60f76300-2241-4c37-8665-8421fb752d9d","ios":"levelo://app?vid=60f76300-2241-4c37-8665-8421fb752d9d"},"vehicle_type_id":"4","last_reported":1745406506,"current_range_meters":5600,"station_id":"ce4bgjh2rcd13ifvqbg0","pricing_plan_id":"cebpf4jnsgd1na2vs0mg"},{"bike_id":"a85e8a04-b12b-4902-8b76-c3819991de02","system_id":"levelo_inurba_marseille","lat":43.29259,"lon":5.37624,"is_reserved":false,"is_disabled":false,"rental_uris":{"android":"levelo://app?vid=a85e8a04-b12b-4902-8b76-c3819991de02","ios":"levelo://app?vid=a85e8a04-b12b-4902-8b76-c3819991de02"},"vehicle_type_id":"4","last_reported":1745406506,"current_range_meters":6000,"station_id":"ce4bgi12rcd13ifvqb80","pricing_plan_id":"cebpf4jnsgd1na2vs0mg"},{"bike_id":"5abbc553-a539-45fc-97fb-f9f6070ed985","system_id":"levelo_inurba_marseille","lat":43.2756,"lon":5.38402,"is_reserved":false,"is_disabled":false,"rental_uris":{"android":"levelo://app?vid=5abbc553-a539-45fc-97fb-f9f6070ed985","ios":"levelo://app?vid=5abbc553-a539-45fc-97fb-f9f6070ed985"},"vehicle_type_id":"4","last_reported":1745406506,"current_range_meters":6000,"station_id":"ce4bhh92rcd13ifvqfi0","pricing_plan_id":"cebpf4jnsgd1na2vs0mg"},{"bike_id":"cd9032bd-0290-4bc3-b23a-23e35b8913c0","system_id":"levelo_inurba_marseille","lat":43.22916,"lon":5.35383,"is_reserved":false,"is_disabled":false,"rental_uris":{"android":"levelo://app?vid=cd9032bd-0290-4bc3-b23a-23e35b8913c0","ios":"levelo://app?vid=cd9032bd-0290-4bc3-b23a-23e35b8913c0"},"vehicle_type_id":"4","last_reported":1745406506,"current_range_meters":6000,"station_id":"cpo3532slgdg3j2ikp40","pricing_plan_id":"cebpf4jnsgd1na2vs0mg"},{"bike_id":"2fd0e6ca-ae7e-4fa2-8175-c0dde36637d1","system_id":"levelo_inurba_marseille","lat":43.28446,"lon":5.39181,"is_reserved":false,"is_disabled":false,"rental_uris":{"android":"levelo://app?vid=2fd0e6ca-ae7e-4fa2-8175-c0dde36637d1","ios":"levelo://app?vid=2fd0e6ca-ae7e-4fa2-8175-c0dde36637d1"},"vehicle_type_id":"4","last_reported":1745406506,"current_range_meters":6000,"station_id":"ce4bhoh2rcd13ifvqh5g","pricing_plan_id":"cebpf4jnsgd1na2vs0mg"},{"bike_id":"fb4295a7-4e4f-4eb6-8442-338aafdcde0d","system_id":"levelo_inurba_marseille","lat":43.2592,"lon":5.40886,"is_reserved":false,"is_disabled":true,"rental_uris":{"android":"levelo://app?vid=fb4295a7-4e4f-4eb6-8442-338aafdcde0d","ios":"levelo://app?vid=fb4295a7-4e4f-4eb6-8442-338aafdcde0d"},"vehicle_type_id":"4","last_reported":1745406506,"current_range_meters":6400,"station_id":"ce4bhm92rcd13ifvqglg","pricing_plan_id":"cebpf4jnsgd1na2vs0mg"},{"bike_id":"9d928494-5a56-4771-9eb6-e83773721cd7","system_id":"levelo_inurba_marseille","lat":43.29557,"lon":5.42291,"is_reserved":false,"is_disabled":false,"rental_uris":{"android":"levelo://app?vid=9d928494-5a56-4771-9eb6-e83773721cd7","ios":"levelo://app?vid=9d928494-5a56-4771-9eb6-e83773721cd7"},"vehicle_type_id":"4","last_reported":1745406506,"current_range_meters":6000,"station_id":"ce4bhph2rcd13ifvqhdg","pricing_plan_id":"cebpf4jnsgd1na2vs0mg"},{"bike_id":"cfb16d28-7909-4a08-ad61-68c53292794a","system_id":"levelo_inurba_marseille","lat":43.2316,"lon":5.43721,"is_reserved":false,"is_disabled":false,"rental_uris":{"android":"levelo://app?vid=cfb16d28-7909-4a08-ad61-68c53292794a","ios":"levelo://app?vid=cfb16d28-7909-4a08-ad61-68c53292794a"},"vehicle_type_id":"4","last_reported":1745406506,"current_range_meters":6400,"station_id":"ce4bhmp2rcd13ifvqgog","pricing_plan_id":"cebpf4jnsgd1na2vs0mg"},{"bike_id":"fe9353af-0db9-4688-84b0-7d58bdce9daf","system_id":"levelo_inurba_marseille","lat":43.30188,"lon":5.38103,"is_reserved":false,"is_disabled":false,"rental_uris":{"android":"levelo://app?vid=fe9353af-0db9-4688-84b0-7d58bdce9daf","ios":"levelo://app?vid=fe9353af-0db9-4688-84b0-7d58bdce9daf"},"vehicle_type_id":"4","last_reported":1745406506,"current_range_meters":6400,"station_id":"","pricing_plan_id":"cebpf4jnsgd1na2vs0mg"},{"bike_id":"5446e1d2-3c19-40d3-94a1-592034360968","system_id":"levelo_inurba_marseille","lat":43.29038,"lon":5.37567,"is_reserved":false,"is_disabled":false,"rental_uris":{"android":"levelo://app?vid=5446e1d2-3c19-40d3-94a1-592034360968","ios":"levelo://app?vid=5446e1d2-3c19-40d3-94a1-592034360968"},"vehicle_type_id":"4","last_reported":1745406506,"current_range_meters":6400,"station_id":"ce4bh692rcd13ifvqe90","pricing_plan_id":"cebpf4jnsgd1na2vs0mg"},{"bike_id":"22d90d62-ef08-4762-a782-d8855780cb98","system_id":"levelo_inurba_marseille","lat":43.295617,"lon":5.422917,"is_reserved":false,"is_disabled":false,"rental_uris":{"android":"levelo://app?vid=22d90d62-ef08-4762-a782-d8855780cb98","ios":"levelo://app?vid=22d90d62-ef08-4762-a782-d8855780cb98"},"vehicle_type_id":"4","last_reported":1745406506,"current_range_meters":6800,"station_id":"ce4bhph2rcd13ifvqhdg","pricing_plan_id":"cebpf4jnsgd1na2vs0mg"},{"bike_id":"80db4a28-3fc1-4d2d-a585-ced8cbcf7ab5","system_id":"levelo_inurba_marseille","lat":43.26568,"lon":5.37307,"is_reserved":false,"is_disabled":false,"rental_uris":{"android":"levelo://app?vid=80db4a28-3fc1-4d2d-a585-ced8cbcf7ab5","ios":"levelo://app?vid=80db4a28-3fc1-4d2d-a585-ced8cbcf7ab5"},"vehicle_type_id":"4","last_reported":1745406506,"current_range_meters":7200,"station_id":"ce4bhg12rcd13ifvqf70","pricing_plan_id":"cebpf4jnsgd1na2vs0mg"},{"bike_id":"2bb4dbbf-21b8-43cb-ab86-b7d00e702a08","system_id":"levelo_inurba_marseille","lat":43.330184,"lon":5.390361,"is_reserved":false,"is_disabled":false,"rental_uris":{"android":"levelo://app?vid=2bb4dbbf-21b8-43cb-ab86-b7d00e702a08","ios":"levelo://app?vid=2bb4dbbf-21b8-43cb-ab86-b7d00e702a08"},"vehicle_type_id":"4","last_reported":1745406506,"current_range_meters":7200,"station_id":"ce4bhr92rcd13ifvqhrg","pricing_plan_id":"cebpf4jnsgd1na2vs0mg"},{"bike_id":"5eb00c1f-5613-4821-b619-855a368372dd","system_id":"levelo_inurba_marseille","lat":43.26558,"lon":5.37286,"is_reserved":false,"is_disabled":false,"rental_uris":{"android":"levelo://app?vid=5eb00c1f-5613-4821-b619-855a368372dd","ios":"levelo://app?vid=5eb00c1f-5613-4821-b619-855a368372dd"},"vehicle_type_id":"4","last_reported":1745406506,"current_range_meters":7200,"station_id":"ce4bhg12rcd13ifvqf70","pricing_plan_id":"cebpf4jnsgd1na2vs0mg"},{"bike_id":"66974b5b-ec9a-477f-8198-93bd31754ff5","system_id":"levelo_inurba_marseille","lat":43.28612,"lon":5.35107,"is_reserved":false,"is_disabled":false,"rental_uris":{"android":"levelo://app?vid=66974b5b-ec9a-477f-8198-93bd31754ff5","ios":"levelo://app?vid=66974b5b-ec9a-477f-8198-93bd31754ff5"},"vehicle_type_id":"4","last_reported":1745406506,"current_range_meters":7200,"station_id":"ce4bhch2rcd13ifvqeug","pricing_plan_id":"cebpf4jnsgd1na2vs0mg"},{"bike_id":"10bb30a3-ac22-4b86-9177-fda831d764d9","system_id":"levelo_inurba_marseille","lat":43.29225,"lon":5.36071,"is_reserved":false,"is_disabled":false,"rental_uris":{"android":"levelo://app?vid=10bb30a3-ac22-4b86-9177-fda831d764d9","ios":"levelo://app?vid=10bb30a3-ac22-4b86-9177-fda831d764d9"},"vehicle_type_id":"4","last_reported":1745406506,"current_range_meters":7200,"station_id":"ce4bhbh2rcd13ifvqeqg","pricing_plan_id":"cebpf4jnsgd1na2vs0mg"},{"bike_id":"3fc2dad4-64d9-4f98-bae9-2f5ee44d4bd7","system_id":"levelo_inurba_marseille","lat":43.27057,"lon":5.40272,"is_reserved":false,"is_disabled":false,"rental_uris":{"android":"levelo://app?vid=3fc2dad4-64d9-4f98-bae9-2f5ee44d4bd7","ios":"levelo://app?vid=3fc2dad4-64d9-4f98-bae9-2f5ee44d4bd7"},"vehicle_type_id":"4","last_reported":1745406506,"current_range_meters":7200,"station_id":"ce4bhk92rcd13ifvqgc0","pricing_plan_id":"cebpf4jnsgd1na2vs0mg"},{"bike_id":"93b6bee3-9330-4836-81c0-b63be1233784","system_id":"levelo_inurba_marseille","lat":43.31277,"lon":5.40165,"is_reserved":false,"is_disabled":false,"rental_uris":{"android":"levelo://app?vid=93b6bee3-9330-4836-81c0-b63be1233784","ios":"levelo://app?vid=93b6bee3-9330-4836-81c0-b63be1233784"},"vehicle_type_id":"4","last_reported":1745406506,"current_range_meters":6800,"station_id":"ce4bh092rcd13ifvqd30","pricing_plan_id":"cebpf4jnsgd1na2vs0mg"},{"bike_id":"d8d27387-fb66-4c0a-90dc-eef7a69dc87d","system_id":"levelo_inurba_marseille","lat":43.21743,"lon":5.34582,"is_reserved":false,"is_disabled":false,"rental_uris":{"android":"levelo://app?vid=d8d27387-fb66-4c0a-90dc-eef7a69dc87d","ios":"levelo://app?vid=d8d27387-fb66-4c0a-90dc-eef7a69dc87d"},"vehicle_type_id":"4","last_reported":1745406506,"current_range_meters":7200,"station_id":"","pricing_plan_id":"cebpf4jnsgd1na2vs0mg"},{"bike_id":"a7663293-08f3-4420-a72b-b073ce02ae3b","system_id":"levelo_inurba_marseille","lat":43.29421,"lon":5.38621,"is_reserved":false,"is_disabled":false,"rental_uris":{"android":"levelo://app?vid=a7663293-08f3-4420-a72b-b073ce02ae3b","ios":"levelo://app?vid=a7663293-08f3-4420-a72b-b073ce02ae3b"},"vehicle_type_id":"4","last_reported":1745406506,"current_range_meters":8000,"station_id":"ce4bh2h2rcd13ifvqdh0","pricing_plan_id":"cebpf4jnsgd1na2vs0mg"},{"bike_id":"134cc62f-b808-4471-9598-44bc1bf56276","system_id":"levelo_inurba_marseille","lat":43.31074,"lon":5.38356,"is_reserved":false,"is_disabled":false,"rental_uris":{"android":"levelo://app?vid=134cc62f-b808-4471-9598-44bc1bf56276","ios":"levelo://app?vid=134cc62f-b808-4471-9598-44bc1bf56276"},"vehicle_type_id":"4","last_reported":1745406506,"current_range_meters":8000,"station_id":"ce4bgv92rcd13ifvqcr0","pricing_plan_id":"cebpf4jnsgd1na2vs0mg"},{"bike_id":"8d3d203c-c49c-4deb-a007-2f93fb4b57dd","system_id":"levelo_inurba_marseille","lat":43.29893,"lon":5.43664,"is_reserved":false,"is_disabled":false,"rental_uris":{"android":"levelo://app?vid=8d3d203c-c49c-4deb-a007-2f93fb4b57dd","ios":"levelo://app?vid=8d3d203c-c49c-4deb-a007-2f93fb4b57dd"},"vehicle_type_id":"4","last_reported":1745406506,"current_range_meters":8000,"station_id":"ce4bhpp2rcd13ifvqhfg","pricing_plan_id":"cebpf4jnsgd1na2vs0mg"},{"bike_id":"6d74763c-88f1-49d1-82cf-9204c6b800b9","system_id":"levelo_inurba_marseille","lat":43.29003,"lon":5.35618,"is_reserved":false,"is_disabled":false,"rental_uris":{"android":"levelo://app?vid=6d74763c-88f1-49d1-82cf-9204c6b800b9","ios":"levelo://app?vid=6d74763c-88f1-49d1-82cf-9204c6b800b9"},"vehicle_type_id":"4","last_reported":1745406506,"current_range_meters":6400,"station_id":"ce4bhb92rcd13ifvqen0","pricing_plan_id":"cebpf4jnsgd1na2vs0mg"},{"bike_id":"29605df1-eecc-4ceb-b43e-6085fa9b6103","system_id":"levelo_inurba_marseille","lat":43.31168,"lon":5.38719,"is_reserved":false,"is_disabled":false,"rental_uris":{"android":"levelo://app?vid=29605df1-eecc-4ceb-b43e-6085fa9b6103","ios":"levelo://app?vid=29605df1-eecc-4ceb-b43e-6085fa9b6103"},"vehicle_type_id":"4","last_reported":1745406506,"current_range_meters":7200,"station_id":"ce4bgv12rcd13ifvqcp0","pricing_plan_id":"cebpf4jnsgd1na2vs0mg"},{"bike_id":"81ffcc4b-a5eb-448f-a1fc-c33627df0ae3","system_id":"levelo_inurba_marseille","lat":43.2985,"lon":5.36281,"is_reserved":false,"is_disabled":false,"rental_uris":{"android":"levelo://app?vid=81ffcc4b-a5eb-448f-a1fc-c33627df0ae3","ios":"levelo://app?vid=81ffcc4b-a5eb-448f-a1fc-c33627df0ae3"},"vehicle_type_id":"4","last_reported":1745406506,"current_range_meters":8400,"station_id":"ce4bgpp2rcd13ifvqc3g","pricing_plan_id":"cebpf4jnsgd1na2vs0mg"},{"bike_id":"c510f5ab-d4eb-431e-9136-6828254b4bb2","system_id":"levelo_inurba_marseille","lat":43.32327,"lon":5.40628,"is_reserved":false,"is_disabled":false,"rental_uris":{"android":"levelo://app?vid=c510f5ab-d4eb-431e-9136-6828254b4bb2","ios":"levelo://app?vid=c510f5ab-d4eb-431e-9136-6828254b4bb2"},"vehicle_type_id":"4","last_reported":1745406506,"current_range_meters":8400,"station_id":"ce4bhq92rcd13ifvqhjg","pricing_plan_id":"cebpf4jnsgd1na2vs0mg"},{"bike_id":"f2d26cfe-ce37-4d4d-8cb6-8bd851d1914f","system_id":"levelo_inurba_marseille","lat":43.28406,"lon":5.34994,"is_reserved":false,"is_disabled":false,"rental_uris":{"android":"levelo://app?vid=f2d26cfe-ce37-4d4d-8cb6-8bd851d1914f","ios":"levelo://app?vid=f2d26cfe-ce37-4d4d-8cb6-8bd851d1914f"},"vehicle_type_id":"4","last_reported":1745406506,"current_range_meters":8400,"station_id":"ce4bhbh2rcd13ifvqepg","pricing_plan_id":"cebpf4jnsgd1na2vs0mg"},{"bike_id":"ff6ba0d0-efef-49a3-ad3c-0a87196dffc3","system_id":"levelo_inurba_marseille","lat":43.23156,"lon":5.43721,"is_reserved":false,"is_disabled":false,"rental_uris":{"android":"levelo://app?vid=ff6ba0d0-efef-49a3-ad3c-0a87196dffc3","ios":"levelo://app?vid=ff6ba0d0-efef-49a3-ad3c-0a87196dffc3"},"vehicle_type_id":"4","last_reported":1745406506,"current_range_meters":8400,"station_id":"ce4bhmp2rcd13ifvqgog","pricing_plan_id":"cebpf4jnsgd1na2vs0mg"},{"bike_id":"00f791b3-0448-4fb6-a61d-87ad238478b1","system_id":"levelo_inurba_marseille","lat":43.3094,"lon":5.36863,"is_reserved":false,"is_disabled":false,"rental_uris":{"android":"levelo://app?vid=00f791b3-0448-4fb6-a61d-87ad238478b1","ios":"levelo://app?vid=00f791b3-0448-4fb6-a61d-87ad238478b1"},"vehicle_type_id":"4","last_reported":1745406506,"current_range_meters":8400,"station_id":"ce4bgn92rcd13ifvqbvg","pricing_plan_id":"cebpf4jnsgd1na2vs0mg"},{"bike_id":"203edac6-808a-418e-a924-a5a89c94880e","system_id":"levelo_inurba_marseille","lat":43.28134,"lon":5.378632,"is_reserved":false,"is_disabled":false,"rental_uris":{"android":"levelo://app?vid=203edac6-808a-418e-a924-a5a89c94880e","ios":"levelo://app?vid=203edac6-808a-418e-a924-a5a89c94880e"},"vehicle_type_id":"4","last_reported":1745406506,"current_range_meters":8800,"station_id":"ce4bha12rcd13ifvqee0","pricing_plan_id":"cebpf4jnsgd1na2vs0mg"},{"bike_id":"2fa0f3e8-323d-4ab5-807e-61cc8052acd5","system_id":"levelo_inurba_marseille","lat":43.324768,"lon":5.365696,"is_reserved":false,"is_disabled":false,"rental_uris":{"android":"levelo://app?vid=2fa0f3e8-323d-4ab5-807e-61cc8052acd5","ios":"levelo://app?vid=2fa0f3e8-323d-4ab5-807e-61cc8052acd5"},"vehicle_type_id":"4","last_reported":1745406506,"current_range_meters":8800,"station_id":"ce4bhs12rcd13ifvqhvg","pricing_plan_id":"cebpf4jnsgd1na2vs0mg"},{"bike_id":"74d9d775-203a-4e78-87a8-87ce42195784","system_id":"levelo_inurba_marseille","lat":43.309514,"lon":5.390246,"is_reserved":false,"is_disabled":true,"rental_uris":{"android":"levelo://app?vid=74d9d775-203a-4e78-87a8-87ce42195784","ios":"levelo://app?vid=74d9d775-203a-4e78-87a8-87ce42195784"},"vehicle_type_id":"4","last_reported":1745406506,"current_range_meters":8800,"station_id":"ce4bgup2rcd13ifvqco0","pricing_plan_id":"cebpf4jnsgd1na2vs0mg"},{"bike_id":"a7a978af-9801-46e2-a7b4-28db7afdcfad","system_id":"levelo_inurba_marseille","lat":43.27942,"lon":5.41054,"is_reserved":false,"is_disabled":false,"rental_uris":{"android":"levelo://app?vid=a7a978af-9801-46e2-a7b4-28db7afdcfad","ios":"levelo://app?vid=a7a978af-9801-46e2-a7b4-28db7afdcfad"},"vehicle_type_id":"4","last_reported":1745406506,"current_range_meters":8800,"station_id":"ce4bhnp2rcd13ifvqh0g","pricing_plan_id":"cebpf4jnsgd1na2vs0mg"},{"bike_id":"54253048-f935-49a1-9a18-e27095dd7346","system_id":"levelo_inurba_marseille","lat":43.29666,"lon":5.36167,"is_reserved":false,"is_disabled":false,"rental_uris":{"android":"levelo://app?vid=54253048-f935-49a1-9a18-e27095dd7346","ios":"levelo://app?vid=54253048-f935-49a1-9a18-e27095dd7346"},"vehicle_type_id":"4","last_reported":1745406506,"current_range_meters":9200,"station_id":"","pricing_plan_id":"cebpf4jnsgd1na2vs0mg"},{"bike_id":"640467f2-cbb3-4f63-b9ee-4178caff383d","system_id":"levelo_inurba_marseille","lat":43.25404,"lon":5.41897,"is_reserved":false,"is_disabled":false,"rental_uris":{"android":"levelo://app?vid=640467f2-cbb3-4f63-b9ee-4178caff383d","ios":"levelo://app?vid=640467f2-cbb3-4f63-b9ee-4178caff383d"},"vehicle_type_id":"4","last_reported":1745406506,"current_range_meters":9200,"station_id":"","pricing_plan_id":"cebpf4jnsgd1na2vs0mg"},{"bike_id":"546076dc-951e-4fe0-b46d-14bdc8dc6da0","system_id":"levelo_inurba_marseille","lat":43.23195,"lon":5.35551,"is_reserved":false,"is_disabled":false,"rental_uris":{"android":"levelo://app?vid=546076dc-951e-4fe0-b46d-14bdc8dc6da0","ios":"levelo://app?vid=546076dc-951e-4fe0-b46d-14bdc8dc6da0"},"vehicle_type_id":"4","last_reported":1745406506,"current_range_meters":9200,"station_id":"ce4bhu92rcd13ifvqi70","pricing_plan_id":"cebpf4jnsgd1na2vs0mg"},{"bike_id":"49c0f902-eac7-4a79-adf0-d142aff51e11","system_id":"levelo_inurba_marseille","lat":43.2417,"lon":5.36394,"is_reserved":false,"is_disabled":false,"rental_uris":{"android":"levelo://app?vid=49c0f902-eac7-4a79-adf0-d142aff51e11","ios":"levelo://app?vid=49c0f902-eac7-4a79-adf0-d142aff51e11"},"vehicle_type_id":"4","last_reported":1745406506,"current_range_meters":9200,"station_id":"cpo36qri1sfpv3e86is0","pricing_plan_id":"cebpf4jnsgd1na2vs0mg"},{"bike_id":"b9d656e1-d255-4793-9637-f54a5824a133","system_id":"levelo_inurba_marseille","lat":43.336,"lon":5.41021,"is_reserved":false,"is_disabled":false,"rental_uris":{"android":"levelo://app?vid=b9d656e1-d255-4793-9637-f54a5824a133","ios":"levelo://app?vid=b9d656e1-d255-4793-9637-f54a5824a133"},"vehicle_type_id":"4","last_reported":1745406506,"current_range_meters":9600,"station_id":"ce4bhqh2rcd13ifvqhmg","pricing_plan_id":"cebpf4jnsgd1na2vs0mg"},{"bike_id":"4b8921bc-5aaf-4418-89cf-4d61eddbd7dc","system_id":"levelo_inurba_marseille","lat":43.296,"lon":5.36724,"is_reserved":false,"is_disabled":false,"rental_uris":{"android":"levelo://app?vid=4b8921bc-5aaf-4418-89cf-4d61eddbd7dc","ios":"levelo://app?vid=4b8921bc-5aaf-4418-89cf-4d61eddbd7dc"},"vehicle_type_id":"4","last_reported":1745406506,"current_range_meters":9600,"station_id":"ce4bgph2rcd13ifvqc2g","pricing_plan_id":"cebpf4jnsgd1na2vs0mg"},{"bike_id":"cad44471-10e1-489b-af26-79a6ec89c9bf","system_id":"levelo_inurba_marseille","lat":43.2815,"lon":5.42653,"is_reserved":false,"is_disabled":false,"rental_uris":{"android":"levelo://app?vid=cad44471-10e1-489b-af26-79a6ec89c9bf","ios":"levelo://app?vid=cad44471-10e1-489b-af26-79a6ec89c9bf"},"vehicle_type_id":"4","last_reported":1745406506,"current_range_meters":9600,"station_id":"ce4bhnh2rcd13ifvqgug","pricing_plan_id":"cebpf4jnsgd1na2vs0mg"},{"bike_id":"d10d5674-0e99-45da-babf-9095447ff748","system_id":"levelo_inurba_marseille","lat":43.2944,"lon":5.3975,"is_reserved":false,"is_disabled":false,"rental_uris":{"android":"levelo://app?vid=d10d5674-0e99-45da-babf-9095447ff748","ios":"levelo://app?vid=d10d5674-0e99-45da-babf-9095447ff748"},"vehicle_type_id":"4","last_reported":1745406506,"current_range_meters":10000,"station_id":"ce4bh3h2rcd13ifvqdo0","pricing_plan_id":"cebpf4jnsgd1na2vs0mg"},{"bike_id":"fa836822-499d-4276-9881-0da6a65e33a7","system_id":"levelo_inurba_marseille","lat":43.286133,"lon":5.351024,"is_reserved":false,"is_disabled":false,"rental_uris":{"android":"levelo://app?vid=fa836822-499d-4276-9881-0da6a65e33a7","ios":"levelo://app?vid=fa836822-499d-4276-9881-0da6a65e33a7"},"vehicle_type_id":"4","last_reported":1745406506,"current_range_meters":9600,"station_id":"","pricing_plan_id":"cebpf4jnsgd1na2vs0mg"},{"bike_id":"2bbc24e4-b31b-47c3-9a13-1ca812250850","system_id":"levelo_inurba_marseille","lat":43.28425,"lon":5.34995,"is_reserved":false,"is_disabled":false,"rental_uris":{"android":"levelo://app?vid=2bbc24e4-b31b-47c3-9a13-1ca812250850","ios":"levelo://app?vid=2bbc24e4-b31b-47c3-9a13-1ca812250850"},"vehicle_type_id":"4","last_reported":1745406506,"current_range_meters":9600,"station_id":"ce4bhbh2rcd13ifvqepg","pricing_plan_id":"cebpf4jnsgd1na2vs0mg"},{"bike_id":"4ac5d7a4-860a-4297-a3da-8c5b713349da","system_id":"levelo_inurba_marseille","lat":43.25498,"lon":5.37649,"is_reserved":false,"is_disabled":false,"rental_uris":{"android":"levelo://app?vid=4ac5d7a4-860a-4297-a3da-8c5b713349da","ios":"levelo://app?vid=4ac5d7a4-860a-4297-a3da-8c5b713349da"},"vehicle_type_id":"4","last_reported":1745406506,"current_range_meters":10000,"station_id":"ce4bhh12rcd13ifvqff0","pricing_plan_id":"cebpf4jnsgd1na2vs0mg"},{"bike_id":"728b7169-2c34-494f-ac43-6fdd418034b4","system_id":"levelo_inurba_marseille","lat":43.23154,"lon":5.43731,"is_reserved":false,"is_disabled":false,"rental_uris":{"android":"levelo://app?vid=728b7169-2c34-494f-ac43-6fdd418034b4","ios":"levelo://app?vid=728b7169-2c34-494f-ac43-6fdd418034b4"},"vehicle_type_id":"4","last_reported":1745406506,"current_range_meters":10000,"station_id":"ce4bhmp2rcd13ifvqgog","pricing_plan_id":"cebpf4jnsgd1na2vs0mg"},{"bike_id":"cb43f309-d81d-4171-b660-934e2d24f2aa","system_id":"levelo_inurba_marseille","lat":43.32365,"lon":5.38883,"is_reserved":false,"is_disabled":false,"rental_uris":{"android":"levelo://app?vid=cb43f309-d81d-4171-b660-934e2d24f2aa","ios":"levelo://app?vid=cb43f309-d81d-4171-b660-934e2d24f2aa"},"vehicle_type_id":"4","last_reported":1745406506,"current_range_meters":10000,"station_id":"ce4bhqp2rcd13ifvqhog","pricing_plan_id":"cebpf4jnsgd1na2vs0mg"},{"bike_id":"c612583d-79c0-480f-8d78-405c84662324","system_id":"levelo_inurba_marseille","lat":43.2979,"lon":5.38125,"is_reserved":false,"is_disabled":true,"rental_uris":{"android":"levelo://app?vid=c612583d-79c0-480f-8d78-405c84662324","ios":"levelo://app?vid=c612583d-79c0-480f-8d78-405c84662324"},"vehicle_type_id":"4","last_reported":1745406506,"current_range_meters":10800,"station_id":"ce4bgip2rcd13ifvqbb0","pricing_plan_id":"cebpf4jnsgd1na2vs0mg"},{"bike_id":"1f62b1e3-ec9b-43ec-8880-de72a5235f0a","system_id":"levelo_inurba_marseille","lat":43.295227,"lon":5.393946,"is_reserved":false,"is_disabled":false,"rental_uris":{"android":"levelo://app?vid=1f62b1e3-ec9b-43ec-8880-de72a5235f0a","ios":"levelo://app?vid=1f62b1e3-ec9b-43ec-8880-de72a5235f0a"},"vehicle_type_id":"4","last_reported":1745406506,"current_range_meters":10000,"station_id":"ce4bh292rcd13ifvqdf0","pricing_plan_id":"cebpf4jnsgd1na2vs0mg"},{"bike_id":"0be71eeb-cefe-4948-8eb2-cd4af44b6abd","system_id":"levelo_inurba_marseille","lat":43.2656,"lon":5.37291,"is_reserved":false,"is_disabled":false,"rental_uris":{"android":"levelo://app?vid=0be71eeb-cefe-4948-8eb2-cd4af44b6abd","ios":"levelo://app?vid=0be71eeb-cefe-4948-8eb2-cd4af44b6abd"},"vehicle_type_id":"4","last_reported":1745406506,"current_range_meters":10800,"station_id":"ce4bhg12rcd13ifvqf70","pricing_plan_id":"cebpf4jnsgd1na2vs0mg"},{"bike_id":"7c901bc5-5e80-4ee0-9895-571992c8b696","system_id":"levelo_inurba_marseille","lat":43.26028,"lon":5.37552,"is_reserved":false,"is_disabled":false,"rental_uris":{"android":"levelo://app?vid=7c901bc5-5e80-4ee0-9895-571992c8b696","ios":"levelo://app?vid=7c901bc5-5e80-4ee0-9895-571992c8b696"},"vehicle_type_id":"4","last_reported":1745406506,"current_range_meters":10800,"station_id":"ce4bhgh2rcd13ifvqfa0","pricing_plan_id":"cebpf4jnsgd1na2vs0mg"},{"bike_id":"cc63e4da-bb38-4138-9810-77fa0a0daa52","system_id":"levelo_inurba_marseille","lat":43.33587,"lon":5.40992,"is_reserved":false,"is_disabled":false,"rental_uris":{"android":"levelo://app?vid=cc63e4da-bb38-4138-9810-77fa0a0daa52","ios":"levelo://app?vid=cc63e4da-bb38-4138-9810-77fa0a0daa52"},"vehicle_type_id":"4","last_reported":1745406506,"current_range_meters":10800,"station_id":"ce4bhqh2rcd13ifvqhmg","pricing_plan_id":"cebpf4jnsgd1na2vs0mg"},{"bike_id":"2cb82fb4-f985-447a-bb6a-7e3bf09deebf","system_id":"levelo_inurba_marseille","lat":43.27961,"lon":5.41041,"is_reserved":false,"is_disabled":false,"rental_uris":{"android":"levelo://app?vid=2cb82fb4-f985-447a-bb6a-7e3bf09deebf","ios":"levelo://app?vid=2cb82fb4-f985-447a-bb6a-7e3bf09deebf"},"vehicle_type_id":"4","last_reported":1745406506,"current_range_meters":10800,"station_id":"ce4bhnp2rcd13ifvqh0g","pricing_plan_id":"cebpf4jnsgd1na2vs0mg"},{"bike_id":"98303d55-f823-4e25-bf12-4c113ce076b4","system_id":"levelo_inurba_marseille","lat":43.217575,"lon":5.345954,"is_reserved":false,"is_disabled":false,"rental_uris":{"android":"levelo://app?vid=98303d55-f823-4e25-bf12-4c113ce076b4","ios":"levelo://app?vid=98303d55-f823-4e25-bf12-4c113ce076b4"},"vehicle_type_id":"4","last_reported":1745406506,"current_range_meters":11200,"station_id":"st_cvj6r9ubvosntc0bgbag","pricing_plan_id":"cebpf4jnsgd1na2vs0mg"},{"bike_id":"74ae8ec9-bf10-4c6e-b0dd-1740ad5e5bf9","system_id":"levelo_inurba_marseille","lat":43.31886,"lon":5.4074,"is_reserved":false,"is_disabled":false,"rental_uris":{"android":"levelo://app?vid=74ae8ec9-bf10-4c6e-b0dd-1740ad5e5bf9","ios":"levelo://app?vid=74ae8ec9-bf10-4c6e-b0dd-1740ad5e5bf9"},"vehicle_type_id":"4","last_reported":1745406506,"current_range_meters":10800,"station_id":"ce4bhq12rcd13ifvqhig","pricing_plan_id":"cebpf4jnsgd1na2vs0mg"},{"bike_id":"19bfb31d-20aa-4de2-bd63-6b21d6b9bec8","system_id":"levelo_inurba_marseille","lat":43.262251,"lon":5.37491,"is_reserved":false,"is_disabled":false,"rental_uris":{"android":"levelo://app?vid=19bfb31d-20aa-4de2-bd63-6b21d6b9bec8","ios":"levelo://app?vid=19bfb31d-20aa-4de2-bd63-6b21d6b9bec8"},"vehicle_type_id":"4","last_reported":1745406506,"current_range_meters":11200,"station_id":"ce4bhgp2rcd13ifvqfc0","pricing_plan_id":"cebpf4jnsgd1na2vs0mg"},{"bike_id":"29557cd6-e30c-4193-97f9-eb19785da0d9","system_id":"levelo_inurba_marseille","lat":43.30912,"lon":5.36866,"is_reserved":false,"is_disabled":false,"rental_uris":{"android":"levelo://app?vid=29557cd6-e30c-4193-97f9-eb19785da0d9","ios":"levelo://app?vid=29557cd6-e30c-4193-97f9-eb19785da0d9"},"vehicle_type_id":"4","last_reported":1745406506,"current_range_meters":11200,"station_id":"ce4bgn92rcd13ifvqbvg","pricing_plan_id":"cebpf4jnsgd1na2vs0mg"},{"bike_id":"af03bc54-f628-4445-b550-a0322c3cd29f","system_id":"levelo_inurba_marseille","lat":43.27996,"lon":5.40021,"is_reserved":false,"is_disabled":false,"rental_uris":{"android":"levelo://app?vid=af03bc54-f628-4445-b550-a0322c3cd29f","ios":"levelo://app?vid=af03bc54-f628-4445-b550-a0322c3cd29f"},"vehicle_type_id":"4","last_reported":1745406506,"current_range_meters":11600,"station_id":"ce4bho92rcd13ifvqh4g","pricing_plan_id":"cebpf4jnsgd1na2vs0mg"},{"bike_id":"302484eb-dba5-4f5a-9936-2158d8e962fe","system_id":"levelo_inurba_marseille","lat":43.28366,"lon":5.38624,"is_reserved":false,"is_disabled":false,"rental_uris":{"android":"levelo://app?vid=302484eb-dba5-4f5a-9936-2158d8e962fe","ios":"levelo://app?vid=302484eb-dba5-4f5a-9936-2158d8e962fe"},"vehicle_type_id":"4","last_reported":1745406506,"current_range_meters":11200,"station_id":"ce4bh492rcd13ifvqdvg","pricing_plan_id":"cebpf4jnsgd1na2vs0mg"},{"bike_id":"6cca3a91-3cdf-4857-9fc8-109c67da16aa","system_id":"levelo_inurba_marseille","lat":43.2417,"lon":5.36398,"is_reserved":false,"is_disabled":false,"rental_uris":{"android":"levelo://app?vid=6cca3a91-3cdf-4857-9fc8-109c67da16aa","ios":"levelo://app?vid=6cca3a91-3cdf-4857-9fc8-109c67da16aa"},"vehicle_type_id":"4","last_reported":1745406506,"current_range_meters":11600,"station_id":"cpo36qri1sfpv3e86is0","pricing_plan_id":"cebpf4jnsgd1na2vs0mg"},{"bike_id":"ed80ed6d-951f-4aff-baa1-127ec6479980","system_id":"levelo_inurba_marseille","lat":43.29621,"lon":5.37164,"is_reserved":false,"is_disabled":false,"rental_uris":{"android":"levelo://app?vid=ed80ed6d-951f-4aff-baa1-127ec6479980","ios":"levelo://app?vid=ed80ed6d-951f-4aff-baa1-127ec6479980"},"vehicle_type_id":"4","last_reported":1745406506,"current_range_meters":11600,"station_id":"ce4bgnh2rcd13ifvqc0g","pricing_plan_id":"cebpf4jnsgd1na2vs0mg"},{"bike_id":"39c37ea8-5d2d-4386-b115-aa982e9e6913","system_id":"levelo_inurba_marseille","lat":43.28614,"lon":5.35104,"is_reserved":false,"is_disabled":false,"rental_uris":{"android":"levelo://app?vid=39c37ea8-5d2d-4386-b115-aa982e9e6913","ios":"levelo://app?vid=39c37ea8-5d2d-4386-b115-aa982e9e6913"},"vehicle_type_id":"4","last_reported":1745406506,"current_range_meters":12000,"station_id":"ce4bhch2rcd13ifvqeug","pricing_plan_id":"cebpf4jnsgd1na2vs0mg"},{"bike_id":"9960f1af-8be6-4bd3-b303-d448f535515a","system_id":"levelo_inurba_marseille","lat":43.31168,"lon":5.38723,"is_reserved":false,"is_disabled":false,"rental_uris":{"android":"levelo://app?vid=9960f1af-8be6-4bd3-b303-d448f535515a","ios":"levelo://app?vid=9960f1af-8be6-4bd3-b303-d448f535515a"},"vehicle_type_id":"4","last_reported":1745406506,"current_range_meters":12000,"station_id":"ce4bgv12rcd13ifvqcp0","pricing_plan_id":"cebpf4jnsgd1na2vs0mg"},{"bike_id":"db6a47bf-cbdd-423c-81b8-e85c7c64629f","system_id":"levelo_inurba_marseille","lat":43.27362,"lon":5.36238,"is_reserved":false,"is_disabled":false,"rental_uris":{"android":"levelo://app?vid=db6a47bf-cbdd-423c-81b8-e85c7c64629f","ios":"levelo://app?vid=db6a47bf-cbdd-423c-81b8-e85c7c64629f"},"vehicle_type_id":"4","last_reported":1745406506,"current_range_meters":12400,"station_id":"ce4bhbh2rcd13ifvqeo0","pricing_plan_id":"cebpf4jnsgd1na2vs0mg"},{"bike_id":"417eeca5-41b8-4582-ab94-b208a3195431","system_id":"levelo_inurba_marseille","lat":43.29979,"lon":5.37183,"is_reserved":false,"is_disabled":false,"rental_uris":{"android":"levelo://app?vid=417eeca5-41b8-4582-ab94-b208a3195431","ios":"levelo://app?vid=417eeca5-41b8-4582-ab94-b208a3195431"},"vehicle_type_id":"4","last_reported":1745406506,"current_range_meters":12400,"station_id":"ce4bgr92rcd13ifvqc7g","pricing_plan_id":"cebpf4jnsgd1na2vs0mg"},{"bike_id":"b96d48d5-fc65-423b-9a30-5d2c864e8939","system_id":"levelo_inurba_marseille","lat":43.22511,"lon":5.34781,"is_reserved":false,"is_disabled":false,"rental_uris":{"android":"levelo://app?vid=b96d48d5-fc65-423b-9a30-5d2c864e8939","ios":"levelo://app?vid=b96d48d5-fc65-423b-9a30-5d2c864e8939"},"vehicle_type_id":"4","last_reported":1745406506,"current_range_meters":12800,"station_id":"","pricing_plan_id":"cebpf4jnsgd1na2vs0mg"},{"bike_id":"abd226a8-d003-4133-b9d2-b7c952b7ead1","system_id":"levelo_inurba_marseille","lat":43.23041,"lon":5.35495,"is_reserved":false,"is_disabled":false,"rental_uris":{"android":"levelo://app?vid=abd226a8-d003-4133-b9d2-b7c952b7ead1","ios":"levelo://app?vid=abd226a8-d003-4133-b9d2-b7c952b7ead1"},"vehicle_type_id":"4","last_reported":1745406506,"current_range_meters":12800,"station_id":"cpo3342slgdg3j2ifvpg","pricing_plan_id":"cebpf4jnsgd1na2vs0mg"},{"bike_id":"4ebf1ff4-1157-44e3-beeb-d312d85f6d80","system_id":"levelo_inurba_marseille","lat":43.26557,"lon":5.37284,"is_reserved":false,"is_disabled":false,"rental_uris":{"android":"levelo://app?vid=4ebf1ff4-1157-44e3-beeb-d312d85f6d80","ios":"levelo://app?vid=4ebf1ff4-1157-44e3-beeb-d312d85f6d80"},"vehicle_type_id":"4","last_reported":1745406506,"current_range_meters":12800,"station_id":"ce4bhg12rcd13ifvqf70","pricing_plan_id":"cebpf4jnsgd1na2vs0mg"},{"bike_id":"7c110556-51f7-4ebc-a93b-d3e946a92a50","system_id":"levelo_inurba_marseille","lat":43.317133,"lon":5.436927,"is_reserved":false,"is_disabled":true,"rental_uris":{"android":"levelo://app?vid=7c110556-51f7-4ebc-a93b-d3e946a92a50","ios":"levelo://app?vid=7c110556-51f7-4ebc-a93b-d3e946a92a50"},"vehicle_type_id":"4","last_reported":1745406506,"current_range_meters":12800,"station_id":"ce4bhp92rcd13ifvqhcg","pricing_plan_id":"cebpf4jnsgd1na2vs0mg"},{"bike_id":"f36d089e-788c-4bd3-9198-e8cacf91e002","system_id":"levelo_inurba_marseille","lat":43.31179,"lon":5.36888,"is_reserved":false,"is_disabled":false,"rental_uris":{"android":"levelo://app?vid=f36d089e-788c-4bd3-9198-e8cacf91e002","ios":"levelo://app?vid=f36d089e-788c-4bd3-9198-e8cacf91e002"},"vehicle_type_id":"4","last_reported":1745406506,"current_range_meters":12800,"station_id":"","pricing_plan_id":"cebpf4jnsgd1na2vs0mg"},{"bike_id":"fc95c022-5d99-4883-976b-3e014c5a3389","system_id":"levelo_inurba_marseille","lat":43.23146,"lon":5.4372,"is_reserved":false,"is_disabled":false,"rental_uris":{"android":"levelo://app?vid=fc95c022-5d99-4883-976b-3e014c5a3389","ios":"levelo://app?vid=fc95c022-5d99-4883-976b-3e014c5a3389"},"vehicle_type_id":"4","last_reported":1745406506,"current_range_meters":12800,"station_id":"ce4bhmp2rcd13ifvqgog","pricing_plan_id":"cebpf4jnsgd1na2vs0mg"},{"bike_id":"1722a673-2297-42bc-8c04-e0ec249871b0","system_id":"levelo_inurba_marseille","lat":43.29937,"lon":5.36558,"is_reserved":false,"is_disabled":false,"rental_uris":{"android":"levelo://app?vid=1722a673-2297-42bc-8c04-e0ec249871b0","ios":"levelo://app?vid=1722a673-2297-42bc-8c04-e0ec249871b0"},"vehicle_type_id":"4","last_reported":1745406506,"current_range_meters":13600,"station_id":"ce4bgm92rcd13ifvqbr0","pricing_plan_id":"cebpf4jnsgd1na2vs0mg"},{"bike_id":"f2857039-c5ca-4dd8-b812-d34780e7675b","system_id":"levelo_inurba_marseille","lat":43.27679,"lon":5.38903,"is_reserved":false,"is_disabled":false,"rental_uris":{"android":"levelo://app?vid=f2857039-c5ca-4dd8-b812-d34780e7675b","ios":"levelo://app?vid=f2857039-c5ca-4dd8-b812-d34780e7675b"},"vehicle_type_id":"4","last_reported":1745406506,"current_range_meters":13600,"station_id":"ce4bhi12rcd13ifvqfo0","pricing_plan_id":"cebpf4jnsgd1na2vs0mg"},{"bike_id":"ae2607c9-27d0-4814-bc50-d40a7c41d115","system_id":"levelo_inurba_marseille","lat":43.30154,"lon":5.39348,"is_reserved":false,"is_disabled":false,"rental_uris":{"android":"levelo://app?vid=ae2607c9-27d0-4814-bc50-d40a7c41d115","ios":"levelo://app?vid=ae2607c9-27d0-4814-bc50-d40a7c41d115"},"vehicle_type_id":"4","last_reported":1745406506,"current_range_meters":13600,"station_id":"","pricing_plan_id":"cebpf4jnsgd1na2vs0mg"},{"bike_id":"40a58ef4-5f77-413c-ae5e-d46c684d1cd6","system_id":"levelo_inurba_marseille","lat":43.27563,"lon":5.38415,"is_reserved":false,"is_disabled":false,"rental_uris":{"android":"levelo://app?vid=40a58ef4-5f77-413c-ae5e-d46c684d1cd6","ios":"levelo://app?vid=40a58ef4-5f77-413c-ae5e-d46c684d1cd6"},"vehicle_type_id":"4","last_reported":1745406506,"current_range_meters":13600,"station_id":"ce4bhh92rcd13ifvqfi0","pricing_plan_id":"cebpf4jnsgd1na2vs0mg"},{"bike_id":"1b903b38-38de-4714-9a2c-59836acfa168","system_id":"levelo_inurba_marseille","lat":43.31709,"lon":5.43699,"is_reserved":false,"is_disabled":true,"rental_uris":{"android":"levelo://app?vid=1b903b38-38de-4714-9a2c-59836acfa168","ios":"levelo://app?vid=1b903b38-38de-4714-9a2c-59836acfa168"},"vehicle_type_id":"4","last_reported":1745406506,"current_range_meters":13600,"station_id":"ce4bhp92rcd13ifvqhcg","pricing_plan_id":"cebpf4jnsgd1na2vs0mg"},{"bike_id":"e6a13dc9-b06d-4057-9bf9-c0a50b0f9470","system_id":"levelo_inurba_marseille","lat":43.30303,"lon":5.36882,"is_reserved":false,"is_disabled":false,"rental_uris":{"android":"levelo://app?vid=e6a13dc9-b06d-4057-9bf9-c0a50b0f9470","ios":"levelo://app?vid=e6a13dc9-b06d-4057-9bf9-c0a50b0f9470"},"vehicle_type_id":"4","last_reported":1745406506,"current_range_meters":14000,"station_id":"ce4bgqh2rcd13ifvqc5g","pricing_plan_id":"cebpf4jnsgd1na2vs0mg"},{"bike_id":"ad9eef4f-771e-4392-9f1e-d844836d66a8","system_id":"levelo_inurba_marseille","lat":43.30608,"lon":5.37222,"is_reserved":false,"is_disabled":false,"rental_uris":{"android":"levelo://app?vid=ad9eef4f-771e-4392-9f1e-d844836d66a8","ios":"levelo://app?vid=ad9eef4f-771e-4392-9f1e-d844836d66a8"},"vehicle_type_id":"4","last_reported":1745406506,"current_range_meters":14000,"station_id":"ce4bgqh2rcd13ifvqc4g","pricing_plan_id":"cebpf4jnsgd1na2vs0mg"},{"bike_id":"41386a75-315f-418f-b6c9-d56e48590a3e","system_id":"levelo_inurba_marseille","lat":43.33604,"lon":5.41007,"is_reserved":false,"is_disabled":false,"rental_uris":{"android":"levelo://app?vid=41386a75-315f-418f-b6c9-d56e48590a3e","ios":"levelo://app?vid=41386a75-315f-418f-b6c9-d56e48590a3e"},"vehicle_type_id":"4","last_reported":1745406506,"current_range_meters":14000,"station_id":"ce4bhqh2rcd13ifvqhmg","pricing_plan_id":"cebpf4jnsgd1na2vs0mg"},{"bike_id":"21a2dcef-6c92-4d3a-8bd7-339cec325153","system_id":"levelo_inurba_marseille","lat":43.21759,"lon":5.34599,"is_reserved":false,"is_disabled":false,"rental_uris":{"android":"levelo://app?vid=21a2dcef-6c92-4d3a-8bd7-339cec325153","ios":"levelo://app?vid=21a2dcef-6c92-4d3a-8bd7-339cec325153"},"vehicle_type_id":"4","last_reported":1745406506,"current_range_meters":14000,"station_id":"st_cvj6r9ubvosntc0bgbag","pricing_plan_id":"cebpf4jnsgd1na2vs0mg"},{"bike_id":"daf442ce-5346-4d40-a0b5-203393fcc7ea","system_id":"levelo_inurba_marseille","lat":43.32663,"lon":5.40996,"is_reserved":false,"is_disabled":false,"rental_uris":{"android":"levelo://app?vid=daf442ce-5346-4d40-a0b5-203393fcc7ea","ios":"levelo://app?vid=daf442ce-5346-4d40-a0b5-203393fcc7ea"},"vehicle_type_id":"4","last_reported":1745406506,"current_range_meters":14000,"station_id":"ce4bhpp2rcd13ifvqhgg","pricing_plan_id":"cebpf4jnsgd1na2vs0mg"},{"bike_id":"688caaf3-ab91-4e9e-b3ad-9be627bd4609","system_id":"levelo_inurba_marseille","lat":43.23163,"lon":5.43714,"is_reserved":false,"is_disabled":false,"rental_uris":{"android":"levelo://app?vid=688caaf3-ab91-4e9e-b3ad-9be627bd4609","ios":"levelo://app?vid=688caaf3-ab91-4e9e-b3ad-9be627bd4609"},"vehicle_type_id":"4","last_reported":1745406506,"current_range_meters":14000,"station_id":"ce4bhmp2rcd13ifvqgog","pricing_plan_id":"cebpf4jnsgd1na2vs0mg"},{"bike_id":"72baa369-fe87-43fd-9187-fa51fb331475","system_id":"levelo_inurba_marseille","lat":43.29529,"lon":5.37512,"is_reserved":false,"is_disabled":false,"rental_uris":{"android":"levelo://app?vid=72baa369-fe87-43fd-9187-fa51fb331475","ios":"levelo://app?vid=72baa369-fe87-43fd-9187-fa51fb331475"},"vehicle_type_id":"4","last_reported":1745406506,"current_range_meters":14000,"station_id":"ce4bgkp2rcd13ifvqbmg","pricing_plan_id":"cebpf4jnsgd1na2vs0mg"},{"bike_id":"3e8f0127-96fd-4fdd-97f2-be6e836f9523","system_id":"levelo_inurba_marseille","lat":43.33788,"lon":5.37444,"is_reserved":false,"is_disabled":false,"rental_uris":{"android":"levelo://app?vid=3e8f0127-96fd-4fdd-97f2-be6e836f9523","ios":"levelo://app?vid=3e8f0127-96fd-4fdd-97f2-be6e836f9523"},"vehicle_type_id":"4","last_reported":1745406506,"current_range_meters":14000,"station_id":"","pricing_plan_id":"cebpf4jnsgd1na2vs0mg"},{"bike_id":"d62329d8-91d5-4794-bde4-d0b378c8b7e4","system_id":"levelo_inurba_marseille","lat":43.255,"lon":5.37651,"is_reserved":false,"is_disabled":false,"rental_uris":{"android":"levelo://app?vid=d62329d8-91d5-4794-bde4-d0b378c8b7e4","ios":"levelo://app?vid=d62329d8-91d5-4794-bde4-d0b378c8b7e4"},"vehicle_type_id":"4","last_reported":1745406506,"current_range_meters":14000,"station_id":"ce4bhh12rcd13ifvqff0","pricing_plan_id":"cebpf4jnsgd1na2vs0mg"},{"bike_id":"4bca2429-f42a-4990-a0ba-74e98fc9d9d4","system_id":"levelo_inurba_marseille","lat":43.279548,"lon":5.410552,"is_reserved":false,"is_disabled":false,"rental_uris":{"android":"levelo://app?vid=4bca2429-f42a-4990-a0ba-74e98fc9d9d4","ios":"levelo://app?vid=4bca2429-f42a-4990-a0ba-74e98fc9d9d4"},"vehicle_type_id":"4","last_reported":1745406506,"current_range_meters":14400,"station_id":"","pricing_plan_id":"cebpf4jnsgd1na2vs0mg"},{"bike_id":"0eda7991-7ece-44cc-943a-e7eeed56fcd2","system_id":"levelo_inurba_marseille","lat":43.31489,"lon":5.37288,"is_reserved":false,"is_disabled":true,"rental_uris":{"android":"levelo://app?vid=0eda7991-7ece-44cc-943a-e7eeed56fcd2","ios":"levelo://app?vid=0eda7991-7ece-44cc-943a-e7eeed56fcd2"},"vehicle_type_id":"4","last_reported":1745406506,"current_range_meters":14400,"station_id":"ce4bgt12rcd13ifvqcd0","pricing_plan_id":"cebpf4jnsgd1na2vs0mg"},{"bike_id":"1f567796-1841-499c-946a-8b2d24c07b17","system_id":"levelo_inurba_marseille","lat":43.25859,"lon":5.39902,"is_reserved":false,"is_disabled":false,"rental_uris":{"android":"levelo://app?vid=1f567796-1841-499c-946a-8b2d24c07b17","ios":"levelo://app?vid=1f567796-1841-499c-946a-8b2d24c07b17"},"vehicle_type_id":"4","last_reported":1745406506,"current_range_meters":15200,"station_id":"ce4bhl92rcd13ifvqghg","pricing_plan_id":"cebpf4jnsgd1na2vs0mg"},{"bike_id":"a1835b16-9e05-4b53-baf5-10eeb04320bb","system_id":"levelo_inurba_marseille","lat":43.28691,"lon":5.3739,"is_reserved":false,"is_disabled":true,"rental_uris":{"android":"levelo://app?vid=a1835b16-9e05-4b53-baf5-10eeb04320bb","ios":"levelo://app?vid=a1835b16-9e05-4b53-baf5-10eeb04320bb"},"vehicle_type_id":"4","last_reported":1745406506,"current_range_meters":14800,"station_id":"ce4bh3p2rcd13ifvqdq0","pricing_plan_id":"cebpf4jnsgd1na2vs0mg"},{"bike_id":"b74100ec-2ebe-4d0f-bc2e-73a63b38fda8","system_id":"levelo_inurba_marseille","lat":43.31349,"lon":5.36724,"is_reserved":false,"is_disabled":true,"rental_uris":{"android":"levelo://app?vid=b74100ec-2ebe-4d0f-bc2e-73a63b38fda8","ios":"levelo://app?vid=b74100ec-2ebe-4d0f-bc2e-73a63b38fda8"},"vehicle_type_id":"4","last_reported":1745406506,"current_range_meters":14800,"station_id":"ce4bgr92rcd13ifvqc6g","pricing_plan_id":"cebpf4jnsgd1na2vs0mg"},{"bike_id":"45152e84-ba4f-4c8b-91d6-a40ff290350a","system_id":"levelo_inurba_marseille","lat":43.26552,"lon":5.37287,"is_reserved":false,"is_disabled":false,"rental_uris":{"android":"levelo://app?vid=45152e84-ba4f-4c8b-91d6-a40ff290350a","ios":"levelo://app?vid=45152e84-ba4f-4c8b-91d6-a40ff290350a"},"vehicle_type_id":"4","last_reported":1745406506,"current_range_meters":15200,"station_id":"ce4bhg12rcd13ifvqf70","pricing_plan_id":"cebpf4jnsgd1na2vs0mg"},{"bike_id":"770a8ebe-ad9f-4ca8-8223-e84205b78a55","system_id":"levelo_inurba_marseille","lat":43.245515,"lon":5.39521,"is_reserved":false,"is_disabled":false,"rental_uris":{"android":"levelo://app?vid=770a8ebe-ad9f-4ca8-8223-e84205b78a55","ios":"levelo://app?vid=770a8ebe-ad9f-4ca8-8223-e84205b78a55"},"vehicle_type_id":"4","last_reported":1745406506,"current_range_meters":15200,"station_id":"ce4bhlp2rcd13ifvqgjg","pricing_plan_id":"cebpf4jnsgd1na2vs0mg"},{"bike_id":"54cf535c-779a-43b5-97d0-027e3aecb93f","system_id":"levelo_inurba_marseille","lat":43.30546,"lon":5.36541,"is_reserved":false,"is_disabled":false,"rental_uris":{"android":"levelo://app?vid=54cf535c-779a-43b5-97d0-027e3aecb93f","ios":"levelo://app?vid=54cf535c-779a-43b5-97d0-027e3aecb93f"},"vehicle_type_id":"4","last_reported":1745406506,"current_range_meters":16000,"station_id":"ce4bgs12rcd13ifvqcag","pricing_plan_id":"cebpf4jnsgd1na2vs0mg"},{"bike_id":"eb9a67a2-cd2b-4d62-94b3-95e0b15bc681","system_id":"levelo_inurba_marseille","lat":43.2417,"lon":5.36394,"is_reserved":false,"is_disabled":false,"rental_uris":{"android":"levelo://app?vid=eb9a67a2-cd2b-4d62-94b3-95e0b15bc681","ios":"levelo://app?vid=eb9a67a2-cd2b-4d62-94b3-95e0b15bc681"},"vehicle_type_id":"4","last_reported":1745406506,"current_range_meters":16000,"station_id":"cpo36qri1sfpv3e86is0","pricing_plan_id":"cebpf4jnsgd1na2vs0mg"},{"bike_id":"db6c3ea9-7917-44bd-958f-99f8a50fb72d","system_id":"levelo_inurba_marseille","lat":43.30912,"lon":5.36858,"is_reserved":false,"is_disabled":false,"rental_uris":{"android":"levelo://app?vid=db6c3ea9-7917-44bd-958f-99f8a50fb72d","ios":"levelo://app?vid=db6c3ea9-7917-44bd-958f-99f8a50fb72d"},"vehicle_type_id":"4","last_reported":1745406506,"current_range_meters":16000,"station_id":"ce4bgn92rcd13ifvqbvg","pricing_plan_id":"cebpf4jnsgd1na2vs0mg"},{"bike_id":"b5d609bf-0c9b-49e3-9426-ce02cb8383b8","system_id":"levelo_inurba_marseille","lat":43.34146,"lon":5.40918,"is_reserved":false,"is_disabled":true,"rental_uris":{"android":"levelo://app?vid=b5d609bf-0c9b-49e3-9426-ce02cb8383b8","ios":"levelo://app?vid=b5d609bf-0c9b-49e3-9426-ce02cb8383b8"},"vehicle_type_id":"4","last_reported":1745406506,"current_range_meters":16400,"station_id":"ce4bhqh2rcd13ifvqhlg","pricing_plan_id":"cebpf4jnsgd1na2vs0mg"},{"bike_id":"723c553c-4e77-4ada-a731-a78df7eb8dce","system_id":"levelo_inurba_marseille","lat":43.255823,"lon":5.382291,"is_reserved":false,"is_disabled":false,"rental_uris":{"android":"levelo://app?vid=723c553c-4e77-4ada-a731-a78df7eb8dce","ios":"levelo://app?vid=723c553c-4e77-4ada-a731-a78df7eb8dce"},"vehicle_type_id":"4","last_reported":1745406506,"current_range_meters":16400,"station_id":"ce4bhih2rcd13ifvqfs0","pricing_plan_id":"cebpf4jnsgd1na2vs0mg"},{"bike_id":"162104c9-c9c3-41e8-9022-0f16a6a968c6","system_id":"levelo_inurba_marseille","lat":43.33028,"lon":5.39046,"is_reserved":false,"is_disabled":false,"rental_uris":{"android":"levelo://app?vid=162104c9-c9c3-41e8-9022-0f16a6a968c6","ios":"levelo://app?vid=162104c9-c9c3-41e8-9022-0f16a6a968c6"},"vehicle_type_id":"4","last_reported":1745406506,"current_range_meters":16400,"station_id":"ce4bhr92rcd13ifvqhrg","pricing_plan_id":"cebpf4jnsgd1na2vs0mg"},{"bike_id":"2331f2d6-9ef6-41a3-9915-fc6a1db8b003","system_id":"levelo_inurba_marseille","lat":43.27811,"lon":5.40708,"is_reserved":false,"is_disabled":false,"rental_uris":{"android":"levelo://app?vid=2331f2d6-9ef6-41a3-9915-fc6a1db8b003","ios":"levelo://app?vid=2331f2d6-9ef6-41a3-9915-fc6a1db8b003"},"vehicle_type_id":"4","last_reported":1745406506,"current_range_meters":16000,"station_id":"ce4bhnh2rcd13ifvqgtg","pricing_plan_id":"cebpf4jnsgd1na2vs0mg"},{"bike_id":"055c860c-9dad-433c-b446-7b77d6a16056","system_id":"levelo_inurba_marseille","lat":43.34141,"lon":5.40907,"is_reserved":false,"is_disabled":false,"rental_uris":{"android":"levelo://app?vid=055c860c-9dad-433c-b446-7b77d6a16056","ios":"levelo://app?vid=055c860c-9dad-433c-b446-7b77d6a16056"},"vehicle_type_id":"4","last_reported":1745406506,"current_range_meters":16000,"station_id":"ce4bhqh2rcd13ifvqhlg","pricing_plan_id":"cebpf4jnsgd1na2vs0mg"},{"bike_id":"f6a68b4b-dddf-45fa-9d26-80e1ab4f72cd","system_id":"levelo_inurba_marseille","lat":43.2942,"lon":5.38624,"is_reserved":false,"is_disabled":false,"rental_uris":{"android":"levelo://app?vid=f6a68b4b-dddf-45fa-9d26-80e1ab4f72cd","ios":"levelo://app?vid=f6a68b4b-dddf-45fa-9d26-80e1ab4f72cd"},"vehicle_type_id":"4","last_reported":1745406506,"current_range_meters":16800,"station_id":"ce4bh2h2rcd13ifvqdh0","pricing_plan_id":"cebpf4jnsgd1na2vs0mg"},{"bike_id":"46374c49-3adc-4c5a-8966-e00f056c0d57","system_id":"levelo_inurba_marseille","lat":43.27846,"lon":5.35442,"is_reserved":false,"is_disabled":false,"rental_uris":{"android":"levelo://app?vid=46374c49-3adc-4c5a-8966-e00f056c0d57","ios":"levelo://app?vid=46374c49-3adc-4c5a-8966-e00f056c0d57"},"vehicle_type_id":"4","last_reported":1745406506,"current_range_meters":16800,"station_id":"","pricing_plan_id":"cebpf4jnsgd1na2vs0mg"},{"bike_id":"70d61655-f632-43b1-a2e3-d805e86fc09e","system_id":"levelo_inurba_marseille","lat":43.29372,"lon":5.37874,"is_reserved":false,"is_disabled":false,"rental_uris":{"android":"levelo://app?vid=70d61655-f632-43b1-a2e3-d805e86fc09e","ios":"levelo://app?vid=70d61655-f632-43b1-a2e3-d805e86fc09e"},"vehicle_type_id":"4","last_reported":1745406506,"current_range_meters":16400,"station_id":"ce4bgjh2rcd13ifvqbf0","pricing_plan_id":"cebpf4jnsgd1na2vs0mg"},{"bike_id":"652e0c0f-ae6a-4c1a-9784-088b0ec65161","system_id":"levelo_inurba_marseille","lat":43.21743,"lon":5.34607,"is_reserved":false,"is_disabled":false,"rental_uris":{"android":"levelo://app?vid=652e0c0f-ae6a-4c1a-9784-088b0ec65161","ios":"levelo://app?vid=652e0c0f-ae6a-4c1a-9784-088b0ec65161"},"vehicle_type_id":"4","last_reported":1745406506,"current_range_meters":16800,"station_id":"st_cvj6r9ubvosntc0bgbag","pricing_plan_id":"cebpf4jnsgd1na2vs0mg"},{"bike_id":"b217c7a4-92b6-4872-91fa-f2c2827250cc","system_id":"levelo_inurba_marseille","lat":43.28737,"lon":5.38945,"is_reserved":false,"is_disabled":false,"rental_uris":{"android":"levelo://app?vid=b217c7a4-92b6-4872-91fa-f2c2827250cc","ios":"levelo://app?vid=b217c7a4-92b6-4872-91fa-f2c2827250cc"},"vehicle_type_id":"4","last_reported":1745406506,"current_range_meters":16800,"station_id":"","pricing_plan_id":"cebpf4jnsgd1na2vs0mg"},{"bike_id":"9ec49457-910a-4a25-9cd0-b82d5625cff5","system_id":"levelo_inurba_marseille","lat":43.23161,"lon":5.43723,"is_reserved":false,"is_disabled":false,"rental_uris":{"android":"levelo://app?vid=9ec49457-910a-4a25-9cd0-b82d5625cff5","ios":"levelo://app?vid=9ec49457-910a-4a25-9cd0-b82d5625cff5"},"vehicle_type_id":"4","last_reported":1745406506,"current_range_meters":16800,"station_id":"ce4bhmp2rcd13ifvqgog","pricing_plan_id":"cebpf4jnsgd1na2vs0mg"},{"bike_id":"bceb8cba-0252-464f-a7c9-f9b4548f7a27","system_id":"levelo_inurba_marseille","lat":43.280684,"lon":5.396468,"is_reserved":false,"is_disabled":true,"rental_uris":{"android":"levelo://app?vid=bceb8cba-0252-464f-a7c9-f9b4548f7a27","ios":"levelo://app?vid=bceb8cba-0252-464f-a7c9-f9b4548f7a27"},"vehicle_type_id":"4","last_reported":1745406506,"current_range_meters":16800,"station_id":"ce4bho12rcd13ifvqh2g","pricing_plan_id":"cebpf4jnsgd1na2vs0mg"},{"bike_id":"b4aa6c66-07fb-4118-9d13-373ccd488a81","system_id":"levelo_inurba_marseille","lat":43.304242,"lon":5.397279,"is_reserved":false,"is_disabled":false,"rental_uris":{"android":"levelo://app?vid=b4aa6c66-07fb-4118-9d13-373ccd488a81","ios":"levelo://app?vid=b4aa6c66-07fb-4118-9d13-373ccd488a81"},"vehicle_type_id":"4","last_reported":1745406506,"current_range_meters":17200,"station_id":"","pricing_plan_id":"cebpf4jnsgd1na2vs0mg"},{"bike_id":"08a42934-9f40-4504-bde4-fcfefb5a3d31","system_id":"levelo_inurba_marseille","lat":43.28944,"lon":5.36648,"is_reserved":false,"is_disabled":false,"rental_uris":{"android":"levelo://app?vid=08a42934-9f40-4504-bde4-fcfefb5a3d31","ios":"levelo://app?vid=08a42934-9f40-4504-bde4-fcfefb5a3d31"},"vehicle_type_id":"4","last_reported":1745406506,"current_range_meters":17200,"station_id":"ce4bhap2rcd13ifvqek0","pricing_plan_id":"cebpf4jnsgd1na2vs0mg"},{"bike_id":"9966e2c4-c438-4020-9570-af75c54f7699","system_id":"levelo_inurba_marseille","lat":43.25133,"lon":5.40313,"is_reserved":false,"is_disabled":false,"rental_uris":{"android":"levelo://app?vid=9966e2c4-c438-4020-9570-af75c54f7699","ios":"levelo://app?vid=9966e2c4-c438-4020-9570-af75c54f7699"},"vehicle_type_id":"4","last_reported":1745406506,"current_range_meters":17200,"station_id":"ce4bhlh2rcd13ifvqgig","pricing_plan_id":"cebpf4jnsgd1na2vs0mg"},{"bike_id":"d930bcc4-ec17-4dfa-bca3-75ad9fa51ffe","system_id":"levelo_inurba_marseille","lat":43.2737,"lon":5.36263,"is_reserved":false,"is_disabled":false,"rental_uris":{"android":"levelo://app?vid=d930bcc4-ec17-4dfa-bca3-75ad9fa51ffe","ios":"levelo://app?vid=d930bcc4-ec17-4dfa-bca3-75ad9fa51ffe"},"vehicle_type_id":"4","last_reported":1745406506,"current_range_meters":17600,"station_id":"ce4bhbh2rcd13ifvqeo0","pricing_plan_id":"cebpf4jnsgd1na2vs0mg"},{"bike_id":"548a676c-6329-4f1b-a15f-51e09f419043","system_id":"levelo_inurba_marseille","lat":43.269534,"lon":5.386316,"is_reserved":false,"is_disabled":true,"rental_uris":{"android":"levelo://app?vid=548a676c-6329-4f1b-a15f-51e09f419043","ios":"levelo://app?vid=548a676c-6329-4f1b-a15f-51e09f419043"},"vehicle_type_id":"4","last_reported":1745406506,"current_range_meters":17600,"station_id":"ce4bhh92rcd13ifvqfh0","pricing_plan_id":"cebpf4jnsgd1na2vs0mg"},{"bike_id":"224966eb-5691-40ff-b89b-dd163969910f","system_id":"levelo_inurba_marseille","lat":43.30736,"lon":5.4244,"is_reserved":false,"is_disabled":false,"rental_uris":{"android":"levelo://app?vid=224966eb-5691-40ff-b89b-dd163969910f","ios":"levelo://app?vid=224966eb-5691-40ff-b89b-dd163969910f"},"vehicle_type_id":"4","last_reported":1745406506,"current_range_meters":17600,"station_id":"st_cvj6ca6bvosntc0bfgr0","pricing_plan_id":"cebpf4jnsgd1na2vs0mg"},{"bike_id":"4bc4cd93-e9bd-4431-9aba-4a53a5a1a94b","system_id":"levelo_inurba_marseille","lat":43.30549,"lon":5.36697,"is_reserved":false,"is_disabled":false,"rental_uris":{"android":"levelo://app?vid=4bc4cd93-e9bd-4431-9aba-4a53a5a1a94b","ios":"levelo://app?vid=4bc4cd93-e9bd-4431-9aba-4a53a5a1a94b"},"vehicle_type_id":"4","last_reported":1745406506,"current_range_meters":17600,"station_id":"ce4bgrp2rcd13ifvqc9g","pricing_plan_id":"cebpf4jnsgd1na2vs0mg"},{"bike_id":"7bda5196-b22a-4d62-8cbb-997368bea13c","system_id":"levelo_inurba_marseille","lat":43.30306,"lon":5.3689,"is_reserved":false,"is_disabled":false,"rental_uris":{"android":"levelo://app?vid=7bda5196-b22a-4d62-8cbb-997368bea13c","ios":"levelo://app?vid=7bda5196-b22a-4d62-8cbb-997368bea13c"},"vehicle_type_id":"4","last_reported":1745406506,"current_range_meters":18000,"station_id":"ce4bgqh2rcd13ifvqc5g","pricing_plan_id":"cebpf4jnsgd1na2vs0mg"},{"bike_id":"29c27f6c-b172-4d99-add3-c74bdfc6be20","system_id":"levelo_inurba_marseille","lat":43.3302,"lon":5.3905,"is_reserved":false,"is_disabled":false,"rental_uris":{"android":"levelo://app?vid=29c27f6c-b172-4d99-add3-c74bdfc6be20","ios":"levelo://app?vid=29c27f6c-b172-4d99-add3-c74bdfc6be20"},"vehicle_type_id":"4","last_reported":1745406506,"current_range_meters":18000,"station_id":"ce4bhr92rcd13ifvqhrg","pricing_plan_id":"cebpf4jnsgd1na2vs0mg"},{"bike_id":"025d3fe9-57b7-40ad-bace-01bc9403e982","system_id":"levelo_inurba_marseille","lat":43.27057,"lon":5.40261,"is_reserved":false,"is_disabled":false,"rental_uris":{"android":"levelo://app?vid=025d3fe9-57b7-40ad-bace-01bc9403e982","ios":"levelo://app?vid=025d3fe9-57b7-40ad-bace-01bc9403e982"},"vehicle_type_id":"4","last_reported":1745406506,"current_range_meters":18000,"station_id":"ce4bhk92rcd13ifvqgc0","pricing_plan_id":"cebpf4jnsgd1na2vs0mg"},{"bike_id":"90f5239c-111d-4e3b-81ba-2965b98442cf","system_id":"levelo_inurba_marseille","lat":43.231439,"lon":5.437155,"is_reserved":false,"is_disabled":false,"rental_uris":{"android":"levelo://app?vid=90f5239c-111d-4e3b-81ba-2965b98442cf","ios":"levelo://app?vid=90f5239c-111d-4e3b-81ba-2965b98442cf"},"vehicle_type_id":"4","last_reported":1745406506,"current_range_meters":18000,"station_id":"ce4bhmp2rcd13ifvqgog","pricing_plan_id":"cebpf4jnsgd1na2vs0mg"},{"bike_id":"6ebdbc4e-45c1-454c-b749-7177eb7ae28d","system_id":"levelo_inurba_marseille","lat":43.27059,"lon":5.40272,"is_reserved":false,"is_disabled":false,"rental_uris":{"android":"levelo://app?vid=6ebdbc4e-45c1-454c-b749-7177eb7ae28d","ios":"levelo://app?vid=6ebdbc4e-45c1-454c-b749-7177eb7ae28d"},"vehicle_type_id":"4","last_reported":1745406506,"current_range_meters":18000,"station_id":"ce4bhk92rcd13ifvqgc0","pricing_plan_id":"cebpf4jnsgd1na2vs0mg"},{"bike_id":"431f8e0d-2b86-4422-8cda-97ec47af7bcd","system_id":"levelo_inurba_marseille","lat":43.26184,"lon":5.40471,"is_reserved":false,"is_disabled":false,"rental_uris":{"android":"levelo://app?vid=431f8e0d-2b86-4422-8cda-97ec47af7bcd","ios":"levelo://app?vid=431f8e0d-2b86-4422-8cda-97ec47af7bcd"},"vehicle_type_id":"4","last_reported":1745406506,"current_range_meters":18000,"station_id":"ce4bhmh2rcd13ifvqgmg","pricing_plan_id":"cebpf4jnsgd1na2vs0mg"},{"bike_id":"ff83ed84-dd9b-4925-b5bc-8fefa2bdac15","system_id":"levelo_inurba_marseille","lat":43.31235,"lon":5.36858,"is_reserved":false,"is_disabled":false,"rental_uris":{"android":"levelo://app?vid=ff83ed84-dd9b-4925-b5bc-8fefa2bdac15","ios":"levelo://app?vid=ff83ed84-dd9b-4925-b5bc-8fefa2bdac15"},"vehicle_type_id":"4","last_reported":1745406506,"current_range_meters":18800,"station_id":"ce4bgl92rcd13ifvqbq0","pricing_plan_id":"cebpf4jnsgd1na2vs0mg"},{"bike_id":"0ea362ce-4354-4f0f-acc7-962b146816c7","system_id":"levelo_inurba_marseille","lat":43.25862,"lon":5.39916,"is_reserved":false,"is_disabled":true,"rental_uris":{"android":"levelo://app?vid=0ea362ce-4354-4f0f-acc7-962b146816c7","ios":"levelo://app?vid=0ea362ce-4354-4f0f-acc7-962b146816c7"},"vehicle_type_id":"4","last_reported":1745406506,"current_range_meters":18800,"station_id":"ce4bhl92rcd13ifvqghg","pricing_plan_id":"cebpf4jnsgd1na2vs0mg"},{"bike_id":"274753bf-af8d-439b-9031-ffe84f2ed2ba","system_id":"levelo_inurba_marseille","lat":43.26222,"lon":5.40446,"is_reserved":false,"is_disabled":false,"rental_uris":{"android":"levelo://app?vid=274753bf-af8d-439b-9031-ffe84f2ed2ba","ios":"levelo://app?vid=274753bf-af8d-439b-9031-ffe84f2ed2ba"},"vehicle_type_id":"4","last_reported":1745406506,"current_range_meters":18800,"station_id":"ce4bhmh2rcd13ifvqgmg","pricing_plan_id":"cebpf4jnsgd1na2vs0mg"},{"bike_id":"2c48f369-8a0c-4ed8-9846-b6a85ca568ae","system_id":"levelo_inurba_marseille","lat":43.289371,"lon":5.396345,"is_reserved":false,"is_disabled":false,"rental_uris":{"android":"levelo://app?vid=2c48f369-8a0c-4ed8-9846-b6a85ca568ae","ios":"levelo://app?vid=2c48f369-8a0c-4ed8-9846-b6a85ca568ae"},"vehicle_type_id":"4","last_reported":1745406506,"current_range_meters":18000,"station_id":"ce4bh3h2rcd13ifvqdn0","pricing_plan_id":"cebpf4jnsgd1na2vs0mg"},{"bike_id":"7b3b4f60-bf9c-4025-b10a-6b97b1277562","system_id":"levelo_inurba_marseille","lat":43.23151,"lon":5.43715,"is_reserved":false,"is_disabled":false,"rental_uris":{"android":"levelo://app?vid=7b3b4f60-bf9c-4025-b10a-6b97b1277562","ios":"levelo://app?vid=7b3b4f60-bf9c-4025-b10a-6b97b1277562"},"vehicle_type_id":"4","last_reported":1745406506,"current_range_meters":18800,"station_id":"ce4bhmp2rcd13ifvqgog","pricing_plan_id":"cebpf4jnsgd1na2vs0mg"},{"bike_id":"322995c8-8601-4b19-ac1c-f357afc63d51","system_id":"levelo_inurba_marseille","lat":43.23161,"lon":5.43713,"is_reserved":false,"is_disabled":false,"rental_uris":{"android":"levelo://app?vid=322995c8-8601-4b19-ac1c-f357afc63d51","ios":"levelo://app?vid=322995c8-8601-4b19-ac1c-f357afc63d51"},"vehicle_type_id":"4","last_reported":1745406506,"current_range_meters":18800,"station_id":"ce4bhmp2rcd13ifvqgog","pricing_plan_id":"cebpf4jnsgd1na2vs0mg"},{"bike_id":"c7b90bf3-baf1-4b35-b182-f85c92c205a4","system_id":"levelo_inurba_marseille","lat":43.28422,"lon":5.34991,"is_reserved":false,"is_disabled":false,"rental_uris":{"android":"levelo://app?vid=c7b90bf3-baf1-4b35-b182-f85c92c205a4","ios":"levelo://app?vid=c7b90bf3-baf1-4b35-b182-f85c92c205a4"},"vehicle_type_id":"4","last_reported":1745406506,"current_range_meters":18800,"station_id":"ce4bhbh2rcd13ifvqepg","pricing_plan_id":"cebpf4jnsgd1na2vs0mg"},{"bike_id":"24abffb2-ae60-4fad-9555-673ed71800fa","system_id":"levelo_inurba_marseille","lat":43.27057,"lon":5.40259,"is_reserved":false,"is_disabled":false,"rental_uris":{"android":"levelo://app?vid=24abffb2-ae60-4fad-9555-673ed71800fa","ios":"levelo://app?vid=24abffb2-ae60-4fad-9555-673ed71800fa"},"vehicle_type_id":"4","last_reported":1745406506,"current_range_meters":18800,"station_id":"ce4bhk92rcd13ifvqgc0","pricing_plan_id":"cebpf4jnsgd1na2vs0mg"},{"bike_id":"6b47fa3a-942f-484a-ac74-5584bf38ab30","system_id":"levelo_inurba_marseille","lat":43.29784,"lon":5.37101,"is_reserved":false,"is_disabled":false,"rental_uris":{"android":"levelo://app?vid=6b47fa3a-942f-484a-ac74-5584bf38ab30","ios":"levelo://app?vid=6b47fa3a-942f-484a-ac74-5584bf38ab30"},"vehicle_type_id":"4","last_reported":1745406506,"current_range_meters":19200,"station_id":"ce4bgop2rcd13ifvqc1g","pricing_plan_id":"cebpf4jnsgd1na2vs0mg"},{"bike_id":"91583770-408c-4639-ae56-7562de351d70","system_id":"levelo_inurba_marseille","lat":43.283386,"lon":5.381043,"is_reserved":false,"is_disabled":true,"rental_uris":{"android":"levelo://app?vid=91583770-408c-4639-ae56-7562de351d70","ios":"levelo://app?vid=91583770-408c-4639-ae56-7562de351d70"},"vehicle_type_id":"4","last_reported":1745406506,"current_range_meters":19200,"station_id":"ce4bhhh2rcd13ifvqfk0","pricing_plan_id":"cebpf4jnsgd1na2vs0mg"},{"bike_id":"76795801-15e6-4272-80f9-f24296731352","system_id":"levelo_inurba_marseille","lat":43.25011,"lon":5.38919,"is_reserved":false,"is_disabled":false,"rental_uris":{"android":"levelo://app?vid=76795801-15e6-4272-80f9-f24296731352","ios":"levelo://app?vid=76795801-15e6-4272-80f9-f24296731352"},"vehicle_type_id":"4","last_reported":1745406506,"current_range_meters":19200,"station_id":"ce4bhgp2rcd13ifvqfd0","pricing_plan_id":"cebpf4jnsgd1na2vs0mg"},{"bike_id":"e64e67e2-f5a8-4b21-9aed-01612c833f9f","system_id":"levelo_inurba_marseille","lat":43.32369,"lon":5.38885,"is_reserved":false,"is_disabled":false,"rental_uris":{"android":"levelo://app?vid=e64e67e2-f5a8-4b21-9aed-01612c833f9f","ios":"levelo://app?vid=e64e67e2-f5a8-4b21-9aed-01612c833f9f"},"vehicle_type_id":"4","last_reported":1745406506,"current_range_meters":19200,"station_id":"ce4bhqp2rcd13ifvqhog","pricing_plan_id":"cebpf4jnsgd1na2vs0mg"},{"bike_id":"99a764d9-c775-4ca6-a51a-b13cec54798f","system_id":"levelo_inurba_marseille","lat":43.30478,"lon":5.37885,"is_reserved":false,"is_disabled":false,"rental_uris":{"android":"levelo://app?vid=99a764d9-c775-4ca6-a51a-b13cec54798f","ios":"levelo://app?vid=99a764d9-c775-4ca6-a51a-b13cec54798f"},"vehicle_type_id":"4","last_reported":1745406506,"current_range_meters":19200,"station_id":"ce4bgup2rcd13ifvqcn0","pricing_plan_id":"cebpf4jnsgd1na2vs0mg"},{"bike_id":"675a939b-d753-43ff-a709-52593e152734","system_id":"levelo_inurba_marseille","lat":43.31698,"lon":5.40448,"is_reserved":false,"is_disabled":false,"rental_uris":{"android":"levelo://app?vid=675a939b-d753-43ff-a709-52593e152734","ios":"levelo://app?vid=675a939b-d753-43ff-a709-52593e152734"},"vehicle_type_id":"4","last_reported":1745406506,"current_range_meters":19200,"station_id":"ce4bh012rcd13ifvqd00","pricing_plan_id":"cebpf4jnsgd1na2vs0mg"},{"bike_id":"7f4c3b02-135e-4c8b-ae41-58f43c6a5eeb","system_id":"levelo_inurba_marseille","lat":43.3248,"lon":5.36559,"is_reserved":false,"is_disabled":false,"rental_uris":{"android":"levelo://app?vid=7f4c3b02-135e-4c8b-ae41-58f43c6a5eeb","ios":"levelo://app?vid=7f4c3b02-135e-4c8b-ae41-58f43c6a5eeb"},"vehicle_type_id":"4","last_reported":1745406506,"current_range_meters":19600,"station_id":"ce4bhs12rcd13ifvqhvg","pricing_plan_id":"cebpf4jnsgd1na2vs0mg"},{"bike_id":"7a327499-51e3-416e-a5c5-68b95032a35a","system_id":"levelo_inurba_marseille","lat":43.29033,"lon":5.38647,"is_reserved":false,"is_disabled":false,"rental_uris":{"android":"levelo://app?vid=7a327499-51e3-416e-a5c5-68b95032a35a","ios":"levelo://app?vid=7a327499-51e3-416e-a5c5-68b95032a35a"},"vehicle_type_id":"4","last_reported":1745406506,"current_range_meters":19600,"station_id":"ce4bh4p2rcd13ifvqe0g","pricing_plan_id":"cebpf4jnsgd1na2vs0mg"},{"bike_id":"0bd6b9dc-0d28-4aed-ba01-15bad0c8f4e6","system_id":"levelo_inurba_marseille","lat":43.21754,"lon":5.34602,"is_reserved":false,"is_disabled":false,"rental_uris":{"android":"levelo://app?vid=0bd6b9dc-0d28-4aed-ba01-15bad0c8f4e6","ios":"levelo://app?vid=0bd6b9dc-0d28-4aed-ba01-15bad0c8f4e6"},"vehicle_type_id":"4","last_reported":1745406506,"current_range_meters":19600,"station_id":"st_cvj6r9ubvosntc0bgbag","pricing_plan_id":"cebpf4jnsgd1na2vs0mg"},{"bike_id":"894b8530-885f-4d4d-a2ae-913958cbbe2f","system_id":"levelo_inurba_marseille","lat":43.25907,"lon":5.40859,"is_reserved":false,"is_disabled":true,"rental_uris":{"android":"levelo://app?vid=894b8530-885f-4d4d-a2ae-913958cbbe2f","ios":"levelo://app?vid=894b8530-885f-4d4d-a2ae-913958cbbe2f"},"vehicle_type_id":"4","last_reported":1745406506,"current_range_meters":19600,"station_id":"ce4bhm92rcd13ifvqglg","pricing_plan_id":"cebpf4jnsgd1na2vs0mg"},{"bike_id":"8b13a928-cf73-4379-a0db-2b466786b7d8","system_id":"levelo_inurba_marseille","lat":43.3377,"lon":5.37433,"is_reserved":false,"is_disabled":false,"rental_uris":{"android":"levelo://app?vid=8b13a928-cf73-4379-a0db-2b466786b7d8","ios":"levelo://app?vid=8b13a928-cf73-4379-a0db-2b466786b7d8"},"vehicle_type_id":"4","last_reported":1745406506,"current_range_meters":20000,"station_id":"","pricing_plan_id":"cebpf4jnsgd1na2vs0mg"},{"bike_id":"137ae00f-fd98-43a7-9d82-47f25ed013d3","system_id":"levelo_inurba_marseille","lat":43.27052,"lon":5.40268,"is_reserved":false,"is_disabled":false,"rental_uris":{"android":"levelo://app?vid=137ae00f-fd98-43a7-9d82-47f25ed013d3","ios":"levelo://app?vid=137ae00f-fd98-43a7-9d82-47f25ed013d3"},"vehicle_type_id":"4","last_reported":1745406506,"current_range_meters":20000,"station_id":"ce4bhk92rcd13ifvqgc0","pricing_plan_id":"cebpf4jnsgd1na2vs0mg"},{"bike_id":"ee354981-1331-4223-a45e-4b1b7261b1e3","system_id":"levelo_inurba_marseille","lat":43.33025,"lon":5.39044,"is_reserved":false,"is_disabled":false,"rental_uris":{"android":"levelo://app?vid=ee354981-1331-4223-a45e-4b1b7261b1e3","ios":"levelo://app?vid=ee354981-1331-4223-a45e-4b1b7261b1e3"},"vehicle_type_id":"4","last_reported":1745406506,"current_range_meters":20000,"station_id":"ce4bhr92rcd13ifvqhrg","pricing_plan_id":"cebpf4jnsgd1na2vs0mg"},{"bike_id":"d67e280a-f708-44d7-ac1f-37a8ebf5003e","system_id":"levelo_inurba_marseille","lat":43.30205,"lon":5.39369,"is_reserved":false,"is_disabled":false,"rental_uris":{"android":"levelo://app?vid=d67e280a-f708-44d7-ac1f-37a8ebf5003e","ios":"levelo://app?vid=d67e280a-f708-44d7-ac1f-37a8ebf5003e"},"vehicle_type_id":"4","last_reported":1745406506,"current_range_meters":20000,"station_id":"","pricing_plan_id":"cebpf4jnsgd1na2vs0mg"},{"bike_id":"5809e148-10b3-48d9-9f44-b07a744812e8","system_id":"levelo_inurba_marseille","lat":43.23144,"lon":5.43711,"is_reserved":false,"is_disabled":false,"rental_uris":{"android":"levelo://app?vid=5809e148-10b3-48d9-9f44-b07a744812e8","ios":"levelo://app?vid=5809e148-10b3-48d9-9f44-b07a744812e8"},"vehicle_type_id":"4","last_reported":1745406506,"current_range_meters":32800,"station_id":"ce4bhmp2rcd13ifvqgog","pricing_plan_id":"cebpf4jnsgd1na2vs0mg"},{"bike_id":"4c6e8b1c-17a4-4ac1-ad4f-67f50bcf3a02","system_id":"levelo_inurba_marseille","lat":43.31172,"lon":5.38723,"is_reserved":false,"is_disabled":false,"rental_uris":{"android":"levelo://app?vid=4c6e8b1c-17a4-4ac1-ad4f-67f50bcf3a02","ios":"levelo://app?vid=4c6e8b1c-17a4-4ac1-ad4f-67f50bcf3a02"},"vehicle_type_id":"4","last_reported":1745406506,"current_range_meters":20400,"station_id":"ce4bgv12rcd13ifvqcp0","pricing_plan_id":"cebpf4jnsgd1na2vs0mg"},{"bike_id":"85a1ca08-d50d-4500-a6c1-565f524b93b3","system_id":"levelo_inurba_marseille","lat":43.29923,"lon":5.36493,"is_reserved":false,"is_disabled":true,"rental_uris":{"android":"levelo://app?vid=85a1ca08-d50d-4500-a6c1-565f524b93b3","ios":"levelo://app?vid=85a1ca08-d50d-4500-a6c1-565f524b93b3"},"vehicle_type_id":"4","last_reported":1745406506,"current_range_meters":20400,"station_id":"ce4bgm92rcd13ifvqbr0","pricing_plan_id":"cebpf4jnsgd1na2vs0mg"},{"bike_id":"1108847c-4ce4-4384-b34f-a0f1e554ce8b","system_id":"levelo_inurba_marseille","lat":43.243818,"lon":5.370402,"is_reserved":false,"is_disabled":false,"rental_uris":{"android":"levelo://app?vid=1108847c-4ce4-4384-b34f-a0f1e554ce8b","ios":"levelo://app?vid=1108847c-4ce4-4384-b34f-a0f1e554ce8b"},"vehicle_type_id":"4","last_reported":1745406506,"current_range_meters":20000,"station_id":"ce4bhg12rcd13ifvqf60","pricing_plan_id":"cebpf4jnsgd1na2vs0mg"},{"bike_id":"7049f559-46ea-469f-b042-655207f67349","system_id":"levelo_inurba_marseille","lat":43.23147,"lon":5.43726,"is_reserved":false,"is_disabled":false,"rental_uris":{"android":"levelo://app?vid=7049f559-46ea-469f-b042-655207f67349","ios":"levelo://app?vid=7049f559-46ea-469f-b042-655207f67349"},"vehicle_type_id":"4","last_reported":1745406506,"current_range_meters":20400,"station_id":"ce4bhmp2rcd13ifvqgog","pricing_plan_id":"cebpf4jnsgd1na2vs0mg"},{"bike_id":"b4c6f0ca-b1a5-43cf-9d82-ad5ce3732c11","system_id":"levelo_inurba_marseille","lat":43.25869,"lon":5.39899,"is_reserved":false,"is_disabled":false,"rental_uris":{"android":"levelo://app?vid=b4c6f0ca-b1a5-43cf-9d82-ad5ce3732c11","ios":"levelo://app?vid=b4c6f0ca-b1a5-43cf-9d82-ad5ce3732c11"},"vehicle_type_id":"4","last_reported":1745406506,"current_range_meters":20400,"station_id":"ce4bhl92rcd13ifvqghg","pricing_plan_id":"cebpf4jnsgd1na2vs0mg"},{"bike_id":"d5c19a7e-9b0d-47ac-8959-8eb21063802d","system_id":"levelo_inurba_marseille","lat":43.33026,"lon":5.39039,"is_reserved":false,"is_disabled":false,"rental_uris":{"android":"levelo://app?vid=d5c19a7e-9b0d-47ac-8959-8eb21063802d","ios":"levelo://app?vid=d5c19a7e-9b0d-47ac-8959-8eb21063802d"},"vehicle_type_id":"4","last_reported":1745406506,"current_range_meters":20800,"station_id":"ce4bhr92rcd13ifvqhrg","pricing_plan_id":"cebpf4jnsgd1na2vs0mg"},{"bike_id":"4256eca0-5f5b-4c41-b44b-531739a5ece9","system_id":"levelo_inurba_marseille","lat":43.290799,"lon":5.371631,"is_reserved":false,"is_disabled":false,"rental_uris":{"android":"levelo://app?vid=4256eca0-5f5b-4c41-b44b-531739a5ece9","ios":"levelo://app?vid=4256eca0-5f5b-4c41-b44b-531739a5ece9"},"vehicle_type_id":"4","last_reported":1745406506,"current_range_meters":20800,"station_id":"ce4bhah2rcd13ifvqei0","pricing_plan_id":"cebpf4jnsgd1na2vs0mg"},{"bike_id":"4913507c-096c-4918-8edb-802e1c951937","system_id":"levelo_inurba_marseille","lat":43.29898,"lon":5.43672,"is_reserved":false,"is_disabled":false,"rental_uris":{"android":"levelo://app?vid=4913507c-096c-4918-8edb-802e1c951937","ios":"levelo://app?vid=4913507c-096c-4918-8edb-802e1c951937"},"vehicle_type_id":"4","last_reported":1745406506,"current_range_meters":20800,"station_id":"ce4bhpp2rcd13ifvqhfg","pricing_plan_id":"cebpf4jnsgd1na2vs0mg"},{"bike_id":"ef22bc55-23a6-453b-9911-933d4035ca9b","system_id":"levelo_inurba_marseille","lat":43.25821,"lon":5.39429,"is_reserved":false,"is_disabled":false,"rental_uris":{"android":"levelo://app?vid=ef22bc55-23a6-453b-9911-933d4035ca9b","ios":"levelo://app?vid=ef22bc55-23a6-453b-9911-933d4035ca9b"},"vehicle_type_id":"4","last_reported":1745406506,"current_range_meters":20400,"station_id":"ce4bhip2rcd13ifvqft0","pricing_plan_id":"cebpf4jnsgd1na2vs0mg"},{"bike_id":"11f4ee4a-7fa1-4c62-b378-a96e1722a902","system_id":"levelo_inurba_marseille","lat":43.30561,"lon":5.36677,"is_reserved":false,"is_disabled":true,"rental_uris":{"android":"levelo://app?vid=11f4ee4a-7fa1-4c62-b378-a96e1722a902","ios":"levelo://app?vid=11f4ee4a-7fa1-4c62-b378-a96e1722a902"},"vehicle_type_id":"4","last_reported":1745406506,"current_range_meters":21600,"station_id":"ce4bgrp2rcd13ifvqc9g","pricing_plan_id":"cebpf4jnsgd1na2vs0mg"},{"bike_id":"214bbde7-aa65-480a-8046-2c18c1efb04d","system_id":"levelo_inurba_marseille","lat":43.2981,"lon":5.38098,"is_reserved":false,"is_disabled":true,"rental_uris":{"android":"levelo://app?vid=214bbde7-aa65-480a-8046-2c18c1efb04d","ios":"levelo://app?vid=214bbde7-aa65-480a-8046-2c18c1efb04d"},"vehicle_type_id":"4","last_reported":1745406506,"current_range_meters":21600,"station_id":"ce4bgip2rcd13ifvqbb0","pricing_plan_id":"cebpf4jnsgd1na2vs0mg"},{"bike_id":"17f64928-2dde-4002-ba54-81b220f041ae","system_id":"levelo_inurba_marseille","lat":43.28426,"lon":5.34996,"is_reserved":false,"is_disabled":false,"rental_uris":{"android":"levelo://app?vid=17f64928-2dde-4002-ba54-81b220f041ae","ios":"levelo://app?vid=17f64928-2dde-4002-ba54-81b220f041ae"},"vehicle_type_id":"4","last_reported":1745406506,"current_range_meters":21600,"station_id":"ce4bhbh2rcd13ifvqepg","pricing_plan_id":"cebpf4jnsgd1na2vs0mg"},{"bike_id":"8b43b1fb-5cab-4db8-ae05-f66514d8855e","system_id":"levelo_inurba_marseille","lat":43.31288,"lon":5.37311,"is_reserved":false,"is_disabled":false,"rental_uris":{"android":"levelo://app?vid=8b43b1fb-5cab-4db8-ae05-f66514d8855e","ios":"levelo://app?vid=8b43b1fb-5cab-4db8-ae05-f66514d8855e"},"vehicle_type_id":"4","last_reported":1745406506,"current_range_meters":21600,"station_id":"","pricing_plan_id":"cebpf4jnsgd1na2vs0mg"},{"bike_id":"fededf94-fd83-4d16-84e2-5a7d02f11839","system_id":"levelo_inurba_marseille","lat":43.28937,"lon":5.36644,"is_reserved":false,"is_disabled":false,"rental_uris":{"android":"levelo://app?vid=fededf94-fd83-4d16-84e2-5a7d02f11839","ios":"levelo://app?vid=fededf94-fd83-4d16-84e2-5a7d02f11839"},"vehicle_type_id":"4","last_reported":1745406506,"current_range_meters":21600,"station_id":"ce4bhap2rcd13ifvqek0","pricing_plan_id":"cebpf4jnsgd1na2vs0mg"},{"bike_id":"ab8406b2-4f8d-4381-8821-3db52b0a4d4d","system_id":"levelo_inurba_marseille","lat":43.273523,"lon":5.378375,"is_reserved":false,"is_disabled":false,"rental_uris":{"android":"levelo://app?vid=ab8406b2-4f8d-4381-8821-3db52b0a4d4d","ios":"levelo://app?vid=ab8406b2-4f8d-4381-8821-3db52b0a4d4d"},"vehicle_type_id":"4","last_reported":1745406506,"current_range_meters":21600,"station_id":"","pricing_plan_id":"cebpf4jnsgd1na2vs0mg"},{"bike_id":"dbb85404-7ecb-462a-aeaf-b33114ee5dc0","system_id":"levelo_inurba_marseille","lat":43.28978,"lon":5.37836,"is_reserved":false,"is_disabled":false,"rental_uris":{"android":"levelo://app?vid=dbb85404-7ecb-462a-aeaf-b33114ee5dc0","ios":"levelo://app?vid=dbb85404-7ecb-462a-aeaf-b33114ee5dc0"},"vehicle_type_id":"4","last_reported":1745406506,"current_range_meters":20000,"station_id":"ce4bh9p2rcd13ifvqed0","pricing_plan_id":"cebpf4jnsgd1na2vs0mg"},{"bike_id":"ef7b4785-fa2b-49c3-8f9c-177a53d7e716","system_id":"levelo_inurba_marseille","lat":43.30312,"lon":5.3692,"is_reserved":false,"is_disabled":false,"rental_uris":{"android":"levelo://app?vid=ef7b4785-fa2b-49c3-8f9c-177a53d7e716","ios":"levelo://app?vid=ef7b4785-fa2b-49c3-8f9c-177a53d7e716"},"vehicle_type_id":"4","last_reported":1745406506,"current_range_meters":21600,"station_id":"ce4bgqh2rcd13ifvqc5g","pricing_plan_id":"cebpf4jnsgd1na2vs0mg"},{"bike_id":"cf25d090-02c1-4b08-b533-e4431d8b4cfe","system_id":"levelo_inurba_marseille","lat":43.30792,"lon":5.3813,"is_reserved":false,"is_disabled":false,"rental_uris":{"android":"levelo://app?vid=cf25d090-02c1-4b08-b533-e4431d8b4cfe","ios":"levelo://app?vid=cf25d090-02c1-4b08-b533-e4431d8b4cfe"},"vehicle_type_id":"4","last_reported":1745406506,"current_range_meters":21600,"station_id":"ce4bgt12rcd13ifvqce0","pricing_plan_id":"cebpf4jnsgd1na2vs0mg"},{"bike_id":"a5856b95-9e19-4436-b973-344e5d5dcbd8","system_id":"levelo_inurba_marseille","lat":43.24164,"lon":5.36398,"is_reserved":false,"is_disabled":false,"rental_uris":{"android":"levelo://app?vid=a5856b95-9e19-4436-b973-344e5d5dcbd8","ios":"levelo://app?vid=a5856b95-9e19-4436-b973-344e5d5dcbd8"},"vehicle_type_id":"4","last_reported":1745406506,"current_range_meters":22000,"station_id":"cpo36qri1sfpv3e86is0","pricing_plan_id":"cebpf4jnsgd1na2vs0mg"},{"bike_id":"c9bf68f4-0f37-4fd8-9252-88ae8099086b","system_id":"levelo_inurba_marseille","lat":43.28402,"lon":5.37518,"is_reserved":false,"is_disabled":false,"rental_uris":{"android":"levelo://app?vid=c9bf68f4-0f37-4fd8-9252-88ae8099086b","ios":"levelo://app?vid=c9bf68f4-0f37-4fd8-9252-88ae8099086b"},"vehicle_type_id":"4","last_reported":1745406506,"current_range_meters":24800,"station_id":"ce4bh412rcd13ifvqds0","pricing_plan_id":"cebpf4jnsgd1na2vs0mg"},{"bike_id":"9e16528f-46ab-40a1-91f8-96174a9b3953","system_id":"levelo_inurba_marseille","lat":43.28858,"lon":5.35863,"is_reserved":false,"is_disabled":false,"rental_uris":{"android":"levelo://app?vid=9e16528f-46ab-40a1-91f8-96174a9b3953","ios":"levelo://app?vid=9e16528f-46ab-40a1-91f8-96174a9b3953"},"vehicle_type_id":"4","last_reported":1745406506,"current_range_meters":22000,"station_id":"ce4bhb12rcd13ifvqem0","pricing_plan_id":"cebpf4jnsgd1na2vs0mg"},{"bike_id":"9b8aa999-4fbf-482c-bd34-e6c3983a9ab2","system_id":"levelo_inurba_marseille","lat":43.28421,"lon":5.34989,"is_reserved":false,"is_disabled":false,"rental_uris":{"android":"levelo://app?vid=9b8aa999-4fbf-482c-bd34-e6c3983a9ab2","ios":"levelo://app?vid=9b8aa999-4fbf-482c-bd34-e6c3983a9ab2"},"vehicle_type_id":"4","last_reported":1745406506,"current_range_meters":22000,"station_id":"ce4bhbh2rcd13ifvqepg","pricing_plan_id":"cebpf4jnsgd1na2vs0mg"},{"bike_id":"f451b06f-2496-475d-8ccc-aaee4f2880cc","system_id":"levelo_inurba_marseille","lat":43.30296,"lon":5.36884,"is_reserved":false,"is_disabled":false,"rental_uris":{"android":"levelo://app?vid=f451b06f-2496-475d-8ccc-aaee4f2880cc","ios":"levelo://app?vid=f451b06f-2496-475d-8ccc-aaee4f2880cc"},"vehicle_type_id":"4","last_reported":1745406506,"current_range_meters":22000,"station_id":"ce4bgqh2rcd13ifvqc5g","pricing_plan_id":"cebpf4jnsgd1na2vs0mg"},{"bike_id":"ca401f51-3eba-4b01-9720-659f6205c893","system_id":"levelo_inurba_marseille","lat":43.31223,"lon":5.36865,"is_reserved":false,"is_disabled":false,"rental_uris":{"android":"levelo://app?vid=ca401f51-3eba-4b01-9720-659f6205c893","ios":"levelo://app?vid=ca401f51-3eba-4b01-9720-659f6205c893"},"vehicle_type_id":"4","last_reported":1745406506,"current_range_meters":22400,"station_id":"ce4bgl92rcd13ifvqbq0","pricing_plan_id":"cebpf4jnsgd1na2vs0mg"},{"bike_id":"1f1f8f5a-160c-461e-b05a-583481c1bc08","system_id":"levelo_inurba_marseille","lat":43.25109,"lon":5.40324,"is_reserved":false,"is_disabled":false,"rental_uris":{"android":"levelo://app?vid=1f1f8f5a-160c-461e-b05a-583481c1bc08","ios":"levelo://app?vid=1f1f8f5a-160c-461e-b05a-583481c1bc08"},"vehicle_type_id":"4","last_reported":1745406506,"current_range_meters":22400,"station_id":"ce4bhlh2rcd13ifvqgig","pricing_plan_id":"cebpf4jnsgd1na2vs0mg"},{"bike_id":"e49eed1a-7555-49e7-be27-d9cd2d811f92","system_id":"levelo_inurba_marseille","lat":43.25818,"lon":5.39422,"is_reserved":false,"is_disabled":false,"rental_uris":{"android":"levelo://app?vid=e49eed1a-7555-49e7-be27-d9cd2d811f92","ios":"levelo://app?vid=e49eed1a-7555-49e7-be27-d9cd2d811f92"},"vehicle_type_id":"4","last_reported":1745406506,"current_range_meters":22400,"station_id":"ce4bhip2rcd13ifvqft0","pricing_plan_id":"cebpf4jnsgd1na2vs0mg"},{"bike_id":"5ec99172-d3a6-4384-9d95-730d5f763dad","system_id":"levelo_inurba_marseille","lat":43.29219,"lon":5.36057,"is_reserved":false,"is_disabled":false,"rental_uris":{"android":"levelo://app?vid=5ec99172-d3a6-4384-9d95-730d5f763dad","ios":"levelo://app?vid=5ec99172-d3a6-4384-9d95-730d5f763dad"},"vehicle_type_id":"4","last_reported":1745406506,"current_range_meters":22800,"station_id":"ce4bhbh2rcd13ifvqeqg","pricing_plan_id":"cebpf4jnsgd1na2vs0mg"},{"bike_id":"6a03a0fe-054e-47d1-8a04-29636b1d221a","system_id":"levelo_inurba_marseille","lat":43.2199,"lon":5.34599,"is_reserved":false,"is_disabled":false,"rental_uris":{"android":"levelo://app?vid=6a03a0fe-054e-47d1-8a04-29636b1d221a","ios":"levelo://app?vid=6a03a0fe-054e-47d1-8a04-29636b1d221a"},"vehicle_type_id":"4","last_reported":1745406506,"current_range_meters":22800,"station_id":"","pricing_plan_id":"cebpf4jnsgd1na2vs0mg"},{"bike_id":"7778e39a-4077-43b9-bdc0-3b43caa2923a","system_id":"levelo_inurba_marseille","lat":43.302,"lon":5.38893,"is_reserved":false,"is_disabled":false,"rental_uris":{"android":"levelo://app?vid=7778e39a-4077-43b9-bdc0-3b43caa2923a","ios":"levelo://app?vid=7778e39a-4077-43b9-bdc0-3b43caa2923a"},"vehicle_type_id":"4","last_reported":1745406506,"current_range_meters":22800,"station_id":"","pricing_plan_id":"cebpf4jnsgd1na2vs0mg"},{"bike_id":"d36abb5b-77e6-45b1-adf1-44888c85b6bd","system_id":"levelo_inurba_marseille","lat":43.27564,"lon":5.38427,"is_reserved":false,"is_disabled":false,"rental_uris":{"android":"levelo://app?vid=d36abb5b-77e6-45b1-adf1-44888c85b6bd","ios":"levelo://app?vid=d36abb5b-77e6-45b1-adf1-44888c85b6bd"},"vehicle_type_id":"4","last_reported":1745406506,"current_range_meters":22800,"station_id":"ce4bhh92rcd13ifvqfi0","pricing_plan_id":"cebpf4jnsgd1na2vs0mg"},{"bike_id":"f6e4aae6-f80b-4662-9874-1e1c75d9963d","system_id":"levelo_inurba_marseille","lat":43.3015,"lon":5.39873,"is_reserved":false,"is_disabled":false,"rental_uris":{"android":"levelo://app?vid=f6e4aae6-f80b-4662-9874-1e1c75d9963d","ios":"levelo://app?vid=f6e4aae6-f80b-4662-9874-1e1c75d9963d"},"vehicle_type_id":"4","last_reported":1745406506,"current_range_meters":20000,"station_id":"ce4bh0h2rcd13ifvqd40","pricing_plan_id":"cebpf4jnsgd1na2vs0mg"},{"bike_id":"a09d1f25-50a0-4a39-938f-8708b336d9f8","system_id":"levelo_inurba_marseille","lat":43.33742,"lon":5.3918,"is_reserved":false,"is_disabled":false,"rental_uris":{"android":"levelo://app?vid=a09d1f25-50a0-4a39-938f-8708b336d9f8","ios":"levelo://app?vid=a09d1f25-50a0-4a39-938f-8708b336d9f8"},"vehicle_type_id":"4","last_reported":1745406506,"current_range_meters":22800,"station_id":"ce4bhr92rcd13ifvqhsg","pricing_plan_id":"cebpf4jnsgd1na2vs0mg"},{"bike_id":"9f5e106b-c898-432b-9e23-4035ae8c33a8","system_id":"levelo_inurba_marseille","lat":43.3055,"lon":5.36697,"is_reserved":false,"is_disabled":true,"rental_uris":{"android":"levelo://app?vid=9f5e106b-c898-432b-9e23-4035ae8c33a8","ios":"levelo://app?vid=9f5e106b-c898-432b-9e23-4035ae8c33a8"},"vehicle_type_id":"4","last_reported":1745406506,"current_range_meters":22800,"station_id":"ce4bgrp2rcd13ifvqc9g","pricing_plan_id":"cebpf4jnsgd1na2vs0mg"},{"bike_id":"7a38cd50-7a93-4627-806c-1a69d66aceb3","system_id":"levelo_inurba_marseille","lat":43.30812,"lon":5.43522,"is_reserved":false,"is_disabled":false,"rental_uris":{"android":"levelo://app?vid=7a38cd50-7a93-4627-806c-1a69d66aceb3","ios":"levelo://app?vid=7a38cd50-7a93-4627-806c-1a69d66aceb3"},"vehicle_type_id":"4","last_reported":1745406506,"current_range_meters":22800,"station_id":"ce4bhph2rcd13ifvqheg","pricing_plan_id":"cebpf4jnsgd1na2vs0mg"},{"bike_id":"a3b1a9d2-0170-4398-995b-a8853572e80e","system_id":"levelo_inurba_marseille","lat":43.26565,"lon":5.37316,"is_reserved":false,"is_disabled":false,"rental_uris":{"android":"levelo://app?vid=a3b1a9d2-0170-4398-995b-a8853572e80e","ios":"levelo://app?vid=a3b1a9d2-0170-4398-995b-a8853572e80e"},"vehicle_type_id":"4","last_reported":1745406506,"current_range_meters":22800,"station_id":"ce4bhg12rcd13ifvqf70","pricing_plan_id":"cebpf4jnsgd1na2vs0mg"},{"bike_id":"0315d278-c5cc-4e91-8478-fb72ca83d5a4","system_id":"levelo_inurba_marseille","lat":43.29527,"lon":5.39036,"is_reserved":false,"is_disabled":false,"rental_uris":{"android":"levelo://app?vid=0315d278-c5cc-4e91-8478-fb72ca83d5a4","ios":"levelo://app?vid=0315d278-c5cc-4e91-8478-fb72ca83d5a4"},"vehicle_type_id":"4","last_reported":1745406506,"current_range_meters":22800,"station_id":"ce4bh3p2rcd13ifvqdp0","pricing_plan_id":"cebpf4jnsgd1na2vs0mg"},{"bike_id":"67d250d8-05ec-459c-a12c-6f6771c8dbe1","system_id":"levelo_inurba_marseille","lat":43.32089,"lon":5.36756,"is_reserved":false,"is_disabled":false,"rental_uris":{"android":"levelo://app?vid=67d250d8-05ec-459c-a12c-6f6771c8dbe1","ios":"levelo://app?vid=67d250d8-05ec-459c-a12c-6f6771c8dbe1"},"vehicle_type_id":"4","last_reported":1745406506,"current_range_meters":23200,"station_id":"ce4bhrh2rcd13ifvqhug","pricing_plan_id":"cebpf4jnsgd1na2vs0mg"},{"bike_id":"512f80c4-7bff-470d-80b0-3d3055450dfb","system_id":"levelo_inurba_marseille","lat":43.27053,"lon":5.40265,"is_reserved":false,"is_disabled":false,"rental_uris":{"android":"levelo://app?vid=512f80c4-7bff-470d-80b0-3d3055450dfb","ios":"levelo://app?vid=512f80c4-7bff-470d-80b0-3d3055450dfb"},"vehicle_type_id":"4","last_reported":1745406506,"current_range_meters":23200,"station_id":"ce4bhk92rcd13ifvqgc0","pricing_plan_id":"cebpf4jnsgd1na2vs0mg"},{"bike_id":"73b54c58-6236-44f3-8812-61e251b3b227","system_id":"levelo_inurba_marseille","lat":43.28408,"lon":5.34987,"is_reserved":false,"is_disabled":false,"rental_uris":{"android":"levelo://app?vid=73b54c58-6236-44f3-8812-61e251b3b227","ios":"levelo://app?vid=73b54c58-6236-44f3-8812-61e251b3b227"},"vehicle_type_id":"4","last_reported":1745406506,"current_range_meters":23200,"station_id":"ce4bhbh2rcd13ifvqepg","pricing_plan_id":"cebpf4jnsgd1na2vs0mg"},{"bike_id":"02e842ff-cfa0-41d7-a5f7-90ead8e068af","system_id":"levelo_inurba_marseille","lat":43.29197,"lon":5.39326,"is_reserved":false,"is_disabled":false,"rental_uris":{"android":"levelo://app?vid=02e842ff-cfa0-41d7-a5f7-90ead8e068af","ios":"levelo://app?vid=02e842ff-cfa0-41d7-a5f7-90ead8e068af"},"vehicle_type_id":"4","last_reported":1745406506,"current_range_meters":23200,"station_id":"ce4bh192rcd13ifvqdd0","pricing_plan_id":"cebpf4jnsgd1na2vs0mg"},{"bike_id":"e5d55810-bed0-4e28-b1ad-e5ebe25ed539","system_id":"levelo_inurba_marseille","lat":43.26681,"lon":5.38269,"is_reserved":false,"is_disabled":false,"rental_uris":{"android":"levelo://app?vid=e5d55810-bed0-4e28-b1ad-e5ebe25ed539","ios":"levelo://app?vid=e5d55810-bed0-4e28-b1ad-e5ebe25ed539"},"vehicle_type_id":"4","last_reported":1745406506,"current_range_meters":23200,"station_id":"ce4bhg92rcd13ifvqf90","pricing_plan_id":"cebpf4jnsgd1na2vs0mg"},{"bike_id":"73f40cff-bb71-4b7a-8ad7-f06c69fb0596","system_id":"levelo_inurba_marseille","lat":43.21248,"lon":5.35049,"is_reserved":false,"is_disabled":false,"rental_uris":{"android":"levelo://app?vid=73f40cff-bb71-4b7a-8ad7-f06c69fb0596","ios":"levelo://app?vid=73f40cff-bb71-4b7a-8ad7-f06c69fb0596"},"vehicle_type_id":"4","last_reported":1745406506,"current_range_meters":23200,"station_id":"st_cvj6sg6p6f1abm77japg","pricing_plan_id":"cebpf4jnsgd1na2vs0mg"},{"bike_id":"829c6fcd-db9b-437e-9138-8a1821730e18","system_id":"levelo_inurba_marseille","lat":43.319631,"lon":5.407878,"is_reserved":false,"is_disabled":false,"rental_uris":{"android":"levelo://app?vid=829c6fcd-db9b-437e-9138-8a1821730e18","ios":"levelo://app?vid=829c6fcd-db9b-437e-9138-8a1821730e18"},"vehicle_type_id":"4","last_reported":1745406506,"current_range_meters":23200,"station_id":"ce4bh012rcd13ifvqd00","pricing_plan_id":"cebpf4jnsgd1na2vs0mg"},{"bike_id":"02fa0e4d-1206-436c-9d71-52dcb08e38a3","system_id":"levelo_inurba_marseille","lat":43.27049,"lon":5.40271,"is_reserved":false,"is_disabled":false,"rental_uris":{"android":"levelo://app?vid=02fa0e4d-1206-436c-9d71-52dcb08e38a3","ios":"levelo://app?vid=02fa0e4d-1206-436c-9d71-52dcb08e38a3"},"vehicle_type_id":"4","last_reported":1745406506,"current_range_meters":23200,"station_id":"ce4bhk92rcd13ifvqgc0","pricing_plan_id":"cebpf4jnsgd1na2vs0mg"},{"bike_id":"a385159a-d41c-45e3-a227-b142928de12f","system_id":"levelo_inurba_marseille","lat":43.297117,"lon":5.365751,"is_reserved":false,"is_disabled":false,"rental_uris":{"android":"levelo://app?vid=a385159a-d41c-45e3-a227-b142928de12f","ios":"levelo://app?vid=a385159a-d41c-45e3-a227-b142928de12f"},"vehicle_type_id":"4","last_reported":1745406506,"current_range_meters":22800,"station_id":"ce4bgn12rcd13ifvqbt0","pricing_plan_id":"cebpf4jnsgd1na2vs0mg"},{"bike_id":"30da752e-5450-4da3-965e-773778ce5d7d","system_id":"levelo_inurba_marseille","lat":43.241742,"lon":5.363984,"is_reserved":false,"is_disabled":false,"rental_uris":{"android":"levelo://app?vid=30da752e-5450-4da3-965e-773778ce5d7d","ios":"levelo://app?vid=30da752e-5450-4da3-965e-773778ce5d7d"},"vehicle_type_id":"4","last_reported":1745406506,"current_range_meters":23200,"station_id":"cpo36qri1sfpv3e86is0","pricing_plan_id":"cebpf4jnsgd1na2vs0mg"},{"bike_id":"32f4fde7-f9bb-48cf-850f-4f6df8e3f810","system_id":"levelo_inurba_marseille","lat":43.29851,"lon":5.36271,"is_reserved":false,"is_disabled":false,"rental_uris":{"android":"levelo://app?vid=32f4fde7-f9bb-48cf-850f-4f6df8e3f810","ios":"levelo://app?vid=32f4fde7-f9bb-48cf-850f-4f6df8e3f810"},"vehicle_type_id":"4","last_reported":1745406506,"current_range_meters":23200,"station_id":"ce4bgpp2rcd13ifvqc3g","pricing_plan_id":"cebpf4jnsgd1na2vs0mg"},{"bike_id":"059726cb-7b89-4e13-b17a-f25e1cde181d","system_id":"levelo_inurba_marseille","lat":43.27209,"lon":5.41005,"is_reserved":false,"is_disabled":false,"rental_uris":{"android":"levelo://app?vid=059726cb-7b89-4e13-b17a-f25e1cde181d","ios":"levelo://app?vid=059726cb-7b89-4e13-b17a-f25e1cde181d"},"vehicle_type_id":"4","last_reported":1745406506,"current_range_meters":24000,"station_id":"ce4bhl12rcd13ifvqgf0","pricing_plan_id":"cebpf4jnsgd1na2vs0mg"},{"bike_id":"83706688-f1f8-4fcf-b0d1-e8342c112c11","system_id":"levelo_inurba_marseille","lat":43.21751,"lon":5.34602,"is_reserved":false,"is_disabled":false,"rental_uris":{"android":"levelo://app?vid=83706688-f1f8-4fcf-b0d1-e8342c112c11","ios":"levelo://app?vid=83706688-f1f8-4fcf-b0d1-e8342c112c11"},"vehicle_type_id":"4","last_reported":1745406506,"current_range_meters":24000,"station_id":"st_cvj6r9ubvosntc0bgbag","pricing_plan_id":"cebpf4jnsgd1na2vs0mg"},{"bike_id":"551d446e-37b3-496f-910e-9612f4dd6882","system_id":"levelo_inurba_marseille","lat":43.27442,"lon":5.39408,"is_reserved":false,"is_disabled":true,"rental_uris":{"android":"levelo://app?vid=551d446e-37b3-496f-910e-9612f4dd6882","ios":"levelo://app?vid=551d446e-37b3-496f-910e-9612f4dd6882"},"vehicle_type_id":"4","last_reported":1745406506,"current_range_meters":24000,"station_id":"ce4bhdp2rcd13ifvqf20","pricing_plan_id":"cebpf4jnsgd1na2vs0mg"},{"bike_id":"bad43876-48a1-4e18-9519-1b8c70f438a6","system_id":"levelo_inurba_marseille","lat":43.29717,"lon":5.37638,"is_reserved":false,"is_disabled":false,"rental_uris":{"android":"levelo://app?vid=bad43876-48a1-4e18-9519-1b8c70f438a6","ios":"levelo://app?vid=bad43876-48a1-4e18-9519-1b8c70f438a6"},"vehicle_type_id":"4","last_reported":1745406506,"current_range_meters":24000,"station_id":"ce4bgkh2rcd13ifvqbl0","pricing_plan_id":"cebpf4jnsgd1na2vs0mg"},{"bike_id":"d30d154e-ef25-4771-972d-b7635df4d63c","system_id":"levelo_inurba_marseille","lat":43.26676,"lon":5.38269,"is_reserved":false,"is_disabled":false,"rental_uris":{"android":"levelo://app?vid=d30d154e-ef25-4771-972d-b7635df4d63c","ios":"levelo://app?vid=d30d154e-ef25-4771-972d-b7635df4d63c"},"vehicle_type_id":"4","last_reported":1745406506,"current_range_meters":24000,"station_id":"ce4bhg92rcd13ifvqf90","pricing_plan_id":"cebpf4jnsgd1na2vs0mg"},{"bike_id":"78603bf7-04d6-4d20-aa33-736c1ffd07f0","system_id":"levelo_inurba_marseille","lat":43.32659,"lon":5.40996,"is_reserved":false,"is_disabled":false,"rental_uris":{"android":"levelo://app?vid=78603bf7-04d6-4d20-aa33-736c1ffd07f0","ios":"levelo://app?vid=78603bf7-04d6-4d20-aa33-736c1ffd07f0"},"vehicle_type_id":"4","last_reported":1745406506,"current_range_meters":24000,"station_id":"ce4bhpp2rcd13ifvqhgg","pricing_plan_id":"cebpf4jnsgd1na2vs0mg"},{"bike_id":"0267d9c2-dd60-4f6c-9d59-14262d3dc999","system_id":"levelo_inurba_marseille","lat":43.23189,"lon":5.35554,"is_reserved":false,"is_disabled":false,"rental_uris":{"android":"levelo://app?vid=0267d9c2-dd60-4f6c-9d59-14262d3dc999","ios":"levelo://app?vid=0267d9c2-dd60-4f6c-9d59-14262d3dc999"},"vehicle_type_id":"4","last_reported":1745406506,"current_range_meters":24000,"station_id":"ce4bhu92rcd13ifvqi70","pricing_plan_id":"cebpf4jnsgd1na2vs0mg"},{"bike_id":"535de0cc-5be4-47e5-8ab9-e930657fa55f","system_id":"levelo_inurba_marseille","lat":43.269923,"lon":5.391309,"is_reserved":false,"is_disabled":false,"rental_uris":{"android":"levelo://app?vid=535de0cc-5be4-47e5-8ab9-e930657fa55f","ios":"levelo://app?vid=535de0cc-5be4-47e5-8ab9-e930657fa55f"},"vehicle_type_id":"4","last_reported":1745406506,"current_range_meters":24000,"station_id":"ce4bgn92rcd13ifvqbvg","pricing_plan_id":"cebpf4jnsgd1na2vs0mg"},{"bike_id":"327241a7-d38d-429e-93da-280535d64f0f","system_id":"levelo_inurba_marseille","lat":43.31078,"lon":5.38361,"is_reserved":false,"is_disabled":false,"rental_uris":{"android":"levelo://app?vid=327241a7-d38d-429e-93da-280535d64f0f","ios":"levelo://app?vid=327241a7-d38d-429e-93da-280535d64f0f"},"vehicle_type_id":"4","last_reported":1745406506,"current_range_meters":24000,"station_id":"ce4bgv92rcd13ifvqcr0","pricing_plan_id":"cebpf4jnsgd1na2vs0mg"},{"bike_id":"accaeb10-87ab-47a4-934a-fad9a4475455","system_id":"levelo_inurba_marseille","lat":43.29816,"lon":5.37173,"is_reserved":false,"is_disabled":false,"rental_uris":{"android":"levelo://app?vid=accaeb10-87ab-47a4-934a-fad9a4475455","ios":"levelo://app?vid=accaeb10-87ab-47a4-934a-fad9a4475455"},"vehicle_type_id":"4","last_reported":1745406506,"current_range_meters":24400,"station_id":"","pricing_plan_id":"cebpf4jnsgd1na2vs0mg"},{"bike_id":"f4930378-f29b-40d7-aa0e-a7c709b3fd07","system_id":"levelo_inurba_marseille","lat":43.30554,"lon":5.36701,"is_reserved":false,"is_disabled":false,"rental_uris":{"android":"levelo://app?vid=f4930378-f29b-40d7-aa0e-a7c709b3fd07","ios":"levelo://app?vid=f4930378-f29b-40d7-aa0e-a7c709b3fd07"},"vehicle_type_id":"4","last_reported":1745406506,"current_range_meters":24400,"station_id":"ce4bgrp2rcd13ifvqc9g","pricing_plan_id":"cebpf4jnsgd1na2vs0mg"},{"bike_id":"cf8fd2e2-0207-4ad5-b99d-d4576cf72e7e","system_id":"levelo_inurba_marseille","lat":43.287167,"lon":5.399829,"is_reserved":false,"is_disabled":false,"rental_uris":{"android":"levelo://app?vid=cf8fd2e2-0207-4ad5-b99d-d4576cf72e7e","ios":"levelo://app?vid=cf8fd2e2-0207-4ad5-b99d-d4576cf72e7e"},