{"last_updated":1732150095,"ttl":60,"version":"2.2","data":{"bikes":[{"bike_id":"b071aedb-1c7f-4beb-b6b0-0fdd8399e33d","system_id":"levelo_inurba_marseille","lat":43.29791,"lon":5.39351,"is_reserved":false,"is_disabled":false,"rental_uris":{"android":"levelo://app?vid=b071aedb-1c7f-4beb-b6b0-0fdd8399e33d","ios":"levelo://app?vid=b071aedb-1c7f-4beb-b6b0-0fdd8399e33d"},"vehicle_type_id":"4","last_reported":1732150095,"current_range_meters":10000,"station_id":"chh1huq6cuj3fo74tm60","pricing_plan_id":"cebpf4jnsgd1na2vs0mg"},{"bike_id":"ff2b0804-ca86-4a45-98ac-4f9e9edc57e6","system_id":"levelo_inurba_marseille","lat":43.32286,"lon":5.3827,"is_reserved":false,"is_disabled":false,"rental_uris":{"android":"levelo://app?vid=ff2b0804-ca86-4a45-98ac-4f9e9edc57e6","ios":"levelo://app?vid=ff2b0804-ca86-4a45-98ac-4f9e9edc57e6"},"vehicle_type_id":"4","last_reported":1732150095,"current_range_meters":37600,"station_id":"ce4bhr12rcd13ifvqhqg","pricing_plan_id":"cebpf4jnsgd1na2vs0mg"},{"bike_id":"eb1fd276-641d-4de0-bfa8-6c1377f03001","system_id":"levelo_inurba_marseille","lat":43.24667,"lon":5.38153,"is_reserved":false,"is_disabled":false,"rental_uris":{"android":"levelo://app?vid=eb1fd276-641d-4de0-bfa8-6c1377f03001","ios":"levelo://app?vid=eb1fd276-641d-4de0-bfa8-6c1377f03001"},"vehicle_type_id":"4","last_reported":1732150095,"current_range_meters":10000,"station_id":"ce4bhih2rcd13ifvqfr0","pricing_plan_id":"cebpf4jnsgd1na2vs0mg"},{"bike_id":"1c795457-ec2c-4a4b-a69c-fc6b1ce6728d","system_id":"levelo_inurba_marseille","lat":43.27615,"lon":5.36115,"is_reserved":false,"is_disabled":false,"rental_uris":{"android":"levelo://app?vid=1c795457-ec2c-4a4b-a69c-fc6b1ce6728d","ios":"levelo://app?vid=1c795457-ec2c-4a4b-a69c-fc6b1ce6728d"},"vehicle_type_id":"4","last_reported":1732150095,"current_range_meters":28000,"station_id":"ce4bgj92rcd13ifvqbe0","pricing_plan_id":"cebpf4jnsgd1na2vs0mg"},{"bike_id":"3d4f4541-0ce5-44c4-b89f-9a920af4dfeb","system_id":"levelo_inurba_marseille","lat":43.27319,"lon":5.39102,"is_reserved":false,"is_disabled":true,"rental_uris":{"android":"levelo://app?vid=3d4f4541-0ce5-44c4-b89f-9a920af4dfeb","ios":"levelo://app?vid=3d4f4541-0ce5-44c4-b89f-9a920af4dfeb"},"vehicle_type_id":"4","last_reported":1732150095,"current_range_meters":28000,"station_id":"ce4bhgp2rcd13ifvqfe0","pricing_plan_id":"cebpf4jnsgd1na2vs0mg"},{"bike_id":"d2581040-8772-4d35-a569-af5f240334a7","system_id":"levelo_inurba_marseille","lat":43.26951,"lon":5.40239,"is_reserved":false,"is_disabled":true,"rental_uris":{"android":"levelo://app?vid=d2581040-8772-4d35-a569-af5f240334a7","ios":"levelo://app?vid=d2581040-8772-4d35-a569-af5f240334a7"},"vehicle_type_id":"4","last_reported":1732150095,"current_range_meters":16800,"station_id":"cjm6bp8fraef2m0cb0m0","pricing_plan_id":"cebpf4jnsgd1na2vs0mg"},{"bike_id":"0c689a89-d16c-4aca-b0cd-f0ea50835a74","system_id":"levelo_inurba_marseille","lat":43.31713,"lon":5.37762,"is_reserved":false,"is_disabled":false,"rental_uris":{"android":"levelo://app?vid=0c689a89-d16c-4aca-b0cd-f0ea50835a74","ios":"levelo://app?vid=0c689a89-d16c-4aca-b0cd-f0ea50835a74"},"vehicle_type_id":"4","last_reported":1732150095,"current_range_meters":31200,"station_id":"ce4bgth2rcd13ifvqch0","pricing_plan_id":"cebpf4jnsgd1na2vs0mg"},{"bike_id":"be97b7ff-a776-4abb-98b4-c9cc68de032d","system_id":"levelo_inurba_marseille","lat":43.28151,"lon":5.4265,"is_reserved":false,"is_disabled":false,"rental_uris":{"android":"levelo://app?vid=be97b7ff-a776-4abb-98b4-c9cc68de032d","ios":"levelo://app?vid=be97b7ff-a776-4abb-98b4-c9cc68de032d"},"vehicle_type_id":"4","last_reported":1732150095,"current_range_meters":33200,"station_id":"ce4bhnh2rcd13ifvqgug","pricing_plan_id":"cebpf4jnsgd1na2vs0mg"},{"bike_id":"faaa07fe-d059-4c7c-8d3a-4406c48468a3","system_id":"levelo_inurba_marseille","lat":43.25105,"lon":5.40335,"is_reserved":false,"is_disabled":false,"rental_uris":{"android":"levelo://app?vid=faaa07fe-d059-4c7c-8d3a-4406c48468a3","ios":"levelo://app?vid=faaa07fe-d059-4c7c-8d3a-4406c48468a3"},"vehicle_type_id":"4","last_reported":1732150095,"current_range_meters":38800,"station_id":"ce4bhlh2rcd13ifvqgig","pricing_plan_id":"cebpf4jnsgd1na2vs0mg"},{"bike_id":"263f61fb-2ca9-4ecd-8840-dcdc19618503","system_id":"levelo_inurba_marseille","lat":43.28105,"lon":5.37845,"is_reserved":false,"is_disabled":false,"rental_uris":{"android":"levelo://app?vid=263f61fb-2ca9-4ecd-8840-dcdc19618503","ios":"levelo://app?vid=263f61fb-2ca9-4ecd-8840-dcdc19618503"},"vehicle_type_id":"4","last_reported":1732150095,"current_range_meters":38800,"station_id":"ce4bha12rcd13ifvqee0","pricing_plan_id":"cebpf4jnsgd1na2vs0mg"},{"bike_id":"721541a1-1c3a-4768-ac06-9be42f99d8d1","system_id":"levelo_inurba_marseille","lat":43.25108,"lon":5.40326,"is_reserved":false,"is_disabled":false,"rental_uris":{"android":"levelo://app?vid=721541a1-1c3a-4768-ac06-9be42f99d8d1","ios":"levelo://app?vid=721541a1-1c3a-4768-ac06-9be42f99d8d1"},"vehicle_type_id":"4","last_reported":1732150095,"current_range_meters":23200,"station_id":"ce4bhlh2rcd13ifvqgig","pricing_plan_id":"cebpf4jnsgd1na2vs0mg"},{"bike_id":"1f203897-1164-43c5-8a36-2a35df13aaf6","system_id":"levelo_inurba_marseille","lat":43.23149,"lon":5.43716,"is_reserved":false,"is_disabled":false,"rental_uris":{"android":"levelo://app?vid=1f203897-1164-43c5-8a36-2a35df13aaf6","ios":"levelo://app?vid=1f203897-1164-43c5-8a36-2a35df13aaf6"},"vehicle_type_id":"4","last_reported":1732150095,"current_range_meters":38000,"station_id":"ce4bhmp2rcd13ifvqgog","pricing_plan_id":"cebpf4jnsgd1na2vs0mg"},{"bike_id":"4be3997b-0298-4a92-a78f-ce2230a4e3ad","system_id":"levelo_inurba_marseille","lat":43.29899,"lon":5.38132,"is_reserved":false,"is_disabled":true,"rental_uris":{"android":"levelo://app?vid=4be3997b-0298-4a92-a78f-ce2230a4e3ad","ios":"levelo://app?vid=4be3997b-0298-4a92-a78f-ce2230a4e3ad"},"vehicle_type_id":"4","last_reported":1732150095,"current_range_meters":36800,"station_id":"ce4bgj12rcd13ifvqbc0","pricing_plan_id":"cebpf4jnsgd1na2vs0mg"},{"bike_id":"efa3445d-2a68-4f6c-a741-070af9897f81","system_id":"levelo_inurba_marseille","lat":43.25868,"lon":5.39898,"is_reserved":false,"is_disabled":false,"rental_uris":{"android":"levelo://app?vid=efa3445d-2a68-4f6c-a741-070af9897f81","ios":"levelo://app?vid=efa3445d-2a68-4f6c-a741-070af9897f81"},"vehicle_type_id":"4","last_reported":1732150095,"current_range_meters":38800,"station_id":"ce4bhl92rcd13ifvqghg","pricing_plan_id":"cebpf4jnsgd1na2vs0mg"},{"bike_id":"5b2720b4-438a-44c2-82eb-fa077c0f2800","system_id":"levelo_inurba_marseille","lat":43.27911,"lon":5.38013,"is_reserved":false,"is_disabled":false,"rental_uris":{"android":"levelo://app?vid=5b2720b4-438a-44c2-82eb-fa077c0f2800","ios":"levelo://app?vid=5b2720b4-438a-44c2-82eb-fa077c0f2800"},"vehicle_type_id":"4","last_reported":1732150095,"current_range_meters":38400,"station_id":"ce4bhf92rcd13ifvqf50","pricing_plan_id":"cebpf4jnsgd1na2vs0mg"},{"bike_id":"730321d2-de66-475f-920a-cd577dc02cf8","system_id":"levelo_inurba_marseille","lat":43.31752,"lon":5.39031,"is_reserved":false,"is_disabled":false,"rental_uris":{"android":"levelo://app?vid=730321d2-de66-475f-920a-cd577dc02cf8","ios":"levelo://app?vid=730321d2-de66-475f-920a-cd577dc02cf8"},"vehicle_type_id":"4","last_reported":1732150095,"current_range_meters":30000,"station_id":"ce4bhqp2rcd13ifvqhng","pricing_plan_id":"cebpf4jnsgd1na2vs0mg"},{"bike_id":"edacc0c1-f61b-4cea-8cec-ede526e0bc8f","system_id":"levelo_inurba_marseille","lat":43.28663,"lon":5.36345,"is_reserved":false,"is_disabled":false,"rental_uris":{"android":"levelo://app?vid=edacc0c1-f61b-4cea-8cec-ede526e0bc8f","ios":"levelo://app?vid=edacc0c1-f61b-4cea-8cec-ede526e0bc8f"},"vehicle_type_id":"4","last_reported":1732150095,"current_range_meters":32000,"station_id":"ce4bhah2rcd13ifvqej0","pricing_plan_id":"cebpf4jnsgd1na2vs0mg"},{"bike_id":"5e7cc4aa-c960-4053-ba9b-e89765d359da","system_id":"levelo_inurba_marseille","lat":43.29895,"lon":5.39751,"is_reserved":false,"is_disabled":false,"rental_uris":{"android":"levelo://app?vid=5e7cc4aa-c960-4053-ba9b-e89765d359da","ios":"levelo://app?vid=5e7cc4aa-c960-4053-ba9b-e89765d359da"},"vehicle_type_id":"4","last_reported":1732150095,"current_range_meters":14800,"station_id":"ce4bh0h2rcd13ifvqd50","pricing_plan_id":"cebpf4jnsgd1na2vs0mg"},{"bike_id":"3bc9abd9-77f7-49bd-a3af-0cd768824331","system_id":"levelo_inurba_marseille","lat":43.2984,"lon":5.39165,"is_reserved":false,"is_disabled":false,"rental_uris":{"android":"levelo://app?vid=3bc9abd9-77f7-49bd-a3af-0cd768824331","ios":"levelo://app?vid=3bc9abd9-77f7-49bd-a3af-0cd768824331"},"vehicle_type_id":"4","last_reported":1732150095,"current_range_meters":9600,"station_id":"ce4bh392rcd13ifvqdl0","pricing_plan_id":"cebpf4jnsgd1na2vs0mg"},{"bike_id":"aaa68104-60d6-454b-9438-4e38b46ffb6c","system_id":"levelo_inurba_marseille","lat":43.308155,"lon":5.370578,"is_reserved":false,"is_disabled":false,"rental_uris":{"android":"levelo://app?vid=aaa68104-60d6-454b-9438-4e38b46ffb6c","ios":"levelo://app?vid=aaa68104-60d6-454b-9438-4e38b46ffb6c"},"vehicle_type_id":"4","last_reported":1732150095,"current_range_meters":20000,"station_id":"","pricing_plan_id":"cebpf4jnsgd1na2vs0mg"},{"bike_id":"9a140d2e-01e1-4f4c-84ca-667a7242358a","system_id":"levelo_inurba_marseille","lat":43.33026,"lon":5.39037,"is_reserved":false,"is_disabled":false,"rental_uris":{"android":"levelo://app?vid=9a140d2e-01e1-4f4c-84ca-667a7242358a","ios":"levelo://app?vid=9a140d2e-01e1-4f4c-84ca-667a7242358a"},"vehicle_type_id":"4","last_reported":1732150095,"current_range_meters":38800,"station_id":"ce4bhr92rcd13ifvqhrg","pricing_plan_id":"cebpf4jnsgd1na2vs0mg"},{"bike_id":"ae330a1c-f873-4a47-a9b5-1d31d7074080","system_id":"levelo_inurba_marseille","lat":43.317074,"lon":5.377574,"is_reserved":false,"is_disabled":false,"rental_uris":{"android":"levelo://app?vid=ae330a1c-f873-4a47-a9b5-1d31d7074080","ios":"levelo://app?vid=ae330a1c-f873-4a47-a9b5-1d31d7074080"},"vehicle_type_id":"4","last_reported":1732150095,"current_range_meters":17600,"station_id":"ce4bgth2rcd13ifvqch0","pricing_plan_id":"cebpf4jnsgd1na2vs0mg"},{"bike_id":"d2321b4c-ae3a-4b43-8bcd-12cb7984481d","system_id":"levelo_inurba_marseille","lat":43.30761,"lon":5.37032,"is_reserved":false,"is_disabled":false,"rental_uris":{"android":"levelo://app?vid=d2321b4c-ae3a-4b43-8bcd-12cb7984481d","ios":"levelo://app?vid=d2321b4c-ae3a-4b43-8bcd-12cb7984481d"},"vehicle_type_id":"4","last_reported":1732150095,"current_range_meters":26000,"station_id":"","pricing_plan_id":"cebpf4jnsgd1na2vs0mg"},{"bike_id":"0e1f739f-b14b-40e5-9fa4-2a5ffd4939f0","system_id":"levelo_inurba_marseille","lat":43.29785,"lon":5.39337,"is_reserved":false,"is_disabled":false,"rental_uris":{"android":"levelo://app?vid=0e1f739f-b14b-40e5-9fa4-2a5ffd4939f0","ios":"levelo://app?vid=0e1f739f-b14b-40e5-9fa4-2a5ffd4939f0"},"vehicle_type_id":"4","last_reported":1732150095,"current_range_meters":38800,"station_id":"chh1huq6cuj3fo74tm60","pricing_plan_id":"cebpf4jnsgd1na2vs0mg"},{"bike_id":"bba6d091-61aa-40e6-8fa2-73310e975759","system_id":"levelo_inurba_marseille","lat":43.24655,"lon":5.38156,"is_reserved":false,"is_disabled":true,"rental_uris":{"android":"levelo://app?vid=bba6d091-61aa-40e6-8fa2-73310e975759","ios":"levelo://app?vid=bba6d091-61aa-40e6-8fa2-73310e975759"},"vehicle_type_id":"4","last_reported":1732150095,"current_range_meters":0,"station_id":"","pricing_plan_id":"cebpf4jnsgd1na2vs0mg"},{"bike_id":"c13375de-94cd-4b76-86e1-225efd43cccd","system_id":"levelo_inurba_marseille","lat":43.25721,"lon":5.41113,"is_reserved":false,"is_disabled":false,"rental_uris":{"android":"levelo://app?vid=c13375de-94cd-4b76-86e1-225efd43cccd","ios":"levelo://app?vid=c13375de-94cd-4b76-86e1-225efd43cccd"},"vehicle_type_id":"4","last_reported":1732150095,"current_range_meters":32800,"station_id":"ce4bhkp2rcd13ifvqgd0","pricing_plan_id":"cebpf4jnsgd1na2vs0mg"},{"bike_id":"1a2b45b6-17d7-4592-8140-142385f04b6a","system_id":"levelo_inurba_marseille","lat":43.25088,"lon":5.3952,"is_reserved":false,"is_disabled":false,"rental_uris":{"android":"levelo://app?vid=1a2b45b6-17d7-4592-8140-142385f04b6a","ios":"levelo://app?vid=1a2b45b6-17d7-4592-8140-142385f04b6a"},"vehicle_type_id":"4","last_reported":1732150095,"current_range_meters":9200,"station_id":"ce4bhm12rcd13ifvqgkg","pricing_plan_id":"cebpf4jnsgd1na2vs0mg"},{"bike_id":"e967eb4b-c7fd-46ed-ba49-56ab01f92379","system_id":"levelo_inurba_marseille","lat":43.30652,"lon":5.40084,"is_reserved":false,"is_disabled":false,"rental_uris":{"android":"levelo://app?vid=e967eb4b-c7fd-46ed-ba49-56ab01f92379","ios":"levelo://app?vid=e967eb4b-c7fd-46ed-ba49-56ab01f92379"},"vehicle_type_id":"4","last_reported":1732150095,"current_range_meters":20400,"station_id":"ce4bh112rcd13ifvqda0","pricing_plan_id":"cebpf4jnsgd1na2vs0mg"},{"bike_id":"a8ace031-e725-4f62-9512-9d46cfb2ecd9","system_id":"levelo_inurba_marseille","lat":43.280363,"lon":5.369514,"is_reserved":false,"is_disabled":false,"rental_uris":{"android":"levelo://app?vid=a8ace031-e725-4f62-9512-9d46cfb2ecd9","ios":"levelo://app?vid=a8ace031-e725-4f62-9512-9d46cfb2ecd9"},"vehicle_type_id":"4","last_reported":1732150095,"current_range_meters":38400,"station_id":"ce4bha12rcd13ifvqef0","pricing_plan_id":"cebpf4jnsgd1na2vs0mg"},{"bike_id":"5c3000a0-a190-4007-a723-aa2707fd1ce3","system_id":"levelo_inurba_marseille","lat":43.2294,"lon":5.35375,"is_reserved":false,"is_disabled":false,"rental_uris":{"android":"levelo://app?vid=5c3000a0-a190-4007-a723-aa2707fd1ce3","ios":"levelo://app?vid=5c3000a0-a190-4007-a723-aa2707fd1ce3"},"vehicle_type_id":"4","last_reported":1732150095,"current_range_meters":38800,"station_id":"cpo3532slgdg3j2ikp40","pricing_plan_id":"cebpf4jnsgd1na2vs0mg"},{"bike_id":"9ae0011f-8548-46a1-a97d-d405c4c0edf0","system_id":"levelo_inurba_marseille","lat":43.28459,"lon":5.35884,"is_reserved":false,"is_disabled":false,"rental_uris":{"android":"levelo://app?vid=9ae0011f-8548-46a1-a97d-d405c4c0edf0","ios":"levelo://app?vid=9ae0011f-8548-46a1-a97d-d405c4c0edf0"},"vehicle_type_id":"4","last_reported":1732150095,"current_range_meters":30400,"station_id":"ce4bhah2rcd13ifvqei0","pricing_plan_id":"cebpf4jnsgd1na2vs0mg"},{"bike_id":"0db716e9-d60f-4974-92f5-d15dd03eec5b","system_id":"levelo_inurba_marseille","lat":43.27945,"lon":5.41042,"is_reserved":false,"is_disabled":false,"rental_uris":{"android":"levelo://app?vid=0db716e9-d60f-4974-92f5-d15dd03eec5b","ios":"levelo://app?vid=0db716e9-d60f-4974-92f5-d15dd03eec5b"},"vehicle_type_id":"4","last_reported":1732150095,"current_range_meters":30000,"station_id":"ce4bhnp2rcd13ifvqh0g","pricing_plan_id":"cebpf4jnsgd1na2vs0mg"},{"bike_id":"ecaee357-99b9-424d-91f8-f69785085b19","system_id":"levelo_inurba_marseille","lat":43.31485,"lon":5.373,"is_reserved":false,"is_disabled":false,"rental_uris":{"android":"levelo://app?vid=ecaee357-99b9-424d-91f8-f69785085b19","ios":"levelo://app?vid=ecaee357-99b9-424d-91f8-f69785085b19"},"vehicle_type_id":"4","last_reported":1732150095,"current_range_meters":36400,"station_id":"ce4bgt12rcd13ifvqcd0","pricing_plan_id":"cebpf4jnsgd1na2vs0mg"},{"bike_id":"dbd6323b-fd3a-4237-8698-3fa905215606","system_id":"levelo_inurba_marseille","lat":43.32341,"lon":5.40624,"is_reserved":false,"is_disabled":false,"rental_uris":{"android":"levelo://app?vid=dbd6323b-fd3a-4237-8698-3fa905215606","ios":"levelo://app?vid=dbd6323b-fd3a-4237-8698-3fa905215606"},"vehicle_type_id":"4","last_reported":1732150095,"current_range_meters":11200,"station_id":"ce4bhq92rcd13ifvqhjg","pricing_plan_id":"cebpf4jnsgd1na2vs0mg"},{"bike_id":"3f99adc2-ed02-4869-b23e-487905831ced","system_id":"levelo_inurba_marseille","lat":43.28456,"lon":5.35891,"is_reserved":false,"is_disabled":false,"rental_uris":{"android":"levelo://app?vid=3f99adc2-ed02-4869-b23e-487905831ced","ios":"levelo://app?vid=3f99adc2-ed02-4869-b23e-487905831ced"},"vehicle_type_id":"4","last_reported":1732150095,"current_range_meters":17600,"station_id":"ce4bhah2rcd13ifvqei0","pricing_plan_id":"cebpf4jnsgd1na2vs0mg"},{"bike_id":"877231b4-6ece-4120-aa0c-f735430aab6f","system_id":"levelo_inurba_marseille","lat":43.28845,"lon":5.39296,"is_reserved":false,"is_disabled":false,"rental_uris":{"android":"levelo://app?vid=877231b4-6ece-4120-aa0c-f735430aab6f","ios":"levelo://app?vid=877231b4-6ece-4120-aa0c-f735430aab6f"},"vehicle_type_id":"4","last_reported":1732150095,"current_range_meters":24800,"station_id":"ce4bh2p2rcd13ifvqdi0","pricing_plan_id":"cebpf4jnsgd1na2vs0mg"},{"bike_id":"b37abfff-172d-463d-8336-b0f3f5b533c6","system_id":"levelo_inurba_marseille","lat":43.30294,"lon":5.36907,"is_reserved":false,"is_disabled":false,"rental_uris":{"android":"levelo://app?vid=b37abfff-172d-463d-8336-b0f3f5b533c6","ios":"levelo://app?vid=b37abfff-172d-463d-8336-b0f3f5b533c6"},"vehicle_type_id":"4","last_reported":1732150095,"current_range_meters":29600,"station_id":"ce4bgqh2rcd13ifvqc5g","pricing_plan_id":"cebpf4jnsgd1na2vs0mg"},{"bike_id":"6e275372-0245-4d29-bf20-57c4ed148b5a","system_id":"levelo_inurba_marseille","lat":43.2994,"lon":5.36536,"is_reserved":false,"is_disabled":false,"rental_uris":{"android":"levelo://app?vid=6e275372-0245-4d29-bf20-57c4ed148b5a","ios":"levelo://app?vid=6e275372-0245-4d29-bf20-57c4ed148b5a"},"vehicle_type_id":"4","last_reported":1732150095,"current_range_meters":32400,"station_id":"ce4bgm92rcd13ifvqbr0","pricing_plan_id":"cebpf4jnsgd1na2vs0mg"},{"bike_id":"f1a5529f-d308-4bb7-8ccd-2d79295e5b55","system_id":"levelo_inurba_marseille","lat":43.25569,"lon":5.38238,"is_reserved":false,"is_disabled":false,"rental_uris":{"android":"levelo://app?vid=f1a5529f-d308-4bb7-8ccd-2d79295e5b55","ios":"levelo://app?vid=f1a5529f-d308-4bb7-8ccd-2d79295e5b55"},"vehicle_type_id":"4","last_reported":1732150095,"current_range_meters":38400,"station_id":"ce4bhih2rcd13ifvqfs0","pricing_plan_id":"cebpf4jnsgd1na2vs0mg"},{"bike_id":"c170e5f2-638f-4d3b-b697-da6a6991da60","system_id":"levelo_inurba_marseille","lat":43.298717,"lon":5.389034,"is_reserved":false,"is_disabled":false,"rental_uris":{"android":"levelo://app?vid=c170e5f2-638f-4d3b-b697-da6a6991da60","ios":"levelo://app?vid=c170e5f2-638f-4d3b-b697-da6a6991da60"},"vehicle_type_id":"4","last_reported":1732150095,"current_range_meters":38800,"station_id":"ce4bh392rcd13ifvqdl0","pricing_plan_id":"cebpf4jnsgd1na2vs0mg"},{"bike_id":"152509b7-c859-430c-8217-3faa1ae81c43","system_id":"levelo_inurba_marseille","lat":43.30416,"lon":5.41292,"is_reserved":false,"is_disabled":false,"rental_uris":{"android":"levelo://app?vid=152509b7-c859-430c-8217-3faa1ae81c43","ios":"levelo://app?vid=152509b7-c859-430c-8217-3faa1ae81c43"},"vehicle_type_id":"4","last_reported":1732150095,"current_range_meters":33600,"station_id":"ce4bhop2rcd13ifvqh8g","pricing_plan_id":"cebpf4jnsgd1na2vs0mg"},{"bike_id":"1cd0daee-d68a-4e66-9883-fbe67fd8260f","system_id":"levelo_inurba_marseille","lat":43.30586,"lon":5.37124,"is_reserved":false,"is_disabled":true,"rental_uris":{"android":"levelo://app?vid=1cd0daee-d68a-4e66-9883-fbe67fd8260f","ios":"levelo://app?vid=1cd0daee-d68a-4e66-9883-fbe67fd8260f"},"vehicle_type_id":"4","last_reported":1732150095,"current_range_meters":0,"station_id":"","pricing_plan_id":"cebpf4jnsgd1na2vs0mg"},{"bike_id":"bcc51200-1cbd-410c-a87b-0f7f739a4425","system_id":"levelo_inurba_marseille","lat":43.30607,"lon":5.37219,"is_reserved":false,"is_disabled":false,"rental_uris":{"android":"levelo://app?vid=bcc51200-1cbd-410c-a87b-0f7f739a4425","ios":"levelo://app?vid=bcc51200-1cbd-410c-a87b-0f7f739a4425"},"vehicle_type_id":"4","last_reported":1732150095,"current_range_meters":33600,"station_id":"ce4bgqh2rcd13ifvqc4g","pricing_plan_id":"cebpf4jnsgd1na2vs0mg"},{"bike_id":"772ce743-8958-4198-b3ba-b6e0d96fa296","system_id":"levelo_inurba_marseille","lat":43.2417,"lon":5.36405,"is_reserved":false,"is_disabled":false,"rental_uris":{"android":"levelo://app?vid=772ce743-8958-4198-b3ba-b6e0d96fa296","ios":"levelo://app?vid=772ce743-8958-4198-b3ba-b6e0d96fa296"},"vehicle_type_id":"4","last_reported":1732150095,"current_range_meters":8400,"station_id":"cpo36qri1sfpv3e86is0","pricing_plan_id":"cebpf4jnsgd1na2vs0mg"},{"bike_id":"883fc289-b7e6-454e-81d6-983e127f497f","system_id":"levelo_inurba_marseille","lat":43.27602,"lon":5.38452,"is_reserved":false,"is_disabled":false,"rental_uris":{"android":"levelo://app?vid=883fc289-b7e6-454e-81d6-983e127f497f","ios":"levelo://app?vid=883fc289-b7e6-454e-81d6-983e127f497f"},"vehicle_type_id":"4","last_reported":1732150095,"current_range_meters":19200,"station_id":"ce4bhh92rcd13ifvqfi0","pricing_plan_id":"cebpf4jnsgd1na2vs0mg"},{"bike_id":"2a81cbdb-97b5-46f3-9e50-9c25319002bf","system_id":"levelo_inurba_marseille","lat":43.28151,"lon":5.42647,"is_reserved":false,"is_disabled":false,"rental_uris":{"android":"levelo://app?vid=2a81cbdb-97b5-46f3-9e50-9c25319002bf","ios":"levelo://app?vid=2a81cbdb-97b5-46f3-9e50-9c25319002bf"},"vehicle_type_id":"4","last_reported":1732150095,"current_range_meters":30800,"station_id":"ce4bhnh2rcd13ifvqgug","pricing_plan_id":"cebpf4jnsgd1na2vs0mg"},{"bike_id":"597cb1c5-c680-49ef-9a1a-84a53b157037","system_id":"levelo_inurba_marseille","lat":43.32372,"lon":5.38887,"is_reserved":false,"is_disabled":false,"rental_uris":{"android":"levelo://app?vid=597cb1c5-c680-49ef-9a1a-84a53b157037","ios":"levelo://app?vid=597cb1c5-c680-49ef-9a1a-84a53b157037"},"vehicle_type_id":"4","last_reported":1732150095,"current_range_meters":20000,"station_id":"ce4bhqp2rcd13ifvqhog","pricing_plan_id":"cebpf4jnsgd1na2vs0mg"},{"bike_id":"663a436d-e5d4-40a5-9343-b72b3b5f024a","system_id":"levelo_inurba_marseille","lat":43.31701,"lon":5.40478,"is_reserved":false,"is_disabled":false,"rental_uris":{"android":"levelo://app?vid=663a436d-e5d4-40a5-9343-b72b3b5f024a","ios":"levelo://app?vid=663a436d-e5d4-40a5-9343-b72b3b5f024a"},"vehicle_type_id":"4","last_reported":1732150095,"current_range_meters":34800,"station_id":"ce4bh012rcd13ifvqd00","pricing_plan_id":"cebpf4jnsgd1na2vs0mg"},{"bike_id":"60c34020-75ce-42d7-9428-1c8a34ace000","system_id":"levelo_inurba_marseille","lat":43.29261,"lon":5.40909,"is_reserved":false,"is_disabled":false,"rental_uris":{"android":"levelo://app?vid=60c34020-75ce-42d7-9428-1c8a34ace000","ios":"levelo://app?vid=60c34020-75ce-42d7-9428-1c8a34ace000"},"vehicle_type_id":"4","last_reported":1732150095,"current_range_meters":38800,"station_id":"ce4bh192rcd13ifvqdc0","pricing_plan_id":"cebpf4jnsgd1na2vs0mg"},{"bike_id":"05286363-317d-4e5a-bd27-dc5666b9628b","system_id":"levelo_inurba_marseille","lat":43.24668,"lon":5.38169,"is_reserved":false,"is_disabled":false,"rental_uris":{"android":"levelo://app?vid=05286363-317d-4e5a-bd27-dc5666b9628b","ios":"levelo://app?vid=05286363-317d-4e5a-bd27-dc5666b9628b"},"vehicle_type_id":"4","last_reported":1732150095,"current_range_meters":38000,"station_id":"ce4bhih2rcd13ifvqfr0","pricing_plan_id":"cebpf4jnsgd1na2vs0mg"},{"bike_id":"e7a31be6-73fd-40e5-943d-027798b98a9d","system_id":"levelo_inurba_marseille","lat":43.26811,"lon":5.4027,"is_reserved":false,"is_disabled":false,"rental_uris":{"android":"levelo://app?vid=e7a31be6-73fd-40e5-943d-027798b98a9d","ios":"levelo://app?vid=e7a31be6-73fd-40e5-943d-027798b98a9d"},"vehicle_type_id":"4","last_reported":1732150095,"current_range_meters":34000,"station_id":"ce501612rcd8frsf0b60","pricing_plan_id":"cebpf4jnsgd1na2vs0mg"},{"bike_id":"c8e78444-aed0-42c2-bd60-bd5ebc177c5c","system_id":"levelo_inurba_marseille","lat":43.299405,"lon":5.36542,"is_reserved":false,"is_disabled":true,"rental_uris":{"android":"levelo://app?vid=c8e78444-aed0-42c2-bd60-bd5ebc177c5c","ios":"levelo://app?vid=c8e78444-aed0-42c2-bd60-bd5ebc177c5c"},"vehicle_type_id":"4","last_reported":1732150095,"current_range_meters":26000,"station_id":"ce4bgm92rcd13ifvqbr0","pricing_plan_id":"cebpf4jnsgd1na2vs0mg"},{"bike_id":"b7328970-495f-4450-bcf3-b21c56564355","system_id":"levelo_inurba_marseille","lat":43.3153,"lon":5.38033,"is_reserved":false,"is_disabled":false,"rental_uris":{"android":"levelo://app?vid=b7328970-495f-4450-bcf3-b21c56564355","ios":"levelo://app?vid=b7328970-495f-4450-bcf3-b21c56564355"},"vehicle_type_id":"4","last_reported":1732150095,"current_range_meters":28400,"station_id":"ce4bhsp2rcd13ifvqi50","pricing_plan_id":"cebpf4jnsgd1na2vs0mg"},{"bike_id":"f09cdb3d-8a1f-403c-82ae-b8d4d9bad676","system_id":"levelo_inurba_marseille","lat":43.29885,"lon":5.39741,"is_reserved":false,"is_disabled":false,"rental_uris":{"android":"levelo://app?vid=f09cdb3d-8a1f-403c-82ae-b8d4d9bad676","ios":"levelo://app?vid=f09cdb3d-8a1f-403c-82ae-b8d4d9bad676"},"vehicle_type_id":"4","last_reported":1732150095,"current_range_meters":38400,"station_id":"ce4bh0h2rcd13ifvqd50","pricing_plan_id":"cebpf4jnsgd1na2vs0mg"},{"bike_id":"39530ef9-d541-47f8-836c-80e4543f4d51","system_id":"levelo_inurba_marseille","lat":43.29752,"lon":5.37661,"is_reserved":false,"is_disabled":false,"rental_uris":{"android":"levelo://app?vid=39530ef9-d541-47f8-836c-80e4543f4d51","ios":"levelo://app?vid=39530ef9-d541-47f8-836c-80e4543f4d51"},"vehicle_type_id":"4","last_reported":1732150095,"current_range_meters":37600,"station_id":"","pricing_plan_id":"cebpf4jnsgd1na2vs0mg"},{"bike_id":"44d2e2eb-430a-48f9-bf65-3c867b3108be","system_id":"levelo_inurba_marseille","lat":43.28466,"lon":5.35882,"is_reserved":false,"is_disabled":false,"rental_uris":{"android":"levelo://app?vid=44d2e2eb-430a-48f9-bf65-3c867b3108be","ios":"levelo://app?vid=44d2e2eb-430a-48f9-bf65-3c867b3108be"},"vehicle_type_id":"4","last_reported":1732150095,"current_range_meters":38800,"station_id":"ce4bhah2rcd13ifvqei0","pricing_plan_id":"cebpf4jnsgd1na2vs0mg"},{"bike_id":"226327c6-6005-49e5-8146-1a8761a0fb4a","system_id":"levelo_inurba_marseille","lat":43.28098,"lon":5.37848,"is_reserved":false,"is_disabled":false,"rental_uris":{"android":"levelo://app?vid=226327c6-6005-49e5-8146-1a8761a0fb4a","ios":"levelo://app?vid=226327c6-6005-49e5-8146-1a8761a0fb4a"},"vehicle_type_id":"4","last_reported":1732150095,"current_range_meters":38400,"station_id":"ce4bha12rcd13ifvqee0","pricing_plan_id":"cebpf4jnsgd1na2vs0mg"},{"bike_id":"c5672302-88fb-43d4-bead-9c5fc5687965","system_id":"levelo_inurba_marseille","lat":43.28102,"lon":5.37849,"is_reserved":false,"is_disabled":false,"rental_uris":{"android":"levelo://app?vid=c5672302-88fb-43d4-bead-9c5fc5687965","ios":"levelo://app?vid=c5672302-88fb-43d4-bead-9c5fc5687965"},"vehicle_type_id":"4","last_reported":1732150095,"current_range_meters":37600,"station_id":"ce4bha12rcd13ifvqee0","pricing_plan_id":"cebpf4jnsgd1na2vs0mg"},{"bike_id":"c1be4b8f-7b40-458d-ab7b-8af301c7fc8d","system_id":"levelo_inurba_marseille","lat":43.28409,"lon":5.37518,"is_reserved":false,"is_disabled":false,"rental_uris":{"android":"levelo://app?vid=c1be4b8f-7b40-458d-ab7b-8af301c7fc8d","ios":"levelo://app?vid=c1be4b8f-7b40-458d-ab7b-8af301c7fc8d"},"vehicle_type_id":"4","last_reported":1732150095,"current_range_meters":35200,"station_id":"ce4bh412rcd13ifvqds0","pricing_plan_id":"cebpf4jnsgd1na2vs0mg"},{"bike_id":"497ac789-60bf-4c95-860a-535b44408d68","system_id":"levelo_inurba_marseille","lat":43.28462,"lon":5.35885,"is_reserved":false,"is_disabled":false,"rental_uris":{"android":"levelo://app?vid=497ac789-60bf-4c95-860a-535b44408d68","ios":"levelo://app?vid=497ac789-60bf-4c95-860a-535b44408d68"},"vehicle_type_id":"4","last_reported":1732150095,"current_range_meters":38800,"station_id":"ce4bhah2rcd13ifvqei0","pricing_plan_id":"cebpf4jnsgd1na2vs0mg"},{"bike_id":"1155caf2-19e6-414c-a953-15e7bf94b06e","system_id":"levelo_inurba_marseille","lat":43.28436,"lon":5.39189,"is_reserved":false,"is_disabled":false,"rental_uris":{"android":"levelo://app?vid=1155caf2-19e6-414c-a953-15e7bf94b06e","ios":"levelo://app?vid=1155caf2-19e6-414c-a953-15e7bf94b06e"},"vehicle_type_id":"4","last_reported":1732150095,"current_range_meters":38400,"station_id":"ce4bhoh2rcd13ifvqh5g","pricing_plan_id":"cebpf4jnsgd1na2vs0mg"},{"bike_id":"d0cc6d8c-6a40-4074-8b99-0048df044e12","system_id":"levelo_inurba_marseille","lat":43.32002,"lon":5.38143,"is_reserved":false,"is_disabled":false,"rental_uris":{"android":"levelo://app?vid=d0cc6d8c-6a40-4074-8b99-0048df044e12","ios":"levelo://app?vid=d0cc6d8c-6a40-4074-8b99-0048df044e12"},"vehicle_type_id":"4","last_reported":1732150095,"current_range_meters":15200,"station_id":"ce4bhr12rcd13ifvqhpg","pricing_plan_id":"cebpf4jnsgd1na2vs0mg"},{"bike_id":"efa924b8-3b7e-4a41-913c-fc64a7c8728e","system_id":"levelo_inurba_marseille","lat":43.28461,"lon":5.35888,"is_reserved":false,"is_disabled":false,"rental_uris":{"android":"levelo://app?vid=efa924b8-3b7e-4a41-913c-fc64a7c8728e","ios":"levelo://app?vid=efa924b8-3b7e-4a41-913c-fc64a7c8728e"},"vehicle_type_id":"4","last_reported":1732150095,"current_range_meters":38800,"station_id":"ce4bhah2rcd13ifvqei0","pricing_plan_id":"cebpf4jnsgd1na2vs0mg"},{"bike_id":"5e4e606a-1a36-4b61-a8bd-00cea1ae3829","system_id":"levelo_inurba_marseille","lat":43.32335,"lon":5.40618,"is_reserved":false,"is_disabled":false,"rental_uris":{"android":"levelo://app?vid=5e4e606a-1a36-4b61-a8bd-00cea1ae3829","ios":"levelo://app?vid=5e4e606a-1a36-4b61-a8bd-00cea1ae3829"},"vehicle_type_id":"4","last_reported":1732150095,"current_range_meters":11600,"station_id":"ce4bhq92rcd13ifvqhjg","pricing_plan_id":"cebpf4jnsgd1na2vs0mg"},{"bike_id":"4e0ae9d0-4853-4c4a-8966-a6752727c462","system_id":"levelo_inurba_marseille","lat":43.28936,"lon":5.39619,"is_reserved":false,"is_disabled":false,"rental_uris":{"android":"levelo://app?vid=4e0ae9d0-4853-4c4a-8966-a6752727c462","ios":"levelo://app?vid=4e0ae9d0-4853-4c4a-8966-a6752727c462"},"vehicle_type_id":"4","last_reported":1732150095,"current_range_meters":6800,"station_id":"ce4bh3h2rcd13ifvqdn0","pricing_plan_id":"cebpf4jnsgd1na2vs0mg"},{"bike_id":"16223921-60ae-4fd9-a1b7-d4ef1bb6071f","system_id":"levelo_inurba_marseille","lat":43.30872,"lon":5.39639,"is_reserved":false,"is_disabled":false,"rental_uris":{"android":"levelo://app?vid=16223921-60ae-4fd9-a1b7-d4ef1bb6071f","ios":"levelo://app?vid=16223921-60ae-4fd9-a1b7-d4ef1bb6071f"},"vehicle_type_id":"4","last_reported":1732150095,"current_range_meters":32800,"station_id":"ce4bh012rcd13ifvqcv0","pricing_plan_id":"cebpf4jnsgd1na2vs0mg"},{"bike_id":"3ecbe8b4-e7b3-4d48-8da7-065da53b17e1","system_id":"levelo_inurba_marseille","lat":43.29009,"lon":5.35609,"is_reserved":false,"is_disabled":false,"rental_uris":{"android":"levelo://app?vid=3ecbe8b4-e7b3-4d48-8da7-065da53b17e1","ios":"levelo://app?vid=3ecbe8b4-e7b3-4d48-8da7-065da53b17e1"},"vehicle_type_id":"4","last_reported":1732150095,"current_range_meters":19200,"station_id":"ce4bhb92rcd13ifvqen0","pricing_plan_id":"cebpf4jnsgd1na2vs0mg"},{"bike_id":"17a1ee21-a849-4433-badc-5af1a287346d","system_id":"levelo_inurba_marseille","lat":43.24587,"lon":5.37416,"is_reserved":false,"is_disabled":true,"rental_uris":{"android":"levelo://app?vid=17a1ee21-a849-4433-badc-5af1a287346d","ios":"levelo://app?vid=17a1ee21-a849-4433-badc-5af1a287346d"},"vehicle_type_id":"4","last_reported":1732150095,"current_range_meters":0,"station_id":"","pricing_plan_id":"cebpf4jnsgd1na2vs0mg"},{"bike_id":"03421a45-dbd0-4aee-87d7-d692d3894540","system_id":"levelo_inurba_marseille","lat":43.26227,"lon":5.37504,"is_reserved":false,"is_disabled":true,"rental_uris":{"android":"levelo://app?vid=03421a45-dbd0-4aee-87d7-d692d3894540","ios":"levelo://app?vid=03421a45-dbd0-4aee-87d7-d692d3894540"},"vehicle_type_id":"4","last_reported":1732150095,"current_range_meters":0,"station_id":"","pricing_plan_id":"cebpf4jnsgd1na2vs0mg"},{"bike_id":"72988ed8-3b21-48f9-9313-4c219313a03b","system_id":"levelo_inurba_marseille","lat":43.25106,"lon":5.40325,"is_reserved":false,"is_disabled":false,"rental_uris":{"android":"levelo://app?vid=72988ed8-3b21-48f9-9313-4c219313a03b","ios":"levelo://app?vid=72988ed8-3b21-48f9-9313-4c219313a03b"},"vehicle_type_id":"4","last_reported":1732150095,"current_range_meters":17600,"station_id":"ce4bhlh2rcd13ifvqgig","pricing_plan_id":"cebpf4jnsgd1na2vs0mg"},{"bike_id":"f0fa4e60-0a2b-48c7-9942-83170358dd4a","system_id":"levelo_inurba_marseille","lat":43.32291,"lon":5.38279,"is_reserved":false,"is_disabled":false,"rental_uris":{"android":"levelo://app?vid=f0fa4e60-0a2b-48c7-9942-83170358dd4a","ios":"levelo://app?vid=f0fa4e60-0a2b-48c7-9942-83170358dd4a"},"vehicle_type_id":"4","last_reported":1732150095,"current_range_meters":37600,"station_id":"ce4bhr12rcd13ifvqhqg","pricing_plan_id":"cebpf4jnsgd1na2vs0mg"},{"bike_id":"7b3ff464-d86e-421b-a17a-2dda41b0205e","system_id":"levelo_inurba_marseille","lat":43.28924,"lon":5.38401,"is_reserved":false,"is_disabled":false,"rental_uris":{"android":"levelo://app?vid=7b3ff464-d86e-421b-a17a-2dda41b0205e","ios":"levelo://app?vid=7b3ff464-d86e-421b-a17a-2dda41b0205e"},"vehicle_type_id":"4","last_reported":1732150095,"current_range_meters":38000,"station_id":"ce4bh612rcd13ifvqe6g","pricing_plan_id":"cebpf4jnsgd1na2vs0mg"},{"bike_id":"5c5222dc-c9e9-4134-9926-f13e5276b66c","system_id":"levelo_inurba_marseille","lat":43.32363,"lon":5.38873,"is_reserved":false,"is_disabled":false,"rental_uris":{"android":"levelo://app?vid=5c5222dc-c9e9-4134-9926-f13e5276b66c","ios":"levelo://app?vid=5c5222dc-c9e9-4134-9926-f13e5276b66c"},"vehicle_type_id":"4","last_reported":1732150095,"current_range_meters":38800,"station_id":"ce4bhqp2rcd13ifvqhog","pricing_plan_id":"cebpf4jnsgd1na2vs0mg"},{"bike_id":"8497f050-282b-4ccf-87aa-61c41c2e8a16","system_id":"levelo_inurba_marseille","lat":43.30433,"lon":5.38887,"is_reserved":false,"is_disabled":false,"rental_uris":{"android":"levelo://app?vid=8497f050-282b-4ccf-87aa-61c41c2e8a16","ios":"levelo://app?vid=8497f050-282b-4ccf-87aa-61c41c2e8a16"},"vehicle_type_id":"4","last_reported":1732150095,"current_range_meters":11600,"station_id":"ce4bgk12rcd13ifvqbi0","pricing_plan_id":"cebpf4jnsgd1na2vs0mg"},{"bike_id":"f5cf085e-8694-4c6f-ba9c-aa6e0d3c58c6","system_id":"levelo_inurba_marseille","lat":43.33645,"lon":5.3555,"is_reserved":false,"is_disabled":true,"rental_uris":{"android":"levelo://app?vid=f5cf085e-8694-4c6f-ba9c-aa6e0d3c58c6","ios":"levelo://app?vid=f5cf085e-8694-4c6f-ba9c-aa6e0d3c58c6"},"vehicle_type_id":"4","last_reported":1732150095,"current_range_meters":9200,"station_id":"","pricing_plan_id":"cebpf4jnsgd1na2vs0mg"},{"bike_id":"3d2beca7-eef0-4bae-98e1-8b3de347272c","system_id":"levelo_inurba_marseille","lat":43.23196,"lon":5.3556,"is_reserved":false,"is_disabled":false,"rental_uris":{"android":"levelo://app?vid=3d2beca7-eef0-4bae-98e1-8b3de347272c","ios":"levelo://app?vid=3d2beca7-eef0-4bae-98e1-8b3de347272c"},"vehicle_type_id":"4","last_reported":1732150095,"current_range_meters":36000,"station_id":"ce4bhu92rcd13ifvqi70","pricing_plan_id":"cebpf4jnsgd1na2vs0mg"},{"bike_id":"1b19bdd1-771d-4c73-b28a-da15fbe6b5e3","system_id":"levelo_inurba_marseille","lat":43.30333,"lon":5.40437,"is_reserved":false,"is_disabled":false,"rental_uris":{"android":"levelo://app?vid=1b19bdd1-771d-4c73-b28a-da15fbe6b5e3","ios":"levelo://app?vid=1b19bdd1-771d-4c73-b28a-da15fbe6b5e3"},"vehicle_type_id":"4","last_reported":1732150095,"current_range_meters":38400,"station_id":"ce4bh012rcd13ifvqd10","pricing_plan_id":"cebpf4jnsgd1na2vs0mg"},{"bike_id":"a1529ae5-93e5-4314-98be-8be4cef599cf","system_id":"levelo_inurba_marseille","lat":43.28939,"lon":5.36631,"is_reserved":false,"is_disabled":true,"rental_uris":{"android":"levelo://app?vid=a1529ae5-93e5-4314-98be-8be4cef599cf","ios":"levelo://app?vid=a1529ae5-93e5-4314-98be-8be4cef599cf"},"vehicle_type_id":"4","last_reported":1732150095,"current_range_meters":16800,"station_id":"ce4bhap2rcd13ifvqek0","pricing_plan_id":"cebpf4jnsgd1na2vs0mg"},{"bike_id":"a14ff5be-fe1f-49ce-b621-afb3d416ceff","system_id":"levelo_inurba_marseille","lat":43.28461,"lon":5.35881,"is_reserved":false,"is_disabled":false,"rental_uris":{"android":"levelo://app?vid=a14ff5be-fe1f-49ce-b621-afb3d416ceff","ios":"levelo://app?vid=a14ff5be-fe1f-49ce-b621-afb3d416ceff"},"vehicle_type_id":"4","last_reported":1732150095,"current_range_meters":38800,"station_id":"ce4bhah2rcd13ifvqei0","pricing_plan_id":"cebpf4jnsgd1na2vs0mg"},{"bike_id":"bfd991e4-fb9e-4c02-a91c-bc15c62a7041","system_id":"levelo_inurba_marseille","lat":43.31166,"lon":5.38716,"is_reserved":false,"is_disabled":false,"rental_uris":{"android":"levelo://app?vid=bfd991e4-fb9e-4c02-a91c-bc15c62a7041","ios":"levelo://app?vid=bfd991e4-fb9e-4c02-a91c-bc15c62a7041"},"vehicle_type_id":"4","last_reported":1732150095,"current_range_meters":26000,"station_id":"ce4bgv12rcd13ifvqcp0","pricing_plan_id":"cebpf4jnsgd1na2vs0mg"},{"bike_id":"e57590cc-a844-462b-b95c-023047b497c3","system_id":"levelo_inurba_marseille","lat":43.26027,"lon":5.37554,"is_reserved":false,"is_disabled":false,"rental_uris":{"android":"levelo://app?vid=e57590cc-a844-462b-b95c-023047b497c3","ios":"levelo://app?vid=e57590cc-a844-462b-b95c-023047b497c3"},"vehicle_type_id":"4","last_reported":1732150095,"current_range_meters":38800,"station_id":"ce4bhgh2rcd13ifvqfa0","pricing_plan_id":"cebpf4jnsgd1na2vs0mg"},{"bike_id":"02548de1-a79f-4bc6-8c03-f2b86f8bd8f9","system_id":"levelo_inurba_marseille","lat":43.32364,"lon":5.38882,"is_reserved":false,"is_disabled":false,"rental_uris":{"android":"levelo://app?vid=02548de1-a79f-4bc6-8c03-f2b86f8bd8f9","ios":"levelo://app?vid=02548de1-a79f-4bc6-8c03-f2b86f8bd8f9"},"vehicle_type_id":"4","last_reported":1732150095,"current_range_meters":10000,"station_id":"ce4bhqp2rcd13ifvqhog","pricing_plan_id":"cebpf4jnsgd1na2vs0mg"},{"bike_id":"8706b992-39d6-479d-b9b0-284abd82ac0d","system_id":"levelo_inurba_marseille","lat":43.31326,"lon":5.39701,"is_reserved":false,"is_disabled":false,"rental_uris":{"android":"levelo://app?vid=8706b992-39d6-479d-b9b0-284abd82ac0d","ios":"levelo://app?vid=8706b992-39d6-479d-b9b0-284abd82ac0d"},"vehicle_type_id":"4","last_reported":1732150095,"current_range_meters":33600,"station_id":"ce4bgvp2rcd13ifvqcu0","pricing_plan_id":"cebpf4jnsgd1na2vs0mg"},{"bike_id":"b4b37c0c-a6bf-4224-b04b-eca9edd0646d","system_id":"levelo_inurba_marseille","lat":43.29192,"lon":5.35794,"is_reserved":false,"is_disabled":false,"rental_uris":{"android":"levelo://app?vid=b4b37c0c-a6bf-4224-b04b-eca9edd0646d","ios":"levelo://app?vid=b4b37c0c-a6bf-4224-b04b-eca9edd0646d"},"vehicle_type_id":"4","last_reported":1732150095,"current_range_meters":38800,"station_id":"ce4bhb12rcd13ifvqel0","pricing_plan_id":"cebpf4jnsgd1na2vs0mg"},{"bike_id":"7ef9a5ef-b3b2-4ff2-82cc-f161ced30464","system_id":"levelo_inurba_marseille","lat":43.29413,"lon":5.38611,"is_reserved":false,"is_disabled":true,"rental_uris":{"android":"levelo://app?vid=7ef9a5ef-b3b2-4ff2-82cc-f161ced30464","ios":"levelo://app?vid=7ef9a5ef-b3b2-4ff2-82cc-f161ced30464"},"vehicle_type_id":"4","last_reported":1732150095,"current_range_meters":36800,"station_id":"ce4bh2h2rcd13ifvqdh0","pricing_plan_id":"cebpf4jnsgd1na2vs0mg"},{"bike_id":"591de313-0bda-40c6-9597-444e52852f9a","system_id":"levelo_inurba_marseille","lat":43.25106,"lon":5.40321,"is_reserved":false,"is_disabled":false,"rental_uris":{"android":"levelo://app?vid=591de313-0bda-40c6-9597-444e52852f9a","ios":"levelo://app?vid=591de313-0bda-40c6-9597-444e52852f9a"},"vehicle_type_id":"4","last_reported":1732150095,"current_range_meters":24000,"station_id":"ce4bhlh2rcd13ifvqgig","pricing_plan_id":"cebpf4jnsgd1na2vs0mg"},{"bike_id":"a8fe9131-8324-4d62-abb6-9a4ec7f0a4a8","system_id":"levelo_inurba_marseille","lat":43.31485,"lon":5.37311,"is_reserved":false,"is_disabled":false,"rental_uris":{"android":"levelo://app?vid=a8fe9131-8324-4d62-abb6-9a4ec7f0a4a8","ios":"levelo://app?vid=a8fe9131-8324-4d62-abb6-9a4ec7f0a4a8"},"vehicle_type_id":"4","last_reported":1732150095,"current_range_meters":2800,"station_id":"ce4bgt12rcd13ifvqcd0","pricing_plan_id":"cebpf4jnsgd1na2vs0mg"},{"bike_id":"0eaac592-6ab6-4b87-840f-3eaf088e2d24","system_id":"levelo_inurba_marseille","lat":43.30428,"lon":5.38878,"is_reserved":false,"is_disabled":false,"rental_uris":{"android":"levelo://app?vid=0eaac592-6ab6-4b87-840f-3eaf088e2d24","ios":"levelo://app?vid=0eaac592-6ab6-4b87-840f-3eaf088e2d24"},"vehicle_type_id":"4","last_reported":1732150095,"current_range_meters":38800,"station_id":"ce4bgk12rcd13ifvqbi0","pricing_plan_id":"cebpf4jnsgd1na2vs0mg"},{"bike_id":"95e9d65c-8239-4c39-bff4-784ba1e78fcf","system_id":"levelo_inurba_marseille","lat":43.3065,"lon":5.40079,"is_reserved":false,"is_disabled":false,"rental_uris":{"android":"levelo://app?vid=95e9d65c-8239-4c39-bff4-784ba1e78fcf","ios":"levelo://app?vid=95e9d65c-8239-4c39-bff4-784ba1e78fcf"},"vehicle_type_id":"4","last_reported":1732150095,"current_range_meters":20000,"station_id":"ce4bh112rcd13ifvqda0","pricing_plan_id":"cebpf4jnsgd1na2vs0mg"},{"bike_id":"8d5e8e54-f87c-49b3-8720-7e21078f8fcd","system_id":"levelo_inurba_marseille","lat":43.26481,"lon":5.39549,"is_reserved":false,"is_disabled":false,"rental_uris":{"android":"levelo://app?vid=8d5e8e54-f87c-49b3-8720-7e21078f8fcd","ios":"levelo://app?vid=8d5e8e54-f87c-49b3-8720-7e21078f8fcd"},"vehicle_type_id":"4","last_reported":1732150095,"current_range_meters":38800,"station_id":"ce4bhi12rcd13ifvqfq0","pricing_plan_id":"cebpf4jnsgd1na2vs0mg"},{"bike_id":"844cb461-f780-45f5-88b2-3951b51e6462","system_id":"levelo_inurba_marseille","lat":43.30111,"lon":5.37826,"is_reserved":false,"is_disabled":true,"rental_uris":{"android":"levelo://app?vid=844cb461-f780-45f5-88b2-3951b51e6462","ios":"levelo://app?vid=844cb461-f780-45f5-88b2-3951b51e6462"},"vehicle_type_id":"4","last_reported":1732150095,"current_range_meters":0,"station_id":"","pricing_plan_id":"cebpf4jnsgd1na2vs0mg"},{"bike_id":"ac5fcd9a-efc4-465f-aecc-12e2bbc093f7","system_id":"levelo_inurba_marseille","lat":43.25862,"lon":5.399,"is_reserved":false,"is_disabled":false,"rental_uris":{"android":"levelo://app?vid=ac5fcd9a-efc4-465f-aecc-12e2bbc093f7","ios":"levelo://app?vid=ac5fcd9a-efc4-465f-aecc-12e2bbc093f7"},"vehicle_type_id":"4","last_reported":1732150095,"current_range_meters":24400,"station_id":"ce4bhl92rcd13ifvqghg","pricing_plan_id":"cebpf4jnsgd1na2vs0mg"},{"bike_id":"2812301b-50ec-4215-9a51-9c08bf3fe82c","system_id":"levelo_inurba_marseille","lat":43.27181,"lon":5.40991,"is_reserved":false,"is_disabled":false,"rental_uris":{"android":"levelo://app?vid=2812301b-50ec-4215-9a51-9c08bf3fe82c","ios":"levelo://app?vid=2812301b-50ec-4215-9a51-9c08bf3fe82c"},"vehicle_type_id":"4","last_reported":1732150095,"current_range_meters":37600,"station_id":"ce4bhl12rcd13ifvqgf0","pricing_plan_id":"cebpf4jnsgd1na2vs0mg"},{"bike_id":"d76e6ecc-70e3-426d-9ef3-718df90d543c","system_id":"levelo_inurba_marseille","lat":43.24074,"lon":5.37763,"is_reserved":false,"is_disabled":false,"rental_uris":{"android":"levelo://app?vid=d76e6ecc-70e3-426d-9ef3-718df90d543c","ios":"levelo://app?vid=d76e6ecc-70e3-426d-9ef3-718df90d543c"},"vehicle_type_id":"4","last_reported":1732150095,"current_range_meters":36400,"station_id":"ce4bhnp2rcd13ifvqgvg","pricing_plan_id":"cebpf4jnsgd1na2vs0mg"},{"bike_id":"b77dd6e0-5982-4c29-886c-dd7e95f638ee","system_id":"levelo_inurba_marseille","lat":43.27073,"lon":5.42277,"is_reserved":false,"is_disabled":false,"rental_uris":{"android":"levelo://app?vid=b77dd6e0-5982-4c29-886c-dd7e95f638ee","ios":"levelo://app?vid=b77dd6e0-5982-4c29-886c-dd7e95f638ee"},"vehicle_type_id":"4","last_reported":1732150095,"current_range_meters":16800,"station_id":"ce4bhk92rcd13ifvqgb0","pricing_plan_id":"cebpf4jnsgd1na2vs0mg"},{"bike_id":"bbf93218-68ad-4601-9ca1-23dbf504d3d0","system_id":"levelo_inurba_marseille","lat":43.28729,"lon":5.36085,"is_reserved":false,"is_disabled":true,"rental_uris":{"android":"levelo://app?vid=bbf93218-68ad-4601-9ca1-23dbf504d3d0","ios":"levelo://app?vid=bbf93218-68ad-4601-9ca1-23dbf504d3d0"},"vehicle_type_id":"4","last_reported":1732150095,"current_range_meters":0,"station_id":"cki0cbj6b192h4jlfktg","pricing_plan_id":"cebpf4jnsgd1na2vs0mg"},{"bike_id":"44a4e97f-fd6f-476f-bf87-412c8a64e69e","system_id":"levelo_inurba_marseille","lat":43.30786,"lon":5.37659,"is_reserved":false,"is_disabled":false,"rental_uris":{"android":"levelo://app?vid=44a4e97f-fd6f-476f-bf87-412c8a64e69e","ios":"levelo://app?vid=44a4e97f-fd6f-476f-bf87-412c8a64e69e"},"vehicle_type_id":"4","last_reported":1732150095,"current_range_meters":38800,"station_id":"ce4bgv92rcd13ifvqcq0","pricing_plan_id":"cebpf4jnsgd1na2vs0mg"},{"bike_id":"cdaafd2d-0da1-4fac-9881-15c66a7cd7c0","system_id":"levelo_inurba_marseille","lat":43.23159,"lon":5.43706,"is_reserved":false,"is_disabled":false,"rental_uris":{"android":"levelo://app?vid=cdaafd2d-0da1-4fac-9881-15c66a7cd7c0","ios":"levelo://app?vid=cdaafd2d-0da1-4fac-9881-15c66a7cd7c0"},"vehicle_type_id":"4","last_reported":1732150095,"current_range_meters":38800,"station_id":"ce4bhmp2rcd13ifvqgog","pricing_plan_id":"cebpf4jnsgd1na2vs0mg"},{"bike_id":"571ebf17-9551-4693-af9a-d47668470fe6","system_id":"levelo_inurba_marseille","lat":43.32367,"lon":5.3888,"is_reserved":false,"is_disabled":false,"rental_uris":{"android":"levelo://app?vid=571ebf17-9551-4693-af9a-d47668470fe6","ios":"levelo://app?vid=571ebf17-9551-4693-af9a-d47668470fe6"},"vehicle_type_id":"4","last_reported":1732150095,"current_range_meters":38800,"station_id":"ce4bhqp2rcd13ifvqhog","pricing_plan_id":"cebpf4jnsgd1na2vs0mg"},{"bike_id":"1d606ca2-d831-4cab-8cc3-213a7446614a","system_id":"levelo_inurba_marseille","lat":43.31484,"lon":5.37302,"is_reserved":false,"is_disabled":false,"rental_uris":{"android":"levelo://app?vid=1d606ca2-d831-4cab-8cc3-213a7446614a","ios":"levelo://app?vid=1d606ca2-d831-4cab-8cc3-213a7446614a"},"vehicle_type_id":"4","last_reported":1732150095,"current_range_meters":27200,"station_id":"ce4bgt12rcd13ifvqcd0","pricing_plan_id":"cebpf4jnsgd1na2vs0mg"},{"bike_id":"8d5ad0a8-268e-4afd-be61-7919f93826c7","system_id":"levelo_inurba_marseille","lat":43.29913,"lon":5.3747,"is_reserved":false,"is_disabled":true,"rental_uris":{"android":"levelo://app?vid=8d5ad0a8-268e-4afd-be61-7919f93826c7","ios":"levelo://app?vid=8d5ad0a8-268e-4afd-be61-7919f93826c7"},"vehicle_type_id":"4","last_reported":1732150095,"current_range_meters":36000,"station_id":"ce4bgjh2rcd13ifvqbg0","pricing_plan_id":"cebpf4jnsgd1na2vs0mg"},{"bike_id":"91d7d4ba-408f-4de3-986e-78550b1598da","system_id":"levelo_inurba_marseille","lat":43.32609,"lon":5.38756,"is_reserved":false,"is_disabled":false,"rental_uris":{"android":"levelo://app?vid=91d7d4ba-408f-4de3-986e-78550b1598da","ios":"levelo://app?vid=91d7d4ba-408f-4de3-986e-78550b1598da"},"vehicle_type_id":"4","last_reported":1732150095,"current_range_meters":14400,"station_id":"","pricing_plan_id":"cebpf4jnsgd1na2vs0mg"},{"bike_id":"20b8fda3-25c0-47ec-9e06-266171433333","system_id":"levelo_inurba_marseille","lat":43.24384,"lon":5.37057,"is_reserved":false,"is_disabled":false,"rental_uris":{"android":"levelo://app?vid=20b8fda3-25c0-47ec-9e06-266171433333","ios":"levelo://app?vid=20b8fda3-25c0-47ec-9e06-266171433333"},"vehicle_type_id":"4","last_reported":1732150095,"current_range_meters":39200,"station_id":"ce4bhhh2rcd13ifvqfk0","pricing_plan_id":"cebpf4jnsgd1na2vs0mg"},{"bike_id":"21e611ca-1d52-46b2-9962-730ca3426b93","system_id":"levelo_inurba_marseille","lat":43.31505,"lon":5.37279,"is_reserved":false,"is_disabled":false,"rental_uris":{"android":"levelo://app?vid=21e611ca-1d52-46b2-9962-730ca3426b93","ios":"levelo://app?vid=21e611ca-1d52-46b2-9962-730ca3426b93"},"vehicle_type_id":"4","last_reported":1732150095,"current_range_meters":19600,"station_id":"ce4bgt12rcd13ifvqcd0","pricing_plan_id":"cebpf4jnsgd1na2vs0mg"},{"bike_id":"8eb93167-4b65-485d-8184-38b36a0fe079","system_id":"levelo_inurba_marseille","lat":43.28857,"lon":5.35859,"is_reserved":false,"is_disabled":false,"rental_uris":{"android":"levelo://app?vid=8eb93167-4b65-485d-8184-38b36a0fe079","ios":"levelo://app?vid=8eb93167-4b65-485d-8184-38b36a0fe079"},"vehicle_type_id":"4","last_reported":1732150095,"current_range_meters":22800,"station_id":"ce4bhb12rcd13ifvqem0","pricing_plan_id":"cebpf4jnsgd1na2vs0mg"},{"bike_id":"8b09ebd1-a82c-4c50-a6f1-82290ab766c7","system_id":"levelo_inurba_marseille","lat":43.2707,"lon":5.42279,"is_reserved":false,"is_disabled":false,"rental_uris":{"android":"levelo://app?vid=8b09ebd1-a82c-4c50-a6f1-82290ab766c7","ios":"levelo://app?vid=8b09ebd1-a82c-4c50-a6f1-82290ab766c7"},"vehicle_type_id":"4","last_reported":1732150095,"current_range_meters":38800,"station_id":"ce4bhk92rcd13ifvqgb0","pricing_plan_id":"cebpf4jnsgd1na2vs0mg"},{"bike_id":"ac2a8d26-402e-467b-9cce-539a22286a2b","system_id":"levelo_inurba_marseille","lat":43.28614,"lon":5.35101,"is_reserved":false,"is_disabled":false,"rental_uris":{"android":"levelo://app?vid=ac2a8d26-402e-467b-9cce-539a22286a2b","ios":"levelo://app?vid=ac2a8d26-402e-467b-9cce-539a22286a2b"},"vehicle_type_id":"4","last_reported":1732150095,"current_range_meters":38400,"station_id":"ce4bhch2rcd13ifvqeug","pricing_plan_id":"cebpf4jnsgd1na2vs0mg"},{"bike_id":"28b485e5-b4cd-46c6-bbdc-bd8618fabcc8","system_id":"levelo_inurba_marseille","lat":43.23186,"lon":5.39986,"is_reserved":false,"is_disabled":false,"rental_uris":{"android":"levelo://app?vid=28b485e5-b4cd-46c6-bbdc-bd8618fabcc8","ios":"levelo://app?vid=28b485e5-b4cd-46c6-bbdc-bd8618fabcc8"},"vehicle_type_id":"4","last_reported":1732150095,"current_range_meters":11200,"station_id":"ce4bhn12rcd13ifvqgqg","pricing_plan_id":"cebpf4jnsgd1na2vs0mg"},{"bike_id":"ac655b3c-d70e-40ba-b71c-6b2550136bca","system_id":"levelo_inurba_marseille","lat":43.30597,"lon":5.37214,"is_reserved":false,"is_disabled":false,"rental_uris":{"android":"levelo://app?vid=ac655b3c-d70e-40ba-b71c-6b2550136bca","ios":"levelo://app?vid=ac655b3c-d70e-40ba-b71c-6b2550136bca"},"vehicle_type_id":"4","last_reported":1732150095,"current_range_meters":39200,"station_id":"ce4bgqh2rcd13ifvqc4g","pricing_plan_id":"cebpf4jnsgd1na2vs0mg"},{"bike_id":"f3d1de11-ea0c-4809-8e9c-3957146035eb","system_id":"levelo_inurba_marseille","lat":43.26027,"lon":5.3755,"is_reserved":false,"is_disabled":false,"rental_uris":{"android":"levelo://app?vid=f3d1de11-ea0c-4809-8e9c-3957146035eb","ios":"levelo://app?vid=f3d1de11-ea0c-4809-8e9c-3957146035eb"},"vehicle_type_id":"4","last_reported":1732150095,"current_range_meters":36400,"station_id":"ce4bhgh2rcd13ifvqfa0","pricing_plan_id":"cebpf4jnsgd1na2vs0mg"},{"bike_id":"319639f6-c364-407e-9612-56f449d4d076","system_id":"levelo_inurba_marseille","lat":43.28079,"lon":5.39656,"is_reserved":false,"is_disabled":true,"rental_uris":{"android":"levelo://app?vid=319639f6-c364-407e-9612-56f449d4d076","ios":"levelo://app?vid=319639f6-c364-407e-9612-56f449d4d076"},"vehicle_type_id":"4","last_reported":1732150095,"current_range_meters":0,"station_id":"ce4bho12rcd13ifvqh2g","pricing_plan_id":"cebpf4jnsgd1na2vs0mg"},{"bike_id":"9d1b7cbb-98fa-41ad-94a0-1a65bb16f3d3","system_id":"levelo_inurba_marseille","lat":43.31761,"lon":5.39013,"is_reserved":false,"is_disabled":false,"rental_uris":{"android":"levelo://app?vid=9d1b7cbb-98fa-41ad-94a0-1a65bb16f3d3","ios":"levelo://app?vid=9d1b7cbb-98fa-41ad-94a0-1a65bb16f3d3"},"vehicle_type_id":"4","last_reported":1732150095,"current_range_meters":8400,"station_id":"ce4bhqp2rcd13ifvqhng","pricing_plan_id":"cebpf4jnsgd1na2vs0mg"},{"bike_id":"024030d7-979d-4eae-8006-b04b3b392e66","system_id":"levelo_inurba_marseille","lat":43.30428,"lon":5.3975,"is_reserved":false,"is_disabled":false,"rental_uris":{"android":"levelo://app?vid=024030d7-979d-4eae-8006-b04b3b392e66","ios":"levelo://app?vid=024030d7-979d-4eae-8006-b04b3b392e66"},"vehicle_type_id":"4","last_reported":1732150095,"current_range_meters":17600,"station_id":"ce4bh092rcd13ifvqd20","pricing_plan_id":"cebpf4jnsgd1na2vs0mg"},{"bike_id":"19c67081-4b53-40d6-b37e-ac553a2e8a77","system_id":"levelo_inurba_marseille","lat":43.25095,"lon":5.39516,"is_reserved":false,"is_disabled":false,"rental_uris":{"android":"levelo://app?vid=19c67081-4b53-40d6-b37e-ac553a2e8a77","ios":"levelo://app?vid=19c67081-4b53-40d6-b37e-ac553a2e8a77"},"vehicle_type_id":"4","last_reported":1732150095,"current_range_meters":10800,"station_id":"ce4bhm12rcd13ifvqgkg","pricing_plan_id":"cebpf4jnsgd1na2vs0mg"},{"bike_id":"1951da77-c259-424b-b12e-3b8bb4eeaeca","system_id":"levelo_inurba_marseille","lat":43.29075,"lon":5.3715,"is_reserved":false,"is_disabled":true,"rental_uris":{"android":"levelo://app?vid=1951da77-c259-424b-b12e-3b8bb4eeaeca","ios":"levelo://app?vid=1951da77-c259-424b-b12e-3b8bb4eeaeca"},"vehicle_type_id":"4","last_reported":1732150095,"current_range_meters":0,"station_id":"ce4bh5p2rcd13ifvqe4g","pricing_plan_id":"cebpf4jnsgd1na2vs0mg"},{"bike_id":"403d1fe9-5696-465c-8a76-0fc328542722","system_id":"levelo_inurba_marseille","lat":43.29807,"lon":5.404,"is_reserved":false,"is_disabled":false,"rental_uris":{"android":"levelo://app?vid=403d1fe9-5696-465c-8a76-0fc328542722","ios":"levelo://app?vid=403d1fe9-5696-465c-8a76-0fc328542722"},"vehicle_type_id":"4","last_reported":1732150095,"current_range_meters":9200,"station_id":"ce4bh112rcd13ifvqd90","pricing_plan_id":"cebpf4jnsgd1na2vs0mg"},{"bike_id":"53bbdfc0-4d63-4cc4-86e6-4ec910061123","system_id":"levelo_inurba_marseille","lat":43.30918,"lon":5.36705,"is_reserved":false,"is_disabled":false,"rental_uris":{"android":"levelo://app?vid=53bbdfc0-4d63-4cc4-86e6-4ec910061123","ios":"levelo://app?vid=53bbdfc0-4d63-4cc4-86e6-4ec910061123"},"vehicle_type_id":"4","last_reported":1732150095,"current_range_meters":6800,"station_id":"","pricing_plan_id":"cebpf4jnsgd1na2vs0mg"},{"bike_id":"9bb40b1a-baf9-4586-9b62-218171a7b288","system_id":"levelo_inurba_marseille","lat":43.29428,"lon":5.39752,"is_reserved":false,"is_disabled":false,"rental_uris":{"android":"levelo://app?vid=9bb40b1a-baf9-4586-9b62-218171a7b288","ios":"levelo://app?vid=9bb40b1a-baf9-4586-9b62-218171a7b288"},"vehicle_type_id":"4","last_reported":1732150095,"current_range_meters":33600,"station_id":"ce4bh3h2rcd13ifvqdo0","pricing_plan_id":"cebpf4jnsgd1na2vs0mg"},{"bike_id":"87dba6e3-2832-47b5-bc31-e5d701621ae5","system_id":"levelo_inurba_marseille","lat":43.30245,"lon":5.40057,"is_reserved":false,"is_disabled":false,"rental_uris":{"android":"levelo://app?vid=87dba6e3-2832-47b5-bc31-e5d701621ae5","ios":"levelo://app?vid=87dba6e3-2832-47b5-bc31-e5d701621ae5"},"vehicle_type_id":"4","last_reported":1732150095,"current_range_meters":38400,"station_id":"ce4bgvh2rcd13ifvqcs0","pricing_plan_id":"cebpf4jnsgd1na2vs0mg"},{"bike_id":"921cf7ac-e6e4-45e9-a982-88d4e04e41f8","system_id":"levelo_inurba_marseille","lat":43.26933,"lon":5.38911,"is_reserved":false,"is_disabled":false,"rental_uris":{"android":"levelo://app?vid=921cf7ac-e6e4-45e9-a982-88d4e04e41f8","ios":"levelo://app?vid=921cf7ac-e6e4-45e9-a982-88d4e04e41f8"},"vehicle_type_id":"4","last_reported":1732150095,"current_range_meters":38800,"station_id":"ce4bhhh2rcd13ifvqfl0","pricing_plan_id":"cebpf4jnsgd1na2vs0mg"},{"bike_id":"a3c2aeb5-9ec7-49f9-b0cc-cca407a4490a","system_id":"levelo_inurba_marseille","lat":43.28462,"lon":5.35879,"is_reserved":false,"is_disabled":false,"rental_uris":{"android":"levelo://app?vid=a3c2aeb5-9ec7-49f9-b0cc-cca407a4490a","ios":"levelo://app?vid=a3c2aeb5-9ec7-49f9-b0cc-cca407a4490a"},"vehicle_type_id":"4","last_reported":1732150095,"current_range_meters":29600,"station_id":"ce4bhah2rcd13ifvqei0","pricing_plan_id":"cebpf4jnsgd1na2vs0mg"},{"bike_id":"22c6d9a0-fae9-467b-83df-a581e88530d1","system_id":"levelo_inurba_marseille","lat":43.33733,"lon":5.39186,"is_reserved":false,"is_disabled":false,"rental_uris":{"android":"levelo://app?vid=22c6d9a0-fae9-467b-83df-a581e88530d1","ios":"levelo://app?vid=22c6d9a0-fae9-467b-83df-a581e88530d1"},"vehicle_type_id":"4","last_reported":1732150095,"current_range_meters":9600,"station_id":"ce4bhr92rcd13ifvqhsg","pricing_plan_id":"cebpf4jnsgd1na2vs0mg"},{"bike_id":"9b4d52a8-a22b-418c-a556-65afaca3a235","system_id":"levelo_inurba_marseille","lat":43.33755,"lon":5.37455,"is_reserved":false,"is_disabled":false,"rental_uris":{"android":"levelo://app?vid=9b4d52a8-a22b-418c-a556-65afaca3a235","ios":"levelo://app?vid=9b4d52a8-a22b-418c-a556-65afaca3a235"},"vehicle_type_id":"4","last_reported":1732150095,"current_range_meters":14000,"station_id":"","pricing_plan_id":"cebpf4jnsgd1na2vs0mg"},{"bike_id":"546b46f8-2e0e-4f30-ad7b-32cc316e87d3","system_id":"levelo_inurba_marseille","lat":43.28281,"lon":5.35078,"is_reserved":false,"is_disabled":false,"rental_uris":{"android":"levelo://app?vid=546b46f8-2e0e-4f30-ad7b-32cc316e87d3","ios":"levelo://app?vid=546b46f8-2e0e-4f30-ad7b-32cc316e87d3"},"vehicle_type_id":"4","last_reported":1732150095,"current_range_meters":17200,"station_id":"ce4bhbp2rcd13ifvqerg","pricing_plan_id":"cebpf4jnsgd1na2vs0mg"},{"bike_id":"90e1718d-cd99-4c8d-9c36-9960f11e6e9c","system_id":"levelo_inurba_marseille","lat":43.30929,"lon":5.40151,"is_reserved":false,"is_disabled":false,"rental_uris":{"android":"levelo://app?vid=90e1718d-cd99-4c8d-9c36-9960f11e6e9c","ios":"levelo://app?vid=90e1718d-cd99-4c8d-9c36-9960f11e6e9c"},"vehicle_type_id":"4","last_reported":1732150095,"current_range_meters":10800,"station_id":"ce4bgvp2rcd13ifvqct0","pricing_plan_id":"cebpf4jnsgd1na2vs0mg"},{"bike_id":"2af4d00b-5050-4935-b5d1-08b4e90f04bf","system_id":"levelo_inurba_marseille","lat":43.29041,"lon":5.38653,"is_reserved":false,"is_disabled":false,"rental_uris":{"android":"levelo://app?vid=2af4d00b-5050-4935-b5d1-08b4e90f04bf","ios":"levelo://app?vid=2af4d00b-5050-4935-b5d1-08b4e90f04bf"},"vehicle_type_id":"4","last_reported":1732150095,"current_range_meters":37600,"station_id":"ce4bh4p2rcd13ifvqe0g","pricing_plan_id":"cebpf4jnsgd1na2vs0mg"},{"bike_id":"4f40eb36-1730-4f40-bff8-6a64fac8061e","system_id":"levelo_inurba_marseille","lat":43.3169,"lon":5.40468,"is_reserved":false,"is_disabled":false,"rental_uris":{"android":"levelo://app?vid=4f40eb36-1730-4f40-bff8-6a64fac8061e","ios":"levelo://app?vid=4f40eb36-1730-4f40-bff8-6a64fac8061e"},"vehicle_type_id":"4","last_reported":1732150095,"current_range_meters":24800,"station_id":"ce4bh012rcd13ifvqd00","pricing_plan_id":"cebpf4jnsgd1na2vs0mg"},{"bike_id":"8827b4e3-cddd-4604-b1f5-624ead8b80a1","system_id":"levelo_inurba_marseille","lat":43.27424,"lon":5.39412,"is_reserved":false,"is_disabled":false,"rental_uris":{"android":"levelo://app?vid=8827b4e3-cddd-4604-b1f5-624ead8b80a1","ios":"levelo://app?vid=8827b4e3-cddd-4604-b1f5-624ead8b80a1"},"vehicle_type_id":"4","last_reported":1732150095,"current_range_meters":27600,"station_id":"ce4bhdp2rcd13ifvqf20","pricing_plan_id":"cebpf4jnsgd1na2vs0mg"},{"bike_id":"b60cc273-b0c2-42b6-a0f5-c2faf3f8160b","system_id":"levelo_inurba_marseille","lat":43.22932,"lon":5.35378,"is_reserved":false,"is_disabled":false,"rental_uris":{"android":"levelo://app?vid=b60cc273-b0c2-42b6-a0f5-c2faf3f8160b","ios":"levelo://app?vid=b60cc273-b0c2-42b6-a0f5-c2faf3f8160b"},"vehicle_type_id":"4","last_reported":1732150095,"current_range_meters":20800,"station_id":"cpo3532slgdg3j2ikp40","pricing_plan_id":"cebpf4jnsgd1na2vs0mg"},{"bike_id":"8ae288fe-7f9e-4636-bc68-3daa0c790f34","system_id":"levelo_inurba_marseille","lat":43.246677,"lon":5.381713,"is_reserved":false,"is_disabled":false,"rental_uris":{"android":"levelo://app?vid=8ae288fe-7f9e-4636-bc68-3daa0c790f34","ios":"levelo://app?vid=8ae288fe-7f9e-4636-bc68-3daa0c790f34"},"vehicle_type_id":"4","last_reported":1732150095,"current_range_meters":38800,"station_id":"ce4bhih2rcd13ifvqfr0","pricing_plan_id":"cebpf4jnsgd1na2vs0mg"},{"bike_id":"f53e4553-79ea-44ca-a372-bbb27b7bc353","system_id":"levelo_inurba_marseille","lat":43.2681,"lon":5.40272,"is_reserved":false,"is_disabled":false,"rental_uris":{"android":"levelo://app?vid=f53e4553-79ea-44ca-a372-bbb27b7bc353","ios":"levelo://app?vid=f53e4553-79ea-44ca-a372-bbb27b7bc353"},"vehicle_type_id":"4","last_reported":1732150095,"current_range_meters":37600,"station_id":"ce501612rcd8frsf0b60","pricing_plan_id":"cebpf4jnsgd1na2vs0mg"},{"bike_id":"f8d773ad-6117-441c-8a1f-2ad7889ac928","system_id":"levelo_inurba_marseille","lat":43.337444,"lon":5.374475,"is_reserved":false,"is_disabled":false,"rental_uris":{"android":"levelo://app?vid=f8d773ad-6117-441c-8a1f-2ad7889ac928","ios":"levelo://app?vid=f8d773ad-6117-441c-8a1f-2ad7889ac928"},"vehicle_type_id":"4","last_reported":1732150095,"current_range_meters":30800,"station_id":"","pricing_plan_id":"cebpf4jnsgd1na2vs0mg"},{"bike_id":"2196e330-a7aa-4092-bb99-58cef0d5e930","system_id":"levelo_inurba_marseille","lat":43.2509,"lon":5.39519,"is_reserved":false,"is_disabled":false,"rental_uris":{"android":"levelo://app?vid=2196e330-a7aa-4092-bb99-58cef0d5e930","ios":"levelo://app?vid=2196e330-a7aa-4092-bb99-58cef0d5e930"},"vehicle_type_id":"4","last_reported":1732150095,"current_range_meters":38000,"station_id":"ce4bhm12rcd13ifvqgkg","pricing_plan_id":"cebpf4jnsgd1na2vs0mg"},{"bike_id":"a32613c2-ce23-4c6b-99d9-f02f377bc95a","system_id":"levelo_inurba_marseille","lat":43.337444,"lon":5.374475,"is_reserved":false,"is_disabled":false,"rental_uris":{"android":"levelo://app?vid=a32613c2-ce23-4c6b-99d9-f02f377bc95a","ios":"levelo://app?vid=a32613c2-ce23-4c6b-99d9-f02f377bc95a"},"vehicle_type_id":"4","last_reported":1732150095,"current_range_meters":36400,"station_id":"","pricing_plan_id":"cebpf4jnsgd1na2vs0mg"},{"bike_id":"0dce8e23-a37f-4138-9eeb-1f816b0e4a9b","system_id":"levelo_inurba_marseille","lat":43.30413,"lon":5.39763,"is_reserved":false,"is_disabled":false,"rental_uris":{"android":"levelo://app?vid=0dce8e23-a37f-4138-9eeb-1f816b0e4a9b","ios":"levelo://app?vid=0dce8e23-a37f-4138-9eeb-1f816b0e4a9b"},"vehicle_type_id":"4","last_reported":1732150095,"current_range_meters":27200,"station_id":"ce4bh092rcd13ifvqd20","pricing_plan_id":"cebpf4jnsgd1na2vs0mg"},{"bike_id":"d0f7dee5-1fcd-40e7-9140-535ea223380c","system_id":"levelo_inurba_marseille","lat":43.30145,"lon":5.37416,"is_reserved":false,"is_disabled":true,"rental_uris":{"android":"levelo://app?vid=d0f7dee5-1fcd-40e7-9140-535ea223380c","ios":"levelo://app?vid=d0f7dee5-1fcd-40e7-9140-535ea223380c"},"vehicle_type_id":"4","last_reported":1732150095,"current_range_meters":0,"station_id":"ce4bgs92rcd13ifvqcc0","pricing_plan_id":"cebpf4jnsgd1na2vs0mg"},{"bike_id":"164c7967-3886-4dcf-b294-d62deb8a5bf2","system_id":"levelo_inurba_marseille","lat":43.28827,"lon":5.38264,"is_reserved":false,"is_disabled":false,"rental_uris":{"android":"levelo://app?vid=164c7967-3886-4dcf-b294-d62deb8a5bf2","ios":"levelo://app?vid=164c7967-3886-4dcf-b294-d62deb8a5bf2"},"vehicle_type_id":"4","last_reported":1732150095,"current_range_meters":25200,"station_id":"","pricing_plan_id":"cebpf4jnsgd1na2vs0mg"},{"bike_id":"1c0e46ea-a9b6-4cc2-a421-479720e5cb50","system_id":"levelo_inurba_marseille","lat":43.30145,"lon":5.37416,"is_reserved":false,"is_disabled":false,"rental_uris":{"android":"levelo://app?vid=1c0e46ea-a9b6-4cc2-a421-479720e5cb50","ios":"levelo://app?vid=1c0e46ea-a9b6-4cc2-a421-479720e5cb50"},"vehicle_type_id":"4","last_reported":1732150095,"current_range_meters":16800,"station_id":"ce4bgs92rcd13ifvqcc0","pricing_plan_id":"cebpf4jnsgd1na2vs0mg"},{"bike_id":"c3f711be-2e85-4973-a43e-d27f4f0a4d67","system_id":"levelo_inurba_marseille","lat":43.30433,"lon":5.38885,"is_reserved":false,"is_disabled":false,"rental_uris":{"android":"levelo://app?vid=c3f711be-2e85-4973-a43e-d27f4f0a4d67","ios":"levelo://app?vid=c3f711be-2e85-4973-a43e-d27f4f0a4d67"},"vehicle_type_id":"4","last_reported":1732150095,"current_range_meters":19200,"station_id":"ce4bgk12rcd13ifvqbi0","pricing_plan_id":"cebpf4jnsgd1na2vs0mg"},{"bike_id":"ff3bb67e-8514-461f-bccb-5b6740d7d50b","system_id":"levelo_inurba_marseille","lat":43.25108,"lon":5.40324,"is_reserved":false,"is_disabled":false,"rental_uris":{"android":"levelo://app?vid=ff3bb67e-8514-461f-bccb-5b6740d7d50b","ios":"levelo://app?vid=ff3bb67e-8514-461f-bccb-5b6740d7d50b"},"vehicle_type_id":"4","last_reported":1732150095,"current_range_meters":27600,"station_id":"ce4bhlh2rcd13ifvqgig","pricing_plan_id":"cebpf4jnsgd1na2vs0mg"},{"bike_id":"8c0fad5b-09fe-44a2-9d48-caadd5b9d707","system_id":"levelo_inurba_marseille","lat":43.29199,"lon":5.35802,"is_reserved":false,"is_disabled":false,"rental_uris":{"android":"levelo://app?vid=8c0fad5b-09fe-44a2-9d48-caadd5b9d707","ios":"levelo://app?vid=8c0fad5b-09fe-44a2-9d48-caadd5b9d707"},"vehicle_type_id":"4","last_reported":1732150095,"current_range_meters":38800,"station_id":"ce4bhb12rcd13ifvqel0","pricing_plan_id":"cebpf4jnsgd1na2vs0mg"},{"bike_id":"889549f4-52db-4c10-8952-2d713c9cb7e7","system_id":"levelo_inurba_marseille","lat":43.24082,"lon":5.37755,"is_reserved":false,"is_disabled":false,"rental_uris":{"android":"levelo://app?vid=889549f4-52db-4c10-8952-2d713c9cb7e7","ios":"levelo://app?vid=889549f4-52db-4c10-8952-2d713c9cb7e7"},"vehicle_type_id":"4","last_reported":1732150095,"current_range_meters":37600,"station_id":"ce4bhnp2rcd13ifvqgvg","pricing_plan_id":"cebpf4jnsgd1na2vs0mg"},{"bike_id":"fc6c68b6-636b-4d9b-b53a-91bdb2ed5b09","system_id":"levelo_inurba_marseille","lat":43.25091,"lon":5.39542,"is_reserved":false,"is_disabled":false,"rental_uris":{"android":"levelo://app?vid=fc6c68b6-636b-4d9b-b53a-91bdb2ed5b09","ios":"levelo://app?vid=fc6c68b6-636b-4d9b-b53a-91bdb2ed5b09"},"vehicle_type_id":"4","last_reported":1732150095,"current_range_meters":20000,"station_id":"ce4bhm12rcd13ifvqgkg","pricing_plan_id":"cebpf4jnsgd1na2vs0mg"},{"bike_id":"2baca425-a899-478c-b38a-f539777dfa38","system_id":"levelo_inurba_marseille","lat":43.31169,"lon":5.38717,"is_reserved":false,"is_disabled":false,"rental_uris":{"android":"levelo://app?vid=2baca425-a899-478c-b38a-f539777dfa38","ios":"levelo://app?vid=2baca425-a899-478c-b38a-f539777dfa38"},"vehicle_type_id":"4","last_reported":1732150095,"current_range_meters":38800,"station_id":"ce4bgv12rcd13ifvqcp0","pricing_plan_id":"cebpf4jnsgd1na2vs0mg"},{"bike_id":"ee260b2f-4bee-48e2-8398-bdaeaf62204c","system_id":"levelo_inurba_marseille","lat":43.30776,"lon":5.37658,"is_reserved":false,"is_disabled":false,"rental_uris":{"android":"levelo://app?vid=ee260b2f-4bee-48e2-8398-bdaeaf62204c","ios":"levelo://app?vid=ee260b2f-4bee-48e2-8398-bdaeaf62204c"},"vehicle_type_id":"4","last_reported":1732150095,"current_range_meters":28000,"station_id":"ce4bgv92rcd13ifvqcq0","pricing_plan_id":"cebpf4jnsgd1na2vs0mg"},{"bike_id":"808ceebc-9594-4d84-b8d7-b72d93ee902f","system_id":"levelo_inurba_marseille","lat":43.31235,"lon":5.36858,"is_reserved":false,"is_disabled":false,"rental_uris":{"android":"levelo://app?vid=808ceebc-9594-4d84-b8d7-b72d93ee902f","ios":"levelo://app?vid=808ceebc-9594-4d84-b8d7-b72d93ee902f"},"vehicle_type_id":"4","last_reported":1732150095,"current_range_meters":26800,"station_id":"ce4bgl92rcd13ifvqbq0","pricing_plan_id":"cebpf4jnsgd1na2vs0mg"},{"bike_id":"a016d8fe-eb7d-41b4-9004-329ced9e07b5","system_id":"levelo_inurba_marseille","lat":43.31717,"lon":5.37753,"is_reserved":false,"is_disabled":false,"rental_uris":{"android":"levelo://app?vid=a016d8fe-eb7d-41b4-9004-329ced9e07b5","ios":"levelo://app?vid=a016d8fe-eb7d-41b4-9004-329ced9e07b5"},"vehicle_type_id":"4","last_reported":1732150095,"current_range_meters":36800,"station_id":"ce4bgth2rcd13ifvqch0","pricing_plan_id":"cebpf4jnsgd1na2vs0mg"},{"bike_id":"f1bff6ab-ba9d-4935-9e1f-decb2768df8c","system_id":"levelo_inurba_marseille","lat":43.2418,"lon":5.39731,"is_reserved":false,"is_disabled":false,"rental_uris":{"android":"levelo://app?vid=f1bff6ab-ba9d-4935-9e1f-decb2768df8c","ios":"levelo://app?vid=f1bff6ab-ba9d-4935-9e1f-decb2768df8c"},"vehicle_type_id":"4","last_reported":1732150095,"current_range_meters":37600,"station_id":"ce4bhn12rcd13ifvqgpg","pricing_plan_id":"cebpf4jnsgd1na2vs0mg"},{"bike_id":"5d65b627-3435-4723-9775-b5218e9b2a7a","system_id":"levelo_inurba_marseille","lat":43.27207,"lon":5.39195,"is_reserved":false,"is_disabled":true,"rental_uris":{"android":"levelo://app?vid=5d65b627-3435-4723-9775-b5218e9b2a7a","ios":"levelo://app?vid=5d65b627-3435-4723-9775-b5218e9b2a7a"},"vehicle_type_id":"4","last_reported":1732150095,"current_range_meters":8000,"station_id":"ce4bhhp2rcd13ifvqfm0","pricing_plan_id":"cebpf4jnsgd1na2vs0mg"},{"bike_id":"a76dbb23-03c6-45cf-8d76-e66984ab51b9","system_id":"levelo_inurba_marseille","lat":43.29579,"lon":5.36741,"is_reserved":false,"is_disabled":false,"rental_uris":{"android":"levelo://app?vid=a76dbb23-03c6-45cf-8d76-e66984ab51b9","ios":"levelo://app?vid=a76dbb23-03c6-45cf-8d76-e66984ab51b9"},"vehicle_type_id":"4","last_reported":1732150095,"current_range_meters":37600,"station_id":"ce4bgph2rcd13ifvqc2g","pricing_plan_id":"cebpf4jnsgd1na2vs0mg"},{"bike_id":"32c2fe9f-a607-4c07-a100-4beef28636ed","system_id":"levelo_inurba_marseille","lat":43.32481,"lon":5.36567,"is_reserved":false,"is_disabled":false,"rental_uris":{"android":"levelo://app?vid=32c2fe9f-a607-4c07-a100-4beef28636ed","ios":"levelo://app?vid=32c2fe9f-a607-4c07-a100-4beef28636ed"},"vehicle_type_id":"4","last_reported":1732150095,"current_range_meters":28000,"station_id":"ce4bhs12rcd13ifvqhvg","pricing_plan_id":"cebpf4jnsgd1na2vs0mg"},{"bike_id":"0bd89ca8-bea4-4da0-a3d1-2de4f9af7148","system_id":"levelo_inurba_marseille","lat":43.25106,"lon":5.4033,"is_reserved":false,"is_disabled":false,"rental_uris":{"android":"levelo://app?vid=0bd89ca8-bea4-4da0-a3d1-2de4f9af7148","ios":"levelo://app?vid=0bd89ca8-bea4-4da0-a3d1-2de4f9af7148"},"vehicle_type_id":"4","last_reported":1732150095,"current_range_meters":17600,"station_id":"ce4bhlh2rcd13ifvqgig","pricing_plan_id":"cebpf4jnsgd1na2vs0mg"},{"bike_id":"1904e4d6-e1e0-456f-9800-8b0e0e7107b4","system_id":"levelo_inurba_marseille","lat":43.23153,"lon":5.4371,"is_reserved":false,"is_disabled":false,"rental_uris":{"android":"levelo://app?vid=1904e4d6-e1e0-456f-9800-8b0e0e7107b4","ios":"levelo://app?vid=1904e4d6-e1e0-456f-9800-8b0e0e7107b4"},"vehicle_type_id":"4","last_reported":1732150095,"current_range_meters":38800,"station_id":"ce4bhmp2rcd13ifvqgog","pricing_plan_id":"cebpf4jnsgd1na2vs0mg"},{"bike_id":"4aed77df-bf4a-4443-8504-ef45e584e0a2","system_id":"levelo_inurba_marseille","lat":43.30932,"lon":5.40143,"is_reserved":false,"is_disabled":false,"rental_uris":{"android":"levelo://app?vid=4aed77df-bf4a-4443-8504-ef45e584e0a2","ios":"levelo://app?vid=4aed77df-bf4a-4443-8504-ef45e584e0a2"},"vehicle_type_id":"4","last_reported":1732150095,"current_range_meters":25200,"station_id":"ce4bgvp2rcd13ifvqct0","pricing_plan_id":"cebpf4jnsgd1na2vs0mg"},{"bike_id":"05680f2f-2fea-4b10-8add-5b0bf1db0394","system_id":"levelo_inurba_marseille","lat":43.27841,"lon":5.39203,"is_reserved":false,"is_disabled":false,"rental_uris":{"android":"levelo://app?vid=05680f2f-2fea-4b10-8add-5b0bf1db0394","ios":"levelo://app?vid=05680f2f-2fea-4b10-8add-5b0bf1db0394"},"vehicle_type_id":"4","last_reported":1732150095,"current_range_meters":38800,"station_id":"ce4bhjp2rcd13ifvqga0","pricing_plan_id":"cebpf4jnsgd1na2vs0mg"},{"bike_id":"13ce51bb-07b8-4973-a902-fa25b3e42bc3","system_id":"levelo_inurba_marseille","lat":43.25105,"lon":5.40325,"is_reserved":false,"is_disabled":false,"rental_uris":{"android":"levelo://app?vid=13ce51bb-07b8-4973-a902-fa25b3e42bc3","ios":"levelo://app?vid=13ce51bb-07b8-4973-a902-fa25b3e42bc3"},"vehicle_type_id":"4","last_reported":1732150095,"current_range_meters":38800,"station_id":"ce4bhlh2rcd13ifvqgig","pricing_plan_id":"cebpf4jnsgd1na2vs0mg"},{"bike_id":"1eff5ce5-2d56-4465-a12c-60db9ec2175a","system_id":"levelo_inurba_marseille","lat":43.22928,"lon":5.3538,"is_reserved":false,"is_disabled":false,"rental_uris":{"android":"levelo://app?vid=1eff5ce5-2d56-4465-a12c-60db9ec2175a","ios":"levelo://app?vid=1eff5ce5-2d56-4465-a12c-60db9ec2175a"},"vehicle_type_id":"4","last_reported":1732150095,"current_range_meters":12400,"station_id":"cpo3532slgdg3j2ikp40","pricing_plan_id":"cebpf4jnsgd1na2vs0mg"},{"bike_id":"e8dfecbf-4902-47db-8439-c4ab89d4c070","system_id":"levelo_inurba_marseille","lat":43.25819,"lon":5.39433,"is_reserved":false,"is_disabled":false,"rental_uris":{"android":"levelo://app?vid=e8dfecbf-4902-47db-8439-c4ab89d4c070","ios":"levelo://app?vid=e8dfecbf-4902-47db-8439-c4ab89d4c070"},"vehicle_type_id":"4","last_reported":1732150095,"current_range_meters":26000,"station_id":"ce4bhip2rcd13ifvqft0","pricing_plan_id":"cebpf4jnsgd1na2vs0mg"},{"bike_id":"ce6d46e5-4223-4bce-a0db-85f63ca84039","system_id":"levelo_inurba_marseille","lat":43.30122,"lon":5.40022,"is_reserved":false,"is_disabled":false,"rental_uris":{"android":"levelo://app?vid=ce6d46e5-4223-4bce-a0db-85f63ca84039","ios":"levelo://app?vid=ce6d46e5-4223-4bce-a0db-85f63ca84039"},"vehicle_type_id":"4","last_reported":1732150095,"current_range_meters":4800,"station_id":"","pricing_plan_id":"cebpf4jnsgd1na2vs0mg"},{"bike_id":"f1126846-151c-41db-a723-1b5f4b356b87","system_id":"levelo_inurba_marseille","lat":43.32363,"lon":5.38884,"is_reserved":false,"is_disabled":true,"rental_uris":{"android":"levelo://app?vid=f1126846-151c-41db-a723-1b5f4b356b87","ios":"levelo://app?vid=f1126846-151c-41db-a723-1b5f4b356b87"},"vehicle_type_id":"4","last_reported":1732150095,"current_range_meters":10800,"station_id":"ce4bhqp2rcd13ifvqhog","pricing_plan_id":"cebpf4jnsgd1na2vs0mg"},{"bike_id":"439c2464-00d4-4086-a999-e6b7c9e8acc5","system_id":"levelo_inurba_marseille","lat":43.3033,"lon":5.40442,"is_reserved":false,"is_disabled":false,"rental_uris":{"android":"levelo://app?vid=439c2464-00d4-4086-a999-e6b7c9e8acc5","ios":"levelo://app?vid=439c2464-00d4-4086-a999-e6b7c9e8acc5"},"vehicle_type_id":"4","last_reported":1732150095,"current_range_meters":24800,"station_id":"ce4bh012rcd13ifvqd10","pricing_plan_id":"cebpf4jnsgd1na2vs0mg"},{"bike_id":"78f93ccd-c6b9-492f-a3c4-5efa6ccfff19","system_id":"levelo_inurba_marseille","lat":43.25866,"lon":5.39896,"is_reserved":false,"is_disabled":false,"rental_uris":{"android":"levelo://app?vid=78f93ccd-c6b9-492f-a3c4-5efa6ccfff19","ios":"levelo://app?vid=78f93ccd-c6b9-492f-a3c4-5efa6ccfff19"},"vehicle_type_id":"4","last_reported":1732150095,"current_range_meters":20400,"station_id":"ce4bhl92rcd13ifvqghg","pricing_plan_id":"cebpf4jnsgd1na2vs0mg"},{"bike_id":"954054ad-77ac-46c3-a1b5-c8fc266a522b","system_id":"levelo_inurba_marseille","lat":43.31723,"lon":5.424,"is_reserved":false,"is_disabled":false,"rental_uris":{"android":"levelo://app?vid=954054ad-77ac-46c3-a1b5-c8fc266a522b","ios":"levelo://app?vid=954054ad-77ac-46c3-a1b5-c8fc266a522b"},"vehicle_type_id":"4","last_reported":1732150095,"current_range_meters":38800,"station_id":"ce4bhp92rcd13ifvqhbg","pricing_plan_id":"cebpf4jnsgd1na2vs0mg"},{"bike_id":"16c15316-cac2-48e5-8801-13b9178fa2e5","system_id":"levelo_inurba_marseille","lat":43.28464,"lon":5.35878,"is_reserved":false,"is_disabled":false,"rental_uris":{"android":"levelo://app?vid=16c15316-cac2-48e5-8801-13b9178fa2e5","ios":"levelo://app?vid=16c15316-cac2-48e5-8801-13b9178fa2e5"},"vehicle_type_id":"4","last_reported":1732150095,"current_range_meters":37600,"station_id":"ce4bhah2rcd13ifvqei0","pricing_plan_id":"cebpf4jnsgd1na2vs0mg"},{"bike_id":"9c4a655e-2680-4a60-a844-6a2ea62fb4b1","system_id":"levelo_inurba_marseille","lat":43.2607,"lon":5.394,"is_reserved":false,"is_disabled":false,"rental_uris":{"android":"levelo://app?vid=9c4a655e-2680-4a60-a844-6a2ea62fb4b1","ios":"levelo://app?vid=9c4a655e-2680-4a60-a844-6a2ea62fb4b1"},"vehicle_type_id":"4","last_reported":1732150095,"current_range_meters":23200,"station_id":"ce4bhh92rcd13ifvqfj0","pricing_plan_id":"cebpf4jnsgd1na2vs0mg"},{"bike_id":"b5db6422-b331-470e-b304-a54dae072156","system_id":"levelo_inurba_marseille","lat":43.255,"lon":5.37653,"is_reserved":false,"is_disabled":false,"rental_uris":{"android":"levelo://app?vid=b5db6422-b331-470e-b304-a54dae072156","ios":"levelo://app?vid=b5db6422-b331-470e-b304-a54dae072156"},"vehicle_type_id":"4","last_reported":1732150095,"current_range_meters":38800,"station_id":"ce4bhh12rcd13ifvqff0","pricing_plan_id":"cebpf4jnsgd1na2vs0mg"},{"bike_id":"5a4c4afd-7e77-4fb4-a40d-a8d30737b2da","system_id":"levelo_inurba_marseille","lat":43.28459,"lon":5.35895,"is_reserved":false,"is_disabled":false,"rental_uris":{"android":"levelo://app?vid=5a4c4afd-7e77-4fb4-a40d-a8d30737b2da","ios":"levelo://app?vid=5a4c4afd-7e77-4fb4-a40d-a8d30737b2da"},"vehicle_type_id":"4","last_reported":1732150095,"current_range_meters":38800,"station_id":"ce4bhah2rcd13ifvqei0","pricing_plan_id":"cebpf4jnsgd1na2vs0mg"},{"bike_id":"859f707c-529b-41cd-8126-f21cb33e91a1","system_id":"levelo_inurba_marseille","lat":43.28411,"lon":5.37509,"is_reserved":false,"is_disabled":false,"rental_uris":{"android":"levelo://app?vid=859f707c-529b-41cd-8126-f21cb33e91a1","ios":"levelo://app?vid=859f707c-529b-41cd-8126-f21cb33e91a1"},"vehicle_type_id":"4","last_reported":1732150095,"current_range_meters":18800,"station_id":"ce4bh412rcd13ifvqds0","pricing_plan_id":"cebpf4jnsgd1na2vs0mg"},{"bike_id":"e840fe4f-47a0-4d31-8133-7c332a3d517a","system_id":"levelo_inurba_marseille","lat":43.31078,"lon":5.42432,"is_reserved":false,"is_disabled":true,"rental_uris":{"android":"levelo://app?vid=e840fe4f-47a0-4d31-8133-7c332a3d517a","ios":"levelo://app?vid=e840fe4f-47a0-4d31-8133-7c332a3d517a"},"vehicle_type_id":"4","last_reported":1732150095,"current_range_meters":8400,"station_id":"ce4bhp92rcd13ifvqhag","pricing_plan_id":"cebpf4jnsgd1na2vs0mg"},{"bike_id":"fbdc3998-a170-4688-bc44-6f50e3f8a7d1","system_id":"levelo_inurba_marseille","lat":43.28142,"lon":5.44203,"is_reserved":false,"is_disabled":false,"rental_uris":{"android":"levelo://app?vid=fbdc3998-a170-4688-bc44-6f50e3f8a7d1","ios":"levelo://app?vid=fbdc3998-a170-4688-bc44-6f50e3f8a7d1"},"vehicle_type_id":"4","last_reported":1732150095,"current_range_meters":28800,"station_id":"","pricing_plan_id":"cebpf4jnsgd1na2vs0mg"},{"bike_id":"1a4f8d92-aad0-4674-933e-bf91d4e65d01","system_id":"levelo_inurba_marseille","lat":43.28702,"lon":5.39983,"is_reserved":false,"is_disabled":false,"rental_uris":{"android":"levelo://app?vid=1a4f8d92-aad0-4674-933e-bf91d4e65d01","ios":"levelo://app?vid=1a4f8d92-aad0-4674-933e-bf91d4e65d01"},"vehicle_type_id":"4","last_reported":1732150095,"current_range_meters":38800,"station_id":"ce4bho92rcd13ifvqh3g","pricing_plan_id":"cebpf4jnsgd1na2vs0mg"},{"bike_id":"d0b25063-484d-4898-a808-84974f7eed8c","system_id":"levelo_inurba_marseille","lat":43.31711,"lon":5.37757,"is_reserved":false,"is_disabled":false,"rental_uris":{"android":"levelo://app?vid=d0b25063-484d-4898-a808-84974f7eed8c","ios":"levelo://app?vid=d0b25063-484d-4898-a808-84974f7eed8c"},"vehicle_type_id":"4","last_reported":1732150095,"current_range_meters":39200,"station_id":"ce4bgth2rcd13ifvqch0","pricing_plan_id":"cebpf4jnsgd1na2vs0mg"},{"bike_id":"f6ca9245-191f-4978-98c5-b08ce79f5b19","system_id":"levelo_inurba_marseille","lat":43.25868,"lon":5.39897,"is_reserved":false,"is_disabled":false,"rental_uris":{"android":"levelo://app?vid=f6ca9245-191f-4978-98c5-b08ce79f5b19","ios":"levelo://app?vid=f6ca9245-191f-4978-98c5-b08ce79f5b19"},"vehicle_type_id":"4","last_reported":1732150095,"current_range_meters":24800,"station_id":"ce4bhl92rcd13ifvqghg","pricing_plan_id":"cebpf4jnsgd1na2vs0mg"},{"bike_id":"e3a6dc38-acbb-44b9-99a8-254c335baf3f","system_id":"levelo_inurba_marseille","lat":43.30952,"lon":5.39033,"is_reserved":false,"is_disabled":false,"rental_uris":{"android":"levelo://app?vid=e3a6dc38-acbb-44b9-99a8-254c335baf3f","ios":"levelo://app?vid=e3a6dc38-acbb-44b9-99a8-254c335baf3f"},"vehicle_type_id":"4","last_reported":1732150095,"current_range_meters":22800,"station_id":"ce4bgup2rcd13ifvqco0","pricing_plan_id":"cebpf4jnsgd1na2vs0mg"},{"bike_id":"9202e7f1-33d6-4795-9ace-47bd13769fe1","system_id":"levelo_inurba_marseille","lat":43.30091,"lon":5.39059,"is_reserved":false,"is_disabled":false,"rental_uris":{"android":"levelo://app?vid=9202e7f1-33d6-4795-9ace-47bd13769fe1","ios":"levelo://app?vid=9202e7f1-33d6-4795-9ace-47bd13769fe1"},"vehicle_type_id":"4","last_reported":1732150095,"current_range_meters":25600,"station_id":"ce4bh192rcd13ifvqdb0","pricing_plan_id":"cebpf4jnsgd1na2vs0mg"},{"bike_id":"98b32e58-9186-4741-afff-13e77a09e04c","system_id":"levelo_inurba_marseille","lat":43.25083,"lon":5.39518,"is_reserved":false,"is_disabled":false,"rental_uris":{"android":"levelo://app?vid=98b32e58-9186-4741-afff-13e77a09e04c","ios":"levelo://app?vid=98b32e58-9186-4741-afff-13e77a09e04c"},"vehicle_type_id":"4","last_reported":1732150095,"current_range_meters":24800,"station_id":"ce4bhm12rcd13ifvqgkg","pricing_plan_id":"cebpf4jnsgd1na2vs0mg"},{"bike_id":"9b3fbf62-4f4c-46b4-9c62-9854a41b7d49","system_id":"levelo_inurba_marseille","lat":43.31711,"lon":5.37748,"is_reserved":false,"is_disabled":false,"rental_uris":{"android":"levelo://app?vid=9b3fbf62-4f4c-46b4-9c62-9854a41b7d49","ios":"levelo://app?vid=9b3fbf62-4f4c-46b4-9c62-9854a41b7d49"},"vehicle_type_id":"4","last_reported":1732150095,"current_range_meters":38800,"station_id":"ce4bgth2rcd13ifvqch0","pricing_plan_id":"cebpf4jnsgd1na2vs0mg"},{"bike_id":"7eaf5910-b4db-4259-961f-d6ce83b4b295","system_id":"levelo_inurba_marseille","lat":43.33766,"lon":5.3744,"is_reserved":false,"is_disabled":false,"rental_uris":{"android":"levelo://app?vid=7eaf5910-b4db-4259-961f-d6ce83b4b295","ios":"levelo://app?vid=7eaf5910-b4db-4259-961f-d6ce83b4b295"},"vehicle_type_id":"4","last_reported":1732150095,"current_range_meters":38000,"station_id":"","pricing_plan_id":"cebpf4jnsgd1na2vs0mg"},{"bike_id":"42d6fa67-3d3d-427c-a63a-15e267a4a6ee","system_id":"levelo_inurba_marseille","lat":43.27946,"lon":5.41045,"is_reserved":false,"is_disabled":true,"rental_uris":{"android":"levelo://app?vid=42d6fa67-3d3d-427c-a63a-15e267a4a6ee","ios":"levelo://app?vid=42d6fa67-3d3d-427c-a63a-15e267a4a6ee"},"vehicle_type_id":"4","last_reported":1732150095,"current_range_meters":26000,"station_id":"ce4bhnp2rcd13ifvqh0g","pricing_plan_id":"cebpf4jnsgd1na2vs0mg"},{"bike_id":"0e4521f2-e679-4372-a39b-5fed09912101","system_id":"levelo_inurba_marseille","lat":43.28105,"lon":5.37841,"is_reserved":false,"is_disabled":false,"rental_uris":{"android":"levelo://app?vid=0e4521f2-e679-4372-a39b-5fed09912101","ios":"levelo://app?vid=0e4521f2-e679-4372-a39b-5fed09912101"},"vehicle_type_id":"4","last_reported":1732150095,"current_range_meters":32000,"station_id":"ce4bha12rcd13ifvqee0","pricing_plan_id":"cebpf4jnsgd1na2vs0mg"},{"bike_id":"29c1ed62-b535-4654-b404-c163fdf42a05","system_id":"levelo_inurba_marseille","lat":43.29879,"lon":5.39742,"is_reserved":false,"is_disabled":false,"rental_uris":{"android":"levelo://app?vid=29c1ed62-b535-4654-b404-c163fdf42a05","ios":"levelo://app?vid=29c1ed62-b535-4654-b404-c163fdf42a05"},"vehicle_type_id":"4","last_reported":1732150095,"current_range_meters":39200,"station_id":"ce4bh0h2rcd13ifvqd50","pricing_plan_id":"cebpf4jnsgd1na2vs0mg"},{"bike_id":"003982d6-26e4-4afc-a9c1-262932f79435","system_id":"levelo_inurba_marseille","lat":43.31276,"lon":5.40162,"is_reserved":false,"is_disabled":false,"rental_uris":{"android":"levelo://app?vid=003982d6-26e4-4afc-a9c1-262932f79435","ios":"levelo://app?vid=003982d6-26e4-4afc-a9c1-262932f79435"},"vehicle_type_id":"4","last_reported":1732150095,"current_range_meters":36800,"station_id":"ce4bh092rcd13ifvqd30","pricing_plan_id":"cebpf4jnsgd1na2vs0mg"},{"bike_id":"e8fbb90d-dd91-4756-8f7a-64af842760a6","system_id":"levelo_inurba_marseille","lat":43.30802,"lon":5.43496,"is_reserved":false,"is_disabled":false,"rental_uris":{"android":"levelo://app?vid=e8fbb90d-dd91-4756-8f7a-64af842760a6","ios":"levelo://app?vid=e8fbb90d-dd91-4756-8f7a-64af842760a6"},"vehicle_type_id":"4","last_reported":1732150095,"current_range_meters":37600,"station_id":"ce4bhph2rcd13ifvqheg","pricing_plan_id":"cebpf4jnsgd1na2vs0mg"},{"bike_id":"355652fe-5b40-4fa8-84ba-669e96205bc5","system_id":"levelo_inurba_marseille","lat":43.31979,"lon":5.38125,"is_reserved":false,"is_disabled":false,"rental_uris":{"android":"levelo://app?vid=355652fe-5b40-4fa8-84ba-669e96205bc5","ios":"levelo://app?vid=355652fe-5b40-4fa8-84ba-669e96205bc5"},"vehicle_type_id":"4","last_reported":1732150095,"current_range_meters":38800,"station_id":"ce4bhr12rcd13ifvqhpg","pricing_plan_id":"cebpf4jnsgd1na2vs0mg"},{"bike_id":"bfb6173a-2f97-4268-ac2c-bb43c817bc4d","system_id":"levelo_inurba_marseille","lat":43.2656,"lon":5.37282,"is_reserved":false,"is_disabled":false,"rental_uris":{"android":"levelo://app?vid=bfb6173a-2f97-4268-ac2c-bb43c817bc4d","ios":"levelo://app?vid=bfb6173a-2f97-4268-ac2c-bb43c817bc4d"},"vehicle_type_id":"4","last_reported":1732150095,"current_range_meters":36800,"station_id":"ce4bhg12rcd13ifvqf70","pricing_plan_id":"cebpf4jnsgd1na2vs0mg"},{"bike_id":"5b5f4604-3a82-4584-a08b-4bc79bf3d12b","system_id":"levelo_inurba_marseille","lat":43.30914,"lon":5.37157,"is_reserved":false,"is_disabled":false,"rental_uris":{"android":"levelo://app?vid=5b5f4604-3a82-4584-a08b-4bc79bf3d12b","ios":"levelo://app?vid=5b5f4604-3a82-4584-a08b-4bc79bf3d12b"},"vehicle_type_id":"4","last_reported":1732150095,"current_range_meters":11200,"station_id":"ce4bguh2rcd13ifvqckg","pricing_plan_id":"cebpf4jnsgd1na2vs0mg"},{"bike_id":"9578ee9f-beb9-42e9-a863-107df67e6c7b","system_id":"levelo_inurba_marseille","lat":43.25869,"lon":5.39896,"is_reserved":false,"is_disabled":false,"rental_uris":{"android":"levelo://app?vid=9578ee9f-beb9-42e9-a863-107df67e6c7b","ios":"levelo://app?vid=9578ee9f-beb9-42e9-a863-107df67e6c7b"},"vehicle_type_id":"4","last_reported":1732150095,"current_range_meters":20000,"station_id":"ce4bhl92rcd13ifvqghg","pricing_plan_id":"cebpf4jnsgd1na2vs0mg"},{"bike_id":"7555e647-a0cf-4fd7-83ce-4ae75659fd4c","system_id":"levelo_inurba_marseille","lat":43.3065,"lon":5.40083,"is_reserved":false,"is_disabled":false,"rental_uris":{"android":"levelo://app?vid=7555e647-a0cf-4fd7-83ce-4ae75659fd4c","ios":"levelo://app?vid=7555e647-a0cf-4fd7-83ce-4ae75659fd4c"},"vehicle_type_id":"4","last_reported":1732150095,"current_range_meters":39200,"station_id":"ce4bh112rcd13ifvqda0","pricing_plan_id":"cebpf4jnsgd1na2vs0mg"},{"bike_id":"cae080ee-7c9f-46a0-b9fc-d77e4f0f6295","system_id":"levelo_inurba_marseille","lat":43.34,"lon":5.42292,"is_reserved":false,"is_disabled":false,"rental_uris":{"android":"levelo://app?vid=cae080ee-7c9f-46a0-b9fc-d77e4f0f6295","ios":"levelo://app?vid=cae080ee-7c9f-46a0-b9fc-d77e4f0f6295"},"vehicle_type_id":"4","last_reported":1732150095,"current_range_meters":3600,"station_id":"","pricing_plan_id":"cebpf4jnsgd1na2vs0mg"},{"bike_id":"42b8e8d9-96d9-4aa4-b76a-58d958bbfd31","system_id":"levelo_inurba_marseille","lat":43.28731,"lon":5.36081,"is_reserved":false,"is_disabled":false,"rental_uris":{"android":"levelo://app?vid=42b8e8d9-96d9-4aa4-b76a-58d958bbfd31","ios":"levelo://app?vid=42b8e8d9-96d9-4aa4-b76a-58d958bbfd31"},"vehicle_type_id":"4","last_reported":1732150095,"current_range_meters":30000,"station_id":"cki0cbj6b192h4jlfktg","pricing_plan_id":"cebpf4jnsgd1na2vs0mg"},{"bike_id":"a13d3387-f991-4615-ad72-55b943b5271f","system_id":"levelo_inurba_marseille","lat":43.29007,"lon":5.35604,"is_reserved":false,"is_disabled":false,"rental_uris":{"android":"levelo://app?vid=a13d3387-f991-4615-ad72-55b943b5271f","ios":"levelo://app?vid=a13d3387-f991-4615-ad72-55b943b5271f"},"vehicle_type_id":"4","last_reported":1732150095,"current_range_meters":36800,"station_id":"ce4bhb92rcd13ifvqen0","pricing_plan_id":"cebpf4jnsgd1na2vs0mg"},{"bike_id":"efaa20f7-d2fb-4778-9ca3-b17e9193d440","system_id":"levelo_inurba_marseille","lat":43.33727,"lon":5.3918,"is_reserved":false,"is_disabled":false,"rental_uris":{"android":"levelo://app?vid=efaa20f7-d2fb-4778-9ca3-b17e9193d440","ios":"levelo://app?vid=efaa20f7-d2fb-4778-9ca3-b17e9193d440"},"vehicle_type_id":"4","last_reported":1732150095,"current_range_meters":32000,"station_id":"ce4bhr92rcd13ifvqhsg","pricing_plan_id":"cebpf4jnsgd1na2vs0mg"},{"bike_id":"aba241e1-89f6-4d1b-8913-170b48ceb347","system_id":"levelo_inurba_marseille","lat":43.30596,"lon":5.37232,"is_reserved":false,"is_disabled":false,"rental_uris":{"android":"levelo://app?vid=aba241e1-89f6-4d1b-8913-170b48ceb347","ios":"levelo://app?vid=aba241e1-89f6-4d1b-8913-170b48ceb347"},"vehicle_type_id":"4","last_reported":1732150095,"current_range_meters":36000,"station_id":"ce4bgqh2rcd13ifvqc4g","pricing_plan_id":"cebpf4jnsgd1na2vs0mg"},{"bike_id":"d8267348-e235-4ee6-8b7c-9e1102af170d","system_id":"levelo_inurba_marseille","lat":43.274957,"lon":5.424544,"is_reserved":false,"is_disabled":false,"rental_uris":{"android":"levelo://app?vid=d8267348-e235-4ee6-8b7c-9e1102af170d","ios":"levelo://app?vid=d8267348-e235-4ee6-8b7c-9e1102af170d"},"vehicle_type_id":"4","last_reported":1732150095,"current_range_meters":33600,"station_id":"ce4bhn92rcd13ifvqgrg","pricing_plan_id":"cebpf4jnsgd1na2vs0mg"},{"bike_id":"7a942108-16ea-4f98-9d80-82c238759071","system_id":"levelo_inurba_marseille","lat":43.29568,"lon":5.39964,"is_reserved":false,"is_disabled":true,"rental_uris":{"android":"levelo://app?vid=7a942108-16ea-4f98-9d80-82c238759071","ios":"levelo://app?vid=7a942108-16ea-4f98-9d80-82c238759071"},"vehicle_type_id":"4","last_reported":1732150095,"current_range_meters":36800,"station_id":"ce4bh312rcd13ifvqdj0","pricing_plan_id":"cebpf4jnsgd1na2vs0mg"},{"bike_id":"028e5427-36e2-49e1-b3db-260058fffb58","system_id":"levelo_inurba_marseille","lat":43.25576,"lon":5.38239,"is_reserved":false,"is_disabled":false,"rental_uris":{"android":"levelo://app?vid=028e5427-36e2-49e1-b3db-260058fffb58","ios":"levelo://app?vid=028e5427-36e2-49e1-b3db-260058fffb58"},"vehicle_type_id":"4","last_reported":1732150095,"current_range_meters":25600,"station_id":"ce4bhih2rcd13ifvqfs0","pricing_plan_id":"cebpf4jnsgd1na2vs0mg"},{"bike_id":"91f0893f-6c9c-447a-87d6-53127af86d60","system_id":"levelo_inurba_marseille","lat":43.2509,"lon":5.39516,"is_reserved":false,"is_disabled":false,"rental_uris":{"android":"levelo://app?vid=91f0893f-6c9c-447a-87d6-53127af86d60","ios":"levelo://app?vid=91f0893f-6c9c-447a-87d6-53127af86d60"},"vehicle_type_id":"4","last_reported":1732150095,"current_range_meters":18800,"station_id":"ce4bhm12rcd13ifvqgkg","pricing_plan_id":"cebpf4jnsgd1na2vs0mg"},{"bike_id":"ced66872-059d-4268-815d-080a073d130d","system_id":"levelo_inurba_marseille","lat":43.33607,"lon":5.41024,"is_reserved":false,"is_disabled":false,"rental_uris":{"android":"levelo://app?vid=ced66872-059d-4268-815d-080a073d130d","ios":"levelo://app?vid=ced66872-059d-4268-815d-080a073d130d"},"vehicle_type_id":"4","last_reported":1732150095,"current_range_meters":23200,"station_id":"ce4bhqh2rcd13ifvqhmg","pricing_plan_id":"cebpf4jnsgd1na2vs0mg"},{"bike_id":"7e17a81f-3b24-49e1-a5fc-e88f9462d78d","system_id":"levelo_inurba_marseille","lat":43.28417,"lon":5.40935,"is_reserved":false,"is_disabled":false,"rental_uris":{"android":"levelo://app?vid=7e17a81f-3b24-49e1-a5fc-e88f9462d78d","ios":"levelo://app?vid=7e17a81f-3b24-49e1-a5fc-e88f9462d78d"},"vehicle_type_id":"4","last_reported":1732150095,"current_range_meters":10800,"station_id":"","pricing_plan_id":"cebpf4jnsgd1na2vs0mg"},{"bike_id":"0d5efe48-32bd-461f-be09-c1d5e2d6ef37","system_id":"levelo_inurba_marseille","lat":43.32363,"lon":5.38886,"is_reserved":false,"is_disabled":false,"rental_uris":{"android":"levelo://app?vid=0d5efe48-32bd-461f-be09-c1d5e2d6ef37","ios":"levelo://app?vid=0d5efe48-32bd-461f-be09-c1d5e2d6ef37"},"vehicle_type_id":"4","last_reported":1732150095,"current_range_meters":38800,"station_id":"ce4bhqp2rcd13ifvqhog","pricing_plan_id":"cebpf4jnsgd1na2vs0mg"},{"bike_id":"1d5ad848-00c8-46b3-8f0f-c65a7b67cff1","system_id":"levelo_inurba_marseille","lat":43.27424,"lon":5.39413,"is_reserved":false,"is_disabled":false,"rental_uris":{"android":"levelo://app?vid=1d5ad848-00c8-46b3-8f0f-c65a7b67cff1","ios":"levelo://app?vid=1d5ad848-00c8-46b3-8f0f-c65a7b67cff1"},"vehicle_type_id":"4","last_reported":1732150095,"current_range_meters":38000,"station_id":"ce4bhdp2rcd13ifvqf20","pricing_plan_id":"cebpf4jnsgd1na2vs0mg"},{"bike_id":"8a2a8049-cbab-46a9-b113-5fc7ea4ae490","system_id":"levelo_inurba_marseille","lat":43.25109,"lon":5.40336,"is_reserved":false,"is_disabled":false,"rental_uris":{"android":"levelo://app?vid=8a2a8049-cbab-46a9-b113-5fc7ea4ae490","ios":"levelo://app?vid=8a2a8049-cbab-46a9-b113-5fc7ea4ae490"},"vehicle_type_id":"4","last_reported":1732150095,"current_range_meters":16400,"station_id":"ce4bhlh2rcd13ifvqgig","pricing_plan_id":"cebpf4jnsgd1na2vs0mg"},{"bike_id":"41b66025-5082-421d-922c-552de41f1f1b","system_id":"levelo_inurba_marseille","lat":43.33795,"lon":5.37474,"is_reserved":false,"is_disabled":false,"rental_uris":{"android":"levelo://app?vid=41b66025-5082-421d-922c-552de41f1f1b","ios":"levelo://app?vid=41b66025-5082-421d-922c-552de41f1f1b"},"vehicle_type_id":"4","last_reported":1732150095,"current_range_meters":34000,"station_id":"","pricing_plan_id":"cebpf4jnsgd1na2vs0mg"},{"bike_id":"009ac959-e326-4fa0-a654-75e82873a609","system_id":"levelo_inurba_marseille","lat":43.31755,"lon":5.39018,"is_reserved":false,"is_disabled":false,"rental_uris":{"android":"levelo://app?vid=009ac959-e326-4fa0-a654-75e82873a609","ios":"levelo://app?vid=009ac959-e326-4fa0-a654-75e82873a609"},"vehicle_type_id":"4","last_reported":1732150095,"current_range_meters":38800,"station_id":"ce4bhqp2rcd13ifvqhng","pricing_plan_id":"cebpf4jnsgd1na2vs0mg"},{"bike_id":"7577f7b0-3986-4964-af34-9253d0a52f4b","system_id":"levelo_inurba_marseille","lat":43.30362,"lon":5.41885,"is_reserved":false,"is_disabled":false,"rental_uris":{"android":"levelo://app?vid=7577f7b0-3986-4964-af34-9253d0a52f4b","ios":"levelo://app?vid=7577f7b0-3986-4964-af34-9253d0a52f4b"},"vehicle_type_id":"4","last_reported":1732150095,"current_range_meters":38400,"station_id":"ce4bhop2rcd13ifvqh7g","pricing_plan_id":"cebpf4jnsgd1na2vs0mg"},{"bike_id":"8b442a67-8fa0-470f-b68b-122a4b3f6ca4","system_id":"levelo_inurba_marseille","lat":43.30098,"lon":5.39071,"is_reserved":false,"is_disabled":false,"rental_uris":{"android":"levelo://app?vid=8b442a67-8fa0-470f-b68b-122a4b3f6ca4","ios":"levelo://app?vid=8b442a67-8fa0-470f-b68b-122a4b3f6ca4"},"vehicle_type_id":"4","last_reported":1732150095,"current_range_meters":39200,"station_id":"ce4bh192rcd13ifvqdb0","pricing_plan_id":"cebpf4jnsgd1na2vs0mg"},{"bike_id":"b6a5dd45-3299-4794-bb3d-6c5c2b5a78a1","system_id":"levelo_inurba_marseille","lat":43.33023,"lon":5.39041,"is_reserved":false,"is_disabled":false,"rental_uris":{"android":"levelo://app?vid=b6a5dd45-3299-4794-bb3d-6c5c2b5a78a1","ios":"levelo://app?vid=b6a5dd45-3299-4794-bb3d-6c5c2b5a78a1"},"vehicle_type_id":"4","last_reported":1732150095,"current_range_meters":39200,"station_id":"ce4bhr92rcd13ifvqhrg","pricing_plan_id":"cebpf4jnsgd1na2vs0mg"},{"bike_id":"3510dcfc-2d3f-4078-9a1e-d902e15e28a9","system_id":"levelo_inurba_marseille","lat":43.31488,"lon":5.37311,"is_reserved":false,"is_disabled":false,"rental_uris":{"android":"levelo://app?vid=3510dcfc-2d3f-4078-9a1e-d902e15e28a9","ios":"levelo://app?vid=3510dcfc-2d3f-4078-9a1e-d902e15e28a9"},"vehicle_type_id":"4","last_reported":1732150095,"current_range_meters":30400,"station_id":"ce4bgt12rcd13ifvqcd0","pricing_plan_id":"cebpf4jnsgd1na2vs0mg"},{"bike_id":"4a4cc085-31f4-43ee-9696-71a106728b96","system_id":"levelo_inurba_marseille","lat":43.30935,"lon":5.40152,"is_reserved":false,"is_disabled":false,"rental_uris":{"android":"levelo://app?vid=4a4cc085-31f4-43ee-9696-71a106728b96","ios":"levelo://app?vid=4a4cc085-31f4-43ee-9696-71a106728b96"},"vehicle_type_id":"4","last_reported":1732150095,"current_range_meters":38800,"station_id":"ce4bgvp2rcd13ifvqct0","pricing_plan_id":"cebpf4jnsgd1na2vs0mg"},{"bike_id":"0cf08f2a-762a-455e-8355-389e5172d4a4","system_id":"levelo_inurba_marseille","lat":43.30326,"lon":5.40439,"is_reserved":false,"is_disabled":false,"rental_uris":{"android":"levelo://app?vid=0cf08f2a-762a-455e-8355-389e5172d4a4","ios":"levelo://app?vid=0cf08f2a-762a-455e-8355-389e5172d4a4"},"vehicle_type_id":"4","last_reported":1732150095,"current_range_meters":27200,"station_id":"ce4bh012rcd13ifvqd10","pricing_plan_id":"cebpf4jnsgd1na2vs0mg"},{"bike_id":"84a237d9-ad41-45bd-8525-9d3660ffada0","system_id":"levelo_inurba_marseille","lat":43.25112,"lon":5.40323,"is_reserved":false,"is_disabled":false,"rental_uris":{"android":"levelo://app?vid=84a237d9-ad41-45bd-8525-9d3660ffada0","ios":"levelo://app?vid=84a237d9-ad41-45bd-8525-9d3660ffada0"},"vehicle_type_id":"4","last_reported":1732150095,"current_range_meters":8400,"station_id":"ce4bhlh2rcd13ifvqgig","pricing_plan_id":"cebpf4jnsgd1na2vs0mg"},{"bike_id":"3242b0f3-4f3f-462c-b731-c30f560a3efa","system_id":"levelo_inurba_marseille","lat":43.31759,"lon":5.39024,"is_reserved":false,"is_disabled":false,"rental_uris":{"android":"levelo://app?vid=3242b0f3-4f3f-462c-b731-c30f560a3efa","ios":"levelo://app?vid=3242b0f3-4f3f-462c-b731-c30f560a3efa"},"vehicle_type_id":"4","last_reported":1732150095,"current_range_meters":28000,"station_id":"ce4bhqp2rcd13ifvqhng","pricing_plan_id":"cebpf4jnsgd1na2vs0mg"},{"bike_id":"f971862f-2336-4b3f-b3d4-b0e85fc44764","system_id":"levelo_inurba_marseille","lat":43.25104,"lon":5.40329,"is_reserved":false,"is_disabled":false,"rental_uris":{"android":"levelo://app?vid=f971862f-2336-4b3f-b3d4-b0e85fc44764","ios":"levelo://app?vid=f971862f-2336-4b3f-b3d4-b0e85fc44764"},"vehicle_type_id":"4","last_reported":1732150095,"current_range_meters":38000,"station_id":"ce4bhlh2rcd13ifvqgig","pricing_plan_id":"cebpf4jnsgd1na2vs0mg"},{"bike_id":"970a6283-9597-408d-a32a-6bec2f5de1ef","system_id":"levelo_inurba_marseille","lat":43.29791,"lon":5.3935,"is_reserved":false,"is_disabled":false,"rental_uris":{"android":"levelo://app?vid=970a6283-9597-408d-a32a-6bec2f5de1ef","ios":"levelo://app?vid=970a6283-9597-408d-a32a-6bec2f5de1ef"},"vehicle_type_id":"4","last_reported":1732150095,"current_range_meters":30400,"station_id":"chh1huq6cuj3fo74tm60","pricing_plan_id":"cebpf4jnsgd1na2vs0mg"},{"bike_id":"7da372fc-3699-4a05-96fa-9342ec3ef374","system_id":"levelo_inurba_marseille","lat":43.2572,"lon":5.41118,"is_reserved":false,"is_disabled":false,"rental_uris":{"android":"levelo://app?vid=7da372fc-3699-4a05-96fa-9342ec3ef374","ios":"levelo://app?vid=7da372fc-3699-4a05-96fa-9342ec3ef374"},"vehicle_type_id":"4","last_reported":1732150095,"current_range_meters":14400,"station_id":"ce4bhkp2rcd13ifvqgd0","pricing_plan_id":"cebpf4jnsgd1na2vs0mg"},{"bike_id":"e5951ee3-4a5a-4ebb-b469-096c5188dfa3","system_id":"levelo_inurba_marseille","lat":43.23188,"lon":5.35559,"is_reserved":false,"is_disabled":false,"rental_uris":{"android":"levelo://app?vid=e5951ee3-4a5a-4ebb-b469-096c5188dfa3","ios":"levelo://app?vid=e5951ee3-4a5a-4ebb-b469-096c5188dfa3"},"vehicle_type_id":"4","last_reported":1732150095,"current_range_meters":36400,"station_id":"ce4bhu92rcd13ifvqi70","pricing_plan_id":"cebpf4jnsgd1na2vs0mg"},{"bike_id":"67c5c059-d024-433f-be79-ab4ec93fef58","system_id":"levelo_inurba_marseille","lat":43.31759,"lon":5.39018,"is_reserved":false,"is_disabled":false,"rental_uris":{"android":"levelo://app?vid=67c5c059-d024-433f-be79-ab4ec93fef58","ios":"levelo://app?vid=67c5c059-d024-433f-be79-ab4ec93fef58"},"vehicle_type_id":"4","last_reported":1732150095,"current_range_meters":37600,"station_id":"ce4bhqp2rcd13ifvqhng","pricing_plan_id":"cebpf4jnsgd1na2vs0mg"},{"bike_id":"2ed93857-c7b4-49c1-9c7d-ca0f884a7ed1","system_id":"levelo_inurba_marseille","lat":43.24396,"lon":5.3705,"is_reserved":false,"is_disabled":false,"rental_uris":{"android":"levelo://app?vid=2ed93857-c7b4-49c1-9c7d-ca0f884a7ed1","ios":"levelo://app?vid=2ed93857-c7b4-49c1-9c7d-ca0f884a7ed1"},"vehicle_type_id":"4","last_reported":1732150095,"current_range_meters":9200,"station_id":"ce4bhhh2rcd13ifvqfk0","pricing_plan_id":"cebpf4jnsgd1na2vs0mg"},{"bike_id":"b2f6b9cf-69db-40ab-8230-689c41a2c16c","system_id":"levelo_inurba_marseille","lat":43.24166,"lon":5.36398,"is_reserved":false,"is_disabled":false,"rental_uris":{"android":"levelo://app?vid=b2f6b9cf-69db-40ab-8230-689c41a2c16c","ios":"levelo://app?vid=b2f6b9cf-69db-40ab-8230-689c41a2c16c"},"vehicle_type_id":"4","last_reported":1732150095,"current_range_meters":36400,"station_id":"cpo36qri1sfpv3e86is0","pricing_plan_id":"cebpf4jnsgd1na2vs0mg"},{"bike_id":"58a208f4-fd83-44a4-bf12-9a135848ed36","system_id":"levelo_inurba_marseille","lat":43.33728,"lon":5.39186,"is_reserved":false,"is_disabled":false,"rental_uris":{"android":"levelo://app?vid=58a208f4-fd83-44a4-bf12-9a135848ed36","ios":"levelo://app?vid=58a208f4-fd83-44a4-bf12-9a135848ed36"},