{"last_updated":1770899999,"ttl":60,"version":"2.2","data":{"bikes":[{"bike_id":"1c120683-67bc-428a-aa0f-bec572dfb863","system_id":"levelo_inurba_marseille","lat":43.25576,"lon":5.382503,"is_reserved":false,"is_disabled":false,"rental_uris":{"android":"levelo://app?vid=1c120683-67bc-428a-aa0f-bec572dfb863","ios":"levelo://app?vid=1c120683-67bc-428a-aa0f-bec572dfb863"},"vehicle_type_id":"4","last_reported":1770900000,"current_range_meters":2800,"station_id":"ce4bhih2rcd13ifvqfs0","pricing_plan_id":"cebpf4jnsgd1na2vs0mg"},{"bike_id":"94a4e1f3-a8e3-4e58-9a7c-83701131f7da","system_id":"levelo_inurba_marseille","lat":43.25821,"lon":5.3945,"is_reserved":false,"is_disabled":false,"rental_uris":{"android":"levelo://app?vid=94a4e1f3-a8e3-4e58-9a7c-83701131f7da","ios":"levelo://app?vid=94a4e1f3-a8e3-4e58-9a7c-83701131f7da"},"vehicle_type_id":"4","last_reported":1770900000,"current_range_meters":2800,"station_id":"","pricing_plan_id":"cebpf4jnsgd1na2vs0mg"},{"bike_id":"4659f5f2-43a6-4213-b84f-184d5dec64b3","system_id":"levelo_inurba_marseille","lat":43.335476,"lon":5.374624,"is_reserved":false,"is_disabled":false,"rental_uris":{"android":"levelo://app?vid=4659f5f2-43a6-4213-b84f-184d5dec64b3","ios":"levelo://app?vid=4659f5f2-43a6-4213-b84f-184d5dec64b3"},"vehicle_type_id":"4","last_reported":1770900000,"current_range_meters":2800,"station_id":"st_d46tts09ee8s73dlu43g","pricing_plan_id":"cebpf4jnsgd1na2vs0mg"},{"bike_id":"d5d656ce-6d10-446b-83e4-01e50cae5e79","system_id":"levelo_inurba_marseille","lat":43.31054,"lon":5.37195,"is_reserved":false,"is_disabled":false,"rental_uris":{"android":"levelo://app?vid=d5d656ce-6d10-446b-83e4-01e50cae5e79","ios":"levelo://app?vid=d5d656ce-6d10-446b-83e4-01e50cae5e79"},"vehicle_type_id":"4","last_reported":1770900000,"current_range_meters":2800,"station_id":"st_d4kl2rp97mjs73e7tdfg","pricing_plan_id":"cebpf4jnsgd1na2vs0mg"},{"bike_id":"bdde70ef-70ce-4d41-a03b-1cac73853d63","system_id":"levelo_inurba_marseille","lat":43.24162,"lon":5.3639,"is_reserved":false,"is_disabled":false,"rental_uris":{"android":"levelo://app?vid=bdde70ef-70ce-4d41-a03b-1cac73853d63","ios":"levelo://app?vid=bdde70ef-70ce-4d41-a03b-1cac73853d63"},"vehicle_type_id":"4","last_reported":1770900000,"current_range_meters":2800,"station_id":"cpo36qri1sfpv3e86is0","pricing_plan_id":"cebpf4jnsgd1na2vs0mg"},{"bike_id":"edbbdbd2-0e42-4247-84d4-741428b7bbc5","system_id":"levelo_inurba_marseille","lat":43.30931,"lon":5.37998,"is_reserved":false,"is_disabled":false,"rental_uris":{"android":"levelo://app?vid=edbbdbd2-0e42-4247-84d4-741428b7bbc5","ios":"levelo://app?vid=edbbdbd2-0e42-4247-84d4-741428b7bbc5"},"vehicle_type_id":"4","last_reported":1770900000,"current_range_meters":2800,"station_id":"","pricing_plan_id":"cebpf4jnsgd1na2vs0mg"},{"bike_id":"b377eebb-38c9-4328-81d8-b28f5ba4bb3f","system_id":"levelo_inurba_marseille","lat":43.30962,"lon":5.39102,"is_reserved":false,"is_disabled":false,"rental_uris":{"android":"levelo://app?vid=b377eebb-38c9-4328-81d8-b28f5ba4bb3f","ios":"levelo://app?vid=b377eebb-38c9-4328-81d8-b28f5ba4bb3f"},"vehicle_type_id":"4","last_reported":1770900000,"current_range_meters":2800,"station_id":"","pricing_plan_id":"cebpf4jnsgd1na2vs0mg"},{"bike_id":"6f36e1ce-a732-4813-9d77-efe6e46c862d","system_id":"levelo_inurba_marseille","lat":43.28616,"lon":5.35108,"is_reserved":false,"is_disabled":false,"rental_uris":{"android":"levelo://app?vid=6f36e1ce-a732-4813-9d77-efe6e46c862d","ios":"levelo://app?vid=6f36e1ce-a732-4813-9d77-efe6e46c862d"},"vehicle_type_id":"4","last_reported":1770900000,"current_range_meters":2800,"station_id":"ce4bhch2rcd13ifvqeug","pricing_plan_id":"cebpf4jnsgd1na2vs0mg"},{"bike_id":"238249fa-46de-416c-b2d1-b229a6220ad5","system_id":"levelo_inurba_marseille","lat":43.2657,"lon":5.38997,"is_reserved":false,"is_disabled":false,"rental_uris":{"android":"levelo://app?vid=238249fa-46de-416c-b2d1-b229a6220ad5","ios":"levelo://app?vid=238249fa-46de-416c-b2d1-b229a6220ad5"},"vehicle_type_id":"4","last_reported":1770900000,"current_range_meters":2800,"station_id":"ce4bhe12rcd13ifvqf30","pricing_plan_id":"cebpf4jnsgd1na2vs0mg"},{"bike_id":"8b4263f7-2795-486a-b290-22850f34f9ba","system_id":"levelo_inurba_marseille","lat":43.25003,"lon":5.38928,"is_reserved":false,"is_disabled":false,"rental_uris":{"android":"levelo://app?vid=8b4263f7-2795-486a-b290-22850f34f9ba","ios":"levelo://app?vid=8b4263f7-2795-486a-b290-22850f34f9ba"},"vehicle_type_id":"4","last_reported":1770900000,"current_range_meters":2800,"station_id":"ce4bhgp2rcd13ifvqfd0","pricing_plan_id":"cebpf4jnsgd1na2vs0mg"},{"bike_id":"d5bcfa95-d15b-4ca9-9d52-765d9a60bf33","system_id":"levelo_inurba_marseille","lat":43.27833,"lon":5.3921,"is_reserved":false,"is_disabled":false,"rental_uris":{"android":"levelo://app?vid=d5bcfa95-d15b-4ca9-9d52-765d9a60bf33","ios":"levelo://app?vid=d5bcfa95-d15b-4ca9-9d52-765d9a60bf33"},"vehicle_type_id":"4","last_reported":1770900000,"current_range_meters":2800,"station_id":"ce4bhjp2rcd13ifvqga0","pricing_plan_id":"cebpf4jnsgd1na2vs0mg"},{"bike_id":"08db55f9-a0dc-421d-97f0-0787336c9706","system_id":"levelo_inurba_marseille","lat":43.31068,"lon":5.38352,"is_reserved":false,"is_disabled":true,"rental_uris":{"android":"levelo://app?vid=08db55f9-a0dc-421d-97f0-0787336c9706","ios":"levelo://app?vid=08db55f9-a0dc-421d-97f0-0787336c9706"},"vehicle_type_id":"4","last_reported":1770900000,"current_range_meters":3200,"station_id":"ce4bgv92rcd13ifvqcr0","pricing_plan_id":"cebpf4jnsgd1na2vs0mg"},{"bike_id":"31f47a59-ac36-4436-9b6d-347b326a5eee","system_id":"levelo_inurba_marseille","lat":43.27055,"lon":5.40254,"is_reserved":false,"is_disabled":false,"rental_uris":{"android":"levelo://app?vid=31f47a59-ac36-4436-9b6d-347b326a5eee","ios":"levelo://app?vid=31f47a59-ac36-4436-9b6d-347b326a5eee"},"vehicle_type_id":"4","last_reported":1770900000,"current_range_meters":3200,"station_id":"ce4bhk92rcd13ifvqgc0","pricing_plan_id":"cebpf4jnsgd1na2vs0mg"},{"bike_id":"a05b422a-95a3-4880-a8be-5840943a5bab","system_id":"levelo_inurba_marseille","lat":43.22552,"lon":5.41635,"is_reserved":false,"is_disabled":false,"rental_uris":{"android":"levelo://app?vid=a05b422a-95a3-4880-a8be-5840943a5bab","ios":"levelo://app?vid=a05b422a-95a3-4880-a8be-5840943a5bab"},"vehicle_type_id":"4","last_reported":1770900000,"current_range_meters":3200,"station_id":"st_d2o4gvlbi1j2169b742g","pricing_plan_id":"cebpf4jnsgd1na2vs0mg"},{"bike_id":"fe86c9ba-789d-48cb-b139-57215407552e","system_id":"levelo_inurba_marseille","lat":43.337488,"lon":5.374514,"is_reserved":false,"is_disabled":false,"rental_uris":{"android":"levelo://app?vid=fe86c9ba-789d-48cb-b139-57215407552e","ios":"levelo://app?vid=fe86c9ba-789d-48cb-b139-57215407552e"},"vehicle_type_id":"4","last_reported":1770900000,"current_range_meters":3600,"station_id":"","pricing_plan_id":"cebpf4jnsgd1na2vs0mg"},{"bike_id":"ab7260d3-0b60-4920-bd6e-553838fbba97","system_id":"levelo_inurba_marseille","lat":43.304625,"lon":5.40221,"is_reserved":false,"is_disabled":false,"rental_uris":{"android":"levelo://app?vid=ab7260d3-0b60-4920-bd6e-553838fbba97","ios":"levelo://app?vid=ab7260d3-0b60-4920-bd6e-553838fbba97"},"vehicle_type_id":"4","last_reported":1770900000,"current_range_meters":3600,"station_id":"","pricing_plan_id":"cebpf4jnsgd1na2vs0mg"},{"bike_id":"9b586055-3525-4e43-ae53-8d6c2fff45ed","system_id":"levelo_inurba_marseille","lat":43.24177,"lon":5.36395,"is_reserved":false,"is_disabled":false,"rental_uris":{"android":"levelo://app?vid=9b586055-3525-4e43-ae53-8d6c2fff45ed","ios":"levelo://app?vid=9b586055-3525-4e43-ae53-8d6c2fff45ed"},"vehicle_type_id":"4","last_reported":1770900000,"current_range_meters":3600,"station_id":"cpo36qri1sfpv3e86is0","pricing_plan_id":"cebpf4jnsgd1na2vs0mg"},{"bike_id":"cdb5c25c-a15a-4142-a44d-9f93b3d885b7","system_id":"levelo_inurba_marseille","lat":43.28899,"lon":5.4315,"is_reserved":false,"is_disabled":true,"rental_uris":{"android":"levelo://app?vid=cdb5c25c-a15a-4142-a44d-9f93b3d885b7","ios":"levelo://app?vid=cdb5c25c-a15a-4142-a44d-9f93b3d885b7"},"vehicle_type_id":"4","last_reported":1770900000,"current_range_meters":3600,"station_id":"","pricing_plan_id":"cebpf4jnsgd1na2vs0mg"},{"bike_id":"e4f5d6b4-5214-4f51-adc4-9a51cc1f0b62","system_id":"levelo_inurba_marseille","lat":43.29263,"lon":5.40922,"is_reserved":false,"is_disabled":true,"rental_uris":{"android":"levelo://app?vid=e4f5d6b4-5214-4f51-adc4-9a51cc1f0b62","ios":"levelo://app?vid=e4f5d6b4-5214-4f51-adc4-9a51cc1f0b62"},"vehicle_type_id":"4","last_reported":1770900000,"current_range_meters":3600,"station_id":"ce4bh192rcd13ifvqdc0","pricing_plan_id":"cebpf4jnsgd1na2vs0mg"},{"bike_id":"77ce726e-b6e1-4f01-ba01-773d885bd9a8","system_id":"levelo_inurba_marseille","lat":43.26189,"lon":5.37426,"is_reserved":false,"is_disabled":false,"rental_uris":{"android":"levelo://app?vid=77ce726e-b6e1-4f01-ba01-773d885bd9a8","ios":"levelo://app?vid=77ce726e-b6e1-4f01-ba01-773d885bd9a8"},"vehicle_type_id":"4","last_reported":1770900000,"current_range_meters":3600,"station_id":"ce4bhgp2rcd13ifvqfc0","pricing_plan_id":"cebpf4jnsgd1na2vs0mg"},{"bike_id":"b261944e-5626-474e-a69a-465201871733","system_id":"levelo_inurba_marseille","lat":43.29794,"lon":5.38097,"is_reserved":false,"is_disabled":false,"rental_uris":{"android":"levelo://app?vid=b261944e-5626-474e-a69a-465201871733","ios":"levelo://app?vid=b261944e-5626-474e-a69a-465201871733"},"vehicle_type_id":"4","last_reported":1770900000,"current_range_meters":4000,"station_id":"ce4bgip2rcd13ifvqbb0","pricing_plan_id":"cebpf4jnsgd1na2vs0mg"},{"bike_id":"1a0d99f0-ee74-4956-bad4-992b0789ccc7","system_id":"levelo_inurba_marseille","lat":43.211924,"lon":5.350774,"is_reserved":false,"is_disabled":false,"rental_uris":{"android":"levelo://app?vid=1a0d99f0-ee74-4956-bad4-992b0789ccc7","ios":"levelo://app?vid=1a0d99f0-ee74-4956-bad4-992b0789ccc7"},"vehicle_type_id":"4","last_reported":1770900000,"current_range_meters":4000,"station_id":"st_cvj6sg6p6f1abm77japg","pricing_plan_id":"cebpf4jnsgd1na2vs0mg"},{"bike_id":"9b7de680-e656-45c2-b846-8bd381e9ca89","system_id":"levelo_inurba_marseille","lat":43.30427,"lon":5.40722,"is_reserved":false,"is_disabled":false,"rental_uris":{"android":"levelo://app?vid=9b7de680-e656-45c2-b846-8bd381e9ca89","ios":"levelo://app?vid=9b7de680-e656-45c2-b846-8bd381e9ca89"},"vehicle_type_id":"4","last_reported":1770900000,"current_range_meters":4000,"station_id":"","pricing_plan_id":"cebpf4jnsgd1na2vs0mg"},{"bike_id":"ed5f093d-1aa3-4ff9-ab82-20bb031f1bc6","system_id":"levelo_inurba_marseille","lat":43.28528,"lon":5.441,"is_reserved":false,"is_disabled":false,"rental_uris":{"android":"levelo://app?vid=ed5f093d-1aa3-4ff9-ab82-20bb031f1bc6","ios":"levelo://app?vid=ed5f093d-1aa3-4ff9-ab82-20bb031f1bc6"},"vehicle_type_id":"4","last_reported":1770900000,"current_range_meters":4000,"station_id":"","pricing_plan_id":"cebpf4jnsgd1na2vs0mg"},{"bike_id":"44c6aa93-1f46-4cbd-a298-6cd74e811e92","system_id":"levelo_inurba_marseille","lat":43.217601,"lon":5.34623,"is_reserved":false,"is_disabled":false,"rental_uris":{"android":"levelo://app?vid=44c6aa93-1f46-4cbd-a298-6cd74e811e92","ios":"levelo://app?vid=44c6aa93-1f46-4cbd-a298-6cd74e811e92"},"vehicle_type_id":"4","last_reported":1770900000,"current_range_meters":4000,"station_id":"st_cvj6r9ubvosntc0bgbag","pricing_plan_id":"cebpf4jnsgd1na2vs0mg"},{"bike_id":"ae861497-9a22-4231-afa9-8238d5c5713c","system_id":"levelo_inurba_marseille","lat":43.24167,"lon":5.3639,"is_reserved":false,"is_disabled":false,"rental_uris":{"android":"levelo://app?vid=ae861497-9a22-4231-afa9-8238d5c5713c","ios":"levelo://app?vid=ae861497-9a22-4231-afa9-8238d5c5713c"},"vehicle_type_id":"4","last_reported":1770900000,"current_range_meters":4000,"station_id":"cpo36qri1sfpv3e86is0","pricing_plan_id":"cebpf4jnsgd1na2vs0mg"},{"bike_id":"39f9b61e-9e27-467c-b081-5b6c22a6c92f","system_id":"levelo_inurba_marseille","lat":43.26547,"lon":5.37299,"is_reserved":false,"is_disabled":true,"rental_uris":{"android":"levelo://app?vid=39f9b61e-9e27-467c-b081-5b6c22a6c92f","ios":"levelo://app?vid=39f9b61e-9e27-467c-b081-5b6c22a6c92f"},"vehicle_type_id":"4","last_reported":1770900000,"current_range_meters":4000,"station_id":"ce4bhg12rcd13ifvqf70","pricing_plan_id":"cebpf4jnsgd1na2vs0mg"},{"bike_id":"8c2044b9-c108-400e-9e0b-2edb55ac6c86","system_id":"levelo_inurba_marseille","lat":43.25331,"lon":5.42162,"is_reserved":false,"is_disabled":false,"rental_uris":{"android":"levelo://app?vid=8c2044b9-c108-400e-9e0b-2edb55ac6c86","ios":"levelo://app?vid=8c2044b9-c108-400e-9e0b-2edb55ac6c86"},"vehicle_type_id":"4","last_reported":1770900000,"current_range_meters":4000,"station_id":"st_d2m65c5bi1j21697t3ng","pricing_plan_id":"cebpf4jnsgd1na2vs0mg"},{"bike_id":"cafd7ce9-68e9-4b95-959b-d3d962fbc176","system_id":"levelo_inurba_marseille","lat":43.27332,"lon":5.39067,"is_reserved":false,"is_disabled":false,"rental_uris":{"android":"levelo://app?vid=cafd7ce9-68e9-4b95-959b-d3d962fbc176","ios":"levelo://app?vid=cafd7ce9-68e9-4b95-959b-d3d962fbc176"},"vehicle_type_id":"4","last_reported":1770900000,"current_range_meters":4000,"station_id":"ce4bhgp2rcd13ifvqfe0","pricing_plan_id":"cebpf4jnsgd1na2vs0mg"},{"bike_id":"6efe5f0a-6c4f-403e-907f-5428484845d2","system_id":"levelo_inurba_marseille","lat":43.31694,"lon":5.40389,"is_reserved":false,"is_disabled":false,"rental_uris":{"android":"levelo://app?vid=6efe5f0a-6c4f-403e-907f-5428484845d2","ios":"levelo://app?vid=6efe5f0a-6c4f-403e-907f-5428484845d2"},"vehicle_type_id":"4","last_reported":1770900000,"current_range_meters":4000,"station_id":"","pricing_plan_id":"cebpf4jnsgd1na2vs0mg"},{"bike_id":"0edf92bb-3337-4aa5-8248-09399633c64e","system_id":"levelo_inurba_marseille","lat":43.29927,"lon":5.37469,"is_reserved":false,"is_disabled":false,"rental_uris":{"android":"levelo://app?vid=0edf92bb-3337-4aa5-8248-09399633c64e","ios":"levelo://app?vid=0edf92bb-3337-4aa5-8248-09399633c64e"},"vehicle_type_id":"4","last_reported":1770900000,"current_range_meters":4000,"station_id":"ce4bgjh2rcd13ifvqbg0","pricing_plan_id":"cebpf4jnsgd1na2vs0mg"},{"bike_id":"b3d06119-f0a6-4191-b374-93d7a840140e","system_id":"levelo_inurba_marseille","lat":43.2816,"lon":5.42686,"is_reserved":false,"is_disabled":true,"rental_uris":{"android":"levelo://app?vid=b3d06119-f0a6-4191-b374-93d7a840140e","ios":"levelo://app?vid=b3d06119-f0a6-4191-b374-93d7a840140e"},"vehicle_type_id":"4","last_reported":1770900000,"current_range_meters":4000,"station_id":"ce4bhnh2rcd13ifvqgug","pricing_plan_id":"cebpf4jnsgd1na2vs0mg"},{"bike_id":"d16e8676-bb91-42bf-b68a-481193eb39f4","system_id":"levelo_inurba_marseille","lat":43.24678,"lon":5.38145,"is_reserved":false,"is_disabled":false,"rental_uris":{"android":"levelo://app?vid=d16e8676-bb91-42bf-b68a-481193eb39f4","ios":"levelo://app?vid=d16e8676-bb91-42bf-b68a-481193eb39f4"},"vehicle_type_id":"4","last_reported":1770900000,"current_range_meters":4400,"station_id":"ce4bhih2rcd13ifvqfr0","pricing_plan_id":"cebpf4jnsgd1na2vs0mg"},{"bike_id":"4a275dad-e592-40a2-bc5c-1d0707256628","system_id":"levelo_inurba_marseille","lat":43.31363,"lon":5.3849,"is_reserved":false,"is_disabled":false,"rental_uris":{"android":"levelo://app?vid=4a275dad-e592-40a2-bc5c-1d0707256628","ios":"levelo://app?vid=4a275dad-e592-40a2-bc5c-1d0707256628"},"vehicle_type_id":"4","last_reported":1770900000,"current_range_meters":4400,"station_id":"ce4bgt92rcd13ifvqcf0","pricing_plan_id":"cebpf4jnsgd1na2vs0mg"},{"bike_id":"663638d3-9f5d-4e70-9e63-17ec7aafe450","system_id":"levelo_inurba_marseille","lat":43.28691,"lon":5.37349,"is_reserved":false,"is_disabled":false,"rental_uris":{"android":"levelo://app?vid=663638d3-9f5d-4e70-9e63-17ec7aafe450","ios":"levelo://app?vid=663638d3-9f5d-4e70-9e63-17ec7aafe450"},"vehicle_type_id":"4","last_reported":1770900000,"current_range_meters":4400,"station_id":"ce4bh3p2rcd13ifvqdq0","pricing_plan_id":"cebpf4jnsgd1na2vs0mg"},{"bike_id":"3b5a3f29-a216-4aae-b7b9-f398aae1dfe0","system_id":"levelo_inurba_marseille","lat":43.28616,"lon":5.351,"is_reserved":false,"is_disabled":true,"rental_uris":{"android":"levelo://app?vid=3b5a3f29-a216-4aae-b7b9-f398aae1dfe0","ios":"levelo://app?vid=3b5a3f29-a216-4aae-b7b9-f398aae1dfe0"},"vehicle_type_id":"4","last_reported":1770900000,"current_range_meters":4400,"station_id":"ce4bhch2rcd13ifvqeug","pricing_plan_id":"cebpf4jnsgd1na2vs0mg"},{"bike_id":"ac9a885a-fe7d-4871-905c-95e91acf3aa8","system_id":"levelo_inurba_marseille","lat":43.22559,"lon":5.41615,"is_reserved":false,"is_disabled":false,"rental_uris":{"android":"levelo://app?vid=ac9a885a-fe7d-4871-905c-95e91acf3aa8","ios":"levelo://app?vid=ac9a885a-fe7d-4871-905c-95e91acf3aa8"},"vehicle_type_id":"4","last_reported":1770900000,"current_range_meters":4400,"station_id":"st_d2o4gvlbi1j2169b742g","pricing_plan_id":"cebpf4jnsgd1na2vs0mg"},{"bike_id":"babdcd4a-655b-4e95-88f5-77a8529739da","system_id":"levelo_inurba_marseille","lat":43.22575,"lon":5.41626,"is_reserved":false,"is_disabled":false,"rental_uris":{"android":"levelo://app?vid=babdcd4a-655b-4e95-88f5-77a8529739da","ios":"levelo://app?vid=babdcd4a-655b-4e95-88f5-77a8529739da"},"vehicle_type_id":"4","last_reported":1770900000,"current_range_meters":4400,"station_id":"st_d2o4gvlbi1j2169b742g","pricing_plan_id":"cebpf4jnsgd1na2vs0mg"},{"bike_id":"cc43a2a6-4df1-46ee-89a5-e5908a5338ed","system_id":"levelo_inurba_marseille","lat":43.28465,"lon":5.48355,"is_reserved":false,"is_disabled":false,"rental_uris":{"android":"levelo://app?vid=cc43a2a6-4df1-46ee-89a5-e5908a5338ed","ios":"levelo://app?vid=cc43a2a6-4df1-46ee-89a5-e5908a5338ed"},"vehicle_type_id":"4","last_reported":1770900000,"current_range_meters":4400,"station_id":"st_d3svhcjqgbts73a3dn0g","pricing_plan_id":"cebpf4jnsgd1na2vs0mg"},{"bike_id":"0d60f49b-2168-485f-9c8c-8bf326d0ba55","system_id":"levelo_inurba_marseille","lat":43.245092,"lon":5.424589,"is_reserved":false,"is_disabled":false,"rental_uris":{"android":"levelo://app?vid=0d60f49b-2168-485f-9c8c-8bf326d0ba55","ios":"levelo://app?vid=0d60f49b-2168-485f-9c8c-8bf326d0ba55"},"vehicle_type_id":"4","last_reported":1770900000,"current_range_meters":4800,"station_id":"","pricing_plan_id":"cebpf4jnsgd1na2vs0mg"},{"bike_id":"e0fbe2f8-ab68-4aab-bf94-e8456ef6a8aa","system_id":"levelo_inurba_marseille","lat":43.29282,"lon":5.40123,"is_reserved":false,"is_disabled":false,"rental_uris":{"android":"levelo://app?vid=e0fbe2f8-ab68-4aab-bf94-e8456ef6a8aa","ios":"levelo://app?vid=e0fbe2f8-ab68-4aab-bf94-e8456ef6a8aa"},"vehicle_type_id":"4","last_reported":1770900000,"current_range_meters":4800,"station_id":"ce4bh312rcd13ifvqdk0","pricing_plan_id":"cebpf4jnsgd1na2vs0mg"},{"bike_id":"9e3bc487-b0e5-43b2-98b8-caa6f87f206e","system_id":"levelo_inurba_marseille","lat":43.31722,"lon":5.37767,"is_reserved":false,"is_disabled":false,"rental_uris":{"android":"levelo://app?vid=9e3bc487-b0e5-43b2-98b8-caa6f87f206e","ios":"levelo://app?vid=9e3bc487-b0e5-43b2-98b8-caa6f87f206e"},"vehicle_type_id":"4","last_reported":1770900000,"current_range_meters":4800,"station_id":"ce4bgth2rcd13ifvqch0","pricing_plan_id":"cebpf4jnsgd1na2vs0mg"},{"bike_id":"347a4a0b-9f2f-47eb-83e6-74edbddfb420","system_id":"levelo_inurba_marseille","lat":43.29036,"lon":5.39964,"is_reserved":false,"is_disabled":false,"rental_uris":{"android":"levelo://app?vid=347a4a0b-9f2f-47eb-83e6-74edbddfb420","ios":"levelo://app?vid=347a4a0b-9f2f-47eb-83e6-74edbddfb420"},"vehicle_type_id":"4","last_reported":1770900000,"current_range_meters":4800,"station_id":"ce4bh392rcd13ifvqdm0","pricing_plan_id":"cebpf4jnsgd1na2vs0mg"},{"bike_id":"8b4b38ac-f6cb-48ed-90a4-30149ea67fd7","system_id":"levelo_inurba_marseille","lat":43.29237,"lon":5.39648,"is_reserved":false,"is_disabled":false,"rental_uris":{"android":"levelo://app?vid=8b4b38ac-f6cb-48ed-90a4-30149ea67fd7","ios":"levelo://app?vid=8b4b38ac-f6cb-48ed-90a4-30149ea67fd7"},"vehicle_type_id":"4","last_reported":1770900000,"current_range_meters":4800,"station_id":"","pricing_plan_id":"cebpf4jnsgd1na2vs0mg"},{"bike_id":"03c22168-23b9-4a4c-a686-068379a03132","system_id":"levelo_inurba_marseille","lat":43.31351,"lon":5.36714,"is_reserved":false,"is_disabled":false,"rental_uris":{"android":"levelo://app?vid=03c22168-23b9-4a4c-a686-068379a03132","ios":"levelo://app?vid=03c22168-23b9-4a4c-a686-068379a03132"},"vehicle_type_id":"4","last_reported":1770900000,"current_range_meters":4800,"station_id":"ce4bgr92rcd13ifvqc6g","pricing_plan_id":"cebpf4jnsgd1na2vs0mg"},{"bike_id":"9df34885-ac04-43a6-b4c2-df2cea230626","system_id":"levelo_inurba_marseille","lat":43.31233,"lon":5.36851,"is_reserved":false,"is_disabled":false,"rental_uris":{"android":"levelo://app?vid=9df34885-ac04-43a6-b4c2-df2cea230626","ios":"levelo://app?vid=9df34885-ac04-43a6-b4c2-df2cea230626"},"vehicle_type_id":"4","last_reported":1770900000,"current_range_meters":5600,"station_id":"ce4bgl92rcd13ifvqbq0","pricing_plan_id":"cebpf4jnsgd1na2vs0mg"},{"bike_id":"145cdf5f-2357-4e22-a2d7-988709ff23e7","system_id":"levelo_inurba_marseille","lat":43.28624,"lon":5.35113,"is_reserved":false,"is_disabled":false,"rental_uris":{"android":"levelo://app?vid=145cdf5f-2357-4e22-a2d7-988709ff23e7","ios":"levelo://app?vid=145cdf5f-2357-4e22-a2d7-988709ff23e7"},"vehicle_type_id":"4","last_reported":1770900000,"current_range_meters":5600,"station_id":"ce4bhch2rcd13ifvqeug","pricing_plan_id":"cebpf4jnsgd1na2vs0mg"},{"bike_id":"fdcca747-1f0c-4265-9d25-6a349973ec5d","system_id":"levelo_inurba_marseille","lat":43.33175,"lon":5.37698,"is_reserved":false,"is_disabled":false,"rental_uris":{"android":"levelo://app?vid=fdcca747-1f0c-4265-9d25-6a349973ec5d","ios":"levelo://app?vid=fdcca747-1f0c-4265-9d25-6a349973ec5d"},"vehicle_type_id":"4","last_reported":1770900000,"current_range_meters":5600,"station_id":"st_d46cu089ee8s73dldbu0","pricing_plan_id":"cebpf4jnsgd1na2vs0mg"},{"bike_id":"8eacced8-272b-41d9-9397-61b329ca6fac","system_id":"levelo_inurba_marseille","lat":43.25933,"lon":5.4091,"is_reserved":false,"is_disabled":false,"rental_uris":{"android":"levelo://app?vid=8eacced8-272b-41d9-9397-61b329ca6fac","ios":"levelo://app?vid=8eacced8-272b-41d9-9397-61b329ca6fac"},"vehicle_type_id":"4","last_reported":1770900000,"current_range_meters":5600,"station_id":"ce4bhm92rcd13ifvqglg","pricing_plan_id":"cebpf4jnsgd1na2vs0mg"},{"bike_id":"e6c1610e-27a8-4794-a1cd-23b9c39f21c1","system_id":"levelo_inurba_marseille","lat":43.30595,"lon":5.37223,"is_reserved":false,"is_disabled":false,"rental_uris":{"android":"levelo://app?vid=e6c1610e-27a8-4794-a1cd-23b9c39f21c1","ios":"levelo://app?vid=e6c1610e-27a8-4794-a1cd-23b9c39f21c1"},"vehicle_type_id":"4","last_reported":1770900000,"current_range_meters":5600,"station_id":"ce4bgqh2rcd13ifvqc4g","pricing_plan_id":"cebpf4jnsgd1na2vs0mg"},{"bike_id":"9c4fa197-e784-47a1-9a3e-1e64aa186f14","system_id":"levelo_inurba_marseille","lat":43.25939,"lon":5.40903,"is_reserved":false,"is_disabled":false,"rental_uris":{"android":"levelo://app?vid=9c4fa197-e784-47a1-9a3e-1e64aa186f14","ios":"levelo://app?vid=9c4fa197-e784-47a1-9a3e-1e64aa186f14"},"vehicle_type_id":"4","last_reported":1770900000,"current_range_meters":6000,"station_id":"ce4bhm92rcd13ifvqglg","pricing_plan_id":"cebpf4jnsgd1na2vs0mg"},{"bike_id":"a3543831-c3e4-4635-9427-5716742829d8","system_id":"levelo_inurba_marseille","lat":43.27328,"lon":5.39085,"is_reserved":false,"is_disabled":false,"rental_uris":{"android":"levelo://app?vid=a3543831-c3e4-4635-9427-5716742829d8","ios":"levelo://app?vid=a3543831-c3e4-4635-9427-5716742829d8"},"vehicle_type_id":"4","last_reported":1770900000,"current_range_meters":6000,"station_id":"ce4bhgp2rcd13ifvqfe0","pricing_plan_id":"cebpf4jnsgd1na2vs0mg"},{"bike_id":"5fda65b6-7f98-4bf6-b2de-a2c95ed917cc","system_id":"levelo_inurba_marseille","lat":43.254456,"lon":5.384583,"is_reserved":false,"is_disabled":false,"rental_uris":{"android":"levelo://app?vid=5fda65b6-7f98-4bf6-b2de-a2c95ed917cc","ios":"levelo://app?vid=5fda65b6-7f98-4bf6-b2de-a2c95ed917cc"},"vehicle_type_id":"4","last_reported":1770900000,"current_range_meters":6000,"station_id":"","pricing_plan_id":"cebpf4jnsgd1na2vs0mg"},{"bike_id":"1eab5fb7-9337-43ee-91d2-e864b1a6d134","system_id":"levelo_inurba_marseille","lat":43.23172,"lon":5.43706,"is_reserved":false,"is_disabled":false,"rental_uris":{"android":"levelo://app?vid=1eab5fb7-9337-43ee-91d2-e864b1a6d134","ios":"levelo://app?vid=1eab5fb7-9337-43ee-91d2-e864b1a6d134"},"vehicle_type_id":"4","last_reported":1770900000,"current_range_meters":6000,"station_id":"ce4bhmp2rcd13ifvqgog","pricing_plan_id":"cebpf4jnsgd1na2vs0mg"},{"bike_id":"9db9fb01-2177-4a81-b437-0dcae5fda6d4","system_id":"levelo_inurba_marseille","lat":43.23179,"lon":5.39999,"is_reserved":false,"is_disabled":false,"rental_uris":{"android":"levelo://app?vid=9db9fb01-2177-4a81-b437-0dcae5fda6d4","ios":"levelo://app?vid=9db9fb01-2177-4a81-b437-0dcae5fda6d4"},"vehicle_type_id":"4","last_reported":1770900000,"current_range_meters":6000,"station_id":"ce4bhn12rcd13ifvqgqg","pricing_plan_id":"cebpf4jnsgd1na2vs0mg"},{"bike_id":"eb9d66ff-a612-4121-8b67-1d84deda7e3a","system_id":"levelo_inurba_marseille","lat":43.3313,"lon":5.377304,"is_reserved":false,"is_disabled":false,"rental_uris":{"android":"levelo://app?vid=eb9d66ff-a612-4121-8b67-1d84deda7e3a","ios":"levelo://app?vid=eb9d66ff-a612-4121-8b67-1d84deda7e3a"},"vehicle_type_id":"4","last_reported":1770900000,"current_range_meters":6000,"station_id":"st_d46cu089ee8s73dldbu0","pricing_plan_id":"cebpf4jnsgd1na2vs0mg"},{"bike_id":"a64f1051-a316-44ad-9fb5-5f1868af907b","system_id":"levelo_inurba_marseille","lat":43.25953,"lon":5.40936,"is_reserved":false,"is_disabled":false,"rental_uris":{"android":"levelo://app?vid=a64f1051-a316-44ad-9fb5-5f1868af907b","ios":"levelo://app?vid=a64f1051-a316-44ad-9fb5-5f1868af907b"},"vehicle_type_id":"4","last_reported":1770900000,"current_range_meters":6000,"station_id":"ce4bhm92rcd13ifvqglg","pricing_plan_id":"cebpf4jnsgd1na2vs0mg"},{"bike_id":"9200c51d-dce0-4784-98b7-31946df8c306","system_id":"levelo_inurba_marseille","lat":43.31276,"lon":5.40164,"is_reserved":false,"is_disabled":false,"rental_uris":{"android":"levelo://app?vid=9200c51d-dce0-4784-98b7-31946df8c306","ios":"levelo://app?vid=9200c51d-dce0-4784-98b7-31946df8c306"},"vehicle_type_id":"4","last_reported":1770900000,"current_range_meters":6000,"station_id":"ce4bh092rcd13ifvqd30","pricing_plan_id":"cebpf4jnsgd1na2vs0mg"},{"bike_id":"bd31fd5c-79fa-4019-8b6f-c4a4d7bd3f7a","system_id":"levelo_inurba_marseille","lat":43.26773,"lon":5.39411,"is_reserved":false,"is_disabled":false,"rental_uris":{"android":"levelo://app?vid=bd31fd5c-79fa-4019-8b6f-c4a4d7bd3f7a","ios":"levelo://app?vid=bd31fd5c-79fa-4019-8b6f-c4a4d7bd3f7a"},"vehicle_type_id":"4","last_reported":1770900000,"current_range_meters":6400,"station_id":"ce4bhh12rcd13ifvqfg0","pricing_plan_id":"cebpf4jnsgd1na2vs0mg"},{"bike_id":"d997c6b7-acb1-4efa-ae35-2d8c161e2e69","system_id":"levelo_inurba_marseille","lat":43.231813,"lon":5.355618,"is_reserved":false,"is_disabled":false,"rental_uris":{"android":"levelo://app?vid=d997c6b7-acb1-4efa-ae35-2d8c161e2e69","ios":"levelo://app?vid=d997c6b7-acb1-4efa-ae35-2d8c161e2e69"},"vehicle_type_id":"4","last_reported":1770900000,"current_range_meters":6400,"station_id":"ce4bhu92rcd13ifvqi70","pricing_plan_id":"cebpf4jnsgd1na2vs0mg"},{"bike_id":"6f992222-ec7a-488c-a1d3-988179372f4d","system_id":"levelo_inurba_marseille","lat":43.21744,"lon":5.34611,"is_reserved":false,"is_disabled":false,"rental_uris":{"android":"levelo://app?vid=6f992222-ec7a-488c-a1d3-988179372f4d","ios":"levelo://app?vid=6f992222-ec7a-488c-a1d3-988179372f4d"},"vehicle_type_id":"4","last_reported":1770900000,"current_range_meters":6400,"station_id":"st_cvj6r9ubvosntc0bgbag","pricing_plan_id":"cebpf4jnsgd1na2vs0mg"},{"bike_id":"90237c2e-706a-4da7-9fce-cbc541d555c0","system_id":"levelo_inurba_marseille","lat":43.30804,"lon":5.36888,"is_reserved":false,"is_disabled":false,"rental_uris":{"android":"levelo://app?vid=90237c2e-706a-4da7-9fce-cbc541d555c0","ios":"levelo://app?vid=90237c2e-706a-4da7-9fce-cbc541d555c0"},"vehicle_type_id":"4","last_reported":1770900000,"current_range_meters":6400,"station_id":"","pricing_plan_id":"cebpf4jnsgd1na2vs0mg"},{"bike_id":"b32b0732-e4d0-4f51-ba0c-c2f5e5ffe7be","system_id":"levelo_inurba_marseille","lat":43.33754,"lon":5.37477,"is_reserved":false,"is_disabled":false,"rental_uris":{"android":"levelo://app?vid=b32b0732-e4d0-4f51-ba0c-c2f5e5ffe7be","ios":"levelo://app?vid=b32b0732-e4d0-4f51-ba0c-c2f5e5ffe7be"},"vehicle_type_id":"4","last_reported":1770900000,"current_range_meters":6800,"station_id":"","pricing_plan_id":"cebpf4jnsgd1na2vs0mg"},{"bike_id":"eb153995-5d33-4b1d-a5c0-ee8cc4302ea8","system_id":"levelo_inurba_marseille","lat":43.26565,"lon":5.39027,"is_reserved":false,"is_disabled":false,"rental_uris":{"android":"levelo://app?vid=eb153995-5d33-4b1d-a5c0-ee8cc4302ea8","ios":"levelo://app?vid=eb153995-5d33-4b1d-a5c0-ee8cc4302ea8"},"vehicle_type_id":"4","last_reported":1770900000,"current_range_meters":6800,"station_id":"ce4bhe12rcd13ifvqf30","pricing_plan_id":"cebpf4jnsgd1na2vs0mg"},{"bike_id":"6673ac44-296d-4959-9b90-4bd46007de83","system_id":"levelo_inurba_marseille","lat":43.24391,"lon":5.37039,"is_reserved":false,"is_disabled":false,"rental_uris":{"android":"levelo://app?vid=6673ac44-296d-4959-9b90-4bd46007de83","ios":"levelo://app?vid=6673ac44-296d-4959-9b90-4bd46007de83"},"vehicle_type_id":"4","last_reported":1770900000,"current_range_meters":6800,"station_id":"ce4bhhh2rcd13ifvqfk0","pricing_plan_id":"cebpf4jnsgd1na2vs0mg"},{"bike_id":"406b8143-680c-411e-8da6-8818c609b259","system_id":"levelo_inurba_marseille","lat":43.22935,"lon":5.35389,"is_reserved":false,"is_disabled":false,"rental_uris":{"android":"levelo://app?vid=406b8143-680c-411e-8da6-8818c609b259","ios":"levelo://app?vid=406b8143-680c-411e-8da6-8818c609b259"},"vehicle_type_id":"4","last_reported":1770900000,"current_range_meters":6800,"station_id":"cpo3532slgdg3j2ikp40","pricing_plan_id":"cebpf4jnsgd1na2vs0mg"},{"bike_id":"669b2c5b-7a70-4d42-8495-b95d1ef13a55","system_id":"levelo_inurba_marseille","lat":43.30491,"lon":5.37877,"is_reserved":false,"is_disabled":false,"rental_uris":{"android":"levelo://app?vid=669b2c5b-7a70-4d42-8495-b95d1ef13a55","ios":"levelo://app?vid=669b2c5b-7a70-4d42-8495-b95d1ef13a55"},"vehicle_type_id":"4","last_reported":1770900000,"current_range_meters":6800,"station_id":"ce4bgup2rcd13ifvqcn0","pricing_plan_id":"cebpf4jnsgd1na2vs0mg"},{"bike_id":"f234b1b6-f9fa-4abf-bb7d-a420451ac75a","system_id":"levelo_inurba_marseille","lat":43.30445,"lon":5.38862,"is_reserved":false,"is_disabled":false,"rental_uris":{"android":"levelo://app?vid=f234b1b6-f9fa-4abf-bb7d-a420451ac75a","ios":"levelo://app?vid=f234b1b6-f9fa-4abf-bb7d-a420451ac75a"},"vehicle_type_id":"4","last_reported":1770900000,"current_range_meters":6800,"station_id":"ce4bgk12rcd13ifvqbi0","pricing_plan_id":"cebpf4jnsgd1na2vs0mg"},{"bike_id":"e515a69f-52c5-43a2-a19c-94d85b2c8275","system_id":"levelo_inurba_marseille","lat":43.28063,"lon":5.3966,"is_reserved":false,"is_disabled":false,"rental_uris":{"android":"levelo://app?vid=e515a69f-52c5-43a2-a19c-94d85b2c8275","ios":"levelo://app?vid=e515a69f-52c5-43a2-a19c-94d85b2c8275"},"vehicle_type_id":"4","last_reported":1770900000,"current_range_meters":6800,"station_id":"ce4bho12rcd13ifvqh2g","pricing_plan_id":"cebpf4jnsgd1na2vs0mg"},{"bike_id":"1d262795-ca7c-4031-9a1c-1befe1b2e85b","system_id":"levelo_inurba_marseille","lat":43.26954,"lon":5.38633,"is_reserved":false,"is_disabled":false,"rental_uris":{"android":"levelo://app?vid=1d262795-ca7c-4031-9a1c-1befe1b2e85b","ios":"levelo://app?vid=1d262795-ca7c-4031-9a1c-1befe1b2e85b"},"vehicle_type_id":"4","last_reported":1770900000,"current_range_meters":7200,"station_id":"ce4bhh92rcd13ifvqfh0","pricing_plan_id":"cebpf4jnsgd1na2vs0mg"},{"bike_id":"36c518eb-1a27-476b-bf5a-c42d77a8b635","system_id":"levelo_inurba_marseille","lat":43.318957,"lon":5.407252,"is_reserved":false,"is_disabled":false,"rental_uris":{"android":"levelo://app?vid=36c518eb-1a27-476b-bf5a-c42d77a8b635","ios":"levelo://app?vid=36c518eb-1a27-476b-bf5a-c42d77a8b635"},"vehicle_type_id":"4","last_reported":1770900000,"current_range_meters":7200,"station_id":"ce4bhq12rcd13ifvqhig","pricing_plan_id":"cebpf4jnsgd1na2vs0mg"},{"bike_id":"d07b094d-78cf-4eb9-8c85-adeaec03690d","system_id":"levelo_inurba_marseille","lat":43.30472,"lon":5.37904,"is_reserved":false,"is_disabled":false,"rental_uris":{"android":"levelo://app?vid=d07b094d-78cf-4eb9-8c85-adeaec03690d","ios":"levelo://app?vid=d07b094d-78cf-4eb9-8c85-adeaec03690d"},"vehicle_type_id":"4","last_reported":1770900000,"current_range_meters":7200,"station_id":"ce4bgup2rcd13ifvqcn0","pricing_plan_id":"cebpf4jnsgd1na2vs0mg"},{"bike_id":"adedccca-d77d-4967-91ed-2661b5b510ba","system_id":"levelo_inurba_marseille","lat":43.22559,"lon":5.41629,"is_reserved":false,"is_disabled":false,"rental_uris":{"android":"levelo://app?vid=adedccca-d77d-4967-91ed-2661b5b510ba","ios":"levelo://app?vid=adedccca-d77d-4967-91ed-2661b5b510ba"},"vehicle_type_id":"4","last_reported":1770900000,"current_range_meters":7200,"station_id":"st_d2o4gvlbi1j2169b742g","pricing_plan_id":"cebpf4jnsgd1na2vs0mg"},{"bike_id":"0ef78b6e-8559-43ba-8d8d-862e2747f540","system_id":"levelo_inurba_marseille","lat":43.304811,"lon":5.379159,"is_reserved":false,"is_disabled":false,"rental_uris":{"android":"levelo://app?vid=0ef78b6e-8559-43ba-8d8d-862e2747f540","ios":"levelo://app?vid=0ef78b6e-8559-43ba-8d8d-862e2747f540"},"vehicle_type_id":"4","last_reported":1770900000,"current_range_meters":7200,"station_id":"","pricing_plan_id":"cebpf4jnsgd1na2vs0mg"},{"bike_id":"46bd018f-3ddc-47ce-9b3f-33f22f379846","system_id":"levelo_inurba_marseille","lat":43.3052,"lon":5.38438,"is_reserved":false,"is_disabled":false,"rental_uris":{"android":"levelo://app?vid=46bd018f-3ddc-47ce-9b3f-33f22f379846","ios":"levelo://app?vid=46bd018f-3ddc-47ce-9b3f-33f22f379846"},"vehicle_type_id":"4","last_reported":1770900000,"current_range_meters":7200,"station_id":"ce4bgg92rcd13ifvqb30","pricing_plan_id":"cebpf4jnsgd1na2vs0mg"},{"bike_id":"c63de082-b362-476e-89a1-bbd83d2baeac","system_id":"levelo_inurba_marseille","lat":43.26551,"lon":5.37352,"is_reserved":false,"is_disabled":true,"rental_uris":{"android":"levelo://app?vid=c63de082-b362-476e-89a1-bbd83d2baeac","ios":"levelo://app?vid=c63de082-b362-476e-89a1-bbd83d2baeac"},"vehicle_type_id":"4","last_reported":1770900000,"current_range_meters":7200,"station_id":"","pricing_plan_id":"cebpf4jnsgd1na2vs0mg"},{"bike_id":"3774b0e5-51a8-4405-82e7-fd5be0528aeb","system_id":"levelo_inurba_marseille","lat":43.28463,"lon":5.38421,"is_reserved":false,"is_disabled":false,"rental_uris":{"android":"levelo://app?vid=3774b0e5-51a8-4405-82e7-fd5be0528aeb","ios":"levelo://app?vid=3774b0e5-51a8-4405-82e7-fd5be0528aeb"},"vehicle_type_id":"4","last_reported":1770900000,"current_range_meters":7200,"station_id":"ce4bh512rcd13ifvqe3g","pricing_plan_id":"cebpf4jnsgd1na2vs0mg"},{"bike_id":"e3cf6614-2704-4576-bed8-2c5b3c7e0a02","system_id":"levelo_inurba_marseille","lat":43.27987,"lon":5.4167,"is_reserved":false,"is_disabled":false,"rental_uris":{"android":"levelo://app?vid=e3cf6614-2704-4576-bed8-2c5b3c7e0a02","ios":"levelo://app?vid=e3cf6614-2704-4576-bed8-2c5b3c7e0a02"},"vehicle_type_id":"4","last_reported":1770900000,"current_range_meters":7200,"station_id":"ce4bho12rcd13ifvqh1g","pricing_plan_id":"cebpf4jnsgd1na2vs0mg"},{"bike_id":"d1574af6-3c40-45ed-a468-ede3d52f1a53","system_id":"levelo_inurba_marseille","lat":43.304858,"lon":5.379139,"is_reserved":false,"is_disabled":false,"rental_uris":{"android":"levelo://app?vid=d1574af6-3c40-45ed-a468-ede3d52f1a53","ios":"levelo://app?vid=d1574af6-3c40-45ed-a468-ede3d52f1a53"},"vehicle_type_id":"4","last_reported":1770900000,"current_range_meters":7200,"station_id":"ce4bgup2rcd13ifvqcn0","pricing_plan_id":"cebpf4jnsgd1na2vs0mg"},{"bike_id":"559b7fc1-27d6-4e1b-8f8e-917da617ecdd","system_id":"levelo_inurba_marseille","lat":43.3014,"lon":5.38065,"is_reserved":false,"is_disabled":false,"rental_uris":{"android":"levelo://app?vid=559b7fc1-27d6-4e1b-8f8e-917da617ecdd","ios":"levelo://app?vid=559b7fc1-27d6-4e1b-8f8e-917da617ecdd"},"vehicle_type_id":"4","last_reported":1770900000,"current_range_meters":7200,"station_id":"ce4bgjp2rcd13ifvqbh0","pricing_plan_id":"cebpf4jnsgd1na2vs0mg"},{"bike_id":"2ef83d60-3093-41f6-8db9-e64cad44aa7b","system_id":"levelo_inurba_marseille","lat":43.27327,"lon":5.39057,"is_reserved":false,"is_disabled":false,"rental_uris":{"android":"levelo://app?vid=2ef83d60-3093-41f6-8db9-e64cad44aa7b","ios":"levelo://app?vid=2ef83d60-3093-41f6-8db9-e64cad44aa7b"},"vehicle_type_id":"4","last_reported":1770900000,"current_range_meters":7200,"station_id":"ce4bhgp2rcd13ifvqfe0","pricing_plan_id":"cebpf4jnsgd1na2vs0mg"},{"bike_id":"1666b265-643d-41e7-bcc3-6167a6d49f91","system_id":"levelo_inurba_marseille","lat":43.22533,"lon":5.34847,"is_reserved":false,"is_disabled":false,"rental_uris":{"android":"levelo://app?vid=1666b265-643d-41e7-bcc3-6167a6d49f91","ios":"levelo://app?vid=1666b265-643d-41e7-bcc3-6167a6d49f91"},"vehicle_type_id":"4","last_reported":1770900000,"current_range_meters":8000,"station_id":"","pricing_plan_id":"cebpf4jnsgd1na2vs0mg"},{"bike_id":"5f6ae4c8-a7cd-4f3b-9adf-671bbd618c70","system_id":"levelo_inurba_marseille","lat":43.25571,"lon":5.38225,"is_reserved":false,"is_disabled":false,"rental_uris":{"android":"levelo://app?vid=5f6ae4c8-a7cd-4f3b-9adf-671bbd618c70","ios":"levelo://app?vid=5f6ae4c8-a7cd-4f3b-9adf-671bbd618c70"},"vehicle_type_id":"4","last_reported":1770900000,"current_range_meters":8000,"station_id":"ce4bhih2rcd13ifvqfs0","pricing_plan_id":"cebpf4jnsgd1na2vs0mg"},{"bike_id":"52c5007b-88c9-4d1c-9fe2-488c4cdcfbef","system_id":"levelo_inurba_marseille","lat":43.25868,"lon":5.39888,"is_reserved":false,"is_disabled":false,"rental_uris":{"android":"levelo://app?vid=52c5007b-88c9-4d1c-9fe2-488c4cdcfbef","ios":"levelo://app?vid=52c5007b-88c9-4d1c-9fe2-488c4cdcfbef"},"vehicle_type_id":"4","last_reported":1770900000,"current_range_meters":8000,"station_id":"ce4bhl92rcd13ifvqghg","pricing_plan_id":"cebpf4jnsgd1na2vs0mg"},{"bike_id":"e44df137-3a9f-4865-a2d3-769a6f5bfc14","system_id":"levelo_inurba_marseille","lat":43.30899,"lon":5.36829,"is_reserved":false,"is_disabled":false,"rental_uris":{"android":"levelo://app?vid=e44df137-3a9f-4865-a2d3-769a6f5bfc14","ios":"levelo://app?vid=e44df137-3a9f-4865-a2d3-769a6f5bfc14"},"vehicle_type_id":"4","last_reported":1770900000,"current_range_meters":8000,"station_id":"ce4bgn92rcd13ifvqbvg","pricing_plan_id":"cebpf4jnsgd1na2vs0mg"},{"bike_id":"a95bcbb6-9652-453d-a5aa-66a13cd5401c","system_id":"levelo_inurba_marseille","lat":43.259358,"lon":5.408962,"is_reserved":false,"is_disabled":false,"rental_uris":{"android":"levelo://app?vid=a95bcbb6-9652-453d-a5aa-66a13cd5401c","ios":"levelo://app?vid=a95bcbb6-9652-453d-a5aa-66a13cd5401c"},"vehicle_type_id":"4","last_reported":1770900000,"current_range_meters":8000,"station_id":"ce4bhm92rcd13ifvqglg","pricing_plan_id":"cebpf4jnsgd1na2vs0mg"},{"bike_id":"661c1ad9-8e78-490b-aa77-0dd317a910f6","system_id":"levelo_inurba_marseille","lat":43.27218,"lon":5.39201,"is_reserved":false,"is_disabled":true,"rental_uris":{"android":"levelo://app?vid=661c1ad9-8e78-490b-aa77-0dd317a910f6","ios":"levelo://app?vid=661c1ad9-8e78-490b-aa77-0dd317a910f6"},"vehicle_type_id":"4","last_reported":1770900000,"current_range_meters":8000,"station_id":"ce4bhhp2rcd13ifvqfm0","pricing_plan_id":"cebpf4jnsgd1na2vs0mg"},{"bike_id":"46939c8e-825e-45ec-ac05-85d9fb0a4528","system_id":"levelo_inurba_marseille","lat":43.312195,"lon":5.368529,"is_reserved":false,"is_disabled":false,"rental_uris":{"android":"levelo://app?vid=46939c8e-825e-45ec-ac05-85d9fb0a4528","ios":"levelo://app?vid=46939c8e-825e-45ec-ac05-85d9fb0a4528"},"vehicle_type_id":"4","last_reported":1770900000,"current_range_meters":8000,"station_id":"","pricing_plan_id":"cebpf4jnsgd1na2vs0mg"},{"bike_id":"989b5b08-d948-4be9-bc29-7318c8ff2142","system_id":"levelo_inurba_marseille","lat":43.2464,"lon":5.4314,"is_reserved":false,"is_disabled":false,"rental_uris":{"android":"levelo://app?vid=989b5b08-d948-4be9-bc29-7318c8ff2142","ios":"levelo://app?vid=989b5b08-d948-4be9-bc29-7318c8ff2142"},"vehicle_type_id":"4","last_reported":1770900000,"current_range_meters":8000,"station_id":"st_d2m6c4gdas8pm72e190g","pricing_plan_id":"cebpf4jnsgd1na2vs0mg"},{"bike_id":"38135c96-ade4-45b4-91a7-00b8377b3ac9","system_id":"levelo_inurba_marseille","lat":43.33731,"lon":5.39195,"is_reserved":false,"is_disabled":false,"rental_uris":{"android":"levelo://app?vid=38135c96-ade4-45b4-91a7-00b8377b3ac9","ios":"levelo://app?vid=38135c96-ade4-45b4-91a7-00b8377b3ac9"},"vehicle_type_id":"4","last_reported":1770900000,"current_range_meters":8400,"station_id":"ce4bhr92rcd13ifvqhsg","pricing_plan_id":"cebpf4jnsgd1na2vs0mg"},{"bike_id":"2627d161-5d4f-4c47-8d5a-d70e9fbd86b2","system_id":"levelo_inurba_marseille","lat":43.30548,"lon":5.36703,"is_reserved":false,"is_disabled":false,"rental_uris":{"android":"levelo://app?vid=2627d161-5d4f-4c47-8d5a-d70e9fbd86b2","ios":"levelo://app?vid=2627d161-5d4f-4c47-8d5a-d70e9fbd86b2"},"vehicle_type_id":"4","last_reported":1770900000,"current_range_meters":8400,"station_id":"ce4bgrp2rcd13ifvqc9g","pricing_plan_id":"cebpf4jnsgd1na2vs0mg"},{"bike_id":"4e0f9367-7bac-4416-a504-19f0c84a5aa3","system_id":"levelo_inurba_marseille","lat":43.28151,"lon":5.4263,"is_reserved":false,"is_disabled":false,"rental_uris":{"android":"levelo://app?vid=4e0f9367-7bac-4416-a504-19f0c84a5aa3","ios":"levelo://app?vid=4e0f9367-7bac-4416-a504-19f0c84a5aa3"},"vehicle_type_id":"4","last_reported":1770900000,"current_range_meters":8400,"station_id":"ce4bhnh2rcd13ifvqgug","pricing_plan_id":"cebpf4jnsgd1na2vs0mg"},{"bike_id":"f2d2a71d-b4fd-4fe5-b585-a9d7d02b8e30","system_id":"levelo_inurba_marseille","lat":43.29574,"lon":5.37506,"is_reserved":false,"is_disabled":false,"rental_uris":{"android":"levelo://app?vid=f2d2a71d-b4fd-4fe5-b585-a9d7d02b8e30","ios":"levelo://app?vid=f2d2a71d-b4fd-4fe5-b585-a9d7d02b8e30"},"vehicle_type_id":"4","last_reported":1770900000,"current_range_meters":8400,"station_id":"ce4bgh92rcd13ifvqb50","pricing_plan_id":"cebpf4jnsgd1na2vs0mg"},{"bike_id":"d5cb988e-8285-42af-a2f5-2f2e76b7d7bd","system_id":"levelo_inurba_marseille","lat":43.29789,"lon":5.3808,"is_reserved":false,"is_disabled":false,"rental_uris":{"android":"levelo://app?vid=d5cb988e-8285-42af-a2f5-2f2e76b7d7bd","ios":"levelo://app?vid=d5cb988e-8285-42af-a2f5-2f2e76b7d7bd"},"vehicle_type_id":"4","last_reported":1770900000,"current_range_meters":8400,"station_id":"ce4bgip2rcd13ifvqbb0","pricing_plan_id":"cebpf4jnsgd1na2vs0mg"},{"bike_id":"2e5550f9-f008-4237-8bd6-122cbd7ea3cb","system_id":"levelo_inurba_marseille","lat":43.26382,"lon":5.41033,"is_reserved":false,"is_disabled":false,"rental_uris":{"android":"levelo://app?vid=2e5550f9-f008-4237-8bd6-122cbd7ea3cb","ios":"levelo://app?vid=2e5550f9-f008-4237-8bd6-122cbd7ea3cb"},"vehicle_type_id":"4","last_reported":1770900000,"current_range_meters":8400,"station_id":"st_d4e5ca6na9uc73bfl5fg","pricing_plan_id":"cebpf4jnsgd1na2vs0mg"},{"bike_id":"d3198396-2845-4cea-8235-ae18a5b87c16","system_id":"levelo_inurba_marseille","lat":43.29859,"lon":5.3629,"is_reserved":false,"is_disabled":false,"rental_uris":{"android":"levelo://app?vid=d3198396-2845-4cea-8235-ae18a5b87c16","ios":"levelo://app?vid=d3198396-2845-4cea-8235-ae18a5b87c16"},"vehicle_type_id":"4","last_reported":1770900000,"current_range_meters":8400,"station_id":"ce4bgpp2rcd13ifvqc3g","pricing_plan_id":"cebpf4jnsgd1na2vs0mg"},{"bike_id":"9faee6f2-457c-410c-b197-c5102d1e22ad","system_id":"levelo_inurba_marseille","lat":43.23189,"lon":5.39981,"is_reserved":false,"is_disabled":false,"rental_uris":{"android":"levelo://app?vid=9faee6f2-457c-410c-b197-c5102d1e22ad","ios":"levelo://app?vid=9faee6f2-457c-410c-b197-c5102d1e22ad"},"vehicle_type_id":"4","last_reported":1770900000,"current_range_meters":8400,"station_id":"ce4bhn12rcd13ifvqgqg","pricing_plan_id":"cebpf4jnsgd1na2vs0mg"},{"bike_id":"44b82be7-a2b9-42f1-8560-17e8ec787592","system_id":"levelo_inurba_marseille","lat":43.30911,"lon":5.36849,"is_reserved":false,"is_disabled":false,"rental_uris":{"android":"levelo://app?vid=44b82be7-a2b9-42f1-8560-17e8ec787592","ios":"levelo://app?vid=44b82be7-a2b9-42f1-8560-17e8ec787592"},"vehicle_type_id":"4","last_reported":1770900000,"current_range_meters":8400,"station_id":"ce4bgn92rcd13ifvqbvg","pricing_plan_id":"cebpf4jnsgd1na2vs0mg"},{"bike_id":"8f3a9ea3-3d5f-4beb-8e6c-40222b0c90d4","system_id":"levelo_inurba_marseille","lat":43.28367,"lon":5.35356,"is_reserved":false,"is_disabled":false,"rental_uris":{"android":"levelo://app?vid=8f3a9ea3-3d5f-4beb-8e6c-40222b0c90d4","ios":"levelo://app?vid=8f3a9ea3-3d5f-4beb-8e6c-40222b0c90d4"},"vehicle_type_id":"4","last_reported":1770900000,"current_range_meters":8400,"station_id":"","pricing_plan_id":"cebpf4jnsgd1na2vs0mg"},{"bike_id":"52d294a6-dfc4-49e2-9128-2096407aa892","system_id":"levelo_inurba_marseille","lat":43.30097,"lon":5.37424,"is_reserved":false,"is_disabled":false,"rental_uris":{"android":"levelo://app?vid=52d294a6-dfc4-49e2-9128-2096407aa892","ios":"levelo://app?vid=52d294a6-dfc4-49e2-9128-2096407aa892"},"vehicle_type_id":"4","last_reported":1770900000,"current_range_meters":8400,"station_id":"","pricing_plan_id":"cebpf4jnsgd1na2vs0mg"},{"bike_id":"d98f09ff-8b59-4519-baee-c61bc86adc1e","system_id":"levelo_inurba_marseille","lat":43.29483,"lon":5.43296,"is_reserved":false,"is_disabled":false,"rental_uris":{"android":"levelo://app?vid=d98f09ff-8b59-4519-baee-c61bc86adc1e","ios":"levelo://app?vid=d98f09ff-8b59-4519-baee-c61bc86adc1e"},"vehicle_type_id":"4","last_reported":1770900000,"current_range_meters":8400,"station_id":"st_d3j5ugp08ojc73fj9d10","pricing_plan_id":"cebpf4jnsgd1na2vs0mg"},{"bike_id":"e445083d-45a8-4d25-90af-ae9e33eb6abe","system_id":"levelo_inurba_marseille","lat":43.305347,"lon":5.384328,"is_reserved":false,"is_disabled":false,"rental_uris":{"android":"levelo://app?vid=e445083d-45a8-4d25-90af-ae9e33eb6abe","ios":"levelo://app?vid=e445083d-45a8-4d25-90af-ae9e33eb6abe"},"vehicle_type_id":"4","last_reported":1770900000,"current_range_meters":8400,"station_id":"ce4bgg92rcd13ifvqb30","pricing_plan_id":"cebpf4jnsgd1na2vs0mg"},{"bike_id":"c8d9299e-1f02-414d-a701-2a89449ca9df","system_id":"levelo_inurba_marseille","lat":43.290553,"lon":5.399495,"is_reserved":false,"is_disabled":false,"rental_uris":{"android":"levelo://app?vid=c8d9299e-1f02-414d-a701-2a89449ca9df","ios":"levelo://app?vid=c8d9299e-1f02-414d-a701-2a89449ca9df"},"vehicle_type_id":"4","last_reported":1770900000,"current_range_meters":8400,"station_id":"ce4bh392rcd13ifvqdm0","pricing_plan_id":"cebpf4jnsgd1na2vs0mg"},{"bike_id":"8b9dda30-a538-4c56-8057-4354e193017c","system_id":"levelo_inurba_marseille","lat":43.29228,"lon":5.36105,"is_reserved":false,"is_disabled":false,"rental_uris":{"android":"levelo://app?vid=8b9dda30-a538-4c56-8057-4354e193017c","ios":"levelo://app?vid=8b9dda30-a538-4c56-8057-4354e193017c"},"vehicle_type_id":"4","last_reported":1770900000,"current_range_meters":8400,"station_id":"ce4bhbh2rcd13ifvqeqg","pricing_plan_id":"cebpf4jnsgd1na2vs0mg"},{"bike_id":"31ec33af-4b5b-47df-a935-7478bd3c999f","system_id":"levelo_inurba_marseille","lat":43.25333,"lon":5.42175,"is_reserved":false,"is_disabled":false,"rental_uris":{"android":"levelo://app?vid=31ec33af-4b5b-47df-a935-7478bd3c999f","ios":"levelo://app?vid=31ec33af-4b5b-47df-a935-7478bd3c999f"},"vehicle_type_id":"4","last_reported":1770900000,"current_range_meters":8400,"station_id":"st_d2m65c5bi1j21697t3ng","pricing_plan_id":"cebpf4jnsgd1na2vs0mg"},{"bike_id":"cb9be5fc-0f8f-4012-b222-62b158765b42","system_id":"levelo_inurba_marseille","lat":43.22945,"lon":5.3537,"is_reserved":false,"is_disabled":false,"rental_uris":{"android":"levelo://app?vid=cb9be5fc-0f8f-4012-b222-62b158765b42","ios":"levelo://app?vid=cb9be5fc-0f8f-4012-b222-62b158765b42"},"vehicle_type_id":"4","last_reported":1770900000,"current_range_meters":8400,"station_id":"cpo3532slgdg3j2ikp40","pricing_plan_id":"cebpf4jnsgd1na2vs0mg"},{"bike_id":"46795c32-d155-4823-a0f3-872b06d1e11d","system_id":"levelo_inurba_marseille","lat":43.21744,"lon":5.34605,"is_reserved":false,"is_disabled":false,"rental_uris":{"android":"levelo://app?vid=46795c32-d155-4823-a0f3-872b06d1e11d","ios":"levelo://app?vid=46795c32-d155-4823-a0f3-872b06d1e11d"},"vehicle_type_id":"4","last_reported":1770900000,"current_range_meters":8400,"station_id":"","pricing_plan_id":"cebpf4jnsgd1na2vs0mg"},{"bike_id":"1a1e0128-5ebc-46e0-94a9-6fdb089a0735","system_id":"levelo_inurba_marseille","lat":43.26366,"lon":5.41063,"is_reserved":false,"is_disabled":false,"rental_uris":{"android":"levelo://app?vid=1a1e0128-5ebc-46e0-94a9-6fdb089a0735","ios":"levelo://app?vid=1a1e0128-5ebc-46e0-94a9-6fdb089a0735"},"vehicle_type_id":"4","last_reported":1770900000,"current_range_meters":8400,"station_id":"st_d4e5ca6na9uc73bfl5fg","pricing_plan_id":"cebpf4jnsgd1na2vs0mg"},{"bike_id":"cd2ea776-4312-4cb7-8563-066b16a10c75","system_id":"levelo_inurba_marseille","lat":43.23183,"lon":5.39998,"is_reserved":false,"is_disabled":false,"rental_uris":{"android":"levelo://app?vid=cd2ea776-4312-4cb7-8563-066b16a10c75","ios":"levelo://app?vid=cd2ea776-4312-4cb7-8563-066b16a10c75"},"vehicle_type_id":"4","last_reported":1770900000,"current_range_meters":8400,"station_id":"ce4bhn12rcd13ifvqgqg","pricing_plan_id":"cebpf4jnsgd1na2vs0mg"},{"bike_id":"fe493fe2-dabb-4a25-a2c7-98856bb8005f","system_id":"levelo_inurba_marseille","lat":43.31081,"lon":5.42425,"is_reserved":false,"is_disabled":false,"rental_uris":{"android":"levelo://app?vid=fe493fe2-dabb-4a25-a2c7-98856bb8005f","ios":"levelo://app?vid=fe493fe2-dabb-4a25-a2c7-98856bb8005f"},"vehicle_type_id":"4","last_reported":1770900000,"current_range_meters":8400,"station_id":"ce4bhp92rcd13ifvqhag","pricing_plan_id":"cebpf4jnsgd1na2vs0mg"},{"bike_id":"123e2f87-6ab8-4b7e-80f1-02e246520658","system_id":"levelo_inurba_marseille","lat":43.26784,"lon":5.39423,"is_reserved":false,"is_disabled":false,"rental_uris":{"android":"levelo://app?vid=123e2f87-6ab8-4b7e-80f1-02e246520658","ios":"levelo://app?vid=123e2f87-6ab8-4b7e-80f1-02e246520658"},"vehicle_type_id":"4","last_reported":1770900000,"current_range_meters":8400,"station_id":"ce4bhh12rcd13ifvqfg0","pricing_plan_id":"cebpf4jnsgd1na2vs0mg"},{"bike_id":"f00baa5f-cba2-411f-a887-5a0ac953db29","system_id":"levelo_inurba_marseille","lat":43.240865,"lon":5.37766,"is_reserved":false,"is_disabled":false,"rental_uris":{"android":"levelo://app?vid=f00baa5f-cba2-411f-a887-5a0ac953db29","ios":"levelo://app?vid=f00baa5f-cba2-411f-a887-5a0ac953db29"},"vehicle_type_id":"4","last_reported":1770900000,"current_range_meters":8400,"station_id":"ce4bhnp2rcd13ifvqgvg","pricing_plan_id":"cebpf4jnsgd1na2vs0mg"},{"bike_id":"d72415ad-7d3d-4889-b090-1dffb15b87de","system_id":"levelo_inurba_marseille","lat":43.23958,"lon":5.36673,"is_reserved":false,"is_disabled":false,"rental_uris":{"android":"levelo://app?vid=d72415ad-7d3d-4889-b090-1dffb15b87de","ios":"levelo://app?vid=d72415ad-7d3d-4889-b090-1dffb15b87de"},"vehicle_type_id":"4","last_reported":1770900000,"current_range_meters":8800,"station_id":"ce4bhi12rcd13ifvqfp0","pricing_plan_id":"cebpf4jnsgd1na2vs0mg"},{"bike_id":"b6a3369c-489c-484a-8004-4e080bf428a7","system_id":"levelo_inurba_marseille","lat":43.27207,"lon":5.39177,"is_reserved":false,"is_disabled":false,"rental_uris":{"android":"levelo://app?vid=b6a3369c-489c-484a-8004-4e080bf428a7","ios":"levelo://app?vid=b6a3369c-489c-484a-8004-4e080bf428a7"},"vehicle_type_id":"4","last_reported":1770900000,"current_range_meters":8800,"station_id":"ce4bhhp2rcd13ifvqfm0","pricing_plan_id":"cebpf4jnsgd1na2vs0mg"},{"bike_id":"558b0286-85fc-49cb-b13d-aa40847d1ce9","system_id":"levelo_inurba_marseille","lat":43.25002,"lon":5.3893,"is_reserved":false,"is_disabled":false,"rental_uris":{"android":"levelo://app?vid=558b0286-85fc-49cb-b13d-aa40847d1ce9","ios":"levelo://app?vid=558b0286-85fc-49cb-b13d-aa40847d1ce9"},"vehicle_type_id":"4","last_reported":1770900000,"current_range_meters":8800,"station_id":"ce4bhgp2rcd13ifvqfd0","pricing_plan_id":"cebpf4jnsgd1na2vs0mg"},{"bike_id":"3ad331d6-b4d1-49c7-b940-96959fff84a3","system_id":"levelo_inurba_marseille","lat":43.2859,"lon":5.35071,"is_reserved":false,"is_disabled":false,"rental_uris":{"android":"levelo://app?vid=3ad331d6-b4d1-49c7-b940-96959fff84a3","ios":"levelo://app?vid=3ad331d6-b4d1-49c7-b940-96959fff84a3"},"vehicle_type_id":"4","last_reported":1770900000,"current_range_meters":8800,"station_id":"ce4bhch2rcd13ifvqeug","pricing_plan_id":"cebpf4jnsgd1na2vs0mg"},{"bike_id":"6d146b90-da11-4bbb-b527-7da7e2561db2","system_id":"levelo_inurba_marseille","lat":43.284811,"lon":5.483996,"is_reserved":false,"is_disabled":false,"rental_uris":{"android":"levelo://app?vid=6d146b90-da11-4bbb-b527-7da7e2561db2","ios":"levelo://app?vid=6d146b90-da11-4bbb-b527-7da7e2561db2"},"vehicle_type_id":"4","last_reported":1770900000,"current_range_meters":8800,"station_id":"st_d3svhcjqgbts73a3dn0g","pricing_plan_id":"cebpf4jnsgd1na2vs0mg"},{"bike_id":"5ff157dc-e3aa-4305-ad39-dfa58cf64b9c","system_id":"levelo_inurba_marseille","lat":43.240789,"lon":5.377263,"is_reserved":false,"is_disabled":false,"rental_uris":{"android":"levelo://app?vid=5ff157dc-e3aa-4305-ad39-dfa58cf64b9c","ios":"levelo://app?vid=5ff157dc-e3aa-4305-ad39-dfa58cf64b9c"},"vehicle_type_id":"4","last_reported":1770900000,"current_range_meters":8800,"station_id":"ce4bhnp2rcd13ifvqgvg","pricing_plan_id":"cebpf4jnsgd1na2vs0mg"},{"bike_id":"020a02e4-b882-43a5-b13b-098b3f1416a7","system_id":"levelo_inurba_marseille","lat":43.30544,"lon":5.38423,"is_reserved":false,"is_disabled":false,"rental_uris":{"android":"levelo://app?vid=020a02e4-b882-43a5-b13b-098b3f1416a7","ios":"levelo://app?vid=020a02e4-b882-43a5-b13b-098b3f1416a7"},"vehicle_type_id":"4","last_reported":1770900000,"current_range_meters":8800,"station_id":"ce4bgg92rcd13ifvqb30","pricing_plan_id":"cebpf4jnsgd1na2vs0mg"},{"bike_id":"bb6faa0c-4182-45af-b174-e42f3eae8837","system_id":"levelo_inurba_marseille","lat":43.246476,"lon":5.389094,"is_reserved":false,"is_disabled":false,"rental_uris":{"android":"levelo://app?vid=bb6faa0c-4182-45af-b174-e42f3eae8837","ios":"levelo://app?vid=bb6faa0c-4182-45af-b174-e42f3eae8837"},"vehicle_type_id":"4","last_reported":1770900000,"current_range_meters":8800,"station_id":"ce4bhg12rcd13ifvqf60","pricing_plan_id":"cebpf4jnsgd1na2vs0mg"},{"bike_id":"e61f8348-ac76-4cea-92f8-334c0273949b","system_id":"levelo_inurba_marseille","lat":43.24674,"lon":5.4317,"is_reserved":false,"is_disabled":false,"rental_uris":{"android":"levelo://app?vid=e61f8348-ac76-4cea-92f8-334c0273949b","ios":"levelo://app?vid=e61f8348-ac76-4cea-92f8-334c0273949b"},"vehicle_type_id":"4","last_reported":1770900000,"current_range_meters":8800,"station_id":"st_d2m6c4gdas8pm72e190g","pricing_plan_id":"cebpf4jnsgd1na2vs0mg"},{"bike_id":"e0a99c59-b2ab-407c-8f36-dd4b7764ede6","system_id":"levelo_inurba_marseille","lat":43.29044,"lon":5.39937,"is_reserved":false,"is_disabled":false,"rental_uris":{"android":"levelo://app?vid=e0a99c59-b2ab-407c-8f36-dd4b7764ede6","ios":"levelo://app?vid=e0a99c59-b2ab-407c-8f36-dd4b7764ede6"},"vehicle_type_id":"4","last_reported":1770900000,"current_range_meters":8800,"station_id":"ce4bh392rcd13ifvqdm0","pricing_plan_id":"cebpf4jnsgd1na2vs0mg"},{"bike_id":"48ef2e5e-395e-487a-9e41-360aad012a1f","system_id":"levelo_inurba_marseille","lat":43.26226,"lon":5.37453,"is_reserved":false,"is_disabled":false,"rental_uris":{"android":"levelo://app?vid=48ef2e5e-395e-487a-9e41-360aad012a1f","ios":"levelo://app?vid=48ef2e5e-395e-487a-9e41-360aad012a1f"},"vehicle_type_id":"4","last_reported":1770900000,"current_range_meters":8800,"station_id":"","pricing_plan_id":"cebpf4jnsgd1na2vs0mg"},{"bike_id":"74ef1453-4c91-43ca-9aa1-858618468a37","system_id":"levelo_inurba_marseille","lat":43.30531,"lon":5.36711,"is_reserved":false,"is_disabled":false,"rental_uris":{"android":"levelo://app?vid=74ef1453-4c91-43ca-9aa1-858618468a37","ios":"levelo://app?vid=74ef1453-4c91-43ca-9aa1-858618468a37"},"vehicle_type_id":"4","last_reported":1770900000,"current_range_meters":8800,"station_id":"ce4bgrp2rcd13ifvqc9g","pricing_plan_id":"cebpf4jnsgd1na2vs0mg"},{"bike_id":"7b37adcb-6ffe-4fa3-9609-a6a4a944a1cf","system_id":"levelo_inurba_marseille","lat":43.30545,"lon":5.36718,"is_reserved":false,"is_disabled":false,"rental_uris":{"android":"levelo://app?vid=7b37adcb-6ffe-4fa3-9609-a6a4a944a1cf","ios":"levelo://app?vid=7b37adcb-6ffe-4fa3-9609-a6a4a944a1cf"},"vehicle_type_id":"4","last_reported":1770900000,"current_range_meters":8800,"station_id":"ce4bgrp2rcd13ifvqc9g","pricing_plan_id":"cebpf4jnsgd1na2vs0mg"},{"bike_id":"05797971-b1fa-4e10-9a08-cd7f223bbe55","system_id":"levelo_inurba_marseille","lat":43.217468,"lon":5.346153,"is_reserved":false,"is_disabled":false,"rental_uris":{"android":"levelo://app?vid=05797971-b1fa-4e10-9a08-cd7f223bbe55","ios":"levelo://app?vid=05797971-b1fa-4e10-9a08-cd7f223bbe55"},"vehicle_type_id":"4","last_reported":1770900000,"current_range_meters":8800,"station_id":"","pricing_plan_id":"cebpf4jnsgd1na2vs0mg"},{"bike_id":"f5dfc69a-605e-4870-9f15-288a758bb79e","system_id":"levelo_inurba_marseille","lat":43.29761,"lon":5.42765,"is_reserved":false,"is_disabled":false,"rental_uris":{"android":"levelo://app?vid=f5dfc69a-605e-4870-9f15-288a758bb79e","ios":"levelo://app?vid=f5dfc69a-605e-4870-9f15-288a758bb79e"},"vehicle_type_id":"4","last_reported":1770900000,"current_range_meters":8800,"station_id":"st_d3md5207bmas73dh9klg","pricing_plan_id":"cebpf4jnsgd1na2vs0mg"},{"bike_id":"aff42c42-418a-4698-9f67-a2fe5f9876ab","system_id":"levelo_inurba_marseille","lat":43.25821,"lon":5.39437,"is_reserved":false,"is_disabled":false,"rental_uris":{"android":"levelo://app?vid=aff42c42-418a-4698-9f67-a2fe5f9876ab","ios":"levelo://app?vid=aff42c42-418a-4698-9f67-a2fe5f9876ab"},"vehicle_type_id":"4","last_reported":1770900000,"current_range_meters":8800,"station_id":"ce4bhip2rcd13ifvqft0","pricing_plan_id":"cebpf4jnsgd1na2vs0mg"},{"bike_id":"9156bacf-e82e-48ca-8f2b-3eba0b4b7e86","system_id":"levelo_inurba_marseille","lat":43.30474,"lon":5.37903,"is_reserved":false,"is_disabled":false,"rental_uris":{"android":"levelo://app?vid=9156bacf-e82e-48ca-8f2b-3eba0b4b7e86","ios":"levelo://app?vid=9156bacf-e82e-48ca-8f2b-3eba0b4b7e86"},"vehicle_type_id":"4","last_reported":1770900000,"current_range_meters":8800,"station_id":"ce4bgup2rcd13ifvqcn0","pricing_plan_id":"cebpf4jnsgd1na2vs0mg"},{"bike_id":"e6803627-acaa-4970-9ece-cd2f35ecf017","system_id":"levelo_inurba_marseille","lat":43.26686,"lon":5.38276,"is_reserved":false,"is_disabled":false,"rental_uris":{"android":"levelo://app?vid=e6803627-acaa-4970-9ece-cd2f35ecf017","ios":"levelo://app?vid=e6803627-acaa-4970-9ece-cd2f35ecf017"},"vehicle_type_id":"4","last_reported":1770900000,"current_range_meters":8800,"station_id":"ce4bhg92rcd13ifvqf90","pricing_plan_id":"cebpf4jnsgd1na2vs0mg"},{"bike_id":"f5e82031-62e2-40e2-8c7c-5edec33c9e91","system_id":"levelo_inurba_marseille","lat":43.262246,"lon":5.404619,"is_reserved":false,"is_disabled":false,"rental_uris":{"android":"levelo://app?vid=f5e82031-62e2-40e2-8c7c-5edec33c9e91","ios":"levelo://app?vid=f5e82031-62e2-40e2-8c7c-5edec33c9e91"},"vehicle_type_id":"4","last_reported":1770900000,"current_range_meters":8800,"station_id":"ce4bhmh2rcd13ifvqgmg","pricing_plan_id":"cebpf4jnsgd1na2vs0mg"},{"bike_id":"a0f00b77-3668-4cb1-9cb3-dbbe136dba2b","system_id":"levelo_inurba_marseille","lat":43.25567,"lon":5.38188,"is_reserved":false,"is_disabled":false,"rental_uris":{"android":"levelo://app?vid=a0f00b77-3668-4cb1-9cb3-dbbe136dba2b","ios":"levelo://app?vid=a0f00b77-3668-4cb1-9cb3-dbbe136dba2b"},"vehicle_type_id":"4","last_reported":1770900000,"current_range_meters":8800,"station_id":"ce4bhih2rcd13ifvqfs0","pricing_plan_id":"cebpf4jnsgd1na2vs0mg"},{"bike_id":"cf4cb214-add7-4259-9037-63a9e2c59cab","system_id":"levelo_inurba_marseille","lat":43.30303,"lon":5.36899,"is_reserved":false,"is_disabled":false,"rental_uris":{"android":"levelo://app?vid=cf4cb214-add7-4259-9037-63a9e2c59cab","ios":"levelo://app?vid=cf4cb214-add7-4259-9037-63a9e2c59cab"},"vehicle_type_id":"4","last_reported":1770900000,"current_range_meters":8800,"station_id":"ce4bgqh2rcd13ifvqc5g","pricing_plan_id":"cebpf4jnsgd1na2vs0mg"},{"bike_id":"2da32715-91d7-4dc2-bd96-0baee08ab0c9","system_id":"levelo_inurba_marseille","lat":43.2416,"lon":5.39708,"is_reserved":false,"is_disabled":false,"rental_uris":{"android":"levelo://app?vid=2da32715-91d7-4dc2-bd96-0baee08ab0c9","ios":"levelo://app?vid=2da32715-91d7-4dc2-bd96-0baee08ab0c9"},"vehicle_type_id":"4","last_reported":1770900000,"current_range_meters":8800,"station_id":"ce4bhn12rcd13ifvqgpg","pricing_plan_id":"cebpf4jnsgd1na2vs0mg"},{"bike_id":"ab2b49aa-7574-41ea-aafd-20e44f598b0a","system_id":"levelo_inurba_marseille","lat":43.33145,"lon":5.37698,"is_reserved":false,"is_disabled":false,"rental_uris":{"android":"levelo://app?vid=ab2b49aa-7574-41ea-aafd-20e44f598b0a","ios":"levelo://app?vid=ab2b49aa-7574-41ea-aafd-20e44f598b0a"},"vehicle_type_id":"4","last_reported":1770900000,"current_range_meters":8800,"station_id":"st_d46cu089ee8s73dldbu0","pricing_plan_id":"cebpf4jnsgd1na2vs0mg"},{"bike_id":"2966434a-921f-4f6a-8543-92544bd2c40c","system_id":"levelo_inurba_marseille","lat":43.29844,"lon":5.36276,"is_reserved":false,"is_disabled":false,"rental_uris":{"android":"levelo://app?vid=2966434a-921f-4f6a-8543-92544bd2c40c","ios":"levelo://app?vid=2966434a-921f-4f6a-8543-92544bd2c40c"},"vehicle_type_id":"4","last_reported":1770900000,"current_range_meters":8800,"station_id":"ce4bgpp2rcd13ifvqc3g","pricing_plan_id":"cebpf4jnsgd1na2vs0mg"},{"bike_id":"0b4aaea2-35f7-42c2-b087-ed81f1658c46","system_id":"levelo_inurba_marseille","lat":43.29584,"lon":5.36745,"is_reserved":false,"is_disabled":false,"rental_uris":{"android":"levelo://app?vid=0b4aaea2-35f7-42c2-b087-ed81f1658c46","ios":"levelo://app?vid=0b4aaea2-35f7-42c2-b087-ed81f1658c46"},"vehicle_type_id":"4","last_reported":1770900000,"current_range_meters":9200,"station_id":"ce4bgph2rcd13ifvqc2g","pricing_plan_id":"cebpf4jnsgd1na2vs0mg"},{"bike_id":"85ca329a-9c55-4be1-b2da-c3d917ed6363","system_id":"levelo_inurba_marseille","lat":43.24558,"lon":5.39525,"is_reserved":false,"is_disabled":false,"rental_uris":{"android":"levelo://app?vid=85ca329a-9c55-4be1-b2da-c3d917ed6363","ios":"levelo://app?vid=85ca329a-9c55-4be1-b2da-c3d917ed6363"},"vehicle_type_id":"4","last_reported":1770900000,"current_range_meters":9200,"station_id":"ce4bhlp2rcd13ifvqgjg","pricing_plan_id":"cebpf4jnsgd1na2vs0mg"},{"bike_id":"9e49c384-30c1-4f45-a8df-9663175b8696","system_id":"levelo_inurba_marseille","lat":43.24476,"lon":5.42535,"is_reserved":false,"is_disabled":false,"rental_uris":{"android":"levelo://app?vid=9e49c384-30c1-4f45-a8df-9663175b8696","ios":"levelo://app?vid=9e49c384-30c1-4f45-a8df-9663175b8696"},"vehicle_type_id":"4","last_reported":1770900000,"current_range_meters":9200,"station_id":"st_d4a3vfp97mjs738cd8kg","pricing_plan_id":"cebpf4jnsgd1na2vs0mg"},{"bike_id":"09ad556f-b6d8-43a2-9c08-0649a70ab239","system_id":"levelo_inurba_marseille","lat":43.29622,"lon":5.37772,"is_reserved":false,"is_disabled":false,"rental_uris":{"android":"levelo://app?vid=09ad556f-b6d8-43a2-9c08-0649a70ab239","ios":"levelo://app?vid=09ad556f-b6d8-43a2-9c08-0649a70ab239"},"vehicle_type_id":"4","last_reported":1770900000,"current_range_meters":9200,"station_id":"ce4bgi92rcd13ifvqb90","pricing_plan_id":"cebpf4jnsgd1na2vs0mg"},{"bike_id":"4c984fe9-1849-4de8-b436-006adff2dd9f","system_id":"levelo_inurba_marseille","lat":43.29794,"lon":5.38076,"is_reserved":false,"is_disabled":false,"rental_uris":{"android":"levelo://app?vid=4c984fe9-1849-4de8-b436-006adff2dd9f","ios":"levelo://app?vid=4c984fe9-1849-4de8-b436-006adff2dd9f"},"vehicle_type_id":"4","last_reported":1770900000,"current_range_meters":9200,"station_id":"ce4bgip2rcd13ifvqbb0","pricing_plan_id":"cebpf4jnsgd1na2vs0mg"},{"bike_id":"40452636-8d5c-4483-9aa3-a6ea0d66c3ee","system_id":"levelo_inurba_marseille","lat":43.31059,"lon":5.39332,"is_reserved":false,"is_disabled":false,"rental_uris":{"android":"levelo://app?vid=40452636-8d5c-4483-9aa3-a6ea0d66c3ee","ios":"levelo://app?vid=40452636-8d5c-4483-9aa3-a6ea0d66c3ee"},"vehicle_type_id":"4","last_reported":1770900000,"current_range_meters":9200,"station_id":"","pricing_plan_id":"cebpf4jnsgd1na2vs0mg"},{"bike_id":"b5cfe035-0ac5-4157-91b6-fb5d92305462","system_id":"levelo_inurba_marseille","lat":43.28169,"lon":5.42648,"is_reserved":false,"is_disabled":false,"rental_uris":{"android":"levelo://app?vid=b5cfe035-0ac5-4157-91b6-fb5d92305462","ios":"levelo://app?vid=b5cfe035-0ac5-4157-91b6-fb5d92305462"},"vehicle_type_id":"4","last_reported":1770900000,"current_range_meters":9200,"station_id":"ce4bhnh2rcd13ifvqgug","pricing_plan_id":"cebpf4jnsgd1na2vs0mg"},{"bike_id":"c0d21250-70f7-405b-91f7-061919265b15","system_id":"levelo_inurba_marseille","lat":43.337444,"lon":5.374475,"is_reserved":false,"is_disabled":false,"rental_uris":{"android":"levelo://app?vid=c0d21250-70f7-405b-91f7-061919265b15","ios":"levelo://app?vid=c0d21250-70f7-405b-91f7-061919265b15"},"vehicle_type_id":"4","last_reported":1770900000,"current_range_meters":9200,"station_id":"","pricing_plan_id":"cebpf4jnsgd1na2vs0mg"},{"bike_id":"d133da66-969f-43a3-811d-2c8fd3e12789","system_id":"levelo_inurba_marseille","lat":43.288598,"lon":5.425181,"is_reserved":false,"is_disabled":false,"rental_uris":{"android":"levelo://app?vid=d133da66-969f-43a3-811d-2c8fd3e12789","ios":"levelo://app?vid=d133da66-969f-43a3-811d-2c8fd3e12789"},"vehicle_type_id":"4","last_reported":1770900000,"current_range_meters":9200,"station_id":"st_d3b462108ojc7389ooeg","pricing_plan_id":"cebpf4jnsgd1na2vs0mg"},{"bike_id":"f80d80b1-fd6c-49d0-a946-3b95b1b8c004","system_id":"levelo_inurba_marseille","lat":43.29041,"lon":5.39985,"is_reserved":false,"is_disabled":false,"rental_uris":{"android":"levelo://app?vid=f80d80b1-fd6c-49d0-a946-3b95b1b8c004","ios":"levelo://app?vid=f80d80b1-fd6c-49d0-a946-3b95b1b8c004"},"vehicle_type_id":"4","last_reported":1770900000,"current_range_meters":9200,"station_id":"ce4bh392rcd13ifvqdm0","pricing_plan_id":"cebpf4jnsgd1na2vs0mg"},{"bike_id":"1d2595e7-24ec-4837-ac2e-333261d8dae0","system_id":"levelo_inurba_marseille","lat":43.22557,"lon":5.41623,"is_reserved":false,"is_disabled":false,"rental_uris":{"android":"levelo://app?vid=1d2595e7-24ec-4837-ac2e-333261d8dae0","ios":"levelo://app?vid=1d2595e7-24ec-4837-ac2e-333261d8dae0"},"vehicle_type_id":"4","last_reported":1770900000,"current_range_meters":9200,"station_id":"st_d2o4gvlbi1j2169b742g","pricing_plan_id":"cebpf4jnsgd1na2vs0mg"},{"bike_id":"76ea5260-ff82-43e8-a377-4f3ddffee2c7","system_id":"levelo_inurba_marseille","lat":43.29714,"lon":5.42776,"is_reserved":false,"is_disabled":false,"rental_uris":{"android":"levelo://app?vid=76ea5260-ff82-43e8-a377-4f3ddffee2c7","ios":"levelo://app?vid=76ea5260-ff82-43e8-a377-4f3ddffee2c7"},"vehicle_type_id":"4","last_reported":1770900000,"current_range_meters":9200,"station_id":"","pricing_plan_id":"cebpf4jnsgd1na2vs0mg"},{"bike_id":"2cdaaecc-f3f1-45ea-a338-8e3592ee7872","system_id":"levelo_inurba_marseille","lat":43.319941,"lon":5.381658,"is_reserved":false,"is_disabled":false,"rental_uris":{"android":"levelo://app?vid=2cdaaecc-f3f1-45ea-a338-8e3592ee7872","ios":"levelo://app?vid=2cdaaecc-f3f1-45ea-a338-8e3592ee7872"},"vehicle_type_id":"4","last_reported":1770900000,"current_range_meters":9200,"station_id":"ce4bhbh2rcd13ifvqeqg","pricing_plan_id":"cebpf4jnsgd1na2vs0mg"},{"bike_id":"107ddb99-edbe-400c-935b-2ceba13046dc","system_id":"levelo_inurba_marseille","lat":43.33153,"lon":5.3769,"is_reserved":false,"is_disabled":false,"rental_uris":{"android":"levelo://app?vid=107ddb99-edbe-400c-935b-2ceba13046dc","ios":"levelo://app?vid=107ddb99-edbe-400c-935b-2ceba13046dc"},"vehicle_type_id":"4","last_reported":1770900000,"current_range_meters":9200,"station_id":"st_d46cu089ee8s73dldbu0","pricing_plan_id":"cebpf4jnsgd1na2vs0mg"},{"bike_id":"0cef8616-1d65-4182-99dc-824443a67ce0","system_id":"levelo_inurba_marseille","lat":43.24466,"lon":5.42536,"is_reserved":false,"is_disabled":false,"rental_uris":{"android":"levelo://app?vid=0cef8616-1d65-4182-99dc-824443a67ce0","ios":"levelo://app?vid=0cef8616-1d65-4182-99dc-824443a67ce0"},"vehicle_type_id":"4","last_reported":1770900000,"current_range_meters":9600,"station_id":"st_d4a3vfp97mjs738cd8kg","pricing_plan_id":"cebpf4jnsgd1na2vs0mg"},{"bike_id":"bc757259-3231-42fc-84f1-e4b3f0804f84","system_id":"levelo_inurba_marseille","lat":43.2593,"lon":5.40897,"is_reserved":false,"is_disabled":false,"rental_uris":{"android":"levelo://app?vid=bc757259-3231-42fc-84f1-e4b3f0804f84","ios":"levelo://app?vid=bc757259-3231-42fc-84f1-e4b3f0804f84"},"vehicle_type_id":"4","last_reported":1770900000,"current_range_meters":9600,"station_id":"ce4bhm92rcd13ifvqglg","pricing_plan_id":"cebpf4jnsgd1na2vs0mg"},{"bike_id":"51ad0198-092e-4860-b994-3420575955f1","system_id":"levelo_inurba_marseille","lat":43.22527,"lon":5.34833,"is_reserved":false,"is_disabled":false,"rental_uris":{"android":"levelo://app?vid=51ad0198-092e-4860-b994-3420575955f1","ios":"levelo://app?vid=51ad0198-092e-4860-b994-3420575955f1"},"vehicle_type_id":"4","last_reported":1770900000,"current_range_meters":9600,"station_id":"st_cvj5dfep6f1abm77gieg","pricing_plan_id":"cebpf4jnsgd1na2vs0mg"},{"bike_id":"1ce107f6-c827-4fd0-952b-5454d05e9916","system_id":"levelo_inurba_marseille","lat":43.29618,"lon":5.37726,"is_reserved":false,"is_disabled":false,"rental_uris":{"android":"levelo://app?vid=1ce107f6-c827-4fd0-952b-5454d05e9916","ios":"levelo://app?vid=1ce107f6-c827-4fd0-952b-5454d05e9916"},"vehicle_type_id":"4","last_reported":1770900000,"current_range_meters":9600,"station_id":"ce4bgi92rcd13ifvqb90","pricing_plan_id":"cebpf4jnsgd1na2vs0mg"},{"bike_id":"dc0bbbef-469e-4852-b275-445893c3bbfc","system_id":"levelo_inurba_marseille","lat":43.31237,"lon":5.36871,"is_reserved":false,"is_disabled":false,"rental_uris":{"android":"levelo://app?vid=dc0bbbef-469e-4852-b275-445893c3bbfc","ios":"levelo://app?vid=dc0bbbef-469e-4852-b275-445893c3bbfc"},"vehicle_type_id":"4","last_reported":1770900000,"current_range_meters":9600,"station_id":"ce4bgl92rcd13ifvqbq0","pricing_plan_id":"cebpf4jnsgd1na2vs0mg"},{"bike_id":"bbcacbf4-50b9-4019-8e83-88cd815f9d5d","system_id":"levelo_inurba_marseille","lat":43.309569,"lon":5.390429,"is_reserved":false,"is_disabled":false,"rental_uris":{"android":"levelo://app?vid=bbcacbf4-50b9-4019-8e83-88cd815f9d5d","ios":"levelo://app?vid=bbcacbf4-50b9-4019-8e83-88cd815f9d5d"},"vehicle_type_id":"4","last_reported":1770900000,"current_range_meters":9600,"station_id":"ce4bgup2rcd13ifvqco0","pricing_plan_id":"cebpf4jnsgd1na2vs0mg"},{"bike_id":"1666a0e7-ccfb-4a46-816c-bd1b996f577e","system_id":"levelo_inurba_marseille","lat":43.28588,"lon":5.38387,"is_reserved":false,"is_disabled":false,"rental_uris":{"android":"levelo://app?vid=1666a0e7-ccfb-4a46-816c-bd1b996f577e","ios":"levelo://app?vid=1666a0e7-ccfb-4a46-816c-bd1b996f577e"},"vehicle_type_id":"4","last_reported":1770900000,"current_range_meters":9600,"station_id":"","pricing_plan_id":"cebpf4jnsgd1na2vs0mg"},{"bike_id":"c2b41f7c-9ade-4514-aba5-c30368927d79","system_id":"levelo_inurba_marseille","lat":43.29052,"lon":5.35913,"is_reserved":false,"is_disabled":false,"rental_uris":{"android":"levelo://app?vid=c2b41f7c-9ade-4514-aba5-c30368927d79","ios":"levelo://app?vid=c2b41f7c-9ade-4514-aba5-c30368927d79"},"vehicle_type_id":"4","last_reported":1770900000,"current_range_meters":9600,"station_id":"ce4bha92rcd13ifvqeg0","pricing_plan_id":"cebpf4jnsgd1na2vs0mg"},{"bike_id":"dddd8dae-2150-40e8-9b96-7bf9dacad978","system_id":"levelo_inurba_marseille","lat":43.29896,"lon":5.43667,"is_reserved":false,"is_disabled":false,"rental_uris":{"android":"levelo://app?vid=dddd8dae-2150-40e8-9b96-7bf9dacad978","ios":"levelo://app?vid=dddd8dae-2150-40e8-9b96-7bf9dacad978"},"vehicle_type_id":"4","last_reported":1770900000,"current_range_meters":9600,"station_id":"ce4bhpp2rcd13ifvqhfg","pricing_plan_id":"cebpf4jnsgd1na2vs0mg"},{"bike_id":"f28ee724-6771-4020-9ab3-7deb12288357","system_id":"levelo_inurba_marseille","lat":43.31024,"lon":5.37178,"is_reserved":false,"is_disabled":false,"rental_uris":{"android":"levelo://app?vid=f28ee724-6771-4020-9ab3-7deb12288357","ios":"levelo://app?vid=f28ee724-6771-4020-9ab3-7deb12288357"},"vehicle_type_id":"4","last_reported":1770900000,"current_range_meters":9600,"station_id":"st_d4kl2rp97mjs73e7tdfg","pricing_plan_id":"cebpf4jnsgd1na2vs0mg"},{"bike_id":"3b411d06-3797-4c41-b820-5c0051884bfe","system_id":"levelo_inurba_marseille","lat":43.25517,"lon":5.37648,"is_reserved":false,"is_disabled":false,"rental_uris":{"android":"levelo://app?vid=3b411d06-3797-4c41-b820-5c0051884bfe","ios":"levelo://app?vid=3b411d06-3797-4c41-b820-5c0051884bfe"},"vehicle_type_id":"4","last_reported":1770900000,"current_range_meters":9600,"station_id":"ce4bhh12rcd13ifvqff0","pricing_plan_id":"cebpf4jnsgd1na2vs0mg"},{"bike_id":"68ce3eca-c43e-4032-bd0d-c13fcea1d3c9","system_id":"levelo_inurba_marseille","lat":43.21738,"lon":5.34606,"is_reserved":false,"is_disabled":false,"rental_uris":{"android":"levelo://app?vid=68ce3eca-c43e-4032-bd0d-c13fcea1d3c9","ios":"levelo://app?vid=68ce3eca-c43e-4032-bd0d-c13fcea1d3c9"},"vehicle_type_id":"4","last_reported":1770900000,"current_range_meters":9600,"station_id":"st_cvj6r9ubvosntc0bgbag","pricing_plan_id":"cebpf4jnsgd1na2vs0mg"},{"bike_id":"7578ca6a-41b9-4d16-80d9-987a7c1630a9","system_id":"levelo_inurba_marseille","lat":43.246478,"lon":5.388902,"is_reserved":false,"is_disabled":false,"rental_uris":{"android":"levelo://app?vid=7578ca6a-41b9-4d16-80d9-987a7c1630a9","ios":"levelo://app?vid=7578ca6a-41b9-4d16-80d9-987a7c1630a9"},"vehicle_type_id":"4","last_reported":1770900000,"current_range_meters":9600,"station_id":"ce4bhg12rcd13ifvqf60","pricing_plan_id":"cebpf4jnsgd1na2vs0mg"},{"bike_id":"08b370f0-74ec-4715-a192-9c4c937f0697","system_id":"levelo_inurba_marseille","lat":43.29887,"lon":5.38148,"is_reserved":false,"is_disabled":false,"rental_uris":{"android":"levelo://app?vid=08b370f0-74ec-4715-a192-9c4c937f0697","ios":"levelo://app?vid=08b370f0-74ec-4715-a192-9c4c937f0697"},"vehicle_type_id":"4","last_reported":1770900000,"current_range_meters":9600,"station_id":"ce4bgj12rcd13ifvqbc0","pricing_plan_id":"cebpf4jnsgd1na2vs0mg"},{"bike_id":"e50779cd-1647-45fc-8c70-ce0e1c6ea449","system_id":"levelo_inurba_marseille","lat":43.274948,"lon":5.424646,"is_reserved":false,"is_disabled":false,"rental_uris":{"android":"levelo://app?vid=e50779cd-1647-45fc-8c70-ce0e1c6ea449","ios":"levelo://app?vid=e50779cd-1647-45fc-8c70-ce0e1c6ea449"},"vehicle_type_id":"4","last_reported":1770900000,"current_range_meters":9600,"station_id":"ce4bhn92rcd13ifvqgrg","pricing_plan_id":"cebpf4jnsgd1na2vs0mg"},{"bike_id":"93cc1b01-8d09-4162-95ee-93c6b99b4145","system_id":"levelo_inurba_marseille","lat":43.26189,"lon":5.3737,"is_reserved":false,"is_disabled":false,"rental_uris":{"android":"levelo://app?vid=93cc1b01-8d09-4162-95ee-93c6b99b4145","ios":"levelo://app?vid=93cc1b01-8d09-4162-95ee-93c6b99b4145"},"vehicle_type_id":"4","last_reported":1770900000,"current_range_meters":9600,"station_id":"ce4bhgp2rcd13ifvqfc0","pricing_plan_id":"cebpf4jnsgd1na2vs0mg"},{"bike_id":"78578ab6-e7e0-440f-8a8f-20313203685e","system_id":"levelo_inurba_marseille","lat":43.28682,"lon":5.38659,"is_reserved":false,"is_disabled":false,"rental_uris":{"android":"levelo://app?vid=78578ab6-e7e0-440f-8a8f-20313203685e","ios":"levelo://app?vid=78578ab6-e7e0-440f-8a8f-20313203685e"},"vehicle_type_id":"4","last_reported":1770900000,"current_range_meters":9600,"station_id":"ce4bh492rcd13ifvqdug","pricing_plan_id":"cebpf4jnsgd1na2vs0mg"},{"bike_id":"4a83b9ea-01fd-4ac0-aa80-3535fcc68565","system_id":"levelo_inurba_marseille","lat":43.29283,"lon":5.37617,"is_reserved":false,"is_disabled":false,"rental_uris":{"android":"levelo://app?vid=4a83b9ea-01fd-4ac0-aa80-3535fcc68565","ios":"levelo://app?vid=4a83b9ea-01fd-4ac0-aa80-3535fcc68565"},"vehicle_type_id":"4","last_reported":1770900000,"current_range_meters":9600,"station_id":"ce4bgi12rcd13ifvqb80","pricing_plan_id":"cebpf4jnsgd1na2vs0mg"},{"bike_id":"03bdebf5-220a-47b3-9ab4-45874e4939c0","system_id":"levelo_inurba_marseille","lat":43.28718,"lon":5.37941,"is_reserved":false,"is_disabled":false,"rental_uris":{"android":"levelo://app?vid=03bdebf5-220a-47b3-9ab4-45874e4939c0","ios":"levelo://app?vid=03bdebf5-220a-47b3-9ab4-45874e4939c0"},"vehicle_type_id":"4","last_reported":1770900000,"current_range_meters":10000,"station_id":"ce4bh9p2rcd13ifvqec0","pricing_plan_id":"cebpf4jnsgd1na2vs0mg"},{"bike_id":"014613de-69aa-4aca-9291-67750cce2e69","system_id":"levelo_inurba_marseille","lat":43.28509,"lon":5.48393,"is_reserved":false,"is_disabled":false,"rental_uris":{"android":"levelo://app?vid=014613de-69aa-4aca-9291-67750cce2e69","ios":"levelo://app?vid=014613de-69aa-4aca-9291-67750cce2e69"},"vehicle_type_id":"4","last_reported":1770900000,"current_range_meters":10000,"station_id":"","pricing_plan_id":"cebpf4jnsgd1na2vs0mg"},{"bike_id":"65aac124-f4af-40a9-969f-9b86b76af09b","system_id":"levelo_inurba_marseille","lat":43.29448,"lon":5.395761,"is_reserved":false,"is_disabled":false,"rental_uris":{"android":"levelo://app?vid=65aac124-f4af-40a9-969f-9b86b76af09b","ios":"levelo://app?vid=65aac124-f4af-40a9-969f-9b86b76af09b"},"vehicle_type_id":"4","last_reported":1770900000,"current_range_meters":10000,"station_id":"","pricing_plan_id":"cebpf4jnsgd1na2vs0mg"},{"bike_id":"806dba28-6b5b-471d-afa9-5e9335f17ebb","system_id":"levelo_inurba_marseille","lat":43.292704,"lon":5.409329,"is_reserved":false,"is_disabled":true,"rental_uris":{"android":"levelo://app?vid=806dba28-6b5b-471d-afa9-5e9335f17ebb","ios":"levelo://app?vid=806dba28-6b5b-471d-afa9-5e9335f17ebb"},"vehicle_type_id":"4","last_reported":1770900000,"current_range_meters":10000,"station_id":"ce4bh192rcd13ifvqdc0","pricing_plan_id":"cebpf4jnsgd1na2vs0mg"},{"bike_id":"cb2bcb24-1c3f-4f48-a6ce-4caf16fce4cb","system_id":"levelo_inurba_marseille","lat":43.31701,"lon":5.40447,"is_reserved":false,"is_disabled":false,"rental_uris":{"android":"levelo://app?vid=cb2bcb24-1c3f-4f48-a6ce-4caf16fce4cb","ios":"levelo://app?vid=cb2bcb24-1c3f-4f48-a6ce-4caf16fce4cb"},"vehicle_type_id":"4","last_reported":1770900000,"current_range_meters":10000,"station_id":"ce4bh012rcd13ifvqd00","pricing_plan_id":"cebpf4jnsgd1na2vs0mg"},{"bike_id":"bbf76c20-722d-4091-93ed-579710f24304","system_id":"levelo_inurba_marseille","lat":43.24409,"lon":5.37084,"is_reserved":false,"is_disabled":false,"rental_uris":{"android":"levelo://app?vid=bbf76c20-722d-4091-93ed-579710f24304","ios":"levelo://app?vid=bbf76c20-722d-4091-93ed-579710f24304"},"vehicle_type_id":"4","last_reported":1770900000,"current_range_meters":10000,"station_id":"ce4bhhh2rcd13ifvqfk0","pricing_plan_id":"cebpf4jnsgd1na2vs0mg"},{"bike_id":"d8c153e5-14a7-48cd-ba75-ef3b0368173f","system_id":"levelo_inurba_marseille","lat":43.2319,"lon":5.40013,"is_reserved":false,"is_disabled":false,"rental_uris":{"android":"levelo://app?vid=d8c153e5-14a7-48cd-ba75-ef3b0368173f","ios":"levelo://app?vid=d8c153e5-14a7-48cd-ba75-ef3b0368173f"},"vehicle_type_id":"4","last_reported":1770900000,"current_range_meters":10000,"station_id":"ce4bhn12rcd13ifvqgqg","pricing_plan_id":"cebpf4jnsgd1na2vs0mg"},{"bike_id":"171b62e2-ba7e-4159-8190-27c62681b21e","system_id":"levelo_inurba_marseille","lat":43.27067,"lon":5.4228,"is_reserved":false,"is_disabled":false,"rental_uris":{"android":"levelo://app?vid=171b62e2-ba7e-4159-8190-27c62681b21e","ios":"levelo://app?vid=171b62e2-ba7e-4159-8190-27c62681b21e"},"vehicle_type_id":"4","last_reported":1770900000,"current_range_meters":10000,"station_id":"ce4bhk92rcd13ifvqgb0","pricing_plan_id":"cebpf4jnsgd1na2vs0mg"},{"bike_id":"51572d82-5e22-4291-b0fa-25a56dd1cc59","system_id":"levelo_inurba_marseille","lat":43.26213,"lon":5.37444,"is_reserved":false,"is_disabled":false,"rental_uris":{"android":"levelo://app?vid=51572d82-5e22-4291-b0fa-25a56dd1cc59","ios":"levelo://app?vid=51572d82-5e22-4291-b0fa-25a56dd1cc59"},"vehicle_type_id":"4","last_reported":1770900000,"current_range_meters":10000,"station_id":"ce4bhgp2rcd13ifvqfc0","pricing_plan_id":"cebpf4jnsgd1na2vs0mg"},{"bike_id":"23edf86f-0d3b-4592-835d-eabf2ed9286d","system_id":"levelo_inurba_marseille","lat":43.30134,"lon":5.374212,"is_reserved":false,"is_disabled":false,"rental_uris":{"android":"levelo://app?vid=23edf86f-0d3b-4592-835d-eabf2ed9286d","ios":"levelo://app?vid=23edf86f-0d3b-4592-835d-eabf2ed9286d"},"vehicle_type_id":"4","last_reported":1770900000,"current_range_meters":10000,"station_id":"ce4bgs92rcd13ifvqcc0","pricing_plan_id":"cebpf4jnsgd1na2vs0mg"},{"bike_id":"2519d274-b788-4119-a4b6-9abb8bd81f78","system_id":"levelo_inurba_marseille","lat":43.28721,"lon":5.3999,"is_reserved":false,"is_disabled":false,"rental_uris":{"android":"levelo://app?vid=2519d274-b788-4119-a4b6-9abb8bd81f78","ios":"levelo://app?vid=2519d274-b788-4119-a4b6-9abb8bd81f78"},"vehicle_type_id":"4","last_reported":1770900000,"current_range_meters":10000,"station_id":"ce4bho92rcd13ifvqh3g","pricing_plan_id":"cebpf4jnsgd1na2vs0mg"},{"bike_id":"5e6b363c-3285-4065-aa55-8f6ad4524674","system_id":"levelo_inurba_marseille","lat":43.21194,"lon":5.350706,"is_reserved":false,"is_disabled":false,"rental_uris":{"android":"levelo://app?vid=5e6b363c-3285-4065-aa55-8f6ad4524674","ios":"levelo://app?vid=5e6b363c-3285-4065-aa55-8f6ad4524674"},"vehicle_type_id":"4","last_reported":1770900000,"current_range_meters":10000,"station_id":"st_cvj6sg6p6f1abm77japg","pricing_plan_id":"cebpf4jnsgd1na2vs0mg"},{"bike_id":"df373b99-2df4-45ca-b1f3-0caae337f4bd","system_id":"levelo_inurba_marseille","lat":43.24476,"lon":5.42531,"is_reserved":false,"is_disabled":false,"rental_uris":{"android":"levelo://app?vid=df373b99-2df4-45ca-b1f3-0caae337f4bd","ios":"levelo://app?vid=df373b99-2df4-45ca-b1f3-0caae337f4bd"},"vehicle_type_id":"4","last_reported":1770900000,"current_range_meters":10000,"station_id":"st_d4a3vfp97mjs738cd8kg","pricing_plan_id":"cebpf4jnsgd1na2vs0mg"},{"bike_id":"4c7ae58a-1681-4146-b5ee-d0af7898bf6f","system_id":"levelo_inurba_marseille","lat":43.27312,"lon":5.390823,"is_reserved":false,"is_disabled":false,"rental_uris":{"android":"levelo://app?vid=4c7ae58a-1681-4146-b5ee-d0af7898bf6f","ios":"levelo://app?vid=4c7ae58a-1681-4146-b5ee-d0af7898bf6f"},"vehicle_type_id":"4","last_reported":1770900000,"current_range_meters":10000,"station_id":"ce4bhgp2rcd13ifvqfe0","pricing_plan_id":"cebpf4jnsgd1na2vs0mg"},{"bike_id":"a24d593e-9a36-4e17-97a7-9273e11e7a77","system_id":"levelo_inurba_marseille","lat":43.30417,"lon":5.39769,"is_reserved":false,"is_disabled":false,"rental_uris":{"android":"levelo://app?vid=a24d593e-9a36-4e17-97a7-9273e11e7a77","ios":"levelo://app?vid=a24d593e-9a36-4e17-97a7-9273e11e7a77"},"vehicle_type_id":"4","last_reported":1770900000,"current_range_meters":10000,"station_id":"ce4bh092rcd13ifvqd20","pricing_plan_id":"cebpf4jnsgd1na2vs0mg"},{"bike_id":"ba7d5086-526f-401d-b86d-eb9414a58cb1","system_id":"levelo_inurba_marseille","lat":43.25932,"lon":5.40915,"is_reserved":false,"is_disabled":false,"rental_uris":{"android":"levelo://app?vid=ba7d5086-526f-401d-b86d-eb9414a58cb1","ios":"levelo://app?vid=ba7d5086-526f-401d-b86d-eb9414a58cb1"},"vehicle_type_id":"4","last_reported":1770900000,"current_range_meters":10000,"station_id":"ce4bhm92rcd13ifvqglg","pricing_plan_id":"cebpf4jnsgd1na2vs0mg"},{"bike_id":"c8146efe-1259-49ad-8200-aa0acd849ec8","system_id":"levelo_inurba_marseille","lat":43.29493,"lon":5.43318,"is_reserved":false,"is_disabled":true,"rental_uris":{"android":"levelo://app?vid=c8146efe-1259-49ad-8200-aa0acd849ec8","ios":"levelo://app?vid=c8146efe-1259-49ad-8200-aa0acd849ec8"},"vehicle_type_id":"4","last_reported":1770900000,"current_range_meters":10000,"station_id":"st_d3j5ugp08ojc73fj9d10","pricing_plan_id":"cebpf4jnsgd1na2vs0mg"},{"bike_id":"7ebaa038-f7e8-4cf9-aac2-b18fb424d74a","system_id":"levelo_inurba_marseille","lat":43.27639,"lon":5.39531,"is_reserved":false,"is_disabled":false,"rental_uris":{"android":"levelo://app?vid=7ebaa038-f7e8-4cf9-aac2-b18fb424d74a","ios":"levelo://app?vid=7ebaa038-f7e8-4cf9-aac2-b18fb424d74a"},"vehicle_type_id":"4","last_reported":1770900000,"current_range_meters":10000,"station_id":"","pricing_plan_id":"cebpf4jnsgd1na2vs0mg"},{"bike_id":"5effb89f-1d70-4615-a4b6-1dc3bfffaecb","system_id":"levelo_inurba_marseille","lat":43.29217,"lon":5.3605,"is_reserved":false,"is_disabled":false,"rental_uris":{"android":"levelo://app?vid=5effb89f-1d70-4615-a4b6-1dc3bfffaecb","ios":"levelo://app?vid=5effb89f-1d70-4615-a4b6-1dc3bfffaecb"},"vehicle_type_id":"4","last_reported":1770900000,"current_range_meters":10000,"station_id":"ce4bhbh2rcd13ifvqeqg","pricing_plan_id":"cebpf4jnsgd1na2vs0mg"},{"bike_id":"512e1de9-5f81-4738-92b9-944dc771ad6b","system_id":"levelo_inurba_marseille","lat":43.33532,"lon":5.37466,"is_reserved":false,"is_disabled":false,"rental_uris":{"android":"levelo://app?vid=512e1de9-5f81-4738-92b9-944dc771ad6b","ios":"levelo://app?vid=512e1de9-5f81-4738-92b9-944dc771ad6b"},"vehicle_type_id":"4","last_reported":1770900000,"current_range_meters":10800,"station_id":"st_d46tts09ee8s73dlu43g","pricing_plan_id":"cebpf4jnsgd1na2vs0mg"},{"bike_id":"cae3340b-dabf-42ee-b29f-fab64d3e6b2c","system_id":"levelo_inurba_marseille","lat":43.24083,"lon":5.37719,"is_reserved":false,"is_disabled":false,"rental_uris":{"android":"levelo://app?vid=cae3340b-dabf-42ee-b29f-fab64d3e6b2c","ios":"levelo://app?vid=cae3340b-dabf-42ee-b29f-fab64d3e6b2c"},"vehicle_type_id":"4","last_reported":1770900000,"current_range_meters":10800,"station_id":"ce4bhnp2rcd13ifvqgvg","pricing_plan_id":"cebpf4jnsgd1na2vs0mg"},{"bike_id":"089f988d-8ddf-43ed-85ac-d7b3775a509c","system_id":"levelo_inurba_marseille","lat":43.2417,"lon":5.39724,"is_reserved":false,"is_disabled":false,"rental_uris":{"android":"levelo://app?vid=089f988d-8ddf-43ed-85ac-d7b3775a509c","ios":"levelo://app?vid=089f988d-8ddf-43ed-85ac-d7b3775a509c"},"vehicle_type_id":"4","last_reported":1770900000,"current_range_meters":10800,"station_id":"ce4bhn12rcd13ifvqgpg","pricing_plan_id":"cebpf4jnsgd1na2vs0mg"},{"bike_id":"e29024b3-288c-4d8b-ba32-8553041a7294","system_id":"levelo_inurba_marseille","lat":43.25934,"lon":5.40863,"is_reserved":false,"is_disabled":false,"rental_uris":{"android":"levelo://app?vid=e29024b3-288c-4d8b-ba32-8553041a7294","ios":"levelo://app?vid=e29024b3-288c-4d8b-ba32-8553041a7294"},"vehicle_type_id":"4","last_reported":1770900000,"current_range_meters":10800,"station_id":"ce4bhm92rcd13ifvqglg","pricing_plan_id":"cebpf4jnsgd1na2vs0mg"},{"bike_id":"c17a21f9-cca5-4f41-8121-c291aa00ad89","system_id":"levelo_inurba_marseille","lat":43.30458,"lon":5.37909,"is_reserved":false,"is_disabled":false,"rental_uris":{"android":"levelo://app?vid=c17a21f9-cca5-4f41-8121-c291aa00ad89","ios":"levelo://app?vid=c17a21f9-cca5-4f41-8121-c291aa00ad89"},"vehicle_type_id":"4","last_reported":1770900000,"current_range_meters":10800,"station_id":"ce4bgup2rcd13ifvqcn0","pricing_plan_id":"cebpf4jnsgd1na2vs0mg"},{"bike_id":"8de9ee52-f5fb-42cf-b6a8-234286263ee8","system_id":"levelo_inurba_marseille","lat":43.30468,"lon":5.37911,"is_reserved":false,"is_disabled":false,"rental_uris":{"android":"levelo://app?vid=8de9ee52-f5fb-42cf-b6a8-234286263ee8","ios":"levelo://app?vid=8de9ee52-f5fb-42cf-b6a8-234286263ee8"},"vehicle_type_id":"4","last_reported":1770900000,"current_range_meters":10800,"station_id":"","pricing_plan_id":"cebpf4jnsgd1na2vs0mg"},{"bike_id":"f7bc3fda-a60d-4d2e-b557-356376f74e82","system_id":"levelo_inurba_marseille","lat":43.29192,"lon":5.39317,"is_reserved":false,"is_disabled":false,"rental_uris":{"android":"levelo://app?vid=f7bc3fda-a60d-4d2e-b557-356376f74e82","ios":"levelo://app?vid=f7bc3fda-a60d-4d2e-b557-356376f74e82"},"vehicle_type_id":"4","last_reported":1770900000,"current_range_meters":10800,"station_id":"ce4bh192rcd13ifvqdd0","pricing_plan_id":"cebpf4jnsgd1na2vs0mg"},{"bike_id":"a48f35fb-00c9-4d62-a56d-cc9d86bcfa41","system_id":"levelo_inurba_marseille","lat":43.31891,"lon":5.40711,"is_reserved":false,"is_disabled":false,"rental_uris":{"android":"levelo://app?vid=a48f35fb-00c9-4d62-a56d-cc9d86bcfa41","ios":"levelo://app?vid=a48f35fb-00c9-4d62-a56d-cc9d86bcfa41"},"vehicle_type_id":"4","last_reported":1770900000,"current_range_meters":10800,"station_id":"ce4bhq12rcd13ifvqhig","pricing_plan_id":"cebpf4jnsgd1na2vs0mg"},{"bike_id":"acc4afec-e80f-436d-a4cf-d6122baf0d20","system_id":"levelo_inurba_marseille","lat":43.27168,"lon":5.40988,"is_reserved":false,"is_disabled":false,"rental_uris":{"android":"levelo://app?vid=acc4afec-e80f-436d-a4cf-d6122baf0d20","ios":"levelo://app?vid=acc4afec-e80f-436d-a4cf-d6122baf0d20"},"vehicle_type_id":"4","last_reported":1770900000,"current_range_meters":10800,"station_id":"ce4bhl12rcd13ifvqgf0","pricing_plan_id":"cebpf4jnsgd1na2vs0mg"},{"bike_id":"4fabe8f2-3686-4595-b208-5b1849f1d59a","system_id":"levelo_inurba_marseille","lat":43.21741,"lon":5.34603,"is_reserved":false,"is_disabled":false,"rental_uris":{"android":"levelo://app?vid=4fabe8f2-3686-4595-b208-5b1849f1d59a","ios":"levelo://app?vid=4fabe8f2-3686-4595-b208-5b1849f1d59a"},"vehicle_type_id":"4","last_reported":1770900000,"current_range_meters":10800,"station_id":"st_cvj6r9ubvosntc0bgbag","pricing_plan_id":"cebpf4jnsgd1na2vs0mg"},{"bike_id":"998f7130-c295-4159-974f-c8a3e9bdef38","system_id":"levelo_inurba_marseille","lat":43.23146,"lon":5.43705,"is_reserved":false,"is_disabled":false,"rental_uris":{"android":"levelo://app?vid=998f7130-c295-4159-974f-c8a3e9bdef38","ios":"levelo://app?vid=998f7130-c295-4159-974f-c8a3e9bdef38"},"vehicle_type_id":"4","last_reported":1770900000,"current_range_meters":10800,"station_id":"ce4bhmp2rcd13ifvqgog","pricing_plan_id":"cebpf4jnsgd1na2vs0mg"},{"bike_id":"8b6c6055-11c8-47ef-a755-295c17d6052d","system_id":"levelo_inurba_marseille","lat":43.28154,"lon":5.42643,"is_reserved":false,"is_disabled":false,"rental_uris":{"android":"levelo://app?vid=8b6c6055-11c8-47ef-a755-295c17d6052d","ios":"levelo://app?vid=8b6c6055-11c8-47ef-a755-295c17d6052d"},"vehicle_type_id":"4","last_reported":1770900000,"current_range_meters":10800,"station_id":"ce4bhnh2rcd13ifvqgug","pricing_plan_id":"cebpf4jnsgd1na2vs0mg"},{"bike_id":"98470ad8-61ff-4503-ba30-a88c2a2dc541","system_id":"levelo_inurba_marseille","lat":43.27485,"lon":5.42435,"is_reserved":false,"is_disabled":true,"rental_uris":{"android":"levelo://app?vid=98470ad8-61ff-4503-ba30-a88c2a2dc541","ios":"levelo://app?vid=98470ad8-61ff-4503-ba30-a88c2a2dc541"},"vehicle_type_id":"4","last_reported":1770900000,"current_range_meters":10800,"station_id":"ce4bhn92rcd13ifvqgrg","pricing_plan_id":"cebpf4jnsgd1na2vs0mg"},{"bike_id":"8892eb4f-ec4d-4b84-b692-29750052e828","system_id":"levelo_inurba_marseille","lat":43.31711,"lon":5.43699,"is_reserved":false,"is_disabled":false,"rental_uris":{"android":"levelo://app?vid=8892eb4f-ec4d-4b84-b692-29750052e828","ios":"levelo://app?vid=8892eb4f-ec4d-4b84-b692-29750052e828"},"vehicle_type_id":"4","last_reported":1770900000,"current_range_meters":10800,"station_id":"ce4bhp92rcd13ifvqhcg","pricing_plan_id":"cebpf4jnsgd1na2vs0mg"},{"bike_id":"c6539a14-02de-4e7f-80df-ef6ad4a8a9d8","system_id":"levelo_inurba_marseille","lat":43.28943,"lon":5.39637,"is_reserved":false,"is_disabled":false,"rental_uris":{"android":"levelo://app?vid=c6539a14-02de-4e7f-80df-ef6ad4a8a9d8","ios":"levelo://app?vid=c6539a14-02de-4e7f-80df-ef6ad4a8a9d8"},"vehicle_type_id":"4","last_reported":1770900000,"current_range_meters":10800,"station_id":"ce4bh3h2rcd13ifvqdn0","pricing_plan_id":"cebpf4jnsgd1na2vs0mg"},{"bike_id":"0270cee7-d38d-40e7-8096-229f09bfe278","system_id":"levelo_inurba_marseille","lat":43.249968,"lon":5.389268,"is_reserved":false,"is_disabled":false,"rental_uris":{"android":"levelo://app?vid=0270cee7-d38d-40e7-8096-229f09bfe278","ios":"levelo://app?vid=0270cee7-d38d-40e7-8096-229f09bfe278"},"vehicle_type_id":"4","last_reported":1770900000,"current_range_meters":10800,"station_id":"ce4bhgp2rcd13ifvqfd0","pricing_plan_id":"cebpf4jnsgd1na2vs0mg"},{"bike_id":"eb0754de-3911-4a72-b99e-a9bb36776c2b","system_id":"levelo_inurba_marseille","lat":43.28947,"lon":5.36644,"is_reserved":false,"is_disabled":false,"rental_uris":{"android":"levelo://app?vid=eb0754de-3911-4a72-b99e-a9bb36776c2b","ios":"levelo://app?vid=eb0754de-3911-4a72-b99e-a9bb36776c2b"},"vehicle_type_id":"4","last_reported":1770900000,"current_range_meters":10800,"station_id":"ce4bhap2rcd13ifvqek0","pricing_plan_id":"cebpf4jnsgd1na2vs0mg"},{"bike_id":"fae6f9ad-1ce9-4c67-ad0b-a143fc20e682","system_id":"levelo_inurba_marseille","lat":43.24996,"lon":5.3893,"is_reserved":false,"is_disabled":false,"rental_uris":{"android":"levelo://app?vid=fae6f9ad-1ce9-4c67-ad0b-a143fc20e682","ios":"levelo://app?vid=fae6f9ad-1ce9-4c67-ad0b-a143fc20e682"},"vehicle_type_id":"4","last_reported":1770900000,"current_range_meters":10800,"station_id":"ce4bhgp2rcd13ifvqfd0","pricing_plan_id":"cebpf4jnsgd1na2vs0mg"},{"bike_id":"e09459b8-d419-4c3e-8702-91613a113a81","system_id":"levelo_inurba_marseille","lat":43.273401,"lon":5.390857,"is_reserved":false,"is_disabled":false,"rental_uris":{"android":"levelo://app?vid=e09459b8-d419-4c3e-8702-91613a113a81","ios":"levelo://app?vid=e09459b8-d419-4c3e-8702-91613a113a81"},"vehicle_type_id":"4","last_reported":1770900000,"current_range_meters":10800,"station_id":"ce4bhgp2rcd13ifvqfe0","pricing_plan_id":"cebpf4jnsgd1na2vs0mg"},{"bike_id":"7b0d4d51-03c0-4095-b779-7a9f189c6808","system_id":"levelo_inurba_marseille","lat":43.28328,"lon":5.3811,"is_reserved":false,"is_disabled":false,"rental_uris":{"android":"levelo://app?vid=7b0d4d51-03c0-4095-b779-7a9f189c6808","ios":"levelo://app?vid=7b0d4d51-03c0-4095-b779-7a9f189c6808"},"vehicle_type_id":"4","last_reported":1770900000,"current_range_meters":10800,"station_id":"ce4bh412rcd13ifvqdr0","pricing_plan_id":"cebpf4jnsgd1na2vs0mg"},{"bike_id":"083585e0-2ab2-45fd-b076-9ccee29ca430","system_id":"levelo_inurba_marseille","lat":43.23154,"lon":5.43706,"is_reserved":false,"is_disabled":false,"rental_uris":{"android":"levelo://app?vid=083585e0-2ab2-45fd-b076-9ccee29ca430","ios":"levelo://app?vid=083585e0-2ab2-45fd-b076-9ccee29ca430"},"vehicle_type_id":"4","last_reported":1770900000,"current_range_meters":10800,"station_id":"ce4bhmp2rcd13ifvqgog","pricing_plan_id":"cebpf4jnsgd1na2vs0mg"},{"bike_id":"13028dd4-e894-442e-bf4d-7d6a0f35c6cc","system_id":"levelo_inurba_marseille","lat":43.24084,"lon":5.37761,"is_reserved":false,"is_disabled":false,"rental_uris":{"android":"levelo://app?vid=13028dd4-e894-442e-bf4d-7d6a0f35c6cc","ios":"levelo://app?vid=13028dd4-e894-442e-bf4d-7d6a0f35c6cc"},"vehicle_type_id":"4","last_reported":1770900000,"current_range_meters":10800,"station_id":"ce4bhnp2rcd13ifvqgvg","pricing_plan_id":"cebpf4jnsgd1na2vs0mg"},{"bike_id":"bcad26e7-801b-45a3-9a6f-b11851106eac","system_id":"levelo_inurba_marseille","lat":43.285948,"lon":5.383506,"is_reserved":false,"is_disabled":false,"rental_uris":{"android":"levelo://app?vid=bcad26e7-801b-45a3-9a6f-b11851106eac","ios":"levelo://app?vid=bcad26e7-801b-45a3-9a6f-b11851106eac"},"vehicle_type_id":"4","last_reported":1770900000,"current_range_meters":11200,"station_id":"","pricing_plan_id":"cebpf4jnsgd1na2vs0mg"},{"bike_id":"9c4c1e7a-1b62-44f2-90e2-1ab3714cbf42","system_id":"levelo_inurba_marseille","lat":43.31057,"lon":5.3716,"is_reserved":false,"is_disabled":false,"rental_uris":{"android":"levelo://app?vid=9c4c1e7a-1b62-44f2-90e2-1ab3714cbf42","ios":"levelo://app?vid=9c4c1e7a-1b62-44f2-90e2-1ab3714cbf42"},"vehicle_type_id":"4","last_reported":1770900000,"current_range_meters":11200,"station_id":"st_d4kl2rp97mjs73e7tdfg","pricing_plan_id":"cebpf4jnsgd1na2vs0mg"},{"bike_id":"1553a87a-c070-44ad-8771-3bf3220a47ca","system_id":"levelo_inurba_marseille","lat":43.27059,"lon":5.38301,"is_reserved":false,"is_disabled":false,"rental_uris":{"android":"levelo://app?vid=1553a87a-c070-44ad-8771-3bf3220a47ca","ios":"levelo://app?vid=1553a87a-c070-44ad-8771-3bf3220a47ca"},"vehicle_type_id":"4","last_reported":1770900000,"current_range_meters":11200,"station_id":"st_d3n2fo6cfp8s73cte1j0","pricing_plan_id":"cebpf4jnsgd1na2vs0mg"},{"bike_id":"b39ba1aa-7b31-4368-898e-d2ae177a7edd","system_id":"levelo_inurba_marseille","lat":43.265505,"lon":5.373104,"is_reserved":false,"is_disabled":false,"rental_uris":{"android":"levelo://app?vid=b39ba1aa-7b31-4368-898e-d2ae177a7edd","ios":"levelo://app?vid=b39ba1aa-7b31-4368-898e-d2ae177a7edd"},"vehicle_type_id":"4","last_reported":1770900000,"current_range_meters":11200,"station_id":"ce4bhg12rcd13ifvqf70","pricing_plan_id":"cebpf4jnsgd1na2vs0mg"},{"bike_id":"24beb69c-3a8c-4d35-9631-070c88397c48","system_id":"levelo_inurba_marseille","lat":43.31374,"lon":5.36744,"is_reserved":false,"is_disabled":false,"rental_uris":{"android":"levelo://app?vid=24beb69c-3a8c-4d35-9631-070c88397c48","ios":"levelo://app?vid=24beb69c-3a8c-4d35-9631-070c88397c48"},"vehicle_type_id":"4","last_reported":1770900000,"current_range_meters":11200,"station_id":"ce4bgr92rcd13ifvqc6g","pricing_plan_id":"cebpf4jnsgd1na2vs0mg"},{"bike_id":"3e0818c0-4a68-4f37-b1c2-96b4a204dd0b","system_id":"levelo_inurba_marseille","lat":43.337224,"lon":5.374802,"is_reserved":false,"is_disabled":false,"rental_uris":{"android":"levelo://app?vid=3e0818c0-4a68-4f37-b1c2-96b4a204dd0b","ios":"levelo://app?vid=3e0818c0-4a68-4f37-b1c2-96b4a204dd0b"},"vehicle_type_id":"4","last_reported":1770900000,"current_range_meters":11200,"station_id":"","pricing_plan_id":"cebpf4jnsgd1na2vs0mg"},{"bike_id":"8e0642e5-765d-419c-9ff5-751012c40134","system_id":"levelo_inurba_marseille","lat":43.31541,"lon":5.38037,"is_reserved":false,"is_disabled":true,"rental_uris":{"android":"levelo://app?vid=8e0642e5-765d-419c-9ff5-751012c40134","ios":"levelo://app?vid=8e0642e5-765d-419c-9ff5-751012c40134"},"vehicle_type_id":"4","last_reported":1770900000,"current_range_meters":11200,"station_id":"ce4bhsp2rcd13ifvqi50","pricing_plan_id":"cebpf4jnsgd1na2vs0mg"},{"bike_id":"8c60d5ae-062c-413c-b8b5-655786fb316a","system_id":"levelo_inurba_marseille","lat":43.262052,"lon":5.379264,"is_reserved":false,"is_disabled":false,"rental_uris":{"android":"levelo://app?vid=8c60d5ae-062c-413c-b8b5-655786fb316a","ios":"levelo://app?vid=8c60d5ae-062c-413c-b8b5-655786fb316a"},"vehicle_type_id":"4","last_reported":1770900000,"current_range_meters":11200,"station_id":"ce4bhjp2rcd13ifvqg90","pricing_plan_id":"cebpf4jnsgd1na2vs0mg"},{"bike_id":"9afabc1d-f0bb-43c7-a75b-f8a6a152d78b","system_id":"levelo_inurba_marseille","lat":43.31118,"lon":5.37773,"is_reserved":false,"is_disabled":false,"rental_uris":{"android":"levelo://app?vid=9afabc1d-f0bb-43c7-a75b-f8a6a152d78b","ios":"levelo://app?vid=9afabc1d-f0bb-43c7-a75b-f8a6a152d78b"},"vehicle_type_id":"4","last_reported":1770900000,"current_range_meters":11200,"station_id":"ce4bgt92rcd13ifvqcg0","pricing_plan_id":"cebpf4jnsgd1na2vs0mg"},{"bike_id":"594767bf-f09f-47c6-a1bb-59088b1204ac","system_id":"levelo_inurba_marseille","lat":43.29708,"lon":5.37691,"is_reserved":false,"is_disabled":false,"rental_uris":{"android":"levelo://app?vid=594767bf-f09f-47c6-a1bb-59088b1204ac","ios":"levelo://app?vid=594767bf-f09f-47c6-a1bb-59088b1204ac"},"vehicle_type_id":"4","last_reported":1770900000,"current_range_meters":11200,"station_id":"ce4bgkh2rcd13ifvqbl0","pricing_plan_id":"cebpf4jnsgd1na2vs0mg"},{"bike_id":"481af2c1-cc29-4b4a-8874-d8a4ab66d08d","system_id":"levelo_inurba_marseille","lat":43.31845,"lon":5.3842,"is_reserved":false,"is_disabled":false,"rental_uris":{"android":"levelo://app?vid=481af2c1-cc29-4b4a-8874-d8a4ab66d08d","ios":"levelo://app?vid=481af2c1-cc29-4b4a-8874-d8a4ab66d08d"},"vehicle_type_id":"4","last_reported":1770900000,"current_range_meters":11200,"station_id":"","pricing_plan_id":"cebpf4jnsgd1na2vs0mg"},