{"last_updated":1748124528,"ttl":60,"version":"2.2","data":{"bikes":[{"bike_id":"252f4586-ce93-480f-8a37-4ced8e152bc6","system_id":"levelo_inurba_marseille","lat":43.26816,"lon":5.39431,"is_reserved":false,"is_disabled":false,"rental_uris":{"android":"levelo://app?vid=252f4586-ce93-480f-8a37-4ced8e152bc6","ios":"levelo://app?vid=252f4586-ce93-480f-8a37-4ced8e152bc6"},"vehicle_type_id":"4","last_reported":1748124528,"current_range_meters":2800,"station_id":"ce4bhh12rcd13ifvqfg0","pricing_plan_id":"cebpf4jnsgd1na2vs0mg"},{"bike_id":"e4b8da17-840b-4ce7-bd95-fe86b8710f78","system_id":"levelo_inurba_marseille","lat":43.29002,"lon":5.35619,"is_reserved":false,"is_disabled":true,"rental_uris":{"android":"levelo://app?vid=e4b8da17-840b-4ce7-bd95-fe86b8710f78","ios":"levelo://app?vid=e4b8da17-840b-4ce7-bd95-fe86b8710f78"},"vehicle_type_id":"4","last_reported":1748124528,"current_range_meters":2800,"station_id":"ce4bhb92rcd13ifvqen0","pricing_plan_id":"cebpf4jnsgd1na2vs0mg"},{"bike_id":"1ab4ae3a-f0b1-4a55-ad63-f381ac10b000","system_id":"levelo_inurba_marseille","lat":43.281056,"lon":5.378294,"is_reserved":false,"is_disabled":false,"rental_uris":{"android":"levelo://app?vid=1ab4ae3a-f0b1-4a55-ad63-f381ac10b000","ios":"levelo://app?vid=1ab4ae3a-f0b1-4a55-ad63-f381ac10b000"},"vehicle_type_id":"4","last_reported":1748124528,"current_range_meters":2800,"station_id":"ce4bha12rcd13ifvqee0","pricing_plan_id":"cebpf4jnsgd1na2vs0mg"},{"bike_id":"212db394-f9ff-4cc1-8bce-f6b725de7311","system_id":"levelo_inurba_marseille","lat":43.29799,"lon":5.38096,"is_reserved":false,"is_disabled":false,"rental_uris":{"android":"levelo://app?vid=212db394-f9ff-4cc1-8bce-f6b725de7311","ios":"levelo://app?vid=212db394-f9ff-4cc1-8bce-f6b725de7311"},"vehicle_type_id":"4","last_reported":1748124528,"current_range_meters":2800,"station_id":"","pricing_plan_id":"cebpf4jnsgd1na2vs0mg"},{"bike_id":"a3a72384-8645-4f46-baed-0f69b2bcb4b6","system_id":"levelo_inurba_marseille","lat":43.29274,"lon":5.40113,"is_reserved":false,"is_disabled":false,"rental_uris":{"android":"levelo://app?vid=a3a72384-8645-4f46-baed-0f69b2bcb4b6","ios":"levelo://app?vid=a3a72384-8645-4f46-baed-0f69b2bcb4b6"},"vehicle_type_id":"4","last_reported":1748124528,"current_range_meters":3200,"station_id":"ce4bh312rcd13ifvqdk0","pricing_plan_id":"cebpf4jnsgd1na2vs0mg"},{"bike_id":"a7204085-717a-4f20-82b6-93b30e48d1fc","system_id":"levelo_inurba_marseille","lat":43.30883,"lon":5.3965,"is_reserved":false,"is_disabled":false,"rental_uris":{"android":"levelo://app?vid=a7204085-717a-4f20-82b6-93b30e48d1fc","ios":"levelo://app?vid=a7204085-717a-4f20-82b6-93b30e48d1fc"},"vehicle_type_id":"4","last_reported":1748124528,"current_range_meters":3200,"station_id":"ce4bh012rcd13ifvqcv0","pricing_plan_id":"cebpf4jnsgd1na2vs0mg"},{"bike_id":"4f599a81-267a-4ad9-a831-9a79f3109a65","system_id":"levelo_inurba_marseille","lat":43.27821,"lon":5.40708,"is_reserved":false,"is_disabled":false,"rental_uris":{"android":"levelo://app?vid=4f599a81-267a-4ad9-a831-9a79f3109a65","ios":"levelo://app?vid=4f599a81-267a-4ad9-a831-9a79f3109a65"},"vehicle_type_id":"4","last_reported":1748124528,"current_range_meters":3200,"station_id":"ce4bhnh2rcd13ifvqgtg","pricing_plan_id":"cebpf4jnsgd1na2vs0mg"},{"bike_id":"a1933a36-f77f-4668-a08c-639a9bd1a1e8","system_id":"levelo_inurba_marseille","lat":43.23186,"lon":5.39979,"is_reserved":false,"is_disabled":true,"rental_uris":{"android":"levelo://app?vid=a1933a36-f77f-4668-a08c-639a9bd1a1e8","ios":"levelo://app?vid=a1933a36-f77f-4668-a08c-639a9bd1a1e8"},"vehicle_type_id":"4","last_reported":1748124528,"current_range_meters":3200,"station_id":"ce4bhn12rcd13ifvqgqg","pricing_plan_id":"cebpf4jnsgd1na2vs0mg"},{"bike_id":"43eca00c-2681-4e4e-b530-3d447b1afe69","system_id":"levelo_inurba_marseille","lat":43.25493,"lon":5.37645,"is_reserved":false,"is_disabled":false,"rental_uris":{"android":"levelo://app?vid=43eca00c-2681-4e4e-b530-3d447b1afe69","ios":"levelo://app?vid=43eca00c-2681-4e4e-b530-3d447b1afe69"},"vehicle_type_id":"4","last_reported":1748124528,"current_range_meters":3200,"station_id":"ce4bhh12rcd13ifvqff0","pricing_plan_id":"cebpf4jnsgd1na2vs0mg"},{"bike_id":"a7338aee-f687-492f-8fc1-4db327c0e6eb","system_id":"levelo_inurba_marseille","lat":43.29428,"lon":5.38629,"is_reserved":false,"is_disabled":false,"rental_uris":{"android":"levelo://app?vid=a7338aee-f687-492f-8fc1-4db327c0e6eb","ios":"levelo://app?vid=a7338aee-f687-492f-8fc1-4db327c0e6eb"},"vehicle_type_id":"4","last_reported":1748124528,"current_range_meters":3600,"station_id":"ce4bh2h2rcd13ifvqdh0","pricing_plan_id":"cebpf4jnsgd1na2vs0mg"},{"bike_id":"d85c177f-4e83-49e4-8876-dcc28e03c14d","system_id":"levelo_inurba_marseille","lat":43.25936,"lon":5.40911,"is_reserved":false,"is_disabled":false,"rental_uris":{"android":"levelo://app?vid=d85c177f-4e83-49e4-8876-dcc28e03c14d","ios":"levelo://app?vid=d85c177f-4e83-49e4-8876-dcc28e03c14d"},"vehicle_type_id":"4","last_reported":1748124528,"current_range_meters":3600,"station_id":"ce4bhm92rcd13ifvqglg","pricing_plan_id":"cebpf4jnsgd1na2vs0mg"},{"bike_id":"f1c6d019-724a-4d8c-8800-518f39091386","system_id":"levelo_inurba_marseille","lat":43.26878,"lon":5.393727,"is_reserved":false,"is_disabled":false,"rental_uris":{"android":"levelo://app?vid=f1c6d019-724a-4d8c-8800-518f39091386","ios":"levelo://app?vid=f1c6d019-724a-4d8c-8800-518f39091386"},"vehicle_type_id":"4","last_reported":1748124528,"current_range_meters":3600,"station_id":"","pricing_plan_id":"cebpf4jnsgd1na2vs0mg"},{"bike_id":"164e60a4-05bc-4649-85d4-95b45cbfeab2","system_id":"levelo_inurba_marseille","lat":43.25735,"lon":5.4112,"is_reserved":false,"is_disabled":false,"rental_uris":{"android":"levelo://app?vid=164e60a4-05bc-4649-85d4-95b45cbfeab2","ios":"levelo://app?vid=164e60a4-05bc-4649-85d4-95b45cbfeab2"},"vehicle_type_id":"4","last_reported":1748124528,"current_range_meters":3600,"station_id":"ce4bhkp2rcd13ifvqgd0","pricing_plan_id":"cebpf4jnsgd1na2vs0mg"},{"bike_id":"664f2b2c-4651-4d39-8a4f-7e9486bd1102","system_id":"levelo_inurba_marseille","lat":43.30428,"lon":5.38885,"is_reserved":false,"is_disabled":false,"rental_uris":{"android":"levelo://app?vid=664f2b2c-4651-4d39-8a4f-7e9486bd1102","ios":"levelo://app?vid=664f2b2c-4651-4d39-8a4f-7e9486bd1102"},"vehicle_type_id":"4","last_reported":1748124528,"current_range_meters":3600,"station_id":"ce4bgk12rcd13ifvqbi0","pricing_plan_id":"cebpf4jnsgd1na2vs0mg"},{"bike_id":"a334cc50-5304-4d82-b903-38e9d9b34082","system_id":"levelo_inurba_marseille","lat":43.24074,"lon":5.37761,"is_reserved":false,"is_disabled":false,"rental_uris":{"android":"levelo://app?vid=a334cc50-5304-4d82-b903-38e9d9b34082","ios":"levelo://app?vid=a334cc50-5304-4d82-b903-38e9d9b34082"},"vehicle_type_id":"4","last_reported":1748124528,"current_range_meters":3600,"station_id":"ce4bhnp2rcd13ifvqgvg","pricing_plan_id":"cebpf4jnsgd1na2vs0mg"},{"bike_id":"221b41ad-2320-4add-abb4-750bb95c61fe","system_id":"levelo_inurba_marseille","lat":43.274951,"lon":5.424566,"is_reserved":false,"is_disabled":false,"rental_uris":{"android":"levelo://app?vid=221b41ad-2320-4add-abb4-750bb95c61fe","ios":"levelo://app?vid=221b41ad-2320-4add-abb4-750bb95c61fe"},"vehicle_type_id":"4","last_reported":1748124528,"current_range_meters":4000,"station_id":"ce4bhn92rcd13ifvqgrg","pricing_plan_id":"cebpf4jnsgd1na2vs0mg"},{"bike_id":"9841c8a5-9ec7-4666-bce8-86d7c271b5f8","system_id":"levelo_inurba_marseille","lat":43.296143,"lon":5.37733,"is_reserved":false,"is_disabled":false,"rental_uris":{"android":"levelo://app?vid=9841c8a5-9ec7-4666-bce8-86d7c271b5f8","ios":"levelo://app?vid=9841c8a5-9ec7-4666-bce8-86d7c271b5f8"},"vehicle_type_id":"4","last_reported":1748124528,"current_range_meters":4000,"station_id":"ce4bgi92rcd13ifvqb90","pricing_plan_id":"cebpf4jnsgd1na2vs0mg"},{"bike_id":"cd324d32-7128-4fee-a7cf-0995b03e898a","system_id":"levelo_inurba_marseille","lat":43.30434,"lon":5.38891,"is_reserved":false,"is_disabled":false,"rental_uris":{"android":"levelo://app?vid=cd324d32-7128-4fee-a7cf-0995b03e898a","ios":"levelo://app?vid=cd324d32-7128-4fee-a7cf-0995b03e898a"},"vehicle_type_id":"4","last_reported":1748124528,"current_range_meters":4000,"station_id":"ce4bgk12rcd13ifvqbi0","pricing_plan_id":"cebpf4jnsgd1na2vs0mg"},{"bike_id":"194666df-d60f-4dbf-918c-87098827f0fb","system_id":"levelo_inurba_marseille","lat":43.29403,"lon":5.37919,"is_reserved":false,"is_disabled":true,"rental_uris":{"android":"levelo://app?vid=194666df-d60f-4dbf-918c-87098827f0fb","ios":"levelo://app?vid=194666df-d60f-4dbf-918c-87098827f0fb"},"vehicle_type_id":"4","last_reported":1748124528,"current_range_meters":4000,"station_id":"","pricing_plan_id":"cebpf4jnsgd1na2vs0mg"},{"bike_id":"11fa9e88-eb14-4513-bec9-03f3a1b2637d","system_id":"levelo_inurba_marseille","lat":43.23169,"lon":5.35581,"is_reserved":false,"is_disabled":false,"rental_uris":{"android":"levelo://app?vid=11fa9e88-eb14-4513-bec9-03f3a1b2637d","ios":"levelo://app?vid=11fa9e88-eb14-4513-bec9-03f3a1b2637d"},"vehicle_type_id":"4","last_reported":1748124528,"current_range_meters":4000,"station_id":"ce4bhu92rcd13ifvqi70","pricing_plan_id":"cebpf4jnsgd1na2vs0mg"},{"bike_id":"2c4a4036-284c-4ca2-8f6b-2892c6fa5f93","system_id":"levelo_inurba_marseille","lat":43.27809,"lon":5.40714,"is_reserved":false,"is_disabled":false,"rental_uris":{"android":"levelo://app?vid=2c4a4036-284c-4ca2-8f6b-2892c6fa5f93","ios":"levelo://app?vid=2c4a4036-284c-4ca2-8f6b-2892c6fa5f93"},"vehicle_type_id":"4","last_reported":1748124528,"current_range_meters":4000,"station_id":"ce4bhnh2rcd13ifvqgtg","pricing_plan_id":"cebpf4jnsgd1na2vs0mg"},{"bike_id":"82dfcc7c-f385-419c-896b-d78c2000f617","system_id":"levelo_inurba_marseille","lat":43.30438,"lon":5.38886,"is_reserved":false,"is_disabled":false,"rental_uris":{"android":"levelo://app?vid=82dfcc7c-f385-419c-896b-d78c2000f617","ios":"levelo://app?vid=82dfcc7c-f385-419c-896b-d78c2000f617"},"vehicle_type_id":"4","last_reported":1748124528,"current_range_meters":4000,"station_id":"ce4bgk12rcd13ifvqbi0","pricing_plan_id":"cebpf4jnsgd1na2vs0mg"},{"bike_id":"c6132309-f2cf-4b52-8410-cc627a8f2b93","system_id":"levelo_inurba_marseille","lat":43.27303,"lon":5.39065,"is_reserved":false,"is_disabled":false,"rental_uris":{"android":"levelo://app?vid=c6132309-f2cf-4b52-8410-cc627a8f2b93","ios":"levelo://app?vid=c6132309-f2cf-4b52-8410-cc627a8f2b93"},"vehicle_type_id":"4","last_reported":1748124528,"current_range_meters":4000,"station_id":"ce4bhgp2rcd13ifvqfe0","pricing_plan_id":"cebpf4jnsgd1na2vs0mg"},{"bike_id":"40f313a9-1fb7-4fd0-bd9a-6e4fef2ee025","system_id":"levelo_inurba_marseille","lat":43.2511,"lon":5.40318,"is_reserved":false,"is_disabled":false,"rental_uris":{"android":"levelo://app?vid=40f313a9-1fb7-4fd0-bd9a-6e4fef2ee025","ios":"levelo://app?vid=40f313a9-1fb7-4fd0-bd9a-6e4fef2ee025"},"vehicle_type_id":"4","last_reported":1748124528,"current_range_meters":4400,"station_id":"ce4bhlh2rcd13ifvqgig","pricing_plan_id":"cebpf4jnsgd1na2vs0mg"},{"bike_id":"c24837d6-c603-4211-bfa4-312941ca0367","system_id":"levelo_inurba_marseille","lat":43.30317,"lon":5.36888,"is_reserved":false,"is_disabled":false,"rental_uris":{"android":"levelo://app?vid=c24837d6-c603-4211-bfa4-312941ca0367","ios":"levelo://app?vid=c24837d6-c603-4211-bfa4-312941ca0367"},"vehicle_type_id":"4","last_reported":1748124528,"current_range_meters":4400,"station_id":"ce4bgqh2rcd13ifvqc5g","pricing_plan_id":"cebpf4jnsgd1na2vs0mg"},{"bike_id":"a2f1296c-e4fc-45d6-be73-b896b487012e","system_id":"levelo_inurba_marseille","lat":43.286086,"lon":5.350996,"is_reserved":false,"is_disabled":true,"rental_uris":{"android":"levelo://app?vid=a2f1296c-e4fc-45d6-be73-b896b487012e","ios":"levelo://app?vid=a2f1296c-e4fc-45d6-be73-b896b487012e"},"vehicle_type_id":"4","last_reported":1748124528,"current_range_meters":4400,"station_id":"ce4bhch2rcd13ifvqeug","pricing_plan_id":"cebpf4jnsgd1na2vs0mg"},{"bike_id":"9a5dd4a7-ca2b-4f8a-a804-aaa045bc3b52","system_id":"levelo_inurba_marseille","lat":43.29869,"lon":5.39736,"is_reserved":false,"is_disabled":false,"rental_uris":{"android":"levelo://app?vid=9a5dd4a7-ca2b-4f8a-a804-aaa045bc3b52","ios":"levelo://app?vid=9a5dd4a7-ca2b-4f8a-a804-aaa045bc3b52"},"vehicle_type_id":"4","last_reported":1748124528,"current_range_meters":4400,"station_id":"ce4bh0h2rcd13ifvqd50","pricing_plan_id":"cebpf4jnsgd1na2vs0mg"},{"bike_id":"5f7233c2-0416-4be5-a1b6-ef8cf8d9fd24","system_id":"levelo_inurba_marseille","lat":43.30261,"lon":5.40074,"is_reserved":false,"is_disabled":false,"rental_uris":{"android":"levelo://app?vid=5f7233c2-0416-4be5-a1b6-ef8cf8d9fd24","ios":"levelo://app?vid=5f7233c2-0416-4be5-a1b6-ef8cf8d9fd24"},"vehicle_type_id":"4","last_reported":1748124528,"current_range_meters":4400,"station_id":"ce4bgvh2rcd13ifvqcs0","pricing_plan_id":"cebpf4jnsgd1na2vs0mg"},{"bike_id":"4c964f5d-e069-4f21-b01b-d956923b5719","system_id":"levelo_inurba_marseille","lat":43.23184,"lon":5.39981,"is_reserved":false,"is_disabled":false,"rental_uris":{"android":"levelo://app?vid=4c964f5d-e069-4f21-b01b-d956923b5719","ios":"levelo://app?vid=4c964f5d-e069-4f21-b01b-d956923b5719"},"vehicle_type_id":"4","last_reported":1748124528,"current_range_meters":4400,"station_id":"ce4bhn12rcd13ifvqgqg","pricing_plan_id":"cebpf4jnsgd1na2vs0mg"},{"bike_id":"dfc12ae8-1c26-45e1-8fd5-25609a6f4238","system_id":"levelo_inurba_marseille","lat":43.27069,"lon":5.42269,"is_reserved":false,"is_disabled":false,"rental_uris":{"android":"levelo://app?vid=dfc12ae8-1c26-45e1-8fd5-25609a6f4238","ios":"levelo://app?vid=dfc12ae8-1c26-45e1-8fd5-25609a6f4238"},"vehicle_type_id":"4","last_reported":1748124528,"current_range_meters":4400,"station_id":"ce4bhk92rcd13ifvqgb0","pricing_plan_id":"cebpf4jnsgd1na2vs0mg"},{"bike_id":"7097370e-7a0d-4e71-be27-a879020555f9","system_id":"levelo_inurba_marseille","lat":43.28036,"lon":5.3973,"is_reserved":false,"is_disabled":false,"rental_uris":{"android":"levelo://app?vid=7097370e-7a0d-4e71-be27-a879020555f9","ios":"levelo://app?vid=7097370e-7a0d-4e71-be27-a879020555f9"},"vehicle_type_id":"4","last_reported":1748124528,"current_range_meters":4800,"station_id":"","pricing_plan_id":"cebpf4jnsgd1na2vs0mg"},{"bike_id":"474a8b9c-b217-436e-9a02-8c97099de3aa","system_id":"levelo_inurba_marseille","lat":43.29783,"lon":5.38103,"is_reserved":false,"is_disabled":false,"rental_uris":{"android":"levelo://app?vid=474a8b9c-b217-436e-9a02-8c97099de3aa","ios":"levelo://app?vid=474a8b9c-b217-436e-9a02-8c97099de3aa"},"vehicle_type_id":"4","last_reported":1748124528,"current_range_meters":4800,"station_id":"ce4bgip2rcd13ifvqbb0","pricing_plan_id":"cebpf4jnsgd1na2vs0mg"},{"bike_id":"398ac2c0-7185-42b7-b995-ea97c3f0a79d","system_id":"levelo_inurba_marseille","lat":43.232029,"lon":5.355362,"is_reserved":false,"is_disabled":false,"rental_uris":{"android":"levelo://app?vid=398ac2c0-7185-42b7-b995-ea97c3f0a79d","ios":"levelo://app?vid=398ac2c0-7185-42b7-b995-ea97c3f0a79d"},"vehicle_type_id":"4","last_reported":1748124528,"current_range_meters":4800,"station_id":"ce4bhu92rcd13ifvqi70","pricing_plan_id":"cebpf4jnsgd1na2vs0mg"},{"bike_id":"1b6833f8-3dde-4e3f-9ade-44fc116840f9","system_id":"levelo_inurba_marseille","lat":43.26808,"lon":5.4025,"is_reserved":false,"is_disabled":false,"rental_uris":{"android":"levelo://app?vid=1b6833f8-3dde-4e3f-9ade-44fc116840f9","ios":"levelo://app?vid=1b6833f8-3dde-4e3f-9ade-44fc116840f9"},"vehicle_type_id":"4","last_reported":1748124528,"current_range_meters":4800,"station_id":"ce501612rcd8frsf0b60","pricing_plan_id":"cebpf4jnsgd1na2vs0mg"},{"bike_id":"52ac89d9-7fc2-4a27-8e05-dc0c379af2b0","system_id":"levelo_inurba_marseille","lat":43.2319,"lon":5.35552,"is_reserved":false,"is_disabled":false,"rental_uris":{"android":"levelo://app?vid=52ac89d9-7fc2-4a27-8e05-dc0c379af2b0","ios":"levelo://app?vid=52ac89d9-7fc2-4a27-8e05-dc0c379af2b0"},"vehicle_type_id":"4","last_reported":1748124528,"current_range_meters":5600,"station_id":"ce4bhu92rcd13ifvqi70","pricing_plan_id":"cebpf4jnsgd1na2vs0mg"},{"bike_id":"266f63d3-91cc-45e6-bcde-2a6b3263f52e","system_id":"levelo_inurba_marseille","lat":43.25112,"lon":5.40323,"is_reserved":false,"is_disabled":false,"rental_uris":{"android":"levelo://app?vid=266f63d3-91cc-45e6-bcde-2a6b3263f52e","ios":"levelo://app?vid=266f63d3-91cc-45e6-bcde-2a6b3263f52e"},"vehicle_type_id":"4","last_reported":1748124528,"current_range_meters":5600,"station_id":"ce4bhlh2rcd13ifvqgig","pricing_plan_id":"cebpf4jnsgd1na2vs0mg"},{"bike_id":"dd36ba3f-05a9-405b-901d-932a622250dc","system_id":"levelo_inurba_marseille","lat":43.27811,"lon":5.40711,"is_reserved":false,"is_disabled":false,"rental_uris":{"android":"levelo://app?vid=dd36ba3f-05a9-405b-901d-932a622250dc","ios":"levelo://app?vid=dd36ba3f-05a9-405b-901d-932a622250dc"},"vehicle_type_id":"4","last_reported":1748124528,"current_range_meters":5600,"station_id":"ce4bhnh2rcd13ifvqgtg","pricing_plan_id":"cebpf4jnsgd1na2vs0mg"},{"bike_id":"6e40d5dc-b2b6-481b-80e5-6a12d35990fd","system_id":"levelo_inurba_marseille","lat":43.28412,"lon":5.37516,"is_reserved":false,"is_disabled":false,"rental_uris":{"android":"levelo://app?vid=6e40d5dc-b2b6-481b-80e5-6a12d35990fd","ios":"levelo://app?vid=6e40d5dc-b2b6-481b-80e5-6a12d35990fd"},"vehicle_type_id":"4","last_reported":1748124528,"current_range_meters":5600,"station_id":"ce4bh412rcd13ifvqds0","pricing_plan_id":"cebpf4jnsgd1na2vs0mg"},{"bike_id":"3a2244df-611f-4b6d-a778-36b52e274311","system_id":"levelo_inurba_marseille","lat":43.24661,"lon":5.38139,"is_reserved":false,"is_disabled":false,"rental_uris":{"android":"levelo://app?vid=3a2244df-611f-4b6d-a778-36b52e274311","ios":"levelo://app?vid=3a2244df-611f-4b6d-a778-36b52e274311"},"vehicle_type_id":"4","last_reported":1748124528,"current_range_meters":5600,"station_id":"ce4bhih2rcd13ifvqfr0","pricing_plan_id":"cebpf4jnsgd1na2vs0mg"},{"bike_id":"3b107ecb-e2f8-4de5-a931-f643a93f6fc4","system_id":"levelo_inurba_marseille","lat":43.29915,"lon":5.3749,"is_reserved":false,"is_disabled":false,"rental_uris":{"android":"levelo://app?vid=3b107ecb-e2f8-4de5-a931-f643a93f6fc4","ios":"levelo://app?vid=3b107ecb-e2f8-4de5-a931-f643a93f6fc4"},"vehicle_type_id":"4","last_reported":1748124528,"current_range_meters":6000,"station_id":"ce4bgjh2rcd13ifvqbg0","pricing_plan_id":"cebpf4jnsgd1na2vs0mg"},{"bike_id":"3b997ac5-fbf2-4785-aa51-1d1ca51a126f","system_id":"levelo_inurba_marseille","lat":43.292995,"lon":5.374487,"is_reserved":false,"is_disabled":true,"rental_uris":{"android":"levelo://app?vid=3b997ac5-fbf2-4785-aa51-1d1ca51a126f","ios":"levelo://app?vid=3b997ac5-fbf2-4785-aa51-1d1ca51a126f"},"vehicle_type_id":"4","last_reported":1748124528,"current_range_meters":6000,"station_id":"ce4bgi12rcd13ifvqb70","pricing_plan_id":"cebpf4jnsgd1na2vs0mg"},{"bike_id":"41309c02-19a1-452f-b394-fb250939587d","system_id":"levelo_inurba_marseille","lat":43.29708,"lon":5.36595,"is_reserved":false,"is_disabled":false,"rental_uris":{"android":"levelo://app?vid=41309c02-19a1-452f-b394-fb250939587d","ios":"levelo://app?vid=41309c02-19a1-452f-b394-fb250939587d"},"vehicle_type_id":"4","last_reported":1748124528,"current_range_meters":6000,"station_id":"ce4bgn12rcd13ifvqbt0","pricing_plan_id":"cebpf4jnsgd1na2vs0mg"},{"bike_id":"ad03f36d-8c31-469e-bd64-da4d56cf0507","system_id":"levelo_inurba_marseille","lat":43.26784,"lon":5.39423,"is_reserved":false,"is_disabled":false,"rental_uris":{"android":"levelo://app?vid=ad03f36d-8c31-469e-bd64-da4d56cf0507","ios":"levelo://app?vid=ad03f36d-8c31-469e-bd64-da4d56cf0507"},"vehicle_type_id":"4","last_reported":1748124528,"current_range_meters":6000,"station_id":"ce4bhh12rcd13ifvqfg0","pricing_plan_id":"cebpf4jnsgd1na2vs0mg"},{"bike_id":"8e57d20b-c38b-459f-8f5e-0fe106cc372c","system_id":"levelo_inurba_marseille","lat":43.25315,"lon":5.39367,"is_reserved":false,"is_disabled":false,"rental_uris":{"android":"levelo://app?vid=8e57d20b-c38b-459f-8f5e-0fe106cc372c","ios":"levelo://app?vid=8e57d20b-c38b-459f-8f5e-0fe106cc372c"},"vehicle_type_id":"4","last_reported":1748124528,"current_range_meters":6000,"station_id":"","pricing_plan_id":"cebpf4jnsgd1na2vs0mg"},{"bike_id":"ddfcf022-3029-46b6-8623-689258e4728a","system_id":"levelo_inurba_marseille","lat":43.25491,"lon":5.37646,"is_reserved":false,"is_disabled":false,"rental_uris":{"android":"levelo://app?vid=ddfcf022-3029-46b6-8623-689258e4728a","ios":"levelo://app?vid=ddfcf022-3029-46b6-8623-689258e4728a"},"vehicle_type_id":"4","last_reported":1748124528,"current_range_meters":6000,"station_id":"ce4bhh12rcd13ifvqff0","pricing_plan_id":"cebpf4jnsgd1na2vs0mg"},{"bike_id":"cb4ccedc-c2c6-49f4-9516-ec66ab327922","system_id":"levelo_inurba_marseille","lat":43.30954,"lon":5.39033,"is_reserved":false,"is_disabled":false,"rental_uris":{"android":"levelo://app?vid=cb4ccedc-c2c6-49f4-9516-ec66ab327922","ios":"levelo://app?vid=cb4ccedc-c2c6-49f4-9516-ec66ab327922"},"vehicle_type_id":"4","last_reported":1748124528,"current_range_meters":6000,"station_id":"ce4bgup2rcd13ifvqco0","pricing_plan_id":"cebpf4jnsgd1na2vs0mg"},{"bike_id":"8d128434-64c3-4e1b-ba9f-017db562134f","system_id":"levelo_inurba_marseille","lat":43.26789,"lon":5.39407,"is_reserved":false,"is_disabled":false,"rental_uris":{"android":"levelo://app?vid=8d128434-64c3-4e1b-ba9f-017db562134f","ios":"levelo://app?vid=8d128434-64c3-4e1b-ba9f-017db562134f"},"vehicle_type_id":"4","last_reported":1748124528,"current_range_meters":6000,"station_id":"ce4bhh12rcd13ifvqfg0","pricing_plan_id":"cebpf4jnsgd1na2vs0mg"},{"bike_id":"fceda18a-36ac-4318-84eb-5c420a6925c3","system_id":"levelo_inurba_marseille","lat":43.30534,"lon":5.36529,"is_reserved":false,"is_disabled":false,"rental_uris":{"android":"levelo://app?vid=fceda18a-36ac-4318-84eb-5c420a6925c3","ios":"levelo://app?vid=fceda18a-36ac-4318-84eb-5c420a6925c3"},"vehicle_type_id":"4","last_reported":1748124528,"current_range_meters":6000,"station_id":"ce4bgs12rcd13ifvqcag","pricing_plan_id":"cebpf4jnsgd1na2vs0mg"},{"bike_id":"3b9ef39b-2a3d-491a-91cd-2670298085cf","system_id":"levelo_inurba_marseille","lat":43.25492,"lon":5.37643,"is_reserved":false,"is_disabled":false,"rental_uris":{"android":"levelo://app?vid=3b9ef39b-2a3d-491a-91cd-2670298085cf","ios":"levelo://app?vid=3b9ef39b-2a3d-491a-91cd-2670298085cf"},"vehicle_type_id":"4","last_reported":1748124528,"current_range_meters":6000,"station_id":"ce4bhh12rcd13ifvqff0","pricing_plan_id":"cebpf4jnsgd1na2vs0mg"},{"bike_id":"fa529a29-8d21-4f13-9783-e1708a99c344","system_id":"levelo_inurba_marseille","lat":43.246516,"lon":5.388955,"is_reserved":false,"is_disabled":false,"rental_uris":{"android":"levelo://app?vid=fa529a29-8d21-4f13-9783-e1708a99c344","ios":"levelo://app?vid=fa529a29-8d21-4f13-9783-e1708a99c344"},"vehicle_type_id":"4","last_reported":1748124528,"current_range_meters":6400,"station_id":"ce4bhlh2rcd13ifvqgig","pricing_plan_id":"cebpf4jnsgd1na2vs0mg"},{"bike_id":"d256c6a4-d35b-4c32-b7db-2bac8ab63b70","system_id":"levelo_inurba_marseille","lat":43.2321,"lon":5.35524,"is_reserved":false,"is_disabled":false,"rental_uris":{"android":"levelo://app?vid=d256c6a4-d35b-4c32-b7db-2bac8ab63b70","ios":"levelo://app?vid=d256c6a4-d35b-4c32-b7db-2bac8ab63b70"},"vehicle_type_id":"4","last_reported":1748124528,"current_range_meters":6400,"station_id":"ce4bhu92rcd13ifvqi70","pricing_plan_id":"cebpf4jnsgd1na2vs0mg"},{"bike_id":"2b37ee9c-05ec-4daa-b0da-5ac2e2995f17","system_id":"levelo_inurba_marseille","lat":43.26554,"lon":5.37277,"is_reserved":false,"is_disabled":false,"rental_uris":{"android":"levelo://app?vid=2b37ee9c-05ec-4daa-b0da-5ac2e2995f17","ios":"levelo://app?vid=2b37ee9c-05ec-4daa-b0da-5ac2e2995f17"},"vehicle_type_id":"4","last_reported":1748124528,"current_range_meters":6400,"station_id":"ce4bhg12rcd13ifvqf70","pricing_plan_id":"cebpf4jnsgd1na2vs0mg"},{"bike_id":"d4097185-9303-488f-9d3d-d62191f95f53","system_id":"levelo_inurba_marseille","lat":43.2623,"lon":5.40456,"is_reserved":false,"is_disabled":false,"rental_uris":{"android":"levelo://app?vid=d4097185-9303-488f-9d3d-d62191f95f53","ios":"levelo://app?vid=d4097185-9303-488f-9d3d-d62191f95f53"},"vehicle_type_id":"4","last_reported":1748124528,"current_range_meters":6400,"station_id":"ce4bhmh2rcd13ifvqgmg","pricing_plan_id":"cebpf4jnsgd1na2vs0mg"},{"bike_id":"f9a5a1a1-a701-43d7-bc4d-cf9e79f4f247","system_id":"levelo_inurba_marseille","lat":43.28575,"lon":5.39507,"is_reserved":false,"is_disabled":false,"rental_uris":{"android":"levelo://app?vid=f9a5a1a1-a701-43d7-bc4d-cf9e79f4f247","ios":"levelo://app?vid=f9a5a1a1-a701-43d7-bc4d-cf9e79f4f247"},"vehicle_type_id":"4","last_reported":1748124528,"current_range_meters":6400,"station_id":"ce4bh292rcd13ifvqdg0","pricing_plan_id":"cebpf4jnsgd1na2vs0mg"},{"bike_id":"4baa24f1-d165-4342-b6d5-d4dab9595b1a","system_id":"levelo_inurba_marseille","lat":43.26767,"lon":5.39416,"is_reserved":false,"is_disabled":false,"rental_uris":{"android":"levelo://app?vid=4baa24f1-d165-4342-b6d5-d4dab9595b1a","ios":"levelo://app?vid=4baa24f1-d165-4342-b6d5-d4dab9595b1a"},"vehicle_type_id":"4","last_reported":1748124528,"current_range_meters":6400,"station_id":"ce4bhh12rcd13ifvqfg0","pricing_plan_id":"cebpf4jnsgd1na2vs0mg"},{"bike_id":"f121afd0-dd68-4a15-8cc2-b33fd8f4b57d","system_id":"levelo_inurba_marseille","lat":43.2657,"lon":5.390056,"is_reserved":false,"is_disabled":false,"rental_uris":{"android":"levelo://app?vid=f121afd0-dd68-4a15-8cc2-b33fd8f4b57d","ios":"levelo://app?vid=f121afd0-dd68-4a15-8cc2-b33fd8f4b57d"},"vehicle_type_id":"4","last_reported":1748124528,"current_range_meters":6400,"station_id":"ce4bhe12rcd13ifvqf30","pricing_plan_id":"cebpf4jnsgd1na2vs0mg"},{"bike_id":"d0727502-8dac-47fb-b96d-bb9c1d307591","system_id":"levelo_inurba_marseille","lat":43.30601,"lon":5.37225,"is_reserved":false,"is_disabled":false,"rental_uris":{"android":"levelo://app?vid=d0727502-8dac-47fb-b96d-bb9c1d307591","ios":"levelo://app?vid=d0727502-8dac-47fb-b96d-bb9c1d307591"},"vehicle_type_id":"4","last_reported":1748124528,"current_range_meters":6400,"station_id":"ce4bgqh2rcd13ifvqc4g","pricing_plan_id":"cebpf4jnsgd1na2vs0mg"},{"bike_id":"edc74bc3-8dfe-45b5-909c-9787c01ce15f","system_id":"levelo_inurba_marseille","lat":43.31118,"lon":5.37764,"is_reserved":false,"is_disabled":false,"rental_uris":{"android":"levelo://app?vid=edc74bc3-8dfe-45b5-909c-9787c01ce15f","ios":"levelo://app?vid=edc74bc3-8dfe-45b5-909c-9787c01ce15f"},"vehicle_type_id":"4","last_reported":1748124528,"current_range_meters":6800,"station_id":"ce4bgt92rcd13ifvqcg0","pricing_plan_id":"cebpf4jnsgd1na2vs0mg"},{"bike_id":"37f4e142-ea32-48ac-b564-acd0ea25235c","system_id":"levelo_inurba_marseille","lat":43.29263,"lon":5.3841,"is_reserved":false,"is_disabled":false,"rental_uris":{"android":"levelo://app?vid=37f4e142-ea32-48ac-b564-acd0ea25235c","ios":"levelo://app?vid=37f4e142-ea32-48ac-b564-acd0ea25235c"},"vehicle_type_id":"4","last_reported":1748124528,"current_range_meters":6800,"station_id":"ce4bh692rcd13ifvqea0","pricing_plan_id":"cebpf4jnsgd1na2vs0mg"},{"bike_id":"42567f8b-b6ac-499b-bf80-af93fc3cc58f","system_id":"levelo_inurba_marseille","lat":43.29714,"lon":5.37693,"is_reserved":false,"is_disabled":true,"rental_uris":{"android":"levelo://app?vid=42567f8b-b6ac-499b-bf80-af93fc3cc58f","ios":"levelo://app?vid=42567f8b-b6ac-499b-bf80-af93fc3cc58f"},"vehicle_type_id":"4","last_reported":1748124528,"current_range_meters":6800,"station_id":"ce4bgkh2rcd13ifvqbl0","pricing_plan_id":"cebpf4jnsgd1na2vs0mg"},{"bike_id":"25379fab-4557-4e1e-a0fa-8fcb0ca31cf7","system_id":"levelo_inurba_marseille","lat":43.25101,"lon":5.40342,"is_reserved":false,"is_disabled":false,"rental_uris":{"android":"levelo://app?vid=25379fab-4557-4e1e-a0fa-8fcb0ca31cf7","ios":"levelo://app?vid=25379fab-4557-4e1e-a0fa-8fcb0ca31cf7"},"vehicle_type_id":"4","last_reported":1748124528,"current_range_meters":6800,"station_id":"ce4bhlh2rcd13ifvqgig","pricing_plan_id":"cebpf4jnsgd1na2vs0mg"},{"bike_id":"bbbd5fed-f676-49b4-88c7-fb15385791a6","system_id":"levelo_inurba_marseille","lat":43.31625,"lon":5.38923,"is_reserved":false,"is_disabled":false,"rental_uris":{"android":"levelo://app?vid=bbbd5fed-f676-49b4-88c7-fb15385791a6","ios":"levelo://app?vid=bbbd5fed-f676-49b4-88c7-fb15385791a6"},"vehicle_type_id":"4","last_reported":1748124528,"current_range_meters":6800,"station_id":"","pricing_plan_id":"cebpf4jnsgd1na2vs0mg"},{"bike_id":"f5aa9c28-1d79-48fe-9196-fed7c6bf92e6","system_id":"levelo_inurba_marseille","lat":43.2694,"lon":5.40262,"is_reserved":false,"is_disabled":false,"rental_uris":{"android":"levelo://app?vid=f5aa9c28-1d79-48fe-9196-fed7c6bf92e6","ios":"levelo://app?vid=f5aa9c28-1d79-48fe-9196-fed7c6bf92e6"},"vehicle_type_id":"4","last_reported":1748124528,"current_range_meters":6800,"station_id":"cjm6bp8fraef2m0cb0m0","pricing_plan_id":"cebpf4jnsgd1na2vs0mg"},{"bike_id":"0beabff2-7198-4fce-93cf-5ee17bd0db2f","system_id":"levelo_inurba_marseille","lat":43.25499,"lon":5.37649,"is_reserved":false,"is_disabled":false,"rental_uris":{"android":"levelo://app?vid=0beabff2-7198-4fce-93cf-5ee17bd0db2f","ios":"levelo://app?vid=0beabff2-7198-4fce-93cf-5ee17bd0db2f"},"vehicle_type_id":"4","last_reported":1748124528,"current_range_meters":6800,"station_id":"ce4bhh12rcd13ifvqff0","pricing_plan_id":"cebpf4jnsgd1na2vs0mg"},{"bike_id":"13fdf9f5-cec8-4026-80f5-b5e3db77f7b1","system_id":"levelo_inurba_marseille","lat":43.24061,"lon":5.37762,"is_reserved":false,"is_disabled":false,"rental_uris":{"android":"levelo://app?vid=13fdf9f5-cec8-4026-80f5-b5e3db77f7b1","ios":"levelo://app?vid=13fdf9f5-cec8-4026-80f5-b5e3db77f7b1"},"vehicle_type_id":"4","last_reported":1748124528,"current_range_meters":7200,"station_id":"ce4bhnp2rcd13ifvqgvg","pricing_plan_id":"cebpf4jnsgd1na2vs0mg"},{"bike_id":"0ab7f44c-61de-49fd-9893-94887ddc8fe2","system_id":"levelo_inurba_marseille","lat":43.2953,"lon":5.38542,"is_reserved":false,"is_disabled":false,"rental_uris":{"android":"levelo://app?vid=0ab7f44c-61de-49fd-9893-94887ddc8fe2","ios":"levelo://app?vid=0ab7f44c-61de-49fd-9893-94887ddc8fe2"},"vehicle_type_id":"4","last_reported":1748124528,"current_range_meters":7200,"station_id":"ce4bgih2rcd13ifvqba0","pricing_plan_id":"cebpf4jnsgd1na2vs0mg"},{"bike_id":"d562ae30-b1e7-4a7a-94ad-92b7cc645da1","system_id":"levelo_inurba_marseille","lat":43.27671,"lon":5.38908,"is_reserved":false,"is_disabled":true,"rental_uris":{"android":"levelo://app?vid=d562ae30-b1e7-4a7a-94ad-92b7cc645da1","ios":"levelo://app?vid=d562ae30-b1e7-4a7a-94ad-92b7cc645da1"},"vehicle_type_id":"4","last_reported":1748124528,"current_range_meters":7200,"station_id":"ce4bhi12rcd13ifvqfo0","pricing_plan_id":"cebpf4jnsgd1na2vs0mg"},{"bike_id":"8abfbb6c-61f7-4e62-ae60-60acfa401e6e","system_id":"levelo_inurba_marseille","lat":43.29531,"lon":5.38547,"is_reserved":false,"is_disabled":false,"rental_uris":{"android":"levelo://app?vid=8abfbb6c-61f7-4e62-ae60-60acfa401e6e","ios":"levelo://app?vid=8abfbb6c-61f7-4e62-ae60-60acfa401e6e"},"vehicle_type_id":"4","last_reported":1748124528,"current_range_meters":7200,"station_id":"ce4bgih2rcd13ifvqba0","pricing_plan_id":"cebpf4jnsgd1na2vs0mg"},{"bike_id":"dc82de1a-f18a-4434-8d20-454479b32ea7","system_id":"levelo_inurba_marseille","lat":43.27303,"lon":5.39059,"is_reserved":false,"is_disabled":false,"rental_uris":{"android":"levelo://app?vid=dc82de1a-f18a-4434-8d20-454479b32ea7","ios":"levelo://app?vid=dc82de1a-f18a-4434-8d20-454479b32ea7"},"vehicle_type_id":"4","last_reported":1748124528,"current_range_meters":7200,"station_id":"ce4bhgp2rcd13ifvqfe0","pricing_plan_id":"cebpf4jnsgd1na2vs0mg"},{"bike_id":"a17a842f-ba04-4d0e-9f38-09b9d8144085","system_id":"levelo_inurba_marseille","lat":43.26904,"lon":5.40277,"is_reserved":false,"is_disabled":true,"rental_uris":{"android":"levelo://app?vid=a17a842f-ba04-4d0e-9f38-09b9d8144085","ios":"levelo://app?vid=a17a842f-ba04-4d0e-9f38-09b9d8144085"},"vehicle_type_id":"4","last_reported":1748124528,"current_range_meters":7200,"station_id":"","pricing_plan_id":"cebpf4jnsgd1na2vs0mg"},{"bike_id":"41cdd491-e5fd-4ced-9009-c009d0342261","system_id":"levelo_inurba_marseille","lat":43.27977,"lon":5.38708,"is_reserved":false,"is_disabled":false,"rental_uris":{"android":"levelo://app?vid=41cdd491-e5fd-4ced-9009-c009d0342261","ios":"levelo://app?vid=41cdd491-e5fd-4ced-9009-c009d0342261"},"vehicle_type_id":"4","last_reported":1748124528,"current_range_meters":7200,"station_id":"ce4bhg12rcd13ifvqf80","pricing_plan_id":"cebpf4jnsgd1na2vs0mg"},{"bike_id":"3524b6d6-6a52-4457-963b-15a713deacdd","system_id":"levelo_inurba_marseille","lat":43.30536,"lon":5.3653,"is_reserved":false,"is_disabled":false,"rental_uris":{"android":"levelo://app?vid=3524b6d6-6a52-4457-963b-15a713deacdd","ios":"levelo://app?vid=3524b6d6-6a52-4457-963b-15a713deacdd"},"vehicle_type_id":"4","last_reported":1748124528,"current_range_meters":7200,"station_id":"ce4bgs12rcd13ifvqcag","pricing_plan_id":"cebpf4jnsgd1na2vs0mg"},{"bike_id":"2c6c1601-7ad3-41b8-85f4-aa4519205b7c","system_id":"levelo_inurba_marseille","lat":43.25115,"lon":5.40321,"is_reserved":false,"is_disabled":false,"rental_uris":{"android":"levelo://app?vid=2c6c1601-7ad3-41b8-85f4-aa4519205b7c","ios":"levelo://app?vid=2c6c1601-7ad3-41b8-85f4-aa4519205b7c"},"vehicle_type_id":"4","last_reported":1748124528,"current_range_meters":8000,"station_id":"ce4bhlh2rcd13ifvqgig","pricing_plan_id":"cebpf4jnsgd1na2vs0mg"},{"bike_id":"40527e49-8320-4cab-9ef6-2e68a3da2952","system_id":"levelo_inurba_marseille","lat":43.290372,"lon":5.386449,"is_reserved":false,"is_disabled":false,"rental_uris":{"android":"levelo://app?vid=40527e49-8320-4cab-9ef6-2e68a3da2952","ios":"levelo://app?vid=40527e49-8320-4cab-9ef6-2e68a3da2952"},"vehicle_type_id":"4","last_reported":1748124528,"current_range_meters":8000,"station_id":"ce4bh4p2rcd13ifvqe0g","pricing_plan_id":"cebpf4jnsgd1na2vs0mg"},{"bike_id":"09a76abc-58bc-449b-ada3-bfe181f9de4d","system_id":"levelo_inurba_marseille","lat":43.27309,"lon":5.3909,"is_reserved":false,"is_disabled":false,"rental_uris":{"android":"levelo://app?vid=09a76abc-58bc-449b-ada3-bfe181f9de4d","ios":"levelo://app?vid=09a76abc-58bc-449b-ada3-bfe181f9de4d"},"vehicle_type_id":"4","last_reported":1748124528,"current_range_meters":8000,"station_id":"ce4bhgp2rcd13ifvqfe0","pricing_plan_id":"cebpf4jnsgd1na2vs0mg"},{"bike_id":"5c895d27-9d06-404a-90a0-3343a19de29d","system_id":"levelo_inurba_marseille","lat":43.30546,"lon":5.36707,"is_reserved":false,"is_disabled":false,"rental_uris":{"android":"levelo://app?vid=5c895d27-9d06-404a-90a0-3343a19de29d","ios":"levelo://app?vid=5c895d27-9d06-404a-90a0-3343a19de29d"},"vehicle_type_id":"4","last_reported":1748124528,"current_range_meters":8000,"station_id":"ce4bgrp2rcd13ifvqc9g","pricing_plan_id":"cebpf4jnsgd1na2vs0mg"},{"bike_id":"8b38a1e1-7c7c-42ac-9a75-2bb082112261","system_id":"levelo_inurba_marseille","lat":43.30245,"lon":5.40054,"is_reserved":false,"is_disabled":false,"rental_uris":{"android":"levelo://app?vid=8b38a1e1-7c7c-42ac-9a75-2bb082112261","ios":"levelo://app?vid=8b38a1e1-7c7c-42ac-9a75-2bb082112261"},"vehicle_type_id":"4","last_reported":1748124528,"current_range_meters":8000,"station_id":"ce4bgvh2rcd13ifvqcs0","pricing_plan_id":"cebpf4jnsgd1na2vs0mg"},{"bike_id":"ccf8f055-3943-4d1f-8422-80c8d7e361da","system_id":"levelo_inurba_marseille","lat":43.25831,"lon":5.3942,"is_reserved":false,"is_disabled":false,"rental_uris":{"android":"levelo://app?vid=ccf8f055-3943-4d1f-8422-80c8d7e361da","ios":"levelo://app?vid=ccf8f055-3943-4d1f-8422-80c8d7e361da"},"vehicle_type_id":"4","last_reported":1748124528,"current_range_meters":8000,"station_id":"ce4bhip2rcd13ifvqft0","pricing_plan_id":"cebpf4jnsgd1na2vs0mg"},{"bike_id":"e958a122-415d-482c-a669-e9db0defa220","system_id":"levelo_inurba_marseille","lat":43.29435,"lon":5.39756,"is_reserved":false,"is_disabled":false,"rental_uris":{"android":"levelo://app?vid=e958a122-415d-482c-a669-e9db0defa220","ios":"levelo://app?vid=e958a122-415d-482c-a669-e9db0defa220"},"vehicle_type_id":"4","last_reported":1748124528,"current_range_meters":8000,"station_id":"ce4bh3h2rcd13ifvqdo0","pricing_plan_id":"cebpf4jnsgd1na2vs0mg"},{"bike_id":"60b4a3c4-f03d-4321-98fd-c044f957b900","system_id":"levelo_inurba_marseille","lat":43.23193,"lon":5.3998,"is_reserved":false,"is_disabled":false,"rental_uris":{"android":"levelo://app?vid=60b4a3c4-f03d-4321-98fd-c044f957b900","ios":"levelo://app?vid=60b4a3c4-f03d-4321-98fd-c044f957b900"},"vehicle_type_id":"4","last_reported":1748124528,"current_range_meters":8000,"station_id":"ce4bhn12rcd13ifvqgqg","pricing_plan_id":"cebpf4jnsgd1na2vs0mg"},{"bike_id":"b4246170-88b5-4358-8893-d97d7f960306","system_id":"levelo_inurba_marseille","lat":43.26058,"lon":5.39396,"is_reserved":false,"is_disabled":false,"rental_uris":{"android":"levelo://app?vid=b4246170-88b5-4358-8893-d97d7f960306","ios":"levelo://app?vid=b4246170-88b5-4358-8893-d97d7f960306"},"vehicle_type_id":"4","last_reported":1748124528,"current_range_meters":8000,"station_id":"ce4bhh92rcd13ifvqfj0","pricing_plan_id":"cebpf4jnsgd1na2vs0mg"},{"bike_id":"9cf27f2d-4ac6-4717-93ce-55bc5dbf8c58","system_id":"levelo_inurba_marseille","lat":43.24675,"lon":5.3814,"is_reserved":false,"is_disabled":false,"rental_uris":{"android":"levelo://app?vid=9cf27f2d-4ac6-4717-93ce-55bc5dbf8c58","ios":"levelo://app?vid=9cf27f2d-4ac6-4717-93ce-55bc5dbf8c58"},"vehicle_type_id":"4","last_reported":1748124528,"current_range_meters":8000,"station_id":"ce4bhih2rcd13ifvqfr0","pricing_plan_id":"cebpf4jnsgd1na2vs0mg"},{"bike_id":"fc4bc14e-e750-47b5-97a4-f93c8ca82697","system_id":"levelo_inurba_marseille","lat":43.28449,"lon":5.37559,"is_reserved":false,"is_disabled":false,"rental_uris":{"android":"levelo://app?vid=fc4bc14e-e750-47b5-97a4-f93c8ca82697","ios":"levelo://app?vid=fc4bc14e-e750-47b5-97a4-f93c8ca82697"},"vehicle_type_id":"4","last_reported":1748124528,"current_range_meters":8000,"station_id":"","pricing_plan_id":"cebpf4jnsgd1na2vs0mg"},{"bike_id":"c16413fd-5d65-4ca2-8681-abb95bdf2d2a","system_id":"levelo_inurba_marseille","lat":43.30956,"lon":5.37131,"is_reserved":false,"is_disabled":false,"rental_uris":{"android":"levelo://app?vid=c16413fd-5d65-4ca2-8681-abb95bdf2d2a","ios":"levelo://app?vid=c16413fd-5d65-4ca2-8681-abb95bdf2d2a"},"vehicle_type_id":"4","last_reported":1748124528,"current_range_meters":8000,"station_id":"","pricing_plan_id":"cebpf4jnsgd1na2vs0mg"},{"bike_id":"80be92fe-3be0-4b3d-a91b-d34de65cfd2d","system_id":"levelo_inurba_marseille","lat":43.25496,"lon":5.37646,"is_reserved":false,"is_disabled":false,"rental_uris":{"android":"levelo://app?vid=80be92fe-3be0-4b3d-a91b-d34de65cfd2d","ios":"levelo://app?vid=80be92fe-3be0-4b3d-a91b-d34de65cfd2d"},"vehicle_type_id":"4","last_reported":1748124528,"current_range_meters":8000,"station_id":"ce4bhh12rcd13ifvqff0","pricing_plan_id":"cebpf4jnsgd1na2vs0mg"},{"bike_id":"b9c2ccd4-cfa0-4f0c-89c5-b4326d242752","system_id":"levelo_inurba_marseille","lat":43.24065,"lon":5.37758,"is_reserved":false,"is_disabled":false,"rental_uris":{"android":"levelo://app?vid=b9c2ccd4-cfa0-4f0c-89c5-b4326d242752","ios":"levelo://app?vid=b9c2ccd4-cfa0-4f0c-89c5-b4326d242752"},"vehicle_type_id":"4","last_reported":1748124528,"current_range_meters":8400,"station_id":"ce4bhnp2rcd13ifvqgvg","pricing_plan_id":"cebpf4jnsgd1na2vs0mg"},{"bike_id":"ea503a42-20e6-4660-acc2-f90e9bc6e209","system_id":"levelo_inurba_marseille","lat":43.27918,"lon":5.395779,"is_reserved":false,"is_disabled":false,"rental_uris":{"android":"levelo://app?vid=ea503a42-20e6-4660-acc2-f90e9bc6e209","ios":"levelo://app?vid=ea503a42-20e6-4660-acc2-f90e9bc6e209"},"vehicle_type_id":"4","last_reported":1748124528,"current_range_meters":8400,"station_id":"ce4bhf92rcd13ifvqf40","pricing_plan_id":"cebpf4jnsgd1na2vs0mg"},{"bike_id":"ce351236-e218-4257-b73a-21048a3d35c5","system_id":"levelo_inurba_marseille","lat":43.30306,"lon":5.39207,"is_reserved":false,"is_disabled":false,"rental_uris":{"android":"levelo://app?vid=ce351236-e218-4257-b73a-21048a3d35c5","ios":"levelo://app?vid=ce351236-e218-4257-b73a-21048a3d35c5"},"vehicle_type_id":"4","last_reported":1748124528,"current_range_meters":8400,"station_id":"ce4bgkh2rcd13ifvqbk0","pricing_plan_id":"cebpf4jnsgd1na2vs0mg"},{"bike_id":"889de11d-97e1-4a4c-8a24-60b33de94cfd","system_id":"levelo_inurba_marseille","lat":43.26798,"lon":5.40254,"is_reserved":false,"is_disabled":false,"rental_uris":{"android":"levelo://app?vid=889de11d-97e1-4a4c-8a24-60b33de94cfd","ios":"levelo://app?vid=889de11d-97e1-4a4c-8a24-60b33de94cfd"},"vehicle_type_id":"4","last_reported":1748124528,"current_range_meters":8400,"station_id":"ce501612rcd8frsf0b60","pricing_plan_id":"cebpf4jnsgd1na2vs0mg"},{"bike_id":"48ee60f7-5a2e-428c-b7de-b7baf571aed6","system_id":"levelo_inurba_marseille","lat":43.27837,"lon":5.39206,"is_reserved":false,"is_disabled":false,"rental_uris":{"android":"levelo://app?vid=48ee60f7-5a2e-428c-b7de-b7baf571aed6","ios":"levelo://app?vid=48ee60f7-5a2e-428c-b7de-b7baf571aed6"},"vehicle_type_id":"4","last_reported":1748124528,"current_range_meters":8400,"station_id":"ce4bhjp2rcd13ifvqga0","pricing_plan_id":"cebpf4jnsgd1na2vs0mg"},{"bike_id":"764aa4a5-fdf1-45d2-8d85-f92b7302018b","system_id":"levelo_inurba_marseille","lat":43.32207,"lon":5.43982,"is_reserved":false,"is_disabled":false,"rental_uris":{"android":"levelo://app?vid=764aa4a5-fdf1-45d2-8d85-f92b7302018b","ios":"levelo://app?vid=764aa4a5-fdf1-45d2-8d85-f92b7302018b"},"vehicle_type_id":"4","last_reported":1748124528,"current_range_meters":8400,"station_id":"","pricing_plan_id":"cebpf4jnsgd1na2vs0mg"},{"bike_id":"3afe289c-83e9-43b4-b6eb-e353410c90db","system_id":"levelo_inurba_marseille","lat":43.29909,"lon":5.38133,"is_reserved":false,"is_disabled":false,"rental_uris":{"android":"levelo://app?vid=3afe289c-83e9-43b4-b6eb-e353410c90db","ios":"levelo://app?vid=3afe289c-83e9-43b4-b6eb-e353410c90db"},"vehicle_type_id":"4","last_reported":1748124528,"current_range_meters":8400,"station_id":"ce4bgj12rcd13ifvqbc0","pricing_plan_id":"cebpf4jnsgd1na2vs0mg"},{"bike_id":"bf8e8887-6d33-45c4-a469-449aeaef0cbc","system_id":"levelo_inurba_marseille","lat":43.2606,"lon":5.39393,"is_reserved":false,"is_disabled":false,"rental_uris":{"android":"levelo://app?vid=bf8e8887-6d33-45c4-a469-449aeaef0cbc","ios":"levelo://app?vid=bf8e8887-6d33-45c4-a469-449aeaef0cbc"},"vehicle_type_id":"4","last_reported":1748124528,"current_range_meters":8400,"station_id":"ce4bhh92rcd13ifvqfj0","pricing_plan_id":"cebpf4jnsgd1na2vs0mg"},{"bike_id":"d2687c6b-2b92-4536-83c7-ceceeacc1deb","system_id":"levelo_inurba_marseille","lat":43.24667,"lon":5.38159,"is_reserved":false,"is_disabled":false,"rental_uris":{"android":"levelo://app?vid=d2687c6b-2b92-4536-83c7-ceceeacc1deb","ios":"levelo://app?vid=d2687c6b-2b92-4536-83c7-ceceeacc1deb"},"vehicle_type_id":"4","last_reported":1748124528,"current_range_meters":8400,"station_id":"ce4bhih2rcd13ifvqfr0","pricing_plan_id":"cebpf4jnsgd1na2vs0mg"},{"bike_id":"facc6641-9d15-484e-9553-54966eea1fea","system_id":"levelo_inurba_marseille","lat":43.28696,"lon":5.37354,"is_reserved":false,"is_disabled":false,"rental_uris":{"android":"levelo://app?vid=facc6641-9d15-484e-9553-54966eea1fea","ios":"levelo://app?vid=facc6641-9d15-484e-9553-54966eea1fea"},"vehicle_type_id":"4","last_reported":1748124528,"current_range_meters":8400,"station_id":"ce4bh3p2rcd13ifvqdq0","pricing_plan_id":"cebpf4jnsgd1na2vs0mg"},{"bike_id":"30327dad-0f23-4e6b-81a0-8b4f30266c1b","system_id":"levelo_inurba_marseille","lat":43.26559,"lon":5.37276,"is_reserved":false,"is_disabled":false,"rental_uris":{"android":"levelo://app?vid=30327dad-0f23-4e6b-81a0-8b4f30266c1b","ios":"levelo://app?vid=30327dad-0f23-4e6b-81a0-8b4f30266c1b"},"vehicle_type_id":"4","last_reported":1748124528,"current_range_meters":8400,"station_id":"ce4bhg12rcd13ifvqf70","pricing_plan_id":"cebpf4jnsgd1na2vs0mg"},{"bike_id":"40d5f5df-f4a7-41a4-b16d-63484ff0379d","system_id":"levelo_inurba_marseille","lat":43.30931,"lon":5.40129,"is_reserved":false,"is_disabled":true,"rental_uris":{"android":"levelo://app?vid=40d5f5df-f4a7-41a4-b16d-63484ff0379d","ios":"levelo://app?vid=40d5f5df-f4a7-41a4-b16d-63484ff0379d"},"vehicle_type_id":"4","last_reported":1748124528,"current_range_meters":8400,"station_id":"ce4bgvp2rcd13ifvqct0","pricing_plan_id":"cebpf4jnsgd1na2vs0mg"},{"bike_id":"91970d0e-6575-4051-a14d-bd8544ec12f7","system_id":"levelo_inurba_marseille","lat":43.28945,"lon":5.39636,"is_reserved":false,"is_disabled":false,"rental_uris":{"android":"levelo://app?vid=91970d0e-6575-4051-a14d-bd8544ec12f7","ios":"levelo://app?vid=91970d0e-6575-4051-a14d-bd8544ec12f7"},"vehicle_type_id":"4","last_reported":1748124528,"current_range_meters":8400,"station_id":"ce4bh3h2rcd13ifvqdn0","pricing_plan_id":"cebpf4jnsgd1na2vs0mg"},{"bike_id":"570aca94-86f6-4416-a181-6c5a92adccbb","system_id":"levelo_inurba_marseille","lat":43.27308,"lon":5.39093,"is_reserved":false,"is_disabled":false,"rental_uris":{"android":"levelo://app?vid=570aca94-86f6-4416-a181-6c5a92adccbb","ios":"levelo://app?vid=570aca94-86f6-4416-a181-6c5a92adccbb"},"vehicle_type_id":"4","last_reported":1748124528,"current_range_meters":8400,"station_id":"ce4bhgp2rcd13ifvqfe0","pricing_plan_id":"cebpf4jnsgd1na2vs0mg"},{"bike_id":"7033f29b-2f82-40a9-922d-36b6315763bf","system_id":"levelo_inurba_marseille","lat":43.25125,"lon":5.40321,"is_reserved":false,"is_disabled":true,"rental_uris":{"android":"levelo://app?vid=7033f29b-2f82-40a9-922d-36b6315763bf","ios":"levelo://app?vid=7033f29b-2f82-40a9-922d-36b6315763bf"},"vehicle_type_id":"4","last_reported":1748124528,"current_range_meters":8400,"station_id":"ce4bhlh2rcd13ifvqgig","pricing_plan_id":"cebpf4jnsgd1na2vs0mg"},{"bike_id":"ec560d91-523a-4a47-a0c8-8677940ed065","system_id":"levelo_inurba_marseille","lat":43.27666,"lon":5.38873,"is_reserved":false,"is_disabled":false,"rental_uris":{"android":"levelo://app?vid=ec560d91-523a-4a47-a0c8-8677940ed065","ios":"levelo://app?vid=ec560d91-523a-4a47-a0c8-8677940ed065"},"vehicle_type_id":"4","last_reported":1748124528,"current_range_meters":8800,"station_id":"ce4bhi12rcd13ifvqfo0","pricing_plan_id":"cebpf4jnsgd1na2vs0mg"},{"bike_id":"7d4313c8-0ca9-4d4f-bb96-9ef242bfa2ee","system_id":"levelo_inurba_marseille","lat":43.29244,"lon":5.38433,"is_reserved":false,"is_disabled":true,"rental_uris":{"android":"levelo://app?vid=7d4313c8-0ca9-4d4f-bb96-9ef242bfa2ee","ios":"levelo://app?vid=7d4313c8-0ca9-4d4f-bb96-9ef242bfa2ee"},"vehicle_type_id":"4","last_reported":1748124528,"current_range_meters":8800,"station_id":"ce4bh692rcd13ifvqea0","pricing_plan_id":"cebpf4jnsgd1na2vs0mg"},{"bike_id":"5b4c0476-c125-440a-a460-ac52e594db45","system_id":"levelo_inurba_marseille","lat":43.31696,"lon":5.37787,"is_reserved":false,"is_disabled":false,"rental_uris":{"android":"levelo://app?vid=5b4c0476-c125-440a-a460-ac52e594db45","ios":"levelo://app?vid=5b4c0476-c125-440a-a460-ac52e594db45"},"vehicle_type_id":"4","last_reported":1748124528,"current_range_meters":8800,"station_id":"ce4bgth2rcd13ifvqch0","pricing_plan_id":"cebpf4jnsgd1na2vs0mg"},{"bike_id":"75f8c4b9-c1e7-482a-b6d4-be91811e8385","system_id":"levelo_inurba_marseille","lat":43.26886,"lon":5.39337,"is_reserved":false,"is_disabled":false,"rental_uris":{"android":"levelo://app?vid=75f8c4b9-c1e7-482a-b6d4-be91811e8385","ios":"levelo://app?vid=75f8c4b9-c1e7-482a-b6d4-be91811e8385"},"vehicle_type_id":"4","last_reported":1748124528,"current_range_meters":8800,"station_id":"","pricing_plan_id":"cebpf4jnsgd1na2vs0mg"},{"bike_id":"1f52b6e1-b309-4da9-b4fc-247a3bfeae32","system_id":"levelo_inurba_marseille","lat":43.27372,"lon":5.3625,"is_reserved":false,"is_disabled":false,"rental_uris":{"android":"levelo://app?vid=1f52b6e1-b309-4da9-b4fc-247a3bfeae32","ios":"levelo://app?vid=1f52b6e1-b309-4da9-b4fc-247a3bfeae32"},"vehicle_type_id":"4","last_reported":1748124528,"current_range_meters":8800,"station_id":"ce4bhbh2rcd13ifvqeo0","pricing_plan_id":"cebpf4jnsgd1na2vs0mg"},{"bike_id":"ff29fada-048a-47b7-b4cf-e14dc4279567","system_id":"levelo_inurba_marseille","lat":43.27308,"lon":5.39087,"is_reserved":false,"is_disabled":false,"rental_uris":{"android":"levelo://app?vid=ff29fada-048a-47b7-b4cf-e14dc4279567","ios":"levelo://app?vid=ff29fada-048a-47b7-b4cf-e14dc4279567"},"vehicle_type_id":"4","last_reported":1748124528,"current_range_meters":8800,"station_id":"ce4bhgp2rcd13ifvqfe0","pricing_plan_id":"cebpf4jnsgd1na2vs0mg"},{"bike_id":"37def3bf-0ec4-4096-b9b9-e43c241ac9e8","system_id":"levelo_inurba_marseille","lat":43.29426,"lon":5.38616,"is_reserved":false,"is_disabled":false,"rental_uris":{"android":"levelo://app?vid=37def3bf-0ec4-4096-b9b9-e43c241ac9e8","ios":"levelo://app?vid=37def3bf-0ec4-4096-b9b9-e43c241ac9e8"},"vehicle_type_id":"4","last_reported":1748124528,"current_range_meters":8800,"station_id":"ce4bh2h2rcd13ifvqdh0","pricing_plan_id":"cebpf4jnsgd1na2vs0mg"},{"bike_id":"3581c28c-41f2-4cb7-b494-0448776c0438","system_id":"levelo_inurba_marseille","lat":43.29633,"lon":5.36031,"is_reserved":false,"is_disabled":false,"rental_uris":{"android":"levelo://app?vid=3581c28c-41f2-4cb7-b494-0448776c0438","ios":"levelo://app?vid=3581c28c-41f2-4cb7-b494-0448776c0438"},"vehicle_type_id":"4","last_reported":1748124528,"current_range_meters":9200,"station_id":"","pricing_plan_id":"cebpf4jnsgd1na2vs0mg"},{"bike_id":"52269cbf-94f1-4b3a-a7ea-52e773ac04c5","system_id":"levelo_inurba_marseille","lat":43.255455,"lon":5.38228,"is_reserved":false,"is_disabled":false,"rental_uris":{"android":"levelo://app?vid=52269cbf-94f1-4b3a-a7ea-52e773ac04c5","ios":"levelo://app?vid=52269cbf-94f1-4b3a-a7ea-52e773ac04c5"},"vehicle_type_id":"4","last_reported":1748124528,"current_range_meters":9200,"station_id":"ce4bhih2rcd13ifvqfs0","pricing_plan_id":"cebpf4jnsgd1na2vs0mg"},{"bike_id":"3c75e648-a525-4de9-93fa-090b0f418121","system_id":"levelo_inurba_marseille","lat":43.28502,"lon":5.3844,"is_reserved":false,"is_disabled":false,"rental_uris":{"android":"levelo://app?vid=3c75e648-a525-4de9-93fa-090b0f418121","ios":"levelo://app?vid=3c75e648-a525-4de9-93fa-090b0f418121"},"vehicle_type_id":"4","last_reported":1748124528,"current_range_meters":9200,"station_id":"","pricing_plan_id":"cebpf4jnsgd1na2vs0mg"},{"bike_id":"c8a58e8c-3984-422d-bb9c-5e0e1f313260","system_id":"levelo_inurba_marseille","lat":43.24644,"lon":5.38891,"is_reserved":false,"is_disabled":false,"rental_uris":{"android":"levelo://app?vid=c8a58e8c-3984-422d-bb9c-5e0e1f313260","ios":"levelo://app?vid=c8a58e8c-3984-422d-bb9c-5e0e1f313260"},"vehicle_type_id":"4","last_reported":1748124528,"current_range_meters":9200,"station_id":"ce4bhg12rcd13ifvqf60","pricing_plan_id":"cebpf4jnsgd1na2vs0mg"},{"bike_id":"9546d1ab-1ccb-4fe0-8b3b-7ffc67927051","system_id":"levelo_inurba_marseille","lat":43.28939,"lon":5.36613,"is_reserved":false,"is_disabled":true,"rental_uris":{"android":"levelo://app?vid=9546d1ab-1ccb-4fe0-8b3b-7ffc67927051","ios":"levelo://app?vid=9546d1ab-1ccb-4fe0-8b3b-7ffc67927051"},"vehicle_type_id":"4","last_reported":1748124528,"current_range_meters":9200,"station_id":"ce4bhap2rcd13ifvqek0","pricing_plan_id":"cebpf4jnsgd1na2vs0mg"},{"bike_id":"caf1e107-9dfd-47fc-aae0-9606d8eca857","system_id":"levelo_inurba_marseille","lat":43.27379,"lon":5.36249,"is_reserved":false,"is_disabled":true,"rental_uris":{"android":"levelo://app?vid=caf1e107-9dfd-47fc-aae0-9606d8eca857","ios":"levelo://app?vid=caf1e107-9dfd-47fc-aae0-9606d8eca857"},"vehicle_type_id":"4","last_reported":1748124528,"current_range_meters":9200,"station_id":"ce4bhbh2rcd13ifvqeo0","pricing_plan_id":"cebpf4jnsgd1na2vs0mg"},{"bike_id":"0f2468b5-c2af-4aa8-a946-9f4d851719e2","system_id":"levelo_inurba_marseille","lat":43.280383,"lon":5.369428,"is_reserved":false,"is_disabled":false,"rental_uris":{"android":"levelo://app?vid=0f2468b5-c2af-4aa8-a946-9f4d851719e2","ios":"levelo://app?vid=0f2468b5-c2af-4aa8-a946-9f4d851719e2"},"vehicle_type_id":"4","last_reported":1748124528,"current_range_meters":9200,"station_id":"ce4bha12rcd13ifvqef0","pricing_plan_id":"cebpf4jnsgd1na2vs0mg"},{"bike_id":"ceb5dae6-874b-4d60-9609-82bcf4c8d4ed","system_id":"levelo_inurba_marseille","lat":43.30437,"lon":5.38839,"is_reserved":false,"is_disabled":true,"rental_uris":{"android":"levelo://app?vid=ceb5dae6-874b-4d60-9609-82bcf4c8d4ed","ios":"levelo://app?vid=ceb5dae6-874b-4d60-9609-82bcf4c8d4ed"},"vehicle_type_id":"4","last_reported":1748124528,"current_range_meters":9200,"station_id":"ce4bgk12rcd13ifvqbi0","pricing_plan_id":"cebpf4jnsgd1na2vs0mg"},{"bike_id":"aeb9ef90-389d-4ef3-899b-0a0feff09a32","system_id":"levelo_inurba_marseille","lat":43.313565,"lon":5.380353,"is_reserved":false,"is_disabled":false,"rental_uris":{"android":"levelo://app?vid=aeb9ef90-389d-4ef3-899b-0a0feff09a32","ios":"levelo://app?vid=aeb9ef90-389d-4ef3-899b-0a0feff09a32"},"vehicle_type_id":"4","last_reported":1748124528,"current_range_meters":9200,"station_id":"","pricing_plan_id":"cebpf4jnsgd1na2vs0mg"},{"bike_id":"164df6c4-8b0e-4e85-a047-6e531a0d7a20","system_id":"levelo_inurba_marseille","lat":43.29265,"lon":5.38203,"is_reserved":false,"is_disabled":false,"rental_uris":{"android":"levelo://app?vid=164df6c4-8b0e-4e85-a047-6e531a0d7a20","ios":"levelo://app?vid=164df6c4-8b0e-4e85-a047-6e531a0d7a20"},"vehicle_type_id":"4","last_reported":1748124528,"current_range_meters":9200,"station_id":"","pricing_plan_id":"cebpf4jnsgd1na2vs0mg"},{"bike_id":"0a597945-c158-43c2-a357-40b38b0a20a2","system_id":"levelo_inurba_marseille","lat":43.29038,"lon":5.3813,"is_reserved":false,"is_disabled":false,"rental_uris":{"android":"levelo://app?vid=0a597945-c158-43c2-a357-40b38b0a20a2","ios":"levelo://app?vid=0a597945-c158-43c2-a357-40b38b0a20a2"},"vehicle_type_id":"4","last_reported":1748124528,"current_range_meters":8800,"station_id":"ce4bh4p2rcd13ifvqe1g","pricing_plan_id":"cebpf4jnsgd1na2vs0mg"},{"bike_id":"c0b51b19-5a3c-47b6-a728-20e9b0d3fca2","system_id":"levelo_inurba_marseille","lat":43.21763,"lon":5.346085,"is_reserved":false,"is_disabled":true,"rental_uris":{"android":"levelo://app?vid=c0b51b19-5a3c-47b6-a728-20e9b0d3fca2","ios":"levelo://app?vid=c0b51b19-5a3c-47b6-a728-20e9b0d3fca2"},"vehicle_type_id":"4","last_reported":1748124528,"current_range_meters":9200,"station_id":"st_cvj6r9ubvosntc0bgbag","pricing_plan_id":"cebpf4jnsgd1na2vs0mg"},{"bike_id":"927e3f29-24b9-4e3b-83cd-8df6b912e853","system_id":"levelo_inurba_marseille","lat":43.30262,"lon":5.37299,"is_reserved":false,"is_disabled":false,"rental_uris":{"android":"levelo://app?vid=927e3f29-24b9-4e3b-83cd-8df6b912e853","ios":"levelo://app?vid=927e3f29-24b9-4e3b-83cd-8df6b912e853"},"vehicle_type_id":"4","last_reported":1748124528,"current_range_meters":9200,"station_id":"","pricing_plan_id":"cebpf4jnsgd1na2vs0mg"},{"bike_id":"1d12ff92-8246-4e3e-b520-83d86f77cc0d","system_id":"levelo_inurba_marseille","lat":43.23178,"lon":5.39991,"is_reserved":false,"is_disabled":false,"rental_uris":{"android":"levelo://app?vid=1d12ff92-8246-4e3e-b520-83d86f77cc0d","ios":"levelo://app?vid=1d12ff92-8246-4e3e-b520-83d86f77cc0d"},"vehicle_type_id":"4","last_reported":1748124528,"current_range_meters":9600,"station_id":"ce4bhn12rcd13ifvqgqg","pricing_plan_id":"cebpf4jnsgd1na2vs0mg"},{"bike_id":"9e10a5b8-5080-4f7e-8499-b14ca29da876","system_id":"levelo_inurba_marseille","lat":43.29005,"lon":5.356253,"is_reserved":false,"is_disabled":true,"rental_uris":{"android":"levelo://app?vid=9e10a5b8-5080-4f7e-8499-b14ca29da876","ios":"levelo://app?vid=9e10a5b8-5080-4f7e-8499-b14ca29da876"},"vehicle_type_id":"4","last_reported":1748124528,"current_range_meters":9600,"station_id":"ce4bhb92rcd13ifvqen0","pricing_plan_id":"cebpf4jnsgd1na2vs0mg"},{"bike_id":"fc8c72ad-ca61-42c6-ae90-f61b57e45328","system_id":"levelo_inurba_marseille","lat":43.27896,"lon":5.41855,"is_reserved":false,"is_disabled":false,"rental_uris":{"android":"levelo://app?vid=fc8c72ad-ca61-42c6-ae90-f61b57e45328","ios":"levelo://app?vid=fc8c72ad-ca61-42c6-ae90-f61b57e45328"},"vehicle_type_id":"4","last_reported":1748124528,"current_range_meters":9600,"station_id":"","pricing_plan_id":"cebpf4jnsgd1na2vs0mg"},{"bike_id":"9c4e3b88-769c-481a-b82f-348206930253","system_id":"levelo_inurba_marseille","lat":43.28212,"lon":5.39033,"is_reserved":false,"is_disabled":false,"rental_uris":{"android":"levelo://app?vid=9c4e3b88-769c-481a-b82f-348206930253","ios":"levelo://app?vid=9c4e3b88-769c-481a-b82f-348206930253"},"vehicle_type_id":"4","last_reported":1748124528,"current_range_meters":9600,"station_id":"","pricing_plan_id":"cebpf4jnsgd1na2vs0mg"},{"bike_id":"d233e8c8-39f0-4ad7-b9ae-c0a68e5c8718","system_id":"levelo_inurba_marseille","lat":43.269379,"lon":5.402525,"is_reserved":false,"is_disabled":false,"rental_uris":{"android":"levelo://app?vid=d233e8c8-39f0-4ad7-b9ae-c0a68e5c8718","ios":"levelo://app?vid=d233e8c8-39f0-4ad7-b9ae-c0a68e5c8718"},"vehicle_type_id":"4","last_reported":1748124528,"current_range_meters":9600,"station_id":"cjm6bp8fraef2m0cb0m0","pricing_plan_id":"cebpf4jnsgd1na2vs0mg"},{"bike_id":"831f2c8c-d89f-4b5a-9b04-98c4caa873e6","system_id":"levelo_inurba_marseille","lat":43.27839,"lon":5.3921,"is_reserved":false,"is_disabled":false,"rental_uris":{"android":"levelo://app?vid=831f2c8c-d89f-4b5a-9b04-98c4caa873e6","ios":"levelo://app?vid=831f2c8c-d89f-4b5a-9b04-98c4caa873e6"},"vehicle_type_id":"4","last_reported":1748124528,"current_range_meters":9600,"station_id":"ce4bhjp2rcd13ifvqga0","pricing_plan_id":"cebpf4jnsgd1na2vs0mg"},{"bike_id":"ec4e2d8d-e29b-47f1-bc79-0bf34886502a","system_id":"levelo_inurba_marseille","lat":43.29527,"lon":5.39024,"is_reserved":false,"is_disabled":false,"rental_uris":{"android":"levelo://app?vid=ec4e2d8d-e29b-47f1-bc79-0bf34886502a","ios":"levelo://app?vid=ec4e2d8d-e29b-47f1-bc79-0bf34886502a"},"vehicle_type_id":"4","last_reported":1748124528,"current_range_meters":9600,"station_id":"ce4bh3p2rcd13ifvqdp0","pricing_plan_id":"cebpf4jnsgd1na2vs0mg"},{"bike_id":"40572cad-a796-4f87-a02c-44bcfdb01f65","system_id":"levelo_inurba_marseille","lat":43.273422,"lon":5.361547,"is_reserved":false,"is_disabled":false,"rental_uris":{"android":"levelo://app?vid=40572cad-a796-4f87-a02c-44bcfdb01f65","ios":"levelo://app?vid=40572cad-a796-4f87-a02c-44bcfdb01f65"},"vehicle_type_id":"4","last_reported":1748124528,"current_range_meters":9600,"station_id":"","pricing_plan_id":"cebpf4jnsgd1na2vs0mg"},{"bike_id":"2db9b4dd-6c57-41f2-970a-2b6a881f3574","system_id":"levelo_inurba_marseille","lat":43.28039,"lon":5.36939,"is_reserved":false,"is_disabled":false,"rental_uris":{"android":"levelo://app?vid=2db9b4dd-6c57-41f2-970a-2b6a881f3574","ios":"levelo://app?vid=2db9b4dd-6c57-41f2-970a-2b6a881f3574"},"vehicle_type_id":"4","last_reported":1748124528,"current_range_meters":9600,"station_id":"ce4bha12rcd13ifvqef0","pricing_plan_id":"cebpf4jnsgd1na2vs0mg"},{"bike_id":"c16e8818-32b2-4a77-8322-0b9732406cf7","system_id":"levelo_inurba_marseille","lat":43.27996,"lon":5.40027,"is_reserved":false,"is_disabled":false,"rental_uris":{"android":"levelo://app?vid=c16e8818-32b2-4a77-8322-0b9732406cf7","ios":"levelo://app?vid=c16e8818-32b2-4a77-8322-0b9732406cf7"},"vehicle_type_id":"4","last_reported":1748124528,"current_range_meters":9600,"station_id":"ce4bho92rcd13ifvqh4g","pricing_plan_id":"cebpf4jnsgd1na2vs0mg"},{"bike_id":"326cd65d-3b25-4a67-b5de-555f1eef5039","system_id":"levelo_inurba_marseille","lat":43.3148,"lon":5.37294,"is_reserved":false,"is_disabled":false,"rental_uris":{"android":"levelo://app?vid=326cd65d-3b25-4a67-b5de-555f1eef5039","ios":"levelo://app?vid=326cd65d-3b25-4a67-b5de-555f1eef5039"},"vehicle_type_id":"4","last_reported":1748124528,"current_range_meters":9600,"station_id":"ce4bgt12rcd13ifvqcd0","pricing_plan_id":"cebpf4jnsgd1na2vs0mg"},{"bike_id":"d8d13ba8-4e9b-4e7e-b7c4-defe6cb208bd","system_id":"levelo_inurba_marseille","lat":43.30246,"lon":5.42703,"is_reserved":false,"is_disabled":false,"rental_uris":{"android":"levelo://app?vid=d8d13ba8-4e9b-4e7e-b7c4-defe6cb208bd","ios":"levelo://app?vid=d8d13ba8-4e9b-4e7e-b7c4-defe6cb208bd"},"vehicle_type_id":"4","last_reported":1748124528,"current_range_meters":10000,"station_id":"","pricing_plan_id":"cebpf4jnsgd1na2vs0mg"},{"bike_id":"317402d7-3cf9-48ed-a017-14be367d398d","system_id":"levelo_inurba_marseille","lat":43.32334,"lon":5.40615,"is_reserved":false,"is_disabled":false,"rental_uris":{"android":"levelo://app?vid=317402d7-3cf9-48ed-a017-14be367d398d","ios":"levelo://app?vid=317402d7-3cf9-48ed-a017-14be367d398d"},"vehicle_type_id":"4","last_reported":1748124528,"current_range_meters":10000,"station_id":"ce4bhq92rcd13ifvqhjg","pricing_plan_id":"cebpf4jnsgd1na2vs0mg"},{"bike_id":"1ce0d558-c03a-4109-9d26-d8982ff015ec","system_id":"levelo_inurba_marseille","lat":43.30792,"lon":5.37623,"is_reserved":false,"is_disabled":false,"rental_uris":{"android":"levelo://app?vid=1ce0d558-c03a-4109-9d26-d8982ff015ec","ios":"levelo://app?vid=1ce0d558-c03a-4109-9d26-d8982ff015ec"},"vehicle_type_id":"4","last_reported":1748124528,"current_range_meters":10000,"station_id":"ce4bgv92rcd13ifvqcq0","pricing_plan_id":"cebpf4jnsgd1na2vs0mg"},{"bike_id":"2eaf1eb3-b287-4e32-b17d-819ebaf48123","system_id":"levelo_inurba_marseille","lat":43.28035,"lon":5.36941,"is_reserved":false,"is_disabled":false,"rental_uris":{"android":"levelo://app?vid=2eaf1eb3-b287-4e32-b17d-819ebaf48123","ios":"levelo://app?vid=2eaf1eb3-b287-4e32-b17d-819ebaf48123"},"vehicle_type_id":"4","last_reported":1748124528,"current_range_meters":10000,"station_id":"ce4bha12rcd13ifvqef0","pricing_plan_id":"cebpf4jnsgd1na2vs0mg"},{"bike_id":"aa1ea664-da80-4ed9-9f62-5c580efca6fa","system_id":"levelo_inurba_marseille","lat":43.29553,"lon":5.42292,"is_reserved":false,"is_disabled":false,"rental_uris":{"android":"levelo://app?vid=aa1ea664-da80-4ed9-9f62-5c580efca6fa","ios":"levelo://app?vid=aa1ea664-da80-4ed9-9f62-5c580efca6fa"},"vehicle_type_id":"4","last_reported":1748124528,"current_range_meters":10000,"station_id":"ce4bhph2rcd13ifvqhdg","pricing_plan_id":"cebpf4jnsgd1na2vs0mg"},{"bike_id":"631364b9-4f5e-4cc8-8e04-6ec26ba24d61","system_id":"levelo_inurba_marseille","lat":43.30127,"lon":5.3877,"is_reserved":false,"is_disabled":true,"rental_uris":{"android":"levelo://app?vid=631364b9-4f5e-4cc8-8e04-6ec26ba24d61","ios":"levelo://app?vid=631364b9-4f5e-4cc8-8e04-6ec26ba24d61"},"vehicle_type_id":"4","last_reported":1748124528,"current_range_meters":10000,"station_id":"ce4bghh2rcd13ifvqb60","pricing_plan_id":"cebpf4jnsgd1na2vs0mg"},{"bike_id":"59c0f53e-2435-4973-b338-4d5ad79c7d38","system_id":"levelo_inurba_marseille","lat":43.273088,"lon":5.39095,"is_reserved":false,"is_disabled":false,"rental_uris":{"android":"levelo://app?vid=59c0f53e-2435-4973-b338-4d5ad79c7d38","ios":"levelo://app?vid=59c0f53e-2435-4973-b338-4d5ad79c7d38"},"vehicle_type_id":"4","last_reported":1748124528,"current_range_meters":10000,"station_id":"ce4bhgp2rcd13ifvqfe0","pricing_plan_id":"cebpf4jnsgd1na2vs0mg"},{"bike_id":"002cbebe-d947-4f4f-ae6f-b2096a3f220f","system_id":"levelo_inurba_marseille","lat":43.25501,"lon":5.3765,"is_reserved":false,"is_disabled":false,"rental_uris":{"android":"levelo://app?vid=002cbebe-d947-4f4f-ae6f-b2096a3f220f","ios":"levelo://app?vid=002cbebe-d947-4f4f-ae6f-b2096a3f220f"},"vehicle_type_id":"4","last_reported":1748124528,"current_range_meters":10000,"station_id":"ce4bhh12rcd13ifvqff0","pricing_plan_id":"cebpf4jnsgd1na2vs0mg"},{"bike_id":"750d488e-82d0-4588-bfa9-99814a14e999","system_id":"levelo_inurba_marseille","lat":43.30803,"lon":5.43511,"is_reserved":false,"is_disabled":false,"rental_uris":{"android":"levelo://app?vid=750d488e-82d0-4588-bfa9-99814a14e999","ios":"levelo://app?vid=750d488e-82d0-4588-bfa9-99814a14e999"},"vehicle_type_id":"4","last_reported":1748124528,"current_range_meters":10800,"station_id":"ce4bhph2rcd13ifvqheg","pricing_plan_id":"cebpf4jnsgd1na2vs0mg"},{"bike_id":"b257e1c4-2f2e-4cd2-bdcb-f4495a7aed9a","system_id":"levelo_inurba_marseille","lat":43.32093,"lon":5.40807,"is_reserved":false,"is_disabled":false,"rental_uris":{"android":"levelo://app?vid=b257e1c4-2f2e-4cd2-bdcb-f4495a7aed9a","ios":"levelo://app?vid=b257e1c4-2f2e-4cd2-bdcb-f4495a7aed9a"},"vehicle_type_id":"4","last_reported":1748124528,"current_range_meters":10800,"station_id":"","pricing_plan_id":"cebpf4jnsgd1na2vs0mg"},{"bike_id":"a2969d9b-b308-43ba-a932-55b8bd550f28","system_id":"levelo_inurba_marseille","lat":43.31452,"lon":5.40388,"is_reserved":false,"is_disabled":false,"rental_uris":{"android":"levelo://app?vid=a2969d9b-b308-43ba-a932-55b8bd550f28","ios":"levelo://app?vid=a2969d9b-b308-43ba-a932-55b8bd550f28"},"vehicle_type_id":"4","last_reported":1748124528,"current_range_meters":10800,"station_id":"","pricing_plan_id":"cebpf4jnsgd1na2vs0mg"},{"bike_id":"a0e2656e-f413-4fb5-a22e-db82da88d90c","system_id":"levelo_inurba_marseille","lat":43.29524,"lon":5.3904,"is_reserved":false,"is_disabled":false,"rental_uris":{"android":"levelo://app?vid=a0e2656e-f413-4fb5-a22e-db82da88d90c","ios":"levelo://app?vid=a0e2656e-f413-4fb5-a22e-db82da88d90c"},"vehicle_type_id":"4","last_reported":1748124528,"current_range_meters":10800,"station_id":"ce4bh3p2rcd13ifvqdp0","pricing_plan_id":"cebpf4jnsgd1na2vs0mg"},{"bike_id":"1cb17ddc-9d46-4956-a20a-2395aa580195","system_id":"levelo_inurba_marseille","lat":43.303054,"lon":5.369131,"is_reserved":false,"is_disabled":false,"rental_uris":{"android":"levelo://app?vid=1cb17ddc-9d46-4956-a20a-2395aa580195","ios":"levelo://app?vid=1cb17ddc-9d46-4956-a20a-2395aa580195"},"vehicle_type_id":"4","last_reported":1748124528,"current_range_meters":10800,"station_id":"ce4bgqh2rcd13ifvqc5g","pricing_plan_id":"cebpf4jnsgd1na2vs0mg"},{"bike_id":"a3071f1e-a9e6-4a50-9331-9f73af35b6cb","system_id":"levelo_inurba_marseille","lat":43.25725,"lon":5.41107,"is_reserved":false,"is_disabled":false,"rental_uris":{"android":"levelo://app?vid=a3071f1e-a9e6-4a50-9331-9f73af35b6cb","ios":"levelo://app?vid=a3071f1e-a9e6-4a50-9331-9f73af35b6cb"},"vehicle_type_id":"4","last_reported":1748124528,"current_range_meters":10800,"station_id":"ce4bhkp2rcd13ifvqgd0","pricing_plan_id":"cebpf4jnsgd1na2vs0mg"},{"bike_id":"aa2aee6c-d5a2-4b33-bb06-2abf49f421ae","system_id":"levelo_inurba_marseille","lat":43.2847,"lon":5.38408,"is_reserved":false,"is_disabled":true,"rental_uris":{"android":"levelo://app?vid=aa2aee6c-d5a2-4b33-bb06-2abf49f421ae","ios":"levelo://app?vid=aa2aee6c-d5a2-4b33-bb06-2abf49f421ae"},"vehicle_type_id":"4","last_reported":1748124528,"current_range_meters":10800,"station_id":"ce4bh512rcd13ifvqe3g","pricing_plan_id":"cebpf4jnsgd1na2vs0mg"},{"bike_id":"14637430-3a31-4f8d-bab0-405c790b7de3","system_id":"levelo_inurba_marseille","lat":43.30595,"lon":5.37187,"is_reserved":false,"is_disabled":false,"rental_uris":{"android":"levelo://app?vid=14637430-3a31-4f8d-bab0-405c790b7de3","ios":"levelo://app?vid=14637430-3a31-4f8d-bab0-405c790b7de3"},"vehicle_type_id":"4","last_reported":1748124528,"current_range_meters":10800,"station_id":"ce4bgqh2rcd13ifvqc4g","pricing_plan_id":"cebpf4jnsgd1na2vs0mg"},{"bike_id":"88ac5a91-56d3-4573-b0f2-5c6bbb7d986b","system_id":"levelo_inurba_marseille","lat":43.26062,"lon":5.39639,"is_reserved":false,"is_disabled":false,"rental_uris":{"android":"levelo://app?vid=88ac5a91-56d3-4573-b0f2-5c6bbb7d986b","ios":"levelo://app?vid=88ac5a91-56d3-4573-b0f2-5c6bbb7d986b"},"vehicle_type_id":"4","last_reported":1748124528,"current_range_meters":10800,"station_id":"","pricing_plan_id":"cebpf4jnsgd1na2vs0mg"},{"bike_id":"b72ccfd1-35cf-4b02-9c1a-90aef7c74e5f","system_id":"levelo_inurba_marseille","lat":43.248631,"lon":5.441908,"is_reserved":false,"is_disabled":false,"rental_uris":{"android":"levelo://app?vid=b72ccfd1-35cf-4b02-9c1a-90aef7c74e5f","ios":"levelo://app?vid=b72ccfd1-35cf-4b02-9c1a-90aef7c74e5f"},"vehicle_type_id":"4","last_reported":1748124528,"current_range_meters":10800,"station_id":"","pricing_plan_id":"cebpf4jnsgd1na2vs0mg"},{"bike_id":"72cc8b4d-b9d6-4c83-834a-f7779e20de86","system_id":"levelo_inurba_marseille","lat":43.28703,"lon":5.39983,"is_reserved":false,"is_disabled":false,"rental_uris":{"android":"levelo://app?vid=72cc8b4d-b9d6-4c83-834a-f7779e20de86","ios":"levelo://app?vid=72cc8b4d-b9d6-4c83-834a-f7779e20de86"},"vehicle_type_id":"4","last_reported":1748124528,"current_range_meters":11200,"station_id":"ce4bho92rcd13ifvqh3g","pricing_plan_id":"cebpf4jnsgd1na2vs0mg"},{"bike_id":"53a8fa51-7b73-4bc7-923d-43aea42f7a23","system_id":"levelo_inurba_marseille","lat":43.27319,"lon":5.39061,"is_reserved":false,"is_disabled":false,"rental_uris":{"android":"levelo://app?vid=53a8fa51-7b73-4bc7-923d-43aea42f7a23","ios":"levelo://app?vid=53a8fa51-7b73-4bc7-923d-43aea42f7a23"},"vehicle_type_id":"4","last_reported":1748124528,"current_range_meters":11200,"station_id":"ce4bhgp2rcd13ifvqfe0","pricing_plan_id":"cebpf4jnsgd1na2vs0mg"},{"bike_id":"41e8aa44-92d2-486b-a6d4-64aef19385db","system_id":"levelo_inurba_marseille","lat":43.255796,"lon":5.382362,"is_reserved":false,"is_disabled":false,"rental_uris":{"android":"levelo://app?vid=41e8aa44-92d2-486b-a6d4-64aef19385db","ios":"levelo://app?vid=41e8aa44-92d2-486b-a6d4-64aef19385db"},"vehicle_type_id":"4","last_reported":1748124528,"current_range_meters":11200,"station_id":"ce4bhih2rcd13ifvqfs0","pricing_plan_id":"cebpf4jnsgd1na2vs0mg"},{"bike_id":"4b21239c-4264-43d2-9677-18eac578f916","system_id":"levelo_inurba_marseille","lat":43.27809,"lon":5.40707,"is_reserved":false,"is_disabled":true,"rental_uris":{"android":"levelo://app?vid=4b21239c-4264-43d2-9677-18eac578f916","ios":"levelo://app?vid=4b21239c-4264-43d2-9677-18eac578f916"},"vehicle_type_id":"4","last_reported":1748124528,"current_range_meters":11200,"station_id":"ce4bhnh2rcd13ifvqgtg","pricing_plan_id":"cebpf4jnsgd1na2vs0mg"},{"bike_id":"36d903d5-c52e-417c-a311-ea1a829de64d","system_id":"levelo_inurba_marseille","lat":43.29421,"lon":5.38619,"is_reserved":false,"is_disabled":false,"rental_uris":{"android":"levelo://app?vid=36d903d5-c52e-417c-a311-ea1a829de64d","ios":"levelo://app?vid=36d903d5-c52e-417c-a311-ea1a829de64d"},"vehicle_type_id":"4","last_reported":1748124528,"current_range_meters":11200,"station_id":"ce4bh2h2rcd13ifvqdh0","pricing_plan_id":"cebpf4jnsgd1na2vs0mg"},{"bike_id":"ae26066f-a264-4f73-a07e-2fc28ff72328","system_id":"levelo_inurba_marseille","lat":43.31087,"lon":5.42445,"is_reserved":false,"is_disabled":false,"rental_uris":{"android":"levelo://app?vid=ae26066f-a264-4f73-a07e-2fc28ff72328","ios":"levelo://app?vid=ae26066f-a264-4f73-a07e-2fc28ff72328"},"vehicle_type_id":"4","last_reported":1748124528,"current_range_meters":11200,"station_id":"ce4bhp92rcd13ifvqhag","pricing_plan_id":"cebpf4jnsgd1na2vs0mg"},{"bike_id":"0b68336a-d2ba-4b22-ab3a-07d0a47772df","system_id":"levelo_inurba_marseille","lat":43.30294,"lon":5.39201,"is_reserved":false,"is_disabled":false,"rental_uris":{"android":"levelo://app?vid=0b68336a-d2ba-4b22-ab3a-07d0a47772df","ios":"levelo://app?vid=0b68336a-d2ba-4b22-ab3a-07d0a47772df"},"vehicle_type_id":"4","last_reported":1748124528,"current_range_meters":11200,"station_id":"ce4bgkh2rcd13ifvqbk0","pricing_plan_id":"cebpf4jnsgd1na2vs0mg"},{"bike_id":"b5212b01-f768-4579-bb1f-18803bfb994e","system_id":"levelo_inurba_marseille","lat":43.31637,"lon":5.38898,"is_reserved":false,"is_disabled":false,"rental_uris":{"android":"levelo://app?vid=b5212b01-f768-4579-bb1f-18803bfb994e","ios":"levelo://app?vid=b5212b01-f768-4579-bb1f-18803bfb994e"},"vehicle_type_id":"4","last_reported":1748124528,"current_range_meters":11600,"station_id":"","pricing_plan_id":"cebpf4jnsgd1na2vs0mg"},{"bike_id":"37c8c075-8f82-4272-989a-84f131b3479b","system_id":"levelo_inurba_marseille","lat":43.292125,"lon":5.360413,"is_reserved":false,"is_disabled":true,"rental_uris":{"android":"levelo://app?vid=37c8c075-8f82-4272-989a-84f131b3479b","ios":"levelo://app?vid=37c8c075-8f82-4272-989a-84f131b3479b"},"vehicle_type_id":"4","last_reported":1748124528,"current_range_meters":11600,"station_id":"ce4bhbh2rcd13ifvqeqg","pricing_plan_id":"cebpf4jnsgd1na2vs0mg"},{"bike_id":"4bb654d8-1578-44f0-8302-dd6d0d0df020","system_id":"levelo_inurba_marseille","lat":43.29418,"lon":5.3862,"is_reserved":false,"is_disabled":false,"rental_uris":{"android":"levelo://app?vid=4bb654d8-1578-44f0-8302-dd6d0d0df020","ios":"levelo://app?vid=4bb654d8-1578-44f0-8302-dd6d0d0df020"},"vehicle_type_id":"4","last_reported":1748124528,"current_range_meters":11600,"station_id":"ce4bh2h2rcd13ifvqdh0","pricing_plan_id":"cebpf4jnsgd1na2vs0mg"},{"bike_id":"6abb9ab4-3976-4e3e-b994-f2f72ee02055","system_id":"levelo_inurba_marseille","lat":43.3182,"lon":5.368376,"is_reserved":false,"is_disabled":false,"rental_uris":{"android":"levelo://app?vid=6abb9ab4-3976-4e3e-b994-f2f72ee02055","ios":"levelo://app?vid=6abb9ab4-3976-4e3e-b994-f2f72ee02055"},"vehicle_type_id":"4","last_reported":1748124528,"current_range_meters":11600,"station_id":"","pricing_plan_id":"cebpf4jnsgd1na2vs0mg"},{"bike_id":"de816ebf-f783-4225-a5e1-782664271c9a","system_id":"levelo_inurba_marseille","lat":43.27564,"lon":5.38408,"is_reserved":false,"is_disabled":false,"rental_uris":{"android":"levelo://app?vid=de816ebf-f783-4225-a5e1-782664271c9a","ios":"levelo://app?vid=de816ebf-f783-4225-a5e1-782664271c9a"},"vehicle_type_id":"4","last_reported":1748124528,"current_range_meters":11600,"station_id":"ce4bhh92rcd13ifvqfi0","pricing_plan_id":"cebpf4jnsgd1na2vs0mg"},{"bike_id":"1b18625e-19e9-4ba4-8600-fb9d5a0f7c73","system_id":"levelo_inurba_marseille","lat":43.25122,"lon":5.40312,"is_reserved":false,"is_disabled":false,"rental_uris":{"android":"levelo://app?vid=1b18625e-19e9-4ba4-8600-fb9d5a0f7c73","ios":"levelo://app?vid=1b18625e-19e9-4ba4-8600-fb9d5a0f7c73"},"vehicle_type_id":"4","last_reported":1748124528,"current_range_meters":11600,"station_id":"ce4bhlh2rcd13ifvqgig","pricing_plan_id":"cebpf4jnsgd1na2vs0mg"},{"bike_id":"07c20b36-efcd-49b4-a301-75a9b7505c69","system_id":"levelo_inurba_marseille","lat":43.30141,"lon":5.38975,"is_reserved":false,"is_disabled":false,"rental_uris":{"android":"levelo://app?vid=07c20b36-efcd-49b4-a301-75a9b7505c69","ios":"levelo://app?vid=07c20b36-efcd-49b4-a301-75a9b7505c69"},"vehicle_type_id":"4","last_reported":1748124528,"current_range_meters":11600,"station_id":"","pricing_plan_id":"cebpf4jnsgd1na2vs0mg"},{"bike_id":"0ee4abd8-31f5-4b2f-b0b9-318d7620d615","system_id":"levelo_inurba_marseille","lat":43.26929,"lon":5.40257,"is_reserved":false,"is_disabled":false,"rental_uris":{"android":"levelo://app?vid=0ee4abd8-31f5-4b2f-b0b9-318d7620d615","ios":"levelo://app?vid=0ee4abd8-31f5-4b2f-b0b9-318d7620d615"},"vehicle_type_id":"4","last_reported":1748124528,"current_range_meters":11600,"station_id":"cjm6bp8fraef2m0cb0m0","pricing_plan_id":"cebpf4jnsgd1na2vs0mg"},{"bike_id":"edc9a250-ff45-44ca-9858-db821d0b3955","system_id":"levelo_inurba_marseille","lat":43.23198,"lon":5.39977,"is_reserved":false,"is_disabled":false,"rental_uris":{"android":"levelo://app?vid=edc9a250-ff45-44ca-9858-db821d0b3955","ios":"levelo://app?vid=edc9a250-ff45-44ca-9858-db821d0b3955"},"vehicle_type_id":"4","last_reported":1748124528,"current_range_meters":11600,"station_id":"ce4bhn12rcd13ifvqgqg","pricing_plan_id":"cebpf4jnsgd1na2vs0mg"},{"bike_id":"da453a88-f81b-4e0f-9781-5a7f6c1d364c","system_id":"levelo_inurba_marseille","lat":43.337499,"lon":5.374469,"is_reserved":false,"is_disabled":false,"rental_uris":{"android":"levelo://app?vid=da453a88-f81b-4e0f-9781-5a7f6c1d364c","ios":"levelo://app?vid=da453a88-f81b-4e0f-9781-5a7f6c1d364c"},"vehicle_type_id":"4","last_reported":1748124528,"current_range_meters":12000,"station_id":"","pricing_plan_id":"cebpf4jnsgd1na2vs0mg"},{"bike_id":"fbcf01a0-1584-4759-bae4-206a8affdcf9","system_id":"levelo_inurba_marseille","lat":43.33614,"lon":5.41034,"is_reserved":false,"is_disabled":false,"rental_uris":{"android":"levelo://app?vid=fbcf01a0-1584-4759-bae4-206a8affdcf9","ios":"levelo://app?vid=fbcf01a0-1584-4759-bae4-206a8affdcf9"},"vehicle_type_id":"4","last_reported":1748124528,"current_range_meters":12000,"station_id":"ce4bhqh2rcd13ifvqhmg","pricing_plan_id":"cebpf4jnsgd1na2vs0mg"},{"bike_id":"847ace23-4b19-401e-a0a0-62985ebd3598","system_id":"levelo_inurba_marseille","lat":43.28851,"lon":5.39331,"is_reserved":false,"is_disabled":true,"rental_uris":{"android":"levelo://app?vid=847ace23-4b19-401e-a0a0-62985ebd3598","ios":"levelo://app?vid=847ace23-4b19-401e-a0a0-62985ebd3598"},"vehicle_type_id":"4","last_reported":1748124528,"current_range_meters":12000,"station_id":"ce4bh2p2rcd13ifvqdi0","pricing_plan_id":"cebpf4jnsgd1na2vs0mg"},{"bike_id":"e61b71a8-498e-40b2-b424-7cf0d55e284c","system_id":"levelo_inurba_marseille","lat":43.2681,"lon":5.40263,"is_reserved":false,"is_disabled":false,"rental_uris":{"android":"levelo://app?vid=e61b71a8-498e-40b2-b424-7cf0d55e284c","ios":"levelo://app?vid=e61b71a8-498e-40b2-b424-7cf0d55e284c"},"vehicle_type_id":"4","last_reported":1748124528,"current_range_meters":12000,"station_id":"ce501612rcd8frsf0b60","pricing_plan_id":"cebpf4jnsgd1na2vs0mg"},{"bike_id":"9c3c1a29-016d-4c19-afee-e14492377338","system_id":"levelo_inurba_marseille","lat":43.29415,"lon":5.38618,"is_reserved":false,"is_disabled":false,"rental_uris":{"android":"levelo://app?vid=9c3c1a29-016d-4c19-afee-e14492377338","ios":"levelo://app?vid=9c3c1a29-016d-4c19-afee-e14492377338"},"vehicle_type_id":"4","last_reported":1748124528,"current_range_meters":12000,"station_id":"ce4bh2h2rcd13ifvqdh0","pricing_plan_id":"cebpf4jnsgd1na2vs0mg"},{"bike_id":"add85384-f3e3-4627-8f15-11087068eb8b","system_id":"levelo_inurba_marseille","lat":43.28403,"lon":5.37521,"is_reserved":false,"is_disabled":false,"rental_uris":{"android":"levelo://app?vid=add85384-f3e3-4627-8f15-11087068eb8b","ios":"levelo://app?vid=add85384-f3e3-4627-8f15-11087068eb8b"},"vehicle_type_id":"4","last_reported":1748124528,"current_range_meters":12000,"station_id":"ce4bh412rcd13ifvqds0","pricing_plan_id":"cebpf4jnsgd1na2vs0mg"},{"bike_id":"5d04086a-39db-405c-bb50-1166bd0cc4e2","system_id":"levelo_inurba_marseille","lat":43.27425,"lon":5.39416,"is_reserved":false,"is_disabled":false,"rental_uris":{"android":"levelo://app?vid=5d04086a-39db-405c-bb50-1166bd0cc4e2","ios":"levelo://app?vid=5d04086a-39db-405c-bb50-1166bd0cc4e2"},"vehicle_type_id":"4","last_reported":1748124528,"current_range_meters":12400,"station_id":"ce4bhdp2rcd13ifvqf20","pricing_plan_id":"cebpf4jnsgd1na2vs0mg"},{"bike_id":"3016a58e-9ed0-40d4-baa2-11add3a9d9c0","system_id":"levelo_inurba_marseille","lat":43.2694,"lon":5.40256,"is_reserved":false,"is_disabled":false,"rental_uris":{"android":"levelo://app?vid=3016a58e-9ed0-40d4-baa2-11add3a9d9c0","ios":"levelo://app?vid=3016a58e-9ed0-40d4-baa2-11add3a9d9c0"},"vehicle_type_id":"4","last_reported":1748124528,"current_range_meters":12400,"station_id":"cjm6bp8fraef2m0cb0m0","pricing_plan_id":"cebpf4jnsgd1na2vs0mg"},{"bike_id":"84670998-9aaf-4821-b809-d8dbbb1dc5c1","system_id":"levelo_inurba_marseille","lat":43.270738,"lon":5.392886,"is_reserved":false,"is_disabled":false,"rental_uris":{"android":"levelo://app?vid=84670998-9aaf-4821-b809-d8dbbb1dc5c1","ios":"levelo://app?vid=84670998-9aaf-4821-b809-d8dbbb1dc5c1"},"vehicle_type_id":"4","last_reported":1748124528,"current_range_meters":12400,"station_id":"","pricing_plan_id":"cebpf4jnsgd1na2vs0mg"},{"bike_id":"45c44ff5-c280-4702-80e0-d25bf2ed14cd","system_id":"levelo_inurba_marseille","lat":43.26956,"lon":5.4028,"is_reserved":false,"is_disabled":false,"rental_uris":{"android":"levelo://app?vid=45c44ff5-c280-4702-80e0-d25bf2ed14cd","ios":"levelo://app?vid=45c44ff5-c280-4702-80e0-d25bf2ed14cd"},"vehicle_type_id":"4","last_reported":1748124528,"current_range_meters":12400,"station_id":"cjm6bp8fraef2m0cb0m0","pricing_plan_id":"cebpf4jnsgd1na2vs0mg"},{"bike_id":"457e301f-c09e-4d19-9c16-5c91f0ed99fe","system_id":"levelo_inurba_marseille","lat":43.29023,"lon":5.38127,"is_reserved":false,"is_disabled":false,"rental_uris":{"android":"levelo://app?vid=457e301f-c09e-4d19-9c16-5c91f0ed99fe","ios":"levelo://app?vid=457e301f-c09e-4d19-9c16-5c91f0ed99fe"},"vehicle_type_id":"4","last_reported":1748124528,"current_range_meters":12400,"station_id":"ce4bh4p2rcd13ifvqe1g","pricing_plan_id":"cebpf4jnsgd1na2vs0mg"},{"bike_id":"57d3f697-0606-47c6-bf97-482d6a1b5410","system_id":"levelo_inurba_marseille","lat":43.24686,"lon":5.38173,"is_reserved":false,"is_disabled":false,"rental_uris":{"android":"levelo://app?vid=57d3f697-0606-47c6-bf97-482d6a1b5410","ios":"levelo://app?vid=57d3f697-0606-47c6-bf97-482d6a1b5410"},"vehicle_type_id":"4","last_reported":1748124528,"current_range_meters":12400,"station_id":"ce4bhih2rcd13ifvqfr0","pricing_plan_id":"cebpf4jnsgd1na2vs0mg"},{"bike_id":"864ac3b2-136a-4dc9-80f9-30dea8edbd33","system_id":"levelo_inurba_marseille","lat":43.25112,"lon":5.40332,"is_reserved":false,"is_disabled":false,"rental_uris":{"android":"levelo://app?vid=864ac3b2-136a-4dc9-80f9-30dea8edbd33","ios":"levelo://app?vid=864ac3b2-136a-4dc9-80f9-30dea8edbd33"},"vehicle_type_id":"4","last_reported":1748124528,"current_range_meters":12800,"station_id":"ce4bhlh2rcd13ifvqgig","pricing_plan_id":"cebpf4jnsgd1na2vs0mg"},{"bike_id":"adda7448-f342-4b81-9e8c-4e5211b53b6f","system_id":"levelo_inurba_marseille","lat":43.26772,"lon":5.39411,"is_reserved":false,"is_disabled":false,"rental_uris":{"android":"levelo://app?vid=adda7448-f342-4b81-9e8c-4e5211b53b6f","ios":"levelo://app?vid=adda7448-f342-4b81-9e8c-4e5211b53b6f"},"vehicle_type_id":"4","last_reported":1748124528,"current_range_meters":12800,"station_id":"ce4bhh12rcd13ifvqfg0","pricing_plan_id":"cebpf4jnsgd1na2vs0mg"},{"bike_id":"4f0adb5e-fcbf-4d9c-9091-a2bbf83763a0","system_id":"levelo_inurba_marseille","lat":43.2707,"lon":5.42266,"is_reserved":false,"is_disabled":false,"rental_uris":{"android":"levelo://app?vid=4f0adb5e-fcbf-4d9c-9091-a2bbf83763a0","ios":"levelo://app?vid=4f0adb5e-fcbf-4d9c-9091-a2bbf83763a0"},"vehicle_type_id":"4","last_reported":1748124528,"current_range_meters":12800,"station_id":"ce4bhk92rcd13ifvqgb0","pricing_plan_id":"cebpf4jnsgd1na2vs0mg"},{"bike_id":"b1361d75-182d-479b-9382-560c50ea1a0f","system_id":"levelo_inurba_marseille","lat":43.25085,"lon":5.39524,"is_reserved":false,"is_disabled":false,"rental_uris":{"android":"levelo://app?vid=b1361d75-182d-479b-9382-560c50ea1a0f","ios":"levelo://app?vid=b1361d75-182d-479b-9382-560c50ea1a0f"},"vehicle_type_id":"4","last_reported":1748124528,"current_range_meters":12800,"station_id":"ce4bhm12rcd13ifvqgkg","pricing_plan_id":"cebpf4jnsgd1na2vs0mg"},{"bike_id":"5dec1043-71e0-4d11-ba39-7dc964faa198","system_id":"levelo_inurba_marseille","lat":43.27908,"lon":5.38004,"is_reserved":false,"is_disabled":false,"rental_uris":{"android":"levelo://app?vid=5dec1043-71e0-4d11-ba39-7dc964faa198","ios":"levelo://app?vid=5dec1043-71e0-4d11-ba39-7dc964faa198"},"vehicle_type_id":"4","last_reported":1748124528,"current_range_meters":12800,"station_id":"ce4bhf92rcd13ifvqf50","pricing_plan_id":"cebpf4jnsgd1na2vs0mg"},{"bike_id":"369ac760-147d-4726-8333-6cc1aa63ad28","system_id":"levelo_inurba_marseille","lat":43.27947,"lon":5.38423,"is_reserved":false,"is_disabled":false,"rental_uris":{"android":"levelo://app?vid=369ac760-147d-4726-8333-6cc1aa63ad28","ios":"levelo://app?vid=369ac760-147d-4726-8333-6cc1aa63ad28"},"vehicle_type_id":"4","last_reported":1748124528,"current_range_meters":12800,"station_id":"","pricing_plan_id":"cebpf4jnsgd1na2vs0mg"},{"bike_id":"5abb8a77-fbf0-4d21-805b-29790cff0e49","system_id":"levelo_inurba_marseille","lat":43.31102,"lon":5.42467,"is_reserved":false,"is_disabled":false,"rental_uris":{"android":"levelo://app?vid=5abb8a77-fbf0-4d21-805b-29790cff0e49","ios":"levelo://app?vid=5abb8a77-fbf0-4d21-805b-29790cff0e49"},"vehicle_type_id":"4","last_reported":1748124528,"current_range_meters":12800,"station_id":"ce4bhp92rcd13ifvqhag","pricing_plan_id":"cebpf4jnsgd1na2vs0mg"},{"bike_id":"e9c85e81-7ad5-4168-8f6a-f08e3bc9753f","system_id":"levelo_inurba_marseille","lat":43.26572,"lon":5.38984,"is_reserved":false,"is_disabled":false,"rental_uris":{"android":"levelo://app?vid=e9c85e81-7ad5-4168-8f6a-f08e3bc9753f","ios":"levelo://app?vid=e9c85e81-7ad5-4168-8f6a-f08e3bc9753f"},"vehicle_type_id":"4","last_reported":1748124528,"current_range_meters":12800,"station_id":"ce4bhe12rcd13ifvqf30","pricing_plan_id":"cebpf4jnsgd1na2vs0mg"},{"bike_id":"7360f3d2-fce4-4cfe-a438-b950b586cfe5","system_id":"levelo_inurba_marseille","lat":43.28416,"lon":5.37488,"is_reserved":false,"is_disabled":false,"rental_uris":{"android":"levelo://app?vid=7360f3d2-fce4-4cfe-a438-b950b586cfe5","ios":"levelo://app?vid=7360f3d2-fce4-4cfe-a438-b950b586cfe5"},"vehicle_type_id":"4","last_reported":1748124528,"current_range_meters":13600,"station_id":"ce4bh412rcd13ifvqds0","pricing_plan_id":"cebpf4jnsgd1na2vs0mg"},{"bike_id":"264d8cef-6a27-4c12-9c8f-846b36316b81","system_id":"levelo_inurba_marseille","lat":43.25826,"lon":5.39427,"is_reserved":false,"is_disabled":false,"rental_uris":{"android":"levelo://app?vid=264d8cef-6a27-4c12-9c8f-846b36316b81","ios":"levelo://app?vid=264d8cef-6a27-4c12-9c8f-846b36316b81"},"vehicle_type_id":"4","last_reported":1748124528,"current_range_meters":13600,"station_id":"ce4bhip2rcd13ifvqft0","pricing_plan_id":"cebpf4jnsgd1na2vs0mg"},{"bike_id":"957716b1-4683-4e78-b0bb-3f29eb4e5161","system_id":"levelo_inurba_marseille","lat":43.28215,"lon":5.39041,"is_reserved":false,"is_disabled":false,"rental_uris":{"android":"levelo://app?vid=957716b1-4683-4e78-b0bb-3f29eb4e5161","ios":"levelo://app?vid=957716b1-4683-4e78-b0bb-3f29eb4e5161"},"vehicle_type_id":"4","last_reported":1748124528,"current_range_meters":13600,"station_id":"","pricing_plan_id":"cebpf4jnsgd1na2vs0mg"},{"bike_id":"50cb89bb-9ce5-41fd-87f5-c89d543abf71","system_id":"levelo_inurba_marseille","lat":43.27915,"lon":5.39575,"is_reserved":false,"is_disabled":false,"rental_uris":{"android":"levelo://app?vid=50cb89bb-9ce5-41fd-87f5-c89d543abf71","ios":"levelo://app?vid=50cb89bb-9ce5-41fd-87f5-c89d543abf71"},"vehicle_type_id":"4","last_reported":1748124528,"current_range_meters":13600,"station_id":"ce4bhf92rcd13ifvqf40","pricing_plan_id":"cebpf4jnsgd1na2vs0mg"},{"bike_id":"2a215a0c-bca6-4bd6-be30-354876dd0bbe","system_id":"levelo_inurba_marseille","lat":43.27659,"lon":5.38851,"is_reserved":false,"is_disabled":false,"rental_uris":{"android":"levelo://app?vid=2a215a0c-bca6-4bd6-be30-354876dd0bbe","ios":"levelo://app?vid=2a215a0c-bca6-4bd6-be30-354876dd0bbe"},"vehicle_type_id":"4","last_reported":1748124528,"current_range_meters":13600,"station_id":"ce4bhi12rcd13ifvqfo0","pricing_plan_id":"cebpf4jnsgd1na2vs0mg"},{"bike_id":"d797e643-aa9e-474a-b05d-bc9db7ee9f02","system_id":"levelo_inurba_marseille","lat":43.24801,"lon":5.37443,"is_reserved":false,"is_disabled":false,"rental_uris":{"android":"levelo://app?vid=d797e643-aa9e-474a-b05d-bc9db7ee9f02","ios":"levelo://app?vid=d797e643-aa9e-474a-b05d-bc9db7ee9f02"},"vehicle_type_id":"4","last_reported":1748124528,"current_range_meters":13600,"station_id":"ce4bhgh2rcd13ifvqfb0","pricing_plan_id":"cebpf4jnsgd1na2vs0mg"},{"bike_id":"688b0695-cbc7-4359-b0c4-b84934a3057c","system_id":"levelo_inurba_marseille","lat":43.26945,"lon":5.40243,"is_reserved":false,"is_disabled":false,"rental_uris":{"android":"levelo://app?vid=688b0695-cbc7-4359-b0c4-b84934a3057c","ios":"levelo://app?vid=688b0695-cbc7-4359-b0c4-b84934a3057c"},"vehicle_type_id":"4","last_reported":1748124528,"current_range_meters":13600,"station_id":"cjm6bp8fraef2m0cb0m0","pricing_plan_id":"cebpf4jnsgd1na2vs0mg"},{"bike_id":"2f03c2fb-b0e6-4dd3-8ae8-9e2ead738d93","system_id":"levelo_inurba_marseille","lat":43.2407,"lon":5.37762,"is_reserved":false,"is_disabled":false,"rental_uris":{"android":"levelo://app?vid=2f03c2fb-b0e6-4dd3-8ae8-9e2ead738d93","ios":"levelo://app?vid=2f03c2fb-b0e6-4dd3-8ae8-9e2ead738d93"},"vehicle_type_id":"4","last_reported":1748124528,"current_range_meters":13600,"station_id":"ce4bhnp2rcd13ifvqgvg","pricing_plan_id":"cebpf4jnsgd1na2vs0mg"},{"bike_id":"9e1fa971-373a-4050-8f0b-2e76f97d2fc3","system_id":"levelo_inurba_marseille","lat":43.25862,"lon":5.39898,"is_reserved":false,"is_disabled":false,"rental_uris":{"android":"levelo://app?vid=9e1fa971-373a-4050-8f0b-2e76f97d2fc3","ios":"levelo://app?vid=9e1fa971-373a-4050-8f0b-2e76f97d2fc3"},"vehicle_type_id":"4","last_reported":1748124528,"current_range_meters":13600,"station_id":"ce4bhl92rcd13ifvqghg","pricing_plan_id":"cebpf4jnsgd1na2vs0mg"},{"bike_id":"09bb191e-40ae-496c-b98c-78abc6e7dce1","system_id":"levelo_inurba_marseille","lat":43.25497,"lon":5.37655,"is_reserved":false,"is_disabled":false,"rental_uris":{"android":"levelo://app?vid=09bb191e-40ae-496c-b98c-78abc6e7dce1","ios":"levelo://app?vid=09bb191e-40ae-496c-b98c-78abc6e7dce1"},"vehicle_type_id":"4","last_reported":1748124528,"current_range_meters":13600,"station_id":"ce4bhh12rcd13ifvqff0","pricing_plan_id":"cebpf4jnsgd1na2vs0mg"},{"bike_id":"7c320c1b-fb02-4806-9e80-37a7ccc7f401","system_id":"levelo_inurba_marseille","lat":43.231994,"lon":5.355531,"is_reserved":false,"is_disabled":false,"rental_uris":{"android":"levelo://app?vid=7c320c1b-fb02-4806-9e80-37a7ccc7f401","ios":"levelo://app?vid=7c320c1b-fb02-4806-9e80-37a7ccc7f401"},"vehicle_type_id":"4","last_reported":1748124528,"current_range_meters":14000,"station_id":"ce4bhu92rcd13ifvqi70","pricing_plan_id":"cebpf4jnsgd1na2vs0mg"},{"bike_id":"bb742705-66e4-4e0d-88ce-e3066b2d3fde","system_id":"levelo_inurba_marseille","lat":43.29634,"lon":5.40601,"is_reserved":false,"is_disabled":false,"rental_uris":{"android":"levelo://app?vid=bb742705-66e4-4e0d-88ce-e3066b2d3fde","ios":"levelo://app?vid=bb742705-66e4-4e0d-88ce-e3066b2d3fde"},"vehicle_type_id":"4","last_reported":1748124528,"current_range_meters":14000,"station_id":"ce4bh0h2rcd13ifvqd60","pricing_plan_id":"cebpf4jnsgd1na2vs0mg"},{"bike_id":"689832fd-700b-44cc-b355-a7879317a987","system_id":"levelo_inurba_marseille","lat":43.306483,"lon":5.400773,"is_reserved":false,"is_disabled":false,"rental_uris":{"android":"levelo://app?vid=689832fd-700b-44cc-b355-a7879317a987","ios":"levelo://app?vid=689832fd-700b-44cc-b355-a7879317a987"},"vehicle_type_id":"4","last_reported":1748124528,"current_range_meters":14000,"station_id":"ce4bh112rcd13ifvqda0","pricing_plan_id":"cebpf4jnsgd1na2vs0mg"},{"bike_id":"4887caa2-0780-41a6-b3f8-f657a91b408b","system_id":"levelo_inurba_marseille","lat":43.286682,"lon":5.383332,"is_reserved":false,"is_disabled":false,"rental_uris":{"android":"levelo://app?vid=4887caa2-0780-41a6-b3f8-f657a91b408b","ios":"levelo://app?vid=4887caa2-0780-41a6-b3f8-f657a91b408b"},"vehicle_type_id":"4","last_reported":1748124528,"current_range_meters":14000,"station_id":"ce4bh492rcd13ifvqdug","pricing_plan_id":"cebpf4jnsgd1na2vs0mg"},{"bike_id":"16bd85df-ac0e-4a12-ac7a-a0ce1ef4e0a6","system_id":"levelo_inurba_marseille","lat":43.27949,"lon":5.38701,"is_reserved":false,"is_disabled":false,"rental_uris":{"android":"levelo://app?vid=16bd85df-ac0e-4a12-ac7a-a0ce1ef4e0a6","ios":"levelo://app?vid=16bd85df-ac0e-4a12-ac7a-a0ce1ef4e0a6"},"vehicle_type_id":"4","last_reported":1748124528,"current_range_meters":14400,"station_id":"ce4bhg12rcd13ifvqf80","pricing_plan_id":"cebpf4jnsgd1na2vs0mg"},{"bike_id":"d5bdfd9d-f3bc-480c-8079-47223e5618b2","system_id":"levelo_inurba_marseille","lat":43.28852,"lon":5.39293,"is_reserved":false,"is_disabled":false,"rental_uris":{"android":"levelo://app?vid=d5bdfd9d-f3bc-480c-8079-47223e5618b2","ios":"levelo://app?vid=d5bdfd9d-f3bc-480c-8079-47223e5618b2"},"vehicle_type_id":"4","last_reported":1748124528,"current_range_meters":14400,"station_id":"ce4bh2p2rcd13ifvqdi0","pricing_plan_id":"cebpf4jnsgd1na2vs0mg"},{"bike_id":"ef36d46f-f439-46cc-a44f-a93da2212d71","system_id":"levelo_inurba_marseille","lat":43.305477,"lon":5.365495,"is_reserved":false,"is_disabled":false,"rental_uris":{"android":"levelo://app?vid=ef36d46f-f439-46cc-a44f-a93da2212d71","ios":"levelo://app?vid=ef36d46f-f439-46cc-a44f-a93da2212d71"},"vehicle_type_id":"4","last_reported":1748124528,"current_range_meters":14400,"station_id":"ce4bgs12rcd13ifvqcag","pricing_plan_id":"cebpf4jnsgd1na2vs0mg"},{"bike_id":"7ccb5967-b44e-4696-a291-c80afeb45cd9","system_id":"levelo_inurba_marseille","lat":43.30795,"lon":5.37663,"is_reserved":false,"is_disabled":false,"rental_uris":{"android":"levelo://app?vid=7ccb5967-b44e-4696-a291-c80afeb45cd9","ios":"levelo://app?vid=7ccb5967-b44e-4696-a291-c80afeb45cd9"},"vehicle_type_id":"4","last_reported":1748124528,"current_range_meters":14400,"station_id":"ce4bgv92rcd13ifvqcq0","pricing_plan_id":"cebpf4jnsgd1na2vs0mg"},{"bike_id":"503e77ba-d207-4c9b-9afd-725500ea3736","system_id":"levelo_inurba_marseille","lat":43.282609,"lon":5.350579,"is_reserved":false,"is_disabled":false,"rental_uris":{"android":"levelo://app?vid=503e77ba-d207-4c9b-9afd-725500ea3736","ios":"levelo://app?vid=503e77ba-d207-4c9b-9afd-725500ea3736"},"vehicle_type_id":"4","last_reported":1748124528,"current_range_meters":14400,"station_id":"ce4bhbp2rcd13ifvqerg","pricing_plan_id":"cebpf4jnsgd1na2vs0mg"},{"bike_id":"2c9d4d00-7a63-473d-b55c-c423bc06eb22","system_id":"levelo_inurba_marseille","lat":43.307832,"lon":5.376508,"is_reserved":false,"is_disabled":false,"rental_uris":{"android":"levelo://app?vid=2c9d4d00-7a63-473d-b55c-c423bc06eb22","ios":"levelo://app?vid=2c9d4d00-7a63-473d-b55c-c423bc06eb22"},"vehicle_type_id":"4","last_reported":1748124528,"current_range_meters":14400,"station_id":"ce4bgv92rcd13ifvqcq0","pricing_plan_id":"cebpf4jnsgd1na2vs0mg"},{"bike_id":"ecb32243-b1ae-48ee-ba8a-a6b1ef5bb8ad","system_id":"levelo_inurba_marseille","lat":43.27345,"lon":5.39103,"is_reserved":false,"is_disabled":false,"rental_uris":{"android":"levelo://app?vid=ecb32243-b1ae-48ee-ba8a-a6b1ef5bb8ad","ios":"levelo://app?vid=ecb32243-b1ae-48ee-ba8a-a6b1ef5bb8ad"},"vehicle_type_id":"4","last_reported":1748124528,"current_range_meters":14400,"station_id":"ce4bhgp2rcd13ifvqfe0","pricing_plan_id":"cebpf4jnsgd1na2vs0mg"},{"bike_id":"cad06a48-5d5e-4efb-bea6-69c2a06fa63c","system_id":"levelo_inurba_marseille","lat":43.31492,"lon":5.37314,"is_reserved":false,"is_disabled":false,"rental_uris":{"android":"levelo://app?vid=cad06a48-5d5e-4efb-bea6-69c2a06fa63c","ios":"levelo://app?vid=cad06a48-5d5e-4efb-bea6-69c2a06fa63c"},"vehicle_type_id":"4","last_reported":1748124528,"current_range_meters":14400,"station_id":"ce4bgt12rcd13ifvqcd0","pricing_plan_id":"cebpf4jnsgd1na2vs0mg"},{"bike_id":"184a3620-b4c0-433f-8b91-4902c4030fe6","system_id":"levelo_inurba_marseille","lat":43.31226,"lon":5.3685,"is_reserved":false,"is_disabled":false,"rental_uris":{"android":"levelo://app?vid=184a3620-b4c0-433f-8b91-4902c4030fe6","ios":"levelo://app?vid=184a3620-b4c0-433f-8b91-4902c4030fe6"},"vehicle_type_id":"4","last_reported":1748124528,"current_range_meters":14800,"station_id":"ce4bgl92rcd13ifvqbq0","pricing_plan_id":"cebpf4jnsgd1na2vs0mg"},{"bike_id":"556a24db-7866-4327-b0d4-7a8afa5fa687","system_id":"levelo_inurba_marseille","lat":43.29448,"lon":5.39753,"is_reserved":false,"is_disabled":false,"rental_uris":{"android":"levelo://app?vid=556a24db-7866-4327-b0d4-7a8afa5fa687","ios":"levelo://app?vid=556a24db-7866-4327-b0d4-7a8afa5fa687"},"vehicle_type_id":"4","last_reported":1748124528,"current_range_meters":14400,"station_id":"ce4bh3h2rcd13ifvqdo0","pricing_plan_id":"cebpf4jnsgd1na2vs0mg"},{"bike_id":"d294229d-0afe-4675-ae8a-a0bb5339eba4","system_id":"levelo_inurba_marseille","lat":43.284197,"lon":5.358471,"is_reserved":false,"is_disabled":false,"rental_uris":{"android":"levelo://app?vid=d294229d-0afe-4675-ae8a-a0bb5339eba4","ios":"levelo://app?vid=d294229d-0afe-4675-ae8a-a0bb5339eba4"},"vehicle_type_id":"4","last_reported":1748124528,"current_range_meters":14800,"station_id":"ce4bhah2rcd13ifvqei0","pricing_plan_id":"cebpf4jnsgd1na2vs0mg"},{"bike_id":"e1cf8163-4b5c-4780-8a60-df2512b3ddef","system_id":"levelo_inurba_marseille","lat":43.254988,"lon":5.376532,"is_reserved":false,"is_disabled":false,"rental_uris":{"android":"levelo://app?vid=e1cf8163-4b5c-4780-8a60-df2512b3ddef","ios":"levelo://app?vid=e1cf8163-4b5c-4780-8a60-df2512b3ddef"},"vehicle_type_id":"4","last_reported":1748124528,"current_range_meters":14800,"station_id":"ce4bhh12rcd13ifvqff0","pricing_plan_id":"cebpf4jnsgd1na2vs0mg"},{"bike_id":"3cbb1fd3-7e86-46f8-975e-8204a2854c03","system_id":"levelo_inurba_marseille","lat":43.23152,"lon":5.437192,"is_reserved":false,"is_disabled":false,"rental_uris":{"android":"levelo://app?vid=3cbb1fd3-7e86-46f8-975e-8204a2854c03","ios":"levelo://app?vid=3cbb1fd3-7e86-46f8-975e-8204a2854c03"},"vehicle_type_id":"4","last_reported":1748124528,"current_range_meters":14800,"station_id":"ce4bhmp2rcd13ifvqgog","pricing_plan_id":"cebpf4jnsgd1na2vs0mg"},{"bike_id":"1b95e216-6b3e-4dd5-a706-d4abbfe8b7cc","system_id":"levelo_inurba_marseille","lat":43.27076,"lon":5.39288,"is_reserved":false,"is_disabled":false,"rental_uris":{"android":"levelo://app?vid=1b95e216-6b3e-4dd5-a706-d4abbfe8b7cc","ios":"levelo://app?vid=1b95e216-6b3e-4dd5-a706-d4abbfe8b7cc"},"vehicle_type_id":"4","last_reported":1748124528,"current_range_meters":14800,"station_id":"","pricing_plan_id":"cebpf4jnsgd1na2vs0mg"},{"bike_id":"17311fd0-7af3-41e1-9614-8c83aaa86d24","system_id":"levelo_inurba_marseille","lat":43.3059,"lon":5.39354,"is_reserved":false,"is_disabled":false,"rental_uris":{"android":"levelo://app?vid=17311fd0-7af3-41e1-9614-8c83aaa86d24","ios":"levelo://app?vid=17311fd0-7af3-41e1-9614-8c83aaa86d24"},"vehicle_type_id":"4","last_reported":1748124528,"current_range_meters":14800,"station_id":"ce4bh0p2rcd13ifvqd80","pricing_plan_id":"cebpf4jnsgd1na2vs0mg"},{"bike_id":"1adfb451-0a8b-42a4-8cf3-78386b3f3b61","system_id":"levelo_inurba_marseille","lat":43.30914,"lon":5.40134,"is_reserved":false,"is_disabled":false,"rental_uris":{"android":"levelo://app?vid=1adfb451-0a8b-42a4-8cf3-78386b3f3b61","ios":"levelo://app?vid=1adfb451-0a8b-42a4-8cf3-78386b3f3b61"},"vehicle_type_id":"4","last_reported":1748124528,"current_range_meters":14800,"station_id":"ce4bgvp2rcd13ifvqct0","pricing_plan_id":"cebpf4jnsgd1na2vs0mg"},{"bike_id":"a52329a0-2e8d-4431-ac9c-f4c73afaf650","system_id":"levelo_inurba_marseille","lat":43.29581,"lon":5.36741,"is_reserved":false,"is_disabled":false,"rental_uris":{"android":"levelo://app?vid=a52329a0-2e8d-4431-ac9c-f4c73afaf650","ios":"levelo://app?vid=a52329a0-2e8d-4431-ac9c-f4c73afaf650"},"vehicle_type_id":"4","last_reported":1748124528,"current_range_meters":15200,"station_id":"ce4bgph2rcd13ifvqc2g","pricing_plan_id":"cebpf4jnsgd1na2vs0mg"},{"bike_id":"d349e55b-baf8-4988-ac82-d290afa60cdc","system_id":"levelo_inurba_marseille","lat":43.29575,"lon":5.39968,"is_reserved":false,"is_disabled":false,"rental_uris":{"android":"levelo://app?vid=d349e55b-baf8-4988-ac82-d290afa60cdc","ios":"levelo://app?vid=d349e55b-baf8-4988-ac82-d290afa60cdc"},"vehicle_type_id":"4","last_reported":1748124528,"current_range_meters":15200,"station_id":"ce4bh312rcd13ifvqdj0","pricing_plan_id":"cebpf4jnsgd1na2vs0mg"},{"bike_id":"75462091-2d8e-4ce5-92e3-db45030d037c","system_id":"levelo_inurba_marseille","lat":43.25117,"lon":5.40316,"is_reserved":false,"is_disabled":false,"rental_uris":{"android":"levelo://app?vid=75462091-2d8e-4ce5-92e3-db45030d037c","ios":"levelo://app?vid=75462091-2d8e-4ce5-92e3-db45030d037c"},"vehicle_type_id":"4","last_reported":1748124528,"current_range_meters":15200,"station_id":"ce4bhlh2rcd13ifvqgig","pricing_plan_id":"cebpf4jnsgd1na2vs0mg"},{"bike_id":"3e7309ec-0c09-4e00-b613-a5b2d22da14a","system_id":"levelo_inurba_marseille","lat":43.30952,"lon":5.39034,"is_reserved":false,"is_disabled":false,"rental_uris":{"android":"levelo://app?vid=3e7309ec-0c09-4e00-b613-a5b2d22da14a","ios":"levelo://app?vid=3e7309ec-0c09-4e00-b613-a5b2d22da14a"},"vehicle_type_id":"4","last_reported":1748124528,"current_range_meters":15200,"station_id":"ce4bgup2rcd13ifvqco0","pricing_plan_id":"cebpf4jnsgd1na2vs0mg"},{"bike_id":"fd5cb310-28d1-4f9c-86a9-41cd33b4a295","system_id":"levelo_inurba_marseille","lat":43.30938,"lon":5.40145,"is_reserved":false,"is_disabled":false,"rental_uris":{"android":"levelo://app?vid=fd5cb310-28d1-4f9c-86a9-41cd33b4a295","ios":"levelo://app?vid=fd5cb310-28d1-4f9c-86a9-41cd33b4a295"},"vehicle_type_id":"4","last_reported":1748124528,"current_range_meters":15200,"station_id":"ce4bgvp2rcd13ifvqct0","pricing_plan_id":"cebpf4jnsgd1na2vs0mg"},