{"last_updated":1724684902,"ttl":30,"version":"2.2","data":{"bikes":[{"bike_id":"2b53fb9b-e0ef-40c7-b9d3-67dfb96286af","system_id":"levelo_inurba_marseille","lat":43.31235,"lon":5.36856,"is_reserved":false,"is_disabled":false,"rental_uris":{"android":"levelo://app?vid=2b53fb9b-e0ef-40c7-b9d3-67dfb96286af","ios":"levelo://app?vid=2b53fb9b-e0ef-40c7-b9d3-67dfb96286af"},"vehicle_type_id":"4","last_reported":1724684902,"current_range_meters":26000,"station_id":"ce4bgl92rcd13ifvqbq0","pricing_plan_id":"cebpf4jnsgd1na2vs0mg"},{"bike_id":"708f4261-0af1-4a6e-ab3e-807546bd9d9e","system_id":"levelo_inurba_marseille","lat":43.312239,"lon":5.368562,"is_reserved":false,"is_disabled":false,"rental_uris":{"android":"levelo://app?vid=708f4261-0af1-4a6e-ab3e-807546bd9d9e","ios":"levelo://app?vid=708f4261-0af1-4a6e-ab3e-807546bd9d9e"},"vehicle_type_id":"4","last_reported":1724684902,"current_range_meters":28800,"station_id":"ce4bgl92rcd13ifvqbq0","pricing_plan_id":"cebpf4jnsgd1na2vs0mg"},{"bike_id":"7773577d-544f-4c60-bf8e-bad1c221b7b4","system_id":"levelo_inurba_marseille","lat":43.31221,"lon":5.368554,"is_reserved":false,"is_disabled":false,"rental_uris":{"android":"levelo://app?vid=7773577d-544f-4c60-bf8e-bad1c221b7b4","ios":"levelo://app?vid=7773577d-544f-4c60-bf8e-bad1c221b7b4"},"vehicle_type_id":"4","last_reported":1724684902,"current_range_meters":20000,"station_id":"ce4bgl92rcd13ifvqbq0","pricing_plan_id":"cebpf4jnsgd1na2vs0mg"},{"bike_id":"a4fe9124-accd-4a4e-a021-b3b07c17e39f","system_id":"levelo_inurba_marseille","lat":43.3149,"lon":5.37306,"is_reserved":false,"is_disabled":false,"rental_uris":{"android":"levelo://app?vid=a4fe9124-accd-4a4e-a021-b3b07c17e39f","ios":"levelo://app?vid=a4fe9124-accd-4a4e-a021-b3b07c17e39f"},"vehicle_type_id":"4","last_reported":1724684902,"current_range_meters":0,"station_id":"ce4bgt12rcd13ifvqcd0","pricing_plan_id":"cebpf4jnsgd1na2vs0mg"},{"bike_id":"f5f88371-9068-4b6b-aefc-36b3f48fb461","system_id":"levelo_inurba_marseille","lat":43.314811,"lon":5.373103,"is_reserved":false,"is_disabled":false,"rental_uris":{"android":"levelo://app?vid=f5f88371-9068-4b6b-aefc-36b3f48fb461","ios":"levelo://app?vid=f5f88371-9068-4b6b-aefc-36b3f48fb461"},"vehicle_type_id":"4","last_reported":1724684902,"current_range_meters":27600,"station_id":"ce4bgt12rcd13ifvqcd0","pricing_plan_id":"cebpf4jnsgd1na2vs0mg"},{"bike_id":"df8d558a-5eb3-4aa5-a3be-18ff000daa9c","system_id":"levelo_inurba_marseille","lat":43.309034,"lon":5.371783,"is_reserved":false,"is_disabled":false,"rental_uris":{"android":"levelo://app?vid=df8d558a-5eb3-4aa5-a3be-18ff000daa9c","ios":"levelo://app?vid=df8d558a-5eb3-4aa5-a3be-18ff000daa9c"},"vehicle_type_id":"4","last_reported":1724684902,"current_range_meters":22000,"station_id":"ce4bguh2rcd13ifvqckg","pricing_plan_id":"cebpf4jnsgd1na2vs0mg"},{"bike_id":"bb493553-6ee4-40be-8562-5503eca70d20","system_id":"levelo_inurba_marseille","lat":43.30919,"lon":5.37517,"is_reserved":false,"is_disabled":false,"rental_uris":{"android":"levelo://app?vid=bb493553-6ee4-40be-8562-5503eca70d20","ios":"levelo://app?vid=bb493553-6ee4-40be-8562-5503eca70d20"},"vehicle_type_id":"4","last_reported":1724684902,"current_range_meters":4000,"station_id":"","pricing_plan_id":"cebpf4jnsgd1na2vs0mg"},{"bike_id":"65509219-2a4d-46b5-a2d4-dde2cf4a1ae0","system_id":"levelo_inurba_marseille","lat":43.305592,"lon":5.365486,"is_reserved":false,"is_disabled":false,"rental_uris":{"android":"levelo://app?vid=65509219-2a4d-46b5-a2d4-dde2cf4a1ae0","ios":"levelo://app?vid=65509219-2a4d-46b5-a2d4-dde2cf4a1ae0"},"vehicle_type_id":"4","last_reported":1724684902,"current_range_meters":14000,"station_id":"ce4bgs12rcd13ifvqcag","pricing_plan_id":"cebpf4jnsgd1na2vs0mg"},{"bike_id":"4f009117-32cb-49df-8385-573928506dcb","system_id":"levelo_inurba_marseille","lat":43.30557,"lon":5.36537,"is_reserved":false,"is_disabled":false,"rental_uris":{"android":"levelo://app?vid=4f009117-32cb-49df-8385-573928506dcb","ios":"levelo://app?vid=4f009117-32cb-49df-8385-573928506dcb"},"vehicle_type_id":"4","last_reported":1724684902,"current_range_meters":26000,"station_id":"ce4bgs12rcd13ifvqcag","pricing_plan_id":"cebpf4jnsgd1na2vs0mg"},{"bike_id":"964fb625-0fd9-4341-a16b-0235c17ba9a7","system_id":"levelo_inurba_marseille","lat":43.305368,"lon":5.367343,"is_reserved":false,"is_disabled":false,"rental_uris":{"android":"levelo://app?vid=964fb625-0fd9-4341-a16b-0235c17ba9a7","ios":"levelo://app?vid=964fb625-0fd9-4341-a16b-0235c17ba9a7"},"vehicle_type_id":"4","last_reported":1724684902,"current_range_meters":24400,"station_id":"ce4bgrp2rcd13ifvqc9g","pricing_plan_id":"cebpf4jnsgd1na2vs0mg"},{"bike_id":"a6ba3b64-a493-475a-911b-33a70404a232","system_id":"levelo_inurba_marseille","lat":43.305712,"lon":5.365641,"is_reserved":false,"is_disabled":false,"rental_uris":{"android":"levelo://app?vid=a6ba3b64-a493-475a-911b-33a70404a232","ios":"levelo://app?vid=a6ba3b64-a493-475a-911b-33a70404a232"},"vehicle_type_id":"4","last_reported":1724684902,"current_range_meters":4000,"station_id":"ce4bgs12rcd13ifvqcag","pricing_plan_id":"cebpf4jnsgd1na2vs0mg"},{"bike_id":"5edd57d1-bb8f-4236-b519-cf7e9a7c5279","system_id":"levelo_inurba_marseille","lat":43.305706,"lon":5.365654,"is_reserved":false,"is_disabled":false,"rental_uris":{"android":"levelo://app?vid=5edd57d1-bb8f-4236-b519-cf7e9a7c5279","ios":"levelo://app?vid=5edd57d1-bb8f-4236-b519-cf7e9a7c5279"},"vehicle_type_id":"4","last_reported":1724684902,"current_range_meters":18000,"station_id":"ce4bgs12rcd13ifvqcag","pricing_plan_id":"cebpf4jnsgd1na2vs0mg"},{"bike_id":"b418fda1-3c53-4f0f-b275-59f6adf3a5ef","system_id":"levelo_inurba_marseille","lat":43.305714,"lon":5.365633,"is_reserved":false,"is_disabled":false,"rental_uris":{"android":"levelo://app?vid=b418fda1-3c53-4f0f-b275-59f6adf3a5ef","ios":"levelo://app?vid=b418fda1-3c53-4f0f-b275-59f6adf3a5ef"},"vehicle_type_id":"4","last_reported":1724684902,"current_range_meters":31200,"station_id":"ce4bgs12rcd13ifvqcag","pricing_plan_id":"cebpf4jnsgd1na2vs0mg"},{"bike_id":"45188565-3105-4726-a647-d4805f61d732","system_id":"levelo_inurba_marseille","lat":43.305714,"lon":5.365633,"is_reserved":false,"is_disabled":false,"rental_uris":{"android":"levelo://app?vid=45188565-3105-4726-a647-d4805f61d732","ios":"levelo://app?vid=45188565-3105-4726-a647-d4805f61d732"},"vehicle_type_id":"4","last_reported":1724684902,"current_range_meters":31200,"station_id":"ce4bgs12rcd13ifvqcag","pricing_plan_id":"cebpf4jnsgd1na2vs0mg"},{"bike_id":"8415e4fd-5c8b-4ae0-8e1a-c1fe9a2dd0ae","system_id":"levelo_inurba_marseille","lat":43.305706,"lon":5.365654,"is_reserved":false,"is_disabled":false,"rental_uris":{"android":"levelo://app?vid=8415e4fd-5c8b-4ae0-8e1a-c1fe9a2dd0ae","ios":"levelo://app?vid=8415e4fd-5c8b-4ae0-8e1a-c1fe9a2dd0ae"},"vehicle_type_id":"4","last_reported":1724684902,"current_range_meters":24400,"station_id":"ce4bgs12rcd13ifvqcag","pricing_plan_id":"cebpf4jnsgd1na2vs0mg"},{"bike_id":"220971e0-cc35-4f47-b850-5d1294da09f3","system_id":"levelo_inurba_marseille","lat":43.305706,"lon":5.365654,"is_reserved":false,"is_disabled":false,"rental_uris":{"android":"levelo://app?vid=220971e0-cc35-4f47-b850-5d1294da09f3","ios":"levelo://app?vid=220971e0-cc35-4f47-b850-5d1294da09f3"},"vehicle_type_id":"4","last_reported":1724684902,"current_range_meters":20000,"station_id":"ce4bgs12rcd13ifvqcag","pricing_plan_id":"cebpf4jnsgd1na2vs0mg"},{"bike_id":"ecfbc91c-fb12-4efa-88c9-049e21fc8c98","system_id":"levelo_inurba_marseille","lat":43.305706,"lon":5.365654,"is_reserved":false,"is_disabled":false,"rental_uris":{"android":"levelo://app?vid=ecfbc91c-fb12-4efa-88c9-049e21fc8c98","ios":"levelo://app?vid=ecfbc91c-fb12-4efa-88c9-049e21fc8c98"},"vehicle_type_id":"4","last_reported":1724684902,"current_range_meters":31200,"station_id":"ce4bgs12rcd13ifvqcag","pricing_plan_id":"cebpf4jnsgd1na2vs0mg"},{"bike_id":"f3d18ae7-f05e-43a7-aa33-283a0c764bb4","system_id":"levelo_inurba_marseille","lat":43.305989,"lon":5.37225,"is_reserved":false,"is_disabled":false,"rental_uris":{"android":"levelo://app?vid=f3d18ae7-f05e-43a7-aa33-283a0c764bb4","ios":"levelo://app?vid=f3d18ae7-f05e-43a7-aa33-283a0c764bb4"},"vehicle_type_id":"4","last_reported":1724684902,"current_range_meters":12800,"station_id":"ce4bgqh2rcd13ifvqc4g","pricing_plan_id":"cebpf4jnsgd1na2vs0mg"},{"bike_id":"c322c456-a992-4630-abf8-4f9855ad358a","system_id":"levelo_inurba_marseille","lat":43.307945,"lon":5.376487,"is_reserved":false,"is_disabled":false,"rental_uris":{"android":"levelo://app?vid=c322c456-a992-4630-abf8-4f9855ad358a","ios":"levelo://app?vid=c322c456-a992-4630-abf8-4f9855ad358a"},"vehicle_type_id":"4","last_reported":1724684902,"current_range_meters":23600,"station_id":"ce4bgv92rcd13ifvqcq0","pricing_plan_id":"cebpf4jnsgd1na2vs0mg"},{"bike_id":"ba10be7e-9f84-4ddd-9f21-82eb64c9baae","system_id":"levelo_inurba_marseille","lat":43.307945,"lon":5.376487,"is_reserved":false,"is_disabled":false,"rental_uris":{"android":"levelo://app?vid=ba10be7e-9f84-4ddd-9f21-82eb64c9baae","ios":"levelo://app?vid=ba10be7e-9f84-4ddd-9f21-82eb64c9baae"},"vehicle_type_id":"4","last_reported":1724684902,"current_range_meters":29200,"station_id":"ce4bgv92rcd13ifvqcq0","pricing_plan_id":"cebpf4jnsgd1na2vs0mg"},{"bike_id":"76396786-201d-4f53-9bb5-aab4100bf121","system_id":"levelo_inurba_marseille","lat":43.279742,"lon":5.38744,"is_reserved":false,"is_disabled":false,"rental_uris":{"android":"levelo://app?vid=76396786-201d-4f53-9bb5-aab4100bf121","ios":"levelo://app?vid=76396786-201d-4f53-9bb5-aab4100bf121"},"vehicle_type_id":"4","last_reported":1724684902,"current_range_meters":19200,"station_id":"ce4bhg12rcd13ifvqf80","pricing_plan_id":"cebpf4jnsgd1na2vs0mg"},{"bike_id":"93b494dd-bbf1-41b0-ad6a-40771b4bd172","system_id":"levelo_inurba_marseille","lat":43.308012,"lon":5.381511,"is_reserved":false,"is_disabled":false,"rental_uris":{"android":"levelo://app?vid=93b494dd-bbf1-41b0-ad6a-40771b4bd172","ios":"levelo://app?vid=93b494dd-bbf1-41b0-ad6a-40771b4bd172"},"vehicle_type_id":"4","last_reported":1724684902,"current_range_meters":0,"station_id":"ce4bgt12rcd13ifvqce0","pricing_plan_id":"cebpf4jnsgd1na2vs0mg"},{"bike_id":"86e71cb0-d9dd-475e-a376-1c3f60126d5c","system_id":"levelo_inurba_marseille","lat":43.301939,"lon":5.366286,"is_reserved":false,"is_disabled":false,"rental_uris":{"android":"levelo://app?vid=86e71cb0-d9dd-475e-a376-1c3f60126d5c","ios":"levelo://app?vid=86e71cb0-d9dd-475e-a376-1c3f60126d5c"},"vehicle_type_id":"4","last_reported":1724684902,"current_range_meters":2000,"station_id":"ce4bgrh2rcd13ifvqc8g","pricing_plan_id":"cebpf4jnsgd1na2vs0mg"},{"bike_id":"2a114fad-acad-4f03-b228-78be035d83e6","system_id":"levelo_inurba_marseille","lat":43.308012,"lon":5.381511,"is_reserved":false,"is_disabled":false,"rental_uris":{"android":"levelo://app?vid=2a114fad-acad-4f03-b228-78be035d83e6","ios":"levelo://app?vid=2a114fad-acad-4f03-b228-78be035d83e6"},"vehicle_type_id":"4","last_reported":1724684902,"current_range_meters":22400,"station_id":"ce4bgt12rcd13ifvqce0","pricing_plan_id":"cebpf4jnsgd1na2vs0mg"},{"bike_id":"ebbe741d-9636-4558-a957-4b055e23df5d","system_id":"levelo_inurba_marseille","lat":43.304606,"lon":5.379026,"is_reserved":false,"is_disabled":false,"rental_uris":{"android":"levelo://app?vid=ebbe741d-9636-4558-a957-4b055e23df5d","ios":"levelo://app?vid=ebbe741d-9636-4558-a957-4b055e23df5d"},"vehicle_type_id":"4","last_reported":1724684902,"current_range_meters":5600,"station_id":"ce4bgup2rcd13ifvqcn0","pricing_plan_id":"cebpf4jnsgd1na2vs0mg"},{"bike_id":"28bac209-ac98-4c8f-a21d-964927f3a22f","system_id":"levelo_inurba_marseille","lat":43.30458,"lon":5.37907,"is_reserved":false,"is_disabled":false,"rental_uris":{"android":"levelo://app?vid=28bac209-ac98-4c8f-a21d-964927f3a22f","ios":"levelo://app?vid=28bac209-ac98-4c8f-a21d-964927f3a22f"},"vehicle_type_id":"4","last_reported":1724684902,"current_range_meters":10400,"station_id":"ce4bgup2rcd13ifvqcn0","pricing_plan_id":"cebpf4jnsgd1na2vs0mg"},{"bike_id":"c308976c-b9db-4d67-af58-9da989ead28e","system_id":"levelo_inurba_marseille","lat":43.324771,"lon":5.36557,"is_reserved":false,"is_disabled":false,"rental_uris":{"android":"levelo://app?vid=c308976c-b9db-4d67-af58-9da989ead28e","ios":"levelo://app?vid=c308976c-b9db-4d67-af58-9da989ead28e"},"vehicle_type_id":"4","last_reported":1724684902,"current_range_meters":4000,"station_id":"ce4bhs12rcd13ifvqhvg","pricing_plan_id":"cebpf4jnsgd1na2vs0mg"},{"bike_id":"d901024a-0e50-4641-9ef2-8c58aec074f6","system_id":"levelo_inurba_marseille","lat":43.32482,"lon":5.3656,"is_reserved":false,"is_disabled":false,"rental_uris":{"android":"levelo://app?vid=d901024a-0e50-4641-9ef2-8c58aec074f6","ios":"levelo://app?vid=d901024a-0e50-4641-9ef2-8c58aec074f6"},"vehicle_type_id":"4","last_reported":1724684902,"current_range_meters":22400,"station_id":"ce4bhs12rcd13ifvqhvg","pricing_plan_id":"cebpf4jnsgd1na2vs0mg"},{"bike_id":"a8e74fbe-9150-4bb5-b57c-4d9be9b750e3","system_id":"levelo_inurba_marseille","lat":43.32482,"lon":5.36556,"is_reserved":false,"is_disabled":false,"rental_uris":{"android":"levelo://app?vid=a8e74fbe-9150-4bb5-b57c-4d9be9b750e3","ios":"levelo://app?vid=a8e74fbe-9150-4bb5-b57c-4d9be9b750e3"},"vehicle_type_id":"4","last_reported":1724684902,"current_range_meters":28400,"station_id":"ce4bhs12rcd13ifvqhvg","pricing_plan_id":"cebpf4jnsgd1na2vs0mg"},{"bike_id":"8e3f4532-a6b7-4c73-9f5b-b63503b336e0","system_id":"levelo_inurba_marseille","lat":43.32483,"lon":5.36559,"is_reserved":false,"is_disabled":false,"rental_uris":{"android":"levelo://app?vid=8e3f4532-a6b7-4c73-9f5b-b63503b336e0","ios":"levelo://app?vid=8e3f4532-a6b7-4c73-9f5b-b63503b336e0"},"vehicle_type_id":"4","last_reported":1724684902,"current_range_meters":15200,"station_id":"ce4bhs12rcd13ifvqhvg","pricing_plan_id":"cebpf4jnsgd1na2vs0mg"},{"bike_id":"328fdb38-2f0b-48bf-a542-af3b7f8806c1","system_id":"levelo_inurba_marseille","lat":43.324771,"lon":5.36557,"is_reserved":false,"is_disabled":false,"rental_uris":{"android":"levelo://app?vid=328fdb38-2f0b-48bf-a542-af3b7f8806c1","ios":"levelo://app?vid=328fdb38-2f0b-48bf-a542-af3b7f8806c1"},"vehicle_type_id":"4","last_reported":1724684902,"current_range_meters":31200,"station_id":"ce4bhs12rcd13ifvqhvg","pricing_plan_id":"cebpf4jnsgd1na2vs0mg"},{"bike_id":"008a310c-a564-493d-a3b5-aaa3f8c676d0","system_id":"levelo_inurba_marseille","lat":43.32484,"lon":5.3657,"is_reserved":false,"is_disabled":false,"rental_uris":{"android":"levelo://app?vid=008a310c-a564-493d-a3b5-aaa3f8c676d0","ios":"levelo://app?vid=008a310c-a564-493d-a3b5-aaa3f8c676d0"},"vehicle_type_id":"4","last_reported":1724684902,"current_range_meters":23600,"station_id":"ce4bhs12rcd13ifvqhvg","pricing_plan_id":"cebpf4jnsgd1na2vs0mg"},{"bike_id":"ffc84939-0659-4816-8dea-1f3876650f45","system_id":"levelo_inurba_marseille","lat":43.32486,"lon":5.36557,"is_reserved":false,"is_disabled":false,"rental_uris":{"android":"levelo://app?vid=ffc84939-0659-4816-8dea-1f3876650f45","ios":"levelo://app?vid=ffc84939-0659-4816-8dea-1f3876650f45"},"vehicle_type_id":"4","last_reported":1724684902,"current_range_meters":22000,"station_id":"ce4bhs12rcd13ifvqhvg","pricing_plan_id":"cebpf4jnsgd1na2vs0mg"},{"bike_id":"387ca43e-9c3f-433c-bc36-ad31ed344b43","system_id":"levelo_inurba_marseille","lat":43.324771,"lon":5.36557,"is_reserved":false,"is_disabled":false,"rental_uris":{"android":"levelo://app?vid=387ca43e-9c3f-433c-bc36-ad31ed344b43","ios":"levelo://app?vid=387ca43e-9c3f-433c-bc36-ad31ed344b43"},"vehicle_type_id":"4","last_reported":1724684902,"current_range_meters":31200,"station_id":"ce4bhs12rcd13ifvqhvg","pricing_plan_id":"cebpf4jnsgd1na2vs0mg"},{"bike_id":"eff4fa42-d72b-4e63-bfbe-235a0e709853","system_id":"levelo_inurba_marseille","lat":43.324771,"lon":5.36557,"is_reserved":false,"is_disabled":false,"rental_uris":{"android":"levelo://app?vid=eff4fa42-d72b-4e63-bfbe-235a0e709853","ios":"levelo://app?vid=eff4fa42-d72b-4e63-bfbe-235a0e709853"},"vehicle_type_id":"4","last_reported":1724684902,"current_range_meters":28000,"station_id":"ce4bhs12rcd13ifvqhvg","pricing_plan_id":"cebpf4jnsgd1na2vs0mg"},{"bike_id":"195133e3-b98c-41ea-91f6-c0c5b8b0ad6b","system_id":"levelo_inurba_marseille","lat":43.324771,"lon":5.36557,"is_reserved":false,"is_disabled":false,"rental_uris":{"android":"levelo://app?vid=195133e3-b98c-41ea-91f6-c0c5b8b0ad6b","ios":"levelo://app?vid=195133e3-b98c-41ea-91f6-c0c5b8b0ad6b"},"vehicle_type_id":"4","last_reported":1724684902,"current_range_meters":30400,"station_id":"ce4bhs12rcd13ifvqhvg","pricing_plan_id":"cebpf4jnsgd1na2vs0mg"},{"bike_id":"7730422e-42f3-4ca0-8007-7eb4ed614ca9","system_id":"levelo_inurba_marseille","lat":43.32493,"lon":5.365677,"is_reserved":false,"is_disabled":false,"rental_uris":{"android":"levelo://app?vid=7730422e-42f3-4ca0-8007-7eb4ed614ca9","ios":"levelo://app?vid=7730422e-42f3-4ca0-8007-7eb4ed614ca9"},"vehicle_type_id":"4","last_reported":1724684902,"current_range_meters":10400,"station_id":"ce4bhs12rcd13ifvqhvg","pricing_plan_id":"cebpf4jnsgd1na2vs0mg"},{"bike_id":"e2bbf16b-38ca-437a-a040-9ceb9b610da0","system_id":"levelo_inurba_marseille","lat":43.310804,"lon":5.38359,"is_reserved":false,"is_disabled":false,"rental_uris":{"android":"levelo://app?vid=e2bbf16b-38ca-437a-a040-9ceb9b610da0","ios":"levelo://app?vid=e2bbf16b-38ca-437a-a040-9ceb9b610da0"},"vehicle_type_id":"4","last_reported":1724684902,"current_range_meters":8000,"station_id":"ce4bgv92rcd13ifvqcr0","pricing_plan_id":"cebpf4jnsgd1na2vs0mg"},{"bike_id":"c0c814fe-f54a-4161-9f06-2eb9490083ae","system_id":"levelo_inurba_marseille","lat":43.302784,"lon":5.377158,"is_reserved":false,"is_disabled":false,"rental_uris":{"android":"levelo://app?vid=c0c814fe-f54a-4161-9f06-2eb9490083ae","ios":"levelo://app?vid=c0c814fe-f54a-4161-9f06-2eb9490083ae"},"vehicle_type_id":"4","last_reported":1724684902,"current_range_meters":19600,"station_id":"ce4bguh2rcd13ifvqcj0","pricing_plan_id":"cebpf4jnsgd1na2vs0mg"},{"bike_id":"ff2e2f17-e53a-4360-9800-37c28492171b","system_id":"levelo_inurba_marseille","lat":43.31966,"lon":5.38148,"is_reserved":false,"is_disabled":false,"rental_uris":{"android":"levelo://app?vid=ff2e2f17-e53a-4360-9800-37c28492171b","ios":"levelo://app?vid=ff2e2f17-e53a-4360-9800-37c28492171b"},"vehicle_type_id":"4","last_reported":1724684902,"current_range_meters":6800,"station_id":"ce4bhr12rcd13ifvqhpg","pricing_plan_id":"cebpf4jnsgd1na2vs0mg"},{"bike_id":"df6833f6-5d34-413d-bec1-7c570396ec98","system_id":"levelo_inurba_marseille","lat":43.299724,"lon":5.371829,"is_reserved":false,"is_disabled":false,"rental_uris":{"android":"levelo://app?vid=df6833f6-5d34-413d-bec1-7c570396ec98","ios":"levelo://app?vid=df6833f6-5d34-413d-bec1-7c570396ec98"},"vehicle_type_id":"4","last_reported":1724684902,"current_range_meters":4800,"station_id":"ce4bgr92rcd13ifvqc7g","pricing_plan_id":"cebpf4jnsgd1na2vs0mg"},{"bike_id":"fc831206-d757-4562-89ef-6ca3ab11d294","system_id":"levelo_inurba_marseille","lat":43.299209,"lon":5.365547,"is_reserved":false,"is_disabled":false,"rental_uris":{"android":"levelo://app?vid=fc831206-d757-4562-89ef-6ca3ab11d294","ios":"levelo://app?vid=fc831206-d757-4562-89ef-6ca3ab11d294"},"vehicle_type_id":"4","last_reported":1724684902,"current_range_meters":31200,"station_id":"ce4bgm92rcd13ifvqbr0","pricing_plan_id":"cebpf4jnsgd1na2vs0mg"},{"bike_id":"4c2ce535-a23c-4065-82f6-984a11a789c6","system_id":"levelo_inurba_marseille","lat":43.298433,"lon":5.362774,"is_reserved":false,"is_disabled":false,"rental_uris":{"android":"levelo://app?vid=4c2ce535-a23c-4065-82f6-984a11a789c6","ios":"levelo://app?vid=4c2ce535-a23c-4065-82f6-984a11a789c6"},"vehicle_type_id":"4","last_reported":1724684902,"current_range_meters":30000,"station_id":"ce4bgpp2rcd13ifvqc3g","pricing_plan_id":"cebpf4jnsgd1na2vs0mg"},{"bike_id":"a34042e8-41ba-4ec1-b5fc-8813db67f185","system_id":"levelo_inurba_marseille","lat":43.298433,"lon":5.362774,"is_reserved":false,"is_disabled":false,"rental_uris":{"android":"levelo://app?vid=a34042e8-41ba-4ec1-b5fc-8813db67f185","ios":"levelo://app?vid=a34042e8-41ba-4ec1-b5fc-8813db67f185"},"vehicle_type_id":"4","last_reported":1724684902,"current_range_meters":30000,"station_id":"ce4bgpp2rcd13ifvqc3g","pricing_plan_id":"cebpf4jnsgd1na2vs0mg"},{"bike_id":"839b791e-f04b-49c0-82b0-b890b72c050d","system_id":"levelo_inurba_marseille","lat":43.311593,"lon":5.386877,"is_reserved":false,"is_disabled":false,"rental_uris":{"android":"levelo://app?vid=839b791e-f04b-49c0-82b0-b890b72c050d","ios":"levelo://app?vid=839b791e-f04b-49c0-82b0-b890b72c050d"},"vehicle_type_id":"4","last_reported":1724684902,"current_range_meters":23600,"station_id":"ce4bgv12rcd13ifvqcp0","pricing_plan_id":"cebpf4jnsgd1na2vs0mg"},{"bike_id":"b9c19eb9-dbe8-4f26-8bbd-b13bae3f8002","system_id":"levelo_inurba_marseille","lat":43.298433,"lon":5.362774,"is_reserved":false,"is_disabled":false,"rental_uris":{"android":"levelo://app?vid=b9c19eb9-dbe8-4f26-8bbd-b13bae3f8002","ios":"levelo://app?vid=b9c19eb9-dbe8-4f26-8bbd-b13bae3f8002"},"vehicle_type_id":"4","last_reported":1724684902,"current_range_meters":19200,"station_id":"ce4bgpp2rcd13ifvqc3g","pricing_plan_id":"cebpf4jnsgd1na2vs0mg"},{"bike_id":"6151df0f-93c4-4def-af39-c0c4f993b0e2","system_id":"levelo_inurba_marseille","lat":43.298433,"lon":5.362774,"is_reserved":false,"is_disabled":false,"rental_uris":{"android":"levelo://app?vid=6151df0f-93c4-4def-af39-c0c4f993b0e2","ios":"levelo://app?vid=6151df0f-93c4-4def-af39-c0c4f993b0e2"},"vehicle_type_id":"4","last_reported":1724684902,"current_range_meters":1600,"station_id":"ce4bgpp2rcd13ifvqc3g","pricing_plan_id":"cebpf4jnsgd1na2vs0mg"},{"bike_id":"d199e2a8-4944-43ea-87c7-07cce8f4e4ef","system_id":"levelo_inurba_marseille","lat":43.298433,"lon":5.362774,"is_reserved":false,"is_disabled":false,"rental_uris":{"android":"levelo://app?vid=d199e2a8-4944-43ea-87c7-07cce8f4e4ef","ios":"levelo://app?vid=d199e2a8-4944-43ea-87c7-07cce8f4e4ef"},"vehicle_type_id":"4","last_reported":1724684902,"current_range_meters":400,"station_id":"ce4bgpp2rcd13ifvqc3g","pricing_plan_id":"cebpf4jnsgd1na2vs0mg"},{"bike_id":"5ebec49a-065c-4e86-a7bf-9d25841ae08a","system_id":"levelo_inurba_marseille","lat":43.305364,"lon":5.384119,"is_reserved":false,"is_disabled":false,"rental_uris":{"android":"levelo://app?vid=5ebec49a-065c-4e86-a7bf-9d25841ae08a","ios":"levelo://app?vid=5ebec49a-065c-4e86-a7bf-9d25841ae08a"},"vehicle_type_id":"4","last_reported":1724684902,"current_range_meters":0,"station_id":"ce4bgg92rcd13ifvqb30","pricing_plan_id":"cebpf4jnsgd1na2vs0mg"},{"bike_id":"8b6a41f8-9325-46ff-9ec5-9a2a632cdc88","system_id":"levelo_inurba_marseille","lat":43.299119,"lon":5.37473,"is_reserved":false,"is_disabled":false,"rental_uris":{"android":"levelo://app?vid=8b6a41f8-9325-46ff-9ec5-9a2a632cdc88","ios":"levelo://app?vid=8b6a41f8-9325-46ff-9ec5-9a2a632cdc88"},"vehicle_type_id":"4","last_reported":1724684902,"current_range_meters":24800,"station_id":"ce4bgjh2rcd13ifvqbg0","pricing_plan_id":"cebpf4jnsgd1na2vs0mg"},{"bike_id":"667212d9-b0f8-421a-8ca1-340b23817e09","system_id":"levelo_inurba_marseille","lat":43.311722,"lon":5.387247,"is_reserved":false,"is_disabled":false,"rental_uris":{"android":"levelo://app?vid=667212d9-b0f8-421a-8ca1-340b23817e09","ios":"levelo://app?vid=667212d9-b0f8-421a-8ca1-340b23817e09"},"vehicle_type_id":"4","last_reported":1724684902,"current_range_meters":12800,"station_id":"ce4bgv12rcd13ifvqcp0","pricing_plan_id":"cebpf4jnsgd1na2vs0mg"},{"bike_id":"5720fc56-49b6-4475-b31f-4132c45f8b80","system_id":"levelo_inurba_marseille","lat":43.311722,"lon":5.387247,"is_reserved":false,"is_disabled":false,"rental_uris":{"android":"levelo://app?vid=5720fc56-49b6-4475-b31f-4132c45f8b80","ios":"levelo://app?vid=5720fc56-49b6-4475-b31f-4132c45f8b80"},"vehicle_type_id":"4","last_reported":1724684902,"current_range_meters":21600,"station_id":"ce4bgv12rcd13ifvqcp0","pricing_plan_id":"cebpf4jnsgd1na2vs0mg"},{"bike_id":"efcf374c-e7c8-4fdb-9853-b3174dd6238a","system_id":"levelo_inurba_marseille","lat":43.311722,"lon":5.387247,"is_reserved":false,"is_disabled":false,"rental_uris":{"android":"levelo://app?vid=efcf374c-e7c8-4fdb-9853-b3174dd6238a","ios":"levelo://app?vid=efcf374c-e7c8-4fdb-9853-b3174dd6238a"},"vehicle_type_id":"4","last_reported":1724684902,"current_range_meters":10000,"station_id":"ce4bgv12rcd13ifvqcp0","pricing_plan_id":"cebpf4jnsgd1na2vs0mg"},{"bike_id":"85b1c027-c928-4584-94c9-a74b6e5b998b","system_id":"levelo_inurba_marseille","lat":43.311722,"lon":5.387247,"is_reserved":false,"is_disabled":false,"rental_uris":{"android":"levelo://app?vid=85b1c027-c928-4584-94c9-a74b6e5b998b","ios":"levelo://app?vid=85b1c027-c928-4584-94c9-a74b6e5b998b"},"vehicle_type_id":"4","last_reported":1724684902,"current_range_meters":1600,"station_id":"ce4bgv12rcd13ifvqcp0","pricing_plan_id":"cebpf4jnsgd1na2vs0mg"},{"bike_id":"c3c6ec82-a9ab-4cc3-9dcc-54b4d8059300","system_id":"levelo_inurba_marseille","lat":43.30151,"lon":5.38076,"is_reserved":false,"is_disabled":false,"rental_uris":{"android":"levelo://app?vid=c3c6ec82-a9ab-4cc3-9dcc-54b4d8059300","ios":"levelo://app?vid=c3c6ec82-a9ab-4cc3-9dcc-54b4d8059300"},"vehicle_type_id":"4","last_reported":1724684902,"current_range_meters":0,"station_id":"ce4bgjp2rcd13ifvqbh0","pricing_plan_id":"cebpf4jnsgd1na2vs0mg"},{"bike_id":"cd50244b-aa59-41f0-a1d0-77d2d84b03b1","system_id":"levelo_inurba_marseille","lat":43.301417,"lon":5.3809,"is_reserved":false,"is_disabled":false,"rental_uris":{"android":"levelo://app?vid=cd50244b-aa59-41f0-a1d0-77d2d84b03b1","ios":"levelo://app?vid=cd50244b-aa59-41f0-a1d0-77d2d84b03b1"},"vehicle_type_id":"4","last_reported":1724684902,"current_range_meters":4800,"station_id":"ce4bgjp2rcd13ifvqbh0","pricing_plan_id":"cebpf4jnsgd1na2vs0mg"},{"bike_id":"102b7949-5359-4d0a-8a33-638c2d031ece","system_id":"levelo_inurba_marseille","lat":43.297794,"lon":5.370888,"is_reserved":false,"is_disabled":false,"rental_uris":{"android":"levelo://app?vid=102b7949-5359-4d0a-8a33-638c2d031ece","ios":"levelo://app?vid=102b7949-5359-4d0a-8a33-638c2d031ece"},"vehicle_type_id":"4","last_reported":1724684902,"current_range_meters":15200,"station_id":"ce4bgop2rcd13ifvqc1g","pricing_plan_id":"cebpf4jnsgd1na2vs0mg"},{"bike_id":"90d37695-c612-4384-92d0-977df80ac5dd","system_id":"levelo_inurba_marseille","lat":43.32289,"lon":5.38254,"is_reserved":false,"is_disabled":false,"rental_uris":{"android":"levelo://app?vid=90d37695-c612-4384-92d0-977df80ac5dd","ios":"levelo://app?vid=90d37695-c612-4384-92d0-977df80ac5dd"},"vehicle_type_id":"4","last_reported":1724684902,"current_range_meters":13600,"station_id":"ce4bhr12rcd13ifvqhqg","pricing_plan_id":"cebpf4jnsgd1na2vs0mg"},{"bike_id":"6620c18c-e539-494a-b633-92cac3f2bd47","system_id":"levelo_inurba_marseille","lat":43.32295,"lon":5.38268,"is_reserved":false,"is_disabled":false,"rental_uris":{"android":"levelo://app?vid=6620c18c-e539-494a-b633-92cac3f2bd47","ios":"levelo://app?vid=6620c18c-e539-494a-b633-92cac3f2bd47"},"vehicle_type_id":"4","last_reported":1724684902,"current_range_meters":20400,"station_id":"ce4bhr12rcd13ifvqhqg","pricing_plan_id":"cebpf4jnsgd1na2vs0mg"},{"bike_id":"54a8b4c7-3821-42d8-83d6-c2c451b392ff","system_id":"levelo_inurba_marseille","lat":43.297163,"lon":5.365866,"is_reserved":false,"is_disabled":false,"rental_uris":{"android":"levelo://app?vid=54a8b4c7-3821-42d8-83d6-c2c451b392ff","ios":"levelo://app?vid=54a8b4c7-3821-42d8-83d6-c2c451b392ff"},"vehicle_type_id":"4","last_reported":1724684902,"current_range_meters":16000,"station_id":"ce4bgn12rcd13ifvqbt0","pricing_plan_id":"cebpf4jnsgd1na2vs0mg"},{"bike_id":"f054a489-de92-49d4-9712-c951b8f2d96f","system_id":"levelo_inurba_marseille","lat":43.29712,"lon":5.36878,"is_reserved":false,"is_disabled":false,"rental_uris":{"android":"levelo://app?vid=f054a489-de92-49d4-9712-c951b8f2d96f","ios":"levelo://app?vid=f054a489-de92-49d4-9712-c951b8f2d96f"},"vehicle_type_id":"4","last_reported":1724684902,"current_range_meters":23200,"station_id":"","pricing_plan_id":"cebpf4jnsgd1na2vs0mg"},{"bike_id":"a72543b2-d41a-4c39-bdad-b6b1880624b8","system_id":"levelo_inurba_marseille","lat":43.296131,"lon":5.370773,"is_reserved":false,"is_disabled":false,"rental_uris":{"android":"levelo://app?vid=a72543b2-d41a-4c39-bdad-b6b1880624b8","ios":"levelo://app?vid=a72543b2-d41a-4c39-bdad-b6b1880624b8"},"vehicle_type_id":"4","last_reported":1724684902,"current_range_meters":0,"station_id":"ce4bgnh2rcd13ifvqc0g","pricing_plan_id":"cebpf4jnsgd1na2vs0mg"},{"bike_id":"f610de07-e515-4c33-ac52-4795c2e7af38","system_id":"levelo_inurba_marseille","lat":43.299028,"lon":5.381509,"is_reserved":false,"is_disabled":false,"rental_uris":{"android":"levelo://app?vid=f610de07-e515-4c33-ac52-4795c2e7af38","ios":"levelo://app?vid=f610de07-e515-4c33-ac52-4795c2e7af38"},"vehicle_type_id":"4","last_reported":1724684902,"current_range_meters":25200,"station_id":"ce4bgj12rcd13ifvqbc0","pricing_plan_id":"cebpf4jnsgd1na2vs0mg"},{"bike_id":"8a0bac66-f693-4705-891a-2e5f74a51977","system_id":"levelo_inurba_marseille","lat":43.309473,"lon":5.39028,"is_reserved":false,"is_disabled":false,"rental_uris":{"android":"levelo://app?vid=8a0bac66-f693-4705-891a-2e5f74a51977","ios":"levelo://app?vid=8a0bac66-f693-4705-891a-2e5f74a51977"},"vehicle_type_id":"4","last_reported":1724684902,"current_range_meters":30800,"station_id":"ce4bgup2rcd13ifvqco0","pricing_plan_id":"cebpf4jnsgd1na2vs0mg"},{"bike_id":"3db7a0a3-adb7-4c24-a3da-50eb9574e484","system_id":"levelo_inurba_marseille","lat":43.309603,"lon":5.390317,"is_reserved":false,"is_disabled":false,"rental_uris":{"android":"levelo://app?vid=3db7a0a3-adb7-4c24-a3da-50eb9574e484","ios":"levelo://app?vid=3db7a0a3-adb7-4c24-a3da-50eb9574e484"},"vehicle_type_id":"4","last_reported":1724684902,"current_range_meters":19600,"station_id":"ce4bgup2rcd13ifvqco0","pricing_plan_id":"cebpf4jnsgd1na2vs0mg"},{"bike_id":"45307f9c-4141-464d-a979-ff65d5402639","system_id":"levelo_inurba_marseille","lat":43.309643,"lon":5.390363,"is_reserved":false,"is_disabled":false,"rental_uris":{"android":"levelo://app?vid=45307f9c-4141-464d-a979-ff65d5402639","ios":"levelo://app?vid=45307f9c-4141-464d-a979-ff65d5402639"},"vehicle_type_id":"4","last_reported":1724684902,"current_range_meters":0,"station_id":"ce4bgup2rcd13ifvqco0","pricing_plan_id":"cebpf4jnsgd1na2vs0mg"},{"bike_id":"d0685051-4648-4438-98d9-22b0430251ac","system_id":"levelo_inurba_marseille","lat":43.309589,"lon":5.390258,"is_reserved":false,"is_disabled":false,"rental_uris":{"android":"levelo://app?vid=d0685051-4648-4438-98d9-22b0430251ac","ios":"levelo://app?vid=d0685051-4648-4438-98d9-22b0430251ac"},"vehicle_type_id":"4","last_reported":1724684902,"current_range_meters":31200,"station_id":"ce4bgup2rcd13ifvqco0","pricing_plan_id":"cebpf4jnsgd1na2vs0mg"},{"bike_id":"a06616c6-6a41-4eb5-9b27-64fa0438430a","system_id":"levelo_inurba_marseille","lat":43.309589,"lon":5.390258,"is_reserved":false,"is_disabled":false,"rental_uris":{"android":"levelo://app?vid=a06616c6-6a41-4eb5-9b27-64fa0438430a","ios":"levelo://app?vid=a06616c6-6a41-4eb5-9b27-64fa0438430a"},"vehicle_type_id":"4","last_reported":1724684902,"current_range_meters":31200,"station_id":"ce4bgup2rcd13ifvqco0","pricing_plan_id":"cebpf4jnsgd1na2vs0mg"},{"bike_id":"cd05a16e-ed1a-4a63-a79e-f10fb3ad6adc","system_id":"levelo_inurba_marseille","lat":43.30953,"lon":5.39044,"is_reserved":false,"is_disabled":false,"rental_uris":{"android":"levelo://app?vid=cd05a16e-ed1a-4a63-a79e-f10fb3ad6adc","ios":"levelo://app?vid=cd05a16e-ed1a-4a63-a79e-f10fb3ad6adc"},"vehicle_type_id":"4","last_reported":1724684902,"current_range_meters":2400,"station_id":"ce4bgup2rcd13ifvqco0","pricing_plan_id":"cebpf4jnsgd1na2vs0mg"},{"bike_id":"face08d2-d639-42e6-a2a7-7a2c0e0b1f94","system_id":"levelo_inurba_marseille","lat":43.309503,"lon":5.390435,"is_reserved":false,"is_disabled":false,"rental_uris":{"android":"levelo://app?vid=face08d2-d639-42e6-a2a7-7a2c0e0b1f94","ios":"levelo://app?vid=face08d2-d639-42e6-a2a7-7a2c0e0b1f94"},"vehicle_type_id":"4","last_reported":1724684902,"current_range_meters":12800,"station_id":"ce4bgup2rcd13ifvqco0","pricing_plan_id":"cebpf4jnsgd1na2vs0mg"},{"bike_id":"85420bb1-5acb-47a4-83ef-0cf6e7937741","system_id":"levelo_inurba_marseille","lat":43.31752,"lon":5.39012,"is_reserved":false,"is_disabled":false,"rental_uris":{"android":"levelo://app?vid=85420bb1-5acb-47a4-83ef-0cf6e7937741","ios":"levelo://app?vid=85420bb1-5acb-47a4-83ef-0cf6e7937741"},"vehicle_type_id":"4","last_reported":1724684902,"current_range_meters":1600,"station_id":"ce4bhqp2rcd13ifvqhng","pricing_plan_id":"cebpf4jnsgd1na2vs0mg"},{"bike_id":"68b7376c-04d5-42bf-be43-188e0a592395","system_id":"levelo_inurba_marseille","lat":43.31758,"lon":5.39012,"is_reserved":false,"is_disabled":false,"rental_uris":{"android":"levelo://app?vid=68b7376c-04d5-42bf-be43-188e0a592395","ios":"levelo://app?vid=68b7376c-04d5-42bf-be43-188e0a592395"},"vehicle_type_id":"4","last_reported":1724684902,"current_range_meters":4000,"station_id":"ce4bhqp2rcd13ifvqhng","pricing_plan_id":"cebpf4jnsgd1na2vs0mg"},{"bike_id":"64c40b55-eca9-451e-a6e7-23dc9882742a","system_id":"levelo_inurba_marseille","lat":43.31759,"lon":5.39013,"is_reserved":false,"is_disabled":false,"rental_uris":{"android":"levelo://app?vid=64c40b55-eca9-451e-a6e7-23dc9882742a","ios":"levelo://app?vid=64c40b55-eca9-451e-a6e7-23dc9882742a"},"vehicle_type_id":"4","last_reported":1724684902,"current_range_meters":22800,"station_id":"ce4bhqp2rcd13ifvqhng","pricing_plan_id":"cebpf4jnsgd1na2vs0mg"},{"bike_id":"746986ce-8a0e-4aaa-8398-362e9e58c959","system_id":"levelo_inurba_marseille","lat":43.317557,"lon":5.390173,"is_reserved":false,"is_disabled":false,"rental_uris":{"android":"levelo://app?vid=746986ce-8a0e-4aaa-8398-362e9e58c959","ios":"levelo://app?vid=746986ce-8a0e-4aaa-8398-362e9e58c959"},"vehicle_type_id":"4","last_reported":1724684902,"current_range_meters":20400,"station_id":"ce4bhqp2rcd13ifvqhng","pricing_plan_id":"cebpf4jnsgd1na2vs0mg"},{"bike_id":"4bde8df5-eca5-4ee7-95a0-1ab8a31109ed","system_id":"levelo_inurba_marseille","lat":43.317557,"lon":5.390173,"is_reserved":false,"is_disabled":false,"rental_uris":{"android":"levelo://app?vid=4bde8df5-eca5-4ee7-95a0-1ab8a31109ed","ios":"levelo://app?vid=4bde8df5-eca5-4ee7-95a0-1ab8a31109ed"},"vehicle_type_id":"4","last_reported":1724684902,"current_range_meters":0,"station_id":"ce4bhqp2rcd13ifvqhng","pricing_plan_id":"cebpf4jnsgd1na2vs0mg"},{"bike_id":"12a96ee0-68ac-4198-bfe0-a0943067c3b9","system_id":"levelo_inurba_marseille","lat":43.295748,"lon":5.37522,"is_reserved":false,"is_disabled":false,"rental_uris":{"android":"levelo://app?vid=12a96ee0-68ac-4198-bfe0-a0943067c3b9","ios":"levelo://app?vid=12a96ee0-68ac-4198-bfe0-a0943067c3b9"},"vehicle_type_id":"4","last_reported":1724684902,"current_range_meters":12800,"station_id":"ce4bgh92rcd13ifvqb50","pricing_plan_id":"cebpf4jnsgd1na2vs0mg"},{"bike_id":"23025194-597b-46b7-b6a9-7fa7df2fc2cc","system_id":"levelo_inurba_marseille","lat":43.298037,"lon":5.381066,"is_reserved":false,"is_disabled":false,"rental_uris":{"android":"levelo://app?vid=23025194-597b-46b7-b6a9-7fa7df2fc2cc","ios":"levelo://app?vid=23025194-597b-46b7-b6a9-7fa7df2fc2cc"},"vehicle_type_id":"4","last_reported":1724684902,"current_range_meters":29200,"station_id":"ce4bgip2rcd13ifvqbb0","pricing_plan_id":"cebpf4jnsgd1na2vs0mg"},{"bike_id":"36d3d643-79d6-4243-bc90-82dccc684aaa","system_id":"levelo_inurba_marseille","lat":43.295748,"lon":5.37522,"is_reserved":false,"is_disabled":false,"rental_uris":{"android":"levelo://app?vid=36d3d643-79d6-4243-bc90-82dccc684aaa","ios":"levelo://app?vid=36d3d643-79d6-4243-bc90-82dccc684aaa"},"vehicle_type_id":"4","last_reported":1724684902,"current_range_meters":23600,"station_id":"ce4bgh92rcd13ifvqb50","pricing_plan_id":"cebpf4jnsgd1na2vs0mg"},{"bike_id":"9d5c3519-0e4b-4b5f-b5f1-833bb83c82be","system_id":"levelo_inurba_marseille","lat":43.304274,"lon":5.388873,"is_reserved":false,"is_disabled":false,"rental_uris":{"android":"levelo://app?vid=9d5c3519-0e4b-4b5f-b5f1-833bb83c82be","ios":"levelo://app?vid=9d5c3519-0e4b-4b5f-b5f1-833bb83c82be"},"vehicle_type_id":"4","last_reported":1724684902,"current_range_meters":400,"station_id":"ce4bgk12rcd13ifvqbi0","pricing_plan_id":"cebpf4jnsgd1na2vs0mg"},{"bike_id":"2f2c8eca-5083-42f4-b65c-cd5e75a1cf33","system_id":"levelo_inurba_marseille","lat":43.29572,"lon":5.37514,"is_reserved":false,"is_disabled":false,"rental_uris":{"android":"levelo://app?vid=2f2c8eca-5083-42f4-b65c-cd5e75a1cf33","ios":"levelo://app?vid=2f2c8eca-5083-42f4-b65c-cd5e75a1cf33"},"vehicle_type_id":"4","last_reported":1724684902,"current_range_meters":26000,"station_id":"ce4bgh92rcd13ifvqb50","pricing_plan_id":"cebpf4jnsgd1na2vs0mg"},{"bike_id":"41a23d67-2060-40de-85c3-b91d378d7c90","system_id":"levelo_inurba_marseille","lat":43.304274,"lon":5.388873,"is_reserved":false,"is_disabled":false,"rental_uris":{"android":"levelo://app?vid=41a23d67-2060-40de-85c3-b91d378d7c90","ios":"levelo://app?vid=41a23d67-2060-40de-85c3-b91d378d7c90"},"vehicle_type_id":"4","last_reported":1724684902,"current_range_meters":8800,"station_id":"ce4bgk12rcd13ifvqbi0","pricing_plan_id":"cebpf4jnsgd1na2vs0mg"},{"bike_id":"382ed942-8a5d-45e0-a9fc-a1ef382985dc","system_id":"levelo_inurba_marseille","lat":43.304274,"lon":5.388873,"is_reserved":false,"is_disabled":false,"rental_uris":{"android":"levelo://app?vid=382ed942-8a5d-45e0-a9fc-a1ef382985dc","ios":"levelo://app?vid=382ed942-8a5d-45e0-a9fc-a1ef382985dc"},"vehicle_type_id":"4","last_reported":1724684902,"current_range_meters":23200,"station_id":"ce4bgk12rcd13ifvqbi0","pricing_plan_id":"cebpf4jnsgd1na2vs0mg"},{"bike_id":"be63b006-dfe5-4343-8662-eeabbf1de413","system_id":"levelo_inurba_marseille","lat":43.304278,"lon":5.388868,"is_reserved":false,"is_disabled":false,"rental_uris":{"android":"levelo://app?vid=be63b006-dfe5-4343-8662-eeabbf1de413","ios":"levelo://app?vid=be63b006-dfe5-4343-8662-eeabbf1de413"},"vehicle_type_id":"4","last_reported":1724684902,"current_range_meters":23200,"station_id":"ce4bgk12rcd13ifvqbi0","pricing_plan_id":"cebpf4jnsgd1na2vs0mg"},{"bike_id":"b9f92e6c-095d-472c-8c7e-d11403dfcb37","system_id":"levelo_inurba_marseille","lat":43.295748,"lon":5.37522,"is_reserved":false,"is_disabled":false,"rental_uris":{"android":"levelo://app?vid=b9f92e6c-095d-472c-8c7e-d11403dfcb37","ios":"levelo://app?vid=b9f92e6c-095d-472c-8c7e-d11403dfcb37"},"vehicle_type_id":"4","last_reported":1724684902,"current_range_meters":1600,"station_id":"ce4bgh92rcd13ifvqb50","pricing_plan_id":"cebpf4jnsgd1na2vs0mg"},{"bike_id":"da307f04-5c01-4601-b600-c3afc90fc43f","system_id":"levelo_inurba_marseille","lat":43.2998,"lon":5.38469,"is_reserved":false,"is_disabled":false,"rental_uris":{"android":"levelo://app?vid=da307f04-5c01-4601-b600-c3afc90fc43f","ios":"levelo://app?vid=da307f04-5c01-4601-b600-c3afc90fc43f"},"vehicle_type_id":"4","last_reported":1724684902,"current_range_meters":14000,"station_id":"ce4bgj92rcd13ifvqbd0","pricing_plan_id":"cebpf4jnsgd1na2vs0mg"},{"bike_id":"1771bb78-93ce-4e0d-8e79-e7c71e08d76d","system_id":"levelo_inurba_marseille","lat":43.295279,"lon":5.375048,"is_reserved":false,"is_disabled":false,"rental_uris":{"android":"levelo://app?vid=1771bb78-93ce-4e0d-8e79-e7c71e08d76d","ios":"levelo://app?vid=1771bb78-93ce-4e0d-8e79-e7c71e08d76d"},"vehicle_type_id":"4","last_reported":1724684902,"current_range_meters":24000,"station_id":"ce4bgkp2rcd13ifvqbmg","pricing_plan_id":"cebpf4jnsgd1na2vs0mg"},{"bike_id":"3f65af94-1842-4397-8cf7-ec5fa79ac4c7","system_id":"levelo_inurba_marseille","lat":43.298037,"lon":5.381066,"is_reserved":false,"is_disabled":false,"rental_uris":{"android":"levelo://app?vid=3f65af94-1842-4397-8cf7-ec5fa79ac4c7","ios":"levelo://app?vid=3f65af94-1842-4397-8cf7-ec5fa79ac4c7"},"vehicle_type_id":"4","last_reported":1724684902,"current_range_meters":31200,"station_id":"ce4bgip2rcd13ifvqbb0","pricing_plan_id":"cebpf4jnsgd1na2vs0mg"},{"bike_id":"a3205dfb-a9f1-49d7-bc60-50cfad33802b","system_id":"levelo_inurba_marseille","lat":43.295279,"lon":5.375048,"is_reserved":false,"is_disabled":false,"rental_uris":{"android":"levelo://app?vid=a3205dfb-a9f1-49d7-bc60-50cfad33802b","ios":"levelo://app?vid=a3205dfb-a9f1-49d7-bc60-50cfad33802b"},"vehicle_type_id":"4","last_reported":1724684902,"current_range_meters":0,"station_id":"ce4bgkp2rcd13ifvqbmg","pricing_plan_id":"cebpf4jnsgd1na2vs0mg"},{"bike_id":"8c84339f-ee16-4894-a65e-c3640d66444f","system_id":"levelo_inurba_marseille","lat":43.32364,"lon":5.38883,"is_reserved":false,"is_disabled":false,"rental_uris":{"android":"levelo://app?vid=8c84339f-ee16-4894-a65e-c3640d66444f","ios":"levelo://app?vid=8c84339f-ee16-4894-a65e-c3640d66444f"},"vehicle_type_id":"4","last_reported":1724684902,"current_range_meters":0,"station_id":"ce4bhqp2rcd13ifvqhog","pricing_plan_id":"cebpf4jnsgd1na2vs0mg"},{"bike_id":"19836227-e4c5-4e81-a79e-c79ae77773fc","system_id":"levelo_inurba_marseille","lat":43.32363,"lon":5.38884,"is_reserved":false,"is_disabled":false,"rental_uris":{"android":"levelo://app?vid=19836227-e4c5-4e81-a79e-c79ae77773fc","ios":"levelo://app?vid=19836227-e4c5-4e81-a79e-c79ae77773fc"},"vehicle_type_id":"4","last_reported":1724684902,"current_range_meters":12400,"station_id":"ce4bhqp2rcd13ifvqhog","pricing_plan_id":"cebpf4jnsgd1na2vs0mg"},{"bike_id":"98ac13d6-5cb8-419a-a889-defcfad5e78c","system_id":"levelo_inurba_marseille","lat":43.32368,"lon":5.38883,"is_reserved":false,"is_disabled":false,"rental_uris":{"android":"levelo://app?vid=98ac13d6-5cb8-419a-a889-defcfad5e78c","ios":"levelo://app?vid=98ac13d6-5cb8-419a-a889-defcfad5e78c"},"vehicle_type_id":"4","last_reported":1724684902,"current_range_meters":7600,"station_id":"ce4bhqp2rcd13ifvqhog","pricing_plan_id":"cebpf4jnsgd1na2vs0mg"},{"bike_id":"93f5cede-309d-479d-8a1d-b52b275c943d","system_id":"levelo_inurba_marseille","lat":43.32367,"lon":5.388836,"is_reserved":false,"is_disabled":false,"rental_uris":{"android":"levelo://app?vid=93f5cede-309d-479d-8a1d-b52b275c943d","ios":"levelo://app?vid=93f5cede-309d-479d-8a1d-b52b275c943d"},"vehicle_type_id":"4","last_reported":1724684902,"current_range_meters":29600,"station_id":"ce4bhqp2rcd13ifvqhog","pricing_plan_id":"cebpf4jnsgd1na2vs0mg"},{"bike_id":"b9457e65-5c09-459f-a76e-44f6de24d587","system_id":"levelo_inurba_marseille","lat":43.29602,"lon":5.381084,"is_reserved":false,"is_disabled":false,"rental_uris":{"android":"levelo://app?vid=b9457e65-5c09-459f-a76e-44f6de24d587","ios":"levelo://app?vid=b9457e65-5c09-459f-a76e-44f6de24d587"},"vehicle_type_id":"4","last_reported":1724684902,"current_range_meters":22400,"station_id":"ce4bgl12rcd13ifvqbo0","pricing_plan_id":"cebpf4jnsgd1na2vs0mg"},{"bike_id":"9ac3fdd0-a7a2-4520-84a7-1a3366de6059","system_id":"levelo_inurba_marseille","lat":43.29602,"lon":5.381084,"is_reserved":false,"is_disabled":false,"rental_uris":{"android":"levelo://app?vid=9ac3fdd0-a7a2-4520-84a7-1a3366de6059","ios":"levelo://app?vid=9ac3fdd0-a7a2-4520-84a7-1a3366de6059"},"vehicle_type_id":"4","last_reported":1724684902,"current_range_meters":24400,"station_id":"ce4bgl12rcd13ifvqbo0","pricing_plan_id":"cebpf4jnsgd1na2vs0mg"},{"bike_id":"797e2936-8bbf-4ec6-81b7-1401dd56c7f6","system_id":"levelo_inurba_marseille","lat":43.30143,"lon":5.37413,"is_reserved":false,"is_disabled":false,"rental_uris":{"android":"levelo://app?vid=797e2936-8bbf-4ec6-81b7-1401dd56c7f6","ios":"levelo://app?vid=797e2936-8bbf-4ec6-81b7-1401dd56c7f6"},"vehicle_type_id":"4","last_reported":1724684902,"current_range_meters":21200,"station_id":"ce4bgs92rcd13ifvqcc0","pricing_plan_id":"cebpf4jnsgd1na2vs0mg"},{"bike_id":"9b9b57e3-35fa-4b0d-b4f6-d0dbf0ed6cb3","system_id":"levelo_inurba_marseille","lat":43.293259,"lon":5.371586,"is_reserved":false,"is_disabled":false,"rental_uris":{"android":"levelo://app?vid=9b9b57e3-35fa-4b0d-b4f6-d0dbf0ed6cb3","ios":"levelo://app?vid=9b9b57e3-35fa-4b0d-b4f6-d0dbf0ed6cb3"},"vehicle_type_id":"4","last_reported":1724684902,"current_range_meters":2400,"station_id":"ce4bgh92rcd13ifvqb40","pricing_plan_id":"cebpf4jnsgd1na2vs0mg"},{"bike_id":"33bd1e8e-d5f6-4bde-b1af-899d8c06c558","system_id":"levelo_inurba_marseille","lat":43.293259,"lon":5.371586,"is_reserved":false,"is_disabled":false,"rental_uris":{"android":"levelo://app?vid=33bd1e8e-d5f6-4bde-b1af-899d8c06c558","ios":"levelo://app?vid=33bd1e8e-d5f6-4bde-b1af-899d8c06c558"},"vehicle_type_id":"4","last_reported":1724684902,"current_range_meters":21200,"station_id":"ce4bgh92rcd13ifvqb40","pricing_plan_id":"cebpf4jnsgd1na2vs0mg"},{"bike_id":"f218f004-a0a7-4878-8384-6d9d362ffd3e","system_id":"levelo_inurba_marseille","lat":43.293009,"lon":5.374584,"is_reserved":false,"is_disabled":false,"rental_uris":{"android":"levelo://app?vid=f218f004-a0a7-4878-8384-6d9d362ffd3e","ios":"levelo://app?vid=f218f004-a0a7-4878-8384-6d9d362ffd3e"},"vehicle_type_id":"4","last_reported":1724684902,"current_range_meters":3200,"station_id":"ce4bgi12rcd13ifvqb70","pricing_plan_id":"cebpf4jnsgd1na2vs0mg"},{"bike_id":"9c6b4e77-450c-43d4-b126-04e9a8aca743","system_id":"levelo_inurba_marseille","lat":43.29373,"lon":5.37846,"is_reserved":false,"is_disabled":false,"rental_uris":{"android":"levelo://app?vid=9c6b4e77-450c-43d4-b126-04e9a8aca743","ios":"levelo://app?vid=9c6b4e77-450c-43d4-b126-04e9a8aca743"},"vehicle_type_id":"4","last_reported":1724684902,"current_range_meters":800,"station_id":"ce4bgjh2rcd13ifvqbf0","pricing_plan_id":"cebpf4jnsgd1na2vs0mg"},{"bike_id":"baab7e44-96d5-41d6-9718-b3c1c1fc35d5","system_id":"levelo_inurba_marseille","lat":43.302992,"lon":5.392136,"is_reserved":false,"is_disabled":false,"rental_uris":{"android":"levelo://app?vid=baab7e44-96d5-41d6-9718-b3c1c1fc35d5","ios":"levelo://app?vid=baab7e44-96d5-41d6-9718-b3c1c1fc35d5"},"vehicle_type_id":"4","last_reported":1724684902,"current_range_meters":0,"station_id":"ce4bgkh2rcd13ifvqbk0","pricing_plan_id":"cebpf4jnsgd1na2vs0mg"},{"bike_id":"c50dd6a6-d550-4385-aa2e-1fea77283782","system_id":"levelo_inurba_marseille","lat":43.2936,"lon":5.37835,"is_reserved":false,"is_disabled":false,"rental_uris":{"android":"levelo://app?vid=c50dd6a6-d550-4385-aa2e-1fea77283782","ios":"levelo://app?vid=c50dd6a6-d550-4385-aa2e-1fea77283782"},"vehicle_type_id":"4","last_reported":1724684902,"current_range_meters":8000,"station_id":"ce4bgjh2rcd13ifvqbf0","pricing_plan_id":"cebpf4jnsgd1na2vs0mg"},{"bike_id":"1f8c2ef3-0df3-4a6e-b3ad-10fba257ddc6","system_id":"levelo_inurba_marseille","lat":43.293684,"lon":5.378528,"is_reserved":false,"is_disabled":false,"rental_uris":{"android":"levelo://app?vid=1f8c2ef3-0df3-4a6e-b3ad-10fba257ddc6","ios":"levelo://app?vid=1f8c2ef3-0df3-4a6e-b3ad-10fba257ddc6"},"vehicle_type_id":"4","last_reported":1724684902,"current_range_meters":6000,"station_id":"ce4bgjh2rcd13ifvqbf0","pricing_plan_id":"cebpf4jnsgd1na2vs0mg"},{"bike_id":"57003e20-9d12-4d47-bad1-db6c4fba4a12","system_id":"levelo_inurba_marseille","lat":43.32487,"lon":5.39028,"is_reserved":false,"is_disabled":false,"rental_uris":{"android":"levelo://app?vid=57003e20-9d12-4d47-bad1-db6c4fba4a12","ios":"levelo://app?vid=57003e20-9d12-4d47-bad1-db6c4fba4a12"},"vehicle_type_id":"4","last_reported":1724684902,"current_range_meters":0,"station_id":"","pricing_plan_id":"cebpf4jnsgd1na2vs0mg"},{"bike_id":"791b21e7-0a19-49d9-bb84-d557e0d90dac","system_id":"levelo_inurba_marseille","lat":43.292311,"lon":5.360731,"is_reserved":false,"is_disabled":false,"rental_uris":{"android":"levelo://app?vid=791b21e7-0a19-49d9-bb84-d557e0d90dac","ios":"levelo://app?vid=791b21e7-0a19-49d9-bb84-d557e0d90dac"},"vehicle_type_id":"4","last_reported":1724684902,"current_range_meters":13200,"station_id":"ce4bhbh2rcd13ifvqeqg","pricing_plan_id":"cebpf4jnsgd1na2vs0mg"},{"bike_id":"4cff93e4-ec71-4b9c-a270-7e7b4455e9da","system_id":"levelo_inurba_marseille","lat":43.292311,"lon":5.360731,"is_reserved":false,"is_disabled":false,"rental_uris":{"android":"levelo://app?vid=4cff93e4-ec71-4b9c-a270-7e7b4455e9da","ios":"levelo://app?vid=4cff93e4-ec71-4b9c-a270-7e7b4455e9da"},"vehicle_type_id":"4","last_reported":1724684902,"current_range_meters":23600,"station_id":"ce4bhbh2rcd13ifvqeqg","pricing_plan_id":"cebpf4jnsgd1na2vs0mg"},{"bike_id":"4abde1b1-4bb8-4628-89d9-48e04359a2ee","system_id":"levelo_inurba_marseille","lat":43.292311,"lon":5.360731,"is_reserved":false,"is_disabled":false,"rental_uris":{"android":"levelo://app?vid=4abde1b1-4bb8-4628-89d9-48e04359a2ee","ios":"levelo://app?vid=4abde1b1-4bb8-4628-89d9-48e04359a2ee"},"vehicle_type_id":"4","last_reported":1724684902,"current_range_meters":2800,"station_id":"ce4bhbh2rcd13ifvqeqg","pricing_plan_id":"cebpf4jnsgd1na2vs0mg"},{"bike_id":"ce970aec-f4f2-42c3-9d03-c175e80d762b","system_id":"levelo_inurba_marseille","lat":43.29231,"lon":5.36057,"is_reserved":false,"is_disabled":false,"rental_uris":{"android":"levelo://app?vid=ce970aec-f4f2-42c3-9d03-c175e80d762b","ios":"levelo://app?vid=ce970aec-f4f2-42c3-9d03-c175e80d762b"},"vehicle_type_id":"4","last_reported":1724684902,"current_range_meters":13200,"station_id":"ce4bhbh2rcd13ifvqeqg","pricing_plan_id":"cebpf4jnsgd1na2vs0mg"},{"bike_id":"b7416120-71b0-4663-973f-cf69ee61341e","system_id":"levelo_inurba_marseille","lat":43.292311,"lon":5.360731,"is_reserved":false,"is_disabled":false,"rental_uris":{"android":"levelo://app?vid=b7416120-71b0-4663-973f-cf69ee61341e","ios":"levelo://app?vid=b7416120-71b0-4663-973f-cf69ee61341e"},"vehicle_type_id":"4","last_reported":1724684902,"current_range_meters":26800,"station_id":"ce4bhbh2rcd13ifvqeqg","pricing_plan_id":"cebpf4jnsgd1na2vs0mg"},{"bike_id":"80f45b63-5ca8-465b-91fd-9a31dd7c8a06","system_id":"levelo_inurba_marseille","lat":43.292311,"lon":5.360731,"is_reserved":false,"is_disabled":false,"rental_uris":{"android":"levelo://app?vid=80f45b63-5ca8-465b-91fd-9a31dd7c8a06","ios":"levelo://app?vid=80f45b63-5ca8-465b-91fd-9a31dd7c8a06"},"vehicle_type_id":"4","last_reported":1724684902,"current_range_meters":28400,"station_id":"ce4bhbh2rcd13ifvqeqg","pricing_plan_id":"cebpf4jnsgd1na2vs0mg"},{"bike_id":"21960836-bb80-4048-a9f9-5bd4ca57d7dd","system_id":"levelo_inurba_marseille","lat":43.292311,"lon":5.360731,"is_reserved":false,"is_disabled":false,"rental_uris":{"android":"levelo://app?vid=21960836-bb80-4048-a9f9-5bd4ca57d7dd","ios":"levelo://app?vid=21960836-bb80-4048-a9f9-5bd4ca57d7dd"},"vehicle_type_id":"4","last_reported":1724684902,"current_range_meters":14400,"station_id":"ce4bhbh2rcd13ifvqeqg","pricing_plan_id":"cebpf4jnsgd1na2vs0mg"},{"bike_id":"ab8582bc-a651-4348-a940-0a8d5ec27f3c","system_id":"levelo_inurba_marseille","lat":43.292292,"lon":5.360425,"is_reserved":false,"is_disabled":false,"rental_uris":{"android":"levelo://app?vid=ab8582bc-a651-4348-a940-0a8d5ec27f3c","ios":"levelo://app?vid=ab8582bc-a651-4348-a940-0a8d5ec27f3c"},"vehicle_type_id":"4","last_reported":1724684902,"current_range_meters":31200,"station_id":"ce4bhbh2rcd13ifvqeqg","pricing_plan_id":"cebpf4jnsgd1na2vs0mg"},{"bike_id":"3562d52a-30d7-40e8-8bae-c7a77a659f21","system_id":"levelo_inurba_marseille","lat":43.292311,"lon":5.360731,"is_reserved":false,"is_disabled":false,"rental_uris":{"android":"levelo://app?vid=3562d52a-30d7-40e8-8bae-c7a77a659f21","ios":"levelo://app?vid=3562d52a-30d7-40e8-8bae-c7a77a659f21"},"vehicle_type_id":"4","last_reported":1724684902,"current_range_meters":31200,"station_id":"ce4bhbh2rcd13ifvqeqg","pricing_plan_id":"cebpf4jnsgd1na2vs0mg"},{"bike_id":"7434b598-2c2f-465e-9d25-929b5d808df8","system_id":"levelo_inurba_marseille","lat":43.292311,"lon":5.360731,"is_reserved":false,"is_disabled":false,"rental_uris":{"android":"levelo://app?vid=7434b598-2c2f-465e-9d25-929b5d808df8","ios":"levelo://app?vid=7434b598-2c2f-465e-9d25-929b5d808df8"},"vehicle_type_id":"4","last_reported":1724684902,"current_range_meters":23600,"station_id":"ce4bhbh2rcd13ifvqeqg","pricing_plan_id":"cebpf4jnsgd1na2vs0mg"},{"bike_id":"83e9e724-4faf-4e41-b5c5-fdc82724e8d2","system_id":"levelo_inurba_marseille","lat":43.2922,"lon":5.36069,"is_reserved":false,"is_disabled":false,"rental_uris":{"android":"levelo://app?vid=83e9e724-4faf-4e41-b5c5-fdc82724e8d2","ios":"levelo://app?vid=83e9e724-4faf-4e41-b5c5-fdc82724e8d2"},"vehicle_type_id":"4","last_reported":1724684902,"current_range_meters":2800,"station_id":"ce4bhbh2rcd13ifvqeqg","pricing_plan_id":"cebpf4jnsgd1na2vs0mg"},{"bike_id":"72a27b0a-7571-47e5-95cc-38189a2c1061","system_id":"levelo_inurba_marseille","lat":43.29222,"lon":5.36056,"is_reserved":false,"is_disabled":false,"rental_uris":{"android":"levelo://app?vid=72a27b0a-7571-47e5-95cc-38189a2c1061","ios":"levelo://app?vid=72a27b0a-7571-47e5-95cc-38189a2c1061"},"vehicle_type_id":"4","last_reported":1724684902,"current_range_meters":400,"station_id":"ce4bhbh2rcd13ifvqeqg","pricing_plan_id":"cebpf4jnsgd1na2vs0mg"},{"bike_id":"7c3840b6-e598-406f-8559-c7d09d245d17","system_id":"levelo_inurba_marseille","lat":43.29169,"lon":5.37155,"is_reserved":false,"is_disabled":false,"rental_uris":{"android":"levelo://app?vid=7c3840b6-e598-406f-8559-c7d09d245d17","ios":"levelo://app?vid=7c3840b6-e598-406f-8559-c7d09d245d17"},"vehicle_type_id":"4","last_reported":1724684902,"current_range_meters":0,"station_id":"ce4bha92rcd13ifvqeh0","pricing_plan_id":"cebpf4jnsgd1na2vs0mg"},{"bike_id":"055b31cc-75db-4d91-acc2-af836f4982ef","system_id":"levelo_inurba_marseille","lat":43.291671,"lon":5.371575,"is_reserved":false,"is_disabled":false,"rental_uris":{"android":"levelo://app?vid=055b31cc-75db-4d91-acc2-af836f4982ef","ios":"levelo://app?vid=055b31cc-75db-4d91-acc2-af836f4982ef"},"vehicle_type_id":"4","last_reported":1724684902,"current_range_meters":20000,"station_id":"ce4bha92rcd13ifvqeh0","pricing_plan_id":"cebpf4jnsgd1na2vs0mg"},{"bike_id":"6415ff8b-9b7e-479a-893c-110a11717994","system_id":"levelo_inurba_marseille","lat":43.291675,"lon":5.371583,"is_reserved":false,"is_disabled":false,"rental_uris":{"android":"levelo://app?vid=6415ff8b-9b7e-479a-893c-110a11717994","ios":"levelo://app?vid=6415ff8b-9b7e-479a-893c-110a11717994"},"vehicle_type_id":"4","last_reported":1724684902,"current_range_meters":23200,"station_id":"ce4bha92rcd13ifvqeh0","pricing_plan_id":"cebpf4jnsgd1na2vs0mg"},{"bike_id":"2bc55bf9-b05f-46cd-ad85-8c8fcf4dc3c0","system_id":"levelo_inurba_marseille","lat":43.29164,"lon":5.37163,"is_reserved":false,"is_disabled":false,"rental_uris":{"android":"levelo://app?vid=2bc55bf9-b05f-46cd-ad85-8c8fcf4dc3c0","ios":"levelo://app?vid=2bc55bf9-b05f-46cd-ad85-8c8fcf4dc3c0"},"vehicle_type_id":"4","last_reported":1724684902,"current_range_meters":26000,"station_id":"ce4bha92rcd13ifvqeh0","pricing_plan_id":"cebpf4jnsgd1na2vs0mg"},{"bike_id":"af86fc0b-ba16-4649-a218-61b79bfde7b3","system_id":"levelo_inurba_marseille","lat":43.29197,"lon":5.35798,"is_reserved":false,"is_disabled":false,"rental_uris":{"android":"levelo://app?vid=af86fc0b-ba16-4649-a218-61b79bfde7b3","ios":"levelo://app?vid=af86fc0b-ba16-4649-a218-61b79bfde7b3"},"vehicle_type_id":"4","last_reported":1724684902,"current_range_meters":0,"station_id":"ce4bhb12rcd13ifvqel0","pricing_plan_id":"cebpf4jnsgd1na2vs0mg"},{"bike_id":"6bed53e9-2bc5-402c-ad28-e64cc57c2d8c","system_id":"levelo_inurba_marseille","lat":43.29195,"lon":5.35795,"is_reserved":false,"is_disabled":false,"rental_uris":{"android":"levelo://app?vid=6bed53e9-2bc5-402c-ad28-e64cc57c2d8c","ios":"levelo://app?vid=6bed53e9-2bc5-402c-ad28-e64cc57c2d8c"},"vehicle_type_id":"4","last_reported":1724684902,"current_range_meters":0,"station_id":"ce4bhb12rcd13ifvqel0","pricing_plan_id":"cebpf4jnsgd1na2vs0mg"},{"bike_id":"e1960ff9-4cfc-4fcd-8fd3-e301bdf0016c","system_id":"levelo_inurba_marseille","lat":43.291918,"lon":5.358091,"is_reserved":false,"is_disabled":false,"rental_uris":{"android":"levelo://app?vid=e1960ff9-4cfc-4fcd-8fd3-e301bdf0016c","ios":"levelo://app?vid=e1960ff9-4cfc-4fcd-8fd3-e301bdf0016c"},"vehicle_type_id":"4","last_reported":1724684902,"current_range_meters":20400,"station_id":"ce4bhb12rcd13ifvqel0","pricing_plan_id":"cebpf4jnsgd1na2vs0mg"},{"bike_id":"d30a5bbc-616a-41e3-840e-d15debe4bcd9","system_id":"levelo_inurba_marseille","lat":43.291904,"lon":5.358074,"is_reserved":false,"is_disabled":false,"rental_uris":{"android":"levelo://app?vid=d30a5bbc-616a-41e3-840e-d15debe4bcd9","ios":"levelo://app?vid=d30a5bbc-616a-41e3-840e-d15debe4bcd9"},"vehicle_type_id":"4","last_reported":1724684902,"current_range_meters":30400,"station_id":"ce4bhb12rcd13ifvqel0","pricing_plan_id":"cebpf4jnsgd1na2vs0mg"},{"bike_id":"fa2747b7-1863-4a8c-bb8f-639c24f51dbc","system_id":"levelo_inurba_marseille","lat":43.313291,"lon":5.396838,"is_reserved":false,"is_disabled":false,"rental_uris":{"android":"levelo://app?vid=fa2747b7-1863-4a8c-bb8f-639c24f51dbc","ios":"levelo://app?vid=fa2747b7-1863-4a8c-bb8f-639c24f51dbc"},"vehicle_type_id":"4","last_reported":1724684902,"current_range_meters":2800,"station_id":"ce4bgvp2rcd13ifvqcu0","pricing_plan_id":"cebpf4jnsgd1na2vs0mg"},{"bike_id":"8364f2ec-6ae4-466e-ba93-672c4a795024","system_id":"levelo_inurba_marseille","lat":43.309038,"lon":5.396546,"is_reserved":false,"is_disabled":false,"rental_uris":{"android":"levelo://app?vid=8364f2ec-6ae4-466e-ba93-672c4a795024","ios":"levelo://app?vid=8364f2ec-6ae4-466e-ba93-672c4a795024"},"vehicle_type_id":"4","last_reported":1724684902,"current_range_meters":26000,"station_id":"ce4bh012rcd13ifvqcv0","pricing_plan_id":"cebpf4jnsgd1na2vs0mg"},{"bike_id":"39b04a70-1b95-4e4d-9b2c-9d7314500ef9","system_id":"levelo_inurba_marseille","lat":43.29529,"lon":5.385581,"is_reserved":false,"is_disabled":false,"rental_uris":{"android":"levelo://app?vid=39b04a70-1b95-4e4d-9b2c-9d7314500ef9","ios":"levelo://app?vid=39b04a70-1b95-4e4d-9b2c-9d7314500ef9"},"vehicle_type_id":"4","last_reported":1724684902,"current_range_meters":5600,"station_id":"ce4bgih2rcd13ifvqba0","pricing_plan_id":"cebpf4jnsgd1na2vs0mg"},{"bike_id":"093db61a-69d9-452d-a266-d2bfd7ce18d3","system_id":"levelo_inurba_marseille","lat":43.29529,"lon":5.385581,"is_reserved":false,"is_disabled":false,"rental_uris":{"android":"levelo://app?vid=093db61a-69d9-452d-a266-d2bfd7ce18d3","ios":"levelo://app?vid=093db61a-69d9-452d-a266-d2bfd7ce18d3"},"vehicle_type_id":"4","last_reported":1724684902,"current_range_meters":18000,"station_id":"ce4bgih2rcd13ifvqba0","pricing_plan_id":"cebpf4jnsgd1na2vs0mg"},{"bike_id":"bfc187f4-178a-4cc7-8b3b-ec1586a7358d","system_id":"levelo_inurba_marseille","lat":43.29529,"lon":5.385581,"is_reserved":false,"is_disabled":false,"rental_uris":{"android":"levelo://app?vid=bfc187f4-178a-4cc7-8b3b-ec1586a7358d","ios":"levelo://app?vid=bfc187f4-178a-4cc7-8b3b-ec1586a7358d"},"vehicle_type_id":"4","last_reported":1724684902,"current_range_meters":0,"station_id":"ce4bgih2rcd13ifvqba0","pricing_plan_id":"cebpf4jnsgd1na2vs0mg"},{"bike_id":"f50f0348-1997-4f98-af34-8536a1f167e3","system_id":"levelo_inurba_marseille","lat":43.33442,"lon":5.361287,"is_reserved":false,"is_disabled":false,"rental_uris":{"android":"levelo://app?vid=f50f0348-1997-4f98-af34-8536a1f167e3","ios":"levelo://app?vid=f50f0348-1997-4f98-af34-8536a1f167e3"},"vehicle_type_id":"4","last_reported":1724684902,"current_range_meters":10800,"station_id":"","pricing_plan_id":"cebpf4jnsgd1na2vs0mg"},{"bike_id":"c284675c-858f-463b-87d4-c77d3255deee","system_id":"levelo_inurba_marseille","lat":43.290779,"lon":5.371482,"is_reserved":false,"is_disabled":false,"rental_uris":{"android":"levelo://app?vid=c284675c-858f-463b-87d4-c77d3255deee","ios":"levelo://app?vid=c284675c-858f-463b-87d4-c77d3255deee"},"vehicle_type_id":"4","last_reported":1724684902,"current_range_meters":22400,"station_id":"ce4bh5p2rcd13ifvqe4g","pricing_plan_id":"cebpf4jnsgd1na2vs0mg"},{"bike_id":"d11c4d0b-42c0-414b-b76e-d9eaacc18307","system_id":"levelo_inurba_marseille","lat":43.290779,"lon":5.371482,"is_reserved":false,"is_disabled":false,"rental_uris":{"android":"levelo://app?vid=d11c4d0b-42c0-414b-b76e-d9eaacc18307","ios":"levelo://app?vid=d11c4d0b-42c0-414b-b76e-d9eaacc18307"},"vehicle_type_id":"4","last_reported":1724684902,"current_range_meters":16400,"station_id":"ce4bh5p2rcd13ifvqe4g","pricing_plan_id":"cebpf4jnsgd1na2vs0mg"},{"bike_id":"102c6ad6-bb96-417f-afe5-95f4775af2a0","system_id":"levelo_inurba_marseille","lat":43.290624,"lon":5.359245,"is_reserved":false,"is_disabled":false,"rental_uris":{"android":"levelo://app?vid=102c6ad6-bb96-417f-afe5-95f4775af2a0","ios":"levelo://app?vid=102c6ad6-bb96-417f-afe5-95f4775af2a0"},"vehicle_type_id":"4","last_reported":1724684902,"current_range_meters":16400,"station_id":"ce4bha92rcd13ifvqeg0","pricing_plan_id":"cebpf4jnsgd1na2vs0mg"},{"bike_id":"3e0b5e10-53bc-425d-b0be-37c4d1a94565","system_id":"levelo_inurba_marseille","lat":43.324613,"lon":5.393784,"is_reserved":false,"is_disabled":false,"rental_uris":{"android":"levelo://app?vid=3e0b5e10-53bc-425d-b0be-37c4d1a94565","ios":"levelo://app?vid=3e0b5e10-53bc-425d-b0be-37c4d1a94565"},"vehicle_type_id":"4","last_reported":1724684902,"current_range_meters":6800,"station_id":"","pricing_plan_id":"cebpf4jnsgd1na2vs0mg"},{"bike_id":"6be4234f-cced-4f1d-b6de-aa6d5cad540b","system_id":"levelo_inurba_marseille","lat":43.290624,"lon":5.359245,"is_reserved":false,"is_disabled":false,"rental_uris":{"android":"levelo://app?vid=6be4234f-cced-4f1d-b6de-aa6d5cad540b","ios":"levelo://app?vid=6be4234f-cced-4f1d-b6de-aa6d5cad540b"},"vehicle_type_id":"4","last_reported":1724684902,"current_range_meters":4800,"station_id":"ce4bha92rcd13ifvqeg0","pricing_plan_id":"cebpf4jnsgd1na2vs0mg"},{"bike_id":"5292d25e-951a-4510-a704-13da55ba6210","system_id":"levelo_inurba_marseille","lat":43.294153,"lon":5.386305,"is_reserved":false,"is_disabled":false,"rental_uris":{"android":"levelo://app?vid=5292d25e-951a-4510-a704-13da55ba6210","ios":"levelo://app?vid=5292d25e-951a-4510-a704-13da55ba6210"},"vehicle_type_id":"4","last_reported":1724684902,"current_range_meters":26000,"station_id":"ce4bh2h2rcd13ifvqdh0","pricing_plan_id":"cebpf4jnsgd1na2vs0mg"},{"bike_id":"99547965-731c-48a2-b095-f9d0a9e25cf4","system_id":"levelo_inurba_marseille","lat":43.294153,"lon":5.386305,"is_reserved":false,"is_disabled":false,"rental_uris":{"android":"levelo://app?vid=99547965-731c-48a2-b095-f9d0a9e25cf4","ios":"levelo://app?vid=99547965-731c-48a2-b095-f9d0a9e25cf4"},"vehicle_type_id":"4","last_reported":1724684902,"current_range_meters":24800,"station_id":"ce4bh2h2rcd13ifvqdh0","pricing_plan_id":"cebpf4jnsgd1na2vs0mg"},{"bike_id":"2d3b4d90-a686-4191-bc04-54998938ddb4","system_id":"levelo_inurba_marseille","lat":43.2942,"lon":5.38613,"is_reserved":false,"is_disabled":false,"rental_uris":{"android":"levelo://app?vid=2d3b4d90-a686-4191-bc04-54998938ddb4","ios":"levelo://app?vid=2d3b4d90-a686-4191-bc04-54998938ddb4"},"vehicle_type_id":"4","last_reported":1724684902,"current_range_meters":18000,"station_id":"ce4bh2h2rcd13ifvqdh0","pricing_plan_id":"cebpf4jnsgd1na2vs0mg"},{"bike_id":"3c7156c2-a424-45a4-9c2d-0d7e2cc010e9","system_id":"levelo_inurba_marseille","lat":43.294162,"lon":5.386292,"is_reserved":false,"is_disabled":false,"rental_uris":{"android":"levelo://app?vid=3c7156c2-a424-45a4-9c2d-0d7e2cc010e9","ios":"levelo://app?vid=3c7156c2-a424-45a4-9c2d-0d7e2cc010e9"},"vehicle_type_id":"4","last_reported":1724684902,"current_range_meters":20400,"station_id":"ce4bh2h2rcd13ifvqdh0","pricing_plan_id":"cebpf4jnsgd1na2vs0mg"},{"bike_id":"a25b96a3-dd21-4067-aebd-1bdf9fb6f350","system_id":"levelo_inurba_marseille","lat":43.29422,"lon":5.38627,"is_reserved":false,"is_disabled":false,"rental_uris":{"android":"levelo://app?vid=a25b96a3-dd21-4067-aebd-1bdf9fb6f350","ios":"levelo://app?vid=a25b96a3-dd21-4067-aebd-1bdf9fb6f350"},"vehicle_type_id":"4","last_reported":1724684902,"current_range_meters":24000,"station_id":"ce4bh2h2rcd13ifvqdh0","pricing_plan_id":"cebpf4jnsgd1na2vs0mg"},{"bike_id":"b560efbc-96be-464f-8afc-6e05f9f5d676","system_id":"levelo_inurba_marseille","lat":43.290327,"lon":5.375711,"is_reserved":false,"is_disabled":false,"rental_uris":{"android":"levelo://app?vid=b560efbc-96be-464f-8afc-6e05f9f5d676","ios":"levelo://app?vid=b560efbc-96be-464f-8afc-6e05f9f5d676"},"vehicle_type_id":"4","last_reported":1724684902,"current_range_meters":5200,"station_id":"ce4bh692rcd13ifvqe90","pricing_plan_id":"cebpf4jnsgd1na2vs0mg"},{"bike_id":"c43d1d99-a27b-4774-b493-2cb7ae4c8ae0","system_id":"levelo_inurba_marseille","lat":43.294162,"lon":5.386292,"is_reserved":false,"is_disabled":false,"rental_uris":{"android":"levelo://app?vid=c43d1d99-a27b-4774-b493-2cb7ae4c8ae0","ios":"levelo://app?vid=c43d1d99-a27b-4774-b493-2cb7ae4c8ae0"},"vehicle_type_id":"4","last_reported":1724684902,"current_range_meters":1600,"station_id":"ce4bh2h2rcd13ifvqdh0","pricing_plan_id":"cebpf4jnsgd1na2vs0mg"},{"bike_id":"142108c2-48d2-42c4-aa1f-9de1d7dff2aa","system_id":"levelo_inurba_marseille","lat":43.289184,"lon":5.366408,"is_reserved":false,"is_disabled":false,"rental_uris":{"android":"levelo://app?vid=142108c2-48d2-42c4-aa1f-9de1d7dff2aa","ios":"levelo://app?vid=142108c2-48d2-42c4-aa1f-9de1d7dff2aa"},"vehicle_type_id":"4","last_reported":1724684902,"current_range_meters":17600,"station_id":"ce4bhap2rcd13ifvqek0","pricing_plan_id":"cebpf4jnsgd1na2vs0mg"},{"bike_id":"9d39958e-7101-4688-b29c-cb15f1782e24","system_id":"levelo_inurba_marseille","lat":43.289184,"lon":5.366408,"is_reserved":false,"is_disabled":false,"rental_uris":{"android":"levelo://app?vid=9d39958e-7101-4688-b29c-cb15f1782e24","ios":"levelo://app?vid=9d39958e-7101-4688-b29c-cb15f1782e24"},"vehicle_type_id":"4","last_reported":1724684902,"current_range_meters":4400,"station_id":"ce4bhap2rcd13ifvqek0","pricing_plan_id":"cebpf4jnsgd1na2vs0mg"},{"bike_id":"423719a9-9e11-4ed0-a83b-7fa120beef29","system_id":"levelo_inurba_marseille","lat":43.289184,"lon":5.366408,"is_reserved":false,"is_disabled":false,"rental_uris":{"android":"levelo://app?vid=423719a9-9e11-4ed0-a83b-7fa120beef29","ios":"levelo://app?vid=423719a9-9e11-4ed0-a83b-7fa120beef29"},"vehicle_type_id":"4","last_reported":1724684902,"current_range_meters":30800,"station_id":"ce4bhap2rcd13ifvqek0","pricing_plan_id":"cebpf4jnsgd1na2vs0mg"},{"bike_id":"84594269-ee41-446b-89de-ad021fa4de2c","system_id":"levelo_inurba_marseille","lat":43.289184,"lon":5.366408,"is_reserved":false,"is_disabled":false,"rental_uris":{"android":"levelo://app?vid=84594269-ee41-446b-89de-ad021fa4de2c","ios":"levelo://app?vid=84594269-ee41-446b-89de-ad021fa4de2c"},"vehicle_type_id":"4","last_reported":1724684902,"current_range_meters":10800,"station_id":"ce4bhap2rcd13ifvqek0","pricing_plan_id":"cebpf4jnsgd1na2vs0mg"},{"bike_id":"b293cbce-8d5b-4099-a365-c2dd4bd7fb35","system_id":"levelo_inurba_marseille","lat":43.289184,"lon":5.366408,"is_reserved":false,"is_disabled":false,"rental_uris":{"android":"levelo://app?vid=b293cbce-8d5b-4099-a365-c2dd4bd7fb35","ios":"levelo://app?vid=b293cbce-8d5b-4099-a365-c2dd4bd7fb35"},"vehicle_type_id":"4","last_reported":1724684902,"current_range_meters":800,"station_id":"ce4bhap2rcd13ifvqek0","pricing_plan_id":"cebpf4jnsgd1na2vs0mg"},{"bike_id":"f3ba9c5e-03e6-4187-92ee-6871f4ab2da4","system_id":"levelo_inurba_marseille","lat":43.289401,"lon":5.363928,"is_reserved":false,"is_disabled":false,"rental_uris":{"android":"levelo://app?vid=f3ba9c5e-03e6-4187-92ee-6871f4ab2da4","ios":"levelo://app?vid=f3ba9c5e-03e6-4187-92ee-6871f4ab2da4"},"vehicle_type_id":"4","last_reported":1724684902,"current_range_meters":31200,"station_id":"ce4bhc92rcd13ifvqetg","pricing_plan_id":"cebpf4jnsgd1na2vs0mg"},{"bike_id":"97c4c3fe-7631-4f74-ab1c-85b698302e24","system_id":"levelo_inurba_marseille","lat":43.289376,"lon":5.364028,"is_reserved":false,"is_disabled":false,"rental_uris":{"android":"levelo://app?vid=97c4c3fe-7631-4f74-ab1c-85b698302e24","ios":"levelo://app?vid=97c4c3fe-7631-4f74-ab1c-85b698302e24"},"vehicle_type_id":"4","last_reported":1724684902,"current_range_meters":1200,"station_id":"ce4bhc92rcd13ifvqetg","pricing_plan_id":"cebpf4jnsgd1na2vs0mg"},{"bike_id":"88996fb9-1e45-4f0b-96e8-d9fc19ce6f51","system_id":"levelo_inurba_marseille","lat":43.28937,"lon":5.36403,"is_reserved":false,"is_disabled":false,"rental_uris":{"android":"levelo://app?vid=88996fb9-1e45-4f0b-96e8-d9fc19ce6f51","ios":"levelo://app?vid=88996fb9-1e45-4f0b-96e8-d9fc19ce6f51"},"vehicle_type_id":"4","last_reported":1724684902,"current_range_meters":30400,"station_id":"ce4bhc92rcd13ifvqetg","pricing_plan_id":"cebpf4jnsgd1na2vs0mg"},{"bike_id":"27bd6446-d3b2-4536-9945-219cc9cb8229","system_id":"levelo_inurba_marseille","lat":43.289314,"lon":5.363974,"is_reserved":false,"is_disabled":false,"rental_uris":{"android":"levelo://app?vid=27bd6446-d3b2-4536-9945-219cc9cb8229","ios":"levelo://app?vid=27bd6446-d3b2-4536-9945-219cc9cb8229"},"vehicle_type_id":"4","last_reported":1724684902,"current_range_meters":28000,"station_id":"ce4bhc92rcd13ifvqetg","pricing_plan_id":"cebpf4jnsgd1na2vs0mg"},{"bike_id":"21ea94c3-0ed6-4b1b-a54d-aa6ee35ae84f","system_id":"levelo_inurba_marseille","lat":43.290104,"lon":5.356111,"is_reserved":false,"is_disabled":false,"rental_uris":{"android":"levelo://app?vid=21ea94c3-0ed6-4b1b-a54d-aa6ee35ae84f","ios":"levelo://app?vid=21ea94c3-0ed6-4b1b-a54d-aa6ee35ae84f"},"vehicle_type_id":"4","last_reported":1724684902,"current_range_meters":800,"station_id":"ce4bhb92rcd13ifvqen0","pricing_plan_id":"cebpf4jnsgd1na2vs0mg"},{"bike_id":"f463b2cf-1b97-4226-967e-bd1e4ae4ec41","system_id":"levelo_inurba_marseille","lat":43.290103,"lon":5.356114,"is_reserved":false,"is_disabled":false,"rental_uris":{"android":"levelo://app?vid=f463b2cf-1b97-4226-967e-bd1e4ae4ec41","ios":"levelo://app?vid=f463b2cf-1b97-4226-967e-bd1e4ae4ec41"},"vehicle_type_id":"4","last_reported":1724684902,"current_range_meters":16000,"station_id":"ce4bhb92rcd13ifvqen0","pricing_plan_id":"cebpf4jnsgd1na2vs0mg"},{"bike_id":"37c5ac94-5167-44d3-a9ec-90832cec960b","system_id":"levelo_inurba_marseille","lat":43.29011,"lon":5.35607,"is_reserved":false,"is_disabled":false,"rental_uris":{"android":"levelo://app?vid=37c5ac94-5167-44d3-a9ec-90832cec960b","ios":"levelo://app?vid=37c5ac94-5167-44d3-a9ec-90832cec960b"},"vehicle_type_id":"4","last_reported":1724684902,"current_range_meters":0,"station_id":"ce4bhb92rcd13ifvqen0","pricing_plan_id":"cebpf4jnsgd1na2vs0mg"},{"bike_id":"adf8aa61-9c80-4d4f-8a3c-4b3c7d6677af","system_id":"levelo_inurba_marseille","lat":43.290104,"lon":5.356111,"is_reserved":false,"is_disabled":false,"rental_uris":{"android":"levelo://app?vid=adf8aa61-9c80-4d4f-8a3c-4b3c7d6677af","ios":"levelo://app?vid=adf8aa61-9c80-4d4f-8a3c-4b3c7d6677af"},"vehicle_type_id":"4","last_reported":1724684902,"current_range_meters":31200,"station_id":"ce4bhb92rcd13ifvqen0","pricing_plan_id":"cebpf4jnsgd1na2vs0mg"},{"bike_id":"9a82447b-af1f-4cd7-b4fc-58186f9bb79d","system_id":"levelo_inurba_marseille","lat":43.29009,"lon":5.35607,"is_reserved":false,"is_disabled":false,"rental_uris":{"android":"levelo://app?vid=9a82447b-af1f-4cd7-b4fc-58186f9bb79d","ios":"levelo://app?vid=9a82447b-af1f-4cd7-b4fc-58186f9bb79d"},"vehicle_type_id":"4","last_reported":1724684902,"current_range_meters":20400,"station_id":"ce4bhb92rcd13ifvqen0","pricing_plan_id":"cebpf4jnsgd1na2vs0mg"},{"bike_id":"f6364cca-c757-4ccf-9712-ad6bc5dd72e6","system_id":"levelo_inurba_marseille","lat":43.290103,"lon":5.356114,"is_reserved":false,"is_disabled":false,"rental_uris":{"android":"levelo://app?vid=f6364cca-c757-4ccf-9712-ad6bc5dd72e6","ios":"levelo://app?vid=f6364cca-c757-4ccf-9712-ad6bc5dd72e6"},"vehicle_type_id":"4","last_reported":1724684902,"current_range_meters":2000,"station_id":"ce4bhb92rcd13ifvqen0","pricing_plan_id":"cebpf4jnsgd1na2vs0mg"},{"bike_id":"fea684fe-5597-4597-bb0d-2ce0bb6801d5","system_id":"levelo_inurba_marseille","lat":43.29007,"lon":5.35608,"is_reserved":false,"is_disabled":false,"rental_uris":{"android":"levelo://app?vid=fea684fe-5597-4597-bb0d-2ce0bb6801d5","ios":"levelo://app?vid=fea684fe-5597-4597-bb0d-2ce0bb6801d5"},"vehicle_type_id":"4","last_reported":1724684902,"current_range_meters":15600,"station_id":"ce4bhb92rcd13ifvqen0","pricing_plan_id":"cebpf4jnsgd1na2vs0mg"},{"bike_id":"c763ee02-994c-4b9a-8eb9-85c95efa5a36","system_id":"levelo_inurba_marseille","lat":43.290995,"lon":5.381361,"is_reserved":false,"is_disabled":false,"rental_uris":{"android":"levelo://app?vid=c763ee02-994c-4b9a-8eb9-85c95efa5a36","ios":"levelo://app?vid=c763ee02-994c-4b9a-8eb9-85c95efa5a36"},"vehicle_type_id":"4","last_reported":1724684902,"current_range_meters":25200,"station_id":"ce4bh512rcd13ifvqe2g","pricing_plan_id":"cebpf4jnsgd1na2vs0mg"},{"bike_id":"d6f0c446-3b32-4f62-b5cf-6cdc282b26bc","system_id":"levelo_inurba_marseille","lat":43.290995,"lon":5.381361,"is_reserved":false,"is_disabled":false,"rental_uris":{"android":"levelo://app?vid=d6f0c446-3b32-4f62-b5cf-6cdc282b26bc","ios":"levelo://app?vid=d6f0c446-3b32-4f62-b5cf-6cdc282b26bc"},"vehicle_type_id":"4","last_reported":1724684902,"current_range_meters":18400,"station_id":"ce4bh512rcd13ifvqe2g","pricing_plan_id":"cebpf4jnsgd1na2vs0mg"},{"bike_id":"33ee564a-87c0-4812-88f6-4315a4c43511","system_id":"levelo_inurba_marseille","lat":43.297815,"lon":5.393548,"is_reserved":false,"is_disabled":false,"rental_uris":{"android":"levelo://app?vid=33ee564a-87c0-4812-88f6-4315a4c43511","ios":"levelo://app?vid=33ee564a-87c0-4812-88f6-4315a4c43511"},"vehicle_type_id":"4","last_reported":1724684902,"current_range_meters":4400,"station_id":"chh1huq6cuj3fo74tm60","pricing_plan_id":"cebpf4jnsgd1na2vs0mg"},{"bike_id":"8335d71f-c0b8-4886-ae86-ed8213ef6005","system_id":"levelo_inurba_marseille","lat":43.297807,"lon":5.393533,"is_reserved":false,"is_disabled":false,"rental_uris":{"android":"levelo://app?vid=8335d71f-c0b8-4886-ae86-ed8213ef6005","ios":"levelo://app?vid=8335d71f-c0b8-4886-ae86-ed8213ef6005"},"vehicle_type_id":"4","last_reported":1724684902,"current_range_meters":23200,"station_id":"chh1huq6cuj3fo74tm60","pricing_plan_id":"cebpf4jnsgd1na2vs0mg"},{"bike_id":"d201c411-7fba-4024-8413-b92dcb193326","system_id":"levelo_inurba_marseille","lat":43.3302,"lon":5.39034,"is_reserved":false,"is_disabled":false,"rental_uris":{"android":"levelo://app?vid=d201c411-7fba-4024-8413-b92dcb193326","ios":"levelo://app?vid=d201c411-7fba-4024-8413-b92dcb193326"},"vehicle_type_id":"4","last_reported":1724684902,"current_range_meters":21600,"station_id":"ce4bhr92rcd13ifvqhrg","pricing_plan_id":"cebpf4jnsgd1na2vs0mg"},{"bike_id":"d74f8e03-6953-4ea3-bafd-ccae5b05d505","system_id":"levelo_inurba_marseille","lat":43.33027,"lon":5.3903,"is_reserved":false,"is_disabled":false,"rental_uris":{"android":"levelo://app?vid=d74f8e03-6953-4ea3-bafd-ccae5b05d505","ios":"levelo://app?vid=d74f8e03-6953-4ea3-bafd-ccae5b05d505"},"vehicle_type_id":"4","last_reported":1724684902,"current_range_meters":0,"station_id":"ce4bhr92rcd13ifvqhrg","pricing_plan_id":"cebpf4jnsgd1na2vs0mg"},{"bike_id":"ddab0fb3-33df-4bfd-9aa8-7e89cf6f2a03","system_id":"levelo_inurba_marseille","lat":43.33028,"lon":5.39032,"is_reserved":false,"is_disabled":false,"rental_uris":{"android":"levelo://app?vid=ddab0fb3-33df-4bfd-9aa8-7e89cf6f2a03","ios":"levelo://app?vid=ddab0fb3-33df-4bfd-9aa8-7e89cf6f2a03"},"vehicle_type_id":"4","last_reported":1724684902,"current_range_meters":31200,"station_id":"ce4bhr92rcd13ifvqhrg","pricing_plan_id":"cebpf4jnsgd1na2vs0mg"},{"bike_id":"ff5a67e8-7448-47ea-969a-7ee519525fa1","system_id":"levelo_inurba_marseille","lat":43.330273,"lon":5.390363,"is_reserved":false,"is_disabled":false,"rental_uris":{"android":"levelo://app?vid=ff5a67e8-7448-47ea-969a-7ee519525fa1","ios":"levelo://app?vid=ff5a67e8-7448-47ea-969a-7ee519525fa1"},"vehicle_type_id":"4","last_reported":1724684902,"current_range_meters":6400,"station_id":"ce4bhr92rcd13ifvqhrg","pricing_plan_id":"cebpf4jnsgd1na2vs0mg"},{"bike_id":"eb737d8a-f086-4dd4-9766-02117192e555","system_id":"levelo_inurba_marseille","lat":43.33025,"lon":5.39042,"is_reserved":false,"is_disabled":false,"rental_uris":{"android":"levelo://app?vid=eb737d8a-f086-4dd4-9766-02117192e555","ios":"levelo://app?vid=eb737d8a-f086-4dd4-9766-02117192e555"},"vehicle_type_id":"4","last_reported":1724684902,"current_range_meters":6400,"station_id":"ce4bhr92rcd13ifvqhrg","pricing_plan_id":"cebpf4jnsgd1na2vs0mg"},{"bike_id":"d5781c5b-4e9a-4e2d-a839-5cc42c7bcb98","system_id":"levelo_inurba_marseille","lat":43.33026,"lon":5.39042,"is_reserved":false,"is_disabled":false,"rental_uris":{"android":"levelo://app?vid=d5781c5b-4e9a-4e2d-a839-5cc42c7bcb98","ios":"levelo://app?vid=d5781c5b-4e9a-4e2d-a839-5cc42c7bcb98"},"vehicle_type_id":"4","last_reported":1724684902,"current_range_meters":2800,"station_id":"ce4bhr92rcd13ifvqhrg","pricing_plan_id":"cebpf4jnsgd1na2vs0mg"},{"bike_id":"2e550883-0764-4aed-b62e-fc72f88d6c05","system_id":"levelo_inurba_marseille","lat":43.33028,"lon":5.3904,"is_reserved":false,"is_disabled":false,"rental_uris":{"android":"levelo://app?vid=2e550883-0764-4aed-b62e-fc72f88d6c05","ios":"levelo://app?vid=2e550883-0764-4aed-b62e-fc72f88d6c05"},"vehicle_type_id":"4","last_reported":1724684902,"current_range_meters":15200,"station_id":"ce4bhr92rcd13ifvqhrg","pricing_plan_id":"cebpf4jnsgd1na2vs0mg"},{"bike_id":"0aef762b-d383-4ed5-841d-fdc6632fc869","system_id":"levelo_inurba_marseille","lat":43.330442,"lon":5.389148,"is_reserved":false,"is_disabled":false,"rental_uris":{"android":"levelo://app?vid=0aef762b-d383-4ed5-841d-fdc6632fc869","ios":"levelo://app?vid=0aef762b-d383-4ed5-841d-fdc6632fc869"},"vehicle_type_id":"4","last_reported":1724684902,"current_range_meters":18800,"station_id":"ce4bhr92rcd13ifvqhrg","pricing_plan_id":"cebpf4jnsgd1na2vs0mg"},{"bike_id":"f569339a-b98d-412c-b7f5-fb1bb2f5c8e0","system_id":"levelo_inurba_marseille","lat":43.33028,"lon":5.39041,"is_reserved":false,"is_disabled":false,"rental_uris":{"android":"levelo://app?vid=f569339a-b98d-412c-b7f5-fb1bb2f5c8e0","ios":"levelo://app?vid=f569339a-b98d-412c-b7f5-fb1bb2f5c8e0"},"vehicle_type_id":"4","last_reported":1724684902,"current_range_meters":26800,"station_id":"ce4bhr92rcd13ifvqhrg","pricing_plan_id":"cebpf4jnsgd1na2vs0mg"},{"bike_id":"eecd25ca-06d6-4bdf-921f-9f60d5cf2d98","system_id":"levelo_inurba_marseille","lat":43.28968,"lon":5.37825,"is_reserved":false,"is_disabled":false,"rental_uris":{"android":"levelo://app?vid=eecd25ca-06d6-4bdf-921f-9f60d5cf2d98","ios":"levelo://app?vid=eecd25ca-06d6-4bdf-921f-9f60d5cf2d98"},"vehicle_type_id":"4","last_reported":1724684902,"current_range_meters":6800,"station_id":"ce4bh9p2rcd13ifvqed0","pricing_plan_id":"cebpf4jnsgd1na2vs0mg"},{"bike_id":"72a25ebe-8e03-4f61-a844-412886f70f18","system_id":"levelo_inurba_marseille","lat":43.33027,"lon":5.39043,"is_reserved":false,"is_disabled":false,"rental_uris":{"android":"levelo://app?vid=72a25ebe-8e03-4f61-a844-412886f70f18","ios":"levelo://app?vid=72a25ebe-8e03-4f61-a844-412886f70f18"},"vehicle_type_id":"4","last_reported":1724684902,"current_range_meters":25200,"station_id":"ce4bhr92rcd13ifvqhrg","pricing_plan_id":"cebpf4jnsgd1na2vs0mg"},{"bike_id":"6142a616-d162-41a6-9bac-690b93d07947","system_id":"levelo_inurba_marseille","lat":43.28856,"lon":5.358371,"is_reserved":false,"is_disabled":false,"rental_uris":{"android":"levelo://app?vid=6142a616-d162-41a6-9bac-690b93d07947","ios":"levelo://app?vid=6142a616-d162-41a6-9bac-690b93d07947"},"vehicle_type_id":"4","last_reported":1724684902,"current_range_meters":26000,"station_id":"ce4bhb12rcd13ifvqem0","pricing_plan_id":"cebpf4jnsgd1na2vs0mg"},{"bike_id":"ec6351ea-b72b-415d-bc61-fe4194f65eb6","system_id":"levelo_inurba_marseille","lat":43.28856,"lon":5.358371,"is_reserved":false,"is_disabled":false,"rental_uris":{"android":"levelo://app?vid=ec6351ea-b72b-415d-bc61-fe4194f65eb6","ios":"levelo://app?vid=ec6351ea-b72b-415d-bc61-fe4194f65eb6"},"vehicle_type_id":"4","last_reported":1724684902,"current_range_meters":30400,"station_id":"ce4bhb12rcd13ifvqem0","pricing_plan_id":"cebpf4jnsgd1na2vs0mg"},{"bike_id":"efa7418c-bf64-4b03-91ba-3606c45bcaa2","system_id":"levelo_inurba_marseille","lat":43.28856,"lon":5.358371,"is_reserved":false,"is_disabled":false,"rental_uris":{"android":"levelo://app?vid=efa7418c-bf64-4b03-91ba-3606c45bcaa2","ios":"levelo://app?vid=efa7418c-bf64-4b03-91ba-3606c45bcaa2"},"vehicle_type_id":"4","last_reported":1724684902,"current_range_meters":7600,"station_id":"ce4bhb12rcd13ifvqem0","pricing_plan_id":"cebpf4jnsgd1na2vs0mg"},{"bike_id":"c2e47252-1e72-4d57-ae78-099a52e18465","system_id":"levelo_inurba_marseille","lat":43.28856,"lon":5.358371,"is_reserved":false,"is_disabled":false,"rental_uris":{"android":"levelo://app?vid=c2e47252-1e72-4d57-ae78-099a52e18465","ios":"levelo://app?vid=c2e47252-1e72-4d57-ae78-099a52e18465"},"vehicle_type_id":"4","last_reported":1724684902,"current_range_meters":30800,"station_id":"ce4bhb12rcd13ifvqem0","pricing_plan_id":"cebpf4jnsgd1na2vs0mg"},{"bike_id":"c1abd5dd-405e-40d0-9561-cd4540b2bc71","system_id":"levelo_inurba_marseille","lat":43.28856,"lon":5.358371,"is_reserved":false,"is_disabled":false,"rental_uris":{"android":"levelo://app?vid=c1abd5dd-405e-40d0-9561-cd4540b2bc71","ios":"levelo://app?vid=c1abd5dd-405e-40d0-9561-cd4540b2bc71"},"vehicle_type_id":"4","last_reported":1724684902,"current_range_meters":24400,"station_id":"ce4bhb12rcd13ifvqem0","pricing_plan_id":"cebpf4jnsgd1na2vs0mg"},{"bike_id":"57403d4f-fc44-48d6-bc97-0dfc38a65fa2","system_id":"levelo_inurba_marseille","lat":43.33734,"lon":5.374552,"is_reserved":false,"is_disabled":false,"rental_uris":{"android":"levelo://app?vid=57403d4f-fc44-48d6-bc97-0dfc38a65fa2","ios":"levelo://app?vid=57403d4f-fc44-48d6-bc97-0dfc38a65fa2"},"vehicle_type_id":"4","last_reported":1724684902,"current_range_meters":28000,"station_id":"","pricing_plan_id":"cebpf4jnsgd1na2vs0mg"},{"bike_id":"0de00f83-8b71-4c47-99e7-0ab79defac76","system_id":"levelo_inurba_marseille","lat":43.30642,"lon":5.401031,"is_reserved":false,"is_disabled":false,"rental_uris":{"android":"levelo://app?vid=0de00f83-8b71-4c47-99e7-0ab79defac76","ios":"levelo://app?vid=0de00f83-8b71-4c47-99e7-0ab79defac76"},"vehicle_type_id":"4","last_reported":1724684902,"current_range_meters":0,"station_id":"ce4bh112rcd13ifvqda0","pricing_plan_id":"cebpf4jnsgd1na2vs0mg"},{"bike_id":"61e4f230-27d1-4426-90d0-670c3029f865","system_id":"levelo_inurba_marseille","lat":43.309371,"lon":5.401449,"is_reserved":false,"is_disabled":false,"rental_uris":{"android":"levelo://app?vid=61e4f230-27d1-4426-90d0-670c3029f865","ios":"levelo://app?vid=61e4f230-27d1-4426-90d0-670c3029f865"},"vehicle_type_id":"4","last_reported":1724684902,"current_range_meters":28000,"station_id":"ce4bgvp2rcd13ifvqct0","pricing_plan_id":"cebpf4jnsgd1na2vs0mg"},{"bike_id":"e4990b53-5200-435b-8592-1668c8167ed9","system_id":"levelo_inurba_marseille","lat":43.309371,"lon":5.401449,"is_reserved":false,"is_disabled":false,"rental_uris":{"android":"levelo://app?vid=e4990b53-5200-435b-8592-1668c8167ed9","ios":"levelo://app?vid=e4990b53-5200-435b-8592-1668c8167ed9"},"vehicle_type_id":"4","last_reported":1724684902,"current_range_meters":18400,"station_id":"ce4bgvp2rcd13ifvqct0","pricing_plan_id":"cebpf4jnsgd1na2vs0mg"},{"bike_id":"d6417237-38ee-42e1-a78c-c0581fa70570","system_id":"levelo_inurba_marseille","lat":43.33751,"lon":5.37452,"is_reserved":false,"is_disabled":false,"rental_uris":{"android":"levelo://app?vid=d6417237-38ee-42e1-a78c-c0581fa70570","ios":"levelo://app?vid=d6417237-38ee-42e1-a78c-c0581fa70570"},"vehicle_type_id":"4","last_reported":1724684902,"current_range_meters":12000,"station_id":"","pricing_plan_id":"cebpf4jnsgd1na2vs0mg"},{"bike_id":"08244d3d-a54a-4233-98e0-a178376cf0d9","system_id":"levelo_inurba_marseille","lat":43.33756,"lon":5.37451,"is_reserved":false,"is_disabled":false,"rental_uris":{"android":"levelo://app?vid=08244d3d-a54a-4233-98e0-a178376cf0d9","ios":"levelo://app?vid=08244d3d-a54a-4233-98e0-a178376cf0d9"},"vehicle_type_id":"4","last_reported":1724684902,"current_range_meters":25200,"station_id":"","pricing_plan_id":"cebpf4jnsgd1na2vs0mg"},{"bike_id":"f8345c82-b9ac-4f5d-b249-1d2ee246e06a","system_id":"levelo_inurba_marseille","lat":43.337565,"lon":5.374577,"is_reserved":false,"is_disabled":false,"rental_uris":{"android":"levelo://app?vid=f8345c82-b9ac-4f5d-b249-1d2ee246e06a","ios":"levelo://app?vid=f8345c82-b9ac-4f5d-b249-1d2ee246e06a"},"vehicle_type_id":"4","last_reported":1724684902,"current_range_meters":30400,"station_id":"","pricing_plan_id":"cebpf4jnsgd1na2vs0mg"},{"bike_id":"dbfb9240-0d6c-46e4-9f3d-dd25b5cacce4","system_id":"levelo_inurba_marseille","lat":43.33768,"lon":5.37436,"is_reserved":false,"is_disabled":false,"rental_uris":{"android":"levelo://app?vid=dbfb9240-0d6c-46e4-9f3d-dd25b5cacce4","ios":"levelo://app?vid=dbfb9240-0d6c-46e4-9f3d-dd25b5cacce4"},"vehicle_type_id":"4","last_reported":1724684902,"current_range_meters":6400,"station_id":"","pricing_plan_id":"cebpf4jnsgd1na2vs0mg"},{"bike_id":"73fbe73f-0186-4227-959b-533984585cef","system_id":"levelo_inurba_marseille","lat":43.33764,"lon":5.37487,"is_reserved":false,"is_disabled":false,"rental_uris":{"android":"levelo://app?vid=73fbe73f-0186-4227-959b-533984585cef","ios":"levelo://app?vid=73fbe73f-0186-4227-959b-533984585cef"},"vehicle_type_id":"4","last_reported":1724684902,"current_range_meters":27200,"station_id":"","pricing_plan_id":"cebpf4jnsgd1na2vs0mg"},{"bike_id":"7984e337-3a28-46c0-a676-8a117b76ff2b","system_id":"levelo_inurba_marseille","lat":43.301117,"lon":5.398795,"is_reserved":false,"is_disabled":false,"rental_uris":{"android":"levelo://app?vid=7984e337-3a28-46c0-a676-8a117b76ff2b","ios":"levelo://app?vid=7984e337-3a28-46c0-a676-8a117b76ff2b"},"vehicle_type_id":"4","last_reported":1724684902,"current_range_meters":8800,"station_id":"ce4bh0h2rcd13ifvqd40","pricing_plan_id":"cebpf4jnsgd1na2vs0mg"},{"bike_id":"e26815e9-32de-4d6d-adb0-6c06add483f7","system_id":"levelo_inurba_marseille","lat":43.299549,"lon":5.397126,"is_reserved":false,"is_disabled":false,"rental_uris":{"android":"levelo://app?vid=e26815e9-32de-4d6d-adb0-6c06add483f7","ios":"levelo://app?vid=e26815e9-32de-4d6d-adb0-6c06add483f7"},"vehicle_type_id":"4","last_reported":1724684902,"current_range_meters":14400,"station_id":"","pricing_plan_id":"cebpf4jnsgd1na2vs0mg"},{"bike_id":"7986d387-cb72-48b6-938b-f56b26521ab3","system_id":"levelo_inurba_marseille","lat":43.301117,"lon":5.398795,"is_reserved":false,"is_disabled":false,"rental_uris":{"android":"levelo://app?vid=7986d387-cb72-48b6-938b-f56b26521ab3","ios":"levelo://app?vid=7986d387-cb72-48b6-938b-f56b26521ab3"},"vehicle_type_id":"4","last_reported":1724684902,"current_range_meters":22000,"station_id":"ce4bh0h2rcd13ifvqd40","pricing_plan_id":"cebpf4jnsgd1na2vs0mg"},{"bike_id":"833dae72-b232-4ecd-88d5-eb1c3a37d7c6","system_id":"levelo_inurba_marseille","lat":43.301117,"lon":5.398795,"is_reserved":false,"is_disabled":false,"rental_uris":{"android":"levelo://app?vid=833dae72-b232-4ecd-88d5-eb1c3a37d7c6","ios":"levelo://app?vid=833dae72-b232-4ecd-88d5-eb1c3a37d7c6"},"vehicle_type_id":"4","last_reported":1724684902,"current_range_meters":11600,"station_id":"ce4bh0h2rcd13ifvqd40","pricing_plan_id":"cebpf4jnsgd1na2vs0mg"},{"bike_id":"1e0efaf7-ed58-4ad3-824d-0591e513ba80","system_id":"levelo_inurba_marseille","lat":43.301117,"lon":5.398795,"is_reserved":false,"is_disabled":false,"rental_uris":{"android":"levelo://app?vid=1e0efaf7-ed58-4ad3-824d-0591e513ba80","ios":"levelo://app?vid=1e0efaf7-ed58-4ad3-824d-0591e513ba80"},"vehicle_type_id":"4","last_reported":1724684902,"current_range_meters":16000,"station_id":"ce4bh0h2rcd13ifvqd40","pricing_plan_id":"cebpf4jnsgd1na2vs0mg"},{"bike_id":"2e98bbc9-cb47-4a9f-82ab-177fc780e4d1","system_id":"levelo_inurba_marseille","lat":43.301117,"lon":5.398795,"is_reserved":false,"is_disabled":false,"rental_uris":{"android":"levelo://app?vid=2e98bbc9-cb47-4a9f-82ab-177fc780e4d1","ios":"levelo://app?vid=2e98bbc9-cb47-4a9f-82ab-177fc780e4d1"},"vehicle_type_id":"4","last_reported":1724684902,"current_range_meters":28400,"station_id":"ce4bh0h2rcd13ifvqd40","pricing_plan_id":"cebpf4jnsgd1na2vs0mg"},{"bike_id":"09354abe-64b0-48ce-b130-94657a62ae4b","system_id":"levelo_inurba_marseille","lat":43.28727,"lon":5.36078,"is_reserved":false,"is_disabled":false,"rental_uris":{"android":"levelo://app?vid=09354abe-64b0-48ce-b130-94657a62ae4b","ios":"levelo://app?vid=09354abe-64b0-48ce-b130-94657a62ae4b"},"vehicle_type_id":"4","last_reported":1724684902,"current_range_meters":16400,"station_id":"cki0cbj6b192h4jlfktg","pricing_plan_id":"cebpf4jnsgd1na2vs0mg"},{"bike_id":"711a5c1d-6fef-4a00-8cfa-5dcd71c44a9c","system_id":"levelo_inurba_marseille","lat":43.28727,"lon":5.36078,"is_reserved":false,"is_disabled":false,"rental_uris":{"android":"levelo://app?vid=711a5c1d-6fef-4a00-8cfa-5dcd71c44a9c","ios":"levelo://app?vid=711a5c1d-6fef-4a00-8cfa-5dcd71c44a9c"},"vehicle_type_id":"4","last_reported":1724684902,"current_range_meters":2000,"station_id":"cki0cbj6b192h4jlfktg","pricing_plan_id":"cebpf4jnsgd1na2vs0mg"},{"bike_id":"032f9fed-9e68-4835-b409-17389a4f904e","system_id":"levelo_inurba_marseille","lat":43.28727,"lon":5.36078,"is_reserved":false,"is_disabled":false,"rental_uris":{"android":"levelo://app?vid=032f9fed-9e68-4835-b409-17389a4f904e","ios":"levelo://app?vid=032f9fed-9e68-4835-b409-17389a4f904e"},"vehicle_type_id":"4","last_reported":1724684902,"current_range_meters":28400,"station_id":"cki0cbj6b192h4jlfktg","pricing_plan_id":"cebpf4jnsgd1na2vs0mg"},{"bike_id":"91241846-118d-4831-a2ed-106d528c5f5c","system_id":"levelo_inurba_marseille","lat":43.286961,"lon":5.373785,"is_reserved":false,"is_disabled":false,"rental_uris":{"android":"levelo://app?vid=91241846-118d-4831-a2ed-106d528c5f5c","ios":"levelo://app?vid=91241846-118d-4831-a2ed-106d528c5f5c"},"vehicle_type_id":"4","last_reported":1724684902,"current_range_meters":0,"station_id":"ce4bh3p2rcd13ifvqdq0","pricing_plan_id":"cebpf4jnsgd1na2vs0mg"},{"bike_id":"1e78e20c-dc54-4a86-9229-8d90ea5dba01","system_id":"levelo_inurba_marseille","lat":43.298681,"lon":5.397225,"is_reserved":false,"is_disabled":false,"rental_uris":{"android":"levelo://app?vid=1e78e20c-dc54-4a86-9229-8d90ea5dba01","ios":"levelo://app?vid=1e78e20c-dc54-4a86-9229-8d90ea5dba01"},"vehicle_type_id":"4","last_reported":1724684902,"current_range_meters":12000,"station_id":"ce4bh0h2rcd13ifvqd50","pricing_plan_id":"cebpf4jnsgd1na2vs0mg"},{"bike_id":"5bd7760b-b267-4419-8e25-6dd9e0c62755","system_id":"levelo_inurba_marseille","lat":43.289307,"lon":5.38406,"is_reserved":false,"is_disabled":false,"rental_uris":{"android":"levelo://app?vid=5bd7760b-b267-4419-8e25-6dd9e0c62755","ios":"levelo://app?vid=5bd7760b-b267-4419-8e25-6dd9e0c62755"},"vehicle_type_id":"4","last_reported":1724684902,"current_range_meters":0,"station_id":"ce4bh612rcd13ifvqe6g","pricing_plan_id":"cebpf4jnsgd1na2vs0mg"},{"bike_id":"4fd74ed7-42ad-4915-93c3-b0261095bff8","system_id":"levelo_inurba_marseille","lat":43.30248,"lon":5.4006,"is_reserved":false,"is_disabled":false,"rental_uris":{"android":"levelo://app?vid=4fd74ed7-42ad-4915-93c3-b0261095bff8","ios":"levelo://app?vid=4fd74ed7-42ad-4915-93c3-b0261095bff8"},"vehicle_type_id":"4","last_reported":1724684902,"current_range_meters":0,"station_id":"ce4bgvh2rcd13ifvqcs0","pricing_plan_id":"cebpf4jnsgd1na2vs0mg"},{"bike_id":"a5d4d4ee-d483-4ed0-96c0-5adee6a96fad","system_id":"levelo_inurba_marseille","lat":43.302759,"lon":5.400793,"is_reserved":false,"is_disabled":false,"rental_uris":{"android":"levelo://app?vid=a5d4d4ee-d483-4ed0-96c0-5adee6a96fad","ios":"levelo://app?vid=a5d4d4ee-d483-4ed0-96c0-5adee6a96fad"},"vehicle_type_id":"4","last_reported":1724684902,"current_range_meters":12000,"station_id":"ce4bgvh2rcd13ifvqcs0","pricing_plan_id":"cebpf4jnsgd1na2vs0mg"},{"bike_id":"1470a160-5eed-4331-9be1-e2df3a001159","system_id":"levelo_inurba_marseille","lat":43.290345,"lon":5.38646,"is_reserved":false,"is_disabled":false,"rental_uris":{"android":"levelo://app?vid=1470a160-5eed-4331-9be1-e2df3a001159","ios":"levelo://app?vid=1470a160-5eed-4331-9be1-e2df3a001159"},"vehicle_type_id":"4","last_reported":1724684902,"current_range_meters":0,"station_id":"ce4bh4p2rcd13ifvqe0g","pricing_plan_id":"cebpf4jnsgd1na2vs0mg"},{"bike_id":"a126e912-8aa9-4a6d-8d60-f2cf899120dd","system_id":"levelo_inurba_marseille","lat":43.30247,"lon":5.40068,"is_reserved":false,"is_disabled":false,"rental_uris":{"android":"levelo://app?vid=a126e912-8aa9-4a6d-8d60-f2cf899120dd","ios":"levelo://app?vid=a126e912-8aa9-4a6d-8d60-f2cf899120dd"},"vehicle_type_id":"4","last_reported":1724684902,"current_range_meters":0,"station_id":"ce4bgvh2rcd13ifvqcs0","pricing_plan_id":"cebpf4jnsgd1na2vs0mg"},{"bike_id":"150a6981-425d-457f-8e7e-28a50a3cb0cd","system_id":"levelo_inurba_marseille","lat":43.301117,"lon":5.398795,"is_reserved":false,"is_disabled":false,"rental_uris":{"android":"levelo://app?vid=150a6981-425d-457f-8e7e-28a50a3cb0cd","ios":"levelo://app?vid=150a6981-425d-457f-8e7e-28a50a3cb0cd"},"vehicle_type_id":"4","last_reported":1724684902,"current_range_meters":24800,"station_id":"ce4bh0h2rcd13ifvqd40","pricing_plan_id":"cebpf4jnsgd1na2vs0mg"},{"bike_id":"6b635e6e-7447-4984-a9e2-985cb96db66b","system_id":"levelo_inurba_marseille","lat":43.316821,"lon":5.404737,"is_reserved":false,"is_disabled":false,"rental_uris":{"android":"levelo://app?vid=6b635e6e-7447-4984-a9e2-985cb96db66b","ios":"levelo://app?vid=6b635e6e-7447-4984-a9e2-985cb96db66b"},"vehicle_type_id":"4","last_reported":1724684902,"current_range_meters":24400,"station_id":"ce4bh012rcd13ifvqd00","pricing_plan_id":"cebpf4jnsgd1na2vs0mg"},{"bike_id":"5283d341-e11c-4c00-af66-7437d5f499ac","system_id":"levelo_inurba_marseille","lat":43.294314,"lon":5.397498,"is_reserved":false,"is_disabled":false,"rental_uris":{"android":"levelo://app?vid=5283d341-e11c-4c00-af66-7437d5f499ac","ios":"levelo://app?vid=5283d341-e11c-4c00-af66-7437d5f499ac"},"vehicle_type_id":"4","last_reported":1724684902,"current_range_meters":0,"station_id":"ce4bh3h2rcd13ifvqdo0","pricing_plan_id":"cebpf4jnsgd1na2vs0mg"},{"bike_id":"ec7bdfbe-5f16-432d-9ef5-5380fe7a93e1","system_id":"levelo_inurba_marseille","lat":43.28462,"lon":5.35897,"is_reserved":false,"is_disabled":false,"rental_uris":{"android":"levelo://app?vid=ec7bdfbe-5f16-432d-9ef5-5380fe7a93e1","ios":"levelo://app?vid=ec7bdfbe-5f16-432d-9ef5-5380fe7a93e1"},"vehicle_type_id":"4","last_reported":1724684902,"current_range_meters":25200,"station_id":"ce4bhah2rcd13ifvqei0","pricing_plan_id":"cebpf4jnsgd1na2vs0mg"},{"bike_id":"db2b90d8-1b23-4262-887a-482ba0f2f9c8","system_id":"levelo_inurba_marseille","lat":43.284538,"lon":5.358657,"is_reserved":false,"is_disabled":false,"rental_uris":{"android":"levelo://app?vid=db2b90d8-1b23-4262-887a-482ba0f2f9c8","ios":"levelo://app?vid=db2b90d8-1b23-4262-887a-482ba0f2f9c8"},"vehicle_type_id":"4","last_reported":1724684902,"current_range_meters":25600,"station_id":"ce4bhah2rcd13ifvqei0","pricing_plan_id":"cebpf4jnsgd1na2vs0mg"},{"bike_id":"356f595c-5bba-417f-ae8f-bf185faa4ce9","system_id":"levelo_inurba_marseille","lat":43.284538,"lon":5.358657,"is_reserved":false,"is_disabled":false,"rental_uris":{"android":"levelo://app?vid=356f595c-5bba-417f-ae8f-bf185faa4ce9","ios":"levelo://app?vid=356f595c-5bba-417f-ae8f-bf185faa4ce9"},"vehicle_type_id":"4","last_reported":1724684902,"current_range_meters":12000,"station_id":"ce4bhah2rcd13ifvqei0","pricing_plan_id":"cebpf4jnsgd1na2vs0mg"},{"bike_id":"5d9ee922-4aa8-4982-89d6-b577be983bdd","system_id":"levelo_inurba_marseille","lat":43.284534,"lon":5.358662,"is_reserved":false,"is_disabled":false,"rental_uris":{"android":"levelo://app?vid=5d9ee922-4aa8-4982-89d6-b577be983bdd","ios":"levelo://app?vid=5d9ee922-4aa8-4982-89d6-b577be983bdd"},"vehicle_type_id":"4","last_reported":1724684902,"current_range_meters":31200,"station_id":"ce4bhah2rcd13ifvqei0","pricing_plan_id":"cebpf4jnsgd1na2vs0mg"},{"bike_id":"6dd11701-c002-436d-8e39-54f69200e3af","system_id":"levelo_inurba_marseille","lat":43.294314,"lon":5.397498,"is_reserved":false,"is_disabled":false,"rental_uris":{"android":"levelo://app?vid=6dd11701-c002-436d-8e39-54f69200e3af","ios":"levelo://app?vid=6dd11701-c002-436d-8e39-54f69200e3af"},"vehicle_type_id":"4","last_reported":1724684902,"current_range_meters":11600,"station_id":"ce4bh3h2rcd13ifvqdo0","pricing_plan_id":"cebpf4jnsgd1na2vs0mg"},{"bike_id":"41a16e1d-8def-45c2-810c-6cd5ea00dbd8","system_id":"levelo_inurba_marseille","lat":43.28623,"lon":5.35109,"is_reserved":false,"is_disabled":false,"rental_uris":{"android":"levelo://app?vid=41a16e1d-8def-45c2-810c-6cd5ea00dbd8","ios":"levelo://app?vid=41a16e1d-8def-45c2-810c-6cd5ea00dbd8"},"vehicle_type_id":"4","last_reported":1724684902,"current_range_meters":25200,"station_id":"ce4bhch2rcd13ifvqeug","pricing_plan_id":"cebpf4jnsgd1na2vs0mg"},{"bike_id":"c06f237e-ca10-4ca1-8772-e5492778a0a6","system_id":"levelo_inurba_marseille","lat":43.28621,"lon":5.35114,"is_reserved":false,"is_disabled":false,"rental_uris":{"android":"levelo://app?vid=c06f237e-ca10-4ca1-8772-e5492778a0a6","ios":"levelo://app?vid=c06f237e-ca10-4ca1-8772-e5492778a0a6"},"vehicle_type_id":"4","last_reported":1724684902,"current_range_meters":18000,"station_id":"ce4bhch2rcd13ifvqeug","pricing_plan_id":"cebpf4jnsgd1na2vs0mg"},{"bike_id":"faf91471-e02b-40ab-99a8-4e10a2d23920","system_id":"levelo_inurba_marseille","lat":43.28622,"lon":5.35109,"is_reserved":false,"is_disabled":false,"rental_uris":{"android":"levelo://app?vid=faf91471-e02b-40ab-99a8-4e10a2d23920","ios":"levelo://app?vid=faf91471-e02b-40ab-99a8-4e10a2d23920"},"vehicle_type_id":"4","last_reported":1724684902,"current_range_meters":26400,"station_id":"ce4bhch2rcd13ifvqeug","pricing_plan_id":"cebpf4jnsgd1na2vs0mg"},{"bike_id":"81a432ee-eaa8-4f6a-8a43-de0ecaa491f3","system_id":"levelo_inurba_marseille","lat":43.28622,"lon":5.35104,"is_reserved":false,"is_disabled":false,"rental_uris":{"android":"levelo://app?vid=81a432ee-eaa8-4f6a-8a43-de0ecaa491f3","ios":"levelo://app?vid=81a432ee-eaa8-4f6a-8a43-de0ecaa491f3"},"vehicle_type_id":"4","last_reported":1724684902,"current_range_meters":15600,"station_id":"ce4bhch2rcd13ifvqeug","pricing_plan_id":"cebpf4jnsgd1na2vs0mg"},{"bike_id":"cf3b2f04-b11c-46c8-8aa2-33db8cbd6ee2","system_id":"levelo_inurba_marseille","lat":43.28622,"lon":5.35102,"is_reserved":false,"is_disabled":false,"rental_uris":{"android":"levelo://app?vid=cf3b2f04-b11c-46c8-8aa2-33db8cbd6ee2","ios":"levelo://app?vid=cf3b2f04-b11c-46c8-8aa2-33db8cbd6ee2"},"vehicle_type_id":"4","last_reported":1724684902,"current_range_meters":27200,"station_id":"ce4bhch2rcd13ifvqeug","pricing_plan_id":"cebpf4jnsgd1na2vs0mg"},{"bike_id":"1361a680-a87c-43c3-a704-01741c60fd37","system_id":"levelo_inurba_marseille","lat":43.2862,"lon":5.35108,"is_reserved":false,"is_disabled":false,"rental_uris":{"android":"levelo://app?vid=1361a680-a87c-43c3-a704-01741c60fd37","ios":"levelo://app?vid=1361a680-a87c-43c3-a704-01741c60fd37"},"vehicle_type_id":"4","last_reported":1724684902,"current_range_meters":24800,"station_id":"ce4bhch2rcd13ifvqeug","pricing_plan_id":"cebpf4jnsgd1na2vs0mg"},{"bike_id":"f4de17b6-fa17-42f0-80f9-ea94c0c8318d","system_id":"levelo_inurba_marseille","lat":43.28619,"lon":5.35111,"is_reserved":false,"is_disabled":false,"rental_uris":{"android":"levelo://app?vid=f4de17b6-fa17-42f0-80f9-ea94c0c8318d","ios":"levelo://app?vid=f4de17b6-fa17-42f0-80f9-ea94c0c8318d"},"vehicle_type_id":"4","last_reported":1724684902,"current_range_meters":21200,"station_id":"ce4bhch2rcd13ifvqeug","pricing_plan_id":"cebpf4jnsgd1na2vs0mg"},{"bike_id":"12f65ae0-3ba2-4dba-a0f7-607d5bcbd519","system_id":"levelo_inurba_marseille","lat":43.28619,"lon":5.3511,"is_reserved":false,"is_disabled":false,"rental_uris":{"android":"levelo://app?vid=12f65ae0-3ba2-4dba-a0f7-607d5bcbd519","ios":"levelo://app?vid=12f65ae0-3ba2-4dba-a0f7-607d5bcbd519"},"vehicle_type_id":"4","last_reported":1724684902,"current_range_meters":31200,"station_id":"ce4bhch2rcd13ifvqeug","pricing_plan_id":"cebpf4jnsgd1na2vs0mg"},{"bike_id":"e963ad9c-824b-41e1-8dd0-392339255dcd","system_id":"levelo_inurba_marseille","lat":43.28619,"lon":5.3511,"is_reserved":false,"is_disabled":false,"rental_uris":{"android":"levelo://app?vid=e963ad9c-824b-41e1-8dd0-392339255dcd","ios":"levelo://app?vid=e963ad9c-824b-41e1-8dd0-392339255dcd"},