{"last_updated":1686344747,"ttl":30,"version":"2.2","data":{"bikes":[{"bike_id":"85074bdb-639b-4cc3-9359-8a6f756c1e17","system_id":"levelo_inurba_marseille","lat":43.312239,"lon":5.368562,"is_reserved":false,"is_disabled":false,"rental_uris":{"android":"levelo://app?vid=85074bdb-639b-4cc3-9359-8a6f756c1e17","ios":"levelo://app?vid=85074bdb-639b-4cc3-9359-8a6f756c1e17"},"vehicle_type_id":"4","last_reported":1686344747,"current_range_meters":22800,"station_id":"ce4bgl92rcd13ifvqbq0","pricing_plan_id":"free"},{"bike_id":"e215e44b-264e-4626-ae88-2d3a12aefe09","system_id":"levelo_inurba_marseille","lat":43.309076,"lon":5.368465,"is_reserved":false,"is_disabled":false,"rental_uris":{"android":"levelo://app?vid=e215e44b-264e-4626-ae88-2d3a12aefe09","ios":"levelo://app?vid=e215e44b-264e-4626-ae88-2d3a12aefe09"},"vehicle_type_id":"4","last_reported":1686344747,"current_range_meters":16000,"station_id":"ce4bgn92rcd13ifvqbvg","pricing_plan_id":"free"},{"bike_id":"41942d10-cb03-4d6a-a4f8-27e2877d07ec","system_id":"levelo_inurba_marseille","lat":43.31492,"lon":5.37307,"is_reserved":false,"is_disabled":false,"rental_uris":{"android":"levelo://app?vid=41942d10-cb03-4d6a-a4f8-27e2877d07ec","ios":"levelo://app?vid=41942d10-cb03-4d6a-a4f8-27e2877d07ec"},"vehicle_type_id":"4","last_reported":1686344747,"current_range_meters":7200,"station_id":"ce4bgt12rcd13ifvqcd0","pricing_plan_id":"free"},{"bike_id":"d1cc8329-8f52-4d46-9529-b9ad40ea0ee5","system_id":"levelo_inurba_marseille","lat":43.308606,"lon":5.372099,"is_reserved":false,"is_disabled":false,"rental_uris":{"android":"levelo://app?vid=d1cc8329-8f52-4d46-9529-b9ad40ea0ee5","ios":"levelo://app?vid=d1cc8329-8f52-4d46-9529-b9ad40ea0ee5"},"vehicle_type_id":"4","last_reported":1686344747,"current_range_meters":27600,"station_id":"ce4bguh2rcd13ifvqckg","pricing_plan_id":"free"},{"bike_id":"0647068b-fe38-4e06-bc09-477f29c9c812","system_id":"levelo_inurba_marseille","lat":43.308606,"lon":5.372099,"is_reserved":false,"is_disabled":false,"rental_uris":{"android":"levelo://app?vid=0647068b-fe38-4e06-bc09-477f29c9c812","ios":"levelo://app?vid=0647068b-fe38-4e06-bc09-477f29c9c812"},"vehicle_type_id":"4","last_reported":1686344747,"current_range_meters":5200,"station_id":"ce4bguh2rcd13ifvqckg","pricing_plan_id":"free"},{"bike_id":"2dbc8303-1e1a-4d08-9dee-6babc9247d38","system_id":"levelo_inurba_marseille","lat":43.30689,"lon":5.36614,"is_reserved":false,"is_disabled":false,"rental_uris":{"android":"levelo://app?vid=2dbc8303-1e1a-4d08-9dee-6babc9247d38","ios":"levelo://app?vid=2dbc8303-1e1a-4d08-9dee-6babc9247d38"},"vehicle_type_id":"4","last_reported":1686344747,"current_range_meters":28000,"station_id":"","pricing_plan_id":"free"},{"bike_id":"726e69fe-0789-44cc-8872-aafade0684ce","system_id":"levelo_inurba_marseille","lat":43.306,"lon":5.36574,"is_reserved":false,"is_disabled":false,"rental_uris":{"android":"levelo://app?vid=726e69fe-0789-44cc-8872-aafade0684ce","ios":"levelo://app?vid=726e69fe-0789-44cc-8872-aafade0684ce"},"vehicle_type_id":"4","last_reported":1686344747,"current_range_meters":12400,"station_id":"","pricing_plan_id":"free"},{"bike_id":"993c4683-4f73-493b-bef7-00db0b371067","system_id":"levelo_inurba_marseille","lat":43.305989,"lon":5.37225,"is_reserved":false,"is_disabled":false,"rental_uris":{"android":"levelo://app?vid=993c4683-4f73-493b-bef7-00db0b371067","ios":"levelo://app?vid=993c4683-4f73-493b-bef7-00db0b371067"},"vehicle_type_id":"4","last_reported":1686344747,"current_range_meters":25200,"station_id":"ce4bgqh2rcd13ifvqc4g","pricing_plan_id":"free"},{"bike_id":"e13287f9-25c2-4ec5-8ab9-d8a96da95b66","system_id":"levelo_inurba_marseille","lat":43.31596,"lon":5.37634,"is_reserved":false,"is_disabled":false,"rental_uris":{"android":"levelo://app?vid=e13287f9-25c2-4ec5-8ab9-d8a96da95b66","ios":"levelo://app?vid=e13287f9-25c2-4ec5-8ab9-d8a96da95b66"},"vehicle_type_id":"4","last_reported":1686344747,"current_range_meters":15600,"station_id":"","pricing_plan_id":"free"},{"bike_id":"412daa84-b695-4161-9209-a4d6e4ad537e","system_id":"levelo_inurba_marseille","lat":43.305159,"lon":5.367042,"is_reserved":false,"is_disabled":false,"rental_uris":{"android":"levelo://app?vid=412daa84-b695-4161-9209-a4d6e4ad537e","ios":"levelo://app?vid=412daa84-b695-4161-9209-a4d6e4ad537e"},"vehicle_type_id":"4","last_reported":1686344747,"current_range_meters":3600,"station_id":"","pricing_plan_id":"free"},{"bike_id":"c39eba22-1668-4155-9623-6478dad60f6e","system_id":"levelo_inurba_marseille","lat":43.31678,"lon":5.3775,"is_reserved":false,"is_disabled":false,"rental_uris":{"android":"levelo://app?vid=c39eba22-1668-4155-9623-6478dad60f6e","ios":"levelo://app?vid=c39eba22-1668-4155-9623-6478dad60f6e"},"vehicle_type_id":"4","last_reported":1686344747,"current_range_meters":400,"station_id":"ce4bgth2rcd13ifvqch0","pricing_plan_id":"free"},{"bike_id":"6ca7f4f0-9c0c-44fb-aa3e-979faab6c99c","system_id":"levelo_inurba_marseille","lat":43.30596,"lon":5.37464,"is_reserved":false,"is_disabled":false,"rental_uris":{"android":"levelo://app?vid=6ca7f4f0-9c0c-44fb-aa3e-979faab6c99c","ios":"levelo://app?vid=6ca7f4f0-9c0c-44fb-aa3e-979faab6c99c"},"vehicle_type_id":"4","last_reported":1686344747,"current_range_meters":31200,"station_id":"","pricing_plan_id":"free"},{"bike_id":"4f65b353-1928-43cd-9ff5-8a61b4236bac","system_id":"levelo_inurba_marseille","lat":43.3171,"lon":5.37745,"is_reserved":false,"is_disabled":false,"rental_uris":{"android":"levelo://app?vid=4f65b353-1928-43cd-9ff5-8a61b4236bac","ios":"levelo://app?vid=4f65b353-1928-43cd-9ff5-8a61b4236bac"},"vehicle_type_id":"4","last_reported":1686344747,"current_range_meters":30000,"station_id":"ce4bgth2rcd13ifvqch0","pricing_plan_id":"free"},{"bike_id":"6d4cfc43-e091-4944-88fb-e84f4ca5607b","system_id":"levelo_inurba_marseille","lat":43.31526,"lon":5.3803,"is_reserved":false,"is_disabled":false,"rental_uris":{"android":"levelo://app?vid=6d4cfc43-e091-4944-88fb-e84f4ca5607b","ios":"levelo://app?vid=6d4cfc43-e091-4944-88fb-e84f4ca5607b"},"vehicle_type_id":"4","last_reported":1686344747,"current_range_meters":5600,"station_id":"ce4bhsp2rcd13ifvqi50","pricing_plan_id":"free"},{"bike_id":"601b1d41-4dde-448e-bdd8-806988314781","system_id":"levelo_inurba_marseille","lat":43.30257,"lon":5.37155,"is_reserved":false,"is_disabled":false,"rental_uris":{"android":"levelo://app?vid=601b1d41-4dde-448e-bdd8-806988314781","ios":"levelo://app?vid=601b1d41-4dde-448e-bdd8-806988314781"},"vehicle_type_id":"4","last_reported":1686344747,"current_range_meters":20000,"station_id":"","pricing_plan_id":"free"},{"bike_id":"a9da625d-f9eb-4a11-bb49-32993127257f","system_id":"levelo_inurba_marseille","lat":43.32365,"lon":5.36916,"is_reserved":false,"is_disabled":false,"rental_uris":{"android":"levelo://app?vid=a9da625d-f9eb-4a11-bb49-32993127257f","ios":"levelo://app?vid=a9da625d-f9eb-4a11-bb49-32993127257f"},"vehicle_type_id":"4","last_reported":1686344747,"current_range_meters":17600,"station_id":"","pricing_plan_id":"free"},{"bike_id":"3ef8a586-c33d-415d-82a0-104aab915164","system_id":"levelo_inurba_marseille","lat":43.308012,"lon":5.381511,"is_reserved":false,"is_disabled":false,"rental_uris":{"android":"levelo://app?vid=3ef8a586-c33d-415d-82a0-104aab915164","ios":"levelo://app?vid=3ef8a586-c33d-415d-82a0-104aab915164"},"vehicle_type_id":"4","last_reported":1686344747,"current_range_meters":0,"station_id":"ce4bgt12rcd13ifvqce0","pricing_plan_id":"free"},{"bike_id":"82c073dc-3740-426a-81ce-aa84ddd58cd4","system_id":"levelo_inurba_marseille","lat":43.308012,"lon":5.381511,"is_reserved":false,"is_disabled":false,"rental_uris":{"android":"levelo://app?vid=82c073dc-3740-426a-81ce-aa84ddd58cd4","ios":"levelo://app?vid=82c073dc-3740-426a-81ce-aa84ddd58cd4"},"vehicle_type_id":"4","last_reported":1686344747,"current_range_meters":1200,"station_id":"ce4bgt12rcd13ifvqce0","pricing_plan_id":"free"},{"bike_id":"55ecfde1-8e71-4972-afe2-831c4bd3b3f2","system_id":"levelo_inurba_marseille","lat":43.31669,"lon":5.38234,"is_reserved":false,"is_disabled":false,"rental_uris":{"android":"levelo://app?vid=55ecfde1-8e71-4972-afe2-831c4bd3b3f2","ios":"levelo://app?vid=55ecfde1-8e71-4972-afe2-831c4bd3b3f2"},"vehicle_type_id":"4","last_reported":1686344747,"current_range_meters":27600,"station_id":"","pricing_plan_id":"free"},{"bike_id":"e45556ff-b0e9-432a-ab89-430892b5a21d","system_id":"levelo_inurba_marseille","lat":43.304606,"lon":5.379026,"is_reserved":false,"is_disabled":false,"rental_uris":{"android":"levelo://app?vid=e45556ff-b0e9-432a-ab89-430892b5a21d","ios":"levelo://app?vid=e45556ff-b0e9-432a-ab89-430892b5a21d"},"vehicle_type_id":"4","last_reported":1686344747,"current_range_meters":3600,"station_id":"ce4bgup2rcd13ifvqcn0","pricing_plan_id":"free"},{"bike_id":"2f988a8f-c7a5-43fe-b108-318d3ca9681f","system_id":"levelo_inurba_marseille","lat":43.30077,"lon":5.36594,"is_reserved":false,"is_disabled":false,"rental_uris":{"android":"levelo://app?vid=2f988a8f-c7a5-43fe-b108-318d3ca9681f","ios":"levelo://app?vid=2f988a8f-c7a5-43fe-b108-318d3ca9681f"},"vehicle_type_id":"4","last_reported":1686344747,"current_range_meters":19200,"station_id":"","pricing_plan_id":"free"},{"bike_id":"288e2ccc-d364-4d54-b129-55f6883ac6fe","system_id":"levelo_inurba_marseille","lat":43.302784,"lon":5.377158,"is_reserved":false,"is_disabled":false,"rental_uris":{"android":"levelo://app?vid=288e2ccc-d364-4d54-b129-55f6883ac6fe","ios":"levelo://app?vid=288e2ccc-d364-4d54-b129-55f6883ac6fe"},"vehicle_type_id":"4","last_reported":1686344747,"current_range_meters":28000,"station_id":"ce4bguh2rcd13ifvqcj0","pricing_plan_id":"free"},{"bike_id":"aaa5cdc4-506f-460f-b0b0-47627f72a649","system_id":"levelo_inurba_marseille","lat":43.319935,"lon":5.381699,"is_reserved":false,"is_disabled":false,"rental_uris":{"android":"levelo://app?vid=aaa5cdc4-506f-460f-b0b0-47627f72a649","ios":"levelo://app?vid=aaa5cdc4-506f-460f-b0b0-47627f72a649"},"vehicle_type_id":"4","last_reported":1686344747,"current_range_meters":8800,"station_id":"ce4bhr12rcd13ifvqhpg","pricing_plan_id":"free"},{"bike_id":"b8b4a96b-803d-42c4-88f7-e6665a6f93cc","system_id":"levelo_inurba_marseille","lat":43.313571,"lon":5.384829,"is_reserved":false,"is_disabled":false,"rental_uris":{"android":"levelo://app?vid=b8b4a96b-803d-42c4-88f7-e6665a6f93cc","ios":"levelo://app?vid=b8b4a96b-803d-42c4-88f7-e6665a6f93cc"},"vehicle_type_id":"4","last_reported":1686344747,"current_range_meters":28400,"station_id":"ce4bgt92rcd13ifvqcf0","pricing_plan_id":"free"},{"bike_id":"fd970719-e67f-4e70-851f-ebb279493695","system_id":"levelo_inurba_marseille","lat":43.313571,"lon":5.384829,"is_reserved":false,"is_disabled":false,"rental_uris":{"android":"levelo://app?vid=fd970719-e67f-4e70-851f-ebb279493695","ios":"levelo://app?vid=fd970719-e67f-4e70-851f-ebb279493695"},"vehicle_type_id":"4","last_reported":1686344747,"current_range_meters":18800,"station_id":"ce4bgt92rcd13ifvqcf0","pricing_plan_id":"free"},{"bike_id":"8e2fe516-2914-4828-afb1-4f8ea38bd7bd","system_id":"levelo_inurba_marseille","lat":43.313571,"lon":5.384829,"is_reserved":false,"is_disabled":false,"rental_uris":{"android":"levelo://app?vid=8e2fe516-2914-4828-afb1-4f8ea38bd7bd","ios":"levelo://app?vid=8e2fe516-2914-4828-afb1-4f8ea38bd7bd"},"vehicle_type_id":"4","last_reported":1686344747,"current_range_meters":400,"station_id":"ce4bgt92rcd13ifvqcf0","pricing_plan_id":"free"},{"bike_id":"bd56fe56-ef58-478b-bc57-45dd0bd4e2ac","system_id":"levelo_inurba_marseille","lat":43.313571,"lon":5.384829,"is_reserved":false,"is_disabled":false,"rental_uris":{"android":"levelo://app?vid=bd56fe56-ef58-478b-bc57-45dd0bd4e2ac","ios":"levelo://app?vid=bd56fe56-ef58-478b-bc57-45dd0bd4e2ac"},"vehicle_type_id":"4","last_reported":1686344747,"current_range_meters":26400,"station_id":"ce4bgt92rcd13ifvqcf0","pricing_plan_id":"free"},{"bike_id":"896d5ace-fb90-4881-af09-59bad37811c3","system_id":"levelo_inurba_marseille","lat":43.311722,"lon":5.387247,"is_reserved":false,"is_disabled":false,"rental_uris":{"android":"levelo://app?vid=896d5ace-fb90-4881-af09-59bad37811c3","ios":"levelo://app?vid=896d5ace-fb90-4881-af09-59bad37811c3"},"vehicle_type_id":"4","last_reported":1686344747,"current_range_meters":7600,"station_id":"ce4bgv12rcd13ifvqcp0","pricing_plan_id":"free"},{"bike_id":"e42d16ed-a0ae-4d01-8814-bc21f1f2bcaa","system_id":"levelo_inurba_marseille","lat":43.311722,"lon":5.387247,"is_reserved":false,"is_disabled":false,"rental_uris":{"android":"levelo://app?vid=e42d16ed-a0ae-4d01-8814-bc21f1f2bcaa","ios":"levelo://app?vid=e42d16ed-a0ae-4d01-8814-bc21f1f2bcaa"},"vehicle_type_id":"4","last_reported":1686344747,"current_range_meters":28800,"station_id":"ce4bgv12rcd13ifvqcp0","pricing_plan_id":"free"},{"bike_id":"67313d25-0e52-4a15-9f40-5be53cac8b19","system_id":"levelo_inurba_marseille","lat":43.311722,"lon":5.387247,"is_reserved":false,"is_disabled":false,"rental_uris":{"android":"levelo://app?vid=67313d25-0e52-4a15-9f40-5be53cac8b19","ios":"levelo://app?vid=67313d25-0e52-4a15-9f40-5be53cac8b19"},"vehicle_type_id":"4","last_reported":1686344747,"current_range_meters":26000,"station_id":"ce4bgv12rcd13ifvqcp0","pricing_plan_id":"free"},{"bike_id":"3cfc6984-1e5c-4b5d-950e-6f5700294b64","system_id":"levelo_inurba_marseille","lat":43.299243,"lon":5.374807,"is_reserved":false,"is_disabled":false,"rental_uris":{"android":"levelo://app?vid=3cfc6984-1e5c-4b5d-950e-6f5700294b64","ios":"levelo://app?vid=3cfc6984-1e5c-4b5d-950e-6f5700294b64"},"vehicle_type_id":"4","last_reported":1686344747,"current_range_meters":5600,"station_id":"ce4bgjh2rcd13ifvqbg0","pricing_plan_id":"free"},{"bike_id":"8007395b-0264-4317-ba0d-bf1d7941db9b","system_id":"levelo_inurba_marseille","lat":43.311722,"lon":5.387247,"is_reserved":false,"is_disabled":false,"rental_uris":{"android":"levelo://app?vid=8007395b-0264-4317-ba0d-bf1d7941db9b","ios":"levelo://app?vid=8007395b-0264-4317-ba0d-bf1d7941db9b"},"vehicle_type_id":"4","last_reported":1686344747,"current_range_meters":16000,"station_id":"ce4bgv12rcd13ifvqcp0","pricing_plan_id":"free"},{"bike_id":"f82c005c-6d77-4535-bb8a-85399821020b","system_id":"levelo_inurba_marseille","lat":43.297725,"lon":5.371103,"is_reserved":false,"is_disabled":false,"rental_uris":{"android":"levelo://app?vid=f82c005c-6d77-4535-bb8a-85399821020b","ios":"levelo://app?vid=f82c005c-6d77-4535-bb8a-85399821020b"},"vehicle_type_id":"4","last_reported":1686344747,"current_range_meters":26000,"station_id":"","pricing_plan_id":"free"},{"bike_id":"2a7e379c-99b0-4a5d-9e8d-ed2f0964f3df","system_id":"levelo_inurba_marseille","lat":43.328235,"lon":5.366867,"is_reserved":false,"is_disabled":false,"rental_uris":{"android":"levelo://app?vid=2a7e379c-99b0-4a5d-9e8d-ed2f0964f3df","ios":"levelo://app?vid=2a7e379c-99b0-4a5d-9e8d-ed2f0964f3df"},"vehicle_type_id":"4","last_reported":1686344747,"current_range_meters":17200,"station_id":"ce4bhs92rcd13ifvqi0g","pricing_plan_id":"free"},{"bike_id":"31ebcc4e-92d1-46b0-a959-633059f6897e","system_id":"levelo_inurba_marseille","lat":43.297692,"lon":5.377022,"is_reserved":false,"is_disabled":false,"rental_uris":{"android":"levelo://app?vid=31ebcc4e-92d1-46b0-a959-633059f6897e","ios":"levelo://app?vid=31ebcc4e-92d1-46b0-a959-633059f6897e"},"vehicle_type_id":"4","last_reported":1686344747,"current_range_meters":22400,"station_id":"ce4bgi92rcd13ifvqb90","pricing_plan_id":"free"},{"bike_id":"40741259-8a7a-48e1-a912-f25f9f3ed865","system_id":"levelo_inurba_marseille","lat":43.296131,"lon":5.370791,"is_reserved":false,"is_disabled":false,"rental_uris":{"android":"levelo://app?vid=40741259-8a7a-48e1-a912-f25f9f3ed865","ios":"levelo://app?vid=40741259-8a7a-48e1-a912-f25f9f3ed865"},"vehicle_type_id":"4","last_reported":1686344747,"current_range_meters":3600,"station_id":"ce4bgnh2rcd13ifvqc0g","pricing_plan_id":"free"},{"bike_id":"a7e2d0a0-2416-4a5f-8d7e-c8065194c11e","system_id":"levelo_inurba_marseille","lat":43.29573,"lon":5.367355,"is_reserved":false,"is_disabled":false,"rental_uris":{"android":"levelo://app?vid=a7e2d0a0-2416-4a5f-8d7e-c8065194c11e","ios":"levelo://app?vid=a7e2d0a0-2416-4a5f-8d7e-c8065194c11e"},"vehicle_type_id":"4","last_reported":1686344747,"current_range_meters":30400,"station_id":"ce4bgph2rcd13ifvqc2g","pricing_plan_id":"free"},{"bike_id":"65ae4acd-5585-4c50-8045-03e15358c4df","system_id":"levelo_inurba_marseille","lat":43.29573,"lon":5.367355,"is_reserved":false,"is_disabled":false,"rental_uris":{"android":"levelo://app?vid=65ae4acd-5585-4c50-8045-03e15358c4df","ios":"levelo://app?vid=65ae4acd-5585-4c50-8045-03e15358c4df"},"vehicle_type_id":"4","last_reported":1686344747,"current_range_meters":1600,"station_id":"ce4bgph2rcd13ifvqc2g","pricing_plan_id":"free"},{"bike_id":"a90d3e7c-1ab7-4d82-a2a5-8c48a3c9218e","system_id":"levelo_inurba_marseille","lat":43.29573,"lon":5.367355,"is_reserved":false,"is_disabled":false,"rental_uris":{"android":"levelo://app?vid=a90d3e7c-1ab7-4d82-a2a5-8c48a3c9218e","ios":"levelo://app?vid=a90d3e7c-1ab7-4d82-a2a5-8c48a3c9218e"},"vehicle_type_id":"4","last_reported":1686344747,"current_range_meters":18800,"station_id":"ce4bgph2rcd13ifvqc2g","pricing_plan_id":"free"},{"bike_id":"b26bf145-2463-483a-932b-e4db6965f1b5","system_id":"levelo_inurba_marseille","lat":43.30952,"lon":5.39037,"is_reserved":false,"is_disabled":false,"rental_uris":{"android":"levelo://app?vid=b26bf145-2463-483a-932b-e4db6965f1b5","ios":"levelo://app?vid=b26bf145-2463-483a-932b-e4db6965f1b5"},"vehicle_type_id":"4","last_reported":1686344747,"current_range_meters":31200,"station_id":"ce4bgup2rcd13ifvqco0","pricing_plan_id":"free"},{"bike_id":"4fa03eff-949b-42c4-b126-eb659508a8e0","system_id":"levelo_inurba_marseille","lat":43.31758,"lon":5.39011,"is_reserved":false,"is_disabled":false,"rental_uris":{"android":"levelo://app?vid=4fa03eff-949b-42c4-b126-eb659508a8e0","ios":"levelo://app?vid=4fa03eff-949b-42c4-b126-eb659508a8e0"},"vehicle_type_id":"4","last_reported":1686344747,"current_range_meters":6000,"station_id":"ce4bhqp2rcd13ifvqhng","pricing_plan_id":"free"},{"bike_id":"6df35179-92f7-43ac-b367-d30c30dcd173","system_id":"levelo_inurba_marseille","lat":43.317557,"lon":5.390173,"is_reserved":false,"is_disabled":false,"rental_uris":{"android":"levelo://app?vid=6df35179-92f7-43ac-b367-d30c30dcd173","ios":"levelo://app?vid=6df35179-92f7-43ac-b367-d30c30dcd173"},"vehicle_type_id":"4","last_reported":1686344747,"current_range_meters":10400,"station_id":"ce4bhqp2rcd13ifvqhng","pricing_plan_id":"free"},{"bike_id":"40e33418-29bc-47c4-9179-53e1cf7481f3","system_id":"levelo_inurba_marseille","lat":43.298037,"lon":5.381066,"is_reserved":false,"is_disabled":false,"rental_uris":{"android":"levelo://app?vid=40e33418-29bc-47c4-9179-53e1cf7481f3","ios":"levelo://app?vid=40e33418-29bc-47c4-9179-53e1cf7481f3"},"vehicle_type_id":"4","last_reported":1686344747,"current_range_meters":30000,"station_id":"ce4bgip2rcd13ifvqbb0","pricing_plan_id":"free"},{"bike_id":"7bcccb2f-3572-4a1a-a2dc-8819462349f9","system_id":"levelo_inurba_marseille","lat":43.295748,"lon":5.37522,"is_reserved":false,"is_disabled":false,"rental_uris":{"android":"levelo://app?vid=7bcccb2f-3572-4a1a-a2dc-8819462349f9","ios":"levelo://app?vid=7bcccb2f-3572-4a1a-a2dc-8819462349f9"},"vehicle_type_id":"4","last_reported":1686344747,"current_range_meters":20000,"station_id":"ce4bgh92rcd13ifvqb50","pricing_plan_id":"free"},{"bike_id":"54dc3333-1abc-4b85-b5d7-423868a02276","system_id":"levelo_inurba_marseille","lat":43.29568,"lon":5.37584,"is_reserved":false,"is_disabled":false,"rental_uris":{"android":"levelo://app?vid=54dc3333-1abc-4b85-b5d7-423868a02276","ios":"levelo://app?vid=54dc3333-1abc-4b85-b5d7-423868a02276"},"vehicle_type_id":"4","last_reported":1686344747,"current_range_meters":27200,"station_id":"","pricing_plan_id":"free"},{"bike_id":"f3160f85-da6e-4d49-b564-c9e98e83f9dd","system_id":"levelo_inurba_marseille","lat":43.296263,"lon":5.377094,"is_reserved":false,"is_disabled":false,"rental_uris":{"android":"levelo://app?vid=f3160f85-da6e-4d49-b564-c9e98e83f9dd","ios":"levelo://app?vid=f3160f85-da6e-4d49-b564-c9e98e83f9dd"},"vehicle_type_id":"4","last_reported":1686344747,"current_range_meters":31600,"station_id":"ce4bgi92rcd13ifvqb90","pricing_plan_id":"free"},{"bike_id":"d46a9a4a-292f-41e1-968a-b7b9083f60c2","system_id":"levelo_inurba_marseille","lat":43.296263,"lon":5.377094,"is_reserved":false,"is_disabled":false,"rental_uris":{"android":"levelo://app?vid=d46a9a4a-292f-41e1-968a-b7b9083f60c2","ios":"levelo://app?vid=d46a9a4a-292f-41e1-968a-b7b9083f60c2"},"vehicle_type_id":"4","last_reported":1686344747,"current_range_meters":31200,"station_id":"ce4bgi92rcd13ifvqb90","pricing_plan_id":"free"},{"bike_id":"aff3d06b-f58e-48f6-80f5-de0d58690fd8","system_id":"levelo_inurba_marseille","lat":43.296263,"lon":5.377094,"is_reserved":false,"is_disabled":false,"rental_uris":{"android":"levelo://app?vid=aff3d06b-f58e-48f6-80f5-de0d58690fd8","ios":"levelo://app?vid=aff3d06b-f58e-48f6-80f5-de0d58690fd8"},"vehicle_type_id":"4","last_reported":1686344747,"current_range_meters":0,"station_id":"ce4bgi92rcd13ifvqb90","pricing_plan_id":"free"},{"bike_id":"de87f38c-4ee0-4501-82a5-e47fe5dbbc15","system_id":"levelo_inurba_marseille","lat":43.295279,"lon":5.375048,"is_reserved":false,"is_disabled":false,"rental_uris":{"android":"levelo://app?vid=de87f38c-4ee0-4501-82a5-e47fe5dbbc15","ios":"levelo://app?vid=de87f38c-4ee0-4501-82a5-e47fe5dbbc15"},"vehicle_type_id":"4","last_reported":1686344747,"current_range_meters":31200,"station_id":"ce4bgkp2rcd13ifvqbmg","pricing_plan_id":"free"},{"bike_id":"ca0b235c-116d-499f-9d62-9cd43f5369e6","system_id":"levelo_inurba_marseille","lat":43.299707,"lon":5.384859,"is_reserved":false,"is_disabled":false,"rental_uris":{"android":"levelo://app?vid=ca0b235c-116d-499f-9d62-9cd43f5369e6","ios":"levelo://app?vid=ca0b235c-116d-499f-9d62-9cd43f5369e6"},"vehicle_type_id":"4","last_reported":1686344747,"current_range_meters":0,"station_id":"ce4bgj92rcd13ifvqbd0","pricing_plan_id":"free"},{"bike_id":"e35696ea-e099-4f9b-a80a-48e1d0b0577e","system_id":"levelo_inurba_marseille","lat":43.32367,"lon":5.38882,"is_reserved":false,"is_disabled":false,"rental_uris":{"android":"levelo://app?vid=e35696ea-e099-4f9b-a80a-48e1d0b0577e","ios":"levelo://app?vid=e35696ea-e099-4f9b-a80a-48e1d0b0577e"},"vehicle_type_id":"4","last_reported":1686344747,"current_range_meters":16400,"station_id":"ce4bhqp2rcd13ifvqhog","pricing_plan_id":"free"},{"bike_id":"91f0a505-6da2-475c-b149-8ac2fd0ad4e6","system_id":"levelo_inurba_marseille","lat":43.29602,"lon":5.381084,"is_reserved":false,"is_disabled":false,"rental_uris":{"android":"levelo://app?vid=91f0a505-6da2-475c-b149-8ac2fd0ad4e6","ios":"levelo://app?vid=91f0a505-6da2-475c-b149-8ac2fd0ad4e6"},"vehicle_type_id":"4","last_reported":1686344747,"current_range_meters":8400,"station_id":"ce4bgl12rcd13ifvqbo0","pricing_plan_id":"free"},{"bike_id":"2c960539-a814-42ee-97d8-4c8792ef1957","system_id":"levelo_inurba_marseille","lat":43.29602,"lon":5.381084,"is_reserved":false,"is_disabled":false,"rental_uris":{"android":"levelo://app?vid=2c960539-a814-42ee-97d8-4c8792ef1957","ios":"levelo://app?vid=2c960539-a814-42ee-97d8-4c8792ef1957"},"vehicle_type_id":"4","last_reported":1686344747,"current_range_meters":1600,"station_id":"ce4bgl12rcd13ifvqbo0","pricing_plan_id":"free"},{"bike_id":"3e87a9a2-ab54-4cb5-bb54-face94511b39","system_id":"levelo_inurba_marseille","lat":43.29602,"lon":5.381084,"is_reserved":false,"is_disabled":false,"rental_uris":{"android":"levelo://app?vid=3e87a9a2-ab54-4cb5-bb54-face94511b39","ios":"levelo://app?vid=3e87a9a2-ab54-4cb5-bb54-face94511b39"},"vehicle_type_id":"4","last_reported":1686344747,"current_range_meters":27600,"station_id":"ce4bgl12rcd13ifvqbo0","pricing_plan_id":"free"},{"bike_id":"2ac728d9-5289-43d4-8dab-65b8b808e6a7","system_id":"levelo_inurba_marseille","lat":43.29602,"lon":5.381084,"is_reserved":false,"is_disabled":false,"rental_uris":{"android":"levelo://app?vid=2ac728d9-5289-43d4-8dab-65b8b808e6a7","ios":"levelo://app?vid=2ac728d9-5289-43d4-8dab-65b8b808e6a7"},"vehicle_type_id":"4","last_reported":1686344747,"current_range_meters":18000,"station_id":"ce4bgl12rcd13ifvqbo0","pricing_plan_id":"free"},{"bike_id":"7f4f59ad-c1ea-45f2-b0a4-9e62da39c471","system_id":"levelo_inurba_marseille","lat":43.293009,"lon":5.374584,"is_reserved":false,"is_disabled":false,"rental_uris":{"android":"levelo://app?vid=7f4f59ad-c1ea-45f2-b0a4-9e62da39c471","ios":"levelo://app?vid=7f4f59ad-c1ea-45f2-b0a4-9e62da39c471"},"vehicle_type_id":"4","last_reported":1686344747,"current_range_meters":8000,"station_id":"ce4bgi12rcd13ifvqb70","pricing_plan_id":"free"},{"bike_id":"1b5bc705-2994-4830-b2d7-0b1a04202fae","system_id":"levelo_inurba_marseille","lat":43.293009,"lon":5.374584,"is_reserved":false,"is_disabled":false,"rental_uris":{"android":"levelo://app?vid=1b5bc705-2994-4830-b2d7-0b1a04202fae","ios":"levelo://app?vid=1b5bc705-2994-4830-b2d7-0b1a04202fae"},"vehicle_type_id":"4","last_reported":1686344747,"current_range_meters":16000,"station_id":"ce4bgi12rcd13ifvqb70","pricing_plan_id":"free"},{"bike_id":"fd79d7e5-5d13-463a-a68d-42df5bbda33c","system_id":"levelo_inurba_marseille","lat":43.30323,"lon":5.39203,"is_reserved":false,"is_disabled":false,"rental_uris":{"android":"levelo://app?vid=fd79d7e5-5d13-463a-a68d-42df5bbda33c","ios":"levelo://app?vid=fd79d7e5-5d13-463a-a68d-42df5bbda33c"},"vehicle_type_id":"4","last_reported":1686344747,"current_range_meters":22000,"station_id":"","pricing_plan_id":"free"},{"bike_id":"62a56b66-d0aa-4148-aee2-fa9c46dadf13","system_id":"levelo_inurba_marseille","lat":43.293009,"lon":5.374584,"is_reserved":false,"is_disabled":false,"rental_uris":{"android":"levelo://app?vid=62a56b66-d0aa-4148-aee2-fa9c46dadf13","ios":"levelo://app?vid=62a56b66-d0aa-4148-aee2-fa9c46dadf13"},"vehicle_type_id":"4","last_reported":1686344747,"current_range_meters":21600,"station_id":"ce4bgi12rcd13ifvqb70","pricing_plan_id":"free"},{"bike_id":"757806b5-ff9e-45db-9b44-c7c2854c4fbd","system_id":"levelo_inurba_marseille","lat":43.302992,"lon":5.392136,"is_reserved":false,"is_disabled":false,"rental_uris":{"android":"levelo://app?vid=757806b5-ff9e-45db-9b44-c7c2854c4fbd","ios":"levelo://app?vid=757806b5-ff9e-45db-9b44-c7c2854c4fbd"},"vehicle_type_id":"4","last_reported":1686344747,"current_range_meters":25200,"station_id":"ce4bgkh2rcd13ifvqbk0","pricing_plan_id":"free"},{"bike_id":"66b23240-84ec-447d-8784-10b11cf5a556","system_id":"levelo_inurba_marseille","lat":43.302992,"lon":5.392136,"is_reserved":false,"is_disabled":false,"rental_uris":{"android":"levelo://app?vid=66b23240-84ec-447d-8784-10b11cf5a556","ios":"levelo://app?vid=66b23240-84ec-447d-8784-10b11cf5a556"},"vehicle_type_id":"4","last_reported":1686344747,"current_range_meters":27200,"station_id":"ce4bgkh2rcd13ifvqbk0","pricing_plan_id":"free"},{"bike_id":"f5d47d6f-1a0f-445f-9e21-3d15c73398df","system_id":"levelo_inurba_marseille","lat":43.303002,"lon":5.392142,"is_reserved":false,"is_disabled":false,"rental_uris":{"android":"levelo://app?vid=f5d47d6f-1a0f-445f-9e21-3d15c73398df","ios":"levelo://app?vid=f5d47d6f-1a0f-445f-9e21-3d15c73398df"},"vehicle_type_id":"4","last_reported":1686344747,"current_range_meters":27200,"station_id":"ce4bgkh2rcd13ifvqbk0","pricing_plan_id":"free"},{"bike_id":"61e4ccfd-dc98-4837-8123-2dfa5e087f42","system_id":"levelo_inurba_marseille","lat":43.293723,"lon":5.378443,"is_reserved":false,"is_disabled":false,"rental_uris":{"android":"levelo://app?vid=61e4ccfd-dc98-4837-8123-2dfa5e087f42","ios":"levelo://app?vid=61e4ccfd-dc98-4837-8123-2dfa5e087f42"},"vehicle_type_id":"4","last_reported":1686344747,"current_range_meters":6400,"station_id":"","pricing_plan_id":"free"},{"bike_id":"c9ff3c84-2ab5-4ec4-a016-bd1da165d680","system_id":"levelo_inurba_marseille","lat":43.302992,"lon":5.392136,"is_reserved":false,"is_disabled":false,"rental_uris":{"android":"levelo://app?vid=c9ff3c84-2ab5-4ec4-a016-bd1da165d680","ios":"levelo://app?vid=c9ff3c84-2ab5-4ec4-a016-bd1da165d680"},"vehicle_type_id":"4","last_reported":1686344747,"current_range_meters":0,"station_id":"ce4bgkh2rcd13ifvqbk0","pricing_plan_id":"free"},{"bike_id":"25e07fc3-3666-4435-b85e-194ab1fc6db3","system_id":"levelo_inurba_marseille","lat":43.292663,"lon":5.376389,"is_reserved":false,"is_disabled":false,"rental_uris":{"android":"levelo://app?vid=25e07fc3-3666-4435-b85e-194ab1fc6db3","ios":"levelo://app?vid=25e07fc3-3666-4435-b85e-194ab1fc6db3"},"vehicle_type_id":"4","last_reported":1686344747,"current_range_meters":0,"station_id":"ce4bgi12rcd13ifvqb80","pricing_plan_id":"free"},{"bike_id":"df460749-dcdf-47e9-a100-a120e64bd43c","system_id":"levelo_inurba_marseille","lat":43.293009,"lon":5.374584,"is_reserved":false,"is_disabled":false,"rental_uris":{"android":"levelo://app?vid=df460749-dcdf-47e9-a100-a120e64bd43c","ios":"levelo://app?vid=df460749-dcdf-47e9-a100-a120e64bd43c"},"vehicle_type_id":"4","last_reported":1686344747,"current_range_meters":1600,"station_id":"ce4bgi12rcd13ifvqb70","pricing_plan_id":"free"},{"bike_id":"e323f9c4-eb79-40fc-a73c-f10f178b0f2c","system_id":"levelo_inurba_marseille","lat":43.309038,"lon":5.396546,"is_reserved":false,"is_disabled":false,"rental_uris":{"android":"levelo://app?vid=e323f9c4-eb79-40fc-a73c-f10f178b0f2c","ios":"levelo://app?vid=e323f9c4-eb79-40fc-a73c-f10f178b0f2c"},"vehicle_type_id":"4","last_reported":1686344747,"current_range_meters":28400,"station_id":"ce4bh012rcd13ifvqcv0","pricing_plan_id":"free"},{"bike_id":"1ef8d55b-ed69-4976-863a-afabdfd50aa6","system_id":"levelo_inurba_marseille","lat":43.313291,"lon":5.396838,"is_reserved":false,"is_disabled":false,"rental_uris":{"android":"levelo://app?vid=1ef8d55b-ed69-4976-863a-afabdfd50aa6","ios":"levelo://app?vid=1ef8d55b-ed69-4976-863a-afabdfd50aa6"},"vehicle_type_id":"4","last_reported":1686344747,"current_range_meters":8400,"station_id":"ce4bgvp2rcd13ifvqcu0","pricing_plan_id":"free"},{"bike_id":"9eef16f7-067d-4052-adee-9ea11323ba5e","system_id":"levelo_inurba_marseille","lat":43.313291,"lon":5.396838,"is_reserved":false,"is_disabled":false,"rental_uris":{"android":"levelo://app?vid=9eef16f7-067d-4052-adee-9ea11323ba5e","ios":"levelo://app?vid=9eef16f7-067d-4052-adee-9ea11323ba5e"},"vehicle_type_id":"4","last_reported":1686344747,"current_range_meters":4400,"station_id":"ce4bgvp2rcd13ifvqcu0","pricing_plan_id":"free"},{"bike_id":"a058e101-c1ce-4e47-bae1-33137780a8c2","system_id":"levelo_inurba_marseille","lat":43.313291,"lon":5.396838,"is_reserved":false,"is_disabled":false,"rental_uris":{"android":"levelo://app?vid=a058e101-c1ce-4e47-bae1-33137780a8c2","ios":"levelo://app?vid=a058e101-c1ce-4e47-bae1-33137780a8c2"},"vehicle_type_id":"4","last_reported":1686344747,"current_range_meters":4000,"station_id":"ce4bgvp2rcd13ifvqcu0","pricing_plan_id":"free"},{"bike_id":"3d5f4c77-2599-45f7-b165-9f9c713cb3c5","system_id":"levelo_inurba_marseille","lat":43.313291,"lon":5.396838,"is_reserved":false,"is_disabled":false,"rental_uris":{"android":"levelo://app?vid=3d5f4c77-2599-45f7-b165-9f9c713cb3c5","ios":"levelo://app?vid=3d5f4c77-2599-45f7-b165-9f9c713cb3c5"},"vehicle_type_id":"4","last_reported":1686344747,"current_range_meters":8400,"station_id":"ce4bgvp2rcd13ifvqcu0","pricing_plan_id":"free"},{"bike_id":"a188ebf3-ff9b-437b-af1d-f3b67457cc4e","system_id":"levelo_inurba_marseille","lat":43.31325,"lon":5.396914,"is_reserved":false,"is_disabled":false,"rental_uris":{"android":"levelo://app?vid=a188ebf3-ff9b-437b-af1d-f3b67457cc4e","ios":"levelo://app?vid=a188ebf3-ff9b-437b-af1d-f3b67457cc4e"},"vehicle_type_id":"4","last_reported":1686344747,"current_range_meters":0,"station_id":"ce4bgvp2rcd13ifvqcu0","pricing_plan_id":"free"},{"bike_id":"dc6670b4-9cf0-4ce8-8af3-bf197e0e6b0b","system_id":"levelo_inurba_marseille","lat":43.313291,"lon":5.396838,"is_reserved":false,"is_disabled":false,"rental_uris":{"android":"levelo://app?vid=dc6670b4-9cf0-4ce8-8af3-bf197e0e6b0b","ios":"levelo://app?vid=dc6670b4-9cf0-4ce8-8af3-bf197e0e6b0b"},"vehicle_type_id":"4","last_reported":1686344747,"current_range_meters":2000,"station_id":"ce4bgvp2rcd13ifvqcu0","pricing_plan_id":"free"},{"bike_id":"ef392c8a-0d48-4d1b-ab65-7b3b134fb95c","system_id":"levelo_inurba_marseille","lat":43.313291,"lon":5.396838,"is_reserved":false,"is_disabled":false,"rental_uris":{"android":"levelo://app?vid=ef392c8a-0d48-4d1b-ab65-7b3b134fb95c","ios":"levelo://app?vid=ef392c8a-0d48-4d1b-ab65-7b3b134fb95c"},"vehicle_type_id":"4","last_reported":1686344747,"current_range_meters":4400,"station_id":"ce4bgvp2rcd13ifvqcu0","pricing_plan_id":"free"},{"bike_id":"ddc99a48-566c-413a-a7bb-39d642a91da0","system_id":"levelo_inurba_marseille","lat":43.313291,"lon":5.396838,"is_reserved":false,"is_disabled":false,"rental_uris":{"android":"levelo://app?vid=ddc99a48-566c-413a-a7bb-39d642a91da0","ios":"levelo://app?vid=ddc99a48-566c-413a-a7bb-39d642a91da0"},"vehicle_type_id":"4","last_reported":1686344747,"current_range_meters":19600,"station_id":"ce4bgvp2rcd13ifvqcu0","pricing_plan_id":"free"},{"bike_id":"84062e6a-a2f9-41c7-8fcb-4fae78a05d98","system_id":"levelo_inurba_marseille","lat":43.29529,"lon":5.385581,"is_reserved":false,"is_disabled":false,"rental_uris":{"android":"levelo://app?vid=84062e6a-a2f9-41c7-8fcb-4fae78a05d98","ios":"levelo://app?vid=84062e6a-a2f9-41c7-8fcb-4fae78a05d98"},"vehicle_type_id":"4","last_reported":1686344747,"current_range_meters":30800,"station_id":"ce4bgih2rcd13ifvqba0","pricing_plan_id":"free"},{"bike_id":"d9e4e192-1b01-4cc8-8f10-469462056ece","system_id":"levelo_inurba_marseille","lat":43.302008,"lon":5.394694,"is_reserved":false,"is_disabled":false,"rental_uris":{"android":"levelo://app?vid=d9e4e192-1b01-4cc8-8f10-469462056ece","ios":"levelo://app?vid=d9e4e192-1b01-4cc8-8f10-469462056ece"},"vehicle_type_id":"4","last_reported":1686344747,"current_range_meters":4400,"station_id":"ce4bh0p2rcd13ifvqd70","pricing_plan_id":"free"},{"bike_id":"a20f97d4-85e6-4257-b19c-c174f5178706","system_id":"levelo_inurba_marseille","lat":43.2945,"lon":5.38614,"is_reserved":false,"is_disabled":false,"rental_uris":{"android":"levelo://app?vid=a20f97d4-85e6-4257-b19c-c174f5178706","ios":"levelo://app?vid=a20f97d4-85e6-4257-b19c-c174f5178706"},"vehicle_type_id":"4","last_reported":1686344747,"current_range_meters":22000,"station_id":"","pricing_plan_id":"free"},{"bike_id":"47d249c9-f1fd-4e38-b141-97bba0a49a10","system_id":"levelo_inurba_marseille","lat":43.290624,"lon":5.359245,"is_reserved":false,"is_disabled":false,"rental_uris":{"android":"levelo://app?vid=47d249c9-f1fd-4e38-b141-97bba0a49a10","ios":"levelo://app?vid=47d249c9-f1fd-4e38-b141-97bba0a49a10"},"vehicle_type_id":"4","last_reported":1686344747,"current_range_meters":8000,"station_id":"ce4bha92rcd13ifvqeg0","pricing_plan_id":"free"},{"bike_id":"2af6cf3c-251d-422b-bb06-2ade65b263e7","system_id":"levelo_inurba_marseille","lat":43.294153,"lon":5.386305,"is_reserved":false,"is_disabled":false,"rental_uris":{"android":"levelo://app?vid=2af6cf3c-251d-422b-bb06-2ade65b263e7","ios":"levelo://app?vid=2af6cf3c-251d-422b-bb06-2ade65b263e7"},"vehicle_type_id":"4","last_reported":1686344747,"current_range_meters":5200,"station_id":"ce4bh2h2rcd13ifvqdh0","pricing_plan_id":"free"},{"bike_id":"809d8e7f-8f7f-4bd1-b9a7-fe57ff5b0dc9","system_id":"levelo_inurba_marseille","lat":43.289184,"lon":5.366408,"is_reserved":false,"is_disabled":false,"rental_uris":{"android":"levelo://app?vid=809d8e7f-8f7f-4bd1-b9a7-fe57ff5b0dc9","ios":"levelo://app?vid=809d8e7f-8f7f-4bd1-b9a7-fe57ff5b0dc9"},"vehicle_type_id":"4","last_reported":1686344747,"current_range_meters":15200,"station_id":"ce4bhap2rcd13ifvqek0","pricing_plan_id":"free"},{"bike_id":"70a6b84c-315b-45d6-9faf-1830f341974f","system_id":"levelo_inurba_marseille","lat":43.292611,"lon":5.384363,"is_reserved":false,"is_disabled":false,"rental_uris":{"android":"levelo://app?vid=70a6b84c-315b-45d6-9faf-1830f341974f","ios":"levelo://app?vid=70a6b84c-315b-45d6-9faf-1830f341974f"},"vehicle_type_id":"4","last_reported":1686344747,"current_range_meters":24800,"station_id":"ce4bh692rcd13ifvqea0","pricing_plan_id":"free"},{"bike_id":"d2238407-9242-437e-a077-e037dd813e59","system_id":"levelo_inurba_marseille","lat":43.281044,"lon":5.378308,"is_reserved":false,"is_disabled":false,"rental_uris":{"android":"levelo://app?vid=d2238407-9242-437e-a077-e037dd813e59","ios":"levelo://app?vid=d2238407-9242-437e-a077-e037dd813e59"},"vehicle_type_id":"4","last_reported":1686344747,"current_range_meters":3600,"station_id":"ce4bha12rcd13ifvqee0","pricing_plan_id":"free"},{"bike_id":"653da50c-e07c-483e-90fe-f7f466e4e580","system_id":"levelo_inurba_marseille","lat":43.29259,"lon":5.3844,"is_reserved":false,"is_disabled":false,"rental_uris":{"android":"levelo://app?vid=653da50c-e07c-483e-90fe-f7f466e4e580","ios":"levelo://app?vid=653da50c-e07c-483e-90fe-f7f466e4e580"},"vehicle_type_id":"4","last_reported":1686344747,"current_range_meters":29200,"station_id":"ce4bh692rcd13ifvqea0","pricing_plan_id":"free"},{"bike_id":"801b3fb7-fb06-453b-b632-47589713ebd4","system_id":"levelo_inurba_marseille","lat":43.29267,"lon":5.38458,"is_reserved":false,"is_disabled":false,"rental_uris":{"android":"levelo://app?vid=801b3fb7-fb06-453b-b632-47589713ebd4","ios":"levelo://app?vid=801b3fb7-fb06-453b-b632-47589713ebd4"},"vehicle_type_id":"4","last_reported":1686344747,"current_range_meters":27200,"station_id":"","pricing_plan_id":"free"},{"bike_id":"2ffb3dbc-9ebc-451f-9661-d76c0ce43c3d","system_id":"levelo_inurba_marseille","lat":43.292644,"lon":5.384257,"is_reserved":false,"is_disabled":false,"rental_uris":{"android":"levelo://app?vid=2ffb3dbc-9ebc-451f-9661-d76c0ce43c3d","ios":"levelo://app?vid=2ffb3dbc-9ebc-451f-9661-d76c0ce43c3d"},"vehicle_type_id":"4","last_reported":1686344747,"current_range_meters":25600,"station_id":"ce4bh692rcd13ifvqea0","pricing_plan_id":"free"},{"bike_id":"9d4f2f3d-b90d-4418-92c5-76cd6ac8e1c5","system_id":"levelo_inurba_marseille","lat":43.29254,"lon":5.38439,"is_reserved":false,"is_disabled":false,"rental_uris":{"android":"levelo://app?vid=9d4f2f3d-b90d-4418-92c5-76cd6ac8e1c5","ios":"levelo://app?vid=9d4f2f3d-b90d-4418-92c5-76cd6ac8e1c5"},"vehicle_type_id":"4","last_reported":1686344747,"current_range_meters":4000,"station_id":"ce4bh692rcd13ifvqea0","pricing_plan_id":"free"},{"bike_id":"eab1ea13-80bc-4e65-b85d-8bc35d2557b4","system_id":"levelo_inurba_marseille","lat":43.292644,"lon":5.384257,"is_reserved":false,"is_disabled":false,"rental_uris":{"android":"levelo://app?vid=eab1ea13-80bc-4e65-b85d-8bc35d2557b4","ios":"levelo://app?vid=eab1ea13-80bc-4e65-b85d-8bc35d2557b4"},"vehicle_type_id":"4","last_reported":1686344747,"current_range_meters":27600,"station_id":"ce4bh692rcd13ifvqea0","pricing_plan_id":"free"},{"bike_id":"eebb0572-4916-4105-a791-7d74572be411","system_id":"levelo_inurba_marseille","lat":43.290103,"lon":5.356114,"is_reserved":false,"is_disabled":false,"rental_uris":{"android":"levelo://app?vid=eebb0572-4916-4105-a791-7d74572be411","ios":"levelo://app?vid=eebb0572-4916-4105-a791-7d74572be411"},"vehicle_type_id":"4","last_reported":1686344747,"current_range_meters":7600,"station_id":"ce4bhb92rcd13ifvqen0","pricing_plan_id":"free"},{"bike_id":"765a7609-e47b-4466-ac5d-959507bdb3cc","system_id":"levelo_inurba_marseille","lat":43.29098,"lon":5.38124,"is_reserved":false,"is_disabled":false,"rental_uris":{"android":"levelo://app?vid=765a7609-e47b-4466-ac5d-959507bdb3cc","ios":"levelo://app?vid=765a7609-e47b-4466-ac5d-959507bdb3cc"},"vehicle_type_id":"4","last_reported":1686344747,"current_range_meters":21200,"station_id":"ce4bh512rcd13ifvqe2g","pricing_plan_id":"free"},{"bike_id":"00108045-876d-4e06-841d-ae767893bcc4","system_id":"levelo_inurba_marseille","lat":43.29102,"lon":5.38154,"is_reserved":false,"is_disabled":false,"rental_uris":{"android":"levelo://app?vid=00108045-876d-4e06-841d-ae767893bcc4","ios":"levelo://app?vid=00108045-876d-4e06-841d-ae767893bcc4"},"vehicle_type_id":"4","last_reported":1686344747,"current_range_meters":0,"station_id":"ce4bh512rcd13ifvqe2g","pricing_plan_id":"free"},{"bike_id":"cee6af39-10a9-40db-b9c5-ca7340ec5e7f","system_id":"levelo_inurba_marseille","lat":43.29088,"lon":5.381261,"is_reserved":false,"is_disabled":false,"rental_uris":{"android":"levelo://app?vid=cee6af39-10a9-40db-b9c5-ca7340ec5e7f","ios":"levelo://app?vid=cee6af39-10a9-40db-b9c5-ca7340ec5e7f"},"vehicle_type_id":"4","last_reported":1686344747,"current_range_meters":23600,"station_id":"ce4bh512rcd13ifvqe2g","pricing_plan_id":"free"},{"bike_id":"6e6318f9-3242-44b4-91df-5fd6dc042c89","system_id":"levelo_inurba_marseille","lat":43.29088,"lon":5.38134,"is_reserved":false,"is_disabled":false,"rental_uris":{"android":"levelo://app?vid=6e6318f9-3242-44b4-91df-5fd6dc042c89","ios":"levelo://app?vid=6e6318f9-3242-44b4-91df-5fd6dc042c89"},"vehicle_type_id":"4","last_reported":1686344747,"current_range_meters":31200,"station_id":"ce4bh512rcd13ifvqe2g","pricing_plan_id":"free"},{"bike_id":"aa9ee4dd-3b72-462a-831d-fe87e6ba8877","system_id":"levelo_inurba_marseille","lat":43.29092,"lon":5.38151,"is_reserved":false,"is_disabled":false,"rental_uris":{"android":"levelo://app?vid=aa9ee4dd-3b72-462a-831d-fe87e6ba8877","ios":"levelo://app?vid=aa9ee4dd-3b72-462a-831d-fe87e6ba8877"},"vehicle_type_id":"4","last_reported":1686344747,"current_range_meters":29200,"station_id":"ce4bh512rcd13ifvqe2g","pricing_plan_id":"free"},{"bike_id":"61383433-3f89-4d0c-93f4-c4769e7c94d5","system_id":"levelo_inurba_marseille","lat":43.29522,"lon":5.39033,"is_reserved":false,"is_disabled":false,"rental_uris":{"android":"levelo://app?vid=61383433-3f89-4d0c-93f4-c4769e7c94d5","ios":"levelo://app?vid=61383433-3f89-4d0c-93f4-c4769e7c94d5"},"vehicle_type_id":"4","last_reported":1686344747,"current_range_meters":18800,"station_id":"ce4bh3p2rcd13ifvqdp0","pricing_plan_id":"free"},{"bike_id":"2aac05a5-01e7-40b4-b985-d0301184b99f","system_id":"levelo_inurba_marseille","lat":43.295169,"lon":5.390426,"is_reserved":false,"is_disabled":false,"rental_uris":{"android":"levelo://app?vid=2aac05a5-01e7-40b4-b985-d0301184b99f","ios":"levelo://app?vid=2aac05a5-01e7-40b4-b985-d0301184b99f"},"vehicle_type_id":"4","last_reported":1686344747,"current_range_meters":22800,"station_id":"ce4bh3p2rcd13ifvqdp0","pricing_plan_id":"free"},{"bike_id":"59ed4f03-9dea-4fdf-a80a-2b57288132d7","system_id":"levelo_inurba_marseille","lat":43.295169,"lon":5.390426,"is_reserved":false,"is_disabled":false,"rental_uris":{"android":"levelo://app?vid=59ed4f03-9dea-4fdf-a80a-2b57288132d7","ios":"levelo://app?vid=59ed4f03-9dea-4fdf-a80a-2b57288132d7"},"vehicle_type_id":"4","last_reported":1686344747,"current_range_meters":0,"station_id":"ce4bh3p2rcd13ifvqdp0","pricing_plan_id":"free"},{"bike_id":"61f02349-c9d0-4e39-aa0e-50ccf76a5045","system_id":"levelo_inurba_marseille","lat":43.289741,"lon":5.378306,"is_reserved":false,"is_disabled":false,"rental_uris":{"android":"levelo://app?vid=61f02349-c9d0-4e39-aa0e-50ccf76a5045","ios":"levelo://app?vid=61f02349-c9d0-4e39-aa0e-50ccf76a5045"},"vehicle_type_id":"4","last_reported":1686344747,"current_range_meters":30400,"station_id":"ce4bh9p2rcd13ifvqed0","pricing_plan_id":"free"},{"bike_id":"ade5acc8-891d-404b-95ad-2d59a92ff9e5","system_id":"levelo_inurba_marseille","lat":43.28856,"lon":5.358371,"is_reserved":false,"is_disabled":false,"rental_uris":{"android":"levelo://app?vid=ade5acc8-891d-404b-95ad-2d59a92ff9e5","ios":"levelo://app?vid=ade5acc8-891d-404b-95ad-2d59a92ff9e5"},"vehicle_type_id":"4","last_reported":1686344747,"current_range_meters":5600,"station_id":"ce4bhb12rcd13ifvqem0","pricing_plan_id":"free"},{"bike_id":"0c91488d-2a34-4cef-b07a-35be140c00de","system_id":"levelo_inurba_marseille","lat":43.28839,"lon":5.35838,"is_reserved":false,"is_disabled":false,"rental_uris":{"android":"levelo://app?vid=0c91488d-2a34-4cef-b07a-35be140c00de","ios":"levelo://app?vid=0c91488d-2a34-4cef-b07a-35be140c00de"},"vehicle_type_id":"4","last_reported":1686344747,"current_range_meters":25200,"station_id":"ce4bhb12rcd13ifvqem0","pricing_plan_id":"free"},{"bike_id":"d301ca72-dcaa-4189-9498-b196a70ef7b2","system_id":"levelo_inurba_marseille","lat":43.30443,"lon":5.39965,"is_reserved":false,"is_disabled":false,"rental_uris":{"android":"levelo://app?vid=d301ca72-dcaa-4189-9498-b196a70ef7b2","ios":"levelo://app?vid=d301ca72-dcaa-4189-9498-b196a70ef7b2"},"vehicle_type_id":"4","last_reported":1686344747,"current_range_meters":28800,"station_id":"","pricing_plan_id":"free"},{"bike_id":"d93aac7e-1ab7-412a-91cf-798018da9908","system_id":"levelo_inurba_marseille","lat":43.30642,"lon":5.401031,"is_reserved":false,"is_disabled":false,"rental_uris":{"android":"levelo://app?vid=d93aac7e-1ab7-412a-91cf-798018da9908","ios":"levelo://app?vid=d93aac7e-1ab7-412a-91cf-798018da9908"},"vehicle_type_id":"4","last_reported":1686344747,"current_range_meters":2000,"station_id":"ce4bh112rcd13ifvqda0","pricing_plan_id":"free"},{"bike_id":"90e8b5df-9c0e-40ac-92aa-fb8530052065","system_id":"levelo_inurba_marseille","lat":43.30642,"lon":5.401031,"is_reserved":false,"is_disabled":false,"rental_uris":{"android":"levelo://app?vid=90e8b5df-9c0e-40ac-92aa-fb8530052065","ios":"levelo://app?vid=90e8b5df-9c0e-40ac-92aa-fb8530052065"},"vehicle_type_id":"4","last_reported":1686344747,"current_range_meters":1200,"station_id":"ce4bh112rcd13ifvqda0","pricing_plan_id":"free"},{"bike_id":"265c0905-166c-408b-8d33-95a8e86424e1","system_id":"levelo_inurba_marseille","lat":43.337582,"lon":5.374483,"is_reserved":false,"is_disabled":false,"rental_uris":{"android":"levelo://app?vid=265c0905-166c-408b-8d33-95a8e86424e1","ios":"levelo://app?vid=265c0905-166c-408b-8d33-95a8e86424e1"},"vehicle_type_id":"4","last_reported":1686344747,"current_range_meters":18800,"station_id":"","pricing_plan_id":"free"},{"bike_id":"e5f1a7fe-0d1d-4b5c-9620-7dc66f5f2182","system_id":"levelo_inurba_marseille","lat":43.30642,"lon":5.401031,"is_reserved":false,"is_disabled":false,"rental_uris":{"android":"levelo://app?vid=e5f1a7fe-0d1d-4b5c-9620-7dc66f5f2182","ios":"levelo://app?vid=e5f1a7fe-0d1d-4b5c-9620-7dc66f5f2182"},"vehicle_type_id":"4","last_reported":1686344747,"current_range_meters":5600,"station_id":"ce4bh112rcd13ifvqda0","pricing_plan_id":"free"},{"bike_id":"1a08318c-80e0-4dc1-aa10-4645009d8c46","system_id":"levelo_inurba_marseille","lat":43.301117,"lon":5.398795,"is_reserved":false,"is_disabled":false,"rental_uris":{"android":"levelo://app?vid=1a08318c-80e0-4dc1-aa10-4645009d8c46","ios":"levelo://app?vid=1a08318c-80e0-4dc1-aa10-4645009d8c46"},"vehicle_type_id":"4","last_reported":1686344747,"current_range_meters":31600,"station_id":"ce4bh0h2rcd13ifvqd40","pricing_plan_id":"free"},{"bike_id":"fb041ec1-b611-46eb-9d8b-3229cfb3396a","system_id":"levelo_inurba_marseille","lat":43.33768,"lon":5.37459,"is_reserved":false,"is_disabled":false,"rental_uris":{"android":"levelo://app?vid=fb041ec1-b611-46eb-9d8b-3229cfb3396a","ios":"levelo://app?vid=fb041ec1-b611-46eb-9d8b-3229cfb3396a"},"vehicle_type_id":"4","last_reported":1686344747,"current_range_meters":26000,"station_id":"","pricing_plan_id":"free"},{"bike_id":"a2445117-3639-4f2f-8005-922aba0643bf","system_id":"levelo_inurba_marseille","lat":43.29045,"lon":5.38442,"is_reserved":false,"is_disabled":false,"rental_uris":{"android":"levelo://app?vid=a2445117-3639-4f2f-8005-922aba0643bf","ios":"levelo://app?vid=a2445117-3639-4f2f-8005-922aba0643bf"},"vehicle_type_id":"4","last_reported":1686344747,"current_range_meters":27600,"station_id":"","pricing_plan_id":"free"},{"bike_id":"cd853faf-36a8-4a5c-a3d9-599d28cf9f1b","system_id":"levelo_inurba_marseille","lat":43.301117,"lon":5.398795,"is_reserved":false,"is_disabled":false,"rental_uris":{"android":"levelo://app?vid=cd853faf-36a8-4a5c-a3d9-599d28cf9f1b","ios":"levelo://app?vid=cd853faf-36a8-4a5c-a3d9-599d28cf9f1b"},"vehicle_type_id":"4","last_reported":1686344747,"current_range_meters":29600,"station_id":"ce4bh0h2rcd13ifvqd40","pricing_plan_id":"free"},{"bike_id":"cb1bdc4b-c39d-485b-91af-6029a68a3476","system_id":"levelo_inurba_marseille","lat":43.30397,"lon":5.40044,"is_reserved":false,"is_disabled":false,"rental_uris":{"android":"levelo://app?vid=cb1bdc4b-c39d-485b-91af-6029a68a3476","ios":"levelo://app?vid=cb1bdc4b-c39d-485b-91af-6029a68a3476"},"vehicle_type_id":"4","last_reported":1686344747,"current_range_meters":24400,"station_id":"","pricing_plan_id":"free"},{"bike_id":"5b08b59f-b1f3-43f4-b2fe-d9e8c3231d06","system_id":"levelo_inurba_marseille","lat":43.298681,"lon":5.397225,"is_reserved":false,"is_disabled":false,"rental_uris":{"android":"levelo://app?vid=5b08b59f-b1f3-43f4-b2fe-d9e8c3231d06","ios":"levelo://app?vid=5b08b59f-b1f3-43f4-b2fe-d9e8c3231d06"},"vehicle_type_id":"4","last_reported":1686344747,"current_range_meters":18800,"station_id":"ce4bh0h2rcd13ifvqd50","pricing_plan_id":"free"},{"bike_id":"4e6f4c55-47ae-4ee3-b531-aab46caa71ca","system_id":"levelo_inurba_marseille","lat":43.298681,"lon":5.397225,"is_reserved":false,"is_disabled":false,"rental_uris":{"android":"levelo://app?vid=4e6f4c55-47ae-4ee3-b531-aab46caa71ca","ios":"levelo://app?vid=4e6f4c55-47ae-4ee3-b531-aab46caa71ca"},"vehicle_type_id":"4","last_reported":1686344747,"current_range_meters":3200,"station_id":"ce4bh0h2rcd13ifvqd50","pricing_plan_id":"free"},{"bike_id":"07d23186-100d-47aa-9deb-b10140f56ac1","system_id":"levelo_inurba_marseille","lat":43.29867,"lon":5.39731,"is_reserved":false,"is_disabled":false,"rental_uris":{"android":"levelo://app?vid=07d23186-100d-47aa-9deb-b10140f56ac1","ios":"levelo://app?vid=07d23186-100d-47aa-9deb-b10140f56ac1"},"vehicle_type_id":"4","last_reported":1686344747,"current_range_meters":2000,"station_id":"ce4bh0h2rcd13ifvqd50","pricing_plan_id":"free"},{"bike_id":"a4f5fc41-a94e-4c93-8e71-c34b34d10811","system_id":"levelo_inurba_marseille","lat":43.286591,"lon":5.363346,"is_reserved":false,"is_disabled":false,"rental_uris":{"android":"levelo://app?vid=a4f5fc41-a94e-4c93-8e71-c34b34d10811","ios":"levelo://app?vid=a4f5fc41-a94e-4c93-8e71-c34b34d10811"},"vehicle_type_id":"4","last_reported":1686344747,"current_range_meters":30000,"station_id":"ce4bhah2rcd13ifvqej0","pricing_plan_id":"free"},{"bike_id":"a1e1cb0a-6449-4c42-8fe4-3082776c31d6","system_id":"levelo_inurba_marseille","lat":43.298681,"lon":5.397225,"is_reserved":false,"is_disabled":false,"rental_uris":{"android":"levelo://app?vid=a1e1cb0a-6449-4c42-8fe4-3082776c31d6","ios":"levelo://app?vid=a1e1cb0a-6449-4c42-8fe4-3082776c31d6"},"vehicle_type_id":"4","last_reported":1686344747,"current_range_meters":2400,"station_id":"ce4bh0h2rcd13ifvqd50","pricing_plan_id":"free"},{"bike_id":"5493f35c-2b39-4058-a773-20a2dda6e365","system_id":"levelo_inurba_marseille","lat":43.298681,"lon":5.397225,"is_reserved":false,"is_disabled":false,"rental_uris":{"android":"levelo://app?vid=5493f35c-2b39-4058-a773-20a2dda6e365","ios":"levelo://app?vid=5493f35c-2b39-4058-a773-20a2dda6e365"},"vehicle_type_id":"4","last_reported":1686344747,"current_range_meters":10800,"station_id":"ce4bh0h2rcd13ifvqd50","pricing_plan_id":"free"},{"bike_id":"440c7d7b-111b-4ad9-80cc-318aa06c3086","system_id":"levelo_inurba_marseille","lat":43.28696,"lon":5.37385,"is_reserved":false,"is_disabled":false,"rental_uris":{"android":"levelo://app?vid=440c7d7b-111b-4ad9-80cc-318aa06c3086","ios":"levelo://app?vid=440c7d7b-111b-4ad9-80cc-318aa06c3086"},"vehicle_type_id":"4","last_reported":1686344747,"current_range_meters":6800,"station_id":"","pricing_plan_id":"free"},{"bike_id":"f7169fb2-bda8-4a84-8f1a-6924d8ca2c8c","system_id":"levelo_inurba_marseille","lat":43.286591,"lon":5.363346,"is_reserved":false,"is_disabled":false,"rental_uris":{"android":"levelo://app?vid=f7169fb2-bda8-4a84-8f1a-6924d8ca2c8c","ios":"levelo://app?vid=f7169fb2-bda8-4a84-8f1a-6924d8ca2c8c"},"vehicle_type_id":"4","last_reported":1686344747,"current_range_meters":8000,"station_id":"ce4bhah2rcd13ifvqej0","pricing_plan_id":"free"},{"bike_id":"0e50a85a-67c9-47e1-ab02-7f0d7b47c79d","system_id":"levelo_inurba_marseille","lat":43.295196,"lon":5.39397,"is_reserved":false,"is_disabled":false,"rental_uris":{"android":"levelo://app?vid=0e50a85a-67c9-47e1-ab02-7f0d7b47c79d","ios":"levelo://app?vid=0e50a85a-67c9-47e1-ab02-7f0d7b47c79d"},"vehicle_type_id":"4","last_reported":1686344747,"current_range_meters":23600,"station_id":"ce4bh292rcd13ifvqdf0","pricing_plan_id":"free"},{"bike_id":"193e0203-54a5-428f-89f6-011476a4bb01","system_id":"levelo_inurba_marseille","lat":43.295196,"lon":5.39397,"is_reserved":false,"is_disabled":false,"rental_uris":{"android":"levelo://app?vid=193e0203-54a5-428f-89f6-011476a4bb01","ios":"levelo://app?vid=193e0203-54a5-428f-89f6-011476a4bb01"},"vehicle_type_id":"4","last_reported":1686344747,"current_range_meters":21600,"station_id":"ce4bh292rcd13ifvqdf0","pricing_plan_id":"free"},{"bike_id":"ef783226-d4fe-43db-80b7-a65423bddaa6","system_id":"levelo_inurba_marseille","lat":43.295194,"lon":5.39397,"is_reserved":false,"is_disabled":false,"rental_uris":{"android":"levelo://app?vid=ef783226-d4fe-43db-80b7-a65423bddaa6","ios":"levelo://app?vid=ef783226-d4fe-43db-80b7-a65423bddaa6"},"vehicle_type_id":"4","last_reported":1686344747,"current_range_meters":0,"station_id":"ce4bh292rcd13ifvqdf0","pricing_plan_id":"free"},{"bike_id":"0ac35812-29ac-4ebf-a515-50527d95e1c7","system_id":"levelo_inurba_marseille","lat":43.302759,"lon":5.400793,"is_reserved":false,"is_disabled":false,"rental_uris":{"android":"levelo://app?vid=0ac35812-29ac-4ebf-a515-50527d95e1c7","ios":"levelo://app?vid=0ac35812-29ac-4ebf-a515-50527d95e1c7"},"vehicle_type_id":"4","last_reported":1686344747,"current_range_meters":8400,"station_id":"ce4bgvh2rcd13ifvqcs0","pricing_plan_id":"free"},{"bike_id":"a7ce6d80-a921-4cdf-9747-e5921cf37f07","system_id":"levelo_inurba_marseille","lat":43.302759,"lon":5.400793,"is_reserved":false,"is_disabled":false,"rental_uris":{"android":"levelo://app?vid=a7ce6d80-a921-4cdf-9747-e5921cf37f07","ios":"levelo://app?vid=a7ce6d80-a921-4cdf-9747-e5921cf37f07"},"vehicle_type_id":"4","last_reported":1686344747,"current_range_meters":0,"station_id":"ce4bgvh2rcd13ifvqcs0","pricing_plan_id":"free"},{"bike_id":"10857c00-19a8-4460-a91b-c88003b34d92","system_id":"levelo_inurba_marseille","lat":43.316517,"lon":5.404375,"is_reserved":false,"is_disabled":false,"rental_uris":{"android":"levelo://app?vid=10857c00-19a8-4460-a91b-c88003b34d92","ios":"levelo://app?vid=10857c00-19a8-4460-a91b-c88003b34d92"},"vehicle_type_id":"4","last_reported":1686344747,"current_range_meters":31200,"station_id":"ce4bh012rcd13ifvqd00","pricing_plan_id":"free"},{"bike_id":"a1029784-3845-426a-a289-92020e83d03b","system_id":"levelo_inurba_marseille","lat":43.316517,"lon":5.404375,"is_reserved":false,"is_disabled":false,"rental_uris":{"android":"levelo://app?vid=a1029784-3845-426a-a289-92020e83d03b","ios":"levelo://app?vid=a1029784-3845-426a-a289-92020e83d03b"},"vehicle_type_id":"4","last_reported":1686344747,"current_range_meters":0,"station_id":"ce4bh012rcd13ifvqd00","pricing_plan_id":"free"},{"bike_id":"ca3fbd32-01a6-441d-85cb-a1a16daa4ae5","system_id":"levelo_inurba_marseille","lat":43.316517,"lon":5.404375,"is_reserved":false,"is_disabled":false,"rental_uris":{"android":"levelo://app?vid=ca3fbd32-01a6-441d-85cb-a1a16daa4ae5","ios":"levelo://app?vid=ca3fbd32-01a6-441d-85cb-a1a16daa4ae5"},"vehicle_type_id":"4","last_reported":1686344747,"current_range_meters":19200,"station_id":"ce4bh012rcd13ifvqd00","pricing_plan_id":"free"},{"bike_id":"13fa7d9b-777c-482b-a4bb-d8788a61e7db","system_id":"levelo_inurba_marseille","lat":43.291994,"lon":5.392907,"is_reserved":false,"is_disabled":false,"rental_uris":{"android":"levelo://app?vid=13fa7d9b-777c-482b-a4bb-d8788a61e7db","ios":"levelo://app?vid=13fa7d9b-777c-482b-a4bb-d8788a61e7db"},"vehicle_type_id":"4","last_reported":1686344747,"current_range_meters":30800,"station_id":"ce4bh192rcd13ifvqdd0","pricing_plan_id":"free"},{"bike_id":"8bae025d-eeb4-492e-b1c8-f55deb8b0c45","system_id":"levelo_inurba_marseille","lat":43.284534,"lon":5.358662,"is_reserved":false,"is_disabled":false,"rental_uris":{"android":"levelo://app?vid=8bae025d-eeb4-492e-b1c8-f55deb8b0c45","ios":"levelo://app?vid=8bae025d-eeb4-492e-b1c8-f55deb8b0c45"},"vehicle_type_id":"4","last_reported":1686344747,"current_range_meters":31200,"station_id":"ce4bhah2rcd13ifvqei0","pricing_plan_id":"free"},{"bike_id":"17e12ab8-cfe5-4a2e-bd38-cab2415dd777","system_id":"levelo_inurba_marseille","lat":43.284534,"lon":5.358662,"is_reserved":false,"is_disabled":false,"rental_uris":{"android":"levelo://app?vid=17e12ab8-cfe5-4a2e-bd38-cab2415dd777","ios":"levelo://app?vid=17e12ab8-cfe5-4a2e-bd38-cab2415dd777"},"vehicle_type_id":"4","last_reported":1686344747,"current_range_meters":31200,"station_id":"ce4bhah2rcd13ifvqei0","pricing_plan_id":"free"},{"bike_id":"f2a9498c-f4d4-464d-b256-4921ca80a88c","system_id":"levelo_inurba_marseille","lat":43.284534,"lon":5.358662,"is_reserved":false,"is_disabled":false,"rental_uris":{"android":"levelo://app?vid=f2a9498c-f4d4-464d-b256-4921ca80a88c","ios":"levelo://app?vid=f2a9498c-f4d4-464d-b256-4921ca80a88c"},"vehicle_type_id":"4","last_reported":1686344747,"current_range_meters":16000,"station_id":"ce4bhah2rcd13ifvqei0","pricing_plan_id":"free"},{"bike_id":"6d5badbe-615b-4f40-9f59-961e92cb46b7","system_id":"levelo_inurba_marseille","lat":43.284534,"lon":5.358662,"is_reserved":false,"is_disabled":false,"rental_uris":{"android":"levelo://app?vid=6d5badbe-615b-4f40-9f59-961e92cb46b7","ios":"levelo://app?vid=6d5badbe-615b-4f40-9f59-961e92cb46b7"},"vehicle_type_id":"4","last_reported":1686344747,"current_range_meters":31200,"station_id":"ce4bhah2rcd13ifvqei0","pricing_plan_id":"free"},{"bike_id":"037f30d0-d8d2-49cd-b1da-0c7f784654ff","system_id":"levelo_inurba_marseille","lat":43.285856,"lon":5.350771,"is_reserved":false,"is_disabled":false,"rental_uris":{"android":"levelo://app?vid=037f30d0-d8d2-49cd-b1da-0c7f784654ff","ios":"levelo://app?vid=037f30d0-d8d2-49cd-b1da-0c7f784654ff"},"vehicle_type_id":"4","last_reported":1686344747,"current_range_meters":11600,"station_id":"ce4bhch2rcd13ifvqeug","pricing_plan_id":"free"},{"bike_id":"dc674f98-ead5-497f-8556-14bdb219efdb","system_id":"levelo_inurba_marseille","lat":43.28617,"lon":5.35105,"is_reserved":false,"is_disabled":false,"rental_uris":{"android":"levelo://app?vid=dc674f98-ead5-497f-8556-14bdb219efdb","ios":"levelo://app?vid=dc674f98-ead5-497f-8556-14bdb219efdb"},"vehicle_type_id":"4","last_reported":1686344747,"current_range_meters":0,"station_id":"","pricing_plan_id":"free"},{"bike_id":"5105db4a-2b2a-48f7-8336-2f5652eb9282","system_id":"levelo_inurba_marseille","lat":43.285856,"lon":5.350771,"is_reserved":false,"is_disabled":false,"rental_uris":{"android":"levelo://app?vid=5105db4a-2b2a-48f7-8336-2f5652eb9282","ios":"levelo://app?vid=5105db4a-2b2a-48f7-8336-2f5652eb9282"},"vehicle_type_id":"4","last_reported":1686344747,"current_range_meters":19600,"station_id":"ce4bhch2rcd13ifvqeug","pricing_plan_id":"free"},{"bike_id":"7ae4765f-a57b-4fdd-add2-7c9973244698","system_id":"levelo_inurba_marseille","lat":43.285856,"lon":5.350771,"is_reserved":false,"is_disabled":false,"rental_uris":{"android":"levelo://app?vid=7ae4765f-a57b-4fdd-add2-7c9973244698","ios":"levelo://app?vid=7ae4765f-a57b-4fdd-add2-7c9973244698"},"vehicle_type_id":"4","last_reported":1686344747,"current_range_meters":31200,"station_id":"ce4bhch2rcd13ifvqeug","pricing_plan_id":"free"},{"bike_id":"f93e5396-f091-438f-917d-da8dbaa37196","system_id":"levelo_inurba_marseille","lat":43.28414,"lon":5.37512,"is_reserved":false,"is_disabled":false,"rental_uris":{"android":"levelo://app?vid=f93e5396-f091-438f-917d-da8dbaa37196","ios":"levelo://app?vid=f93e5396-f091-438f-917d-da8dbaa37196"},"vehicle_type_id":"4","last_reported":1686344747,"current_range_meters":5200,"station_id":"","pricing_plan_id":"free"},{"bike_id":"ee5e96d0-3eb0-44bf-81f2-2bf15afae7e2","system_id":"levelo_inurba_marseille","lat":43.284787,"lon":5.384116,"is_reserved":false,"is_disabled":false,"rental_uris":{"android":"levelo://app?vid=ee5e96d0-3eb0-44bf-81f2-2bf15afae7e2","ios":"levelo://app?vid=ee5e96d0-3eb0-44bf-81f2-2bf15afae7e2"},"vehicle_type_id":"4","last_reported":1686344747,"current_range_meters":0,"station_id":"ce4bh512rcd13ifvqe3g","pricing_plan_id":"free"},{"bike_id":"6bf636eb-4301-4688-82ef-9efd8d93c418","system_id":"levelo_inurba_marseille","lat":43.323464,"lon":5.406297,"is_reserved":false,"is_disabled":false,"rental_uris":{"android":"levelo://app?vid=6bf636eb-4301-4688-82ef-9efd8d93c418","ios":"levelo://app?vid=6bf636eb-4301-4688-82ef-9efd8d93c418"},"vehicle_type_id":"4","last_reported":1686344747,"current_range_meters":31600,"station_id":"ce4bhq92rcd13ifvqhjg","pricing_plan_id":"free"},{"bike_id":"06cff570-236d-434b-b41a-bcb364e7356f","system_id":"levelo_inurba_marseille","lat":43.323464,"lon":5.406297,"is_reserved":false,"is_disabled":false,"rental_uris":{"android":"levelo://app?vid=06cff570-236d-434b-b41a-bcb364e7356f","ios":"levelo://app?vid=06cff570-236d-434b-b41a-bcb364e7356f"},"vehicle_type_id":"4","last_reported":1686344747,"current_range_meters":1600,"station_id":"ce4bhq92rcd13ifvqhjg","pricing_plan_id":"free"},{"bike_id":"4ba20453-31de-4115-ac71-aad53c16ef43","system_id":"levelo_inurba_marseille","lat":43.323464,"lon":5.406297,"is_reserved":false,"is_disabled":false,"rental_uris":{"android":"levelo://app?vid=4ba20453-31de-4115-ac71-aad53c16ef43","ios":"levelo://app?vid=4ba20453-31de-4115-ac71-aad53c16ef43"},"vehicle_type_id":"4","last_reported":1686344747,"current_range_meters":30000,"station_id":"ce4bhq92rcd13ifvqhjg","pricing_plan_id":"free"},{"bike_id":"deb583eb-96fb-4a10-97e9-a4d5ee7da756","system_id":"levelo_inurba_marseille","lat":43.323464,"lon":5.406297,"is_reserved":false,"is_disabled":false,"rental_uris":{"android":"levelo://app?vid=deb583eb-96fb-4a10-97e9-a4d5ee7da756","ios":"levelo://app?vid=deb583eb-96fb-4a10-97e9-a4d5ee7da756"},"vehicle_type_id":"4","last_reported":1686344747,"current_range_meters":14400,"station_id":"ce4bhq92rcd13ifvqhjg","pricing_plan_id":"free"},{"bike_id":"664960d4-4a99-4775-a29d-ad121a6c6787","system_id":"levelo_inurba_marseille","lat":43.32266,"lon":5.40673,"is_reserved":false,"is_disabled":false,"rental_uris":{"android":"levelo://app?vid=664960d4-4a99-4775-a29d-ad121a6c6787","ios":"levelo://app?vid=664960d4-4a99-4775-a29d-ad121a6c6787"},"vehicle_type_id":"4","last_reported":1686344747,"current_range_meters":30400,"station_id":"","pricing_plan_id":"free"},{"bike_id":"cc95bffc-1cfb-46fd-95e2-68612aeecf38","system_id":"levelo_inurba_marseille","lat":43.32261,"lon":5.40682,"is_reserved":false,"is_disabled":false,"rental_uris":{"android":"levelo://app?vid=cc95bffc-1cfb-46fd-95e2-68612aeecf38","ios":"levelo://app?vid=cc95bffc-1cfb-46fd-95e2-68612aeecf38"},"vehicle_type_id":"4","last_reported":1686344747,"current_range_meters":14000,"station_id":"","pricing_plan_id":"free"},{"bike_id":"86fa1e56-01bf-43c8-a79c-4e72718aee1c","system_id":"levelo_inurba_marseille","lat":43.284787,"lon":5.384116,"is_reserved":false,"is_disabled":false,"rental_uris":{"android":"levelo://app?vid=86fa1e56-01bf-43c8-a79c-4e72718aee1c","ios":"levelo://app?vid=86fa1e56-01bf-43c8-a79c-4e72718aee1c"},"vehicle_type_id":"4","last_reported":1686344747,"current_range_meters":31200,"station_id":"ce4bh512rcd13ifvqe3g","pricing_plan_id":"free"},{"bike_id":"7d244b44-0878-4a3e-83c6-10514aba19cb","system_id":"levelo_inurba_marseille","lat":43.284787,"lon":5.384116,"is_reserved":false,"is_disabled":false,"rental_uris":{"android":"levelo://app?vid=7d244b44-0878-4a3e-83c6-10514aba19cb","ios":"levelo://app?vid=7d244b44-0878-4a3e-83c6-10514aba19cb"},"vehicle_type_id":"4","last_reported":1686344747,"current_range_meters":0,"station_id":"ce4bh512rcd13ifvqe3g","pricing_plan_id":"free"},{"bike_id":"4417a660-15f5-4aa6-a043-a9d53953265b","system_id":"levelo_inurba_marseille","lat":43.288497,"lon":5.393089,"is_reserved":false,"is_disabled":false,"rental_uris":{"android":"levelo://app?vid=4417a660-15f5-4aa6-a043-a9d53953265b","ios":"levelo://app?vid=4417a660-15f5-4aa6-a043-a9d53953265b"},"vehicle_type_id":"4","last_reported":1686344747,"current_range_meters":6800,"station_id":"ce4bh2p2rcd13ifvqdi0","pricing_plan_id":"free"},{"bike_id":"fcd41ed9-4a18-4c17-8de0-2aff1beaab4e","system_id":"levelo_inurba_marseille","lat":43.283494,"lon":5.380945,"is_reserved":false,"is_disabled":false,"rental_uris":{"android":"levelo://app?vid=fcd41ed9-4a18-4c17-8de0-2aff1beaab4e","ios":"levelo://app?vid=fcd41ed9-4a18-4c17-8de0-2aff1beaab4e"},"vehicle_type_id":"4","last_reported":1686344747,"current_range_meters":22000,"station_id":"ce4bh412rcd13ifvqdr0","pricing_plan_id":"free"},{"bike_id":"151da09f-beea-40de-a882-c69185a2a4b1","system_id":"levelo_inurba_marseille","lat":43.283494,"lon":5.380945,"is_reserved":false,"is_disabled":false,"rental_uris":{"android":"levelo://app?vid=151da09f-beea-40de-a882-c69185a2a4b1","ios":"levelo://app?vid=151da09f-beea-40de-a882-c69185a2a4b1"},"vehicle_type_id":"4","last_reported":1686344747,"current_range_meters":30400,"station_id":"ce4bh412rcd13ifvqdr0","pricing_plan_id":"free"},{"bike_id":"b3bfcf71-2366-44b3-9624-26fdae505636","system_id":"levelo_inurba_marseille","lat":43.28424,"lon":5.34988,"is_reserved":false,"is_disabled":false,"rental_uris":{"android":"levelo://app?vid=b3bfcf71-2366-44b3-9624-26fdae505636","ios":"levelo://app?vid=b3bfcf71-2366-44b3-9624-26fdae505636"},"vehicle_type_id":"4","last_reported":1686344747,"current_range_meters":14800,"station_id":"ce4bhbh2rcd13ifvqepg","pricing_plan_id":"free"},{"bike_id":"ae232d39-b160-410f-a53c-e104a0631f2e","system_id":"levelo_inurba_marseille","lat":43.32406,"lon":5.40679,"is_reserved":false,"is_disabled":false,"rental_uris":{"android":"levelo://app?vid=ae232d39-b160-410f-a53c-e104a0631f2e","ios":"levelo://app?vid=ae232d39-b160-410f-a53c-e104a0631f2e"},"vehicle_type_id":"4","last_reported":1686344747,"current_range_meters":19200,"station_id":"","pricing_plan_id":"free"},{"bike_id":"cf3c6afd-b074-43d9-b122-b73d2efe8637","system_id":"levelo_inurba_marseille","lat":43.283502,"lon":5.386471,"is_reserved":false,"is_disabled":false,"rental_uris":{"android":"levelo://app?vid=cf3c6afd-b074-43d9-b122-b73d2efe8637","ios":"levelo://app?vid=cf3c6afd-b074-43d9-b122-b73d2efe8637"},"vehicle_type_id":"4","last_reported":1686344747,"current_range_meters":18000,"station_id":"ce4bh492rcd13ifvqdvg","pricing_plan_id":"free"},{"bike_id":"0a9242c0-d401-4355-a327-63a2a170ec63","system_id":"levelo_inurba_marseille","lat":43.282754,"lon":5.350519,"is_reserved":false,"is_disabled":false,"rental_uris":{"android":"levelo://app?vid=0a9242c0-d401-4355-a327-63a2a170ec63","ios":"levelo://app?vid=0a9242c0-d401-4355-a327-63a2a170ec63"},"vehicle_type_id":"4","last_reported":1686344747,"current_range_meters":0,"station_id":"ce4bhbp2rcd13ifvqerg","pricing_plan_id":"free"},{"bike_id":"64cfc745-df68-41fa-bab6-64262bad109d","system_id":"levelo_inurba_marseille","lat":43.283502,"lon":5.386471,"is_reserved":false,"is_disabled":false,"rental_uris":{"android":"levelo://app?vid=64cfc745-df68-41fa-bab6-64262bad109d","ios":"levelo://app?vid=64cfc745-df68-41fa-bab6-64262bad109d"},"vehicle_type_id":"4","last_reported":1686344747,"current_range_meters":9600,"station_id":"ce4bh492rcd13ifvqdvg","pricing_plan_id":"free"},{"bike_id":"9d034ae4-06f3-47a8-afc6-b4bff0046f38","system_id":"levelo_inurba_marseille","lat":43.283502,"lon":5.386471,"is_reserved":false,"is_disabled":false,"rental_uris":{"android":"levelo://app?vid=9d034ae4-06f3-47a8-afc6-b4bff0046f38","ios":"levelo://app?vid=9d034ae4-06f3-47a8-afc6-b4bff0046f38"},"vehicle_type_id":"4","last_reported":1686344747,"current_range_meters":6800,"station_id":"ce4bh492rcd13ifvqdvg","pricing_plan_id":"free"},{"bike_id":"b11e52bc-9b77-4464-9eae-d0ae2c1f544c","system_id":"levelo_inurba_marseille","lat":43.28039,"lon":5.369297,"is_reserved":false,"is_disabled":false,"rental_uris":{"android":"levelo://app?vid=b11e52bc-9b77-4464-9eae-d0ae2c1f544c","ios":"levelo://app?vid=b11e52bc-9b77-4464-9eae-d0ae2c1f544c"},"vehicle_type_id":"4","last_reported":1686344747,"current_range_meters":6800,"station_id":"ce4bha12rcd13ifvqef0","pricing_plan_id":"free"},{"bike_id":"560bc667-7f10-48af-8b14-543a0587acd9","system_id":"levelo_inurba_marseille","lat":43.28039,"lon":5.369297,"is_reserved":false,"is_disabled":false,"rental_uris":{"android":"levelo://app?vid=560bc667-7f10-48af-8b14-543a0587acd9","ios":"levelo://app?vid=560bc667-7f10-48af-8b14-543a0587acd9"},"vehicle_type_id":"4","last_reported":1686344747,"current_range_meters":3600,"station_id":"ce4bha12rcd13ifvqef0","pricing_plan_id":"free"},{"bike_id":"da719a51-3a1a-441c-b9a3-21064d97de88","system_id":"levelo_inurba_marseille","lat":43.28039,"lon":5.369297,"is_reserved":false,"is_disabled":false,"rental_uris":{"android":"levelo://app?vid=da719a51-3a1a-441c-b9a3-21064d97de88","ios":"levelo://app?vid=da719a51-3a1a-441c-b9a3-21064d97de88"},"vehicle_type_id":"4","last_reported":1686344747,"current_range_meters":12400,"station_id":"ce4bha12rcd13ifvqef0","pricing_plan_id":"free"},{"bike_id":"30b62306-9ca1-45cf-b854-a0dd1364e702","system_id":"levelo_inurba_marseille","lat":43.280382,"lon":5.369291,"is_reserved":false,"is_disabled":false,"rental_uris":{"android":"levelo://app?vid=30b62306-9ca1-45cf-b854-a0dd1364e702","ios":"levelo://app?vid=30b62306-9ca1-45cf-b854-a0dd1364e702"},"vehicle_type_id":"4","last_reported":1686344747,"current_range_meters":800,"station_id":"ce4bha12rcd13ifvqef0","pricing_plan_id":"free"},{"bike_id":"d9569f78-d3cf-4030-8b56-013c0a910d05","system_id":"levelo_inurba_marseille","lat":43.280382,"lon":5.369291,"is_reserved":false,"is_disabled":false,"rental_uris":{"android":"levelo://app?vid=d9569f78-d3cf-4030-8b56-013c0a910d05","ios":"levelo://app?vid=d9569f78-d3cf-4030-8b56-013c0a910d05"},"vehicle_type_id":"4","last_reported":1686344747,"current_range_meters":22400,"station_id":"ce4bha12rcd13ifvqef0","pricing_plan_id":"free"},{"bike_id":"be72ce93-8d35-4ce4-9594-968f188fac1f","system_id":"levelo_inurba_marseille","lat":43.28039,"lon":5.369297,"is_reserved":false,"is_disabled":false,"rental_uris":{"android":"levelo://app?vid=be72ce93-8d35-4ce4-9594-968f188fac1f","ios":"levelo://app?vid=be72ce93-8d35-4ce4-9594-968f188fac1f"},"vehicle_type_id":"4","last_reported":1686344747,"current_range_meters":31600,"station_id":"ce4bha12rcd13ifvqef0","pricing_plan_id":"free"},{"bike_id":"51d2ffd3-1815-49cc-aa08-9e19afd27891","system_id":"levelo_inurba_marseille","lat":43.281044,"lon":5.378308,"is_reserved":false,"is_disabled":false,"rental_uris":{"android":"levelo://app?vid=51d2ffd3-1815-49cc-aa08-9e19afd27891","ios":"levelo://app?vid=51d2ffd3-1815-49cc-aa08-9e19afd27891"},"vehicle_type_id":"4","last_reported":1686344747,"current_range_meters":27600,"station_id":"ce4bha12rcd13ifvqee0","pricing_plan_id":"free"},{"bike_id":"a34b409d-a256-48a0-a3fa-e0de951ce364","system_id":"levelo_inurba_marseille","lat":43.28039,"lon":5.369297,"is_reserved":false,"is_disabled":false,"rental_uris":{"android":"levelo://app?vid=a34b409d-a256-48a0-a3fa-e0de951ce364","ios":"levelo://app?vid=a34b409d-a256-48a0-a3fa-e0de951ce364"},"vehicle_type_id":"4","last_reported":1686344747,"current_range_meters":18400,"station_id":"ce4bha12rcd13ifvqef0","pricing_plan_id":"free"},{"bike_id":"3b760c2e-308d-4401-b2c0-f50769fff8c0","system_id":"levelo_inurba_marseille","lat":43.281025,"lon":5.378268,"is_reserved":false,"is_disabled":false,"rental_uris":{"android":"levelo://app?vid=3b760c2e-308d-4401-b2c0-f50769fff8c0","ios":"levelo://app?vid=3b760c2e-308d-4401-b2c0-f50769fff8c0"},"vehicle_type_id":"4","last_reported":1686344747,"current_range_meters":16400,"station_id":"ce4bha12rcd13ifvqee0","pricing_plan_id":"free"},{"bike_id":"15017136-744b-4c13-a8c0-5c421846cb49","system_id":"levelo_inurba_marseille","lat":43.290412,"lon":5.399633,"is_reserved":false,"is_disabled":false,"rental_uris":{"android":"levelo://app?vid=15017136-744b-4c13-a8c0-5c421846cb49","ios":"levelo://app?vid=15017136-744b-4c13-a8c0-5c421846cb49"},"vehicle_type_id":"4","last_reported":1686344747,"current_range_meters":3200,"station_id":"ce4bh392rcd13ifvqdm0","pricing_plan_id":"free"},{"bike_id":"2b35f973-dfe9-499e-a1e4-96b16307b413","system_id":"levelo_inurba_marseille","lat":43.296263,"lon":5.40601,"is_reserved":false,"is_disabled":false,"rental_uris":{"android":"levelo://app?vid=2b35f973-dfe9-499e-a1e4-96b16307b413","ios":"levelo://app?vid=2b35f973-dfe9-499e-a1e4-96b16307b413"},"vehicle_type_id":"4","last_reported":1686344747,"current_range_meters":19600,"station_id":"ce4bh0h2rcd13ifvqd60","pricing_plan_id":"free"},{"bike_id":"3cf378ff-b27e-4cc1-b821-9486b0b6816a","system_id":"levelo_inurba_marseille","lat":43.296263,"lon":5.40601,"is_reserved":false,"is_disabled":false,"rental_uris":{"android":"levelo://app?vid=3cf378ff-b27e-4cc1-b821-9486b0b6816a","ios":"levelo://app?vid=3cf378ff-b27e-4cc1-b821-9486b0b6816a"},"vehicle_type_id":"4","last_reported":1686344747,"current_range_meters":3600,"station_id":"ce4bh0h2rcd13ifvqd60","pricing_plan_id":"free"},{"bike_id":"9adfc0e1-1542-4fa1-b388-697a9d17fa6d","system_id":"levelo_inurba_marseille","lat":43.296263,"lon":5.40601,"is_reserved":false,"is_disabled":false,"rental_uris":{"android":"levelo://app?vid=9adfc0e1-1542-4fa1-b388-697a9d17fa6d","ios":"levelo://app?vid=9adfc0e1-1542-4fa1-b388-697a9d17fa6d"},"vehicle_type_id":"4","last_reported":1686344747,"current_range_meters":26800,"station_id":"ce4bh0h2rcd13ifvqd60","pricing_plan_id":"free"},{"bike_id":"671c90e4-aa4b-486d-8382-e672410747e5","system_id":"levelo_inurba_marseille","lat":43.281044,"lon":5.378308,"is_reserved":false,"is_disabled":false,"rental_uris":{"android":"levelo://app?vid=671c90e4-aa4b-486d-8382-e672410747e5","ios":"levelo://app?vid=671c90e4-aa4b-486d-8382-e672410747e5"},"vehicle_type_id":"4","last_reported":1686344747,"current_range_meters":24400,"station_id":"ce4bha12rcd13ifvqee0","pricing_plan_id":"free"},{"bike_id":"6d57a825-b608-4d63-b24a-390f23704127","system_id":"levelo_inurba_marseille","lat":43.284462,"lon":5.392121,"is_reserved":false,"is_disabled":false,"rental_uris":{"android":"levelo://app?vid=6d57a825-b608-4d63-b24a-390f23704127","ios":"levelo://app?vid=6d57a825-b608-4d63-b24a-390f23704127"},"vehicle_type_id":"4","last_reported":1686344747,"current_range_meters":16800,"station_id":"ce4bhoh2rcd13ifvqh5g","pricing_plan_id":"free"},{"bike_id":"dd7cfa31-83ea-48e4-bafc-e76d126e20eb","system_id":"levelo_inurba_marseille","lat":43.284462,"lon":5.392121,"is_reserved":false,"is_disabled":false,"rental_uris":{"android":"levelo://app?vid=dd7cfa31-83ea-48e4-bafc-e76d126e20eb","ios":"levelo://app?vid=dd7cfa31-83ea-48e4-bafc-e76d126e20eb"},"vehicle_type_id":"4","last_reported":1686344747,"current_range_meters":20400,"station_id":"ce4bhoh2rcd13ifvqh5g","pricing_plan_id":"free"},{"bike_id":"11b870e6-5de0-4bba-b0ab-844e545d8a96","system_id":"levelo_inurba_marseille","lat":43.284462,"lon":5.392121,"is_reserved":false,"is_disabled":false,"rental_uris":{"android":"levelo://app?vid=11b870e6-5de0-4bba-b0ab-844e545d8a96","ios":"levelo://app?vid=11b870e6-5de0-4bba-b0ab-844e545d8a96"},"vehicle_type_id":"4","last_reported":1686344747,"current_range_meters":4800,"station_id":"ce4bhoh2rcd13ifvqh5g","pricing_plan_id":"free"},{"bike_id":"fb586853-bc43-4a13-91f0-65deacd3d94d","system_id":"levelo_inurba_marseille","lat":43.284462,"lon":5.392121,"is_reserved":false,"is_disabled":false,"rental_uris":{"android":"levelo://app?vid=fb586853-bc43-4a13-91f0-65deacd3d94d","ios":"levelo://app?vid=fb586853-bc43-4a13-91f0-65deacd3d94d"},"vehicle_type_id":"4","last_reported":1686344747,"current_range_meters":13600,"station_id":"ce4bhoh2rcd13ifvqh5g","pricing_plan_id":"free"},{"bike_id":"521e9497-a815-4f74-b725-ef010cfbb1a6","system_id":"levelo_inurba_marseille","lat":43.284462,"lon":5.392121,"is_reserved":false,"is_disabled":false,"rental_uris":{"android":"levelo://app?vid=521e9497-a815-4f74-b725-ef010cfbb1a6","ios":"levelo://app?vid=521e9497-a815-4f74-b725-ef010cfbb1a6"},"vehicle_type_id":"4","last_reported":1686344747,"current_range_meters":8000,"station_id":"ce4bhoh2rcd13ifvqh5g","pricing_plan_id":"free"},{"bike_id":"94b6d5c9-e9ef-47de-8976-31d47a597d4b","system_id":"levelo_inurba_marseille","lat":43.284462,"lon":5.392121,"is_reserved":false,"is_disabled":false,"rental_uris":{"android":"levelo://app?vid=94b6d5c9-e9ef-47de-8976-31d47a597d4b","ios":"levelo://app?vid=94b6d5c9-e9ef-47de-8976-31d47a597d4b"},"vehicle_type_id":"4","last_reported":1686344747,"current_range_meters":8400,"station_id":"ce4bhoh2rcd13ifvqh5g","pricing_plan_id":"free"},{"bike_id":"61d663c2-1f30-41db-a8ad-185c5b277a67","system_id":"levelo_inurba_marseille","lat":43.304188,"lon":5.412904,"is_reserved":false,"is_disabled":false,"rental_uris":{"android":"levelo://app?vid=61d663c2-1f30-41db-a8ad-185c5b277a67","ios":"levelo://app?vid=61d663c2-1f30-41db-a8ad-185c5b277a67"},"vehicle_type_id":"4","last_reported":1686344747,"current_range_meters":18400,"station_id":"ce4bhop2rcd13ifvqh8g","pricing_plan_id":"free"},{"bike_id":"8cd38e49-dca5-4850-8ab5-ab54e401e9f1","system_id":"levelo_inurba_marseille","lat":43.304188,"lon":5.412904,"is_reserved":false,"is_disabled":false,"rental_uris":{"android":"levelo://app?vid=8cd38e49-dca5-4850-8ab5-ab54e401e9f1","ios":"levelo://app?vid=8cd38e49-dca5-4850-8ab5-ab54e401e9f1"},"vehicle_type_id":"4","last_reported":1686344747,"current_range_meters":9200,"station_id":"ce4bhop2rcd13ifvqh8g","pricing_plan_id":"free"},{"bike_id":"b42a7736-30ad-42fc-a4d5-a70fd642d8e8","system_id":"levelo_inurba_marseille","lat":43.304188,"lon":5.412904,"is_reserved":false,"is_disabled":false,"rental_uris":{"android":"levelo://app?vid=b42a7736-30ad-42fc-a4d5-a70fd642d8e8","ios":"levelo://app?vid=b42a7736-30ad-42fc-a4d5-a70fd642d8e8"},"vehicle_type_id":"4","last_reported":1686344747,"current_range_meters":23200,"station_id":"ce4bhop2rcd13ifvqh8g","pricing_plan_id":"free"},{"bike_id":"dd7cb782-f53f-449e-9bc7-ad5b9fc56cdf","system_id":"levelo_inurba_marseille","lat":43.287154,"lon":5.399979,"is_reserved":false,"is_disabled":false,"rental_uris":{"android":"levelo://app?vid=dd7cb782-f53f-449e-9bc7-ad5b9fc56cdf","ios":"levelo://app?vid=dd7cb782-f53f-449e-9bc7-ad5b9fc56cdf"},"vehicle_type_id":"4","last_reported":1686344747,"current_range_meters":24400,"station_id":"ce4bho92rcd13ifvqh3g","pricing_plan_id":"free"},{"bike_id":"d1b2b254-de2b-49cf-b883-fd15e2c12bf5","system_id":"levelo_inurba_marseille","lat":43.287154,"lon":5.399979,"is_reserved":false,"is_disabled":false,"rental_uris":{"android":"levelo://app?vid=d1b2b254-de2b-49cf-b883-fd15e2c12bf5","ios":"levelo://app?vid=d1b2b254-de2b-49cf-b883-fd15e2c12bf5"},"vehicle_type_id":"4","last_reported":1686344747,"current_range_meters":13600,"station_id":"ce4bho92rcd13ifvqh3g","pricing_plan_id":"free"},{"bike_id":"f1dc9ac9-f579-4c65-bb1c-09bed320716a","system_id":"levelo_inurba_marseille","lat":43.287154,"lon":5.399979,"is_reserved":false,"is_disabled":false,"rental_uris":{"android":"levelo://app?vid=f1dc9ac9-f579-4c65-bb1c-09bed320716a","ios":"levelo://app?vid=f1dc9ac9-f579-4c65-bb1c-09bed320716a"},"vehicle_type_id":"4","last_reported":1686344747,"current_range_meters":25200,"station_id":"ce4bho92rcd13ifvqh3g","pricing_plan_id":"free"},{"bike_id":"b20e0139-03e8-4e26-9a99-76d87305c3ef","system_id":"levelo_inurba_marseille","lat":43.278401,"lon":5.392152,"is_reserved":false,"is_disabled":false,"rental_uris":{"android":"levelo://app?vid=b20e0139-03e8-4e26-9a99-76d87305c3ef","ios":"levelo://app?vid=b20e0139-03e8-4e26-9a99-76d87305c3ef"},"vehicle_type_id":"4","last_reported":1686344747,"current_range_meters":25200,"station_id":"ce4bhjp2rcd13ifvqga0","pricing_plan_id":"free"},{"bike_id":"ca261670-7614-4f8f-a054-9734d4a25277","system_id":"levelo_inurba_marseille","lat":43.32039,"lon":5.41549,"is_reserved":false,"is_disabled":false,"rental_uris":{"android":"levelo://app?vid=ca261670-7614-4f8f-a054-9734d4a25277","ios":"levelo://app?vid=ca261670-7614-4f8f-a054-9734d4a25277"},"vehicle_type_id":"4","last_reported":1686344747,"current_range_meters":30000,"station_id":"","pricing_plan_id":"free"},{"bike_id":"f8dcc5f8-f9fc-405f-9404-57eb71869538","system_id":"levelo_inurba_marseille","lat":43.279742,"lon":5.38744,"is_reserved":false,"is_disabled":false,"rental_uris":{"android":"levelo://app?vid=f8dcc5f8-f9fc-405f-9404-57eb71869538","ios":"levelo://app?vid=f8dcc5f8-f9fc-405f-9404-57eb71869538"},"vehicle_type_id":"4","last_reported":1686344747,"current_range_meters":10000,"station_id":"ce4bhg12rcd13ifvqf80","pricing_plan_id":"free"},{"bike_id":"1126057b-9180-4446-a24d-87b67e695e34","system_id":"levelo_inurba_marseille","lat":43.279742,"lon":5.38744,"is_reserved":false,"is_disabled":false,"rental_uris":{"android":"levelo://app?vid=1126057b-9180-4446-a24d-87b67e695e34","ios":"levelo://app?vid=1126057b-9180-4446-a24d-87b67e695e34"},"vehicle_type_id":"4","last_reported":1686344747,"current_range_meters":2400,"station_id":"ce4bhg12rcd13ifvqf80","pricing_plan_id":"free"},{"bike_id":"d166e575-4fba-4be7-a777-a4e96e113335","system_id":"levelo_inurba_marseille","lat":43.28026,"lon":5.39011,"is_reserved":false,"is_disabled":false,"rental_uris":{"android":"levelo://app?vid=d166e575-4fba-4be7-a777-a4e96e113335","ios":"levelo://app?vid=d166e575-4fba-4be7-a777-a4e96e113335"},"vehicle_type_id":"4","last_reported":1686344747,"current_range_meters":12000,"station_id":"","pricing_plan_id":"free"},{"bike_id":"47590da4-775d-4ed4-8649-6f8df3e43a67","system_id":"levelo_inurba_marseille","lat":43.292569,"lon":5.409107,"is_reserved":false,"is_disabled":false,"rental_uris":{"android":"levelo://app?vid=47590da4-775d-4ed4-8649-6f8df3e43a67","ios":"levelo://app?vid=47590da4-775d-4ed4-8649-6f8df3e43a67"},"vehicle_type_id":"4","last_reported":1686344747,"current_range_meters":400,"station_id":"ce4bh192rcd13ifvqdc0","pricing_plan_id":"free"},{"bike_id":"16cf050a-e673-4b5f-a78e-8ab7b344f2a1","system_id":"levelo_inurba_marseille","lat":43.292569,"lon":5.409107,"is_reserved":false,"is_disabled":false,"rental_uris":{"android":"levelo://app?vid=16cf050a-e673-4b5f-a78e-8ab7b344f2a1","ios":"levelo://app?vid=16cf050a-e673-4b5f-a78e-8ab7b344f2a1"},"vehicle_type_id":"4","last_reported":1686344747,"current_range_meters":4400,"station_id":"ce4bh192rcd13ifvqdc0","pricing_plan_id":"free"},{"bike_id":"4847533a-c962-42ff-b15c-4c450c2fea3f","system_id":"levelo_inurba_marseille","lat":43.27618,"lon":5.361009,"is_reserved":false,"is_disabled":false,"rental_uris":{"android":"levelo://app?vid=4847533a-c962-42ff-b15c-4c450c2fea3f","ios":"levelo://app?vid=4847533a-c962-42ff-b15c-4c450c2fea3f"},"vehicle_type_id":"4","last_reported":1686344747,"current_range_meters":25200,"station_id":"ce4bgj92rcd13ifvqbe0","pricing_plan_id":"free"},{"bike_id":"5bdf8400-acc3-47df-b9f4-bb97f6438c84","system_id":"levelo_inurba_marseille","lat":43.280784,"lon":5.396622,"is_reserved":false,"is_disabled":false,"rental_uris":{"android":"levelo://app?vid=5bdf8400-acc3-47df-b9f4-bb97f6438c84","ios":"levelo://app?vid=5bdf8400-acc3-47df-b9f4-bb97f6438c84"},"vehicle_type_id":"4","last_reported":1686344747,"current_range_meters":18000,"station_id":"ce4bho12rcd13ifvqh2g","pricing_plan_id":"free"},{"bike_id":"7cf4fa4b-cd28-4ccc-a43d-cf876716833d","system_id":"levelo_inurba_marseille","lat":43.280784,"lon":5.396622,"is_reserved":false,"is_disabled":false,"rental_uris":{"android":"levelo://app?vid=7cf4fa4b-cd28-4ccc-a43d-cf876716833d","ios":"levelo://app?vid=7cf4fa4b-cd28-4ccc-a43d-cf876716833d"},"vehicle_type_id":"4","last_reported":1686344747,"current_range_meters":17200,"station_id":"ce4bho12rcd13ifvqh2g","pricing_plan_id":"free"},{"bike_id":"2765d7ce-8954-4c1f-9cba-58f2174ba613","system_id":"levelo_inurba_marseille","lat":43.3035,"lon":5.418706,"is_reserved":false,"is_disabled":false,"rental_uris":{"android":"levelo://app?vid=2765d7ce-8954-4c1f-9cba-58f2174ba613","ios":"levelo://app?vid=2765d7ce-8954-4c1f-9cba-58f2174ba613"},"vehicle_type_id":"4","last_reported":1686344747,"current_range_meters":27600,"station_id":"","pricing_plan_id":"free"},{"bike_id":"6f1d03f2-0956-4a2e-9415-0f46bb73f620","system_id":"levelo_inurba_marseille","lat":43.27385,"lon":5.36256,"is_reserved":false,"is_disabled":false,"rental_uris":{"android":"levelo://app?vid=6f1d03f2-0956-4a2e-9415-0f46bb73f620","ios":"levelo://app?vid=6f1d03f2-0956-4a2e-9415-0f46bb73f620"},"vehicle_type_id":"4","last_reported":1686344747,"current_range_meters":22000,"station_id":"","pricing_plan_id":"free"},{"bike_id":"442b8574-2ecc-4709-8376-1543ccd90953","system_id":"levelo_inurba_marseille","lat":43.273793,"lon":5.362591,"is_reserved":false,"is_disabled":false,"rental_uris":{"android":"levelo://app?vid=442b8574-2ecc-4709-8376-1543ccd90953","ios":"levelo://app?vid=442b8574-2ecc-4709-8376-1543ccd90953"},"vehicle_type_id":"4","last_reported":1686344747,"current_range_meters":20800,"station_id":"","pricing_plan_id":"free"},{"bike_id":"dcfbec1f-8b2a-4266-8426-50158dd45510","system_id":"levelo_inurba_marseille","lat":43.27379,"lon":5.36259,"is_reserved":false,"is_disabled":false,"rental_uris":{"android":"levelo://app?vid=dcfbec1f-8b2a-4266-8426-50158dd45510","ios":"levelo://app?vid=dcfbec1f-8b2a-4266-8426-50158dd45510"},"vehicle_type_id":"4","last_reported":1686344747,"current_range_meters":30400,"station_id":"ce4bhbh2rcd13ifvqeo0","pricing_plan_id":"free"},{"bike_id":"54a37995-c788-4978-bebf-da5f7574ba74","system_id":"levelo_inurba_marseille","lat":43.336134,"lon":5.410341,"is_reserved":false,"is_disabled":false,"rental_uris":{"android":"levelo://app?vid=54a37995-c788-4978-bebf-da5f7574ba74","ios":"levelo://app?vid=54a37995-c788-4978-bebf-da5f7574ba74"},"vehicle_type_id":"4","last_reported":1686344747,"current_range_meters":1600,"station_id":"ce4bhqh2rcd13ifvqhmg","pricing_plan_id":"free"},{"bike_id":"421959a7-f8d8-493b-aa82-056732b33748","system_id":"levelo_inurba_marseille","lat":43.336134,"lon":5.410341,"is_reserved":false,"is_disabled":false,"rental_uris":{"android":"levelo://app?vid=421959a7-f8d8-493b-aa82-056732b33748","ios":"levelo://app?vid=421959a7-f8d8-493b-aa82-056732b33748"},"vehicle_type_id":"4","last_reported":1686344747,"current_range_meters":12800,"station_id":"ce4bhqh2rcd13ifvqhmg","pricing_plan_id":"free"},{"bike_id":"274938fe-1bf6-4bad-b9bf-0770dd9ed8e5","system_id":"levelo_inurba_marseille","lat":43.276771,"lon":5.388799,"is_reserved":false,"is_disabled":false,"rental_uris":{"android":"levelo://app?vid=274938fe-1bf6-4bad-b9bf-0770dd9ed8e5","ios":"levelo://app?vid=274938fe-1bf6-4bad-b9bf-0770dd9ed8e5"},"vehicle_type_id":"4","last_reported":1686344747,"current_range_meters":21200,"station_id":"ce4bhi12rcd13ifvqfo0","pricing_plan_id":"free"},{"bike_id":"b0fc9de0-774f-4ef2-99ce-dfadf150c9ae","system_id":"levelo_inurba_marseille","lat":43.317121,"lon":5.423936,"is_reserved":false,"is_disabled":false,"rental_uris":{"android":"levelo://app?vid=b0fc9de0-774f-4ef2-99ce-dfadf150c9ae","ios":"levelo://app?vid=b0fc9de0-774f-4ef2-99ce-dfadf150c9ae"},"vehicle_type_id":"4","last_reported":1686344747,"current_range_meters":4000,"station_id":"ce4bhp92rcd13ifvqhbg","pricing_plan_id":"free"},{"bike_id":"227a855b-a09a-4601-92b4-17d56339322a","system_id":"levelo_inurba_marseille","lat":43.317121,"lon":5.423936,"is_reserved":false,"is_disabled":false,"rental_uris":{"android":"levelo://app?vid=227a855b-a09a-4601-92b4-17d56339322a","ios":"levelo://app?vid=227a855b-a09a-4601-92b4-17d56339322a"},"vehicle_type_id":"4","last_reported":1686344747,"current_range_meters":30400,"station_id":"ce4bhp92rcd13ifvqhbg","pricing_plan_id":"free"},{"bike_id":"39606827-11ad-47dc-8236-73587abc5dca","system_id":"levelo_inurba_marseille","lat":43.317121,"lon":5.423936,"is_reserved":false,"is_disabled":false,"rental_uris":{"android":"levelo://app?vid=39606827-11ad-47dc-8236-73587abc5dca","ios":"levelo://app?vid=39606827-11ad-47dc-8236-73587abc5dca"},"vehicle_type_id":"4","last_reported":1686344747,"current_range_meters":26800,"station_id":"ce4bhp92rcd13ifvqhbg","pricing_plan_id":"free"},{"bike_id":"f96cca47-d10c-4298-baa2-7962625164f6","system_id":"levelo_inurba_marseille","lat":43.295523,"lon":5.422926,"is_reserved":false,"is_disabled":false,"rental_uris":{"android":"levelo://app?vid=f96cca47-d10c-4298-baa2-7962625164f6","ios":"levelo://app?vid=f96cca47-d10c-4298-baa2-7962625164f6"},"vehicle_type_id":"4","last_reported":1686344747,"current_range_meters":24400,"station_id":"ce4bhph2rcd13ifvqhdg","pricing_plan_id":"free"},{"bike_id":"8d8ca7a1-63d0-471c-8b12-2b91e7218df5","system_id":"levelo_inurba_marseille","lat":43.295523,"lon":5.422926,"is_reserved":false,"is_disabled":false,"rental_uris":{"android":"levelo://app?vid=8d8ca7a1-63d0-471c-8b12-2b91e7218df5","ios":"levelo://app?vid=8d8ca7a1-63d0-471c-8b12-2b91e7218df5"},"vehicle_type_id":"4","last_reported":1686344747,"current_range_meters":10800,"station_id":"ce4bhph2rcd13ifvqhdg","pricing_plan_id":"free"},{"bike_id":"eee76058-de34-4cc1-90de-8eea701e5b87","system_id":"levelo_inurba_marseille","lat":43.295523,"lon":5.422926,"is_reserved":false,"is_disabled":false,"rental_uris":{"android":"levelo://app?vid=eee76058-de34-4cc1-90de-8eea701e5b87","ios":"levelo://app?vid=eee76058-de34-4cc1-90de-8eea701e5b87"},"vehicle_type_id":"4","last_reported":1686344747,"current_range_meters":0,"station_id":"ce4bhph2rcd13ifvqhdg","pricing_plan_id":"free"},{"bike_id":"6da0f7ec-47f5-4407-bf62-003bbdf04838","system_id":"levelo_inurba_marseille","lat":43.278128,"lon":5.407195,"is_reserved":false,"is_disabled":false,"rental_uris":{"android":"levelo://app?vid=6da0f7ec-47f5-4407-bf62-003bbdf04838","ios":"levelo://app?vid=6da0f7ec-47f5-4407-bf62-003bbdf04838"},"vehicle_type_id":"4","last_reported":1686344747,"current_range_meters":29200,"station_id":"ce4bhnh2rcd13ifvqgtg","pricing_plan_id":"free"},{"bike_id":"4d9d8afe-807f-42cd-a115-a350c85479f1","system_id":"levelo_inurba_marseille","lat":43.27811,"lon":5.40717,"is_reserved":false,"is_disabled":false,"rental_uris":{"android":"levelo://app?vid=4d9d8afe-807f-42cd-a115-a350c85479f1","ios":"levelo://app?vid=4d9d8afe-807f-42cd-a115-a350c85479f1"},"vehicle_type_id":"4","last_reported":1686344747,"current_range_meters":16800,"station_id":"ce4bhnh2rcd13ifvqgtg","pricing_plan_id":"free"},{"bike_id":"eb4d5eac-abdd-438b-84e7-714b51a46bfe","system_id":"levelo_inurba_marseille","lat":43.27264,"lon":5.40076,"is_reserved":false,"is_disabled":false,"rental_uris":{"android":"levelo://app?vid=eb4d5eac-abdd-438b-84e7-714b51a46bfe","ios":"levelo://app?vid=eb4d5eac-abdd-438b-84e7-714b51a46bfe"},"vehicle_type_id":"4","last_reported":1686344747,"current_range_meters":0,"station_id":"","pricing_plan_id":"free"},{"bike_id":"d1c1e1eb-aafd-4ef0-97af-a802a077af1e","system_id":"levelo_inurba_marseille","lat":43.267966,"lon":5.393976,"is_reserved":false,"is_disabled":false,"rental_uris":{"android":"levelo://app?vid=d1c1e1eb-aafd-4ef0-97af-a802a077af1e","ios":"levelo://app?vid=d1c1e1eb-aafd-4ef0-97af-a802a077af1e"},"vehicle_type_id":"4","last_reported":1686344747,"current_range_meters":29200,"station_id":"ce4bhh12rcd13ifvqfg0","pricing_plan_id":"free"},{"bike_id":"6853ea80-78f9-4825-8105-002e10c67b8f","system_id":"levelo_inurba_marseille","lat":43.33224,"lon":5.42969,"is_reserved":false,"is_disabled":false,"rental_uris":{"android":"levelo://app?vid=6853ea80-78f9-4825-8105-002e10c67b8f","ios":"levelo://app?vid=6853ea80-78f9-4825-8105-002e10c67b8f"},"vehicle_type_id":"4","last_reported":1686344747,"current_range_meters":22000,"station_id":"","pricing_plan_id":"free"},{"bike_id":"ff33908c-6957-4351-b43e-3cfe8e07bf6e","system_id":"levelo_inurba_marseille","lat":43.30804,"lon":5.4352,"is_reserved":false,"is_disabled":false,"rental_uris":{"android":"levelo://app?vid=ff33908c-6957-4351-b43e-3cfe8e07bf6e","ios":"levelo://app?vid=ff33908c-6957-4351-b43e-3cfe8e07bf6e"},"vehicle_type_id":"4","last_reported":1686344747,"current_range_meters":0,"station_id":"","pricing_plan_id":"free"},{"bike_id":"c56886e7-1c07-4e4e-8d95-1bfcba15fecf","system_id":"levelo_inurba_marseille","lat":43.30799,"lon":5.4353,"is_reserved":false,"is_disabled":false,"rental_uris":{"android":"levelo://app?vid=c56886e7-1c07-4e4e-8d95-1bfcba15fecf","ios":"levelo://app?vid=c56886e7-1c07-4e4e-8d95-1bfcba15fecf"},"vehicle_type_id":"4","last_reported":1686344747,"current_range_meters":0,"station_id":"","pricing_plan_id":"free"},{"bike_id":"b0f82b0d-4254-4710-af92-1b2e9f397767","system_id":"levelo_inurba_marseille","lat":43.26234,"lon":5.37046,"is_reserved":false,"is_disabled":false,"rental_uris":{"android":"levelo://app?vid=b0f82b0d-4254-4710-af92-1b2e9f397767","ios":"levelo://app?vid=b0f82b0d-4254-4710-af92-1b2e9f397767"},"vehicle_type_id":"4","last_reported":1686344747,"current_range_meters":19200,"station_id":"","pricing_plan_id":"free"},{"bike_id":"8bae052b-3edc-4345-85b1-d116189b7c89","system_id":"levelo_inurba_marseille","lat":43.33318,"lon":5.4314,"is_reserved":false,"is_disabled":false,"rental_uris":{"android":"levelo://app?vid=8bae052b-3edc-4345-85b1-d116189b7c89","ios":"levelo://app?vid=8bae052b-3edc-4345-85b1-d116189b7c89"},"vehicle_type_id":"4","last_reported":1686344747,"current_range_meters":16400,"station_id":"","pricing_plan_id":"free"},{"bike_id":"2c9dcd33-6ced-4cfa-b37a-4f7dffac9d30","system_id":"levelo_inurba_marseille","lat":43.317104,"lon":5.436818,"is_reserved":false,"is_disabled":false,"rental_uris":{"android":"levelo://app?vid=2c9dcd33-6ced-4cfa-b37a-4f7dffac9d30","ios":"levelo://app?vid=2c9dcd33-6ced-4cfa-b37a-4f7dffac9d30"},"vehicle_type_id":"4","last_reported":1686344747,"current_range_meters":24000,"station_id":"ce4bhp92rcd13ifvqhcg","pricing_plan_id":"free"},{"bike_id":"a4ba3521-c1f6-4db5-9d06-53ff40682113","system_id":"levelo_inurba_marseille","lat":43.27256,"lon":5.41068,"is_reserved":false,"is_disabled":false,"rental_uris":{"android":"levelo://app?vid=a4ba3521-c1f6-4db5-9d06-53ff40682113","ios":"levelo://app?vid=a4ba3521-c1f6-4db5-9d06-53ff40682113"},"vehicle_type_id":"4","last_reported":1686344747,"current_range_meters":30400,"station_id":"","pricing_plan_id":"free"},{"bike_id":"abad8489-054d-45a7-9f7e-099de7dd2e5a","system_id":"levelo_inurba_marseille","lat":43.26202,"lon":5.379299,"is_reserved":false,"is_disabled":false,"rental_uris":{"android":"levelo://app?vid=abad8489-054d-45a7-9f7e-099de7dd2e5a","ios":"levelo://app?vid=abad8489-054d-45a7-9f7e-099de7dd2e5a"},"vehicle_type_id":"4","last_reported":1686344747,"current_range_meters":27600,"station_id":"ce4bhjp2rcd13ifvqg90","pricing_plan_id":"free"},{"bike_id":"ace73a14-64be-41b0-9321-e512ab79f839","system_id":"levelo_inurba_marseille","lat":43.267959,"lon":5.402687,"is_reserved":false,"is_disabled":false,"rental_uris":{"android":"levelo://app?vid=ace73a14-64be-41b0-9321-e512ab79f839","ios":"levelo://app?vid=ace73a14-64be-41b0-9321-e512ab79f839"},"vehicle_type_id":"4","last_reported":1686344747,"current_range_meters":14000,"station_id":"ce501612rcd8frsf0b60","pricing_plan_id":"free"},{"bike_id":"6c5c95c1-6341-4905-b68a-87ea9f354b49","system_id":"levelo_inurba_marseille","lat":43.298768,"lon":5.43643,"is_reserved":false,"is_disabled":false,"rental_uris":{"android":"levelo://app?vid=6c5c95c1-6341-4905-b68a-87ea9f354b49","ios":"levelo://app?vid=6c5c95c1-6341-4905-b68a-87ea9f354b49"},"vehicle_type_id":"4","last_reported":1686344747,"current_range_meters":22800,"station_id":"ce4bhpp2rcd13ifvqhfg","pricing_plan_id":"free"},{"bike_id":"21e8b6d7-cd1e-4162-9483-b57397b327a3","system_id":"levelo_inurba_marseille","lat":43.298768,"lon":5.43643,"is_reserved":false,"is_disabled":false,"rental_uris":{"android":"levelo://app?vid=21e8b6d7-cd1e-4162-9483-b57397b327a3","ios":"levelo://app?vid=21e8b6d7-cd1e-4162-9483-b57397b327a3"},"vehicle_type_id":"4","last_reported":1686344747,"current_range_meters":25600,"station_id":"ce4bhpp2rcd13ifvqhfg","pricing_plan_id":"free"},{"bike_id":"ea953385-8183-43cf-ac68-d6009989ca24","system_id":"levelo_inurba_marseille","lat":43.298768,"lon":5.43643,"is_reserved":false,"is_disabled":false,"rental_uris":{"android":"levelo://app?vid=ea953385-8183-43cf-ac68-d6009989ca24","ios":"levelo://app?vid=ea953385-8183-43cf-ac68-d6009989ca24"},"vehicle_type_id":"4","last_reported":1686344747,"current_range_meters":26400,"station_id":"ce4bhpp2rcd13ifvqhfg","pricing_plan_id":"free"},{"bike_id":"ff039fde-6b19-431f-8cfd-93995238e238","system_id":"levelo_inurba_marseille","lat":43.26289,"lon":5.39106,"is_reserved":false,"is_disabled":false,"rental_uris":{"android":"levelo://app?vid=ff039fde-6b19-431f-8cfd-93995238e238","ios":"levelo://app?vid=ff039fde-6b19-431f-8cfd-93995238e238"},"vehicle_type_id":"4","last_reported":1686344747,"current_range_meters":6000,"station_id":"","pricing_plan_id":"free"},{"bike_id":"0abd466f-ae7a-4789-a218-e3b2c168a2b3","system_id":"levelo_inurba_marseille","lat":43.25961,"lon":5.3755,"is_reserved":false,"is_disabled":false,"rental_uris":{"android":"levelo://app?vid=0abd466f-ae7a-4789-a218-e3b2c168a2b3","ios":"levelo://app?vid=0abd466f-ae7a-4789-a218-e3b2c168a2b3"},"vehicle_type_id":"4","last_reported":1686344747,"current_range_meters":4800,"station_id":"","pricing_plan_id":"free"},{"bike_id":"71489435-7be4-438a-a9bd-9bd6f159c1de","system_id":"levelo_inurba_marseille","lat":43.275028,"lon":5.424534,"is_reserved":false,"is_disabled":false,"rental_uris":{"android":"levelo://app?vid=71489435-7be4-438a-a9bd-9bd6f159c1de","ios":"levelo://app?vid=71489435-7be4-438a-a9bd-9bd6f159c1de"},"vehicle_type_id":"4","last_reported":1686344747,"current_range_meters":23600,"station_id":"ce4bhn92rcd13ifvqgrg","pricing_plan_id":"free"},{"bike_id":"a781a343-b241-4f95-ab3c-8b2df648c6cb","system_id":"levelo_inurba_marseille","lat":43.33312,"lon":5.44167,"is_reserved":false,"is_disabled":false,"rental_uris":{"android":"levelo://app?vid=a781a343-b241-4f95-ab3c-8b2df648c6cb","ios":"levelo://app?vid=a781a343-b241-4f95-ab3c-8b2df648c6cb"},"vehicle_type_id":"4","last_reported":1686344747,"current_range_meters":8400,"station_id":"","pricing_plan_id":"free"},{"bike_id":"a2c6aa5b-2b1c-454e-862d-aabfbeb049ac","system_id":"levelo_inurba_marseille","lat":43.254945,"lon":5.376454,"is_reserved":false,"is_disabled":false,"rental_uris":{"android":"levelo://app?vid=a2c6aa5b-2b1c-454e-862d-aabfbeb049ac","ios":"levelo://app?vid=a2c6aa5b-2b1c-454e-862d-aabfbeb049ac"},"vehicle_type_id":"4","last_reported":1686344747,"current_range_meters":1200,"station_id":"ce4bhh12rcd13ifvqff0","pricing_plan_id":"free"},{"bike_id":"a2ae67ca-84cf-41a2-abf1-bfb27d9f50cd","system_id":"levelo_inurba_marseille","lat":43.254947,"lon":5.376454,"is_reserved":false,"is_disabled":false,"rental_uris":{"android":"levelo://app?vid=a2ae67ca-84cf-41a2-abf1-bfb27d9f50cd","ios":"levelo://app?vid=a2ae67ca-84cf-41a2-abf1-bfb27d9f50cd"},"vehicle_type_id":"4","last_reported":1686344747,"current_range_meters":1200,"station_id":"ce4bhh12rcd13ifvqff0","pricing_plan_id":"free"},{"bike_id":"8749baf9-1c3c-496e-a41c-38ac24a0b18d","system_id":"levelo_inurba_marseille","lat":43.270721,"lon":5.422764,"is_reserved":false,"is_disabled":false,"rental_uris":{"android":"levelo://app?vid=8749baf9-1c3c-496e-a41c-38ac24a0b18d","ios":"levelo://app?vid=8749baf9-1c3c-496e-a41c-38ac24a0b18d"},"vehicle_type_id":"4","last_reported":1686344747,"current_range_meters":6400,"station_id":"ce4bhk92rcd13ifvqgb0","pricing_plan_id":"free"},{"bike_id":"57e86920-7d70-4682-924a-b979814588c2","system_id":"levelo_inurba_marseille","lat":43.270721,"lon":5.422764,"is_reserved":false,"is_disabled":false,"rental_uris":{"android":"levelo://app?vid=57e86920-7d70-4682-924a-b979814588c2","ios":"levelo://app?vid=57e86920-7d70-4682-924a-b979814588c2"},"vehicle_type_id":"4","last_reported":1686344747,"current_range_meters":2400,"station_id":"ce4bhk92rcd13ifvqgb0","pricing_plan_id":"free"},{"bike_id":"12a5d4bd-4484-4542-99cf-f713ac69b3c1","system_id":"levelo_inurba_marseille","lat":43.270721,"lon":5.422764,"is_reserved":false,"is_disabled":false,"rental_uris":{"android":"levelo://app?vid=12a5d4bd-4484-4542-99cf-f713ac69b3c1","ios":"levelo://app?vid=12a5d4bd-4484-4542-99cf-f713ac69b3c1"},"vehicle_type_id":"4","last_reported":1686344747,"current_range_meters":19600,"station_id":"ce4bhk92rcd13ifvqgb0","pricing_plan_id":"free"},