{"last_updated":1784221329,"ttl":60,"version":"2.2","data":{"bikes":[{"bike_id":"ba0c28b1-8732-48e2-8079-f25b2b3fbc3c","system_id":"levelo_inurba_marseille","lat":43.337444,"lon":5.374475,"is_reserved":false,"is_disabled":false,"rental_uris":{"android":"levelo://app?vid=ba0c28b1-8732-48e2-8079-f25b2b3fbc3c","ios":"levelo://app?vid=ba0c28b1-8732-48e2-8079-f25b2b3fbc3c"},"vehicle_type_id":"4","last_reported":1784221330,"current_range_meters":0,"station_id":"","pricing_plan_id":"cebpf4jnsgd1na2vs0mg"},{"bike_id":"31de24df-81f3-41c7-a8ce-7de881b782ff","system_id":"levelo_inurba_marseille","lat":43.27325,"lon":5.39094,"is_reserved":false,"is_disabled":false,"rental_uris":{"android":"levelo://app?vid=31de24df-81f3-41c7-a8ce-7de881b782ff","ios":"levelo://app?vid=31de24df-81f3-41c7-a8ce-7de881b782ff"},"vehicle_type_id":"4","last_reported":1784221330,"current_range_meters":11600,"station_id":"ce4bhgp2rcd13ifvqfe0","pricing_plan_id":"cebpf4jnsgd1na2vs0mg"},{"bike_id":"76b63993-96f7-484a-8343-5ea3ca2d69bf","system_id":"levelo_inurba_marseille","lat":43.27454,"lon":5.3614,"is_reserved":false,"is_disabled":false,"rental_uris":{"android":"levelo://app?vid=76b63993-96f7-484a-8343-5ea3ca2d69bf","ios":"levelo://app?vid=76b63993-96f7-484a-8343-5ea3ca2d69bf"},"vehicle_type_id":"4","last_reported":1784221330,"current_range_meters":30800,"station_id":"","pricing_plan_id":"cebpf4jnsgd1na2vs0mg"},{"bike_id":"ba8e209a-c8cd-4857-bfef-7f37e4097486","system_id":"levelo_inurba_marseille","lat":43.29032,"lon":5.38639,"is_reserved":false,"is_disabled":false,"rental_uris":{"android":"levelo://app?vid=ba8e209a-c8cd-4857-bfef-7f37e4097486","ios":"levelo://app?vid=ba8e209a-c8cd-4857-bfef-7f37e4097486"},"vehicle_type_id":"4","last_reported":1784221330,"current_range_meters":19200,"station_id":"ce4bh4p2rcd13ifvqe0g","pricing_plan_id":"cebpf4jnsgd1na2vs0mg"},{"bike_id":"0355467a-4bf1-47dd-84f8-f9fae99cadaa","system_id":"levelo_inurba_marseille","lat":43.24065,"lon":5.37738,"is_reserved":false,"is_disabled":false,"rental_uris":{"android":"levelo://app?vid=0355467a-4bf1-47dd-84f8-f9fae99cadaa","ios":"levelo://app?vid=0355467a-4bf1-47dd-84f8-f9fae99cadaa"},"vehicle_type_id":"4","last_reported":1784221330,"current_range_meters":38800,"station_id":"ce4bhnp2rcd13ifvqgvg","pricing_plan_id":"cebpf4jnsgd1na2vs0mg"},{"bike_id":"92eb999b-b4e3-4bbd-a911-2bc3888f5bf5","system_id":"levelo_inurba_marseille","lat":43.26562,"lon":5.39008,"is_reserved":false,"is_disabled":false,"rental_uris":{"android":"levelo://app?vid=92eb999b-b4e3-4bbd-a911-2bc3888f5bf5","ios":"levelo://app?vid=92eb999b-b4e3-4bbd-a911-2bc3888f5bf5"},"vehicle_type_id":"4","last_reported":1784221330,"current_range_meters":30000,"station_id":"ce4bhe12rcd13ifvqf30","pricing_plan_id":"cebpf4jnsgd1na2vs0mg"},{"bike_id":"53087b36-07aa-4249-82e4-449f9a87a749","system_id":"levelo_inurba_marseille","lat":43.29,"lon":5.35601,"is_reserved":false,"is_disabled":false,"rental_uris":{"android":"levelo://app?vid=53087b36-07aa-4249-82e4-449f9a87a749","ios":"levelo://app?vid=53087b36-07aa-4249-82e4-449f9a87a749"},"vehicle_type_id":"4","last_reported":1784221330,"current_range_meters":25200,"station_id":"ce4bhb92rcd13ifvqen0","pricing_plan_id":"cebpf4jnsgd1na2vs0mg"},{"bike_id":"93f62aaf-97ab-422a-99e3-4c99e240ad11","system_id":"levelo_inurba_marseille","lat":43.26563,"lon":5.39011,"is_reserved":false,"is_disabled":true,"rental_uris":{"android":"levelo://app?vid=93f62aaf-97ab-422a-99e3-4c99e240ad11","ios":"levelo://app?vid=93f62aaf-97ab-422a-99e3-4c99e240ad11"},"vehicle_type_id":"4","last_reported":1784221330,"current_range_meters":38400,"station_id":"ce4bhe12rcd13ifvqf30","pricing_plan_id":"cebpf4jnsgd1na2vs0mg"},{"bike_id":"d749523d-f93c-49d0-8009-b305dd6d3874","system_id":"levelo_inurba_marseille","lat":43.251,"lon":5.39485,"is_reserved":false,"is_disabled":false,"rental_uris":{"android":"levelo://app?vid=d749523d-f93c-49d0-8009-b305dd6d3874","ios":"levelo://app?vid=d749523d-f93c-49d0-8009-b305dd6d3874"},"vehicle_type_id":"4","last_reported":1784221330,"current_range_meters":24400,"station_id":"ce4bhm12rcd13ifvqgkg","pricing_plan_id":"cebpf4jnsgd1na2vs0mg"},{"bike_id":"d25cc7c1-b35c-40e8-95e1-17ff370eade9","system_id":"levelo_inurba_marseille","lat":43.2466,"lon":5.37849,"is_reserved":false,"is_disabled":false,"rental_uris":{"android":"levelo://app?vid=d25cc7c1-b35c-40e8-95e1-17ff370eade9","ios":"levelo://app?vid=d25cc7c1-b35c-40e8-95e1-17ff370eade9"},"vehicle_type_id":"4","last_reported":1784221330,"current_range_meters":17600,"station_id":"","pricing_plan_id":"cebpf4jnsgd1na2vs0mg"},{"bike_id":"0f15dc60-bae4-483d-896e-12303a085470","system_id":"levelo_inurba_marseille","lat":43.29539,"lon":5.37492,"is_reserved":false,"is_disabled":false,"rental_uris":{"android":"levelo://app?vid=0f15dc60-bae4-483d-896e-12303a085470","ios":"levelo://app?vid=0f15dc60-bae4-483d-896e-12303a085470"},"vehicle_type_id":"4","last_reported":1784221330,"current_range_meters":39200,"station_id":"ce4bgkp2rcd13ifvqbmg","pricing_plan_id":"cebpf4jnsgd1na2vs0mg"},{"bike_id":"e71494cd-d4a8-436a-a5c6-260a2924500e","system_id":"levelo_inurba_marseille","lat":43.2624,"lon":5.38765,"is_reserved":false,"is_disabled":true,"rental_uris":{"android":"levelo://app?vid=e71494cd-d4a8-436a-a5c6-260a2924500e","ios":"levelo://app?vid=e71494cd-d4a8-436a-a5c6-260a2924500e"},"vehicle_type_id":"4","last_reported":1784221330,"current_range_meters":34000,"station_id":"st_d8gjfg747rts73coq3b0","pricing_plan_id":"cebpf4jnsgd1na2vs0mg"},{"bike_id":"4dd83e35-73dd-44b8-9d3c-9c21e3418d4e","system_id":"levelo_inurba_marseille","lat":43.27492,"lon":5.42516,"is_reserved":false,"is_disabled":false,"rental_uris":{"android":"levelo://app?vid=4dd83e35-73dd-44b8-9d3c-9c21e3418d4e","ios":"levelo://app?vid=4dd83e35-73dd-44b8-9d3c-9c21e3418d4e"},"vehicle_type_id":"4","last_reported":1784221330,"current_range_meters":17200,"station_id":"st_d8t4bh7nbrqs73arha60","pricing_plan_id":"cebpf4jnsgd1na2vs0mg"},{"bike_id":"013ea336-d828-44ac-a5f7-5f3385c8a12f","system_id":"levelo_inurba_marseille","lat":43.29221,"lon":5.38412,"is_reserved":false,"is_disabled":false,"rental_uris":{"android":"levelo://app?vid=013ea336-d828-44ac-a5f7-5f3385c8a12f","ios":"levelo://app?vid=013ea336-d828-44ac-a5f7-5f3385c8a12f"},"vehicle_type_id":"4","last_reported":1784221330,"current_range_meters":12400,"station_id":"ce4bh692rcd13ifvqea0","pricing_plan_id":"cebpf4jnsgd1na2vs0mg"},{"bike_id":"d6057eb2-9bb7-4bbb-9d1a-c165943bae0a","system_id":"levelo_inurba_marseille","lat":43.2396,"lon":5.36628,"is_reserved":false,"is_disabled":false,"rental_uris":{"android":"levelo://app?vid=d6057eb2-9bb7-4bbb-9d1a-c165943bae0a","ios":"levelo://app?vid=d6057eb2-9bb7-4bbb-9d1a-c165943bae0a"},"vehicle_type_id":"4","last_reported":1784221330,"current_range_meters":17600,"station_id":"ce4bhi12rcd13ifvqfp0","pricing_plan_id":"cebpf4jnsgd1na2vs0mg"},{"bike_id":"5369b032-dcc5-484a-9b18-671fceb20e9f","system_id":"levelo_inurba_marseille","lat":43.25019,"lon":5.38909,"is_reserved":false,"is_disabled":false,"rental_uris":{"android":"levelo://app?vid=5369b032-dcc5-484a-9b18-671fceb20e9f","ios":"levelo://app?vid=5369b032-dcc5-484a-9b18-671fceb20e9f"},"vehicle_type_id":"4","last_reported":1784221330,"current_range_meters":24800,"station_id":"ce4bhgp2rcd13ifvqfd0","pricing_plan_id":"cebpf4jnsgd1na2vs0mg"},{"bike_id":"3d560641-c11d-4197-8b2c-618856c4672f","system_id":"levelo_inurba_marseille","lat":43.27072,"lon":5.42326,"is_reserved":false,"is_disabled":true,"rental_uris":{"android":"levelo://app?vid=3d560641-c11d-4197-8b2c-618856c4672f","ios":"levelo://app?vid=3d560641-c11d-4197-8b2c-618856c4672f"},"vehicle_type_id":"4","last_reported":1784221330,"current_range_meters":0,"station_id":"ce4bhk92rcd13ifvqgb0","pricing_plan_id":"cebpf4jnsgd1na2vs0mg"},{"bike_id":"daf11da9-09e4-45d4-814b-e16971bc59a4","system_id":"levelo_inurba_marseille","lat":43.27947,"lon":5.38707,"is_reserved":false,"is_disabled":true,"rental_uris":{"android":"levelo://app?vid=daf11da9-09e4-45d4-814b-e16971bc59a4","ios":"levelo://app?vid=daf11da9-09e4-45d4-814b-e16971bc59a4"},"vehicle_type_id":"4","last_reported":1784221330,"current_range_meters":28800,"station_id":"ce4bhg12rcd13ifvqf80","pricing_plan_id":"cebpf4jnsgd1na2vs0mg"},{"bike_id":"a4d79a17-63b8-4c7f-b179-79ed9edf9240","system_id":"levelo_inurba_marseille","lat":43.29957,"lon":5.37529,"is_reserved":false,"is_disabled":false,"rental_uris":{"android":"levelo://app?vid=a4d79a17-63b8-4c7f-b179-79ed9edf9240","ios":"levelo://app?vid=a4d79a17-63b8-4c7f-b179-79ed9edf9240"},"vehicle_type_id":"4","last_reported":1784221330,"current_range_meters":14400,"station_id":"","pricing_plan_id":"cebpf4jnsgd1na2vs0mg"},{"bike_id":"10f3c80e-2fc1-4d12-af0c-5851bbd0033c","system_id":"levelo_inurba_marseille","lat":43.29019,"lon":5.38649,"is_reserved":false,"is_disabled":false,"rental_uris":{"android":"levelo://app?vid=10f3c80e-2fc1-4d12-af0c-5851bbd0033c","ios":"levelo://app?vid=10f3c80e-2fc1-4d12-af0c-5851bbd0033c"},"vehicle_type_id":"4","last_reported":1784221330,"current_range_meters":37600,"station_id":"ce4bh4p2rcd13ifvqe0g","pricing_plan_id":"cebpf4jnsgd1na2vs0mg"},{"bike_id":"ea3e03c4-4dd6-4479-b8b4-8fd80bfdda8e","system_id":"levelo_inurba_marseille","lat":43.27062,"lon":5.38297,"is_reserved":false,"is_disabled":false,"rental_uris":{"android":"levelo://app?vid=ea3e03c4-4dd6-4479-b8b4-8fd80bfdda8e","ios":"levelo://app?vid=ea3e03c4-4dd6-4479-b8b4-8fd80bfdda8e"},"vehicle_type_id":"4","last_reported":1784221330,"current_range_meters":16800,"station_id":"st_d3n2fo6cfp8s73cte1j0","pricing_plan_id":"cebpf4jnsgd1na2vs0mg"},{"bike_id":"b7b159b6-ba7d-4cd5-9705-b4bb03362319","system_id":"levelo_inurba_marseille","lat":43.28599,"lon":5.38423,"is_reserved":false,"is_disabled":false,"rental_uris":{"android":"levelo://app?vid=b7b159b6-ba7d-4cd5-9705-b4bb03362319","ios":"levelo://app?vid=b7b159b6-ba7d-4cd5-9705-b4bb03362319"},"vehicle_type_id":"4","last_reported":1784221330,"current_range_meters":14400,"station_id":"","pricing_plan_id":"cebpf4jnsgd1na2vs0mg"},{"bike_id":"bdb085ac-5ea9-429b-9ed2-004213816551","system_id":"levelo_inurba_marseille","lat":43.28862,"lon":5.35841,"is_reserved":false,"is_disabled":false,"rental_uris":{"android":"levelo://app?vid=bdb085ac-5ea9-429b-9ed2-004213816551","ios":"levelo://app?vid=bdb085ac-5ea9-429b-9ed2-004213816551"},"vehicle_type_id":"4","last_reported":1784221330,"current_range_meters":4400,"station_id":"ce4bhb12rcd13ifvqem0","pricing_plan_id":"cebpf4jnsgd1na2vs0mg"},{"bike_id":"1cdcdc63-2f01-4fb0-8374-e7930bc77837","system_id":"levelo_inurba_marseille","lat":43.30872,"lon":5.37179,"is_reserved":false,"is_disabled":false,"rental_uris":{"android":"levelo://app?vid=1cdcdc63-2f01-4fb0-8374-e7930bc77837","ios":"levelo://app?vid=1cdcdc63-2f01-4fb0-8374-e7930bc77837"},"vehicle_type_id":"4","last_reported":1784221330,"current_range_meters":8400,"station_id":"ce4bguh2rcd13ifvqckg","pricing_plan_id":"cebpf4jnsgd1na2vs0mg"},{"bike_id":"e4064152-b01a-460a-934b-4b0ab157c51c","system_id":"levelo_inurba_marseille","lat":43.23075,"lon":5.35482,"is_reserved":false,"is_disabled":false,"rental_uris":{"android":"levelo://app?vid=e4064152-b01a-460a-934b-4b0ab157c51c","ios":"levelo://app?vid=e4064152-b01a-460a-934b-4b0ab157c51c"},"vehicle_type_id":"4","last_reported":1784221330,"current_range_meters":11200,"station_id":"cpo3342slgdg3j2ifvpg","pricing_plan_id":"cebpf4jnsgd1na2vs0mg"},{"bike_id":"4d103531-dc76-4632-9ed6-3b8eae789ecc","system_id":"levelo_inurba_marseille","lat":43.3211,"lon":5.36781,"is_reserved":false,"is_disabled":false,"rental_uris":{"android":"levelo://app?vid=4d103531-dc76-4632-9ed6-3b8eae789ecc","ios":"levelo://app?vid=4d103531-dc76-4632-9ed6-3b8eae789ecc"},"vehicle_type_id":"4","last_reported":1784221330,"current_range_meters":18000,"station_id":"ce4bhrh2rcd13ifvqhug","pricing_plan_id":"cebpf4jnsgd1na2vs0mg"},{"bike_id":"16be90e9-43f9-4482-b73f-17dd0010f9f8","system_id":"levelo_inurba_marseille","lat":43.26842,"lon":5.39481,"is_reserved":false,"is_disabled":false,"rental_uris":{"android":"levelo://app?vid=16be90e9-43f9-4482-b73f-17dd0010f9f8","ios":"levelo://app?vid=16be90e9-43f9-4482-b73f-17dd0010f9f8"},"vehicle_type_id":"4","last_reported":1784221330,"current_range_meters":7200,"station_id":"ce4bhh12rcd13ifvqfg0","pricing_plan_id":"cebpf4jnsgd1na2vs0mg"},{"bike_id":"ef6880d0-6944-4f6a-8f40-6662368b8f75","system_id":"levelo_inurba_marseille","lat":43.31441,"lon":5.45415,"is_reserved":false,"is_disabled":false,"rental_uris":{"android":"levelo://app?vid=ef6880d0-6944-4f6a-8f40-6662368b8f75","ios":"levelo://app?vid=ef6880d0-6944-4f6a-8f40-6662368b8f75"},"vehicle_type_id":"4","last_reported":1784221330,"current_range_meters":17200,"station_id":"","pricing_plan_id":"cebpf4jnsgd1na2vs0mg"},{"bike_id":"a7046d25-98a0-470a-a205-da0b548d272d","system_id":"levelo_inurba_marseille","lat":43.28076,"lon":5.35232,"is_reserved":false,"is_disabled":false,"rental_uris":{"android":"levelo://app?vid=a7046d25-98a0-470a-a205-da0b548d272d","ios":"levelo://app?vid=a7046d25-98a0-470a-a205-da0b548d272d"},"vehicle_type_id":"4","last_reported":1784221330,"current_range_meters":20000,"station_id":"","pricing_plan_id":"cebpf4jnsgd1na2vs0mg"},{"bike_id":"5debb3c5-264e-41ad-a7cd-6b19b7b8a4da","system_id":"levelo_inurba_marseille","lat":43.28618,"lon":5.35094,"is_reserved":false,"is_disabled":false,"rental_uris":{"android":"levelo://app?vid=5debb3c5-264e-41ad-a7cd-6b19b7b8a4da","ios":"levelo://app?vid=5debb3c5-264e-41ad-a7cd-6b19b7b8a4da"},"vehicle_type_id":"4","last_reported":1784221330,"current_range_meters":10800,"station_id":"ce4bhch2rcd13ifvqeug","pricing_plan_id":"cebpf4jnsgd1na2vs0mg"},{"bike_id":"d183c213-4177-4bf2-b9e0-24872be8a9c8","system_id":"levelo_inurba_marseille","lat":43.28489,"lon":5.48363,"is_reserved":false,"is_disabled":false,"rental_uris":{"android":"levelo://app?vid=d183c213-4177-4bf2-b9e0-24872be8a9c8","ios":"levelo://app?vid=d183c213-4177-4bf2-b9e0-24872be8a9c8"},"vehicle_type_id":"4","last_reported":1784221330,"current_range_meters":23200,"station_id":"st_d3svhcjqgbts73a3dn0g","pricing_plan_id":"cebpf4jnsgd1na2vs0mg"},{"bike_id":"77f0b611-8e54-40ee-804a-9a0ef852a88a","system_id":"levelo_inurba_marseille","lat":43.31234,"lon":5.36837,"is_reserved":false,"is_disabled":true,"rental_uris":{"android":"levelo://app?vid=77f0b611-8e54-40ee-804a-9a0ef852a88a","ios":"levelo://app?vid=77f0b611-8e54-40ee-804a-9a0ef852a88a"},"vehicle_type_id":"4","last_reported":1784221330,"current_range_meters":20000,"station_id":"ce4bgl92rcd13ifvqbq0","pricing_plan_id":"cebpf4jnsgd1na2vs0mg"},{"bike_id":"cbeeef63-a0b5-4a1f-ada6-b68b868200a0","system_id":"levelo_inurba_marseille","lat":43.26374,"lon":5.41079,"is_reserved":false,"is_disabled":false,"rental_uris":{"android":"levelo://app?vid=cbeeef63-a0b5-4a1f-ada6-b68b868200a0","ios":"levelo://app?vid=cbeeef63-a0b5-4a1f-ada6-b68b868200a0"},"vehicle_type_id":"4","last_reported":1784221330,"current_range_meters":25600,"station_id":"st_d4e5ca6na9uc73bfl5fg","pricing_plan_id":"cebpf4jnsgd1na2vs0mg"},{"bike_id":"962aa00a-7fcb-4af2-9e3e-a53ce251e62e","system_id":"levelo_inurba_marseille","lat":43.29296,"lon":5.37452,"is_reserved":false,"is_disabled":false,"rental_uris":{"android":"levelo://app?vid=962aa00a-7fcb-4af2-9e3e-a53ce251e62e","ios":"levelo://app?vid=962aa00a-7fcb-4af2-9e3e-a53ce251e62e"},"vehicle_type_id":"4","last_reported":1784221330,"current_range_meters":8400,"station_id":"ce4bgi12rcd13ifvqb70","pricing_plan_id":"cebpf4jnsgd1na2vs0mg"},{"bike_id":"e4e2da61-31a3-435a-b1ec-9bb834559f2e","system_id":"levelo_inurba_marseille","lat":43.24981,"lon":5.38905,"is_reserved":false,"is_disabled":false,"rental_uris":{"android":"levelo://app?vid=e4e2da61-31a3-435a-b1ec-9bb834559f2e","ios":"levelo://app?vid=e4e2da61-31a3-435a-b1ec-9bb834559f2e"},"vehicle_type_id":"4","last_reported":1784221330,"current_range_meters":33200,"station_id":"ce4bhgp2rcd13ifvqfd0","pricing_plan_id":"cebpf4jnsgd1na2vs0mg"},{"bike_id":"42af03cf-ec5f-4e1d-93b9-95e26a79f484","system_id":"levelo_inurba_marseille","lat":43.28854,"lon":5.35863,"is_reserved":false,"is_disabled":true,"rental_uris":{"android":"levelo://app?vid=42af03cf-ec5f-4e1d-93b9-95e26a79f484","ios":"levelo://app?vid=42af03cf-ec5f-4e1d-93b9-95e26a79f484"},"vehicle_type_id":"4","last_reported":1784221330,"current_range_meters":400,"station_id":"ce4bhb12rcd13ifvqem0","pricing_plan_id":"cebpf4jnsgd1na2vs0mg"},{"bike_id":"866aa9f7-ad6f-45bb-886c-f290137f6df3","system_id":"levelo_inurba_marseille","lat":43.26199,"lon":5.37437,"is_reserved":false,"is_disabled":false,"rental_uris":{"android":"levelo://app?vid=866aa9f7-ad6f-45bb-886c-f290137f6df3","ios":"levelo://app?vid=866aa9f7-ad6f-45bb-886c-f290137f6df3"},"vehicle_type_id":"4","last_reported":1784221330,"current_range_meters":18000,"station_id":"ce4bhgp2rcd13ifvqfc0","pricing_plan_id":"cebpf4jnsgd1na2vs0mg"},{"bike_id":"e0c7065e-7f74-4b06-ae7b-f933c635df87","system_id":"levelo_inurba_marseille","lat":43.29557,"lon":5.42271,"is_reserved":false,"is_disabled":false,"rental_uris":{"android":"levelo://app?vid=e0c7065e-7f74-4b06-ae7b-f933c635df87","ios":"levelo://app?vid=e0c7065e-7f74-4b06-ae7b-f933c635df87"},"vehicle_type_id":"4","last_reported":1784221330,"current_range_meters":38800,"station_id":"ce4bhph2rcd13ifvqhdg","pricing_plan_id":"cebpf4jnsgd1na2vs0mg"},{"bike_id":"3d9d15ce-5804-4209-b92a-723f598d0341","system_id":"levelo_inurba_marseille","lat":43.21192,"lon":5.35076,"is_reserved":false,"is_disabled":false,"rental_uris":{"android":"levelo://app?vid=3d9d15ce-5804-4209-b92a-723f598d0341","ios":"levelo://app?vid=3d9d15ce-5804-4209-b92a-723f598d0341"},"vehicle_type_id":"4","last_reported":1784221330,"current_range_meters":17200,"station_id":"st_cvj6sg6p6f1abm77japg","pricing_plan_id":"cebpf4jnsgd1na2vs0mg"},{"bike_id":"a5ea7a4d-5c91-4375-9b69-e1afa5bd4032","system_id":"levelo_inurba_marseille","lat":43.29389,"lon":5.374052,"is_reserved":false,"is_disabled":true,"rental_uris":{"android":"levelo://app?vid=a5ea7a4d-5c91-4375-9b69-e1afa5bd4032","ios":"levelo://app?vid=a5ea7a4d-5c91-4375-9b69-e1afa5bd4032"},"vehicle_type_id":"4","last_reported":1784221330,"current_range_meters":400,"station_id":"ce4bgi12rcd13ifvqb70","pricing_plan_id":"cebpf4jnsgd1na2vs0mg"},{"bike_id":"6a3cc4ee-d205-4ffe-a33b-1da34463d749","system_id":"levelo_inurba_marseille","lat":43.27965,"lon":5.3875,"is_reserved":false,"is_disabled":true,"rental_uris":{"android":"levelo://app?vid=6a3cc4ee-d205-4ffe-a33b-1da34463d749","ios":"levelo://app?vid=6a3cc4ee-d205-4ffe-a33b-1da34463d749"},"vehicle_type_id":"4","last_reported":1784221330,"current_range_meters":0,"station_id":"ce4bhg12rcd13ifvqf80","pricing_plan_id":"cebpf4jnsgd1na2vs0mg"},{"bike_id":"92f9377a-62ba-495b-8de9-1750140cdb94","system_id":"levelo_inurba_marseille","lat":43.29647,"lon":5.37145,"is_reserved":false,"is_disabled":true,"rental_uris":{"android":"levelo://app?vid=92f9377a-62ba-495b-8de9-1750140cdb94","ios":"levelo://app?vid=92f9377a-62ba-495b-8de9-1750140cdb94"},"vehicle_type_id":"4","last_reported":1784221330,"current_range_meters":12400,"station_id":"","pricing_plan_id":"cebpf4jnsgd1na2vs0mg"},{"bike_id":"0b1c66f4-a67a-4608-b0fc-90f294595409","system_id":"levelo_inurba_marseille","lat":43.27817,"lon":5.40711,"is_reserved":false,"is_disabled":false,"rental_uris":{"android":"levelo://app?vid=0b1c66f4-a67a-4608-b0fc-90f294595409","ios":"levelo://app?vid=0b1c66f4-a67a-4608-b0fc-90f294595409"},"vehicle_type_id":"4","last_reported":1784221330,"current_range_meters":12400,"station_id":"ce4bhnh2rcd13ifvqgtg","pricing_plan_id":"cebpf4jnsgd1na2vs0mg"},{"bike_id":"e1bb6861-ee59-438c-aa2a-2a553b2d6f43","system_id":"levelo_inurba_marseille","lat":43.27199,"lon":5.40992,"is_reserved":false,"is_disabled":true,"rental_uris":{"android":"levelo://app?vid=e1bb6861-ee59-438c-aa2a-2a553b2d6f43","ios":"levelo://app?vid=e1bb6861-ee59-438c-aa2a-2a553b2d6f43"},"vehicle_type_id":"4","last_reported":1784221330,"current_range_meters":36800,"station_id":"ce4bhl12rcd13ifvqgf0","pricing_plan_id":"cebpf4jnsgd1na2vs0mg"},{"bike_id":"d61f5f42-3266-4ab9-bc4e-5a83331a7ece","system_id":"levelo_inurba_marseille","lat":43.256,"lon":5.38203,"is_reserved":false,"is_disabled":true,"rental_uris":{"android":"levelo://app?vid=d61f5f42-3266-4ab9-bc4e-5a83331a7ece","ios":"levelo://app?vid=d61f5f42-3266-4ab9-bc4e-5a83331a7ece"},"vehicle_type_id":"4","last_reported":1784221330,"current_range_meters":36400,"station_id":"ce4bhih2rcd13ifvqfs0","pricing_plan_id":"cebpf4jnsgd1na2vs0mg"},{"bike_id":"06097b1f-6886-48c9-a8e6-84f03d133de4","system_id":"levelo_inurba_marseille","lat":43.3135,"lon":5.43233,"is_reserved":false,"is_disabled":false,"rental_uris":{"android":"levelo://app?vid=06097b1f-6886-48c9-a8e6-84f03d133de4","ios":"levelo://app?vid=06097b1f-6886-48c9-a8e6-84f03d133de4"},"vehicle_type_id":"4","last_reported":1784221330,"current_range_meters":6000,"station_id":"","pricing_plan_id":"cebpf4jnsgd1na2vs0mg"},{"bike_id":"34c5b572-acfb-4138-9633-fe327799f420","system_id":"levelo_inurba_marseille","lat":43.29542,"lon":5.36126,"is_reserved":false,"is_disabled":true,"rental_uris":{"android":"levelo://app?vid=34c5b572-acfb-4138-9633-fe327799f420","ios":"levelo://app?vid=34c5b572-acfb-4138-9633-fe327799f420"},"vehicle_type_id":"4","last_reported":1784221330,"current_range_meters":34800,"station_id":"","pricing_plan_id":"cebpf4jnsgd1na2vs0mg"},{"bike_id":"c70a5a1a-1138-428e-9352-e5f388c6b2fe","system_id":"levelo_inurba_marseille","lat":43.33758,"lon":5.3744,"is_reserved":false,"is_disabled":false,"rental_uris":{"android":"levelo://app?vid=c70a5a1a-1138-428e-9352-e5f388c6b2fe","ios":"levelo://app?vid=c70a5a1a-1138-428e-9352-e5f388c6b2fe"},"vehicle_type_id":"4","last_reported":1784221330,"current_range_meters":30400,"station_id":"","pricing_plan_id":"cebpf4jnsgd1na2vs0mg"},{"bike_id":"448ab149-1e23-45d2-8d41-536c144b6b21","system_id":"levelo_inurba_marseille","lat":43.31766,"lon":5.39017,"is_reserved":false,"is_disabled":false,"rental_uris":{"android":"levelo://app?vid=448ab149-1e23-45d2-8d41-536c144b6b21","ios":"levelo://app?vid=448ab149-1e23-45d2-8d41-536c144b6b21"},"vehicle_type_id":"4","last_reported":1784221330,"current_range_meters":18000,"station_id":"ce4bhqp2rcd13ifvqhng","pricing_plan_id":"cebpf4jnsgd1na2vs0mg"},{"bike_id":"e4069052-09f3-4aad-a4cf-82efe46eca69","system_id":"levelo_inurba_marseille","lat":43.27905,"lon":5.37998,"is_reserved":false,"is_disabled":false,"rental_uris":{"android":"levelo://app?vid=e4069052-09f3-4aad-a4cf-82efe46eca69","ios":"levelo://app?vid=e4069052-09f3-4aad-a4cf-82efe46eca69"},"vehicle_type_id":"4","last_reported":1784221330,"current_range_meters":39200,"station_id":"ce4bhf92rcd13ifvqf50","pricing_plan_id":"cebpf4jnsgd1na2vs0mg"},{"bike_id":"2623e023-e953-40ac-8068-15d2169ca99d","system_id":"levelo_inurba_marseille","lat":43.28698,"lon":5.46684,"is_reserved":false,"is_disabled":false,"rental_uris":{"android":"levelo://app?vid=2623e023-e953-40ac-8068-15d2169ca99d","ios":"levelo://app?vid=2623e023-e953-40ac-8068-15d2169ca99d"},"vehicle_type_id":"4","last_reported":1784221330,"current_range_meters":9200,"station_id":"st_d6tc3vkotcvc738tfjhg","pricing_plan_id":"cebpf4jnsgd1na2vs0mg"},{"bike_id":"7a5203cf-b3c3-4680-afa1-0e3d4d1fb7e2","system_id":"levelo_inurba_marseille","lat":43.23892,"lon":5.37439,"is_reserved":false,"is_disabled":false,"rental_uris":{"android":"levelo://app?vid=7a5203cf-b3c3-4680-afa1-0e3d4d1fb7e2","ios":"levelo://app?vid=7a5203cf-b3c3-4680-afa1-0e3d4d1fb7e2"},"vehicle_type_id":"4","last_reported":1784221330,"current_range_meters":38400,"station_id":"st_d6sm7csbq4hs73f8fpjg","pricing_plan_id":"cebpf4jnsgd1na2vs0mg"},{"bike_id":"69b6ed8c-1f17-46c2-8d4a-815055a3a3c4","system_id":"levelo_inurba_marseille","lat":43.28991,"lon":5.35595,"is_reserved":false,"is_disabled":true,"rental_uris":{"android":"levelo://app?vid=69b6ed8c-1f17-46c2-8d4a-815055a3a3c4","ios":"levelo://app?vid=69b6ed8c-1f17-46c2-8d4a-815055a3a3c4"},"vehicle_type_id":"4","last_reported":1784221330,"current_range_meters":39200,"station_id":"ce4bhb92rcd13ifvqen0","pricing_plan_id":"cebpf4jnsgd1na2vs0mg"},{"bike_id":"a5b1dda6-7d08-4e06-9cec-2ce751bb0ae6","system_id":"levelo_inurba_marseille","lat":43.32065,"lon":5.41535,"is_reserved":false,"is_disabled":false,"rental_uris":{"android":"levelo://app?vid=a5b1dda6-7d08-4e06-9cec-2ce751bb0ae6","ios":"levelo://app?vid=a5b1dda6-7d08-4e06-9cec-2ce751bb0ae6"},"vehicle_type_id":"4","last_reported":1784221330,"current_range_meters":37600,"station_id":"ce4bhq92rcd13ifvqhkg","pricing_plan_id":"cebpf4jnsgd1na2vs0mg"},{"bike_id":"ab5a5434-c3ee-488b-805e-053b060751b9","system_id":"levelo_inurba_marseille","lat":43.27558,"lon":5.38386,"is_reserved":false,"is_disabled":false,"rental_uris":{"android":"levelo://app?vid=ab5a5434-c3ee-488b-805e-053b060751b9","ios":"levelo://app?vid=ab5a5434-c3ee-488b-805e-053b060751b9"},"vehicle_type_id":"4","last_reported":1784221330,"current_range_meters":39200,"station_id":"ce4bhh92rcd13ifvqfi0","pricing_plan_id":"cebpf4jnsgd1na2vs0mg"},{"bike_id":"f9b04cff-0426-44bb-9440-4e9193de90d6","system_id":"levelo_inurba_marseille","lat":43.31278,"lon":5.36997,"is_reserved":false,"is_disabled":false,"rental_uris":{"android":"levelo://app?vid=f9b04cff-0426-44bb-9440-4e9193de90d6","ios":"levelo://app?vid=f9b04cff-0426-44bb-9440-4e9193de90d6"},"vehicle_type_id":"4","last_reported":1784221330,"current_range_meters":38400,"station_id":"","pricing_plan_id":"cebpf4jnsgd1na2vs0mg"},{"bike_id":"f44d0928-8ad6-4308-b10f-ade40ce37ee2","system_id":"levelo_inurba_marseille","lat":43.27996,"lon":5.38265,"is_reserved":false,"is_disabled":false,"rental_uris":{"android":"levelo://app?vid=f44d0928-8ad6-4308-b10f-ade40ce37ee2","ios":"levelo://app?vid=f44d0928-8ad6-4308-b10f-ade40ce37ee2"},"vehicle_type_id":"4","last_reported":1784221330,"current_range_meters":28800,"station_id":"","pricing_plan_id":"cebpf4jnsgd1na2vs0mg"},{"bike_id":"0cde3b63-731b-4557-96f5-577da871969d","system_id":"levelo_inurba_marseille","lat":43.25493,"lon":5.37662,"is_reserved":false,"is_disabled":false,"rental_uris":{"android":"levelo://app?vid=0cde3b63-731b-4557-96f5-577da871969d","ios":"levelo://app?vid=0cde3b63-731b-4557-96f5-577da871969d"},"vehicle_type_id":"4","last_reported":1784221330,"current_range_meters":7200,"station_id":"ce4bhh12rcd13ifvqff0","pricing_plan_id":"cebpf4jnsgd1na2vs0mg"},{"bike_id":"10ef5bd0-f130-4452-b7f2-391aef329ae1","system_id":"levelo_inurba_marseille","lat":43.28166,"lon":5.42644,"is_reserved":false,"is_disabled":false,"rental_uris":{"android":"levelo://app?vid=10ef5bd0-f130-4452-b7f2-391aef329ae1","ios":"levelo://app?vid=10ef5bd0-f130-4452-b7f2-391aef329ae1"},"vehicle_type_id":"4","last_reported":1784221330,"current_range_meters":36000,"station_id":"ce4bhnh2rcd13ifvqgug","pricing_plan_id":"cebpf4jnsgd1na2vs0mg"},{"bike_id":"f77110eb-f060-429e-9a0f-6b74aa965739","system_id":"levelo_inurba_marseille","lat":43.29534,"lon":5.38535,"is_reserved":false,"is_disabled":false,"rental_uris":{"android":"levelo://app?vid=f77110eb-f060-429e-9a0f-6b74aa965739","ios":"levelo://app?vid=f77110eb-f060-429e-9a0f-6b74aa965739"},"vehicle_type_id":"4","last_reported":1784221330,"current_range_meters":34000,"station_id":"ce4bgih2rcd13ifvqba0","pricing_plan_id":"cebpf4jnsgd1na2vs0mg"},{"bike_id":"8ba7f2d6-52d3-4c56-b19a-19a142e62779","system_id":"levelo_inurba_marseille","lat":43.2407,"lon":5.37724,"is_reserved":false,"is_disabled":false,"rental_uris":{"android":"levelo://app?vid=8ba7f2d6-52d3-4c56-b19a-19a142e62779","ios":"levelo://app?vid=8ba7f2d6-52d3-4c56-b19a-19a142e62779"},"vehicle_type_id":"4","last_reported":1784221330,"current_range_meters":19200,"station_id":"ce4bhnp2rcd13ifvqgvg","pricing_plan_id":"cebpf4jnsgd1na2vs0mg"},{"bike_id":"3df7b3ee-3083-4a49-a1f1-8ec2f9d7ba3b","system_id":"levelo_inurba_marseille","lat":43.26078,"lon":5.39384,"is_reserved":false,"is_disabled":false,"rental_uris":{"android":"levelo://app?vid=3df7b3ee-3083-4a49-a1f1-8ec2f9d7ba3b","ios":"levelo://app?vid=3df7b3ee-3083-4a49-a1f1-8ec2f9d7ba3b"},"vehicle_type_id":"4","last_reported":1784221330,"current_range_meters":30800,"station_id":"ce4bhh92rcd13ifvqfj0","pricing_plan_id":"cebpf4jnsgd1na2vs0mg"},{"bike_id":"692e39d8-285b-41d0-a15a-1de09e6388a5","system_id":"levelo_inurba_marseille","lat":43.24807,"lon":5.37434,"is_reserved":false,"is_disabled":false,"rental_uris":{"android":"levelo://app?vid=692e39d8-285b-41d0-a15a-1de09e6388a5","ios":"levelo://app?vid=692e39d8-285b-41d0-a15a-1de09e6388a5"},"vehicle_type_id":"4","last_reported":1784221330,"current_range_meters":39200,"station_id":"ce4bhgh2rcd13ifvqfb0","pricing_plan_id":"cebpf4jnsgd1na2vs0mg"},{"bike_id":"06673c14-94ed-4eb5-ac49-41767b0b5282","system_id":"levelo_inurba_marseille","lat":43.26527,"lon":5.37304,"is_reserved":false,"is_disabled":false,"rental_uris":{"android":"levelo://app?vid=06673c14-94ed-4eb5-ac49-41767b0b5282","ios":"levelo://app?vid=06673c14-94ed-4eb5-ac49-41767b0b5282"},"vehicle_type_id":"4","last_reported":1784221330,"current_range_meters":36800,"station_id":"","pricing_plan_id":"cebpf4jnsgd1na2vs0mg"},{"bike_id":"1702cc2f-2c66-448b-8b54-58c477324e70","system_id":"levelo_inurba_marseille","lat":43.27339,"lon":5.39097,"is_reserved":false,"is_disabled":false,"rental_uris":{"android":"levelo://app?vid=1702cc2f-2c66-448b-8b54-58c477324e70","ios":"levelo://app?vid=1702cc2f-2c66-448b-8b54-58c477324e70"},"vehicle_type_id":"4","last_reported":1784221330,"current_range_meters":16800,"station_id":"ce4bhgp2rcd13ifvqfe0","pricing_plan_id":"cebpf4jnsgd1na2vs0mg"},{"bike_id":"0e360b15-de3c-44d2-a9b5-9c26ac2c9416","system_id":"levelo_inurba_marseille","lat":43.29008,"lon":5.35598,"is_reserved":false,"is_disabled":false,"rental_uris":{"android":"levelo://app?vid=0e360b15-de3c-44d2-a9b5-9c26ac2c9416","ios":"levelo://app?vid=0e360b15-de3c-44d2-a9b5-9c26ac2c9416"},"vehicle_type_id":"4","last_reported":1784221330,"current_range_meters":10800,"station_id":"ce4bhb92rcd13ifvqen0","pricing_plan_id":"cebpf4jnsgd1na2vs0mg"},{"bike_id":"57091f55-05a7-48f3-b9de-2a363c338c85","system_id":"levelo_inurba_marseille","lat":43.23902,"lon":5.37441,"is_reserved":false,"is_disabled":false,"rental_uris":{"android":"levelo://app?vid=57091f55-05a7-48f3-b9de-2a363c338c85","ios":"levelo://app?vid=57091f55-05a7-48f3-b9de-2a363c338c85"},"vehicle_type_id":"4","last_reported":1784221330,"current_range_meters":39200,"station_id":"st_d6sm7csbq4hs73f8fpjg","pricing_plan_id":"cebpf4jnsgd1na2vs0mg"},{"bike_id":"5ee03f4b-159d-426a-a2ca-0b6a084e3698","system_id":"levelo_inurba_marseille","lat":43.23788,"lon":5.36625,"is_reserved":false,"is_disabled":false,"rental_uris":{"android":"levelo://app?vid=5ee03f4b-159d-426a-a2ca-0b6a084e3698","ios":"levelo://app?vid=5ee03f4b-159d-426a-a2ca-0b6a084e3698"},"vehicle_type_id":"4","last_reported":1784221330,"current_range_meters":32000,"station_id":"st_d3nk18o9ro0c73en2l3g","pricing_plan_id":"cebpf4jnsgd1na2vs0mg"},{"bike_id":"3881a700-b2f5-47cf-af67-157f64684ce7","system_id":"levelo_inurba_marseille","lat":43.27249,"lon":5.38963,"is_reserved":false,"is_disabled":true,"rental_uris":{"android":"levelo://app?vid=3881a700-b2f5-47cf-af67-157f64684ce7","ios":"levelo://app?vid=3881a700-b2f5-47cf-af67-157f64684ce7"},"vehicle_type_id":"4","last_reported":1784221330,"current_range_meters":0,"station_id":"","pricing_plan_id":"cebpf4jnsgd1na2vs0mg"},{"bike_id":"e9700518-bfab-4e19-9c8e-e3cb6414cf72","system_id":"levelo_inurba_marseille","lat":43.2927,"lon":5.35843,"is_reserved":false,"is_disabled":true,"rental_uris":{"android":"levelo://app?vid=e9700518-bfab-4e19-9c8e-e3cb6414cf72","ios":"levelo://app?vid=e9700518-bfab-4e19-9c8e-e3cb6414cf72"},"vehicle_type_id":"4","last_reported":1784221330,"current_range_meters":14800,"station_id":"","pricing_plan_id":"cebpf4jnsgd1na2vs0mg"},{"bike_id":"ab01350c-85f7-4d30-9ee2-0b1ea50aeb63","system_id":"levelo_inurba_marseille","lat":43.29606,"lon":5.37732,"is_reserved":false,"is_disabled":true,"rental_uris":{"android":"levelo://app?vid=ab01350c-85f7-4d30-9ee2-0b1ea50aeb63","ios":"levelo://app?vid=ab01350c-85f7-4d30-9ee2-0b1ea50aeb63"},"vehicle_type_id":"4","last_reported":1784221330,"current_range_meters":0,"station_id":"ce4bgi92rcd13ifvqb90","pricing_plan_id":"cebpf4jnsgd1na2vs0mg"},{"bike_id":"e58d58e5-28b9-496d-b29a-72e845c652fd","system_id":"levelo_inurba_marseille","lat":43.30654,"lon":5.40102,"is_reserved":false,"is_disabled":false,"rental_uris":{"android":"levelo://app?vid=e58d58e5-28b9-496d-b29a-72e845c652fd","ios":"levelo://app?vid=e58d58e5-28b9-496d-b29a-72e845c652fd"},"vehicle_type_id":"4","last_reported":1784221330,"current_range_meters":19600,"station_id":"ce4bh112rcd13ifvqda0","pricing_plan_id":"cebpf4jnsgd1na2vs0mg"},{"bike_id":"40133888-0505-4ab7-bf98-89cc8c9f1fbd","system_id":"levelo_inurba_marseille","lat":43.31281,"lon":5.38284,"is_reserved":false,"is_disabled":false,"rental_uris":{"android":"levelo://app?vid=40133888-0505-4ab7-bf98-89cc8c9f1fbd","ios":"levelo://app?vid=40133888-0505-4ab7-bf98-89cc8c9f1fbd"},"vehicle_type_id":"4","last_reported":1784221330,"current_range_meters":20000,"station_id":"","pricing_plan_id":"cebpf4jnsgd1na2vs0mg"},{"bike_id":"37f24aa5-1057-468b-97f5-57f784dbd975","system_id":"levelo_inurba_marseille","lat":43.28864,"lon":5.35855,"is_reserved":false,"is_disabled":false,"rental_uris":{"android":"levelo://app?vid=37f24aa5-1057-468b-97f5-57f784dbd975","ios":"levelo://app?vid=37f24aa5-1057-468b-97f5-57f784dbd975"},"vehicle_type_id":"4","last_reported":1784221330,"current_range_meters":30400,"station_id":"ce4bhb12rcd13ifvqem0","pricing_plan_id":"cebpf4jnsgd1na2vs0mg"},{"bike_id":"bd1bd0ab-1e2c-4e67-b8de-97d4001fe2b7","system_id":"levelo_inurba_marseille","lat":43.2984,"lon":5.36266,"is_reserved":false,"is_disabled":false,"rental_uris":{"android":"levelo://app?vid=bd1bd0ab-1e2c-4e67-b8de-97d4001fe2b7","ios":"levelo://app?vid=bd1bd0ab-1e2c-4e67-b8de-97d4001fe2b7"},"vehicle_type_id":"4","last_reported":1784221330,"current_range_meters":10800,"station_id":"ce4bgpp2rcd13ifvqc3g","pricing_plan_id":"cebpf4jnsgd1na2vs0mg"},{"bike_id":"4a7eaf6c-ea42-4513-9dcf-f7f08fab0fdb","system_id":"levelo_inurba_marseille","lat":43.31382,"lon":5.38167,"is_reserved":false,"is_disabled":false,"rental_uris":{"android":"levelo://app?vid=4a7eaf6c-ea42-4513-9dcf-f7f08fab0fdb","ios":"levelo://app?vid=4a7eaf6c-ea42-4513-9dcf-f7f08fab0fdb"},"vehicle_type_id":"4","last_reported":1784221330,"current_range_meters":22000,"station_id":"","pricing_plan_id":"cebpf4jnsgd1na2vs0mg"},{"bike_id":"34b4978e-492d-4d36-a2d7-7a18159a1fee","system_id":"levelo_inurba_marseille","lat":43.24671,"lon":5.38127,"is_reserved":false,"is_disabled":false,"rental_uris":{"android":"levelo://app?vid=34b4978e-492d-4d36-a2d7-7a18159a1fee","ios":"levelo://app?vid=34b4978e-492d-4d36-a2d7-7a18159a1fee"},"vehicle_type_id":"4","last_reported":1784221330,"current_range_meters":24400,"station_id":"ce4bhih2rcd13ifvqfr0","pricing_plan_id":"cebpf4jnsgd1na2vs0mg"},{"bike_id":"09ac8f31-df8a-4f2a-b2b4-5afa526f83ed","system_id":"levelo_inurba_marseille","lat":43.29275,"lon":5.36844,"is_reserved":false,"is_disabled":false,"rental_uris":{"android":"levelo://app?vid=09ac8f31-df8a-4f2a-b2b4-5afa526f83ed","ios":"levelo://app?vid=09ac8f31-df8a-4f2a-b2b4-5afa526f83ed"},"vehicle_type_id":"4","last_reported":1784221330,"current_range_meters":18800,"station_id":"","pricing_plan_id":"cebpf4jnsgd1na2vs0mg"},{"bike_id":"3c2ecfa1-37f6-4bb7-a0a1-89641ffd6e0d","system_id":"levelo_inurba_marseille","lat":43.26789,"lon":5.40278,"is_reserved":false,"is_disabled":false,"rental_uris":{"android":"levelo://app?vid=3c2ecfa1-37f6-4bb7-a0a1-89641ffd6e0d","ios":"levelo://app?vid=3c2ecfa1-37f6-4bb7-a0a1-89641ffd6e0d"},"vehicle_type_id":"4","last_reported":1784221330,"current_range_meters":38800,"station_id":"ce501612rcd8frsf0b60","pricing_plan_id":"cebpf4jnsgd1na2vs0mg"},{"bike_id":"52c4b0bc-8108-4730-adf9-868b5a00ea47","system_id":"levelo_inurba_marseille","lat":43.29008,"lon":5.35604,"is_reserved":false,"is_disabled":false,"rental_uris":{"android":"levelo://app?vid=52c4b0bc-8108-4730-adf9-868b5a00ea47","ios":"levelo://app?vid=52c4b0bc-8108-4730-adf9-868b5a00ea47"},"vehicle_type_id":"4","last_reported":1784221330,"current_range_meters":38000,"station_id":"ce4bhb92rcd13ifvqen0","pricing_plan_id":"cebpf4jnsgd1na2vs0mg"},{"bike_id":"d0dca651-580c-4704-be18-23cce9e78d40","system_id":"levelo_inurba_marseille","lat":43.23961,"lon":5.36626,"is_reserved":false,"is_disabled":false,"rental_uris":{"android":"levelo://app?vid=d0dca651-580c-4704-be18-23cce9e78d40","ios":"levelo://app?vid=d0dca651-580c-4704-be18-23cce9e78d40"},"vehicle_type_id":"4","last_reported":1784221330,"current_range_meters":12800,"station_id":"ce4bhi12rcd13ifvqfp0","pricing_plan_id":"cebpf4jnsgd1na2vs0mg"},{"bike_id":"81587832-75ed-49cd-91c3-f57f9b8cec45","system_id":"levelo_inurba_marseille","lat":43.29036,"lon":5.35903,"is_reserved":false,"is_disabled":true,"rental_uris":{"android":"levelo://app?vid=81587832-75ed-49cd-91c3-f57f9b8cec45","ios":"levelo://app?vid=81587832-75ed-49cd-91c3-f57f9b8cec45"},"vehicle_type_id":"4","last_reported":1784221330,"current_range_meters":14800,"station_id":"ce4bha92rcd13ifvqeg0","pricing_plan_id":"cebpf4jnsgd1na2vs0mg"},{"bike_id":"d4037206-0988-49a5-9589-9cf52ca0b5da","system_id":"levelo_inurba_marseille","lat":43.3033,"lon":5.40727,"is_reserved":false,"is_disabled":true,"rental_uris":{"android":"levelo://app?vid=d4037206-0988-49a5-9589-9cf52ca0b5da","ios":"levelo://app?vid=d4037206-0988-49a5-9589-9cf52ca0b5da"},"vehicle_type_id":"4","last_reported":1784221330,"current_range_meters":0,"station_id":"","pricing_plan_id":"cebpf4jnsgd1na2vs0mg"},{"bike_id":"fcca60be-8a78-4fc0-a420-1bdb72b34669","system_id":"levelo_inurba_marseille","lat":43.23961,"lon":5.36625,"is_reserved":false,"is_disabled":false,"rental_uris":{"android":"levelo://app?vid=fcca60be-8a78-4fc0-a420-1bdb72b34669","ios":"levelo://app?vid=fcca60be-8a78-4fc0-a420-1bdb72b34669"},"vehicle_type_id":"4","last_reported":1784221330,"current_range_meters":7200,"station_id":"ce4bhi12rcd13ifvqfp0","pricing_plan_id":"cebpf4jnsgd1na2vs0mg"},{"bike_id":"c90d0052-784d-4f47-a41c-ff318491aeda","system_id":"levelo_inurba_marseille","lat":43.23968,"lon":5.36628,"is_reserved":false,"is_disabled":false,"rental_uris":{"android":"levelo://app?vid=c90d0052-784d-4f47-a41c-ff318491aeda","ios":"levelo://app?vid=c90d0052-784d-4f47-a41c-ff318491aeda"},"vehicle_type_id":"4","last_reported":1784221330,"current_range_meters":25600,"station_id":"ce4bhi12rcd13ifvqfp0","pricing_plan_id":"cebpf4jnsgd1na2vs0mg"},{"bike_id":"d694a5bb-f9a4-4d5c-9d85-82dc4f5099d3","system_id":"levelo_inurba_marseille","lat":43.28419,"lon":5.34967,"is_reserved":false,"is_disabled":false,"rental_uris":{"android":"levelo://app?vid=d694a5bb-f9a4-4d5c-9d85-82dc4f5099d3","ios":"levelo://app?vid=d694a5bb-f9a4-4d5c-9d85-82dc4f5099d3"},"vehicle_type_id":"4","last_reported":1784221330,"current_range_meters":29600,"station_id":"ce4bhbh2rcd13ifvqepg","pricing_plan_id":"cebpf4jnsgd1na2vs0mg"},{"bike_id":"c6ac626d-aef6-478f-8af0-d0de9fa8be85","system_id":"levelo_inurba_marseille","lat":43.22712,"lon":5.34834,"is_reserved":false,"is_disabled":false,"rental_uris":{"android":"levelo://app?vid=c6ac626d-aef6-478f-8af0-d0de9fa8be85","ios":"levelo://app?vid=c6ac626d-aef6-478f-8af0-d0de9fa8be85"},"vehicle_type_id":"4","last_reported":1784221330,"current_range_meters":8400,"station_id":"","pricing_plan_id":"cebpf4jnsgd1na2vs0mg"},{"bike_id":"c9da7c47-759b-4f0e-a2b7-3e4fe38d40ca","system_id":"levelo_inurba_marseille","lat":43.26802,"lon":5.39394,"is_reserved":false,"is_disabled":false,"rental_uris":{"android":"levelo://app?vid=c9da7c47-759b-4f0e-a2b7-3e4fe38d40ca","ios":"levelo://app?vid=c9da7c47-759b-4f0e-a2b7-3e4fe38d40ca"},"vehicle_type_id":"4","last_reported":1784221330,"current_range_meters":35600,"station_id":"ce4bhh12rcd13ifvqfg0","pricing_plan_id":"cebpf4jnsgd1na2vs0mg"},{"bike_id":"e8976180-d139-402b-b8a5-104a73f8a7c2","system_id":"levelo_inurba_marseille","lat":43.29937,"lon":5.43066,"is_reserved":false,"is_disabled":false,"rental_uris":{"android":"levelo://app?vid=e8976180-d139-402b-b8a5-104a73f8a7c2","ios":"levelo://app?vid=e8976180-d139-402b-b8a5-104a73f8a7c2"},"vehicle_type_id":"4","last_reported":1784221330,"current_range_meters":16000,"station_id":"","pricing_plan_id":"cebpf4jnsgd1na2vs0mg"},{"bike_id":"a15d5031-d3d0-49e7-a12c-2558686c7bd0","system_id":"levelo_inurba_marseille","lat":43.30488,"lon":5.36685,"is_reserved":false,"is_disabled":false,"rental_uris":{"android":"levelo://app?vid=a15d5031-d3d0-49e7-a12c-2558686c7bd0","ios":"levelo://app?vid=a15d5031-d3d0-49e7-a12c-2558686c7bd0"},"vehicle_type_id":"4","last_reported":1784221330,"current_range_meters":4000,"station_id":"","pricing_plan_id":"cebpf4jnsgd1na2vs0mg"},{"bike_id":"0c964dab-40ec-49b5-8e4d-a4ff83f48bf2","system_id":"levelo_inurba_marseille","lat":43.27937,"lon":5.39095,"is_reserved":false,"is_disabled":false,"rental_uris":{"android":"levelo://app?vid=0c964dab-40ec-49b5-8e4d-a4ff83f48bf2","ios":"levelo://app?vid=0c964dab-40ec-49b5-8e4d-a4ff83f48bf2"},"vehicle_type_id":"4","last_reported":1784221330,"current_range_meters":28400,"station_id":"","pricing_plan_id":"cebpf4jnsgd1na2vs0mg"},{"bike_id":"c1690c5a-45f6-4c55-a9de-047ed94825fe","system_id":"levelo_inurba_marseille","lat":43.30035,"lon":5.38607,"is_reserved":false,"is_disabled":false,"rental_uris":{"android":"levelo://app?vid=c1690c5a-45f6-4c55-a9de-047ed94825fe","ios":"levelo://app?vid=c1690c5a-45f6-4c55-a9de-047ed94825fe"},"vehicle_type_id":"4","last_reported":1784221330,"current_range_meters":4400,"station_id":"","pricing_plan_id":"cebpf4jnsgd1na2vs0mg"},{"bike_id":"7ff8118f-6c81-4cdf-8a1d-4753d954065d","system_id":"levelo_inurba_marseille","lat":43.29613,"lon":5.37994,"is_reserved":false,"is_disabled":false,"rental_uris":{"android":"levelo://app?vid=7ff8118f-6c81-4cdf-8a1d-4753d954065d","ios":"levelo://app?vid=7ff8118f-6c81-4cdf-8a1d-4753d954065d"},"vehicle_type_id":"4","last_reported":1784221330,"current_range_meters":12800,"station_id":"","pricing_plan_id":"cebpf4jnsgd1na2vs0mg"},{"bike_id":"ffd7909b-352b-4a15-9075-1fcc30a66e89","system_id":"levelo_inurba_marseille","lat":43.26511,"lon":5.395303,"is_reserved":false,"is_disabled":false,"rental_uris":{"android":"levelo://app?vid=ffd7909b-352b-4a15-9075-1fcc30a66e89","ios":"levelo://app?vid=ffd7909b-352b-4a15-9075-1fcc30a66e89"},"vehicle_type_id":"4","last_reported":1784221330,"current_range_meters":20400,"station_id":"ce4bhi12rcd13ifvqfq0","pricing_plan_id":"cebpf4jnsgd1na2vs0mg"},{"bike_id":"463a2e3b-76c2-4feb-bdfe-c83991a79cfe","system_id":"levelo_inurba_marseille","lat":43.2624,"lon":5.37443,"is_reserved":false,"is_disabled":true,"rental_uris":{"android":"levelo://app?vid=463a2e3b-76c2-4feb-bdfe-c83991a79cfe","ios":"levelo://app?vid=463a2e3b-76c2-4feb-bdfe-c83991a79cfe"},"vehicle_type_id":"4","last_reported":1784221330,"current_range_meters":39200,"station_id":"","pricing_plan_id":"cebpf4jnsgd1na2vs0mg"},{"bike_id":"6f1cef43-a8d9-4b57-b4e2-6fd134b70ea5","system_id":"levelo_inurba_marseille","lat":43.30125,"lon":5.43121,"is_reserved":false,"is_disabled":false,"rental_uris":{"android":"levelo://app?vid=6f1cef43-a8d9-4b57-b4e2-6fd134b70ea5","ios":"levelo://app?vid=6f1cef43-a8d9-4b57-b4e2-6fd134b70ea5"},"vehicle_type_id":"4","last_reported":1784221330,"current_range_meters":36800,"station_id":"st_d3js3co5814s73ftftug","pricing_plan_id":"cebpf4jnsgd1na2vs0mg"},{"bike_id":"e4ec1182-9638-464e-8e60-c34432d8b038","system_id":"levelo_inurba_marseille","lat":43.26563,"lon":5.37289,"is_reserved":false,"is_disabled":false,"rental_uris":{"android":"levelo://app?vid=e4ec1182-9638-464e-8e60-c34432d8b038","ios":"levelo://app?vid=e4ec1182-9638-464e-8e60-c34432d8b038"},"vehicle_type_id":"4","last_reported":1784221330,"current_range_meters":26800,"station_id":"ce4bhg12rcd13ifvqf70","pricing_plan_id":"cebpf4jnsgd1na2vs0mg"},{"bike_id":"0c1d6d5f-23d6-439c-806b-8d360db3f8f9","system_id":"levelo_inurba_marseille","lat":43.31445,"lon":5.37282,"is_reserved":false,"is_disabled":false,"rental_uris":{"android":"levelo://app?vid=0c1d6d5f-23d6-439c-806b-8d360db3f8f9","ios":"levelo://app?vid=0c1d6d5f-23d6-439c-806b-8d360db3f8f9"},"vehicle_type_id":"4","last_reported":1784221330,"current_range_meters":40000,"station_id":"ce4bgt12rcd13ifvqcd0","pricing_plan_id":"cebpf4jnsgd1na2vs0mg"},{"bike_id":"6b7bc794-a8b6-4b15-bdfb-b2fb240ae758","system_id":"levelo_inurba_marseille","lat":43.28418,"lon":5.34975,"is_reserved":false,"is_disabled":true,"rental_uris":{"android":"levelo://app?vid=6b7bc794-a8b6-4b15-bdfb-b2fb240ae758","ios":"levelo://app?vid=6b7bc794-a8b6-4b15-bdfb-b2fb240ae758"},"vehicle_type_id":"4","last_reported":1784221330,"current_range_meters":40000,"station_id":"ce4bhbh2rcd13ifvqepg","pricing_plan_id":"cebpf4jnsgd1na2vs0mg"},{"bike_id":"ccb7aa3c-d66b-4147-9c3e-2e8014c4c176","system_id":"levelo_inurba_marseille","lat":43.28874,"lon":5.35867,"is_reserved":false,"is_disabled":false,"rental_uris":{"android":"levelo://app?vid=ccb7aa3c-d66b-4147-9c3e-2e8014c4c176","ios":"levelo://app?vid=ccb7aa3c-d66b-4147-9c3e-2e8014c4c176"},"vehicle_type_id":"4","last_reported":1784221330,"current_range_meters":12800,"station_id":"ce4bhb12rcd13ifvqem0","pricing_plan_id":"cebpf4jnsgd1na2vs0mg"},{"bike_id":"fad707ec-f0c2-4e96-b829-87ff47a5065e","system_id":"levelo_inurba_marseille","lat":43.30898,"lon":5.37206,"is_reserved":false,"is_disabled":false,"rental_uris":{"android":"levelo://app?vid=fad707ec-f0c2-4e96-b829-87ff47a5065e","ios":"levelo://app?vid=fad707ec-f0c2-4e96-b829-87ff47a5065e"},"vehicle_type_id":"4","last_reported":1784221330,"current_range_meters":7200,"station_id":"ce4bguh2rcd13ifvqckg","pricing_plan_id":"cebpf4jnsgd1na2vs0mg"},{"bike_id":"d6b0724d-3030-4e7b-8778-a4d582b3070a","system_id":"levelo_inurba_marseille","lat":43.28615,"lon":5.35095,"is_reserved":false,"is_disabled":true,"rental_uris":{"android":"levelo://app?vid=d6b0724d-3030-4e7b-8778-a4d582b3070a","ios":"levelo://app?vid=d6b0724d-3030-4e7b-8778-a4d582b3070a"},"vehicle_type_id":"4","last_reported":1784221330,"current_range_meters":27600,"station_id":"ce4bhch2rcd13ifvqeug","pricing_plan_id":"cebpf4jnsgd1na2vs0mg"},{"bike_id":"aa78b281-c6de-423c-9c65-5337d86828bd","system_id":"levelo_inurba_marseille","lat":43.2968,"lon":5.37291,"is_reserved":false,"is_disabled":false,"rental_uris":{"android":"levelo://app?vid=aa78b281-c6de-423c-9c65-5337d86828bd","ios":"levelo://app?vid=aa78b281-c6de-423c-9c65-5337d86828bd"},"vehicle_type_id":"4","last_reported":1784221330,"current_range_meters":32800,"station_id":"ce4bgk12rcd13ifvqbj0","pricing_plan_id":"cebpf4jnsgd1na2vs0mg"},{"bike_id":"e9e18bd5-1c95-4911-8191-34333d18ce4b","system_id":"levelo_inurba_marseille","lat":43.270562,"lon":5.402621,"is_reserved":false,"is_disabled":false,"rental_uris":{"android":"levelo://app?vid=e9e18bd5-1c95-4911-8191-34333d18ce4b","ios":"levelo://app?vid=e9e18bd5-1c95-4911-8191-34333d18ce4b"},"vehicle_type_id":"4","last_reported":1784221330,"current_range_meters":6000,"station_id":"ce4bhk92rcd13ifvqgc0","pricing_plan_id":"cebpf4jnsgd1na2vs0mg"},{"bike_id":"9cc6c239-725c-40a8-b609-f508ab603d31","system_id":"levelo_inurba_marseille","lat":43.28856,"lon":5.35855,"is_reserved":false,"is_disabled":false,"rental_uris":{"android":"levelo://app?vid=9cc6c239-725c-40a8-b609-f508ab603d31","ios":"levelo://app?vid=9cc6c239-725c-40a8-b609-f508ab603d31"},"vehicle_type_id":"4","last_reported":1784221330,"current_range_meters":40000,"station_id":"ce4bhb12rcd13ifvqem0","pricing_plan_id":"cebpf4jnsgd1na2vs0mg"},{"bike_id":"38107dee-6e8b-451b-bb1d-42dfe2be3ae2","system_id":"levelo_inurba_marseille","lat":43.29598,"lon":5.38112,"is_reserved":false,"is_disabled":false,"rental_uris":{"android":"levelo://app?vid=38107dee-6e8b-451b-bb1d-42dfe2be3ae2","ios":"levelo://app?vid=38107dee-6e8b-451b-bb1d-42dfe2be3ae2"},"vehicle_type_id":"4","last_reported":1784221330,"current_range_meters":26800,"station_id":"ce4bgl12rcd13ifvqbo0","pricing_plan_id":"cebpf4jnsgd1na2vs0mg"},{"bike_id":"fe4071ae-0f03-47f2-bd56-fdbcd29b3a0d","system_id":"levelo_inurba_marseille","lat":43.30799,"lon":5.38135,"is_reserved":false,"is_disabled":false,"rental_uris":{"android":"levelo://app?vid=fe4071ae-0f03-47f2-bd56-fdbcd29b3a0d","ios":"levelo://app?vid=fe4071ae-0f03-47f2-bd56-fdbcd29b3a0d"},"vehicle_type_id":"4","last_reported":1784221330,"current_range_meters":29600,"station_id":"ce4bgt12rcd13ifvqce0","pricing_plan_id":"cebpf4jnsgd1na2vs0mg"},{"bike_id":"17ef7521-be57-48c8-a115-ded8df7df309","system_id":"levelo_inurba_marseille","lat":43.26193,"lon":5.37458,"is_reserved":false,"is_disabled":true,"rental_uris":{"android":"levelo://app?vid=17ef7521-be57-48c8-a115-ded8df7df309","ios":"levelo://app?vid=17ef7521-be57-48c8-a115-ded8df7df309"},"vehicle_type_id":"4","last_reported":1784221330,"current_range_meters":39200,"station_id":"ce4bhgp2rcd13ifvqfc0","pricing_plan_id":"cebpf4jnsgd1na2vs0mg"},{"bike_id":"1e628dec-3141-48e0-b510-1c285ab03f4c","system_id":"levelo_inurba_marseille","lat":43.26406,"lon":5.41042,"is_reserved":false,"is_disabled":true,"rental_uris":{"android":"levelo://app?vid=1e628dec-3141-48e0-b510-1c285ab03f4c","ios":"levelo://app?vid=1e628dec-3141-48e0-b510-1c285ab03f4c"},"vehicle_type_id":"4","last_reported":1784221330,"current_range_meters":3200,"station_id":"st_d4e5ca6na9uc73bfl5fg","pricing_plan_id":"cebpf4jnsgd1na2vs0mg"},{"bike_id":"8337f5b4-2806-4bc0-9f71-af183adb5db8","system_id":"levelo_inurba_marseille","lat":43.231359,"lon":5.437577,"is_reserved":false,"is_disabled":false,"rental_uris":{"android":"levelo://app?vid=8337f5b4-2806-4bc0-9f71-af183adb5db8","ios":"levelo://app?vid=8337f5b4-2806-4bc0-9f71-af183adb5db8"},"vehicle_type_id":"4","last_reported":1784221330,"current_range_meters":3200,"station_id":"","pricing_plan_id":"cebpf4jnsgd1na2vs0mg"},{"bike_id":"0e80f4be-aa62-4d4f-a88f-c49843efcd83","system_id":"levelo_inurba_marseille","lat":43.25102,"lon":5.41361,"is_reserved":false,"is_disabled":true,"rental_uris":{"android":"levelo://app?vid=0e80f4be-aa62-4d4f-a88f-c49843efcd83","ios":"levelo://app?vid=0e80f4be-aa62-4d4f-a88f-c49843efcd83"},"vehicle_type_id":"4","last_reported":1784221330,"current_range_meters":10800,"station_id":"","pricing_plan_id":"cebpf4jnsgd1na2vs0mg"},{"bike_id":"bc9b0399-d7c7-47b5-bd44-775b8a0f9572","system_id":"levelo_inurba_marseille","lat":43.29194,"lon":5.39331,"is_reserved":false,"is_disabled":false,"rental_uris":{"android":"levelo://app?vid=bc9b0399-d7c7-47b5-bd44-775b8a0f9572","ios":"levelo://app?vid=bc9b0399-d7c7-47b5-bd44-775b8a0f9572"},"vehicle_type_id":"4","last_reported":1784221330,"current_range_meters":28400,"station_id":"ce4bh192rcd13ifvqdd0","pricing_plan_id":"cebpf4jnsgd1na2vs0mg"},{"bike_id":"9816fcfb-fed5-46a5-a828-dec154df7717","system_id":"levelo_inurba_marseille","lat":43.26804,"lon":5.40262,"is_reserved":false,"is_disabled":true,"rental_uris":{"android":"levelo://app?vid=9816fcfb-fed5-46a5-a828-dec154df7717","ios":"levelo://app?vid=9816fcfb-fed5-46a5-a828-dec154df7717"},"vehicle_type_id":"4","last_reported":1784221330,"current_range_meters":30000,"station_id":"ce501612rcd8frsf0b60","pricing_plan_id":"cebpf4jnsgd1na2vs0mg"},{"bike_id":"a8bbd6ea-c325-46d4-b31c-48adac51ab32","system_id":"levelo_inurba_marseille","lat":43.311204,"lon":5.37774,"is_reserved":false,"is_disabled":false,"rental_uris":{"android":"levelo://app?vid=a8bbd6ea-c325-46d4-b31c-48adac51ab32","ios":"levelo://app?vid=a8bbd6ea-c325-46d4-b31c-48adac51ab32"},"vehicle_type_id":"4","last_reported":1784221330,"current_range_meters":6000,"station_id":"ce4bgt92rcd13ifvqcg0","pricing_plan_id":"cebpf4jnsgd1na2vs0mg"},{"bike_id":"9a3d08c5-4dc6-4580-89ff-786fba150be9","system_id":"levelo_inurba_marseille","lat":43.292,"lon":5.35803,"is_reserved":false,"is_disabled":false,"rental_uris":{"android":"levelo://app?vid=9a3d08c5-4dc6-4580-89ff-786fba150be9","ios":"levelo://app?vid=9a3d08c5-4dc6-4580-89ff-786fba150be9"},"vehicle_type_id":"4","last_reported":1784221330,"current_range_meters":36400,"station_id":"ce4bhb12rcd13ifvqel0","pricing_plan_id":"cebpf4jnsgd1na2vs0mg"},{"bike_id":"1482fdfa-2540-41f7-9a34-6b8e86807598","system_id":"levelo_inurba_marseille","lat":43.27371,"lon":5.36255,"is_reserved":false,"is_disabled":false,"rental_uris":{"android":"levelo://app?vid=1482fdfa-2540-41f7-9a34-6b8e86807598","ios":"levelo://app?vid=1482fdfa-2540-41f7-9a34-6b8e86807598"},"vehicle_type_id":"4","last_reported":1784221330,"current_range_meters":22400,"station_id":"ce4bhbh2rcd13ifvqeo0","pricing_plan_id":"cebpf4jnsgd1na2vs0mg"},{"bike_id":"68db2b70-f50d-43a3-8171-99c4f159ea09","system_id":"levelo_inurba_marseille","lat":43.24825,"lon":5.37438,"is_reserved":false,"is_disabled":false,"rental_uris":{"android":"levelo://app?vid=68db2b70-f50d-43a3-8171-99c4f159ea09","ios":"levelo://app?vid=68db2b70-f50d-43a3-8171-99c4f159ea09"},"vehicle_type_id":"4","last_reported":1784221330,"current_range_meters":9600,"station_id":"ce4bhgh2rcd13ifvqfb0","pricing_plan_id":"cebpf4jnsgd1na2vs0mg"},{"bike_id":"bd529bea-55e2-462e-96f2-84ef02ccf732","system_id":"levelo_inurba_marseille","lat":43.31379,"lon":5.3851,"is_reserved":false,"is_disabled":false,"rental_uris":{"android":"levelo://app?vid=bd529bea-55e2-462e-96f2-84ef02ccf732","ios":"levelo://app?vid=bd529bea-55e2-462e-96f2-84ef02ccf732"},"vehicle_type_id":"4","last_reported":1784221330,"current_range_meters":25600,"station_id":"ce4bgt92rcd13ifvqcf0","pricing_plan_id":"cebpf4jnsgd1na2vs0mg"},{"bike_id":"d5c9c027-ce9b-46f0-b4eb-fc40b239d150","system_id":"levelo_inurba_marseille","lat":43.31305,"lon":5.40102,"is_reserved":false,"is_disabled":true,"rental_uris":{"android":"levelo://app?vid=d5c9c027-ce9b-46f0-b4eb-fc40b239d150","ios":"levelo://app?vid=d5c9c027-ce9b-46f0-b4eb-fc40b239d150"},"vehicle_type_id":"4","last_reported":1784221330,"current_range_meters":400,"station_id":"","pricing_plan_id":"cebpf4jnsgd1na2vs0mg"},{"bike_id":"de836a4f-3506-45ef-b6ab-2a2745f881ed","system_id":"levelo_inurba_marseille","lat":43.29533,"lon":5.38399,"is_reserved":false,"is_disabled":false,"rental_uris":{"android":"levelo://app?vid=de836a4f-3506-45ef-b6ab-2a2745f881ed","ios":"levelo://app?vid=de836a4f-3506-45ef-b6ab-2a2745f881ed"},"vehicle_type_id":"4","last_reported":1784221330,"current_range_meters":18800,"station_id":"","pricing_plan_id":"cebpf4jnsgd1na2vs0mg"},{"bike_id":"54dd7e7b-9437-4b58-bc97-2a8150d73cf8","system_id":"levelo_inurba_marseille","lat":43.28617,"lon":5.35106,"is_reserved":false,"is_disabled":false,"rental_uris":{"android":"levelo://app?vid=54dd7e7b-9437-4b58-bc97-2a8150d73cf8","ios":"levelo://app?vid=54dd7e7b-9437-4b58-bc97-2a8150d73cf8"},"vehicle_type_id":"4","last_reported":1784221330,"current_range_meters":37600,"station_id":"ce4bhch2rcd13ifvqeug","pricing_plan_id":"cebpf4jnsgd1na2vs0mg"},{"bike_id":"942148f9-90f2-4171-8f05-98ba0ca85bcb","system_id":"levelo_inurba_marseille","lat":43.28479,"lon":5.48403,"is_reserved":false,"is_disabled":false,"rental_uris":{"android":"levelo://app?vid=942148f9-90f2-4171-8f05-98ba0ca85bcb","ios":"levelo://app?vid=942148f9-90f2-4171-8f05-98ba0ca85bcb"},"vehicle_type_id":"4","last_reported":1784221330,"current_range_meters":12000,"station_id":"st_d3svhcjqgbts73a3dn0g","pricing_plan_id":"cebpf4jnsgd1na2vs0mg"},{"bike_id":"48085ef1-b104-41ff-b1a8-de34e84648fa","system_id":"levelo_inurba_marseille","lat":43.25008,"lon":5.38927,"is_reserved":false,"is_disabled":false,"rental_uris":{"android":"levelo://app?vid=48085ef1-b104-41ff-b1a8-de34e84648fa","ios":"levelo://app?vid=48085ef1-b104-41ff-b1a8-de34e84648fa"},"vehicle_type_id":"4","last_reported":1784221330,"current_range_meters":9200,"station_id":"ce4bhgp2rcd13ifvqfd0","pricing_plan_id":"cebpf4jnsgd1na2vs0mg"},{"bike_id":"b2b194ed-86a5-4dc8-b828-5b80e1681197","system_id":"levelo_inurba_marseille","lat":43.28544,"lon":5.4408,"is_reserved":false,"is_disabled":false,"rental_uris":{"android":"levelo://app?vid=b2b194ed-86a5-4dc8-b828-5b80e1681197","ios":"levelo://app?vid=b2b194ed-86a5-4dc8-b828-5b80e1681197"},"vehicle_type_id":"4","last_reported":1784221330,"current_range_meters":37600,"station_id":"st_d3j3df2ikq2c7380ej80","pricing_plan_id":"cebpf4jnsgd1na2vs0mg"},{"bike_id":"7487a472-344e-4da9-b3e7-4081e8d75d5e","system_id":"levelo_inurba_marseille","lat":43.28266,"lon":5.35056,"is_reserved":false,"is_disabled":false,"rental_uris":{"android":"levelo://app?vid=7487a472-344e-4da9-b3e7-4081e8d75d5e","ios":"levelo://app?vid=7487a472-344e-4da9-b3e7-4081e8d75d5e"},"vehicle_type_id":"4","last_reported":1784221330,"current_range_meters":18000,"station_id":"ce4bhbp2rcd13ifvqerg","pricing_plan_id":"cebpf4jnsgd1na2vs0mg"},{"bike_id":"2a93def1-9840-4751-b465-b53bb0ce6123","system_id":"levelo_inurba_marseille","lat":43.22571,"lon":5.4165,"is_reserved":false,"is_disabled":false,"rental_uris":{"android":"levelo://app?vid=2a93def1-9840-4751-b465-b53bb0ce6123","ios":"levelo://app?vid=2a93def1-9840-4751-b465-b53bb0ce6123"},"vehicle_type_id":"4","last_reported":1784221330,"current_range_meters":20000,"station_id":"st_d2o4gvlbi1j2169b742g","pricing_plan_id":"cebpf4jnsgd1na2vs0mg"},{"bike_id":"10592882-7bed-4bde-a924-b4cdb04c175f","system_id":"levelo_inurba_marseille","lat":43.28153,"lon":5.42647,"is_reserved":false,"is_disabled":false,"rental_uris":{"android":"levelo://app?vid=10592882-7bed-4bde-a924-b4cdb04c175f","ios":"levelo://app?vid=10592882-7bed-4bde-a924-b4cdb04c175f"},"vehicle_type_id":"4","last_reported":1784221330,"current_range_meters":38000,"station_id":"ce4bhnh2rcd13ifvqgug","pricing_plan_id":"cebpf4jnsgd1na2vs0mg"},{"bike_id":"b617c35b-7c51-4687-9948-30e5ef21086e","system_id":"levelo_inurba_marseille","lat":43.28698,"lon":5.46679,"is_reserved":false,"is_disabled":false,"rental_uris":{"android":"levelo://app?vid=b617c35b-7c51-4687-9948-30e5ef21086e","ios":"levelo://app?vid=b617c35b-7c51-4687-9948-30e5ef21086e"},"vehicle_type_id":"4","last_reported":1784221330,"current_range_meters":18000,"station_id":"st_d6tc3vkotcvc738tfjhg","pricing_plan_id":"cebpf4jnsgd1na2vs0mg"},{"bike_id":"2885bb0d-e072-4603-b785-77374445a11c","system_id":"levelo_inurba_marseille","lat":43.2763,"lon":5.36083,"is_reserved":false,"is_disabled":false,"rental_uris":{"android":"levelo://app?vid=2885bb0d-e072-4603-b785-77374445a11c","ios":"levelo://app?vid=2885bb0d-e072-4603-b785-77374445a11c"},"vehicle_type_id":"4","last_reported":1784221330,"current_range_meters":34800,"station_id":"ce4bgj92rcd13ifvqbe0","pricing_plan_id":"cebpf4jnsgd1na2vs0mg"},{"bike_id":"59e52e7b-636e-4cc2-9343-220b12163242","system_id":"levelo_inurba_marseille","lat":43.28848,"lon":5.35842,"is_reserved":false,"is_disabled":false,"rental_uris":{"android":"levelo://app?vid=59e52e7b-636e-4cc2-9343-220b12163242","ios":"levelo://app?vid=59e52e7b-636e-4cc2-9343-220b12163242"},"vehicle_type_id":"4","last_reported":1784221330,"current_range_meters":39200,"station_id":"ce4bhb12rcd13ifvqem0","pricing_plan_id":"cebpf4jnsgd1na2vs0mg"},{"bike_id":"abd28b51-9db3-4251-8023-1ab1c1cc68c9","system_id":"levelo_inurba_marseille","lat":43.27988,"lon":5.41665,"is_reserved":false,"is_disabled":true,"rental_uris":{"android":"levelo://app?vid=abd28b51-9db3-4251-8023-1ab1c1cc68c9","ios":"levelo://app?vid=abd28b51-9db3-4251-8023-1ab1c1cc68c9"},"vehicle_type_id":"4","last_reported":1784221330,"current_range_meters":26800,"station_id":"ce4bho12rcd13ifvqh1g","pricing_plan_id":"cebpf4jnsgd1na2vs0mg"},{"bike_id":"6d32b765-aa0d-46a8-942b-fd272d4b06e6","system_id":"levelo_inurba_marseille","lat":43.27615,"lon":5.36101,"is_reserved":false,"is_disabled":true,"rental_uris":{"android":"levelo://app?vid=6d32b765-aa0d-46a8-942b-fd272d4b06e6","ios":"levelo://app?vid=6d32b765-aa0d-46a8-942b-fd272d4b06e6"},"vehicle_type_id":"4","last_reported":1784221330,"current_range_meters":10800,"station_id":"ce4bgj92rcd13ifvqbe0","pricing_plan_id":"cebpf4jnsgd1na2vs0mg"},{"bike_id":"8460e1a3-c9be-48d4-b6fd-ec9f3b04909a","system_id":"levelo_inurba_marseille","lat":43.21751,"lon":5.3461,"is_reserved":false,"is_disabled":false,"rental_uris":{"android":"levelo://app?vid=8460e1a3-c9be-48d4-b6fd-ec9f3b04909a","ios":"levelo://app?vid=8460e1a3-c9be-48d4-b6fd-ec9f3b04909a"},"vehicle_type_id":"4","last_reported":1784221330,"current_range_meters":21600,"station_id":"st_cvj6r9ubvosntc0bgbag","pricing_plan_id":"cebpf4jnsgd1na2vs0mg"},{"bike_id":"4068c42e-1a7e-41bc-9d85-66606838b79d","system_id":"levelo_inurba_marseille","lat":43.2533,"lon":5.42145,"is_reserved":false,"is_disabled":false,"rental_uris":{"android":"levelo://app?vid=4068c42e-1a7e-41bc-9d85-66606838b79d","ios":"levelo://app?vid=4068c42e-1a7e-41bc-9d85-66606838b79d"},"vehicle_type_id":"4","last_reported":1784221330,"current_range_meters":39200,"station_id":"st_d2m65c5bi1j21697t3ng","pricing_plan_id":"cebpf4jnsgd1na2vs0mg"},{"bike_id":"57889d2e-37dd-4f8f-b3ab-1bc0a62b2215","system_id":"levelo_inurba_marseille","lat":43.3047,"lon":5.37893,"is_reserved":false,"is_disabled":true,"rental_uris":{"android":"levelo://app?vid=57889d2e-37dd-4f8f-b3ab-1bc0a62b2215","ios":"levelo://app?vid=57889d2e-37dd-4f8f-b3ab-1bc0a62b2215"},"vehicle_type_id":"4","last_reported":1784221330,"current_range_meters":28400,"station_id":"ce4bgup2rcd13ifvqcn0","pricing_plan_id":"cebpf4jnsgd1na2vs0mg"},{"bike_id":"8946fedd-2e32-49ed-b51d-8d2209da3742","system_id":"levelo_inurba_marseille","lat":43.29429,"lon":5.38111,"is_reserved":false,"is_disabled":false,"rental_uris":{"android":"levelo://app?vid=8946fedd-2e32-49ed-b51d-8d2209da3742","ios":"levelo://app?vid=8946fedd-2e32-49ed-b51d-8d2209da3742"},"vehicle_type_id":"4","last_reported":1784221330,"current_range_meters":10000,"station_id":"","pricing_plan_id":"cebpf4jnsgd1na2vs0mg"},{"bike_id":"51905566-557d-413c-97fd-b84daf11e827","system_id":"levelo_inurba_marseille","lat":43.27922,"lon":5.39572,"is_reserved":false,"is_disabled":true,"rental_uris":{"android":"levelo://app?vid=51905566-557d-413c-97fd-b84daf11e827","ios":"levelo://app?vid=51905566-557d-413c-97fd-b84daf11e827"},"vehicle_type_id":"4","last_reported":1784221330,"current_range_meters":32000,"station_id":"ce4bhf92rcd13ifvqf40","pricing_plan_id":"cebpf4jnsgd1na2vs0mg"},{"bike_id":"cbd89872-d1a8-46fc-a9d9-10e0fbde500c","system_id":"levelo_inurba_marseille","lat":43.24444,"lon":5.36972,"is_reserved":false,"is_disabled":false,"rental_uris":{"android":"levelo://app?vid=cbd89872-d1a8-46fc-a9d9-10e0fbde500c","ios":"levelo://app?vid=cbd89872-d1a8-46fc-a9d9-10e0fbde500c"},"vehicle_type_id":"4","last_reported":1784221330,"current_range_meters":3200,"station_id":"","pricing_plan_id":"cebpf4jnsgd1na2vs0mg"},{"bike_id":"78fc59fb-c6ed-48a0-91c9-1cc4ba63e880","system_id":"levelo_inurba_marseille","lat":43.28066,"lon":5.35099,"is_reserved":false,"is_disabled":false,"rental_uris":{"android":"levelo://app?vid=78fc59fb-c6ed-48a0-91c9-1cc4ba63e880","ios":"levelo://app?vid=78fc59fb-c6ed-48a0-91c9-1cc4ba63e880"},"vehicle_type_id":"4","last_reported":1784221330,"current_range_meters":22000,"station_id":"","pricing_plan_id":"cebpf4jnsgd1na2vs0mg"},{"bike_id":"aea11bbc-2d6f-4be0-b121-dbc2d33dd165","system_id":"levelo_inurba_marseille","lat":43.32051,"lon":5.41554,"is_reserved":false,"is_disabled":false,"rental_uris":{"android":"levelo://app?vid=aea11bbc-2d6f-4be0-b121-dbc2d33dd165","ios":"levelo://app?vid=aea11bbc-2d6f-4be0-b121-dbc2d33dd165"},"vehicle_type_id":"4","last_reported":1784221330,"current_range_meters":39200,"station_id":"ce4bhq92rcd13ifvqhkg","pricing_plan_id":"cebpf4jnsgd1na2vs0mg"},{"bike_id":"9fd741e5-a70f-45c0-ab01-2011adc48150","system_id":"levelo_inurba_marseille","lat":43.29521,"lon":5.39377,"is_reserved":false,"is_disabled":false,"rental_uris":{"android":"levelo://app?vid=9fd741e5-a70f-45c0-ab01-2011adc48150","ios":"levelo://app?vid=9fd741e5-a70f-45c0-ab01-2011adc48150"},"vehicle_type_id":"4","last_reported":1784221330,"current_range_meters":30400,"station_id":"ce4bh292rcd13ifvqdf0","pricing_plan_id":"cebpf4jnsgd1na2vs0mg"},{"bike_id":"4c6ecbea-a926-4293-8ede-b01e0502d0a0","system_id":"levelo_inurba_marseille","lat":43.28465,"lon":5.35865,"is_reserved":false,"is_disabled":false,"rental_uris":{"android":"levelo://app?vid=4c6ecbea-a926-4293-8ede-b01e0502d0a0","ios":"levelo://app?vid=4c6ecbea-a926-4293-8ede-b01e0502d0a0"},"vehicle_type_id":"4","last_reported":1784221330,"current_range_meters":14800,"station_id":"ce4bhah2rcd13ifvqei0","pricing_plan_id":"cebpf4jnsgd1na2vs0mg"},{"bike_id":"96825e0c-14e6-44a1-9638-22706c4a0540","system_id":"levelo_inurba_marseille","lat":43.27212,"lon":5.3918,"is_reserved":false,"is_disabled":true,"rental_uris":{"android":"levelo://app?vid=96825e0c-14e6-44a1-9638-22706c4a0540","ios":"levelo://app?vid=96825e0c-14e6-44a1-9638-22706c4a0540"},"vehicle_type_id":"4","last_reported":1784221330,"current_range_meters":8800,"station_id":"ce4bhhp2rcd13ifvqfm0","pricing_plan_id":"cebpf4jnsgd1na2vs0mg"},{"bike_id":"ca2ad54f-e607-4c8c-8dbd-e8b4000c81b4","system_id":"levelo_inurba_marseille","lat":43.303031,"lon":5.392115,"is_reserved":false,"is_disabled":false,"rental_uris":{"android":"levelo://app?vid=ca2ad54f-e607-4c8c-8dbd-e8b4000c81b4","ios":"levelo://app?vid=ca2ad54f-e607-4c8c-8dbd-e8b4000c81b4"},"vehicle_type_id":"4","last_reported":1784221330,"current_range_meters":17200,"station_id":"ce4bgkh2rcd13ifvqbk0","pricing_plan_id":"cebpf4jnsgd1na2vs0mg"},{"bike_id":"13c67d10-4be5-40a6-a763-47bbc79ea4b7","system_id":"levelo_inurba_marseille","lat":43.258259,"lon":5.394385,"is_reserved":false,"is_disabled":false,"rental_uris":{"android":"levelo://app?vid=13c67d10-4be5-40a6-a763-47bbc79ea4b7","ios":"levelo://app?vid=13c67d10-4be5-40a6-a763-47bbc79ea4b7"},"vehicle_type_id":"4","last_reported":1784221330,"current_range_meters":38000,"station_id":"ce4bhip2rcd13ifvqft0","pricing_plan_id":"cebpf4jnsgd1na2vs0mg"},{"bike_id":"172bc998-698c-49b0-a877-c63dee205523","system_id":"levelo_inurba_marseille","lat":43.31233,"lon":5.36823,"is_reserved":false,"is_disabled":false,"rental_uris":{"android":"levelo://app?vid=172bc998-698c-49b0-a877-c63dee205523","ios":"levelo://app?vid=172bc998-698c-49b0-a877-c63dee205523"},"vehicle_type_id":"4","last_reported":1784221330,"current_range_meters":33200,"station_id":"ce4bgl92rcd13ifvqbq0","pricing_plan_id":"cebpf4jnsgd1na2vs0mg"},{"bike_id":"3f80a8c3-c45c-4015-b585-1c7b9653acba","system_id":"levelo_inurba_marseille","lat":43.28409,"lon":5.34976,"is_reserved":false,"is_disabled":false,"rental_uris":{"android":"levelo://app?vid=3f80a8c3-c45c-4015-b585-1c7b9653acba","ios":"levelo://app?vid=3f80a8c3-c45c-4015-b585-1c7b9653acba"},"vehicle_type_id":"4","last_reported":1784221330,"current_range_meters":38000,"station_id":"ce4bhbh2rcd13ifvqepg","pricing_plan_id":"cebpf4jnsgd1na2vs0mg"},{"bike_id":"3897b37b-5ebf-4f3a-8458-0d1f0b06c771","system_id":"levelo_inurba_marseille","lat":43.30539,"lon":5.36673,"is_reserved":false,"is_disabled":false,"rental_uris":{"android":"levelo://app?vid=3897b37b-5ebf-4f3a-8458-0d1f0b06c771","ios":"levelo://app?vid=3897b37b-5ebf-4f3a-8458-0d1f0b06c771"},"vehicle_type_id":"4","last_reported":1784221330,"current_range_meters":37600,"station_id":"ce4bgrp2rcd13ifvqc9g","pricing_plan_id":"cebpf4jnsgd1na2vs0mg"},{"bike_id":"cbf57bb6-373a-442c-9860-92cf9215a1bb","system_id":"levelo_inurba_marseille","lat":43.30547,"lon":5.36518,"is_reserved":false,"is_disabled":true,"rental_uris":{"android":"levelo://app?vid=cbf57bb6-373a-442c-9860-92cf9215a1bb","ios":"levelo://app?vid=cbf57bb6-373a-442c-9860-92cf9215a1bb"},"vehicle_type_id":"4","last_reported":1784221330,"current_range_meters":30400,"station_id":"ce4bgs12rcd13ifvqcag","pricing_plan_id":"cebpf4jnsgd1na2vs0mg"},{"bike_id":"fad4d476-b565-4b81-9166-a20796df0b18","system_id":"levelo_inurba_marseille","lat":43.24798,"lon":5.37448,"is_reserved":false,"is_disabled":false,"rental_uris":{"android":"levelo://app?vid=fad4d476-b565-4b81-9166-a20796df0b18","ios":"levelo://app?vid=fad4d476-b565-4b81-9166-a20796df0b18"},"vehicle_type_id":"4","last_reported":1784221330,"current_range_meters":23200,"station_id":"","pricing_plan_id":"cebpf4jnsgd1na2vs0mg"},{"bike_id":"e8b2132e-2e2f-4678-bd27-ce3f9f11f158","system_id":"levelo_inurba_marseille","lat":43.30465,"lon":5.37892,"is_reserved":false,"is_disabled":true,"rental_uris":{"android":"levelo://app?vid=e8b2132e-2e2f-4678-bd27-ce3f9f11f158","ios":"levelo://app?vid=e8b2132e-2e2f-4678-bd27-ce3f9f11f158"},"vehicle_type_id":"4","last_reported":1784221330,"current_range_meters":24000,"station_id":"ce4bgup2rcd13ifvqcn0","pricing_plan_id":"cebpf4jnsgd1na2vs0mg"},{"bike_id":"f703f719-7619-4f15-b936-2160120bc7da","system_id":"levelo_inurba_marseille","lat":43.26798,"lon":5.39411,"is_reserved":false,"is_disabled":false,"rental_uris":{"android":"levelo://app?vid=f703f719-7619-4f15-b936-2160120bc7da","ios":"levelo://app?vid=f703f719-7619-4f15-b936-2160120bc7da"},"vehicle_type_id":"4","last_reported":1784221330,"current_range_meters":38000,"station_id":"ce4bhh12rcd13ifvqfg0","pricing_plan_id":"cebpf4jnsgd1na2vs0mg"},{"bike_id":"93f173f0-b5e7-453c-b62d-5cea08429256","system_id":"levelo_inurba_marseille","lat":43.29193,"lon":5.35827,"is_reserved":false,"is_disabled":true,"rental_uris":{"android":"levelo://app?vid=93f173f0-b5e7-453c-b62d-5cea08429256","ios":"levelo://app?vid=93f173f0-b5e7-453c-b62d-5cea08429256"},"vehicle_type_id":"4","last_reported":1784221330,"current_range_meters":31200,"station_id":"ce4bhb12rcd13ifvqel0","pricing_plan_id":"cebpf4jnsgd1na2vs0mg"},{"bike_id":"4f54c651-15d1-492f-8d09-70f1f809ad4f","system_id":"levelo_inurba_marseille","lat":43.27492,"lon":5.42527,"is_reserved":false,"is_disabled":false,"rental_uris":{"android":"levelo://app?vid=4f54c651-15d1-492f-8d09-70f1f809ad4f","ios":"levelo://app?vid=4f54c651-15d1-492f-8d09-70f1f809ad4f"},"vehicle_type_id":"4","last_reported":1784221330,"current_range_meters":30800,"station_id":"st_d8t4bh7nbrqs73arha60","pricing_plan_id":"cebpf4jnsgd1na2vs0mg"},{"bike_id":"c0c12634-da58-4425-89c7-83dd3f1069a6","system_id":"levelo_inurba_marseille","lat":43.32099,"lon":5.36779,"is_reserved":false,"is_disabled":false,"rental_uris":{"android":"levelo://app?vid=c0c12634-da58-4425-89c7-83dd3f1069a6","ios":"levelo://app?vid=c0c12634-da58-4425-89c7-83dd3f1069a6"},"vehicle_type_id":"4","last_reported":1784221330,"current_range_meters":4000,"station_id":"ce4bhrh2rcd13ifvqhug","pricing_plan_id":"cebpf4jnsgd1na2vs0mg"},{"bike_id":"9485be1f-c90e-4919-888f-8ea173824e12","system_id":"levelo_inurba_marseille","lat":43.22538,"lon":5.3482,"is_reserved":false,"is_disabled":false,"rental_uris":{"android":"levelo://app?vid=9485be1f-c90e-4919-888f-8ea173824e12","ios":"levelo://app?vid=9485be1f-c90e-4919-888f-8ea173824e12"},"vehicle_type_id":"4","last_reported":1784221330,"current_range_meters":26800,"station_id":"st_cvj5dfep6f1abm77gieg","pricing_plan_id":"cebpf4jnsgd1na2vs0mg"},{"bike_id":"0cc9064c-9e67-4dd7-b11e-84260d626c23","system_id":"levelo_inurba_marseille","lat":43.29908,"lon":5.38091,"is_reserved":false,"is_disabled":true,"rental_uris":{"android":"levelo://app?vid=0cc9064c-9e67-4dd7-b11e-84260d626c23","ios":"levelo://app?vid=0cc9064c-9e67-4dd7-b11e-84260d626c23"},"vehicle_type_id":"4","last_reported":1784221330,"current_range_meters":39200,"station_id":"ce4bgj12rcd13ifvqbc0","pricing_plan_id":"cebpf4jnsgd1na2vs0mg"},{"bike_id":"8d312a64-21aa-4ce7-820c-1689e0c733fe","system_id":"levelo_inurba_marseille","lat":43.2858,"lon":5.39498,"is_reserved":false,"is_disabled":false,"rental_uris":{"android":"levelo://app?vid=8d312a64-21aa-4ce7-820c-1689e0c733fe","ios":"levelo://app?vid=8d312a64-21aa-4ce7-820c-1689e0c733fe"},"vehicle_type_id":"4","last_reported":1784221330,"current_range_meters":27200,"station_id":"ce4bh292rcd13ifvqdg0","pricing_plan_id":"cebpf4jnsgd1na2vs0mg"},{"bike_id":"bc8578b5-7331-40ea-a562-73436ed7ad1f","system_id":"levelo_inurba_marseille","lat":43.309085,"lon":5.368496,"is_reserved":false,"is_disabled":false,"rental_uris":{"android":"levelo://app?vid=bc8578b5-7331-40ea-a562-73436ed7ad1f","ios":"levelo://app?vid=bc8578b5-7331-40ea-a562-73436ed7ad1f"},"vehicle_type_id":"4","last_reported":1784221330,"current_range_meters":8400,"station_id":"ce4bgn92rcd13ifvqbvg","pricing_plan_id":"cebpf4jnsgd1na2vs0mg"},{"bike_id":"6ab806e5-1482-44b8-97b4-a9e54df097e1","system_id":"levelo_inurba_marseille","lat":43.29864,"lon":5.36283,"is_reserved":false,"is_disabled":true,"rental_uris":{"android":"levelo://app?vid=6ab806e5-1482-44b8-97b4-a9e54df097e1","ios":"levelo://app?vid=6ab806e5-1482-44b8-97b4-a9e54df097e1"},"vehicle_type_id":"4","last_reported":1784221330,"current_range_meters":0,"station_id":"ce4bgpp2rcd13ifvqc3g","pricing_plan_id":"cebpf4jnsgd1na2vs0mg"},{"bike_id":"819f0339-4695-4add-8828-1b8714adb586","system_id":"levelo_inurba_marseille","lat":43.2306,"lon":5.35483,"is_reserved":false,"is_disabled":false,"rental_uris":{"android":"levelo://app?vid=819f0339-4695-4add-8828-1b8714adb586","ios":"levelo://app?vid=819f0339-4695-4add-8828-1b8714adb586"},"vehicle_type_id":"4","last_reported":1784221330,"current_range_meters":38400,"station_id":"cpo3342slgdg3j2ifvpg","pricing_plan_id":"cebpf4jnsgd1na2vs0mg"},{"bike_id":"c67f4cf5-6a14-4c65-875c-06a1ffac99b6","system_id":"levelo_inurba_marseille","lat":43.26223,"lon":5.37456,"is_reserved":false,"is_disabled":false,"rental_uris":{"android":"levelo://app?vid=c67f4cf5-6a14-4c65-875c-06a1ffac99b6","ios":"levelo://app?vid=c67f4cf5-6a14-4c65-875c-06a1ffac99b6"},"vehicle_type_id":"4","last_reported":1784221330,"current_range_meters":28000,"station_id":"ce4bhgp2rcd13ifvqfc0","pricing_plan_id":"cebpf4jnsgd1na2vs0mg"},{"bike_id":"9649e609-cff2-4877-a2a5-b38c1e1826dd","system_id":"levelo_inurba_marseille","lat":43.27307,"lon":5.39078,"is_reserved":false,"is_disabled":false,"rental_uris":{"android":"levelo://app?vid=9649e609-cff2-4877-a2a5-b38c1e1826dd","ios":"levelo://app?vid=9649e609-cff2-4877-a2a5-b38c1e1826dd"},"vehicle_type_id":"4","last_reported":1784221330,"current_range_meters":32000,"station_id":"ce4bhgp2rcd13ifvqfe0","pricing_plan_id":"cebpf4jnsgd1na2vs0mg"},{"bike_id":"1d9f3df3-4693-4dfa-8626-345c609c22e4","system_id":"levelo_inurba_marseille","lat":43.29078,"lon":5.37396,"is_reserved":false,"is_disabled":false,"rental_uris":{"android":"levelo://app?vid=1d9f3df3-4693-4dfa-8626-345c609c22e4","ios":"levelo://app?vid=1d9f3df3-4693-4dfa-8626-345c609c22e4"},"vehicle_type_id":"4","last_reported":1784221330,"current_range_meters":30000,"station_id":"","pricing_plan_id":"cebpf4jnsgd1na2vs0mg"},{"bike_id":"51f04529-595f-4fda-8c4d-5011e61a78b0","system_id":"levelo_inurba_marseille","lat":43.30206,"lon":5.39473,"is_reserved":false,"is_disabled":false,"rental_uris":{"android":"levelo://app?vid=51f04529-595f-4fda-8c4d-5011e61a78b0","ios":"levelo://app?vid=51f04529-595f-4fda-8c4d-5011e61a78b0"},"vehicle_type_id":"4","last_reported":1784221330,"current_range_meters":31200,"station_id":"ce4bh0p2rcd13ifvqd70","pricing_plan_id":"cebpf4jnsgd1na2vs0mg"},{"bike_id":"b0091300-9ddc-4952-95c0-b34e5e3957b3","system_id":"levelo_inurba_marseille","lat":43.29189,"lon":5.36812,"is_reserved":false,"is_disabled":false,"rental_uris":{"android":"levelo://app?vid=b0091300-9ddc-4952-95c0-b34e5e3957b3","ios":"levelo://app?vid=b0091300-9ddc-4952-95c0-b34e5e3957b3"},"vehicle_type_id":"4","last_reported":1784221330,"current_range_meters":28400,"station_id":"","pricing_plan_id":"cebpf4jnsgd1na2vs0mg"},{"bike_id":"590473f6-bcfa-49af-88f1-7b180b1e4625","system_id":"levelo_inurba_marseille","lat":43.29276,"lon":5.40113,"is_reserved":false,"is_disabled":false,"rental_uris":{"android":"levelo://app?vid=590473f6-bcfa-49af-88f1-7b180b1e4625","ios":"levelo://app?vid=590473f6-bcfa-49af-88f1-7b180b1e4625"},"vehicle_type_id":"4","last_reported":1784221330,"current_range_meters":4000,"station_id":"ce4bh312rcd13ifvqdk0","pricing_plan_id":"cebpf4jnsgd1na2vs0mg"},{"bike_id":"4f1a1182-e72e-45c1-8752-aafbad5022f1","system_id":"levelo_inurba_marseille","lat":43.28625,"lon":5.35088,"is_reserved":false,"is_disabled":false,"rental_uris":{"android":"levelo://app?vid=4f1a1182-e72e-45c1-8752-aafbad5022f1","ios":"levelo://app?vid=4f1a1182-e72e-45c1-8752-aafbad5022f1"},"vehicle_type_id":"4","last_reported":1784221330,"current_range_meters":19200,"station_id":"ce4bhch2rcd13ifvqeug","pricing_plan_id":"cebpf4jnsgd1na2vs0mg"},{"bike_id":"4c445abe-25ad-466b-a445-744bf62fbea8","system_id":"levelo_inurba_marseille","lat":43.26208,"lon":5.37917,"is_reserved":false,"is_disabled":false,"rental_uris":{"android":"levelo://app?vid=4c445abe-25ad-466b-a445-744bf62fbea8","ios":"levelo://app?vid=4c445abe-25ad-466b-a445-744bf62fbea8"},"vehicle_type_id":"4","last_reported":1784221330,"current_range_meters":39200,"station_id":"ce4bhjp2rcd13ifvqg90","pricing_plan_id":"cebpf4jnsgd1na2vs0mg"},{"bike_id":"632ba4c2-82e5-4027-a7bb-cab224a3baee","system_id":"levelo_inurba_marseille","lat":43.22972,"lon":5.44469,"is_reserved":false,"is_disabled":false,"rental_uris":{"android":"levelo://app?vid=632ba4c2-82e5-4027-a7bb-cab224a3baee","ios":"levelo://app?vid=632ba4c2-82e5-4027-a7bb-cab224a3baee"},"vehicle_type_id":"4","last_reported":1784221330,"current_range_meters":9600,"station_id":"","pricing_plan_id":"cebpf4jnsgd1na2vs0mg"},{"bike_id":"deaaa6d1-ea41-4b24-8020-5da7e63fb7a7","system_id":"levelo_inurba_marseille","lat":43.33748,"lon":5.37477,"is_reserved":false,"is_disabled":false,"rental_uris":{"android":"levelo://app?vid=deaaa6d1-ea41-4b24-8020-5da7e63fb7a7","ios":"levelo://app?vid=deaaa6d1-ea41-4b24-8020-5da7e63fb7a7"},"vehicle_type_id":"4","last_reported":1784221330,"current_range_meters":39200,"station_id":"","pricing_plan_id":"cebpf4jnsgd1na2vs0mg"},{"bike_id":"0d3ad980-5c14-4fc0-b1af-6ea77e380c5e","system_id":"levelo_inurba_marseille","lat":43.26553,"lon":5.3891,"is_reserved":false,"is_disabled":false,"rental_uris":{"android":"levelo://app?vid=0d3ad980-5c14-4fc0-b1af-6ea77e380c5e","ios":"levelo://app?vid=0d3ad980-5c14-4fc0-b1af-6ea77e380c5e"},"vehicle_type_id":"4","last_reported":1784221330,"current_range_meters":6800,"station_id":"ce4bhe12rcd13ifvqf30","pricing_plan_id":"cebpf4jnsgd1na2vs0mg"},{"bike_id":"4cf3a51b-62fe-40c5-9a3f-7d317899969f","system_id":"levelo_inurba_marseille","lat":43.301056,"lon":5.398328,"is_reserved":false,"is_disabled":false,"rental_uris":{"android":"levelo://app?vid=4cf3a51b-62fe-40c5-9a3f-7d317899969f","ios":"levelo://app?vid=4cf3a51b-62fe-40c5-9a3f-7d317899969f"},"vehicle_type_id":"4","last_reported":1784221330,"current_range_meters":34800,"station_id":"","pricing_plan_id":"cebpf4jnsgd1na2vs0mg"},{"bike_id":"ff512958-7d96-4ce9-9338-17b08cda03b7","system_id":"levelo_inurba_marseille","lat":43.29276,"lon":5.36843,"is_reserved":false,"is_disabled":false,"rental_uris":{"android":"levelo://app?vid=ff512958-7d96-4ce9-9338-17b08cda03b7","ios":"levelo://app?vid=ff512958-7d96-4ce9-9338-17b08cda03b7"},"vehicle_type_id":"4","last_reported":1784221330,"current_range_meters":17600,"station_id":"","pricing_plan_id":"cebpf4jnsgd1na2vs0mg"},{"bike_id":"0d3e100f-48fe-47e1-bef7-0a1dcfcc4955","system_id":"levelo_inurba_marseille","lat":43.33725,"lon":5.39164,"is_reserved":false,"is_disabled":false,"rental_uris":{"android":"levelo://app?vid=0d3e100f-48fe-47e1-bef7-0a1dcfcc4955","ios":"levelo://app?vid=0d3e100f-48fe-47e1-bef7-0a1dcfcc4955"},"vehicle_type_id":"4","last_reported":1784221330,"current_range_meters":32800,"station_id":"ce4bhr92rcd13ifvqhsg","pricing_plan_id":"cebpf4jnsgd1na2vs0mg"},{"bike_id":"8109b825-2eb6-467e-b313-e806da3e20b4","system_id":"levelo_inurba_marseille","lat":43.28149,"lon":5.42637,"is_reserved":false,"is_disabled":false,"rental_uris":{"android":"levelo://app?vid=8109b825-2eb6-467e-b313-e806da3e20b4","ios":"levelo://app?vid=8109b825-2eb6-467e-b313-e806da3e20b4"},"vehicle_type_id":"4","last_reported":1784221330,"current_range_meters":9200,"station_id":"ce4bhnh2rcd13ifvqgug","pricing_plan_id":"cebpf4jnsgd1na2vs0mg"},{"bike_id":"287adad5-5e66-4962-bf27-f75e78a46f79","system_id":"levelo_inurba_marseille","lat":43.29787,"lon":5.38097,"is_reserved":false,"is_disabled":true,"rental_uris":{"android":"levelo://app?vid=287adad5-5e66-4962-bf27-f75e78a46f79","ios":"levelo://app?vid=287adad5-5e66-4962-bf27-f75e78a46f79"},"vehicle_type_id":"4","last_reported":1784221330,"current_range_meters":16800,"station_id":"ce4bgip2rcd13ifvqbb0","pricing_plan_id":"cebpf4jnsgd1na2vs0mg"},{"bike_id":"ddbfbc6e-9ea5-4164-b0a2-7cc31ec7c025","system_id":"levelo_inurba_marseille","lat":43.32104,"lon":5.36751,"is_reserved":false,"is_disabled":false,"rental_uris":{"android":"levelo://app?vid=ddbfbc6e-9ea5-4164-b0a2-7cc31ec7c025","ios":"levelo://app?vid=ddbfbc6e-9ea5-4164-b0a2-7cc31ec7c025"},"vehicle_type_id":"4","last_reported":1784221330,"current_range_meters":20400,"station_id":"ce4bhrh2rcd13ifvqhug","pricing_plan_id":"cebpf4jnsgd1na2vs0mg"},{"bike_id":"23976c7c-750a-49fd-aa56-d86ed3dfcf37","system_id":"levelo_inurba_marseille","lat":43.29548,"lon":5.42276,"is_reserved":false,"is_disabled":false,"rental_uris":{"android":"levelo://app?vid=23976c7c-750a-49fd-aa56-d86ed3dfcf37","ios":"levelo://app?vid=23976c7c-750a-49fd-aa56-d86ed3dfcf37"},"vehicle_type_id":"4","last_reported":1784221330,"current_range_meters":38800,"station_id":"ce4bhph2rcd13ifvqhdg","pricing_plan_id":"cebpf4jnsgd1na2vs0mg"},{"bike_id":"6148d87c-04f4-48ae-a783-c4ac8d189ed8","system_id":"levelo_inurba_marseille","lat":43.30443,"lon":5.38876,"is_reserved":false,"is_disabled":false,"rental_uris":{"android":"levelo://app?vid=6148d87c-04f4-48ae-a783-c4ac8d189ed8","ios":"levelo://app?vid=6148d87c-04f4-48ae-a783-c4ac8d189ed8"},"vehicle_type_id":"4","last_reported":1784221330,"current_range_meters":33200,"station_id":"ce4bgk12rcd13ifvqbi0","pricing_plan_id":"cebpf4jnsgd1na2vs0mg"},{"bike_id":"37231a7b-2c7c-46b2-b5a2-ef30c4ee932f","system_id":"levelo_inurba_marseille","lat":43.26216,"lon":5.37442,"is_reserved":false,"is_disabled":false,"rental_uris":{"android":"levelo://app?vid=37231a7b-2c7c-46b2-b5a2-ef30c4ee932f","ios":"levelo://app?vid=37231a7b-2c7c-46b2-b5a2-ef30c4ee932f"},"vehicle_type_id":"4","last_reported":1784221330,"current_range_meters":5600,"station_id":"ce4bhgp2rcd13ifvqfc0","pricing_plan_id":"cebpf4jnsgd1na2vs0mg"},{"bike_id":"b4b7cf45-857d-499f-903c-2153de8727c5","system_id":"levelo_inurba_marseille","lat":43.32491,"lon":5.36621,"is_reserved":false,"is_disabled":false,"rental_uris":{"android":"levelo://app?vid=b4b7cf45-857d-499f-903c-2153de8727c5","ios":"levelo://app?vid=b4b7cf45-857d-499f-903c-2153de8727c5"},"vehicle_type_id":"4","last_reported":1784221330,"current_range_meters":4400,"station_id":"","pricing_plan_id":"cebpf4jnsgd1na2vs0mg"},{"bike_id":"3b38e1b3-f0b6-425e-89ac-3867e5d3c8d0","system_id":"levelo_inurba_marseille","lat":43.25107,"lon":5.40278,"is_reserved":false,"is_disabled":false,"rental_uris":{"android":"levelo://app?vid=3b38e1b3-f0b6-425e-89ac-3867e5d3c8d0","ios":"levelo://app?vid=3b38e1b3-f0b6-425e-89ac-3867e5d3c8d0"},"vehicle_type_id":"4","last_reported":1784221330,"current_range_meters":6800,"station_id":"ce4bhlh2rcd13ifvqgig","pricing_plan_id":"cebpf4jnsgd1na2vs0mg"},{"bike_id":"e35a471f-4162-47db-b945-02d55802c4cc","system_id":"levelo_inurba_marseille","lat":43.28544,"lon":5.44078,"is_reserved":false,"is_disabled":false,"rental_uris":{"android":"levelo://app?vid=e35a471f-4162-47db-b945-02d55802c4cc","ios":"levelo://app?vid=e35a471f-4162-47db-b945-02d55802c4cc"},"vehicle_type_id":"4","last_reported":1784221330,"current_range_meters":38000,"station_id":"st_d3j3df2ikq2c7380ej80","pricing_plan_id":"cebpf4jnsgd1na2vs0mg"},{"bike_id":"de33586d-1ad6-43fb-abac-eff95af90a64","system_id":"levelo_inurba_marseille","lat":43.26051,"lon":5.37523,"is_reserved":false,"is_disabled":true,"rental_uris":{"android":"levelo://app?vid=de33586d-1ad6-43fb-abac-eff95af90a64","ios":"levelo://app?vid=de33586d-1ad6-43fb-abac-eff95af90a64"},"vehicle_type_id":"4","last_reported":1784221330,"current_range_meters":25600,"station_id":"ce4bhgh2rcd13ifvqfa0","pricing_plan_id":"cebpf4jnsgd1na2vs0mg"},{"bike_id":"8a266fb1-2bb9-4f83-9f4e-79213a3066cf","system_id":"levelo_inurba_marseille","lat":43.28091,"lon":5.34726,"is_reserved":false,"is_disabled":true,"rental_uris":{"android":"levelo://app?vid=8a266fb1-2bb9-4f83-9f4e-79213a3066cf","ios":"levelo://app?vid=8a266fb1-2bb9-4f83-9f4e-79213a3066cf"},"vehicle_type_id":"4","last_reported":1784221330,"current_range_meters":0,"station_id":"","pricing_plan_id":"cebpf4jnsgd1na2vs0mg"},{"bike_id":"ec06db50-6e4c-449d-a4cf-1269970ca51b","system_id":"levelo_inurba_marseille","lat":43.30769,"lon":5.37643,"is_reserved":false,"is_disabled":false,"rental_uris":{"android":"levelo://app?vid=ec06db50-6e4c-449d-a4cf-1269970ca51b","ios":"levelo://app?vid=ec06db50-6e4c-449d-a4cf-1269970ca51b"},"vehicle_type_id":"4","last_reported":1784221330,"current_range_meters":35600,"station_id":"ce4bgv92rcd13ifvqcq0","pricing_plan_id":"cebpf4jnsgd1na2vs0mg"},{"bike_id":"560c595a-9588-4387-907f-7f2b4f3f1200","system_id":"levelo_inurba_marseille","lat":43.3023,"lon":5.40018,"is_reserved":false,"is_disabled":false,"rental_uris":{"android":"levelo://app?vid=560c595a-9588-4387-907f-7f2b4f3f1200","ios":"levelo://app?vid=560c595a-9588-4387-907f-7f2b4f3f1200"},"vehicle_type_id":"4","last_reported":1784221330,"current_range_meters":40000,"station_id":"","pricing_plan_id":"cebpf4jnsgd1na2vs0mg"},{"bike_id":"05c29d56-6c44-4de6-93a8-ddd7db2f99c1","system_id":"levelo_inurba_marseille","lat":43.269268,"lon":5.389179,"is_reserved":false,"is_disabled":false,"rental_uris":{"android":"levelo://app?vid=05c29d56-6c44-4de6-93a8-ddd7db2f99c1","ios":"levelo://app?vid=05c29d56-6c44-4de6-93a8-ddd7db2f99c1"},"vehicle_type_id":"4","last_reported":1784221330,"current_range_meters":33200,"station_id":"ce4bhhh2rcd13ifvqfl0","pricing_plan_id":"cebpf4jnsgd1na2vs0mg"},{"bike_id":"e4e200e9-dded-4da3-a73d-22e2a6eaaeda","system_id":"levelo_inurba_marseille","lat":43.25718,"lon":5.41115,"is_reserved":false,"is_disabled":false,"rental_uris":{"android":"levelo://app?vid=e4e200e9-dded-4da3-a73d-22e2a6eaaeda","ios":"levelo://app?vid=e4e200e9-dded-4da3-a73d-22e2a6eaaeda"},"vehicle_type_id":"4","last_reported":1784221330,"current_range_meters":40000,"station_id":"ce4bhkp2rcd13ifvqgd0","pricing_plan_id":"cebpf4jnsgd1na2vs0mg"},{"bike_id":"e8f51142-8ed8-43c3-ac2d-e90167e464ec","system_id":"levelo_inurba_marseille","lat":43.24174,"lon":5.36382,"is_reserved":false,"is_disabled":false,"rental_uris":{"android":"levelo://app?vid=e8f51142-8ed8-43c3-ac2d-e90167e464ec","ios":"levelo://app?vid=e8f51142-8ed8-43c3-ac2d-e90167e464ec"},"vehicle_type_id":"4","last_reported":1784221330,"current_range_meters":32400,"station_id":"cpo36qri1sfpv3e86is0","pricing_plan_id":"cebpf4jnsgd1na2vs0mg"},{"bike_id":"eadbf5e7-6bfc-4e3a-b0e9-0f3c75f13d91","system_id":"levelo_inurba_marseille","lat":43.28104,"lon":5.37853,"is_reserved":false,"is_disabled":false,"rental_uris":{"android":"levelo://app?vid=eadbf5e7-6bfc-4e3a-b0e9-0f3c75f13d91","ios":"levelo://app?vid=eadbf5e7-6bfc-4e3a-b0e9-0f3c75f13d91"},"vehicle_type_id":"4","last_reported":1784221330,"current_range_meters":36800,"station_id":"ce4bha12rcd13ifvqee0","pricing_plan_id":"cebpf4jnsgd1na2vs0mg"},{"bike_id":"9dcfdf96-578b-46e7-b429-1767b2ea8f00","system_id":"levelo_inurba_marseille","lat":43.24646,"lon":5.38165,"is_reserved":false,"is_disabled":false,"rental_uris":{"android":"levelo://app?vid=9dcfdf96-578b-46e7-b429-1767b2ea8f00","ios":"levelo://app?vid=9dcfdf96-578b-46e7-b429-1767b2ea8f00"},"vehicle_type_id":"4","last_reported":1784221330,"current_range_meters":3200,"station_id":"ce4bhih2rcd13ifvqfr0","pricing_plan_id":"cebpf4jnsgd1na2vs0mg"},{"bike_id":"73251287-4e95-4b18-8e79-b655c97b37e5","system_id":"levelo_inurba_marseille","lat":43.28408,"lon":5.34985,"is_reserved":false,"is_disabled":false,"rental_uris":{"android":"levelo://app?vid=73251287-4e95-4b18-8e79-b655c97b37e5","ios":"levelo://app?vid=73251287-4e95-4b18-8e79-b655c97b37e5"},"vehicle_type_id":"4","last_reported":1784221330,"current_range_meters":39200,"station_id":"ce4bhbh2rcd13ifvqepg","pricing_plan_id":"cebpf4jnsgd1na2vs0mg"},{"bike_id":"012e94e9-03f4-44ab-899f-783dca8d9c97","system_id":"levelo_inurba_marseille","lat":43.29625,"lon":5.37717,"is_reserved":false,"is_disabled":false,"rental_uris":{"android":"levelo://app?vid=012e94e9-03f4-44ab-899f-783dca8d9c97","ios":"levelo://app?vid=012e94e9-03f4-44ab-899f-783dca8d9c97"},"vehicle_type_id":"4","last_reported":1784221330,"current_range_meters":38800,"station_id":"ce4bgi92rcd13ifvqb90","pricing_plan_id":"cebpf4jnsgd1na2vs0mg"},{"bike_id":"7604574c-06cb-407e-9e16-b7858411e1bc","system_id":"levelo_inurba_marseille","lat":43.27821,"lon":5.40682,"is_reserved":false,"is_disabled":true,"rental_uris":{"android":"levelo://app?vid=7604574c-06cb-407e-9e16-b7858411e1bc","ios":"levelo://app?vid=7604574c-06cb-407e-9e16-b7858411e1bc"},"vehicle_type_id":"4","last_reported":1784221330,"current_range_meters":24400,"station_id":"ce4bhnh2rcd13ifvqgtg","pricing_plan_id":"cebpf4jnsgd1na2vs0mg"},{"bike_id":"600d3649-4b6d-473c-a715-d27921e00684","system_id":"levelo_inurba_marseille","lat":43.23205,"lon":5.35547,"is_reserved":false,"is_disabled":false,"rental_uris":{"android":"levelo://app?vid=600d3649-4b6d-473c-a715-d27921e00684","ios":"levelo://app?vid=600d3649-4b6d-473c-a715-d27921e00684"},"vehicle_type_id":"4","last_reported":1784221330,"current_range_meters":27600,"station_id":"ce4bhu92rcd13ifvqi70","pricing_plan_id":"cebpf4jnsgd1na2vs0mg"},{"bike_id":"b9d0b5a3-daf3-4936-9e7d-0546a00ab2a2","system_id":"levelo_inurba_marseille","lat":43.2656,"lon":5.37282,"is_reserved":false,"is_disabled":false,"rental_uris":{"android":"levelo://app?vid=b9d0b5a3-daf3-4936-9e7d-0546a00ab2a2","ios":"levelo://app?vid=b9d0b5a3-daf3-4936-9e7d-0546a00ab2a2"},"vehicle_type_id":"4","last_reported":1784221330,"current_range_meters":23200,"station_id":"ce4bhg12rcd13ifvqf70","pricing_plan_id":"cebpf4jnsgd1na2vs0mg"},{"bike_id":"231b735f-1ac5-449f-ac8c-36fca234cf93","system_id":"levelo_inurba_marseille","lat":43.29593,"lon":5.37154,"is_reserved":false,"is_disabled":false,"rental_uris":{"android":"levelo://app?vid=231b735f-1ac5-449f-ac8c-36fca234cf93","ios":"levelo://app?vid=231b735f-1ac5-449f-ac8c-36fca234cf93"},"vehicle_type_id":"4","last_reported":1784221330,"current_range_meters":18000,"station_id":"ce4bgnh2rcd13ifvqc0g","pricing_plan_id":"cebpf4jnsgd1na2vs0mg"},{"bike_id":"da4d7d44-82b5-4d91-b676-a46f241e0777","system_id":"levelo_inurba_marseille","lat":43.25925,"lon":5.40892,"is_reserved":false,"is_disabled":false,"rental_uris":{"android":"levelo://app?vid=da4d7d44-82b5-4d91-b676-a46f241e0777","ios":"levelo://app?vid=da4d7d44-82b5-4d91-b676-a46f241e0777"},"vehicle_type_id":"4","last_reported":1784221330,"current_range_meters":28800,"station_id":"ce4bhm92rcd13ifvqglg","pricing_plan_id":"cebpf4jnsgd1na2vs0mg"},{"bike_id":"d1210815-3b6f-46d9-8562-5a9f90c2f696","system_id":"levelo_inurba_marseille","lat":43.29193,"lon":5.35801,"is_reserved":false,"is_disabled":true,"rental_uris":{"android":"levelo://app?vid=d1210815-3b6f-46d9-8562-5a9f90c2f696","ios":"levelo://app?vid=d1210815-3b6f-46d9-8562-5a9f90c2f696"},"vehicle_type_id":"4","last_reported":1784221330,"current_range_meters":12400,"station_id":"ce4bhb12rcd13ifvqel0","pricing_plan_id":"cebpf4jnsgd1na2vs0mg"},{"bike_id":"d93abc91-80ca-4c6f-ba7f-f1450dcee09f","system_id":"levelo_inurba_marseille","lat":43.30909,"lon":5.36799,"is_reserved":false,"is_disabled":false,"rental_uris":{"android":"levelo://app?vid=d93abc91-80ca-4c6f-ba7f-f1450dcee09f","ios":"levelo://app?vid=d93abc91-80ca-4c6f-ba7f-f1450dcee09f"},"vehicle_type_id":"4","last_reported":1784221330,"current_range_meters":22800,"station_id":"ce4bgn92rcd13ifvqbvg","pricing_plan_id":"cebpf4jnsgd1na2vs0mg"},{"bike_id":"bd3c0e56-a259-4b93-8100-5171a29360c5","system_id":"levelo_inurba_marseille","lat":43.29024,"lon":5.35922,"is_reserved":false,"is_disabled":true,"rental_uris":{"android":"levelo://app?vid=bd3c0e56-a259-4b93-8100-5171a29360c5","ios":"levelo://app?vid=bd3c0e56-a259-4b93-8100-5171a29360c5"},"vehicle_type_id":"4","last_reported":1784221330,"current_range_meters":23200,"station_id":"ce4bha92rcd13ifvqeg0","pricing_plan_id":"cebpf4jnsgd1na2vs0mg"},{"bike_id":"baf31698-f3da-41da-a68f-96ca3f2369b1","system_id":"levelo_inurba_marseille","lat":43.29523,"lon":5.37508,"is_reserved":false,"is_disabled":false,"rental_uris":{"android":"levelo://app?vid=baf31698-f3da-41da-a68f-96ca3f2369b1","ios":"levelo://app?vid=baf31698-f3da-41da-a68f-96ca3f2369b1"},"vehicle_type_id":"4","last_reported":1784221330,"current_range_meters":6400,"station_id":"ce4bgkp2rcd13ifvqbmg","pricing_plan_id":"cebpf4jnsgd1na2vs0mg"},{"bike_id":"771d190b-b9bb-4008-af1c-54e68fe4bf74","system_id":"levelo_inurba_marseille","lat":43.28268,"lon":5.35065,"is_reserved":false,"is_disabled":false,"rental_uris":{"android":"levelo://app?vid=771d190b-b9bb-4008-af1c-54e68fe4bf74","ios":"levelo://app?vid=771d190b-b9bb-4008-af1c-54e68fe4bf74"},"vehicle_type_id":"4","last_reported":1784221330,"current_range_meters":25200,"station_id":"ce4bhbp2rcd13ifvqerg","pricing_plan_id":"cebpf4jnsgd1na2vs0mg"},{"bike_id":"4f68d89f-2860-4fe4-aeef-ae7316f7c98e","system_id":"levelo_inurba_marseille","lat":43.2893,"lon":5.42761,"is_reserved":false,"is_disabled":false,"rental_uris":{"android":"levelo://app?vid=4f68d89f-2860-4fe4-aeef-ae7316f7c98e","ios":"levelo://app?vid=4f68d89f-2860-4fe4-aeef-ae7316f7c98e"},"vehicle_type_id":"4","last_reported":1784221330,"current_range_meters":28800,"station_id":"","pricing_plan_id":"cebpf4jnsgd1na2vs0mg"},{"bike_id":"8ffa31fc-5447-4976-82da-5aed9d48cbcd","system_id":"levelo_inurba_marseille","lat":43.29791,"lon":5.3934,"is_reserved":false,"is_disabled":false,"rental_uris":{"android":"levelo://app?vid=8ffa31fc-5447-4976-82da-5aed9d48cbcd","ios":"levelo://app?vid=8ffa31fc-5447-4976-82da-5aed9d48cbcd"},"vehicle_type_id":"4","last_reported":1784221330,"current_range_meters":27600,"station_id":"chh1huq6cuj3fo74tm60","pricing_plan_id":"cebpf4jnsgd1na2vs0mg"},{"bike_id":"35bd0f1d-508e-41f7-83fa-f3e805aab35e","system_id":"levelo_inurba_marseille","lat":43.30276,"lon":5.37696,"is_reserved":false,"is_disabled":true,"rental_uris":{"android":"levelo://app?vid=35bd0f1d-508e-41f7-83fa-f3e805aab35e","ios":"levelo://app?vid=35bd0f1d-508e-41f7-83fa-f3e805aab35e"},"vehicle_type_id":"4","last_reported":1784221330,"current_range_meters":16400,"station_id":"ce4bguh2rcd13ifvqcj0","pricing_plan_id":"cebpf4jnsgd1na2vs0mg"},{"bike_id":"a158e76c-a0e3-49b5-8bad-dee45ce5175c","system_id":"levelo_inurba_marseille","lat":43.27693,"lon":5.38893,"is_reserved":false,"is_disabled":false,"rental_uris":{"android":"levelo://app?vid=a158e76c-a0e3-49b5-8bad-dee45ce5175c","ios":"levelo://app?vid=a158e76c-a0e3-49b5-8bad-dee45ce5175c"},"vehicle_type_id":"4","last_reported":1784221330,"current_range_meters":2800,"station_id":"ce4bhi12rcd13ifvqfo0","pricing_plan_id":"cebpf4jnsgd1na2vs0mg"},{"bike_id":"343daeb0-5804-4897-a794-45617fe50fbb","system_id":"levelo_inurba_marseille","lat":43.29594,"lon":5.38096,"is_reserved":false,"is_disabled":false,"rental_uris":{"android":"levelo://app?vid=343daeb0-5804-4897-a794-45617fe50fbb","ios":"levelo://app?vid=343daeb0-5804-4897-a794-45617fe50fbb"},"vehicle_type_id":"4","last_reported":1784221330,"current_range_meters":27200,"station_id":"ce4bgl12rcd13ifvqbo0","pricing_plan_id":"cebpf4jnsgd1na2vs0mg"},{"bike_id":"aa5d3c4c-9f33-4be5-be80-01a02d569199","system_id":"levelo_inurba_marseille","lat":43.26944,"lon":5.38917,"is_reserved":false,"is_disabled":true,"rental_uris":{"android":"levelo://app?vid=aa5d3c4c-9f33-4be5-be80-01a02d569199","ios":"levelo://app?vid=aa5d3c4c-9f33-4be5-be80-01a02d569199"},"vehicle_type_id":"4","last_reported":1784221330,"current_range_meters":39200,"station_id":"ce4bhhh2rcd13ifvqfl0","pricing_plan_id":"cebpf4jnsgd1na2vs0mg"},{"bike_id":"866086d3-1411-452e-bba5-6547ff2671ae","system_id":"levelo_inurba_marseille","lat":43.26344,"lon":5.37351,"is_reserved":false,"is_disabled":false,"rental_uris":{"android":"levelo://app?vid=866086d3-1411-452e-bba5-6547ff2671ae","ios":"levelo://app?vid=866086d3-1411-452e-bba5-6547ff2671ae"},"vehicle_type_id":"4","last_reported":1784221330,"current_range_meters":2800,"station_id":"","pricing_plan_id":"cebpf4jnsgd1na2vs0mg"},{"bike_id":"ccee8707-a345-4f2d-95ce-ae437a4056e2","system_id":"levelo_inurba_marseille","lat":43.28849,"lon":5.35857,"is_reserved":false,"is_disabled":false,"rental_uris":{"android":"levelo://app?vid=ccee8707-a345-4f2d-95ce-ae437a4056e2","ios":"levelo://app?vid=ccee8707-a345-4f2d-95ce-ae437a4056e2"},"vehicle_type_id":"4","last_reported":1784221330,"current_range_meters":28800,"station_id":"ce4bhb12rcd13ifvqem0","pricing_plan_id":"cebpf4jnsgd1na2vs0mg"},{"bike_id":"06b19f8a-9042-4921-895a-48972268d222","system_id":"levelo_inurba_marseille","lat":43.28611,"lon":5.35118,"is_reserved":false,"is_disabled":false,"rental_uris":{"android":"levelo://app?vid=06b19f8a-9042-4921-895a-48972268d222","ios":"levelo://app?vid=06b19f8a-9042-4921-895a-48972268d222"},"vehicle_type_id":"4","last_reported":1784221330,"current_range_meters":7200,"station_id":"ce4bhch2rcd13ifvqeug","pricing_plan_id":"cebpf4jnsgd1na2vs0mg"},{"bike_id":"80df95a3-de61-4c2b-9fb5-0c32884ae613","system_id":"levelo_inurba_marseille","lat":43.32352,"lon":5.36733,"is_reserved":false,"is_disabled":false,"rental_uris":{"android":"levelo://app?vid=80df95a3-de61-4c2b-9fb5-0c32884ae613","ios":"levelo://app?vid=80df95a3-de61-4c2b-9fb5-0c32884ae613"},"vehicle_type_id":"4","last_reported":1784221330,"current_range_meters":40000,"station_id":"ce4bhsh2rcd13ifvqi2g","pricing_plan_id":"cebpf4jnsgd1na2vs0mg"},{"bike_id":"86e4ea17-6262-4bfe-a767-199f0d43a103","system_id":"levelo_inurba_marseille","lat":43.292451,"lon":5.376388,"is_reserved":false,"is_disabled":false,"rental_uris":{"android":"levelo://app?vid=86e4ea17-6262-4bfe-a767-199f0d43a103","ios":"levelo://app?vid=86e4ea17-6262-4bfe-a767-199f0d43a103"},"vehicle_type_id":"4","last_reported":1784221330,"current_range_meters":38000,"station_id":"ce4bgi12rcd13ifvqb80","pricing_plan_id":"cebpf4jnsgd1na2vs0mg"},{"bike_id":"828b6aa2-ee1c-4c2a-9e09-954ca060b85f","system_id":"levelo_inurba_marseille","lat":43.29796,"lon":5.40401,"is_reserved":false,"is_disabled":false,"rental_uris":{"android":"levelo://app?vid=828b6aa2-ee1c-4c2a-9e09-954ca060b85f","ios":"levelo://app?vid=828b6aa2-ee1c-4c2a-9e09-954ca060b85f"},"vehicle_type_id":"4","last_reported":1784221330,"current_range_meters":35200,"station_id":"ce4bh112rcd13ifvqd90","pricing_plan_id":"cebpf4jnsgd1na2vs0mg"},{"bike_id":"5a29e6f3-d0ba-49e7-af5d-f8e60471c1fc","system_id":"levelo_inurba_marseille","lat":43.27483,"lon":5.42552,"is_reserved":false,"is_disabled":true,"rental_uris":{"android":"levelo://app?vid=5a29e6f3-d0ba-49e7-af5d-f8e60471c1fc","ios":"levelo://app?vid=5a29e6f3-d0ba-49e7-af5d-f8e60471c1fc"},"vehicle_type_id":"4","last_reported":1784221330,"current_range_meters":12400,"station_id":"st_d8t4bh7nbrqs73arha60","pricing_plan_id":"cebpf4jnsgd1na2vs0mg"},{"bike_id":"219cd198-ab5c-490b-94da-6927d372cb24","system_id":"levelo_inurba_marseille","lat":43.23185,"lon":5.35545,"is_reserved":false,"is_disabled":false,"rental_uris":{"android":"levelo://app?vid=219cd198-ab5c-490b-94da-6927d372cb24","ios":"levelo://app?vid=219cd198-ab5c-490b-94da-6927d372cb24"},"vehicle_type_id":"4","last_reported":1784221330,"current_range_meters":16400,"station_id":"ce4bhu92rcd13ifvqi70","pricing_plan_id":"cebpf4jnsgd1na2vs0mg"},{"bike_id":"d3b82640-d84c-42c7-8c57-b5a14f4fcab5","system_id":"levelo_inurba_marseille","lat":43.30882,"lon":5.3717,"is_reserved":false,"is_disabled":false,"rental_uris":{"android":"levelo://app?vid=d3b82640-d84c-42c7-8c57-b5a14f4fcab5","ios":"levelo://app?vid=d3b82640-d84c-42c7-8c57-b5a14f4fcab5"},"vehicle_type_id":"4","last_reported":1784221330,"current_range_meters":39200,"station_id":"ce4bguh2rcd13ifvqckg","pricing_plan_id":"cebpf4jnsgd1na2vs0mg"},{"bike_id":"6d2c54e7-bd97-4609-860e-449d48be7ea5","system_id":"levelo_inurba_marseille","lat":43.28619,"lon":5.35095,"is_reserved":false,"is_disabled":false,"rental_uris":{"android":"levelo://app?vid=6d2c54e7-bd97-4609-860e-449d48be7ea5","ios":"levelo://app?vid=6d2c54e7-bd97-4609-860e-449d48be7ea5"},