{"last_updated":1698599103,"ttl":30,"version":"2.2","data":{"bikes":[{"bike_id":"60d4c18f-7b0a-4c84-b1b5-9d74c510d6c7","system_id":"levelo_inurba_marseille","lat":43.312239,"lon":5.368562,"is_reserved":false,"is_disabled":false,"rental_uris":{"android":"levelo://app?vid=60d4c18f-7b0a-4c84-b1b5-9d74c510d6c7","ios":"levelo://app?vid=60d4c18f-7b0a-4c84-b1b5-9d74c510d6c7"},"vehicle_type_id":"4","last_reported":1698599103,"current_range_meters":23200,"station_id":"ce4bgl92rcd13ifvqbq0","pricing_plan_id":"free"},{"bike_id":"45f50794-99e3-434c-bc5a-6b874764c91d","system_id":"levelo_inurba_marseille","lat":43.31221,"lon":5.36859,"is_reserved":false,"is_disabled":false,"rental_uris":{"android":"levelo://app?vid=45f50794-99e3-434c-bc5a-6b874764c91d","ios":"levelo://app?vid=45f50794-99e3-434c-bc5a-6b874764c91d"},"vehicle_type_id":"4","last_reported":1698599103,"current_range_meters":5600,"station_id":"ce4bgl92rcd13ifvqbq0","pricing_plan_id":"free"},{"bike_id":"2d48c187-dedb-466c-bec1-83908e05654a","system_id":"levelo_inurba_marseille","lat":43.309,"lon":5.36851,"is_reserved":false,"is_disabled":false,"rental_uris":{"android":"levelo://app?vid=2d48c187-dedb-466c-bec1-83908e05654a","ios":"levelo://app?vid=2d48c187-dedb-466c-bec1-83908e05654a"},"vehicle_type_id":"4","last_reported":1698599103,"current_range_meters":13600,"station_id":"ce4bgn92rcd13ifvqbvg","pricing_plan_id":"free"},{"bike_id":"b1cb48cb-22d4-4cd4-97b0-038c1cf723b7","system_id":"levelo_inurba_marseille","lat":43.315186,"lon":5.371432,"is_reserved":false,"is_disabled":false,"rental_uris":{"android":"levelo://app?vid=b1cb48cb-22d4-4cd4-97b0-038c1cf723b7","ios":"levelo://app?vid=b1cb48cb-22d4-4cd4-97b0-038c1cf723b7"},"vehicle_type_id":"4","last_reported":1698599103,"current_range_meters":14800,"station_id":"","pricing_plan_id":"free"},{"bike_id":"3aee7899-66af-4e0b-9175-daa1a2c2793d","system_id":"levelo_inurba_marseille","lat":43.31496,"lon":5.37303,"is_reserved":false,"is_disabled":false,"rental_uris":{"android":"levelo://app?vid=3aee7899-66af-4e0b-9175-daa1a2c2793d","ios":"levelo://app?vid=3aee7899-66af-4e0b-9175-daa1a2c2793d"},"vehicle_type_id":"4","last_reported":1698599103,"current_range_meters":19600,"station_id":"ce4bgt12rcd13ifvqcd0","pricing_plan_id":"free"},{"bike_id":"f252b071-dddd-4e5f-ad07-506846af6d1a","system_id":"levelo_inurba_marseille","lat":43.30547,"lon":5.36547,"is_reserved":false,"is_disabled":false,"rental_uris":{"android":"levelo://app?vid=f252b071-dddd-4e5f-ad07-506846af6d1a","ios":"levelo://app?vid=f252b071-dddd-4e5f-ad07-506846af6d1a"},"vehicle_type_id":"4","last_reported":1698599103,"current_range_meters":31200,"station_id":"ce4bgs12rcd13ifvqcag","pricing_plan_id":"free"},{"bike_id":"f4c857a9-cdb4-40cd-8c05-f7981b610bcf","system_id":"levelo_inurba_marseille","lat":43.30543,"lon":5.36551,"is_reserved":false,"is_disabled":false,"rental_uris":{"android":"levelo://app?vid=f4c857a9-cdb4-40cd-8c05-f7981b610bcf","ios":"levelo://app?vid=f4c857a9-cdb4-40cd-8c05-f7981b610bcf"},"vehicle_type_id":"4","last_reported":1698599103,"current_range_meters":800,"station_id":"ce4bgs12rcd13ifvqcag","pricing_plan_id":"free"},{"bike_id":"7c75fbd9-82eb-4614-8dbc-4393a7013beb","system_id":"levelo_inurba_marseille","lat":43.30542,"lon":5.36554,"is_reserved":false,"is_disabled":false,"rental_uris":{"android":"levelo://app?vid=7c75fbd9-82eb-4614-8dbc-4393a7013beb","ios":"levelo://app?vid=7c75fbd9-82eb-4614-8dbc-4393a7013beb"},"vehicle_type_id":"4","last_reported":1698599103,"current_range_meters":23600,"station_id":"ce4bgs12rcd13ifvqcag","pricing_plan_id":"free"},{"bike_id":"5cc77da8-dca8-48c0-bd9e-02cfb33b5eb9","system_id":"levelo_inurba_marseille","lat":43.305989,"lon":5.37225,"is_reserved":false,"is_disabled":false,"rental_uris":{"android":"levelo://app?vid=5cc77da8-dca8-48c0-bd9e-02cfb33b5eb9","ios":"levelo://app?vid=5cc77da8-dca8-48c0-bd9e-02cfb33b5eb9"},"vehicle_type_id":"4","last_reported":1698599103,"current_range_meters":27600,"station_id":"ce4bgqh2rcd13ifvqc4g","pricing_plan_id":"free"},{"bike_id":"3de11219-23eb-429b-b0cb-b2a36e4b2bd2","system_id":"levelo_inurba_marseille","lat":43.3059,"lon":5.37251,"is_reserved":false,"is_disabled":false,"rental_uris":{"android":"levelo://app?vid=3de11219-23eb-429b-b0cb-b2a36e4b2bd2","ios":"levelo://app?vid=3de11219-23eb-429b-b0cb-b2a36e4b2bd2"},"vehicle_type_id":"4","last_reported":1698599103,"current_range_meters":19200,"station_id":"ce4bgqh2rcd13ifvqc4g","pricing_plan_id":"free"},{"bike_id":"9aef5bf9-a591-470f-a186-14897a95c1b9","system_id":"levelo_inurba_marseille","lat":43.30784,"lon":5.3765,"is_reserved":false,"is_disabled":false,"rental_uris":{"android":"levelo://app?vid=9aef5bf9-a591-470f-a186-14897a95c1b9","ios":"levelo://app?vid=9aef5bf9-a591-470f-a186-14897a95c1b9"},"vehicle_type_id":"4","last_reported":1698599103,"current_range_meters":0,"station_id":"","pricing_plan_id":"free"},{"bike_id":"c8743d09-6f28-4aac-91cc-2f9facaa9f44","system_id":"levelo_inurba_marseille","lat":43.31536,"lon":5.380328,"is_reserved":false,"is_disabled":false,"rental_uris":{"android":"levelo://app?vid=c8743d09-6f28-4aac-91cc-2f9facaa9f44","ios":"levelo://app?vid=c8743d09-6f28-4aac-91cc-2f9facaa9f44"},"vehicle_type_id":"4","last_reported":1698599103,"current_range_meters":0,"station_id":"ce4bhsp2rcd13ifvqi50","pricing_plan_id":"free"},{"bike_id":"f45bb862-f842-46d0-96fd-39ec5a78a0e3","system_id":"levelo_inurba_marseille","lat":43.31535,"lon":5.38038,"is_reserved":false,"is_disabled":false,"rental_uris":{"android":"levelo://app?vid=f45bb862-f842-46d0-96fd-39ec5a78a0e3","ios":"levelo://app?vid=f45bb862-f842-46d0-96fd-39ec5a78a0e3"},"vehicle_type_id":"4","last_reported":1698599103,"current_range_meters":13200,"station_id":"ce4bhsp2rcd13ifvqi50","pricing_plan_id":"free"},{"bike_id":"50db163c-0147-48a3-b27d-49e65e591703","system_id":"levelo_inurba_marseille","lat":43.30802,"lon":5.381613,"is_reserved":false,"is_disabled":false,"rental_uris":{"android":"levelo://app?vid=50db163c-0147-48a3-b27d-49e65e591703","ios":"levelo://app?vid=50db163c-0147-48a3-b27d-49e65e591703"},"vehicle_type_id":"4","last_reported":1698599103,"current_range_meters":28400,"station_id":"ce4bgg92rcd13ifvqb30","pricing_plan_id":"free"},{"bike_id":"1852fc9a-ea3d-40db-a909-01d8d746d884","system_id":"levelo_inurba_marseille","lat":43.308012,"lon":5.381511,"is_reserved":false,"is_disabled":false,"rental_uris":{"android":"levelo://app?vid=1852fc9a-ea3d-40db-a909-01d8d746d884","ios":"levelo://app?vid=1852fc9a-ea3d-40db-a909-01d8d746d884"},"vehicle_type_id":"4","last_reported":1698599103,"current_range_meters":18800,"station_id":"ce4bgt12rcd13ifvqce0","pricing_plan_id":"free"},{"bike_id":"e3f253a1-9788-4492-938f-39b642fbd881","system_id":"levelo_inurba_marseille","lat":43.3245,"lon":5.36788,"is_reserved":false,"is_disabled":false,"rental_uris":{"android":"levelo://app?vid=e3f253a1-9788-4492-938f-39b642fbd881","ios":"levelo://app?vid=e3f253a1-9788-4492-938f-39b642fbd881"},"vehicle_type_id":"4","last_reported":1698599103,"current_range_meters":5200,"station_id":"","pricing_plan_id":"free"},{"bike_id":"d797f1e6-f3ca-4ad7-8b56-5ed6191da53c","system_id":"levelo_inurba_marseille","lat":43.30468,"lon":5.37901,"is_reserved":false,"is_disabled":false,"rental_uris":{"android":"levelo://app?vid=d797f1e6-f3ca-4ad7-8b56-5ed6191da53c","ios":"levelo://app?vid=d797f1e6-f3ca-4ad7-8b56-5ed6191da53c"},"vehicle_type_id":"4","last_reported":1698599103,"current_range_meters":25600,"station_id":"ce4bgup2rcd13ifvqcn0","pricing_plan_id":"free"},{"bike_id":"d177f840-926d-43b5-b656-8750c3d13e8a","system_id":"levelo_inurba_marseille","lat":43.32484,"lon":5.36568,"is_reserved":false,"is_disabled":false,"rental_uris":{"android":"levelo://app?vid=d177f840-926d-43b5-b656-8750c3d13e8a","ios":"levelo://app?vid=d177f840-926d-43b5-b656-8750c3d13e8a"},"vehicle_type_id":"4","last_reported":1698599103,"current_range_meters":25200,"station_id":"","pricing_plan_id":"free"},{"bike_id":"dd1c0b20-019a-4f88-ae15-bb2c3eed70ed","system_id":"levelo_inurba_marseille","lat":43.31944,"lon":5.381248,"is_reserved":false,"is_disabled":false,"rental_uris":{"android":"levelo://app?vid=dd1c0b20-019a-4f88-ae15-bb2c3eed70ed","ios":"levelo://app?vid=dd1c0b20-019a-4f88-ae15-bb2c3eed70ed"},"vehicle_type_id":"4","last_reported":1698599103,"current_range_meters":0,"station_id":"","pricing_plan_id":"free"},{"bike_id":"6bd9f19f-ae61-41ce-9fb2-5c3b2e354cc6","system_id":"levelo_inurba_marseille","lat":43.30143,"lon":5.37413,"is_reserved":false,"is_disabled":false,"rental_uris":{"android":"levelo://app?vid=6bd9f19f-ae61-41ce-9fb2-5c3b2e354cc6","ios":"levelo://app?vid=6bd9f19f-ae61-41ce-9fb2-5c3b2e354cc6"},"vehicle_type_id":"4","last_reported":1698599103,"current_range_meters":28800,"station_id":"ce4bgs92rcd13ifvqcc0","pricing_plan_id":"free"},{"bike_id":"563c758c-c5d9-4f39-af3a-39eb75d565ff","system_id":"levelo_inurba_marseille","lat":43.30136,"lon":5.37428,"is_reserved":false,"is_disabled":false,"rental_uris":{"android":"levelo://app?vid=563c758c-c5d9-4f39-af3a-39eb75d565ff","ios":"levelo://app?vid=563c758c-c5d9-4f39-af3a-39eb75d565ff"},"vehicle_type_id":"4","last_reported":1698599103,"current_range_meters":26400,"station_id":"ce4bgs92rcd13ifvqcc0","pricing_plan_id":"free"},{"bike_id":"fa281da5-cbff-4267-9bb4-869f4440ed59","system_id":"levelo_inurba_marseille","lat":43.31995,"lon":5.38163,"is_reserved":false,"is_disabled":false,"rental_uris":{"android":"levelo://app?vid=fa281da5-cbff-4267-9bb4-869f4440ed59","ios":"levelo://app?vid=fa281da5-cbff-4267-9bb4-869f4440ed59"},"vehicle_type_id":"4","last_reported":1698599103,"current_range_meters":24800,"station_id":"ce4bhr12rcd13ifvqhpg","pricing_plan_id":"free"},{"bike_id":"d566d787-afe9-4eb3-9ef7-853e514b7af3","system_id":"levelo_inurba_marseille","lat":43.319931,"lon":5.381651,"is_reserved":false,"is_disabled":false,"rental_uris":{"android":"levelo://app?vid=d566d787-afe9-4eb3-9ef7-853e514b7af3","ios":"levelo://app?vid=d566d787-afe9-4eb3-9ef7-853e514b7af3"},"vehicle_type_id":"4","last_reported":1698599103,"current_range_meters":5600,"station_id":"ce4bhr12rcd13ifvqhpg","pricing_plan_id":"free"},{"bike_id":"f12b426b-446c-4944-b5b3-0fb8c353d66c","system_id":"levelo_inurba_marseille","lat":43.29944,"lon":5.36572,"is_reserved":false,"is_disabled":false,"rental_uris":{"android":"levelo://app?vid=f12b426b-446c-4944-b5b3-0fb8c353d66c","ios":"levelo://app?vid=f12b426b-446c-4944-b5b3-0fb8c353d66c"},"vehicle_type_id":"4","last_reported":1698599103,"current_range_meters":0,"station_id":"ce4bgm92rcd13ifvqbr0","pricing_plan_id":"free"},{"bike_id":"59fd7806-45de-48a9-ba5f-51656de295a7","system_id":"levelo_inurba_marseille","lat":43.29932,"lon":5.36555,"is_reserved":false,"is_disabled":false,"rental_uris":{"android":"levelo://app?vid=59fd7806-45de-48a9-ba5f-51656de295a7","ios":"levelo://app?vid=59fd7806-45de-48a9-ba5f-51656de295a7"},"vehicle_type_id":"4","last_reported":1698599103,"current_range_meters":11200,"station_id":"ce4bgm92rcd13ifvqbr0","pricing_plan_id":"free"},{"bike_id":"5ba66772-20b6-408d-a6c3-0df1cd4bb678","system_id":"levelo_inurba_marseille","lat":43.3264,"lon":5.367334,"is_reserved":false,"is_disabled":false,"rental_uris":{"android":"levelo://app?vid=5ba66772-20b6-408d-a6c3-0df1cd4bb678","ios":"levelo://app?vid=5ba66772-20b6-408d-a6c3-0df1cd4bb678"},"vehicle_type_id":"4","last_reported":1698599103,"current_range_meters":13200,"station_id":"","pricing_plan_id":"free"},{"bike_id":"71365ae4-e994-4aac-9cbd-55b0a7553936","system_id":"levelo_inurba_marseille","lat":43.311722,"lon":5.387247,"is_reserved":false,"is_disabled":false,"rental_uris":{"android":"levelo://app?vid=71365ae4-e994-4aac-9cbd-55b0a7553936","ios":"levelo://app?vid=71365ae4-e994-4aac-9cbd-55b0a7553936"},"vehicle_type_id":"4","last_reported":1698599103,"current_range_meters":22400,"station_id":"ce4bgv12rcd13ifvqcp0","pricing_plan_id":"free"},{"bike_id":"adc1ac3b-15dc-4d37-8c5a-6ec429608e4d","system_id":"levelo_inurba_marseille","lat":43.311722,"lon":5.387247,"is_reserved":false,"is_disabled":false,"rental_uris":{"android":"levelo://app?vid=adc1ac3b-15dc-4d37-8c5a-6ec429608e4d","ios":"levelo://app?vid=adc1ac3b-15dc-4d37-8c5a-6ec429608e4d"},"vehicle_type_id":"4","last_reported":1698599103,"current_range_meters":18000,"station_id":"ce4bgv12rcd13ifvqcp0","pricing_plan_id":"free"},{"bike_id":"b1546a83-a693-4c59-8da6-0a364906d1b6","system_id":"levelo_inurba_marseille","lat":43.32827,"lon":5.3669,"is_reserved":false,"is_disabled":false,"rental_uris":{"android":"levelo://app?vid=b1546a83-a693-4c59-8da6-0a364906d1b6","ios":"levelo://app?vid=b1546a83-a693-4c59-8da6-0a364906d1b6"},"vehicle_type_id":"4","last_reported":1698599103,"current_range_meters":20000,"station_id":"ce4bhs92rcd13ifvqi0g","pricing_plan_id":"free"},{"bike_id":"98cdae56-93ed-4430-a8b5-f41663ddefc0","system_id":"levelo_inurba_marseille","lat":43.32828,"lon":5.36673,"is_reserved":false,"is_disabled":false,"rental_uris":{"android":"levelo://app?vid=98cdae56-93ed-4430-a8b5-f41663ddefc0","ios":"levelo://app?vid=98cdae56-93ed-4430-a8b5-f41663ddefc0"},"vehicle_type_id":"4","last_reported":1698599103,"current_range_meters":31200,"station_id":"ce4bhs92rcd13ifvqi0g","pricing_plan_id":"free"},{"bike_id":"5901b0ef-b492-4113-a655-115b27905dca","system_id":"levelo_inurba_marseille","lat":43.3283,"lon":5.3668,"is_reserved":false,"is_disabled":false,"rental_uris":{"android":"levelo://app?vid=5901b0ef-b492-4113-a655-115b27905dca","ios":"levelo://app?vid=5901b0ef-b492-4113-a655-115b27905dca"},"vehicle_type_id":"4","last_reported":1698599103,"current_range_meters":13200,"station_id":"ce4bhs92rcd13ifvqi0g","pricing_plan_id":"free"},{"bike_id":"2bf09692-7151-4aba-9fa7-8ce1d6106004","system_id":"levelo_inurba_marseille","lat":43.328303,"lon":5.366873,"is_reserved":false,"is_disabled":false,"rental_uris":{"android":"levelo://app?vid=2bf09692-7151-4aba-9fa7-8ce1d6106004","ios":"levelo://app?vid=2bf09692-7151-4aba-9fa7-8ce1d6106004"},"vehicle_type_id":"4","last_reported":1698599103,"current_range_meters":8400,"station_id":"","pricing_plan_id":"free"},{"bike_id":"86bb0a20-8123-4e0e-84f3-756c4bdb05df","system_id":"levelo_inurba_marseille","lat":43.32833,"lon":5.3669,"is_reserved":false,"is_disabled":false,"rental_uris":{"android":"levelo://app?vid=86bb0a20-8123-4e0e-84f3-756c4bdb05df","ios":"levelo://app?vid=86bb0a20-8123-4e0e-84f3-756c4bdb05df"},"vehicle_type_id":"4","last_reported":1698599103,"current_range_meters":19600,"station_id":"ce4bhs92rcd13ifvqi0g","pricing_plan_id":"free"},{"bike_id":"16284349-9f61-4ea2-94bf-ae9903493671","system_id":"levelo_inurba_marseille","lat":43.2968,"lon":5.37291,"is_reserved":false,"is_disabled":false,"rental_uris":{"android":"levelo://app?vid=16284349-9f61-4ea2-94bf-ae9903493671","ios":"levelo://app?vid=16284349-9f61-4ea2-94bf-ae9903493671"},"vehicle_type_id":"4","last_reported":1698599103,"current_range_meters":7200,"station_id":"ce4bgk12rcd13ifvqbj0","pricing_plan_id":"free"},{"bike_id":"8c5588d9-2a9e-42d1-b6a9-a9a099810bb7","system_id":"levelo_inurba_marseille","lat":43.296129,"lon":5.370777,"is_reserved":false,"is_disabled":false,"rental_uris":{"android":"levelo://app?vid=8c5588d9-2a9e-42d1-b6a9-a9a099810bb7","ios":"levelo://app?vid=8c5588d9-2a9e-42d1-b6a9-a9a099810bb7"},"vehicle_type_id":"4","last_reported":1698599103,"current_range_meters":10800,"station_id":"ce4bgnh2rcd13ifvqc0g","pricing_plan_id":"free"},{"bike_id":"f3d0381f-7a2d-409e-a12f-bd3d9095653d","system_id":"levelo_inurba_marseille","lat":43.329673,"lon":5.365468,"is_reserved":false,"is_disabled":false,"rental_uris":{"android":"levelo://app?vid=f3d0381f-7a2d-409e-a12f-bd3d9095653d","ios":"levelo://app?vid=f3d0381f-7a2d-409e-a12f-bd3d9095653d"},"vehicle_type_id":"4","last_reported":1698599103,"current_range_meters":800,"station_id":"","pricing_plan_id":"free"},{"bike_id":"24f9f9c1-24f6-4004-a0ac-3248413ab34f","system_id":"levelo_inurba_marseille","lat":43.29586,"lon":5.3752,"is_reserved":false,"is_disabled":false,"rental_uris":{"android":"levelo://app?vid=24f9f9c1-24f6-4004-a0ac-3248413ab34f","ios":"levelo://app?vid=24f9f9c1-24f6-4004-a0ac-3248413ab34f"},"vehicle_type_id":"4","last_reported":1698599103,"current_range_meters":28800,"station_id":"ce4bgh92rcd13ifvqb50","pricing_plan_id":"free"},{"bike_id":"0bfdf15d-f9a0-4352-bfdc-bfcfcd62466b","system_id":"levelo_inurba_marseille","lat":43.298037,"lon":5.381066,"is_reserved":false,"is_disabled":false,"rental_uris":{"android":"levelo://app?vid=0bfdf15d-f9a0-4352-bfdc-bfcfcd62466b","ios":"levelo://app?vid=0bfdf15d-f9a0-4352-bfdc-bfcfcd62466b"},"vehicle_type_id":"4","last_reported":1698599103,"current_range_meters":26800,"station_id":"ce4bgip2rcd13ifvqbb0","pricing_plan_id":"free"},{"bike_id":"494bc181-8b05-41f4-b337-3330c8b226a8","system_id":"levelo_inurba_marseille","lat":43.304274,"lon":5.388873,"is_reserved":false,"is_disabled":false,"rental_uris":{"android":"levelo://app?vid=494bc181-8b05-41f4-b337-3330c8b226a8","ios":"levelo://app?vid=494bc181-8b05-41f4-b337-3330c8b226a8"},"vehicle_type_id":"4","last_reported":1698599103,"current_range_meters":3200,"station_id":"ce4bgk12rcd13ifvqbi0","pricing_plan_id":"free"},{"bike_id":"e27887fa-7b3c-487f-a773-d8e4546a4371","system_id":"levelo_inurba_marseille","lat":43.304274,"lon":5.388873,"is_reserved":false,"is_disabled":false,"rental_uris":{"android":"levelo://app?vid=e27887fa-7b3c-487f-a773-d8e4546a4371","ios":"levelo://app?vid=e27887fa-7b3c-487f-a773-d8e4546a4371"},"vehicle_type_id":"4","last_reported":1698599103,"current_range_meters":20800,"station_id":"ce4bgk12rcd13ifvqbi0","pricing_plan_id":"free"},{"bike_id":"9f723c9d-8430-4336-8d69-2e354d275562","system_id":"levelo_inurba_marseille","lat":43.299707,"lon":5.384859,"is_reserved":false,"is_disabled":false,"rental_uris":{"android":"levelo://app?vid=9f723c9d-8430-4336-8d69-2e354d275562","ios":"levelo://app?vid=9f723c9d-8430-4336-8d69-2e354d275562"},"vehicle_type_id":"4","last_reported":1698599103,"current_range_meters":2400,"station_id":"ce4bgj92rcd13ifvqbd0","pricing_plan_id":"free"},{"bike_id":"ec3f834a-3028-4c8a-8b1b-cdd8efd2eb4b","system_id":"levelo_inurba_marseille","lat":43.299717,"lon":5.384845,"is_reserved":false,"is_disabled":false,"rental_uris":{"android":"levelo://app?vid=ec3f834a-3028-4c8a-8b1b-cdd8efd2eb4b","ios":"levelo://app?vid=ec3f834a-3028-4c8a-8b1b-cdd8efd2eb4b"},"vehicle_type_id":"4","last_reported":1698599103,"current_range_meters":10400,"station_id":"ce4bgj92rcd13ifvqbd0","pricing_plan_id":"free"},{"bike_id":"715eba46-902a-4130-8570-8d0136703dd1","system_id":"levelo_inurba_marseille","lat":43.299717,"lon":5.384845,"is_reserved":false,"is_disabled":false,"rental_uris":{"android":"levelo://app?vid=715eba46-902a-4130-8570-8d0136703dd1","ios":"levelo://app?vid=715eba46-902a-4130-8570-8d0136703dd1"},"vehicle_type_id":"4","last_reported":1698599103,"current_range_meters":29600,"station_id":"ce4bgj92rcd13ifvqbd0","pricing_plan_id":"free"},{"bike_id":"42042886-55e0-4515-80cc-72ac2daa70ee","system_id":"levelo_inurba_marseille","lat":43.32367,"lon":5.38883,"is_reserved":false,"is_disabled":false,"rental_uris":{"android":"levelo://app?vid=42042886-55e0-4515-80cc-72ac2daa70ee","ios":"levelo://app?vid=42042886-55e0-4515-80cc-72ac2daa70ee"},"vehicle_type_id":"4","last_reported":1698599103,"current_range_meters":23600,"station_id":"ce4bhqp2rcd13ifvqhog","pricing_plan_id":"free"},{"bike_id":"57ba4e5f-8472-4f90-8a0d-22a92c8a8e17","system_id":"levelo_inurba_marseille","lat":43.32369,"lon":5.38889,"is_reserved":false,"is_disabled":false,"rental_uris":{"android":"levelo://app?vid=57ba4e5f-8472-4f90-8a0d-22a92c8a8e17","ios":"levelo://app?vid=57ba4e5f-8472-4f90-8a0d-22a92c8a8e17"},"vehicle_type_id":"4","last_reported":1698599103,"current_range_meters":13600,"station_id":"ce4bhqp2rcd13ifvqhog","pricing_plan_id":"free"},{"bike_id":"d752aca3-88bc-4c70-b11b-aaad57c8b10c","system_id":"levelo_inurba_marseille","lat":43.29601,"lon":5.381084,"is_reserved":false,"is_disabled":false,"rental_uris":{"android":"levelo://app?vid=d752aca3-88bc-4c70-b11b-aaad57c8b10c","ios":"levelo://app?vid=d752aca3-88bc-4c70-b11b-aaad57c8b10c"},"vehicle_type_id":"4","last_reported":1698599103,"current_range_meters":9600,"station_id":"ce4bgl12rcd13ifvqbo0","pricing_plan_id":"free"},{"bike_id":"0e345388-d85a-4436-861a-dda3c498a787","system_id":"levelo_inurba_marseille","lat":43.29602,"lon":5.381084,"is_reserved":false,"is_disabled":false,"rental_uris":{"android":"levelo://app?vid=0e345388-d85a-4436-861a-dda3c498a787","ios":"levelo://app?vid=0e345388-d85a-4436-861a-dda3c498a787"},"vehicle_type_id":"4","last_reported":1698599103,"current_range_meters":2000,"station_id":"ce4bgl12rcd13ifvqbo0","pricing_plan_id":"free"},{"bike_id":"13541381-a278-43e0-8612-8f2f0ca7951f","system_id":"levelo_inurba_marseille","lat":43.293038,"lon":5.374562,"is_reserved":false,"is_disabled":false,"rental_uris":{"android":"levelo://app?vid=13541381-a278-43e0-8612-8f2f0ca7951f","ios":"levelo://app?vid=13541381-a278-43e0-8612-8f2f0ca7951f"},"vehicle_type_id":"4","last_reported":1698599103,"current_range_meters":0,"station_id":"ce4bgi12rcd13ifvqb70","pricing_plan_id":"free"},{"bike_id":"c75f1ec8-45da-4158-8d71-e48381dd7f63","system_id":"levelo_inurba_marseille","lat":43.2936,"lon":5.37835,"is_reserved":false,"is_disabled":false,"rental_uris":{"android":"levelo://app?vid=c75f1ec8-45da-4158-8d71-e48381dd7f63","ios":"levelo://app?vid=c75f1ec8-45da-4158-8d71-e48381dd7f63"},"vehicle_type_id":"4","last_reported":1698599103,"current_range_meters":3200,"station_id":"ce4bgjh2rcd13ifvqbf0","pricing_plan_id":"free"},{"bike_id":"9e186f55-d906-4b54-9553-eed70e222375","system_id":"levelo_inurba_marseille","lat":43.330178,"lon":5.382711,"is_reserved":false,"is_disabled":false,"rental_uris":{"android":"levelo://app?vid=9e186f55-d906-4b54-9553-eed70e222375","ios":"levelo://app?vid=9e186f55-d906-4b54-9553-eed70e222375"},"vehicle_type_id":"4","last_reported":1698599103,"current_range_meters":23600,"station_id":"","pricing_plan_id":"free"},{"bike_id":"4fda4ece-fcdb-41d2-9b67-9e9f401ff704","system_id":"levelo_inurba_marseille","lat":43.300852,"lon":5.390859,"is_reserved":false,"is_disabled":false,"rental_uris":{"android":"levelo://app?vid=4fda4ece-fcdb-41d2-9b67-9e9f401ff704","ios":"levelo://app?vid=4fda4ece-fcdb-41d2-9b67-9e9f401ff704"},"vehicle_type_id":"4","last_reported":1698599103,"current_range_meters":12000,"station_id":"ce4bh192rcd13ifvqdb0","pricing_plan_id":"free"},{"bike_id":"1f580447-7b2c-4630-9a51-33e28281b372","system_id":"levelo_inurba_marseille","lat":43.330228,"lon":5.382927,"is_reserved":false,"is_disabled":false,"rental_uris":{"android":"levelo://app?vid=1f580447-7b2c-4630-9a51-33e28281b372","ios":"levelo://app?vid=1f580447-7b2c-4630-9a51-33e28281b372"},"vehicle_type_id":"4","last_reported":1698599103,"current_range_meters":31200,"station_id":"","pricing_plan_id":"free"},{"bike_id":"0e8233d2-0d57-470f-8c07-e9f753046a4f","system_id":"levelo_inurba_marseille","lat":43.332197,"lon":5.379064,"is_reserved":false,"is_disabled":false,"rental_uris":{"android":"levelo://app?vid=0e8233d2-0d57-470f-8c07-e9f753046a4f","ios":"levelo://app?vid=0e8233d2-0d57-470f-8c07-e9f753046a4f"},"vehicle_type_id":"4","last_reported":1698599103,"current_range_meters":28400,"station_id":"","pricing_plan_id":"free"},{"bike_id":"79cf4aeb-0346-4e02-9115-edfed854a479","system_id":"levelo_inurba_marseille","lat":43.31326,"lon":5.39692,"is_reserved":false,"is_disabled":false,"rental_uris":{"android":"levelo://app?vid=79cf4aeb-0346-4e02-9115-edfed854a479","ios":"levelo://app?vid=79cf4aeb-0346-4e02-9115-edfed854a479"},"vehicle_type_id":"4","last_reported":1698599103,"current_range_meters":30400,"station_id":"ce4bgvp2rcd13ifvqcu0","pricing_plan_id":"free"},{"bike_id":"1ccea910-e6fd-4ade-beaa-d1141e72e330","system_id":"levelo_inurba_marseille","lat":43.31331,"lon":5.39697,"is_reserved":false,"is_disabled":false,"rental_uris":{"android":"levelo://app?vid=1ccea910-e6fd-4ade-beaa-d1141e72e330","ios":"levelo://app?vid=1ccea910-e6fd-4ade-beaa-d1141e72e330"},"vehicle_type_id":"4","last_reported":1698599103,"current_range_meters":17600,"station_id":"ce4bgvp2rcd13ifvqcu0","pricing_plan_id":"free"},{"bike_id":"32011ddb-0105-4560-91d6-62cee564d0e4","system_id":"levelo_inurba_marseille","lat":43.29529,"lon":5.385581,"is_reserved":false,"is_disabled":false,"rental_uris":{"android":"levelo://app?vid=32011ddb-0105-4560-91d6-62cee564d0e4","ios":"levelo://app?vid=32011ddb-0105-4560-91d6-62cee564d0e4"},"vehicle_type_id":"4","last_reported":1698599103,"current_range_meters":6000,"station_id":"ce4bgih2rcd13ifvqba0","pricing_plan_id":"free"},{"bike_id":"a2ab31f8-ec71-49b4-a060-5b19cc53406b","system_id":"levelo_inurba_marseille","lat":43.29529,"lon":5.385581,"is_reserved":false,"is_disabled":false,"rental_uris":{"android":"levelo://app?vid=a2ab31f8-ec71-49b4-a060-5b19cc53406b","ios":"levelo://app?vid=a2ab31f8-ec71-49b4-a060-5b19cc53406b"},"vehicle_type_id":"4","last_reported":1698599103,"current_range_meters":22400,"station_id":"ce4bgih2rcd13ifvqba0","pricing_plan_id":"free"},{"bike_id":"b162c1c2-c280-4b91-8d27-715c99d4c8f3","system_id":"levelo_inurba_marseille","lat":43.29529,"lon":5.385581,"is_reserved":false,"is_disabled":false,"rental_uris":{"android":"levelo://app?vid=b162c1c2-c280-4b91-8d27-715c99d4c8f3","ios":"levelo://app?vid=b162c1c2-c280-4b91-8d27-715c99d4c8f3"},"vehicle_type_id":"4","last_reported":1698599103,"current_range_meters":29200,"station_id":"ce4bgih2rcd13ifvqba0","pricing_plan_id":"free"},{"bike_id":"919736fa-b748-4aee-b1f4-34b847f132f2","system_id":"levelo_inurba_marseille","lat":43.289184,"lon":5.366408,"is_reserved":false,"is_disabled":false,"rental_uris":{"android":"levelo://app?vid=919736fa-b748-4aee-b1f4-34b847f132f2","ios":"levelo://app?vid=919736fa-b748-4aee-b1f4-34b847f132f2"},"vehicle_type_id":"4","last_reported":1698599103,"current_range_meters":17600,"station_id":"ce4bhap2rcd13ifvqek0","pricing_plan_id":"free"},{"bike_id":"26c805aa-73c4-408a-ac53-673b556ffb95","system_id":"levelo_inurba_marseille","lat":43.289184,"lon":5.366408,"is_reserved":false,"is_disabled":false,"rental_uris":{"android":"levelo://app?vid=26c805aa-73c4-408a-ac53-673b556ffb95","ios":"levelo://app?vid=26c805aa-73c4-408a-ac53-673b556ffb95"},"vehicle_type_id":"4","last_reported":1698599103,"current_range_meters":29600,"station_id":"ce4bhap2rcd13ifvqek0","pricing_plan_id":"free"},{"bike_id":"e1f466e7-e182-4f6b-89db-0d85cfb51f1c","system_id":"levelo_inurba_marseille","lat":43.290327,"lon":5.375711,"is_reserved":false,"is_disabled":false,"rental_uris":{"android":"levelo://app?vid=e1f466e7-e182-4f6b-89db-0d85cfb51f1c","ios":"levelo://app?vid=e1f466e7-e182-4f6b-89db-0d85cfb51f1c"},"vehicle_type_id":"4","last_reported":1698599103,"current_range_meters":16000,"station_id":"ce4bh692rcd13ifvqe90","pricing_plan_id":"free"},{"bike_id":"be73f177-d618-4d0d-8c07-86ddfe83614c","system_id":"levelo_inurba_marseille","lat":43.289184,"lon":5.366408,"is_reserved":false,"is_disabled":false,"rental_uris":{"android":"levelo://app?vid=be73f177-d618-4d0d-8c07-86ddfe83614c","ios":"levelo://app?vid=be73f177-d618-4d0d-8c07-86ddfe83614c"},"vehicle_type_id":"4","last_reported":1698599103,"current_range_meters":18400,"station_id":"ce4bhap2rcd13ifvqek0","pricing_plan_id":"free"},{"bike_id":"8f474ecf-d102-4e57-af4a-8e5dfe533136","system_id":"levelo_inurba_marseille","lat":43.2927,"lon":5.38449,"is_reserved":false,"is_disabled":false,"rental_uris":{"android":"levelo://app?vid=8f474ecf-d102-4e57-af4a-8e5dfe533136","ios":"levelo://app?vid=8f474ecf-d102-4e57-af4a-8e5dfe533136"},"vehicle_type_id":"4","last_reported":1698599103,"current_range_meters":22400,"station_id":"","pricing_plan_id":"free"},{"bike_id":"4477084d-efeb-4b5b-b8b9-9711d64db7b3","system_id":"levelo_inurba_marseille","lat":43.32861,"lon":5.39126,"is_reserved":false,"is_disabled":false,"rental_uris":{"android":"levelo://app?vid=4477084d-efeb-4b5b-b8b9-9711d64db7b3","ios":"levelo://app?vid=4477084d-efeb-4b5b-b8b9-9711d64db7b3"},"vehicle_type_id":"4","last_reported":1698599103,"current_range_meters":12800,"station_id":"","pricing_plan_id":"free"},{"bike_id":"8ec8b72c-dd6f-469d-aee0-017da7f125f4","system_id":"levelo_inurba_marseille","lat":43.330442,"lon":5.389148,"is_reserved":false,"is_disabled":false,"rental_uris":{"android":"levelo://app?vid=8ec8b72c-dd6f-469d-aee0-017da7f125f4","ios":"levelo://app?vid=8ec8b72c-dd6f-469d-aee0-017da7f125f4"},"vehicle_type_id":"4","last_reported":1698599103,"current_range_meters":6000,"station_id":"ce4bhr92rcd13ifvqhrg","pricing_plan_id":"free"},{"bike_id":"e0d713cd-ec81-44ec-8ba4-571dd76a2b05","system_id":"levelo_inurba_marseille","lat":43.295169,"lon":5.390426,"is_reserved":false,"is_disabled":false,"rental_uris":{"android":"levelo://app?vid=e0d713cd-ec81-44ec-8ba4-571dd76a2b05","ios":"levelo://app?vid=e0d713cd-ec81-44ec-8ba4-571dd76a2b05"},"vehicle_type_id":"4","last_reported":1698599103,"current_range_meters":24000,"station_id":"ce4bh3p2rcd13ifvqdp0","pricing_plan_id":"free"},{"bike_id":"b70ec157-9762-488a-aa11-737398ca8939","system_id":"levelo_inurba_marseille","lat":43.295169,"lon":5.390426,"is_reserved":false,"is_disabled":false,"rental_uris":{"android":"levelo://app?vid=b70ec157-9762-488a-aa11-737398ca8939","ios":"levelo://app?vid=b70ec157-9762-488a-aa11-737398ca8939"},"vehicle_type_id":"4","last_reported":1698599103,"current_range_meters":30800,"station_id":"ce4bh3p2rcd13ifvqdp0","pricing_plan_id":"free"},{"bike_id":"af286a6d-d49b-4114-a047-9052cd19f331","system_id":"levelo_inurba_marseille","lat":43.297933,"lon":5.393524,"is_reserved":false,"is_disabled":false,"rental_uris":{"android":"levelo://app?vid=af286a6d-d49b-4114-a047-9052cd19f331","ios":"levelo://app?vid=af286a6d-d49b-4114-a047-9052cd19f331"},"vehicle_type_id":"4","last_reported":1698599103,"current_range_meters":0,"station_id":"chh1huq6cuj3fo74tm60","pricing_plan_id":"free"},{"bike_id":"c7e7f7a9-c423-4b95-b76d-c4cf83e7080c","system_id":"levelo_inurba_marseille","lat":43.30932,"lon":5.40145,"is_reserved":false,"is_disabled":false,"rental_uris":{"android":"levelo://app?vid=c7e7f7a9-c423-4b95-b76d-c4cf83e7080c","ios":"levelo://app?vid=c7e7f7a9-c423-4b95-b76d-c4cf83e7080c"},"vehicle_type_id":"4","last_reported":1698599103,"current_range_meters":18800,"station_id":"ce4bgvp2rcd13ifvqct0","pricing_plan_id":"free"},{"bike_id":"ffc3fe4d-9429-4086-94ef-8f19136b3b3f","system_id":"levelo_inurba_marseille","lat":43.33752,"lon":5.37449,"is_reserved":false,"is_disabled":false,"rental_uris":{"android":"levelo://app?vid=ffc3fe4d-9429-4086-94ef-8f19136b3b3f","ios":"levelo://app?vid=ffc3fe4d-9429-4086-94ef-8f19136b3b3f"},"vehicle_type_id":"4","last_reported":1698599103,"current_range_meters":29600,"station_id":"","pricing_plan_id":"free"},{"bike_id":"b231822a-119b-4312-911c-e2fb07219e92","system_id":"levelo_inurba_marseille","lat":43.337616,"lon":5.374595,"is_reserved":false,"is_disabled":false,"rental_uris":{"android":"levelo://app?vid=b231822a-119b-4312-911c-e2fb07219e92","ios":"levelo://app?vid=b231822a-119b-4312-911c-e2fb07219e92"},"vehicle_type_id":"4","last_reported":1698599103,"current_range_meters":28000,"station_id":"","pricing_plan_id":"free"},{"bike_id":"5bb8ccfc-86f7-420e-b65d-7e2d3e42d09b","system_id":"levelo_inurba_marseille","lat":43.28727,"lon":5.36078,"is_reserved":false,"is_disabled":false,"rental_uris":{"android":"levelo://app?vid=5bb8ccfc-86f7-420e-b65d-7e2d3e42d09b","ios":"levelo://app?vid=5bb8ccfc-86f7-420e-b65d-7e2d3e42d09b"},"vehicle_type_id":"4","last_reported":1698599103,"current_range_meters":28000,"station_id":"cki0cbj6b192h4jlfktg","pricing_plan_id":"free"},{"bike_id":"43b5dd9f-0023-45f5-8d09-e73b6bd245a1","system_id":"levelo_inurba_marseille","lat":43.295194,"lon":5.39397,"is_reserved":false,"is_disabled":false,"rental_uris":{"android":"levelo://app?vid=43b5dd9f-0023-45f5-8d09-e73b6bd245a1","ios":"levelo://app?vid=43b5dd9f-0023-45f5-8d09-e73b6bd245a1"},"vehicle_type_id":"4","last_reported":1698599103,"current_range_meters":23200,"station_id":"ce4bh292rcd13ifvqdf0","pricing_plan_id":"free"},{"bike_id":"c3f7d982-d22b-4392-b527-ad862068d9a0","system_id":"levelo_inurba_marseille","lat":43.29031,"lon":5.38641,"is_reserved":false,"is_disabled":false,"rental_uris":{"android":"levelo://app?vid=c3f7d982-d22b-4392-b527-ad862068d9a0","ios":"levelo://app?vid=c3f7d982-d22b-4392-b527-ad862068d9a0"},"vehicle_type_id":"4","last_reported":1698599103,"current_range_meters":16000,"station_id":"ce4bh4p2rcd13ifvqe0g","pricing_plan_id":"free"},{"bike_id":"cf735906-fe83-4259-bccc-488ec3b49a64","system_id":"levelo_inurba_marseille","lat":43.29029,"lon":5.38646,"is_reserved":false,"is_disabled":false,"rental_uris":{"android":"levelo://app?vid=cf735906-fe83-4259-bccc-488ec3b49a64","ios":"levelo://app?vid=cf735906-fe83-4259-bccc-488ec3b49a64"},"vehicle_type_id":"4","last_reported":1698599103,"current_range_meters":13600,"station_id":"ce4bh4p2rcd13ifvqe0g","pricing_plan_id":"free"},{"bike_id":"7982267a-4131-4979-915f-725d6cbc9677","system_id":"levelo_inurba_marseille","lat":43.302759,"lon":5.400793,"is_reserved":false,"is_disabled":false,"rental_uris":{"android":"levelo://app?vid=7982267a-4131-4979-915f-725d6cbc9677","ios":"levelo://app?vid=7982267a-4131-4979-915f-725d6cbc9677"},"vehicle_type_id":"4","last_reported":1698599103,"current_range_meters":21600,"station_id":"ce4bgvh2rcd13ifvqcs0","pricing_plan_id":"free"},{"bike_id":"fd421d39-4443-46cc-8596-30204374b258","system_id":"levelo_inurba_marseille","lat":43.28917,"lon":5.38417,"is_reserved":false,"is_disabled":false,"rental_uris":{"android":"levelo://app?vid=fd421d39-4443-46cc-8596-30204374b258","ios":"levelo://app?vid=fd421d39-4443-46cc-8596-30204374b258"},"vehicle_type_id":"4","last_reported":1698599103,"current_range_meters":20800,"station_id":"ce4bh612rcd13ifvqe6g","pricing_plan_id":"free"},{"bike_id":"56dce50a-5fce-48dc-a9f1-3e39a230c0d6","system_id":"levelo_inurba_marseille","lat":43.286039,"lon":5.370679,"is_reserved":false,"is_disabled":false,"rental_uris":{"android":"levelo://app?vid=56dce50a-5fce-48dc-a9f1-3e39a230c0d6","ios":"levelo://app?vid=56dce50a-5fce-48dc-a9f1-3e39a230c0d6"},"vehicle_type_id":"4","last_reported":1698599103,"current_range_meters":31200,"station_id":"ce4bht12rcd13ifvqi60","pricing_plan_id":"free"},{"bike_id":"98f15d0e-1f5b-4708-bde8-d593b88a9b9a","system_id":"levelo_inurba_marseille","lat":43.286039,"lon":5.370679,"is_reserved":false,"is_disabled":false,"rental_uris":{"android":"levelo://app?vid=98f15d0e-1f5b-4708-bde8-d593b88a9b9a","ios":"levelo://app?vid=98f15d0e-1f5b-4708-bde8-d593b88a9b9a"},"vehicle_type_id":"4","last_reported":1698599103,"current_range_meters":29600,"station_id":"ce4bht12rcd13ifvqi60","pricing_plan_id":"free"},{"bike_id":"af800ffb-88fd-463b-98a6-c5a215ad676e","system_id":"levelo_inurba_marseille","lat":43.28608,"lon":5.37065,"is_reserved":false,"is_disabled":false,"rental_uris":{"android":"levelo://app?vid=af800ffb-88fd-463b-98a6-c5a215ad676e","ios":"levelo://app?vid=af800ffb-88fd-463b-98a6-c5a215ad676e"},"vehicle_type_id":"4","last_reported":1698599103,"current_range_meters":30800,"station_id":"ce4bht12rcd13ifvqi60","pricing_plan_id":"free"},{"bike_id":"5785d5af-4448-420e-9fc0-f48a3523e989","system_id":"levelo_inurba_marseille","lat":43.287185,"lon":5.379373,"is_reserved":false,"is_disabled":false,"rental_uris":{"android":"levelo://app?vid=5785d5af-4448-420e-9fc0-f48a3523e989","ios":"levelo://app?vid=5785d5af-4448-420e-9fc0-f48a3523e989"},"vehicle_type_id":"4","last_reported":1698599103,"current_range_meters":400,"station_id":"ce4bh9p2rcd13ifvqec0","pricing_plan_id":"free"},{"bike_id":"335f2365-fcaa-49e6-af13-6ec64c37a16f","system_id":"levelo_inurba_marseille","lat":43.29197,"lon":5.39323,"is_reserved":false,"is_disabled":false,"rental_uris":{"android":"levelo://app?vid=335f2365-fcaa-49e6-af13-6ec64c37a16f","ios":"levelo://app?vid=335f2365-fcaa-49e6-af13-6ec64c37a16f"},"vehicle_type_id":"4","last_reported":1698599103,"current_range_meters":16800,"station_id":"ce4bh192rcd13ifvqdd0","pricing_plan_id":"free"},{"bike_id":"b5838720-51fc-4e75-b505-4424ce7c9e78","system_id":"levelo_inurba_marseille","lat":43.294314,"lon":5.397498,"is_reserved":false,"is_disabled":false,"rental_uris":{"android":"levelo://app?vid=b5838720-51fc-4e75-b505-4424ce7c9e78","ios":"levelo://app?vid=b5838720-51fc-4e75-b505-4424ce7c9e78"},"vehicle_type_id":"4","last_reported":1698599103,"current_range_meters":400,"station_id":"ce4bh3h2rcd13ifvqdo0","pricing_plan_id":"free"},{"bike_id":"221223a7-d328-4e18-a83a-462ac224d99f","system_id":"levelo_inurba_marseille","lat":43.28431,"lon":5.35801,"is_reserved":false,"is_disabled":false,"rental_uris":{"android":"levelo://app?vid=221223a7-d328-4e18-a83a-462ac224d99f","ios":"levelo://app?vid=221223a7-d328-4e18-a83a-462ac224d99f"},"vehicle_type_id":"4","last_reported":1698599103,"current_range_meters":4400,"station_id":"","pricing_plan_id":"free"},{"bike_id":"c7ac1628-14e4-4548-bd45-6f91d98b9586","system_id":"levelo_inurba_marseille","lat":43.28402,"lon":5.37573,"is_reserved":false,"is_disabled":false,"rental_uris":{"android":"levelo://app?vid=c7ac1628-14e4-4548-bd45-6f91d98b9586","ios":"levelo://app?vid=c7ac1628-14e4-4548-bd45-6f91d98b9586"},"vehicle_type_id":"4","last_reported":1698599103,"current_range_meters":10800,"station_id":"","pricing_plan_id":"free"},{"bike_id":"9a108855-5e8e-4e3c-810f-211a3e2b706a","system_id":"levelo_inurba_marseille","lat":43.295713,"lon":5.399639,"is_reserved":false,"is_disabled":false,"rental_uris":{"android":"levelo://app?vid=9a108855-5e8e-4e3c-810f-211a3e2b706a","ios":"levelo://app?vid=9a108855-5e8e-4e3c-810f-211a3e2b706a"},"vehicle_type_id":"4","last_reported":1698599103,"current_range_meters":12000,"station_id":"ce4bh312rcd13ifvqdj0","pricing_plan_id":"free"},{"bike_id":"4201733d-334a-4d75-ae74-bdceafd77b4b","system_id":"levelo_inurba_marseille","lat":43.286595,"lon":5.386795,"is_reserved":false,"is_disabled":false,"rental_uris":{"android":"levelo://app?vid=4201733d-334a-4d75-ae74-bdceafd77b4b","ios":"levelo://app?vid=4201733d-334a-4d75-ae74-bdceafd77b4b"},"vehicle_type_id":"4","last_reported":1698599103,"current_range_meters":16000,"station_id":"ce4bh492rcd13ifvqdug","pricing_plan_id":"free"},{"bike_id":"15bdef24-340e-4fcc-8b69-a97001c44759","system_id":"levelo_inurba_marseille","lat":43.339646,"lon":5.384935,"is_reserved":false,"is_disabled":false,"rental_uris":{"android":"levelo://app?vid=15bdef24-340e-4fcc-8b69-a97001c44759","ios":"levelo://app?vid=15bdef24-340e-4fcc-8b69-a97001c44759"},"vehicle_type_id":"4","last_reported":1698599103,"current_range_meters":31200,"station_id":"","pricing_plan_id":"free"},{"bike_id":"54f19489-0ac3-408e-8e59-d4741d8410d5","system_id":"levelo_inurba_marseille","lat":43.323464,"lon":5.406297,"is_reserved":false,"is_disabled":false,"rental_uris":{"android":"levelo://app?vid=54f19489-0ac3-408e-8e59-d4741d8410d5","ios":"levelo://app?vid=54f19489-0ac3-408e-8e59-d4741d8410d5"},"vehicle_type_id":"4","last_reported":1698599103,"current_range_meters":19600,"station_id":"ce4bhq92rcd13ifvqhjg","pricing_plan_id":"free"},{"bike_id":"bcb546f4-68cc-4173-8ef6-4b8ad9b068c1","system_id":"levelo_inurba_marseille","lat":43.28489,"lon":5.38415,"is_reserved":false,"is_disabled":false,"rental_uris":{"android":"levelo://app?vid=bcb546f4-68cc-4173-8ef6-4b8ad9b068c1","ios":"levelo://app?vid=bcb546f4-68cc-4173-8ef6-4b8ad9b068c1"},"vehicle_type_id":"4","last_reported":1698599103,"current_range_meters":13600,"station_id":"ce4bh512rcd13ifvqe3g","pricing_plan_id":"free"},{"bike_id":"2fea6078-2924-4b30-acb7-44501ce97c4c","system_id":"levelo_inurba_marseille","lat":43.28482,"lon":5.38428,"is_reserved":false,"is_disabled":false,"rental_uris":{"android":"levelo://app?vid=2fea6078-2924-4b30-acb7-44501ce97c4c","ios":"levelo://app?vid=2fea6078-2924-4b30-acb7-44501ce97c4c"},"vehicle_type_id":"4","last_reported":1698599103,"current_range_meters":17200,"station_id":"ce4bh512rcd13ifvqe3g","pricing_plan_id":"free"},{"bike_id":"f2a275da-d094-4097-b626-58a812df1dda","system_id":"levelo_inurba_marseille","lat":43.28478,"lon":5.38423,"is_reserved":false,"is_disabled":false,"rental_uris":{"android":"levelo://app?vid=f2a275da-d094-4097-b626-58a812df1dda","ios":"levelo://app?vid=f2a275da-d094-4097-b626-58a812df1dda"},"vehicle_type_id":"4","last_reported":1698599103,"current_range_meters":30000,"station_id":"ce4bh512rcd13ifvqe3g","pricing_plan_id":"free"},{"bike_id":"a914f97a-b092-46c6-ba0c-225a966c1b35","system_id":"levelo_inurba_marseille","lat":43.297946,"lon":5.404063,"is_reserved":false,"is_disabled":false,"rental_uris":{"android":"levelo://app?vid=a914f97a-b092-46c6-ba0c-225a966c1b35","ios":"levelo://app?vid=a914f97a-b092-46c6-ba0c-225a966c1b35"},"vehicle_type_id":"4","last_reported":1698599103,"current_range_meters":30400,"station_id":"ce4bh112rcd13ifvqd90","pricing_plan_id":"free"},{"bike_id":"ce075992-b44c-49ea-9974-08af6bbeda0e","system_id":"levelo_inurba_marseille","lat":43.283494,"lon":5.380945,"is_reserved":false,"is_disabled":false,"rental_uris":{"android":"levelo://app?vid=ce075992-b44c-49ea-9974-08af6bbeda0e","ios":"levelo://app?vid=ce075992-b44c-49ea-9974-08af6bbeda0e"},"vehicle_type_id":"4","last_reported":1698599103,"current_range_meters":16000,"station_id":"ce4bh412rcd13ifvqdr0","pricing_plan_id":"free"},{"bike_id":"2f666bbb-190f-4291-ade2-95e2c0cfd815","system_id":"levelo_inurba_marseille","lat":43.325281,"lon":5.405683,"is_reserved":false,"is_disabled":false,"rental_uris":{"android":"levelo://app?vid=2f666bbb-190f-4291-ade2-95e2c0cfd815","ios":"levelo://app?vid=2f666bbb-190f-4291-ade2-95e2c0cfd815"},"vehicle_type_id":"4","last_reported":1698599103,"current_range_meters":13600,"station_id":"","pricing_plan_id":"free"},{"bike_id":"9355982d-d521-4e21-9940-6bae7d14e3d7","system_id":"levelo_inurba_marseille","lat":43.282754,"lon":5.350519,"is_reserved":false,"is_disabled":false,"rental_uris":{"android":"levelo://app?vid=9355982d-d521-4e21-9940-6bae7d14e3d7","ios":"levelo://app?vid=9355982d-d521-4e21-9940-6bae7d14e3d7"},"vehicle_type_id":"4","last_reported":1698599103,"current_range_meters":6400,"station_id":"ce4bhbp2rcd13ifvqerg","pricing_plan_id":"free"},{"bike_id":"d73bb58b-5938-461e-b548-66f318f697d6","system_id":"levelo_inurba_marseille","lat":43.28039,"lon":5.36948,"is_reserved":false,"is_disabled":false,"rental_uris":{"android":"levelo://app?vid=d73bb58b-5938-461e-b548-66f318f697d6","ios":"levelo://app?vid=d73bb58b-5938-461e-b548-66f318f697d6"},"vehicle_type_id":"4","last_reported":1698599103,"current_range_meters":20800,"station_id":"ce4bha12rcd13ifvqef0","pricing_plan_id":"free"},{"bike_id":"090856c6-0136-44e9-b033-5a4560a770ec","system_id":"levelo_inurba_marseille","lat":43.282744,"lon":5.350533,"is_reserved":false,"is_disabled":false,"rental_uris":{"android":"levelo://app?vid=090856c6-0136-44e9-b033-5a4560a770ec","ios":"levelo://app?vid=090856c6-0136-44e9-b033-5a4560a770ec"},"vehicle_type_id":"4","last_reported":1698599103,"current_range_meters":23600,"station_id":"ce4bhbp2rcd13ifvqerg","pricing_plan_id":"free"},{"bike_id":"84be0fc2-24c1-430e-b614-cd6e48bfbcc4","system_id":"levelo_inurba_marseille","lat":43.28038,"lon":5.369398,"is_reserved":false,"is_disabled":false,"rental_uris":{"android":"levelo://app?vid=84be0fc2-24c1-430e-b614-cd6e48bfbcc4","ios":"levelo://app?vid=84be0fc2-24c1-430e-b614-cd6e48bfbcc4"},"vehicle_type_id":"4","last_reported":1698599103,"current_range_meters":30400,"station_id":"ce4bha12rcd13ifvqef0","pricing_plan_id":"free"},{"bike_id":"96f59870-809f-4e3a-820b-32073ad75ff5","system_id":"levelo_inurba_marseille","lat":43.280382,"lon":5.369291,"is_reserved":false,"is_disabled":false,"rental_uris":{"android":"levelo://app?vid=96f59870-809f-4e3a-820b-32073ad75ff5","ios":"levelo://app?vid=96f59870-809f-4e3a-820b-32073ad75ff5"},"vehicle_type_id":"4","last_reported":1698599103,"current_range_meters":24800,"station_id":"ce4bha12rcd13ifvqef0","pricing_plan_id":"free"},{"bike_id":"ebf523b8-ad13-45fe-8958-490dff24f411","system_id":"levelo_inurba_marseille","lat":43.28039,"lon":5.369297,"is_reserved":false,"is_disabled":false,"rental_uris":{"android":"levelo://app?vid=ebf523b8-ad13-45fe-8958-490dff24f411","ios":"levelo://app?vid=ebf523b8-ad13-45fe-8958-490dff24f411"},"vehicle_type_id":"4","last_reported":1698599103,"current_range_meters":31200,"station_id":"ce4bha12rcd13ifvqef0","pricing_plan_id":"free"},{"bike_id":"e6b56964-523c-4523-b901-9f05cbc3a9c1","system_id":"levelo_inurba_marseille","lat":43.30365,"lon":5.40995,"is_reserved":false,"is_disabled":false,"rental_uris":{"android":"levelo://app?vid=e6b56964-523c-4523-b901-9f05cbc3a9c1","ios":"levelo://app?vid=e6b56964-523c-4523-b901-9f05cbc3a9c1"},"vehicle_type_id":"4","last_reported":1698599103,"current_range_meters":4000,"station_id":"","pricing_plan_id":"free"},{"bike_id":"1ca242fe-6084-4f9b-8b54-35d465872844","system_id":"levelo_inurba_marseille","lat":43.29041,"lon":5.399634,"is_reserved":false,"is_disabled":false,"rental_uris":{"android":"levelo://app?vid=1ca242fe-6084-4f9b-8b54-35d465872844","ios":"levelo://app?vid=1ca242fe-6084-4f9b-8b54-35d465872844"},"vehicle_type_id":"4","last_reported":1698599103,"current_range_meters":21200,"station_id":"ce4bh392rcd13ifvqdm0","pricing_plan_id":"free"},{"bike_id":"d445e7dc-8f39-4198-8d15-1838ad42556e","system_id":"levelo_inurba_marseille","lat":43.296263,"lon":5.40601,"is_reserved":false,"is_disabled":false,"rental_uris":{"android":"levelo://app?vid=d445e7dc-8f39-4198-8d15-1838ad42556e","ios":"levelo://app?vid=d445e7dc-8f39-4198-8d15-1838ad42556e"},"vehicle_type_id":"4","last_reported":1698599103,"current_range_meters":20400,"station_id":"ce4bh0h2rcd13ifvqd60","pricing_plan_id":"free"},{"bike_id":"9111ed81-3a47-4097-bccb-f6e724677ffd","system_id":"levelo_inurba_marseille","lat":43.281044,"lon":5.378308,"is_reserved":false,"is_disabled":false,"rental_uris":{"android":"levelo://app?vid=9111ed81-3a47-4097-bccb-f6e724677ffd","ios":"levelo://app?vid=9111ed81-3a47-4097-bccb-f6e724677ffd"},"vehicle_type_id":"4","last_reported":1698599103,"current_range_meters":22400,"station_id":"ce4bha12rcd13ifvqee0","pricing_plan_id":"free"},{"bike_id":"2ff4290a-953b-40dc-9c7e-2436150f81c2","system_id":"levelo_inurba_marseille","lat":43.281489,"lon":5.383484,"is_reserved":false,"is_disabled":false,"rental_uris":{"android":"levelo://app?vid=2ff4290a-953b-40dc-9c7e-2436150f81c2","ios":"levelo://app?vid=2ff4290a-953b-40dc-9c7e-2436150f81c2"},"vehicle_type_id":"4","last_reported":1698599103,"current_range_meters":3600,"station_id":"","pricing_plan_id":"free"},{"bike_id":"fdbecf5d-a9e3-4e3b-8684-0b7b1460ce9f","system_id":"levelo_inurba_marseille","lat":43.284462,"lon":5.392121,"is_reserved":false,"is_disabled":false,"rental_uris":{"android":"levelo://app?vid=fdbecf5d-a9e3-4e3b-8684-0b7b1460ce9f","ios":"levelo://app?vid=fdbecf5d-a9e3-4e3b-8684-0b7b1460ce9f"},"vehicle_type_id":"4","last_reported":1698599103,"current_range_meters":31200,"station_id":"ce4bhoh2rcd13ifvqh5g","pricing_plan_id":"free"},{"bike_id":"5b5181b4-2397-4f6a-8141-49310495e594","system_id":"levelo_inurba_marseille","lat":43.284462,"lon":5.392121,"is_reserved":false,"is_disabled":false,"rental_uris":{"android":"levelo://app?vid=5b5181b4-2397-4f6a-8141-49310495e594","ios":"levelo://app?vid=5b5181b4-2397-4f6a-8141-49310495e594"},"vehicle_type_id":"4","last_reported":1698599103,"current_range_meters":20000,"station_id":"ce4bhoh2rcd13ifvqh5g","pricing_plan_id":"free"},{"bike_id":"a5a08c84-4f54-4307-84ab-ac8225c08e6b","system_id":"levelo_inurba_marseille","lat":43.28444,"lon":5.39206,"is_reserved":false,"is_disabled":false,"rental_uris":{"android":"levelo://app?vid=a5a08c84-4f54-4307-84ab-ac8225c08e6b","ios":"levelo://app?vid=a5a08c84-4f54-4307-84ab-ac8225c08e6b"},"vehicle_type_id":"4","last_reported":1698599103,"current_range_meters":23200,"station_id":"ce4bhoh2rcd13ifvqh5g","pricing_plan_id":"free"},{"bike_id":"13a0d3c5-bf85-496d-8b89-9c3efc24360e","system_id":"levelo_inurba_marseille","lat":43.28442,"lon":5.39203,"is_reserved":false,"is_disabled":false,"rental_uris":{"android":"levelo://app?vid=13a0d3c5-bf85-496d-8b89-9c3efc24360e","ios":"levelo://app?vid=13a0d3c5-bf85-496d-8b89-9c3efc24360e"},"vehicle_type_id":"4","last_reported":1698599103,"current_range_meters":31200,"station_id":"ce4bhoh2rcd13ifvqh5g","pricing_plan_id":"free"},{"bike_id":"033d364e-7169-4285-b12a-2506fb033341","system_id":"levelo_inurba_marseille","lat":43.284462,"lon":5.392121,"is_reserved":false,"is_disabled":false,"rental_uris":{"android":"levelo://app?vid=033d364e-7169-4285-b12a-2506fb033341","ios":"levelo://app?vid=033d364e-7169-4285-b12a-2506fb033341"},"vehicle_type_id":"4","last_reported":1698599103,"current_range_meters":31200,"station_id":"ce4bhoh2rcd13ifvqh5g","pricing_plan_id":"free"},{"bike_id":"5b145b5c-2448-4b06-ad7d-667870f368db","system_id":"levelo_inurba_marseille","lat":43.284373,"lon":5.391955,"is_reserved":false,"is_disabled":false,"rental_uris":{"android":"levelo://app?vid=5b145b5c-2448-4b06-ad7d-667870f368db","ios":"levelo://app?vid=5b145b5c-2448-4b06-ad7d-667870f368db"},"vehicle_type_id":"4","last_reported":1698599103,"current_range_meters":31200,"station_id":"ce4bhoh2rcd13ifvqh5g","pricing_plan_id":"free"},{"bike_id":"529b58c3-dfb5-40ec-843f-7a0d16102aaf","system_id":"levelo_inurba_marseille","lat":43.279087,"lon":5.380114,"is_reserved":false,"is_disabled":false,"rental_uris":{"android":"levelo://app?vid=529b58c3-dfb5-40ec-843f-7a0d16102aaf","ios":"levelo://app?vid=529b58c3-dfb5-40ec-843f-7a0d16102aaf"},"vehicle_type_id":"4","last_reported":1698599103,"current_range_meters":14400,"station_id":"ce4bhf92rcd13ifvqf50","pricing_plan_id":"free"},{"bike_id":"6d2268cf-0a9d-4db7-88e3-238bb0f57453","system_id":"levelo_inurba_marseille","lat":43.287154,"lon":5.399979,"is_reserved":false,"is_disabled":false,"rental_uris":{"android":"levelo://app?vid=6d2268cf-0a9d-4db7-88e3-238bb0f57453","ios":"levelo://app?vid=6d2268cf-0a9d-4db7-88e3-238bb0f57453"},"vehicle_type_id":"4","last_reported":1698599103,"current_range_meters":4800,"station_id":"ce4bho92rcd13ifvqh3g","pricing_plan_id":"free"},{"bike_id":"6b45710c-f6d6-42d7-960b-1cd0cb381dbc","system_id":"levelo_inurba_marseille","lat":43.287154,"lon":5.399979,"is_reserved":false,"is_disabled":false,"rental_uris":{"android":"levelo://app?vid=6b45710c-f6d6-42d7-960b-1cd0cb381dbc","ios":"levelo://app?vid=6b45710c-f6d6-42d7-960b-1cd0cb381dbc"},"vehicle_type_id":"4","last_reported":1698599103,"current_range_meters":11200,"station_id":"ce4bho92rcd13ifvqh3g","pricing_plan_id":"free"},{"bike_id":"07459237-e964-4432-a753-0ee233c150de","system_id":"levelo_inurba_marseille","lat":43.287154,"lon":5.399979,"is_reserved":false,"is_disabled":false,"rental_uris":{"android":"levelo://app?vid=07459237-e964-4432-a753-0ee233c150de","ios":"levelo://app?vid=07459237-e964-4432-a753-0ee233c150de"},"vehicle_type_id":"4","last_reported":1698599103,"current_range_meters":23200,"station_id":"ce4bho92rcd13ifvqh3g","pricing_plan_id":"free"},{"bike_id":"f379e41f-c149-468c-ad00-71e7ed7347f5","system_id":"levelo_inurba_marseille","lat":43.287154,"lon":5.399979,"is_reserved":false,"is_disabled":false,"rental_uris":{"android":"levelo://app?vid=f379e41f-c149-468c-ad00-71e7ed7347f5","ios":"levelo://app?vid=f379e41f-c149-468c-ad00-71e7ed7347f5"},"vehicle_type_id":"4","last_reported":1698599103,"current_range_meters":20400,"station_id":"ce4bho92rcd13ifvqh3g","pricing_plan_id":"free"},{"bike_id":"060ed287-3855-4783-a971-1e3b21dfc29f","system_id":"levelo_inurba_marseille","lat":43.287154,"lon":5.399979,"is_reserved":false,"is_disabled":false,"rental_uris":{"android":"levelo://app?vid=060ed287-3855-4783-a971-1e3b21dfc29f","ios":"levelo://app?vid=060ed287-3855-4783-a971-1e3b21dfc29f"},"vehicle_type_id":"4","last_reported":1698599103,"current_range_meters":25600,"station_id":"ce4bho92rcd13ifvqh3g","pricing_plan_id":"free"},{"bike_id":"e0d3109b-a114-498d-96a6-6559be8eb245","system_id":"levelo_inurba_marseille","lat":43.287154,"lon":5.399979,"is_reserved":false,"is_disabled":false,"rental_uris":{"android":"levelo://app?vid=e0d3109b-a114-498d-96a6-6559be8eb245","ios":"levelo://app?vid=e0d3109b-a114-498d-96a6-6559be8eb245"},"vehicle_type_id":"4","last_reported":1698599103,"current_range_meters":5200,"station_id":"ce4bho92rcd13ifvqh3g","pricing_plan_id":"free"},{"bike_id":"c2bbb53b-938a-4295-a26a-23cad1c6393d","system_id":"levelo_inurba_marseille","lat":43.320045,"lon":5.415046,"is_reserved":false,"is_disabled":false,"rental_uris":{"android":"levelo://app?vid=c2bbb53b-938a-4295-a26a-23cad1c6393d","ios":"levelo://app?vid=c2bbb53b-938a-4295-a26a-23cad1c6393d"},"vehicle_type_id":"4","last_reported":1698599103,"current_range_meters":21600,"station_id":"ce4bhq92rcd13ifvqhkg","pricing_plan_id":"free"},{"bike_id":"b9c374c9-2615-45c1-8439-e1e405b83cd8","system_id":"levelo_inurba_marseille","lat":43.279742,"lon":5.38744,"is_reserved":false,"is_disabled":false,"rental_uris":{"android":"levelo://app?vid=b9c374c9-2615-45c1-8439-e1e405b83cd8","ios":"levelo://app?vid=b9c374c9-2615-45c1-8439-e1e405b83cd8"},"vehicle_type_id":"4","last_reported":1698599103,"current_range_meters":27200,"station_id":"ce4bhg12rcd13ifvqf80","pricing_plan_id":"free"},{"bike_id":"3aa7daa2-fed5-4779-b130-25a08b4fae62","system_id":"levelo_inurba_marseille","lat":43.292569,"lon":5.409107,"is_reserved":false,"is_disabled":false,"rental_uris":{"android":"levelo://app?vid=3aa7daa2-fed5-4779-b130-25a08b4fae62","ios":"levelo://app?vid=3aa7daa2-fed5-4779-b130-25a08b4fae62"},"vehicle_type_id":"4","last_reported":1698599103,"current_range_meters":1600,"station_id":"ce4bh192rcd13ifvqdc0","pricing_plan_id":"free"},{"bike_id":"09844eb1-8469-46ad-a1be-6560f990d7b0","system_id":"levelo_inurba_marseille","lat":43.292569,"lon":5.409107,"is_reserved":false,"is_disabled":false,"rental_uris":{"android":"levelo://app?vid=09844eb1-8469-46ad-a1be-6560f990d7b0","ios":"levelo://app?vid=09844eb1-8469-46ad-a1be-6560f990d7b0"},"vehicle_type_id":"4","last_reported":1698599103,"current_range_meters":14400,"station_id":"ce4bh192rcd13ifvqdc0","pricing_plan_id":"free"},{"bike_id":"f14571ff-112c-4931-a87f-679d48b5e961","system_id":"levelo_inurba_marseille","lat":43.292571,"lon":5.409107,"is_reserved":false,"is_disabled":false,"rental_uris":{"android":"levelo://app?vid=f14571ff-112c-4931-a87f-679d48b5e961","ios":"levelo://app?vid=f14571ff-112c-4931-a87f-679d48b5e961"},"vehicle_type_id":"4","last_reported":1698599103,"current_range_meters":1600,"station_id":"ce4bh192rcd13ifvqdc0","pricing_plan_id":"free"},{"bike_id":"281dfe21-c886-44e6-88b3-3264f93ba32f","system_id":"levelo_inurba_marseille","lat":43.292569,"lon":5.409107,"is_reserved":false,"is_disabled":false,"rental_uris":{"android":"levelo://app?vid=281dfe21-c886-44e6-88b3-3264f93ba32f","ios":"levelo://app?vid=281dfe21-c886-44e6-88b3-3264f93ba32f"},"vehicle_type_id":"4","last_reported":1698599103,"current_range_meters":20800,"station_id":"ce4bh192rcd13ifvqdc0","pricing_plan_id":"free"},{"bike_id":"2bcbba14-7b88-47fb-98d4-89ab9353ffc1","system_id":"levelo_inurba_marseille","lat":43.292571,"lon":5.409107,"is_reserved":false,"is_disabled":false,"rental_uris":{"android":"levelo://app?vid=2bcbba14-7b88-47fb-98d4-89ab9353ffc1","ios":"levelo://app?vid=2bcbba14-7b88-47fb-98d4-89ab9353ffc1"},"vehicle_type_id":"4","last_reported":1698599103,"current_range_meters":9200,"station_id":"ce4bh192rcd13ifvqdc0","pricing_plan_id":"free"},{"bike_id":"e06c6de6-378e-47d0-afbb-06f3a39ee2b0","system_id":"levelo_inurba_marseille","lat":43.325269,"lon":5.414571,"is_reserved":false,"is_disabled":false,"rental_uris":{"android":"levelo://app?vid=e06c6de6-378e-47d0-afbb-06f3a39ee2b0","ios":"levelo://app?vid=e06c6de6-378e-47d0-afbb-06f3a39ee2b0"},"vehicle_type_id":"4","last_reported":1698599103,"current_range_meters":30000,"station_id":"ce4bhq12rcd13ifvqhhg","pricing_plan_id":"free"},{"bike_id":"ab441268-3e03-4104-94cc-7705d60c6788","system_id":"levelo_inurba_marseille","lat":43.347892,"lon":5.348552,"is_reserved":false,"is_disabled":false,"rental_uris":{"android":"levelo://app?vid=ab441268-3e03-4104-94cc-7705d60c6788","ios":"levelo://app?vid=ab441268-3e03-4104-94cc-7705d60c6788"},"vehicle_type_id":"4","last_reported":1698599103,"current_range_meters":14800,"station_id":"","pricing_plan_id":"free"},{"bike_id":"64119fdd-e366-4385-b2b4-879c1241276a","system_id":"levelo_inurba_marseille","lat":43.280784,"lon":5.396622,"is_reserved":false,"is_disabled":false,"rental_uris":{"android":"levelo://app?vid=64119fdd-e366-4385-b2b4-879c1241276a","ios":"levelo://app?vid=64119fdd-e366-4385-b2b4-879c1241276a"},"vehicle_type_id":"4","last_reported":1698599103,"current_range_meters":7600,"station_id":"ce4bho12rcd13ifvqh2g","pricing_plan_id":"free"},{"bike_id":"94364a9b-9c8d-427b-9998-9dd46cf1bd07","system_id":"levelo_inurba_marseille","lat":43.280784,"lon":5.396622,"is_reserved":false,"is_disabled":false,"rental_uris":{"android":"levelo://app?vid=94364a9b-9c8d-427b-9998-9dd46cf1bd07","ios":"levelo://app?vid=94364a9b-9c8d-427b-9998-9dd46cf1bd07"},"vehicle_type_id":"4","last_reported":1698599103,"current_range_meters":5200,"station_id":"ce4bho12rcd13ifvqh2g","pricing_plan_id":"free"},{"bike_id":"a1282185-2e59-45e5-9399-92d85b544df5","system_id":"levelo_inurba_marseille","lat":43.280784,"lon":5.396622,"is_reserved":false,"is_disabled":false,"rental_uris":{"android":"levelo://app?vid=a1282185-2e59-45e5-9399-92d85b544df5","ios":"levelo://app?vid=a1282185-2e59-45e5-9399-92d85b544df5"},"vehicle_type_id":"4","last_reported":1698599103,"current_range_meters":8800,"station_id":"ce4bho12rcd13ifvqh2g","pricing_plan_id":"free"},{"bike_id":"8b8fb0f9-7655-4fa3-9df1-b9c9cd240ffb","system_id":"levelo_inurba_marseille","lat":43.278399,"lon":5.392139,"is_reserved":false,"is_disabled":false,"rental_uris":{"android":"levelo://app?vid=8b8fb0f9-7655-4fa3-9df1-b9c9cd240ffb","ios":"levelo://app?vid=8b8fb0f9-7655-4fa3-9df1-b9c9cd240ffb"},"vehicle_type_id":"4","last_reported":1698599103,"current_range_meters":5200,"station_id":"ce4bhjp2rcd13ifvqga0","pricing_plan_id":"free"},{"bike_id":"7bd09f97-ef65-4688-9e11-57365177a47c","system_id":"levelo_inurba_marseille","lat":43.278401,"lon":5.392152,"is_reserved":false,"is_disabled":false,"rental_uris":{"android":"levelo://app?vid=7bd09f97-ef65-4688-9e11-57365177a47c","ios":"levelo://app?vid=7bd09f97-ef65-4688-9e11-57365177a47c"},"vehicle_type_id":"4","last_reported":1698599103,"current_range_meters":24400,"station_id":"ce4bhjp2rcd13ifvqga0","pricing_plan_id":"free"},{"bike_id":"925d3cc4-2cb6-4e17-a960-7cbc3582dd05","system_id":"levelo_inurba_marseille","lat":43.275625,"lon":5.384392,"is_reserved":false,"is_disabled":false,"rental_uris":{"android":"levelo://app?vid=925d3cc4-2cb6-4e17-a960-7cbc3582dd05","ios":"levelo://app?vid=925d3cc4-2cb6-4e17-a960-7cbc3582dd05"},"vehicle_type_id":"4","last_reported":1698599103,"current_range_meters":25600,"station_id":"ce4bhh92rcd13ifvqfi0","pricing_plan_id":"free"},{"bike_id":"ad792d74-0fe0-4f28-8273-babb3dc4f382","system_id":"levelo_inurba_marseille","lat":43.273613,"lon":5.362705,"is_reserved":false,"is_disabled":false,"rental_uris":{"android":"levelo://app?vid=ad792d74-0fe0-4f28-8273-babb3dc4f382","ios":"levelo://app?vid=ad792d74-0fe0-4f28-8273-babb3dc4f382"},"vehicle_type_id":"4","last_reported":1698599103,"current_range_meters":0,"station_id":"ce4bhbh2rcd13ifvqeo0","pricing_plan_id":"free"},{"bike_id":"78f3695f-e08c-4bb8-8a12-b6be74f994d4","system_id":"levelo_inurba_marseille","lat":43.273609,"lon":5.362708,"is_reserved":false,"is_disabled":false,"rental_uris":{"android":"levelo://app?vid=78f3695f-e08c-4bb8-8a12-b6be74f994d4","ios":"levelo://app?vid=78f3695f-e08c-4bb8-8a12-b6be74f994d4"},"vehicle_type_id":"4","last_reported":1698599103,"current_range_meters":16800,"station_id":"ce4bhbh2rcd13ifvqeo0","pricing_plan_id":"free"},{"bike_id":"f8435ceb-e563-4969-b9b3-163941163ed4","system_id":"levelo_inurba_marseille","lat":43.275625,"lon":5.384392,"is_reserved":false,"is_disabled":false,"rental_uris":{"android":"levelo://app?vid=f8435ceb-e563-4969-b9b3-163941163ed4","ios":"levelo://app?vid=f8435ceb-e563-4969-b9b3-163941163ed4"},"vehicle_type_id":"4","last_reported":1698599103,"current_range_meters":17600,"station_id":"ce4bhh92rcd13ifvqfi0","pricing_plan_id":"free"},{"bike_id":"4d47b552-65ff-4497-98ba-69269279279c","system_id":"levelo_inurba_marseille","lat":43.276769,"lon":5.388787,"is_reserved":false,"is_disabled":false,"rental_uris":{"android":"levelo://app?vid=4d47b552-65ff-4497-98ba-69269279279c","ios":"levelo://app?vid=4d47b552-65ff-4497-98ba-69269279279c"},"vehicle_type_id":"4","last_reported":1698599103,"current_range_meters":9200,"station_id":"ce4bhi12rcd13ifvqfo0","pricing_plan_id":"free"},{"bike_id":"fdbb3c72-f3f6-47a6-a1e4-d63cd7902119","system_id":"levelo_inurba_marseille","lat":43.33612,"lon":5.410321,"is_reserved":false,"is_disabled":false,"rental_uris":{"android":"levelo://app?vid=fdbb3c72-f3f6-47a6-a1e4-d63cd7902119","ios":"levelo://app?vid=fdbb3c72-f3f6-47a6-a1e4-d63cd7902119"},"vehicle_type_id":"4","last_reported":1698599103,"current_range_meters":18400,"station_id":"ce4bhqh2rcd13ifvqhmg","pricing_plan_id":"free"},{"bike_id":"77d916b0-ab72-4009-a115-36f347b061f0","system_id":"levelo_inurba_marseille","lat":43.276769,"lon":5.388787,"is_reserved":false,"is_disabled":false,"rental_uris":{"android":"levelo://app?vid=77d916b0-ab72-4009-a115-36f347b061f0","ios":"levelo://app?vid=77d916b0-ab72-4009-a115-36f347b061f0"},"vehicle_type_id":"4","last_reported":1698599103,"current_range_meters":14800,"station_id":"ce4bhi12rcd13ifvqfo0","pricing_plan_id":"free"},{"bike_id":"26118dd9-3b5d-43f2-9961-64d203f598b2","system_id":"levelo_inurba_marseille","lat":43.276771,"lon":5.388799,"is_reserved":false,"is_disabled":false,"rental_uris":{"android":"levelo://app?vid=26118dd9-3b5d-43f2-9961-64d203f598b2","ios":"levelo://app?vid=26118dd9-3b5d-43f2-9961-64d203f598b2"},"vehicle_type_id":"4","last_reported":1698599103,"current_range_meters":28000,"station_id":"ce4bhi12rcd13ifvqfo0","pricing_plan_id":"free"},{"bike_id":"f9a74eec-e4ce-4d76-866e-f55b97a3552b","system_id":"levelo_inurba_marseille","lat":43.27662,"lon":5.38867,"is_reserved":false,"is_disabled":false,"rental_uris":{"android":"levelo://app?vid=f9a74eec-e4ce-4d76-866e-f55b97a3552b","ios":"levelo://app?vid=f9a74eec-e4ce-4d76-866e-f55b97a3552b"},"vehicle_type_id":"4","last_reported":1698599103,"current_range_meters":14000,"station_id":"ce4bhi12rcd13ifvqfo0","pricing_plan_id":"free"},{"bike_id":"a3774854-edb1-4579-a308-d7e225bb1db4","system_id":"levelo_inurba_marseille","lat":43.27668,"lon":5.38887,"is_reserved":false,"is_disabled":false,"rental_uris":{"android":"levelo://app?vid=a3774854-edb1-4579-a308-d7e225bb1db4","ios":"levelo://app?vid=a3774854-edb1-4579-a308-d7e225bb1db4"},"vehicle_type_id":"4","last_reported":1698599103,"current_range_meters":21200,"station_id":"ce4bhi12rcd13ifvqfo0","pricing_plan_id":"free"},{"bike_id":"893774b2-4f20-4143-94e8-1521796bc91c","system_id":"levelo_inurba_marseille","lat":43.276604,"lon":5.388801,"is_reserved":false,"is_disabled":false,"rental_uris":{"android":"levelo://app?vid=893774b2-4f20-4143-94e8-1521796bc91c","ios":"levelo://app?vid=893774b2-4f20-4143-94e8-1521796bc91c"},"vehicle_type_id":"4","last_reported":1698599103,"current_range_meters":31200,"station_id":"ce4bhi12rcd13ifvqfo0","pricing_plan_id":"free"},{"bike_id":"3e332905-d2ba-403c-9182-04131e052ebe","system_id":"levelo_inurba_marseille","lat":43.276771,"lon":5.388799,"is_reserved":false,"is_disabled":false,"rental_uris":{"android":"levelo://app?vid=3e332905-d2ba-403c-9182-04131e052ebe","ios":"levelo://app?vid=3e332905-d2ba-403c-9182-04131e052ebe"},"vehicle_type_id":"4","last_reported":1698599103,"current_range_meters":800,"station_id":"ce4bhi12rcd13ifvqfo0","pricing_plan_id":"free"},{"bike_id":"01b14aaf-b7fc-41e8-b11c-f5f9ba41824f","system_id":"levelo_inurba_marseille","lat":43.275266,"lon":5.385777,"is_reserved":false,"is_disabled":false,"rental_uris":{"android":"levelo://app?vid=01b14aaf-b7fc-41e8-b11c-f5f9ba41824f","ios":"levelo://app?vid=01b14aaf-b7fc-41e8-b11c-f5f9ba41824f"},"vehicle_type_id":"4","last_reported":1698599103,"current_range_meters":5200,"station_id":"","pricing_plan_id":"free"},{"bike_id":"b48d67bc-d03b-4409-8779-0cfb135c9fb7","system_id":"levelo_inurba_marseille","lat":43.27995,"lon":5.40019,"is_reserved":false,"is_disabled":false,"rental_uris":{"android":"levelo://app?vid=b48d67bc-d03b-4409-8779-0cfb135c9fb7","ios":"levelo://app?vid=b48d67bc-d03b-4409-8779-0cfb135c9fb7"},"vehicle_type_id":"4","last_reported":1698599103,"current_range_meters":800,"station_id":"ce4bho92rcd13ifvqh4g","pricing_plan_id":"free"},{"bike_id":"d58dc1b0-a920-45a9-b8ae-bc43ae7fdaaf","system_id":"levelo_inurba_marseille","lat":43.31078,"lon":5.42433,"is_reserved":false,"is_disabled":false,"rental_uris":{"android":"levelo://app?vid=d58dc1b0-a920-45a9-b8ae-bc43ae7fdaaf","ios":"levelo://app?vid=d58dc1b0-a920-45a9-b8ae-bc43ae7fdaaf"},"vehicle_type_id":"4","last_reported":1698599103,"current_range_meters":13200,"station_id":"ce4bhp92rcd13ifvqhag","pricing_plan_id":"free"},{"bike_id":"10771e27-9dfa-483f-a879-18ff14f74247","system_id":"levelo_inurba_marseille","lat":43.310021,"lon":5.425067,"is_reserved":false,"is_disabled":false,"rental_uris":{"android":"levelo://app?vid=10771e27-9dfa-483f-a879-18ff14f74247","ios":"levelo://app?vid=10771e27-9dfa-483f-a879-18ff14f74247"},"vehicle_type_id":"4","last_reported":1698599103,"current_range_meters":0,"station_id":"","pricing_plan_id":"free"},{"bike_id":"23cb35ec-61e9-48ed-a056-1edb5a755a0f","system_id":"levelo_inurba_marseille","lat":43.27328,"lon":5.39073,"is_reserved":false,"is_disabled":false,"rental_uris":{"android":"levelo://app?vid=23cb35ec-61e9-48ed-a056-1edb5a755a0f","ios":"levelo://app?vid=23cb35ec-61e9-48ed-a056-1edb5a755a0f"},"vehicle_type_id":"4","last_reported":1698599103,"current_range_meters":7200,"station_id":"","pricing_plan_id":"free"},{"bike_id":"0a90e5d0-005e-414c-bae0-4bf4a8c199d1","system_id":"levelo_inurba_marseille","lat":43.27321,"lon":5.39076,"is_reserved":false,"is_disabled":false,"rental_uris":{"android":"levelo://app?vid=0a90e5d0-005e-414c-bae0-4bf4a8c199d1","ios":"levelo://app?vid=0a90e5d0-005e-414c-bae0-4bf4a8c199d1"},"vehicle_type_id":"4","last_reported":1698599103,"current_range_meters":14000,"station_id":"","pricing_plan_id":"free"},{"bike_id":"4d6639f8-2661-410a-aa73-3e258182799f","system_id":"levelo_inurba_marseille","lat":43.27322,"lon":5.39082,"is_reserved":false,"is_disabled":false,"rental_uris":{"android":"levelo://app?vid=4d6639f8-2661-410a-aa73-3e258182799f","ios":"levelo://app?vid=4d6639f8-2661-410a-aa73-3e258182799f"},"vehicle_type_id":"4","last_reported":1698599103,"current_range_meters":0,"station_id":"","pricing_plan_id":"free"},{"bike_id":"67c5c40f-717c-4a16-b058-29bf312a59e2","system_id":"levelo_inurba_marseille","lat":43.274099,"lon":5.394019,"is_reserved":false,"is_disabled":false,"rental_uris":{"android":"levelo://app?vid=67c5c40f-717c-4a16-b058-29bf312a59e2","ios":"levelo://app?vid=67c5c40f-717c-4a16-b058-29bf312a59e2"},"vehicle_type_id":"4","last_reported":1698599103,"current_range_meters":14800,"station_id":"ce4bhdp2rcd13ifvqf20","pricing_plan_id":"free"},{"bike_id":"1a41ee5f-eee7-4d76-a122-87bb1ff692b0","system_id":"levelo_inurba_marseille","lat":43.273162,"lon":5.39074,"is_reserved":false,"is_disabled":false,"rental_uris":{"android":"levelo://app?vid=1a41ee5f-eee7-4d76-a122-87bb1ff692b0","ios":"levelo://app?vid=1a41ee5f-eee7-4d76-a122-87bb1ff692b0"},"vehicle_type_id":"4","last_reported":1698599103,"current_range_meters":10400,"station_id":"","pricing_plan_id":"free"},{"bike_id":"83142e0b-2d4a-41bd-a883-c4d9264eba37","system_id":"levelo_inurba_marseille","lat":43.27315,"lon":5.39083,"is_reserved":false,"is_disabled":false,"rental_uris":{"android":"levelo://app?vid=83142e0b-2d4a-41bd-a883-c4d9264eba37","ios":"levelo://app?vid=83142e0b-2d4a-41bd-a883-c4d9264eba37"},"vehicle_type_id":"4","last_reported":1698599103,"current_range_meters":0,"station_id":"","pricing_plan_id":"free"},{"bike_id":"be602fcc-d2a2-42e6-9c69-fd41466b95c5","system_id":"levelo_inurba_marseille","lat":43.274103,"lon":5.394016,"is_reserved":false,"is_disabled":false,"rental_uris":{"android":"levelo://app?vid=be602fcc-d2a2-42e6-9c69-fd41466b95c5","ios":"levelo://app?vid=be602fcc-d2a2-42e6-9c69-fd41466b95c5"},"vehicle_type_id":"4","last_reported":1698599103,"current_range_meters":0,"station_id":"ce4bhdp2rcd13ifvqf20","pricing_plan_id":"free"},{"bike_id":"614001c8-2e37-43bf-a365-bc2dcaf1ccc1","system_id":"levelo_inurba_marseille","lat":43.27311,"lon":5.390839,"is_reserved":false,"is_disabled":false,"rental_uris":{"android":"levelo://app?vid=614001c8-2e37-43bf-a365-bc2dcaf1ccc1","ios":"levelo://app?vid=614001c8-2e37-43bf-a365-bc2dcaf1ccc1"},"vehicle_type_id":"4","last_reported":1698599103,"current_range_meters":9600,"station_id":"","pricing_plan_id":"free"},{"bike_id":"34576dac-87fd-445e-a17f-c1fe71a5d73b","system_id":"levelo_inurba_marseille","lat":43.274099,"lon":5.394019,"is_reserved":false,"is_disabled":false,"rental_uris":{"android":"levelo://app?vid=34576dac-87fd-445e-a17f-c1fe71a5d73b","ios":"levelo://app?vid=34576dac-87fd-445e-a17f-c1fe71a5d73b"},"vehicle_type_id":"4","last_reported":1698599103,"current_range_meters":12000,"station_id":"ce4bhdp2rcd13ifvqf20","pricing_plan_id":"free"},{"bike_id":"8b4a316e-6581-4e3c-8acf-00a7890a6cd5","system_id":"levelo_inurba_marseille","lat":43.274099,"lon":5.394019,"is_reserved":false,"is_disabled":false,"rental_uris":{"android":"levelo://app?vid=8b4a316e-6581-4e3c-8acf-00a7890a6cd5","ios":"levelo://app?vid=8b4a316e-6581-4e3c-8acf-00a7890a6cd5"},"vehicle_type_id":"4","last_reported":1698599103,"current_range_meters":0,"station_id":"ce4bhdp2rcd13ifvqf20","pricing_plan_id":"free"},{"bike_id":"922c6c9c-b342-4c7c-9b24-dfcbe88a348b","system_id":"levelo_inurba_marseille","lat":43.274099,"lon":5.394019,"is_reserved":false,"is_disabled":false,"rental_uris":{"android":"levelo://app?vid=922c6c9c-b342-4c7c-9b24-dfcbe88a348b","ios":"levelo://app?vid=922c6c9c-b342-4c7c-9b24-dfcbe88a348b"},"vehicle_type_id":"4","last_reported":1698599103,"current_range_meters":11600,"station_id":"ce4bhdp2rcd13ifvqf20","pricing_plan_id":"free"},{"bike_id":"98b0933f-c8c8-4978-aee0-449bcdcd560e","system_id":"levelo_inurba_marseille","lat":43.274103,"lon":5.394016,"is_reserved":false,"is_disabled":false,"rental_uris":{"android":"levelo://app?vid=98b0933f-c8c8-4978-aee0-449bcdcd560e","ios":"levelo://app?vid=98b0933f-c8c8-4978-aee0-449bcdcd560e"},"vehicle_type_id":"4","last_reported":1698599103,"current_range_meters":28000,"station_id":"ce4bhdp2rcd13ifvqf20","pricing_plan_id":"free"},{"bike_id":"8a9505a0-6d47-4f9b-a10c-3422df363b99","system_id":"levelo_inurba_marseille","lat":43.274099,"lon":5.394019,"is_reserved":false,"is_disabled":false,"rental_uris":{"android":"levelo://app?vid=8a9505a0-6d47-4f9b-a10c-3422df363b99","ios":"levelo://app?vid=8a9505a0-6d47-4f9b-a10c-3422df363b99"},"vehicle_type_id":"4","last_reported":1698599103,"current_range_meters":16800,"station_id":"ce4bhdp2rcd13ifvqf20","pricing_plan_id":"free"},{"bike_id":"291a32c9-e8fe-4c60-819c-bf8d640a2016","system_id":"levelo_inurba_marseille","lat":43.2936,"lon":5.37835,"is_reserved":false,"is_disabled":false,"rental_uris":{"android":"levelo://app?vid=291a32c9-e8fe-4c60-819c-bf8d640a2016","ios":"levelo://app?vid=291a32c9-e8fe-4c60-819c-bf8d640a2016"},"vehicle_type_id":"4","last_reported":1698599103,"current_range_meters":19200,"station_id":"ce4bgjh2rcd13ifvqbf0","pricing_plan_id":"free"},{"bike_id":"000fd963-8a35-4a47-8a3b-67de15b895e0","system_id":"levelo_inurba_marseille","lat":43.27242,"lon":5.39235,"is_reserved":false,"is_disabled":false,"rental_uris":{"android":"levelo://app?vid=000fd963-8a35-4a47-8a3b-67de15b895e0","ios":"levelo://app?vid=000fd963-8a35-4a47-8a3b-67de15b895e0"},"vehicle_type_id":"4","last_reported":1698599103,"current_range_meters":5600,"station_id":"","pricing_plan_id":"free"},{"bike_id":"8b0c2240-d999-4064-ac7d-3d8ce2f6b4be","system_id":"levelo_inurba_marseille","lat":43.27206,"lon":5.391884,"is_reserved":false,"is_disabled":false,"rental_uris":{"android":"levelo://app?vid=8b0c2240-d999-4064-ac7d-3d8ce2f6b4be","ios":"levelo://app?vid=8b0c2240-d999-4064-ac7d-3d8ce2f6b4be"},"vehicle_type_id":"4","last_reported":1698599103,"current_range_meters":31200,"station_id":"ce4bhhp2rcd13ifvqfm0","pricing_plan_id":"free"},{"bike_id":"94861fcf-be48-417a-a72c-8452f788f982","system_id":"levelo_inurba_marseille","lat":43.27201,"lon":5.39198,"is_reserved":false,"is_disabled":false,"rental_uris":{"android":"levelo://app?vid=94861fcf-be48-417a-a72c-8452f788f982","ios":"levelo://app?vid=94861fcf-be48-417a-a72c-8452f788f982"},"vehicle_type_id":"4","last_reported":1698599103,"current_range_meters":31200,"station_id":"ce4bhhp2rcd13ifvqfm0","pricing_plan_id":"free"},{"bike_id":"2dcda059-f182-410c-bfac-93a86a84f604","system_id":"levelo_inurba_marseille","lat":43.26954,"lon":5.38627,"is_reserved":false,"is_disabled":false,"rental_uris":{"android":"levelo://app?vid=2dcda059-f182-410c-bfac-93a86a84f604","ios":"levelo://app?vid=2dcda059-f182-410c-bfac-93a86a84f604"},"vehicle_type_id":"4","last_reported":1698599103,"current_range_meters":7600,"station_id":"ce4bhh92rcd13ifvqfh0","pricing_plan_id":"free"},{"bike_id":"61b55aca-e62f-4abc-a778-297ef70345a1","system_id":"levelo_inurba_marseille","lat":43.26946,"lon":5.38626,"is_reserved":false,"is_disabled":false,"rental_uris":{"android":"levelo://app?vid=61b55aca-e62f-4abc-a778-297ef70345a1","ios":"levelo://app?vid=61b55aca-e62f-4abc-a778-297ef70345a1"},"vehicle_type_id":"4","last_reported":1698599103,"current_range_meters":0,"station_id":"ce4bhh92rcd13ifvqfh0","pricing_plan_id":"free"},{"bike_id":"891e1734-0f2b-4304-8bd4-989a6a3bbdb4","system_id":"levelo_inurba_marseille","lat":43.279397,"lon":5.410348,"is_reserved":false,"is_disabled":false,"rental_uris":{"android":"levelo://app?vid=891e1734-0f2b-4304-8bd4-989a6a3bbdb4","ios":"levelo://app?vid=891e1734-0f2b-4304-8bd4-989a6a3bbdb4"},"vehicle_type_id":"4","last_reported":1698599103,"current_range_meters":22000,"station_id":"ce4bhnp2rcd13ifvqh0g","pricing_plan_id":"free"},{"bike_id":"639cd472-67a4-4d4c-b6f8-fd9aa5b9aa94","system_id":"levelo_inurba_marseille","lat":43.27943,"lon":5.41044,"is_reserved":false,"is_disabled":false,"rental_uris":{"android":"levelo://app?vid=639cd472-67a4-4d4c-b6f8-fd9aa5b9aa94","ios":"levelo://app?vid=639cd472-67a4-4d4c-b6f8-fd9aa5b9aa94"},"vehicle_type_id":"4","last_reported":1698599103,"current_range_meters":10000,"station_id":"ce4bhnp2rcd13ifvqh0g","pricing_plan_id":"free"},{"bike_id":"b665da23-6b3f-4601-9ce5-18061a9dffa7","system_id":"levelo_inurba_marseille","lat":43.27944,"lon":5.41048,"is_reserved":false,"is_disabled":false,"rental_uris":{"android":"levelo://app?vid=b665da23-6b3f-4601-9ce5-18061a9dffa7","ios":"levelo://app?vid=b665da23-6b3f-4601-9ce5-18061a9dffa7"},"vehicle_type_id":"4","last_reported":1698599103,"current_range_meters":5200,"station_id":"ce4bhnp2rcd13ifvqh0g","pricing_plan_id":"free"},{"bike_id":"582a1410-eae2-4e20-bd70-ebecfa57b367","system_id":"levelo_inurba_marseille","lat":43.279372,"lon":5.410474,"is_reserved":false,"is_disabled":false,"rental_uris":{"android":"levelo://app?vid=582a1410-eae2-4e20-bd70-ebecfa57b367","ios":"levelo://app?vid=582a1410-eae2-4e20-bd70-ebecfa57b367"},"vehicle_type_id":"4","last_reported":1698599103,"current_range_meters":21600,"station_id":"ce4bhnp2rcd13ifvqh0g","pricing_plan_id":"free"},{"bike_id":"66a46cce-2509-423f-8e36-ccbf8c1330ab","system_id":"levelo_inurba_marseille","lat":43.269319,"lon":5.389397,"is_reserved":false,"is_disabled":false,"rental_uris":{"android":"levelo://app?vid=66a46cce-2509-423f-8e36-ccbf8c1330ab","ios":"levelo://app?vid=66a46cce-2509-423f-8e36-ccbf8c1330ab"},"vehicle_type_id":"4","last_reported":1698599103,"current_range_meters":21200,"station_id":"ce4bhhh2rcd13ifvqfl0","pricing_plan_id":"free"},{"bike_id":"ef83e9fd-9279-4e60-98be-7900305a9eef","system_id":"levelo_inurba_marseille","lat":43.269319,"lon":5.389397,"is_reserved":false,"is_disabled":false,"rental_uris":{"android":"levelo://app?vid=ef83e9fd-9279-4e60-98be-7900305a9eef","ios":"levelo://app?vid=ef83e9fd-9279-4e60-98be-7900305a9eef"},"vehicle_type_id":"4","last_reported":1698599103,"current_range_meters":7200,"station_id":"ce4bhhh2rcd13ifvqfl0","pricing_plan_id":"free"},{"bike_id":"afdd9084-4b41-4a55-b5a1-a4a1eb974efb","system_id":"levelo_inurba_marseille","lat":43.26815,"lon":5.38461,"is_reserved":false,"is_disabled":false,"rental_uris":{"android":"levelo://app?vid=afdd9084-4b41-4a55-b5a1-a4a1eb974efb","ios":"levelo://app?vid=afdd9084-4b41-4a55-b5a1-a4a1eb974efb"},"vehicle_type_id":"4","last_reported":1698599103,"current_range_meters":16800,"station_id":"","pricing_plan_id":"free"},{"bike_id":"900f0533-a8ef-4eba-94dd-a7d1c0543113","system_id":"levelo_inurba_marseille","lat":43.269319,"lon":5.389397,"is_reserved":false,"is_disabled":false,"rental_uris":{"android":"levelo://app?vid=900f0533-a8ef-4eba-94dd-a7d1c0543113","ios":"levelo://app?vid=900f0533-a8ef-4eba-94dd-a7d1c0543113"},"vehicle_type_id":"4","last_reported":1698599103,"current_range_meters":11200,"station_id":"ce4bhhh2rcd13ifvqfl0","pricing_plan_id":"free"},{"bike_id":"db99b787-be89-4b71-b514-4ec01af7af8e","system_id":"levelo_inurba_marseille","lat":43.269319,"lon":5.389397,"is_reserved":false,"is_disabled":false,"rental_uris":{"android":"levelo://app?vid=db99b787-be89-4b71-b514-4ec01af7af8e","ios":"levelo://app?vid=db99b787-be89-4b71-b514-4ec01af7af8e"},"vehicle_type_id":"4","last_reported":1698599103,"current_range_meters":1600,"station_id":"ce4bhhh2rcd13ifvqfl0","pricing_plan_id":"free"},{"bike_id":"7ad04d5e-a20d-4ffe-8ce0-4c41ac8fc4a1","system_id":"levelo_inurba_marseille","lat":43.26681,"lon":5.382694,"is_reserved":false,"is_disabled":false,"rental_uris":{"android":"levelo://app?vid=7ad04d5e-a20d-4ffe-8ce0-4c41ac8fc4a1","ios":"levelo://app?vid=7ad04d5e-a20d-4ffe-8ce0-4c41ac8fc4a1"},"vehicle_type_id":"4","last_reported":1698599103,"current_range_meters":30800,"station_id":"ce4bhg92rcd13ifvqf90","pricing_plan_id":"free"},{"bike_id":"bfb72cc2-b2d7-432c-ae8e-3ce92e09eb3d","system_id":"levelo_inurba_marseille","lat":43.26553,"lon":5.372925,"is_reserved":false,"is_disabled":false,"rental_uris":{"android":"levelo://app?vid=bfb72cc2-b2d7-432c-ae8e-3ce92e09eb3d","ios":"levelo://app?vid=bfb72cc2-b2d7-432c-ae8e-3ce92e09eb3d"},"vehicle_type_id":"4","last_reported":1698599103,"current_range_meters":0,"station_id":"ce4bhg12rcd13ifvqf70","pricing_plan_id":"free"},{"bike_id":"e610933f-f657-4bb4-a514-3746cfe6b8b3","system_id":"levelo_inurba_marseille","lat":43.279917,"lon":5.416599,"is_reserved":false,"is_disabled":false,"rental_uris":{"android":"levelo://app?vid=e610933f-f657-4bb4-a514-3746cfe6b8b3","ios":"levelo://app?vid=e610933f-f657-4bb4-a514-3746cfe6b8b3"},"vehicle_type_id":"4","last_reported":1698599103,"current_range_meters":25600,"station_id":"ce4bho12rcd13ifvqh1g","pricing_plan_id":"free"},{"bike_id":"7775e679-4977-44ff-bae4-d5eb950ec627","system_id":"levelo_inurba_marseille","lat":43.267798,"lon":5.394185,"is_reserved":false,"is_disabled":false,"rental_uris":{"android":"levelo://app?vid=7775e679-4977-44ff-bae4-d5eb950ec627","ios":"levelo://app?vid=7775e679-4977-44ff-bae4-d5eb950ec627"},"vehicle_type_id":"4","last_reported":1698599103,"current_range_meters":0,"station_id":"","pricing_plan_id":"free"},{"bike_id":"2687313b-4537-4b0d-956b-7965a5770ee1","system_id":"levelo_inurba_marseille","lat":43.328212,"lon":5.431596,"is_reserved":false,"is_disabled":false,"rental_uris":{"android":"levelo://app?vid=2687313b-4537-4b0d-956b-7965a5770ee1","ios":"levelo://app?vid=2687313b-4537-4b0d-956b-7965a5770ee1"},"vehicle_type_id":"4","last_reported":1698599103,"current_range_meters":14800,"station_id":"","pricing_plan_id":"free"},{"bike_id":"1cb3f577-fb04-4e28-a15d-87951d1577d9","system_id":"levelo_inurba_marseille","lat":43.308051,"lon":5.43527,"is_reserved":false,"is_disabled":false,"rental_uris":{"android":"levelo://app?vid=1cb3f577-fb04-4e28-a15d-87951d1577d9","ios":"levelo://app?vid=1cb3f577-fb04-4e28-a15d-87951d1577d9"},"vehicle_type_id":"4","last_reported":1698599103,"current_range_meters":31200,"station_id":"ce4bhph2rcd13ifvqheg","pricing_plan_id":"free"},{"bike_id":"a6a72a5e-5411-46ca-a4f4-5560fdd0d26f","system_id":"levelo_inurba_marseille","lat":43.26575,"lon":5.39002,"is_reserved":false,"is_disabled":false,"rental_uris":{"android":"levelo://app?vid=a6a72a5e-5411-46ca-a4f4-5560fdd0d26f","ios":"levelo://app?vid=a6a72a5e-5411-46ca-a4f4-5560fdd0d26f"},"vehicle_type_id":"4","last_reported":1698599103,"current_range_meters":2000,"station_id":"ce4bhe12rcd13ifvqf30","pricing_plan_id":"free"},{"bike_id":"da4c5075-4c80-461e-b39e-4d85bad83db7","system_id":"levelo_inurba_marseille","lat":43.308051,"lon":5.43527,"is_reserved":false,"is_disabled":false,"rental_uris":{"android":"levelo://app?vid=da4c5075-4c80-461e-b39e-4d85bad83db7","ios":"levelo://app?vid=da4c5075-4c80-461e-b39e-4d85bad83db7"},"vehicle_type_id":"4","last_reported":1698599103,"current_range_meters":15600,"station_id":"ce4bhph2rcd13ifvqheg","pricing_plan_id":"free"},{"bike_id":"ce56f942-f540-46a3-af44-427e7947be87","system_id":"levelo_inurba_marseille","lat":43.308051,"lon":5.43527,"is_reserved":false,"is_disabled":false,"rental_uris":{"android":"levelo://app?vid=ce56f942-f540-46a3-af44-427e7947be87","ios":"levelo://app?vid=ce56f942-f540-46a3-af44-427e7947be87"},"vehicle_type_id":"4","last_reported":1698599103,"current_range_meters":20000,"station_id":"ce4bhph2rcd13ifvqheg","pricing_plan_id":"free"},{"bike_id":"c20ce7ed-ebf9-4fab-b5eb-b75e2df9fefc","system_id":"levelo_inurba_marseille","lat":43.265694,"lon":5.39011,"is_reserved":false,"is_disabled":false,"rental_uris":{"android":"levelo://app?vid=c20ce7ed-ebf9-4fab-b5eb-b75e2df9fefc","ios":"levelo://app?vid=c20ce7ed-ebf9-4fab-b5eb-b75e2df9fefc"},"vehicle_type_id":"4","last_reported":1698599103,"current_range_meters":22800,"station_id":"ce4bhe12rcd13ifvqf30","pricing_plan_id":"free"},{"bike_id":"6f863948-361b-48d7-a78b-f9f9887162a2","system_id":"levelo_inurba_marseille","lat":43.2657,"lon":5.39018,"is_reserved":false,"is_disabled":false,"rental_uris":{"android":"levelo://app?vid=6f863948-361b-48d7-a78b-f9f9887162a2","ios":"levelo://app?vid=6f863948-361b-48d7-a78b-f9f9887162a2"},"vehicle_type_id":"4","last_reported":1698599103,"current_range_meters":13200,"station_id":"ce4bhe12rcd13ifvqf30","pricing_plan_id":"free"},{"bike_id":"7a3392f6-d294-49bf-ab77-5db5ebdfb2ce","system_id":"levelo_inurba_marseille","lat":43.26582,"lon":5.39067,"is_reserved":false,"is_disabled":false,"rental_uris":{"android":"levelo://app?vid=7a3392f6-d294-49bf-ab77-5db5ebdfb2ce","ios":"levelo://app?vid=7a3392f6-d294-49bf-ab77-5db5ebdfb2ce"},"vehicle_type_id":"4","last_reported":1698599103,"current_range_meters":17600,"station_id":"","pricing_plan_id":"free"},{"bike_id":"601a3f9b-3625-4f5b-b8f6-51a494c37833","system_id":"levelo_inurba_marseille","lat":43.2657,"lon":5.39023,"is_reserved":false,"is_disabled":false,"rental_uris":{"android":"levelo://app?vid=601a3f9b-3625-4f5b-b8f6-51a494c37833","ios":"levelo://app?vid=601a3f9b-3625-4f5b-b8f6-51a494c37833"},"vehicle_type_id":"4","last_reported":1698599103,"current_range_meters":28400,"station_id":"ce4bhe12rcd13ifvqf30","pricing_plan_id":"free"},{"bike_id":"c1076059-0a19-4353-a85c-448193b3054c","system_id":"levelo_inurba_marseille","lat":43.265569,"lon":5.390047,"is_reserved":false,"is_disabled":false,"rental_uris":{"android":"levelo://app?vid=c1076059-0a19-4353-a85c-448193b3054c","ios":"levelo://app?vid=c1076059-0a19-4353-a85c-448193b3054c"},"vehicle_type_id":"4","last_reported":1698599103,"current_range_meters":0,"station_id":"ce4bhe12rcd13ifvqf30","pricing_plan_id":"free"},{"bike_id":"77bd88b0-94d4-432b-ad78-b34f813520ea","system_id":"levelo_inurba_marseille","lat":43.265565,"lon":5.390127,"is_reserved":false,"is_disabled":false,"rental_uris":{"android":"levelo://app?vid=77bd88b0-94d4-432b-ad78-b34f813520ea","ios":"levelo://app?vid=77bd88b0-94d4-432b-ad78-b34f813520ea"},"vehicle_type_id":"4","last_reported":1698599103,"current_range_meters":2800,"station_id":"ce4bhe12rcd13ifvqf30","pricing_plan_id":"free"},{"bike_id":"2d46cc0c-65c6-4834-956d-7090ad78794e","system_id":"levelo_inurba_marseille","lat":43.265458,"lon":5.389947,"is_reserved":false,"is_disabled":false,"rental_uris":{"android":"levelo://app?vid=2d46cc0c-65c6-4834-956d-7090ad78794e","ios":"levelo://app?vid=2d46cc0c-65c6-4834-956d-7090ad78794e"},"vehicle_type_id":"4","last_reported":1698599103,"current_range_meters":5600,"station_id":"ce4bhe12rcd13ifvqf30","pricing_plan_id":"free"},{"bike_id":"efbbef42-b150-48eb-8784-926fdd2e78dc","system_id":"levelo_inurba_marseille","lat":43.26544,"lon":5.38997,"is_reserved":false,"is_disabled":false,"rental_uris":{"android":"levelo://app?vid=efbbef42-b150-48eb-8784-926fdd2e78dc","ios":"levelo://app?vid=efbbef42-b150-48eb-8784-926fdd2e78dc"},"vehicle_type_id":"4","last_reported":1698599103,"current_range_meters":29600,"station_id":"ce4bhe12rcd13ifvqf30","pricing_plan_id":"free"},{"bike_id":"2efbead7-17b8-47d6-8277-ab0a1f685544","system_id":"levelo_inurba_marseille","lat":43.26943,"lon":5.40245,"is_reserved":false,"is_disabled":false,"rental_uris":{"android":"levelo://app?vid=2efbead7-17b8-47d6-8277-ab0a1f685544","ios":"levelo://app?vid=2efbead7-17b8-47d6-8277-ab0a1f685544"},"vehicle_type_id":"4","last_reported":1698599103,"current_range_meters":6000,"station_id":"cjm6bp8fraef2m0cb0m0","pricing_plan_id":"free"},{"bike_id":"7a08c77c-64e8-4e14-a396-f1901bbfa245","system_id":"levelo_inurba_marseille","lat":43.26944,"lon":5.40248,"is_reserved":false,"is_disabled":false,"rental_uris":{"android":"levelo://app?vid=7a08c77c-64e8-4e14-a396-f1901bbfa245","ios":"levelo://app?vid=7a08c77c-64e8-4e14-a396-f1901bbfa245"},"vehicle_type_id":"4","last_reported":1698599103,"current_range_meters":12000,"station_id":"cjm6bp8fraef2m0cb0m0","pricing_plan_id":"free"},{"bike_id":"c5399fd0-4745-42b4-944f-a1a361f3a078","system_id":"levelo_inurba_marseille","lat":43.26941,"lon":5.40246,"is_reserved":false,"is_disabled":false,"rental_uris":{"android":"levelo://app?vid=c5399fd0-4745-42b4-944f-a1a361f3a078","ios":"levelo://app?vid=c5399fd0-4745-42b4-944f-a1a361f3a078"},"vehicle_type_id":"4","last_reported":1698599103,"current_range_meters":12000,"station_id":"cjm6bp8fraef2m0cb0m0","pricing_plan_id":"free"},{"bike_id":"b99ad779-80a8-4a74-8e15-70d6e682dc34","system_id":"levelo_inurba_marseille","lat":43.26941,"lon":5.40253,"is_reserved":false,"is_disabled":false,"rental_uris":{"android":"levelo://app?vid=b99ad779-80a8-4a74-8e15-70d6e682dc34","ios":"levelo://app?vid=b99ad779-80a8-4a74-8e15-70d6e682dc34"},"vehicle_type_id":"4","last_reported":1698599103,"current_range_meters":20000,"station_id":"cjm6bp8fraef2m0cb0m0","pricing_plan_id":"free"},{"bike_id":"45ef9769-e3c1-4f9e-b204-2e6a0ab904cc","system_id":"levelo_inurba_marseille","lat":43.26939,"lon":5.40251,"is_reserved":false,"is_disabled":false,"rental_uris":{"android":"levelo://app?vid=45ef9769-e3c1-4f9e-b204-2e6a0ab904cc","ios":"levelo://app?vid=45ef9769-e3c1-4f9e-b204-2e6a0ab904cc"},"vehicle_type_id":"4","last_reported":1698599103,"current_range_meters":27200,"station_id":"cjm6bp8fraef2m0cb0m0","pricing_plan_id":"free"},{"bike_id":"2bb5d85e-0c84-41a2-b9d7-05c8930d80bf","system_id":"levelo_inurba_marseille","lat":43.269363,"lon":5.402618,"is_reserved":false,"is_disabled":false,"rental_uris":{"android":"levelo://app?vid=2bb5d85e-0c84-41a2-b9d7-05c8930d80bf","ios":"levelo://app?vid=2bb5d85e-0c84-41a2-b9d7-05c8930d80bf"},"vehicle_type_id":"4","last_reported":1698599103,"current_range_meters":22800,"station_id":"cjm6bp8fraef2m0cb0m0","pricing_plan_id":"free"},{"bike_id":"160e5d81-1669-440c-ba28-bc7fb9824630","system_id":"levelo_inurba_marseille","lat":43.269347,"lon":5.40264,"is_reserved":false,"is_disabled":false,"rental_uris":{"android":"levelo://app?vid=160e5d81-1669-440c-ba28-bc7fb9824630","ios":"levelo://app?vid=160e5d81-1669-440c-ba28-bc7fb9824630"},"vehicle_type_id":"4","last_reported":1698599103,"current_range_meters":20400,"station_id":"cjm6bp8fraef2m0cb0m0","pricing_plan_id":"free"},{"bike_id":"6972960f-6ecd-4bd9-ace5-3c0d7d26ea39","system_id":"levelo_inurba_marseille","lat":43.331883,"lon":5.431859,"is_reserved":false,"is_disabled":false,"rental_uris":{"android":"levelo://app?vid=6972960f-6ecd-4bd9-ace5-3c0d7d26ea39","ios":"levelo://app?vid=6972960f-6ecd-4bd9-ace5-3c0d7d26ea39"},"vehicle_type_id":"4","last_reported":1698599103,"current_range_meters":0,"station_id":"","pricing_plan_id":"free"},{"bike_id":"45c5f447-58c3-4010-9243-79c09e267325","system_id":"levelo_inurba_marseille","lat":43.317104,"lon":5.436818,"is_reserved":false,"is_disabled":false,"rental_uris":{"android":"levelo://app?vid=45c5f447-58c3-4010-9243-79c09e267325","ios":"levelo://app?vid=45c5f447-58c3-4010-9243-79c09e267325"},"vehicle_type_id":"4","last_reported":1698599103,"current_range_meters":24000,"station_id":"ce4bhp92rcd13ifvqhcg","pricing_plan_id":"free"},{"bike_id":"379a37f8-5906-4962-b246-dcc5e1990ab5","system_id":"levelo_inurba_marseille","lat":43.26159,"lon":5.37306,"is_reserved":false,"is_disabled":false,"rental_uris":{"android":"levelo://app?vid=379a37f8-5906-4962-b246-dcc5e1990ab5","ios":"levelo://app?vid=379a37f8-5906-4962-b246-dcc5e1990ab5"},"vehicle_type_id":"4","last_reported":1698599103,"current_range_meters":21200,"station_id":"","pricing_plan_id":"free"},{"bike_id":"af8a5e87-a24e-43c6-9fbc-ccdd2f710b4a","system_id":"levelo_inurba_marseille","lat":43.262012,"lon":5.379307,"is_reserved":false,"is_disabled":false,"rental_uris":{"android":"levelo://app?vid=af8a5e87-a24e-43c6-9fbc-ccdd2f710b4a","ios":"levelo://app?vid=af8a5e87-a24e-43c6-9fbc-ccdd2f710b4a"},"vehicle_type_id":"4","last_reported":1698599103,"current_range_meters":20000,"station_id":"ce4bhjp2rcd13ifvqg90","pricing_plan_id":"free"},{"bike_id":"f808426e-6079-44b1-9a58-fee22f75b1c0","system_id":"levelo_inurba_marseille","lat":43.262012,"lon":5.379307,"is_reserved":false,"is_disabled":false,"rental_uris":{"android":"levelo://app?vid=f808426e-6079-44b1-9a58-fee22f75b1c0","ios":"levelo://app?vid=f808426e-6079-44b1-9a58-fee22f75b1c0"},"vehicle_type_id":"4","last_reported":1698599103,"current_range_meters":4000,"station_id":"ce4bhjp2rcd13ifvqg90","pricing_plan_id":"free"},{"bike_id":"33eda9e8-b79b-4e1e-86d3-adf305c18a86","system_id":"levelo_inurba_marseille","lat":43.267959,"lon":5.402687,"is_reserved":false,"is_disabled":false,"rental_uris":{"android":"levelo://app?vid=33eda9e8-b79b-4e1e-86d3-adf305c18a86","ios":"levelo://app?vid=33eda9e8-b79b-4e1e-86d3-adf305c18a86"},"vehicle_type_id":"4","last_reported":1698599103,"current_range_meters":31200,"station_id":"ce501612rcd8frsf0b60","pricing_plan_id":"free"},{"bike_id":"94a5bf8c-1f1b-484f-8918-623d314d3a5f","system_id":"levelo_inurba_marseille","lat":43.267959,"lon":5.402685,"is_reserved":false,"is_disabled":false,"rental_uris":{"android":"levelo://app?vid=94a5bf8c-1f1b-484f-8918-623d314d3a5f","ios":"levelo://app?vid=94a5bf8c-1f1b-484f-8918-623d314d3a5f"},"vehicle_type_id":"4","last_reported":1698599103,"current_range_meters":17200,"station_id":"ce501612rcd8frsf0b60","pricing_plan_id":"free"},{"bike_id":"3341166c-3a92-4727-962c-63bd4d36ba61","system_id":"levelo_inurba_marseille","lat":43.298768,"lon":5.43643,"is_reserved":false,"is_disabled":false,"rental_uris":{"android":"levelo://app?vid=3341166c-3a92-4727-962c-63bd4d36ba61","ios":"levelo://app?vid=3341166c-3a92-4727-962c-63bd4d36ba61"},"vehicle_type_id":"4","last_reported":1698599103,"current_range_meters":12400,"station_id":"ce4bhpp2rcd13ifvqhfg","pricing_plan_id":"free"},{"bike_id":"f95c55e6-03d2-4469-81b7-00a258dda51f","system_id":"levelo_inurba_marseille","lat":43.28155,"lon":5.42635,"is_reserved":false,"is_disabled":false,"rental_uris":{"android":"levelo://app?vid=f95c55e6-03d2-4469-81b7-00a258dda51f","ios":"levelo://app?vid=f95c55e6-03d2-4469-81b7-00a258dda51f"},"vehicle_type_id":"4","last_reported":1698599103,"current_range_meters":28400,"station_id":"ce4bhnh2rcd13ifvqgug","pricing_plan_id":"free"},{"bike_id":"9ef2d59a-aee0-487f-90b2-ad11449227b3","system_id":"levelo_inurba_marseille","lat":43.28152,"lon":5.42643,"is_reserved":false,"is_disabled":false,"rental_uris":{"android":"levelo://app?vid=9ef2d59a-aee0-487f-90b2-ad11449227b3","ios":"levelo://app?vid=9ef2d59a-aee0-487f-90b2-ad11449227b3"},"vehicle_type_id":"4","last_reported":1698599103,"current_range_meters":9200,"station_id":"ce4bhnh2rcd13ifvqgug","pricing_plan_id":"free"},{"bike_id":"f8263010-a86a-4ba4-a89d-9a7d2acdeac0","system_id":"levelo_inurba_marseille","lat":43.2607,"lon":5.393983,"is_reserved":false,"is_disabled":false,"rental_uris":{"android":"levelo://app?vid=f8263010-a86a-4ba4-a89d-9a7d2acdeac0","ios":"levelo://app?vid=f8263010-a86a-4ba4-a89d-9a7d2acdeac0"},"vehicle_type_id":"4","last_reported":1698599103,"current_range_meters":20400,"station_id":"ce4bhh92rcd13ifvqfj0","pricing_plan_id":"free"},{"bike_id":"fb9fadb3-6af7-4d8f-ad46-2010230661a5","system_id":"levelo_inurba_marseille","lat":43.2607,"lon":5.393983,"is_reserved":false,"is_disabled":false,"rental_uris":{"android":"levelo://app?vid=fb9fadb3-6af7-4d8f-ad46-2010230661a5","ios":"levelo://app?vid=fb9fadb3-6af7-4d8f-ad46-2010230661a5"},"vehicle_type_id":"4","last_reported":1698599103,"current_range_meters":12800,"station_id":"ce4bhh92rcd13ifvqfj0","pricing_plan_id":"free"},{"bike_id":"f849f3b9-17c5-4b91-bd81-b5b4e2cbcb8a","system_id":"levelo_inurba_marseille","lat":43.2607,"lon":5.393983,"is_reserved":false,"is_disabled":false,"rental_uris":{"android":"levelo://app?vid=f849f3b9-17c5-4b91-bd81-b5b4e2cbcb8a","ios":"levelo://app?vid=f849f3b9-17c5-4b91-bd81-b5b4e2cbcb8a"},"vehicle_type_id":"4","last_reported":1698599103,"current_range_meters":13200,"station_id":"ce4bhh92rcd13ifvqfj0","pricing_plan_id":"free"},{"bike_id":"60da1c32-c034-4d67-afc0-c4bf640167b1","system_id":"levelo_inurba_marseille","lat":43.275028,"lon":5.424534,"is_reserved":false,"is_disabled":false,"rental_uris":{"android":"levelo://app?vid=60da1c32-c034-4d67-afc0-c4bf640167b1","ios":"levelo://app?vid=60da1c32-c034-4d67-afc0-c4bf640167b1"},"vehicle_type_id":"4","last_reported":1698599103,"current_range_meters":18800,"station_id":"ce4bhn92rcd13ifvqgrg","pricing_plan_id":"free"},{"bike_id":"662fac96-563c-4bdb-ac7d-60fb49e0b07d","system_id":"levelo_inurba_marseille","lat":43.258205,"lon":5.394369,"is_reserved":false,"is_disabled":false,"rental_uris":{"android":"levelo://app?vid=662fac96-563c-4bdb-ac7d-60fb49e0b07d","ios":"levelo://app?vid=662fac96-563c-4bdb-ac7d-60fb49e0b07d"},"vehicle_type_id":"4","last_reported":1698599103,"current_range_meters":3200,"station_id":"ce4bhip2rcd13ifvqft0","pricing_plan_id":"free"},{"bike_id":"479d1e1b-e0ee-49a0-880e-3390a9b4af1b","system_id":"levelo_inurba_marseille","lat":43.25502,"lon":5.3765,"is_reserved":false,"is_disabled":false,"rental_uris":{"android":"levelo://app?vid=479d1e1b-e0ee-49a0-880e-3390a9b4af1b","ios":"levelo://app?vid=479d1e1b-e0ee-49a0-880e-3390a9b4af1b"},"vehicle_type_id":"4","last_reported":1698599103,"current_range_meters":21600,"station_id":"ce4bhh12rcd13ifvqff0","pricing_plan_id":"free"},{"bike_id":"70019523-10bd-4d4e-a150-e9506011275e","system_id":"levelo_inurba_marseille","lat":43.25498,"lon":5.37653,"is_reserved":false,"is_disabled":false,"rental_uris":{"android":"levelo://app?vid=70019523-10bd-4d4e-a150-e9506011275e","ios":"levelo://app?vid=70019523-10bd-4d4e-a150-e9506011275e"},"vehicle_type_id":"4","last_reported":1698599103,"current_range_meters":31600,"station_id":"ce4bhh12rcd13ifvqff0","pricing_plan_id":"free"},{"bike_id":"3f54ce62-659c-42fc-9d78-d4ffcca812e1","system_id":"levelo_inurba_marseille","lat":43.25498,"lon":5.37655,"is_reserved":false,"is_disabled":false,"rental_uris":{"android":"levelo://app?vid=3f54ce62-659c-42fc-9d78-d4ffcca812e1","ios":"levelo://app?vid=3f54ce62-659c-42fc-9d78-d4ffcca812e1"},"vehicle_type_id":"4","last_reported":1698599103,"current_range_meters":31600,"station_id":"ce4bhh12rcd13ifvqff0","pricing_plan_id":"free"},{"bike_id":"8ce7d9ac-4e9b-4b95-ac7c-9c2e3bd33350","system_id":"levelo_inurba_marseille","lat":43.270721,"lon":5.422764,"is_reserved":false,"is_disabled":false,"rental_uris":{"android":"levelo://app?vid=8ce7d9ac-4e9b-4b95-ac7c-9c2e3bd33350","ios":"levelo://app?vid=8ce7d9ac-4e9b-4b95-ac7c-9c2e3bd33350"},"vehicle_type_id":"4","last_reported":1698599103,"current_range_meters":24000,"station_id":"ce4bhk92rcd13ifvqgb0","pricing_plan_id":"free"},{"bike_id":"1bc25555-2c3b-4705-a6c2-39634809de94","system_id":"levelo_inurba_marseille","lat":43.270721,"lon":5.422764,"is_reserved":false,"is_disabled":false,"rental_uris":{"android":"levelo://app?vid=1bc25555-2c3b-4705-a6c2-39634809de94","ios":"levelo://app?vid=1bc25555-2c3b-4705-a6c2-39634809de94"},"vehicle_type_id":"4","last_reported":1698599103,"current_range_meters":0,"station_id":"ce4bhk92rcd13ifvqgb0","pricing_plan_id":"free"},{"bike_id":"3210e90f-54d2-4076-9fdd-b6eed18d7632","system_id":"levelo_inurba_marseille","lat":43.270721,"lon":5.422764,"is_reserved":false,"is_disabled":false,"rental_uris":{"android":"levelo://app?vid=3210e90f-54d2-4076-9fdd-b6eed18d7632","ios":"levelo://app?vid=3210e90f-54d2-4076-9fdd-b6eed18d7632"},"vehicle_type_id":"4","last_reported":1698599103,"current_range_meters":5600,"station_id":"ce4bhk92rcd13ifvqgb0","pricing_plan_id":"free"},{"bike_id":"ca1cf48c-1c60-4cd9-8db3-0c2557ceb93f","system_id":"levelo_inurba_marseille","lat":43.259009,"lon":5.40929,"is_reserved":false,"is_disabled":false,"rental_uris":{"android":"levelo://app?vid=ca1cf48c-1c60-4cd9-8db3-0c2557ceb93f","ios":"levelo://app?vid=ca1cf48c-1c60-4cd9-8db3-0c2557ceb93f"},"vehicle_type_id":"4","last_reported":1698599103,"current_range_meters":14000,"station_id":"ce4bhm92rcd13ifvqglg","pricing_plan_id":"free"},{"bike_id":"c6f11327-ff93-4d0d-9945-fd3773bd08d8","system_id":"levelo_inurba_marseille","lat":43.25932,"lon":5.40906,"is_reserved":false,"is_disabled":false,"rental_uris":{"android":"levelo://app?vid=c6f11327-ff93-4d0d-9945-fd3773bd08d8","ios":"levelo://app?vid=c6f11327-ff93-4d0d-9945-fd3773bd08d8"},"vehicle_type_id":"4","last_reported":1698599103,"current_range_meters":28800,"station_id":"ce4bhm92rcd13ifvqglg","pricing_plan_id":"free"},{"bike_id":"225a3414-934b-482a-8b83-eb314b4a767b","system_id":"levelo_inurba_marseille","lat":43.25932,"lon":5.40911,"is_reserved":false,"is_disabled":false,"rental_uris":{"android":"levelo://app?vid=225a3414-934b-482a-8b83-eb314b4a767b","ios":"levelo://app?vid=225a3414-934b-482a-8b83-eb314b4a767b"},"vehicle_type_id":"4","last_reported":1698599103,"current_range_meters":17200,"station_id":"ce4bhm92rcd13ifvqglg","pricing_plan_id":"free"},{"bike_id":"171960a5-0cc9-406d-abc1-fed8c439c253","system_id":"levelo_inurba_marseille","lat":43.25929,"lon":5.40917,"is_reserved":false,"is_disabled":false,"rental_uris":{"android":"levelo://app?vid=171960a5-0cc9-406d-abc1-fed8c439c253","ios":"levelo://app?vid=171960a5-0cc9-406d-abc1-fed8c439c253"},"vehicle_type_id":"4","last_reported":1698599103,"current_range_meters":12400,"station_id":"ce4bhm92rcd13ifvqglg","pricing_plan_id":"free"},{"bike_id":"c03988ca-0ddc-4e27-9ca4-d65a17108201","system_id":"levelo_inurba_marseille","lat":43.255034,"lon":5.398769,"is_reserved":false,"is_disabled":false,"rental_uris":{"android":"levelo://app?vid=c03988ca-0ddc-4e27-9ca4-d65a17108201","ios":"levelo://app?vid=c03988ca-0ddc-4e27-9ca4-d65a17108201"},"vehicle_type_id":"4","last_reported":1698599103,"current_range_meters":8800,"station_id":"","pricing_plan_id":"free"},{"bike_id":"2ac51a8f-2c2b-4d3b-969b-c716f06cd433","system_id":"levelo_inurba_marseille","lat":43.281207,"lon":5.442223,"is_reserved":false,"is_disabled":false,"rental_uris":{"android":"levelo://app?vid=2ac51a8f-2c2b-4d3b-969b-c716f06cd433","ios":"levelo://app?vid=2ac51a8f-2c2b-4d3b-969b-c716f06cd433"},"vehicle_type_id":"4","last_reported":1698599103,"current_range_meters":0,"station_id":"","pricing_plan_id":"free"},