{"last_updated":1750512000,"ttl":60,"version":"2.2","data":{"bikes":[{"bike_id":"3da29fb8-fc97-44c6-b9ac-31dd456b2fd4","system_id":"levelo_inurba_marseille","lat":43.33771,"lon":5.37424,"is_reserved":false,"is_disabled":true,"rental_uris":{"android":"levelo://app?vid=3da29fb8-fc97-44c6-b9ac-31dd456b2fd4","ios":"levelo://app?vid=3da29fb8-fc97-44c6-b9ac-31dd456b2fd4"},"vehicle_type_id":"4","last_reported":1750512001,"current_range_meters":0,"station_id":"","pricing_plan_id":"cebpf4jnsgd1na2vs0mg"},{"bike_id":"01861ad8-a8d7-4be6-816e-651927c87584","system_id":"levelo_inurba_marseille","lat":43.33751,"lon":5.37456,"is_reserved":false,"is_disabled":true,"rental_uris":{"android":"levelo://app?vid=01861ad8-a8d7-4be6-816e-651927c87584","ios":"levelo://app?vid=01861ad8-a8d7-4be6-816e-651927c87584"},"vehicle_type_id":"4","last_reported":1750512001,"current_range_meters":0,"station_id":"","pricing_plan_id":"cebpf4jnsgd1na2vs0mg"},{"bike_id":"62a493c7-4534-4419-ad43-0582de34a72a","system_id":"levelo_inurba_marseille","lat":43.21366,"lon":5.355183,"is_reserved":false,"is_disabled":true,"rental_uris":{"android":"levelo://app?vid=62a493c7-4534-4419-ad43-0582de34a72a","ios":"levelo://app?vid=62a493c7-4534-4419-ad43-0582de34a72a"},"vehicle_type_id":"4","last_reported":1750512001,"current_range_meters":0,"station_id":"","pricing_plan_id":"cebpf4jnsgd1na2vs0mg"},{"bike_id":"ab9ebe50-6c2e-44ca-bb3c-0c48ea184be5","system_id":"levelo_inurba_marseille","lat":43.224989,"lon":5.347896,"is_reserved":false,"is_disabled":true,"rental_uris":{"android":"levelo://app?vid=ab9ebe50-6c2e-44ca-bb3c-0c48ea184be5","ios":"levelo://app?vid=ab9ebe50-6c2e-44ca-bb3c-0c48ea184be5"},"vehicle_type_id":"4","last_reported":1750512001,"current_range_meters":0,"station_id":"","pricing_plan_id":"cebpf4jnsgd1na2vs0mg"},{"bike_id":"3ada4f9a-3c76-4ff6-a6ca-d65d1d1156ec","system_id":"levelo_inurba_marseille","lat":43.304799,"lon":5.365816,"is_reserved":false,"is_disabled":true,"rental_uris":{"android":"levelo://app?vid=3ada4f9a-3c76-4ff6-a6ca-d65d1d1156ec","ios":"levelo://app?vid=3ada4f9a-3c76-4ff6-a6ca-d65d1d1156ec"},"vehicle_type_id":"4","last_reported":1750512001,"current_range_meters":0,"station_id":"","pricing_plan_id":"cebpf4jnsgd1na2vs0mg"},{"bike_id":"a8315c18-574e-4aa9-b81b-8a92eadf75d6","system_id":"levelo_inurba_marseille","lat":43.301234,"lon":5.380071,"is_reserved":false,"is_disabled":true,"rental_uris":{"android":"levelo://app?vid=a8315c18-574e-4aa9-b81b-8a92eadf75d6","ios":"levelo://app?vid=a8315c18-574e-4aa9-b81b-8a92eadf75d6"},"vehicle_type_id":"4","last_reported":1750512001,"current_range_meters":0,"station_id":"","pricing_plan_id":"cebpf4jnsgd1na2vs0mg"},{"bike_id":"d1bd4974-2b1b-4b6f-9899-0610b24fbd9f","system_id":"levelo_inurba_marseille","lat":43.30289,"lon":5.3666,"is_reserved":false,"is_disabled":true,"rental_uris":{"android":"levelo://app?vid=d1bd4974-2b1b-4b6f-9899-0610b24fbd9f","ios":"levelo://app?vid=d1bd4974-2b1b-4b6f-9899-0610b24fbd9f"},"vehicle_type_id":"4","last_reported":1750512001,"current_range_meters":0,"station_id":"","pricing_plan_id":"cebpf4jnsgd1na2vs0mg"},{"bike_id":"d6609b4f-333b-43c1-9ebe-8726f5e76e88","system_id":"levelo_inurba_marseille","lat":43.337444,"lon":5.374475,"is_reserved":false,"is_disabled":true,"rental_uris":{"android":"levelo://app?vid=d6609b4f-333b-43c1-9ebe-8726f5e76e88","ios":"levelo://app?vid=d6609b4f-333b-43c1-9ebe-8726f5e76e88"},"vehicle_type_id":"4","last_reported":1750512001,"current_range_meters":0,"station_id":"","pricing_plan_id":"cebpf4jnsgd1na2vs0mg"},{"bike_id":"af123182-5949-4af4-b4b6-9bb162c8814c","system_id":"levelo_inurba_marseille","lat":43.27363,"lon":5.362366,"is_reserved":false,"is_disabled":true,"rental_uris":{"android":"levelo://app?vid=af123182-5949-4af4-b4b6-9bb162c8814c","ios":"levelo://app?vid=af123182-5949-4af4-b4b6-9bb162c8814c"},"vehicle_type_id":"4","last_reported":1750512001,"current_range_meters":0,"station_id":"","pricing_plan_id":"cebpf4jnsgd1na2vs0mg"},{"bike_id":"eb57a8eb-796c-4ae1-9df3-546df769e37b","system_id":"levelo_inurba_marseille","lat":43.29307,"lon":5.37178,"is_reserved":false,"is_disabled":true,"rental_uris":{"android":"levelo://app?vid=eb57a8eb-796c-4ae1-9df3-546df769e37b","ios":"levelo://app?vid=eb57a8eb-796c-4ae1-9df3-546df769e37b"},"vehicle_type_id":"4","last_reported":1750512001,"current_range_meters":0,"station_id":"ce4bgh92rcd13ifvqb40","pricing_plan_id":"cebpf4jnsgd1na2vs0mg"},{"bike_id":"513bb165-ff67-47f8-84b9-0272d5b321ac","system_id":"levelo_inurba_marseille","lat":43.2932,"lon":5.37204,"is_reserved":false,"is_disabled":true,"rental_uris":{"android":"levelo://app?vid=513bb165-ff67-47f8-84b9-0272d5b321ac","ios":"levelo://app?vid=513bb165-ff67-47f8-84b9-0272d5b321ac"},"vehicle_type_id":"4","last_reported":1750512001,"current_range_meters":0,"station_id":"ce4bgh92rcd13ifvqb40","pricing_plan_id":"cebpf4jnsgd1na2vs0mg"},{"bike_id":"45bbf0a9-fb71-4554-b265-a4213254df71","system_id":"levelo_inurba_marseille","lat":43.291958,"lon":5.357966,"is_reserved":false,"is_disabled":true,"rental_uris":{"android":"levelo://app?vid=45bbf0a9-fb71-4554-b265-a4213254df71","ios":"levelo://app?vid=45bbf0a9-fb71-4554-b265-a4213254df71"},"vehicle_type_id":"4","last_reported":1750512001,"current_range_meters":0,"station_id":"ce4bgip2rcd13ifvqbb0","pricing_plan_id":"cebpf4jnsgd1na2vs0mg"},{"bike_id":"d34ed38b-b4bd-4ae4-be66-52934b44ec47","system_id":"levelo_inurba_marseille","lat":43.307817,"lon":5.38139,"is_reserved":false,"is_disabled":true,"rental_uris":{"android":"levelo://app?vid=d34ed38b-b4bd-4ae4-be66-52934b44ec47","ios":"levelo://app?vid=d34ed38b-b4bd-4ae4-be66-52934b44ec47"},"vehicle_type_id":"4","last_reported":1750512001,"current_range_meters":0,"station_id":"ce4bgt12rcd13ifvqce0","pricing_plan_id":"cebpf4jnsgd1na2vs0mg"},{"bike_id":"e2334896-ca90-43e2-93ad-aaab9897182f","system_id":"levelo_inurba_marseille","lat":43.30468,"lon":5.3791,"is_reserved":false,"is_disabled":true,"rental_uris":{"android":"levelo://app?vid=e2334896-ca90-43e2-93ad-aaab9897182f","ios":"levelo://app?vid=e2334896-ca90-43e2-93ad-aaab9897182f"},"vehicle_type_id":"4","last_reported":1750512001,"current_range_meters":0,"station_id":"ce4bgup2rcd13ifvqcn0","pricing_plan_id":"cebpf4jnsgd1na2vs0mg"},{"bike_id":"35aaa1b1-2368-46df-be4d-6d64179bb0d6","system_id":"levelo_inurba_marseille","lat":43.30918,"lon":5.4014,"is_reserved":false,"is_disabled":true,"rental_uris":{"android":"levelo://app?vid=35aaa1b1-2368-46df-be4d-6d64179bb0d6","ios":"levelo://app?vid=35aaa1b1-2368-46df-be4d-6d64179bb0d6"},"vehicle_type_id":"4","last_reported":1750512001,"current_range_meters":0,"station_id":"ce4bgvp2rcd13ifvqct0","pricing_plan_id":"cebpf4jnsgd1na2vs0mg"},{"bike_id":"62882664-8a00-48cf-a525-86bd3a67de6c","system_id":"levelo_inurba_marseille","lat":43.30101,"lon":5.39084,"is_reserved":false,"is_disabled":true,"rental_uris":{"android":"levelo://app?vid=62882664-8a00-48cf-a525-86bd3a67de6c","ios":"levelo://app?vid=62882664-8a00-48cf-a525-86bd3a67de6c"},"vehicle_type_id":"4","last_reported":1750512001,"current_range_meters":0,"station_id":"ce4bh192rcd13ifvqdb0","pricing_plan_id":"cebpf4jnsgd1na2vs0mg"},{"bike_id":"4d622a8b-96f7-46cf-ab8a-562c604819c0","system_id":"levelo_inurba_marseille","lat":43.29535,"lon":5.39398,"is_reserved":false,"is_disabled":true,"rental_uris":{"android":"levelo://app?vid=4d622a8b-96f7-46cf-ab8a-562c604819c0","ios":"levelo://app?vid=4d622a8b-96f7-46cf-ab8a-562c604819c0"},"vehicle_type_id":"4","last_reported":1750512001,"current_range_meters":0,"station_id":"ce4bh292rcd13ifvqdf0","pricing_plan_id":"cebpf4jnsgd1na2vs0mg"},{"bike_id":"0734c3b4-1b6f-428d-b068-d7984553c29a","system_id":"levelo_inurba_marseille","lat":43.29886,"lon":5.38901,"is_reserved":false,"is_disabled":true,"rental_uris":{"android":"levelo://app?vid=0734c3b4-1b6f-428d-b068-d7984553c29a","ios":"levelo://app?vid=0734c3b4-1b6f-428d-b068-d7984553c29a"},"vehicle_type_id":"4","last_reported":1750512001,"current_range_meters":0,"station_id":"ce4bh392rcd13ifvqdl0","pricing_plan_id":"cebpf4jnsgd1na2vs0mg"},{"bike_id":"54e891c0-99cb-4089-9c7a-b6c876af71d3","system_id":"levelo_inurba_marseille","lat":43.29029,"lon":5.38646,"is_reserved":false,"is_disabled":true,"rental_uris":{"android":"levelo://app?vid=54e891c0-99cb-4089-9c7a-b6c876af71d3","ios":"levelo://app?vid=54e891c0-99cb-4089-9c7a-b6c876af71d3"},"vehicle_type_id":"4","last_reported":1750512001,"current_range_meters":0,"station_id":"ce4bh4p2rcd13ifvqe0g","pricing_plan_id":"cebpf4jnsgd1na2vs0mg"},{"bike_id":"407cbfcd-daef-4cbb-8c57-8a8f404336a2","system_id":"levelo_inurba_marseille","lat":43.27378,"lon":5.36262,"is_reserved":false,"is_disabled":true,"rental_uris":{"android":"levelo://app?vid=407cbfcd-daef-4cbb-8c57-8a8f404336a2","ios":"levelo://app?vid=407cbfcd-daef-4cbb-8c57-8a8f404336a2"},"vehicle_type_id":"4","last_reported":1750512001,"current_range_meters":0,"station_id":"ce4bhbh2rcd13ifvqeo0","pricing_plan_id":"cebpf4jnsgd1na2vs0mg"},{"bike_id":"0e8c2c81-d3ac-4b23-819d-ec12e003566d","system_id":"levelo_inurba_marseille","lat":43.292206,"lon":5.360602,"is_reserved":false,"is_disabled":true,"rental_uris":{"android":"levelo://app?vid=0e8c2c81-d3ac-4b23-819d-ec12e003566d","ios":"levelo://app?vid=0e8c2c81-d3ac-4b23-819d-ec12e003566d"},"vehicle_type_id":"4","last_reported":1750512001,"current_range_meters":0,"station_id":"ce4bhbh2rcd13ifvqeqg","pricing_plan_id":"cebpf4jnsgd1na2vs0mg"},{"bike_id":"aff2258e-97a5-4505-a775-c896244db053","system_id":"levelo_inurba_marseille","lat":43.28618,"lon":5.35092,"is_reserved":false,"is_disabled":true,"rental_uris":{"android":"levelo://app?vid=aff2258e-97a5-4505-a775-c896244db053","ios":"levelo://app?vid=aff2258e-97a5-4505-a775-c896244db053"},"vehicle_type_id":"4","last_reported":1750512001,"current_range_meters":0,"station_id":"ce4bhch2rcd13ifvqeug","pricing_plan_id":"cebpf4jnsgd1na2vs0mg"},{"bike_id":"4dc25224-06eb-48db-826c-8ba329c4ba62","system_id":"levelo_inurba_marseille","lat":43.28624,"lon":5.35113,"is_reserved":false,"is_disabled":true,"rental_uris":{"android":"levelo://app?vid=4dc25224-06eb-48db-826c-8ba329c4ba62","ios":"levelo://app?vid=4dc25224-06eb-48db-826c-8ba329c4ba62"},"vehicle_type_id":"4","last_reported":1750512001,"current_range_meters":0,"station_id":"ce4bhch2rcd13ifvqeug","pricing_plan_id":"cebpf4jnsgd1na2vs0mg"},{"bike_id":"41474178-9f96-43a7-82d5-6d966f5d596b","system_id":"levelo_inurba_marseille","lat":43.23958,"lon":5.36634,"is_reserved":false,"is_disabled":true,"rental_uris":{"android":"levelo://app?vid=41474178-9f96-43a7-82d5-6d966f5d596b","ios":"levelo://app?vid=41474178-9f96-43a7-82d5-6d966f5d596b"},"vehicle_type_id":"4","last_reported":1750512001,"current_range_meters":0,"station_id":"ce4bhi12rcd13ifvqfp0","pricing_plan_id":"cebpf4jnsgd1na2vs0mg"},{"bike_id":"07023714-168c-44ab-9797-74856f814d11","system_id":"levelo_inurba_marseille","lat":43.28698,"lon":5.39976,"is_reserved":false,"is_disabled":true,"rental_uris":{"android":"levelo://app?vid=07023714-168c-44ab-9797-74856f814d11","ios":"levelo://app?vid=07023714-168c-44ab-9797-74856f814d11"},"vehicle_type_id":"4","last_reported":1750512001,"current_range_meters":0,"station_id":"ce4bho92rcd13ifvqh3g","pricing_plan_id":"cebpf4jnsgd1na2vs0mg"},{"bike_id":"0fdac1f5-8ef5-4674-87f1-ce0850b4fe12","system_id":"levelo_inurba_marseille","lat":43.22928,"lon":5.35378,"is_reserved":false,"is_disabled":true,"rental_uris":{"android":"levelo://app?vid=0fdac1f5-8ef5-4674-87f1-ce0850b4fe12","ios":"levelo://app?vid=0fdac1f5-8ef5-4674-87f1-ce0850b4fe12"},"vehicle_type_id":"4","last_reported":1750512001,"current_range_meters":0,"station_id":"cpo3532slgdg3j2ikp40","pricing_plan_id":"cebpf4jnsgd1na2vs0mg"},{"bike_id":"153e55bb-a243-4263-ab49-e5c7563fcbdd","system_id":"levelo_inurba_marseille","lat":43.229266,"lon":5.353764,"is_reserved":false,"is_disabled":true,"rental_uris":{"android":"levelo://app?vid=153e55bb-a243-4263-ab49-e5c7563fcbdd","ios":"levelo://app?vid=153e55bb-a243-4263-ab49-e5c7563fcbdd"},"vehicle_type_id":"4","last_reported":1750512001,"current_range_meters":0,"station_id":"cpo3532slgdg3j2ikp40","pricing_plan_id":"cebpf4jnsgd1na2vs0mg"},{"bike_id":"bd0e3dcf-86bd-49e6-82f4-643dc229f570","system_id":"levelo_inurba_marseille","lat":43.21765,"lon":5.34601,"is_reserved":false,"is_disabled":true,"rental_uris":{"android":"levelo://app?vid=bd0e3dcf-86bd-49e6-82f4-643dc229f570","ios":"levelo://app?vid=bd0e3dcf-86bd-49e6-82f4-643dc229f570"},"vehicle_type_id":"4","last_reported":1750512001,"current_range_meters":0,"station_id":"st_cvj6r9ubvosntc0bgbag","pricing_plan_id":"cebpf4jnsgd1na2vs0mg"},{"bike_id":"156717d9-5d82-4226-a389-e52555e7069b","system_id":"levelo_inurba_marseille","lat":43.306207,"lon":5.376349,"is_reserved":false,"is_disabled":true,"rental_uris":{"android":"levelo://app?vid=156717d9-5d82-4226-a389-e52555e7069b","ios":"levelo://app?vid=156717d9-5d82-4226-a389-e52555e7069b"},"vehicle_type_id":"4","last_reported":1750512001,"current_range_meters":400,"station_id":"","pricing_plan_id":"cebpf4jnsgd1na2vs0mg"},{"bike_id":"3896c743-335d-4f9d-8e5f-982b05bddacd","system_id":"levelo_inurba_marseille","lat":43.28106,"lon":5.37842,"is_reserved":false,"is_disabled":true,"rental_uris":{"android":"levelo://app?vid=3896c743-335d-4f9d-8e5f-982b05bddacd","ios":"levelo://app?vid=3896c743-335d-4f9d-8e5f-982b05bddacd"},"vehicle_type_id":"4","last_reported":1750512001,"current_range_meters":400,"station_id":"ce4bha12rcd13ifvqee0","pricing_plan_id":"cebpf4jnsgd1na2vs0mg"},{"bike_id":"a72e051f-53ff-4dcc-acc2-50aef44075c5","system_id":"levelo_inurba_marseille","lat":43.29217,"lon":5.3608,"is_reserved":false,"is_disabled":true,"rental_uris":{"android":"levelo://app?vid=a72e051f-53ff-4dcc-acc2-50aef44075c5","ios":"levelo://app?vid=a72e051f-53ff-4dcc-acc2-50aef44075c5"},"vehicle_type_id":"4","last_reported":1750512001,"current_range_meters":400,"station_id":"ce4bhbh2rcd13ifvqeqg","pricing_plan_id":"cebpf4jnsgd1na2vs0mg"},{"bike_id":"76c9eb02-213a-4e98-9ece-4ed37db782a3","system_id":"levelo_inurba_marseille","lat":43.28265,"lon":5.35063,"is_reserved":false,"is_disabled":true,"rental_uris":{"android":"levelo://app?vid=76c9eb02-213a-4e98-9ece-4ed37db782a3","ios":"levelo://app?vid=76c9eb02-213a-4e98-9ece-4ed37db782a3"},"vehicle_type_id":"4","last_reported":1750512001,"current_range_meters":400,"station_id":"ce4bhbp2rcd13ifvqerg","pricing_plan_id":"cebpf4jnsgd1na2vs0mg"},{"bike_id":"6892ffa5-3c87-4841-a524-d4398816ea4b","system_id":"levelo_inurba_marseille","lat":43.28617,"lon":5.35101,"is_reserved":false,"is_disabled":true,"rental_uris":{"android":"levelo://app?vid=6892ffa5-3c87-4841-a524-d4398816ea4b","ios":"levelo://app?vid=6892ffa5-3c87-4841-a524-d4398816ea4b"},"vehicle_type_id":"4","last_reported":1750512001,"current_range_meters":400,"station_id":"ce4bhch2rcd13ifvqeug","pricing_plan_id":"cebpf4jnsgd1na2vs0mg"},{"bike_id":"0a236638-772d-44f0-a89a-0614c054554b","system_id":"levelo_inurba_marseille","lat":43.27213,"lon":5.39202,"is_reserved":false,"is_disabled":true,"rental_uris":{"android":"levelo://app?vid=0a236638-772d-44f0-a89a-0614c054554b","ios":"levelo://app?vid=0a236638-772d-44f0-a89a-0614c054554b"},"vehicle_type_id":"4","last_reported":1750512001,"current_range_meters":400,"station_id":"ce4bhhp2rcd13ifvqfm0","pricing_plan_id":"cebpf4jnsgd1na2vs0mg"},{"bike_id":"8e870832-76c7-4a23-80fe-7850ae503800","system_id":"levelo_inurba_marseille","lat":43.217463,"lon":5.345734,"is_reserved":false,"is_disabled":true,"rental_uris":{"android":"levelo://app?vid=8e870832-76c7-4a23-80fe-7850ae503800","ios":"levelo://app?vid=8e870832-76c7-4a23-80fe-7850ae503800"},"vehicle_type_id":"4","last_reported":1750512001,"current_range_meters":400,"station_id":"st_cvj6r9ubvosntc0bgbag","pricing_plan_id":"cebpf4jnsgd1na2vs0mg"},{"bike_id":"df4ae7d7-fafc-4828-af07-436ae43bac5a","system_id":"levelo_inurba_marseille","lat":43.29348,"lon":5.37201,"is_reserved":false,"is_disabled":true,"rental_uris":{"android":"levelo://app?vid=df4ae7d7-fafc-4828-af07-436ae43bac5a","ios":"levelo://app?vid=df4ae7d7-fafc-4828-af07-436ae43bac5a"},"vehicle_type_id":"4","last_reported":1750512001,"current_range_meters":800,"station_id":"ce4bgh92rcd13ifvqb40","pricing_plan_id":"cebpf4jnsgd1na2vs0mg"},{"bike_id":"b8037ea3-a9ef-4c66-8648-13ad5606c7f4","system_id":"levelo_inurba_marseille","lat":43.319993,"lon":5.381625,"is_reserved":false,"is_disabled":true,"rental_uris":{"android":"levelo://app?vid=b8037ea3-a9ef-4c66-8648-13ad5606c7f4","ios":"levelo://app?vid=b8037ea3-a9ef-4c66-8648-13ad5606c7f4"},"vehicle_type_id":"4","last_reported":1750512001,"current_range_meters":800,"station_id":"ce4bhr12rcd13ifvqhpg","pricing_plan_id":"cebpf4jnsgd1na2vs0mg"},{"bike_id":"4ecadb10-cccd-4178-a7d8-dd9fe7b6d391","system_id":"levelo_inurba_marseille","lat":43.30517,"lon":5.40095,"is_reserved":false,"is_disabled":true,"rental_uris":{"android":"levelo://app?vid=4ecadb10-cccd-4178-a7d8-dd9fe7b6d391","ios":"levelo://app?vid=4ecadb10-cccd-4178-a7d8-dd9fe7b6d391"},"vehicle_type_id":"4","last_reported":1750512001,"current_range_meters":1200,"station_id":"","pricing_plan_id":"cebpf4jnsgd1na2vs0mg"},{"bike_id":"b2dda320-0fd3-4bfd-9230-5e8494fb3fd0","system_id":"levelo_inurba_marseille","lat":43.30217,"lon":5.39478,"is_reserved":false,"is_disabled":true,"rental_uris":{"android":"levelo://app?vid=b2dda320-0fd3-4bfd-9230-5e8494fb3fd0","ios":"levelo://app?vid=b2dda320-0fd3-4bfd-9230-5e8494fb3fd0"},"vehicle_type_id":"4","last_reported":1750512001,"current_range_meters":1200,"station_id":"ce4bh0p2rcd13ifvqd70","pricing_plan_id":"cebpf4jnsgd1na2vs0mg"},{"bike_id":"b800bf00-45b3-44e3-95ec-beeef381fff6","system_id":"levelo_inurba_marseille","lat":43.286091,"lon":5.351179,"is_reserved":false,"is_disabled":true,"rental_uris":{"android":"levelo://app?vid=b800bf00-45b3-44e3-95ec-beeef381fff6","ios":"levelo://app?vid=b800bf00-45b3-44e3-95ec-beeef381fff6"},"vehicle_type_id":"4","last_reported":1750512001,"current_range_meters":1200,"station_id":"ce4bhch2rcd13ifvqeug","pricing_plan_id":"cebpf4jnsgd1na2vs0mg"},{"bike_id":"05e51855-0442-479b-98e5-ba9c6499bab0","system_id":"levelo_inurba_marseille","lat":43.23151,"lon":5.43736,"is_reserved":false,"is_disabled":true,"rental_uris":{"android":"levelo://app?vid=05e51855-0442-479b-98e5-ba9c6499bab0","ios":"levelo://app?vid=05e51855-0442-479b-98e5-ba9c6499bab0"},"vehicle_type_id":"4","last_reported":1750512001,"current_range_meters":1200,"station_id":"ce4bhmp2rcd13ifvqgog","pricing_plan_id":"cebpf4jnsgd1na2vs0mg"},{"bike_id":"282ec8cc-c0c3-4f99-bfba-63208a1e49d4","system_id":"levelo_inurba_marseille","lat":43.28872,"lon":5.36031,"is_reserved":false,"is_disabled":true,"rental_uris":{"android":"levelo://app?vid=282ec8cc-c0c3-4f99-bfba-63208a1e49d4","ios":"levelo://app?vid=282ec8cc-c0c3-4f99-bfba-63208a1e49d4"},"vehicle_type_id":"4","last_reported":1750512001,"current_range_meters":1600,"station_id":"","pricing_plan_id":"cebpf4jnsgd1na2vs0mg"},{"bike_id":"9852d5c7-6963-4127-a47a-302d415a7bf4","system_id":"levelo_inurba_marseille","lat":43.29968,"lon":5.37175,"is_reserved":false,"is_disabled":true,"rental_uris":{"android":"levelo://app?vid=9852d5c7-6963-4127-a47a-302d415a7bf4","ios":"levelo://app?vid=9852d5c7-6963-4127-a47a-302d415a7bf4"},"vehicle_type_id":"4","last_reported":1750512001,"current_range_meters":1600,"station_id":"ce4bgr92rcd13ifvqc7g","pricing_plan_id":"cebpf4jnsgd1na2vs0mg"},{"bike_id":"54eb4e42-2e59-4c84-8fdd-8ffc5bd5277a","system_id":"levelo_inurba_marseille","lat":43.29273,"lon":5.38458,"is_reserved":false,"is_disabled":true,"rental_uris":{"android":"levelo://app?vid=54eb4e42-2e59-4c84-8fdd-8ffc5bd5277a","ios":"levelo://app?vid=54eb4e42-2e59-4c84-8fdd-8ffc5bd5277a"},"vehicle_type_id":"4","last_reported":1750512001,"current_range_meters":1600,"station_id":"ce4bh692rcd13ifvqea0","pricing_plan_id":"cebpf4jnsgd1na2vs0mg"},{"bike_id":"c81d86ef-3241-484b-b866-78a90534c046","system_id":"levelo_inurba_marseille","lat":43.28289,"lon":5.351,"is_reserved":false,"is_disabled":true,"rental_uris":{"android":"levelo://app?vid=c81d86ef-3241-484b-b866-78a90534c046","ios":"levelo://app?vid=c81d86ef-3241-484b-b866-78a90534c046"},"vehicle_type_id":"4","last_reported":1750512001,"current_range_meters":1600,"station_id":"ce4bhbp2rcd13ifvqerg","pricing_plan_id":"cebpf4jnsgd1na2vs0mg"},{"bike_id":"24d3d583-96bf-4b2a-8a83-8740ef0d58b4","system_id":"levelo_inurba_marseille","lat":43.231835,"lon":5.3998,"is_reserved":false,"is_disabled":true,"rental_uris":{"android":"levelo://app?vid=24d3d583-96bf-4b2a-8a83-8740ef0d58b4","ios":"levelo://app?vid=24d3d583-96bf-4b2a-8a83-8740ef0d58b4"},"vehicle_type_id":"4","last_reported":1750512001,"current_range_meters":1600,"station_id":"ce4bhn12rcd13ifvqgqg","pricing_plan_id":"cebpf4jnsgd1na2vs0mg"},{"bike_id":"b89de80f-127e-4446-a39a-f6a8d63b4ea2","system_id":"levelo_inurba_marseille","lat":43.2938,"lon":5.37291,"is_reserved":false,"is_disabled":true,"rental_uris":{"android":"levelo://app?vid=b89de80f-127e-4446-a39a-f6a8d63b4ea2","ios":"levelo://app?vid=b89de80f-127e-4446-a39a-f6a8d63b4ea2"},"vehicle_type_id":"4","last_reported":1750512001,"current_range_meters":2000,"station_id":"","pricing_plan_id":"cebpf4jnsgd1na2vs0mg"},{"bike_id":"14853d87-efc6-4f6d-bb3d-80b76307e479","system_id":"levelo_inurba_marseille","lat":43.29176,"lon":5.37161,"is_reserved":false,"is_disabled":true,"rental_uris":{"android":"levelo://app?vid=14853d87-efc6-4f6d-bb3d-80b76307e479","ios":"levelo://app?vid=14853d87-efc6-4f6d-bb3d-80b76307e479"},"vehicle_type_id":"4","last_reported":1750512001,"current_range_meters":2000,"station_id":"ce4bha92rcd13ifvqeh0","pricing_plan_id":"cebpf4jnsgd1na2vs0mg"},{"bike_id":"ad855103-c685-4b63-8c5b-60f76a7b4504","system_id":"levelo_inurba_marseille","lat":43.2396,"lon":5.36637,"is_reserved":false,"is_disabled":true,"rental_uris":{"android":"levelo://app?vid=ad855103-c685-4b63-8c5b-60f76a7b4504","ios":"levelo://app?vid=ad855103-c685-4b63-8c5b-60f76a7b4504"},"vehicle_type_id":"4","last_reported":1750512001,"current_range_meters":2000,"station_id":"ce4bhi12rcd13ifvqfp0","pricing_plan_id":"cebpf4jnsgd1na2vs0mg"},{"bike_id":"32825310-4403-44a6-a1f4-0a900ec67191","system_id":"levelo_inurba_marseille","lat":43.31905,"lon":5.40743,"is_reserved":false,"is_disabled":true,"rental_uris":{"android":"levelo://app?vid=32825310-4403-44a6-a1f4-0a900ec67191","ios":"levelo://app?vid=32825310-4403-44a6-a1f4-0a900ec67191"},"vehicle_type_id":"4","last_reported":1750512001,"current_range_meters":2000,"station_id":"ce4bhq12rcd13ifvqhig","pricing_plan_id":"cebpf4jnsgd1na2vs0mg"},{"bike_id":"e8b2899a-4211-4f31-b803-6ec5b4d26202","system_id":"levelo_inurba_marseille","lat":43.2758,"lon":5.39691,"is_reserved":false,"is_disabled":false,"rental_uris":{"android":"levelo://app?vid=e8b2899a-4211-4f31-b803-6ec5b4d26202","ios":"levelo://app?vid=e8b2899a-4211-4f31-b803-6ec5b4d26202"},"vehicle_type_id":"4","last_reported":1750512001,"current_range_meters":2800,"station_id":"","pricing_plan_id":"cebpf4jnsgd1na2vs0mg"},{"bike_id":"254a58a4-cf96-4746-a113-21eb7ae4cf94","system_id":"levelo_inurba_marseille","lat":43.311797,"lon":5.387167,"is_reserved":false,"is_disabled":false,"rental_uris":{"android":"levelo://app?vid=254a58a4-cf96-4746-a113-21eb7ae4cf94","ios":"levelo://app?vid=254a58a4-cf96-4746-a113-21eb7ae4cf94"},"vehicle_type_id":"4","last_reported":1750512001,"current_range_meters":2800,"station_id":"ce4bgv12rcd13ifvqcp0","pricing_plan_id":"cebpf4jnsgd1na2vs0mg"},{"bike_id":"30c8606d-d231-40a4-94a8-2e7525147bc8","system_id":"levelo_inurba_marseille","lat":43.30653,"lon":5.400859,"is_reserved":false,"is_disabled":false,"rental_uris":{"android":"levelo://app?vid=30c8606d-d231-40a4-94a8-2e7525147bc8","ios":"levelo://app?vid=30c8606d-d231-40a4-94a8-2e7525147bc8"},"vehicle_type_id":"4","last_reported":1750512001,"current_range_meters":2800,"station_id":"ce4bh112rcd13ifvqda0","pricing_plan_id":"cebpf4jnsgd1na2vs0mg"},{"bike_id":"68a80a93-9a88-4260-be4d-c7a44bf2a099","system_id":"levelo_inurba_marseille","lat":43.30097,"lon":5.39088,"is_reserved":false,"is_disabled":false,"rental_uris":{"android":"levelo://app?vid=68a80a93-9a88-4260-be4d-c7a44bf2a099","ios":"levelo://app?vid=68a80a93-9a88-4260-be4d-c7a44bf2a099"},"vehicle_type_id":"4","last_reported":1750512001,"current_range_meters":2800,"station_id":"ce4bh192rcd13ifvqdb0","pricing_plan_id":"cebpf4jnsgd1na2vs0mg"},{"bike_id":"17574cd0-1726-4f94-9237-ba933c6c283c","system_id":"levelo_inurba_marseille","lat":43.28848,"lon":5.39321,"is_reserved":false,"is_disabled":false,"rental_uris":{"android":"levelo://app?vid=17574cd0-1726-4f94-9237-ba933c6c283c","ios":"levelo://app?vid=17574cd0-1726-4f94-9237-ba933c6c283c"},"vehicle_type_id":"4","last_reported":1750512001,"current_range_meters":2800,"station_id":"ce4bh2p2rcd13ifvqdi0","pricing_plan_id":"cebpf4jnsgd1na2vs0mg"},{"bike_id":"dd45b830-666c-4c76-b06e-9938bffa2cad","system_id":"levelo_inurba_marseille","lat":43.31982,"lon":5.3755,"is_reserved":false,"is_disabled":false,"rental_uris":{"android":"levelo://app?vid=dd45b830-666c-4c76-b06e-9938bffa2cad","ios":"levelo://app?vid=dd45b830-666c-4c76-b06e-9938bffa2cad"},"vehicle_type_id":"4","last_reported":1750512001,"current_range_meters":3200,"station_id":"","pricing_plan_id":"cebpf4jnsgd1na2vs0mg"},{"bike_id":"df735c88-ae0a-4f8e-9723-d29eb27d80b9","system_id":"levelo_inurba_marseille","lat":43.299119,"lon":5.37639,"is_reserved":false,"is_disabled":false,"rental_uris":{"android":"levelo://app?vid=df735c88-ae0a-4f8e-9723-d29eb27d80b9","ios":"levelo://app?vid=df735c88-ae0a-4f8e-9723-d29eb27d80b9"},"vehicle_type_id":"4","last_reported":1750512001,"current_range_meters":3200,"station_id":"","pricing_plan_id":"cebpf4jnsgd1na2vs0mg"},{"bike_id":"fb16bd4a-a45c-404c-ae4f-594a50006a59","system_id":"levelo_inurba_marseille","lat":43.23963,"lon":5.36633,"is_reserved":false,"is_disabled":false,"rental_uris":{"android":"levelo://app?vid=fb16bd4a-a45c-404c-ae4f-594a50006a59","ios":"levelo://app?vid=fb16bd4a-a45c-404c-ae4f-594a50006a59"},"vehicle_type_id":"4","last_reported":1750512001,"current_range_meters":3200,"station_id":"ce4bhi12rcd13ifvqfp0","pricing_plan_id":"cebpf4jnsgd1na2vs0mg"},{"bike_id":"a9b23212-b22e-484a-99c6-8918a74098c3","system_id":"levelo_inurba_marseille","lat":43.23151,"lon":5.43722,"is_reserved":false,"is_disabled":false,"rental_uris":{"android":"levelo://app?vid=a9b23212-b22e-484a-99c6-8918a74098c3","ios":"levelo://app?vid=a9b23212-b22e-484a-99c6-8918a74098c3"},"vehicle_type_id":"4","last_reported":1750512001,"current_range_meters":3200,"station_id":"ce4bhmp2rcd13ifvqgog","pricing_plan_id":"cebpf4jnsgd1na2vs0mg"},{"bike_id":"3c00cc14-5bad-486a-95ef-82ef935942ba","system_id":"levelo_inurba_marseille","lat":43.29647,"lon":5.37293,"is_reserved":false,"is_disabled":false,"rental_uris":{"android":"levelo://app?vid=3c00cc14-5bad-486a-95ef-82ef935942ba","ios":"levelo://app?vid=3c00cc14-5bad-486a-95ef-82ef935942ba"},"vehicle_type_id":"4","last_reported":1750512001,"current_range_meters":3600,"station_id":"ce4bgk12rcd13ifvqbj0","pricing_plan_id":"cebpf4jnsgd1na2vs0mg"},{"bike_id":"bc833dd8-cdc3-42f5-94e5-c577b166447e","system_id":"levelo_inurba_marseille","lat":43.31686,"lon":5.40484,"is_reserved":false,"is_disabled":false,"rental_uris":{"android":"levelo://app?vid=bc833dd8-cdc3-42f5-94e5-c577b166447e","ios":"levelo://app?vid=bc833dd8-cdc3-42f5-94e5-c577b166447e"},"vehicle_type_id":"4","last_reported":1750512001,"current_range_meters":3600,"station_id":"ce4bh012rcd13ifvqd00","pricing_plan_id":"cebpf4jnsgd1na2vs0mg"},{"bike_id":"18e65512-0ef3-4202-baf6-8a3e312d9af9","system_id":"levelo_inurba_marseille","lat":43.28481,"lon":5.38576,"is_reserved":false,"is_disabled":false,"rental_uris":{"android":"levelo://app?vid=18e65512-0ef3-4202-baf6-8a3e312d9af9","ios":"levelo://app?vid=18e65512-0ef3-4202-baf6-8a3e312d9af9"},"vehicle_type_id":"4","last_reported":1750512001,"current_range_meters":3600,"station_id":"ce4bh8p2rcd13ifvqeb0","pricing_plan_id":"cebpf4jnsgd1na2vs0mg"},{"bike_id":"5f54b4ce-55bf-46ac-a4f0-571ac5a88966","system_id":"levelo_inurba_marseille","lat":43.27965,"lon":5.38726,"is_reserved":false,"is_disabled":false,"rental_uris":{"android":"levelo://app?vid=5f54b4ce-55bf-46ac-a4f0-571ac5a88966","ios":"levelo://app?vid=5f54b4ce-55bf-46ac-a4f0-571ac5a88966"},"vehicle_type_id":"4","last_reported":1750512001,"current_range_meters":3600,"station_id":"ce4bhg12rcd13ifvqf80","pricing_plan_id":"cebpf4jnsgd1na2vs0mg"},{"bike_id":"58acb7f2-1144-4326-917d-ad806c5bf40a","system_id":"levelo_inurba_marseille","lat":43.267761,"lon":5.394186,"is_reserved":false,"is_disabled":false,"rental_uris":{"android":"levelo://app?vid=58acb7f2-1144-4326-917d-ad806c5bf40a","ios":"levelo://app?vid=58acb7f2-1144-4326-917d-ad806c5bf40a"},"vehicle_type_id":"4","last_reported":1750512001,"current_range_meters":3600,"station_id":"ce4bhh12rcd13ifvqfg0","pricing_plan_id":"cebpf4jnsgd1na2vs0mg"},{"bike_id":"5fcdc553-bfb6-4a83-87bb-9cfceb2c2ea9","system_id":"levelo_inurba_marseille","lat":43.24539,"lon":5.39529,"is_reserved":false,"is_disabled":false,"rental_uris":{"android":"levelo://app?vid=5fcdc553-bfb6-4a83-87bb-9cfceb2c2ea9","ios":"levelo://app?vid=5fcdc553-bfb6-4a83-87bb-9cfceb2c2ea9"},"vehicle_type_id":"4","last_reported":1750512001,"current_range_meters":3600,"station_id":"ce4bhlp2rcd13ifvqgjg","pricing_plan_id":"cebpf4jnsgd1na2vs0mg"},{"bike_id":"07bf6f54-c822-49c8-9fef-344d5922155b","system_id":"levelo_inurba_marseille","lat":43.282697,"lon":5.350536,"is_reserved":false,"is_disabled":false,"rental_uris":{"android":"levelo://app?vid=07bf6f54-c822-49c8-9fef-344d5922155b","ios":"levelo://app?vid=07bf6f54-c822-49c8-9fef-344d5922155b"},"vehicle_type_id":"4","last_reported":1750512001,"current_range_meters":4000,"station_id":"","pricing_plan_id":"cebpf4jnsgd1na2vs0mg"},{"bike_id":"190b4ba3-3f05-4f03-b406-255550d2f59c","system_id":"levelo_inurba_marseille","lat":43.28482,"lon":5.38421,"is_reserved":false,"is_disabled":false,"rental_uris":{"android":"levelo://app?vid=190b4ba3-3f05-4f03-b406-255550d2f59c","ios":"levelo://app?vid=190b4ba3-3f05-4f03-b406-255550d2f59c"},"vehicle_type_id":"4","last_reported":1750512001,"current_range_meters":4000,"station_id":"ce4bh512rcd13ifvqe3g","pricing_plan_id":"cebpf4jnsgd1na2vs0mg"},{"bike_id":"56d98173-caed-4103-b79b-984e87fc0dd5","system_id":"levelo_inurba_marseille","lat":43.29072,"lon":5.37179,"is_reserved":false,"is_disabled":false,"rental_uris":{"android":"levelo://app?vid=56d98173-caed-4103-b79b-984e87fc0dd5","ios":"levelo://app?vid=56d98173-caed-4103-b79b-984e87fc0dd5"},"vehicle_type_id":"4","last_reported":1750512001,"current_range_meters":4000,"station_id":"ce4bh5p2rcd13ifvqe4g","pricing_plan_id":"cebpf4jnsgd1na2vs0mg"},{"bike_id":"50f72ce1-004a-4e65-abe3-ba179c650dda","system_id":"levelo_inurba_marseille","lat":43.292267,"lon":5.360615,"is_reserved":false,"is_disabled":false,"rental_uris":{"android":"levelo://app?vid=50f72ce1-004a-4e65-abe3-ba179c650dda","ios":"levelo://app?vid=50f72ce1-004a-4e65-abe3-ba179c650dda"},"vehicle_type_id":"4","last_reported":1750512001,"current_range_meters":4000,"station_id":"ce4bhbh2rcd13ifvqeqg","pricing_plan_id":"cebpf4jnsgd1na2vs0mg"},{"bike_id":"f9c4fa46-1f8f-4af4-9317-9cbb698f9cf1","system_id":"levelo_inurba_marseille","lat":43.264,"lon":5.377842,"is_reserved":false,"is_disabled":false,"rental_uris":{"android":"levelo://app?vid=f9c4fa46-1f8f-4af4-9317-9cbb698f9cf1","ios":"levelo://app?vid=f9c4fa46-1f8f-4af4-9317-9cbb698f9cf1"},"vehicle_type_id":"4","last_reported":1750512001,"current_range_meters":4000,"station_id":"ce4bhhp2rcd13ifvqfm0","pricing_plan_id":"cebpf4jnsgd1na2vs0mg"},{"bike_id":"0ae0a5e2-4172-42fc-b67e-dcb70ad4d289","system_id":"levelo_inurba_marseille","lat":43.26728,"lon":5.42213,"is_reserved":false,"is_disabled":false,"rental_uris":{"android":"levelo://app?vid=0ae0a5e2-4172-42fc-b67e-dcb70ad4d289","ios":"levelo://app?vid=0ae0a5e2-4172-42fc-b67e-dcb70ad4d289"},"vehicle_type_id":"4","last_reported":1750512001,"current_range_meters":4400,"station_id":"","pricing_plan_id":"cebpf4jnsgd1na2vs0mg"},{"bike_id":"a62601a9-4bf8-44d1-8e9b-7ce79fa35fe6","system_id":"levelo_inurba_marseille","lat":43.30533,"lon":5.38424,"is_reserved":false,"is_disabled":false,"rental_uris":{"android":"levelo://app?vid=a62601a9-4bf8-44d1-8e9b-7ce79fa35fe6","ios":"levelo://app?vid=a62601a9-4bf8-44d1-8e9b-7ce79fa35fe6"},"vehicle_type_id":"4","last_reported":1750512001,"current_range_meters":4400,"station_id":"ce4bgg92rcd13ifvqb30","pricing_plan_id":"cebpf4jnsgd1na2vs0mg"},{"bike_id":"06b7aec9-f930-4995-abc0-90d0137ea2c5","system_id":"levelo_inurba_marseille","lat":43.28104,"lon":5.37837,"is_reserved":false,"is_disabled":false,"rental_uris":{"android":"levelo://app?vid=06b7aec9-f930-4995-abc0-90d0137ea2c5","ios":"levelo://app?vid=06b7aec9-f930-4995-abc0-90d0137ea2c5"},"vehicle_type_id":"4","last_reported":1750512001,"current_range_meters":4400,"station_id":"ce4bha12rcd13ifvqee0","pricing_plan_id":"cebpf4jnsgd1na2vs0mg"},{"bike_id":"40cb0695-58f3-4098-a84f-d73e9151b713","system_id":"levelo_inurba_marseille","lat":43.24816,"lon":5.3747,"is_reserved":false,"is_disabled":false,"rental_uris":{"android":"levelo://app?vid=40cb0695-58f3-4098-a84f-d73e9151b713","ios":"levelo://app?vid=40cb0695-58f3-4098-a84f-d73e9151b713"},"vehicle_type_id":"4","last_reported":1750512001,"current_range_meters":4400,"station_id":"ce4bhgh2rcd13ifvqfb0","pricing_plan_id":"cebpf4jnsgd1na2vs0mg"},{"bike_id":"6a7b868e-84bf-41f1-963e-c677e6475d7d","system_id":"levelo_inurba_marseille","lat":43.24392,"lon":5.37056,"is_reserved":false,"is_disabled":false,"rental_uris":{"android":"levelo://app?vid=6a7b868e-84bf-41f1-963e-c677e6475d7d","ios":"levelo://app?vid=6a7b868e-84bf-41f1-963e-c677e6475d7d"},"vehicle_type_id":"4","last_reported":1750512001,"current_range_meters":4400,"station_id":"ce4bhhh2rcd13ifvqfk0","pricing_plan_id":"cebpf4jnsgd1na2vs0mg"},{"bike_id":"a790c610-6fd6-4bee-943a-272ac05a5089","system_id":"levelo_inurba_marseille","lat":43.23193,"lon":5.35551,"is_reserved":false,"is_disabled":false,"rental_uris":{"android":"levelo://app?vid=a790c610-6fd6-4bee-943a-272ac05a5089","ios":"levelo://app?vid=a790c610-6fd6-4bee-943a-272ac05a5089"},"vehicle_type_id":"4","last_reported":1750512001,"current_range_meters":4400,"station_id":"ce4bhu92rcd13ifvqi70","pricing_plan_id":"cebpf4jnsgd1na2vs0mg"},{"bike_id":"1af8cc20-b4be-40a0-952b-b9221d26e0d7","system_id":"levelo_inurba_marseille","lat":43.29728,"lon":5.37703,"is_reserved":false,"is_disabled":false,"rental_uris":{"android":"levelo://app?vid=1af8cc20-b4be-40a0-952b-b9221d26e0d7","ios":"levelo://app?vid=1af8cc20-b4be-40a0-952b-b9221d26e0d7"},"vehicle_type_id":"4","last_reported":1750512001,"current_range_meters":4800,"station_id":"","pricing_plan_id":"cebpf4jnsgd1na2vs0mg"},{"bike_id":"247d14e4-4074-4ab2-81b9-609bc12a1fc2","system_id":"levelo_inurba_marseille","lat":43.29843,"lon":5.36265,"is_reserved":false,"is_disabled":false,"rental_uris":{"android":"levelo://app?vid=247d14e4-4074-4ab2-81b9-609bc12a1fc2","ios":"levelo://app?vid=247d14e4-4074-4ab2-81b9-609bc12a1fc2"},"vehicle_type_id":"4","last_reported":1750512001,"current_range_meters":4800,"station_id":"ce4bgpp2rcd13ifvqc3g","pricing_plan_id":"cebpf4jnsgd1na2vs0mg"},{"bike_id":"2dfb6fe4-5980-4910-8fe9-8a2364720218","system_id":"levelo_inurba_marseille","lat":43.29006,"lon":5.3561,"is_reserved":false,"is_disabled":false,"rental_uris":{"android":"levelo://app?vid=2dfb6fe4-5980-4910-8fe9-8a2364720218","ios":"levelo://app?vid=2dfb6fe4-5980-4910-8fe9-8a2364720218"},"vehicle_type_id":"4","last_reported":1750512001,"current_range_meters":4800,"station_id":"ce4bhb92rcd13ifvqen0","pricing_plan_id":"cebpf4jnsgd1na2vs0mg"},{"bike_id":"490e1222-4912-4d0e-bba6-5abe9b1e953c","system_id":"levelo_inurba_marseille","lat":43.28416,"lon":5.34983,"is_reserved":false,"is_disabled":false,"rental_uris":{"android":"levelo://app?vid=490e1222-4912-4d0e-bba6-5abe9b1e953c","ios":"levelo://app?vid=490e1222-4912-4d0e-bba6-5abe9b1e953c"},"vehicle_type_id":"4","last_reported":1750512001,"current_range_meters":4800,"station_id":"ce4bhbh2rcd13ifvqepg","pricing_plan_id":"cebpf4jnsgd1na2vs0mg"},{"bike_id":"a4a210b7-0995-4db8-8f6a-3163dc5bfc8f","system_id":"levelo_inurba_marseille","lat":43.23195,"lon":5.35551,"is_reserved":false,"is_disabled":false,"rental_uris":{"android":"levelo://app?vid=a4a210b7-0995-4db8-8f6a-3163dc5bfc8f","ios":"levelo://app?vid=a4a210b7-0995-4db8-8f6a-3163dc5bfc8f"},"vehicle_type_id":"4","last_reported":1750512001,"current_range_meters":4800,"station_id":"ce4bhu92rcd13ifvqi70","pricing_plan_id":"cebpf4jnsgd1na2vs0mg"},{"bike_id":"a7f29e29-fc65-4d64-9a4e-5635d85c32dc","system_id":"levelo_inurba_marseille","lat":43.24166,"lon":5.36398,"is_reserved":false,"is_disabled":false,"rental_uris":{"android":"levelo://app?vid=a7f29e29-fc65-4d64-9a4e-5635d85c32dc","ios":"levelo://app?vid=a7f29e29-fc65-4d64-9a4e-5635d85c32dc"},"vehicle_type_id":"4","last_reported":1750512001,"current_range_meters":4800,"station_id":"cpo36qri1sfpv3e86is0","pricing_plan_id":"cebpf4jnsgd1na2vs0mg"},{"bike_id":"44fdefbd-fa88-4cb5-952e-9c0f59c5049b","system_id":"levelo_inurba_marseille","lat":43.29915,"lon":5.36549,"is_reserved":false,"is_disabled":false,"rental_uris":{"android":"levelo://app?vid=44fdefbd-fa88-4cb5-952e-9c0f59c5049b","ios":"levelo://app?vid=44fdefbd-fa88-4cb5-952e-9c0f59c5049b"},"vehicle_type_id":"4","last_reported":1750512001,"current_range_meters":6000,"station_id":"","pricing_plan_id":"cebpf4jnsgd1na2vs0mg"},{"bike_id":"33893335-fbcb-43e3-9e2f-95cb467b1bcb","system_id":"levelo_inurba_marseille","lat":43.306244,"lon":5.376391,"is_reserved":false,"is_disabled":false,"rental_uris":{"android":"levelo://app?vid=33893335-fbcb-43e3-9e2f-95cb467b1bcb","ios":"levelo://app?vid=33893335-fbcb-43e3-9e2f-95cb467b1bcb"},"vehicle_type_id":"4","last_reported":1750512001,"current_range_meters":6000,"station_id":"","pricing_plan_id":"cebpf4jnsgd1na2vs0mg"},{"bike_id":"fbe532e7-2f52-46dc-822c-1466686be8c5","system_id":"levelo_inurba_marseille","lat":43.30101,"lon":5.40552,"is_reserved":false,"is_disabled":false,"rental_uris":{"android":"levelo://app?vid=fbe532e7-2f52-46dc-822c-1466686be8c5","ios":"levelo://app?vid=fbe532e7-2f52-46dc-822c-1466686be8c5"},"vehicle_type_id":"4","last_reported":1750512001,"current_range_meters":6000,"station_id":"","pricing_plan_id":"cebpf4jnsgd1na2vs0mg"},{"bike_id":"3e3629c3-44d4-4228-9231-2038037e2216","system_id":"levelo_inurba_marseille","lat":43.28413,"lon":5.34977,"is_reserved":false,"is_disabled":false,"rental_uris":{"android":"levelo://app?vid=3e3629c3-44d4-4228-9231-2038037e2216","ios":"levelo://app?vid=3e3629c3-44d4-4228-9231-2038037e2216"},"vehicle_type_id":"4","last_reported":1750512001,"current_range_meters":6000,"station_id":"ce4bhbh2rcd13ifvqepg","pricing_plan_id":"cebpf4jnsgd1na2vs0mg"},{"bike_id":"eaf107c4-0409-4879-bb8e-abc829af8b3e","system_id":"levelo_inurba_marseille","lat":43.27998,"lon":5.40023,"is_reserved":false,"is_disabled":false,"rental_uris":{"android":"levelo://app?vid=eaf107c4-0409-4879-bb8e-abc829af8b3e","ios":"levelo://app?vid=eaf107c4-0409-4879-bb8e-abc829af8b3e"},"vehicle_type_id":"4","last_reported":1750512001,"current_range_meters":6000,"station_id":"ce4bho92rcd13ifvqh4g","pricing_plan_id":"cebpf4jnsgd1na2vs0mg"},{"bike_id":"d66ab64d-4483-4bf8-b0d3-3fba8fbbf655","system_id":"levelo_inurba_marseille","lat":43.24164,"lon":5.36393,"is_reserved":false,"is_disabled":false,"rental_uris":{"android":"levelo://app?vid=d66ab64d-4483-4bf8-b0d3-3fba8fbbf655","ios":"levelo://app?vid=d66ab64d-4483-4bf8-b0d3-3fba8fbbf655"},"vehicle_type_id":"4","last_reported":1750512001,"current_range_meters":6000,"station_id":"cpo36qri1sfpv3e86is0","pricing_plan_id":"cebpf4jnsgd1na2vs0mg"},{"bike_id":"6b19536a-a6ca-423d-ae2f-e9ec1a1032a1","system_id":"levelo_inurba_marseille","lat":43.2842,"lon":5.34983,"is_reserved":false,"is_disabled":false,"rental_uris":{"android":"levelo://app?vid=6b19536a-a6ca-423d-ae2f-e9ec1a1032a1","ios":"levelo://app?vid=6b19536a-a6ca-423d-ae2f-e9ec1a1032a1"},"vehicle_type_id":"4","last_reported":1750512001,"current_range_meters":6400,"station_id":"ce4bhbh2rcd13ifvqepg","pricing_plan_id":"cebpf4jnsgd1na2vs0mg"},{"bike_id":"43b41881-66b4-4432-841b-c854f94af5ec","system_id":"levelo_inurba_marseille","lat":43.309468,"lon":5.390435,"is_reserved":false,"is_disabled":false,"rental_uris":{"android":"levelo://app?vid=43b41881-66b4-4432-841b-c854f94af5ec","ios":"levelo://app?vid=43b41881-66b4-4432-841b-c854f94af5ec"},"vehicle_type_id":"4","last_reported":1750512001,"current_range_meters":6800,"station_id":"ce4bgup2rcd13ifvqco0","pricing_plan_id":"cebpf4jnsgd1na2vs0mg"},{"bike_id":"800b0419-d979-4b72-b9cf-1b7d859b3379","system_id":"levelo_inurba_marseille","lat":43.2861,"lon":5.35107,"is_reserved":false,"is_disabled":false,"rental_uris":{"android":"levelo://app?vid=800b0419-d979-4b72-b9cf-1b7d859b3379","ios":"levelo://app?vid=800b0419-d979-4b72-b9cf-1b7d859b3379"},"vehicle_type_id":"4","last_reported":1750512001,"current_range_meters":6800,"station_id":"ce4bhch2rcd13ifvqeug","pricing_plan_id":"cebpf4jnsgd1na2vs0mg"},{"bike_id":"83769f32-293f-4cdf-b5e6-7407b5a07bfa","system_id":"levelo_inurba_marseille","lat":43.2797,"lon":5.38731,"is_reserved":false,"is_disabled":false,"rental_uris":{"android":"levelo://app?vid=83769f32-293f-4cdf-b5e6-7407b5a07bfa","ios":"levelo://app?vid=83769f32-293f-4cdf-b5e6-7407b5a07bfa"},"vehicle_type_id":"4","last_reported":1750512001,"current_range_meters":6800,"station_id":"ce4bhg12rcd13ifvqf80","pricing_plan_id":"cebpf4jnsgd1na2vs0mg"},{"bike_id":"2dafd505-42c8-4a7d-8e16-892b7a858a49","system_id":"levelo_inurba_marseille","lat":43.28846,"lon":5.39318,"is_reserved":false,"is_disabled":false,"rental_uris":{"android":"levelo://app?vid=2dafd505-42c8-4a7d-8e16-892b7a858a49","ios":"levelo://app?vid=2dafd505-42c8-4a7d-8e16-892b7a858a49"},"vehicle_type_id":"4","last_reported":1750512001,"current_range_meters":7200,"station_id":"ce4bh2p2rcd13ifvqdi0","pricing_plan_id":"cebpf4jnsgd1na2vs0mg"},{"bike_id":"3958d908-8647-46fd-bb09-e7046e869501","system_id":"levelo_inurba_marseille","lat":43.28711,"lon":5.37417,"is_reserved":false,"is_disabled":false,"rental_uris":{"android":"levelo://app?vid=3958d908-8647-46fd-bb09-e7046e869501","ios":"levelo://app?vid=3958d908-8647-46fd-bb09-e7046e869501"},"vehicle_type_id":"4","last_reported":1750512001,"current_range_meters":7200,"station_id":"ce4bh3p2rcd13ifvqdq0","pricing_plan_id":"cebpf4jnsgd1na2vs0mg"},{"bike_id":"6f4c7b86-6428-4d68-a6af-dfd854724528","system_id":"levelo_inurba_marseille","lat":43.27997,"lon":5.40014,"is_reserved":false,"is_disabled":false,"rental_uris":{"android":"levelo://app?vid=6f4c7b86-6428-4d68-a6af-dfd854724528","ios":"levelo://app?vid=6f4c7b86-6428-4d68-a6af-dfd854724528"},"vehicle_type_id":"4","last_reported":1750512001,"current_range_meters":7200,"station_id":"ce4bho92rcd13ifvqh4g","pricing_plan_id":"cebpf4jnsgd1na2vs0mg"},{"bike_id":"040977a8-13c0-45f8-878b-41dbebdc1a7e","system_id":"levelo_inurba_marseille","lat":43.298999,"lon":5.436559,"is_reserved":false,"is_disabled":false,"rental_uris":{"android":"levelo://app?vid=040977a8-13c0-45f8-878b-41dbebdc1a7e","ios":"levelo://app?vid=040977a8-13c0-45f8-878b-41dbebdc1a7e"},"vehicle_type_id":"4","last_reported":1750512001,"current_range_meters":7200,"station_id":"ce4bhpp2rcd13ifvqhfg","pricing_plan_id":"cebpf4jnsgd1na2vs0mg"},{"bike_id":"7d042ffa-3391-4611-8541-7b4c1c4059a6","system_id":"levelo_inurba_marseille","lat":43.29958,"lon":5.38508,"is_reserved":false,"is_disabled":false,"rental_uris":{"android":"levelo://app?vid=7d042ffa-3391-4611-8541-7b4c1c4059a6","ios":"levelo://app?vid=7d042ffa-3391-4611-8541-7b4c1c4059a6"},"vehicle_type_id":"4","last_reported":1750512001,"current_range_meters":8000,"station_id":"ce4bgj92rcd13ifvqbd0","pricing_plan_id":"cebpf4jnsgd1na2vs0mg"},{"bike_id":"97c0ed0a-2335-4ec3-b872-f862a8fa8559","system_id":"levelo_inurba_marseille","lat":43.29972,"lon":5.37187,"is_reserved":false,"is_disabled":false,"rental_uris":{"android":"levelo://app?vid=97c0ed0a-2335-4ec3-b872-f862a8fa8559","ios":"levelo://app?vid=97c0ed0a-2335-4ec3-b872-f862a8fa8559"},"vehicle_type_id":"4","last_reported":1750512001,"current_range_meters":8000,"station_id":"ce4bgr92rcd13ifvqc7g","pricing_plan_id":"cebpf4jnsgd1na2vs0mg"},{"bike_id":"44a531c2-4b9d-4dfa-a30f-3f8381ca90a1","system_id":"levelo_inurba_marseille","lat":43.30942,"lon":5.39029,"is_reserved":false,"is_disabled":false,"rental_uris":{"android":"levelo://app?vid=44a531c2-4b9d-4dfa-a30f-3f8381ca90a1","ios":"levelo://app?vid=44a531c2-4b9d-4dfa-a30f-3f8381ca90a1"},"vehicle_type_id":"4","last_reported":1750512001,"current_range_meters":8000,"station_id":"ce4bgup2rcd13ifvqco0","pricing_plan_id":"cebpf4jnsgd1na2vs0mg"},{"bike_id":"3ca1ba4a-20d5-4180-9a59-aed2cccc2563","system_id":"levelo_inurba_marseille","lat":43.27377,"lon":5.36256,"is_reserved":false,"is_disabled":false,"rental_uris":{"android":"levelo://app?vid=3ca1ba4a-20d5-4180-9a59-aed2cccc2563","ios":"levelo://app?vid=3ca1ba4a-20d5-4180-9a59-aed2cccc2563"},"vehicle_type_id":"4","last_reported":1750512001,"current_range_meters":8000,"station_id":"ce4bhbh2rcd13ifvqeo0","pricing_plan_id":"cebpf4jnsgd1na2vs0mg"},{"bike_id":"22b2cb2d-93fd-44db-9567-5d75d714e605","system_id":"levelo_inurba_marseille","lat":43.26554,"lon":5.37288,"is_reserved":false,"is_disabled":false,"rental_uris":{"android":"levelo://app?vid=22b2cb2d-93fd-44db-9567-5d75d714e605","ios":"levelo://app?vid=22b2cb2d-93fd-44db-9567-5d75d714e605"},"vehicle_type_id":"4","last_reported":1750512001,"current_range_meters":8000,"station_id":"ce4bhg12rcd13ifvqf70","pricing_plan_id":"cebpf4jnsgd1na2vs0mg"},{"bike_id":"d927026b-73bb-4a78-96a5-8b901c90fcfa","system_id":"levelo_inurba_marseille","lat":43.2319,"lon":5.35555,"is_reserved":false,"is_disabled":false,"rental_uris":{"android":"levelo://app?vid=d927026b-73bb-4a78-96a5-8b901c90fcfa","ios":"levelo://app?vid=d927026b-73bb-4a78-96a5-8b901c90fcfa"},"vehicle_type_id":"4","last_reported":1750512001,"current_range_meters":8000,"station_id":"ce4bhu92rcd13ifvqi70","pricing_plan_id":"cebpf4jnsgd1na2vs0mg"},{"bike_id":"eb708a20-d1b9-4d97-9e32-c1ba7d416bea","system_id":"levelo_inurba_marseille","lat":43.230653,"lon":5.354934,"is_reserved":false,"is_disabled":false,"rental_uris":{"android":"levelo://app?vid=eb708a20-d1b9-4d97-9e32-c1ba7d416bea","ios":"levelo://app?vid=eb708a20-d1b9-4d97-9e32-c1ba7d416bea"},"vehicle_type_id":"4","last_reported":1750512001,"current_range_meters":8000,"station_id":"cpo3342slgdg3j2ifvpg","pricing_plan_id":"cebpf4jnsgd1na2vs0mg"},{"bike_id":"c595d0e1-c778-4abe-9c79-a9dd74f54e27","system_id":"levelo_inurba_marseille","lat":43.24482,"lon":5.3722,"is_reserved":false,"is_disabled":false,"rental_uris":{"android":"levelo://app?vid=c595d0e1-c778-4abe-9c79-a9dd74f54e27","ios":"levelo://app?vid=c595d0e1-c778-4abe-9c79-a9dd74f54e27"},"vehicle_type_id":"4","last_reported":1750512001,"current_range_meters":8400,"station_id":"","pricing_plan_id":"cebpf4jnsgd1na2vs0mg"},{"bike_id":"bfb5813c-f2a6-4c90-8fc7-5ca0e4b24ddc","system_id":"levelo_inurba_marseille","lat":43.23149,"lon":5.4372,"is_reserved":false,"is_disabled":false,"rental_uris":{"android":"levelo://app?vid=bfb5813c-f2a6-4c90-8fc7-5ca0e4b24ddc","ios":"levelo://app?vid=bfb5813c-f2a6-4c90-8fc7-5ca0e4b24ddc"},"vehicle_type_id":"4","last_reported":1750512001,"current_range_meters":8400,"station_id":"ce4bhmp2rcd13ifvqgog","pricing_plan_id":"cebpf4jnsgd1na2vs0mg"},{"bike_id":"cc554f2f-8737-4971-881e-eff8120e96eb","system_id":"levelo_inurba_marseille","lat":43.32375,"lon":5.36767,"is_reserved":false,"is_disabled":false,"rental_uris":{"android":"levelo://app?vid=cc554f2f-8737-4971-881e-eff8120e96eb","ios":"levelo://app?vid=cc554f2f-8737-4971-881e-eff8120e96eb"},"vehicle_type_id":"4","last_reported":1750512001,"current_range_meters":8400,"station_id":"ce4bhsh2rcd13ifvqi2g","pricing_plan_id":"cebpf4jnsgd1na2vs0mg"},{"bike_id":"5728493f-68ba-470f-9c20-82b3e6418109","system_id":"levelo_inurba_marseille","lat":43.29891,"lon":5.36529,"is_reserved":false,"is_disabled":false,"rental_uris":{"android":"levelo://app?vid=5728493f-68ba-470f-9c20-82b3e6418109","ios":"levelo://app?vid=5728493f-68ba-470f-9c20-82b3e6418109"},"vehicle_type_id":"4","last_reported":1750512001,"current_range_meters":8800,"station_id":"","pricing_plan_id":"cebpf4jnsgd1na2vs0mg"},{"bike_id":"b50ed994-fd88-4dd1-8846-dc2bf2666662","system_id":"levelo_inurba_marseille","lat":43.30576,"lon":5.40081,"is_reserved":false,"is_disabled":false,"rental_uris":{"android":"levelo://app?vid=b50ed994-fd88-4dd1-8846-dc2bf2666662","ios":"levelo://app?vid=b50ed994-fd88-4dd1-8846-dc2bf2666662"},"vehicle_type_id":"4","last_reported":1750512001,"current_range_meters":8800,"station_id":"","pricing_plan_id":"cebpf4jnsgd1na2vs0mg"},{"bike_id":"15705bd0-fa12-4c03-aff3-c15fc233540a","system_id":"levelo_inurba_marseille","lat":43.29521,"lon":5.39053,"is_reserved":false,"is_disabled":false,"rental_uris":{"android":"levelo://app?vid=15705bd0-fa12-4c03-aff3-c15fc233540a","ios":"levelo://app?vid=15705bd0-fa12-4c03-aff3-c15fc233540a"},"vehicle_type_id":"4","last_reported":1750512001,"current_range_meters":8800,"station_id":"ce4bh3p2rcd13ifvqdp0","pricing_plan_id":"cebpf4jnsgd1na2vs0mg"},{"bike_id":"b7f9f36c-b0c8-44a5-8c81-8b6e3c43fd9c","system_id":"levelo_inurba_marseille","lat":43.2797,"lon":5.38732,"is_reserved":false,"is_disabled":false,"rental_uris":{"android":"levelo://app?vid=b7f9f36c-b0c8-44a5-8c81-8b6e3c43fd9c","ios":"levelo://app?vid=b7f9f36c-b0c8-44a5-8c81-8b6e3c43fd9c"},"vehicle_type_id":"4","last_reported":1750512001,"current_range_meters":8800,"station_id":"ce4bhg12rcd13ifvqf80","pricing_plan_id":"cebpf4jnsgd1na2vs0mg"},{"bike_id":"9d1732bd-cd5c-49dc-a753-9b1f08ef90e0","system_id":"levelo_inurba_marseille","lat":43.26189,"lon":5.37481,"is_reserved":false,"is_disabled":false,"rental_uris":{"android":"levelo://app?vid=9d1732bd-cd5c-49dc-a753-9b1f08ef90e0","ios":"levelo://app?vid=9d1732bd-cd5c-49dc-a753-9b1f08ef90e0"},"vehicle_type_id":"4","last_reported":1750512001,"current_range_meters":8800,"station_id":"ce4bhgp2rcd13ifvqfc0","pricing_plan_id":"cebpf4jnsgd1na2vs0mg"},{"bike_id":"199c2831-e081-4bc0-9b94-19503817091d","system_id":"levelo_inurba_marseille","lat":43.248975,"lon":5.40662,"is_reserved":false,"is_disabled":false,"rental_uris":{"android":"levelo://app?vid=199c2831-e081-4bc0-9b94-19503817091d","ios":"levelo://app?vid=199c2831-e081-4bc0-9b94-19503817091d"},"vehicle_type_id":"4","last_reported":1750512001,"current_range_meters":9200,"station_id":"","pricing_plan_id":"cebpf4jnsgd1na2vs0mg"},{"bike_id":"eeef9969-f53e-4ed7-9f96-c096ad30132b","system_id":"levelo_inurba_marseille","lat":43.23193,"lon":5.35555,"is_reserved":false,"is_disabled":false,"rental_uris":{"android":"levelo://app?vid=eeef9969-f53e-4ed7-9f96-c096ad30132b","ios":"levelo://app?vid=eeef9969-f53e-4ed7-9f96-c096ad30132b"},"vehicle_type_id":"4","last_reported":1750512001,"current_range_meters":9200,"station_id":"ce4bhu92rcd13ifvqi70","pricing_plan_id":"cebpf4jnsgd1na2vs0mg"},{"bike_id":"f6c169f3-8050-4bc5-933d-864431326e66","system_id":"levelo_inurba_marseille","lat":43.26943,"lon":5.40253,"is_reserved":false,"is_disabled":false,"rental_uris":{"android":"levelo://app?vid=f6c169f3-8050-4bc5-933d-864431326e66","ios":"levelo://app?vid=f6c169f3-8050-4bc5-933d-864431326e66"},"vehicle_type_id":"4","last_reported":1750512001,"current_range_meters":9200,"station_id":"cjm6bp8fraef2m0cb0m0","pricing_plan_id":"cebpf4jnsgd1na2vs0mg"},{"bike_id":"8300812b-c3f4-4460-a462-0c10590e5460","system_id":"levelo_inurba_marseille","lat":43.32977,"lon":5.40561,"is_reserved":false,"is_disabled":false,"rental_uris":{"android":"levelo://app?vid=8300812b-c3f4-4460-a462-0c10590e5460","ios":"levelo://app?vid=8300812b-c3f4-4460-a462-0c10590e5460"},"vehicle_type_id":"4","last_reported":1750512001,"current_range_meters":9600,"station_id":"","pricing_plan_id":"cebpf4jnsgd1na2vs0mg"},{"bike_id":"8f049a6d-179a-4f83-96ba-af07a7efc76e","system_id":"levelo_inurba_marseille","lat":43.313254,"lon":5.39686,"is_reserved":false,"is_disabled":false,"rental_uris":{"android":"levelo://app?vid=8f049a6d-179a-4f83-96ba-af07a7efc76e","ios":"levelo://app?vid=8f049a6d-179a-4f83-96ba-af07a7efc76e"},"vehicle_type_id":"4","last_reported":1750512001,"current_range_meters":9600,"station_id":"ce4bgvp2rcd13ifvqcu0","pricing_plan_id":"cebpf4jnsgd1na2vs0mg"},{"bike_id":"80446519-e877-4809-9114-1064a19d50ec","system_id":"levelo_inurba_marseille","lat":43.28038,"lon":5.36948,"is_reserved":false,"is_disabled":false,"rental_uris":{"android":"levelo://app?vid=80446519-e877-4809-9114-1064a19d50ec","ios":"levelo://app?vid=80446519-e877-4809-9114-1064a19d50ec"},"vehicle_type_id":"4","last_reported":1750512001,"current_range_meters":9600,"station_id":"ce4bha12rcd13ifvqef0","pricing_plan_id":"cebpf4jnsgd1na2vs0mg"},{"bike_id":"83e0933c-f1d4-42c9-8da5-8ac14b7076b7","system_id":"levelo_inurba_marseille","lat":43.25564,"lon":5.38248,"is_reserved":false,"is_disabled":false,"rental_uris":{"android":"levelo://app?vid=83e0933c-f1d4-42c9-8da5-8ac14b7076b7","ios":"levelo://app?vid=83e0933c-f1d4-42c9-8da5-8ac14b7076b7"},"vehicle_type_id":"4","last_reported":1750512001,"current_range_meters":9600,"station_id":"ce4bhih2rcd13ifvqfs0","pricing_plan_id":"cebpf4jnsgd1na2vs0mg"},{"bike_id":"93f789f2-921a-4f1c-857b-2ea4ae07c349","system_id":"levelo_inurba_marseille","lat":43.27983,"lon":5.40009,"is_reserved":false,"is_disabled":false,"rental_uris":{"android":"levelo://app?vid=93f789f2-921a-4f1c-857b-2ea4ae07c349","ios":"levelo://app?vid=93f789f2-921a-4f1c-857b-2ea4ae07c349"},"vehicle_type_id":"4","last_reported":1750512001,"current_range_meters":9600,"station_id":"ce4bho92rcd13ifvqh4g","pricing_plan_id":"cebpf4jnsgd1na2vs0mg"},{"bike_id":"1bc94c8e-1580-41a5-893f-320ea547c5af","system_id":"levelo_inurba_marseille","lat":43.21205,"lon":5.351,"is_reserved":false,"is_disabled":false,"rental_uris":{"android":"levelo://app?vid=1bc94c8e-1580-41a5-893f-320ea547c5af","ios":"levelo://app?vid=1bc94c8e-1580-41a5-893f-320ea547c5af"},"vehicle_type_id":"4","last_reported":1750512001,"current_range_meters":9600,"station_id":"st_cvj6sg6p6f1abm77japg","pricing_plan_id":"cebpf4jnsgd1na2vs0mg"},{"bike_id":"144223f4-ee94-45ef-ab7d-37dd085f55bb","system_id":"levelo_inurba_marseille","lat":43.30931,"lon":5.4014,"is_reserved":false,"is_disabled":false,"rental_uris":{"android":"levelo://app?vid=144223f4-ee94-45ef-ab7d-37dd085f55bb","ios":"levelo://app?vid=144223f4-ee94-45ef-ab7d-37dd085f55bb"},"vehicle_type_id":"4","last_reported":1750512001,"current_range_meters":10000,"station_id":"ce4bgvp2rcd13ifvqct0","pricing_plan_id":"cebpf4jnsgd1na2vs0mg"},{"bike_id":"e23a109e-c8cf-4bc0-97ba-18d5254b2b7c","system_id":"levelo_inurba_marseille","lat":43.27373,"lon":5.36261,"is_reserved":false,"is_disabled":false,"rental_uris":{"android":"levelo://app?vid=e23a109e-c8cf-4bc0-97ba-18d5254b2b7c","ios":"levelo://app?vid=e23a109e-c8cf-4bc0-97ba-18d5254b2b7c"},"vehicle_type_id":"4","last_reported":1750512001,"current_range_meters":10000,"station_id":"ce4bhbh2rcd13ifvqeo0","pricing_plan_id":"cebpf4jnsgd1na2vs0mg"},{"bike_id":"85d99d34-2c4c-4862-8b1d-844900da7a10","system_id":"levelo_inurba_marseille","lat":43.28619,"lon":5.35104,"is_reserved":false,"is_disabled":false,"rental_uris":{"android":"levelo://app?vid=85d99d34-2c4c-4862-8b1d-844900da7a10","ios":"levelo://app?vid=85d99d34-2c4c-4862-8b1d-844900da7a10"},"vehicle_type_id":"4","last_reported":1750512001,"current_range_meters":10000,"station_id":"ce4bhch2rcd13ifvqeug","pricing_plan_id":"cebpf4jnsgd1na2vs0mg"},{"bike_id":"bd27fe72-6fbc-453f-8b77-bee10ab3b13c","system_id":"levelo_inurba_marseille","lat":43.29508,"lon":5.42313,"is_reserved":false,"is_disabled":false,"rental_uris":{"android":"levelo://app?vid=bd27fe72-6fbc-453f-8b77-bee10ab3b13c","ios":"levelo://app?vid=bd27fe72-6fbc-453f-8b77-bee10ab3b13c"},"vehicle_type_id":"4","last_reported":1750512001,"current_range_meters":10800,"station_id":"","pricing_plan_id":"cebpf4jnsgd1na2vs0mg"},{"bike_id":"5cf59be3-06e9-4e8a-8a74-68746b37a711","system_id":"levelo_inurba_marseille","lat":43.30264,"lon":5.37707,"is_reserved":false,"is_disabled":false,"rental_uris":{"android":"levelo://app?vid=5cf59be3-06e9-4e8a-8a74-68746b37a711","ios":"levelo://app?vid=5cf59be3-06e9-4e8a-8a74-68746b37a711"},"vehicle_type_id":"4","last_reported":1750512001,"current_range_meters":10800,"station_id":"ce4bguh2rcd13ifvqcj0","pricing_plan_id":"cebpf4jnsgd1na2vs0mg"},{"bike_id":"da57f2c8-7b87-4005-8c88-993a242b8dd1","system_id":"levelo_inurba_marseille","lat":43.30471,"lon":5.37916,"is_reserved":false,"is_disabled":false,"rental_uris":{"android":"levelo://app?vid=da57f2c8-7b87-4005-8c88-993a242b8dd1","ios":"levelo://app?vid=da57f2c8-7b87-4005-8c88-993a242b8dd1"},"vehicle_type_id":"4","last_reported":1750512001,"current_range_meters":10800,"station_id":"ce4bgup2rcd13ifvqcn0","pricing_plan_id":"cebpf4jnsgd1na2vs0mg"},{"bike_id":"138e36bb-aca2-4604-9e15-ae015bf802b5","system_id":"levelo_inurba_marseille","lat":43.31332,"lon":5.39698,"is_reserved":false,"is_disabled":false,"rental_uris":{"android":"levelo://app?vid=138e36bb-aca2-4604-9e15-ae015bf802b5","ios":"levelo://app?vid=138e36bb-aca2-4604-9e15-ae015bf802b5"},"vehicle_type_id":"4","last_reported":1750512001,"current_range_meters":10800,"station_id":"ce4bgvp2rcd13ifvqcu0","pricing_plan_id":"cebpf4jnsgd1na2vs0mg"},{"bike_id":"9a19aff0-8ec0-4f5d-9b30-019904543ea6","system_id":"levelo_inurba_marseille","lat":43.29005,"lon":5.35606,"is_reserved":false,"is_disabled":false,"rental_uris":{"android":"levelo://app?vid=9a19aff0-8ec0-4f5d-9b30-019904543ea6","ios":"levelo://app?vid=9a19aff0-8ec0-4f5d-9b30-019904543ea6"},"vehicle_type_id":"4","last_reported":1750512001,"current_range_meters":10800,"station_id":"ce4bhb92rcd13ifvqen0","pricing_plan_id":"cebpf4jnsgd1na2vs0mg"},{"bike_id":"b43dd87e-b296-4299-8374-eb747fb46bf2","system_id":"levelo_inurba_marseille","lat":43.26223,"lon":5.37453,"is_reserved":false,"is_disabled":false,"rental_uris":{"android":"levelo://app?vid=b43dd87e-b296-4299-8374-eb747fb46bf2","ios":"levelo://app?vid=b43dd87e-b296-4299-8374-eb747fb46bf2"},"vehicle_type_id":"4","last_reported":1750512001,"current_range_meters":10800,"station_id":"ce4bhgp2rcd13ifvqfc0","pricing_plan_id":"cebpf4jnsgd1na2vs0mg"},{"bike_id":"bae794a4-d206-4eaa-9888-7ffb89287003","system_id":"levelo_inurba_marseille","lat":43.243897,"lon":5.370457,"is_reserved":false,"is_disabled":false,"rental_uris":{"android":"levelo://app?vid=bae794a4-d206-4eaa-9888-7ffb89287003","ios":"levelo://app?vid=bae794a4-d206-4eaa-9888-7ffb89287003"},"vehicle_type_id":"4","last_reported":1750512001,"current_range_meters":10800,"station_id":"ce4bhhh2rcd13ifvqfk0","pricing_plan_id":"cebpf4jnsgd1na2vs0mg"},{"bike_id":"dc540ba2-fb63-45eb-b83a-1826fb3d30b7","system_id":"levelo_inurba_marseille","lat":43.24594,"lon":5.39247,"is_reserved":false,"is_disabled":false,"rental_uris":{"android":"levelo://app?vid=dc540ba2-fb63-45eb-b83a-1826fb3d30b7","ios":"levelo://app?vid=dc540ba2-fb63-45eb-b83a-1826fb3d30b7"},"vehicle_type_id":"4","last_reported":1750512001,"current_range_meters":11200,"station_id":"","pricing_plan_id":"cebpf4jnsgd1na2vs0mg"},{"bike_id":"380de782-4701-4be7-af62-2e4faef02977","system_id":"levelo_inurba_marseille","lat":43.28416,"lon":5.3498,"is_reserved":false,"is_disabled":false,"rental_uris":{"android":"levelo://app?vid=380de782-4701-4be7-af62-2e4faef02977","ios":"levelo://app?vid=380de782-4701-4be7-af62-2e4faef02977"},"vehicle_type_id":"4","last_reported":1750512001,"current_range_meters":11200,"station_id":"ce4bhbh2rcd13ifvqepg","pricing_plan_id":"cebpf4jnsgd1na2vs0mg"},{"bike_id":"77786128-ddd2-4b7f-93e0-a37100fbfd5f","system_id":"levelo_inurba_marseille","lat":43.24809,"lon":5.37456,"is_reserved":false,"is_disabled":false,"rental_uris":{"android":"levelo://app?vid=77786128-ddd2-4b7f-93e0-a37100fbfd5f","ios":"levelo://app?vid=77786128-ddd2-4b7f-93e0-a37100fbfd5f"},"vehicle_type_id":"4","last_reported":1750512001,"current_range_meters":11200,"station_id":"ce4bhgh2rcd13ifvqfb0","pricing_plan_id":"cebpf4jnsgd1na2vs0mg"},{"bike_id":"a34d2bec-9a26-472e-a8c8-961a5760662a","system_id":"levelo_inurba_marseille","lat":43.26058,"lon":5.39381,"is_reserved":false,"is_disabled":false,"rental_uris":{"android":"levelo://app?vid=a34d2bec-9a26-472e-a8c8-961a5760662a","ios":"levelo://app?vid=a34d2bec-9a26-472e-a8c8-961a5760662a"},"vehicle_type_id":"4","last_reported":1750512001,"current_range_meters":11200,"station_id":"ce4bhh92rcd13ifvqfj0","pricing_plan_id":"cebpf4jnsgd1na2vs0mg"},{"bike_id":"959f0c62-9761-4a35-9c23-557e23ca2679","system_id":"levelo_inurba_marseille","lat":43.24694,"lon":5.38167,"is_reserved":false,"is_disabled":false,"rental_uris":{"android":"levelo://app?vid=959f0c62-9761-4a35-9c23-557e23ca2679","ios":"levelo://app?vid=959f0c62-9761-4a35-9c23-557e23ca2679"},"vehicle_type_id":"4","last_reported":1750512001,"current_range_meters":11200,"station_id":"ce4bhih2rcd13ifvqfr0","pricing_plan_id":"cebpf4jnsgd1na2vs0mg"},{"bike_id":"edbbe98d-0456-4826-bdfd-abf97f26c7be","system_id":"levelo_inurba_marseille","lat":43.23062,"lon":5.35491,"is_reserved":false,"is_disabled":false,"rental_uris":{"android":"levelo://app?vid=edbbe98d-0456-4826-bdfd-abf97f26c7be","ios":"levelo://app?vid=edbbe98d-0456-4826-bdfd-abf97f26c7be"},"vehicle_type_id":"4","last_reported":1750512001,"current_range_meters":11200,"station_id":"cpo3342slgdg3j2ifvpg","pricing_plan_id":"cebpf4jnsgd1na2vs0mg"},{"bike_id":"8fd94bfe-b0a3-4509-a3c9-0f6e3f8eed78","system_id":"levelo_inurba_marseille","lat":43.24188,"lon":5.36415,"is_reserved":false,"is_disabled":false,"rental_uris":{"android":"levelo://app?vid=8fd94bfe-b0a3-4509-a3c9-0f6e3f8eed78","ios":"levelo://app?vid=8fd94bfe-b0a3-4509-a3c9-0f6e3f8eed78"},"vehicle_type_id":"4","last_reported":1750512001,"current_range_meters":11200,"station_id":"cpo36qri1sfpv3e86is0","pricing_plan_id":"cebpf4jnsgd1na2vs0mg"},{"bike_id":"8d5eeb77-60a3-4d69-9687-b8e6b551b11c","system_id":"levelo_inurba_marseille","lat":43.27827,"lon":5.4145,"is_reserved":false,"is_disabled":false,"rental_uris":{"android":"levelo://app?vid=8d5eeb77-60a3-4d69-9687-b8e6b551b11c","ios":"levelo://app?vid=8d5eeb77-60a3-4d69-9687-b8e6b551b11c"},"vehicle_type_id":"4","last_reported":1750512001,"current_range_meters":11600,"station_id":"","pricing_plan_id":"cebpf4jnsgd1na2vs0mg"},{"bike_id":"8ef11a45-504d-45b0-a2b5-97fef9594218","system_id":"levelo_inurba_marseille","lat":43.29566,"lon":5.38152,"is_reserved":false,"is_disabled":false,"rental_uris":{"android":"levelo://app?vid=8ef11a45-504d-45b0-a2b5-97fef9594218","ios":"levelo://app?vid=8ef11a45-504d-45b0-a2b5-97fef9594218"},"vehicle_type_id":"4","last_reported":1750512001,"current_range_meters":11600,"station_id":"","pricing_plan_id":"cebpf4jnsgd1na2vs0mg"},{"bike_id":"255222dc-155d-41d0-80fc-90266c3a5a35","system_id":"levelo_inurba_marseille","lat":43.29865,"lon":5.3973,"is_reserved":false,"is_disabled":false,"rental_uris":{"android":"levelo://app?vid=255222dc-155d-41d0-80fc-90266c3a5a35","ios":"levelo://app?vid=255222dc-155d-41d0-80fc-90266c3a5a35"},"vehicle_type_id":"4","last_reported":1750512001,"current_range_meters":11600,"station_id":"ce4bh0h2rcd13ifvqd50","pricing_plan_id":"cebpf4jnsgd1na2vs0mg"},{"bike_id":"d40af265-11b5-43a6-9bb6-f910f57901ba","system_id":"levelo_inurba_marseille","lat":43.33033,"lon":5.38002,"is_reserved":false,"is_disabled":false,"rental_uris":{"android":"levelo://app?vid=d40af265-11b5-43a6-9bb6-f910f57901ba","ios":"levelo://app?vid=d40af265-11b5-43a6-9bb6-f910f57901ba"},"vehicle_type_id":"4","last_reported":1750512001,"current_range_meters":12000,"station_id":"","pricing_plan_id":"cebpf4jnsgd1na2vs0mg"},{"bike_id":"1fb6cec7-2388-44f3-a98f-4902f76c74f2","system_id":"levelo_inurba_marseille","lat":43.29897,"lon":5.36513,"is_reserved":false,"is_disabled":false,"rental_uris":{"android":"levelo://app?vid=1fb6cec7-2388-44f3-a98f-4902f76c74f2","ios":"levelo://app?vid=1fb6cec7-2388-44f3-a98f-4902f76c74f2"},"vehicle_type_id":"4","last_reported":1750512001,"current_range_meters":12000,"station_id":"","pricing_plan_id":"cebpf4jnsgd1na2vs0mg"},{"bike_id":"baa2dd37-e48c-4250-8e62-f78ff9ceea7a","system_id":"levelo_inurba_marseille","lat":43.25007,"lon":5.38937,"is_reserved":false,"is_disabled":false,"rental_uris":{"android":"levelo://app?vid=baa2dd37-e48c-4250-8e62-f78ff9ceea7a","ios":"levelo://app?vid=baa2dd37-e48c-4250-8e62-f78ff9ceea7a"},"vehicle_type_id":"4","last_reported":1750512001,"current_range_meters":12000,"station_id":"ce4bhgp2rcd13ifvqfd0","pricing_plan_id":"cebpf4jnsgd1na2vs0mg"},{"bike_id":"1b068631-9e5b-4b42-b750-0d7948cef8e0","system_id":"levelo_inurba_marseille","lat":43.25499,"lon":5.3765,"is_reserved":false,"is_disabled":false,"rental_uris":{"android":"levelo://app?vid=1b068631-9e5b-4b42-b750-0d7948cef8e0","ios":"levelo://app?vid=1b068631-9e5b-4b42-b750-0d7948cef8e0"},"vehicle_type_id":"4","last_reported":1750512001,"current_range_meters":12000,"station_id":"ce4bhh12rcd13ifvqff0","pricing_plan_id":"cebpf4jnsgd1na2vs0mg"},{"bike_id":"ebd396ea-f3a5-4fc6-9455-a4842951701c","system_id":"levelo_inurba_marseille","lat":43.276658,"lon":5.388945,"is_reserved":false,"is_disabled":false,"rental_uris":{"android":"levelo://app?vid=ebd396ea-f3a5-4fc6-9455-a4842951701c","ios":"levelo://app?vid=ebd396ea-f3a5-4fc6-9455-a4842951701c"},"vehicle_type_id":"4","last_reported":1750512001,"current_range_meters":12000,"station_id":"ce4bhi12rcd13ifvqfo0","pricing_plan_id":"cebpf4jnsgd1na2vs0mg"},{"bike_id":"50fa9ad3-c289-4c44-be95-948df72533e4","system_id":"levelo_inurba_marseille","lat":43.26503,"lon":5.39551,"is_reserved":false,"is_disabled":false,"rental_uris":{"android":"levelo://app?vid=50fa9ad3-c289-4c44-be95-948df72533e4","ios":"levelo://app?vid=50fa9ad3-c289-4c44-be95-948df72533e4"},"vehicle_type_id":"4","last_reported":1750512001,"current_range_meters":12000,"station_id":"ce4bhi12rcd13ifvqfq0","pricing_plan_id":"cebpf4jnsgd1na2vs0mg"},{"bike_id":"4643bc90-1bac-4c4b-98b1-e2d500830573","system_id":"levelo_inurba_marseille","lat":43.31335,"lon":5.37663,"is_reserved":false,"is_disabled":false,"rental_uris":{"android":"levelo://app?vid=4643bc90-1bac-4c4b-98b1-e2d500830573","ios":"levelo://app?vid=4643bc90-1bac-4c4b-98b1-e2d500830573"},"vehicle_type_id":"4","last_reported":1750512001,"current_range_meters":12400,"station_id":"","pricing_plan_id":"cebpf4jnsgd1na2vs0mg"},{"bike_id":"b441ba3a-8e20-47ae-b80a-2d5a8495afcb","system_id":"levelo_inurba_marseille","lat":43.29518,"lon":5.39026,"is_reserved":false,"is_disabled":false,"rental_uris":{"android":"levelo://app?vid=b441ba3a-8e20-47ae-b80a-2d5a8495afcb","ios":"levelo://app?vid=b441ba3a-8e20-47ae-b80a-2d5a8495afcb"},"vehicle_type_id":"4","last_reported":1750512001,"current_range_meters":12400,"station_id":"ce4bh3p2rcd13ifvqdp0","pricing_plan_id":"cebpf4jnsgd1na2vs0mg"},{"bike_id":"119a023f-42ec-4111-8112-532288e80ef3","system_id":"levelo_inurba_marseille","lat":43.26205,"lon":5.37445,"is_reserved":false,"is_disabled":false,"rental_uris":{"android":"levelo://app?vid=119a023f-42ec-4111-8112-532288e80ef3","ios":"levelo://app?vid=119a023f-42ec-4111-8112-532288e80ef3"},"vehicle_type_id":"4","last_reported":1750512001,"current_range_meters":12400,"station_id":"ce4bhgp2rcd13ifvqfc0","pricing_plan_id":"cebpf4jnsgd1na2vs0mg"},{"bike_id":"2c13d617-1cc6-4c0f-a2f6-4696588d8a47","system_id":"levelo_inurba_marseille","lat":43.26793,"lon":5.39417,"is_reserved":false,"is_disabled":false,"rental_uris":{"android":"levelo://app?vid=2c13d617-1cc6-4c0f-a2f6-4696588d8a47","ios":"levelo://app?vid=2c13d617-1cc6-4c0f-a2f6-4696588d8a47"},"vehicle_type_id":"4","last_reported":1750512001,"current_range_meters":12400,"station_id":"ce4bhh12rcd13ifvqfg0","pricing_plan_id":"cebpf4jnsgd1na2vs0mg"},{"bike_id":"a22aa312-0025-4f42-88e2-b1e95e79340f","system_id":"levelo_inurba_marseille","lat":43.31637,"lon":5.38327,"is_reserved":false,"is_disabled":false,"rental_uris":{"android":"levelo://app?vid=a22aa312-0025-4f42-88e2-b1e95e79340f","ios":"levelo://app?vid=a22aa312-0025-4f42-88e2-b1e95e79340f"},"vehicle_type_id":"4","last_reported":1750512001,"current_range_meters":12800,"station_id":"","pricing_plan_id":"cebpf4jnsgd1na2vs0mg"},{"bike_id":"14837575-cb0a-4262-864c-6f01e9b4b617","system_id":"levelo_inurba_marseille","lat":43.30596,"lon":5.37229,"is_reserved":false,"is_disabled":false,"rental_uris":{"android":"levelo://app?vid=14837575-cb0a-4262-864c-6f01e9b4b617","ios":"levelo://app?vid=14837575-cb0a-4262-864c-6f01e9b4b617"},"vehicle_type_id":"4","last_reported":1750512001,"current_range_meters":12800,"station_id":"ce4bgqh2rcd13ifvqc4g","pricing_plan_id":"cebpf4jnsgd1na2vs0mg"},{"bike_id":"1d3f4a8c-e7ae-43d9-bde7-a8b9b2e230a1","system_id":"levelo_inurba_marseille","lat":43.315055,"lon":5.372943,"is_reserved":false,"is_disabled":false,"rental_uris":{"android":"levelo://app?vid=1d3f4a8c-e7ae-43d9-bde7-a8b9b2e230a1","ios":"levelo://app?vid=1d3f4a8c-e7ae-43d9-bde7-a8b9b2e230a1"},"vehicle_type_id":"4","last_reported":1750512001,"current_range_meters":12800,"station_id":"ce4bgt12rcd13ifvqcd0","pricing_plan_id":"cebpf4jnsgd1na2vs0mg"},{"bike_id":"a856b7c3-bd99-4b79-9040-3381374d773e","system_id":"levelo_inurba_marseille","lat":43.309478,"lon":5.390468,"is_reserved":false,"is_disabled":false,"rental_uris":{"android":"levelo://app?vid=a856b7c3-bd99-4b79-9040-3381374d773e","ios":"levelo://app?vid=a856b7c3-bd99-4b79-9040-3381374d773e"},"vehicle_type_id":"4","last_reported":1750512001,"current_range_meters":12800,"station_id":"ce4bgup2rcd13ifvqco0","pricing_plan_id":"cebpf4jnsgd1na2vs0mg"},{"bike_id":"a5922308-6e66-46da-9273-48e4e92965a5","system_id":"levelo_inurba_marseille","lat":43.3134,"lon":5.3974,"is_reserved":false,"is_disabled":false,"rental_uris":{"android":"levelo://app?vid=a5922308-6e66-46da-9273-48e4e92965a5","ios":"levelo://app?vid=a5922308-6e66-46da-9273-48e4e92965a5"},"vehicle_type_id":"4","last_reported":1750512001,"current_range_meters":12800,"station_id":"ce4bgvp2rcd13ifvqcu0","pricing_plan_id":"cebpf4jnsgd1na2vs0mg"},{"bike_id":"247b80b7-10fe-40f5-848b-d8ff192ca5b8","system_id":"levelo_inurba_marseille","lat":43.28029,"lon":5.36946,"is_reserved":false,"is_disabled":false,"rental_uris":{"android":"levelo://app?vid=247b80b7-10fe-40f5-848b-d8ff192ca5b8","ios":"levelo://app?vid=247b80b7-10fe-40f5-848b-d8ff192ca5b8"},"vehicle_type_id":"4","last_reported":1750512001,"current_range_meters":12800,"station_id":"ce4bha12rcd13ifvqef0","pricing_plan_id":"cebpf4jnsgd1na2vs0mg"},{"bike_id":"bf43d168-fc74-4c9b-9f1c-f1b97d212382","system_id":"levelo_inurba_marseille","lat":43.290298,"lon":5.355994,"is_reserved":false,"is_disabled":false,"rental_uris":{"android":"levelo://app?vid=bf43d168-fc74-4c9b-9f1c-f1b97d212382","ios":"levelo://app?vid=bf43d168-fc74-4c9b-9f1c-f1b97d212382"},"vehicle_type_id":"4","last_reported":1750512001,"current_range_meters":12800,"station_id":"ce4bhb92rcd13ifvqen0","pricing_plan_id":"cebpf4jnsgd1na2vs0mg"},{"bike_id":"990a6f46-4559-4f49-8577-568ab37491f0","system_id":"levelo_inurba_marseille","lat":43.25821,"lon":5.39438,"is_reserved":false,"is_disabled":false,"rental_uris":{"android":"levelo://app?vid=990a6f46-4559-4f49-8577-568ab37491f0","ios":"levelo://app?vid=990a6f46-4559-4f49-8577-568ab37491f0"},"vehicle_type_id":"4","last_reported":1750512001,"current_range_meters":13600,"station_id":"ce4bhip2rcd13ifvqft0","pricing_plan_id":"cebpf4jnsgd1na2vs0mg"},{"bike_id":"0f0ec84c-9680-4767-b1d6-dceda899e40c","system_id":"levelo_inurba_marseille","lat":43.31112,"lon":5.37766,"is_reserved":false,"is_disabled":false,"rental_uris":{"android":"levelo://app?vid=0f0ec84c-9680-4767-b1d6-dceda899e40c","ios":"levelo://app?vid=0f0ec84c-9680-4767-b1d6-dceda899e40c"},"vehicle_type_id":"4","last_reported":1750512001,"current_range_meters":14000,"station_id":"ce4bgt92rcd13ifvqcg0","pricing_plan_id":"cebpf4jnsgd1na2vs0mg"},{"bike_id":"46a5d8dc-c296-41ee-9172-87754269795e","system_id":"levelo_inurba_marseille","lat":43.29261,"lon":5.38446,"is_reserved":false,"is_disabled":false,"rental_uris":{"android":"levelo://app?vid=46a5d8dc-c296-41ee-9172-87754269795e","ios":"levelo://app?vid=46a5d8dc-c296-41ee-9172-87754269795e"},"vehicle_type_id":"4","last_reported":1750512001,"current_range_meters":14000,"station_id":"ce4bh692rcd13ifvqea0","pricing_plan_id":"cebpf4jnsgd1na2vs0mg"},{"bike_id":"ba93c9ad-28c8-4ab1-9fef-eabc6687f275","system_id":"levelo_inurba_marseille","lat":43.24991,"lon":5.38933,"is_reserved":false,"is_disabled":false,"rental_uris":{"android":"levelo://app?vid=ba93c9ad-28c8-4ab1-9fef-eabc6687f275","ios":"levelo://app?vid=ba93c9ad-28c8-4ab1-9fef-eabc6687f275"},"vehicle_type_id":"4","last_reported":1750512001,"current_range_meters":14000,"station_id":"ce4bhgp2rcd13ifvqfd0","pricing_plan_id":"cebpf4jnsgd1na2vs0mg"},{"bike_id":"a38b3ea0-a982-4fa0-9f81-2a43c6bca9d3","system_id":"levelo_inurba_marseille","lat":43.255,"lon":5.3765,"is_reserved":false,"is_disabled":false,"rental_uris":{"android":"levelo://app?vid=a38b3ea0-a982-4fa0-9f81-2a43c6bca9d3","ios":"levelo://app?vid=a38b3ea0-a982-4fa0-9f81-2a43c6bca9d3"},"vehicle_type_id":"4","last_reported":1750512001,"current_range_meters":14000,"station_id":"ce4bhh12rcd13ifvqff0","pricing_plan_id":"cebpf4jnsgd1na2vs0mg"},{"bike_id":"afceed1f-04b8-4abc-8511-c069313c45ba","system_id":"levelo_inurba_marseille","lat":43.28941,"lon":5.38418,"is_reserved":false,"is_disabled":false,"rental_uris":{"android":"levelo://app?vid=afceed1f-04b8-4abc-8511-c069313c45ba","ios":"levelo://app?vid=afceed1f-04b8-4abc-8511-c069313c45ba"},"vehicle_type_id":"4","last_reported":1750512001,"current_range_meters":14400,"station_id":"ce4bh612rcd13ifvqe6g","pricing_plan_id":"cebpf4jnsgd1na2vs0mg"},{"bike_id":"47b0e8ed-1505-41e8-9bb6-271f11e0cd62","system_id":"levelo_inurba_marseille","lat":43.28036,"lon":5.36945,"is_reserved":false,"is_disabled":false,"rental_uris":{"android":"levelo://app?vid=47b0e8ed-1505-41e8-9bb6-271f11e0cd62","ios":"levelo://app?vid=47b0e8ed-1505-41e8-9bb6-271f11e0cd62"},"vehicle_type_id":"4","last_reported":1750512001,"current_range_meters":14400,"station_id":"ce4bha12rcd13ifvqef0","pricing_plan_id":"cebpf4jnsgd1na2vs0mg"},{"bike_id":"9d8cea9e-5dc3-4979-89db-1e9a7449f475","system_id":"levelo_inurba_marseille","lat":43.231463,"lon":5.437484,"is_reserved":false,"is_disabled":false,"rental_uris":{"android":"levelo://app?vid=9d8cea9e-5dc3-4979-89db-1e9a7449f475","ios":"levelo://app?vid=9d8cea9e-5dc3-4979-89db-1e9a7449f475"},"vehicle_type_id":"4","last_reported":1750512001,"current_range_meters":14400,"station_id":"ce4bhmp2rcd13ifvqgog","pricing_plan_id":"cebpf4jnsgd1na2vs0mg"},{"bike_id":"ef119b9f-74f5-4323-bd7b-10725bc86e56","system_id":"levelo_inurba_marseille","lat":43.2417,"lon":5.36399,"is_reserved":false,"is_disabled":false,"rental_uris":{"android":"levelo://app?vid=ef119b9f-74f5-4323-bd7b-10725bc86e56","ios":"levelo://app?vid=ef119b9f-74f5-4323-bd7b-10725bc86e56"},"vehicle_type_id":"4","last_reported":1750512001,"current_range_meters":14400,"station_id":"cpo36qri1sfpv3e86is0","pricing_plan_id":"cebpf4jnsgd1na2vs0mg"},{"bike_id":"b935579a-e9d3-4ccf-a111-a22b8dbf997d","system_id":"levelo_inurba_marseille","lat":43.211943,"lon":5.350736,"is_reserved":false,"is_disabled":false,"rental_uris":{"android":"levelo://app?vid=b935579a-e9d3-4ccf-a111-a22b8dbf997d","ios":"levelo://app?vid=b935579a-e9d3-4ccf-a111-a22b8dbf997d"},"vehicle_type_id":"4","last_reported":1750512001,"current_range_meters":14800,"station_id":"","pricing_plan_id":"cebpf4jnsgd1na2vs0mg"},{"bike_id":"543ca1d0-fe30-40c3-a440-a61c0d9af8a0","system_id":"levelo_inurba_marseille","lat":43.31279,"lon":5.40176,"is_reserved":false,"is_disabled":false,"rental_uris":{"android":"levelo://app?vid=543ca1d0-fe30-40c3-a440-a61c0d9af8a0","ios":"levelo://app?vid=543ca1d0-fe30-40c3-a440-a61c0d9af8a0"},"vehicle_type_id":"4","last_reported":1750512001,"current_range_meters":14800,"station_id":"ce4bh092rcd13ifvqd30","pricing_plan_id":"cebpf4jnsgd1na2vs0mg"},{"bike_id":"f7332243-06cd-4124-a46a-d91fdb3362e2","system_id":"levelo_inurba_marseille","lat":43.28035,"lon":5.36949,"is_reserved":false,"is_disabled":false,"rental_uris":{"android":"levelo://app?vid=f7332243-06cd-4124-a46a-d91fdb3362e2","ios":"levelo://app?vid=f7332243-06cd-4124-a46a-d91fdb3362e2"},"vehicle_type_id":"4","last_reported":1750512001,"current_range_meters":15200,"station_id":"ce4bha12rcd13ifvqef0","pricing_plan_id":"cebpf4jnsgd1na2vs0mg"},{"bike_id":"3aef8a3a-88bc-427a-ac78-869037cd2321","system_id":"levelo_inurba_marseille","lat":43.28416,"lon":5.34975,"is_reserved":false,"is_disabled":false,"rental_uris":{"android":"levelo://app?vid=3aef8a3a-88bc-427a-ac78-869037cd2321","ios":"levelo://app?vid=3aef8a3a-88bc-427a-ac78-869037cd2321"},"vehicle_type_id":"4","last_reported":1750512001,"current_range_meters":15200,"station_id":"ce4bhbh2rcd13ifvqepg","pricing_plan_id":"cebpf4jnsgd1na2vs0mg"},{"bike_id":"e14b58f0-232a-4ce0-8eab-2ae42de935ff","system_id":"levelo_inurba_marseille","lat":43.26191,"lon":5.37451,"is_reserved":false,"is_disabled":false,"rental_uris":{"android":"levelo://app?vid=e14b58f0-232a-4ce0-8eab-2ae42de935ff","ios":"levelo://app?vid=e14b58f0-232a-4ce0-8eab-2ae42de935ff"},"vehicle_type_id":"4","last_reported":1750512001,"current_range_meters":15200,"station_id":"ce4bhgp2rcd13ifvqfc0","pricing_plan_id":"cebpf4jnsgd1na2vs0mg"},{"bike_id":"dbe4051a-2bd2-47e2-ad03-b82f32ca58cd","system_id":"levelo_inurba_marseille","lat":43.24171,"lon":5.36414,"is_reserved":false,"is_disabled":false,"rental_uris":{"android":"levelo://app?vid=dbe4051a-2bd2-47e2-ad03-b82f32ca58cd","ios":"levelo://app?vid=dbe4051a-2bd2-47e2-ad03-b82f32ca58cd"},"vehicle_type_id":"4","last_reported":1750512001,"current_range_meters":15200,"station_id":"cpo36qri1sfpv3e86is0","pricing_plan_id":"cebpf4jnsgd1na2vs0mg"},{"bike_id":"1fbc0fef-8f0f-43d6-9e64-d7e4bd812fa1","system_id":"levelo_inurba_marseille","lat":43.27634,"lon":5.36115,"is_reserved":false,"is_disabled":false,"rental_uris":{"android":"levelo://app?vid=1fbc0fef-8f0f-43d6-9e64-d7e4bd812fa1","ios":"levelo://app?vid=1fbc0fef-8f0f-43d6-9e64-d7e4bd812fa1"},"vehicle_type_id":"4","last_reported":1750512001,"current_range_meters":16000,"station_id":"ce4bgj92rcd13ifvqbe0","pricing_plan_id":"cebpf4jnsgd1na2vs0mg"},{"bike_id":"45d778e6-aa0b-40ba-a4de-a6c941762022","system_id":"levelo_inurba_marseille","lat":43.28997,"lon":5.35622,"is_reserved":false,"is_disabled":false,"rental_uris":{"android":"levelo://app?vid=45d778e6-aa0b-40ba-a4de-a6c941762022","ios":"levelo://app?vid=45d778e6-aa0b-40ba-a4de-a6c941762022"},"vehicle_type_id":"4","last_reported":1750512001,"current_range_meters":16000,"station_id":"ce4bhb92rcd13ifvqen0","pricing_plan_id":"cebpf4jnsgd1na2vs0mg"},{"bike_id":"8b499c04-8dde-4c05-8dcf-01ce074f9af5","system_id":"levelo_inurba_marseille","lat":43.261921,"lon":5.374618,"is_reserved":false,"is_disabled":false,"rental_uris":{"android":"levelo://app?vid=8b499c04-8dde-4c05-8dcf-01ce074f9af5","ios":"levelo://app?vid=8b499c04-8dde-4c05-8dcf-01ce074f9af5"},"vehicle_type_id":"4","last_reported":1750512001,"current_range_meters":16000,"station_id":"ce4bhgp2rcd13ifvqfc0","pricing_plan_id":"cebpf4jnsgd1na2vs0mg"},{"bike_id":"b4b9f165-9b30-462c-875b-bb8dde06fcb2","system_id":"levelo_inurba_marseille","lat":43.21764,"lon":5.34611,"is_reserved":false,"is_disabled":false,"rental_uris":{"android":"levelo://app?vid=b4b9f165-9b30-462c-875b-bb8dde06fcb2","ios":"levelo://app?vid=b4b9f165-9b30-462c-875b-bb8dde06fcb2"},"vehicle_type_id":"4","last_reported":1750512001,"current_range_meters":16000,"station_id":"st_cvj6r9ubvosntc0bgbag","pricing_plan_id":"cebpf4jnsgd1na2vs0mg"},{"bike_id":"5a444312-ea58-41ad-8601-9a326005dcb0","system_id":"levelo_inurba_marseille","lat":43.21753,"lon":5.34607,"is_reserved":false,"is_disabled":false,"rental_uris":{"android":"levelo://app?vid=5a444312-ea58-41ad-8601-9a326005dcb0","ios":"levelo://app?vid=5a444312-ea58-41ad-8601-9a326005dcb0"},"vehicle_type_id":"4","last_reported":1750512001,"current_range_meters":16000,"station_id":"st_cvj6r9ubvosntc0bgbag","pricing_plan_id":"cebpf4jnsgd1na2vs0mg"},{"bike_id":"38b4578b-d322-4ae7-86ef-2a7e9839b4fd","system_id":"levelo_inurba_marseille","lat":43.21188,"lon":5.35062,"is_reserved":false,"is_disabled":false,"rental_uris":{"android":"levelo://app?vid=38b4578b-d322-4ae7-86ef-2a7e9839b4fd","ios":"levelo://app?vid=38b4578b-d322-4ae7-86ef-2a7e9839b4fd"},"vehicle_type_id":"4","last_reported":1750512001,"current_range_meters":16000,"station_id":"st_cvj6sg6p6f1abm77japg","pricing_plan_id":"cebpf4jnsgd1na2vs0mg"},{"bike_id":"6a4b59b0-64b7-4950-ae73-2324ba55dcce","system_id":"levelo_inurba_marseille","lat":43.330179,"lon":5.381491,"is_reserved":false,"is_disabled":false,"rental_uris":{"android":"levelo://app?vid=6a4b59b0-64b7-4950-ae73-2324ba55dcce","ios":"levelo://app?vid=6a4b59b0-64b7-4950-ae73-2324ba55dcce"},"vehicle_type_id":"4","last_reported":1750512001,"current_range_meters":16400,"station_id":"","pricing_plan_id":"cebpf4jnsgd1na2vs0mg"},{"bike_id":"fc45fafc-9c8b-423b-a31a-b88a17c72c80","system_id":"levelo_inurba_marseille","lat":43.29528,"lon":5.39048,"is_reserved":false,"is_disabled":false,"rental_uris":{"android":"levelo://app?vid=fc45fafc-9c8b-423b-a31a-b88a17c72c80","ios":"levelo://app?vid=fc45fafc-9c8b-423b-a31a-b88a17c72c80"},"vehicle_type_id":"4","last_reported":1750512001,"current_range_meters":16400,"station_id":"ce4bh3p2rcd13ifvqdp0","pricing_plan_id":"cebpf4jnsgd1na2vs0mg"},{"bike_id":"109f9c9f-faba-406c-93ca-4032b50427cd","system_id":"levelo_inurba_marseille","lat":43.28104,"lon":5.37835,"is_reserved":false,"is_disabled":false,"rental_uris":{"android":"levelo://app?vid=109f9c9f-faba-406c-93ca-4032b50427cd","ios":"levelo://app?vid=109f9c9f-faba-406c-93ca-4032b50427cd"},"vehicle_type_id":"4","last_reported":1750512001,"current_range_meters":16400,"station_id":"ce4bha12rcd13ifvqee0","pricing_plan_id":"cebpf4jnsgd1na2vs0mg"},{"bike_id":"fa5dd7c3-b4ba-4624-9ea7-0d12fda5cb9c","system_id":"levelo_inurba_marseille","lat":43.2918,"lon":5.35802,"is_reserved":false,"is_disabled":false,"rental_uris":{"android":"levelo://app?vid=fa5dd7c3-b4ba-4624-9ea7-0d12fda5cb9c","ios":"levelo://app?vid=fa5dd7c3-b4ba-4624-9ea7-0d12fda5cb9c"},"vehicle_type_id":"4","last_reported":1750512001,"current_range_meters":16400,"station_id":"ce4bhb12rcd13ifvqel0","pricing_plan_id":"cebpf4jnsgd1na2vs0mg"},{"bike_id":"d580f51c-9c0b-4360-af03-44d51cbc1727","system_id":"levelo_inurba_marseille","lat":43.2439,"lon":5.37072,"is_reserved":false,"is_disabled":false,"rental_uris":{"android":"levelo://app?vid=d580f51c-9c0b-4360-af03-44d51cbc1727","ios":"levelo://app?vid=d580f51c-9c0b-4360-af03-44d51cbc1727"},"vehicle_type_id":"4","last_reported":1750512001,"current_range_meters":16400,"station_id":"ce4bhhh2rcd13ifvqfk0","pricing_plan_id":"cebpf4jnsgd1na2vs0mg"},{"bike_id":"0c483017-d5e6-45c6-b121-108a4955fcc0","system_id":"levelo_inurba_marseille","lat":43.23177,"lon":5.39985,"is_reserved":false,"is_disabled":false,"rental_uris":{"android":"levelo://app?vid=0c483017-d5e6-45c6-b121-108a4955fcc0","ios":"levelo://app?vid=0c483017-d5e6-45c6-b121-108a4955fcc0"},"vehicle_type_id":"4","last_reported":1750512001,"current_range_meters":16400,"station_id":"ce4bhn12rcd13ifvqgqg","pricing_plan_id":"cebpf4jnsgd1na2vs0mg"},{"bike_id":"c4ae9c0f-bcc5-4cef-a4f6-acfbca98db74","system_id":"levelo_inurba_marseille","lat":43.22929,"lon":5.3538,"is_reserved":false,"is_disabled":false,"rental_uris":{"android":"levelo://app?vid=c4ae9c0f-bcc5-4cef-a4f6-acfbca98db74","ios":"levelo://app?vid=c4ae9c0f-bcc5-4cef-a4f6-acfbca98db74"},"vehicle_type_id":"4","last_reported":1750512001,"current_range_meters":16400,"station_id":"cpo3532slgdg3j2ikp40","pricing_plan_id":"cebpf4jnsgd1na2vs0mg"},{"bike_id":"f6069a5d-a2bc-44cc-bc6f-f26f79591d92","system_id":"levelo_inurba_marseille","lat":43.30782,"lon":5.37364,"is_reserved":false,"is_disabled":false,"rental_uris":{"android":"levelo://app?vid=f6069a5d-a2bc-44cc-bc6f-f26f79591d92","ios":"levelo://app?vid=f6069a5d-a2bc-44cc-bc6f-f26f79591d92"},"vehicle_type_id":"4","last_reported":1750512001,"current_range_meters":16800,"station_id":"","pricing_plan_id":"cebpf4jnsgd1na2vs0mg"},{"bike_id":"8ff6fa86-7a82-4b1c-8bc8-ae5f93c50a40","system_id":"levelo_inurba_marseille","lat":43.30556,"lon":5.36551,"is_reserved":false,"is_disabled":false,"rental_uris":{"android":"levelo://app?vid=8ff6fa86-7a82-4b1c-8bc8-ae5f93c50a40","ios":"levelo://app?vid=8ff6fa86-7a82-4b1c-8bc8-ae5f93c50a40"},"vehicle_type_id":"4","last_reported":1750512001,"current_range_meters":16800,"station_id":"ce4bgs12rcd13ifvqcag","pricing_plan_id":"cebpf4jnsgd1na2vs0mg"},{"bike_id":"76e7a7f9-93c6-4384-b104-1d653422493b","system_id":"levelo_inurba_marseille","lat":43.2804,"lon":5.3695,"is_reserved":false,"is_disabled":false,"rental_uris":{"android":"levelo://app?vid=76e7a7f9-93c6-4384-b104-1d653422493b","ios":"levelo://app?vid=76e7a7f9-93c6-4384-b104-1d653422493b"},"vehicle_type_id":"4","last_reported":1750512001,"current_range_meters":16800,"station_id":"ce4bha12rcd13ifvqef0","pricing_plan_id":"cebpf4jnsgd1na2vs0mg"},{"bike_id":"9c1a509a-07fd-4db4-a432-a49c5321e572","system_id":"levelo_inurba_marseille","lat":43.26559,"lon":5.37282,"is_reserved":false,"is_disabled":false,"rental_uris":{"android":"levelo://app?vid=9c1a509a-07fd-4db4-a432-a49c5321e572","ios":"levelo://app?vid=9c1a509a-07fd-4db4-a432-a49c5321e572"},"vehicle_type_id":"4","last_reported":1750512001,"current_range_meters":16800,"station_id":"ce4bhg12rcd13ifvqf70","pricing_plan_id":"cebpf4jnsgd1na2vs0mg"},{"bike_id":"1963abb9-b97a-4da5-a935-269fab6d3076","system_id":"levelo_inurba_marseille","lat":43.26773,"lon":5.39411,"is_reserved":false,"is_disabled":false,"rental_uris":{"android":"levelo://app?vid=1963abb9-b97a-4da5-a935-269fab6d3076","ios":"levelo://app?vid=1963abb9-b97a-4da5-a935-269fab6d3076"},"vehicle_type_id":"4","last_reported":1750512001,"current_range_meters":16800,"station_id":"ce4bhh12rcd13ifvqfg0","pricing_plan_id":"cebpf4jnsgd1na2vs0mg"},{"bike_id":"cf077cfc-8295-4c86-b208-4d8963e12e17","system_id":"levelo_inurba_marseille","lat":43.27066,"lon":5.42292,"is_reserved":false,"is_disabled":false,"rental_uris":{"android":"levelo://app?vid=cf077cfc-8295-4c86-b208-4d8963e12e17","ios":"levelo://app?vid=cf077cfc-8295-4c86-b208-4d8963e12e17"},"vehicle_type_id":"4","last_reported":1750512001,"current_range_meters":16800,"station_id":"ce4bhk92rcd13ifvqgb0","pricing_plan_id":"cebpf4jnsgd1na2vs0mg"},{"bike_id":"4cf2a20c-c410-436e-80fd-bb24a47781f0","system_id":"levelo_inurba_marseille","lat":43.24177,"lon":5.39736,"is_reserved":false,"is_disabled":false,"rental_uris":{"android":"levelo://app?vid=4cf2a20c-c410-436e-80fd-bb24a47781f0","ios":"levelo://app?vid=4cf2a20c-c410-436e-80fd-bb24a47781f0"},"vehicle_type_id":"4","last_reported":1750512001,"current_range_meters":16800,"station_id":"ce4bhn12rcd13ifvqgpg","pricing_plan_id":"cebpf4jnsgd1na2vs0mg"},{"bike_id":"7c3434e7-ecd7-4565-9a0f-952b018128a9","system_id":"levelo_inurba_marseille","lat":43.21209,"lon":5.35095,"is_reserved":false,"is_disabled":false,"rental_uris":{"android":"levelo://app?vid=7c3434e7-ecd7-4565-9a0f-952b018128a9","ios":"levelo://app?vid=7c3434e7-ecd7-4565-9a0f-952b018128a9"},"vehicle_type_id":"4","last_reported":1750512001,"current_range_meters":16800,"station_id":"st_cvj6sg6p6f1abm77japg","pricing_plan_id":"cebpf4jnsgd1na2vs0mg"},{"bike_id":"51924496-d375-43d1-9f3c-2086be022a83","system_id":"levelo_inurba_marseille","lat":43.25992,"lon":5.38688,"is_reserved":false,"is_disabled":false,"rental_uris":{"android":"levelo://app?vid=51924496-d375-43d1-9f3c-2086be022a83","ios":"levelo://app?vid=51924496-d375-43d1-9f3c-2086be022a83"},"vehicle_type_id":"4","last_reported":1750512001,"current_range_meters":17200,"station_id":"","pricing_plan_id":"cebpf4jnsgd1na2vs0mg"},{"bike_id":"51a10ac8-4a7d-4bb7-aa46-ee1fc97a585c","system_id":"levelo_inurba_marseille","lat":43.21866,"lon":5.34595,"is_reserved":false,"is_disabled":false,"rental_uris":{"android":"levelo://app?vid=51a10ac8-4a7d-4bb7-aa46-ee1fc97a585c","ios":"levelo://app?vid=51a10ac8-4a7d-4bb7-aa46-ee1fc97a585c"},"vehicle_type_id":"4","last_reported":1750512001,"current_range_meters":17200,"station_id":"","pricing_plan_id":"cebpf4jnsgd1na2vs0mg"},{"bike_id":"a08d8572-1df9-48a5-8826-d23cf54d995d","system_id":"levelo_inurba_marseille","lat":43.273796,"lon":5.362545,"is_reserved":false,"is_disabled":false,"rental_uris":{"android":"levelo://app?vid=a08d8572-1df9-48a5-8826-d23cf54d995d","ios":"levelo://app?vid=a08d8572-1df9-48a5-8826-d23cf54d995d"},"vehicle_type_id":"4","last_reported":1750512001,"current_range_meters":17200,"station_id":"","pricing_plan_id":"cebpf4jnsgd1na2vs0mg"},{"bike_id":"ffbb0c22-3f4e-4cdb-a0e5-79e3b9f3e1a2","system_id":"levelo_inurba_marseille","lat":43.33769,"lon":5.37469,"is_reserved":false,"is_disabled":false,"rental_uris":{"android":"levelo://app?vid=ffbb0c22-3f4e-4cdb-a0e5-79e3b9f3e1a2","ios":"levelo://app?vid=ffbb0c22-3f4e-4cdb-a0e5-79e3b9f3e1a2"},"vehicle_type_id":"4","last_reported":1750512001,"current_range_meters":17200,"station_id":"","pricing_plan_id":"cebpf4jnsgd1na2vs0mg"},{"bike_id":"9f2b6689-4558-4ae7-891f-926aafbda1d4","system_id":"levelo_inurba_marseille","lat":43.30799,"lon":5.38152,"is_reserved":false,"is_disabled":false,"rental_uris":{"android":"levelo://app?vid=9f2b6689-4558-4ae7-891f-926aafbda1d4","ios":"levelo://app?vid=9f2b6689-4558-4ae7-891f-926aafbda1d4"},"vehicle_type_id":"4","last_reported":1750512001,"current_range_meters":17200,"station_id":"ce4bgt12rcd13ifvqce0","pricing_plan_id":"cebpf4jnsgd1na2vs0mg"},{"bike_id":"87ae382f-70f6-480d-8171-acdc18daaa03","system_id":"levelo_inurba_marseille","lat":43.30948,"lon":5.39042,"is_reserved":false,"is_disabled":false,"rental_uris":{"android":"levelo://app?vid=87ae382f-70f6-480d-8171-acdc18daaa03","ios":"levelo://app?vid=87ae382f-70f6-480d-8171-acdc18daaa03"},"vehicle_type_id":"4","last_reported":1750512001,"current_range_meters":17200,"station_id":"ce4bgup2rcd13ifvqco0","pricing_plan_id":"cebpf4jnsgd1na2vs0mg"},{"bike_id":"a6ccec58-c916-469c-8050-d1a37969ab19","system_id":"levelo_inurba_marseille","lat":43.31701,"lon":5.40468,"is_reserved":false,"is_disabled":false,"rental_uris":{"android":"levelo://app?vid=a6ccec58-c916-469c-8050-d1a37969ab19","ios":"levelo://app?vid=a6ccec58-c916-469c-8050-d1a37969ab19"},"vehicle_type_id":"4","last_reported":1750512001,"current_range_meters":17200,"station_id":"ce4bh012rcd13ifvqd00","pricing_plan_id":"cebpf4jnsgd1na2vs0mg"},{"bike_id":"41b8da94-4253-4876-9c48-4e6835d4d50f","system_id":"levelo_inurba_marseille","lat":43.26561,"lon":5.37317,"is_reserved":false,"is_disabled":false,"rental_uris":{"android":"levelo://app?vid=41b8da94-4253-4876-9c48-4e6835d4d50f","ios":"levelo://app?vid=41b8da94-4253-4876-9c48-4e6835d4d50f"},"vehicle_type_id":"4","last_reported":1750512001,"current_range_meters":17200,"station_id":"ce4bhg12rcd13ifvqf70","pricing_plan_id":"cebpf4jnsgd1na2vs0mg"},{"bike_id":"82b609eb-4bb1-412b-8dd3-ab5548ecab23","system_id":"levelo_inurba_marseille","lat":43.2707,"lon":5.42278,"is_reserved":false,"is_disabled":false,"rental_uris":{"android":"levelo://app?vid=82b609eb-4bb1-412b-8dd3-ab5548ecab23","ios":"levelo://app?vid=82b609eb-4bb1-412b-8dd3-ab5548ecab23"},"vehicle_type_id":"4","last_reported":1750512001,"current_range_meters":17200,"station_id":"ce4bhk92rcd13ifvqgb0","pricing_plan_id":"cebpf4jnsgd1na2vs0mg"},{"bike_id":"1c6eee43-889f-4cff-bc8c-307447a31830","system_id":"levelo_inurba_marseille","lat":43.30788,"lon":5.43522,"is_reserved":false,"is_disabled":false,"rental_uris":{"android":"levelo://app?vid=1c6eee43-889f-4cff-bc8c-307447a31830","ios":"levelo://app?vid=1c6eee43-889f-4cff-bc8c-307447a31830"},"vehicle_type_id":"4","last_reported":1750512001,"current_range_meters":17200,"station_id":"ce4bhph2rcd13ifvqheg","pricing_plan_id":"cebpf4jnsgd1na2vs0mg"},{"bike_id":"4d80d21e-3dc9-4004-a3c0-eb7b371a8ccf","system_id":"levelo_inurba_marseille","lat":43.33041,"lon":5.39387,"is_reserved":false,"is_disabled":false,"rental_uris":{"android":"levelo://app?vid=4d80d21e-3dc9-4004-a3c0-eb7b371a8ccf","ios":"levelo://app?vid=4d80d21e-3dc9-4004-a3c0-eb7b371a8ccf"},"vehicle_type_id":"4","last_reported":1750512001,"current_range_meters":17600,"station_id":"","pricing_plan_id":"cebpf4jnsgd1na2vs0mg"},{"bike_id":"972027ae-9c57-4b1f-8c1b-8f64c5cfe1b3","system_id":"levelo_inurba_marseille","lat":43.31325,"lon":5.39685,"is_reserved":false,"is_disabled":false,"rental_uris":{"android":"levelo://app?vid=972027ae-9c57-4b1f-8c1b-8f64c5cfe1b3","ios":"levelo://app?vid=972027ae-9c57-4b1f-8c1b-8f64c5cfe1b3"},"vehicle_type_id":"4","last_reported":1750512001,"current_range_meters":17600,"station_id":"ce4bgvp2rcd13ifvqcu0","pricing_plan_id":"cebpf4jnsgd1na2vs0mg"},{"bike_id":"c2cb1e0c-0e70-40d6-ae95-5bca745f5646","system_id":"levelo_inurba_marseille","lat":43.27892,"lon":5.38001,"is_reserved":false,"is_disabled":false,"rental_uris":{"android":"levelo://app?vid=c2cb1e0c-0e70-40d6-ae95-5bca745f5646","ios":"levelo://app?vid=c2cb1e0c-0e70-40d6-ae95-5bca745f5646"},"vehicle_type_id":"4","last_reported":1750512001,"current_range_meters":17600,"station_id":"ce4bhf92rcd13ifvqf50","pricing_plan_id":"cebpf4jnsgd1na2vs0mg"},{"bike_id":"78b18328-9bb1-4609-86b8-3640f1e3faac","system_id":"levelo_inurba_marseille","lat":43.26215,"lon":5.37442,"is_reserved":false,"is_disabled":false,"rental_uris":{"android":"levelo://app?vid=78b18328-9bb1-4609-86b8-3640f1e3faac","ios":"levelo://app?vid=78b18328-9bb1-4609-86b8-3640f1e3faac"},"vehicle_type_id":"4","last_reported":1750512001,"current_range_meters":17600,"station_id":"ce4bhgp2rcd13ifvqfc0","pricing_plan_id":"cebpf4jnsgd1na2vs0mg"},{"bike_id":"4d4df371-4a07-4078-b66c-0646e04ad4bf","system_id":"levelo_inurba_marseille","lat":43.29905,"lon":5.43668,"is_reserved":false,"is_disabled":false,"rental_uris":{"android":"levelo://app?vid=4d4df371-4a07-4078-b66c-0646e04ad4bf","ios":"levelo://app?vid=4d4df371-4a07-4078-b66c-0646e04ad4bf"},"vehicle_type_id":"4","last_reported":1750512001,"current_range_meters":17600,"station_id":"ce4bhpp2rcd13ifvqhfg","pricing_plan_id":"cebpf4jnsgd1na2vs0mg"},{"bike_id":"b4243f9a-20a4-434d-9326-6ceb6770f9c1","system_id":"levelo_inurba_marseille","lat":43.318345,"lon":5.40667,"is_reserved":false,"is_disabled":false,"rental_uris":{"android":"levelo://app?vid=b4243f9a-20a4-434d-9326-6ceb6770f9c1","ios":"levelo://app?vid=b4243f9a-20a4-434d-9326-6ceb6770f9c1"},"vehicle_type_id":"4","last_reported":1750512001,"current_range_meters":18000,"station_id":"","pricing_plan_id":"cebpf4jnsgd1na2vs0mg"},{"bike_id":"0a332bb2-d8cd-4721-9172-11b134b6553b","system_id":"levelo_inurba_marseille","lat":43.29579,"lon":5.37443,"is_reserved":false,"is_disabled":false,"rental_uris":{"android":"levelo://app?vid=0a332bb2-d8cd-4721-9172-11b134b6553b","ios":"levelo://app?vid=0a332bb2-d8cd-4721-9172-11b134b6553b"},"vehicle_type_id":"4","last_reported":1750512001,"current_range_meters":18000,"station_id":"","pricing_plan_id":"cebpf4jnsgd1na2vs0mg"},{"bike_id":"f286523b-f20a-4d71-81bc-c69211afda12","system_id":"levelo_inurba_marseille","lat":43.29952,"lon":5.3655,"is_reserved":false,"is_disabled":false,"rental_uris":{"android":"levelo://app?vid=f286523b-f20a-4d71-81bc-c69211afda12","ios":"levelo://app?vid=f286523b-f20a-4d71-81bc-c69211afda12"},"vehicle_type_id":"4","last_reported":1750512001,"current_range_meters":18000,"station_id":"ce4bgm92rcd13ifvqbr0","pricing_plan_id":"cebpf4jnsgd1na2vs0mg"},{"bike_id":"8290075e-df81-4143-b108-920019730ee1","system_id":"levelo_inurba_marseille","lat":43.28099,"lon":5.3784,"is_reserved":false,"is_disabled":false,"rental_uris":{"android":"levelo://app?vid=8290075e-df81-4143-b108-920019730ee1","ios":"levelo://app?vid=8290075e-df81-4143-b108-920019730ee1"},"vehicle_type_id":"4","last_reported":1750512001,"current_range_meters":18000,"station_id":"ce4bha12rcd13ifvqee0","pricing_plan_id":"cebpf4jnsgd1na2vs0mg"},{"bike_id":"6d32dd7a-d46d-4a77-b7fe-461dc044c4af","system_id":"levelo_inurba_marseille","lat":43.27899,"lon":5.38012,"is_reserved":false,"is_disabled":false,"rental_uris":{"android":"levelo://app?vid=6d32dd7a-d46d-4a77-b7fe-461dc044c4af","ios":"levelo://app?vid=6d32dd7a-d46d-4a77-b7fe-461dc044c4af"},"vehicle_type_id":"4","last_reported":1750512001,"current_range_meters":18000,"station_id":"ce4bhf92rcd13ifvqf50","pricing_plan_id":"cebpf4jnsgd1na2vs0mg"},{"bike_id":"a1d9b9e4-7a89-458b-aba2-bb83ee93d746","system_id":"levelo_inurba_marseille","lat":43.26946,"lon":5.40263,"is_reserved":false,"is_disabled":false,"rental_uris":{"android":"levelo://app?vid=a1d9b9e4-7a89-458b-aba2-bb83ee93d746","ios":"levelo://app?vid=a1d9b9e4-7a89-458b-aba2-bb83ee93d746"},"vehicle_type_id":"4","last_reported":1750512001,"current_range_meters":18000,"station_id":"cjm6bp8fraef2m0cb0m0","pricing_plan_id":"cebpf4jnsgd1na2vs0mg"},{"bike_id":"ee6fddf9-6863-4a13-a31b-2f3228223d7e","system_id":"levelo_inurba_marseille","lat":43.2118,"lon":5.35088,"is_reserved":false,"is_disabled":false,"rental_uris":{"android":"levelo://app?vid=ee6fddf9-6863-4a13-a31b-2f3228223d7e","ios":"levelo://app?vid=ee6fddf9-6863-4a13-a31b-2f3228223d7e"},"vehicle_type_id":"4","last_reported":1750512001,"current_range_meters":18000,"station_id":"st_cvj6sg6p6f1abm77japg","pricing_plan_id":"cebpf4jnsgd1na2vs0mg"},{"bike_id":"2e70370c-019d-42e3-8bff-c62d7f955257","system_id":"levelo_inurba_marseille","lat":43.26213,"lon":5.37446,"is_reserved":false,"is_disabled":false,"rental_uris":{"android":"levelo://app?vid=2e70370c-019d-42e3-8bff-c62d7f955257","ios":"levelo://app?vid=2e70370c-019d-42e3-8bff-c62d7f955257"},"vehicle_type_id":"4","last_reported":1750512001,"current_range_meters":18800,"station_id":"ce4bhgp2rcd13ifvqfc0","pricing_plan_id":"cebpf4jnsgd1na2vs0mg"},{"bike_id":"bb492d99-2c02-4bfb-b75d-2f0c75235133","system_id":"levelo_inurba_marseille","lat":43.255,"lon":5.37649,"is_reserved":false,"is_disabled":false,"rental_uris":{"android":"levelo://app?vid=bb492d99-2c02-4bfb-b75d-2f0c75235133","ios":"levelo://app?vid=bb492d99-2c02-4bfb-b75d-2f0c75235133"},"vehicle_type_id":"4","last_reported":1750512001,"current_range_meters":18800,"station_id":"ce4bhh12rcd13ifvqff0","pricing_plan_id":"cebpf4jnsgd1na2vs0mg"},{"bike_id":"c1b27eab-e688-4c30-a9f7-dbcf3faf01d6","system_id":"levelo_inurba_marseille","lat":43.26067,"lon":5.39402,"is_reserved":false,"is_disabled":false,"rental_uris":{"android":"levelo://app?vid=c1b27eab-e688-4c30-a9f7-dbcf3faf01d6","ios":"levelo://app?vid=c1b27eab-e688-4c30-a9f7-dbcf3faf01d6"},"vehicle_type_id":"4","last_reported":1750512001,"current_range_meters":18800,"station_id":"ce4bhh92rcd13ifvqfj0","pricing_plan_id":"cebpf4jnsgd1na2vs0mg"},{"bike_id":"e9eb657c-400f-41ee-97de-58790aa5151d","system_id":"levelo_inurba_marseille","lat":43.26226,"lon":5.40462,"is_reserved":false,"is_disabled":false,"rental_uris":{"android":"levelo://app?vid=e9eb657c-400f-41ee-97de-58790aa5151d","ios":"levelo://app?vid=e9eb657c-400f-41ee-97de-58790aa5151d"},"vehicle_type_id":"4","last_reported":1750512001,"current_range_meters":18800,"station_id":"ce4bhmh2rcd13ifvqgmg","pricing_plan_id":"cebpf4jnsgd1na2vs0mg"},{"bike_id":"70255bad-4b49-45df-b26f-4acab1fa3f3d","system_id":"levelo_inurba_marseille","lat":43.23167,"lon":5.43749,"is_reserved":false,"is_disabled":false,"rental_uris":{"android":"levelo://app?vid=70255bad-4b49-45df-b26f-4acab1fa3f3d","ios":"levelo://app?vid=70255bad-4b49-45df-b26f-4acab1fa3f3d"},"vehicle_type_id":"4","last_reported":1750512001,"current_range_meters":18800,"station_id":"ce4bhmp2rcd13ifvqgog","pricing_plan_id":"cebpf4jnsgd1na2vs0mg"},{"bike_id":"348caee6-3db3-4b3a-a689-66d52af6e9a6","system_id":"levelo_inurba_marseille","lat":43.22942,"lon":5.3538,"is_reserved":false,"is_disabled":false,"rental_uris":{"android":"levelo://app?vid=348caee6-3db3-4b3a-a689-66d52af6e9a6","ios":"levelo://app?vid=348caee6-3db3-4b3a-a689-66d52af6e9a6"},"vehicle_type_id":"4","last_reported":1750512001,"current_range_meters":18800,"station_id":"cpo3532slgdg3j2ikp40","pricing_plan_id":"cebpf4jnsgd1na2vs0mg"},