{"last_updated":1717697413,"ttl":30,"version":"2.2","data":{"bikes":[{"bike_id":"276fd48b-f3e5-40df-ac2d-56147e18cbaf","system_id":"levelo_inurba_marseille","lat":43.309076,"lon":5.368465,"is_reserved":false,"is_disabled":false,"rental_uris":{"android":"levelo://app?vid=276fd48b-f3e5-40df-ac2d-56147e18cbaf","ios":"levelo://app?vid=276fd48b-f3e5-40df-ac2d-56147e18cbaf"},"vehicle_type_id":"4","last_reported":1717697413,"current_range_meters":30000,"station_id":"ce4bgn92rcd13ifvqbvg","pricing_plan_id":"cebpf4jnsgd1na2vs0mg"},{"bike_id":"677bf3e7-ad61-426a-a17e-e65774db72cf","system_id":"levelo_inurba_marseille","lat":43.309076,"lon":5.368465,"is_reserved":false,"is_disabled":false,"rental_uris":{"android":"levelo://app?vid=677bf3e7-ad61-426a-a17e-e65774db72cf","ios":"levelo://app?vid=677bf3e7-ad61-426a-a17e-e65774db72cf"},"vehicle_type_id":"4","last_reported":1717697413,"current_range_meters":13200,"station_id":"ce4bgn92rcd13ifvqbvg","pricing_plan_id":"cebpf4jnsgd1na2vs0mg"},{"bike_id":"d56a6588-8c19-498b-95bc-6d8d8673283f","system_id":"levelo_inurba_marseille","lat":43.314811,"lon":5.373103,"is_reserved":false,"is_disabled":false,"rental_uris":{"android":"levelo://app?vid=d56a6588-8c19-498b-95bc-6d8d8673283f","ios":"levelo://app?vid=d56a6588-8c19-498b-95bc-6d8d8673283f"},"vehicle_type_id":"4","last_reported":1717697413,"current_range_meters":10400,"station_id":"ce4bgt12rcd13ifvqcd0","pricing_plan_id":"cebpf4jnsgd1na2vs0mg"},{"bike_id":"c5879c67-409b-470f-b2fc-fa176554e3b0","system_id":"levelo_inurba_marseille","lat":43.309039,"lon":5.371797,"is_reserved":false,"is_disabled":false,"rental_uris":{"android":"levelo://app?vid=c5879c67-409b-470f-b2fc-fa176554e3b0","ios":"levelo://app?vid=c5879c67-409b-470f-b2fc-fa176554e3b0"},"vehicle_type_id":"4","last_reported":1717697413,"current_range_meters":12400,"station_id":"ce4bguh2rcd13ifvqckg","pricing_plan_id":"cebpf4jnsgd1na2vs0mg"},{"bike_id":"b7aef195-724f-4b0d-99d3-fc396569bef5","system_id":"levelo_inurba_marseille","lat":43.31583,"lon":5.37303,"is_reserved":false,"is_disabled":false,"rental_uris":{"android":"levelo://app?vid=b7aef195-724f-4b0d-99d3-fc396569bef5","ios":"levelo://app?vid=b7aef195-724f-4b0d-99d3-fc396569bef5"},"vehicle_type_id":"4","last_reported":1717697413,"current_range_meters":8400,"station_id":"","pricing_plan_id":"cebpf4jnsgd1na2vs0mg"},{"bike_id":"ee7383d4-fdd8-46f9-ad27-c5193471fa6d","system_id":"levelo_inurba_marseille","lat":43.3158,"lon":5.37483,"is_reserved":false,"is_disabled":false,"rental_uris":{"android":"levelo://app?vid=ee7383d4-fdd8-46f9-ad27-c5193471fa6d","ios":"levelo://app?vid=ee7383d4-fdd8-46f9-ad27-c5193471fa6d"},"vehicle_type_id":"4","last_reported":1717697413,"current_range_meters":2000,"station_id":"","pricing_plan_id":"cebpf4jnsgd1na2vs0mg"},{"bike_id":"a25414d8-c25c-48e0-b5d1-bcd0c101abe7","system_id":"levelo_inurba_marseille","lat":43.30537,"lon":5.367345,"is_reserved":false,"is_disabled":false,"rental_uris":{"android":"levelo://app?vid=a25414d8-c25c-48e0-b5d1-bcd0c101abe7","ios":"levelo://app?vid=a25414d8-c25c-48e0-b5d1-bcd0c101abe7"},"vehicle_type_id":"4","last_reported":1717697413,"current_range_meters":0,"station_id":"ce4bgrp2rcd13ifvqc9g","pricing_plan_id":"cebpf4jnsgd1na2vs0mg"},{"bike_id":"cc699e76-08ce-46b4-a401-9b721ff6b7a7","system_id":"levelo_inurba_marseille","lat":43.305706,"lon":5.365654,"is_reserved":false,"is_disabled":false,"rental_uris":{"android":"levelo://app?vid=cc699e76-08ce-46b4-a401-9b721ff6b7a7","ios":"levelo://app?vid=cc699e76-08ce-46b4-a401-9b721ff6b7a7"},"vehicle_type_id":"4","last_reported":1717697413,"current_range_meters":2400,"station_id":"ce4bgs12rcd13ifvqcag","pricing_plan_id":"cebpf4jnsgd1na2vs0mg"},{"bike_id":"8b6e1a89-e802-474c-8fac-71b92ed2689f","system_id":"levelo_inurba_marseille","lat":43.305989,"lon":5.37225,"is_reserved":false,"is_disabled":false,"rental_uris":{"android":"levelo://app?vid=8b6e1a89-e802-474c-8fac-71b92ed2689f","ios":"levelo://app?vid=8b6e1a89-e802-474c-8fac-71b92ed2689f"},"vehicle_type_id":"4","last_reported":1717697413,"current_range_meters":9200,"station_id":"ce4bgqh2rcd13ifvqc4g","pricing_plan_id":"cebpf4jnsgd1na2vs0mg"},{"bike_id":"88724a22-6fc2-452a-825a-03775f13161a","system_id":"levelo_inurba_marseille","lat":43.311125,"lon":5.377624,"is_reserved":false,"is_disabled":false,"rental_uris":{"android":"levelo://app?vid=88724a22-6fc2-452a-825a-03775f13161a","ios":"levelo://app?vid=88724a22-6fc2-452a-825a-03775f13161a"},"vehicle_type_id":"4","last_reported":1717697413,"current_range_meters":4400,"station_id":"ce4bgt92rcd13ifvqcg0","pricing_plan_id":"cebpf4jnsgd1na2vs0mg"},{"bike_id":"e5fcb622-16db-42b2-839b-fc15e694ad11","system_id":"levelo_inurba_marseille","lat":43.311125,"lon":5.377624,"is_reserved":false,"is_disabled":false,"rental_uris":{"android":"levelo://app?vid=e5fcb622-16db-42b2-839b-fc15e694ad11","ios":"levelo://app?vid=e5fcb622-16db-42b2-839b-fc15e694ad11"},"vehicle_type_id":"4","last_reported":1717697413,"current_range_meters":19200,"station_id":"ce4bgt92rcd13ifvqcg0","pricing_plan_id":"cebpf4jnsgd1na2vs0mg"},{"bike_id":"1e45ecde-b5c3-43c3-a429-4085f3d0a58e","system_id":"levelo_inurba_marseille","lat":43.311131,"lon":5.377651,"is_reserved":false,"is_disabled":false,"rental_uris":{"android":"levelo://app?vid=1e45ecde-b5c3-43c3-a429-4085f3d0a58e","ios":"levelo://app?vid=1e45ecde-b5c3-43c3-a429-4085f3d0a58e"},"vehicle_type_id":"4","last_reported":1717697413,"current_range_meters":17200,"station_id":"ce4bgt92rcd13ifvqcg0","pricing_plan_id":"cebpf4jnsgd1na2vs0mg"},{"bike_id":"1fe932f3-f73e-416f-a7a8-b6c1ef94580a","system_id":"levelo_inurba_marseille","lat":43.311125,"lon":5.377624,"is_reserved":false,"is_disabled":false,"rental_uris":{"android":"levelo://app?vid=1fe932f3-f73e-416f-a7a8-b6c1ef94580a","ios":"levelo://app?vid=1fe932f3-f73e-416f-a7a8-b6c1ef94580a"},"vehicle_type_id":"4","last_reported":1717697413,"current_range_meters":8000,"station_id":"ce4bgt92rcd13ifvqcg0","pricing_plan_id":"cebpf4jnsgd1na2vs0mg"},{"bike_id":"9056e978-07b8-4fc9-a548-8a9df4bb2ed0","system_id":"levelo_inurba_marseille","lat":43.307945,"lon":5.376487,"is_reserved":false,"is_disabled":false,"rental_uris":{"android":"levelo://app?vid=9056e978-07b8-4fc9-a548-8a9df4bb2ed0","ios":"levelo://app?vid=9056e978-07b8-4fc9-a548-8a9df4bb2ed0"},"vehicle_type_id":"4","last_reported":1717697413,"current_range_meters":6000,"station_id":"ce4bgv92rcd13ifvqcq0","pricing_plan_id":"cebpf4jnsgd1na2vs0mg"},{"bike_id":"44b30ba2-ddd1-482e-b714-015beedb725f","system_id":"levelo_inurba_marseille","lat":43.308296,"lon":5.377349,"is_reserved":false,"is_disabled":false,"rental_uris":{"android":"levelo://app?vid=44b30ba2-ddd1-482e-b714-015beedb725f","ios":"levelo://app?vid=44b30ba2-ddd1-482e-b714-015beedb725f"},"vehicle_type_id":"4","last_reported":1717697413,"current_range_meters":0,"station_id":"ce4bgv92rcd13ifvqcq0","pricing_plan_id":"cebpf4jnsgd1na2vs0mg"},{"bike_id":"1f0342ed-1515-4165-b911-e772def20479","system_id":"levelo_inurba_marseille","lat":43.30304,"lon":5.368987,"is_reserved":false,"is_disabled":false,"rental_uris":{"android":"levelo://app?vid=1f0342ed-1515-4165-b911-e772def20479","ios":"levelo://app?vid=1f0342ed-1515-4165-b911-e772def20479"},"vehicle_type_id":"4","last_reported":1717697413,"current_range_meters":0,"station_id":"ce4bgqh2rcd13ifvqc5g","pricing_plan_id":"cebpf4jnsgd1na2vs0mg"},{"bike_id":"792572f4-c229-4616-bba1-e837610d561e","system_id":"levelo_inurba_marseille","lat":43.308012,"lon":5.381511,"is_reserved":false,"is_disabled":false,"rental_uris":{"android":"levelo://app?vid=792572f4-c229-4616-bba1-e837610d561e","ios":"levelo://app?vid=792572f4-c229-4616-bba1-e837610d561e"},"vehicle_type_id":"4","last_reported":1717697413,"current_range_meters":2000,"station_id":"ce4bgt12rcd13ifvqce0","pricing_plan_id":"cebpf4jnsgd1na2vs0mg"},{"bike_id":"697eeeeb-31f7-480b-a546-568d1fc7b416","system_id":"levelo_inurba_marseille","lat":43.324771,"lon":5.36557,"is_reserved":false,"is_disabled":false,"rental_uris":{"android":"levelo://app?vid=697eeeeb-31f7-480b-a546-568d1fc7b416","ios":"levelo://app?vid=697eeeeb-31f7-480b-a546-568d1fc7b416"},"vehicle_type_id":"4","last_reported":1717697413,"current_range_meters":12000,"station_id":"ce4bhs12rcd13ifvqhvg","pricing_plan_id":"cebpf4jnsgd1na2vs0mg"},{"bike_id":"cb0a5826-f280-401d-975d-79ffb6fcaeeb","system_id":"levelo_inurba_marseille","lat":43.30277,"lon":5.37702,"is_reserved":false,"is_disabled":false,"rental_uris":{"android":"levelo://app?vid=cb0a5826-f280-401d-975d-79ffb6fcaeeb","ios":"levelo://app?vid=cb0a5826-f280-401d-975d-79ffb6fcaeeb"},"vehicle_type_id":"4","last_reported":1717697413,"current_range_meters":0,"station_id":"ce4bguh2rcd13ifvqcj0","pricing_plan_id":"cebpf4jnsgd1na2vs0mg"},{"bike_id":"0255d36e-fb27-43ff-bf43-001e7bca62d9","system_id":"levelo_inurba_marseille","lat":43.30277,"lon":5.37703,"is_reserved":false,"is_disabled":false,"rental_uris":{"android":"levelo://app?vid=0255d36e-fb27-43ff-bf43-001e7bca62d9","ios":"levelo://app?vid=0255d36e-fb27-43ff-bf43-001e7bca62d9"},"vehicle_type_id":"4","last_reported":1717697413,"current_range_meters":21200,"station_id":"ce4bguh2rcd13ifvqcj0","pricing_plan_id":"cebpf4jnsgd1na2vs0mg"},{"bike_id":"1a328d76-96e1-45ef-bf93-a2d3f8dbc929","system_id":"levelo_inurba_marseille","lat":43.301429,"lon":5.37413,"is_reserved":false,"is_disabled":false,"rental_uris":{"android":"levelo://app?vid=1a328d76-96e1-45ef-bf93-a2d3f8dbc929","ios":"levelo://app?vid=1a328d76-96e1-45ef-bf93-a2d3f8dbc929"},"vehicle_type_id":"4","last_reported":1717697413,"current_range_meters":12400,"station_id":"ce4bgs92rcd13ifvqcc0","pricing_plan_id":"cebpf4jnsgd1na2vs0mg"},{"bike_id":"fc610334-13dd-4be0-b018-29fad57d43fd","system_id":"levelo_inurba_marseille","lat":43.319562,"lon":5.381702,"is_reserved":false,"is_disabled":false,"rental_uris":{"android":"levelo://app?vid=fc610334-13dd-4be0-b018-29fad57d43fd","ios":"levelo://app?vid=fc610334-13dd-4be0-b018-29fad57d43fd"},"vehicle_type_id":"4","last_reported":1717697413,"current_range_meters":0,"station_id":"ce4bhr12rcd13ifvqhpg","pricing_plan_id":"cebpf4jnsgd1na2vs0mg"},{"bike_id":"3d24971d-47a4-4dc3-a909-8e90c37bdbe2","system_id":"levelo_inurba_marseille","lat":43.319935,"lon":5.381699,"is_reserved":false,"is_disabled":false,"rental_uris":{"android":"levelo://app?vid=3d24971d-47a4-4dc3-a909-8e90c37bdbe2","ios":"levelo://app?vid=3d24971d-47a4-4dc3-a909-8e90c37bdbe2"},"vehicle_type_id":"4","last_reported":1717697413,"current_range_meters":0,"station_id":"ce4bhr12rcd13ifvqhpg","pricing_plan_id":"cebpf4jnsgd1na2vs0mg"},{"bike_id":"5dfe48f1-e68c-48a0-ac75-3b28130c5bff","system_id":"levelo_inurba_marseille","lat":43.319935,"lon":5.381699,"is_reserved":false,"is_disabled":false,"rental_uris":{"android":"levelo://app?vid=5dfe48f1-e68c-48a0-ac75-3b28130c5bff","ios":"levelo://app?vid=5dfe48f1-e68c-48a0-ac75-3b28130c5bff"},"vehicle_type_id":"4","last_reported":1717697413,"current_range_meters":23600,"station_id":"ce4bhr12rcd13ifvqhpg","pricing_plan_id":"cebpf4jnsgd1na2vs0mg"},{"bike_id":"31f0ed2b-3977-425f-90e9-c0d82f0c3433","system_id":"levelo_inurba_marseille","lat":43.319935,"lon":5.381699,"is_reserved":false,"is_disabled":false,"rental_uris":{"android":"levelo://app?vid=31f0ed2b-3977-425f-90e9-c0d82f0c3433","ios":"levelo://app?vid=31f0ed2b-3977-425f-90e9-c0d82f0c3433"},"vehicle_type_id":"4","last_reported":1717697413,"current_range_meters":16800,"station_id":"ce4bhr12rcd13ifvqhpg","pricing_plan_id":"cebpf4jnsgd1na2vs0mg"},{"bike_id":"f39ba981-ac03-4b43-8f12-25d1ed7ae3ed","system_id":"levelo_inurba_marseille","lat":43.313571,"lon":5.384829,"is_reserved":false,"is_disabled":false,"rental_uris":{"android":"levelo://app?vid=f39ba981-ac03-4b43-8f12-25d1ed7ae3ed","ios":"levelo://app?vid=f39ba981-ac03-4b43-8f12-25d1ed7ae3ed"},"vehicle_type_id":"4","last_reported":1717697413,"current_range_meters":24400,"station_id":"ce4bgt92rcd13ifvqcf0","pricing_plan_id":"cebpf4jnsgd1na2vs0mg"},{"bike_id":"a3bff671-b664-4a74-8fe7-8f968a9e38b9","system_id":"levelo_inurba_marseille","lat":43.313571,"lon":5.384829,"is_reserved":false,"is_disabled":false,"rental_uris":{"android":"levelo://app?vid=a3bff671-b664-4a74-8fe7-8f968a9e38b9","ios":"levelo://app?vid=a3bff671-b664-4a74-8fe7-8f968a9e38b9"},"vehicle_type_id":"4","last_reported":1717697413,"current_range_meters":2000,"station_id":"ce4bgt92rcd13ifvqcf0","pricing_plan_id":"cebpf4jnsgd1na2vs0mg"},{"bike_id":"21c097ae-6dcd-44c4-8b25-544d8ced7251","system_id":"levelo_inurba_marseille","lat":43.304606,"lon":5.379026,"is_reserved":false,"is_disabled":false,"rental_uris":{"android":"levelo://app?vid=21c097ae-6dcd-44c4-8b25-544d8ced7251","ios":"levelo://app?vid=21c097ae-6dcd-44c4-8b25-544d8ced7251"},"vehicle_type_id":"4","last_reported":1717697413,"current_range_meters":22000,"station_id":"ce4bgup2rcd13ifvqcn0","pricing_plan_id":"cebpf4jnsgd1na2vs0mg"},{"bike_id":"8f447597-cfa2-49b2-a791-04777bad3c85","system_id":"levelo_inurba_marseille","lat":43.31361,"lon":5.38495,"is_reserved":false,"is_disabled":false,"rental_uris":{"android":"levelo://app?vid=8f447597-cfa2-49b2-a791-04777bad3c85","ios":"levelo://app?vid=8f447597-cfa2-49b2-a791-04777bad3c85"},"vehicle_type_id":"4","last_reported":1717697413,"current_range_meters":0,"station_id":"ce4bgt92rcd13ifvqcf0","pricing_plan_id":"cebpf4jnsgd1na2vs0mg"},{"bike_id":"294693c1-cba8-4278-8b1b-7d85e7ebac18","system_id":"levelo_inurba_marseille","lat":43.31368,"lon":5.38497,"is_reserved":false,"is_disabled":false,"rental_uris":{"android":"levelo://app?vid=294693c1-cba8-4278-8b1b-7d85e7ebac18","ios":"levelo://app?vid=294693c1-cba8-4278-8b1b-7d85e7ebac18"},"vehicle_type_id":"4","last_reported":1717697413,"current_range_meters":0,"station_id":"ce4bgt92rcd13ifvqcf0","pricing_plan_id":"cebpf4jnsgd1na2vs0mg"},{"bike_id":"fa26058e-12f9-45ab-9308-8e5d6e7dae16","system_id":"levelo_inurba_marseille","lat":43.299724,"lon":5.371829,"is_reserved":false,"is_disabled":false,"rental_uris":{"android":"levelo://app?vid=fa26058e-12f9-45ab-9308-8e5d6e7dae16","ios":"levelo://app?vid=fa26058e-12f9-45ab-9308-8e5d6e7dae16"},"vehicle_type_id":"4","last_reported":1717697413,"current_range_meters":19200,"station_id":"ce4bgr92rcd13ifvqc7g","pricing_plan_id":"cebpf4jnsgd1na2vs0mg"},{"bike_id":"40d461d0-c6f0-4865-bb0a-ab8a1dc198bf","system_id":"levelo_inurba_marseille","lat":43.311722,"lon":5.387247,"is_reserved":false,"is_disabled":false,"rental_uris":{"android":"levelo://app?vid=40d461d0-c6f0-4865-bb0a-ab8a1dc198bf","ios":"levelo://app?vid=40d461d0-c6f0-4865-bb0a-ab8a1dc198bf"},"vehicle_type_id":"4","last_reported":1717697413,"current_range_meters":3200,"station_id":"ce4bgv12rcd13ifvqcp0","pricing_plan_id":"cebpf4jnsgd1na2vs0mg"},{"bike_id":"e6204b86-2613-4c95-9ba2-87375c3ababd","system_id":"levelo_inurba_marseille","lat":43.311722,"lon":5.387247,"is_reserved":false,"is_disabled":false,"rental_uris":{"android":"levelo://app?vid=e6204b86-2613-4c95-9ba2-87375c3ababd","ios":"levelo://app?vid=e6204b86-2613-4c95-9ba2-87375c3ababd"},"vehicle_type_id":"4","last_reported":1717697413,"current_range_meters":21200,"station_id":"ce4bgv12rcd13ifvqcp0","pricing_plan_id":"cebpf4jnsgd1na2vs0mg"},{"bike_id":"5976f5f3-c901-439f-8d9e-7563c070b285","system_id":"levelo_inurba_marseille","lat":43.3117,"lon":5.38715,"is_reserved":false,"is_disabled":false,"rental_uris":{"android":"levelo://app?vid=5976f5f3-c901-439f-8d9e-7563c070b285","ios":"levelo://app?vid=5976f5f3-c901-439f-8d9e-7563c070b285"},"vehicle_type_id":"4","last_reported":1717697413,"current_range_meters":0,"station_id":"ce4bgv12rcd13ifvqcp0","pricing_plan_id":"cebpf4jnsgd1na2vs0mg"},{"bike_id":"8031cda4-1c15-49a4-8039-1cafce7ac025","system_id":"levelo_inurba_marseille","lat":43.311718,"lon":5.387157,"is_reserved":false,"is_disabled":false,"rental_uris":{"android":"levelo://app?vid=8031cda4-1c15-49a4-8039-1cafce7ac025","ios":"levelo://app?vid=8031cda4-1c15-49a4-8039-1cafce7ac025"},"vehicle_type_id":"4","last_reported":1717697413,"current_range_meters":26800,"station_id":"ce4bgv12rcd13ifvqcp0","pricing_plan_id":"cebpf4jnsgd1na2vs0mg"},{"bike_id":"51068c4b-ab44-4472-bc2d-8b1a45adccaa","system_id":"levelo_inurba_marseille","lat":43.299243,"lon":5.37481,"is_reserved":false,"is_disabled":false,"rental_uris":{"android":"levelo://app?vid=51068c4b-ab44-4472-bc2d-8b1a45adccaa","ios":"levelo://app?vid=51068c4b-ab44-4472-bc2d-8b1a45adccaa"},"vehicle_type_id":"4","last_reported":1717697413,"current_range_meters":400,"station_id":"ce4bgjh2rcd13ifvqbg0","pricing_plan_id":"cebpf4jnsgd1na2vs0mg"},{"bike_id":"6cd80464-908f-4666-a15a-decce0d29286","system_id":"levelo_inurba_marseille","lat":43.299243,"lon":5.374807,"is_reserved":false,"is_disabled":false,"rental_uris":{"android":"levelo://app?vid=6cd80464-908f-4666-a15a-decce0d29286","ios":"levelo://app?vid=6cd80464-908f-4666-a15a-decce0d29286"},"vehicle_type_id":"4","last_reported":1717697413,"current_range_meters":24000,"station_id":"ce4bgjh2rcd13ifvqbg0","pricing_plan_id":"cebpf4jnsgd1na2vs0mg"},{"bike_id":"13657e3b-0971-4cac-bda0-c2ebe939da08","system_id":"levelo_inurba_marseille","lat":43.297794,"lon":5.370888,"is_reserved":false,"is_disabled":false,"rental_uris":{"android":"levelo://app?vid=13657e3b-0971-4cac-bda0-c2ebe939da08","ios":"levelo://app?vid=13657e3b-0971-4cac-bda0-c2ebe939da08"},"vehicle_type_id":"4","last_reported":1717697413,"current_range_meters":9600,"station_id":"ce4bgop2rcd13ifvqc1g","pricing_plan_id":"cebpf4jnsgd1na2vs0mg"},{"bike_id":"9a383ce0-2b72-44a7-9c13-3e03d6a76934","system_id":"levelo_inurba_marseille","lat":43.297794,"lon":5.370888,"is_reserved":false,"is_disabled":false,"rental_uris":{"android":"levelo://app?vid=9a383ce0-2b72-44a7-9c13-3e03d6a76934","ios":"levelo://app?vid=9a383ce0-2b72-44a7-9c13-3e03d6a76934"},"vehicle_type_id":"4","last_reported":1717697413,"current_range_meters":3200,"station_id":"ce4bgop2rcd13ifvqc1g","pricing_plan_id":"cebpf4jnsgd1na2vs0mg"},{"bike_id":"34670011-2eab-4e28-8d97-1bc559434464","system_id":"levelo_inurba_marseille","lat":43.297794,"lon":5.370888,"is_reserved":false,"is_disabled":false,"rental_uris":{"android":"levelo://app?vid=34670011-2eab-4e28-8d97-1bc559434464","ios":"levelo://app?vid=34670011-2eab-4e28-8d97-1bc559434464"},"vehicle_type_id":"4","last_reported":1717697413,"current_range_meters":15200,"station_id":"ce4bgop2rcd13ifvqc1g","pricing_plan_id":"cebpf4jnsgd1na2vs0mg"},{"bike_id":"5f725856-075f-4ecf-8381-8b3c9654071c","system_id":"levelo_inurba_marseille","lat":43.297163,"lon":5.365866,"is_reserved":false,"is_disabled":false,"rental_uris":{"android":"levelo://app?vid=5f725856-075f-4ecf-8381-8b3c9654071c","ios":"levelo://app?vid=5f725856-075f-4ecf-8381-8b3c9654071c"},"vehicle_type_id":"4","last_reported":1717697413,"current_range_meters":10800,"station_id":"ce4bgn12rcd13ifvqbt0","pricing_plan_id":"cebpf4jnsgd1na2vs0mg"},{"bike_id":"ee1604b4-d009-4b0c-a753-584b58847e9a","system_id":"levelo_inurba_marseille","lat":43.322872,"lon":5.382756,"is_reserved":false,"is_disabled":false,"rental_uris":{"android":"levelo://app?vid=ee1604b4-d009-4b0c-a753-584b58847e9a","ios":"levelo://app?vid=ee1604b4-d009-4b0c-a753-584b58847e9a"},"vehicle_type_id":"4","last_reported":1717697413,"current_range_meters":4400,"station_id":"ce4bhr12rcd13ifvqhqg","pricing_plan_id":"cebpf4jnsgd1na2vs0mg"},{"bike_id":"0ae77652-e2c1-4014-b2b2-911393a203b3","system_id":"levelo_inurba_marseille","lat":43.322872,"lon":5.382756,"is_reserved":false,"is_disabled":false,"rental_uris":{"android":"levelo://app?vid=0ae77652-e2c1-4014-b2b2-911393a203b3","ios":"levelo://app?vid=0ae77652-e2c1-4014-b2b2-911393a203b3"},"vehicle_type_id":"4","last_reported":1717697413,"current_range_meters":1600,"station_id":"ce4bhr12rcd13ifvqhqg","pricing_plan_id":"cebpf4jnsgd1na2vs0mg"},{"bike_id":"235a312b-efbb-46df-b101-90d09a7704f8","system_id":"levelo_inurba_marseille","lat":43.322872,"lon":5.382756,"is_reserved":false,"is_disabled":false,"rental_uris":{"android":"levelo://app?vid=235a312b-efbb-46df-b101-90d09a7704f8","ios":"levelo://app?vid=235a312b-efbb-46df-b101-90d09a7704f8"},"vehicle_type_id":"4","last_reported":1717697413,"current_range_meters":5200,"station_id":"ce4bhr12rcd13ifvqhqg","pricing_plan_id":"cebpf4jnsgd1na2vs0mg"},{"bike_id":"b9838a4b-5a6f-4426-b39a-af58c9322d21","system_id":"levelo_inurba_marseille","lat":43.322872,"lon":5.382756,"is_reserved":false,"is_disabled":false,"rental_uris":{"android":"levelo://app?vid=b9838a4b-5a6f-4426-b39a-af58c9322d21","ios":"levelo://app?vid=b9838a4b-5a6f-4426-b39a-af58c9322d21"},"vehicle_type_id":"4","last_reported":1717697413,"current_range_meters":0,"station_id":"ce4bhr12rcd13ifvqhqg","pricing_plan_id":"cebpf4jnsgd1na2vs0mg"},{"bike_id":"fbac4e32-df3e-47a6-906f-f55b105eb4c7","system_id":"levelo_inurba_marseille","lat":43.32293,"lon":5.38276,"is_reserved":false,"is_disabled":false,"rental_uris":{"android":"levelo://app?vid=fbac4e32-df3e-47a6-906f-f55b105eb4c7","ios":"levelo://app?vid=fbac4e32-df3e-47a6-906f-f55b105eb4c7"},"vehicle_type_id":"4","last_reported":1717697413,"current_range_meters":0,"station_id":"ce4bhr12rcd13ifvqhqg","pricing_plan_id":"cebpf4jnsgd1na2vs0mg"},{"bike_id":"0f752e52-773f-4f18-8493-6a03cfb3f644","system_id":"levelo_inurba_marseille","lat":43.297163,"lon":5.365866,"is_reserved":false,"is_disabled":false,"rental_uris":{"android":"levelo://app?vid=0f752e52-773f-4f18-8493-6a03cfb3f644","ios":"levelo://app?vid=0f752e52-773f-4f18-8493-6a03cfb3f644"},"vehicle_type_id":"4","last_reported":1717697413,"current_range_meters":8800,"station_id":"ce4bgn12rcd13ifvqbt0","pricing_plan_id":"cebpf4jnsgd1na2vs0mg"},{"bike_id":"8ea1caee-2c27-4867-9b84-97f894f732ce","system_id":"levelo_inurba_marseille","lat":43.297163,"lon":5.365866,"is_reserved":false,"is_disabled":false,"rental_uris":{"android":"levelo://app?vid=8ea1caee-2c27-4867-9b84-97f894f732ce","ios":"levelo://app?vid=8ea1caee-2c27-4867-9b84-97f894f732ce"},"vehicle_type_id":"4","last_reported":1717697413,"current_range_meters":2400,"station_id":"ce4bgn12rcd13ifvqbt0","pricing_plan_id":"cebpf4jnsgd1na2vs0mg"},{"bike_id":"7c6f4d51-f85f-4920-8cd8-2fca13b4c255","system_id":"levelo_inurba_marseille","lat":43.297163,"lon":5.365866,"is_reserved":false,"is_disabled":false,"rental_uris":{"android":"levelo://app?vid=7c6f4d51-f85f-4920-8cd8-2fca13b4c255","ios":"levelo://app?vid=7c6f4d51-f85f-4920-8cd8-2fca13b4c255"},"vehicle_type_id":"4","last_reported":1717697413,"current_range_meters":2400,"station_id":"ce4bgn12rcd13ifvqbt0","pricing_plan_id":"cebpf4jnsgd1na2vs0mg"},{"bike_id":"0ce47508-ddda-4a2d-bf26-bd59ba974675","system_id":"levelo_inurba_marseille","lat":43.29979,"lon":5.38075,"is_reserved":false,"is_disabled":false,"rental_uris":{"android":"levelo://app?vid=0ce47508-ddda-4a2d-bf26-bd59ba974675","ios":"levelo://app?vid=0ce47508-ddda-4a2d-bf26-bd59ba974675"},"vehicle_type_id":"4","last_reported":1717697413,"current_range_meters":7200,"station_id":"","pricing_plan_id":"cebpf4jnsgd1na2vs0mg"},{"bike_id":"0630808b-b6d9-4138-8f3d-e0a6375eb3c1","system_id":"levelo_inurba_marseille","lat":43.321233,"lon":5.38679,"is_reserved":false,"is_disabled":false,"rental_uris":{"android":"levelo://app?vid=0630808b-b6d9-4138-8f3d-e0a6375eb3c1","ios":"levelo://app?vid=0630808b-b6d9-4138-8f3d-e0a6375eb3c1"},"vehicle_type_id":"4","last_reported":1717697413,"current_range_meters":6800,"station_id":"","pricing_plan_id":"cebpf4jnsgd1na2vs0mg"},{"bike_id":"d5c0698c-ec81-48aa-a697-e907a944b6dd","system_id":"levelo_inurba_marseille","lat":43.29573,"lon":5.367355,"is_reserved":false,"is_disabled":false,"rental_uris":{"android":"levelo://app?vid=d5c0698c-ec81-48aa-a697-e907a944b6dd","ios":"levelo://app?vid=d5c0698c-ec81-48aa-a697-e907a944b6dd"},"vehicle_type_id":"4","last_reported":1717697413,"current_range_meters":13200,"station_id":"ce4bgph2rcd13ifvqc2g","pricing_plan_id":"cebpf4jnsgd1na2vs0mg"},{"bike_id":"151eb429-c864-49f3-ad25-57086d0d0159","system_id":"levelo_inurba_marseille","lat":43.29573,"lon":5.367355,"is_reserved":false,"is_disabled":false,"rental_uris":{"android":"levelo://app?vid=151eb429-c864-49f3-ad25-57086d0d0159","ios":"levelo://app?vid=151eb429-c864-49f3-ad25-57086d0d0159"},"vehicle_type_id":"4","last_reported":1717697413,"current_range_meters":0,"station_id":"ce4bgph2rcd13ifvqc2g","pricing_plan_id":"cebpf4jnsgd1na2vs0mg"},{"bike_id":"68582d53-4071-4e8c-8ad3-4026bc197804","system_id":"levelo_inurba_marseille","lat":43.29573,"lon":5.367355,"is_reserved":false,"is_disabled":false,"rental_uris":{"android":"levelo://app?vid=68582d53-4071-4e8c-8ad3-4026bc197804","ios":"levelo://app?vid=68582d53-4071-4e8c-8ad3-4026bc197804"},"vehicle_type_id":"4","last_reported":1717697413,"current_range_meters":20000,"station_id":"ce4bgph2rcd13ifvqc2g","pricing_plan_id":"cebpf4jnsgd1na2vs0mg"},{"bike_id":"63e980a2-c616-42a0-ae1b-6632d63847d0","system_id":"levelo_inurba_marseille","lat":43.29573,"lon":5.367355,"is_reserved":false,"is_disabled":false,"rental_uris":{"android":"levelo://app?vid=63e980a2-c616-42a0-ae1b-6632d63847d0","ios":"levelo://app?vid=63e980a2-c616-42a0-ae1b-6632d63847d0"},"vehicle_type_id":"4","last_reported":1717697413,"current_range_meters":22400,"station_id":"ce4bgph2rcd13ifvqc2g","pricing_plan_id":"cebpf4jnsgd1na2vs0mg"},{"bike_id":"4cefcc2d-23b3-43b6-978e-0cd0d8550a26","system_id":"levelo_inurba_marseille","lat":43.29573,"lon":5.367355,"is_reserved":false,"is_disabled":false,"rental_uris":{"android":"levelo://app?vid=4cefcc2d-23b3-43b6-978e-0cd0d8550a26","ios":"levelo://app?vid=4cefcc2d-23b3-43b6-978e-0cd0d8550a26"},"vehicle_type_id":"4","last_reported":1717697413,"current_range_meters":0,"station_id":"ce4bgph2rcd13ifvqc2g","pricing_plan_id":"cebpf4jnsgd1na2vs0mg"},{"bike_id":"95dd5ece-b365-412c-a044-a66e36ed890c","system_id":"levelo_inurba_marseille","lat":43.309589,"lon":5.390258,"is_reserved":false,"is_disabled":false,"rental_uris":{"android":"levelo://app?vid=95dd5ece-b365-412c-a044-a66e36ed890c","ios":"levelo://app?vid=95dd5ece-b365-412c-a044-a66e36ed890c"},"vehicle_type_id":"4","last_reported":1717697413,"current_range_meters":4400,"station_id":"ce4bgup2rcd13ifvqco0","pricing_plan_id":"cebpf4jnsgd1na2vs0mg"},{"bike_id":"19d342c7-2ea9-4025-9245-e07e87c4375f","system_id":"levelo_inurba_marseille","lat":43.2991,"lon":5.38138,"is_reserved":false,"is_disabled":false,"rental_uris":{"android":"levelo://app?vid=19d342c7-2ea9-4025-9245-e07e87c4375f","ios":"levelo://app?vid=19d342c7-2ea9-4025-9245-e07e87c4375f"},"vehicle_type_id":"4","last_reported":1717697413,"current_range_meters":0,"station_id":"","pricing_plan_id":"cebpf4jnsgd1na2vs0mg"},{"bike_id":"acabda38-170d-4f2f-baab-7a8be1c49d33","system_id":"levelo_inurba_marseille","lat":43.30952,"lon":5.39021,"is_reserved":false,"is_disabled":false,"rental_uris":{"android":"levelo://app?vid=acabda38-170d-4f2f-baab-7a8be1c49d33","ios":"levelo://app?vid=acabda38-170d-4f2f-baab-7a8be1c49d33"},"vehicle_type_id":"4","last_reported":1717697413,"current_range_meters":18000,"station_id":"","pricing_plan_id":"cebpf4jnsgd1na2vs0mg"},{"bike_id":"16274459-ba1d-4985-abeb-371e7c84d2fb","system_id":"levelo_inurba_marseille","lat":43.309589,"lon":5.390258,"is_reserved":false,"is_disabled":false,"rental_uris":{"android":"levelo://app?vid=16274459-ba1d-4985-abeb-371e7c84d2fb","ios":"levelo://app?vid=16274459-ba1d-4985-abeb-371e7c84d2fb"},"vehicle_type_id":"4","last_reported":1717697413,"current_range_meters":18000,"station_id":"ce4bgup2rcd13ifvqco0","pricing_plan_id":"cebpf4jnsgd1na2vs0mg"},{"bike_id":"977cf719-29b3-4e35-96f6-7c204409d783","system_id":"levelo_inurba_marseille","lat":43.309589,"lon":5.390258,"is_reserved":false,"is_disabled":false,"rental_uris":{"android":"levelo://app?vid=977cf719-29b3-4e35-96f6-7c204409d783","ios":"levelo://app?vid=977cf719-29b3-4e35-96f6-7c204409d783"},"vehicle_type_id":"4","last_reported":1717697413,"current_range_meters":4000,"station_id":"ce4bgup2rcd13ifvqco0","pricing_plan_id":"cebpf4jnsgd1na2vs0mg"},{"bike_id":"7757ba41-df1a-4127-afe5-8b550279dd93","system_id":"levelo_inurba_marseille","lat":43.309589,"lon":5.390258,"is_reserved":false,"is_disabled":false,"rental_uris":{"android":"levelo://app?vid=7757ba41-df1a-4127-afe5-8b550279dd93","ios":"levelo://app?vid=7757ba41-df1a-4127-afe5-8b550279dd93"},"vehicle_type_id":"4","last_reported":1717697413,"current_range_meters":0,"station_id":"ce4bgup2rcd13ifvqco0","pricing_plan_id":"cebpf4jnsgd1na2vs0mg"},{"bike_id":"af9a6fa8-1c39-4ad5-84a1-8224d3082533","system_id":"levelo_inurba_marseille","lat":43.309589,"lon":5.390258,"is_reserved":false,"is_disabled":false,"rental_uris":{"android":"levelo://app?vid=af9a6fa8-1c39-4ad5-84a1-8224d3082533","ios":"levelo://app?vid=af9a6fa8-1c39-4ad5-84a1-8224d3082533"},"vehicle_type_id":"4","last_reported":1717697413,"current_range_meters":23600,"station_id":"ce4bgup2rcd13ifvqco0","pricing_plan_id":"cebpf4jnsgd1na2vs0mg"},{"bike_id":"309d526b-ae91-41da-b8c1-870c710a5823","system_id":"levelo_inurba_marseille","lat":43.309589,"lon":5.390258,"is_reserved":false,"is_disabled":false,"rental_uris":{"android":"levelo://app?vid=309d526b-ae91-41da-b8c1-870c710a5823","ios":"levelo://app?vid=309d526b-ae91-41da-b8c1-870c710a5823"},"vehicle_type_id":"4","last_reported":1717697413,"current_range_meters":0,"station_id":"ce4bgup2rcd13ifvqco0","pricing_plan_id":"cebpf4jnsgd1na2vs0mg"},{"bike_id":"c995ddb2-54c0-4d7e-a28c-66f7e44fd642","system_id":"levelo_inurba_marseille","lat":43.309589,"lon":5.390258,"is_reserved":false,"is_disabled":false,"rental_uris":{"android":"levelo://app?vid=c995ddb2-54c0-4d7e-a28c-66f7e44fd642","ios":"levelo://app?vid=c995ddb2-54c0-4d7e-a28c-66f7e44fd642"},"vehicle_type_id":"4","last_reported":1717697413,"current_range_meters":12000,"station_id":"ce4bgup2rcd13ifvqco0","pricing_plan_id":"cebpf4jnsgd1na2vs0mg"},{"bike_id":"76ef7169-7b4d-46a9-b5ba-bec52670037a","system_id":"levelo_inurba_marseille","lat":43.317557,"lon":5.390173,"is_reserved":false,"is_disabled":false,"rental_uris":{"android":"levelo://app?vid=76ef7169-7b4d-46a9-b5ba-bec52670037a","ios":"levelo://app?vid=76ef7169-7b4d-46a9-b5ba-bec52670037a"},"vehicle_type_id":"4","last_reported":1717697413,"current_range_meters":15600,"station_id":"ce4bhqp2rcd13ifvqhng","pricing_plan_id":"cebpf4jnsgd1na2vs0mg"},{"bike_id":"107990ee-c573-4d2f-a3fa-1be0b05d0965","system_id":"levelo_inurba_marseille","lat":43.309589,"lon":5.390258,"is_reserved":false,"is_disabled":false,"rental_uris":{"android":"levelo://app?vid=107990ee-c573-4d2f-a3fa-1be0b05d0965","ios":"levelo://app?vid=107990ee-c573-4d2f-a3fa-1be0b05d0965"},"vehicle_type_id":"4","last_reported":1717697413,"current_range_meters":0,"station_id":"ce4bgup2rcd13ifvqco0","pricing_plan_id":"cebpf4jnsgd1na2vs0mg"},{"bike_id":"b3a572bf-cefb-4be4-ba38-a551c4a063d9","system_id":"levelo_inurba_marseille","lat":43.317557,"lon":5.390173,"is_reserved":false,"is_disabled":false,"rental_uris":{"android":"levelo://app?vid=b3a572bf-cefb-4be4-ba38-a551c4a063d9","ios":"levelo://app?vid=b3a572bf-cefb-4be4-ba38-a551c4a063d9"},"vehicle_type_id":"4","last_reported":1717697413,"current_range_meters":9600,"station_id":"ce4bhqp2rcd13ifvqhng","pricing_plan_id":"cebpf4jnsgd1na2vs0mg"},{"bike_id":"c8fea07b-b484-4407-8c1e-3c868a56600f","system_id":"levelo_inurba_marseille","lat":43.296935,"lon":5.376544,"is_reserved":false,"is_disabled":false,"rental_uris":{"android":"levelo://app?vid=c8fea07b-b484-4407-8c1e-3c868a56600f","ios":"levelo://app?vid=c8fea07b-b484-4407-8c1e-3c868a56600f"},"vehicle_type_id":"4","last_reported":1717697413,"current_range_meters":12800,"station_id":"ce4bgkh2rcd13ifvqbl0","pricing_plan_id":"cebpf4jnsgd1na2vs0mg"},{"bike_id":"72af4461-f964-4867-bf48-6ded2d50fcd3","system_id":"levelo_inurba_marseille","lat":43.3176,"lon":5.390093,"is_reserved":false,"is_disabled":false,"rental_uris":{"android":"levelo://app?vid=72af4461-f964-4867-bf48-6ded2d50fcd3","ios":"levelo://app?vid=72af4461-f964-4867-bf48-6ded2d50fcd3"},"vehicle_type_id":"4","last_reported":1717697413,"current_range_meters":25600,"station_id":"ce4bhqp2rcd13ifvqhng","pricing_plan_id":"cebpf4jnsgd1na2vs0mg"},{"bike_id":"daa4840f-2f39-4ef0-8b77-3f23f3cc43c0","system_id":"levelo_inurba_marseille","lat":43.309589,"lon":5.390258,"is_reserved":false,"is_disabled":false,"rental_uris":{"android":"levelo://app?vid=daa4840f-2f39-4ef0-8b77-3f23f3cc43c0","ios":"levelo://app?vid=daa4840f-2f39-4ef0-8b77-3f23f3cc43c0"},"vehicle_type_id":"4","last_reported":1717697413,"current_range_meters":4000,"station_id":"ce4bgup2rcd13ifvqco0","pricing_plan_id":"cebpf4jnsgd1na2vs0mg"},{"bike_id":"b6b45e9b-a218-4893-b568-96e05160b30d","system_id":"levelo_inurba_marseille","lat":43.317557,"lon":5.390173,"is_reserved":false,"is_disabled":false,"rental_uris":{"android":"levelo://app?vid=b6b45e9b-a218-4893-b568-96e05160b30d","ios":"levelo://app?vid=b6b45e9b-a218-4893-b568-96e05160b30d"},"vehicle_type_id":"4","last_reported":1717697413,"current_range_meters":2800,"station_id":"ce4bhqp2rcd13ifvqhng","pricing_plan_id":"cebpf4jnsgd1na2vs0mg"},{"bike_id":"5b07175b-c8c5-4edb-901d-d8f002f476e0","system_id":"levelo_inurba_marseille","lat":43.317557,"lon":5.390173,"is_reserved":false,"is_disabled":false,"rental_uris":{"android":"levelo://app?vid=5b07175b-c8c5-4edb-901d-d8f002f476e0","ios":"levelo://app?vid=5b07175b-c8c5-4edb-901d-d8f002f476e0"},"vehicle_type_id":"4","last_reported":1717697413,"current_range_meters":21200,"station_id":"ce4bhqp2rcd13ifvqhng","pricing_plan_id":"cebpf4jnsgd1na2vs0mg"},{"bike_id":"27b5a94b-0bd4-408b-accc-51f3818c5d6b","system_id":"levelo_inurba_marseille","lat":43.317557,"lon":5.390173,"is_reserved":false,"is_disabled":false,"rental_uris":{"android":"levelo://app?vid=27b5a94b-0bd4-408b-accc-51f3818c5d6b","ios":"levelo://app?vid=27b5a94b-0bd4-408b-accc-51f3818c5d6b"},"vehicle_type_id":"4","last_reported":1717697413,"current_range_meters":29600,"station_id":"ce4bhqp2rcd13ifvqhng","pricing_plan_id":"cebpf4jnsgd1na2vs0mg"},{"bike_id":"d6f4b711-93db-41cf-8084-a4ca20c4418a","system_id":"levelo_inurba_marseille","lat":43.298037,"lon":5.381066,"is_reserved":false,"is_disabled":false,"rental_uris":{"android":"levelo://app?vid=d6f4b711-93db-41cf-8084-a4ca20c4418a","ios":"levelo://app?vid=d6f4b711-93db-41cf-8084-a4ca20c4418a"},"vehicle_type_id":"4","last_reported":1717697413,"current_range_meters":29200,"station_id":"ce4bgip2rcd13ifvqbb0","pricing_plan_id":"cebpf4jnsgd1na2vs0mg"},{"bike_id":"c5e3e80d-6342-4cc3-9fb8-9022cc4d3785","system_id":"levelo_inurba_marseille","lat":43.304274,"lon":5.388873,"is_reserved":false,"is_disabled":false,"rental_uris":{"android":"levelo://app?vid=c5e3e80d-6342-4cc3-9fb8-9022cc4d3785","ios":"levelo://app?vid=c5e3e80d-6342-4cc3-9fb8-9022cc4d3785"},"vehicle_type_id":"4","last_reported":1717697413,"current_range_meters":0,"station_id":"ce4bgk12rcd13ifvqbi0","pricing_plan_id":"cebpf4jnsgd1na2vs0mg"},{"bike_id":"e757ff36-0f89-4dfb-a348-8c9679d04513","system_id":"levelo_inurba_marseille","lat":43.298037,"lon":5.381066,"is_reserved":false,"is_disabled":false,"rental_uris":{"android":"levelo://app?vid=e757ff36-0f89-4dfb-a348-8c9679d04513","ios":"levelo://app?vid=e757ff36-0f89-4dfb-a348-8c9679d04513"},"vehicle_type_id":"4","last_reported":1717697413,"current_range_meters":4800,"station_id":"ce4bgip2rcd13ifvqbb0","pricing_plan_id":"cebpf4jnsgd1na2vs0mg"},{"bike_id":"80e3fdad-6e5c-4173-a3d9-f69cf52759e8","system_id":"levelo_inurba_marseille","lat":43.295748,"lon":5.37522,"is_reserved":false,"is_disabled":false,"rental_uris":{"android":"levelo://app?vid=80e3fdad-6e5c-4173-a3d9-f69cf52759e8","ios":"levelo://app?vid=80e3fdad-6e5c-4173-a3d9-f69cf52759e8"},"vehicle_type_id":"4","last_reported":1717697413,"current_range_meters":31200,"station_id":"ce4bgh92rcd13ifvqb50","pricing_plan_id":"cebpf4jnsgd1na2vs0mg"},{"bike_id":"31098386-9ea2-4cd0-86ba-29373506791a","system_id":"levelo_inurba_marseille","lat":43.295748,"lon":5.37522,"is_reserved":false,"is_disabled":false,"rental_uris":{"android":"levelo://app?vid=31098386-9ea2-4cd0-86ba-29373506791a","ios":"levelo://app?vid=31098386-9ea2-4cd0-86ba-29373506791a"},"vehicle_type_id":"4","last_reported":1717697413,"current_range_meters":31600,"station_id":"ce4bgh92rcd13ifvqb50","pricing_plan_id":"cebpf4jnsgd1na2vs0mg"},{"bike_id":"e07a7f84-bc7e-4c0b-a831-a7c078fc7e8e","system_id":"levelo_inurba_marseille","lat":43.29478,"lon":5.36301,"is_reserved":false,"is_disabled":false,"rental_uris":{"android":"levelo://app?vid=e07a7f84-bc7e-4c0b-a831-a7c078fc7e8e","ios":"levelo://app?vid=e07a7f84-bc7e-4c0b-a831-a7c078fc7e8e"},"vehicle_type_id":"4","last_reported":1717697413,"current_range_meters":13200,"station_id":"","pricing_plan_id":"cebpf4jnsgd1na2vs0mg"},{"bike_id":"6c8c1865-3f87-41b8-bc69-de874dda70cb","system_id":"levelo_inurba_marseille","lat":43.296263,"lon":5.377094,"is_reserved":false,"is_disabled":false,"rental_uris":{"android":"levelo://app?vid=6c8c1865-3f87-41b8-bc69-de874dda70cb","ios":"levelo://app?vid=6c8c1865-3f87-41b8-bc69-de874dda70cb"},"vehicle_type_id":"4","last_reported":1717697413,"current_range_meters":400,"station_id":"ce4bgi92rcd13ifvqb90","pricing_plan_id":"cebpf4jnsgd1na2vs0mg"},{"bike_id":"9b1f14e9-a452-4814-81d9-fcca9f2374ae","system_id":"levelo_inurba_marseille","lat":43.295279,"lon":5.375048,"is_reserved":false,"is_disabled":false,"rental_uris":{"android":"levelo://app?vid=9b1f14e9-a452-4814-81d9-fcca9f2374ae","ios":"levelo://app?vid=9b1f14e9-a452-4814-81d9-fcca9f2374ae"},"vehicle_type_id":"4","last_reported":1717697413,"current_range_meters":31200,"station_id":"ce4bgkp2rcd13ifvqbmg","pricing_plan_id":"cebpf4jnsgd1na2vs0mg"},{"bike_id":"660df4d7-d79f-4221-9b78-1654e41f51b4","system_id":"levelo_inurba_marseille","lat":43.299707,"lon":5.384859,"is_reserved":false,"is_disabled":false,"rental_uris":{"android":"levelo://app?vid=660df4d7-d79f-4221-9b78-1654e41f51b4","ios":"levelo://app?vid=660df4d7-d79f-4221-9b78-1654e41f51b4"},"vehicle_type_id":"4","last_reported":1717697413,"current_range_meters":0,"station_id":"ce4bgj92rcd13ifvqbd0","pricing_plan_id":"cebpf4jnsgd1na2vs0mg"},{"bike_id":"fc4a0479-c28b-4bc6-b59f-8680407d7f72","system_id":"levelo_inurba_marseille","lat":43.295279,"lon":5.375048,"is_reserved":false,"is_disabled":false,"rental_uris":{"android":"levelo://app?vid=fc4a0479-c28b-4bc6-b59f-8680407d7f72","ios":"levelo://app?vid=fc4a0479-c28b-4bc6-b59f-8680407d7f72"},"vehicle_type_id":"4","last_reported":1717697413,"current_range_meters":15200,"station_id":"ce4bgkp2rcd13ifvqbmg","pricing_plan_id":"cebpf4jnsgd1na2vs0mg"},{"bike_id":"408d9f45-e434-4eda-908e-fe41337c1ee9","system_id":"levelo_inurba_marseille","lat":43.299707,"lon":5.384859,"is_reserved":false,"is_disabled":false,"rental_uris":{"android":"levelo://app?vid=408d9f45-e434-4eda-908e-fe41337c1ee9","ios":"levelo://app?vid=408d9f45-e434-4eda-908e-fe41337c1ee9"},"vehicle_type_id":"4","last_reported":1717697413,"current_range_meters":11200,"station_id":"ce4bgj92rcd13ifvqbd0","pricing_plan_id":"cebpf4jnsgd1na2vs0mg"},{"bike_id":"30d2ea15-6c60-4f87-b9ea-8587723f2f36","system_id":"levelo_inurba_marseille","lat":43.29707,"lon":5.38133,"is_reserved":false,"is_disabled":false,"rental_uris":{"android":"levelo://app?vid=30d2ea15-6c60-4f87-b9ea-8587723f2f36","ios":"levelo://app?vid=30d2ea15-6c60-4f87-b9ea-8587723f2f36"},"vehicle_type_id":"4","last_reported":1717697413,"current_range_meters":18400,"station_id":"","pricing_plan_id":"cebpf4jnsgd1na2vs0mg"},{"bike_id":"ee7d499d-e01c-4f7d-a1c7-787315e8cfa1","system_id":"levelo_inurba_marseille","lat":43.323624,"lon":5.388774,"is_reserved":false,"is_disabled":false,"rental_uris":{"android":"levelo://app?vid=ee7d499d-e01c-4f7d-a1c7-787315e8cfa1","ios":"levelo://app?vid=ee7d499d-e01c-4f7d-a1c7-787315e8cfa1"},"vehicle_type_id":"4","last_reported":1717697413,"current_range_meters":0,"station_id":"ce4bhqp2rcd13ifvqhog","pricing_plan_id":"cebpf4jnsgd1na2vs0mg"},{"bike_id":"b3fe1999-62b4-470d-b38c-f7999903b0a4","system_id":"levelo_inurba_marseille","lat":43.32367,"lon":5.388836,"is_reserved":false,"is_disabled":false,"rental_uris":{"android":"levelo://app?vid=b3fe1999-62b4-470d-b38c-f7999903b0a4","ios":"levelo://app?vid=b3fe1999-62b4-470d-b38c-f7999903b0a4"},"vehicle_type_id":"4","last_reported":1717697413,"current_range_meters":12400,"station_id":"ce4bhqp2rcd13ifvqhog","pricing_plan_id":"cebpf4jnsgd1na2vs0mg"},{"bike_id":"41034de4-0e8a-4833-9b4c-660432890e3f","system_id":"levelo_inurba_marseille","lat":43.32367,"lon":5.388836,"is_reserved":false,"is_disabled":false,"rental_uris":{"android":"levelo://app?vid=41034de4-0e8a-4833-9b4c-660432890e3f","ios":"levelo://app?vid=41034de4-0e8a-4833-9b4c-660432890e3f"},"vehicle_type_id":"4","last_reported":1717697413,"current_range_meters":1600,"station_id":"ce4bhqp2rcd13ifvqhog","pricing_plan_id":"cebpf4jnsgd1na2vs0mg"},{"bike_id":"2e1ec992-f3a0-4090-9ac2-f2e94e2d67ca","system_id":"levelo_inurba_marseille","lat":43.32367,"lon":5.388836,"is_reserved":false,"is_disabled":false,"rental_uris":{"android":"levelo://app?vid=2e1ec992-f3a0-4090-9ac2-f2e94e2d67ca","ios":"levelo://app?vid=2e1ec992-f3a0-4090-9ac2-f2e94e2d67ca"},"vehicle_type_id":"4","last_reported":1717697413,"current_range_meters":9600,"station_id":"ce4bhqp2rcd13ifvqhog","pricing_plan_id":"cebpf4jnsgd1na2vs0mg"},{"bike_id":"594f8fbc-b3de-4b18-8be1-dcc6777dccdf","system_id":"levelo_inurba_marseille","lat":43.32367,"lon":5.388836,"is_reserved":false,"is_disabled":false,"rental_uris":{"android":"levelo://app?vid=594f8fbc-b3de-4b18-8be1-dcc6777dccdf","ios":"levelo://app?vid=594f8fbc-b3de-4b18-8be1-dcc6777dccdf"},"vehicle_type_id":"4","last_reported":1717697413,"current_range_meters":3600,"station_id":"ce4bhqp2rcd13ifvqhog","pricing_plan_id":"cebpf4jnsgd1na2vs0mg"},{"bike_id":"0b967c11-c7a6-4072-89b1-f5bdc9e80599","system_id":"levelo_inurba_marseille","lat":43.292749,"lon":5.368402,"is_reserved":false,"is_disabled":false,"rental_uris":{"android":"levelo://app?vid=0b967c11-c7a6-4072-89b1-f5bdc9e80599","ios":"levelo://app?vid=0b967c11-c7a6-4072-89b1-f5bdc9e80599"},"vehicle_type_id":"4","last_reported":1717697413,"current_range_meters":0,"station_id":"ce4bhbp2rcd13ifvqesg","pricing_plan_id":"cebpf4jnsgd1na2vs0mg"},{"bike_id":"d2411002-a310-428a-9028-39c7e476c63b","system_id":"levelo_inurba_marseille","lat":43.292749,"lon":5.368402,"is_reserved":false,"is_disabled":false,"rental_uris":{"android":"levelo://app?vid=d2411002-a310-428a-9028-39c7e476c63b","ios":"levelo://app?vid=d2411002-a310-428a-9028-39c7e476c63b"},"vehicle_type_id":"4","last_reported":1717697413,"current_range_meters":0,"station_id":"ce4bhbp2rcd13ifvqesg","pricing_plan_id":"cebpf4jnsgd1na2vs0mg"},{"bike_id":"46a31f61-04f7-42f7-b886-d2604543ef07","system_id":"levelo_inurba_marseille","lat":43.292749,"lon":5.368402,"is_reserved":false,"is_disabled":false,"rental_uris":{"android":"levelo://app?vid=46a31f61-04f7-42f7-b886-d2604543ef07","ios":"levelo://app?vid=46a31f61-04f7-42f7-b886-d2604543ef07"},"vehicle_type_id":"4","last_reported":1717697413,"current_range_meters":14400,"station_id":"ce4bhbp2rcd13ifvqesg","pricing_plan_id":"cebpf4jnsgd1na2vs0mg"},{"bike_id":"8e190355-0c9a-46dc-9459-132374efd4a0","system_id":"levelo_inurba_marseille","lat":43.292749,"lon":5.368402,"is_reserved":false,"is_disabled":false,"rental_uris":{"android":"levelo://app?vid=8e190355-0c9a-46dc-9459-132374efd4a0","ios":"levelo://app?vid=8e190355-0c9a-46dc-9459-132374efd4a0"},"vehicle_type_id":"4","last_reported":1717697413,"current_range_meters":22800,"station_id":"ce4bhbp2rcd13ifvqesg","pricing_plan_id":"cebpf4jnsgd1na2vs0mg"},{"bike_id":"0ae3d2cc-3fac-4dc4-957b-9ab58c3fb08f","system_id":"levelo_inurba_marseille","lat":43.292754,"lon":5.368605,"is_reserved":false,"is_disabled":false,"rental_uris":{"android":"levelo://app?vid=0ae3d2cc-3fac-4dc4-957b-9ab58c3fb08f","ios":"levelo://app?vid=0ae3d2cc-3fac-4dc4-957b-9ab58c3fb08f"},"vehicle_type_id":"4","last_reported":1717697413,"current_range_meters":0,"station_id":"ce4bhbp2rcd13ifvqesg","pricing_plan_id":"cebpf4jnsgd1na2vs0mg"},{"bike_id":"430279ef-7d6a-4ab7-a83e-8e5bbc4dd58b","system_id":"levelo_inurba_marseille","lat":43.292749,"lon":5.368402,"is_reserved":false,"is_disabled":false,"rental_uris":{"android":"levelo://app?vid=430279ef-7d6a-4ab7-a83e-8e5bbc4dd58b","ios":"levelo://app?vid=430279ef-7d6a-4ab7-a83e-8e5bbc4dd58b"},"vehicle_type_id":"4","last_reported":1717697413,"current_range_meters":16800,"station_id":"ce4bhbp2rcd13ifvqesg","pricing_plan_id":"cebpf4jnsgd1na2vs0mg"},{"bike_id":"7a0b86b7-7927-46c5-ae05-587d2015c504","system_id":"levelo_inurba_marseille","lat":43.29274,"lon":5.36842,"is_reserved":false,"is_disabled":false,"rental_uris":{"android":"levelo://app?vid=7a0b86b7-7927-46c5-ae05-587d2015c504","ios":"levelo://app?vid=7a0b86b7-7927-46c5-ae05-587d2015c504"},"vehicle_type_id":"4","last_reported":1717697413,"current_range_meters":0,"station_id":"ce4bhbp2rcd13ifvqesg","pricing_plan_id":"cebpf4jnsgd1na2vs0mg"},{"bike_id":"ebea8132-9cfb-4aed-b5d1-463edeec377f","system_id":"levelo_inurba_marseille","lat":43.29271,"lon":5.36837,"is_reserved":false,"is_disabled":false,"rental_uris":{"android":"levelo://app?vid=ebea8132-9cfb-4aed-b5d1-463edeec377f","ios":"levelo://app?vid=ebea8132-9cfb-4aed-b5d1-463edeec377f"},"vehicle_type_id":"4","last_reported":1717697413,"current_range_meters":0,"station_id":"ce4bhbp2rcd13ifvqesg","pricing_plan_id":"cebpf4jnsgd1na2vs0mg"},{"bike_id":"9ed42dcb-7da4-4e1a-8599-728d8cc7c8fd","system_id":"levelo_inurba_marseille","lat":43.292749,"lon":5.368402,"is_reserved":false,"is_disabled":false,"rental_uris":{"android":"levelo://app?vid=9ed42dcb-7da4-4e1a-8599-728d8cc7c8fd","ios":"levelo://app?vid=9ed42dcb-7da4-4e1a-8599-728d8cc7c8fd"},"vehicle_type_id":"4","last_reported":1717697413,"current_range_meters":8000,"station_id":"ce4bhbp2rcd13ifvqesg","pricing_plan_id":"cebpf4jnsgd1na2vs0mg"},{"bike_id":"726b6b97-786a-4005-9022-aa54ac96cb9c","system_id":"levelo_inurba_marseille","lat":43.305994,"lon":5.393687,"is_reserved":false,"is_disabled":false,"rental_uris":{"android":"levelo://app?vid=726b6b97-786a-4005-9022-aa54ac96cb9c","ios":"levelo://app?vid=726b6b97-786a-4005-9022-aa54ac96cb9c"},"vehicle_type_id":"4","last_reported":1717697413,"current_range_meters":0,"station_id":"ce4bh0p2rcd13ifvqd80","pricing_plan_id":"cebpf4jnsgd1na2vs0mg"},{"bike_id":"cbc4160e-7add-4e64-aa2c-90bf2101d667","system_id":"levelo_inurba_marseille","lat":43.302992,"lon":5.392136,"is_reserved":false,"is_disabled":false,"rental_uris":{"android":"levelo://app?vid=cbc4160e-7add-4e64-aa2c-90bf2101d667","ios":"levelo://app?vid=cbc4160e-7add-4e64-aa2c-90bf2101d667"},"vehicle_type_id":"4","last_reported":1717697413,"current_range_meters":12000,"station_id":"ce4bgkh2rcd13ifvqbk0","pricing_plan_id":"cebpf4jnsgd1na2vs0mg"},{"bike_id":"72d19675-eca8-4497-8377-880b16c5ace0","system_id":"levelo_inurba_marseille","lat":43.292311,"lon":5.360731,"is_reserved":false,"is_disabled":false,"rental_uris":{"android":"levelo://app?vid=72d19675-eca8-4497-8377-880b16c5ace0","ios":"levelo://app?vid=72d19675-eca8-4497-8377-880b16c5ace0"},"vehicle_type_id":"4","last_reported":1717697413,"current_range_meters":18800,"station_id":"ce4bhbh2rcd13ifvqeqg","pricing_plan_id":"cebpf4jnsgd1na2vs0mg"},{"bike_id":"28af6fb5-28b1-4f4a-be56-157c505a82b7","system_id":"levelo_inurba_marseille","lat":43.292311,"lon":5.360731,"is_reserved":false,"is_disabled":false,"rental_uris":{"android":"levelo://app?vid=28af6fb5-28b1-4f4a-be56-157c505a82b7","ios":"levelo://app?vid=28af6fb5-28b1-4f4a-be56-157c505a82b7"},"vehicle_type_id":"4","last_reported":1717697413,"current_range_meters":7200,"station_id":"ce4bhbh2rcd13ifvqeqg","pricing_plan_id":"cebpf4jnsgd1na2vs0mg"},{"bike_id":"2a75b0fa-01ae-4b34-916f-649426c5c5f4","system_id":"levelo_inurba_marseille","lat":43.2936,"lon":5.37835,"is_reserved":false,"is_disabled":false,"rental_uris":{"android":"levelo://app?vid=2a75b0fa-01ae-4b34-916f-649426c5c5f4","ios":"levelo://app?vid=2a75b0fa-01ae-4b34-916f-649426c5c5f4"},"vehicle_type_id":"4","last_reported":1717697413,"current_range_meters":0,"station_id":"ce4bgjh2rcd13ifvqbf0","pricing_plan_id":"cebpf4jnsgd1na2vs0mg"},{"bike_id":"75532604-de3e-4c03-97aa-e6922a307fe7","system_id":"levelo_inurba_marseille","lat":43.292311,"lon":5.360731,"is_reserved":false,"is_disabled":false,"rental_uris":{"android":"levelo://app?vid=75532604-de3e-4c03-97aa-e6922a307fe7","ios":"levelo://app?vid=75532604-de3e-4c03-97aa-e6922a307fe7"},"vehicle_type_id":"4","last_reported":1717697413,"current_range_meters":31200,"station_id":"ce4bhbh2rcd13ifvqeqg","pricing_plan_id":"cebpf4jnsgd1na2vs0mg"},{"bike_id":"c3270c6f-ade5-418e-8a01-e933168bd616","system_id":"levelo_inurba_marseille","lat":43.292311,"lon":5.360731,"is_reserved":false,"is_disabled":false,"rental_uris":{"android":"levelo://app?vid=c3270c6f-ade5-418e-8a01-e933168bd616","ios":"levelo://app?vid=c3270c6f-ade5-418e-8a01-e933168bd616"},"vehicle_type_id":"4","last_reported":1717697413,"current_range_meters":30400,"station_id":"ce4bhbh2rcd13ifvqeqg","pricing_plan_id":"cebpf4jnsgd1na2vs0mg"},{"bike_id":"631b0c4f-607e-4d5b-8afb-8846e0c1ab71","system_id":"levelo_inurba_marseille","lat":43.292177,"lon":5.360733,"is_reserved":false,"is_disabled":false,"rental_uris":{"android":"levelo://app?vid=631b0c4f-607e-4d5b-8afb-8846e0c1ab71","ios":"levelo://app?vid=631b0c4f-607e-4d5b-8afb-8846e0c1ab71"},"vehicle_type_id":"4","last_reported":1717697413,"current_range_meters":5200,"station_id":"ce4bhbh2rcd13ifvqeqg","pricing_plan_id":"cebpf4jnsgd1na2vs0mg"},{"bike_id":"aa22714d-5ecd-445e-a156-4c1fc3c726c5","system_id":"levelo_inurba_marseille","lat":43.292311,"lon":5.360731,"is_reserved":false,"is_disabled":false,"rental_uris":{"android":"levelo://app?vid=aa22714d-5ecd-445e-a156-4c1fc3c726c5","ios":"levelo://app?vid=aa22714d-5ecd-445e-a156-4c1fc3c726c5"},"vehicle_type_id":"4","last_reported":1717697413,"current_range_meters":10800,"station_id":"ce4bhbh2rcd13ifvqeqg","pricing_plan_id":"cebpf4jnsgd1na2vs0mg"},{"bike_id":"6abe5c7e-65db-4f84-87d8-77bb60b71a1c","system_id":"levelo_inurba_marseille","lat":43.292311,"lon":5.360731,"is_reserved":false,"is_disabled":false,"rental_uris":{"android":"levelo://app?vid=6abe5c7e-65db-4f84-87d8-77bb60b71a1c","ios":"levelo://app?vid=6abe5c7e-65db-4f84-87d8-77bb60b71a1c"},"vehicle_type_id":"4","last_reported":1717697413,"current_range_meters":27600,"station_id":"ce4bhbh2rcd13ifvqeqg","pricing_plan_id":"cebpf4jnsgd1na2vs0mg"},{"bike_id":"7a679125-1b02-48ec-bb63-ff0661686b9f","system_id":"levelo_inurba_marseille","lat":43.292311,"lon":5.360731,"is_reserved":false,"is_disabled":false,"rental_uris":{"android":"levelo://app?vid=7a679125-1b02-48ec-bb63-ff0661686b9f","ios":"levelo://app?vid=7a679125-1b02-48ec-bb63-ff0661686b9f"},"vehicle_type_id":"4","last_reported":1717697413,"current_range_meters":31200,"station_id":"ce4bhbh2rcd13ifvqeqg","pricing_plan_id":"cebpf4jnsgd1na2vs0mg"},{"bike_id":"8cc5dcc1-1e2c-4444-a51e-cf4b071450f1","system_id":"levelo_inurba_marseille","lat":43.300828,"lon":5.391018,"is_reserved":false,"is_disabled":false,"rental_uris":{"android":"levelo://app?vid=8cc5dcc1-1e2c-4444-a51e-cf4b071450f1","ios":"levelo://app?vid=8cc5dcc1-1e2c-4444-a51e-cf4b071450f1"},"vehicle_type_id":"4","last_reported":1717697413,"current_range_meters":27600,"station_id":"ce4bh192rcd13ifvqdb0","pricing_plan_id":"cebpf4jnsgd1na2vs0mg"},{"bike_id":"f8d4ba12-16ee-4144-84e5-24eb5abf4270","system_id":"levelo_inurba_marseille","lat":43.293163,"lon":5.37851,"is_reserved":false,"is_disabled":false,"rental_uris":{"android":"levelo://app?vid=f8d4ba12-16ee-4144-84e5-24eb5abf4270","ios":"levelo://app?vid=f8d4ba12-16ee-4144-84e5-24eb5abf4270"},"vehicle_type_id":"4","last_reported":1717697413,"current_range_meters":18000,"station_id":"ce4bgjh2rcd13ifvqbf0","pricing_plan_id":"cebpf4jnsgd1na2vs0mg"},{"bike_id":"c261e38f-afa8-49b0-ac44-637f61b3c7b9","system_id":"levelo_inurba_marseille","lat":43.29167,"lon":5.37146,"is_reserved":false,"is_disabled":false,"rental_uris":{"android":"levelo://app?vid=c261e38f-afa8-49b0-ac44-637f61b3c7b9","ios":"levelo://app?vid=c261e38f-afa8-49b0-ac44-637f61b3c7b9"},"vehicle_type_id":"4","last_reported":1717697413,"current_range_meters":5200,"station_id":"ce4bha92rcd13ifvqeh0","pricing_plan_id":"cebpf4jnsgd1na2vs0mg"},{"bike_id":"4e404f89-3e71-4fc5-bb72-ce924aa29c29","system_id":"levelo_inurba_marseille","lat":43.29166,"lon":5.37155,"is_reserved":false,"is_disabled":false,"rental_uris":{"android":"levelo://app?vid=4e404f89-3e71-4fc5-bb72-ce924aa29c29","ios":"levelo://app?vid=4e404f89-3e71-4fc5-bb72-ce924aa29c29"},"vehicle_type_id":"4","last_reported":1717697413,"current_range_meters":4000,"station_id":"ce4bha92rcd13ifvqeh0","pricing_plan_id":"cebpf4jnsgd1na2vs0mg"},{"bike_id":"33bd5b4e-fa4a-4ee8-8389-491505000b1f","system_id":"levelo_inurba_marseille","lat":43.291675,"lon":5.371583,"is_reserved":false,"is_disabled":false,"rental_uris":{"android":"levelo://app?vid=33bd5b4e-fa4a-4ee8-8389-491505000b1f","ios":"levelo://app?vid=33bd5b4e-fa4a-4ee8-8389-491505000b1f"},"vehicle_type_id":"4","last_reported":1717697413,"current_range_meters":6000,"station_id":"ce4bha92rcd13ifvqeh0","pricing_plan_id":"cebpf4jnsgd1na2vs0mg"},{"bike_id":"fef77721-3577-4801-bd1d-826ce13a4e03","system_id":"levelo_inurba_marseille","lat":43.291542,"lon":5.371522,"is_reserved":false,"is_disabled":false,"rental_uris":{"android":"levelo://app?vid=fef77721-3577-4801-bd1d-826ce13a4e03","ios":"levelo://app?vid=fef77721-3577-4801-bd1d-826ce13a4e03"},"vehicle_type_id":"4","last_reported":1717697413,"current_range_meters":0,"station_id":"ce4bha92rcd13ifvqeh0","pricing_plan_id":"cebpf4jnsgd1na2vs0mg"},{"bike_id":"623a6855-c437-4738-a8b5-465e5c896733","system_id":"levelo_inurba_marseille","lat":43.292005,"lon":5.357875,"is_reserved":false,"is_disabled":false,"rental_uris":{"android":"levelo://app?vid=623a6855-c437-4738-a8b5-465e5c896733","ios":"levelo://app?vid=623a6855-c437-4738-a8b5-465e5c896733"},"vehicle_type_id":"4","last_reported":1717697413,"current_range_meters":0,"station_id":"ce4bhb12rcd13ifvqel0","pricing_plan_id":"cebpf4jnsgd1na2vs0mg"},{"bike_id":"77d32aff-4180-481a-a42c-840c4a9e58a7","system_id":"levelo_inurba_marseille","lat":43.292005,"lon":5.357875,"is_reserved":false,"is_disabled":false,"rental_uris":{"android":"levelo://app?vid=77d32aff-4180-481a-a42c-840c4a9e58a7","ios":"levelo://app?vid=77d32aff-4180-481a-a42c-840c4a9e58a7"},"vehicle_type_id":"4","last_reported":1717697413,"current_range_meters":30400,"station_id":"ce4bhb12rcd13ifvqel0","pricing_plan_id":"cebpf4jnsgd1na2vs0mg"},{"bike_id":"8f09ad5a-6d89-4a85-b3fd-7807929ae9ae","system_id":"levelo_inurba_marseille","lat":43.291994,"lon":5.357886,"is_reserved":false,"is_disabled":false,"rental_uris":{"android":"levelo://app?vid=8f09ad5a-6d89-4a85-b3fd-7807929ae9ae","ios":"levelo://app?vid=8f09ad5a-6d89-4a85-b3fd-7807929ae9ae"},"vehicle_type_id":"4","last_reported":1717697413,"current_range_meters":0,"station_id":"ce4bhb12rcd13ifvqel0","pricing_plan_id":"cebpf4jnsgd1na2vs0mg"},{"bike_id":"55b6bdc5-c802-48cc-b2c6-5ed4ef7b3e6f","system_id":"levelo_inurba_marseille","lat":43.31334,"lon":5.39684,"is_reserved":false,"is_disabled":false,"rental_uris":{"android":"levelo://app?vid=55b6bdc5-c802-48cc-b2c6-5ed4ef7b3e6f","ios":"levelo://app?vid=55b6bdc5-c802-48cc-b2c6-5ed4ef7b3e6f"},"vehicle_type_id":"4","last_reported":1717697413,"current_range_meters":0,"station_id":"ce4bgvp2rcd13ifvqcu0","pricing_plan_id":"cebpf4jnsgd1na2vs0mg"},{"bike_id":"1dba5f5b-3833-430c-bddf-a93966e28de2","system_id":"levelo_inurba_marseille","lat":43.31325,"lon":5.39685,"is_reserved":false,"is_disabled":false,"rental_uris":{"android":"levelo://app?vid=1dba5f5b-3833-430c-bddf-a93966e28de2","ios":"levelo://app?vid=1dba5f5b-3833-430c-bddf-a93966e28de2"},"vehicle_type_id":"4","last_reported":1717697413,"current_range_meters":4000,"station_id":"ce4bgvp2rcd13ifvqcu0","pricing_plan_id":"cebpf4jnsgd1na2vs0mg"},{"bike_id":"a7192888-67ad-4567-baa4-472b4c0f2430","system_id":"levelo_inurba_marseille","lat":43.313285,"lon":5.396905,"is_reserved":false,"is_disabled":false,"rental_uris":{"android":"levelo://app?vid=a7192888-67ad-4567-baa4-472b4c0f2430","ios":"levelo://app?vid=a7192888-67ad-4567-baa4-472b4c0f2430"},"vehicle_type_id":"4","last_reported":1717697413,"current_range_meters":10400,"station_id":"ce4bgvp2rcd13ifvqcu0","pricing_plan_id":"cebpf4jnsgd1na2vs0mg"},{"bike_id":"acded7dd-e862-49b9-a6be-799b03dd84a7","system_id":"levelo_inurba_marseille","lat":43.313291,"lon":5.396838,"is_reserved":false,"is_disabled":false,"rental_uris":{"android":"levelo://app?vid=acded7dd-e862-49b9-a6be-799b03dd84a7","ios":"levelo://app?vid=acded7dd-e862-49b9-a6be-799b03dd84a7"},"vehicle_type_id":"4","last_reported":1717697413,"current_range_meters":800,"station_id":"ce4bgvp2rcd13ifvqcu0","pricing_plan_id":"cebpf4jnsgd1na2vs0mg"},{"bike_id":"e50bba7f-a24c-4375-8427-6dbe155ddbb0","system_id":"levelo_inurba_marseille","lat":43.31328,"lon":5.39691,"is_reserved":false,"is_disabled":false,"rental_uris":{"android":"levelo://app?vid=e50bba7f-a24c-4375-8427-6dbe155ddbb0","ios":"levelo://app?vid=e50bba7f-a24c-4375-8427-6dbe155ddbb0"},"vehicle_type_id":"4","last_reported":1717697413,"current_range_meters":1200,"station_id":"ce4bgvp2rcd13ifvqcu0","pricing_plan_id":"cebpf4jnsgd1na2vs0mg"},{"bike_id":"6b0ac5be-ee5b-482d-9037-8032f0669ca6","system_id":"levelo_inurba_marseille","lat":43.29186,"lon":5.35801,"is_reserved":false,"is_disabled":false,"rental_uris":{"android":"levelo://app?vid=6b0ac5be-ee5b-482d-9037-8032f0669ca6","ios":"levelo://app?vid=6b0ac5be-ee5b-482d-9037-8032f0669ca6"},"vehicle_type_id":"4","last_reported":1717697413,"current_range_meters":0,"station_id":"ce4bhb12rcd13ifvqel0","pricing_plan_id":"cebpf4jnsgd1na2vs0mg"},{"bike_id":"ee8a4fde-c749-4664-8a08-03c520cf84ef","system_id":"levelo_inurba_marseille","lat":43.31331,"lon":5.39698,"is_reserved":false,"is_disabled":false,"rental_uris":{"android":"levelo://app?vid=ee8a4fde-c749-4664-8a08-03c520cf84ef","ios":"levelo://app?vid=ee8a4fde-c749-4664-8a08-03c520cf84ef"},"vehicle_type_id":"4","last_reported":1717697413,"current_range_meters":0,"station_id":"ce4bgvp2rcd13ifvqcu0","pricing_plan_id":"cebpf4jnsgd1na2vs0mg"},{"bike_id":"4d3c82a3-c6c6-4d5c-a61a-301f82f9bcdc","system_id":"levelo_inurba_marseille","lat":43.313291,"lon":5.396838,"is_reserved":false,"is_disabled":false,"rental_uris":{"android":"levelo://app?vid=4d3c82a3-c6c6-4d5c-a61a-301f82f9bcdc","ios":"levelo://app?vid=4d3c82a3-c6c6-4d5c-a61a-301f82f9bcdc"},"vehicle_type_id":"4","last_reported":1717697413,"current_range_meters":28000,"station_id":"ce4bgvp2rcd13ifvqcu0","pricing_plan_id":"cebpf4jnsgd1na2vs0mg"},{"bike_id":"90fb4c61-d9a0-412f-aa86-4f9deb4e7c25","system_id":"levelo_inurba_marseille","lat":43.309038,"lon":5.396546,"is_reserved":false,"is_disabled":false,"rental_uris":{"android":"levelo://app?vid=90fb4c61-d9a0-412f-aa86-4f9deb4e7c25","ios":"levelo://app?vid=90fb4c61-d9a0-412f-aa86-4f9deb4e7c25"},"vehicle_type_id":"4","last_reported":1717697413,"current_range_meters":20000,"station_id":"ce4bh012rcd13ifvqcv0","pricing_plan_id":"cebpf4jnsgd1na2vs0mg"},{"bike_id":"4b65c214-d384-4457-8f06-10be4c608eea","system_id":"levelo_inurba_marseille","lat":43.309038,"lon":5.396546,"is_reserved":false,"is_disabled":false,"rental_uris":{"android":"levelo://app?vid=4b65c214-d384-4457-8f06-10be4c608eea","ios":"levelo://app?vid=4b65c214-d384-4457-8f06-10be4c608eea"},"vehicle_type_id":"4","last_reported":1717697413,"current_range_meters":5600,"station_id":"ce4bh012rcd13ifvqcv0","pricing_plan_id":"cebpf4jnsgd1na2vs0mg"},{"bike_id":"ea2f3a00-8abe-4d9a-acbb-8ee8bb26f553","system_id":"levelo_inurba_marseille","lat":43.29529,"lon":5.385581,"is_reserved":false,"is_disabled":false,"rental_uris":{"android":"levelo://app?vid=ea2f3a00-8abe-4d9a-acbb-8ee8bb26f553","ios":"levelo://app?vid=ea2f3a00-8abe-4d9a-acbb-8ee8bb26f553"},"vehicle_type_id":"4","last_reported":1717697413,"current_range_meters":26000,"station_id":"ce4bgih2rcd13ifvqba0","pricing_plan_id":"cebpf4jnsgd1na2vs0mg"},{"bike_id":"194c37d9-da34-4e2e-8b68-0100bdc48448","system_id":"levelo_inurba_marseille","lat":43.29529,"lon":5.385581,"is_reserved":false,"is_disabled":false,"rental_uris":{"android":"levelo://app?vid=194c37d9-da34-4e2e-8b68-0100bdc48448","ios":"levelo://app?vid=194c37d9-da34-4e2e-8b68-0100bdc48448"},"vehicle_type_id":"4","last_reported":1717697413,"current_range_meters":29200,"station_id":"ce4bgih2rcd13ifvqba0","pricing_plan_id":"cebpf4jnsgd1na2vs0mg"},{"bike_id":"eeb0305d-9a3b-4932-bc83-6350cf51db8a","system_id":"levelo_inurba_marseille","lat":43.29529,"lon":5.385581,"is_reserved":false,"is_disabled":false,"rental_uris":{"android":"levelo://app?vid=eeb0305d-9a3b-4932-bc83-6350cf51db8a","ios":"levelo://app?vid=eeb0305d-9a3b-4932-bc83-6350cf51db8a"},"vehicle_type_id":"4","last_reported":1717697413,"current_range_meters":26400,"station_id":"ce4bgih2rcd13ifvqba0","pricing_plan_id":"cebpf4jnsgd1na2vs0mg"},{"bike_id":"94a9428f-92d4-4ab9-b946-f2b370bce715","system_id":"levelo_inurba_marseille","lat":43.29529,"lon":5.385581,"is_reserved":false,"is_disabled":false,"rental_uris":{"android":"levelo://app?vid=94a9428f-92d4-4ab9-b946-f2b370bce715","ios":"levelo://app?vid=94a9428f-92d4-4ab9-b946-f2b370bce715"},"vehicle_type_id":"4","last_reported":1717697413,"current_range_meters":27600,"station_id":"ce4bgih2rcd13ifvqba0","pricing_plan_id":"cebpf4jnsgd1na2vs0mg"},{"bike_id":"9e80c9e5-4b5b-4866-bf01-c970bd6a6598","system_id":"levelo_inurba_marseille","lat":43.231562,"lon":5.436933,"is_reserved":false,"is_disabled":false,"rental_uris":{"android":"levelo://app?vid=9e80c9e5-4b5b-4866-bf01-c970bd6a6598","ios":"levelo://app?vid=9e80c9e5-4b5b-4866-bf01-c970bd6a6598"},"vehicle_type_id":"4","last_reported":1717697413,"current_range_meters":0,"station_id":"ce4bhmp2rcd13ifvqgog","pricing_plan_id":"cebpf4jnsgd1na2vs0mg"},{"bike_id":"098e26f8-2e3f-498e-9c5a-70b46614245a","system_id":"levelo_inurba_marseille","lat":43.290779,"lon":5.371482,"is_reserved":false,"is_disabled":false,"rental_uris":{"android":"levelo://app?vid=098e26f8-2e3f-498e-9c5a-70b46614245a","ios":"levelo://app?vid=098e26f8-2e3f-498e-9c5a-70b46614245a"},"vehicle_type_id":"4","last_reported":1717697413,"current_range_meters":2000,"station_id":"ce4bh5p2rcd13ifvqe4g","pricing_plan_id":"cebpf4jnsgd1na2vs0mg"},{"bike_id":"1adf021d-1585-420f-a93a-7957028d57f3","system_id":"levelo_inurba_marseille","lat":43.302008,"lon":5.394694,"is_reserved":false,"is_disabled":false,"rental_uris":{"android":"levelo://app?vid=1adf021d-1585-420f-a93a-7957028d57f3","ios":"levelo://app?vid=1adf021d-1585-420f-a93a-7957028d57f3"},"vehicle_type_id":"4","last_reported":1717697413,"current_range_meters":7200,"station_id":"ce4bh0p2rcd13ifvqd70","pricing_plan_id":"cebpf4jnsgd1na2vs0mg"},{"bike_id":"9cea31fe-6dcd-4b69-a131-a4c454162583","system_id":"levelo_inurba_marseille","lat":43.302008,"lon":5.394694,"is_reserved":false,"is_disabled":false,"rental_uris":{"android":"levelo://app?vid=9cea31fe-6dcd-4b69-a131-a4c454162583","ios":"levelo://app?vid=9cea31fe-6dcd-4b69-a131-a4c454162583"},"vehicle_type_id":"4","last_reported":1717697413,"current_range_meters":0,"station_id":"ce4bh0p2rcd13ifvqd70","pricing_plan_id":"cebpf4jnsgd1na2vs0mg"},{"bike_id":"2aae4057-9f19-48f4-ad32-e39b2cbdec5f","system_id":"levelo_inurba_marseille","lat":43.289184,"lon":5.366408,"is_reserved":false,"is_disabled":false,"rental_uris":{"android":"levelo://app?vid=2aae4057-9f19-48f4-ad32-e39b2cbdec5f","ios":"levelo://app?vid=2aae4057-9f19-48f4-ad32-e39b2cbdec5f"},"vehicle_type_id":"4","last_reported":1717697413,"current_range_meters":2400,"station_id":"ce4bhap2rcd13ifvqek0","pricing_plan_id":"cebpf4jnsgd1na2vs0mg"},{"bike_id":"acf56520-ad8b-410c-81d4-8c7f745bb592","system_id":"levelo_inurba_marseille","lat":43.294193,"lon":5.38606,"is_reserved":false,"is_disabled":false,"rental_uris":{"android":"levelo://app?vid=acf56520-ad8b-410c-81d4-8c7f745bb592","ios":"levelo://app?vid=acf56520-ad8b-410c-81d4-8c7f745bb592"},"vehicle_type_id":"4","last_reported":1717697413,"current_range_meters":1200,"station_id":"ce4bh2h2rcd13ifvqdh0","pricing_plan_id":"cebpf4jnsgd1na2vs0mg"},{"bike_id":"704163a5-e62c-43b0-95fb-a42bf1ebaaad","system_id":"levelo_inurba_marseille","lat":43.290319,"lon":5.375732,"is_reserved":false,"is_disabled":false,"rental_uris":{"android":"levelo://app?vid=704163a5-e62c-43b0-95fb-a42bf1ebaaad","ios":"levelo://app?vid=704163a5-e62c-43b0-95fb-a42bf1ebaaad"},"vehicle_type_id":"4","last_reported":1717697413,"current_range_meters":1600,"station_id":"ce4bh692rcd13ifvqe90","pricing_plan_id":"cebpf4jnsgd1na2vs0mg"},{"bike_id":"e0b49416-8d4e-46fc-8ba6-b934dd8e5557","system_id":"levelo_inurba_marseille","lat":43.2942,"lon":5.3862,"is_reserved":false,"is_disabled":false,"rental_uris":{"android":"levelo://app?vid=e0b49416-8d4e-46fc-8ba6-b934dd8e5557","ios":"levelo://app?vid=e0b49416-8d4e-46fc-8ba6-b934dd8e5557"},"vehicle_type_id":"4","last_reported":1717697413,"current_range_meters":0,"station_id":"ce4bh2h2rcd13ifvqdh0","pricing_plan_id":"cebpf4jnsgd1na2vs0mg"},{"bike_id":"d217ae98-71b8-45dd-8090-447bfcfb4241","system_id":"levelo_inurba_marseille","lat":43.29418,"lon":5.3862,"is_reserved":false,"is_disabled":false,"rental_uris":{"android":"levelo://app?vid=d217ae98-71b8-45dd-8090-447bfcfb4241","ios":"levelo://app?vid=d217ae98-71b8-45dd-8090-447bfcfb4241"},"vehicle_type_id":"4","last_reported":1717697413,"current_range_meters":0,"station_id":"ce4bh2h2rcd13ifvqdh0","pricing_plan_id":"cebpf4jnsgd1na2vs0mg"},{"bike_id":"e2ae74a4-7bb2-44df-affd-ae654dccb908","system_id":"levelo_inurba_marseille","lat":43.29419,"lon":5.38626,"is_reserved":false,"is_disabled":false,"rental_uris":{"android":"levelo://app?vid=e2ae74a4-7bb2-44df-affd-ae654dccb908","ios":"levelo://app?vid=e2ae74a4-7bb2-44df-affd-ae654dccb908"},"vehicle_type_id":"4","last_reported":1717697413,"current_range_meters":0,"station_id":"ce4bh2h2rcd13ifvqdh0","pricing_plan_id":"cebpf4jnsgd1na2vs0mg"},{"bike_id":"4d1ca115-f78c-4630-90de-5ed16d87bfe3","system_id":"levelo_inurba_marseille","lat":43.29417,"lon":5.38623,"is_reserved":false,"is_disabled":false,"rental_uris":{"android":"levelo://app?vid=4d1ca115-f78c-4630-90de-5ed16d87bfe3","ios":"levelo://app?vid=4d1ca115-f78c-4630-90de-5ed16d87bfe3"},"vehicle_type_id":"4","last_reported":1717697413,"current_range_meters":0,"station_id":"ce4bh2h2rcd13ifvqdh0","pricing_plan_id":"cebpf4jnsgd1na2vs0mg"},{"bike_id":"75f835be-d2d4-4f52-9125-a91f322f693e","system_id":"levelo_inurba_marseille","lat":43.29413,"lon":5.38618,"is_reserved":false,"is_disabled":false,"rental_uris":{"android":"levelo://app?vid=75f835be-d2d4-4f52-9125-a91f322f693e","ios":"levelo://app?vid=75f835be-d2d4-4f52-9125-a91f322f693e"},"vehicle_type_id":"4","last_reported":1717697413,"current_range_meters":0,"station_id":"ce4bh2h2rcd13ifvqdh0","pricing_plan_id":"cebpf4jnsgd1na2vs0mg"},{"bike_id":"7bff5ea7-b253-42e0-89d4-510e0b0010d5","system_id":"levelo_inurba_marseille","lat":43.29418,"lon":5.38628,"is_reserved":false,"is_disabled":false,"rental_uris":{"android":"levelo://app?vid=7bff5ea7-b253-42e0-89d4-510e0b0010d5","ios":"levelo://app?vid=7bff5ea7-b253-42e0-89d4-510e0b0010d5"},"vehicle_type_id":"4","last_reported":1717697413,"current_range_meters":6000,"station_id":"ce4bh2h2rcd13ifvqdh0","pricing_plan_id":"cebpf4jnsgd1na2vs0mg"},{"bike_id":"c402639e-a543-4919-8c3a-4fa18ea35c7a","system_id":"levelo_inurba_marseille","lat":43.28941,"lon":5.36631,"is_reserved":false,"is_disabled":false,"rental_uris":{"android":"levelo://app?vid=c402639e-a543-4919-8c3a-4fa18ea35c7a","ios":"levelo://app?vid=c402639e-a543-4919-8c3a-4fa18ea35c7a"},"vehicle_type_id":"4","last_reported":1717697413,"current_range_meters":0,"station_id":"ce4bhap2rcd13ifvqek0","pricing_plan_id":"cebpf4jnsgd1na2vs0mg"},{"bike_id":"33be029c-00e5-4c28-812f-6e837a4d4848","system_id":"levelo_inurba_marseille","lat":43.290779,"lon":5.371482,"is_reserved":false,"is_disabled":false,"rental_uris":{"android":"levelo://app?vid=33be029c-00e5-4c28-812f-6e837a4d4848","ios":"levelo://app?vid=33be029c-00e5-4c28-812f-6e837a4d4848"},"vehicle_type_id":"4","last_reported":1717697413,"current_range_meters":12400,"station_id":"ce4bh5p2rcd13ifvqe4g","pricing_plan_id":"cebpf4jnsgd1na2vs0mg"},{"bike_id":"91e32c33-5663-498a-a84e-6a814c503003","system_id":"levelo_inurba_marseille","lat":43.28937,"lon":5.36638,"is_reserved":false,"is_disabled":false,"rental_uris":{"android":"levelo://app?vid=91e32c33-5663-498a-a84e-6a814c503003","ios":"levelo://app?vid=91e32c33-5663-498a-a84e-6a814c503003"},"vehicle_type_id":"4","last_reported":1717697413,"current_range_meters":0,"station_id":"ce4bhap2rcd13ifvqek0","pricing_plan_id":"cebpf4jnsgd1na2vs0mg"},{"bike_id":"a9692441-bd47-428c-ae26-94bc260cafa9","system_id":"levelo_inurba_marseille","lat":43.28936,"lon":5.36625,"is_reserved":false,"is_disabled":false,"rental_uris":{"android":"levelo://app?vid=a9692441-bd47-428c-ae26-94bc260cafa9","ios":"levelo://app?vid=a9692441-bd47-428c-ae26-94bc260cafa9"},"vehicle_type_id":"4","last_reported":1717697413,"current_range_meters":0,"station_id":"ce4bhap2rcd13ifvqek0","pricing_plan_id":"cebpf4jnsgd1na2vs0mg"},{"bike_id":"1dfb018e-7a88-4208-9773-afc7a117c8f5","system_id":"levelo_inurba_marseille","lat":43.28929,"lon":5.366343,"is_reserved":false,"is_disabled":false,"rental_uris":{"android":"levelo://app?vid=1dfb018e-7a88-4208-9773-afc7a117c8f5","ios":"levelo://app?vid=1dfb018e-7a88-4208-9773-afc7a117c8f5"},"vehicle_type_id":"4","last_reported":1717697413,"current_range_meters":0,"station_id":"ce4bhap2rcd13ifvqek0","pricing_plan_id":"cebpf4jnsgd1na2vs0mg"},{"bike_id":"0f198592-d2a9-4a5b-bf86-8ebab7344b6c","system_id":"levelo_inurba_marseille","lat":43.2936,"lon":5.37835,"is_reserved":false,"is_disabled":false,"rental_uris":{"android":"levelo://app?vid=0f198592-d2a9-4a5b-bf86-8ebab7344b6c","ios":"levelo://app?vid=0f198592-d2a9-4a5b-bf86-8ebab7344b6c"},"vehicle_type_id":"4","last_reported":1717697413,"current_range_meters":16800,"station_id":"ce4bgjh2rcd13ifvqbf0","pricing_plan_id":"cebpf4jnsgd1na2vs0mg"},{"bike_id":"e2147445-80d7-482e-bbe6-22001511e30f","system_id":"levelo_inurba_marseille","lat":43.29573,"lon":5.367355,"is_reserved":false,"is_disabled":false,"rental_uris":{"android":"levelo://app?vid=e2147445-80d7-482e-bbe6-22001511e30f","ios":"levelo://app?vid=e2147445-80d7-482e-bbe6-22001511e30f"},"vehicle_type_id":"4","last_reported":1717697413,"current_range_meters":7200,"station_id":"ce4bgph2rcd13ifvqc2g","pricing_plan_id":"cebpf4jnsgd1na2vs0mg"},{"bike_id":"3e194818-9074-4592-9c43-497148423c38","system_id":"levelo_inurba_marseille","lat":43.29265,"lon":5.38441,"is_reserved":false,"is_disabled":false,"rental_uris":{"android":"levelo://app?vid=3e194818-9074-4592-9c43-497148423c38","ios":"levelo://app?vid=3e194818-9074-4592-9c43-497148423c38"},"vehicle_type_id":"4","last_reported":1717697413,"current_range_meters":18800,"station_id":"ce4bh692rcd13ifvqea0","pricing_plan_id":"cebpf4jnsgd1na2vs0mg"},{"bike_id":"ce919395-11dd-4021-b9ec-8a72f61523cf","system_id":"levelo_inurba_marseille","lat":43.28856,"lon":5.358371,"is_reserved":false,"is_disabled":false,"rental_uris":{"android":"levelo://app?vid=ce919395-11dd-4021-b9ec-8a72f61523cf","ios":"levelo://app?vid=ce919395-11dd-4021-b9ec-8a72f61523cf"},"vehicle_type_id":"4","last_reported":1717697413,"current_range_meters":0,"station_id":"ce4bhb12rcd13ifvqem0","pricing_plan_id":"cebpf4jnsgd1na2vs0mg"},{"bike_id":"54fab329-a405-44bc-8e0e-261a27accd67","system_id":"levelo_inurba_marseille","lat":43.292602,"lon":5.384396,"is_reserved":false,"is_disabled":false,"rental_uris":{"android":"levelo://app?vid=54fab329-a405-44bc-8e0e-261a27accd67","ios":"levelo://app?vid=54fab329-a405-44bc-8e0e-261a27accd67"},"vehicle_type_id":"4","last_reported":1717697413,"current_range_meters":0,"station_id":"ce4bh692rcd13ifvqea0","pricing_plan_id":"cebpf4jnsgd1na2vs0mg"},{"bike_id":"ca460d47-fb97-4937-a316-73947f57b217","system_id":"levelo_inurba_marseille","lat":43.29256,"lon":5.38435,"is_reserved":false,"is_disabled":false,"rental_uris":{"android":"levelo://app?vid=ca460d47-fb97-4937-a316-73947f57b217","ios":"levelo://app?vid=ca460d47-fb97-4937-a316-73947f57b217"},"vehicle_type_id":"4","last_reported":1717697413,"current_range_meters":2000,"station_id":"ce4bh692rcd13ifvqea0","pricing_plan_id":"cebpf4jnsgd1na2vs0mg"},{"bike_id":"cffc201d-7790-486d-afc6-9a1555dad034","system_id":"levelo_inurba_marseille","lat":43.292533,"lon":5.384353,"is_reserved":false,"is_disabled":false,"rental_uris":{"android":"levelo://app?vid=cffc201d-7790-486d-afc6-9a1555dad034","ios":"levelo://app?vid=cffc201d-7790-486d-afc6-9a1555dad034"},"vehicle_type_id":"4","last_reported":1717697413,"current_range_meters":0,"station_id":"ce4bh692rcd13ifvqea0","pricing_plan_id":"cebpf4jnsgd1na2vs0mg"},{"bike_id":"a1a65014-26c6-4a30-9d76-8174e2588725","system_id":"levelo_inurba_marseille","lat":43.29251,"lon":5.38443,"is_reserved":false,"is_disabled":false,"rental_uris":{"android":"levelo://app?vid=a1a65014-26c6-4a30-9d76-8174e2588725","ios":"levelo://app?vid=a1a65014-26c6-4a30-9d76-8174e2588725"},"vehicle_type_id":"4","last_reported":1717697413,"current_range_meters":0,"station_id":"ce4bh692rcd13ifvqea0","pricing_plan_id":"cebpf4jnsgd1na2vs0mg"},{"bike_id":"1730cb9d-619c-4a3a-a479-91eba51f693c","system_id":"levelo_inurba_marseille","lat":43.304274,"lon":5.397513,"is_reserved":false,"is_disabled":false,"rental_uris":{"android":"levelo://app?vid=1730cb9d-619c-4a3a-a479-91eba51f693c","ios":"levelo://app?vid=1730cb9d-619c-4a3a-a479-91eba51f693c"},"vehicle_type_id":"4","last_reported":1717697413,"current_range_meters":11200,"station_id":"ce4bh092rcd13ifvqd20","pricing_plan_id":"cebpf4jnsgd1na2vs0mg"},{"bike_id":"7a6ff9ac-9f70-4472-85fc-7f3a784033a3","system_id":"levelo_inurba_marseille","lat":43.290104,"lon":5.356111,"is_reserved":false,"is_disabled":false,"rental_uris":{"android":"levelo://app?vid=7a6ff9ac-9f70-4472-85fc-7f3a784033a3","ios":"levelo://app?vid=7a6ff9ac-9f70-4472-85fc-7f3a784033a3"},"vehicle_type_id":"4","last_reported":1717697413,"current_range_meters":0,"station_id":"ce4bhb92rcd13ifvqen0","pricing_plan_id":"cebpf4jnsgd1na2vs0mg"},{"bike_id":"a608159d-fc9b-4e1f-9009-6f713eaffe57","system_id":"levelo_inurba_marseille","lat":43.29007,"lon":5.35612,"is_reserved":false,"is_disabled":false,"rental_uris":{"android":"levelo://app?vid=a608159d-fc9b-4e1f-9009-6f713eaffe57","ios":"levelo://app?vid=a608159d-fc9b-4e1f-9009-6f713eaffe57"},"vehicle_type_id":"4","last_reported":1717697413,"current_range_meters":0,"station_id":"ce4bhb92rcd13ifvqen0","pricing_plan_id":"cebpf4jnsgd1na2vs0mg"},{"bike_id":"39b1b860-50d1-4656-b65f-6696ac7d021b","system_id":"levelo_inurba_marseille","lat":43.290104,"lon":5.356111,"is_reserved":false,"is_disabled":false,"rental_uris":{"android":"levelo://app?vid=39b1b860-50d1-4656-b65f-6696ac7d021b","ios":"levelo://app?vid=39b1b860-50d1-4656-b65f-6696ac7d021b"},"vehicle_type_id":"4","last_reported":1717697413,"current_range_meters":0,"station_id":"ce4bhb92rcd13ifvqen0","pricing_plan_id":"cebpf4jnsgd1na2vs0mg"},{"bike_id":"322d8e54-7fc0-45a7-9f10-e40bc085c32b","system_id":"levelo_inurba_marseille","lat":43.29002,"lon":5.35615,"is_reserved":false,"is_disabled":false,"rental_uris":{"android":"levelo://app?vid=322d8e54-7fc0-45a7-9f10-e40bc085c32b","ios":"levelo://app?vid=322d8e54-7fc0-45a7-9f10-e40bc085c32b"},"vehicle_type_id":"4","last_reported":1717697413,"current_range_meters":0,"station_id":"ce4bhb92rcd13ifvqen0","pricing_plan_id":"cebpf4jnsgd1na2vs0mg"},{"bike_id":"c3340e0d-e712-4d17-9ba3-98a177a37b91","system_id":"levelo_inurba_marseille","lat":43.290103,"lon":5.356114,"is_reserved":false,"is_disabled":false,"rental_uris":{"android":"levelo://app?vid=c3340e0d-e712-4d17-9ba3-98a177a37b91","ios":"levelo://app?vid=c3340e0d-e712-4d17-9ba3-98a177a37b91"},"vehicle_type_id":"4","last_reported":1717697413,"current_range_meters":8400,"station_id":"ce4bhb92rcd13ifvqen0","pricing_plan_id":"cebpf4jnsgd1na2vs0mg"},{"bike_id":"97056a6d-d124-48bf-a807-8dfb2e0e0e9a","system_id":"levelo_inurba_marseille","lat":43.295169,"lon":5.390426,"is_reserved":false,"is_disabled":false,"rental_uris":{"android":"levelo://app?vid=97056a6d-d124-48bf-a807-8dfb2e0e0e9a","ios":"levelo://app?vid=97056a6d-d124-48bf-a807-8dfb2e0e0e9a"},"vehicle_type_id":"4","last_reported":1717697413,"current_range_meters":0,"station_id":"ce4bh3p2rcd13ifvqdp0","pricing_plan_id":"cebpf4jnsgd1na2vs0mg"},{"bike_id":"410ca897-292c-4c67-8400-5c583481b4d6","system_id":"levelo_inurba_marseille","lat":43.330442,"lon":5.389148,"is_reserved":false,"is_disabled":false,"rental_uris":{"android":"levelo://app?vid=410ca897-292c-4c67-8400-5c583481b4d6","ios":"levelo://app?vid=410ca897-292c-4c67-8400-5c583481b4d6"},"vehicle_type_id":"4","last_reported":1717697413,"current_range_meters":30400,"station_id":"ce4bhr92rcd13ifvqhrg","pricing_plan_id":"cebpf4jnsgd1na2vs0mg"},{"bike_id":"0f5cd32c-e74c-41f1-be36-64b8850216cf","system_id":"levelo_inurba_marseille","lat":43.29785,"lon":5.3935,"is_reserved":false,"is_disabled":false,"rental_uris":{"android":"levelo://app?vid=0f5cd32c-e74c-41f1-be36-64b8850216cf","ios":"levelo://app?vid=0f5cd32c-e74c-41f1-be36-64b8850216cf"},"vehicle_type_id":"4","last_reported":1717697413,"current_range_meters":4800,"station_id":"chh1huq6cuj3fo74tm60","pricing_plan_id":"cebpf4jnsgd1na2vs0mg"},{"bike_id":"b3b205f9-28d6-4453-8e34-ccbc1899365b","system_id":"levelo_inurba_marseille","lat":43.295169,"lon":5.390426,"is_reserved":false,"is_disabled":false,"rental_uris":{"android":"levelo://app?vid=b3b205f9-28d6-4453-8e34-ccbc1899365b","ios":"levelo://app?vid=b3b205f9-28d6-4453-8e34-ccbc1899365b"},"vehicle_type_id":"4","last_reported":1717697413,"current_range_meters":4000,"station_id":"ce4bh3p2rcd13ifvqdp0","pricing_plan_id":"cebpf4jnsgd1na2vs0mg"},{"bike_id":"29504c89-a283-4bd5-9887-3ff0c4c5cb6c","system_id":"levelo_inurba_marseille","lat":43.295169,"lon":5.390426,"is_reserved":false,"is_disabled":false,"rental_uris":{"android":"levelo://app?vid=29504c89-a283-4bd5-9887-3ff0c4c5cb6c","ios":"levelo://app?vid=29504c89-a283-4bd5-9887-3ff0c4c5cb6c"},"vehicle_type_id":"4","last_reported":1717697413,"current_range_meters":6800,"station_id":"ce4bh3p2rcd13ifvqdp0","pricing_plan_id":"cebpf4jnsgd1na2vs0mg"},{"bike_id":"975da0d8-20a9-4491-bb08-4b6f58de0efa","system_id":"levelo_inurba_marseille","lat":43.2952,"lon":5.39031,"is_reserved":false,"is_disabled":false,"rental_uris":{"android":"levelo://app?vid=975da0d8-20a9-4491-bb08-4b6f58de0efa","ios":"levelo://app?vid=975da0d8-20a9-4491-bb08-4b6f58de0efa"},"vehicle_type_id":"4","last_reported":1717697413,"current_range_meters":0,"station_id":"ce4bh3p2rcd13ifvqdp0","pricing_plan_id":"cebpf4jnsgd1na2vs0mg"},{"bike_id":"0cdfa72a-072a-42a9-b600-441b1652f29d","system_id":"levelo_inurba_marseille","lat":43.295169,"lon":5.390426,"is_reserved":false,"is_disabled":false,"rental_uris":{"android":"levelo://app?vid=0cdfa72a-072a-42a9-b600-441b1652f29d","ios":"levelo://app?vid=0cdfa72a-072a-42a9-b600-441b1652f29d"},"vehicle_type_id":"4","last_reported":1717697413,"current_range_meters":400,"station_id":"ce4bh3p2rcd13ifvqdp0","pricing_plan_id":"cebpf4jnsgd1na2vs0mg"},{"bike_id":"68205f8d-9d75-4dd0-91f7-f1a01d1535e4","system_id":"levelo_inurba_marseille","lat":43.295169,"lon":5.390426,"is_reserved":false,"is_disabled":false,"rental_uris":{"android":"levelo://app?vid=68205f8d-9d75-4dd0-91f7-f1a01d1535e4","ios":"levelo://app?vid=68205f8d-9d75-4dd0-91f7-f1a01d1535e4"},"vehicle_type_id":"4","last_reported":1717697413,"current_range_meters":15600,"station_id":"ce4bh3p2rcd13ifvqdp0","pricing_plan_id":"cebpf4jnsgd1na2vs0mg"},{"bike_id":"dbd031b9-fdb1-496e-925b-5c1d23a4b2e3","system_id":"levelo_inurba_marseille","lat":43.295169,"lon":5.390426,"is_reserved":false,"is_disabled":false,"rental_uris":{"android":"levelo://app?vid=dbd031b9-fdb1-496e-925b-5c1d23a4b2e3","ios":"levelo://app?vid=dbd031b9-fdb1-496e-925b-5c1d23a4b2e3"},"vehicle_type_id":"4","last_reported":1717697413,"current_range_meters":5600,"station_id":"ce4bh3p2rcd13ifvqdp0","pricing_plan_id":"cebpf4jnsgd1na2vs0mg"},{"bike_id":"22a94802-5417-4e6e-af26-d1f23cd2c8a1","system_id":"levelo_inurba_marseille","lat":43.285856,"lon":5.350771,"is_reserved":false,"is_disabled":false,"rental_uris":{"android":"levelo://app?vid=22a94802-5417-4e6e-af26-d1f23cd2c8a1","ios":"levelo://app?vid=22a94802-5417-4e6e-af26-d1f23cd2c8a1"},"vehicle_type_id":"4","last_reported":1717697413,"current_range_meters":6000,"station_id":"ce4bhch2rcd13ifvqeug","pricing_plan_id":"cebpf4jnsgd1na2vs0mg"},{"bike_id":"dfe19823-dd38-4133-8f5c-37223b90da87","system_id":"levelo_inurba_marseille","lat":43.2901,"lon":5.381269,"is_reserved":false,"is_disabled":false,"rental_uris":{"android":"levelo://app?vid=dfe19823-dd38-4133-8f5c-37223b90da87","ios":"levelo://app?vid=dfe19823-dd38-4133-8f5c-37223b90da87"},"vehicle_type_id":"4","last_reported":1717697413,"current_range_meters":4800,"station_id":"ce4bh4p2rcd13ifvqe1g","pricing_plan_id":"cebpf4jnsgd1na2vs0mg"},{"bike_id":"2057492a-678f-41d5-af6e-475ba7fb3d75","system_id":"levelo_inurba_marseille","lat":43.288535,"lon":5.358448,"is_reserved":false,"is_disabled":false,"rental_uris":{"android":"levelo://app?vid=2057492a-678f-41d5-af6e-475ba7fb3d75","ios":"levelo://app?vid=2057492a-678f-41d5-af6e-475ba7fb3d75"},"vehicle_type_id":"4","last_reported":1717697413,"current_range_meters":0,"station_id":"ce4bhb12rcd13ifvqem0","pricing_plan_id":"cebpf4jnsgd1na2vs0mg"},{"bike_id":"ab5ebd7c-c669-4d7c-9678-084507ed0a57","system_id":"levelo_inurba_marseille","lat":43.288462,"lon":5.35849,"is_reserved":false,"is_disabled":false,"rental_uris":{"android":"levelo://app?vid=ab5ebd7c-c669-4d7c-9678-084507ed0a57","ios":"levelo://app?vid=ab5ebd7c-c669-4d7c-9678-084507ed0a57"},"vehicle_type_id":"4","last_reported":1717697413,"current_range_meters":0,"station_id":"ce4bhb12rcd13ifvqem0","pricing_plan_id":"cebpf4jnsgd1na2vs0mg"},{"bike_id":"58c4402a-e4ef-447a-8ada-af4ca324c5a1","system_id":"levelo_inurba_marseille","lat":43.288423,"lon":5.35854,"is_reserved":false,"is_disabled":false,"rental_uris":{"android":"levelo://app?vid=58c4402a-e4ef-447a-8ada-af4ca324c5a1","ios":"levelo://app?vid=58c4402a-e4ef-447a-8ada-af4ca324c5a1"},"vehicle_type_id":"4","last_reported":1717697413,"current_range_meters":0,"station_id":"ce4bhb12rcd13ifvqem0","pricing_plan_id":"cebpf4jnsgd1na2vs0mg"},{"bike_id":"d866d6a5-f89a-4795-b2b0-118399f8734c","system_id":"levelo_inurba_marseille","lat":43.288236,"lon":5.358497,"is_reserved":false,"is_disabled":false,"rental_uris":{"android":"levelo://app?vid=d866d6a5-f89a-4795-b2b0-118399f8734c","ios":"levelo://app?vid=d866d6a5-f89a-4795-b2b0-118399f8734c"},"vehicle_type_id":"4","last_reported":1717697413,"current_range_meters":0,"station_id":"ce4bhb12rcd13ifvqem0","pricing_plan_id":"cebpf4jnsgd1na2vs0mg"},{"bike_id":"f5d81ff7-7e0d-44d8-86e3-2548419d17b8","system_id":"levelo_inurba_marseille","lat":43.337412,"lon":5.37457,"is_reserved":false,"is_disabled":false,"rental_uris":{"android":"levelo://app?vid=f5d81ff7-7e0d-44d8-86e3-2548419d17b8","ios":"levelo://app?vid=f5d81ff7-7e0d-44d8-86e3-2548419d17b8"},"vehicle_type_id":"4","last_reported":1717697413,"current_range_meters":5600,"station_id":"","pricing_plan_id":"cebpf4jnsgd1na2vs0mg"},{"bike_id":"51a9205f-027f-40ec-b419-11b34b9fb376","system_id":"levelo_inurba_marseille","lat":43.309371,"lon":5.401449,"is_reserved":false,"is_disabled":false,"rental_uris":{"android":"levelo://app?vid=51a9205f-027f-40ec-b419-11b34b9fb376","ios":"levelo://app?vid=51a9205f-027f-40ec-b419-11b34b9fb376"},"vehicle_type_id":"4","last_reported":1717697413,"current_range_meters":8000,"station_id":"ce4bgvp2rcd13ifvqct0","pricing_plan_id":"cebpf4jnsgd1na2vs0mg"},{"bike_id":"cce2fad1-334e-4c27-975d-69208c6c9e5f","system_id":"levelo_inurba_marseille","lat":43.309371,"lon":5.401449,"is_reserved":false,"is_disabled":false,"rental_uris":{"android":"levelo://app?vid=cce2fad1-334e-4c27-975d-69208c6c9e5f","ios":"levelo://app?vid=cce2fad1-334e-4c27-975d-69208c6c9e5f"},"vehicle_type_id":"4","last_reported":1717697413,"current_range_meters":3200,"station_id":"ce4bgvp2rcd13ifvqct0","pricing_plan_id":"cebpf4jnsgd1na2vs0mg"},{"bike_id":"628ff942-3eeb-46e9-b279-cc94df0dd3e6","system_id":"levelo_inurba_marseille","lat":43.312609,"lon":5.401662,"is_reserved":false,"is_disabled":false,"rental_uris":{"android":"levelo://app?vid=628ff942-3eeb-46e9-b279-cc94df0dd3e6","ios":"levelo://app?vid=628ff942-3eeb-46e9-b279-cc94df0dd3e6"},"vehicle_type_id":"4","last_reported":1717697413,"current_range_meters":5200,"station_id":"ce4bh092rcd13ifvqd30","pricing_plan_id":"cebpf4jnsgd1na2vs0mg"},{"bike_id":"c91827bd-4f0f-4019-98ca-45e1ac92d0fe","system_id":"levelo_inurba_marseille","lat":43.309371,"lon":5.401449,"is_reserved":false,"is_disabled":false,"rental_uris":{"android":"levelo://app?vid=c91827bd-4f0f-4019-98ca-45e1ac92d0fe","ios":"levelo://app?vid=c91827bd-4f0f-4019-98ca-45e1ac92d0fe"},"vehicle_type_id":"4","last_reported":1717697413,"current_range_meters":0,"station_id":"ce4bgvp2rcd13ifvqct0","pricing_plan_id":"cebpf4jnsgd1na2vs0mg"},{"bike_id":"4e785c2c-3400-4ee1-ae07-455aa733d567","system_id":"levelo_inurba_marseille","lat":43.337418,"lon":5.37491,"is_reserved":false,"is_disabled":false,"rental_uris":{"android":"levelo://app?vid=4e785c2c-3400-4ee1-ae07-455aa733d567","ios":"levelo://app?vid=4e785c2c-3400-4ee1-ae07-455aa733d567"},"vehicle_type_id":"4","last_reported":1717697413,"current_range_meters":24400,"station_id":"","pricing_plan_id":"cebpf4jnsgd1na2vs0mg"},{"bike_id":"134d0621-faeb-438f-9e33-22f97790012a","system_id":"levelo_inurba_marseille","lat":43.306412,"lon":5.401035,"is_reserved":false,"is_disabled":false,"rental_uris":{"android":"levelo://app?vid=134d0621-faeb-438f-9e33-22f97790012a","ios":"levelo://app?vid=134d0621-faeb-438f-9e33-22f97790012a"},"vehicle_type_id":"4","last_reported":1717697413,"current_range_meters":14800,"station_id":"ce4bh112rcd13ifvqda0","pricing_plan_id":"cebpf4jnsgd1na2vs0mg"},{"bike_id":"2d2b163b-d825-4315-916d-4e41347cb4c6","system_id":"levelo_inurba_marseille","lat":43.30929,"lon":5.40148,"is_reserved":false,"is_disabled":false,"rental_uris":{"android":"levelo://app?vid=2d2b163b-d825-4315-916d-4e41347cb4c6","ios":"levelo://app?vid=2d2b163b-d825-4315-916d-4e41347cb4c6"},"vehicle_type_id":"4","last_reported":1717697413,"current_range_meters":0,"station_id":"ce4bgvp2rcd13ifvqct0","pricing_plan_id":"cebpf4jnsgd1na2vs0mg"},{"bike_id":"cbf27dc7-e173-49ec-8104-fc8f00280f03","system_id":"levelo_inurba_marseille","lat":43.33753,"lon":5.37454,"is_reserved":false,"is_disabled":false,"rental_uris":{"android":"levelo://app?vid=cbf27dc7-e173-49ec-8104-fc8f00280f03","ios":"levelo://app?vid=cbf27dc7-e173-49ec-8104-fc8f00280f03"},"vehicle_type_id":"4","last_reported":1717697413,"current_range_meters":24000,"station_id":"","pricing_plan_id":"cebpf4jnsgd1na2vs0mg"},{"bike_id":"4e384dd1-0355-4bfd-9551-6b2affd9c6ca","system_id":"levelo_inurba_marseille","lat":43.306412,"lon":5.401035,"is_reserved":false,"is_disabled":false,"rental_uris":{"android":"levelo://app?vid=4e384dd1-0355-4bfd-9551-6b2affd9c6ca","ios":"levelo://app?vid=4e384dd1-0355-4bfd-9551-6b2affd9c6ca"},"vehicle_type_id":"4","last_reported":1717697413,"current_range_meters":19200,"station_id":"ce4bh112rcd13ifvqda0","pricing_plan_id":"cebpf4jnsgd1na2vs0mg"},{"bike_id":"110e3328-72f9-449e-98c0-415afe84d8e9","system_id":"levelo_inurba_marseille","lat":43.30642,"lon":5.401031,"is_reserved":false,"is_disabled":false,"rental_uris":{"android":"levelo://app?vid=110e3328-72f9-449e-98c0-415afe84d8e9","ios":"levelo://app?vid=110e3328-72f9-449e-98c0-415afe84d8e9"},"vehicle_type_id":"4","last_reported":1717697413,"current_range_meters":1600,"station_id":"ce4bh112rcd13ifvqda0","pricing_plan_id":"cebpf4jnsgd1na2vs0mg"},{"bike_id":"6d3e2fce-01e5-4d88-88ed-b36ca13598fb","system_id":"levelo_inurba_marseille","lat":43.309371,"lon":5.401449,"is_reserved":false,"is_disabled":false,"rental_uris":{"android":"levelo://app?vid=6d3e2fce-01e5-4d88-88ed-b36ca13598fb","ios":"levelo://app?vid=6d3e2fce-01e5-4d88-88ed-b36ca13598fb"},"vehicle_type_id":"4","last_reported":1717697413,"current_range_meters":10800,"station_id":"ce4bgvp2rcd13ifvqct0","pricing_plan_id":"cebpf4jnsgd1na2vs0mg"},{"bike_id":"e3e0e107-37e4-46ac-b07e-29cb8b833c9b","system_id":"levelo_inurba_marseille","lat":43.301117,"lon":5.398795,"is_reserved":false,"is_disabled":false,"rental_uris":{"android":"levelo://app?vid=e3e0e107-37e4-46ac-b07e-29cb8b833c9b","ios":"levelo://app?vid=e3e0e107-37e4-46ac-b07e-29cb8b833c9b"},"vehicle_type_id":"4","last_reported":1717697413,"current_range_meters":800,"station_id":"ce4bh0h2rcd13ifvqd40","pricing_plan_id":"cebpf4jnsgd1na2vs0mg"},{"bike_id":"470c5c75-a58f-49e8-9b63-afe01ec3c4b3","system_id":"levelo_inurba_marseille","lat":43.301117,"lon":5.398795,"is_reserved":false,"is_disabled":false,"rental_uris":{"android":"levelo://app?vid=470c5c75-a58f-49e8-9b63-afe01ec3c4b3","ios":"levelo://app?vid=470c5c75-a58f-49e8-9b63-afe01ec3c4b3"},"vehicle_type_id":"4","last_reported":1717697413,"current_range_meters":0,"station_id":"ce4bh0h2rcd13ifvqd40","pricing_plan_id":"cebpf4jnsgd1na2vs0mg"},{"bike_id":"8752f4f3-ecba-48b5-97ce-5ee6dd434fb4","system_id":"levelo_inurba_marseille","lat":43.306412,"lon":5.401035,"is_reserved":false,"is_disabled":false,"rental_uris":{"android":"levelo://app?vid=8752f4f3-ecba-48b5-97ce-5ee6dd434fb4","ios":"levelo://app?vid=8752f4f3-ecba-48b5-97ce-5ee6dd434fb4"},"vehicle_type_id":"4","last_reported":1717697413,"current_range_meters":23600,"station_id":"ce4bh112rcd13ifvqda0","pricing_plan_id":"cebpf4jnsgd1na2vs0mg"},{"bike_id":"b7f11190-bb9b-40af-9b8b-5a86984f42f4","system_id":"levelo_inurba_marseille","lat":43.28727,"lon":5.36078,"is_reserved":false,"is_disabled":false,"rental_uris":{"android":"levelo://app?vid=b7f11190-bb9b-40af-9b8b-5a86984f42f4","ios":"levelo://app?vid=b7f11190-bb9b-40af-9b8b-5a86984f42f4"},"vehicle_type_id":"4","last_reported":1717697413,"current_range_meters":31200,"station_id":"cki0cbj6b192h4jlfktg","pricing_plan_id":"cebpf4jnsgd1na2vs0mg"},{"bike_id":"0d9d4e63-6475-49d0-8505-e522a2339a20","system_id":"levelo_inurba_marseille","lat":43.306412,"lon":5.401035,"is_reserved":false,"is_disabled":false,"rental_uris":{"android":"levelo://app?vid=0d9d4e63-6475-49d0-8505-e522a2339a20","ios":"levelo://app?vid=0d9d4e63-6475-49d0-8505-e522a2339a20"},"vehicle_type_id":"4","last_reported":1717697413,"current_range_meters":2400,"station_id":"ce4bh112rcd13ifvqda0","pricing_plan_id":"cebpf4jnsgd1na2vs0mg"},{"bike_id":"8e2978cd-9319-4606-9a28-c2b3130fe577","system_id":"levelo_inurba_marseille","lat":43.286961,"lon":5.373785,"is_reserved":false,"is_disabled":false,"rental_uris":{"android":"levelo://app?vid=8e2978cd-9319-4606-9a28-c2b3130fe577","ios":"levelo://app?vid=8e2978cd-9319-4606-9a28-c2b3130fe577"},"vehicle_type_id":"4","last_reported":1717697413,"current_range_meters":2800,"station_id":"ce4bh3p2rcd13ifvqdq0","pricing_plan_id":"cebpf4jnsgd1na2vs0mg"},{"bike_id":"b11e8456-8fe8-4b68-81d0-e056c1524131","system_id":"levelo_inurba_marseille","lat":43.286591,"lon":5.363346,"is_reserved":false,"is_disabled":false,"rental_uris":{"android":"levelo://app?vid=b11e8456-8fe8-4b68-81d0-e056c1524131","ios":"levelo://app?vid=b11e8456-8fe8-4b68-81d0-e056c1524131"},"vehicle_type_id":"4","last_reported":1717697413,"current_range_meters":16400,"station_id":"ce4bhah2rcd13ifvqej0","pricing_plan_id":"cebpf4jnsgd1na2vs0mg"},{"bike_id":"83b6eae5-dd74-4b73-9dfb-e85378b68551","system_id":"levelo_inurba_marseille","lat":43.286591,"lon":5.363346,"is_reserved":false,"is_disabled":false,"rental_uris":{"android":"levelo://app?vid=83b6eae5-dd74-4b73-9dfb-e85378b68551","ios":"levelo://app?vid=83b6eae5-dd74-4b73-9dfb-e85378b68551"},"vehicle_type_id":"4","last_reported":1717697413,"current_range_meters":0,"station_id":"ce4bhah2rcd13ifvqej0","pricing_plan_id":"cebpf4jnsgd1na2vs0mg"},{"bike_id":"b9312773-c721-4791-bc87-d56a05ecfc2b","system_id":"levelo_inurba_marseille","lat":43.298681,"lon":5.397225,"is_reserved":false,"is_disabled":false,"rental_uris":{"android":"levelo://app?vid=b9312773-c721-4791-bc87-d56a05ecfc2b","ios":"levelo://app?vid=b9312773-c721-4791-bc87-d56a05ecfc2b"},"vehicle_type_id":"4","last_reported":1717697413,"current_range_meters":25200,"station_id":"ce4bh0h2rcd13ifvqd50","pricing_plan_id":"cebpf4jnsgd1na2vs0mg"},{"bike_id":"84f7ac18-6258-4d82-b2b9-40f408ea5fbc","system_id":"levelo_inurba_marseille","lat":43.286593,"lon":5.363346,"is_reserved":false,"is_disabled":false,"rental_uris":{"android":"levelo://app?vid=84f7ac18-6258-4d82-b2b9-40f408ea5fbc","ios":"levelo://app?vid=84f7ac18-6258-4d82-b2b9-40f408ea5fbc"},"vehicle_type_id":"4","last_reported":1717697413,"current_range_meters":8400,"station_id":"ce4bhah2rcd13ifvqej0","pricing_plan_id":"cebpf4jnsgd1na2vs0mg"},{"bike_id":"fc3f91a3-fdc0-44f0-9aef-398930b9ff7e","system_id":"levelo_inurba_marseille","lat":43.286593,"lon":5.363346,"is_reserved":false,"is_disabled":false,"rental_uris":{"android":"levelo://app?vid=fc3f91a3-fdc0-44f0-9aef-398930b9ff7e","ios":"levelo://app?vid=fc3f91a3-fdc0-44f0-9aef-398930b9ff7e"},"vehicle_type_id":"4","last_reported":1717697413,"current_range_meters":8400,"station_id":"ce4bhah2rcd13ifvqej0","pricing_plan_id":"cebpf4jnsgd1na2vs0mg"},{"bike_id":"644b9821-1c44-4282-b073-1edf70497e76","system_id":"levelo_inurba_marseille","lat":43.286961,"lon":5.373785,"is_reserved":false,"is_disabled":false,"rental_uris":{"android":"levelo://app?vid=644b9821-1c44-4282-b073-1edf70497e76","ios":"levelo://app?vid=644b9821-1c44-4282-b073-1edf70497e76"},"vehicle_type_id":"4","last_reported":1717697413,"current_range_meters":0,"station_id":"ce4bh3p2rcd13ifvqdq0","pricing_plan_id":"cebpf4jnsgd1na2vs0mg"},{"bike_id":"c76f0ecf-41d5-460d-924b-a378d8fd3da5","system_id":"levelo_inurba_marseille","lat":43.286593,"lon":5.363346,"is_reserved":false,"is_disabled":false,"rental_uris":{"android":"levelo://app?vid=c76f0ecf-41d5-460d-924b-a378d8fd3da5","ios":"levelo://app?vid=c76f0ecf-41d5-460d-924b-a378d8fd3da5"},"vehicle_type_id":"4","last_reported":1717697413,"current_range_meters":26000,"station_id":"ce4bhah2rcd13ifvqej0","pricing_plan_id":"cebpf4jnsgd1na2vs0mg"},{"bike_id":"782fee3c-8a05-4e8a-927e-373e1c5e7bd2","system_id":"levelo_inurba_marseille","lat":43.286591,"lon":5.363346,"is_reserved":false,"is_disabled":false,"rental_uris":{"android":"levelo://app?vid=782fee3c-8a05-4e8a-927e-373e1c5e7bd2","ios":"levelo://app?vid=782fee3c-8a05-4e8a-927e-373e1c5e7bd2"},"vehicle_type_id":"4","last_reported":1717697413,"current_range_meters":400,"station_id":"ce4bhah2rcd13ifvqej0","pricing_plan_id":"cebpf4jnsgd1na2vs0mg"},{"bike_id":"730655db-c769-456d-91b2-57228a2a9dbc","system_id":"levelo_inurba_marseille","lat":43.286585,"lon":5.36345,"is_reserved":false,"is_disabled":false,"rental_uris":{"android":"levelo://app?vid=730655db-c769-456d-91b2-57228a2a9dbc","ios":"levelo://app?vid=730655db-c769-456d-91b2-57228a2a9dbc"},"vehicle_type_id":"4","last_reported":1717697413,"current_range_meters":0,"station_id":"ce4bhah2rcd13ifvqej0","pricing_plan_id":"cebpf4jnsgd1na2vs0mg"},{"bike_id":"40b78b25-32e4-4e49-a838-ed53b15200fd","system_id":"levelo_inurba_marseille","lat":43.286591,"lon":5.363346,"is_reserved":false,"is_disabled":false,"rental_uris":{"android":"levelo://app?vid=40b78b25-32e4-4e49-a838-ed53b15200fd","ios":"levelo://app?vid=40b78b25-32e4-4e49-a838-ed53b15200fd"},"vehicle_type_id":"4","last_reported":1717697413,"current_range_meters":2000,"station_id":"ce4bhah2rcd13ifvqej0","pricing_plan_id":"cebpf4jnsgd1na2vs0mg"},{"bike_id":"ef1daac4-ae85-4d96-be9a-c1e4d9f66529","system_id":"levelo_inurba_marseille","lat":43.286961,"lon":5.373785,"is_reserved":false,"is_disabled":false,"rental_uris":{"android":"levelo://app?vid=ef1daac4-ae85-4d96-be9a-c1e4d9f66529","ios":"levelo://app?vid=ef1daac4-ae85-4d96-be9a-c1e4d9f66529"},"vehicle_type_id":"4","last_reported":1717697413,"current_range_meters":400,"station_id":"ce4bh3p2rcd13ifvqdq0","pricing_plan_id":"cebpf4jnsgd1na2vs0mg"},{"bike_id":"5150cb3b-0be1-445a-9aed-798b710b1d7f","system_id":"levelo_inurba_marseille","lat":43.28654,"lon":5.363477,"is_reserved":false,"is_disabled":false,"rental_uris":{"android":"levelo://app?vid=5150cb3b-0be1-445a-9aed-798b710b1d7f","ios":"levelo://app?vid=5150cb3b-0be1-445a-9aed-798b710b1d7f"},"vehicle_type_id":"4","last_reported":1717697413,"current_range_meters":0,"station_id":"ce4bhah2rcd13ifvqej0","pricing_plan_id":"cebpf4jnsgd1na2vs0mg"},{"bike_id":"0110f4c0-cb49-468a-be80-d30db7ddbb56","system_id":"levelo_inurba_marseille","lat":43.295196,"lon":5.39397,"is_reserved":false,"is_disabled":false,"rental_uris":{"android":"levelo://app?vid=0110f4c0-cb49-468a-be80-d30db7ddbb56","ios":"levelo://app?vid=0110f4c0-cb49-468a-be80-d30db7ddbb56"},"vehicle_type_id":"4","last_reported":1717697413,"current_range_meters":8800,"station_id":"ce4bh292rcd13ifvqdf0","pricing_plan_id":"cebpf4jnsgd1na2vs0mg"},{"bike_id":"9a09ec49-011b-4eeb-a0f5-bed93b0d9729","system_id":"levelo_inurba_marseille","lat":43.295196,"lon":5.39397,"is_reserved":false,"is_disabled":false,"rental_uris":{"android":"levelo://app?vid=9a09ec49-011b-4eeb-a0f5-bed93b0d9729","ios":"levelo://app?vid=9a09ec49-011b-4eeb-a0f5-bed93b0d9729"},"vehicle_type_id":"4","last_reported":1717697413,"current_range_meters":7600,"station_id":"ce4bh292rcd13ifvqdf0","pricing_plan_id":"cebpf4jnsgd1na2vs0mg"},{"bike_id":"69829a07-3bcf-400a-98d1-b000a84d4e25","system_id":"levelo_inurba_marseille","lat":43.295196,"lon":5.39397,"is_reserved":false,"is_disabled":false,"rental_uris":{"android":"levelo://app?vid=69829a07-3bcf-400a-98d1-b000a84d4e25","ios":"levelo://app?vid=69829a07-3bcf-400a-98d1-b000a84d4e25"},"vehicle_type_id":"4","last_reported":1717697413,"current_range_meters":1200,"station_id":"ce4bh292rcd13ifvqdf0","pricing_plan_id":"cebpf4jnsgd1na2vs0mg"},{"bike_id":"c3591da3-3136-4c93-a2ef-e4f97e448ef2","system_id":"levelo_inurba_marseille","lat":43.295196,"lon":5.39397,"is_reserved":false,"is_disabled":false,"rental_uris":{"android":"levelo://app?vid=c3591da3-3136-4c93-a2ef-e4f97e448ef2","ios":"levelo://app?vid=c3591da3-3136-4c93-a2ef-e4f97e448ef2"},"vehicle_type_id":"4","last_reported":1717697413,"current_range_meters":0,"station_id":"ce4bh292rcd13ifvqdf0","pricing_plan_id":"cebpf4jnsgd1na2vs0mg"},{"bike_id":"432555b6-9dfd-4487-bd36-5aa48c849437","system_id":"levelo_inurba_marseille","lat":43.289307,"lon":5.38406,"is_reserved":false,"is_disabled":false,"rental_uris":{"android":"levelo://app?vid=432555b6-9dfd-4487-bd36-5aa48c849437","ios":"levelo://app?vid=432555b6-9dfd-4487-bd36-5aa48c849437"},"vehicle_type_id":"4","last_reported":1717697413,"current_range_meters":28800,"station_id":"ce4bh612rcd13ifvqe6g","pricing_plan_id":"cebpf4jnsgd1na2vs0mg"},{"bike_id":"35195e70-04d5-4073-9666-aa204a5dd3c9","system_id":"levelo_inurba_marseille","lat":43.290345,"lon":5.38646,"is_reserved":false,"is_disabled":false,"rental_uris":{"android":"levelo://app?vid=35195e70-04d5-4073-9666-aa204a5dd3c9","ios":"levelo://app?vid=35195e70-04d5-4073-9666-aa204a5dd3c9"},"vehicle_type_id":"4","last_reported":1717697413,"current_range_meters":4400,"station_id":"ce4bh4p2rcd13ifvqe0g","pricing_plan_id":"cebpf4jnsgd1na2vs0mg"},{"bike_id":"2ee17ac2-a8e9-49ca-9093-411c8604b5cb","system_id":"levelo_inurba_marseille","lat":43.290336,"lon":5.386425,"is_reserved":false,"is_disabled":false,"rental_uris":{"android":"levelo://app?vid=2ee17ac2-a8e9-49ca-9093-411c8604b5cb","ios":"levelo://app?vid=2ee17ac2-a8e9-49ca-9093-411c8604b5cb"},"vehicle_type_id":"4","last_reported":1717697413,"current_range_meters":18400,"station_id":"ce4bh4p2rcd13ifvqe0g","pricing_plan_id":"cebpf4jnsgd1na2vs0mg"},{"bike_id":"89b21abb-0bd5-4572-bf53-0734f10f515d","system_id":"levelo_inurba_marseille","lat":43.302354,"lon":5.400496,"is_reserved":false,"is_disabled":false,"rental_uris":{"android":"levelo://app?vid=89b21abb-0bd5-4572-bf53-0734f10f515d","ios":"levelo://app?vid=89b21abb-0bd5-4572-bf53-0734f10f515d"},"vehicle_type_id":"4","last_reported":1717697413,"current_range_meters":0,"station_id":"ce4bgvh2rcd13ifvqcs0","pricing_plan_id":"cebpf4jnsgd1na2vs0mg"},