{"last_updated":1739387271,"ttl":60,"version":"2.2","data":{"bikes":[{"bike_id":"9ae4959d-6de9-4c98-bb63-3a430a52595d","system_id":"levelo_inurba_marseille","lat":43.31329,"lon":5.3674,"is_reserved":false,"is_disabled":false,"rental_uris":{"android":"levelo://app?vid=9ae4959d-6de9-4c98-bb63-3a430a52595d","ios":"levelo://app?vid=9ae4959d-6de9-4c98-bb63-3a430a52595d"},"vehicle_type_id":"4","last_reported":1739387271,"current_range_meters":16400,"station_id":"ce4bgr92rcd13ifvqc6g","pricing_plan_id":"cebpf4jnsgd1na2vs0mg"},{"bike_id":"289ba408-0ff9-43d7-b093-e374a42c046c","system_id":"levelo_inurba_marseille","lat":43.28938,"lon":5.3639,"is_reserved":false,"is_disabled":false,"rental_uris":{"android":"levelo://app?vid=289ba408-0ff9-43d7-b093-e374a42c046c","ios":"levelo://app?vid=289ba408-0ff9-43d7-b093-e374a42c046c"},"vehicle_type_id":"4","last_reported":1739387271,"current_range_meters":36800,"station_id":"ce4bhc92rcd13ifvqetg","pricing_plan_id":"cebpf4jnsgd1na2vs0mg"},{"bike_id":"7803dd1a-a242-4883-848b-e4cbfccf197b","system_id":"levelo_inurba_marseille","lat":43.31402,"lon":5.36678,"is_reserved":false,"is_disabled":false,"rental_uris":{"android":"levelo://app?vid=7803dd1a-a242-4883-848b-e4cbfccf197b","ios":"levelo://app?vid=7803dd1a-a242-4883-848b-e4cbfccf197b"},"vehicle_type_id":"4","last_reported":1739387271,"current_range_meters":8000,"station_id":"","pricing_plan_id":"cebpf4jnsgd1na2vs0mg"},{"bike_id":"4bae22a6-0478-41d7-8bc5-8503fa4f5e94","system_id":"levelo_inurba_marseille","lat":43.2407,"lon":5.37764,"is_reserved":false,"is_disabled":false,"rental_uris":{"android":"levelo://app?vid=4bae22a6-0478-41d7-8bc5-8503fa4f5e94","ios":"levelo://app?vid=4bae22a6-0478-41d7-8bc5-8503fa4f5e94"},"vehicle_type_id":"4","last_reported":1739387271,"current_range_meters":12000,"station_id":"ce4bhnp2rcd13ifvqgvg","pricing_plan_id":"cebpf4jnsgd1na2vs0mg"},{"bike_id":"9c9e6dfa-122e-4154-8057-4016db8e7671","system_id":"levelo_inurba_marseille","lat":43.3373,"lon":5.3919,"is_reserved":false,"is_disabled":false,"rental_uris":{"android":"levelo://app?vid=9c9e6dfa-122e-4154-8057-4016db8e7671","ios":"levelo://app?vid=9c9e6dfa-122e-4154-8057-4016db8e7671"},"vehicle_type_id":"4","last_reported":1739387271,"current_range_meters":38800,"station_id":"ce4bhr92rcd13ifvqhsg","pricing_plan_id":"cebpf4jnsgd1na2vs0mg"},{"bike_id":"48ef06aa-2a92-4f3b-b3de-27c891174e95","system_id":"levelo_inurba_marseille","lat":43.3043,"lon":5.38878,"is_reserved":false,"is_disabled":false,"rental_uris":{"android":"levelo://app?vid=48ef06aa-2a92-4f3b-b3de-27c891174e95","ios":"levelo://app?vid=48ef06aa-2a92-4f3b-b3de-27c891174e95"},"vehicle_type_id":"4","last_reported":1739387271,"current_range_meters":30800,"station_id":"ce4bgk12rcd13ifvqbi0","pricing_plan_id":"cebpf4jnsgd1na2vs0mg"},{"bike_id":"1d4165b9-e8af-42e7-8e88-54a0f84b4f26","system_id":"levelo_inurba_marseille","lat":43.23186,"lon":5.3998,"is_reserved":false,"is_disabled":false,"rental_uris":{"android":"levelo://app?vid=1d4165b9-e8af-42e7-8e88-54a0f84b4f26","ios":"levelo://app?vid=1d4165b9-e8af-42e7-8e88-54a0f84b4f26"},"vehicle_type_id":"4","last_reported":1739387271,"current_range_meters":37600,"station_id":"ce4bhn12rcd13ifvqgqg","pricing_plan_id":"cebpf4jnsgd1na2vs0mg"},{"bike_id":"f6ef4f9a-c914-4d4b-a06e-00485b64285e","system_id":"levelo_inurba_marseille","lat":43.3248,"lon":5.36564,"is_reserved":false,"is_disabled":false,"rental_uris":{"android":"levelo://app?vid=f6ef4f9a-c914-4d4b-a06e-00485b64285e","ios":"levelo://app?vid=f6ef4f9a-c914-4d4b-a06e-00485b64285e"},"vehicle_type_id":"4","last_reported":1739387271,"current_range_meters":38800,"station_id":"ce4bhs12rcd13ifvqhvg","pricing_plan_id":"cebpf4jnsgd1na2vs0mg"},{"bike_id":"c44dd7c1-e327-4d8d-925f-25b53b083ec1","system_id":"levelo_inurba_marseille","lat":43.3013,"lon":5.39879,"is_reserved":false,"is_disabled":false,"rental_uris":{"android":"levelo://app?vid=c44dd7c1-e327-4d8d-925f-25b53b083ec1","ios":"levelo://app?vid=c44dd7c1-e327-4d8d-925f-25b53b083ec1"},"vehicle_type_id":"4","last_reported":1739387271,"current_range_meters":26800,"station_id":"ce4bh0h2rcd13ifvqd40","pricing_plan_id":"cebpf4jnsgd1na2vs0mg"},{"bike_id":"9a810e7f-f4d3-4692-9027-c552af7c0f96","system_id":"levelo_inurba_marseille","lat":43.2903,"lon":5.35919,"is_reserved":false,"is_disabled":true,"rental_uris":{"android":"levelo://app?vid=9a810e7f-f4d3-4692-9027-c552af7c0f96","ios":"levelo://app?vid=9a810e7f-f4d3-4692-9027-c552af7c0f96"},"vehicle_type_id":"4","last_reported":1739387271,"current_range_meters":37600,"station_id":"ce4bha92rcd13ifvqeg0","pricing_plan_id":"cebpf4jnsgd1na2vs0mg"},{"bike_id":"4c4891db-fb43-4fcc-aed3-6542b2bf0dbf","system_id":"levelo_inurba_marseille","lat":43.27448,"lon":5.41045,"is_reserved":false,"is_disabled":false,"rental_uris":{"android":"levelo://app?vid=4c4891db-fb43-4fcc-aed3-6542b2bf0dbf","ios":"levelo://app?vid=4c4891db-fb43-4fcc-aed3-6542b2bf0dbf"},"vehicle_type_id":"4","last_reported":1739387271,"current_range_meters":29600,"station_id":"","pricing_plan_id":"cebpf4jnsgd1na2vs0mg"},{"bike_id":"8390feee-0735-4b8f-90c8-f81c741ca7d5","system_id":"levelo_inurba_marseille","lat":43.24803,"lon":5.37459,"is_reserved":false,"is_disabled":true,"rental_uris":{"android":"levelo://app?vid=8390feee-0735-4b8f-90c8-f81c741ca7d5","ios":"levelo://app?vid=8390feee-0735-4b8f-90c8-f81c741ca7d5"},"vehicle_type_id":"4","last_reported":1739387271,"current_range_meters":400,"station_id":"ce4bhgh2rcd13ifvqfb0","pricing_plan_id":"cebpf4jnsgd1na2vs0mg"},{"bike_id":"0e32f314-de1c-43d6-9735-aad0bdcd1c6f","system_id":"levelo_inurba_marseille","lat":43.28608,"lon":5.35101,"is_reserved":false,"is_disabled":false,"rental_uris":{"android":"levelo://app?vid=0e32f314-de1c-43d6-9735-aad0bdcd1c6f","ios":"levelo://app?vid=0e32f314-de1c-43d6-9735-aad0bdcd1c6f"},"vehicle_type_id":"4","last_reported":1739387271,"current_range_meters":39200,"station_id":"ce4bhch2rcd13ifvqeug","pricing_plan_id":"cebpf4jnsgd1na2vs0mg"},{"bike_id":"9e4564f0-0519-46c9-beea-73f529a3ce6a","system_id":"levelo_inurba_marseille","lat":43.24797,"lon":5.37442,"is_reserved":false,"is_disabled":false,"rental_uris":{"android":"levelo://app?vid=9e4564f0-0519-46c9-beea-73f529a3ce6a","ios":"levelo://app?vid=9e4564f0-0519-46c9-beea-73f529a3ce6a"},"vehicle_type_id":"4","last_reported":1739387271,"current_range_meters":27600,"station_id":"ce4bhgh2rcd13ifvqfb0","pricing_plan_id":"cebpf4jnsgd1na2vs0mg"},{"bike_id":"0250aca6-c9a4-4915-b4e4-9b6ef95dcbd9","system_id":"levelo_inurba_marseille","lat":43.30478,"lon":5.37888,"is_reserved":false,"is_disabled":true,"rental_uris":{"android":"levelo://app?vid=0250aca6-c9a4-4915-b4e4-9b6ef95dcbd9","ios":"levelo://app?vid=0250aca6-c9a4-4915-b4e4-9b6ef95dcbd9"},"vehicle_type_id":"4","last_reported":1739387271,"current_range_meters":0,"station_id":"ce4bgup2rcd13ifvqcn0","pricing_plan_id":"cebpf4jnsgd1na2vs0mg"},{"bike_id":"d337aa82-d93f-459b-9b0e-9817b976a831","system_id":"levelo_inurba_marseille","lat":43.29772,"lon":5.37107,"is_reserved":false,"is_disabled":false,"rental_uris":{"android":"levelo://app?vid=d337aa82-d93f-459b-9b0e-9817b976a831","ios":"levelo://app?vid=d337aa82-d93f-459b-9b0e-9817b976a831"},"vehicle_type_id":"4","last_reported":1739387271,"current_range_meters":33200,"station_id":"ce4bgop2rcd13ifvqc1g","pricing_plan_id":"cebpf4jnsgd1na2vs0mg"},{"bike_id":"d61f1a82-a9af-4cb4-b60e-a1bdf8706c13","system_id":"levelo_inurba_marseille","lat":43.27825,"lon":5.40702,"is_reserved":false,"is_disabled":false,"rental_uris":{"android":"levelo://app?vid=d61f1a82-a9af-4cb4-b60e-a1bdf8706c13","ios":"levelo://app?vid=d61f1a82-a9af-4cb4-b60e-a1bdf8706c13"},"vehicle_type_id":"4","last_reported":1739387271,"current_range_meters":38800,"station_id":"ce4bhnh2rcd13ifvqgtg","pricing_plan_id":"cebpf4jnsgd1na2vs0mg"},{"bike_id":"c7a03dd1-062a-48ea-bdf1-9620a7ebade3","system_id":"levelo_inurba_marseille","lat":43.29363,"lon":5.37846,"is_reserved":false,"is_disabled":true,"rental_uris":{"android":"levelo://app?vid=c7a03dd1-062a-48ea-bdf1-9620a7ebade3","ios":"levelo://app?vid=c7a03dd1-062a-48ea-bdf1-9620a7ebade3"},"vehicle_type_id":"4","last_reported":1739387271,"current_range_meters":0,"station_id":"ce4bgjh2rcd13ifvqbf0","pricing_plan_id":"cebpf4jnsgd1na2vs0mg"},{"bike_id":"3fe09371-13d4-45d1-9e85-31fdc87dd0ba","system_id":"levelo_inurba_marseille","lat":43.29417,"lon":5.38618,"is_reserved":false,"is_disabled":false,"rental_uris":{"android":"levelo://app?vid=3fe09371-13d4-45d1-9e85-31fdc87dd0ba","ios":"levelo://app?vid=3fe09371-13d4-45d1-9e85-31fdc87dd0ba"},"vehicle_type_id":"4","last_reported":1739387271,"current_range_meters":38800,"station_id":"ce4bh2h2rcd13ifvqdh0","pricing_plan_id":"cebpf4jnsgd1na2vs0mg"},{"bike_id":"bc7a3ba4-aead-4b63-9723-05293515c547","system_id":"levelo_inurba_marseille","lat":43.303,"lon":5.39194,"is_reserved":false,"is_disabled":false,"rental_uris":{"android":"levelo://app?vid=bc7a3ba4-aead-4b63-9723-05293515c547","ios":"levelo://app?vid=bc7a3ba4-aead-4b63-9723-05293515c547"},"vehicle_type_id":"4","last_reported":1739387271,"current_range_meters":19200,"station_id":"ce4bgkh2rcd13ifvqbk0","pricing_plan_id":"cebpf4jnsgd1na2vs0mg"},{"bike_id":"224dce56-c44e-4b91-bb45-919ca8990be5","system_id":"levelo_inurba_marseille","lat":43.29074,"lon":5.35871,"is_reserved":false,"is_disabled":false,"rental_uris":{"android":"levelo://app?vid=224dce56-c44e-4b91-bb45-919ca8990be5","ios":"levelo://app?vid=224dce56-c44e-4b91-bb45-919ca8990be5"},"vehicle_type_id":"4","last_reported":1739387271,"current_range_meters":39200,"station_id":"ce4bha92rcd13ifvqeg0","pricing_plan_id":"cebpf4jnsgd1na2vs0mg"},{"bike_id":"9ddb6339-9b09-4642-9873-f8048fbc6d76","system_id":"levelo_inurba_marseille","lat":43.26908,"lon":5.40208,"is_reserved":false,"is_disabled":false,"rental_uris":{"android":"levelo://app?vid=9ddb6339-9b09-4642-9873-f8048fbc6d76","ios":"levelo://app?vid=9ddb6339-9b09-4642-9873-f8048fbc6d76"},"vehicle_type_id":"4","last_reported":1739387271,"current_range_meters":28800,"station_id":"","pricing_plan_id":"cebpf4jnsgd1na2vs0mg"},{"bike_id":"26c79ef5-6f5f-49d9-b4aa-17fb6a7df4bb","system_id":"levelo_inurba_marseille","lat":43.29848,"lon":5.36279,"is_reserved":false,"is_disabled":false,"rental_uris":{"android":"levelo://app?vid=26c79ef5-6f5f-49d9-b4aa-17fb6a7df4bb","ios":"levelo://app?vid=26c79ef5-6f5f-49d9-b4aa-17fb6a7df4bb"},"vehicle_type_id":"4","last_reported":1739387271,"current_range_meters":38800,"station_id":"ce4bgpp2rcd13ifvqc3g","pricing_plan_id":"cebpf4jnsgd1na2vs0mg"},{"bike_id":"39e55a90-fe76-4904-bf9c-9841fe168f13","system_id":"levelo_inurba_marseille","lat":43.33746,"lon":5.39188,"is_reserved":false,"is_disabled":false,"rental_uris":{"android":"levelo://app?vid=39e55a90-fe76-4904-bf9c-9841fe168f13","ios":"levelo://app?vid=39e55a90-fe76-4904-bf9c-9841fe168f13"},"vehicle_type_id":"4","last_reported":1739387271,"current_range_meters":38800,"station_id":"ce4bhr92rcd13ifvqhsg","pricing_plan_id":"cebpf4jnsgd1na2vs0mg"},{"bike_id":"55d5fe6e-acdf-45aa-91a9-82470ed5363e","system_id":"levelo_inurba_marseille","lat":43.30174,"lon":5.36644,"is_reserved":false,"is_disabled":false,"rental_uris":{"android":"levelo://app?vid=55d5fe6e-acdf-45aa-91a9-82470ed5363e","ios":"levelo://app?vid=55d5fe6e-acdf-45aa-91a9-82470ed5363e"},"vehicle_type_id":"4","last_reported":1739387271,"current_range_meters":8800,"station_id":"ce4bgrh2rcd13ifvqc8g","pricing_plan_id":"cebpf4jnsgd1na2vs0mg"},{"bike_id":"ad55ee2a-2b36-44bf-9bea-ebb16c51c77b","system_id":"levelo_inurba_marseille","lat":43.27371,"lon":5.3626,"is_reserved":false,"is_disabled":false,"rental_uris":{"android":"levelo://app?vid=ad55ee2a-2b36-44bf-9bea-ebb16c51c77b","ios":"levelo://app?vid=ad55ee2a-2b36-44bf-9bea-ebb16c51c77b"},"vehicle_type_id":"4","last_reported":1739387271,"current_range_meters":21600,"station_id":"ce4bhbh2rcd13ifvqeo0","pricing_plan_id":"cebpf4jnsgd1na2vs0mg"},{"bike_id":"872b3a49-c0d9-4184-97f1-a5ff19d6e142","system_id":"levelo_inurba_marseille","lat":43.313381,"lon":5.367099,"is_reserved":false,"is_disabled":false,"rental_uris":{"android":"levelo://app?vid=872b3a49-c0d9-4184-97f1-a5ff19d6e142","ios":"levelo://app?vid=872b3a49-c0d9-4184-97f1-a5ff19d6e142"},"vehicle_type_id":"4","last_reported":1739387271,"current_range_meters":28800,"station_id":"ce4bhs12rcd13ifvqhvg","pricing_plan_id":"cebpf4jnsgd1na2vs0mg"},{"bike_id":"beaf99d0-78ae-4346-9234-eab9e30e97c5","system_id":"levelo_inurba_marseille","lat":43.34142,"lon":5.40903,"is_reserved":false,"is_disabled":false,"rental_uris":{"android":"levelo://app?vid=beaf99d0-78ae-4346-9234-eab9e30e97c5","ios":"levelo://app?vid=beaf99d0-78ae-4346-9234-eab9e30e97c5"},"vehicle_type_id":"4","last_reported":1739387271,"current_range_meters":20400,"station_id":"ce4bhqh2rcd13ifvqhlg","pricing_plan_id":"cebpf4jnsgd1na2vs0mg"},{"bike_id":"44adc2ef-856d-479f-a888-6f531d65f1f2","system_id":"levelo_inurba_marseille","lat":43.282665,"lon":5.350685,"is_reserved":false,"is_disabled":false,"rental_uris":{"android":"levelo://app?vid=44adc2ef-856d-479f-a888-6f531d65f1f2","ios":"levelo://app?vid=44adc2ef-856d-479f-a888-6f531d65f1f2"},"vehicle_type_id":"4","last_reported":1739387271,"current_range_meters":24400,"station_id":"ce4bhbp2rcd13ifvqerg","pricing_plan_id":"cebpf4jnsgd1na2vs0mg"},{"bike_id":"b737ae82-c86e-4ede-80b2-31fc6f755e14","system_id":"levelo_inurba_marseille","lat":43.28886,"lon":5.39364,"is_reserved":false,"is_disabled":true,"rental_uris":{"android":"levelo://app?vid=b737ae82-c86e-4ede-80b2-31fc6f755e14","ios":"levelo://app?vid=b737ae82-c86e-4ede-80b2-31fc6f755e14"},"vehicle_type_id":"4","last_reported":1739387271,"current_range_meters":38400,"station_id":"","pricing_plan_id":"cebpf4jnsgd1na2vs0mg"},{"bike_id":"3cc59ce1-3d80-492e-a407-846478fb8588","system_id":"levelo_inurba_marseille","lat":43.29852,"lon":5.36291,"is_reserved":false,"is_disabled":false,"rental_uris":{"android":"levelo://app?vid=3cc59ce1-3d80-492e-a407-846478fb8588","ios":"levelo://app?vid=3cc59ce1-3d80-492e-a407-846478fb8588"},"vehicle_type_id":"4","last_reported":1739387271,"current_range_meters":30800,"station_id":"ce4bgpp2rcd13ifvqc3g","pricing_plan_id":"cebpf4jnsgd1na2vs0mg"},{"bike_id":"20cff2ea-df40-43e9-9e60-e9c41ce0ec64","system_id":"levelo_inurba_marseille","lat":43.22933,"lon":5.44955,"is_reserved":false,"is_disabled":false,"rental_uris":{"android":"levelo://app?vid=20cff2ea-df40-43e9-9e60-e9c41ce0ec64","ios":"levelo://app?vid=20cff2ea-df40-43e9-9e60-e9c41ce0ec64"},"vehicle_type_id":"4","last_reported":1739387271,"current_range_meters":38800,"station_id":"ce4bhmp2rcd13ifvqgog","pricing_plan_id":"cebpf4jnsgd1na2vs0mg"},{"bike_id":"55fa0fd1-4793-4372-94cc-c9ee5bd4ca87","system_id":"levelo_inurba_marseille","lat":43.2866,"lon":5.3867,"is_reserved":false,"is_disabled":true,"rental_uris":{"android":"levelo://app?vid=55fa0fd1-4793-4372-94cc-c9ee5bd4ca87","ios":"levelo://app?vid=55fa0fd1-4793-4372-94cc-c9ee5bd4ca87"},"vehicle_type_id":"4","last_reported":1739387271,"current_range_meters":36400,"station_id":"ce4bh492rcd13ifvqdug","pricing_plan_id":"cebpf4jnsgd1na2vs0mg"},{"bike_id":"9b8365a8-8e05-4ff5-9058-11c7ff73fba5","system_id":"levelo_inurba_marseille","lat":43.27614,"lon":5.361,"is_reserved":false,"is_disabled":false,"rental_uris":{"android":"levelo://app?vid=9b8365a8-8e05-4ff5-9058-11c7ff73fba5","ios":"levelo://app?vid=9b8365a8-8e05-4ff5-9058-11c7ff73fba5"},"vehicle_type_id":"4","last_reported":1739387271,"current_range_meters":38800,"station_id":"ce4bgj92rcd13ifvqbe0","pricing_plan_id":"cebpf4jnsgd1na2vs0mg"},{"bike_id":"22ff1dad-02eb-4e0d-a41d-94815f9a4df0","system_id":"levelo_inurba_marseille","lat":43.27498,"lon":5.42453,"is_reserved":false,"is_disabled":false,"rental_uris":{"android":"levelo://app?vid=22ff1dad-02eb-4e0d-a41d-94815f9a4df0","ios":"levelo://app?vid=22ff1dad-02eb-4e0d-a41d-94815f9a4df0"},"vehicle_type_id":"4","last_reported":1739387271,"current_range_meters":38800,"station_id":"ce4bhn92rcd13ifvqgrg","pricing_plan_id":"cebpf4jnsgd1na2vs0mg"},{"bike_id":"679b51a7-0864-4c79-a75b-8b937ab8b8fc","system_id":"levelo_inurba_marseille","lat":43.24541,"lon":5.39518,"is_reserved":false,"is_disabled":false,"rental_uris":{"android":"levelo://app?vid=679b51a7-0864-4c79-a75b-8b937ab8b8fc","ios":"levelo://app?vid=679b51a7-0864-4c79-a75b-8b937ab8b8fc"},"vehicle_type_id":"4","last_reported":1739387271,"current_range_meters":35600,"station_id":"ce4bhlp2rcd13ifvqgjg","pricing_plan_id":"cebpf4jnsgd1na2vs0mg"},{"bike_id":"d2090b16-1da9-4170-8973-962616ace04b","system_id":"levelo_inurba_marseille","lat":43.28446,"lon":5.39175,"is_reserved":false,"is_disabled":true,"rental_uris":{"android":"levelo://app?vid=d2090b16-1da9-4170-8973-962616ace04b","ios":"levelo://app?vid=d2090b16-1da9-4170-8973-962616ace04b"},"vehicle_type_id":"4","last_reported":1739387271,"current_range_meters":30000,"station_id":"ce4bhoh2rcd13ifvqh5g","pricing_plan_id":"cebpf4jnsgd1na2vs0mg"},{"bike_id":"6c956ae1-e540-4fc7-9455-5729ac7f892e","system_id":"levelo_inurba_marseille","lat":43.29837,"lon":5.36237,"is_reserved":false,"is_disabled":false,"rental_uris":{"android":"levelo://app?vid=6c956ae1-e540-4fc7-9455-5729ac7f892e","ios":"levelo://app?vid=6c956ae1-e540-4fc7-9455-5729ac7f892e"},"vehicle_type_id":"4","last_reported":1739387271,"current_range_meters":17600,"station_id":"ce4bgpp2rcd13ifvqc3g","pricing_plan_id":"cebpf4jnsgd1na2vs0mg"},{"bike_id":"3425a89b-f60c-4d0e-aca5-29bd2e04eccc","system_id":"levelo_inurba_marseille","lat":43.28944,"lon":5.36626,"is_reserved":false,"is_disabled":false,"rental_uris":{"android":"levelo://app?vid=3425a89b-f60c-4d0e-aca5-29bd2e04eccc","ios":"levelo://app?vid=3425a89b-f60c-4d0e-aca5-29bd2e04eccc"},"vehicle_type_id":"4","last_reported":1739387271,"current_range_meters":27600,"station_id":"ce4bhap2rcd13ifvqek0","pricing_plan_id":"cebpf4jnsgd1na2vs0mg"},{"bike_id":"4b674fed-a680-4df3-ab7b-271cc22686ae","system_id":"levelo_inurba_marseille","lat":43.30388,"lon":5.409,"is_reserved":false,"is_disabled":false,"rental_uris":{"android":"levelo://app?vid=4b674fed-a680-4df3-ab7b-271cc22686ae","ios":"levelo://app?vid=4b674fed-a680-4df3-ab7b-271cc22686ae"},"vehicle_type_id":"4","last_reported":1739387271,"current_range_meters":38800,"station_id":"","pricing_plan_id":"cebpf4jnsgd1na2vs0mg"},{"bike_id":"5f9c4120-4fe0-44f9-a026-7f3560f8eb97","system_id":"levelo_inurba_marseille","lat":43.260648,"lon":5.394014,"is_reserved":false,"is_disabled":false,"rental_uris":{"android":"levelo://app?vid=5f9c4120-4fe0-44f9-a026-7f3560f8eb97","ios":"levelo://app?vid=5f9c4120-4fe0-44f9-a026-7f3560f8eb97"},"vehicle_type_id":"4","last_reported":1739387271,"current_range_meters":33600,"station_id":"ce4bhh92rcd13ifvqfj0","pricing_plan_id":"cebpf4jnsgd1na2vs0mg"},{"bike_id":"ccdae001-9573-4b87-92dd-6c043d86e6c5","system_id":"levelo_inurba_marseille","lat":43.31274,"lon":5.40165,"is_reserved":false,"is_disabled":false,"rental_uris":{"android":"levelo://app?vid=ccdae001-9573-4b87-92dd-6c043d86e6c5","ios":"levelo://app?vid=ccdae001-9573-4b87-92dd-6c043d86e6c5"},"vehicle_type_id":"4","last_reported":1739387271,"current_range_meters":38400,"station_id":"ce4bh092rcd13ifvqd30","pricing_plan_id":"cebpf4jnsgd1na2vs0mg"},{"bike_id":"704ec19d-e7c0-4858-a423-dcfa560220a5","system_id":"levelo_inurba_marseille","lat":43.2319,"lon":5.39973,"is_reserved":false,"is_disabled":false,"rental_uris":{"android":"levelo://app?vid=704ec19d-e7c0-4858-a423-dcfa560220a5","ios":"levelo://app?vid=704ec19d-e7c0-4858-a423-dcfa560220a5"},"vehicle_type_id":"4","last_reported":1739387271,"current_range_meters":38400,"station_id":"ce4bhn12rcd13ifvqgqg","pricing_plan_id":"cebpf4jnsgd1na2vs0mg"},{"bike_id":"60a318b6-c559-45ca-a25b-4d207cb0682f","system_id":"levelo_inurba_marseille","lat":43.26684,"lon":5.38264,"is_reserved":false,"is_disabled":false,"rental_uris":{"android":"levelo://app?vid=60a318b6-c559-45ca-a25b-4d207cb0682f","ios":"levelo://app?vid=60a318b6-c559-45ca-a25b-4d207cb0682f"},"vehicle_type_id":"4","last_reported":1739387271,"current_range_meters":38000,"station_id":"ce4bhg92rcd13ifvqf90","pricing_plan_id":"cebpf4jnsgd1na2vs0mg"},{"bike_id":"987e3a08-2722-4292-9497-92ee0562bc9c","system_id":"levelo_inurba_marseille","lat":43.26562,"lon":5.39011,"is_reserved":false,"is_disabled":false,"rental_uris":{"android":"levelo://app?vid=987e3a08-2722-4292-9497-92ee0562bc9c","ios":"levelo://app?vid=987e3a08-2722-4292-9497-92ee0562bc9c"},"vehicle_type_id":"4","last_reported":1739387271,"current_range_meters":4400,"station_id":"ce4bhe12rcd13ifvqf30","pricing_plan_id":"cebpf4jnsgd1na2vs0mg"},{"bike_id":"86cfd06f-02cd-4001-93da-96ca6f47fb44","system_id":"levelo_inurba_marseille","lat":43.26941,"lon":5.40249,"is_reserved":false,"is_disabled":false,"rental_uris":{"android":"levelo://app?vid=86cfd06f-02cd-4001-93da-96ca6f47fb44","ios":"levelo://app?vid=86cfd06f-02cd-4001-93da-96ca6f47fb44"},"vehicle_type_id":"4","last_reported":1739387271,"current_range_meters":24000,"station_id":"cjm6bp8fraef2m0cb0m0","pricing_plan_id":"cebpf4jnsgd1na2vs0mg"},{"bike_id":"f1ccd15c-b1d0-4ef5-a5ca-4e280c065445","system_id":"levelo_inurba_marseille","lat":43.31371,"lon":5.38492,"is_reserved":false,"is_disabled":false,"rental_uris":{"android":"levelo://app?vid=f1ccd15c-b1d0-4ef5-a5ca-4e280c065445","ios":"levelo://app?vid=f1ccd15c-b1d0-4ef5-a5ca-4e280c065445"},"vehicle_type_id":"4","last_reported":1739387271,"current_range_meters":39200,"station_id":"ce4bgt92rcd13ifvqcf0","pricing_plan_id":"cebpf4jnsgd1na2vs0mg"},{"bike_id":"e4ca7d71-dbbb-4a96-b462-a74ecad575e3","system_id":"levelo_inurba_marseille","lat":43.27493,"lon":5.42446,"is_reserved":false,"is_disabled":false,"rental_uris":{"android":"levelo://app?vid=e4ca7d71-dbbb-4a96-b462-a74ecad575e3","ios":"levelo://app?vid=e4ca7d71-dbbb-4a96-b462-a74ecad575e3"},"vehicle_type_id":"4","last_reported":1739387271,"current_range_meters":38800,"station_id":"ce4bhn92rcd13ifvqgrg","pricing_plan_id":"cebpf4jnsgd1na2vs0mg"},{"bike_id":"9bfec713-a5ab-4691-8227-26a39818309a","system_id":"levelo_inurba_marseille","lat":43.29724,"lon":5.36603,"is_reserved":false,"is_disabled":false,"rental_uris":{"android":"levelo://app?vid=9bfec713-a5ab-4691-8227-26a39818309a","ios":"levelo://app?vid=9bfec713-a5ab-4691-8227-26a39818309a"},"vehicle_type_id":"4","last_reported":1739387271,"current_range_meters":36400,"station_id":"ce4bgn12rcd13ifvqbt0","pricing_plan_id":"cebpf4jnsgd1na2vs0mg"},{"bike_id":"f61f0289-db11-4f78-af36-f70fd4404161","system_id":"levelo_inurba_marseille","lat":43.290051,"lon":5.356176,"is_reserved":false,"is_disabled":true,"rental_uris":{"android":"levelo://app?vid=f61f0289-db11-4f78-af36-f70fd4404161","ios":"levelo://app?vid=f61f0289-db11-4f78-af36-f70fd4404161"},"vehicle_type_id":"4","last_reported":1739387271,"current_range_meters":33200,"station_id":"","pricing_plan_id":"cebpf4jnsgd1na2vs0mg"},{"bike_id":"39a640ed-fd8c-4b56-84e0-fe67663afd2d","system_id":"levelo_inurba_marseille","lat":43.231554,"lon":5.437049,"is_reserved":false,"is_disabled":false,"rental_uris":{"android":"levelo://app?vid=39a640ed-fd8c-4b56-84e0-fe67663afd2d","ios":"levelo://app?vid=39a640ed-fd8c-4b56-84e0-fe67663afd2d"},"vehicle_type_id":"4","last_reported":1739387271,"current_range_meters":27200,"station_id":"ce4bhmp2rcd13ifvqgog","pricing_plan_id":"cebpf4jnsgd1na2vs0mg"},{"bike_id":"9430e314-d1fa-4943-b407-a6dba19f85c9","system_id":"levelo_inurba_marseille","lat":43.29519,"lon":5.39054,"is_reserved":false,"is_disabled":false,"rental_uris":{"android":"levelo://app?vid=9430e314-d1fa-4943-b407-a6dba19f85c9","ios":"levelo://app?vid=9430e314-d1fa-4943-b407-a6dba19f85c9"},"vehicle_type_id":"4","last_reported":1739387271,"current_range_meters":38800,"station_id":"ce4bh3p2rcd13ifvqdp0","pricing_plan_id":"cebpf4jnsgd1na2vs0mg"},{"bike_id":"d06fb2b2-c3c2-4116-87f0-f0d5ad8f7bab","system_id":"levelo_inurba_marseille","lat":43.28936,"lon":5.36396,"is_reserved":false,"is_disabled":false,"rental_uris":{"android":"levelo://app?vid=d06fb2b2-c3c2-4116-87f0-f0d5ad8f7bab","ios":"levelo://app?vid=d06fb2b2-c3c2-4116-87f0-f0d5ad8f7bab"},"vehicle_type_id":"4","last_reported":1739387271,"current_range_meters":34800,"station_id":"ce4bhc92rcd13ifvqetg","pricing_plan_id":"cebpf4jnsgd1na2vs0mg"},{"bike_id":"bc235a4c-617d-46ba-8c7a-21502f4b2aaf","system_id":"levelo_inurba_marseille","lat":43.23194,"lon":5.39975,"is_reserved":false,"is_disabled":false,"rental_uris":{"android":"levelo://app?vid=bc235a4c-617d-46ba-8c7a-21502f4b2aaf","ios":"levelo://app?vid=bc235a4c-617d-46ba-8c7a-21502f4b2aaf"},"vehicle_type_id":"4","last_reported":1739387271,"current_range_meters":19600,"station_id":"ce4bhn12rcd13ifvqgqg","pricing_plan_id":"cebpf4jnsgd1na2vs0mg"},{"bike_id":"7e4baaff-43df-45ac-ba99-60d4ee3b5a14","system_id":"levelo_inurba_marseille","lat":43.32493,"lon":5.36564,"is_reserved":false,"is_disabled":false,"rental_uris":{"android":"levelo://app?vid=7e4baaff-43df-45ac-ba99-60d4ee3b5a14","ios":"levelo://app?vid=7e4baaff-43df-45ac-ba99-60d4ee3b5a14"},"vehicle_type_id":"4","last_reported":1739387271,"current_range_meters":38800,"station_id":"ce4bhs12rcd13ifvqhvg","pricing_plan_id":"cebpf4jnsgd1na2vs0mg"},{"bike_id":"26dcfba2-6a90-4d23-9ea4-8c31c704ca5b","system_id":"levelo_inurba_marseille","lat":43.25558,"lon":5.38251,"is_reserved":false,"is_disabled":false,"rental_uris":{"android":"levelo://app?vid=26dcfba2-6a90-4d23-9ea4-8c31c704ca5b","ios":"levelo://app?vid=26dcfba2-6a90-4d23-9ea4-8c31c704ca5b"},"vehicle_type_id":"4","last_reported":1739387271,"current_range_meters":30800,"station_id":"ce4bhih2rcd13ifvqfs0","pricing_plan_id":"cebpf4jnsgd1na2vs0mg"},{"bike_id":"5bf7b31a-f643-4d39-ac8f-028588cb3b5d","system_id":"levelo_inurba_marseille","lat":43.24076,"lon":5.37759,"is_reserved":false,"is_disabled":false,"rental_uris":{"android":"levelo://app?vid=5bf7b31a-f643-4d39-ac8f-028588cb3b5d","ios":"levelo://app?vid=5bf7b31a-f643-4d39-ac8f-028588cb3b5d"},"vehicle_type_id":"4","last_reported":1739387271,"current_range_meters":37600,"station_id":"ce4bhnp2rcd13ifvqgvg","pricing_plan_id":"cebpf4jnsgd1na2vs0mg"},{"bike_id":"0e10501f-3a91-4a7d-9464-1870dd2cdbec","system_id":"levelo_inurba_marseille","lat":43.30147,"lon":5.3808,"is_reserved":false,"is_disabled":false,"rental_uris":{"android":"levelo://app?vid=0e10501f-3a91-4a7d-9464-1870dd2cdbec","ios":"levelo://app?vid=0e10501f-3a91-4a7d-9464-1870dd2cdbec"},"vehicle_type_id":"4","last_reported":1739387271,"current_range_meters":10000,"station_id":"ce4bgjp2rcd13ifvqbh0","pricing_plan_id":"cebpf4jnsgd1na2vs0mg"},{"bike_id":"51ab7186-5043-4bed-baca-73708608a302","system_id":"levelo_inurba_marseille","lat":43.29584,"lon":5.37026,"is_reserved":false,"is_disabled":true,"rental_uris":{"android":"levelo://app?vid=51ab7186-5043-4bed-baca-73708608a302","ios":"levelo://app?vid=51ab7186-5043-4bed-baca-73708608a302"},"vehicle_type_id":"4","last_reported":1739387271,"current_range_meters":1600,"station_id":"","pricing_plan_id":"cebpf4jnsgd1na2vs0mg"},{"bike_id":"3a6545aa-16b6-4902-b0e8-66d739ac070d","system_id":"levelo_inurba_marseille","lat":43.29562,"lon":5.39961,"is_reserved":false,"is_disabled":true,"rental_uris":{"android":"levelo://app?vid=3a6545aa-16b6-4902-b0e8-66d739ac070d","ios":"levelo://app?vid=3a6545aa-16b6-4902-b0e8-66d739ac070d"},"vehicle_type_id":"4","last_reported":1739387271,"current_range_meters":400,"station_id":"ce4bh312rcd13ifvqdj0","pricing_plan_id":"cebpf4jnsgd1na2vs0mg"},{"bike_id":"d7ba4570-ccc0-4c4a-9795-2a59aca3d79a","system_id":"levelo_inurba_marseille","lat":43.28662,"lon":5.36354,"is_reserved":false,"is_disabled":false,"rental_uris":{"android":"levelo://app?vid=d7ba4570-ccc0-4c4a-9795-2a59aca3d79a","ios":"levelo://app?vid=d7ba4570-ccc0-4c4a-9795-2a59aca3d79a"},"vehicle_type_id":"4","last_reported":1739387271,"current_range_meters":24400,"station_id":"ce4bhah2rcd13ifvqej0","pricing_plan_id":"cebpf4jnsgd1na2vs0mg"},{"bike_id":"d3fc5f7e-9983-4343-a9af-f36df7d45f29","system_id":"levelo_inurba_marseille","lat":43.23191,"lon":5.39977,"is_reserved":false,"is_disabled":false,"rental_uris":{"android":"levelo://app?vid=d3fc5f7e-9983-4343-a9af-f36df7d45f29","ios":"levelo://app?vid=d3fc5f7e-9983-4343-a9af-f36df7d45f29"},"vehicle_type_id":"4","last_reported":1739387271,"current_range_meters":27200,"station_id":"ce4bhn12rcd13ifvqgqg","pricing_plan_id":"cebpf4jnsgd1na2vs0mg"},{"bike_id":"24667d9c-11f8-492c-a700-33e109cbf8b3","system_id":"levelo_inurba_marseille","lat":43.29249,"lon":5.38441,"is_reserved":false,"is_disabled":false,"rental_uris":{"android":"levelo://app?vid=24667d9c-11f8-492c-a700-33e109cbf8b3","ios":"levelo://app?vid=24667d9c-11f8-492c-a700-33e109cbf8b3"},"vehicle_type_id":"4","last_reported":1739387271,"current_range_meters":38800,"station_id":"ce4bh692rcd13ifvqea0","pricing_plan_id":"cebpf4jnsgd1na2vs0mg"},{"bike_id":"dd61fc60-3e11-4988-b969-c4b225ea0685","system_id":"levelo_inurba_marseille","lat":43.31168,"lon":5.38722,"is_reserved":false,"is_disabled":false,"rental_uris":{"android":"levelo://app?vid=dd61fc60-3e11-4988-b969-c4b225ea0685","ios":"levelo://app?vid=dd61fc60-3e11-4988-b969-c4b225ea0685"},"vehicle_type_id":"4","last_reported":1739387271,"current_range_meters":26000,"station_id":"ce4bgv12rcd13ifvqcp0","pricing_plan_id":"cebpf4jnsgd1na2vs0mg"},{"bike_id":"d2c8d9da-22b3-446c-8e95-c2968e05fdc3","system_id":"levelo_inurba_marseille","lat":43.23966,"lon":5.36629,"is_reserved":false,"is_disabled":false,"rental_uris":{"android":"levelo://app?vid=d2c8d9da-22b3-446c-8e95-c2968e05fdc3","ios":"levelo://app?vid=d2c8d9da-22b3-446c-8e95-c2968e05fdc3"},"vehicle_type_id":"4","last_reported":1739387271,"current_range_meters":38800,"station_id":"ce4bhi12rcd13ifvqfp0","pricing_plan_id":"cebpf4jnsgd1na2vs0mg"},{"bike_id":"ebec6bf1-46cc-4f64-b840-ef9fe16ce6ed","system_id":"levelo_inurba_marseille","lat":43.30424,"lon":5.38871,"is_reserved":false,"is_disabled":false,"rental_uris":{"android":"levelo://app?vid=ebec6bf1-46cc-4f64-b840-ef9fe16ce6ed","ios":"levelo://app?vid=ebec6bf1-46cc-4f64-b840-ef9fe16ce6ed"},"vehicle_type_id":"4","last_reported":1739387271,"current_range_meters":14000,"station_id":"ce4bgk12rcd13ifvqbi0","pricing_plan_id":"cebpf4jnsgd1na2vs0mg"},{"bike_id":"e6bec95f-26aa-4ef9-8ecb-9065d666e5b7","system_id":"levelo_inurba_marseille","lat":43.29438,"lon":5.39757,"is_reserved":false,"is_disabled":false,"rental_uris":{"android":"levelo://app?vid=e6bec95f-26aa-4ef9-8ecb-9065d666e5b7","ios":"levelo://app?vid=e6bec95f-26aa-4ef9-8ecb-9065d666e5b7"},"vehicle_type_id":"4","last_reported":1739387271,"current_range_meters":25200,"station_id":"ce4bh3h2rcd13ifvqdo0","pricing_plan_id":"cebpf4jnsgd1na2vs0mg"},{"bike_id":"6509737c-0f38-45bd-970b-f09374352bc4","system_id":"levelo_inurba_marseille","lat":43.27322,"lon":5.39097,"is_reserved":false,"is_disabled":false,"rental_uris":{"android":"levelo://app?vid=6509737c-0f38-45bd-970b-f09374352bc4","ios":"levelo://app?vid=6509737c-0f38-45bd-970b-f09374352bc4"},"vehicle_type_id":"4","last_reported":1739387271,"current_range_meters":26800,"station_id":"ce4bhgp2rcd13ifvqfe0","pricing_plan_id":"cebpf4jnsgd1na2vs0mg"},{"bike_id":"bc0ff9a9-308e-46fc-b95f-d1b75b502cb5","system_id":"levelo_inurba_marseille","lat":43.24674,"lon":5.38156,"is_reserved":false,"is_disabled":false,"rental_uris":{"android":"levelo://app?vid=bc0ff9a9-308e-46fc-b95f-d1b75b502cb5","ios":"levelo://app?vid=bc0ff9a9-308e-46fc-b95f-d1b75b502cb5"},"vehicle_type_id":"4","last_reported":1739387271,"current_range_meters":30000,"station_id":"ce4bhih2rcd13ifvqfr0","pricing_plan_id":"cebpf4jnsgd1na2vs0mg"},{"bike_id":"89195f63-32f4-4f9e-b8a8-537692d4e90e","system_id":"levelo_inurba_marseille","lat":43.29966,"lon":5.38495,"is_reserved":false,"is_disabled":false,"rental_uris":{"android":"levelo://app?vid=89195f63-32f4-4f9e-b8a8-537692d4e90e","ios":"levelo://app?vid=89195f63-32f4-4f9e-b8a8-537692d4e90e"},"vehicle_type_id":"4","last_reported":1739387271,"current_range_meters":12800,"station_id":"ce4bgj92rcd13ifvqbd0","pricing_plan_id":"cebpf4jnsgd1na2vs0mg"},{"bike_id":"de77abfa-6f74-40e9-8131-b7884eda37eb","system_id":"levelo_inurba_marseille","lat":43.29922,"lon":5.39399,"is_reserved":false,"is_disabled":false,"rental_uris":{"android":"levelo://app?vid=de77abfa-6f74-40e9-8131-b7884eda37eb","ios":"levelo://app?vid=de77abfa-6f74-40e9-8131-b7884eda37eb"},"vehicle_type_id":"4","last_reported":1739387271,"current_range_meters":24800,"station_id":"","pricing_plan_id":"cebpf4jnsgd1na2vs0mg"},{"bike_id":"87b6358c-d7e2-4f52-bcd6-a2661f373c23","system_id":"levelo_inurba_marseille","lat":43.28153,"lon":5.42636,"is_reserved":false,"is_disabled":false,"rental_uris":{"android":"levelo://app?vid=87b6358c-d7e2-4f52-bcd6-a2661f373c23","ios":"levelo://app?vid=87b6358c-d7e2-4f52-bcd6-a2661f373c23"},"vehicle_type_id":"4","last_reported":1739387271,"current_range_meters":10800,"station_id":"ce4bhnh2rcd13ifvqgug","pricing_plan_id":"cebpf4jnsgd1na2vs0mg"},{"bike_id":"d56dd5c2-15a0-46b1-8539-2d08a17baff5","system_id":"levelo_inurba_marseille","lat":43.29362,"lon":5.37857,"is_reserved":false,"is_disabled":false,"rental_uris":{"android":"levelo://app?vid=d56dd5c2-15a0-46b1-8539-2d08a17baff5","ios":"levelo://app?vid=d56dd5c2-15a0-46b1-8539-2d08a17baff5"},"vehicle_type_id":"4","last_reported":1739387271,"current_range_meters":5600,"station_id":"ce4bgjh2rcd13ifvqbf0","pricing_plan_id":"cebpf4jnsgd1na2vs0mg"},{"bike_id":"ee079ffa-4416-4a91-bc98-3bd665acea3b","system_id":"levelo_inurba_marseille","lat":43.33734,"lon":5.39177,"is_reserved":false,"is_disabled":false,"rental_uris":{"android":"levelo://app?vid=ee079ffa-4416-4a91-bc98-3bd665acea3b","ios":"levelo://app?vid=ee079ffa-4416-4a91-bc98-3bd665acea3b"},"vehicle_type_id":"4","last_reported":1739387271,"current_range_meters":38800,"station_id":"ce4bhr92rcd13ifvqhsg","pricing_plan_id":"cebpf4jnsgd1na2vs0mg"},{"bike_id":"1fa82dc6-47d4-4356-bbca-393bf4461726","system_id":"levelo_inurba_marseille","lat":43.23964,"lon":5.36631,"is_reserved":false,"is_disabled":false,"rental_uris":{"android":"levelo://app?vid=1fa82dc6-47d4-4356-bbca-393bf4461726","ios":"levelo://app?vid=1fa82dc6-47d4-4356-bbca-393bf4461726"},"vehicle_type_id":"4","last_reported":1739387271,"current_range_meters":11600,"station_id":"ce4bhi12rcd13ifvqfp0","pricing_plan_id":"cebpf4jnsgd1na2vs0mg"},{"bike_id":"2355c6e5-09c3-4950-a7a8-dbebf456e6b5","system_id":"levelo_inurba_marseille","lat":43.30793,"lon":5.36615,"is_reserved":false,"is_disabled":false,"rental_uris":{"android":"levelo://app?vid=2355c6e5-09c3-4950-a7a8-dbebf456e6b5","ios":"levelo://app?vid=2355c6e5-09c3-4950-a7a8-dbebf456e6b5"},"vehicle_type_id":"4","last_reported":1739387271,"current_range_meters":25200,"station_id":"","pricing_plan_id":"cebpf4jnsgd1na2vs0mg"},{"bike_id":"964a4964-76d8-4ae4-9b51-9834b60db9c2","system_id":"levelo_inurba_marseille","lat":43.298828,"lon":5.383516,"is_reserved":false,"is_disabled":false,"rental_uris":{"android":"levelo://app?vid=964a4964-76d8-4ae4-9b51-9834b60db9c2","ios":"levelo://app?vid=964a4964-76d8-4ae4-9b51-9834b60db9c2"},"vehicle_type_id":"4","last_reported":1739387271,"current_range_meters":19200,"station_id":"","pricing_plan_id":"cebpf4jnsgd1na2vs0mg"},{"bike_id":"27e8111b-cc9f-467b-8925-146126eca080","system_id":"levelo_inurba_marseille","lat":43.3136,"lon":5.3849,"is_reserved":false,"is_disabled":false,"rental_uris":{"android":"levelo://app?vid=27e8111b-cc9f-467b-8925-146126eca080","ios":"levelo://app?vid=27e8111b-cc9f-467b-8925-146126eca080"},"vehicle_type_id":"4","last_reported":1739387271,"current_range_meters":25600,"station_id":"ce4bgt92rcd13ifvqcf0","pricing_plan_id":"cebpf4jnsgd1na2vs0mg"},{"bike_id":"4906a054-33a3-46f5-bc33-b7ade8fafaf8","system_id":"levelo_inurba_marseille","lat":43.29416,"lon":5.38628,"is_reserved":false,"is_disabled":false,"rental_uris":{"android":"levelo://app?vid=4906a054-33a3-46f5-bc33-b7ade8fafaf8","ios":"levelo://app?vid=4906a054-33a3-46f5-bc33-b7ade8fafaf8"},"vehicle_type_id":"4","last_reported":1739387271,"current_range_meters":30400,"station_id":"ce4bh2h2rcd13ifvqdh0","pricing_plan_id":"cebpf4jnsgd1na2vs0mg"},{"bike_id":"3adb6699-f719-4456-92ab-1968693e97fb","system_id":"levelo_inurba_marseille","lat":43.2417,"lon":5.3639,"is_reserved":false,"is_disabled":false,"rental_uris":{"android":"levelo://app?vid=3adb6699-f719-4456-92ab-1968693e97fb","ios":"levelo://app?vid=3adb6699-f719-4456-92ab-1968693e97fb"},"vehicle_type_id":"4","last_reported":1739387271,"current_range_meters":26000,"station_id":"cpo36qri1sfpv3e86is0","pricing_plan_id":"cebpf4jnsgd1na2vs0mg"},{"bike_id":"04e82eae-1243-4f87-97ae-c2b403027eb5","system_id":"levelo_inurba_marseille","lat":43.28166,"lon":5.42655,"is_reserved":false,"is_disabled":true,"rental_uris":{"android":"levelo://app?vid=04e82eae-1243-4f87-97ae-c2b403027eb5","ios":"levelo://app?vid=04e82eae-1243-4f87-97ae-c2b403027eb5"},"vehicle_type_id":"4","last_reported":1739387271,"current_range_meters":0,"station_id":"ce4bhnh2rcd13ifvqgug","pricing_plan_id":"cebpf4jnsgd1na2vs0mg"},{"bike_id":"476efa06-ff76-4710-9c45-8a07585e8d77","system_id":"levelo_inurba_marseille","lat":43.29552,"lon":5.42289,"is_reserved":false,"is_disabled":true,"rental_uris":{"android":"levelo://app?vid=476efa06-ff76-4710-9c45-8a07585e8d77","ios":"levelo://app?vid=476efa06-ff76-4710-9c45-8a07585e8d77"},"vehicle_type_id":"4","last_reported":1739387271,"current_range_meters":24000,"station_id":"ce4bhph2rcd13ifvqhdg","pricing_plan_id":"cebpf4jnsgd1na2vs0mg"},{"bike_id":"643156d1-3c94-46e5-a455-f51c8e5fba6b","system_id":"levelo_inurba_marseille","lat":43.292689,"lon":5.384491,"is_reserved":false,"is_disabled":false,"rental_uris":{"android":"levelo://app?vid=643156d1-3c94-46e5-a455-f51c8e5fba6b","ios":"levelo://app?vid=643156d1-3c94-46e5-a455-f51c8e5fba6b"},"vehicle_type_id":"4","last_reported":1739387271,"current_range_meters":37600,"station_id":"ce4bh692rcd13ifvqea0","pricing_plan_id":"cebpf4jnsgd1na2vs0mg"},{"bike_id":"a43b8534-1f7d-4016-b81a-d6ab195d0275","system_id":"levelo_inurba_marseille","lat":43.28412,"lon":5.37501,"is_reserved":false,"is_disabled":false,"rental_uris":{"android":"levelo://app?vid=a43b8534-1f7d-4016-b81a-d6ab195d0275","ios":"levelo://app?vid=a43b8534-1f7d-4016-b81a-d6ab195d0275"},"vehicle_type_id":"4","last_reported":1739387271,"current_range_meters":28000,"station_id":"ce4bh412rcd13ifvqds0","pricing_plan_id":"cebpf4jnsgd1na2vs0mg"},{"bike_id":"3d5f734c-530b-4f71-9f57-cb2ebf189787","system_id":"levelo_inurba_marseille","lat":43.31687,"lon":5.4047,"is_reserved":false,"is_disabled":false,"rental_uris":{"android":"levelo://app?vid=3d5f734c-530b-4f71-9f57-cb2ebf189787","ios":"levelo://app?vid=3d5f734c-530b-4f71-9f57-cb2ebf189787"},"vehicle_type_id":"4","last_reported":1739387271,"current_range_meters":27600,"station_id":"ce4bh012rcd13ifvqd00","pricing_plan_id":"cebpf4jnsgd1na2vs0mg"},{"bike_id":"4148542b-62f2-4ded-bb4f-a4630931fa34","system_id":"levelo_inurba_marseille","lat":43.29913,"lon":5.3815,"is_reserved":false,"is_disabled":false,"rental_uris":{"android":"levelo://app?vid=4148542b-62f2-4ded-bb4f-a4630931fa34","ios":"levelo://app?vid=4148542b-62f2-4ded-bb4f-a4630931fa34"},"vehicle_type_id":"4","last_reported":1739387271,"current_range_meters":31200,"station_id":"ce4bgj12rcd13ifvqbc0","pricing_plan_id":"cebpf4jnsgd1na2vs0mg"},{"bike_id":"5d351bd8-a377-45a5-a2ff-3020abea7558","system_id":"levelo_inurba_marseille","lat":43.31357,"lon":5.38498,"is_reserved":false,"is_disabled":false,"rental_uris":{"android":"levelo://app?vid=5d351bd8-a377-45a5-a2ff-3020abea7558","ios":"levelo://app?vid=5d351bd8-a377-45a5-a2ff-3020abea7558"},"vehicle_type_id":"4","last_reported":1739387271,"current_range_meters":32800,"station_id":"ce4bgt92rcd13ifvqcf0","pricing_plan_id":"cebpf4jnsgd1na2vs0mg"},{"bike_id":"d674d394-04ab-4838-a267-bcdd8affd803","system_id":"levelo_inurba_marseille","lat":43.30789,"lon":5.43522,"is_reserved":false,"is_disabled":false,"rental_uris":{"android":"levelo://app?vid=d674d394-04ab-4838-a267-bcdd8affd803","ios":"levelo://app?vid=d674d394-04ab-4838-a267-bcdd8affd803"},"vehicle_type_id":"4","last_reported":1739387271,"current_range_meters":39200,"station_id":"ce4bhph2rcd13ifvqheg","pricing_plan_id":"cebpf4jnsgd1na2vs0mg"},{"bike_id":"23add747-230f-460e-aeb7-444ff7ca37a5","system_id":"levelo_inurba_marseille","lat":43.29533,"lon":5.38533,"is_reserved":false,"is_disabled":false,"rental_uris":{"android":"levelo://app?vid=23add747-230f-460e-aeb7-444ff7ca37a5","ios":"levelo://app?vid=23add747-230f-460e-aeb7-444ff7ca37a5"},"vehicle_type_id":"4","last_reported":1739387271,"current_range_meters":0,"station_id":"ce4bgih2rcd13ifvqba0","pricing_plan_id":"cebpf4jnsgd1na2vs0mg"},{"bike_id":"032d1edd-812d-4276-bb8f-bf1b6a339fcf","system_id":"levelo_inurba_marseille","lat":43.23189,"lon":5.35563,"is_reserved":false,"is_disabled":false,"rental_uris":{"android":"levelo://app?vid=032d1edd-812d-4276-bb8f-bf1b6a339fcf","ios":"levelo://app?vid=032d1edd-812d-4276-bb8f-bf1b6a339fcf"},"vehicle_type_id":"4","last_reported":1739387271,"current_range_meters":16000,"station_id":"ce4bhu92rcd13ifvqi70","pricing_plan_id":"cebpf4jnsgd1na2vs0mg"},{"bike_id":"fc615b26-aa17-41b7-ba04-4874c302c290","system_id":"levelo_inurba_marseille","lat":43.23152,"lon":5.43708,"is_reserved":false,"is_disabled":true,"rental_uris":{"android":"levelo://app?vid=fc615b26-aa17-41b7-ba04-4874c302c290","ios":"levelo://app?vid=fc615b26-aa17-41b7-ba04-4874c302c290"},"vehicle_type_id":"4","last_reported":1739387271,"current_range_meters":0,"station_id":"ce4bhmp2rcd13ifvqgog","pricing_plan_id":"cebpf4jnsgd1na2vs0mg"},{"bike_id":"7140356e-acc1-4683-9f7a-ba5330d14dc0","system_id":"levelo_inurba_marseille","lat":43.30543,"lon":5.36515,"is_reserved":false,"is_disabled":true,"rental_uris":{"android":"levelo://app?vid=7140356e-acc1-4683-9f7a-ba5330d14dc0","ios":"levelo://app?vid=7140356e-acc1-4683-9f7a-ba5330d14dc0"},"vehicle_type_id":"4","last_reported":1739387271,"current_range_meters":32000,"station_id":"ce4bgs12rcd13ifvqcag","pricing_plan_id":"cebpf4jnsgd1na2vs0mg"},{"bike_id":"c07ffd3b-1b45-4f4f-af96-2b31373f9d65","system_id":"levelo_inurba_marseille","lat":43.24193,"lon":5.36353,"is_reserved":false,"is_disabled":false,"rental_uris":{"android":"levelo://app?vid=c07ffd3b-1b45-4f4f-af96-2b31373f9d65","ios":"levelo://app?vid=c07ffd3b-1b45-4f4f-af96-2b31373f9d65"},"vehicle_type_id":"4","last_reported":1739387271,"current_range_meters":27200,"station_id":"cpo36qri1sfpv3e86is0","pricing_plan_id":"cebpf4jnsgd1na2vs0mg"},{"bike_id":"76ed4e97-7fa9-4836-bcd3-e52753ef31b4","system_id":"levelo_inurba_marseille","lat":43.29847,"lon":5.36277,"is_reserved":false,"is_disabled":false,"rental_uris":{"android":"levelo://app?vid=76ed4e97-7fa9-4836-bcd3-e52753ef31b4","ios":"levelo://app?vid=76ed4e97-7fa9-4836-bcd3-e52753ef31b4"},"vehicle_type_id":"4","last_reported":1739387271,"current_range_meters":37600,"station_id":"ce4bgpp2rcd13ifvqc3g","pricing_plan_id":"cebpf4jnsgd1na2vs0mg"},{"bike_id":"f66c2578-99b0-43bb-a405-c382330b1b0b","system_id":"levelo_inurba_marseille","lat":43.29038,"lon":5.35904,"is_reserved":false,"is_disabled":false,"rental_uris":{"android":"levelo://app?vid=f66c2578-99b0-43bb-a405-c382330b1b0b","ios":"levelo://app?vid=f66c2578-99b0-43bb-a405-c382330b1b0b"},"vehicle_type_id":"4","last_reported":1739387271,"current_range_meters":31200,"station_id":"ce4bha92rcd13ifvqeg0","pricing_plan_id":"cebpf4jnsgd1na2vs0mg"},{"bike_id":"2e8d5e6f-543b-468e-bc42-b75ab64edc11","system_id":"levelo_inurba_marseille","lat":43.29873,"lon":5.39737,"is_reserved":false,"is_disabled":false,"rental_uris":{"android":"levelo://app?vid=2e8d5e6f-543b-468e-bc42-b75ab64edc11","ios":"levelo://app?vid=2e8d5e6f-543b-468e-bc42-b75ab64edc11"},"vehicle_type_id":"4","last_reported":1739387271,"current_range_meters":22000,"station_id":"ce4bh0h2rcd13ifvqd50","pricing_plan_id":"cebpf4jnsgd1na2vs0mg"},{"bike_id":"d32849cf-4c14-4032-9063-172d06d3f04f","system_id":"levelo_inurba_marseille","lat":43.23187,"lon":5.35562,"is_reserved":false,"is_disabled":false,"rental_uris":{"android":"levelo://app?vid=d32849cf-4c14-4032-9063-172d06d3f04f","ios":"levelo://app?vid=d32849cf-4c14-4032-9063-172d06d3f04f"},"vehicle_type_id":"4","last_reported":1739387271,"current_range_meters":30400,"station_id":"ce4bhu92rcd13ifvqi70","pricing_plan_id":"cebpf4jnsgd1na2vs0mg"},{"bike_id":"2ff86c0c-69fd-4294-8842-114f3593748f","system_id":"levelo_inurba_marseille","lat":43.31361,"lon":5.36705,"is_reserved":false,"is_disabled":false,"rental_uris":{"android":"levelo://app?vid=2ff86c0c-69fd-4294-8842-114f3593748f","ios":"levelo://app?vid=2ff86c0c-69fd-4294-8842-114f3593748f"},"vehicle_type_id":"4","last_reported":1739387271,"current_range_meters":36000,"station_id":"ce4bgr92rcd13ifvqc6g","pricing_plan_id":"cebpf4jnsgd1na2vs0mg"},{"bike_id":"77e60b2f-ce6b-4aae-a0a0-d5666429a96e","system_id":"levelo_inurba_marseille","lat":43.29073,"lon":5.37163,"is_reserved":false,"is_disabled":true,"rental_uris":{"android":"levelo://app?vid=77e60b2f-ce6b-4aae-a0a0-d5666429a96e","ios":"levelo://app?vid=77e60b2f-ce6b-4aae-a0a0-d5666429a96e"},"vehicle_type_id":"4","last_reported":1739387271,"current_range_meters":24000,"station_id":"ce4bh5p2rcd13ifvqe4g","pricing_plan_id":"cebpf4jnsgd1na2vs0mg"},{"bike_id":"966d576f-2509-4f44-87e9-9eebcc720742","system_id":"levelo_inurba_marseille","lat":43.299224,"lon":5.374747,"is_reserved":false,"is_disabled":false,"rental_uris":{"android":"levelo://app?vid=966d576f-2509-4f44-87e9-9eebcc720742","ios":"levelo://app?vid=966d576f-2509-4f44-87e9-9eebcc720742"},"vehicle_type_id":"4","last_reported":1739387271,"current_range_meters":38800,"station_id":"ce4bgjh2rcd13ifvqbg0","pricing_plan_id":"cebpf4jnsgd1na2vs0mg"},{"bike_id":"536366d2-282b-48e8-9268-35b7ee369088","system_id":"levelo_inurba_marseille","lat":43.25004,"lon":5.38927,"is_reserved":false,"is_disabled":false,"rental_uris":{"android":"levelo://app?vid=536366d2-282b-48e8-9268-35b7ee369088","ios":"levelo://app?vid=536366d2-282b-48e8-9268-35b7ee369088"},"vehicle_type_id":"4","last_reported":1739387271,"current_range_meters":29600,"station_id":"ce4bhgp2rcd13ifvqfd0","pricing_plan_id":"cebpf4jnsgd1na2vs0mg"},{"bike_id":"9ba133ba-7b58-4607-8737-7fb5bce66e58","system_id":"levelo_inurba_marseille","lat":43.24384,"lon":5.37041,"is_reserved":false,"is_disabled":false,"rental_uris":{"android":"levelo://app?vid=9ba133ba-7b58-4607-8737-7fb5bce66e58","ios":"levelo://app?vid=9ba133ba-7b58-4607-8737-7fb5bce66e58"},"vehicle_type_id":"4","last_reported":1739387271,"current_range_meters":38800,"station_id":"ce4bhhh2rcd13ifvqfk0","pricing_plan_id":"cebpf4jnsgd1na2vs0mg"},{"bike_id":"24d2a29b-fa24-4c85-a726-541b11d56bc0","system_id":"levelo_inurba_marseille","lat":43.31351,"lon":5.36737,"is_reserved":false,"is_disabled":false,"rental_uris":{"android":"levelo://app?vid=24d2a29b-fa24-4c85-a726-541b11d56bc0","ios":"levelo://app?vid=24d2a29b-fa24-4c85-a726-541b11d56bc0"},"vehicle_type_id":"4","last_reported":1739387271,"current_range_meters":12400,"station_id":"ce4bgr92rcd13ifvqc6g","pricing_plan_id":"cebpf4jnsgd1na2vs0mg"},{"bike_id":"a2f9b997-eedd-4c0f-bea6-8a149bad7884","system_id":"levelo_inurba_marseille","lat":43.28348,"lon":5.38104,"is_reserved":false,"is_disabled":false,"rental_uris":{"android":"levelo://app?vid=a2f9b997-eedd-4c0f-bea6-8a149bad7884","ios":"levelo://app?vid=a2f9b997-eedd-4c0f-bea6-8a149bad7884"},"vehicle_type_id":"4","last_reported":1739387271,"current_range_meters":38800,"station_id":"ce4bh412rcd13ifvqdr0","pricing_plan_id":"cebpf4jnsgd1na2vs0mg"},{"bike_id":"ba0489f2-5883-4e52-9755-f26962840dd6","system_id":"levelo_inurba_marseille","lat":43.29257,"lon":5.38443,"is_reserved":false,"is_disabled":false,"rental_uris":{"android":"levelo://app?vid=ba0489f2-5883-4e52-9755-f26962840dd6","ios":"levelo://app?vid=ba0489f2-5883-4e52-9755-f26962840dd6"},"vehicle_type_id":"4","last_reported":1739387271,"current_range_meters":17200,"station_id":"ce4bh692rcd13ifvqea0","pricing_plan_id":"cebpf4jnsgd1na2vs0mg"},{"bike_id":"14b2070b-6ddc-42e3-b1e8-9c0cbc081f72","system_id":"levelo_inurba_marseille","lat":43.337316,"lon":5.391826,"is_reserved":false,"is_disabled":false,"rental_uris":{"android":"levelo://app?vid=14b2070b-6ddc-42e3-b1e8-9c0cbc081f72","ios":"levelo://app?vid=14b2070b-6ddc-42e3-b1e8-9c0cbc081f72"},"vehicle_type_id":"4","last_reported":1739387271,"current_range_meters":38800,"station_id":"ce4bhr92rcd13ifvqhsg","pricing_plan_id":"cebpf4jnsgd1na2vs0mg"},{"bike_id":"0f8af0ae-f55c-4508-a98b-09e092d98a7d","system_id":"levelo_inurba_marseille","lat":43.30253,"lon":5.4007,"is_reserved":false,"is_disabled":false,"rental_uris":{"android":"levelo://app?vid=0f8af0ae-f55c-4508-a98b-09e092d98a7d","ios":"levelo://app?vid=0f8af0ae-f55c-4508-a98b-09e092d98a7d"},"vehicle_type_id":"4","last_reported":1739387271,"current_range_meters":32800,"station_id":"ce4bgvh2rcd13ifvqcs0","pricing_plan_id":"cebpf4jnsgd1na2vs0mg"},{"bike_id":"1c3c5356-feb2-4139-a8f5-3ebd188579ce","system_id":"levelo_inurba_marseille","lat":43.3033,"lon":5.40439,"is_reserved":false,"is_disabled":false,"rental_uris":{"android":"levelo://app?vid=1c3c5356-feb2-4139-a8f5-3ebd188579ce","ios":"levelo://app?vid=1c3c5356-feb2-4139-a8f5-3ebd188579ce"},"vehicle_type_id":"4","last_reported":1739387271,"current_range_meters":38800,"station_id":"ce4bh012rcd13ifvqd10","pricing_plan_id":"cebpf4jnsgd1na2vs0mg"},{"bike_id":"90069231-8d02-46fd-ba3f-d8e7e83900ee","system_id":"levelo_inurba_marseille","lat":43.28832,"lon":5.43812,"is_reserved":false,"is_disabled":true,"rental_uris":{"android":"levelo://app?vid=90069231-8d02-46fd-ba3f-d8e7e83900ee","ios":"levelo://app?vid=90069231-8d02-46fd-ba3f-d8e7e83900ee"},"vehicle_type_id":"4","last_reported":1739387271,"current_range_meters":0,"station_id":"","pricing_plan_id":"cebpf4jnsgd1na2vs0mg"},{"bike_id":"b049a7c6-aecd-4e14-9446-873b79a46dd4","system_id":"levelo_inurba_marseille","lat":43.295648,"lon":5.399761,"is_reserved":false,"is_disabled":false,"rental_uris":{"android":"levelo://app?vid=b049a7c6-aecd-4e14-9446-873b79a46dd4","ios":"levelo://app?vid=b049a7c6-aecd-4e14-9446-873b79a46dd4"},"vehicle_type_id":"4","last_reported":1739387271,"current_range_meters":24800,"station_id":"ce4bh312rcd13ifvqdj0","pricing_plan_id":"cebpf4jnsgd1na2vs0mg"},{"bike_id":"42fbdcc5-92e9-46d4-a895-a30a42eac854","system_id":"levelo_inurba_marseille","lat":43.26939,"lon":5.40254,"is_reserved":false,"is_disabled":false,"rental_uris":{"android":"levelo://app?vid=42fbdcc5-92e9-46d4-a895-a30a42eac854","ios":"levelo://app?vid=42fbdcc5-92e9-46d4-a895-a30a42eac854"},"vehicle_type_id":"4","last_reported":1739387271,"current_range_meters":3600,"station_id":"cjm6bp8fraef2m0cb0m0","pricing_plan_id":"cebpf4jnsgd1na2vs0mg"},{"bike_id":"00053a72-9207-4b4c-b59b-20606453610f","system_id":"levelo_inurba_marseille","lat":43.32474,"lon":5.36564,"is_reserved":false,"is_disabled":false,"rental_uris":{"android":"levelo://app?vid=00053a72-9207-4b4c-b59b-20606453610f","ios":"levelo://app?vid=00053a72-9207-4b4c-b59b-20606453610f"},"vehicle_type_id":"4","last_reported":1739387271,"current_range_meters":34000,"station_id":"ce4bhs12rcd13ifvqhvg","pricing_plan_id":"cebpf4jnsgd1na2vs0mg"},{"bike_id":"7db5d1a0-4ccb-451b-8575-ce5ea64e8b82","system_id":"levelo_inurba_marseille","lat":43.27562,"lon":5.38422,"is_reserved":false,"is_disabled":false,"rental_uris":{"android":"levelo://app?vid=7db5d1a0-4ccb-451b-8575-ce5ea64e8b82","ios":"levelo://app?vid=7db5d1a0-4ccb-451b-8575-ce5ea64e8b82"},"vehicle_type_id":"4","last_reported":1739387271,"current_range_meters":6800,"station_id":"ce4bhh92rcd13ifvqfi0","pricing_plan_id":"cebpf4jnsgd1na2vs0mg"},{"bike_id":"acd088e7-dc82-4cb8-8e19-47754c61567c","system_id":"levelo_inurba_marseille","lat":43.31331,"lon":5.36735,"is_reserved":false,"is_disabled":false,"rental_uris":{"android":"levelo://app?vid=acd088e7-dc82-4cb8-8e19-47754c61567c","ios":"levelo://app?vid=acd088e7-dc82-4cb8-8e19-47754c61567c"},"vehicle_type_id":"4","last_reported":1739387271,"current_range_meters":32800,"station_id":"ce4bgr92rcd13ifvqc6g","pricing_plan_id":"cebpf4jnsgd1na2vs0mg"},{"bike_id":"37fee8de-7920-4095-90fd-dbb82aabca95","system_id":"levelo_inurba_marseille","lat":43.31387,"lon":5.3668,"is_reserved":false,"is_disabled":false,"rental_uris":{"android":"levelo://app?vid=37fee8de-7920-4095-90fd-dbb82aabca95","ios":"levelo://app?vid=37fee8de-7920-4095-90fd-dbb82aabca95"},"vehicle_type_id":"4","last_reported":1739387271,"current_range_meters":27600,"station_id":"","pricing_plan_id":"cebpf4jnsgd1na2vs0mg"},{"bike_id":"db4965dd-4431-407a-b673-10c70e2b90ff","system_id":"levelo_inurba_marseille","lat":43.30293,"lon":5.39224,"is_reserved":false,"is_disabled":false,"rental_uris":{"android":"levelo://app?vid=db4965dd-4431-407a-b673-10c70e2b90ff","ios":"levelo://app?vid=db4965dd-4431-407a-b673-10c70e2b90ff"},"vehicle_type_id":"4","last_reported":1739387271,"current_range_meters":8000,"station_id":"ce4bgkh2rcd13ifvqbk0","pricing_plan_id":"cebpf4jnsgd1na2vs0mg"},{"bike_id":"321b7a25-a0bf-4bbc-910d-af3637071784","system_id":"levelo_inurba_marseille","lat":43.28722,"lon":5.37938,"is_reserved":false,"is_disabled":false,"rental_uris":{"android":"levelo://app?vid=321b7a25-a0bf-4bbc-910d-af3637071784","ios":"levelo://app?vid=321b7a25-a0bf-4bbc-910d-af3637071784"},"vehicle_type_id":"4","last_reported":1739387271,"current_range_meters":38800,"station_id":"ce4bh9p2rcd13ifvqec0","pricing_plan_id":"cebpf4jnsgd1na2vs0mg"},{"bike_id":"cdd04f75-2a09-4734-ab55-4b7e85da17e8","system_id":"levelo_inurba_marseille","lat":43.28698,"lon":5.37383,"is_reserved":false,"is_disabled":false,"rental_uris":{"android":"levelo://app?vid=cdd04f75-2a09-4734-ab55-4b7e85da17e8","ios":"levelo://app?vid=cdd04f75-2a09-4734-ab55-4b7e85da17e8"},"vehicle_type_id":"4","last_reported":1739387271,"current_range_meters":38400,"station_id":"ce4bh3p2rcd13ifvqdq0","pricing_plan_id":"cebpf4jnsgd1na2vs0mg"},{"bike_id":"8e8dc55a-fb8d-4fee-b04f-4a1ce35a382f","system_id":"levelo_inurba_marseille","lat":43.29619,"lon":5.37715,"is_reserved":false,"is_disabled":false,"rental_uris":{"android":"levelo://app?vid=8e8dc55a-fb8d-4fee-b04f-4a1ce35a382f","ios":"levelo://app?vid=8e8dc55a-fb8d-4fee-b04f-4a1ce35a382f"},"vehicle_type_id":"4","last_reported":1739387271,"current_range_meters":2800,"station_id":"ce4bgi92rcd13ifvqb90","pricing_plan_id":"cebpf4jnsgd1na2vs0mg"},{"bike_id":"94a1fe7e-a459-4400-9162-bfbba846c26a","system_id":"levelo_inurba_marseille","lat":43.2718,"lon":5.40982,"is_reserved":false,"is_disabled":false,"rental_uris":{"android":"levelo://app?vid=94a1fe7e-a459-4400-9162-bfbba846c26a","ios":"levelo://app?vid=94a1fe7e-a459-4400-9162-bfbba846c26a"},"vehicle_type_id":"4","last_reported":1739387271,"current_range_meters":39200,"station_id":"ce4bhl12rcd13ifvqgf0","pricing_plan_id":"cebpf4jnsgd1na2vs0mg"},{"bike_id":"b9693b17-aaa4-407c-914c-0247196c5898","system_id":"levelo_inurba_marseille","lat":43.2945,"lon":5.38652,"is_reserved":false,"is_disabled":false,"rental_uris":{"android":"levelo://app?vid=b9693b17-aaa4-407c-914c-0247196c5898","ios":"levelo://app?vid=b9693b17-aaa4-407c-914c-0247196c5898"},"vehicle_type_id":"4","last_reported":1739387271,"current_range_meters":39200,"station_id":"ce4bh2h2rcd13ifvqdh0","pricing_plan_id":"cebpf4jnsgd1na2vs0mg"},{"bike_id":"bc06afc1-fcb4-45c1-92d7-559953a7ccd1","system_id":"levelo_inurba_marseille","lat":43.29993,"lon":5.3848,"is_reserved":false,"is_disabled":false,"rental_uris":{"android":"levelo://app?vid=bc06afc1-fcb4-45c1-92d7-559953a7ccd1","ios":"levelo://app?vid=bc06afc1-fcb4-45c1-92d7-559953a7ccd1"},"vehicle_type_id":"4","last_reported":1739387271,"current_range_meters":38800,"station_id":"ce4bgj92rcd13ifvqbd0","pricing_plan_id":"cebpf4jnsgd1na2vs0mg"},{"bike_id":"0a77f424-9d7d-4010-bd33-1687a2ffd57e","system_id":"levelo_inurba_marseille","lat":43.24808,"lon":5.37446,"is_reserved":false,"is_disabled":false,"rental_uris":{"android":"levelo://app?vid=0a77f424-9d7d-4010-bd33-1687a2ffd57e","ios":"levelo://app?vid=0a77f424-9d7d-4010-bd33-1687a2ffd57e"},"vehicle_type_id":"4","last_reported":1739387271,"current_range_meters":9200,"station_id":"ce4bhgh2rcd13ifvqfb0","pricing_plan_id":"cebpf4jnsgd1na2vs0mg"},{"bike_id":"7ceeb2e5-8673-48b0-9f08-9e1430bd1bc6","system_id":"levelo_inurba_marseille","lat":43.28451,"lon":5.38464,"is_reserved":false,"is_disabled":false,"rental_uris":{"android":"levelo://app?vid=7ceeb2e5-8673-48b0-9f08-9e1430bd1bc6","ios":"levelo://app?vid=7ceeb2e5-8673-48b0-9f08-9e1430bd1bc6"},"vehicle_type_id":"4","last_reported":1739387271,"current_range_meters":38400,"station_id":"","pricing_plan_id":"cebpf4jnsgd1na2vs0mg"},{"bike_id":"c2250f20-2283-4e17-b7ce-382f2f740aa1","system_id":"levelo_inurba_marseille","lat":43.2481,"lon":5.37453,"is_reserved":false,"is_disabled":false,"rental_uris":{"android":"levelo://app?vid=c2250f20-2283-4e17-b7ce-382f2f740aa1","ios":"levelo://app?vid=c2250f20-2283-4e17-b7ce-382f2f740aa1"},"vehicle_type_id":"4","last_reported":1739387271,"current_range_meters":38800,"station_id":"ce4bhgh2rcd13ifvqfb0","pricing_plan_id":"cebpf4jnsgd1na2vs0mg"},{"bike_id":"cae753ae-2904-4959-a53a-5c8306d07841","system_id":"levelo_inurba_marseille","lat":43.24816,"lon":5.37455,"is_reserved":false,"is_disabled":false,"rental_uris":{"android":"levelo://app?vid=cae753ae-2904-4959-a53a-5c8306d07841","ios":"levelo://app?vid=cae753ae-2904-4959-a53a-5c8306d07841"},"vehicle_type_id":"4","last_reported":1739387271,"current_range_meters":32400,"station_id":"ce4bhgh2rcd13ifvqfb0","pricing_plan_id":"cebpf4jnsgd1na2vs0mg"},{"bike_id":"68b643a4-ddfa-4995-86ea-28101d4ab1bc","system_id":"levelo_inurba_marseille","lat":43.29585,"lon":5.36735,"is_reserved":false,"is_disabled":false,"rental_uris":{"android":"levelo://app?vid=68b643a4-ddfa-4995-86ea-28101d4ab1bc","ios":"levelo://app?vid=68b643a4-ddfa-4995-86ea-28101d4ab1bc"},"vehicle_type_id":"4","last_reported":1739387271,"current_range_meters":27200,"station_id":"ce4bgph2rcd13ifvqc2g","pricing_plan_id":"cebpf4jnsgd1na2vs0mg"},{"bike_id":"11a0e0f4-9b5f-4bb3-b07e-0663f3a97352","system_id":"levelo_inurba_marseille","lat":43.27919,"lon":5.39592,"is_reserved":false,"is_disabled":false,"rental_uris":{"android":"levelo://app?vid=11a0e0f4-9b5f-4bb3-b07e-0663f3a97352","ios":"levelo://app?vid=11a0e0f4-9b5f-4bb3-b07e-0663f3a97352"},"vehicle_type_id":"4","last_reported":1739387271,"current_range_meters":32000,"station_id":"ce4bhf92rcd13ifvqf40","pricing_plan_id":"cebpf4jnsgd1na2vs0mg"},{"bike_id":"492e558b-0ce5-4984-b6b1-1d33f225a96b","system_id":"levelo_inurba_marseille","lat":43.2412,"lon":5.36402,"is_reserved":false,"is_disabled":false,"rental_uris":{"android":"levelo://app?vid=492e558b-0ce5-4984-b6b1-1d33f225a96b","ios":"levelo://app?vid=492e558b-0ce5-4984-b6b1-1d33f225a96b"},"vehicle_type_id":"4","last_reported":1739387271,"current_range_meters":9600,"station_id":"cpo36qri1sfpv3e86is0","pricing_plan_id":"cebpf4jnsgd1na2vs0mg"},{"bike_id":"c6ab2079-aa0d-4c6d-8608-a1cea0571a2d","system_id":"levelo_inurba_marseille","lat":43.32658,"lon":5.43077,"is_reserved":false,"is_disabled":true,"rental_uris":{"android":"levelo://app?vid=c6ab2079-aa0d-4c6d-8608-a1cea0571a2d","ios":"levelo://app?vid=c6ab2079-aa0d-4c6d-8608-a1cea0571a2d"},"vehicle_type_id":"4","last_reported":1739387271,"current_range_meters":0,"station_id":"","pricing_plan_id":"cebpf4jnsgd1na2vs0mg"},{"bike_id":"30b76049-e41b-4adb-862f-755fe2524e05","system_id":"levelo_inurba_marseille","lat":43.288513,"lon":5.393247,"is_reserved":false,"is_disabled":true,"rental_uris":{"android":"levelo://app?vid=30b76049-e41b-4adb-862f-755fe2524e05","ios":"levelo://app?vid=30b76049-e41b-4adb-862f-755fe2524e05"},"vehicle_type_id":"4","last_reported":1739387271,"current_range_meters":35200,"station_id":"","pricing_plan_id":"cebpf4jnsgd1na2vs0mg"},{"bike_id":"c8cada38-be52-4720-ac5a-9f4c125bad0b","system_id":"levelo_inurba_marseille","lat":43.2835,"lon":5.38104,"is_reserved":false,"is_disabled":false,"rental_uris":{"android":"levelo://app?vid=c8cada38-be52-4720-ac5a-9f4c125bad0b","ios":"levelo://app?vid=c8cada38-be52-4720-ac5a-9f4c125bad0b"},"vehicle_type_id":"4","last_reported":1739387271,"current_range_meters":38800,"station_id":"ce4bh412rcd13ifvqdr0","pricing_plan_id":"cebpf4jnsgd1na2vs0mg"},{"bike_id":"084550d1-0260-4e97-97a5-5804dceb22a6","system_id":"levelo_inurba_marseille","lat":43.30881,"lon":5.3963,"is_reserved":false,"is_disabled":false,"rental_uris":{"android":"levelo://app?vid=084550d1-0260-4e97-97a5-5804dceb22a6","ios":"levelo://app?vid=084550d1-0260-4e97-97a5-5804dceb22a6"},"vehicle_type_id":"4","last_reported":1739387271,"current_range_meters":39200,"station_id":"ce4bh012rcd13ifvqcv0","pricing_plan_id":"cebpf4jnsgd1na2vs0mg"},{"bike_id":"86b103c3-51ad-4218-bccb-79a8e39e4b25","system_id":"levelo_inurba_marseille","lat":43.29415,"lon":5.38622,"is_reserved":false,"is_disabled":false,"rental_uris":{"android":"levelo://app?vid=86b103c3-51ad-4218-bccb-79a8e39e4b25","ios":"levelo://app?vid=86b103c3-51ad-4218-bccb-79a8e39e4b25"},"vehicle_type_id":"4","last_reported":1739387271,"current_range_meters":19600,"station_id":"ce4bh2h2rcd13ifvqdh0","pricing_plan_id":"cebpf4jnsgd1na2vs0mg"},{"bike_id":"ebaf1afe-6793-4830-8b43-689bbe41f293","system_id":"levelo_inurba_marseille","lat":43.304365,"lon":5.388905,"is_reserved":false,"is_disabled":false,"rental_uris":{"android":"levelo://app?vid=ebaf1afe-6793-4830-8b43-689bbe41f293","ios":"levelo://app?vid=ebaf1afe-6793-4830-8b43-689bbe41f293"},"vehicle_type_id":"4","last_reported":1739387271,"current_range_meters":36000,"station_id":"ce4bgk12rcd13ifvqbi0","pricing_plan_id":"cebpf4jnsgd1na2vs0mg"},{"bike_id":"2c7e9a1a-f41b-4230-ad31-fa1174cac54e","system_id":"levelo_inurba_marseille","lat":43.32305,"lon":5.39081,"is_reserved":false,"is_disabled":false,"rental_uris":{"android":"levelo://app?vid=2c7e9a1a-f41b-4230-ad31-fa1174cac54e","ios":"levelo://app?vid=2c7e9a1a-f41b-4230-ad31-fa1174cac54e"},"vehicle_type_id":"4","last_reported":1739387271,"current_range_meters":13600,"station_id":"","pricing_plan_id":"cebpf4jnsgd1na2vs0mg"},{"bike_id":"70573dcb-fad9-48a7-a849-cee0e744ccd5","system_id":"levelo_inurba_marseille","lat":43.26498,"lon":5.39538,"is_reserved":false,"is_disabled":false,"rental_uris":{"android":"levelo://app?vid=70573dcb-fad9-48a7-a849-cee0e744ccd5","ios":"levelo://app?vid=70573dcb-fad9-48a7-a849-cee0e744ccd5"},"vehicle_type_id":"4","last_reported":1739387271,"current_range_meters":25600,"station_id":"ce4bhi12rcd13ifvqfq0","pricing_plan_id":"cebpf4jnsgd1na2vs0mg"},{"bike_id":"8e68b12f-fd61-406b-a6af-a8faa048e432","system_id":"levelo_inurba_marseille","lat":43.27842,"lon":5.39208,"is_reserved":false,"is_disabled":false,"rental_uris":{"android":"levelo://app?vid=8e68b12f-fd61-406b-a6af-a8faa048e432","ios":"levelo://app?vid=8e68b12f-fd61-406b-a6af-a8faa048e432"},"vehicle_type_id":"4","last_reported":1739387271,"current_range_meters":10800,"station_id":"ce4bhjp2rcd13ifvqga0","pricing_plan_id":"cebpf4jnsgd1na2vs0mg"},{"bike_id":"b7693aec-223a-413c-9ae8-da4dd9d61acc","system_id":"levelo_inurba_marseille","lat":43.30173,"lon":5.40227,"is_reserved":false,"is_disabled":false,"rental_uris":{"android":"levelo://app?vid=b7693aec-223a-413c-9ae8-da4dd9d61acc","ios":"levelo://app?vid=b7693aec-223a-413c-9ae8-da4dd9d61acc"},"vehicle_type_id":"4","last_reported":1739387271,"current_range_meters":27200,"station_id":"","pricing_plan_id":"cebpf4jnsgd1na2vs0mg"},{"bike_id":"56601044-7ee0-45ff-bd13-f686208b330f","system_id":"levelo_inurba_marseille","lat":43.29533,"lon":5.385457,"is_reserved":false,"is_disabled":false,"rental_uris":{"android":"levelo://app?vid=56601044-7ee0-45ff-bd13-f686208b330f","ios":"levelo://app?vid=56601044-7ee0-45ff-bd13-f686208b330f"},"vehicle_type_id":"4","last_reported":1739387271,"current_range_meters":24400,"station_id":"ce4bgih2rcd13ifvqba0","pricing_plan_id":"cebpf4jnsgd1na2vs0mg"},{"bike_id":"55780c50-6a84-4e88-bef1-f348e4c19a48","system_id":"levelo_inurba_marseille","lat":43.311791,"lon":5.387203,"is_reserved":false,"is_disabled":true,"rental_uris":{"android":"levelo://app?vid=55780c50-6a84-4e88-bef1-f348e4c19a48","ios":"levelo://app?vid=55780c50-6a84-4e88-bef1-f348e4c19a48"},"vehicle_type_id":"4","last_reported":1739387271,"current_range_meters":36800,"station_id":"ce4bgv12rcd13ifvqcp0","pricing_plan_id":"cebpf4jnsgd1na2vs0mg"},{"bike_id":"7335b564-6dbe-4484-93db-55ac8075f374","system_id":"levelo_inurba_marseille","lat":43.284533,"lon":5.358682,"is_reserved":false,"is_disabled":false,"rental_uris":{"android":"levelo://app?vid=7335b564-6dbe-4484-93db-55ac8075f374","ios":"levelo://app?vid=7335b564-6dbe-4484-93db-55ac8075f374"},"vehicle_type_id":"4","last_reported":1739387271,"current_range_meters":22000,"station_id":"ce4bhah2rcd13ifvqei0","pricing_plan_id":"cebpf4jnsgd1na2vs0mg"},{"bike_id":"e5efd828-eef1-418b-b92d-690982123ea2","system_id":"levelo_inurba_marseille","lat":43.25577,"lon":5.3824,"is_reserved":false,"is_disabled":false,"rental_uris":{"android":"levelo://app?vid=e5efd828-eef1-418b-b92d-690982123ea2","ios":"levelo://app?vid=e5efd828-eef1-418b-b92d-690982123ea2"},"vehicle_type_id":"4","last_reported":1739387271,"current_range_meters":10800,"station_id":"ce4bhih2rcd13ifvqfs0","pricing_plan_id":"cebpf4jnsgd1na2vs0mg"},{"bike_id":"b1b93a49-25bc-4589-b584-866c5f20cedd","system_id":"levelo_inurba_marseille","lat":43.31621,"lon":5.37662,"is_reserved":false,"is_disabled":false,"rental_uris":{"android":"levelo://app?vid=b1b93a49-25bc-4589-b584-866c5f20cedd","ios":"levelo://app?vid=b1b93a49-25bc-4589-b584-866c5f20cedd"},"vehicle_type_id":"4","last_reported":1739387271,"current_range_meters":7200,"station_id":"","pricing_plan_id":"cebpf4jnsgd1na2vs0mg"},{"bike_id":"91ba4c15-6a28-4a77-8127-1d907ef896d4","system_id":"levelo_inurba_marseille","lat":43.29005,"lon":5.35606,"is_reserved":false,"is_disabled":false,"rental_uris":{"android":"levelo://app?vid=91ba4c15-6a28-4a77-8127-1d907ef896d4","ios":"levelo://app?vid=91ba4c15-6a28-4a77-8127-1d907ef896d4"},"vehicle_type_id":"4","last_reported":1739387271,"current_range_meters":38800,"station_id":"ce4bhb92rcd13ifvqen0","pricing_plan_id":"cebpf4jnsgd1na2vs0mg"},{"bike_id":"db7e6ca1-9db5-4d53-b036-8961d14e4b4f","system_id":"levelo_inurba_marseille","lat":43.2927,"lon":5.36847,"is_reserved":false,"is_disabled":true,"rental_uris":{"android":"levelo://app?vid=db7e6ca1-9db5-4d53-b036-8961d14e4b4f","ios":"levelo://app?vid=db7e6ca1-9db5-4d53-b036-8961d14e4b4f"},"vehicle_type_id":"4","last_reported":1739387271,"current_range_meters":0,"station_id":"ce4bhbp2rcd13ifvqesg","pricing_plan_id":"cebpf4jnsgd1na2vs0mg"},{"bike_id":"04d4b8ab-1d4d-44ab-9d49-e10f569c0553","system_id":"levelo_inurba_marseille","lat":43.2985,"lon":5.36254,"is_reserved":false,"is_disabled":false,"rental_uris":{"android":"levelo://app?vid=04d4b8ab-1d4d-44ab-9d49-e10f569c0553","ios":"levelo://app?vid=04d4b8ab-1d4d-44ab-9d49-e10f569c0553"},"vehicle_type_id":"4","last_reported":1739387271,"current_range_meters":31200,"station_id":"ce4bgpp2rcd13ifvqc3g","pricing_plan_id":"cebpf4jnsgd1na2vs0mg"},{"bike_id":"1e27a57f-c848-41af-a2d3-5d053a440eb3","system_id":"levelo_inurba_marseille","lat":43.32586,"lon":5.43058,"is_reserved":false,"is_disabled":false,"rental_uris":{"android":"levelo://app?vid=1e27a57f-c848-41af-a2d3-5d053a440eb3","ios":"levelo://app?vid=1e27a57f-c848-41af-a2d3-5d053a440eb3"},"vehicle_type_id":"4","last_reported":1739387271,"current_range_meters":14800,"station_id":"","pricing_plan_id":"cebpf4jnsgd1na2vs0mg"},{"bike_id":"e0e88e32-cb96-4b9b-ae72-a756accf51b3","system_id":"levelo_inurba_marseille","lat":43.25823,"lon":5.39408,"is_reserved":false,"is_disabled":false,"rental_uris":{"android":"levelo://app?vid=e0e88e32-cb96-4b9b-ae72-a756accf51b3","ios":"levelo://app?vid=e0e88e32-cb96-4b9b-ae72-a756accf51b3"},"vehicle_type_id":"4","last_reported":1739387271,"current_range_meters":8400,"station_id":"ce4bhip2rcd13ifvqft0","pricing_plan_id":"cebpf4jnsgd1na2vs0mg"},{"bike_id":"c62b1faa-f28b-40b9-b32d-c145fe962623","system_id":"levelo_inurba_marseille","lat":43.32663,"lon":5.40991,"is_reserved":false,"is_disabled":false,"rental_uris":{"android":"levelo://app?vid=c62b1faa-f28b-40b9-b32d-c145fe962623","ios":"levelo://app?vid=c62b1faa-f28b-40b9-b32d-c145fe962623"},"vehicle_type_id":"4","last_reported":1739387271,"current_range_meters":27600,"station_id":"ce4bhpp2rcd13ifvqhgg","pricing_plan_id":"cebpf4jnsgd1na2vs0mg"},{"bike_id":"60b283a1-229b-4adb-83f1-d1d7d9987d23","system_id":"levelo_inurba_marseille","lat":43.29033,"lon":5.35922,"is_reserved":false,"is_disabled":false,"rental_uris":{"android":"levelo://app?vid=60b283a1-229b-4adb-83f1-d1d7d9987d23","ios":"levelo://app?vid=60b283a1-229b-4adb-83f1-d1d7d9987d23"},"vehicle_type_id":"4","last_reported":1739387271,"current_range_meters":25200,"station_id":"ce4bha92rcd13ifvqeg0","pricing_plan_id":"cebpf4jnsgd1na2vs0mg"},{"bike_id":"c4813b27-4250-43ea-8be5-ccd7321d2af3","system_id":"levelo_inurba_marseille","lat":43.28219,"lon":5.36993,"is_reserved":false,"is_disabled":false,"rental_uris":{"android":"levelo://app?vid=c4813b27-4250-43ea-8be5-ccd7321d2af3","ios":"levelo://app?vid=c4813b27-4250-43ea-8be5-ccd7321d2af3"},"vehicle_type_id":"4","last_reported":1739387271,"current_range_meters":16800,"station_id":"","pricing_plan_id":"cebpf4jnsgd1na2vs0mg"},{"bike_id":"b694c8c4-5419-44d7-9b73-3e320bd36d96","system_id":"levelo_inurba_marseille","lat":43.29252,"lon":5.38441,"is_reserved":false,"is_disabled":false,"rental_uris":{"android":"levelo://app?vid=b694c8c4-5419-44d7-9b73-3e320bd36d96","ios":"levelo://app?vid=b694c8c4-5419-44d7-9b73-3e320bd36d96"},"vehicle_type_id":"4","last_reported":1739387271,"current_range_meters":38800,"station_id":"ce4bh692rcd13ifvqea0","pricing_plan_id":"cebpf4jnsgd1na2vs0mg"},{"bike_id":"e34f1fd3-53eb-4292-8a8d-c55fff78975a","system_id":"levelo_inurba_marseille","lat":43.26936,"lon":5.40248,"is_reserved":false,"is_disabled":false,"rental_uris":{"android":"levelo://app?vid=e34f1fd3-53eb-4292-8a8d-c55fff78975a","ios":"levelo://app?vid=e34f1fd3-53eb-4292-8a8d-c55fff78975a"},"vehicle_type_id":"4","last_reported":1739387271,"current_range_meters":14800,"station_id":"cjm6bp8fraef2m0cb0m0","pricing_plan_id":"cebpf4jnsgd1na2vs0mg"},{"bike_id":"18a65158-86c9-46b5-9a9a-dff2c2e8d11b","system_id":"levelo_inurba_marseille","lat":43.29418,"lon":5.38627,"is_reserved":false,"is_disabled":false,"rental_uris":{"android":"levelo://app?vid=18a65158-86c9-46b5-9a9a-dff2c2e8d11b","ios":"levelo://app?vid=18a65158-86c9-46b5-9a9a-dff2c2e8d11b"},"vehicle_type_id":"4","last_reported":1739387271,"current_range_meters":17600,"station_id":"ce4bh2h2rcd13ifvqdh0","pricing_plan_id":"cebpf4jnsgd1na2vs0mg"},{"bike_id":"728be96f-7972-4f4c-b020-cf451b83734c","system_id":"levelo_inurba_marseille","lat":43.2954,"lon":5.38532,"is_reserved":false,"is_disabled":false,"rental_uris":{"android":"levelo://app?vid=728be96f-7972-4f4c-b020-cf451b83734c","ios":"levelo://app?vid=728be96f-7972-4f4c-b020-cf451b83734c"},"vehicle_type_id":"4","last_reported":1739387271,"current_range_meters":38800,"station_id":"ce4bgih2rcd13ifvqba0","pricing_plan_id":"cebpf4jnsgd1na2vs0mg"},{"bike_id":"9927d23d-5799-474a-ba73-7318b3a31c6e","system_id":"levelo_inurba_marseille","lat":43.30136,"lon":5.38786,"is_reserved":false,"is_disabled":false,"rental_uris":{"android":"levelo://app?vid=9927d23d-5799-474a-ba73-7318b3a31c6e","ios":"levelo://app?vid=9927d23d-5799-474a-ba73-7318b3a31c6e"},"vehicle_type_id":"4","last_reported":1739387271,"current_range_meters":28400,"station_id":"ce4bghh2rcd13ifvqb60","pricing_plan_id":"cebpf4jnsgd1na2vs0mg"},{"bike_id":"f3cf9847-3bce-4121-8485-beeaf320e579","system_id":"levelo_inurba_marseille","lat":43.29573,"lon":5.39966,"is_reserved":false,"is_disabled":false,"rental_uris":{"android":"levelo://app?vid=f3cf9847-3bce-4121-8485-beeaf320e579","ios":"levelo://app?vid=f3cf9847-3bce-4121-8485-beeaf320e579"},"vehicle_type_id":"4","last_reported":1739387271,"current_range_meters":24000,"station_id":"ce4bh312rcd13ifvqdj0","pricing_plan_id":"cebpf4jnsgd1na2vs0mg"},{"bike_id":"eb74081f-8035-495f-a073-abb8444b5eb2","system_id":"levelo_inurba_marseille","lat":43.23956,"lon":5.36626,"is_reserved":false,"is_disabled":false,"rental_uris":{"android":"levelo://app?vid=eb74081f-8035-495f-a073-abb8444b5eb2","ios":"levelo://app?vid=eb74081f-8035-495f-a073-abb8444b5eb2"},"vehicle_type_id":"4","last_reported":1739387271,"current_range_meters":19600,"station_id":"ce4bhi12rcd13ifvqfp0","pricing_plan_id":"cebpf4jnsgd1na2vs0mg"},{"bike_id":"588801fb-c9d5-4487-969b-0e540c1ff525","system_id":"levelo_inurba_marseille","lat":43.27837,"lon":5.39206,"is_reserved":false,"is_disabled":false,"rental_uris":{"android":"levelo://app?vid=588801fb-c9d5-4487-969b-0e540c1ff525","ios":"levelo://app?vid=588801fb-c9d5-4487-969b-0e540c1ff525"},"vehicle_type_id":"4","last_reported":1739387271,"current_range_meters":9600,"station_id":"ce4bhjp2rcd13ifvqga0","pricing_plan_id":"cebpf4jnsgd1na2vs0mg"},{"bike_id":"bd4cb2aa-dd9c-4b68-abba-ae4f85286222","system_id":"levelo_inurba_marseille","lat":43.29431,"lon":5.38645,"is_reserved":false,"is_disabled":false,"rental_uris":{"android":"levelo://app?vid=bd4cb2aa-dd9c-4b68-abba-ae4f85286222","ios":"levelo://app?vid=bd4cb2aa-dd9c-4b68-abba-ae4f85286222"},"vehicle_type_id":"4","last_reported":1739387271,"current_range_meters":35200,"station_id":"ce4bh2h2rcd13ifvqdh0","pricing_plan_id":"cebpf4jnsgd1na2vs0mg"},{"bike_id":"86eff6e0-0406-47bd-b74b-1993a2456c95","system_id":"levelo_inurba_marseille","lat":43.2827,"lon":5.35073,"is_reserved":false,"is_disabled":false,"rental_uris":{"android":"levelo://app?vid=86eff6e0-0406-47bd-b74b-1993a2456c95","ios":"levelo://app?vid=86eff6e0-0406-47bd-b74b-1993a2456c95"},"vehicle_type_id":"4","last_reported":1739387271,"current_range_meters":38800,"station_id":"ce4bhbp2rcd13ifvqerg","pricing_plan_id":"cebpf4jnsgd1na2vs0mg"},{"bike_id":"a543309b-4d7f-4732-a363-7265720f2874","system_id":"levelo_inurba_marseille","lat":43.28703,"lon":5.37385,"is_reserved":false,"is_disabled":false,"rental_uris":{"android":"levelo://app?vid=a543309b-4d7f-4732-a363-7265720f2874","ios":"levelo://app?vid=a543309b-4d7f-4732-a363-7265720f2874"},"vehicle_type_id":"4","last_reported":1739387271,"current_range_meters":9600,"station_id":"ce4bh3p2rcd13ifvqdq0","pricing_plan_id":"cebpf4jnsgd1na2vs0mg"},{"bike_id":"8d2d4012-ff69-4800-927a-45caff6cd054","system_id":"levelo_inurba_marseille","lat":43.23149,"lon":5.43681,"is_reserved":false,"is_disabled":false,"rental_uris":{"android":"levelo://app?vid=8d2d4012-ff69-4800-927a-45caff6cd054","ios":"levelo://app?vid=8d2d4012-ff69-4800-927a-45caff6cd054"},"vehicle_type_id":"4","last_reported":1739387271,"current_range_meters":14000,"station_id":"ce4bhmp2rcd13ifvqgog","pricing_plan_id":"cebpf4jnsgd1na2vs0mg"},{"bike_id":"1ec14052-2d33-4aa1-9ab8-58cc71db74d1","system_id":"levelo_inurba_marseille","lat":43.24166,"lon":5.36414,"is_reserved":false,"is_disabled":false,"rental_uris":{"android":"levelo://app?vid=1ec14052-2d33-4aa1-9ab8-58cc71db74d1","ios":"levelo://app?vid=1ec14052-2d33-4aa1-9ab8-58cc71db74d1"},"vehicle_type_id":"4","last_reported":1739387271,"current_range_meters":8800,"station_id":"cpo36qri1sfpv3e86is0","pricing_plan_id":"cebpf4jnsgd1na2vs0mg"},{"bike_id":"6e58a69c-2a4e-4c49-840d-6e728a603acb","system_id":"levelo_inurba_marseille","lat":43.23066,"lon":5.35487,"is_reserved":false,"is_disabled":false,"rental_uris":{"android":"levelo://app?vid=6e58a69c-2a4e-4c49-840d-6e728a603acb","ios":"levelo://app?vid=6e58a69c-2a4e-4c49-840d-6e728a603acb"},"vehicle_type_id":"4","last_reported":1739387271,"current_range_meters":8400,"station_id":"cpo3342slgdg3j2ifvpg","pricing_plan_id":"cebpf4jnsgd1na2vs0mg"},{"bike_id":"add7e1b7-46d4-4b7f-bf50-34281873e788","system_id":"levelo_inurba_marseille","lat":43.31233,"lon":5.36846,"is_reserved":false,"is_disabled":true,"rental_uris":{"android":"levelo://app?vid=add7e1b7-46d4-4b7f-bf50-34281873e788","ios":"levelo://app?vid=add7e1b7-46d4-4b7f-bf50-34281873e788"},"vehicle_type_id":"4","last_reported":1739387271,"current_range_meters":32000,"station_id":"ce4bgl92rcd13ifvqbq0","pricing_plan_id":"cebpf4jnsgd1na2vs0mg"},{"bike_id":"6f99482c-9a40-426d-a668-fddb0215ff84","system_id":"levelo_inurba_marseille","lat":43.31083,"lon":5.42428,"is_reserved":false,"is_disabled":false,"rental_uris":{"android":"levelo://app?vid=6f99482c-9a40-426d-a668-fddb0215ff84","ios":"levelo://app?vid=6f99482c-9a40-426d-a668-fddb0215ff84"},"vehicle_type_id":"4","last_reported":1739387271,"current_range_meters":12000,"station_id":"ce4bhp92rcd13ifvqhag","pricing_plan_id":"cebpf4jnsgd1na2vs0mg"},{"bike_id":"487b84c5-8809-479a-969a-47f572f8c420","system_id":"levelo_inurba_marseille","lat":43.29198,"lon":5.35806,"is_reserved":false,"is_disabled":false,"rental_uris":{"android":"levelo://app?vid=487b84c5-8809-479a-969a-47f572f8c420","ios":"levelo://app?vid=487b84c5-8809-479a-969a-47f572f8c420"},"vehicle_type_id":"4","last_reported":1739387271,"current_range_meters":12400,"station_id":"ce4bhb12rcd13ifvqel0","pricing_plan_id":"cebpf4jnsgd1na2vs0mg"},{"bike_id":"bb8d4545-1dfa-4929-b03f-e7a6dbc7e511","system_id":"levelo_inurba_marseille","lat":43.30513,"lon":5.38911,"is_reserved":false,"is_disabled":false,"rental_uris":{"android":"levelo://app?vid=bb8d4545-1dfa-4929-b03f-e7a6dbc7e511","ios":"levelo://app?vid=bb8d4545-1dfa-4929-b03f-e7a6dbc7e511"},"vehicle_type_id":"4","last_reported":1739387271,"current_range_meters":32000,"station_id":"ce4bgk12rcd13ifvqbi0","pricing_plan_id":"cebpf4jnsgd1na2vs0mg"},{"bike_id":"1b3eb435-3a2a-4540-9213-d8bec842fbee","system_id":"levelo_inurba_marseille","lat":43.28413,"lon":5.37511,"is_reserved":false,"is_disabled":false,"rental_uris":{"android":"levelo://app?vid=1b3eb435-3a2a-4540-9213-d8bec842fbee","ios":"levelo://app?vid=1b3eb435-3a2a-4540-9213-d8bec842fbee"},"vehicle_type_id":"4","last_reported":1739387271,"current_range_meters":19200,"station_id":"ce4bh412rcd13ifvqds0","pricing_plan_id":"cebpf4jnsgd1na2vs0mg"},{"bike_id":"5570c534-f1a3-4aaf-a3eb-4ce5d090e097","system_id":"levelo_inurba_marseille","lat":43.30102,"lon":5.39087,"is_reserved":false,"is_disabled":false,"rental_uris":{"android":"levelo://app?vid=5570c534-f1a3-4aaf-a3eb-4ce5d090e097","ios":"levelo://app?vid=5570c534-f1a3-4aaf-a3eb-4ce5d090e097"},"vehicle_type_id":"4","last_reported":1739387271,"current_range_meters":32800,"station_id":"ce4bh192rcd13ifvqdb0","pricing_plan_id":"cebpf4jnsgd1na2vs0mg"},{"bike_id":"fc855d4e-cf92-48ad-b751-57eb2469a89a","system_id":"levelo_inurba_marseille","lat":43.32496,"lon":5.36553,"is_reserved":false,"is_disabled":false,"rental_uris":{"android":"levelo://app?vid=fc855d4e-cf92-48ad-b751-57eb2469a89a","ios":"levelo://app?vid=fc855d4e-cf92-48ad-b751-57eb2469a89a"},"vehicle_type_id":"4","last_reported":1739387271,"current_range_meters":38800,"station_id":"ce4bhs12rcd13ifvqhvg","pricing_plan_id":"cebpf4jnsgd1na2vs0mg"},{"bike_id":"79df8d93-a019-4f4d-ad9b-607d770a7910","system_id":"levelo_inurba_marseille","lat":43.29364,"lon":5.38891,"is_reserved":false,"is_disabled":false,"rental_uris":{"android":"levelo://app?vid=79df8d93-a019-4f4d-ad9b-607d770a7910","ios":"levelo://app?vid=79df8d93-a019-4f4d-ad9b-607d770a7910"},"vehicle_type_id":"4","last_reported":1739387271,"current_range_meters":20800,"station_id":"","pricing_plan_id":"cebpf4jnsgd1na2vs0mg"},{"bike_id":"3ce6ec9a-a388-4f67-ba41-a371735d7bb6","system_id":"levelo_inurba_marseille","lat":43.29548,"lon":5.38552,"is_reserved":false,"is_disabled":false,"rental_uris":{"android":"levelo://app?vid=3ce6ec9a-a388-4f67-ba41-a371735d7bb6","ios":"levelo://app?vid=3ce6ec9a-a388-4f67-ba41-a371735d7bb6"},"vehicle_type_id":"4","last_reported":1739387271,"current_range_meters":32000,"station_id":"ce4bgih2rcd13ifvqba0","pricing_plan_id":"cebpf4jnsgd1na2vs0mg"},{"bike_id":"a3144786-5dd4-45a7-ac1c-de6f011e017c","system_id":"levelo_inurba_marseille","lat":43.27074,"lon":5.40243,"is_reserved":false,"is_disabled":false,"rental_uris":{"android":"levelo://app?vid=a3144786-5dd4-45a7-ac1c-de6f011e017c","ios":"levelo://app?vid=a3144786-5dd4-45a7-ac1c-de6f011e017c"},"vehicle_type_id":"4","last_reported":1739387271,"current_range_meters":38000,"station_id":"ce4bhk92rcd13ifvqgc0","pricing_plan_id":"cebpf4jnsgd1na2vs0mg"},{"bike_id":"04e79b02-26b7-408e-8d07-a04361b8a27a","system_id":"levelo_inurba_marseille","lat":43.23198,"lon":5.39985,"is_reserved":false,"is_disabled":false,"rental_uris":{"android":"levelo://app?vid=04e79b02-26b7-408e-8d07-a04361b8a27a","ios":"levelo://app?vid=04e79b02-26b7-408e-8d07-a04361b8a27a"},"vehicle_type_id":"4","last_reported":1739387271,"current_range_meters":39200,"station_id":"ce4bhn12rcd13ifvqgqg","pricing_plan_id":"cebpf4jnsgd1na2vs0mg"},{"bike_id":"7b7aefaf-046b-432f-9d0c-363c3f21eb79","system_id":"levelo_inurba_marseille","lat":43.29263,"lon":5.38445,"is_reserved":false,"is_disabled":false,"rental_uris":{"android":"levelo://app?vid=7b7aefaf-046b-432f-9d0c-363c3f21eb79","ios":"levelo://app?vid=7b7aefaf-046b-432f-9d0c-363c3f21eb79"},"vehicle_type_id":"4","last_reported":1739387271,"current_range_meters":38800,"station_id":"ce4bh692rcd13ifvqea0","pricing_plan_id":"cebpf4jnsgd1na2vs0mg"},{"bike_id":"55f7b323-532a-4001-8ef9-bdbcdfd3e1a3","system_id":"levelo_inurba_marseille","lat":43.25497,"lon":5.37653,"is_reserved":false,"is_disabled":false,"rental_uris":{"android":"levelo://app?vid=55f7b323-532a-4001-8ef9-bdbcdfd3e1a3","ios":"levelo://app?vid=55f7b323-532a-4001-8ef9-bdbcdfd3e1a3"},"vehicle_type_id":"4","last_reported":1739387271,"current_range_meters":38800,"station_id":"ce4bhh12rcd13ifvqff0","pricing_plan_id":"cebpf4jnsgd1na2vs0mg"},{"bike_id":"4c809273-9f09-435c-be37-e0d488a9fa02","system_id":"levelo_inurba_marseille","lat":43.23968,"lon":5.3662,"is_reserved":false,"is_disabled":false,"rental_uris":{"android":"levelo://app?vid=4c809273-9f09-435c-be37-e0d488a9fa02","ios":"levelo://app?vid=4c809273-9f09-435c-be37-e0d488a9fa02"},"vehicle_type_id":"4","last_reported":1739387271,"current_range_meters":8800,"station_id":"ce4bhi12rcd13ifvqfp0","pricing_plan_id":"cebpf4jnsgd1na2vs0mg"},{"bike_id":"0af6ce70-a73d-4e15-ae66-afdf903dbe27","system_id":"levelo_inurba_marseille","lat":43.24803,"lon":5.37464,"is_reserved":false,"is_disabled":false,"rental_uris":{"android":"levelo://app?vid=0af6ce70-a73d-4e15-ae66-afdf903dbe27","ios":"levelo://app?vid=0af6ce70-a73d-4e15-ae66-afdf903dbe27"},"vehicle_type_id":"4","last_reported":1739387271,"current_range_meters":5600,"station_id":"ce4bhgh2rcd13ifvqfb0","pricing_plan_id":"cebpf4jnsgd1na2vs0mg"},{"bike_id":"b16212f6-3c41-4c3a-b6e7-e6b66bbe2c61","system_id":"levelo_inurba_marseille","lat":43.29225,"lon":5.36063,"is_reserved":false,"is_disabled":false,"rental_uris":{"android":"levelo://app?vid=b16212f6-3c41-4c3a-b6e7-e6b66bbe2c61","ios":"levelo://app?vid=b16212f6-3c41-4c3a-b6e7-e6b66bbe2c61"},"vehicle_type_id":"4","last_reported":1739387271,"current_range_meters":38800,"station_id":"ce4bhbh2rcd13ifvqeqg","pricing_plan_id":"cebpf4jnsgd1na2vs0mg"},{"bike_id":"5cf302ed-d281-48c7-bf89-e5bada141783","system_id":"levelo_inurba_marseille","lat":43.27951,"lon":5.41038,"is_reserved":false,"is_disabled":false,"rental_uris":{"android":"levelo://app?vid=5cf302ed-d281-48c7-bf89-e5bada141783","ios":"levelo://app?vid=5cf302ed-d281-48c7-bf89-e5bada141783"},"vehicle_type_id":"4","last_reported":1739387271,"current_range_meters":24800,"station_id":"ce4bhnp2rcd13ifvqh0g","pricing_plan_id":"cebpf4jnsgd1na2vs0mg"},{"bike_id":"9e959baa-c12c-421b-ae7e-498336eaac08","system_id":"levelo_inurba_marseille","lat":43.24985,"lon":5.3892,"is_reserved":false,"is_disabled":false,"rental_uris":{"android":"levelo://app?vid=9e959baa-c12c-421b-ae7e-498336eaac08","ios":"levelo://app?vid=9e959baa-c12c-421b-ae7e-498336eaac08"},"vehicle_type_id":"4","last_reported":1739387271,"current_range_meters":30000,"station_id":"ce4bhgp2rcd13ifvqfd0","pricing_plan_id":"cebpf4jnsgd1na2vs0mg"},{"bike_id":"1283a07a-ab45-4687-bd1d-6b32c07bcd29","system_id":"levelo_inurba_marseille","lat":43.31228,"lon":5.36843,"is_reserved":false,"is_disabled":false,"rental_uris":{"android":"levelo://app?vid=1283a07a-ab45-4687-bd1d-6b32c07bcd29","ios":"levelo://app?vid=1283a07a-ab45-4687-bd1d-6b32c07bcd29"},"vehicle_type_id":"4","last_reported":1739387271,"current_range_meters":11200,"station_id":"ce4bgl92rcd13ifvqbq0","pricing_plan_id":"cebpf4jnsgd1na2vs0mg"},{"bike_id":"95238438-aee1-472d-8c03-6f5da0f062d1","system_id":"levelo_inurba_marseille","lat":43.31359,"lon":5.367055,"is_reserved":false,"is_disabled":false,"rental_uris":{"android":"levelo://app?vid=95238438-aee1-472d-8c03-6f5da0f062d1","ios":"levelo://app?vid=95238438-aee1-472d-8c03-6f5da0f062d1"},"vehicle_type_id":"4","last_reported":1739387271,"current_range_meters":12800,"station_id":"ce4bgr92rcd13ifvqc6g","pricing_plan_id":"cebpf4jnsgd1na2vs0mg"},{"bike_id":"14fb43e7-b3a6-49b3-b019-f509180c9f0a","system_id":"levelo_inurba_marseille","lat":43.29312,"lon":5.3717,"is_reserved":false,"is_disabled":false,"rental_uris":{"android":"levelo://app?vid=14fb43e7-b3a6-49b3-b019-f509180c9f0a","ios":"levelo://app?vid=14fb43e7-b3a6-49b3-b019-f509180c9f0a"},"vehicle_type_id":"4","last_reported":1739387271,"current_range_meters":38800,"station_id":"ce4bgh92rcd13ifvqb40","pricing_plan_id":"cebpf4jnsgd1na2vs0mg"},{"bike_id":"8bdef688-838d-4471-98f0-db0a2e242e5b","system_id":"levelo_inurba_marseille","lat":43.26034,"lon":5.37546,"is_reserved":false,"is_disabled":false,"rental_uris":{"android":"levelo://app?vid=8bdef688-838d-4471-98f0-db0a2e242e5b","ios":"levelo://app?vid=8bdef688-838d-4471-98f0-db0a2e242e5b"},"vehicle_type_id":"4","last_reported":1739387271,"current_range_meters":5600,"station_id":"ce4bhgh2rcd13ifvqfa0","pricing_plan_id":"cebpf4jnsgd1na2vs0mg"},{"bike_id":"33c35472-c55f-492f-a3d8-778d8d5e65c6","system_id":"levelo_inurba_marseille","lat":43.33028,"lon":5.39037,"is_reserved":false,"is_disabled":false,"rental_uris":{"android":"levelo://app?vid=33c35472-c55f-492f-a3d8-778d8d5e65c6","ios":"levelo://app?vid=33c35472-c55f-492f-a3d8-778d8d5e65c6"},"vehicle_type_id":"4","last_reported":1739387271,"current_range_meters":16400,"station_id":"ce4bhr92rcd13ifvqhrg","pricing_plan_id":"cebpf4jnsgd1na2vs0mg"},{"bike_id":"3f3a3a3d-a60a-4f5d-9db0-6a1a1573f005","system_id":"levelo_inurba_marseille","lat":43.287224,"lon":5.360811,"is_reserved":false,"is_disabled":false,"rental_uris":{"android":"levelo://app?vid=3f3a3a3d-a60a-4f5d-9db0-6a1a1573f005","ios":"levelo://app?vid=3f3a3a3d-a60a-4f5d-9db0-6a1a1573f005"},"vehicle_type_id":"4","last_reported":1739387271,"current_range_meters":11600,"station_id":"cki0cbj6b192h4jlfktg","pricing_plan_id":"cebpf4jnsgd1na2vs0mg"},{"bike_id":"ad92cd69-9671-4fbf-8072-aaa2649962f2","system_id":"levelo_inurba_marseille","lat":43.30427,"lon":5.38889,"is_reserved":false,"is_disabled":false,"rental_uris":{"android":"levelo://app?vid=ad92cd69-9671-4fbf-8072-aaa2649962f2","ios":"levelo://app?vid=ad92cd69-9671-4fbf-8072-aaa2649962f2"},"vehicle_type_id":"4","last_reported":1739387271,"current_range_meters":27200,"station_id":"ce4bgk12rcd13ifvqbi0","pricing_plan_id":"cebpf4jnsgd1na2vs0mg"},{"bike_id":"3661bdb9-5fee-450a-923e-1549e8560ef0","system_id":"levelo_inurba_marseille","lat":43.31269,"lon":5.40152,"is_reserved":false,"is_disabled":false,"rental_uris":{"android":"levelo://app?vid=3661bdb9-5fee-450a-923e-1549e8560ef0","ios":"levelo://app?vid=3661bdb9-5fee-450a-923e-1549e8560ef0"},"vehicle_type_id":"4","last_reported":1739387271,"current_range_meters":36800,"station_id":"ce4bh092rcd13ifvqd30","pricing_plan_id":"cebpf4jnsgd1na2vs0mg"},{"bike_id":"aca8ad83-5f38-470b-a112-908a7f3ad9d2","system_id":"levelo_inurba_marseille","lat":43.29245,"lon":5.3845,"is_reserved":false,"is_disabled":false,"rental_uris":{"android":"levelo://app?vid=aca8ad83-5f38-470b-a112-908a7f3ad9d2","ios":"levelo://app?vid=aca8ad83-5f38-470b-a112-908a7f3ad9d2"},"vehicle_type_id":"4","last_reported":1739387271,"current_range_meters":38800,"station_id":"ce4bh692rcd13ifvqea0","pricing_plan_id":"cebpf4jnsgd1na2vs0mg"},{"bike_id":"fecace1e-7cdd-4e2b-b939-fbed25cfb1d2","system_id":"levelo_inurba_marseille","lat":43.29167,"lon":5.37155,"is_reserved":false,"is_disabled":false,"rental_uris":{"android":"levelo://app?vid=fecace1e-7cdd-4e2b-b939-fbed25cfb1d2","ios":"levelo://app?vid=fecace1e-7cdd-4e2b-b939-fbed25cfb1d2"},"vehicle_type_id":"4","last_reported":1739387271,"current_range_meters":18800,"station_id":"ce4bha92rcd13ifvqeh0","pricing_plan_id":"cebpf4jnsgd1na2vs0mg"},{"bike_id":"df65cc1f-1e67-490c-89a4-d5f74f10ed95","system_id":"levelo_inurba_marseille","lat":43.28264,"lon":5.35066,"is_reserved":false,"is_disabled":false,"rental_uris":{"android":"levelo://app?vid=df65cc1f-1e67-490c-89a4-d5f74f10ed95","ios":"levelo://app?vid=df65cc1f-1e67-490c-89a4-d5f74f10ed95"},"vehicle_type_id":"4","last_reported":1739387271,"current_range_meters":22000,"station_id":"ce4bhbp2rcd13ifvqerg","pricing_plan_id":"cebpf4jnsgd1na2vs0mg"},{"bike_id":"a67ea126-accf-490a-9877-7937ad72b208","system_id":"levelo_inurba_marseille","lat":43.34143,"lon":5.40901,"is_reserved":false,"is_disabled":false,"rental_uris":{"android":"levelo://app?vid=a67ea126-accf-490a-9877-7937ad72b208","ios":"levelo://app?vid=a67ea126-accf-490a-9877-7937ad72b208"},"vehicle_type_id":"4","last_reported":1739387271,"current_range_meters":25200,"station_id":"ce4bhqh2rcd13ifvqhlg","pricing_plan_id":"cebpf4jnsgd1na2vs0mg"},{"bike_id":"68a10961-d3e2-468b-ba97-fb6fdb24a4de","system_id":"levelo_inurba_marseille","lat":43.31371,"lon":5.38491,"is_reserved":false,"is_disabled":false,"rental_uris":{"android":"levelo://app?vid=68a10961-d3e2-468b-ba97-fb6fdb24a4de","ios":"levelo://app?vid=68a10961-d3e2-468b-ba97-fb6fdb24a4de"},"vehicle_type_id":"4","last_reported":1739387271,"current_range_meters":36000,"station_id":"ce4bgt92rcd13ifvqcf0","pricing_plan_id":"cebpf4jnsgd1na2vs0mg"},{"bike_id":"ca60b2af-cce7-4290-adcc-eaec354c2c93","system_id":"levelo_inurba_marseille","lat":43.25008,"lon":5.3891,"is_reserved":false,"is_disabled":false,"rental_uris":{"android":"levelo://app?vid=ca60b2af-cce7-4290-adcc-eaec354c2c93","ios":"levelo://app?vid=ca60b2af-cce7-4290-adcc-eaec354c2c93"},"vehicle_type_id":"4","last_reported":1739387271,"current_range_meters":26000,"station_id":"ce4bhgp2rcd13ifvqfd0","pricing_plan_id":"cebpf4jnsgd1na2vs0mg"},{"bike_id":"3f53f95a-9c5c-4075-a387-a50f84061cec","system_id":"levelo_inurba_marseille","lat":43.25871,"lon":5.39903,"is_reserved":false,"is_disabled":false,"rental_uris":{"android":"levelo://app?vid=3f53f95a-9c5c-4075-a387-a50f84061cec","ios":"levelo://app?vid=3f53f95a-9c5c-4075-a387-a50f84061cec"},"vehicle_type_id":"4","last_reported":1739387271,"current_range_meters":33600,"station_id":"ce4bhl92rcd13ifvqghg","pricing_plan_id":"cebpf4jnsgd1na2vs0mg"},{"bike_id":"d8e41f0e-3aa8-4092-ad5b-b8afa8186903","system_id":"levelo_inurba_marseille","lat":43.2954,"lon":5.38542,"is_reserved":false,"is_disabled":true,"rental_uris":{"android":"levelo://app?vid=d8e41f0e-3aa8-4092-ad5b-b8afa8186903","ios":"levelo://app?vid=d8e41f0e-3aa8-4092-ad5b-b8afa8186903"},"vehicle_type_id":"4","last_reported":1739387271,"current_range_meters":0,"station_id":"ce4bgih2rcd13ifvqba0","pricing_plan_id":"cebpf4jnsgd1na2vs0mg"},{"bike_id":"b0f70249-6360-4dc3-a83a-fd73a6b534c8","system_id":"levelo_inurba_marseille","lat":43.3215,"lon":5.38438,"is_reserved":false,"is_disabled":false,"rental_uris":{"android":"levelo://app?vid=b0f70249-6360-4dc3-a83a-fd73a6b534c8","ios":"levelo://app?vid=b0f70249-6360-4dc3-a83a-fd73a6b534c8"},"vehicle_type_id":"4","last_reported":1739387271,"current_range_meters":32400,"station_id":"","pricing_plan_id":"cebpf4jnsgd1na2vs0mg"},{"bike_id":"54ce597b-1ca1-4d62-923d-d4b29eec04b3","system_id":"levelo_inurba_marseille","lat":43.31131,"lon":5.38261,"is_reserved":false,"is_disabled":false,"rental_uris":{"android":"levelo://app?vid=54ce597b-1ca1-4d62-923d-d4b29eec04b3","ios":"levelo://app?vid=54ce597b-1ca1-4d62-923d-d4b29eec04b3"},"vehicle_type_id":"4","last_reported":1739387271,"current_range_meters":14000,"station_id":"","pricing_plan_id":"cebpf4jnsgd1na2vs0mg"},{"bike_id":"e7897439-f664-4a77-8d8b-47c8323ff776","system_id":"levelo_inurba_marseille","lat":43.27943,"lon":5.41033,"is_reserved":false,"is_disabled":false,"rental_uris":{"android":"levelo://app?vid=e7897439-f664-4a77-8d8b-47c8323ff776","ios":"levelo://app?vid=e7897439-f664-4a77-8d8b-47c8323ff776"},"vehicle_type_id":"4","last_reported":1739387271,"current_range_meters":14800,"station_id":"ce4bhnp2rcd13ifvqh0g","pricing_plan_id":"cebpf4jnsgd1na2vs0mg"},{"bike_id":"d5d8073d-88be-496f-b8db-ad4198d742b5","system_id":"levelo_inurba_marseille","lat":43.2835,"lon":5.38095,"is_reserved":false,"is_disabled":false,"rental_uris":{"android":"levelo://app?vid=d5d8073d-88be-496f-b8db-ad4198d742b5","ios":"levelo://app?vid=d5d8073d-88be-496f-b8db-ad4198d742b5"},"vehicle_type_id":"4","last_reported":1739387271,"current_range_meters":30000,"station_id":"ce4bh412rcd13ifvqdr0","pricing_plan_id":"cebpf4jnsgd1na2vs0mg"},{"bike_id":"9d6c6a2c-f4a8-4f2e-9a51-0f83be3f4454","system_id":"levelo_inurba_marseille","lat":43.25005,"lon":5.3891,"is_reserved":false,"is_disabled":false,"rental_uris":{"android":"levelo://app?vid=9d6c6a2c-f4a8-4f2e-9a51-0f83be3f4454","ios":"levelo://app?vid=9d6c6a2c-f4a8-4f2e-9a51-0f83be3f4454"},"vehicle_type_id":"4","last_reported":1739387271,"current_range_meters":30800,"station_id":"ce4bhgp2rcd13ifvqfd0","pricing_plan_id":"cebpf4jnsgd1na2vs0mg"},{"bike_id":"1867c517-1bfa-4551-83b8-336b224893b4","system_id":"levelo_inurba_marseille","lat":43.30444,"lon":5.3889,"is_reserved":false,"is_disabled":false,"rental_uris":{"android":"levelo://app?vid=1867c517-1bfa-4551-83b8-336b224893b4","ios":"levelo://app?vid=1867c517-1bfa-4551-83b8-336b224893b4"},"vehicle_type_id":"4","last_reported":1739387271,"current_range_meters":38800,"station_id":"ce4bgk12rcd13ifvqbi0","pricing_plan_id":"cebpf4jnsgd1na2vs0mg"},{"bike_id":"9d9e0aa8-9e74-4074-b897-7f0e5a57b130","system_id":"levelo_inurba_marseille","lat":43.29973,"lon":5.37191,"is_reserved":false,"is_disabled":false,"rental_uris":{"android":"levelo://app?vid=9d9e0aa8-9e74-4074-b897-7f0e5a57b130","ios":"levelo://app?vid=9d9e0aa8-9e74-4074-b897-7f0e5a57b130"},"vehicle_type_id":"4","last_reported":1739387271,"current_range_meters":38400,"station_id":"ce4bgr92rcd13ifvqc7g","pricing_plan_id":"cebpf4jnsgd1na2vs0mg"},{"bike_id":"ada458cc-0386-4960-91d1-f14ed09a1803","system_id":"levelo_inurba_marseille","lat":43.31322,"lon":5.39707,"is_reserved":false,"is_disabled":false,"rental_uris":{"android":"levelo://app?vid=ada458cc-0386-4960-91d1-f14ed09a1803","ios":"levelo://app?vid=ada458cc-0386-4960-91d1-f14ed09a1803"},"vehicle_type_id":"4","last_reported":1739387271,"current_range_meters":31200,"station_id":"ce4bgvp2rcd13ifvqcu0","pricing_plan_id":"cebpf4jnsgd1na2vs0mg"},{"bike_id":"b316ce17-ffa3-4db6-aea0-87b99324498a","system_id":"levelo_inurba_marseille","lat":43.28639,"lon":5.38367,"is_reserved":false,"is_disabled":true,"rental_uris":{"android":"levelo://app?vid=b316ce17-ffa3-4db6-aea0-87b99324498a","ios":"levelo://app?vid=b316ce17-ffa3-4db6-aea0-87b99324498a"},"vehicle_type_id":"4","last_reported":1739387271,"current_range_meters":0,"station_id":"","pricing_plan_id":"cebpf4jnsgd1na2vs0mg"},{"bike_id":"f88f0955-804d-4722-a3de-d387dfedca1f","system_id":"levelo_inurba_marseille","lat":43.2605,"lon":5.39386,"is_reserved":false,"is_disabled":false,"rental_uris":{"android":"levelo://app?vid=f88f0955-804d-4722-a3de-d387dfedca1f","ios":"levelo://app?vid=f88f0955-804d-4722-a3de-d387dfedca1f"},"vehicle_type_id":"4","last_reported":1739387271,"current_range_meters":37600,"station_id":"ce4bhh92rcd13ifvqfj0","pricing_plan_id":"cebpf4jnsgd1na2vs0mg"},{"bike_id":"ec0cd56d-da7c-49dd-8c5c-5ee1e2c254bc","system_id":"levelo_inurba_marseille","lat":43.2931,"lon":5.37168,"is_reserved":false,"is_disabled":false,"rental_uris":{"android":"levelo://app?vid=ec0cd56d-da7c-49dd-8c5c-5ee1e2c254bc","ios":"levelo://app?vid=ec0cd56d-da7c-49dd-8c5c-5ee1e2c254bc"},"vehicle_type_id":"4","last_reported":1739387271,"current_range_meters":32800,"station_id":"ce4bgh92rcd13ifvqb40","pricing_plan_id":"cebpf4jnsgd1na2vs0mg"},{"bike_id":"58a923a1-50e5-4bcc-a5c7-59fd5ea18680","system_id":"levelo_inurba_marseille","lat":43.23159,"lon":5.43701,"is_reserved":false,"is_disabled":false,"rental_uris":{"android":"levelo://app?vid=58a923a1-50e5-4bcc-a5c7-59fd5ea18680","ios":"levelo://app?vid=58a923a1-50e5-4bcc-a5c7-59fd5ea18680"},"vehicle_type_id":"4","last_reported":1739387271,"current_range_meters":18800,"station_id":"ce4bhmp2rcd13ifvqgog","pricing_plan_id":"cebpf4jnsgd1na2vs0mg"},{"bike_id":"b38657ea-556b-4d95-9ad4-c92a9f4b6c21","system_id":"levelo_inurba_marseille","lat":43.26577,"lon":5.39039,"is_reserved":false,"is_disabled":false,"rental_uris":{"android":"levelo://app?vid=b38657ea-556b-4d95-9ad4-c92a9f4b6c21","ios":"levelo://app?vid=b38657ea-556b-4d95-9ad4-c92a9f4b6c21"},"vehicle_type_id":"4","last_reported":1739387271,"current_range_meters":28800,"station_id":"ce4bhe12rcd13ifvqf30","pricing_plan_id":"cebpf4jnsgd1na2vs0mg"},{"bike_id":"f1ffe42f-c83a-41cb-8c24-bbd699d4b15e","system_id":"levelo_inurba_marseille","lat":43.29531,"lon":5.3903,"is_reserved":false,"is_disabled":false,"rental_uris":{"android":"levelo://app?vid=f1ffe42f-c83a-41cb-8c24-bbd699d4b15e","ios":"levelo://app?vid=f1ffe42f-c83a-41cb-8c24-bbd699d4b15e"},"vehicle_type_id":"4","last_reported":1739387271,"current_range_meters":24800,"station_id":"ce4bh3p2rcd13ifvqdp0","pricing_plan_id":"cebpf4jnsgd1na2vs0mg"},{"bike_id":"e7f58266-3a6c-4d54-aa98-e9facdd9beaf","system_id":"levelo_inurba_marseille","lat":43.31367,"lon":5.38495,"is_reserved":false,"is_disabled":false,"rental_uris":{"android":"levelo://app?vid=e7f58266-3a6c-4d54-aa98-e9facdd9beaf","ios":"levelo://app?vid=e7f58266-3a6c-4d54-aa98-e9facdd9beaf"},"vehicle_type_id":"4","last_reported":1739387271,"current_range_meters":17600,"station_id":"ce4bgt92rcd13ifvqcf0","pricing_plan_id":"cebpf4jnsgd1na2vs0mg"},{"bike_id":"0f80b63c-292e-4c39-a6d0-129780cf06ad","system_id":"levelo_inurba_marseille","lat":43.283481,"lon":5.381111,"is_reserved":false,"is_disabled":false,"rental_uris":{"android":"levelo://app?vid=0f80b63c-292e-4c39-a6d0-129780cf06ad","ios":"levelo://app?vid=0f80b63c-292e-4c39-a6d0-129780cf06ad"},"vehicle_type_id":"4","last_reported":1739387271,"current_range_meters":38800,"station_id":"ce4bh412rcd13ifvqdr0","pricing_plan_id":"cebpf4jnsgd1na2vs0mg"},{"bike_id":"fd3b8363-33af-4006-baee-fb506a4fa579","system_id":"levelo_inurba_marseille","lat":43.28998,"lon":5.35613,"is_reserved":false,"is_disabled":false,"rental_uris":{"android":"levelo://app?vid=fd3b8363-33af-4006-baee-fb506a4fa579","ios":"levelo://app?vid=fd3b8363-33af-4006-baee-fb506a4fa579"},"vehicle_type_id":"4","last_reported":1739387271,"current_range_meters":38800,"station_id":"ce4bhb92rcd13ifvqen0","pricing_plan_id":"cebpf4jnsgd1na2vs0mg"},{"bike_id":"7807137c-f854-4232-95a0-7b557b72e144","system_id":"levelo_inurba_marseille","lat":43.25091,"lon":5.39525,"is_reserved":false,"is_disabled":false,"rental_uris":{"android":"levelo://app?vid=7807137c-f854-4232-95a0-7b557b72e144","ios":"levelo://app?vid=7807137c-f854-4232-95a0-7b557b72e144"},"vehicle_type_id":"4","last_reported":1739387271,"current_range_meters":34000,"station_id":"ce4bhm12rcd13ifvqgkg","pricing_plan_id":"cebpf4jnsgd1na2vs0mg"},{"bike_id":"85dae83b-01b5-40cc-8d60-6e50f31f778d","system_id":"levelo_inurba_marseille","lat":43.23199,"lon":5.39957,"is_reserved":false,"is_disabled":false,"rental_uris":{"android":"levelo://app?vid=85dae83b-01b5-40cc-8d60-6e50f31f778d","ios":"levelo://app?vid=85dae83b-01b5-40cc-8d60-6e50f31f778d"},"vehicle_type_id":"4","last_reported":1739387271,"current_range_meters":38800,"station_id":"ce4bhn12rcd13ifvqgqg","pricing_plan_id":"cebpf4jnsgd1na2vs0mg"},{"bike_id":"296fcee4-79c3-49a9-a7c9-6e22cb6314c5","system_id":"levelo_inurba_marseille","lat":43.30095,"lon":5.39089,"is_reserved":false,"is_disabled":false,"rental_uris":{"android":"levelo://app?vid=296fcee4-79c3-49a9-a7c9-6e22cb6314c5","ios":"levelo://app?vid=296fcee4-79c3-49a9-a7c9-6e22cb6314c5"},