{"last_updated":1727244776,"ttl":60,"version":"2.2","data":{"bikes":[{"bike_id":"dc929efc-0c43-486c-9a16-d8a71128110d","system_id":"levelo_inurba_marseille","lat":43.28431,"lon":5.34994,"is_reserved":false,"is_disabled":false,"rental_uris":{"android":"levelo://app?vid=dc929efc-0c43-486c-9a16-d8a71128110d","ios":"levelo://app?vid=dc929efc-0c43-486c-9a16-d8a71128110d"},"vehicle_type_id":"4","last_reported":1727244776,"current_range_meters":38400,"station_id":"ce4bhbh2rcd13ifvqepg","pricing_plan_id":"cebpf4jnsgd1na2vs0mg"},{"bike_id":"64e7ffb3-7740-40ef-9b12-5dcfb6720d14","system_id":"levelo_inurba_marseille","lat":43.27495,"lon":5.42453,"is_reserved":false,"is_disabled":false,"rental_uris":{"android":"levelo://app?vid=64e7ffb3-7740-40ef-9b12-5dcfb6720d14","ios":"levelo://app?vid=64e7ffb3-7740-40ef-9b12-5dcfb6720d14"},"vehicle_type_id":"4","last_reported":1727244776,"current_range_meters":3200,"station_id":"ce4bhn92rcd13ifvqgrg","pricing_plan_id":"cebpf4jnsgd1na2vs0mg"},{"bike_id":"b9c2c256-0606-401d-992f-034975c78945","system_id":"levelo_inurba_marseille","lat":43.304495,"lon":5.378751,"is_reserved":false,"is_disabled":false,"rental_uris":{"android":"levelo://app?vid=b9c2c256-0606-401d-992f-034975c78945","ios":"levelo://app?vid=b9c2c256-0606-401d-992f-034975c78945"},"vehicle_type_id":"4","last_reported":1727244776,"current_range_meters":34000,"station_id":"ce4bgup2rcd13ifvqcn0","pricing_plan_id":"cebpf4jnsgd1na2vs0mg"},{"bike_id":"c85c3ac1-ec61-453b-a260-9f3875c4a0d0","system_id":"levelo_inurba_marseille","lat":43.27971,"lon":5.41073,"is_reserved":false,"is_disabled":false,"rental_uris":{"android":"levelo://app?vid=c85c3ac1-ec61-453b-a260-9f3875c4a0d0","ios":"levelo://app?vid=c85c3ac1-ec61-453b-a260-9f3875c4a0d0"},"vehicle_type_id":"4","last_reported":1727244776,"current_range_meters":27600,"station_id":"ce4bhnp2rcd13ifvqh0g","pricing_plan_id":"cebpf4jnsgd1na2vs0mg"},{"bike_id":"d5f66844-86bc-4a15-af71-1552c13fc803","system_id":"levelo_inurba_marseille","lat":43.30279,"lon":5.377157,"is_reserved":false,"is_disabled":false,"rental_uris":{"android":"levelo://app?vid=d5f66844-86bc-4a15-af71-1552c13fc803","ios":"levelo://app?vid=d5f66844-86bc-4a15-af71-1552c13fc803"},"vehicle_type_id":"4","last_reported":1727244776,"current_range_meters":34000,"station_id":"ce4bguh2rcd13ifvqcj0","pricing_plan_id":"cebpf4jnsgd1na2vs0mg"},{"bike_id":"9de15766-f6e5-4718-b239-efcc3a94df68","system_id":"levelo_inurba_marseille","lat":43.30157,"lon":5.38074,"is_reserved":false,"is_disabled":false,"rental_uris":{"android":"levelo://app?vid=9de15766-f6e5-4718-b239-efcc3a94df68","ios":"levelo://app?vid=9de15766-f6e5-4718-b239-efcc3a94df68"},"vehicle_type_id":"4","last_reported":1727244776,"current_range_meters":8000,"station_id":"ce4bgjp2rcd13ifvqbh0","pricing_plan_id":"cebpf4jnsgd1na2vs0mg"},{"bike_id":"39b3e7e6-178b-4ac9-ab7c-6ff778b3ad2e","system_id":"levelo_inurba_marseille","lat":43.27497,"lon":5.42451,"is_reserved":false,"is_disabled":false,"rental_uris":{"android":"levelo://app?vid=39b3e7e6-178b-4ac9-ab7c-6ff778b3ad2e","ios":"levelo://app?vid=39b3e7e6-178b-4ac9-ab7c-6ff778b3ad2e"},"vehicle_type_id":"4","last_reported":1727244776,"current_range_meters":34800,"station_id":"ce4bhn92rcd13ifvqgrg","pricing_plan_id":"cebpf4jnsgd1na2vs0mg"},{"bike_id":"3c374343-aa99-421a-8521-b9bd189598db","system_id":"levelo_inurba_marseille","lat":43.28272,"lon":5.35065,"is_reserved":false,"is_disabled":false,"rental_uris":{"android":"levelo://app?vid=3c374343-aa99-421a-8521-b9bd189598db","ios":"levelo://app?vid=3c374343-aa99-421a-8521-b9bd189598db"},"vehicle_type_id":"4","last_reported":1727244776,"current_range_meters":36400,"station_id":"ce4bhbp2rcd13ifvqerg","pricing_plan_id":"cebpf4jnsgd1na2vs0mg"},{"bike_id":"0d4b5458-b225-48a0-afcc-d519ae9c6167","system_id":"levelo_inurba_marseille","lat":43.32662,"lon":5.40985,"is_reserved":false,"is_disabled":false,"rental_uris":{"android":"levelo://app?vid=0d4b5458-b225-48a0-afcc-d519ae9c6167","ios":"levelo://app?vid=0d4b5458-b225-48a0-afcc-d519ae9c6167"},"vehicle_type_id":"4","last_reported":1727244776,"current_range_meters":38400,"station_id":"ce4bhpp2rcd13ifvqhgg","pricing_plan_id":"cebpf4jnsgd1na2vs0mg"},{"bike_id":"c6cd9b70-3b14-42a0-9ee3-01408936a20e","system_id":"levelo_inurba_marseille","lat":43.27786,"lon":5.4076,"is_reserved":false,"is_disabled":false,"rental_uris":{"android":"levelo://app?vid=c6cd9b70-3b14-42a0-9ee3-01408936a20e","ios":"levelo://app?vid=c6cd9b70-3b14-42a0-9ee3-01408936a20e"},"vehicle_type_id":"4","last_reported":1727244776,"current_range_meters":16400,"station_id":"ce4bhnh2rcd13ifvqgtg","pricing_plan_id":"cebpf4jnsgd1na2vs0mg"},{"bike_id":"a2e8d937-74dd-4528-9647-c84f9ad6486c","system_id":"levelo_inurba_marseille","lat":43.30807,"lon":5.38151,"is_reserved":false,"is_disabled":false,"rental_uris":{"android":"levelo://app?vid=a2e8d937-74dd-4528-9647-c84f9ad6486c","ios":"levelo://app?vid=a2e8d937-74dd-4528-9647-c84f9ad6486c"},"vehicle_type_id":"4","last_reported":1727244776,"current_range_meters":38000,"station_id":"ce4bgt12rcd13ifvqce0","pricing_plan_id":"cebpf4jnsgd1na2vs0mg"},{"bike_id":"dec73f4f-b681-4818-a068-daca63f0a22d","system_id":"levelo_inurba_marseille","lat":43.22927,"lon":5.35383,"is_reserved":false,"is_disabled":false,"rental_uris":{"android":"levelo://app?vid=dec73f4f-b681-4818-a068-daca63f0a22d","ios":"levelo://app?vid=dec73f4f-b681-4818-a068-daca63f0a22d"},"vehicle_type_id":"4","last_reported":1727244776,"current_range_meters":38800,"station_id":"cpo3532slgdg3j2ikp40","pricing_plan_id":"cebpf4jnsgd1na2vs0mg"},{"bike_id":"9926f8d4-52ff-41d7-995b-39e4b6d4cdc0","system_id":"levelo_inurba_marseille","lat":43.32482,"lon":5.36572,"is_reserved":false,"is_disabled":false,"rental_uris":{"android":"levelo://app?vid=9926f8d4-52ff-41d7-995b-39e4b6d4cdc0","ios":"levelo://app?vid=9926f8d4-52ff-41d7-995b-39e4b6d4cdc0"},"vehicle_type_id":"4","last_reported":1727244776,"current_range_meters":40000,"station_id":"ce4bhs12rcd13ifvqhvg","pricing_plan_id":"cebpf4jnsgd1na2vs0mg"},{"bike_id":"881645e5-f4c7-4b41-b4c9-d93404411ab1","system_id":"levelo_inurba_marseille","lat":43.26566,"lon":5.3901,"is_reserved":false,"is_disabled":false,"rental_uris":{"android":"levelo://app?vid=881645e5-f4c7-4b41-b4c9-d93404411ab1","ios":"levelo://app?vid=881645e5-f4c7-4b41-b4c9-d93404411ab1"},"vehicle_type_id":"4","last_reported":1727244776,"current_range_meters":38400,"station_id":"ce4bhe12rcd13ifvqf30","pricing_plan_id":"cebpf4jnsgd1na2vs0mg"},{"bike_id":"08248fef-1a11-4ca6-9a29-f4bae5d2a2d2","system_id":"levelo_inurba_marseille","lat":43.24078,"lon":5.37805,"is_reserved":false,"is_disabled":false,"rental_uris":{"android":"levelo://app?vid=08248fef-1a11-4ca6-9a29-f4bae5d2a2d2","ios":"levelo://app?vid=08248fef-1a11-4ca6-9a29-f4bae5d2a2d2"},"vehicle_type_id":"4","last_reported":1727244776,"current_range_meters":22000,"station_id":"ce4bhnp2rcd13ifvqgvg","pricing_plan_id":"cebpf4jnsgd1na2vs0mg"},{"bike_id":"bb12d251-5d23-49a2-a2a5-87d7ed7ece91","system_id":"levelo_inurba_marseille","lat":43.31362,"lon":5.36699,"is_reserved":false,"is_disabled":false,"rental_uris":{"android":"levelo://app?vid=bb12d251-5d23-49a2-a2a5-87d7ed7ece91","ios":"levelo://app?vid=bb12d251-5d23-49a2-a2a5-87d7ed7ece91"},"vehicle_type_id":"4","last_reported":1727244776,"current_range_meters":36800,"station_id":"ce4bgr92rcd13ifvqc6g","pricing_plan_id":"cebpf4jnsgd1na2vs0mg"},{"bike_id":"ace5fd0f-acec-4ab5-b75b-8aa836650221","system_id":"levelo_inurba_marseille","lat":43.24072,"lon":5.37764,"is_reserved":false,"is_disabled":false,"rental_uris":{"android":"levelo://app?vid=ace5fd0f-acec-4ab5-b75b-8aa836650221","ios":"levelo://app?vid=ace5fd0f-acec-4ab5-b75b-8aa836650221"},"vehicle_type_id":"4","last_reported":1727244776,"current_range_meters":34000,"station_id":"ce4bhnp2rcd13ifvqgvg","pricing_plan_id":"cebpf4jnsgd1na2vs0mg"},{"bike_id":"d9927889-b3eb-4de3-b314-afc25b21b934","system_id":"levelo_inurba_marseille","lat":43.29274,"lon":5.40105,"is_reserved":false,"is_disabled":false,"rental_uris":{"android":"levelo://app?vid=d9927889-b3eb-4de3-b314-afc25b21b934","ios":"levelo://app?vid=d9927889-b3eb-4de3-b314-afc25b21b934"},"vehicle_type_id":"4","last_reported":1727244776,"current_range_meters":34000,"station_id":"ce4bh312rcd13ifvqdk0","pricing_plan_id":"cebpf4jnsgd1na2vs0mg"},{"bike_id":"a0a2c6f0-189d-4826-95df-e3d5250d06b6","system_id":"levelo_inurba_marseille","lat":43.30263,"lon":5.4008,"is_reserved":false,"is_disabled":false,"rental_uris":{"android":"levelo://app?vid=a0a2c6f0-189d-4826-95df-e3d5250d06b6","ios":"levelo://app?vid=a0a2c6f0-189d-4826-95df-e3d5250d06b6"},"vehicle_type_id":"4","last_reported":1727244776,"current_range_meters":34000,"station_id":"ce4bgvh2rcd13ifvqcs0","pricing_plan_id":"cebpf4jnsgd1na2vs0mg"},{"bike_id":"cb63d342-63b2-41e3-8455-4366ca08c9e6","system_id":"levelo_inurba_marseille","lat":43.313479,"lon":5.367234,"is_reserved":false,"is_disabled":false,"rental_uris":{"android":"levelo://app?vid=cb63d342-63b2-41e3-8455-4366ca08c9e6","ios":"levelo://app?vid=cb63d342-63b2-41e3-8455-4366ca08c9e6"},"vehicle_type_id":"4","last_reported":1727244776,"current_range_meters":34000,"station_id":"ce4bgr92rcd13ifvqc6g","pricing_plan_id":"cebpf4jnsgd1na2vs0mg"},{"bike_id":"2e302423-3d70-4d2c-86e7-3147cdbaad0b","system_id":"levelo_inurba_marseille","lat":43.29275,"lon":5.40126,"is_reserved":false,"is_disabled":false,"rental_uris":{"android":"levelo://app?vid=2e302423-3d70-4d2c-86e7-3147cdbaad0b","ios":"levelo://app?vid=2e302423-3d70-4d2c-86e7-3147cdbaad0b"},"vehicle_type_id":"4","last_reported":1727244776,"current_range_meters":34800,"station_id":"ce4bh312rcd13ifvqdk0","pricing_plan_id":"cebpf4jnsgd1na2vs0mg"},{"bike_id":"d4cf6aea-8938-4748-896d-adca184b256f","system_id":"levelo_inurba_marseille","lat":43.30457,"lon":5.37905,"is_reserved":false,"is_disabled":false,"rental_uris":{"android":"levelo://app?vid=d4cf6aea-8938-4748-896d-adca184b256f","ios":"levelo://app?vid=d4cf6aea-8938-4748-896d-adca184b256f"},"vehicle_type_id":"4","last_reported":1727244776,"current_range_meters":38800,"station_id":"ce4bgup2rcd13ifvqcn0","pricing_plan_id":"cebpf4jnsgd1na2vs0mg"},{"bike_id":"5a502590-507c-4da0-ae0f-4c1ca81de1f2","system_id":"levelo_inurba_marseille","lat":43.28355,"lon":5.38106,"is_reserved":false,"is_disabled":false,"rental_uris":{"android":"levelo://app?vid=5a502590-507c-4da0-ae0f-4c1ca81de1f2","ios":"levelo://app?vid=5a502590-507c-4da0-ae0f-4c1ca81de1f2"},"vehicle_type_id":"4","last_reported":1727244776,"current_range_meters":36400,"station_id":"ce4bh412rcd13ifvqdr0","pricing_plan_id":"cebpf4jnsgd1na2vs0mg"},{"bike_id":"7737b815-6daf-41f0-8354-4b28ba75917f","system_id":"levelo_inurba_marseille","lat":43.302,"lon":5.39831,"is_reserved":false,"is_disabled":false,"rental_uris":{"android":"levelo://app?vid=7737b815-6daf-41f0-8354-4b28ba75917f","ios":"levelo://app?vid=7737b815-6daf-41f0-8354-4b28ba75917f"},"vehicle_type_id":"4","last_reported":1727244776,"current_range_meters":18800,"station_id":"ce4bgvp2rcd13ifvqct0","pricing_plan_id":"cebpf4jnsgd1na2vs0mg"},{"bike_id":"7dcb90a2-851f-4190-9c1a-cbaed1d475f2","system_id":"levelo_inurba_marseille","lat":43.30149,"lon":5.38069,"is_reserved":false,"is_disabled":false,"rental_uris":{"android":"levelo://app?vid=7dcb90a2-851f-4190-9c1a-cbaed1d475f2","ios":"levelo://app?vid=7dcb90a2-851f-4190-9c1a-cbaed1d475f2"},"vehicle_type_id":"4","last_reported":1727244776,"current_range_meters":36000,"station_id":"ce4bgjp2rcd13ifvqbh0","pricing_plan_id":"cebpf4jnsgd1na2vs0mg"},{"bike_id":"4ac9b2f3-3487-42ed-bb0a-eebed1532ea5","system_id":"levelo_inurba_marseille","lat":43.30462,"lon":5.37896,"is_reserved":false,"is_disabled":false,"rental_uris":{"android":"levelo://app?vid=4ac9b2f3-3487-42ed-bb0a-eebed1532ea5","ios":"levelo://app?vid=4ac9b2f3-3487-42ed-bb0a-eebed1532ea5"},"vehicle_type_id":"4","last_reported":1727244776,"current_range_meters":7200,"station_id":"ce4bgup2rcd13ifvqcn0","pricing_plan_id":"cebpf4jnsgd1na2vs0mg"},{"bike_id":"37526484-86a2-41ac-b586-6fffd3a93a5d","system_id":"levelo_inurba_marseille","lat":43.30603,"lon":5.39364,"is_reserved":false,"is_disabled":false,"rental_uris":{"android":"levelo://app?vid=37526484-86a2-41ac-b586-6fffd3a93a5d","ios":"levelo://app?vid=37526484-86a2-41ac-b586-6fffd3a93a5d"},"vehicle_type_id":"4","last_reported":1727244776,"current_range_meters":35200,"station_id":"ce4bh0p2rcd13ifvqd80","pricing_plan_id":"cebpf4jnsgd1na2vs0mg"},{"bike_id":"aad3ee72-1078-47ce-9595-73daf55f5fad","system_id":"levelo_inurba_marseille","lat":43.26032,"lon":5.37547,"is_reserved":false,"is_disabled":false,"rental_uris":{"android":"levelo://app?vid=aad3ee72-1078-47ce-9595-73daf55f5fad","ios":"levelo://app?vid=aad3ee72-1078-47ce-9595-73daf55f5fad"},"vehicle_type_id":"4","last_reported":1727244776,"current_range_meters":37600,"station_id":"ce4bhgh2rcd13ifvqfa0","pricing_plan_id":"cebpf4jnsgd1na2vs0mg"},{"bike_id":"9e8a6286-2aa6-4c4f-837d-ef22b57ca874","system_id":"levelo_inurba_marseille","lat":43.24079,"lon":5.37746,"is_reserved":false,"is_disabled":false,"rental_uris":{"android":"levelo://app?vid=9e8a6286-2aa6-4c4f-837d-ef22b57ca874","ios":"levelo://app?vid=9e8a6286-2aa6-4c4f-837d-ef22b57ca874"},"vehicle_type_id":"4","last_reported":1727244776,"current_range_meters":24000,"station_id":"ce4bhnp2rcd13ifvqgvg","pricing_plan_id":"cebpf4jnsgd1na2vs0mg"},{"bike_id":"3c17b73f-c6ff-4322-b68d-e1365d3c177b","system_id":"levelo_inurba_marseille","lat":43.27227,"lon":5.391907,"is_reserved":false,"is_disabled":false,"rental_uris":{"android":"levelo://app?vid=3c17b73f-c6ff-4322-b68d-e1365d3c177b","ios":"levelo://app?vid=3c17b73f-c6ff-4322-b68d-e1365d3c177b"},"vehicle_type_id":"4","last_reported":1727244776,"current_range_meters":30400,"station_id":"ce4bhhp2rcd13ifvqfm0","pricing_plan_id":"cebpf4jnsgd1na2vs0mg"},{"bike_id":"86b6dccf-ea7c-412a-a291-bf2084731947","system_id":"levelo_inurba_marseille","lat":43.27371,"lon":5.36249,"is_reserved":false,"is_disabled":false,"rental_uris":{"android":"levelo://app?vid=86b6dccf-ea7c-412a-a291-bf2084731947","ios":"levelo://app?vid=86b6dccf-ea7c-412a-a291-bf2084731947"},"vehicle_type_id":"4","last_reported":1727244776,"current_range_meters":38400,"station_id":"ce4bhbh2rcd13ifvqeo0","pricing_plan_id":"cebpf4jnsgd1na2vs0mg"},{"bike_id":"f8c704cc-636c-4268-80af-5309e4b09904","system_id":"levelo_inurba_marseille","lat":43.24183,"lon":5.39729,"is_reserved":false,"is_disabled":false,"rental_uris":{"android":"levelo://app?vid=f8c704cc-636c-4268-80af-5309e4b09904","ios":"levelo://app?vid=f8c704cc-636c-4268-80af-5309e4b09904"},"vehicle_type_id":"4","last_reported":1727244776,"current_range_meters":34800,"station_id":"ce4bhn12rcd13ifvqgpg","pricing_plan_id":"cebpf4jnsgd1na2vs0mg"},{"bike_id":"8db4eeae-90dc-450b-8149-34b6ce69b1f8","system_id":"levelo_inurba_marseille","lat":43.23183,"lon":5.39988,"is_reserved":false,"is_disabled":false,"rental_uris":{"android":"levelo://app?vid=8db4eeae-90dc-450b-8149-34b6ce69b1f8","ios":"levelo://app?vid=8db4eeae-90dc-450b-8149-34b6ce69b1f8"},"vehicle_type_id":"4","last_reported":1727244776,"current_range_meters":28000,"station_id":"ce4bhn12rcd13ifvqgqg","pricing_plan_id":"cebpf4jnsgd1na2vs0mg"},{"bike_id":"841d01f2-f5b3-4973-ad5b-849aa1650810","system_id":"levelo_inurba_marseille","lat":43.28955,"lon":5.36388,"is_reserved":false,"is_disabled":false,"rental_uris":{"android":"levelo://app?vid=841d01f2-f5b3-4973-ad5b-849aa1650810","ios":"levelo://app?vid=841d01f2-f5b3-4973-ad5b-849aa1650810"},"vehicle_type_id":"4","last_reported":1727244776,"current_range_meters":12800,"station_id":"ce4bhc92rcd13ifvqetg","pricing_plan_id":"cebpf4jnsgd1na2vs0mg"},{"bike_id":"6baeeaee-aaee-4aa5-a060-3eb7df10c68d","system_id":"levelo_inurba_marseille","lat":43.2963,"lon":5.40595,"is_reserved":false,"is_disabled":false,"rental_uris":{"android":"levelo://app?vid=6baeeaee-aaee-4aa5-a060-3eb7df10c68d","ios":"levelo://app?vid=6baeeaee-aaee-4aa5-a060-3eb7df10c68d"},"vehicle_type_id":"4","last_reported":1727244776,"current_range_meters":9200,"station_id":"ce4bh0h2rcd13ifvqd60","pricing_plan_id":"cebpf4jnsgd1na2vs0mg"},{"bike_id":"34714a6e-26d9-46b4-85de-19a7b78ae925","system_id":"levelo_inurba_marseille","lat":43.28354,"lon":5.38105,"is_reserved":false,"is_disabled":false,"rental_uris":{"android":"levelo://app?vid=34714a6e-26d9-46b4-85de-19a7b78ae925","ios":"levelo://app?vid=34714a6e-26d9-46b4-85de-19a7b78ae925"},"vehicle_type_id":"4","last_reported":1727244776,"current_range_meters":9200,"station_id":"ce4bh412rcd13ifvqdr0","pricing_plan_id":"cebpf4jnsgd1na2vs0mg"},{"bike_id":"8868b073-6d41-41a6-8f4c-e99c4a0515a9","system_id":"levelo_inurba_marseille","lat":43.30468,"lon":5.37912,"is_reserved":false,"is_disabled":false,"rental_uris":{"android":"levelo://app?vid=8868b073-6d41-41a6-8f4c-e99c4a0515a9","ios":"levelo://app?vid=8868b073-6d41-41a6-8f4c-e99c4a0515a9"},"vehicle_type_id":"4","last_reported":1727244776,"current_range_meters":36800,"station_id":"ce4bgup2rcd13ifvqcn0","pricing_plan_id":"cebpf4jnsgd1na2vs0mg"},{"bike_id":"7a8458d5-44ac-4f2e-abef-3f01eb31f7ca","system_id":"levelo_inurba_marseille","lat":43.337444,"lon":5.374475,"is_reserved":false,"is_disabled":false,"rental_uris":{"android":"levelo://app?vid=7a8458d5-44ac-4f2e-abef-3f01eb31f7ca","ios":"levelo://app?vid=7a8458d5-44ac-4f2e-abef-3f01eb31f7ca"},"vehicle_type_id":"4","last_reported":1727244776,"current_range_meters":26800,"station_id":"","pricing_plan_id":"cebpf4jnsgd1na2vs0mg"},{"bike_id":"f56f6b65-32e7-4720-b28e-f256a8d37b7f","system_id":"levelo_inurba_marseille","lat":43.30464,"lon":5.37913,"is_reserved":false,"is_disabled":false,"rental_uris":{"android":"levelo://app?vid=f56f6b65-32e7-4720-b28e-f256a8d37b7f","ios":"levelo://app?vid=f56f6b65-32e7-4720-b28e-f256a8d37b7f"},"vehicle_type_id":"4","last_reported":1727244776,"current_range_meters":18000,"station_id":"ce4bgup2rcd13ifvqcn0","pricing_plan_id":"cebpf4jnsgd1na2vs0mg"},{"bike_id":"17b1aa36-0ba7-4276-8a9e-aa15d42f32e0","system_id":"levelo_inurba_marseille","lat":43.295253,"lon":5.37507,"is_reserved":false,"is_disabled":false,"rental_uris":{"android":"levelo://app?vid=17b1aa36-0ba7-4276-8a9e-aa15d42f32e0","ios":"levelo://app?vid=17b1aa36-0ba7-4276-8a9e-aa15d42f32e0"},"vehicle_type_id":"4","last_reported":1727244776,"current_range_meters":28400,"station_id":"ce4bgkp2rcd13ifvqbmg","pricing_plan_id":"cebpf4jnsgd1na2vs0mg"},{"bike_id":"23b8420c-3e6c-4519-ac5c-7348bc917c19","system_id":"levelo_inurba_marseille","lat":43.2969,"lon":5.37279,"is_reserved":false,"is_disabled":false,"rental_uris":{"android":"levelo://app?vid=23b8420c-3e6c-4519-ac5c-7348bc917c19","ios":"levelo://app?vid=23b8420c-3e6c-4519-ac5c-7348bc917c19"},"vehicle_type_id":"4","last_reported":1727244776,"current_range_meters":38800,"station_id":"ce4bgk12rcd13ifvqbj0","pricing_plan_id":"cebpf4jnsgd1na2vs0mg"},{"bike_id":"881f120c-44e8-4d94-a946-5a7d54ccaaf1","system_id":"levelo_inurba_marseille","lat":43.302094,"lon":5.394687,"is_reserved":false,"is_disabled":false,"rental_uris":{"android":"levelo://app?vid=881f120c-44e8-4d94-a946-5a7d54ccaaf1","ios":"levelo://app?vid=881f120c-44e8-4d94-a946-5a7d54ccaaf1"},"vehicle_type_id":"4","last_reported":1727244776,"current_range_meters":33200,"station_id":"ce4bhnh2rcd13ifvqgug","pricing_plan_id":"cebpf4jnsgd1na2vs0mg"},{"bike_id":"513067c8-7365-41c0-b46a-b79ece32bc45","system_id":"levelo_inurba_marseille","lat":43.28945,"lon":5.36639,"is_reserved":false,"is_disabled":false,"rental_uris":{"android":"levelo://app?vid=513067c8-7365-41c0-b46a-b79ece32bc45","ios":"levelo://app?vid=513067c8-7365-41c0-b46a-b79ece32bc45"},"vehicle_type_id":"4","last_reported":1727244776,"current_range_meters":33200,"station_id":"ce4bhap2rcd13ifvqek0","pricing_plan_id":"cebpf4jnsgd1na2vs0mg"},{"bike_id":"15300eb9-9609-4833-bf7c-718f7db799de","system_id":"levelo_inurba_marseille","lat":43.25942,"lon":5.40904,"is_reserved":false,"is_disabled":false,"rental_uris":{"android":"levelo://app?vid=15300eb9-9609-4833-bf7c-718f7db799de","ios":"levelo://app?vid=15300eb9-9609-4833-bf7c-718f7db799de"},"vehicle_type_id":"4","last_reported":1727244776,"current_range_meters":33600,"station_id":"ce4bhm92rcd13ifvqglg","pricing_plan_id":"cebpf4jnsgd1na2vs0mg"},{"bike_id":"4a487ab3-2a54-4aee-a2bd-1e8aa19da00a","system_id":"levelo_inurba_marseille","lat":43.29035,"lon":5.37566,"is_reserved":false,"is_disabled":false,"rental_uris":{"android":"levelo://app?vid=4a487ab3-2a54-4aee-a2bd-1e8aa19da00a","ios":"levelo://app?vid=4a487ab3-2a54-4aee-a2bd-1e8aa19da00a"},"vehicle_type_id":"4","last_reported":1727244776,"current_range_meters":18800,"station_id":"ce4bh692rcd13ifvqe90","pricing_plan_id":"cebpf4jnsgd1na2vs0mg"},{"bike_id":"79426253-97d3-4469-87d5-d4debe947c03","system_id":"levelo_inurba_marseille","lat":43.24075,"lon":5.37759,"is_reserved":false,"is_disabled":false,"rental_uris":{"android":"levelo://app?vid=79426253-97d3-4469-87d5-d4debe947c03","ios":"levelo://app?vid=79426253-97d3-4469-87d5-d4debe947c03"},"vehicle_type_id":"4","last_reported":1727244776,"current_range_meters":37600,"station_id":"ce4bhnp2rcd13ifvqgvg","pricing_plan_id":"cebpf4jnsgd1na2vs0mg"},{"bike_id":"09ad563f-fef4-4d39-a5af-ba66b84e32db","system_id":"levelo_inurba_marseille","lat":43.29615,"lon":5.38104,"is_reserved":false,"is_disabled":false,"rental_uris":{"android":"levelo://app?vid=09ad563f-fef4-4d39-a5af-ba66b84e32db","ios":"levelo://app?vid=09ad563f-fef4-4d39-a5af-ba66b84e32db"},"vehicle_type_id":"4","last_reported":1727244776,"current_range_meters":35200,"station_id":"ce4bgl12rcd13ifvqbo0","pricing_plan_id":"cebpf4jnsgd1na2vs0mg"},{"bike_id":"5bf09996-275e-4216-b64f-36fc55ae778d","system_id":"levelo_inurba_marseille","lat":43.2606,"lon":5.394,"is_reserved":false,"is_disabled":false,"rental_uris":{"android":"levelo://app?vid=5bf09996-275e-4216-b64f-36fc55ae778d","ios":"levelo://app?vid=5bf09996-275e-4216-b64f-36fc55ae778d"},"vehicle_type_id":"4","last_reported":1727244776,"current_range_meters":33600,"station_id":"ce4bhh92rcd13ifvqfj0","pricing_plan_id":"cebpf4jnsgd1na2vs0mg"},{"bike_id":"d9ddf73e-ab4b-4500-a450-2a14dcfedd7a","system_id":"levelo_inurba_marseille","lat":43.26507,"lon":5.39535,"is_reserved":false,"is_disabled":false,"rental_uris":{"android":"levelo://app?vid=d9ddf73e-ab4b-4500-a450-2a14dcfedd7a","ios":"levelo://app?vid=d9ddf73e-ab4b-4500-a450-2a14dcfedd7a"},"vehicle_type_id":"4","last_reported":1727244776,"current_range_meters":38000,"station_id":"ce4bhi12rcd13ifvqfq0","pricing_plan_id":"cebpf4jnsgd1na2vs0mg"},{"bike_id":"2fb763cf-edda-402d-8ea9-697b8ccf13e9","system_id":"levelo_inurba_marseille","lat":43.3015,"lon":5.38084,"is_reserved":false,"is_disabled":false,"rental_uris":{"android":"levelo://app?vid=2fb763cf-edda-402d-8ea9-697b8ccf13e9","ios":"levelo://app?vid=2fb763cf-edda-402d-8ea9-697b8ccf13e9"},"vehicle_type_id":"4","last_reported":1727244776,"current_range_meters":25200,"station_id":"ce4bgjp2rcd13ifvqbh0","pricing_plan_id":"cebpf4jnsgd1na2vs0mg"},{"bike_id":"e9970d1f-8ddf-4f8a-9384-c89811dfca7c","system_id":"levelo_inurba_marseille","lat":43.29009,"lon":5.39892,"is_reserved":false,"is_disabled":false,"rental_uris":{"android":"levelo://app?vid=e9970d1f-8ddf-4f8a-9384-c89811dfca7c","ios":"levelo://app?vid=e9970d1f-8ddf-4f8a-9384-c89811dfca7c"},"vehicle_type_id":"4","last_reported":1727244776,"current_range_meters":36000,"station_id":"ce4bh392rcd13ifvqdm0","pricing_plan_id":"cebpf4jnsgd1na2vs0mg"},{"bike_id":"5b2c4a51-88fe-4792-bb37-6f62919575df","system_id":"levelo_inurba_marseille","lat":43.284334,"lon":5.392004,"is_reserved":false,"is_disabled":false,"rental_uris":{"android":"levelo://app?vid=5b2c4a51-88fe-4792-bb37-6f62919575df","ios":"levelo://app?vid=5b2c4a51-88fe-4792-bb37-6f62919575df"},"vehicle_type_id":"4","last_reported":1727244776,"current_range_meters":28800,"station_id":"ce4bhoh2rcd13ifvqh5g","pricing_plan_id":"cebpf4jnsgd1na2vs0mg"},{"bike_id":"5facc2a0-16aa-4cd0-b8ad-e1cb1039bff9","system_id":"levelo_inurba_marseille","lat":43.30143,"lon":5.3806,"is_reserved":false,"is_disabled":false,"rental_uris":{"android":"levelo://app?vid=5facc2a0-16aa-4cd0-b8ad-e1cb1039bff9","ios":"levelo://app?vid=5facc2a0-16aa-4cd0-b8ad-e1cb1039bff9"},"vehicle_type_id":"4","last_reported":1727244776,"current_range_meters":7200,"station_id":"ce4bgjp2rcd13ifvqbh0","pricing_plan_id":"cebpf4jnsgd1na2vs0mg"},{"bike_id":"cefb6643-fc89-4b04-b95f-6cff2759399c","system_id":"levelo_inurba_marseille","lat":43.32294,"lon":5.3828,"is_reserved":false,"is_disabled":false,"rental_uris":{"android":"levelo://app?vid=cefb6643-fc89-4b04-b95f-6cff2759399c","ios":"levelo://app?vid=cefb6643-fc89-4b04-b95f-6cff2759399c"},"vehicle_type_id":"4","last_reported":1727244776,"current_range_meters":39200,"station_id":"ce4bhr12rcd13ifvqhqg","pricing_plan_id":"cebpf4jnsgd1na2vs0mg"},{"bike_id":"dbd32a32-607c-4b25-8b08-f7b781ee159a","system_id":"levelo_inurba_marseille","lat":43.29599,"lon":5.38097,"is_reserved":false,"is_disabled":false,"rental_uris":{"android":"levelo://app?vid=dbd32a32-607c-4b25-8b08-f7b781ee159a","ios":"levelo://app?vid=dbd32a32-607c-4b25-8b08-f7b781ee159a"},"vehicle_type_id":"4","last_reported":1727244776,"current_range_meters":38800,"station_id":"ce4bgl12rcd13ifvqbo0","pricing_plan_id":"cebpf4jnsgd1na2vs0mg"},{"bike_id":"910a6884-84be-4c72-8b9f-34bb75a239fa","system_id":"levelo_inurba_marseille","lat":43.30464,"lon":5.37907,"is_reserved":false,"is_disabled":false,"rental_uris":{"android":"levelo://app?vid=910a6884-84be-4c72-8b9f-34bb75a239fa","ios":"levelo://app?vid=910a6884-84be-4c72-8b9f-34bb75a239fa"},"vehicle_type_id":"4","last_reported":1727244776,"current_range_meters":35600,"station_id":"ce4bgup2rcd13ifvqcn0","pricing_plan_id":"cebpf4jnsgd1na2vs0mg"},{"bike_id":"0bbbe681-351b-4120-ad7f-086ae085c26d","system_id":"levelo_inurba_marseille","lat":43.24183,"lon":5.39723,"is_reserved":false,"is_disabled":false,"rental_uris":{"android":"levelo://app?vid=0bbbe681-351b-4120-ad7f-086ae085c26d","ios":"levelo://app?vid=0bbbe681-351b-4120-ad7f-086ae085c26d"},"vehicle_type_id":"4","last_reported":1727244776,"current_range_meters":27600,"station_id":"ce4bhn12rcd13ifvqgpg","pricing_plan_id":"cebpf4jnsgd1na2vs0mg"},{"bike_id":"25c2da3d-9bb6-48b8-8579-2ff6744c67cb","system_id":"levelo_inurba_marseille","lat":43.23153,"lon":5.43711,"is_reserved":false,"is_disabled":false,"rental_uris":{"android":"levelo://app?vid=25c2da3d-9bb6-48b8-8579-2ff6744c67cb","ios":"levelo://app?vid=25c2da3d-9bb6-48b8-8579-2ff6744c67cb"},"vehicle_type_id":"4","last_reported":1727244776,"current_range_meters":37600,"station_id":"ce4bhmp2rcd13ifvqgog","pricing_plan_id":"cebpf4jnsgd1na2vs0mg"},{"bike_id":"3e44c86e-e629-47ae-9e2b-0a39e09131bf","system_id":"levelo_inurba_marseille","lat":43.24666,"lon":5.38162,"is_reserved":false,"is_disabled":false,"rental_uris":{"android":"levelo://app?vid=3e44c86e-e629-47ae-9e2b-0a39e09131bf","ios":"levelo://app?vid=3e44c86e-e629-47ae-9e2b-0a39e09131bf"},"vehicle_type_id":"4","last_reported":1727244776,"current_range_meters":38800,"station_id":"ce4bhih2rcd13ifvqfr0","pricing_plan_id":"cebpf4jnsgd1na2vs0mg"},{"bike_id":"f8701f40-f79e-46c4-b059-badc9e339852","system_id":"levelo_inurba_marseille","lat":43.30952,"lon":5.39022,"is_reserved":false,"is_disabled":false,"rental_uris":{"android":"levelo://app?vid=f8701f40-f79e-46c4-b059-badc9e339852","ios":"levelo://app?vid=f8701f40-f79e-46c4-b059-badc9e339852"},"vehicle_type_id":"4","last_reported":1727244776,"current_range_meters":38800,"station_id":"ce4bgup2rcd13ifvqco0","pricing_plan_id":"cebpf4jnsgd1na2vs0mg"},{"bike_id":"79a05bb1-ccec-47f0-8ebd-1f95854549f8","system_id":"levelo_inurba_marseille","lat":43.31285,"lon":5.38042,"is_reserved":false,"is_disabled":false,"rental_uris":{"android":"levelo://app?vid=79a05bb1-ccec-47f0-8ebd-1f95854549f8","ios":"levelo://app?vid=79a05bb1-ccec-47f0-8ebd-1f95854549f8"},"vehicle_type_id":"4","last_reported":1727244776,"current_range_meters":12400,"station_id":"","pricing_plan_id":"cebpf4jnsgd1na2vs0mg"},{"bike_id":"82a46f4c-338e-4f2c-bb15-b73bebda5189","system_id":"levelo_inurba_marseille","lat":43.23148,"lon":5.4372,"is_reserved":false,"is_disabled":false,"rental_uris":{"android":"levelo://app?vid=82a46f4c-338e-4f2c-bb15-b73bebda5189","ios":"levelo://app?vid=82a46f4c-338e-4f2c-bb15-b73bebda5189"},"vehicle_type_id":"4","last_reported":1727244776,"current_range_meters":38000,"station_id":"ce4bhmp2rcd13ifvqgog","pricing_plan_id":"cebpf4jnsgd1na2vs0mg"},{"bike_id":"4597e502-6acb-4eb7-b5da-61d127d731f6","system_id":"levelo_inurba_marseille","lat":43.30153,"lon":5.3807,"is_reserved":false,"is_disabled":false,"rental_uris":{"android":"levelo://app?vid=4597e502-6acb-4eb7-b5da-61d127d731f6","ios":"levelo://app?vid=4597e502-6acb-4eb7-b5da-61d127d731f6"},"vehicle_type_id":"4","last_reported":1727244776,"current_range_meters":35200,"station_id":"ce4bgjp2rcd13ifvqbh0","pricing_plan_id":"cebpf4jnsgd1na2vs0mg"},{"bike_id":"8820d487-6cfa-43a0-8239-f9aa392b1f0f","system_id":"levelo_inurba_marseille","lat":43.283622,"lon":5.386273,"is_reserved":false,"is_disabled":false,"rental_uris":{"android":"levelo://app?vid=8820d487-6cfa-43a0-8239-f9aa392b1f0f","ios":"levelo://app?vid=8820d487-6cfa-43a0-8239-f9aa392b1f0f"},"vehicle_type_id":"4","last_reported":1727244776,"current_range_meters":38000,"station_id":"ce4bgkh2rcd13ifvqbl0","pricing_plan_id":"cebpf4jnsgd1na2vs0mg"},{"bike_id":"9bd80b54-db66-44e7-8259-0d4687eded39","system_id":"levelo_inurba_marseille","lat":43.27213,"lon":5.39179,"is_reserved":false,"is_disabled":false,"rental_uris":{"android":"levelo://app?vid=9bd80b54-db66-44e7-8259-0d4687eded39","ios":"levelo://app?vid=9bd80b54-db66-44e7-8259-0d4687eded39"},"vehicle_type_id":"4","last_reported":1727244776,"current_range_meters":26800,"station_id":"ce4bhhp2rcd13ifvqfm0","pricing_plan_id":"cebpf4jnsgd1na2vs0mg"},{"bike_id":"4191bab8-8b49-4083-a41a-88c5392fc7e3","system_id":"levelo_inurba_marseille","lat":43.30652,"lon":5.40087,"is_reserved":false,"is_disabled":false,"rental_uris":{"android":"levelo://app?vid=4191bab8-8b49-4083-a41a-88c5392fc7e3","ios":"levelo://app?vid=4191bab8-8b49-4083-a41a-88c5392fc7e3"},"vehicle_type_id":"4","last_reported":1727244776,"current_range_meters":36000,"station_id":"ce4bh112rcd13ifvqda0","pricing_plan_id":"cebpf4jnsgd1na2vs0mg"},{"bike_id":"8bcaa1c9-9aa7-41d8-82fa-3e6e9f911712","system_id":"levelo_inurba_marseille","lat":43.2847,"lon":5.38423,"is_reserved":false,"is_disabled":false,"rental_uris":{"android":"levelo://app?vid=8bcaa1c9-9aa7-41d8-82fa-3e6e9f911712","ios":"levelo://app?vid=8bcaa1c9-9aa7-41d8-82fa-3e6e9f911712"},"vehicle_type_id":"4","last_reported":1727244776,"current_range_meters":36400,"station_id":"ce4bh512rcd13ifvqe3g","pricing_plan_id":"cebpf4jnsgd1na2vs0mg"},{"bike_id":"b73b3c91-cd6a-4236-84a0-ccc708e4274b","system_id":"levelo_inurba_marseille","lat":43.28943,"lon":5.36394,"is_reserved":false,"is_disabled":false,"rental_uris":{"android":"levelo://app?vid=b73b3c91-cd6a-4236-84a0-ccc708e4274b","ios":"levelo://app?vid=b73b3c91-cd6a-4236-84a0-ccc708e4274b"},"vehicle_type_id":"4","last_reported":1727244776,"current_range_meters":27200,"station_id":"ce4bhc92rcd13ifvqetg","pricing_plan_id":"cebpf4jnsgd1na2vs0mg"},{"bike_id":"fc2dd3ae-ff1d-4a52-9850-097f1acd4fee","system_id":"levelo_inurba_marseille","lat":43.28043,"lon":5.36943,"is_reserved":false,"is_disabled":false,"rental_uris":{"android":"levelo://app?vid=fc2dd3ae-ff1d-4a52-9850-097f1acd4fee","ios":"levelo://app?vid=fc2dd3ae-ff1d-4a52-9850-097f1acd4fee"},"vehicle_type_id":"4","last_reported":1727244776,"current_range_meters":25600,"station_id":"ce4bha12rcd13ifvqef0","pricing_plan_id":"cebpf4jnsgd1na2vs0mg"},{"bike_id":"41457291-2fe5-4f15-8f29-63fe14e3c2d6","system_id":"levelo_inurba_marseille","lat":43.28554,"lon":5.413,"is_reserved":false,"is_disabled":false,"rental_uris":{"android":"levelo://app?vid=41457291-2fe5-4f15-8f29-63fe14e3c2d6","ios":"levelo://app?vid=41457291-2fe5-4f15-8f29-63fe14e3c2d6"},"vehicle_type_id":"4","last_reported":1727244776,"current_range_meters":34800,"station_id":"ce4bh312rcd13ifvqdk0","pricing_plan_id":"cebpf4jnsgd1na2vs0mg"},{"bike_id":"ffb97514-2c6c-43a9-850b-1f869fc0c44e","system_id":"levelo_inurba_marseille","lat":43.23192,"lon":5.35558,"is_reserved":false,"is_disabled":false,"rental_uris":{"android":"levelo://app?vid=ffb97514-2c6c-43a9-850b-1f869fc0c44e","ios":"levelo://app?vid=ffb97514-2c6c-43a9-850b-1f869fc0c44e"},"vehicle_type_id":"4","last_reported":1727244776,"current_range_meters":36800,"station_id":"ce4bhu92rcd13ifvqi70","pricing_plan_id":"cebpf4jnsgd1na2vs0mg"},{"bike_id":"ecb70881-b110-48a8-b751-24b4690d4031","system_id":"levelo_inurba_marseille","lat":43.231863,"lon":5.399967,"is_reserved":false,"is_disabled":false,"rental_uris":{"android":"levelo://app?vid=ecb70881-b110-48a8-b751-24b4690d4031","ios":"levelo://app?vid=ecb70881-b110-48a8-b751-24b4690d4031"},"vehicle_type_id":"4","last_reported":1727244776,"current_range_meters":8400,"station_id":"ce4bhn12rcd13ifvqgqg","pricing_plan_id":"cebpf4jnsgd1na2vs0mg"},{"bike_id":"98f715c8-43c8-4898-9b49-959c2b0770ea","system_id":"levelo_inurba_marseille","lat":43.30214,"lon":5.39468,"is_reserved":false,"is_disabled":false,"rental_uris":{"android":"levelo://app?vid=98f715c8-43c8-4898-9b49-959c2b0770ea","ios":"levelo://app?vid=98f715c8-43c8-4898-9b49-959c2b0770ea"},"vehicle_type_id":"4","last_reported":1727244776,"current_range_meters":10800,"station_id":"ce4bh0p2rcd13ifvqd70","pricing_plan_id":"cebpf4jnsgd1na2vs0mg"},{"bike_id":"25bd7405-be80-4a77-a761-8a1efed52652","system_id":"levelo_inurba_marseille","lat":43.299,"lon":5.43655,"is_reserved":false,"is_disabled":false,"rental_uris":{"android":"levelo://app?vid=25bd7405-be80-4a77-a761-8a1efed52652","ios":"levelo://app?vid=25bd7405-be80-4a77-a761-8a1efed52652"},"vehicle_type_id":"4","last_reported":1727244776,"current_range_meters":38800,"station_id":"ce4bhpp2rcd13ifvqhfg","pricing_plan_id":"cebpf4jnsgd1na2vs0mg"},{"bike_id":"2fe2c0de-08ff-45d0-a649-6b26bff02b66","system_id":"levelo_inurba_marseille","lat":43.28082,"lon":5.39657,"is_reserved":false,"is_disabled":false,"rental_uris":{"android":"levelo://app?vid=2fe2c0de-08ff-45d0-a649-6b26bff02b66","ios":"levelo://app?vid=2fe2c0de-08ff-45d0-a649-6b26bff02b66"},"vehicle_type_id":"4","last_reported":1727244776,"current_range_meters":36800,"station_id":"ce4bho12rcd13ifvqh2g","pricing_plan_id":"cebpf4jnsgd1na2vs0mg"},{"bike_id":"11c4f5be-b465-471a-b3d0-dbbc3061010b","system_id":"levelo_inurba_marseille","lat":43.308,"lon":5.43522,"is_reserved":false,"is_disabled":false,"rental_uris":{"android":"levelo://app?vid=11c4f5be-b465-471a-b3d0-dbbc3061010b","ios":"levelo://app?vid=11c4f5be-b465-471a-b3d0-dbbc3061010b"},"vehicle_type_id":"4","last_reported":1727244776,"current_range_meters":38800,"station_id":"ce4bhph2rcd13ifvqheg","pricing_plan_id":"cebpf4jnsgd1na2vs0mg"},{"bike_id":"5a52c81b-4110-4390-b3ca-cda4aecc1cec","system_id":"levelo_inurba_marseille","lat":43.317047,"lon":5.404603,"is_reserved":false,"is_disabled":false,"rental_uris":{"android":"levelo://app?vid=5a52c81b-4110-4390-b3ca-cda4aecc1cec","ios":"levelo://app?vid=5a52c81b-4110-4390-b3ca-cda4aecc1cec"},"vehicle_type_id":"4","last_reported":1727244776,"current_range_meters":38400,"station_id":"ce4bh012rcd13ifvqd00","pricing_plan_id":"cebpf4jnsgd1na2vs0mg"},{"bike_id":"5f5215b8-a74e-490d-acf4-116c426a9b8e","system_id":"levelo_inurba_marseille","lat":43.24077,"lon":5.37756,"is_reserved":false,"is_disabled":false,"rental_uris":{"android":"levelo://app?vid=5f5215b8-a74e-490d-acf4-116c426a9b8e","ios":"levelo://app?vid=5f5215b8-a74e-490d-acf4-116c426a9b8e"},"vehicle_type_id":"4","last_reported":1727244776,"current_range_meters":37600,"station_id":"ce4bhnp2rcd13ifvqgvg","pricing_plan_id":"cebpf4jnsgd1na2vs0mg"},{"bike_id":"f6275728-f078-4fe3-a4cc-467a5a2ab004","system_id":"levelo_inurba_marseille","lat":43.31469,"lon":5.36951,"is_reserved":false,"is_disabled":false,"rental_uris":{"android":"levelo://app?vid=f6275728-f078-4fe3-a4cc-467a5a2ab004","ios":"levelo://app?vid=f6275728-f078-4fe3-a4cc-467a5a2ab004"},"vehicle_type_id":"4","last_reported":1727244776,"current_range_meters":36000,"station_id":"","pricing_plan_id":"cebpf4jnsgd1na2vs0mg"},{"bike_id":"f4b9a2e8-2e35-4e88-ad07-134338dfa206","system_id":"levelo_inurba_marseille","lat":43.287072,"lon":5.373752,"is_reserved":false,"is_disabled":false,"rental_uris":{"android":"levelo://app?vid=f4b9a2e8-2e35-4e88-ad07-134338dfa206","ios":"levelo://app?vid=f4b9a2e8-2e35-4e88-ad07-134338dfa206"},"vehicle_type_id":"4","last_reported":1727244776,"current_range_meters":34800,"station_id":"ce4bgi12rcd13ifvqb70","pricing_plan_id":"cebpf4jnsgd1na2vs0mg"},{"bike_id":"eea2cd5a-ea70-49e4-b38f-c464fb6c5cc3","system_id":"levelo_inurba_marseille","lat":43.337444,"lon":5.374475,"is_reserved":false,"is_disabled":false,"rental_uris":{"android":"levelo://app?vid=eea2cd5a-ea70-49e4-b38f-c464fb6c5cc3","ios":"levelo://app?vid=eea2cd5a-ea70-49e4-b38f-c464fb6c5cc3"},"vehicle_type_id":"4","last_reported":1727244776,"current_range_meters":31200,"station_id":"","pricing_plan_id":"cebpf4jnsgd1na2vs0mg"},{"bike_id":"e31390a1-698d-4d79-8906-2880174125ac","system_id":"levelo_inurba_marseille","lat":43.28974,"lon":5.37825,"is_reserved":false,"is_disabled":false,"rental_uris":{"android":"levelo://app?vid=e31390a1-698d-4d79-8906-2880174125ac","ios":"levelo://app?vid=e31390a1-698d-4d79-8906-2880174125ac"},"vehicle_type_id":"4","last_reported":1727244776,"current_range_meters":36000,"station_id":"ce4bh9p2rcd13ifvqed0","pricing_plan_id":"cebpf4jnsgd1na2vs0mg"},{"bike_id":"66cd78a4-e204-41d5-9b07-a98aca92c8d8","system_id":"levelo_inurba_marseille","lat":43.29043,"lon":5.39963,"is_reserved":false,"is_disabled":false,"rental_uris":{"android":"levelo://app?vid=66cd78a4-e204-41d5-9b07-a98aca92c8d8","ios":"levelo://app?vid=66cd78a4-e204-41d5-9b07-a98aca92c8d8"},"vehicle_type_id":"4","last_reported":1727244776,"current_range_meters":36000,"station_id":"ce4bh392rcd13ifvqdm0","pricing_plan_id":"cebpf4jnsgd1na2vs0mg"},{"bike_id":"0ea0dcbe-5d85-46de-a0f6-b884ea28c06b","system_id":"levelo_inurba_marseille","lat":43.29011,"lon":5.35609,"is_reserved":false,"is_disabled":false,"rental_uris":{"android":"levelo://app?vid=0ea0dcbe-5d85-46de-a0f6-b884ea28c06b","ios":"levelo://app?vid=0ea0dcbe-5d85-46de-a0f6-b884ea28c06b"},"vehicle_type_id":"4","last_reported":1727244776,"current_range_meters":20800,"station_id":"ce4bhb92rcd13ifvqen0","pricing_plan_id":"cebpf4jnsgd1na2vs0mg"},{"bike_id":"ceef0459-1d68-4423-873f-fcdad030ba99","system_id":"levelo_inurba_marseille","lat":43.30599,"lon":5.39362,"is_reserved":false,"is_disabled":false,"rental_uris":{"android":"levelo://app?vid=ceef0459-1d68-4423-873f-fcdad030ba99","ios":"levelo://app?vid=ceef0459-1d68-4423-873f-fcdad030ba99"},"vehicle_type_id":"4","last_reported":1727244776,"current_range_meters":18000,"station_id":"ce4bh0p2rcd13ifvqd80","pricing_plan_id":"cebpf4jnsgd1na2vs0mg"},{"bike_id":"2e01ffdd-6397-4929-8889-077a10353aec","system_id":"levelo_inurba_marseille","lat":43.24082,"lon":5.37753,"is_reserved":false,"is_disabled":false,"rental_uris":{"android":"levelo://app?vid=2e01ffdd-6397-4929-8889-077a10353aec","ios":"levelo://app?vid=2e01ffdd-6397-4929-8889-077a10353aec"},"vehicle_type_id":"4","last_reported":1727244776,"current_range_meters":36800,"station_id":"ce4bhnp2rcd13ifvqgvg","pricing_plan_id":"cebpf4jnsgd1na2vs0mg"},{"bike_id":"fc73d652-80ad-4a14-be48-975e62206a3b","system_id":"levelo_inurba_marseille","lat":43.28938,"lon":5.36638,"is_reserved":false,"is_disabled":false,"rental_uris":{"android":"levelo://app?vid=fc73d652-80ad-4a14-be48-975e62206a3b","ios":"levelo://app?vid=fc73d652-80ad-4a14-be48-975e62206a3b"},"vehicle_type_id":"4","last_reported":1727244776,"current_range_meters":24400,"station_id":"ce4bhap2rcd13ifvqek0","pricing_plan_id":"cebpf4jnsgd1na2vs0mg"},{"bike_id":"1e3b8d82-83b6-44f5-b14a-613ed9f1f801","system_id":"levelo_inurba_marseille","lat":43.297913,"lon":5.380951,"is_reserved":false,"is_disabled":false,"rental_uris":{"android":"levelo://app?vid=1e3b8d82-83b6-44f5-b14a-613ed9f1f801","ios":"levelo://app?vid=1e3b8d82-83b6-44f5-b14a-613ed9f1f801"},"vehicle_type_id":"4","last_reported":1727244776,"current_range_meters":37600,"station_id":"ce4bgn12rcd13ifvqbt0","pricing_plan_id":"cebpf4jnsgd1na2vs0mg"},{"bike_id":"f4f9f7b1-0483-4614-a717-c97a58bb909c","system_id":"levelo_inurba_marseille","lat":43.31494,"lon":5.37301,"is_reserved":false,"is_disabled":false,"rental_uris":{"android":"levelo://app?vid=f4f9f7b1-0483-4614-a717-c97a58bb909c","ios":"levelo://app?vid=f4f9f7b1-0483-4614-a717-c97a58bb909c"},"vehicle_type_id":"4","last_reported":1727244776,"current_range_meters":40000,"station_id":"ce4bgt12rcd13ifvqcd0","pricing_plan_id":"cebpf4jnsgd1na2vs0mg"},{"bike_id":"1802deb5-1c46-4f67-afa3-157e0fdc0220","system_id":"levelo_inurba_marseille","lat":43.27812,"lon":5.40713,"is_reserved":false,"is_disabled":false,"rental_uris":{"android":"levelo://app?vid=1802deb5-1c46-4f67-afa3-157e0fdc0220","ios":"levelo://app?vid=1802deb5-1c46-4f67-afa3-157e0fdc0220"},"vehicle_type_id":"4","last_reported":1727244776,"current_range_meters":25600,"station_id":"ce4bhnh2rcd13ifvqgtg","pricing_plan_id":"cebpf4jnsgd1na2vs0mg"},{"bike_id":"fdd7dfb2-ed6e-4c1b-8650-78eca78de96a","system_id":"levelo_inurba_marseille","lat":43.23962,"lon":5.36627,"is_reserved":false,"is_disabled":false,"rental_uris":{"android":"levelo://app?vid=fdd7dfb2-ed6e-4c1b-8650-78eca78de96a","ios":"levelo://app?vid=fdd7dfb2-ed6e-4c1b-8650-78eca78de96a"},"vehicle_type_id":"4","last_reported":1727244776,"current_range_meters":38000,"station_id":"ce4bhi12rcd13ifvqfp0","pricing_plan_id":"cebpf4jnsgd1na2vs0mg"},{"bike_id":"2fb0fc57-8a81-4d2e-a35d-ac88f05ffb63","system_id":"levelo_inurba_marseille","lat":43.33604,"lon":5.41026,"is_reserved":false,"is_disabled":false,"rental_uris":{"android":"levelo://app?vid=2fb0fc57-8a81-4d2e-a35d-ac88f05ffb63","ios":"levelo://app?vid=2fb0fc57-8a81-4d2e-a35d-ac88f05ffb63"},"vehicle_type_id":"4","last_reported":1727244776,"current_range_meters":8800,"station_id":"ce4bhqh2rcd13ifvqhmg","pricing_plan_id":"cebpf4jnsgd1na2vs0mg"},{"bike_id":"6b05d1b6-58bb-4caa-86c1-fd0559805b4c","system_id":"levelo_inurba_marseille","lat":43.25501,"lon":5.37648,"is_reserved":false,"is_disabled":false,"rental_uris":{"android":"levelo://app?vid=6b05d1b6-58bb-4caa-86c1-fd0559805b4c","ios":"levelo://app?vid=6b05d1b6-58bb-4caa-86c1-fd0559805b4c"},"vehicle_type_id":"4","last_reported":1727244776,"current_range_meters":12000,"station_id":"ce4bhh12rcd13ifvqff0","pricing_plan_id":"cebpf4jnsgd1na2vs0mg"},{"bike_id":"7d1c5f24-b2c4-4b39-a45e-5cd31c748af9","system_id":"levelo_inurba_marseille","lat":43.32489,"lon":5.36576,"is_reserved":false,"is_disabled":false,"rental_uris":{"android":"levelo://app?vid=7d1c5f24-b2c4-4b39-a45e-5cd31c748af9","ios":"levelo://app?vid=7d1c5f24-b2c4-4b39-a45e-5cd31c748af9"},"vehicle_type_id":"4","last_reported":1727244776,"current_range_meters":35200,"station_id":"ce4bhs12rcd13ifvqhvg","pricing_plan_id":"cebpf4jnsgd1na2vs0mg"},{"bike_id":"4b3f338b-df24-42af-b85a-4f54f291a067","system_id":"levelo_inurba_marseille","lat":43.3081,"lon":5.38158,"is_reserved":false,"is_disabled":false,"rental_uris":{"android":"levelo://app?vid=4b3f338b-df24-42af-b85a-4f54f291a067","ios":"levelo://app?vid=4b3f338b-df24-42af-b85a-4f54f291a067"},"vehicle_type_id":"4","last_reported":1727244776,"current_range_meters":34800,"station_id":"ce4bgt12rcd13ifvqce0","pricing_plan_id":"cebpf4jnsgd1na2vs0mg"},{"bike_id":"858c21fa-534e-442a-b6d4-75bfb2326fa0","system_id":"levelo_inurba_marseille","lat":43.29043,"lon":5.39954,"is_reserved":false,"is_disabled":false,"rental_uris":{"android":"levelo://app?vid=858c21fa-534e-442a-b6d4-75bfb2326fa0","ios":"levelo://app?vid=858c21fa-534e-442a-b6d4-75bfb2326fa0"},"vehicle_type_id":"4","last_reported":1727244776,"current_range_meters":31200,"station_id":"ce4bh392rcd13ifvqdm0","pricing_plan_id":"cebpf4jnsgd1na2vs0mg"},{"bike_id":"2f958106-65b2-4b11-96aa-7adfd054d7e7","system_id":"levelo_inurba_marseille","lat":43.29256,"lon":5.409,"is_reserved":false,"is_disabled":false,"rental_uris":{"android":"levelo://app?vid=2f958106-65b2-4b11-96aa-7adfd054d7e7","ios":"levelo://app?vid=2f958106-65b2-4b11-96aa-7adfd054d7e7"},"vehicle_type_id":"4","last_reported":1727244776,"current_range_meters":35200,"station_id":"ce4bh192rcd13ifvqdc0","pricing_plan_id":"cebpf4jnsgd1na2vs0mg"},{"bike_id":"da68e3bc-fd0d-4595-903c-86471f65e948","system_id":"levelo_inurba_marseille","lat":43.28939,"lon":5.36399,"is_reserved":false,"is_disabled":false,"rental_uris":{"android":"levelo://app?vid=da68e3bc-fd0d-4595-903c-86471f65e948","ios":"levelo://app?vid=da68e3bc-fd0d-4595-903c-86471f65e948"},"vehicle_type_id":"4","last_reported":1727244776,"current_range_meters":38800,"station_id":"ce4bhc92rcd13ifvqetg","pricing_plan_id":"cebpf4jnsgd1na2vs0mg"},{"bike_id":"27daae29-2876-4b3c-862a-220758b1a12b","system_id":"levelo_inurba_marseille","lat":43.26033,"lon":5.37545,"is_reserved":false,"is_disabled":false,"rental_uris":{"android":"levelo://app?vid=27daae29-2876-4b3c-862a-220758b1a12b","ios":"levelo://app?vid=27daae29-2876-4b3c-862a-220758b1a12b"},"vehicle_type_id":"4","last_reported":1727244776,"current_range_meters":38000,"station_id":"ce4bhgh2rcd13ifvqfa0","pricing_plan_id":"cebpf4jnsgd1na2vs0mg"},{"bike_id":"b7eadcf9-fceb-4bd9-8b72-db3ef2c96ce6","system_id":"levelo_inurba_marseille","lat":43.24042,"lon":5.37646,"is_reserved":false,"is_disabled":false,"rental_uris":{"android":"levelo://app?vid=b7eadcf9-fceb-4bd9-8b72-db3ef2c96ce6","ios":"levelo://app?vid=b7eadcf9-fceb-4bd9-8b72-db3ef2c96ce6"},"vehicle_type_id":"4","last_reported":1727244776,"current_range_meters":27600,"station_id":"","pricing_plan_id":"cebpf4jnsgd1na2vs0mg"},{"bike_id":"397e60cd-518e-45d9-b777-841ba7141791","system_id":"levelo_inurba_marseille","lat":43.31328,"lon":5.40232,"is_reserved":false,"is_disabled":false,"rental_uris":{"android":"levelo://app?vid=397e60cd-518e-45d9-b777-841ba7141791","ios":"levelo://app?vid=397e60cd-518e-45d9-b777-841ba7141791"},"vehicle_type_id":"4","last_reported":1727244776,"current_range_meters":26800,"station_id":"","pricing_plan_id":"cebpf4jnsgd1na2vs0mg"},{"bike_id":"cf7ac539-f4dc-4e1f-b039-53aef50a1a09","system_id":"levelo_inurba_marseille","lat":43.31271,"lon":5.4017,"is_reserved":false,"is_disabled":false,"rental_uris":{"android":"levelo://app?vid=cf7ac539-f4dc-4e1f-b039-53aef50a1a09","ios":"levelo://app?vid=cf7ac539-f4dc-4e1f-b039-53aef50a1a09"},"vehicle_type_id":"4","last_reported":1727244776,"current_range_meters":38000,"station_id":"ce4bh092rcd13ifvqd30","pricing_plan_id":"cebpf4jnsgd1na2vs0mg"},{"bike_id":"26a4ac54-13e4-4229-bc57-01ea854fb259","system_id":"levelo_inurba_marseille","lat":43.30247,"lon":5.40045,"is_reserved":false,"is_disabled":false,"rental_uris":{"android":"levelo://app?vid=26a4ac54-13e4-4229-bc57-01ea854fb259","ios":"levelo://app?vid=26a4ac54-13e4-4229-bc57-01ea854fb259"},"vehicle_type_id":"4","last_reported":1727244776,"current_range_meters":36000,"station_id":"ce4bgvh2rcd13ifvqcs0","pricing_plan_id":"cebpf4jnsgd1na2vs0mg"},{"bike_id":"57757cf2-b971-443b-97a6-6c791a375948","system_id":"levelo_inurba_marseille","lat":43.28252,"lon":5.43024,"is_reserved":false,"is_disabled":false,"rental_uris":{"android":"levelo://app?vid=57757cf2-b971-443b-97a6-6c791a375948","ios":"levelo://app?vid=57757cf2-b971-443b-97a6-6c791a375948"},"vehicle_type_id":"4","last_reported":1727244776,"current_range_meters":24400,"station_id":"","pricing_plan_id":"cebpf4jnsgd1na2vs0mg"},{"bike_id":"3a124326-6a4b-4391-b396-1e5bf27977e0","system_id":"levelo_inurba_marseille","lat":43.28267,"lon":5.35073,"is_reserved":false,"is_disabled":false,"rental_uris":{"android":"levelo://app?vid=3a124326-6a4b-4391-b396-1e5bf27977e0","ios":"levelo://app?vid=3a124326-6a4b-4391-b396-1e5bf27977e0"},"vehicle_type_id":"4","last_reported":1727244776,"current_range_meters":38800,"station_id":"ce4bhbp2rcd13ifvqerg","pricing_plan_id":"cebpf4jnsgd1na2vs0mg"},{"bike_id":"361eaa0e-a99b-4fb6-854a-0d4baef269ba","system_id":"levelo_inurba_marseille","lat":43.24074,"lon":5.37756,"is_reserved":false,"is_disabled":false,"rental_uris":{"android":"levelo://app?vid=361eaa0e-a99b-4fb6-854a-0d4baef269ba","ios":"levelo://app?vid=361eaa0e-a99b-4fb6-854a-0d4baef269ba"},"vehicle_type_id":"4","last_reported":1727244776,"current_range_meters":35600,"station_id":"ce4bhnp2rcd13ifvqgvg","pricing_plan_id":"cebpf4jnsgd1na2vs0mg"},{"bike_id":"1f655e29-2838-4be4-9d59-d3da21fe6810","system_id":"levelo_inurba_marseille","lat":43.31349,"lon":5.36721,"is_reserved":false,"is_disabled":false,"rental_uris":{"android":"levelo://app?vid=1f655e29-2838-4be4-9d59-d3da21fe6810","ios":"levelo://app?vid=1f655e29-2838-4be4-9d59-d3da21fe6810"},"vehicle_type_id":"4","last_reported":1727244776,"current_range_meters":38800,"station_id":"ce4bgr92rcd13ifvqc6g","pricing_plan_id":"cebpf4jnsgd1na2vs0mg"},{"bike_id":"73e7f655-b2b9-4127-a50c-dc2251f994d0","system_id":"levelo_inurba_marseille","lat":43.287738,"lon":5.39694,"is_reserved":false,"is_disabled":false,"rental_uris":{"android":"levelo://app?vid=73e7f655-b2b9-4127-a50c-dc2251f994d0","ios":"levelo://app?vid=73e7f655-b2b9-4127-a50c-dc2251f994d0"},"vehicle_type_id":"4","last_reported":1727244776,"current_range_meters":36400,"station_id":"","pricing_plan_id":"cebpf4jnsgd1na2vs0mg"},{"bike_id":"fe7c0bf1-4f00-44fc-a253-d442ac160773","system_id":"levelo_inurba_marseille","lat":43.30466,"lon":5.37912,"is_reserved":false,"is_disabled":false,"rental_uris":{"android":"levelo://app?vid=fe7c0bf1-4f00-44fc-a253-d442ac160773","ios":"levelo://app?vid=fe7c0bf1-4f00-44fc-a253-d442ac160773"},"vehicle_type_id":"4","last_reported":1727244776,"current_range_meters":13600,"station_id":"ce4bgup2rcd13ifvqcn0","pricing_plan_id":"cebpf4jnsgd1na2vs0mg"},{"bike_id":"02ab7362-2b7f-4383-a176-abcd0062a076","system_id":"levelo_inurba_marseille","lat":43.29261,"lon":5.40907,"is_reserved":false,"is_disabled":false,"rental_uris":{"android":"levelo://app?vid=02ab7362-2b7f-4383-a176-abcd0062a076","ios":"levelo://app?vid=02ab7362-2b7f-4383-a176-abcd0062a076"},"vehicle_type_id":"4","last_reported":1727244776,"current_range_meters":33200,"station_id":"ce4bh192rcd13ifvqdc0","pricing_plan_id":"cebpf4jnsgd1na2vs0mg"},{"bike_id":"73e09057-1c6a-40c7-aa18-faaf858e74ef","system_id":"levelo_inurba_marseille","lat":43.30599,"lon":5.39356,"is_reserved":false,"is_disabled":false,"rental_uris":{"android":"levelo://app?vid=73e09057-1c6a-40c7-aa18-faaf858e74ef","ios":"levelo://app?vid=73e09057-1c6a-40c7-aa18-faaf858e74ef"},"vehicle_type_id":"4","last_reported":1727244776,"current_range_meters":32800,"station_id":"ce4bh0p2rcd13ifvqd80","pricing_plan_id":"cebpf4jnsgd1na2vs0mg"},{"bike_id":"42e28420-0ccf-45ee-82af-24d93cebb6e2","system_id":"levelo_inurba_marseille","lat":43.28443,"lon":5.39188,"is_reserved":false,"is_disabled":false,"rental_uris":{"android":"levelo://app?vid=42e28420-0ccf-45ee-82af-24d93cebb6e2","ios":"levelo://app?vid=42e28420-0ccf-45ee-82af-24d93cebb6e2"},"vehicle_type_id":"4","last_reported":1727244776,"current_range_meters":38800,"station_id":"ce4bhoh2rcd13ifvqh5g","pricing_plan_id":"cebpf4jnsgd1na2vs0mg"},{"bike_id":"106a9564-fb31-4dd5-ae47-72782c3e325e","system_id":"levelo_inurba_marseille","lat":43.30149,"lon":5.38071,"is_reserved":false,"is_disabled":false,"rental_uris":{"android":"levelo://app?vid=106a9564-fb31-4dd5-ae47-72782c3e325e","ios":"levelo://app?vid=106a9564-fb31-4dd5-ae47-72782c3e325e"},"vehicle_type_id":"4","last_reported":1727244776,"current_range_meters":35200,"station_id":"ce4bgjp2rcd13ifvqbh0","pricing_plan_id":"cebpf4jnsgd1na2vs0mg"},{"bike_id":"b0d3516a-5b28-4d8a-ad9c-d515349f42a7","system_id":"levelo_inurba_marseille","lat":43.30599,"lon":5.39349,"is_reserved":false,"is_disabled":false,"rental_uris":{"android":"levelo://app?vid=b0d3516a-5b28-4d8a-ad9c-d515349f42a7","ios":"levelo://app?vid=b0d3516a-5b28-4d8a-ad9c-d515349f42a7"},"vehicle_type_id":"4","last_reported":1727244776,"current_range_meters":37600,"station_id":"ce4bh0p2rcd13ifvqd80","pricing_plan_id":"cebpf4jnsgd1na2vs0mg"},{"bike_id":"853ddd57-037c-4f02-9589-550f1347b575","system_id":"levelo_inurba_marseille","lat":43.30595,"lon":5.3935,"is_reserved":false,"is_disabled":false,"rental_uris":{"android":"levelo://app?vid=853ddd57-037c-4f02-9589-550f1347b575","ios":"levelo://app?vid=853ddd57-037c-4f02-9589-550f1347b575"},"vehicle_type_id":"4","last_reported":1727244776,"current_range_meters":3600,"station_id":"ce4bh0p2rcd13ifvqd80","pricing_plan_id":"cebpf4jnsgd1na2vs0mg"},{"bike_id":"cecdb451-815e-4c6b-ae8b-232a2708af01","system_id":"levelo_inurba_marseille","lat":43.27941,"lon":5.41052,"is_reserved":false,"is_disabled":false,"rental_uris":{"android":"levelo://app?vid=cecdb451-815e-4c6b-ae8b-232a2708af01","ios":"levelo://app?vid=cecdb451-815e-4c6b-ae8b-232a2708af01"},"vehicle_type_id":"4","last_reported":1727244776,"current_range_meters":5600,"station_id":"ce4bhnp2rcd13ifvqh0g","pricing_plan_id":"cebpf4jnsgd1na2vs0mg"},{"bike_id":"68c4e6d4-6b39-4f75-af01-20d8ee3eeed3","system_id":"levelo_inurba_marseille","lat":43.31707,"lon":5.37755,"is_reserved":false,"is_disabled":false,"rental_uris":{"android":"levelo://app?vid=68c4e6d4-6b39-4f75-af01-20d8ee3eeed3","ios":"levelo://app?vid=68c4e6d4-6b39-4f75-af01-20d8ee3eeed3"},"vehicle_type_id":"4","last_reported":1727244776,"current_range_meters":25600,"station_id":"ce4bgth2rcd13ifvqch0","pricing_plan_id":"cebpf4jnsgd1na2vs0mg"},{"bike_id":"85dde36e-19c7-4630-93c3-b5f8536bd9bd","system_id":"levelo_inurba_marseille","lat":43.24086,"lon":5.37748,"is_reserved":false,"is_disabled":false,"rental_uris":{"android":"levelo://app?vid=85dde36e-19c7-4630-93c3-b5f8536bd9bd","ios":"levelo://app?vid=85dde36e-19c7-4630-93c3-b5f8536bd9bd"},"vehicle_type_id":"4","last_reported":1727244776,"current_range_meters":2800,"station_id":"ce4bhnp2rcd13ifvqgvg","pricing_plan_id":"cebpf4jnsgd1na2vs0mg"},{"bike_id":"9fd8e932-0bbe-45a7-a9ac-3aa157bc97f4","system_id":"levelo_inurba_marseille","lat":43.27374,"lon":5.36259,"is_reserved":false,"is_disabled":false,"rental_uris":{"android":"levelo://app?vid=9fd8e932-0bbe-45a7-a9ac-3aa157bc97f4","ios":"levelo://app?vid=9fd8e932-0bbe-45a7-a9ac-3aa157bc97f4"},"vehicle_type_id":"4","last_reported":1727244776,"current_range_meters":38800,"station_id":"ce4bhbh2rcd13ifvqeo0","pricing_plan_id":"cebpf4jnsgd1na2vs0mg"},{"bike_id":"87afb8d3-24b3-4de3-b4ba-f8efd8e7e57d","system_id":"levelo_inurba_marseille","lat":43.2835,"lon":5.38106,"is_reserved":false,"is_disabled":false,"rental_uris":{"android":"levelo://app?vid=87afb8d3-24b3-4de3-b4ba-f8efd8e7e57d","ios":"levelo://app?vid=87afb8d3-24b3-4de3-b4ba-f8efd8e7e57d"},"vehicle_type_id":"4","last_reported":1727244776,"current_range_meters":37600,"station_id":"ce4bh412rcd13ifvqdr0","pricing_plan_id":"cebpf4jnsgd1na2vs0mg"},{"bike_id":"10b9f85e-e4ee-4f70-979e-f255ac0bd659","system_id":"levelo_inurba_marseille","lat":43.2293,"lon":5.35378,"is_reserved":false,"is_disabled":false,"rental_uris":{"android":"levelo://app?vid=10b9f85e-e4ee-4f70-979e-f255ac0bd659","ios":"levelo://app?vid=10b9f85e-e4ee-4f70-979e-f255ac0bd659"},"vehicle_type_id":"4","last_reported":1727244776,"current_range_meters":4400,"station_id":"cpo3532slgdg3j2ikp40","pricing_plan_id":"cebpf4jnsgd1na2vs0mg"},{"bike_id":"ab8a776f-7a05-4324-9e26-529ce9006afc","system_id":"levelo_inurba_marseille","lat":43.29277,"lon":5.36839,"is_reserved":false,"is_disabled":false,"rental_uris":{"android":"levelo://app?vid=ab8a776f-7a05-4324-9e26-529ce9006afc","ios":"levelo://app?vid=ab8a776f-7a05-4324-9e26-529ce9006afc"},"vehicle_type_id":"4","last_reported":1727244776,"current_range_meters":36800,"station_id":"ce4bhbp2rcd13ifvqesg","pricing_plan_id":"cebpf4jnsgd1na2vs0mg"},{"bike_id":"10a437b8-b58e-40b1-b0b7-6372b1519414","system_id":"levelo_inurba_marseille","lat":43.30316,"lon":5.36894,"is_reserved":false,"is_disabled":false,"rental_uris":{"android":"levelo://app?vid=10a437b8-b58e-40b1-b0b7-6372b1519414","ios":"levelo://app?vid=10a437b8-b58e-40b1-b0b7-6372b1519414"},"vehicle_type_id":"4","last_reported":1727244776,"current_range_meters":22800,"station_id":"ce4bgqh2rcd13ifvqc5g","pricing_plan_id":"cebpf4jnsgd1na2vs0mg"},{"bike_id":"d25f67f0-5770-4767-833c-9c57de11b1fa","system_id":"levelo_inurba_marseille","lat":43.30154,"lon":5.38071,"is_reserved":false,"is_disabled":false,"rental_uris":{"android":"levelo://app?vid=d25f67f0-5770-4767-833c-9c57de11b1fa","ios":"levelo://app?vid=d25f67f0-5770-4767-833c-9c57de11b1fa"},"vehicle_type_id":"4","last_reported":1727244776,"current_range_meters":35600,"station_id":"ce4bgjp2rcd13ifvqbh0","pricing_plan_id":"cebpf4jnsgd1na2vs0mg"},{"bike_id":"74e059c3-7187-493a-8ce2-9e9bb5cc544b","system_id":"levelo_inurba_marseille","lat":43.30154,"lon":5.38079,"is_reserved":false,"is_disabled":false,"rental_uris":{"android":"levelo://app?vid=74e059c3-7187-493a-8ce2-9e9bb5cc544b","ios":"levelo://app?vid=74e059c3-7187-493a-8ce2-9e9bb5cc544b"},"vehicle_type_id":"4","last_reported":1727244776,"current_range_meters":7200,"station_id":"ce4bgjp2rcd13ifvqbh0","pricing_plan_id":"cebpf4jnsgd1na2vs0mg"},{"bike_id":"4ad1e1d9-8be5-4fc9-bd17-514af1d4197e","system_id":"levelo_inurba_marseille","lat":43.25829,"lon":5.39438,"is_reserved":false,"is_disabled":false,"rental_uris":{"android":"levelo://app?vid=4ad1e1d9-8be5-4fc9-bd17-514af1d4197e","ios":"levelo://app?vid=4ad1e1d9-8be5-4fc9-bd17-514af1d4197e"},"vehicle_type_id":"4","last_reported":1727244776,"current_range_meters":35200,"station_id":"ce4bhip2rcd13ifvqft0","pricing_plan_id":"cebpf4jnsgd1na2vs0mg"},{"bike_id":"7e538f4f-cb5b-4cfb-9961-fafa4163c43b","system_id":"levelo_inurba_marseille","lat":43.23968,"lon":5.36631,"is_reserved":false,"is_disabled":false,"rental_uris":{"android":"levelo://app?vid=7e538f4f-cb5b-4cfb-9961-fafa4163c43b","ios":"levelo://app?vid=7e538f4f-cb5b-4cfb-9961-fafa4163c43b"},"vehicle_type_id":"4","last_reported":1727244776,"current_range_meters":20400,"station_id":"ce4bhi12rcd13ifvqfp0","pricing_plan_id":"cebpf4jnsgd1na2vs0mg"},{"bike_id":"54fc5423-bff7-47fc-980d-06099f6eec79","system_id":"levelo_inurba_marseille","lat":43.25579,"lon":5.38233,"is_reserved":false,"is_disabled":false,"rental_uris":{"android":"levelo://app?vid=54fc5423-bff7-47fc-980d-06099f6eec79","ios":"levelo://app?vid=54fc5423-bff7-47fc-980d-06099f6eec79"},"vehicle_type_id":"4","last_reported":1727244776,"current_range_meters":37600,"station_id":"ce4bhih2rcd13ifvqfs0","pricing_plan_id":"cebpf4jnsgd1na2vs0mg"},{"bike_id":"e1c662e4-7219-4eeb-ab45-468b2e21b6b0","system_id":"levelo_inurba_marseille","lat":43.29876,"lon":5.39739,"is_reserved":false,"is_disabled":false,"rental_uris":{"android":"levelo://app?vid=e1c662e4-7219-4eeb-ab45-468b2e21b6b0","ios":"levelo://app?vid=e1c662e4-7219-4eeb-ab45-468b2e21b6b0"},"vehicle_type_id":"4","last_reported":1727244776,"current_range_meters":28800,"station_id":"ce4bh0h2rcd13ifvqd50","pricing_plan_id":"cebpf4jnsgd1na2vs0mg"},{"bike_id":"e17246e5-29f6-4451-85f6-665dd994def1","system_id":"levelo_inurba_marseille","lat":43.28967,"lon":5.37824,"is_reserved":false,"is_disabled":false,"rental_uris":{"android":"levelo://app?vid=e17246e5-29f6-4451-85f6-665dd994def1","ios":"levelo://app?vid=e17246e5-29f6-4451-85f6-665dd994def1"},"vehicle_type_id":"4","last_reported":1727244776,"current_range_meters":38800,"station_id":"ce4bh9p2rcd13ifvqed0","pricing_plan_id":"cebpf4jnsgd1na2vs0mg"},{"bike_id":"cab7fbd7-b5f3-4bb2-9970-cb086cff3ce1","system_id":"levelo_inurba_marseille","lat":43.30547,"lon":5.38423,"is_reserved":false,"is_disabled":false,"rental_uris":{"android":"levelo://app?vid=cab7fbd7-b5f3-4bb2-9970-cb086cff3ce1","ios":"levelo://app?vid=cab7fbd7-b5f3-4bb2-9970-cb086cff3ce1"},"vehicle_type_id":"4","last_reported":1727244776,"current_range_meters":38800,"station_id":"ce4bgg92rcd13ifvqb30","pricing_plan_id":"cebpf4jnsgd1na2vs0mg"},{"bike_id":"0a4710f5-a2ae-4573-9abc-f5634b0a0e7d","system_id":"levelo_inurba_marseille","lat":43.31325,"lon":5.36713,"is_reserved":false,"is_disabled":false,"rental_uris":{"android":"levelo://app?vid=0a4710f5-a2ae-4573-9abc-f5634b0a0e7d","ios":"levelo://app?vid=0a4710f5-a2ae-4573-9abc-f5634b0a0e7d"},"vehicle_type_id":"4","last_reported":1727244776,"current_range_meters":36400,"station_id":"ce4bgr92rcd13ifvqc6g","pricing_plan_id":"cebpf4jnsgd1na2vs0mg"},{"bike_id":"ae471f21-1f8b-40a4-9395-e3124494b4b8","system_id":"levelo_inurba_marseille","lat":43.31497,"lon":5.37309,"is_reserved":false,"is_disabled":false,"rental_uris":{"android":"levelo://app?vid=ae471f21-1f8b-40a4-9395-e3124494b4b8","ios":"levelo://app?vid=ae471f21-1f8b-40a4-9395-e3124494b4b8"},"vehicle_type_id":"4","last_reported":1727244776,"current_range_meters":38800,"station_id":"ce4bgt12rcd13ifvqcd0","pricing_plan_id":"cebpf4jnsgd1na2vs0mg"},{"bike_id":"1de48baf-c99c-4f78-9e5b-f0dec60ff48c","system_id":"levelo_inurba_marseille","lat":43.29794,"lon":5.38092,"is_reserved":false,"is_disabled":false,"rental_uris":{"android":"levelo://app?vid=1de48baf-c99c-4f78-9e5b-f0dec60ff48c","ios":"levelo://app?vid=1de48baf-c99c-4f78-9e5b-f0dec60ff48c"},"vehicle_type_id":"4","last_reported":1727244776,"current_range_meters":12400,"station_id":"ce4bgip2rcd13ifvqbb0","pricing_plan_id":"cebpf4jnsgd1na2vs0mg"},{"bike_id":"8282acf3-1e10-4e7a-9e2e-d47e811adce2","system_id":"levelo_inurba_marseille","lat":43.25503,"lon":5.37652,"is_reserved":false,"is_disabled":false,"rental_uris":{"android":"levelo://app?vid=8282acf3-1e10-4e7a-9e2e-d47e811adce2","ios":"levelo://app?vid=8282acf3-1e10-4e7a-9e2e-d47e811adce2"},"vehicle_type_id":"4","last_reported":1727244776,"current_range_meters":37600,"station_id":"ce4bhh12rcd13ifvqff0","pricing_plan_id":"cebpf4jnsgd1na2vs0mg"},{"bike_id":"aff1de20-8dde-4084-9d66-b996609a6d77","system_id":"levelo_inurba_marseille","lat":43.2733,"lon":5.39082,"is_reserved":false,"is_disabled":false,"rental_uris":{"android":"levelo://app?vid=aff1de20-8dde-4084-9d66-b996609a6d77","ios":"levelo://app?vid=aff1de20-8dde-4084-9d66-b996609a6d77"},"vehicle_type_id":"4","last_reported":1727244776,"current_range_meters":28000,"station_id":"ce4bhgp2rcd13ifvqfe0","pricing_plan_id":"cebpf4jnsgd1na2vs0mg"},{"bike_id":"ebec7cd5-5fed-46ce-abdb-3cd659f607ac","system_id":"levelo_inurba_marseille","lat":43.29552,"lon":5.42282,"is_reserved":false,"is_disabled":false,"rental_uris":{"android":"levelo://app?vid=ebec7cd5-5fed-46ce-abdb-3cd659f607ac","ios":"levelo://app?vid=ebec7cd5-5fed-46ce-abdb-3cd659f607ac"},"vehicle_type_id":"4","last_reported":1727244776,"current_range_meters":35200,"station_id":"ce4bhph2rcd13ifvqhdg","pricing_plan_id":"cebpf4jnsgd1na2vs0mg"},{"bike_id":"3ebed254-24fd-4594-95b9-7418d4ed8360","system_id":"levelo_inurba_marseille","lat":43.28043,"lon":5.36942,"is_reserved":false,"is_disabled":false,"rental_uris":{"android":"levelo://app?vid=3ebed254-24fd-4594-95b9-7418d4ed8360","ios":"levelo://app?vid=3ebed254-24fd-4594-95b9-7418d4ed8360"},"vehicle_type_id":"4","last_reported":1727244776,"current_range_meters":36800,"station_id":"ce4bha12rcd13ifvqef0","pricing_plan_id":"cebpf4jnsgd1na2vs0mg"},{"bike_id":"7ca86612-9a05-43d0-b1d4-52eee1453f50","system_id":"levelo_inurba_marseille","lat":43.30654,"lon":5.4009,"is_reserved":false,"is_disabled":false,"rental_uris":{"android":"levelo://app?vid=7ca86612-9a05-43d0-b1d4-52eee1453f50","ios":"levelo://app?vid=7ca86612-9a05-43d0-b1d4-52eee1453f50"},"vehicle_type_id":"4","last_reported":1727244776,"current_range_meters":38000,"station_id":"ce4bh112rcd13ifvqda0","pricing_plan_id":"cebpf4jnsgd1na2vs0mg"},{"bike_id":"584dc729-0cb1-4902-8a6c-23dc123e7906","system_id":"levelo_inurba_marseille","lat":43.22924,"lon":5.35377,"is_reserved":false,"is_disabled":false,"rental_uris":{"android":"levelo://app?vid=584dc729-0cb1-4902-8a6c-23dc123e7906","ios":"levelo://app?vid=584dc729-0cb1-4902-8a6c-23dc123e7906"},"vehicle_type_id":"4","last_reported":1727244776,"current_range_meters":22800,"station_id":"cpo3532slgdg3j2ikp40","pricing_plan_id":"cebpf4jnsgd1na2vs0mg"},{"bike_id":"df5b38d2-64cb-4df0-856f-ea9bd22c082c","system_id":"levelo_inurba_marseille","lat":43.23193,"lon":5.35558,"is_reserved":false,"is_disabled":false,"rental_uris":{"android":"levelo://app?vid=df5b38d2-64cb-4df0-856f-ea9bd22c082c","ios":"levelo://app?vid=df5b38d2-64cb-4df0-856f-ea9bd22c082c"},"vehicle_type_id":"4","last_reported":1727244776,"current_range_meters":8800,"station_id":"ce4bhu92rcd13ifvqi70","pricing_plan_id":"cebpf4jnsgd1na2vs0mg"},{"bike_id":"707528d8-0988-4632-94dc-544d37620d76","system_id":"levelo_inurba_marseille","lat":43.33601,"lon":5.41021,"is_reserved":false,"is_disabled":false,"rental_uris":{"android":"levelo://app?vid=707528d8-0988-4632-94dc-544d37620d76","ios":"levelo://app?vid=707528d8-0988-4632-94dc-544d37620d76"},"vehicle_type_id":"4","last_reported":1727244776,"current_range_meters":39200,"station_id":"ce4bhqh2rcd13ifvqhmg","pricing_plan_id":"cebpf4jnsgd1na2vs0mg"},{"bike_id":"f661a593-5782-4223-bda2-0c32be707ff0","system_id":"levelo_inurba_marseille","lat":43.304569,"lon":5.37903,"is_reserved":false,"is_disabled":false,"rental_uris":{"android":"levelo://app?vid=f661a593-5782-4223-bda2-0c32be707ff0","ios":"levelo://app?vid=f661a593-5782-4223-bda2-0c32be707ff0"},"vehicle_type_id":"4","last_reported":1727244776,"current_range_meters":32800,"station_id":"ce4bgup2rcd13ifvqcn0","pricing_plan_id":"cebpf4jnsgd1na2vs0mg"},{"bike_id":"cb1adf5d-f2d0-4b7f-b2cd-ff3a0afadda5","system_id":"levelo_inurba_marseille","lat":43.27498,"lon":5.42448,"is_reserved":false,"is_disabled":false,"rental_uris":{"android":"levelo://app?vid=cb1adf5d-f2d0-4b7f-b2cd-ff3a0afadda5","ios":"levelo://app?vid=cb1adf5d-f2d0-4b7f-b2cd-ff3a0afadda5"},"vehicle_type_id":"4","last_reported":1727244776,"current_range_meters":9200,"station_id":"ce4bhn92rcd13ifvqgrg","pricing_plan_id":"cebpf4jnsgd1na2vs0mg"},{"bike_id":"66ec5e9d-3583-400a-9522-011e535be416","system_id":"levelo_inurba_marseille","lat":43.28279,"lon":5.35062,"is_reserved":false,"is_disabled":false,"rental_uris":{"android":"levelo://app?vid=66ec5e9d-3583-400a-9522-011e535be416","ios":"levelo://app?vid=66ec5e9d-3583-400a-9522-011e535be416"},"vehicle_type_id":"4","last_reported":1727244776,"current_range_meters":37600,"station_id":"ce4bhbp2rcd13ifvqerg","pricing_plan_id":"cebpf4jnsgd1na2vs0mg"},{"bike_id":"acfa716c-85e4-4d77-afb3-55524a7bcad0","system_id":"levelo_inurba_marseille","lat":43.31528,"lon":5.38034,"is_reserved":false,"is_disabled":false,"rental_uris":{"android":"levelo://app?vid=acfa716c-85e4-4d77-afb3-55524a7bcad0","ios":"levelo://app?vid=acfa716c-85e4-4d77-afb3-55524a7bcad0"},"vehicle_type_id":"4","last_reported":1727244776,"current_range_meters":30800,"station_id":"ce4bhsp2rcd13ifvqi50","pricing_plan_id":"cebpf4jnsgd1na2vs0mg"},{"bike_id":"17b1cd1a-7803-4ca9-91f3-73c4fa44f09e","system_id":"levelo_inurba_marseille","lat":43.29553,"lon":5.42285,"is_reserved":false,"is_disabled":false,"rental_uris":{"android":"levelo://app?vid=17b1cd1a-7803-4ca9-91f3-73c4fa44f09e","ios":"levelo://app?vid=17b1cd1a-7803-4ca9-91f3-73c4fa44f09e"},"vehicle_type_id":"4","last_reported":1727244776,"current_range_meters":4800,"station_id":"ce4bhph2rcd13ifvqhdg","pricing_plan_id":"cebpf4jnsgd1na2vs0mg"},{"bike_id":"370ad2c9-c0c1-4242-b6d2-8b6c35717678","system_id":"levelo_inurba_marseille","lat":43.27943,"lon":5.41043,"is_reserved":false,"is_disabled":false,"rental_uris":{"android":"levelo://app?vid=370ad2c9-c0c1-4242-b6d2-8b6c35717678","ios":"levelo://app?vid=370ad2c9-c0c1-4242-b6d2-8b6c35717678"},"vehicle_type_id":"4","last_reported":1727244776,"current_range_meters":38000,"station_id":"ce4bhnp2rcd13ifvqh0g","pricing_plan_id":"cebpf4jnsgd1na2vs0mg"},{"bike_id":"27431c98-bcee-4fbc-9005-ef4fd6a106b8","system_id":"levelo_inurba_marseille","lat":43.23184,"lon":5.39979,"is_reserved":false,"is_disabled":false,"rental_uris":{"android":"levelo://app?vid=27431c98-bcee-4fbc-9005-ef4fd6a106b8","ios":"levelo://app?vid=27431c98-bcee-4fbc-9005-ef4fd6a106b8"},"vehicle_type_id":"4","last_reported":1727244776,"current_range_meters":12000,"station_id":"ce4bhn12rcd13ifvqgqg","pricing_plan_id":"cebpf4jnsgd1na2vs0mg"},{"bike_id":"72db74d2-2c4f-4a12-a06e-67002269c7dd","system_id":"levelo_inurba_marseille","lat":43.30462,"lon":5.37899,"is_reserved":false,"is_disabled":false,"rental_uris":{"android":"levelo://app?vid=72db74d2-2c4f-4a12-a06e-67002269c7dd","ios":"levelo://app?vid=72db74d2-2c4f-4a12-a06e-67002269c7dd"},"vehicle_type_id":"4","last_reported":1727244776,"current_range_meters":36800,"station_id":"ce4bgup2rcd13ifvqcn0","pricing_plan_id":"cebpf4jnsgd1na2vs0mg"},{"bike_id":"dcd126e0-9c30-46b7-a44f-678c75f333be","system_id":"levelo_inurba_marseille","lat":43.240773,"lon":5.37748,"is_reserved":false,"is_disabled":false,"rental_uris":{"android":"levelo://app?vid=dcd126e0-9c30-46b7-a44f-678c75f333be","ios":"levelo://app?vid=dcd126e0-9c30-46b7-a44f-678c75f333be"},"vehicle_type_id":"4","last_reported":1727244776,"current_range_meters":38000,"station_id":"ce4bhnp2rcd13ifvqgvg","pricing_plan_id":"cebpf4jnsgd1na2vs0mg"},{"bike_id":"ad9e6ef0-4a19-4a93-88ed-c66cad530a0a","system_id":"levelo_inurba_marseille","lat":43.32548,"lon":5.41438,"is_reserved":false,"is_disabled":false,"rental_uris":{"android":"levelo://app?vid=ad9e6ef0-4a19-4a93-88ed-c66cad530a0a","ios":"levelo://app?vid=ad9e6ef0-4a19-4a93-88ed-c66cad530a0a"},"vehicle_type_id":"4","last_reported":1727244776,"current_range_meters":38800,"station_id":"ce4bhq12rcd13ifvqhhg","pricing_plan_id":"cebpf4jnsgd1na2vs0mg"},{"bike_id":"acb0310f-a16e-4219-bdde-4543d08c4bfa","system_id":"levelo_inurba_marseille","lat":43.28851,"lon":5.35831,"is_reserved":false,"is_disabled":false,"rental_uris":{"android":"levelo://app?vid=acb0310f-a16e-4219-bdde-4543d08c4bfa","ios":"levelo://app?vid=acb0310f-a16e-4219-bdde-4543d08c4bfa"},"vehicle_type_id":"4","last_reported":1727244776,"current_range_meters":36800,"station_id":"ce4bhb12rcd13ifvqem0","pricing_plan_id":"cebpf4jnsgd1na2vs0mg"},{"bike_id":"a1d82605-350d-4120-889c-7761b40719ec","system_id":"levelo_inurba_marseille","lat":43.32106,"lon":5.36785,"is_reserved":false,"is_disabled":false,"rental_uris":{"android":"levelo://app?vid=a1d82605-350d-4120-889c-7761b40719ec","ios":"levelo://app?vid=a1d82605-350d-4120-889c-7761b40719ec"},"vehicle_type_id":"4","last_reported":1727244776,"current_range_meters":21600,"station_id":"ce4bhrh2rcd13ifvqhug","pricing_plan_id":"cebpf4jnsgd1na2vs0mg"},{"bike_id":"01fab687-6ec5-41ce-ba78-a038ddccd97a","system_id":"levelo_inurba_marseille","lat":43.29601,"lon":5.38093,"is_reserved":false,"is_disabled":false,"rental_uris":{"android":"levelo://app?vid=01fab687-6ec5-41ce-ba78-a038ddccd97a","ios":"levelo://app?vid=01fab687-6ec5-41ce-ba78-a038ddccd97a"},"vehicle_type_id":"4","last_reported":1727244776,"current_range_meters":38400,"station_id":"ce4bgl12rcd13ifvqbo0","pricing_plan_id":"cebpf4jnsgd1na2vs0mg"},{"bike_id":"76b97795-059b-4dda-b572-ee4e94178371","system_id":"levelo_inurba_marseille","lat":43.26573,"lon":5.39009,"is_reserved":false,"is_disabled":false,"rental_uris":{"android":"levelo://app?vid=76b97795-059b-4dda-b572-ee4e94178371","ios":"levelo://app?vid=76b97795-059b-4dda-b572-ee4e94178371"},"vehicle_type_id":"4","last_reported":1727244776,"current_range_meters":38800,"station_id":"ce4bhe12rcd13ifvqf30","pricing_plan_id":"cebpf4jnsgd1na2vs0mg"},{"bike_id":"8fb232c5-d21b-4052-928e-b0f8d765da85","system_id":"levelo_inurba_marseille","lat":43.30152,"lon":5.38075,"is_reserved":false,"is_disabled":false,"rental_uris":{"android":"levelo://app?vid=8fb232c5-d21b-4052-928e-b0f8d765da85","ios":"levelo://app?vid=8fb232c5-d21b-4052-928e-b0f8d765da85"},"vehicle_type_id":"4","last_reported":1727244776,"current_range_meters":37600,"station_id":"ce4bgjp2rcd13ifvqbh0","pricing_plan_id":"cebpf4jnsgd1na2vs0mg"},{"bike_id":"1166f6b1-5b87-4bc1-b21d-c61655b2fee0","system_id":"levelo_inurba_marseille","lat":43.29461,"lon":5.38048,"is_reserved":false,"is_disabled":false,"rental_uris":{"android":"levelo://app?vid=1166f6b1-5b87-4bc1-b21d-c61655b2fee0","ios":"levelo://app?vid=1166f6b1-5b87-4bc1-b21d-c61655b2fee0"},"vehicle_type_id":"4","last_reported":1727244776,"current_range_meters":35600,"station_id":"","pricing_plan_id":"cebpf4jnsgd1na2vs0mg"},{"bike_id":"d29f3eb0-2292-4707-aa60-f9784be6f8f0","system_id":"levelo_inurba_marseille","lat":43.30459,"lon":5.37895,"is_reserved":false,"is_disabled":false,"rental_uris":{"android":"levelo://app?vid=d29f3eb0-2292-4707-aa60-f9784be6f8f0","ios":"levelo://app?vid=d29f3eb0-2292-4707-aa60-f9784be6f8f0"},"vehicle_type_id":"4","last_reported":1727244776,"current_range_meters":39200,"station_id":"ce4bgup2rcd13ifvqcn0","pricing_plan_id":"cebpf4jnsgd1na2vs0mg"},{"bike_id":"f33e56b7-df6f-4338-b029-6da3c28fa2ce","system_id":"levelo_inurba_marseille","lat":43.25578,"lon":5.38237,"is_reserved":false,"is_disabled":false,"rental_uris":{"android":"levelo://app?vid=f33e56b7-df6f-4338-b029-6da3c28fa2ce","ios":"levelo://app?vid=f33e56b7-df6f-4338-b029-6da3c28fa2ce"},"vehicle_type_id":"4","last_reported":1727244776,"current_range_meters":37600,"station_id":"ce4bhih2rcd13ifvqfs0","pricing_plan_id":"cebpf4jnsgd1na2vs0mg"},{"bike_id":"6cf02193-3ded-4cde-a5e9-273e1e7f9133","system_id":"levelo_inurba_marseille","lat":43.308,"lon":5.43519,"is_reserved":false,"is_disabled":false,"rental_uris":{"android":"levelo://app?vid=6cf02193-3ded-4cde-a5e9-273e1e7f9133","ios":"levelo://app?vid=6cf02193-3ded-4cde-a5e9-273e1e7f9133"},"vehicle_type_id":"4","last_reported":1727244776,"current_range_meters":38800,"station_id":"ce4bhph2rcd13ifvqheg","pricing_plan_id":"cebpf4jnsgd1na2vs0mg"},{"bike_id":"4d0d4da6-8077-4217-a5d8-7fe49130d4fc","system_id":"levelo_inurba_marseille","lat":43.29578,"lon":5.37495,"is_reserved":false,"is_disabled":false,"rental_uris":{"android":"levelo://app?vid=4d0d4da6-8077-4217-a5d8-7fe49130d4fc","ios":"levelo://app?vid=4d0d4da6-8077-4217-a5d8-7fe49130d4fc"},"vehicle_type_id":"4","last_reported":1727244776,"current_range_meters":38400,"station_id":"ce4bgh92rcd13ifvqb50","pricing_plan_id":"cebpf4jnsgd1na2vs0mg"},{"bike_id":"a9b5ef82-4273-45d0-b93e-a999e67c47fd","system_id":"levelo_inurba_marseille","lat":43.30157,"lon":5.38091,"is_reserved":false,"is_disabled":false,"rental_uris":{"android":"levelo://app?vid=a9b5ef82-4273-45d0-b93e-a999e67c47fd","ios":"levelo://app?vid=a9b5ef82-4273-45d0-b93e-a999e67c47fd"},"vehicle_type_id":"4","last_reported":1727244776,"current_range_meters":36800,"station_id":"ce4bgjp2rcd13ifvqbh0","pricing_plan_id":"cebpf4jnsgd1na2vs0mg"},{"bike_id":"9a872a7b-254e-4122-8da2-921f0b023ca0","system_id":"levelo_inurba_marseille","lat":43.27952,"lon":5.41043,"is_reserved":false,"is_disabled":false,"rental_uris":{"android":"levelo://app?vid=9a872a7b-254e-4122-8da2-921f0b023ca0","ios":"levelo://app?vid=9a872a7b-254e-4122-8da2-921f0b023ca0"},"vehicle_type_id":"4","last_reported":1727244776,"current_range_meters":6400,"station_id":"ce4bhnp2rcd13ifvqh0g","pricing_plan_id":"cebpf4jnsgd1na2vs0mg"},{"bike_id":"971728ae-b16c-439d-816f-eec38b5330df","system_id":"levelo_inurba_marseille","lat":43.24085,"lon":5.37746,"is_reserved":false,"is_disabled":false,"rental_uris":{"android":"levelo://app?vid=971728ae-b16c-439d-816f-eec38b5330df","ios":"levelo://app?vid=971728ae-b16c-439d-816f-eec38b5330df"},"vehicle_type_id":"4","last_reported":1727244776,"current_range_meters":30800,"station_id":"ce4bhnp2rcd13ifvqgvg","pricing_plan_id":"cebpf4jnsgd1na2vs0mg"},{"bike_id":"5d22d37c-c8d4-4feb-8685-bf150cafbdc6","system_id":"levelo_inurba_marseille","lat":43.2407,"lon":5.37757,"is_reserved":false,"is_disabled":false,"rental_uris":{"android":"levelo://app?vid=5d22d37c-c8d4-4feb-8685-bf150cafbdc6","ios":"levelo://app?vid=5d22d37c-c8d4-4feb-8685-bf150cafbdc6"},"vehicle_type_id":"4","last_reported":1727244776,"current_range_meters":19200,"station_id":"ce4bhnp2rcd13ifvqgvg","pricing_plan_id":"cebpf4jnsgd1na2vs0mg"},{"bike_id":"17701005-77c3-4e4f-a0b4-b2ece630517d","system_id":"levelo_inurba_marseille","lat":43.23959,"lon":5.36633,"is_reserved":false,"is_disabled":false,"rental_uris":{"android":"levelo://app?vid=17701005-77c3-4e4f-a0b4-b2ece630517d","ios":"levelo://app?vid=17701005-77c3-4e4f-a0b4-b2ece630517d"},"vehicle_type_id":"4","last_reported":1727244776,"current_range_meters":37600,"station_id":"ce4bhi12rcd13ifvqfp0","pricing_plan_id":"cebpf4jnsgd1na2vs0mg"},{"bike_id":"6dd8d7af-6927-4bbe-8d49-4d6280565151","system_id":"levelo_inurba_marseille","lat":43.284738,"lon":5.383928,"is_reserved":false,"is_disabled":false,"rental_uris":{"android":"levelo://app?vid=6dd8d7af-6927-4bbe-8d49-4d6280565151","ios":"levelo://app?vid=6dd8d7af-6927-4bbe-8d49-4d6280565151"},"vehicle_type_id":"4","last_reported":1727244776,"current_range_meters":13600,"station_id":"ce4bh512rcd13ifvqe3g","pricing_plan_id":"cebpf4jnsgd1na2vs0mg"},{"bike_id":"dcc99f48-c4b5-40f5-82c5-9afae32be888","system_id":"levelo_inurba_marseille","lat":43.2656,"lon":5.37286,"is_reserved":false,"is_disabled":false,"rental_uris":{"android":"levelo://app?vid=dcc99f48-c4b5-40f5-82c5-9afae32be888","ios":"levelo://app?vid=dcc99f48-c4b5-40f5-82c5-9afae32be888"},"vehicle_type_id":"4","last_reported":1727244776,"current_range_meters":28800,"station_id":"ce4bhg12rcd13ifvqf70","pricing_plan_id":"cebpf4jnsgd1na2vs0mg"},{"bike_id":"20b02bf8-7c07-47cd-bbba-31b992e68154","system_id":"levelo_inurba_marseille","lat":43.30153,"lon":5.38089,"is_reserved":false,"is_disabled":false,"rental_uris":{"android":"levelo://app?vid=20b02bf8-7c07-47cd-bbba-31b992e68154","ios":"levelo://app?vid=20b02bf8-7c07-47cd-bbba-31b992e68154"},"vehicle_type_id":"4","last_reported":1727244776,"current_range_meters":36800,"station_id":"ce4bgjp2rcd13ifvqbh0","pricing_plan_id":"cebpf4jnsgd1na2vs0mg"},{"bike_id":"778731f7-47c1-44a1-aa54-fde700589853","system_id":"levelo_inurba_marseille","lat":43.27493,"lon":5.4246,"is_reserved":false,"is_disabled":false,"rental_uris":{"android":"levelo://app?vid=778731f7-47c1-44a1-aa54-fde700589853","ios":"levelo://app?vid=778731f7-47c1-44a1-aa54-fde700589853"},"vehicle_type_id":"4","last_reported":1727244776,"current_range_meters":28000,"station_id":"ce4bhn92rcd13ifvqgrg","pricing_plan_id":"cebpf4jnsgd1na2vs0mg"},{"bike_id":"4c8e924f-e06b-4ee3-88e0-da18b77acf8b","system_id":"levelo_inurba_marseille","lat":43.287137,"lon":5.379359,"is_reserved":false,"is_disabled":false,"rental_uris":{"android":"levelo://app?vid=4c8e924f-e06b-4ee3-88e0-da18b77acf8b","ios":"levelo://app?vid=4c8e924f-e06b-4ee3-88e0-da18b77acf8b"},"vehicle_type_id":"4","last_reported":1727244776,"current_range_meters":18800,"station_id":"ce4bh9p2rcd13ifvqec0","pricing_plan_id":"cebpf4jnsgd1na2vs0mg"},{"bike_id":"ac40f3fd-cbf3-4316-9849-89110a03f120","system_id":"levelo_inurba_marseille","lat":43.24169,"lon":5.3639,"is_reserved":false,"is_disabled":false,"rental_uris":{"android":"levelo://app?vid=ac40f3fd-cbf3-4316-9849-89110a03f120","ios":"levelo://app?vid=ac40f3fd-cbf3-4316-9849-89110a03f120"},"vehicle_type_id":"4","last_reported":1727244776,"current_range_meters":38800,"station_id":"cpo36qri1sfpv3e86is0","pricing_plan_id":"cebpf4jnsgd1na2vs0mg"},{"bike_id":"5eeb1b77-6db7-4d01-af02-638c5044c4d5","system_id":"levelo_inurba_marseille","lat":43.30598,"lon":5.39356,"is_reserved":false,"is_disabled":false,"rental_uris":{"android":"levelo://app?vid=5eeb1b77-6db7-4d01-af02-638c5044c4d5","ios":"levelo://app?vid=5eeb1b77-6db7-4d01-af02-638c5044c4d5"},"vehicle_type_id":"4","last_reported":1727244776,"current_range_meters":28400,"station_id":"ce4bh0p2rcd13ifvqd80","pricing_plan_id":"cebpf4jnsgd1na2vs0mg"},{"bike_id":"2140605c-8365-4016-b6d7-68294be77503","system_id":"levelo_inurba_marseille","lat":43.30262,"lon":5.40077,"is_reserved":false,"is_disabled":false,"rental_uris":{"android":"levelo://app?vid=2140605c-8365-4016-b6d7-68294be77503","ios":"levelo://app?vid=2140605c-8365-4016-b6d7-68294be77503"},"vehicle_type_id":"4","last_reported":1727244776,"current_range_meters":12000,"station_id":"ce4bgvh2rcd13ifvqcs0","pricing_plan_id":"cebpf4jnsgd1na2vs0mg"},{"bike_id":"7e9e8414-11aa-4516-a0ba-b99da07411a2","system_id":"levelo_inurba_marseille","lat":43.2408,"lon":5.3776,"is_reserved":false,"is_disabled":false,"rental_uris":{"android":"levelo://app?vid=7e9e8414-11aa-4516-a0ba-b99da07411a2","ios":"levelo://app?vid=7e9e8414-11aa-4516-a0ba-b99da07411a2"},"vehicle_type_id":"4","last_reported":1727244776,"current_range_meters":17200,"station_id":"ce4bhnp2rcd13ifvqgvg","pricing_plan_id":"cebpf4jnsgd1na2vs0mg"},{"bike_id":"64bf33e5-f767-41c4-9651-996194f9f6bc","system_id":"levelo_inurba_marseille","lat":43.30556,"lon":5.36551,"is_reserved":false,"is_disabled":false,"rental_uris":{"android":"levelo://app?vid=64bf33e5-f767-41c4-9651-996194f9f6bc","ios":"levelo://app?vid=64bf33e5-f767-41c4-9651-996194f9f6bc"},"vehicle_type_id":"4","last_reported":1727244776,"current_range_meters":28400,"station_id":"ce4bgs12rcd13ifvqcag","pricing_plan_id":"cebpf4jnsgd1na2vs0mg"},{"bike_id":"ffe3f3be-fbab-432a-b383-bbac6c6aab79","system_id":"levelo_inurba_marseille","lat":43.33722,"lon":5.39198,"is_reserved":false,"is_disabled":false,"rental_uris":{"android":"levelo://app?vid=ffe3f3be-fbab-432a-b383-bbac6c6aab79","ios":"levelo://app?vid=ffe3f3be-fbab-432a-b383-bbac6c6aab79"},"vehicle_type_id":"4","last_reported":1727244776,"current_range_meters":30400,"station_id":"ce4bhr92rcd13ifvqhsg","pricing_plan_id":"cebpf4jnsgd1na2vs0mg"},{"bike_id":"d5aa1add-115d-4e1a-b824-66ecde93a367","system_id":"levelo_inurba_marseille","lat":43.240769,"lon":5.37747,"is_reserved":false,"is_disabled":false,"rental_uris":{"android":"levelo://app?vid=d5aa1add-115d-4e1a-b824-66ecde93a367","ios":"levelo://app?vid=d5aa1add-115d-4e1a-b824-66ecde93a367"},"vehicle_type_id":"4","last_reported":1727244776,"current_range_meters":8800,"station_id":"ce4bhnp2rcd13ifvqgvg","pricing_plan_id":"cebpf4jnsgd1na2vs0mg"},{"bike_id":"d166bb71-a048-47f7-a2e0-8bd7ca524ae7","system_id":"levelo_inurba_marseille","lat":43.23965,"lon":5.36627,"is_reserved":false,"is_disabled":false,"rental_uris":{"android":"levelo://app?vid=d166bb71-a048-47f7-a2e0-8bd7ca524ae7","ios":"levelo://app?vid=d166bb71-a048-47f7-a2e0-8bd7ca524ae7"},"vehicle_type_id":"4","last_reported":1727244776,"current_range_meters":32400,"station_id":"ce4bhi12rcd13ifvqfp0","pricing_plan_id":"cebpf4jnsgd1na2vs0mg"},{"bike_id":"eec3eb1f-631d-43e1-8834-dea90b68d531","system_id":"levelo_inurba_marseille","lat":43.27489,"lon":5.42463,"is_reserved":false,"is_disabled":false,"rental_uris":{"android":"levelo://app?vid=eec3eb1f-631d-43e1-8834-dea90b68d531","ios":"levelo://app?vid=eec3eb1f-631d-43e1-8834-dea90b68d531"},"vehicle_type_id":"4","last_reported":1727244776,"current_range_meters":17200,"station_id":"ce4bhn92rcd13ifvqgrg","pricing_plan_id":"cebpf4jnsgd1na2vs0mg"},{"bike_id":"4c43b43f-be17-43d2-95e0-fab0c099fe37","system_id":"levelo_inurba_marseille","lat":43.23152,"lon":5.43704,"is_reserved":false,"is_disabled":false,"rental_uris":{"android":"levelo://app?vid=4c43b43f-be17-43d2-95e0-fab0c099fe37","ios":"levelo://app?vid=4c43b43f-be17-43d2-95e0-fab0c099fe37"},"vehicle_type_id":"4","last_reported":1727244776,"current_range_meters":38000,"station_id":"ce4bhmp2rcd13ifvqgog","pricing_plan_id":"cebpf4jnsgd1na2vs0mg"},{"bike_id":"d24bbf1b-3aea-42be-a965-80ffa4745455","system_id":"levelo_inurba_marseille","lat":43.28356,"lon":5.38094,"is_reserved":false,"is_disabled":false,"rental_uris":{"android":"levelo://app?vid=d24bbf1b-3aea-42be-a965-80ffa4745455","ios":"levelo://app?vid=d24bbf1b-3aea-42be-a965-80ffa4745455"},"vehicle_type_id":"4","last_reported":1727244776,"current_range_meters":38800,"station_id":"ce4bh412rcd13ifvqdr0","pricing_plan_id":"cebpf4jnsgd1na2vs0mg"},{"bike_id":"a7bca3df-0344-4204-86d7-b742d4769839","system_id":"levelo_inurba_marseille","lat":43.30863,"lon":5.3685,"is_reserved":false,"is_disabled":false,"rental_uris":{"android":"levelo://app?vid=a7bca3df-0344-4204-86d7-b742d4769839","ios":"levelo://app?vid=a7bca3df-0344-4204-86d7-b742d4769839"},"vehicle_type_id":"4","last_reported":1727244776,"current_range_meters":28800,"station_id":"ce4bgn92rcd13ifvqbvg","pricing_plan_id":"cebpf4jnsgd1na2vs0mg"},{"bike_id":"9c4d0bfd-72b9-4566-bbcd-d52e06c55d96","system_id":"levelo_inurba_marseille","lat":43.2895,"lon":5.36402,"is_reserved":false,"is_disabled":false,"rental_uris":{"android":"levelo://app?vid=9c4d0bfd-72b9-4566-bbcd-d52e06c55d96","ios":"levelo://app?vid=9c4d0bfd-72b9-4566-bbcd-d52e06c55d96"},"vehicle_type_id":"4","last_reported":1727244776,"current_range_meters":32800,"station_id":"ce4bhc92rcd13ifvqetg","pricing_plan_id":"cebpf4jnsgd1na2vs0mg"},{"bike_id":"a5f55373-698d-437b-8ca1-cf29ecbe349b","system_id":"levelo_inurba_marseille","lat":43.27498,"lon":5.42453,"is_reserved":false,"is_disabled":false,"rental_uris":{"android":"levelo://app?vid=a5f55373-698d-437b-8ca1-cf29ecbe349b","ios":"levelo://app?vid=a5f55373-698d-437b-8ca1-cf29ecbe349b"},"vehicle_type_id":"4","last_reported":1727244776,"current_range_meters":28000,"station_id":"ce4bhn92rcd13ifvqgrg","pricing_plan_id":"cebpf4jnsgd1na2vs0mg"},{"bike_id":"7a8a0800-f777-46b2-8e82-362f8ebbd9e6","system_id":"levelo_inurba_marseille","lat":43.32289,"lon":5.38265,"is_reserved":false,"is_disabled":false,"rental_uris":{"android":"levelo://app?vid=7a8a0800-f777-46b2-8e82-362f8ebbd9e6","ios":"levelo://app?vid=7a8a0800-f777-46b2-8e82-362f8ebbd9e6"},"vehicle_type_id":"4","last_reported":1727244776,"current_range_meters":28400,"station_id":"ce4bhr12rcd13ifvqhqg","pricing_plan_id":"cebpf4jnsgd1na2vs0mg"},{"bike_id":"69e6c8cf-e3ec-4b50-8478-6cd820e94ffc","system_id":"levelo_inurba_marseille","lat":43.30305,"lon":5.39211,"is_reserved":false,"is_disabled":false,"rental_uris":{"android":"levelo://app?vid=69e6c8cf-e3ec-4b50-8478-6cd820e94ffc","ios":"levelo://app?vid=69e6c8cf-e3ec-4b50-8478-6cd820e94ffc"},"vehicle_type_id":"4","last_reported":1727244776,"current_range_meters":34800,"station_id":"ce4bgkh2rcd13ifvqbk0","pricing_plan_id":"cebpf4jnsgd1na2vs0mg"},{"bike_id":"c0f2881c-7015-4b6c-b201-cdd2ac79ad08","system_id":"levelo_inurba_marseille","lat":43.28362,"lon":5.38643,"is_reserved":false,"is_disabled":false,"rental_uris":{"android":"levelo://app?vid=c0f2881c-7015-4b6c-b201-cdd2ac79ad08","ios":"levelo://app?vid=c0f2881c-7015-4b6c-b201-cdd2ac79ad08"},"vehicle_type_id":"4","last_reported":1727244776,"current_range_meters":19200,"station_id":"ce4bh492rcd13ifvqdvg","pricing_plan_id":"cebpf4jnsgd1na2vs0mg"},{"bike_id":"7827170f-fe53-4f76-acc5-1f9d10e67145","system_id":"levelo_inurba_marseille","lat":43.22932,"lon":5.35375,"is_reserved":false,"is_disabled":false,"rental_uris":{"android":"levelo://app?vid=7827170f-fe53-4f76-acc5-1f9d10e67145","ios":"levelo://app?vid=7827170f-fe53-4f76-acc5-1f9d10e67145"},"vehicle_type_id":"4","last_reported":1727244776,"current_range_meters":38800,"station_id":"cpo3532slgdg3j2ikp40","pricing_plan_id":"cebpf4jnsgd1na2vs0mg"},{"bike_id":"d831a0c8-0bcd-4449-91a5-836df1a52d4b","system_id":"levelo_inurba_marseille","lat":43.30715,"lon":5.37273,"is_reserved":false,"is_disabled":false,"rental_uris":{"android":"levelo://app?vid=d831a0c8-0bcd-4449-91a5-836df1a52d4b","ios":"levelo://app?vid=d831a0c8-0bcd-4449-91a5-836df1a52d4b"},"vehicle_type_id":"4","last_reported":1727244776,"current_range_meters":11600,"station_id":"","pricing_plan_id":"cebpf4jnsgd1na2vs0mg"},{"bike_id":"37ea3e6e-16e9-42b3-b4f9-836c84a7a894","system_id":"levelo_inurba_marseille","lat":43.23187,"lon":5.39988,"is_reserved":false,"is_disabled":false,"rental_uris":{"android":"levelo://app?vid=37ea3e6e-16e9-42b3-b4f9-836c84a7a894","ios":"levelo://app?vid=37ea3e6e-16e9-42b3-b4f9-836c84a7a894"},"vehicle_type_id":"4","last_reported":1727244776,"current_range_meters":28000,"station_id":"ce4bhn12rcd13ifvqgqg","pricing_plan_id":"cebpf4jnsgd1na2vs0mg"},{"bike_id":"337d797f-5bad-4e42-a3a9-741eceae0aa0","system_id":"levelo_inurba_marseille","lat":43.33724,"lon":5.39175,"is_reserved":false,"is_disabled":false,"rental_uris":{"android":"levelo://app?vid=337d797f-5bad-4e42-a3a9-741eceae0aa0","ios":"levelo://app?vid=337d797f-5bad-4e42-a3a9-741eceae0aa0"},"vehicle_type_id":"4","last_reported":1727244776,"current_range_meters":32400,"station_id":"ce4bhr92rcd13ifvqhsg","pricing_plan_id":"cebpf4jnsgd1na2vs0mg"},{"bike_id":"d7a083f9-6bb3-486c-a70f-b6de63f46c9c","system_id":"levelo_inurba_marseille","lat":43.30462,"lon":5.37897,"is_reserved":false,"is_disabled":false,"rental_uris":{"android":"levelo://app?vid=d7a083f9-6bb3-486c-a70f-b6de63f46c9c","ios":"levelo://app?vid=d7a083f9-6bb3-486c-a70f-b6de63f46c9c"},"vehicle_type_id":"4","last_reported":1727244776,"current_range_meters":36400,"station_id":"ce4bgup2rcd13ifvqcn0","pricing_plan_id":"cebpf4jnsgd1na2vs0mg"},{"bike_id":"c429e26a-1acd-4e91-9809-a448ccb99898","system_id":"levelo_inurba_marseille","lat":43.28124,"lon":5.40594,"is_reserved":false,"is_disabled":false,"rental_uris":{"android":"levelo://app?vid=c429e26a-1acd-4e91-9809-a448ccb99898","ios":"levelo://app?vid=c429e26a-1acd-4e91-9809-a448ccb99898"},"vehicle_type_id":"4","last_reported":1727244776,"current_range_meters":36800,"station_id":"","pricing_plan_id":"cebpf4jnsgd1na2vs0mg"},{"bike_id":"7d13bfe6-cac1-417a-a866-11f3f6431dbc","system_id":"levelo_inurba_marseille","lat":43.28607,"lon":5.37062,"is_reserved":false,"is_disabled":false,"rental_uris":{"android":"levelo://app?vid=7d13bfe6-cac1-417a-a866-11f3f6431dbc","ios":"levelo://app?vid=7d13bfe6-cac1-417a-a866-11f3f6431dbc"},"vehicle_type_id":"4","last_reported":1727244776,"current_range_meters":27600,"station_id":"ce4bht12rcd13ifvqi60","pricing_plan_id":"cebpf4jnsgd1na2vs0mg"},{"bike_id":"4a4bfd88-bdfc-4802-b3a8-e798e4274727","system_id":"levelo_inurba_marseille","lat":43.32289,"lon":5.38271,"is_reserved":false,"is_disabled":false,"rental_uris":{"android":"levelo://app?vid=4a4bfd88-bdfc-4802-b3a8-e798e4274727","ios":"levelo://app?vid=4a4bfd88-bdfc-4802-b3a8-e798e4274727"},"vehicle_type_id":"4","last_reported":1727244776,"current_range_meters":29600,"station_id":"ce4bhr12rcd13ifvqhqg","pricing_plan_id":"cebpf4jnsgd1na2vs0mg"},{"bike_id":"86898526-a4d9-47cf-b306-df317b0d9e78","system_id":"levelo_inurba_marseille","lat":43.23193,"lon":5.35554,"is_reserved":false,"is_disabled":false,"rental_uris":{"android":"levelo://app?vid=86898526-a4d9-47cf-b306-df317b0d9e78","ios":"levelo://app?vid=86898526-a4d9-47cf-b306-df317b0d9e78"},"vehicle_type_id":"4","last_reported":1727244776,"current_range_meters":19600,"station_id":"ce4bhu92rcd13ifvqi70","pricing_plan_id":"cebpf4jnsgd1na2vs0mg"},{"bike_id":"6d96f985-9c01-48a6-84cc-38d4437fa126","system_id":"levelo_inurba_marseille","lat":43.23155,"lon":5.43706,"is_reserved":false,"is_disabled":false,"rental_uris":{"android":"levelo://app?vid=6d96f985-9c01-48a6-84cc-38d4437fa126","ios":"levelo://app?vid=6d96f985-9c01-48a6-84cc-38d4437fa126"},"vehicle_type_id":"4","last_reported":1727244776,"current_range_meters":14000,"station_id":"ce4bhmp2rcd13ifvqgog","pricing_plan_id":"cebpf4jnsgd1na2vs0mg"},{"bike_id":"c020ab09-4167-4f94-a195-d295cfd14ec8","system_id":"levelo_inurba_marseille","lat":43.29599,"lon":5.38095,"is_reserved":false,"is_disabled":false,"rental_uris":{"android":"levelo://app?vid=c020ab09-4167-4f94-a195-d295cfd14ec8","ios":"levelo://app?vid=c020ab09-4167-4f94-a195-d295cfd14ec8"},"vehicle_type_id":"4","last_reported":1727244776,"current_range_meters":35200,"station_id":"ce4bgl12rcd13ifvqbo0","pricing_plan_id":"cebpf4jnsgd1na2vs0mg"},{"bike_id":"e36c64de-51cf-4143-91b0-35f2c0c6ae29","system_id":"levelo_inurba_marseille","lat":43.341442,"lon":5.409282,"is_reserved":false,"is_disabled":false,"rental_uris":{"android":"levelo://app?vid=e36c64de-51cf-4143-91b0-35f2c0c6ae29","ios":"levelo://app?vid=e36c64de-51cf-4143-91b0-35f2c0c6ae29"},"vehicle_type_id":"4","last_reported":1727244776,"current_range_meters":31200,"station_id":"ce4bhqh2rcd13ifvqhlg","pricing_plan_id":"cebpf4jnsgd1na2vs0mg"},{"bike_id":"83ba5108-5b0a-4d30-bc54-2eaa9d223d59","system_id":"levelo_inurba_marseille","lat":43.30463,"lon":5.37902,"is_reserved":false,"is_disabled":false,"rental_uris":{"android":"levelo://app?vid=83ba5108-5b0a-4d30-bc54-2eaa9d223d59","ios":"levelo://app?vid=83ba5108-5b0a-4d30-bc54-2eaa9d223d59"},"vehicle_type_id":"4","last_reported":1727244776,"current_range_meters":27600,"station_id":"ce4bgup2rcd13ifvqcn0","pricing_plan_id":"cebpf4jnsgd1na2vs0mg"},{"bike_id":"95b59248-193a-47df-9847-7d547353f860","system_id":"levelo_inurba_marseille","lat":43.3047,"lon":5.37915,"is_reserved":false,"is_disabled":false,"rental_uris":{"android":"levelo://app?vid=95b59248-193a-47df-9847-7d547353f860","ios":"levelo://app?vid=95b59248-193a-47df-9847-7d547353f860"},"vehicle_type_id":"4","last_reported":1727244776,"current_range_meters":34000,"station_id":"ce4bgup2rcd13ifvqcn0","pricing_plan_id":"cebpf4jnsgd1na2vs0mg"},{"bike_id":"a75a7a82-b383-49ec-a2cc-d6ad20e46f8d","system_id":"levelo_inurba_marseille","lat":43.30804,"lon":5.43521,"is_reserved":false,"is_disabled":false,"rental_uris":{"android":"levelo://app?vid=a75a7a82-b383-49ec-a2cc-d6ad20e46f8d","ios":"levelo://app?vid=a75a7a82-b383-49ec-a2cc-d6ad20e46f8d"},"vehicle_type_id":"4","last_reported":1727244776,"current_range_meters":37600,"station_id":"ce4bhph2rcd13ifvqheg","pricing_plan_id":"cebpf4jnsgd1na2vs0mg"},{"bike_id":"9ac9d415-314c-47c9-83c9-409ec35ee620","system_id":"levelo_inurba_marseille","lat":43.24077,"lon":5.3776,"is_reserved":false,"is_disabled":false,"rental_uris":{"android":"levelo://app?vid=9ac9d415-314c-47c9-83c9-409ec35ee620","ios":"levelo://app?vid=9ac9d415-314c-47c9-83c9-409ec35ee620"},"vehicle_type_id":"4","last_reported":1727244776,"current_range_meters":38800,"station_id":"ce4bhnp2rcd13ifvqgvg","pricing_plan_id":"cebpf4jnsgd1na2vs0mg"},{"bike_id":"b2a29836-0afd-4175-99c6-0f23040dedad","system_id":"levelo_inurba_marseille","lat":43.29252,"lon":5.40909,"is_reserved":false,"is_disabled":false,"rental_uris":{"android":"levelo://app?vid=b2a29836-0afd-4175-99c6-0f23040dedad","ios":"levelo://app?vid=b2a29836-0afd-4175-99c6-0f23040dedad"},"vehicle_type_id":"4","last_reported":1727244776,"current_range_meters":39200,"station_id":"ce4bh192rcd13ifvqdc0","pricing_plan_id":"cebpf4jnsgd1na2vs0mg"},{"bike_id":"d9e526aa-7af6-44d6-9fe4-de89008e8879","system_id":"levelo_inurba_marseille","lat":43.28933,"lon":5.36397,"is_reserved":false,"is_disabled":false,"rental_uris":{"android":"levelo://app?vid=d9e526aa-7af6-44d6-9fe4-de89008e8879","ios":"levelo://app?vid=d9e526aa-7af6-44d6-9fe4-de89008e8879"},"vehicle_type_id":"4","last_reported":1727244776,"current_range_meters":36000,"station_id":"ce4bhc92rcd13ifvqetg","pricing_plan_id":"cebpf4jnsgd1na2vs0mg"},{"bike_id":"a394bfd9-55d4-49c8-8ed5-832a698681d5","system_id":"levelo_inurba_marseille","lat":43.32484,"lon":5.36564,"is_reserved":false,"is_disabled":false,"rental_uris":{"android":"levelo://app?vid=a394bfd9-55d4-49c8-8ed5-832a698681d5","ios":"levelo://app?vid=a394bfd9-55d4-49c8-8ed5-832a698681d5"},"vehicle_type_id":"4","last_reported":1727244776,"current_range_meters":22400,"station_id":"ce4bhs12rcd13ifvqhvg","pricing_plan_id":"cebpf4jnsgd1na2vs0mg"},{"bike_id":"5e787303-50e2-4b6f-ac85-c0e6d3015235","system_id":"levelo_inurba_marseille","lat":43.29899,"lon":5.4366,"is_reserved":false,"is_disabled":false,"rental_uris":{"android":"levelo://app?vid=5e787303-50e2-4b6f-ac85-c0e6d3015235","ios":"levelo://app?vid=5e787303-50e2-4b6f-ac85-c0e6d3015235"},"vehicle_type_id":"4","last_reported":1727244776,"current_range_meters":38400,"station_id":"ce4bhpp2rcd13ifvqhfg","pricing_plan_id":"cebpf4jnsgd1na2vs0mg"},{"bike_id":"3a5182df-8aae-47ec-b5d4-1edd42fa0e80","system_id":"levelo_inurba_marseille","lat":43.31532,"lon":5.38029,"is_reserved":false,"is_disabled":false,"rental_uris":{"android":"levelo://app?vid=3a5182df-8aae-47ec-b5d4-1edd42fa0e80","ios":"levelo://app?vid=3a5182df-8aae-47ec-b5d4-1edd42fa0e80"},"vehicle_type_id":"4","last_reported":1727244776,"current_range_meters":19600,"station_id":"ce4bhsp2rcd13ifvqi50","pricing_plan_id":"cebpf4jnsgd1na2vs0mg"},{"bike_id":"ede37da0-431f-462e-af97-45c71435ab2a","system_id":"levelo_inurba_marseille","lat":43.24182,"lon":5.39718,"is_reserved":false,"is_disabled":false,"rental_uris":{"android":"levelo://app?vid=ede37da0-431f-462e-af97-45c71435ab2a","ios":"levelo://app?vid=ede37da0-431f-462e-af97-45c71435ab2a"},"vehicle_type_id":"4","last_reported":1727244776,"current_range_meters":22400,"station_id":"ce4bhn12rcd13ifvqgpg","pricing_plan_id":"cebpf4jnsgd1na2vs0mg"},{"bike_id":"5f382580-7123-4ed7-9363-794ed4ff431e","system_id":"levelo_inurba_marseille","lat":43.30474,"lon":5.37906,"is_reserved":false,"is_disabled":false,"rental_uris":{"android":"levelo://app?vid=5f382580-7123-4ed7-9363-794ed4ff431e","ios":"levelo://app?vid=5f382580-7123-4ed7-9363-794ed4ff431e"},"vehicle_type_id":"4","last_reported":1727244776,"current_range_meters":39200,"station_id":"ce4bgup2rcd13ifvqcn0","pricing_plan_id":"cebpf4jnsgd1na2vs0mg"},{"bike_id":"7e4ac136-a5e1-4bb6-95e3-1ac7c58dfb31","system_id":"levelo_inurba_marseille","lat":43.30947,"lon":5.39031,"is_reserved":false,"is_disabled":false,"rental_uris":{"android":"levelo://app?vid=7e4ac136-a5e1-4bb6-95e3-1ac7c58dfb31","ios":"levelo://app?vid=7e4ac136-a5e1-4bb6-95e3-1ac7c58dfb31"},"vehicle_type_id":"4","last_reported":1727244776,"current_range_meters":34000,"station_id":"ce4bgup2rcd13ifvqco0","pricing_plan_id":"cebpf4jnsgd1na2vs0mg"},{"bike_id":"540f6ef4-f26e-467c-92ad-359400cfca8c","system_id":"levelo_inurba_marseille","lat":43.28945,"lon":5.36388,"is_reserved":false,"is_disabled":false,"rental_uris":{"android":"levelo://app?vid=540f6ef4-f26e-467c-92ad-359400cfca8c","ios":"levelo://app?vid=540f6ef4-f26e-467c-92ad-359400cfca8c"},"vehicle_type_id":"4","last_reported":1727244776,"current_range_meters":38800,"station_id":"ce4bhc92rcd13ifvqetg","pricing_plan_id":"cebpf4jnsgd1na2vs0mg"},{"bike_id":"5a424b04-e0fc-4717-afab-aacb064c7c38","system_id":"levelo_inurba_marseille","lat":43.3015,"lon":5.38079,"is_reserved":false,"is_disabled":false,"rental_uris":{"android":"levelo://app?vid=5a424b04-e0fc-4717-afab-aacb064c7c38","ios":"levelo://app?vid=5a424b04-e0fc-4717-afab-aacb064c7c38"},"vehicle_type_id":"4","last_reported":1727244776,"current_range_meters":38400,"station_id":"ce4bgjp2rcd13ifvqbh0","pricing_plan_id":"cebpf4jnsgd1na2vs0mg"},{"bike_id":"6049d5da-a526-4887-9590-f77840318729","system_id":"levelo_inurba_marseille","lat":43.30257,"lon":5.40077,"is_reserved":false,"is_disabled":false,"rental_uris":{"android":"levelo://app?vid=6049d5da-a526-4887-9590-f77840318729","ios":"levelo://app?vid=6049d5da-a526-4887-9590-f77840318729"},"vehicle_type_id":"4","last_reported":1727244776,"current_range_meters":16000,"station_id":"ce4bgvh2rcd13ifvqcs0","pricing_plan_id":"cebpf4jnsgd1na2vs0mg"},{"bike_id":"379d7c0f-33b4-46e8-ac9f-4bd7f5099884","system_id":"levelo_inurba_marseille","lat":43.29229,"lon":5.3607,"is_reserved":false,"is_disabled":false,"rental_uris":{"android":"levelo://app?vid=379d7c0f-33b4-46e8-ac9f-4bd7f5099884","ios":"levelo://app?vid=379d7c0f-33b4-46e8-ac9f-4bd7f5099884"},"vehicle_type_id":"4","last_reported":1727244776,"current_range_meters":38400,"station_id":"ce4bhbh2rcd13ifvqeqg","pricing_plan_id":"cebpf4jnsgd1na2vs0mg"},{"bike_id":"b3b57631-df13-4fe0-9e68-9cc0ee21a1ab","system_id":"levelo_inurba_marseille","lat":43.2799,"lon":5.40018,"is_reserved":false,"is_disabled":false,"rental_uris":{"android":"levelo://app?vid=b3b57631-df13-4fe0-9e68-9cc0ee21a1ab","ios":"levelo://app?vid=b3b57631-df13-4fe0-9e68-9cc0ee21a1ab"},"vehicle_type_id":"4","last_reported":1727244776,"current_range_meters":38800,"station_id":"ce4bho92rcd13ifvqh4g","pricing_plan_id":"cebpf4jnsgd1na2vs0mg"},{"bike_id":"83fa2667-cc10-47b8-a52e-4017cdf555ac","system_id":"levelo_inurba_marseille","lat":43.29039,"lon":5.39951,"is_reserved":false,"is_disabled":false,"rental_uris":{"android":"levelo://app?vid=83fa2667-cc10-47b8-a52e-4017cdf555ac","ios":"levelo://app?vid=83fa2667-cc10-47b8-a52e-4017cdf555ac"},"vehicle_type_id":"4","last_reported":1727244776,"current_range_meters":34000,"station_id":"ce4bh392rcd13ifvqdm0","pricing_plan_id":"cebpf4jnsgd1na2vs0mg"},