{"last_updated":1724353640,"ttl":30,"version":"2.2","data":{"bikes":[{"bike_id":"a975c558-49f8-492a-9cb3-980371e8bf55","system_id":"levelo_inurba_marseille","lat":43.30911,"lon":5.36837,"is_reserved":false,"is_disabled":false,"rental_uris":{"android":"levelo://app?vid=a975c558-49f8-492a-9cb3-980371e8bf55","ios":"levelo://app?vid=a975c558-49f8-492a-9cb3-980371e8bf55"},"vehicle_type_id":"4","last_reported":1724353641,"current_range_meters":0,"station_id":"ce4bgn92rcd13ifvqbvg","pricing_plan_id":"cebpf4jnsgd1na2vs0mg"},{"bike_id":"c7814940-4839-4da6-9ba9-6ff1779f9347","system_id":"levelo_inurba_marseille","lat":43.309076,"lon":5.368465,"is_reserved":false,"is_disabled":false,"rental_uris":{"android":"levelo://app?vid=c7814940-4839-4da6-9ba9-6ff1779f9347","ios":"levelo://app?vid=c7814940-4839-4da6-9ba9-6ff1779f9347"},"vehicle_type_id":"4","last_reported":1724353641,"current_range_meters":30400,"station_id":"ce4bgn92rcd13ifvqbvg","pricing_plan_id":"cebpf4jnsgd1na2vs0mg"},{"bike_id":"b74e3ae9-f681-4ca6-bdc9-f48e256fbe63","system_id":"levelo_inurba_marseille","lat":43.314811,"lon":5.373103,"is_reserved":false,"is_disabled":false,"rental_uris":{"android":"levelo://app?vid=b74e3ae9-f681-4ca6-bdc9-f48e256fbe63","ios":"levelo://app?vid=b74e3ae9-f681-4ca6-bdc9-f48e256fbe63"},"vehicle_type_id":"4","last_reported":1724353641,"current_range_meters":28400,"station_id":"ce4bgt12rcd13ifvqcd0","pricing_plan_id":"cebpf4jnsgd1na2vs0mg"},{"bike_id":"c178abe3-0d9c-4038-be7f-0d4bd1e4210a","system_id":"levelo_inurba_marseille","lat":43.314811,"lon":5.373103,"is_reserved":false,"is_disabled":false,"rental_uris":{"android":"levelo://app?vid=c178abe3-0d9c-4038-be7f-0d4bd1e4210a","ios":"levelo://app?vid=c178abe3-0d9c-4038-be7f-0d4bd1e4210a"},"vehicle_type_id":"4","last_reported":1724353641,"current_range_meters":24000,"station_id":"ce4bgt12rcd13ifvqcd0","pricing_plan_id":"cebpf4jnsgd1na2vs0mg"},{"bike_id":"b463510f-5faa-46fd-abec-8f3597b208da","system_id":"levelo_inurba_marseille","lat":43.3149,"lon":5.37306,"is_reserved":false,"is_disabled":false,"rental_uris":{"android":"levelo://app?vid=b463510f-5faa-46fd-abec-8f3597b208da","ios":"levelo://app?vid=b463510f-5faa-46fd-abec-8f3597b208da"},"vehicle_type_id":"4","last_reported":1724353641,"current_range_meters":0,"station_id":"ce4bgt12rcd13ifvqcd0","pricing_plan_id":"cebpf4jnsgd1na2vs0mg"},{"bike_id":"fcd2c9ef-f7eb-48d4-8d9a-4321d6e6d1ac","system_id":"levelo_inurba_marseille","lat":43.30801,"lon":5.36903,"is_reserved":false,"is_disabled":false,"rental_uris":{"android":"levelo://app?vid=fcd2c9ef-f7eb-48d4-8d9a-4321d6e6d1ac","ios":"levelo://app?vid=fcd2c9ef-f7eb-48d4-8d9a-4321d6e6d1ac"},"vehicle_type_id":"4","last_reported":1724353641,"current_range_meters":4400,"station_id":"","pricing_plan_id":"cebpf4jnsgd1na2vs0mg"},{"bike_id":"8b1af5c3-0dbf-441d-b7a4-5429ed85cadc","system_id":"levelo_inurba_marseille","lat":43.314811,"lon":5.373103,"is_reserved":false,"is_disabled":false,"rental_uris":{"android":"levelo://app?vid=8b1af5c3-0dbf-441d-b7a4-5429ed85cadc","ios":"levelo://app?vid=8b1af5c3-0dbf-441d-b7a4-5429ed85cadc"},"vehicle_type_id":"4","last_reported":1724353641,"current_range_meters":1600,"station_id":"ce4bgt12rcd13ifvqcd0","pricing_plan_id":"cebpf4jnsgd1na2vs0mg"},{"bike_id":"e839c85d-6645-4056-b60a-ebf6e4b4ae3c","system_id":"levelo_inurba_marseille","lat":43.309039,"lon":5.371797,"is_reserved":false,"is_disabled":false,"rental_uris":{"android":"levelo://app?vid=e839c85d-6645-4056-b60a-ebf6e4b4ae3c","ios":"levelo://app?vid=e839c85d-6645-4056-b60a-ebf6e4b4ae3c"},"vehicle_type_id":"4","last_reported":1724353641,"current_range_meters":14400,"station_id":"ce4bguh2rcd13ifvqckg","pricing_plan_id":"cebpf4jnsgd1na2vs0mg"},{"bike_id":"907b1499-90cc-49d1-86cb-1dcefb194d0d","system_id":"levelo_inurba_marseille","lat":43.309,"lon":5.37226,"is_reserved":false,"is_disabled":false,"rental_uris":{"android":"levelo://app?vid=907b1499-90cc-49d1-86cb-1dcefb194d0d","ios":"levelo://app?vid=907b1499-90cc-49d1-86cb-1dcefb194d0d"},"vehicle_type_id":"4","last_reported":1724353641,"current_range_meters":30800,"station_id":"ce4bguh2rcd13ifvqckg","pricing_plan_id":"cebpf4jnsgd1na2vs0mg"},{"bike_id":"9d1473af-ad99-419e-bc4f-d9921f36d020","system_id":"levelo_inurba_marseille","lat":43.305714,"lon":5.365633,"is_reserved":false,"is_disabled":false,"rental_uris":{"android":"levelo://app?vid=9d1473af-ad99-419e-bc4f-d9921f36d020","ios":"levelo://app?vid=9d1473af-ad99-419e-bc4f-d9921f36d020"},"vehicle_type_id":"4","last_reported":1724353641,"current_range_meters":29600,"station_id":"ce4bgs12rcd13ifvqcag","pricing_plan_id":"cebpf4jnsgd1na2vs0mg"},{"bike_id":"2f3d41b7-cf13-4919-a008-90ebf49e7afe","system_id":"levelo_inurba_marseille","lat":43.305368,"lon":5.367343,"is_reserved":false,"is_disabled":false,"rental_uris":{"android":"levelo://app?vid=2f3d41b7-cf13-4919-a008-90ebf49e7afe","ios":"levelo://app?vid=2f3d41b7-cf13-4919-a008-90ebf49e7afe"},"vehicle_type_id":"4","last_reported":1724353641,"current_range_meters":23600,"station_id":"ce4bgrp2rcd13ifvqc9g","pricing_plan_id":"cebpf4jnsgd1na2vs0mg"},{"bike_id":"66b28195-b4c4-4ac6-ad70-91a6f17708ba","system_id":"levelo_inurba_marseille","lat":43.305368,"lon":5.367343,"is_reserved":false,"is_disabled":false,"rental_uris":{"android":"levelo://app?vid=66b28195-b4c4-4ac6-ad70-91a6f17708ba","ios":"levelo://app?vid=66b28195-b4c4-4ac6-ad70-91a6f17708ba"},"vehicle_type_id":"4","last_reported":1724353641,"current_range_meters":4800,"station_id":"ce4bgrp2rcd13ifvqc9g","pricing_plan_id":"cebpf4jnsgd1na2vs0mg"},{"bike_id":"f69abde2-b915-4896-b233-81f6de40525f","system_id":"levelo_inurba_marseille","lat":43.305989,"lon":5.37225,"is_reserved":false,"is_disabled":false,"rental_uris":{"android":"levelo://app?vid=f69abde2-b915-4896-b233-81f6de40525f","ios":"levelo://app?vid=f69abde2-b915-4896-b233-81f6de40525f"},"vehicle_type_id":"4","last_reported":1724353641,"current_range_meters":18000,"station_id":"ce4bgqh2rcd13ifvqc4g","pricing_plan_id":"cebpf4jnsgd1na2vs0mg"},{"bike_id":"937054d8-2263-470e-8608-cc42c9e05315","system_id":"levelo_inurba_marseille","lat":43.305989,"lon":5.37225,"is_reserved":false,"is_disabled":false,"rental_uris":{"android":"levelo://app?vid=937054d8-2263-470e-8608-cc42c9e05315","ios":"levelo://app?vid=937054d8-2263-470e-8608-cc42c9e05315"},"vehicle_type_id":"4","last_reported":1724353641,"current_range_meters":27600,"station_id":"ce4bgqh2rcd13ifvqc4g","pricing_plan_id":"cebpf4jnsgd1na2vs0mg"},{"bike_id":"40422a80-aa13-4f53-892a-6a8bce224876","system_id":"levelo_inurba_marseille","lat":43.29573,"lon":5.367355,"is_reserved":false,"is_disabled":false,"rental_uris":{"android":"levelo://app?vid=40422a80-aa13-4f53-892a-6a8bce224876","ios":"levelo://app?vid=40422a80-aa13-4f53-892a-6a8bce224876"},"vehicle_type_id":"4","last_reported":1724353641,"current_range_meters":20400,"station_id":"ce4bgph2rcd13ifvqc2g","pricing_plan_id":"cebpf4jnsgd1na2vs0mg"},{"bike_id":"c105e743-4f74-494a-83ce-4d2630b8d9aa","system_id":"levelo_inurba_marseille","lat":43.311131,"lon":5.377651,"is_reserved":false,"is_disabled":false,"rental_uris":{"android":"levelo://app?vid=c105e743-4f74-494a-83ce-4d2630b8d9aa","ios":"levelo://app?vid=c105e743-4f74-494a-83ce-4d2630b8d9aa"},"vehicle_type_id":"4","last_reported":1724353641,"current_range_meters":400,"station_id":"ce4bgt92rcd13ifvqcg0","pricing_plan_id":"cebpf4jnsgd1na2vs0mg"},{"bike_id":"5059b638-f14b-4d2b-8804-65e1f4fe142c","system_id":"levelo_inurba_marseille","lat":43.311131,"lon":5.377651,"is_reserved":false,"is_disabled":false,"rental_uris":{"android":"levelo://app?vid=5059b638-f14b-4d2b-8804-65e1f4fe142c","ios":"levelo://app?vid=5059b638-f14b-4d2b-8804-65e1f4fe142c"},"vehicle_type_id":"4","last_reported":1724353641,"current_range_meters":15600,"station_id":"ce4bgt92rcd13ifvqcg0","pricing_plan_id":"cebpf4jnsgd1na2vs0mg"},{"bike_id":"57e3c0b3-1345-43ec-b9d2-f3e276157c24","system_id":"levelo_inurba_marseille","lat":43.31119,"lon":5.37767,"is_reserved":false,"is_disabled":false,"rental_uris":{"android":"levelo://app?vid=57e3c0b3-1345-43ec-b9d2-f3e276157c24","ios":"levelo://app?vid=57e3c0b3-1345-43ec-b9d2-f3e276157c24"},"vehicle_type_id":"4","last_reported":1724353641,"current_range_meters":0,"station_id":"ce4bgt92rcd13ifvqcg0","pricing_plan_id":"cebpf4jnsgd1na2vs0mg"},{"bike_id":"07a958b0-4216-4c1f-a963-b8acab8d9b8f","system_id":"levelo_inurba_marseille","lat":43.311131,"lon":5.377651,"is_reserved":false,"is_disabled":false,"rental_uris":{"android":"levelo://app?vid=07a958b0-4216-4c1f-a963-b8acab8d9b8f","ios":"levelo://app?vid=07a958b0-4216-4c1f-a963-b8acab8d9b8f"},"vehicle_type_id":"4","last_reported":1724353641,"current_range_meters":0,"station_id":"ce4bgt92rcd13ifvqcg0","pricing_plan_id":"cebpf4jnsgd1na2vs0mg"},{"bike_id":"756693be-2fce-46d4-8ec6-477ad762f233","system_id":"levelo_inurba_marseille","lat":43.311125,"lon":5.377624,"is_reserved":false,"is_disabled":false,"rental_uris":{"android":"levelo://app?vid=756693be-2fce-46d4-8ec6-477ad762f233","ios":"levelo://app?vid=756693be-2fce-46d4-8ec6-477ad762f233"},"vehicle_type_id":"4","last_reported":1724353641,"current_range_meters":0,"station_id":"ce4bgt92rcd13ifvqcg0","pricing_plan_id":"cebpf4jnsgd1na2vs0mg"},{"bike_id":"2413c125-0af3-443c-9a70-71e42209fc2c","system_id":"levelo_inurba_marseille","lat":43.31121,"lon":5.37775,"is_reserved":false,"is_disabled":false,"rental_uris":{"android":"levelo://app?vid=2413c125-0af3-443c-9a70-71e42209fc2c","ios":"levelo://app?vid=2413c125-0af3-443c-9a70-71e42209fc2c"},"vehicle_type_id":"4","last_reported":1724353641,"current_range_meters":11600,"station_id":"ce4bgt92rcd13ifvqcg0","pricing_plan_id":"cebpf4jnsgd1na2vs0mg"},{"bike_id":"3cc52a86-213f-4b6c-890a-fee7f9eed38f","system_id":"levelo_inurba_marseille","lat":43.307945,"lon":5.376487,"is_reserved":false,"is_disabled":false,"rental_uris":{"android":"levelo://app?vid=3cc52a86-213f-4b6c-890a-fee7f9eed38f","ios":"levelo://app?vid=3cc52a86-213f-4b6c-890a-fee7f9eed38f"},"vehicle_type_id":"4","last_reported":1724353641,"current_range_meters":28800,"station_id":"ce4bgv92rcd13ifvqcq0","pricing_plan_id":"cebpf4jnsgd1na2vs0mg"},{"bike_id":"57be9a2b-49cb-4cc6-966c-880f255f8a19","system_id":"levelo_inurba_marseille","lat":43.307945,"lon":5.376487,"is_reserved":false,"is_disabled":false,"rental_uris":{"android":"levelo://app?vid=57be9a2b-49cb-4cc6-966c-880f255f8a19","ios":"levelo://app?vid=57be9a2b-49cb-4cc6-966c-880f255f8a19"},"vehicle_type_id":"4","last_reported":1724353641,"current_range_meters":0,"station_id":"ce4bgv92rcd13ifvqcq0","pricing_plan_id":"cebpf4jnsgd1na2vs0mg"},{"bike_id":"03621c3a-c384-4b13-b5cd-681dcdfaa4f0","system_id":"levelo_inurba_marseille","lat":43.30785,"lon":5.3765,"is_reserved":false,"is_disabled":false,"rental_uris":{"android":"levelo://app?vid=03621c3a-c384-4b13-b5cd-681dcdfaa4f0","ios":"levelo://app?vid=03621c3a-c384-4b13-b5cd-681dcdfaa4f0"},"vehicle_type_id":"4","last_reported":1724353641,"current_range_meters":31200,"station_id":"ce4bgv92rcd13ifvqcq0","pricing_plan_id":"cebpf4jnsgd1na2vs0mg"},{"bike_id":"7e086620-22fe-4cf2-b13b-485d3c728f7b","system_id":"levelo_inurba_marseille","lat":43.307945,"lon":5.376487,"is_reserved":false,"is_disabled":false,"rental_uris":{"android":"levelo://app?vid=7e086620-22fe-4cf2-b13b-485d3c728f7b","ios":"levelo://app?vid=7e086620-22fe-4cf2-b13b-485d3c728f7b"},"vehicle_type_id":"4","last_reported":1724353641,"current_range_meters":12000,"station_id":"ce4bgv92rcd13ifvqcq0","pricing_plan_id":"cebpf4jnsgd1na2vs0mg"},{"bike_id":"182671a8-dc66-42ff-88da-dd46b019a40a","system_id":"levelo_inurba_marseille","lat":43.307945,"lon":5.376487,"is_reserved":false,"is_disabled":false,"rental_uris":{"android":"levelo://app?vid=182671a8-dc66-42ff-88da-dd46b019a40a","ios":"levelo://app?vid=182671a8-dc66-42ff-88da-dd46b019a40a"},"vehicle_type_id":"4","last_reported":1724353641,"current_range_meters":16800,"station_id":"ce4bgv92rcd13ifvqcq0","pricing_plan_id":"cebpf4jnsgd1na2vs0mg"},{"bike_id":"edd3512e-49a8-48ab-95f4-5ba433ef3ca5","system_id":"levelo_inurba_marseille","lat":43.317075,"lon":5.377367,"is_reserved":false,"is_disabled":false,"rental_uris":{"android":"levelo://app?vid=edd3512e-49a8-48ab-95f4-5ba433ef3ca5","ios":"levelo://app?vid=edd3512e-49a8-48ab-95f4-5ba433ef3ca5"},"vehicle_type_id":"4","last_reported":1724353641,"current_range_meters":22400,"station_id":"ce4bgth2rcd13ifvqch0","pricing_plan_id":"cebpf4jnsgd1na2vs0mg"},{"bike_id":"814eecca-75e4-4c8b-bdd3-a87f7e366867","system_id":"levelo_inurba_marseille","lat":43.30304,"lon":5.368987,"is_reserved":false,"is_disabled":false,"rental_uris":{"android":"levelo://app?vid=814eecca-75e4-4c8b-bdd3-a87f7e366867","ios":"levelo://app?vid=814eecca-75e4-4c8b-bdd3-a87f7e366867"},"vehicle_type_id":"4","last_reported":1724353641,"current_range_meters":0,"station_id":"ce4bgqh2rcd13ifvqc5g","pricing_plan_id":"cebpf4jnsgd1na2vs0mg"},{"bike_id":"21cdc47a-cfab-410f-9fae-3c1ce90517c7","system_id":"levelo_inurba_marseille","lat":43.315289,"lon":5.380349,"is_reserved":false,"is_disabled":false,"rental_uris":{"android":"levelo://app?vid=21cdc47a-cfab-410f-9fae-3c1ce90517c7","ios":"levelo://app?vid=21cdc47a-cfab-410f-9fae-3c1ce90517c7"},"vehicle_type_id":"4","last_reported":1724353641,"current_range_meters":12000,"station_id":"ce4bhsp2rcd13ifvqi50","pricing_plan_id":"cebpf4jnsgd1na2vs0mg"},{"bike_id":"3967b933-1e35-4738-90b1-d371ec28fd20","system_id":"levelo_inurba_marseille","lat":43.303046,"lon":5.368981,"is_reserved":false,"is_disabled":false,"rental_uris":{"android":"levelo://app?vid=3967b933-1e35-4738-90b1-d371ec28fd20","ios":"levelo://app?vid=3967b933-1e35-4738-90b1-d371ec28fd20"},"vehicle_type_id":"4","last_reported":1724353641,"current_range_meters":3600,"station_id":"ce4bgqh2rcd13ifvqc5g","pricing_plan_id":"cebpf4jnsgd1na2vs0mg"},{"bike_id":"01fb739f-0d96-4dd9-9c71-a8a357fe2976","system_id":"levelo_inurba_marseille","lat":43.303046,"lon":5.368981,"is_reserved":false,"is_disabled":false,"rental_uris":{"android":"levelo://app?vid=01fb739f-0d96-4dd9-9c71-a8a357fe2976","ios":"levelo://app?vid=01fb739f-0d96-4dd9-9c71-a8a357fe2976"},"vehicle_type_id":"4","last_reported":1724353641,"current_range_meters":20800,"station_id":"ce4bgqh2rcd13ifvqc5g","pricing_plan_id":"cebpf4jnsgd1na2vs0mg"},{"bike_id":"e953c591-3cea-469b-9aee-9207eb8da58d","system_id":"levelo_inurba_marseille","lat":43.30513,"lon":5.37616,"is_reserved":false,"is_disabled":false,"rental_uris":{"android":"levelo://app?vid=e953c591-3cea-469b-9aee-9207eb8da58d","ios":"levelo://app?vid=e953c591-3cea-469b-9aee-9207eb8da58d"},"vehicle_type_id":"4","last_reported":1724353641,"current_range_meters":0,"station_id":"","pricing_plan_id":"cebpf4jnsgd1na2vs0mg"},{"bike_id":"7fe3a459-dac3-4b73-8753-79cf556cbdd9","system_id":"levelo_inurba_marseille","lat":43.301939,"lon":5.366286,"is_reserved":false,"is_disabled":false,"rental_uris":{"android":"levelo://app?vid=7fe3a459-dac3-4b73-8753-79cf556cbdd9","ios":"levelo://app?vid=7fe3a459-dac3-4b73-8753-79cf556cbdd9"},"vehicle_type_id":"4","last_reported":1724353641,"current_range_meters":8000,"station_id":"ce4bgrh2rcd13ifvqc8g","pricing_plan_id":"cebpf4jnsgd1na2vs0mg"},{"bike_id":"442b7266-dfa8-4e89-ad95-9ea125165394","system_id":"levelo_inurba_marseille","lat":43.301544,"lon":5.366006,"is_reserved":false,"is_disabled":false,"rental_uris":{"android":"levelo://app?vid=442b7266-dfa8-4e89-ad95-9ea125165394","ios":"levelo://app?vid=442b7266-dfa8-4e89-ad95-9ea125165394"},"vehicle_type_id":"4","last_reported":1724353641,"current_range_meters":800,"station_id":"","pricing_plan_id":"cebpf4jnsgd1na2vs0mg"},{"bike_id":"c9c1b5b7-7d80-4af8-9812-4292b68861f7","system_id":"levelo_inurba_marseille","lat":43.308012,"lon":5.381511,"is_reserved":false,"is_disabled":false,"rental_uris":{"android":"levelo://app?vid=c9c1b5b7-7d80-4af8-9812-4292b68861f7","ios":"levelo://app?vid=c9c1b5b7-7d80-4af8-9812-4292b68861f7"},"vehicle_type_id":"4","last_reported":1724353641,"current_range_meters":0,"station_id":"ce4bgt12rcd13ifvqce0","pricing_plan_id":"cebpf4jnsgd1na2vs0mg"},{"bike_id":"e2d7f70e-4bc7-4c7d-8d8f-879bb7a3c8f0","system_id":"levelo_inurba_marseille","lat":43.308012,"lon":5.381511,"is_reserved":false,"is_disabled":false,"rental_uris":{"android":"levelo://app?vid=e2d7f70e-4bc7-4c7d-8d8f-879bb7a3c8f0","ios":"levelo://app?vid=e2d7f70e-4bc7-4c7d-8d8f-879bb7a3c8f0"},"vehicle_type_id":"4","last_reported":1724353641,"current_range_meters":29200,"station_id":"ce4bgt12rcd13ifvqce0","pricing_plan_id":"cebpf4jnsgd1na2vs0mg"},{"bike_id":"bbf918fb-6126-48be-8679-ea3a75bee3a5","system_id":"levelo_inurba_marseille","lat":43.308012,"lon":5.381511,"is_reserved":false,"is_disabled":false,"rental_uris":{"android":"levelo://app?vid=bbf918fb-6126-48be-8679-ea3a75bee3a5","ios":"levelo://app?vid=bbf918fb-6126-48be-8679-ea3a75bee3a5"},"vehicle_type_id":"4","last_reported":1724353641,"current_range_meters":16800,"station_id":"ce4bgt12rcd13ifvqce0","pricing_plan_id":"cebpf4jnsgd1na2vs0mg"},{"bike_id":"4b068ad2-1221-4476-9487-2b7eb5619d8a","system_id":"levelo_inurba_marseille","lat":43.31366,"lon":5.38364,"is_reserved":false,"is_disabled":false,"rental_uris":{"android":"levelo://app?vid=4b068ad2-1221-4476-9487-2b7eb5619d8a","ios":"levelo://app?vid=4b068ad2-1221-4476-9487-2b7eb5619d8a"},"vehicle_type_id":"4","last_reported":1724353641,"current_range_meters":13600,"station_id":"","pricing_plan_id":"cebpf4jnsgd1na2vs0mg"},{"bike_id":"1762bfdb-398f-4ce9-9e82-6e8201caecf4","system_id":"levelo_inurba_marseille","lat":43.310804,"lon":5.38359,"is_reserved":false,"is_disabled":false,"rental_uris":{"android":"levelo://app?vid=1762bfdb-398f-4ce9-9e82-6e8201caecf4","ios":"levelo://app?vid=1762bfdb-398f-4ce9-9e82-6e8201caecf4"},"vehicle_type_id":"4","last_reported":1724353641,"current_range_meters":7600,"station_id":"ce4bgv92rcd13ifvqcr0","pricing_plan_id":"cebpf4jnsgd1na2vs0mg"},{"bike_id":"a1492776-99cb-4cb7-822a-812bc732a7b5","system_id":"levelo_inurba_marseille","lat":43.310804,"lon":5.38359,"is_reserved":false,"is_disabled":false,"rental_uris":{"android":"levelo://app?vid=a1492776-99cb-4cb7-822a-812bc732a7b5","ios":"levelo://app?vid=a1492776-99cb-4cb7-822a-812bc732a7b5"},"vehicle_type_id":"4","last_reported":1724353641,"current_range_meters":28400,"station_id":"ce4bgv92rcd13ifvqcr0","pricing_plan_id":"cebpf4jnsgd1na2vs0mg"},{"bike_id":"2e3c0b02-2c6a-4d4a-b8f7-f560f840772f","system_id":"levelo_inurba_marseille","lat":43.310804,"lon":5.38359,"is_reserved":false,"is_disabled":false,"rental_uris":{"android":"levelo://app?vid=2e3c0b02-2c6a-4d4a-b8f7-f560f840772f","ios":"levelo://app?vid=2e3c0b02-2c6a-4d4a-b8f7-f560f840772f"},"vehicle_type_id":"4","last_reported":1724353641,"current_range_meters":28800,"station_id":"ce4bgv92rcd13ifvqcr0","pricing_plan_id":"cebpf4jnsgd1na2vs0mg"},{"bike_id":"11263624-49d9-4e4b-8330-a3bd6fd9aa9b","system_id":"levelo_inurba_marseille","lat":43.310804,"lon":5.38359,"is_reserved":false,"is_disabled":false,"rental_uris":{"android":"levelo://app?vid=11263624-49d9-4e4b-8330-a3bd6fd9aa9b","ios":"levelo://app?vid=11263624-49d9-4e4b-8330-a3bd6fd9aa9b"},"vehicle_type_id":"4","last_reported":1724353641,"current_range_meters":24400,"station_id":"ce4bgv92rcd13ifvqcr0","pricing_plan_id":"cebpf4jnsgd1na2vs0mg"},{"bike_id":"f321e9ee-7733-412d-b09b-f6a7d6fabfd3","system_id":"levelo_inurba_marseille","lat":43.310804,"lon":5.38359,"is_reserved":false,"is_disabled":false,"rental_uris":{"android":"levelo://app?vid=f321e9ee-7733-412d-b09b-f6a7d6fabfd3","ios":"levelo://app?vid=f321e9ee-7733-412d-b09b-f6a7d6fabfd3"},"vehicle_type_id":"4","last_reported":1724353641,"current_range_meters":26800,"station_id":"ce4bgv92rcd13ifvqcr0","pricing_plan_id":"cebpf4jnsgd1na2vs0mg"},{"bike_id":"dcde4260-5021-4467-a72e-de696946a0bf","system_id":"levelo_inurba_marseille","lat":43.319936,"lon":5.381456,"is_reserved":false,"is_disabled":false,"rental_uris":{"android":"levelo://app?vid=dcde4260-5021-4467-a72e-de696946a0bf","ios":"levelo://app?vid=dcde4260-5021-4467-a72e-de696946a0bf"},"vehicle_type_id":"4","last_reported":1724353641,"current_range_meters":31200,"station_id":"ce4bhr12rcd13ifvqhpg","pricing_plan_id":"cebpf4jnsgd1na2vs0mg"},{"bike_id":"74e7bc1e-5b4c-4ae5-90cd-f98efc54a0c7","system_id":"levelo_inurba_marseille","lat":43.319935,"lon":5.381699,"is_reserved":false,"is_disabled":false,"rental_uris":{"android":"levelo://app?vid=74e7bc1e-5b4c-4ae5-90cd-f98efc54a0c7","ios":"levelo://app?vid=74e7bc1e-5b4c-4ae5-90cd-f98efc54a0c7"},"vehicle_type_id":"4","last_reported":1724353641,"current_range_meters":20000,"station_id":"ce4bhr12rcd13ifvqhpg","pricing_plan_id":"cebpf4jnsgd1na2vs0mg"},{"bike_id":"b52d43b4-5b1e-4c42-a19b-f68dca8c3ef6","system_id":"levelo_inurba_marseille","lat":43.319971,"lon":5.381577,"is_reserved":false,"is_disabled":false,"rental_uris":{"android":"levelo://app?vid=b52d43b4-5b1e-4c42-a19b-f68dca8c3ef6","ios":"levelo://app?vid=b52d43b4-5b1e-4c42-a19b-f68dca8c3ef6"},"vehicle_type_id":"4","last_reported":1724353641,"current_range_meters":5200,"station_id":"ce4bhr12rcd13ifvqhpg","pricing_plan_id":"cebpf4jnsgd1na2vs0mg"},{"bike_id":"5bf2fc06-2f13-45a0-970c-316e0bd6f3e1","system_id":"levelo_inurba_marseille","lat":43.313571,"lon":5.384829,"is_reserved":false,"is_disabled":false,"rental_uris":{"android":"levelo://app?vid=5bf2fc06-2f13-45a0-970c-316e0bd6f3e1","ios":"levelo://app?vid=5bf2fc06-2f13-45a0-970c-316e0bd6f3e1"},"vehicle_type_id":"4","last_reported":1724353641,"current_range_meters":0,"station_id":"ce4bgt92rcd13ifvqcf0","pricing_plan_id":"cebpf4jnsgd1na2vs0mg"},{"bike_id":"fc59e4a4-bead-451a-a35d-8886379137bc","system_id":"levelo_inurba_marseille","lat":43.300029,"lon":5.372341,"is_reserved":false,"is_disabled":false,"rental_uris":{"android":"levelo://app?vid=fc59e4a4-bead-451a-a35d-8886379137bc","ios":"levelo://app?vid=fc59e4a4-bead-451a-a35d-8886379137bc"},"vehicle_type_id":"4","last_reported":1724353641,"current_range_meters":18400,"station_id":"","pricing_plan_id":"cebpf4jnsgd1na2vs0mg"},{"bike_id":"259a014a-c591-4b84-bd58-9df613180a99","system_id":"levelo_inurba_marseille","lat":43.299222,"lon":5.365554,"is_reserved":false,"is_disabled":false,"rental_uris":{"android":"levelo://app?vid=259a014a-c591-4b84-bd58-9df613180a99","ios":"levelo://app?vid=259a014a-c591-4b84-bd58-9df613180a99"},"vehicle_type_id":"4","last_reported":1724353641,"current_range_meters":22800,"station_id":"ce4bgm92rcd13ifvqbr0","pricing_plan_id":"cebpf4jnsgd1na2vs0mg"},{"bike_id":"e22a2d50-7e22-40cd-8826-91f42e634a96","system_id":"levelo_inurba_marseille","lat":43.299222,"lon":5.365554,"is_reserved":false,"is_disabled":false,"rental_uris":{"android":"levelo://app?vid=e22a2d50-7e22-40cd-8826-91f42e634a96","ios":"levelo://app?vid=e22a2d50-7e22-40cd-8826-91f42e634a96"},"vehicle_type_id":"4","last_reported":1724353641,"current_range_meters":29600,"station_id":"ce4bgm92rcd13ifvqbr0","pricing_plan_id":"cebpf4jnsgd1na2vs0mg"},{"bike_id":"240fa0f1-1c43-454f-a11b-eed33bdb739a","system_id":"levelo_inurba_marseille","lat":43.293259,"lon":5.371586,"is_reserved":false,"is_disabled":false,"rental_uris":{"android":"levelo://app?vid=240fa0f1-1c43-454f-a11b-eed33bdb739a","ios":"levelo://app?vid=240fa0f1-1c43-454f-a11b-eed33bdb739a"},"vehicle_type_id":"4","last_reported":1724353641,"current_range_meters":0,"station_id":"ce4bgh92rcd13ifvqb40","pricing_plan_id":"cebpf4jnsgd1na2vs0mg"},{"bike_id":"be975e31-9485-4713-88c8-69cca47beb0e","system_id":"levelo_inurba_marseille","lat":43.30535,"lon":5.38416,"is_reserved":false,"is_disabled":false,"rental_uris":{"android":"levelo://app?vid=be975e31-9485-4713-88c8-69cca47beb0e","ios":"levelo://app?vid=be975e31-9485-4713-88c8-69cca47beb0e"},"vehicle_type_id":"4","last_reported":1724353641,"current_range_meters":0,"station_id":"ce4bgg92rcd13ifvqb30","pricing_plan_id":"cebpf4jnsgd1na2vs0mg"},{"bike_id":"b9020401-c0c4-4c61-9f07-6e0eee726804","system_id":"levelo_inurba_marseille","lat":43.298433,"lon":5.362774,"is_reserved":false,"is_disabled":false,"rental_uris":{"android":"levelo://app?vid=b9020401-c0c4-4c61-9f07-6e0eee726804","ios":"levelo://app?vid=b9020401-c0c4-4c61-9f07-6e0eee726804"},"vehicle_type_id":"4","last_reported":1724353641,"current_range_meters":14400,"station_id":"ce4bgpp2rcd13ifvqc3g","pricing_plan_id":"cebpf4jnsgd1na2vs0mg"},{"bike_id":"95c06a3a-49b3-46ec-af4d-e29f270c00a6","system_id":"levelo_inurba_marseille","lat":43.298433,"lon":5.362774,"is_reserved":false,"is_disabled":false,"rental_uris":{"android":"levelo://app?vid=95c06a3a-49b3-46ec-af4d-e29f270c00a6","ios":"levelo://app?vid=95c06a3a-49b3-46ec-af4d-e29f270c00a6"},"vehicle_type_id":"4","last_reported":1724353641,"current_range_meters":2800,"station_id":"ce4bgpp2rcd13ifvqc3g","pricing_plan_id":"cebpf4jnsgd1na2vs0mg"},{"bike_id":"330510ba-12e9-4783-be8e-cc320ae26fc7","system_id":"levelo_inurba_marseille","lat":43.311687,"lon":5.387087,"is_reserved":false,"is_disabled":false,"rental_uris":{"android":"levelo://app?vid=330510ba-12e9-4783-be8e-cc320ae26fc7","ios":"levelo://app?vid=330510ba-12e9-4783-be8e-cc320ae26fc7"},"vehicle_type_id":"4","last_reported":1724353641,"current_range_meters":0,"station_id":"ce4bgv12rcd13ifvqcp0","pricing_plan_id":"cebpf4jnsgd1na2vs0mg"},{"bike_id":"de80a5f9-fd96-4e7b-86d6-dfa021e0a1be","system_id":"levelo_inurba_marseille","lat":43.299243,"lon":5.374807,"is_reserved":false,"is_disabled":false,"rental_uris":{"android":"levelo://app?vid=de80a5f9-fd96-4e7b-86d6-dfa021e0a1be","ios":"levelo://app?vid=de80a5f9-fd96-4e7b-86d6-dfa021e0a1be"},"vehicle_type_id":"4","last_reported":1724353641,"current_range_meters":0,"station_id":"ce4bgjh2rcd13ifvqbg0","pricing_plan_id":"cebpf4jnsgd1na2vs0mg"},{"bike_id":"e60b6b36-7621-4dbf-8267-3bd64753a1b9","system_id":"levelo_inurba_marseille","lat":43.31178,"lon":5.38711,"is_reserved":false,"is_disabled":false,"rental_uris":{"android":"levelo://app?vid=e60b6b36-7621-4dbf-8267-3bd64753a1b9","ios":"levelo://app?vid=e60b6b36-7621-4dbf-8267-3bd64753a1b9"},"vehicle_type_id":"4","last_reported":1724353641,"current_range_meters":29600,"station_id":"ce4bgv12rcd13ifvqcp0","pricing_plan_id":"cebpf4jnsgd1na2vs0mg"},{"bike_id":"737ab547-e750-40e0-bd6e-36d520c64df0","system_id":"levelo_inurba_marseille","lat":43.31167,"lon":5.38716,"is_reserved":false,"is_disabled":false,"rental_uris":{"android":"levelo://app?vid=737ab547-e750-40e0-bd6e-36d520c64df0","ios":"levelo://app?vid=737ab547-e750-40e0-bd6e-36d520c64df0"},"vehicle_type_id":"4","last_reported":1724353641,"current_range_meters":30400,"station_id":"ce4bgv12rcd13ifvqcp0","pricing_plan_id":"cebpf4jnsgd1na2vs0mg"},{"bike_id":"6c6d89c3-7c92-4930-a7d6-c7d9904acc33","system_id":"levelo_inurba_marseille","lat":43.31165,"lon":5.387165,"is_reserved":false,"is_disabled":false,"rental_uris":{"android":"levelo://app?vid=6c6d89c3-7c92-4930-a7d6-c7d9904acc33","ios":"levelo://app?vid=6c6d89c3-7c92-4930-a7d6-c7d9904acc33"},"vehicle_type_id":"4","last_reported":1724353641,"current_range_meters":2400,"station_id":"ce4bgv12rcd13ifvqcp0","pricing_plan_id":"cebpf4jnsgd1na2vs0mg"},{"bike_id":"e3ce9167-fc99-4100-8bc1-203cf2c532b6","system_id":"levelo_inurba_marseille","lat":43.31167,"lon":5.38723,"is_reserved":false,"is_disabled":false,"rental_uris":{"android":"levelo://app?vid=e3ce9167-fc99-4100-8bc1-203cf2c532b6","ios":"levelo://app?vid=e3ce9167-fc99-4100-8bc1-203cf2c532b6"},"vehicle_type_id":"4","last_reported":1724353641,"current_range_meters":13200,"station_id":"ce4bgv12rcd13ifvqcp0","pricing_plan_id":"cebpf4jnsgd1na2vs0mg"},{"bike_id":"765edfa6-e6dd-40c7-9166-85ea272dcc1c","system_id":"levelo_inurba_marseille","lat":43.32291,"lon":5.38255,"is_reserved":false,"is_disabled":false,"rental_uris":{"android":"levelo://app?vid=765edfa6-e6dd-40c7-9166-85ea272dcc1c","ios":"levelo://app?vid=765edfa6-e6dd-40c7-9166-85ea272dcc1c"},"vehicle_type_id":"4","last_reported":1724353641,"current_range_meters":0,"station_id":"ce4bhr12rcd13ifvqhqg","pricing_plan_id":"cebpf4jnsgd1na2vs0mg"},{"bike_id":"016b0bd6-ebcc-4861-b398-c7d7148455fd","system_id":"levelo_inurba_marseille","lat":43.322872,"lon":5.382756,"is_reserved":false,"is_disabled":false,"rental_uris":{"android":"levelo://app?vid=016b0bd6-ebcc-4861-b398-c7d7148455fd","ios":"levelo://app?vid=016b0bd6-ebcc-4861-b398-c7d7148455fd"},"vehicle_type_id":"4","last_reported":1724353641,"current_range_meters":31200,"station_id":"ce4bhr12rcd13ifvqhqg","pricing_plan_id":"cebpf4jnsgd1na2vs0mg"},{"bike_id":"444538af-63b7-4944-b2dc-218254ffe036","system_id":"levelo_inurba_marseille","lat":43.322872,"lon":5.382756,"is_reserved":false,"is_disabled":false,"rental_uris":{"android":"levelo://app?vid=444538af-63b7-4944-b2dc-218254ffe036","ios":"levelo://app?vid=444538af-63b7-4944-b2dc-218254ffe036"},"vehicle_type_id":"4","last_reported":1724353641,"current_range_meters":0,"station_id":"ce4bhr12rcd13ifvqhqg","pricing_plan_id":"cebpf4jnsgd1na2vs0mg"},{"bike_id":"352d072c-c4dd-46ba-b620-470ed7481a71","system_id":"levelo_inurba_marseille","lat":43.322872,"lon":5.382756,"is_reserved":false,"is_disabled":false,"rental_uris":{"android":"levelo://app?vid=352d072c-c4dd-46ba-b620-470ed7481a71","ios":"levelo://app?vid=352d072c-c4dd-46ba-b620-470ed7481a71"},"vehicle_type_id":"4","last_reported":1724353641,"current_range_meters":4400,"station_id":"ce4bhr12rcd13ifvqhqg","pricing_plan_id":"cebpf4jnsgd1na2vs0mg"},{"bike_id":"1a721bc6-ac1c-4c10-b427-ef0e6e33a551","system_id":"levelo_inurba_marseille","lat":43.322872,"lon":5.382756,"is_reserved":false,"is_disabled":false,"rental_uris":{"android":"levelo://app?vid=1a721bc6-ac1c-4c10-b427-ef0e6e33a551","ios":"levelo://app?vid=1a721bc6-ac1c-4c10-b427-ef0e6e33a551"},"vehicle_type_id":"4","last_reported":1724353641,"current_range_meters":17600,"station_id":"ce4bhr12rcd13ifvqhqg","pricing_plan_id":"cebpf4jnsgd1na2vs0mg"},{"bike_id":"4388b6c4-6c26-4e61-8d74-95af9915e57f","system_id":"levelo_inurba_marseille","lat":43.322872,"lon":5.382756,"is_reserved":false,"is_disabled":false,"rental_uris":{"android":"levelo://app?vid=4388b6c4-6c26-4e61-8d74-95af9915e57f","ios":"levelo://app?vid=4388b6c4-6c26-4e61-8d74-95af9915e57f"},"vehicle_type_id":"4","last_reported":1724353641,"current_range_meters":17200,"station_id":"ce4bhr12rcd13ifvqhqg","pricing_plan_id":"cebpf4jnsgd1na2vs0mg"},{"bike_id":"a61aa05d-32b1-452c-9bb4-8f18c805dd8f","system_id":"levelo_inurba_marseille","lat":43.322872,"lon":5.382756,"is_reserved":false,"is_disabled":false,"rental_uris":{"android":"levelo://app?vid=a61aa05d-32b1-452c-9bb4-8f18c805dd8f","ios":"levelo://app?vid=a61aa05d-32b1-452c-9bb4-8f18c805dd8f"},"vehicle_type_id":"4","last_reported":1724353641,"current_range_meters":22000,"station_id":"ce4bhr12rcd13ifvqhqg","pricing_plan_id":"cebpf4jnsgd1na2vs0mg"},{"bike_id":"752ce4ad-c466-411d-885b-d064df18546f","system_id":"levelo_inurba_marseille","lat":43.322872,"lon":5.382756,"is_reserved":false,"is_disabled":false,"rental_uris":{"android":"levelo://app?vid=752ce4ad-c466-411d-885b-d064df18546f","ios":"levelo://app?vid=752ce4ad-c466-411d-885b-d064df18546f"},"vehicle_type_id":"4","last_reported":1724353641,"current_range_meters":16000,"station_id":"ce4bhr12rcd13ifvqhqg","pricing_plan_id":"cebpf4jnsgd1na2vs0mg"},{"bike_id":"84b0d652-4310-4b81-9a7a-05a3b04cfb97","system_id":"levelo_inurba_marseille","lat":43.322872,"lon":5.382756,"is_reserved":false,"is_disabled":false,"rental_uris":{"android":"levelo://app?vid=84b0d652-4310-4b81-9a7a-05a3b04cfb97","ios":"levelo://app?vid=84b0d652-4310-4b81-9a7a-05a3b04cfb97"},"vehicle_type_id":"4","last_reported":1724353641,"current_range_meters":12400,"station_id":"ce4bhr12rcd13ifvqhqg","pricing_plan_id":"cebpf4jnsgd1na2vs0mg"},{"bike_id":"369b1ced-adf5-40f3-9ae0-8c3ca8caf9f6","system_id":"levelo_inurba_marseille","lat":43.322872,"lon":5.382756,"is_reserved":false,"is_disabled":false,"rental_uris":{"android":"levelo://app?vid=369b1ced-adf5-40f3-9ae0-8c3ca8caf9f6","ios":"levelo://app?vid=369b1ced-adf5-40f3-9ae0-8c3ca8caf9f6"},"vehicle_type_id":"4","last_reported":1724353641,"current_range_meters":31200,"station_id":"ce4bhr12rcd13ifvqhqg","pricing_plan_id":"cebpf4jnsgd1na2vs0mg"},{"bike_id":"23c4cd6b-2f9c-4d7c-9b87-fed7d7de703e","system_id":"levelo_inurba_marseille","lat":43.297163,"lon":5.365866,"is_reserved":false,"is_disabled":false,"rental_uris":{"android":"levelo://app?vid=23c4cd6b-2f9c-4d7c-9b87-fed7d7de703e","ios":"levelo://app?vid=23c4cd6b-2f9c-4d7c-9b87-fed7d7de703e"},"vehicle_type_id":"4","last_reported":1724353641,"current_range_meters":5200,"station_id":"ce4bgn12rcd13ifvqbt0","pricing_plan_id":"cebpf4jnsgd1na2vs0mg"},{"bike_id":"29e5cc53-5970-46be-a56a-c12f138045d6","system_id":"levelo_inurba_marseille","lat":43.297163,"lon":5.365866,"is_reserved":false,"is_disabled":false,"rental_uris":{"android":"levelo://app?vid=29e5cc53-5970-46be-a56a-c12f138045d6","ios":"levelo://app?vid=29e5cc53-5970-46be-a56a-c12f138045d6"},"vehicle_type_id":"4","last_reported":1724353641,"current_range_meters":9200,"station_id":"ce4bgn12rcd13ifvqbt0","pricing_plan_id":"cebpf4jnsgd1na2vs0mg"},{"bike_id":"9b7ad272-d693-4831-a665-194447ac99c7","system_id":"levelo_inurba_marseille","lat":43.297163,"lon":5.365866,"is_reserved":false,"is_disabled":false,"rental_uris":{"android":"levelo://app?vid=9b7ad272-d693-4831-a665-194447ac99c7","ios":"levelo://app?vid=9b7ad272-d693-4831-a665-194447ac99c7"},"vehicle_type_id":"4","last_reported":1724353641,"current_range_meters":0,"station_id":"ce4bgn12rcd13ifvqbt0","pricing_plan_id":"cebpf4jnsgd1na2vs0mg"},{"bike_id":"9f864eb1-62c4-498d-9749-4ac6a3e0b261","system_id":"levelo_inurba_marseille","lat":43.30282,"lon":5.384967,"is_reserved":false,"is_disabled":false,"rental_uris":{"android":"levelo://app?vid=9f864eb1-62c4-498d-9749-4ac6a3e0b261","ios":"levelo://app?vid=9f864eb1-62c4-498d-9749-4ac6a3e0b261"},"vehicle_type_id":"4","last_reported":1724353641,"current_range_meters":0,"station_id":"","pricing_plan_id":"cebpf4jnsgd1na2vs0mg"},{"bike_id":"455b745e-b639-4540-a39c-b3f6a6f63657","system_id":"levelo_inurba_marseille","lat":43.296867,"lon":5.37304,"is_reserved":false,"is_disabled":false,"rental_uris":{"android":"levelo://app?vid=455b745e-b639-4540-a39c-b3f6a6f63657","ios":"levelo://app?vid=455b745e-b639-4540-a39c-b3f6a6f63657"},"vehicle_type_id":"4","last_reported":1724353641,"current_range_meters":0,"station_id":"ce4bgk12rcd13ifvqbj0","pricing_plan_id":"cebpf4jnsgd1na2vs0mg"},{"bike_id":"9785aa0b-408c-4beb-b093-15f6d09242a5","system_id":"levelo_inurba_marseille","lat":43.2968,"lon":5.37291,"is_reserved":false,"is_disabled":false,"rental_uris":{"android":"levelo://app?vid=9785aa0b-408c-4beb-b093-15f6d09242a5","ios":"levelo://app?vid=9785aa0b-408c-4beb-b093-15f6d09242a5"},"vehicle_type_id":"4","last_reported":1724353641,"current_range_meters":1600,"station_id":"ce4bgk12rcd13ifvqbj0","pricing_plan_id":"cebpf4jnsgd1na2vs0mg"},{"bike_id":"462d32db-412d-496b-bf96-3e3998eb3400","system_id":"levelo_inurba_marseille","lat":43.29573,"lon":5.367355,"is_reserved":false,"is_disabled":false,"rental_uris":{"android":"levelo://app?vid=462d32db-412d-496b-bf96-3e3998eb3400","ios":"levelo://app?vid=462d32db-412d-496b-bf96-3e3998eb3400"},"vehicle_type_id":"4","last_reported":1724353641,"current_range_meters":27600,"station_id":"ce4bgph2rcd13ifvqc2g","pricing_plan_id":"cebpf4jnsgd1na2vs0mg"},{"bike_id":"862bd5b3-6c1c-4a06-b1be-57a1ce9ae804","system_id":"levelo_inurba_marseille","lat":43.29573,"lon":5.367355,"is_reserved":false,"is_disabled":false,"rental_uris":{"android":"levelo://app?vid=862bd5b3-6c1c-4a06-b1be-57a1ce9ae804","ios":"levelo://app?vid=862bd5b3-6c1c-4a06-b1be-57a1ce9ae804"},"vehicle_type_id":"4","last_reported":1724353641,"current_range_meters":5200,"station_id":"ce4bgph2rcd13ifvqc2g","pricing_plan_id":"cebpf4jnsgd1na2vs0mg"},{"bike_id":"148bb720-0aad-4ec8-acce-34c404b75ab9","system_id":"levelo_inurba_marseille","lat":43.309589,"lon":5.390258,"is_reserved":false,"is_disabled":false,"rental_uris":{"android":"levelo://app?vid=148bb720-0aad-4ec8-acce-34c404b75ab9","ios":"levelo://app?vid=148bb720-0aad-4ec8-acce-34c404b75ab9"},"vehicle_type_id":"4","last_reported":1724353641,"current_range_meters":0,"station_id":"ce4bgup2rcd13ifvqco0","pricing_plan_id":"cebpf4jnsgd1na2vs0mg"},{"bike_id":"bed355a1-0120-4734-b566-ce238acf626d","system_id":"levelo_inurba_marseille","lat":43.309589,"lon":5.390258,"is_reserved":false,"is_disabled":false,"rental_uris":{"android":"levelo://app?vid=bed355a1-0120-4734-b566-ce238acf626d","ios":"levelo://app?vid=bed355a1-0120-4734-b566-ce238acf626d"},"vehicle_type_id":"4","last_reported":1724353641,"current_range_meters":23200,"station_id":"ce4bgup2rcd13ifvqco0","pricing_plan_id":"cebpf4jnsgd1na2vs0mg"},{"bike_id":"43613979-40c4-4d9f-976a-ba1c3a3dcb77","system_id":"levelo_inurba_marseille","lat":43.309589,"lon":5.390258,"is_reserved":false,"is_disabled":false,"rental_uris":{"android":"levelo://app?vid=43613979-40c4-4d9f-976a-ba1c3a3dcb77","ios":"levelo://app?vid=43613979-40c4-4d9f-976a-ba1c3a3dcb77"},"vehicle_type_id":"4","last_reported":1724353641,"current_range_meters":5600,"station_id":"ce4bgup2rcd13ifvqco0","pricing_plan_id":"cebpf4jnsgd1na2vs0mg"},{"bike_id":"54e78041-6ac0-4e2e-8c43-f5ccc43efeb3","system_id":"levelo_inurba_marseille","lat":43.309589,"lon":5.390258,"is_reserved":false,"is_disabled":false,"rental_uris":{"android":"levelo://app?vid=54e78041-6ac0-4e2e-8c43-f5ccc43efeb3","ios":"levelo://app?vid=54e78041-6ac0-4e2e-8c43-f5ccc43efeb3"},"vehicle_type_id":"4","last_reported":1724353641,"current_range_meters":4000,"station_id":"ce4bgup2rcd13ifvqco0","pricing_plan_id":"cebpf4jnsgd1na2vs0mg"},{"bike_id":"8e5d93e4-c1bb-4e54-90ef-8dd5cc29bc27","system_id":"levelo_inurba_marseille","lat":43.309589,"lon":5.390258,"is_reserved":false,"is_disabled":false,"rental_uris":{"android":"levelo://app?vid=8e5d93e4-c1bb-4e54-90ef-8dd5cc29bc27","ios":"levelo://app?vid=8e5d93e4-c1bb-4e54-90ef-8dd5cc29bc27"},"vehicle_type_id":"4","last_reported":1724353641,"current_range_meters":12800,"station_id":"ce4bgup2rcd13ifvqco0","pricing_plan_id":"cebpf4jnsgd1na2vs0mg"},{"bike_id":"505d3c0a-4c55-43cf-abdc-a80bb4b2190b","system_id":"levelo_inurba_marseille","lat":43.309589,"lon":5.390258,"is_reserved":false,"is_disabled":false,"rental_uris":{"android":"levelo://app?vid=505d3c0a-4c55-43cf-abdc-a80bb4b2190b","ios":"levelo://app?vid=505d3c0a-4c55-43cf-abdc-a80bb4b2190b"},"vehicle_type_id":"4","last_reported":1724353641,"current_range_meters":10800,"station_id":"ce4bgup2rcd13ifvqco0","pricing_plan_id":"cebpf4jnsgd1na2vs0mg"},{"bike_id":"8dd6345e-b9d2-49a1-812e-6d7b96971d2c","system_id":"levelo_inurba_marseille","lat":43.309589,"lon":5.390258,"is_reserved":false,"is_disabled":false,"rental_uris":{"android":"levelo://app?vid=8dd6345e-b9d2-49a1-812e-6d7b96971d2c","ios":"levelo://app?vid=8dd6345e-b9d2-49a1-812e-6d7b96971d2c"},"vehicle_type_id":"4","last_reported":1724353641,"current_range_meters":28800,"station_id":"ce4bgup2rcd13ifvqco0","pricing_plan_id":"cebpf4jnsgd1na2vs0mg"},{"bike_id":"a3a1dab6-3c9e-49f5-9503-76d353309d9b","system_id":"levelo_inurba_marseille","lat":43.309589,"lon":5.390258,"is_reserved":false,"is_disabled":false,"rental_uris":{"android":"levelo://app?vid=a3a1dab6-3c9e-49f5-9503-76d353309d9b","ios":"levelo://app?vid=a3a1dab6-3c9e-49f5-9503-76d353309d9b"},"vehicle_type_id":"4","last_reported":1724353641,"current_range_meters":10000,"station_id":"ce4bgup2rcd13ifvqco0","pricing_plan_id":"cebpf4jnsgd1na2vs0mg"},{"bike_id":"6bb9c928-39f5-4726-92c1-30dfd4d4f328","system_id":"levelo_inurba_marseille","lat":43.309589,"lon":5.390258,"is_reserved":false,"is_disabled":false,"rental_uris":{"android":"levelo://app?vid=6bb9c928-39f5-4726-92c1-30dfd4d4f328","ios":"levelo://app?vid=6bb9c928-39f5-4726-92c1-30dfd4d4f328"},"vehicle_type_id":"4","last_reported":1724353641,"current_range_meters":5600,"station_id":"ce4bgup2rcd13ifvqco0","pricing_plan_id":"cebpf4jnsgd1na2vs0mg"},{"bike_id":"15477ea2-64bd-496a-909f-a3dd1c8dd492","system_id":"levelo_inurba_marseille","lat":43.309589,"lon":5.390258,"is_reserved":false,"is_disabled":false,"rental_uris":{"android":"levelo://app?vid=15477ea2-64bd-496a-909f-a3dd1c8dd492","ios":"levelo://app?vid=15477ea2-64bd-496a-909f-a3dd1c8dd492"},"vehicle_type_id":"4","last_reported":1724353641,"current_range_meters":0,"station_id":"ce4bgup2rcd13ifvqco0","pricing_plan_id":"cebpf4jnsgd1na2vs0mg"},{"bike_id":"9d9f8236-211d-4208-b009-4f627596121d","system_id":"levelo_inurba_marseille","lat":43.30949,"lon":5.39037,"is_reserved":false,"is_disabled":false,"rental_uris":{"android":"levelo://app?vid=9d9f8236-211d-4208-b009-4f627596121d","ios":"levelo://app?vid=9d9f8236-211d-4208-b009-4f627596121d"},"vehicle_type_id":"4","last_reported":1724353641,"current_range_meters":3200,"station_id":"ce4bgup2rcd13ifvqco0","pricing_plan_id":"cebpf4jnsgd1na2vs0mg"},{"bike_id":"5a120341-21d2-4ca8-99b9-7a87f51c8e12","system_id":"levelo_inurba_marseille","lat":43.317557,"lon":5.390173,"is_reserved":false,"is_disabled":false,"rental_uris":{"android":"levelo://app?vid=5a120341-21d2-4ca8-99b9-7a87f51c8e12","ios":"levelo://app?vid=5a120341-21d2-4ca8-99b9-7a87f51c8e12"},"vehicle_type_id":"4","last_reported":1724353641,"current_range_meters":800,"station_id":"ce4bhqp2rcd13ifvqhng","pricing_plan_id":"cebpf4jnsgd1na2vs0mg"},{"bike_id":"6e75ee43-522c-4638-9279-83e9ed8e221b","system_id":"levelo_inurba_marseille","lat":43.317557,"lon":5.390173,"is_reserved":false,"is_disabled":false,"rental_uris":{"android":"levelo://app?vid=6e75ee43-522c-4638-9279-83e9ed8e221b","ios":"levelo://app?vid=6e75ee43-522c-4638-9279-83e9ed8e221b"},"vehicle_type_id":"4","last_reported":1724353641,"current_range_meters":28800,"station_id":"ce4bhqp2rcd13ifvqhng","pricing_plan_id":"cebpf4jnsgd1na2vs0mg"},{"bike_id":"472329e7-0d10-4394-b6c5-25131c78c411","system_id":"levelo_inurba_marseille","lat":43.299028,"lon":5.381509,"is_reserved":false,"is_disabled":false,"rental_uris":{"android":"levelo://app?vid=472329e7-0d10-4394-b6c5-25131c78c411","ios":"levelo://app?vid=472329e7-0d10-4394-b6c5-25131c78c411"},"vehicle_type_id":"4","last_reported":1724353641,"current_range_meters":22400,"station_id":"ce4bgj12rcd13ifvqbc0","pricing_plan_id":"cebpf4jnsgd1na2vs0mg"},{"bike_id":"bd580874-483f-452c-b993-7d63b98140cb","system_id":"levelo_inurba_marseille","lat":43.298037,"lon":5.381066,"is_reserved":false,"is_disabled":false,"rental_uris":{"android":"levelo://app?vid=bd580874-483f-452c-b993-7d63b98140cb","ios":"levelo://app?vid=bd580874-483f-452c-b993-7d63b98140cb"},"vehicle_type_id":"4","last_reported":1724353641,"current_range_meters":6800,"station_id":"ce4bgip2rcd13ifvqbb0","pricing_plan_id":"cebpf4jnsgd1na2vs0mg"},{"bike_id":"6eb81e7e-938b-44dd-8e6e-8dc0a9d6279f","system_id":"levelo_inurba_marseille","lat":43.298037,"lon":5.381066,"is_reserved":false,"is_disabled":false,"rental_uris":{"android":"levelo://app?vid=6eb81e7e-938b-44dd-8e6e-8dc0a9d6279f","ios":"levelo://app?vid=6eb81e7e-938b-44dd-8e6e-8dc0a9d6279f"},"vehicle_type_id":"4","last_reported":1724353641,"current_range_meters":4800,"station_id":"ce4bgip2rcd13ifvqbb0","pricing_plan_id":"cebpf4jnsgd1na2vs0mg"},{"bike_id":"988ff06a-020b-4b8b-b216-14011649dc24","system_id":"levelo_inurba_marseille","lat":43.29576,"lon":5.37493,"is_reserved":false,"is_disabled":false,"rental_uris":{"android":"levelo://app?vid=988ff06a-020b-4b8b-b216-14011649dc24","ios":"levelo://app?vid=988ff06a-020b-4b8b-b216-14011649dc24"},"vehicle_type_id":"4","last_reported":1724353641,"current_range_meters":28000,"station_id":"ce4bgh92rcd13ifvqb50","pricing_plan_id":"cebpf4jnsgd1na2vs0mg"},{"bike_id":"6ff8f316-3c00-4a92-a87e-74c819fd6197","system_id":"levelo_inurba_marseille","lat":43.295748,"lon":5.37522,"is_reserved":false,"is_disabled":false,"rental_uris":{"android":"levelo://app?vid=6ff8f316-3c00-4a92-a87e-74c819fd6197","ios":"levelo://app?vid=6ff8f316-3c00-4a92-a87e-74c819fd6197"},"vehicle_type_id":"4","last_reported":1724353641,"current_range_meters":3600,"station_id":"ce4bgh92rcd13ifvqb50","pricing_plan_id":"cebpf4jnsgd1na2vs0mg"},{"bike_id":"fb7c153d-7170-499c-a484-4736bc57c47c","system_id":"levelo_inurba_marseille","lat":43.298037,"lon":5.381066,"is_reserved":false,"is_disabled":false,"rental_uris":{"android":"levelo://app?vid=fb7c153d-7170-499c-a484-4736bc57c47c","ios":"levelo://app?vid=fb7c153d-7170-499c-a484-4736bc57c47c"},"vehicle_type_id":"4","last_reported":1724353641,"current_range_meters":800,"station_id":"ce4bgip2rcd13ifvqbb0","pricing_plan_id":"cebpf4jnsgd1na2vs0mg"},{"bike_id":"b3a81236-aeec-4bb7-86c1-75eed5c52a50","system_id":"levelo_inurba_marseille","lat":43.298037,"lon":5.381066,"is_reserved":false,"is_disabled":false,"rental_uris":{"android":"levelo://app?vid=b3a81236-aeec-4bb7-86c1-75eed5c52a50","ios":"levelo://app?vid=b3a81236-aeec-4bb7-86c1-75eed5c52a50"},"vehicle_type_id":"4","last_reported":1724353641,"current_range_meters":12000,"station_id":"ce4bgip2rcd13ifvqbb0","pricing_plan_id":"cebpf4jnsgd1na2vs0mg"},{"bike_id":"cf8c1b51-0ddf-4e7c-a9f8-cd4b16f5f633","system_id":"levelo_inurba_marseille","lat":43.298037,"lon":5.381066,"is_reserved":false,"is_disabled":false,"rental_uris":{"android":"levelo://app?vid=cf8c1b51-0ddf-4e7c-a9f8-cd4b16f5f633","ios":"levelo://app?vid=cf8c1b51-0ddf-4e7c-a9f8-cd4b16f5f633"},"vehicle_type_id":"4","last_reported":1724353641,"current_range_meters":27200,"station_id":"ce4bgip2rcd13ifvqbb0","pricing_plan_id":"cebpf4jnsgd1na2vs0mg"},{"bike_id":"00bd5be5-afca-4341-a95c-2fc4733ff1c0","system_id":"levelo_inurba_marseille","lat":43.297898,"lon":5.38092,"is_reserved":false,"is_disabled":false,"rental_uris":{"android":"levelo://app?vid=00bd5be5-afca-4341-a95c-2fc4733ff1c0","ios":"levelo://app?vid=00bd5be5-afca-4341-a95c-2fc4733ff1c0"},"vehicle_type_id":"4","last_reported":1724353641,"current_range_meters":0,"station_id":"ce4bgip2rcd13ifvqbb0","pricing_plan_id":"cebpf4jnsgd1na2vs0mg"},{"bike_id":"ac567fb0-ebcb-4773-b0c1-99fa9601c527","system_id":"levelo_inurba_marseille","lat":43.304274,"lon":5.388873,"is_reserved":false,"is_disabled":false,"rental_uris":{"android":"levelo://app?vid=ac567fb0-ebcb-4773-b0c1-99fa9601c527","ios":"levelo://app?vid=ac567fb0-ebcb-4773-b0c1-99fa9601c527"},"vehicle_type_id":"4","last_reported":1724353641,"current_range_meters":19600,"station_id":"ce4bgk12rcd13ifvqbi0","pricing_plan_id":"cebpf4jnsgd1na2vs0mg"},{"bike_id":"b9472422-050a-48a0-93c4-3b0eb5ce275e","system_id":"levelo_inurba_marseille","lat":43.298037,"lon":5.381066,"is_reserved":false,"is_disabled":false,"rental_uris":{"android":"levelo://app?vid=b9472422-050a-48a0-93c4-3b0eb5ce275e","ios":"levelo://app?vid=b9472422-050a-48a0-93c4-3b0eb5ce275e"},"vehicle_type_id":"4","last_reported":1724353641,"current_range_meters":0,"station_id":"ce4bgip2rcd13ifvqbb0","pricing_plan_id":"cebpf4jnsgd1na2vs0mg"},{"bike_id":"070f3d12-bb37-4403-b26b-dcbccfcf98fb","system_id":"levelo_inurba_marseille","lat":43.295748,"lon":5.37522,"is_reserved":false,"is_disabled":false,"rental_uris":{"android":"levelo://app?vid=070f3d12-bb37-4403-b26b-dcbccfcf98fb","ios":"levelo://app?vid=070f3d12-bb37-4403-b26b-dcbccfcf98fb"},"vehicle_type_id":"4","last_reported":1724353641,"current_range_meters":800,"station_id":"ce4bgh92rcd13ifvqb50","pricing_plan_id":"cebpf4jnsgd1na2vs0mg"},{"bike_id":"a6bbf1d0-f765-44c3-b434-42867106aefb","system_id":"levelo_inurba_marseille","lat":43.304278,"lon":5.388868,"is_reserved":false,"is_disabled":false,"rental_uris":{"android":"levelo://app?vid=a6bbf1d0-f765-44c3-b434-42867106aefb","ios":"levelo://app?vid=a6bbf1d0-f765-44c3-b434-42867106aefb"},"vehicle_type_id":"4","last_reported":1724353641,"current_range_meters":24000,"station_id":"ce4bgk12rcd13ifvqbi0","pricing_plan_id":"cebpf4jnsgd1na2vs0mg"},{"bike_id":"c0b1f64d-3363-4444-9f7d-9722890188d7","system_id":"levelo_inurba_marseille","lat":43.297832,"lon":5.380952,"is_reserved":false,"is_disabled":false,"rental_uris":{"android":"levelo://app?vid=c0b1f64d-3363-4444-9f7d-9722890188d7","ios":"levelo://app?vid=c0b1f64d-3363-4444-9f7d-9722890188d7"},"vehicle_type_id":"4","last_reported":1724353641,"current_range_meters":0,"station_id":"ce4bgip2rcd13ifvqbb0","pricing_plan_id":"cebpf4jnsgd1na2vs0mg"},{"bike_id":"0c94aff3-d765-449a-999a-990801623af0","system_id":"levelo_inurba_marseille","lat":43.295748,"lon":5.37522,"is_reserved":false,"is_disabled":false,"rental_uris":{"android":"levelo://app?vid=0c94aff3-d765-449a-999a-990801623af0","ios":"levelo://app?vid=0c94aff3-d765-449a-999a-990801623af0"},"vehicle_type_id":"4","last_reported":1724353641,"current_range_meters":10800,"station_id":"ce4bgh92rcd13ifvqb50","pricing_plan_id":"cebpf4jnsgd1na2vs0mg"},{"bike_id":"1fc3b5df-a89c-4afc-8b36-fb8139ea452c","system_id":"levelo_inurba_marseille","lat":43.295748,"lon":5.37522,"is_reserved":false,"is_disabled":false,"rental_uris":{"android":"levelo://app?vid=1fc3b5df-a89c-4afc-8b36-fb8139ea452c","ios":"levelo://app?vid=1fc3b5df-a89c-4afc-8b36-fb8139ea452c"},"vehicle_type_id":"4","last_reported":1724353641,"current_range_meters":0,"station_id":"ce4bgh92rcd13ifvqb50","pricing_plan_id":"cebpf4jnsgd1na2vs0mg"},{"bike_id":"879f3b18-990b-4465-861b-04b13e3b9809","system_id":"levelo_inurba_marseille","lat":43.298037,"lon":5.381066,"is_reserved":false,"is_disabled":false,"rental_uris":{"android":"levelo://app?vid=879f3b18-990b-4465-861b-04b13e3b9809","ios":"levelo://app?vid=879f3b18-990b-4465-861b-04b13e3b9809"},"vehicle_type_id":"4","last_reported":1724353641,"current_range_meters":16000,"station_id":"ce4bgip2rcd13ifvqbb0","pricing_plan_id":"cebpf4jnsgd1na2vs0mg"},{"bike_id":"6c0a5c27-2db1-4026-bf90-4ddf485554b4","system_id":"levelo_inurba_marseille","lat":43.295748,"lon":5.37522,"is_reserved":false,"is_disabled":false,"rental_uris":{"android":"levelo://app?vid=6c0a5c27-2db1-4026-bf90-4ddf485554b4","ios":"levelo://app?vid=6c0a5c27-2db1-4026-bf90-4ddf485554b4"},"vehicle_type_id":"4","last_reported":1724353641,"current_range_meters":17200,"station_id":"ce4bgh92rcd13ifvqb50","pricing_plan_id":"cebpf4jnsgd1na2vs0mg"},{"bike_id":"b9efe555-ecc7-467c-b8af-84a83c9e603c","system_id":"levelo_inurba_marseille","lat":43.295748,"lon":5.37522,"is_reserved":false,"is_disabled":false,"rental_uris":{"android":"levelo://app?vid=b9efe555-ecc7-467c-b8af-84a83c9e603c","ios":"levelo://app?vid=b9efe555-ecc7-467c-b8af-84a83c9e603c"},"vehicle_type_id":"4","last_reported":1724353641,"current_range_meters":1200,"station_id":"ce4bgh92rcd13ifvqb50","pricing_plan_id":"cebpf4jnsgd1na2vs0mg"},{"bike_id":"055d805a-966d-431e-831b-e9a9eec92276","system_id":"levelo_inurba_marseille","lat":43.295748,"lon":5.37522,"is_reserved":false,"is_disabled":false,"rental_uris":{"android":"levelo://app?vid=055d805a-966d-431e-831b-e9a9eec92276","ios":"levelo://app?vid=055d805a-966d-431e-831b-e9a9eec92276"},"vehicle_type_id":"4","last_reported":1724353641,"current_range_meters":1200,"station_id":"ce4bgh92rcd13ifvqb50","pricing_plan_id":"cebpf4jnsgd1na2vs0mg"},{"bike_id":"d3b6ef0d-2270-43af-83fe-3753ffeea65e","system_id":"levelo_inurba_marseille","lat":43.298037,"lon":5.381066,"is_reserved":false,"is_disabled":false,"rental_uris":{"android":"levelo://app?vid=d3b6ef0d-2270-43af-83fe-3753ffeea65e","ios":"levelo://app?vid=d3b6ef0d-2270-43af-83fe-3753ffeea65e"},"vehicle_type_id":"4","last_reported":1724353641,"current_range_meters":21600,"station_id":"ce4bgip2rcd13ifvqbb0","pricing_plan_id":"cebpf4jnsgd1na2vs0mg"},{"bike_id":"fb7d08e6-7304-4099-a77f-f51c18581a15","system_id":"levelo_inurba_marseille","lat":43.295748,"lon":5.37522,"is_reserved":false,"is_disabled":false,"rental_uris":{"android":"levelo://app?vid=fb7d08e6-7304-4099-a77f-f51c18581a15","ios":"levelo://app?vid=fb7d08e6-7304-4099-a77f-f51c18581a15"},"vehicle_type_id":"4","last_reported":1724353641,"current_range_meters":10800,"station_id":"ce4bgh92rcd13ifvqb50","pricing_plan_id":"cebpf4jnsgd1na2vs0mg"},{"bike_id":"874c7965-7b95-446f-a2d6-d7b8a7cc0cb9","system_id":"levelo_inurba_marseille","lat":43.295748,"lon":5.37522,"is_reserved":false,"is_disabled":false,"rental_uris":{"android":"levelo://app?vid=874c7965-7b95-446f-a2d6-d7b8a7cc0cb9","ios":"levelo://app?vid=874c7965-7b95-446f-a2d6-d7b8a7cc0cb9"},"vehicle_type_id":"4","last_reported":1724353641,"current_range_meters":0,"station_id":"ce4bgh92rcd13ifvqb50","pricing_plan_id":"cebpf4jnsgd1na2vs0mg"},{"bike_id":"023731cf-1ba4-4e57-998f-19331f2b2a71","system_id":"levelo_inurba_marseille","lat":43.29615,"lon":5.37704,"is_reserved":false,"is_disabled":false,"rental_uris":{"android":"levelo://app?vid=023731cf-1ba4-4e57-998f-19331f2b2a71","ios":"levelo://app?vid=023731cf-1ba4-4e57-998f-19331f2b2a71"},"vehicle_type_id":"4","last_reported":1724353641,"current_range_meters":31200,"station_id":"ce4bgi92rcd13ifvqb90","pricing_plan_id":"cebpf4jnsgd1na2vs0mg"},{"bike_id":"a249d606-67c3-48d8-9fbd-1b621962f0c0","system_id":"levelo_inurba_marseille","lat":43.295279,"lon":5.375048,"is_reserved":false,"is_disabled":false,"rental_uris":{"android":"levelo://app?vid=a249d606-67c3-48d8-9fbd-1b621962f0c0","ios":"levelo://app?vid=a249d606-67c3-48d8-9fbd-1b621962f0c0"},"vehicle_type_id":"4","last_reported":1724353641,"current_range_meters":11600,"station_id":"ce4bgkp2rcd13ifvqbmg","pricing_plan_id":"cebpf4jnsgd1na2vs0mg"},{"bike_id":"c24c5fd6-033f-4872-8c34-56278dda18f6","system_id":"levelo_inurba_marseille","lat":43.295279,"lon":5.375048,"is_reserved":false,"is_disabled":false,"rental_uris":{"android":"levelo://app?vid=c24c5fd6-033f-4872-8c34-56278dda18f6","ios":"levelo://app?vid=c24c5fd6-033f-4872-8c34-56278dda18f6"},"vehicle_type_id":"4","last_reported":1724353641,"current_range_meters":17600,"station_id":"ce4bgkp2rcd13ifvqbmg","pricing_plan_id":"cebpf4jnsgd1na2vs0mg"},{"bike_id":"6079845e-1ffb-429b-bd82-93d92afd425e","system_id":"levelo_inurba_marseille","lat":43.295279,"lon":5.375048,"is_reserved":false,"is_disabled":false,"rental_uris":{"android":"levelo://app?vid=6079845e-1ffb-429b-bd82-93d92afd425e","ios":"levelo://app?vid=6079845e-1ffb-429b-bd82-93d92afd425e"},"vehicle_type_id":"4","last_reported":1724353641,"current_range_meters":2800,"station_id":"ce4bgkp2rcd13ifvqbmg","pricing_plan_id":"cebpf4jnsgd1na2vs0mg"},{"bike_id":"254e8e8f-b64c-4ed8-b253-41177ef4bc4e","system_id":"levelo_inurba_marseille","lat":43.295279,"lon":5.375048,"is_reserved":false,"is_disabled":false,"rental_uris":{"android":"levelo://app?vid=254e8e8f-b64c-4ed8-b253-41177ef4bc4e","ios":"levelo://app?vid=254e8e8f-b64c-4ed8-b253-41177ef4bc4e"},"vehicle_type_id":"4","last_reported":1724353641,"current_range_meters":30800,"station_id":"ce4bgkp2rcd13ifvqbmg","pricing_plan_id":"cebpf4jnsgd1na2vs0mg"},{"bike_id":"74d6248f-a07e-4205-978f-6ffca7eb4428","system_id":"levelo_inurba_marseille","lat":43.29528,"lon":5.375015,"is_reserved":false,"is_disabled":false,"rental_uris":{"android":"levelo://app?vid=74d6248f-a07e-4205-978f-6ffca7eb4428","ios":"levelo://app?vid=74d6248f-a07e-4205-978f-6ffca7eb4428"},"vehicle_type_id":"4","last_reported":1724353641,"current_range_meters":12800,"station_id":"ce4bgkp2rcd13ifvqbmg","pricing_plan_id":"cebpf4jnsgd1na2vs0mg"},{"bike_id":"2f34fe53-962a-49ee-a807-745232fcbb99","system_id":"levelo_inurba_marseille","lat":43.299707,"lon":5.384859,"is_reserved":false,"is_disabled":false,"rental_uris":{"android":"levelo://app?vid=2f34fe53-962a-49ee-a807-745232fcbb99","ios":"levelo://app?vid=2f34fe53-962a-49ee-a807-745232fcbb99"},"vehicle_type_id":"4","last_reported":1724353641,"current_range_meters":20400,"station_id":"ce4bgj92rcd13ifvqbd0","pricing_plan_id":"cebpf4jnsgd1na2vs0mg"},{"bike_id":"fe35df3c-1174-421b-8279-bfe4b8ee2220","system_id":"levelo_inurba_marseille","lat":43.299707,"lon":5.384859,"is_reserved":false,"is_disabled":false,"rental_uris":{"android":"levelo://app?vid=fe35df3c-1174-421b-8279-bfe4b8ee2220","ios":"levelo://app?vid=fe35df3c-1174-421b-8279-bfe4b8ee2220"},"vehicle_type_id":"4","last_reported":1724353641,"current_range_meters":2400,"station_id":"ce4bgj92rcd13ifvqbd0","pricing_plan_id":"cebpf4jnsgd1na2vs0mg"},{"bike_id":"03ff120e-fc6a-4f6c-90e4-31313cf40aba","system_id":"levelo_inurba_marseille","lat":43.29523,"lon":5.37505,"is_reserved":false,"is_disabled":false,"rental_uris":{"android":"levelo://app?vid=03ff120e-fc6a-4f6c-90e4-31313cf40aba","ios":"levelo://app?vid=03ff120e-fc6a-4f6c-90e4-31313cf40aba"},"vehicle_type_id":"4","last_reported":1724353641,"current_range_meters":1200,"station_id":"ce4bgkp2rcd13ifvqbmg","pricing_plan_id":"cebpf4jnsgd1na2vs0mg"},{"bike_id":"75ac5353-9641-4631-a31a-9a7a32fd28b4","system_id":"levelo_inurba_marseille","lat":43.295279,"lon":5.375048,"is_reserved":false,"is_disabled":false,"rental_uris":{"android":"levelo://app?vid=75ac5353-9641-4631-a31a-9a7a32fd28b4","ios":"levelo://app?vid=75ac5353-9641-4631-a31a-9a7a32fd28b4"},"vehicle_type_id":"4","last_reported":1724353641,"current_range_meters":23600,"station_id":"ce4bgkp2rcd13ifvqbmg","pricing_plan_id":"cebpf4jnsgd1na2vs0mg"},{"bike_id":"3afcffc3-d008-465e-ba06-b849971f4807","system_id":"levelo_inurba_marseille","lat":43.29517,"lon":5.37506,"is_reserved":false,"is_disabled":false,"rental_uris":{"android":"levelo://app?vid=3afcffc3-d008-465e-ba06-b849971f4807","ios":"levelo://app?vid=3afcffc3-d008-465e-ba06-b849971f4807"},"vehicle_type_id":"4","last_reported":1724353641,"current_range_meters":15200,"station_id":"ce4bgkp2rcd13ifvqbmg","pricing_plan_id":"cebpf4jnsgd1na2vs0mg"},{"bike_id":"75f731e6-f653-43cf-a4ee-b24a803a67da","system_id":"levelo_inurba_marseille","lat":43.298683,"lon":5.38375,"is_reserved":false,"is_disabled":false,"rental_uris":{"android":"levelo://app?vid=75f731e6-f653-43cf-a4ee-b24a803a67da","ios":"levelo://app?vid=75f731e6-f653-43cf-a4ee-b24a803a67da"},"vehicle_type_id":"4","last_reported":1724353641,"current_range_meters":10400,"station_id":"","pricing_plan_id":"cebpf4jnsgd1na2vs0mg"},{"bike_id":"8f2bc3c6-67af-4296-a817-d5ef94d452a0","system_id":"levelo_inurba_marseille","lat":43.29502,"lon":5.37495,"is_reserved":false,"is_disabled":false,"rental_uris":{"android":"levelo://app?vid=8f2bc3c6-67af-4296-a817-d5ef94d452a0","ios":"levelo://app?vid=8f2bc3c6-67af-4296-a817-d5ef94d452a0"},"vehicle_type_id":"4","last_reported":1724353641,"current_range_meters":11600,"station_id":"ce4bgkp2rcd13ifvqbmg","pricing_plan_id":"cebpf4jnsgd1na2vs0mg"},{"bike_id":"9d1684e7-152f-4db8-a069-9d18bc71382d","system_id":"levelo_inurba_marseille","lat":43.29899,"lon":5.38477,"is_reserved":false,"is_disabled":false,"rental_uris":{"android":"levelo://app?vid=9d1684e7-152f-4db8-a069-9d18bc71382d","ios":"levelo://app?vid=9d1684e7-152f-4db8-a069-9d18bc71382d"},"vehicle_type_id":"4","last_reported":1724353641,"current_range_meters":0,"station_id":"","pricing_plan_id":"cebpf4jnsgd1na2vs0mg"},{"bike_id":"dded616a-5a87-4d7f-9d8c-89e1acd7ed95","system_id":"levelo_inurba_marseille","lat":43.29899,"lon":5.38482,"is_reserved":false,"is_disabled":false,"rental_uris":{"android":"levelo://app?vid=dded616a-5a87-4d7f-9d8c-89e1acd7ed95","ios":"levelo://app?vid=dded616a-5a87-4d7f-9d8c-89e1acd7ed95"},"vehicle_type_id":"4","last_reported":1724353641,"current_range_meters":0,"station_id":"","pricing_plan_id":"cebpf4jnsgd1na2vs0mg"},{"bike_id":"61f5d2c0-897c-4c94-b574-b6df4c6958d4","system_id":"levelo_inurba_marseille","lat":43.301396,"lon":5.387812,"is_reserved":false,"is_disabled":false,"rental_uris":{"android":"levelo://app?vid=61f5d2c0-897c-4c94-b574-b6df4c6958d4","ios":"levelo://app?vid=61f5d2c0-897c-4c94-b574-b6df4c6958d4"},"vehicle_type_id":"4","last_reported":1724353641,"current_range_meters":4000,"station_id":"ce4bghh2rcd13ifvqb60","pricing_plan_id":"cebpf4jnsgd1na2vs0mg"},{"bike_id":"bcd7b5b2-38b4-4ed6-b0ca-441527321308","system_id":"levelo_inurba_marseille","lat":43.29602,"lon":5.381084,"is_reserved":false,"is_disabled":false,"rental_uris":{"android":"levelo://app?vid=bcd7b5b2-38b4-4ed6-b0ca-441527321308","ios":"levelo://app?vid=bcd7b5b2-38b4-4ed6-b0ca-441527321308"},"vehicle_type_id":"4","last_reported":1724353641,"current_range_meters":20400,"station_id":"ce4bgl12rcd13ifvqbo0","pricing_plan_id":"cebpf4jnsgd1na2vs0mg"},{"bike_id":"31ff8b11-6376-4c98-8ef8-a3f02103e287","system_id":"levelo_inurba_marseille","lat":43.29602,"lon":5.381084,"is_reserved":false,"is_disabled":false,"rental_uris":{"android":"levelo://app?vid=31ff8b11-6376-4c98-8ef8-a3f02103e287","ios":"levelo://app?vid=31ff8b11-6376-4c98-8ef8-a3f02103e287"},"vehicle_type_id":"4","last_reported":1724353641,"current_range_meters":4400,"station_id":"ce4bgl12rcd13ifvqbo0","pricing_plan_id":"cebpf4jnsgd1na2vs0mg"},{"bike_id":"8dcc7b88-b68d-47de-a072-99441a8ecbd6","system_id":"levelo_inurba_marseille","lat":43.29339,"lon":5.37109,"is_reserved":false,"is_disabled":false,"rental_uris":{"android":"levelo://app?vid=8dcc7b88-b68d-47de-a072-99441a8ecbd6","ios":"levelo://app?vid=8dcc7b88-b68d-47de-a072-99441a8ecbd6"},"vehicle_type_id":"4","last_reported":1724353641,"current_range_meters":10000,"station_id":"","pricing_plan_id":"cebpf4jnsgd1na2vs0mg"},{"bike_id":"edd7c3ed-587c-4583-82bc-db139017fe81","system_id":"levelo_inurba_marseille","lat":43.29606,"lon":5.38106,"is_reserved":false,"is_disabled":false,"rental_uris":{"android":"levelo://app?vid=edd7c3ed-587c-4583-82bc-db139017fe81","ios":"levelo://app?vid=edd7c3ed-587c-4583-82bc-db139017fe81"},"vehicle_type_id":"4","last_reported":1724353641,"current_range_meters":7200,"station_id":"ce4bgl12rcd13ifvqbo0","pricing_plan_id":"cebpf4jnsgd1na2vs0mg"},{"bike_id":"b4461778-3d59-4567-8e37-ac550884be36","system_id":"levelo_inurba_marseille","lat":43.29601,"lon":5.381084,"is_reserved":false,"is_disabled":false,"rental_uris":{"android":"levelo://app?vid=b4461778-3d59-4567-8e37-ac550884be36","ios":"levelo://app?vid=b4461778-3d59-4567-8e37-ac550884be36"},"vehicle_type_id":"4","last_reported":1724353641,"current_range_meters":5200,"station_id":"ce4bgl12rcd13ifvqbo0","pricing_plan_id":"cebpf4jnsgd1na2vs0mg"},{"bike_id":"0dfcaee0-5dfc-4503-bd42-41a9a5c3b1c6","system_id":"levelo_inurba_marseille","lat":43.29602,"lon":5.381084,"is_reserved":false,"is_disabled":false,"rental_uris":{"android":"levelo://app?vid=0dfcaee0-5dfc-4503-bd42-41a9a5c3b1c6","ios":"levelo://app?vid=0dfcaee0-5dfc-4503-bd42-41a9a5c3b1c6"},"vehicle_type_id":"4","last_reported":1724353641,"current_range_meters":6000,"station_id":"ce4bgl12rcd13ifvqbo0","pricing_plan_id":"cebpf4jnsgd1na2vs0mg"},{"bike_id":"458b76da-8402-40aa-bf96-35e87e6bfb72","system_id":"levelo_inurba_marseille","lat":43.29602,"lon":5.381084,"is_reserved":false,"is_disabled":false,"rental_uris":{"android":"levelo://app?vid=458b76da-8402-40aa-bf96-35e87e6bfb72","ios":"levelo://app?vid=458b76da-8402-40aa-bf96-35e87e6bfb72"},"vehicle_type_id":"4","last_reported":1724353641,"current_range_meters":9200,"station_id":"ce4bgl12rcd13ifvqbo0","pricing_plan_id":"cebpf4jnsgd1na2vs0mg"},{"bike_id":"ed6b2a7d-3ace-4ffa-ab4a-b5bcc8c715f0","system_id":"levelo_inurba_marseille","lat":43.293249,"lon":5.371578,"is_reserved":false,"is_disabled":false,"rental_uris":{"android":"levelo://app?vid=ed6b2a7d-3ace-4ffa-ab4a-b5bcc8c715f0","ios":"levelo://app?vid=ed6b2a7d-3ace-4ffa-ab4a-b5bcc8c715f0"},"vehicle_type_id":"4","last_reported":1724353641,"current_range_meters":11200,"station_id":"ce4bgh92rcd13ifvqb40","pricing_plan_id":"cebpf4jnsgd1na2vs0mg"},{"bike_id":"f0e831b5-5a09-48d8-a916-559d8589d268","system_id":"levelo_inurba_marseille","lat":43.293249,"lon":5.371578,"is_reserved":false,"is_disabled":false,"rental_uris":{"android":"levelo://app?vid=f0e831b5-5a09-48d8-a916-559d8589d268","ios":"levelo://app?vid=f0e831b5-5a09-48d8-a916-559d8589d268"},"vehicle_type_id":"4","last_reported":1724353641,"current_range_meters":0,"station_id":"ce4bgh92rcd13ifvqb40","pricing_plan_id":"cebpf4jnsgd1na2vs0mg"},{"bike_id":"497c4a26-685f-457a-861b-2f61eb4fae35","system_id":"levelo_inurba_marseille","lat":43.293249,"lon":5.371578,"is_reserved":false,"is_disabled":false,"rental_uris":{"android":"levelo://app?vid=497c4a26-685f-457a-861b-2f61eb4fae35","ios":"levelo://app?vid=497c4a26-685f-457a-861b-2f61eb4fae35"},"vehicle_type_id":"4","last_reported":1724353641,"current_range_meters":31200,"station_id":"ce4bgh92rcd13ifvqb40","pricing_plan_id":"cebpf4jnsgd1na2vs0mg"},{"bike_id":"237c6935-b00b-48de-b9fb-c14a158443a6","system_id":"levelo_inurba_marseille","lat":43.29309,"lon":5.37183,"is_reserved":false,"is_disabled":false,"rental_uris":{"android":"levelo://app?vid=237c6935-b00b-48de-b9fb-c14a158443a6","ios":"levelo://app?vid=237c6935-b00b-48de-b9fb-c14a158443a6"},"vehicle_type_id":"4","last_reported":1724353641,"current_range_meters":2000,"station_id":"ce4bgh92rcd13ifvqb40","pricing_plan_id":"cebpf4jnsgd1na2vs0mg"},{"bike_id":"34cedda0-b4c2-4f0f-97ca-71fe11bb1719","system_id":"levelo_inurba_marseille","lat":43.293249,"lon":5.371578,"is_reserved":false,"is_disabled":false,"rental_uris":{"android":"levelo://app?vid=34cedda0-b4c2-4f0f-97ca-71fe11bb1719","ios":"levelo://app?vid=34cedda0-b4c2-4f0f-97ca-71fe11bb1719"},"vehicle_type_id":"4","last_reported":1724353641,"current_range_meters":0,"station_id":"ce4bgh92rcd13ifvqb40","pricing_plan_id":"cebpf4jnsgd1na2vs0mg"},{"bike_id":"edc98ba8-ebbd-4873-9f2e-2454af4276ba","system_id":"levelo_inurba_marseille","lat":43.292749,"lon":5.368402,"is_reserved":false,"is_disabled":false,"rental_uris":{"android":"levelo://app?vid=edc98ba8-ebbd-4873-9f2e-2454af4276ba","ios":"levelo://app?vid=edc98ba8-ebbd-4873-9f2e-2454af4276ba"},"vehicle_type_id":"4","last_reported":1724353641,"current_range_meters":31200,"station_id":"ce4bhbp2rcd13ifvqesg","pricing_plan_id":"cebpf4jnsgd1na2vs0mg"},{"bike_id":"4247b0af-27f5-404d-aff3-4cb87a2a30cc","system_id":"levelo_inurba_marseille","lat":43.292749,"lon":5.368402,"is_reserved":false,"is_disabled":false,"rental_uris":{"android":"levelo://app?vid=4247b0af-27f5-404d-aff3-4cb87a2a30cc","ios":"levelo://app?vid=4247b0af-27f5-404d-aff3-4cb87a2a30cc"},"vehicle_type_id":"4","last_reported":1724353641,"current_range_meters":31200,"station_id":"ce4bhbp2rcd13ifvqesg","pricing_plan_id":"cebpf4jnsgd1na2vs0mg"},{"bike_id":"386ec534-c8be-4920-91ef-3b27a6b8a8e6","system_id":"levelo_inurba_marseille","lat":43.293259,"lon":5.371586,"is_reserved":false,"is_disabled":false,"rental_uris":{"android":"levelo://app?vid=386ec534-c8be-4920-91ef-3b27a6b8a8e6","ios":"levelo://app?vid=386ec534-c8be-4920-91ef-3b27a6b8a8e6"},"vehicle_type_id":"4","last_reported":1724353641,"current_range_meters":0,"station_id":"ce4bgh92rcd13ifvqb40","pricing_plan_id":"cebpf4jnsgd1na2vs0mg"},{"bike_id":"24543dcb-6c5c-4948-bc6f-45e82a6275e0","system_id":"levelo_inurba_marseille","lat":43.292749,"lon":5.368402,"is_reserved":false,"is_disabled":false,"rental_uris":{"android":"levelo://app?vid=24543dcb-6c5c-4948-bc6f-45e82a6275e0","ios":"levelo://app?vid=24543dcb-6c5c-4948-bc6f-45e82a6275e0"},"vehicle_type_id":"4","last_reported":1724353641,"current_range_meters":25600,"station_id":"ce4bhbp2rcd13ifvqesg","pricing_plan_id":"cebpf4jnsgd1na2vs0mg"},{"bike_id":"bfb96da9-be76-4736-97f0-c405b6ab0e94","system_id":"levelo_inurba_marseille","lat":43.292749,"lon":5.368402,"is_reserved":false,"is_disabled":false,"rental_uris":{"android":"levelo://app?vid=bfb96da9-be76-4736-97f0-c405b6ab0e94","ios":"levelo://app?vid=bfb96da9-be76-4736-97f0-c405b6ab0e94"},"vehicle_type_id":"4","last_reported":1724353641,"current_range_meters":24000,"station_id":"ce4bhbp2rcd13ifvqesg","pricing_plan_id":"cebpf4jnsgd1na2vs0mg"},{"bike_id":"144574a7-8a42-42b6-ba1f-43d54bd69ac0","system_id":"levelo_inurba_marseille","lat":43.292749,"lon":5.368398,"is_reserved":false,"is_disabled":false,"rental_uris":{"android":"levelo://app?vid=144574a7-8a42-42b6-ba1f-43d54bd69ac0","ios":"levelo://app?vid=144574a7-8a42-42b6-ba1f-43d54bd69ac0"},"vehicle_type_id":"4","last_reported":1724353641,"current_range_meters":800,"station_id":"ce4bhbp2rcd13ifvqesg","pricing_plan_id":"cebpf4jnsgd1na2vs0mg"},{"bike_id":"6a421e4f-e247-417c-b6a3-02f965fecb2d","system_id":"levelo_inurba_marseille","lat":43.292749,"lon":5.368402,"is_reserved":false,"is_disabled":false,"rental_uris":{"android":"levelo://app?vid=6a421e4f-e247-417c-b6a3-02f965fecb2d","ios":"levelo://app?vid=6a421e4f-e247-417c-b6a3-02f965fecb2d"},"vehicle_type_id":"4","last_reported":1724353641,"current_range_meters":20400,"station_id":"ce4bhbp2rcd13ifvqesg","pricing_plan_id":"cebpf4jnsgd1na2vs0mg"},{"bike_id":"94c3c90e-205d-4910-ab40-3135fc6a2385","system_id":"levelo_inurba_marseille","lat":43.292749,"lon":5.368402,"is_reserved":false,"is_disabled":false,"rental_uris":{"android":"levelo://app?vid=94c3c90e-205d-4910-ab40-3135fc6a2385","ios":"levelo://app?vid=94c3c90e-205d-4910-ab40-3135fc6a2385"},"vehicle_type_id":"4","last_reported":1724353641,"current_range_meters":27600,"station_id":"ce4bhbp2rcd13ifvqesg","pricing_plan_id":"cebpf4jnsgd1na2vs0mg"},{"bike_id":"2e55e118-2bfd-4ca9-9150-7bfd0e390727","system_id":"levelo_inurba_marseille","lat":43.292749,"lon":5.368402,"is_reserved":false,"is_disabled":false,"rental_uris":{"android":"levelo://app?vid=2e55e118-2bfd-4ca9-9150-7bfd0e390727","ios":"levelo://app?vid=2e55e118-2bfd-4ca9-9150-7bfd0e390727"},"vehicle_type_id":"4","last_reported":1724353641,"current_range_meters":31200,"station_id":"ce4bhbp2rcd13ifvqesg","pricing_plan_id":"cebpf4jnsgd1na2vs0mg"},{"bike_id":"48335875-94ee-40f0-be97-92910dce3cc1","system_id":"levelo_inurba_marseille","lat":43.292749,"lon":5.368398,"is_reserved":false,"is_disabled":false,"rental_uris":{"android":"levelo://app?vid=48335875-94ee-40f0-be97-92910dce3cc1","ios":"levelo://app?vid=48335875-94ee-40f0-be97-92910dce3cc1"},"vehicle_type_id":"4","last_reported":1724353641,"current_range_meters":18000,"station_id":"ce4bhbp2rcd13ifvqesg","pricing_plan_id":"cebpf4jnsgd1na2vs0mg"},{"bike_id":"62fd5003-eee3-4575-99f9-a6dcab2e846e","system_id":"levelo_inurba_marseille","lat":43.292749,"lon":5.368398,"is_reserved":false,"is_disabled":false,"rental_uris":{"android":"levelo://app?vid=62fd5003-eee3-4575-99f9-a6dcab2e846e","ios":"levelo://app?vid=62fd5003-eee3-4575-99f9-a6dcab2e846e"},"vehicle_type_id":"4","last_reported":1724353641,"current_range_meters":25200,"station_id":"ce4bhbp2rcd13ifvqesg","pricing_plan_id":"cebpf4jnsgd1na2vs0mg"},{"bike_id":"57e65164-7430-4499-869d-42f329416a5a","system_id":"levelo_inurba_marseille","lat":43.293259,"lon":5.371586,"is_reserved":false,"is_disabled":false,"rental_uris":{"android":"levelo://app?vid=57e65164-7430-4499-869d-42f329416a5a","ios":"levelo://app?vid=57e65164-7430-4499-869d-42f329416a5a"},"vehicle_type_id":"4","last_reported":1724353641,"current_range_meters":5200,"station_id":"ce4bgh92rcd13ifvqb40","pricing_plan_id":"cebpf4jnsgd1na2vs0mg"},{"bike_id":"95ffd3a2-ca7e-41d1-afba-54d774331c0d","system_id":"levelo_inurba_marseille","lat":43.292749,"lon":5.368402,"is_reserved":false,"is_disabled":false,"rental_uris":{"android":"levelo://app?vid=95ffd3a2-ca7e-41d1-afba-54d774331c0d","ios":"levelo://app?vid=95ffd3a2-ca7e-41d1-afba-54d774331c0d"},"vehicle_type_id":"4","last_reported":1724353641,"current_range_meters":10400,"station_id":"ce4bhbp2rcd13ifvqesg","pricing_plan_id":"cebpf4jnsgd1na2vs0mg"},{"bike_id":"14b0c956-7c4f-4b25-ac4d-20fe3b67ec11","system_id":"levelo_inurba_marseille","lat":43.29301,"lon":5.37178,"is_reserved":false,"is_disabled":false,"rental_uris":{"android":"levelo://app?vid=14b0c956-7c4f-4b25-ac4d-20fe3b67ec11","ios":"levelo://app?vid=14b0c956-7c4f-4b25-ac4d-20fe3b67ec11"},"vehicle_type_id":"4","last_reported":1724353641,"current_range_meters":0,"station_id":"ce4bgh92rcd13ifvqb40","pricing_plan_id":"cebpf4jnsgd1na2vs0mg"},{"bike_id":"c751e591-3690-4620-b7e2-eca4615f283f","system_id":"levelo_inurba_marseille","lat":43.29263,"lon":5.36853,"is_reserved":false,"is_disabled":false,"rental_uris":{"android":"levelo://app?vid=c751e591-3690-4620-b7e2-eca4615f283f","ios":"levelo://app?vid=c751e591-3690-4620-b7e2-eca4615f283f"},"vehicle_type_id":"4","last_reported":1724353641,"current_range_meters":31200,"station_id":"ce4bhbp2rcd13ifvqesg","pricing_plan_id":"cebpf4jnsgd1na2vs0mg"},{"bike_id":"1357cc45-4bce-48be-8ba9-1402b4ce6303","system_id":"levelo_inurba_marseille","lat":43.29308,"lon":5.37468,"is_reserved":false,"is_disabled":false,"rental_uris":{"android":"levelo://app?vid=1357cc45-4bce-48be-8ba9-1402b4ce6303","ios":"levelo://app?vid=1357cc45-4bce-48be-8ba9-1402b4ce6303"},"vehicle_type_id":"4","last_reported":1724353641,"current_range_meters":21600,"station_id":"ce4bgi12rcd13ifvqb70","pricing_plan_id":"cebpf4jnsgd1na2vs0mg"},{"bike_id":"3516f839-2bb2-437c-a0b8-b7693a0d2492","system_id":"levelo_inurba_marseille","lat":43.29308,"lon":5.3747,"is_reserved":false,"is_disabled":false,"rental_uris":{"android":"levelo://app?vid=3516f839-2bb2-437c-a0b8-b7693a0d2492","ios":"levelo://app?vid=3516f839-2bb2-437c-a0b8-b7693a0d2492"},"vehicle_type_id":"4","last_reported":1724353641,"current_range_meters":15200,"station_id":"ce4bgi12rcd13ifvqb70","pricing_plan_id":"cebpf4jnsgd1na2vs0mg"},{"bike_id":"b71cac3a-bcb7-4316-ba1c-098d57992a70","system_id":"levelo_inurba_marseille","lat":43.305994,"lon":5.393687,"is_reserved":false,"is_disabled":false,"rental_uris":{"android":"levelo://app?vid=b71cac3a-bcb7-4316-ba1c-098d57992a70","ios":"levelo://app?vid=b71cac3a-bcb7-4316-ba1c-098d57992a70"},"vehicle_type_id":"4","last_reported":1724353641,"current_range_meters":28400,"station_id":"ce4bh0p2rcd13ifvqd80","pricing_plan_id":"cebpf4jnsgd1na2vs0mg"},{"bike_id":"4adbf08b-57dd-4c85-81ed-c7928c64b70c","system_id":"levelo_inurba_marseille","lat":43.29297,"lon":5.37461,"is_reserved":false,"is_disabled":false,"rental_uris":{"android":"levelo://app?vid=4adbf08b-57dd-4c85-81ed-c7928c64b70c","ios":"levelo://app?vid=4adbf08b-57dd-4c85-81ed-c7928c64b70c"},"vehicle_type_id":"4","last_reported":1724353641,"current_range_meters":20400,"station_id":"ce4bgi12rcd13ifvqb70","pricing_plan_id":"cebpf4jnsgd1na2vs0mg"},{"bike_id":"2632b6f7-ad46-4081-840f-6eab4dd84cb3","system_id":"levelo_inurba_marseille","lat":43.293009,"lon":5.374584,"is_reserved":false,"is_disabled":false,"rental_uris":{"android":"levelo://app?vid=2632b6f7-ad46-4081-840f-6eab4dd84cb3","ios":"levelo://app?vid=2632b6f7-ad46-4081-840f-6eab4dd84cb3"},"vehicle_type_id":"4","last_reported":1724353641,"current_range_meters":3200,"station_id":"ce4bgi12rcd13ifvqb70","pricing_plan_id":"cebpf4jnsgd1na2vs0mg"},{"bike_id":"f36bea25-76b5-4d87-ab05-eb39210f1cb4","system_id":"levelo_inurba_marseille","lat":43.305994,"lon":5.393687,"is_reserved":false,"is_disabled":false,"rental_uris":{"android":"levelo://app?vid=f36bea25-76b5-4d87-ab05-eb39210f1cb4","ios":"levelo://app?vid=f36bea25-76b5-4d87-ab05-eb39210f1cb4"},"vehicle_type_id":"4","last_reported":1724353641,"current_range_meters":21600,"station_id":"ce4bh0p2rcd13ifvqd80","pricing_plan_id":"cebpf4jnsgd1na2vs0mg"},{"bike_id":"03cafd97-7693-4430-88b9-7ef15ef3ae57","system_id":"levelo_inurba_marseille","lat":43.29292,"lon":5.37454,"is_reserved":false,"is_disabled":false,"rental_uris":{"android":"levelo://app?vid=03cafd97-7693-4430-88b9-7ef15ef3ae57","ios":"levelo://app?vid=03cafd97-7693-4430-88b9-7ef15ef3ae57"},"vehicle_type_id":"4","last_reported":1724353641,"current_range_meters":24400,"station_id":"ce4bgi12rcd13ifvqb70","pricing_plan_id":"cebpf4jnsgd1na2vs0mg"},{"bike_id":"1b8123f2-0807-477e-af6f-da5807e37834","system_id":"levelo_inurba_marseille","lat":43.292918,"lon":5.374598,"is_reserved":false,"is_disabled":false,"rental_uris":{"android":"levelo://app?vid=1b8123f2-0807-477e-af6f-da5807e37834","ios":"levelo://app?vid=1b8123f2-0807-477e-af6f-da5807e37834"},"vehicle_type_id":"4","last_reported":1724353641,"current_range_meters":4400,"station_id":"ce4bgi12rcd13ifvqb70","pricing_plan_id":"cebpf4jnsgd1na2vs0mg"},{"bike_id":"56d1655e-8acf-4564-8aa9-0039cac2e04d","system_id":"levelo_inurba_marseille","lat":43.293009,"lon":5.374584,"is_reserved":false,"is_disabled":false,"rental_uris":{"android":"levelo://app?vid=56d1655e-8acf-4564-8aa9-0039cac2e04d","ios":"levelo://app?vid=56d1655e-8acf-4564-8aa9-0039cac2e04d"},"vehicle_type_id":"4","last_reported":1724353641,"current_range_meters":9600,"station_id":"ce4bgi12rcd13ifvqb70","pricing_plan_id":"cebpf4jnsgd1na2vs0mg"},{"bike_id":"3735b84b-1bf0-420b-9c49-67519c10f9a5","system_id":"levelo_inurba_marseille","lat":43.2936,"lon":5.37835,"is_reserved":false,"is_disabled":false,"rental_uris":{"android":"levelo://app?vid=3735b84b-1bf0-420b-9c49-67519c10f9a5","ios":"levelo://app?vid=3735b84b-1bf0-420b-9c49-67519c10f9a5"},"vehicle_type_id":"4","last_reported":1724353641,"current_range_meters":13200,"station_id":"ce4bgjh2rcd13ifvqbf0","pricing_plan_id":"cebpf4jnsgd1na2vs0mg"},{"bike_id":"d8433ea0-b268-4e35-84d8-1669fbf71d05","system_id":"levelo_inurba_marseille","lat":43.290779,"lon":5.371482,"is_reserved":false,"is_disabled":false,"rental_uris":{"android":"levelo://app?vid=d8433ea0-b268-4e35-84d8-1669fbf71d05","ios":"levelo://app?vid=d8433ea0-b268-4e35-84d8-1669fbf71d05"},"vehicle_type_id":"4","last_reported":1724353641,"current_range_meters":8400,"station_id":"ce4bh5p2rcd13ifvqe4g","pricing_plan_id":"cebpf4jnsgd1na2vs0mg"},{"bike_id":"8e716fc0-4d2e-492c-8130-7072a2dab59d","system_id":"levelo_inurba_marseille","lat":43.2936,"lon":5.37835,"is_reserved":false,"is_disabled":false,"rental_uris":{"android":"levelo://app?vid=8e716fc0-4d2e-492c-8130-7072a2dab59d","ios":"levelo://app?vid=8e716fc0-4d2e-492c-8130-7072a2dab59d"},"vehicle_type_id":"4","last_reported":1724353641,"current_range_meters":10000,"station_id":"ce4bgjh2rcd13ifvqbf0","pricing_plan_id":"cebpf4jnsgd1na2vs0mg"},{"bike_id":"0a9ecb25-fe7b-4cab-ad5d-002defa1626f","system_id":"levelo_inurba_marseille","lat":43.2936,"lon":5.37835,"is_reserved":false,"is_disabled":false,"rental_uris":{"android":"levelo://app?vid=0a9ecb25-fe7b-4cab-ad5d-002defa1626f","ios":"levelo://app?vid=0a9ecb25-fe7b-4cab-ad5d-002defa1626f"},"vehicle_type_id":"4","last_reported":1724353641,"current_range_meters":18000,"station_id":"ce4bgjh2rcd13ifvqbf0","pricing_plan_id":"cebpf4jnsgd1na2vs0mg"},{"bike_id":"fdf5ab4e-fd4f-415b-ba94-242bb89a5fce","system_id":"levelo_inurba_marseille","lat":43.302992,"lon":5.392136,"is_reserved":false,"is_disabled":false,"rental_uris":{"android":"levelo://app?vid=fdf5ab4e-fd4f-415b-ba94-242bb89a5fce","ios":"levelo://app?vid=fdf5ab4e-fd4f-415b-ba94-242bb89a5fce"},"vehicle_type_id":"4","last_reported":1724353641,"current_range_meters":2400,"station_id":"ce4bgkh2rcd13ifvqbk0","pricing_plan_id":"cebpf4jnsgd1na2vs0mg"},{"bike_id":"1bd752eb-3228-4992-a2bd-a6d45d73c58a","system_id":"levelo_inurba_marseille","lat":43.30085,"lon":5.390856,"is_reserved":false,"is_disabled":false,"rental_uris":{"android":"levelo://app?vid=1bd752eb-3228-4992-a2bd-a6d45d73c58a","ios":"levelo://app?vid=1bd752eb-3228-4992-a2bd-a6d45d73c58a"},"vehicle_type_id":"4","last_reported":1724353641,"current_range_meters":4000,"station_id":"ce4bh192rcd13ifvqdb0","pricing_plan_id":"cebpf4jnsgd1na2vs0mg"},{"bike_id":"b667f2d8-b99d-47c6-b257-52d0c1f71884","system_id":"levelo_inurba_marseille","lat":43.29232,"lon":5.36067,"is_reserved":false,"is_disabled":false,"rental_uris":{"android":"levelo://app?vid=b667f2d8-b99d-47c6-b257-52d0c1f71884","ios":"levelo://app?vid=b667f2d8-b99d-47c6-b257-52d0c1f71884"},"vehicle_type_id":"4","last_reported":1724353641,"current_range_meters":31200,"station_id":"ce4bhbh2rcd13ifvqeqg","pricing_plan_id":"cebpf4jnsgd1na2vs0mg"},{"bike_id":"e7f6e948-ebd7-4b73-a79c-94a324dc06a2","system_id":"levelo_inurba_marseille","lat":43.2936,"lon":5.37835,"is_reserved":false,"is_disabled":false,"rental_uris":{"android":"levelo://app?vid=e7f6e948-ebd7-4b73-a79c-94a324dc06a2","ios":"levelo://app?vid=e7f6e948-ebd7-4b73-a79c-94a324dc06a2"},"vehicle_type_id":"4","last_reported":1724353641,"current_range_meters":13600,"station_id":"ce4bgjh2rcd13ifvqbf0","pricing_plan_id":"cebpf4jnsgd1na2vs0mg"},{"bike_id":"a86d2237-11d5-4ad7-a372-e750f7864310","system_id":"levelo_inurba_marseille","lat":43.30085,"lon":5.390856,"is_reserved":false,"is_disabled":false,"rental_uris":{"android":"levelo://app?vid=a86d2237-11d5-4ad7-a372-e750f7864310","ios":"levelo://app?vid=a86d2237-11d5-4ad7-a372-e750f7864310"},"vehicle_type_id":"4","last_reported":1724353641,"current_range_meters":14400,"station_id":"ce4bh192rcd13ifvqdb0","pricing_plan_id":"cebpf4jnsgd1na2vs0mg"},{"bike_id":"156bc2c8-5ce3-4815-80b6-27837f007dfd","system_id":"levelo_inurba_marseille","lat":43.30101,"lon":5.39082,"is_reserved":false,"is_disabled":false,"rental_uris":{"android":"levelo://app?vid=156bc2c8-5ce3-4815-80b6-27837f007dfd","ios":"levelo://app?vid=156bc2c8-5ce3-4815-80b6-27837f007dfd"},"vehicle_type_id":"4","last_reported":1724353641,"current_range_meters":12000,"station_id":"ce4bh192rcd13ifvqdb0","pricing_plan_id":"cebpf4jnsgd1na2vs0mg"},{"bike_id":"1b8a5b0e-7a57-455a-88c6-b4157d973614","system_id":"levelo_inurba_marseille","lat":43.30085,"lon":5.390856,"is_reserved":false,"is_disabled":false,"rental_uris":{"android":"levelo://app?vid=1b8a5b0e-7a57-455a-88c6-b4157d973614","ios":"levelo://app?vid=1b8a5b0e-7a57-455a-88c6-b4157d973614"},"vehicle_type_id":"4","last_reported":1724353641,"current_range_meters":16400,"station_id":"ce4bh192rcd13ifvqdb0","pricing_plan_id":"cebpf4jnsgd1na2vs0mg"},{"bike_id":"4230e4e7-4780-44aa-a97d-3cf3583259e8","system_id":"levelo_inurba_marseille","lat":43.29226,"lon":5.3605,"is_reserved":false,"is_disabled":false,"rental_uris":{"android":"levelo://app?vid=4230e4e7-4780-44aa-a97d-3cf3583259e8","ios":"levelo://app?vid=4230e4e7-4780-44aa-a97d-3cf3583259e8"},"vehicle_type_id":"4","last_reported":1724353641,"current_range_meters":0,"station_id":"ce4bhbh2rcd13ifvqeqg","pricing_plan_id":"cebpf4jnsgd1na2vs0mg"},{"bike_id":"b68c5144-3782-4d36-9a5e-bf85d657dad5","system_id":"levelo_inurba_marseille","lat":43.30085,"lon":5.390856,"is_reserved":false,"is_disabled":false,"rental_uris":{"android":"levelo://app?vid=b68c5144-3782-4d36-9a5e-bf85d657dad5","ios":"levelo://app?vid=b68c5144-3782-4d36-9a5e-bf85d657dad5"},"vehicle_type_id":"4","last_reported":1724353641,"current_range_meters":4400,"station_id":"ce4bh192rcd13ifvqdb0","pricing_plan_id":"cebpf4jnsgd1na2vs0mg"},{"bike_id":"357cbcc1-2c67-4dea-b6f7-fa84cfa0135a","system_id":"levelo_inurba_marseille","lat":43.30086,"lon":5.3908,"is_reserved":false,"is_disabled":false,"rental_uris":{"android":"levelo://app?vid=357cbcc1-2c67-4dea-b6f7-fa84cfa0135a","ios":"levelo://app?vid=357cbcc1-2c67-4dea-b6f7-fa84cfa0135a"},"vehicle_type_id":"4","last_reported":1724353641,"current_range_meters":0,"station_id":"ce4bh192rcd13ifvqdb0","pricing_plan_id":"cebpf4jnsgd1na2vs0mg"},{"bike_id":"3f6d4c5c-235c-4898-bd39-95699f504639","system_id":"levelo_inurba_marseille","lat":43.30085,"lon":5.390856,"is_reserved":false,"is_disabled":false,"rental_uris":{"android":"levelo://app?vid=3f6d4c5c-235c-4898-bd39-95699f504639","ios":"levelo://app?vid=3f6d4c5c-235c-4898-bd39-95699f504639"},"vehicle_type_id":"4","last_reported":1724353641,"current_range_meters":24000,"station_id":"ce4bh192rcd13ifvqdb0","pricing_plan_id":"cebpf4jnsgd1na2vs0mg"},{"bike_id":"e929a442-5dca-4aa2-999b-1b3e15fdfb62","system_id":"levelo_inurba_marseille","lat":43.298764,"lon":5.388973,"is_reserved":false,"is_disabled":false,"rental_uris":{"android":"levelo://app?vid=e929a442-5dca-4aa2-999b-1b3e15fdfb62","ios":"levelo://app?vid=e929a442-5dca-4aa2-999b-1b3e15fdfb62"},"vehicle_type_id":"4","last_reported":1724353641,"current_range_meters":1200,"station_id":"ce4bh392rcd13ifvqdl0","pricing_plan_id":"cebpf4jnsgd1na2vs0mg"},{"bike_id":"ff1ae93e-c889-4f27-82da-c7bd07011419","system_id":"levelo_inurba_marseille","lat":43.298764,"lon":5.388973,"is_reserved":false,"is_disabled":false,"rental_uris":{"android":"levelo://app?vid=ff1ae93e-c889-4f27-82da-c7bd07011419","ios":"levelo://app?vid=ff1ae93e-c889-4f27-82da-c7bd07011419"},"vehicle_type_id":"4","last_reported":1724353641,"current_range_meters":12400,"station_id":"ce4bh392rcd13ifvqdl0","pricing_plan_id":"cebpf4jnsgd1na2vs0mg"},{"bike_id":"348132cc-a878-4132-947a-3fb718526e42","system_id":"levelo_inurba_marseille","lat":43.298764,"lon":5.388973,"is_reserved":false,"is_disabled":false,"rental_uris":{"android":"levelo://app?vid=348132cc-a878-4132-947a-3fb718526e42","ios":"levelo://app?vid=348132cc-a878-4132-947a-3fb718526e42"},"vehicle_type_id":"4","last_reported":1724353641,"current_range_meters":15200,"station_id":"ce4bh392rcd13ifvqdl0","pricing_plan_id":"cebpf4jnsgd1na2vs0mg"},{"bike_id":"b7791f44-c5f0-4757-97c6-d82e34425eaa","system_id":"levelo_inurba_marseille","lat":43.29872,"lon":5.38896,"is_reserved":false,"is_disabled":false,"rental_uris":{"android":"levelo://app?vid=b7791f44-c5f0-4757-97c6-d82e34425eaa","ios":"levelo://app?vid=b7791f44-c5f0-4757-97c6-d82e34425eaa"},"vehicle_type_id":"4","last_reported":1724353641,"current_range_meters":11200,"station_id":"ce4bh392rcd13ifvqdl0","pricing_plan_id":"cebpf4jnsgd1na2vs0mg"},{"bike_id":"a3ac9c25-116c-41ba-8131-0be99917e2ed","system_id":"levelo_inurba_marseille","lat":43.298764,"lon":5.388973,"is_reserved":false,"is_disabled":false,"rental_uris":{"android":"levelo://app?vid=a3ac9c25-116c-41ba-8131-0be99917e2ed","ios":"levelo://app?vid=a3ac9c25-116c-41ba-8131-0be99917e2ed"},"vehicle_type_id":"4","last_reported":1724353641,"current_range_meters":28000,"station_id":"ce4bh392rcd13ifvqdl0","pricing_plan_id":"cebpf4jnsgd1na2vs0mg"},{"bike_id":"a7fb712f-59b2-4a44-85b0-9d9137501496","system_id":"levelo_inurba_marseille","lat":43.291671,"lon":5.371575,"is_reserved":false,"is_disabled":false,"rental_uris":{"android":"levelo://app?vid=a7fb712f-59b2-4a44-85b0-9d9137501496","ios":"levelo://app?vid=a7fb712f-59b2-4a44-85b0-9d9137501496"},"vehicle_type_id":"4","last_reported":1724353641,"current_range_meters":3600,"station_id":"ce4bha92rcd13ifvqeh0","pricing_plan_id":"cebpf4jnsgd1na2vs0mg"},{"bike_id":"6fb8eccb-1166-4983-9b82-30bbcd28d50a","system_id":"levelo_inurba_marseille","lat":43.292005,"lon":5.357875,"is_reserved":false,"is_disabled":false,"rental_uris":{"android":"levelo://app?vid=6fb8eccb-1166-4983-9b82-30bbcd28d50a","ios":"levelo://app?vid=6fb8eccb-1166-4983-9b82-30bbcd28d50a"},"vehicle_type_id":"4","last_reported":1724353641,"current_range_meters":2000,"station_id":"ce4bhb12rcd13ifvqel0","pricing_plan_id":"cebpf4jnsgd1na2vs0mg"},{"bike_id":"7c6a18a7-8e73-4cef-a743-a06fad2f6b91","system_id":"levelo_inurba_marseille","lat":43.3133,"lon":5.39688,"is_reserved":false,"is_disabled":false,"rental_uris":{"android":"levelo://app?vid=7c6a18a7-8e73-4cef-a743-a06fad2f6b91","ios":"levelo://app?vid=7c6a18a7-8e73-4cef-a743-a06fad2f6b91"},"vehicle_type_id":"4","last_reported":1724353641,"current_range_meters":0,"station_id":"ce4bgvp2rcd13ifvqcu0","pricing_plan_id":"cebpf4jnsgd1na2vs0mg"},{"bike_id":"28815169-6fa9-449e-8c2a-257689cc52dc","system_id":"levelo_inurba_marseille","lat":43.289184,"lon":5.366408,"is_reserved":false,"is_disabled":false,"rental_uris":{"android":"levelo://app?vid=28815169-6fa9-449e-8c2a-257689cc52dc","ios":"levelo://app?vid=28815169-6fa9-449e-8c2a-257689cc52dc"},"vehicle_type_id":"4","last_reported":1724353641,"current_range_meters":10400,"station_id":"ce4bhap2rcd13ifvqek0","pricing_plan_id":"cebpf4jnsgd1na2vs0mg"},{"bike_id":"d833b485-f5c9-436a-919f-9fee7e9b19ff","system_id":"levelo_inurba_marseille","lat":43.309038,"lon":5.396546,"is_reserved":false,"is_disabled":false,"rental_uris":{"android":"levelo://app?vid=d833b485-f5c9-436a-919f-9fee7e9b19ff","ios":"levelo://app?vid=d833b485-f5c9-436a-919f-9fee7e9b19ff"},"vehicle_type_id":"4","last_reported":1724353641,"current_range_meters":7200,"station_id":"ce4bh012rcd13ifvqcv0","pricing_plan_id":"cebpf4jnsgd1na2vs0mg"},{"bike_id":"2a57a505-7fa3-4f22-9661-a78b009e86ff","system_id":"levelo_inurba_marseille","lat":43.309047,"lon":5.396551,"is_reserved":false,"is_disabled":false,"rental_uris":{"android":"levelo://app?vid=2a57a505-7fa3-4f22-9661-a78b009e86ff","ios":"levelo://app?vid=2a57a505-7fa3-4f22-9661-a78b009e86ff"},"vehicle_type_id":"4","last_reported":1724353641,"current_range_meters":26400,"station_id":"ce4bh012rcd13ifvqcv0","pricing_plan_id":"cebpf4jnsgd1na2vs0mg"},{"bike_id":"5b0ef0a9-7352-4f0e-817c-38b2b9cd44f0","system_id":"levelo_inurba_marseille","lat":43.309038,"lon":5.396546,"is_reserved":false,"is_disabled":false,"rental_uris":{"android":"levelo://app?vid=5b0ef0a9-7352-4f0e-817c-38b2b9cd44f0","ios":"levelo://app?vid=5b0ef0a9-7352-4f0e-817c-38b2b9cd44f0"},"vehicle_type_id":"4","last_reported":1724353641,"current_range_meters":12400,"station_id":"ce4bh012rcd13ifvqcv0","pricing_plan_id":"cebpf4jnsgd1na2vs0mg"},{"bike_id":"954aa5d0-3265-4345-b854-0e8c2fc59fa1","system_id":"levelo_inurba_marseille","lat":43.309038,"lon":5.396546,"is_reserved":false,"is_disabled":false,"rental_uris":{"android":"levelo://app?vid=954aa5d0-3265-4345-b854-0e8c2fc59fa1","ios":"levelo://app?vid=954aa5d0-3265-4345-b854-0e8c2fc59fa1"},"vehicle_type_id":"4","last_reported":1724353641,"current_range_meters":7200,"station_id":"ce4bh012rcd13ifvqcv0","pricing_plan_id":"cebpf4jnsgd1na2vs0mg"},{"bike_id":"9945b6e6-c3b1-42e4-ab5c-a8471f7a8666","system_id":"levelo_inurba_marseille","lat":43.309038,"lon":5.396546,"is_reserved":false,"is_disabled":false,"rental_uris":{"android":"levelo://app?vid=9945b6e6-c3b1-42e4-ab5c-a8471f7a8666","ios":"levelo://app?vid=9945b6e6-c3b1-42e4-ab5c-a8471f7a8666"},"vehicle_type_id":"4","last_reported":1724353641,"current_range_meters":12800,"station_id":"ce4bh012rcd13ifvqcv0","pricing_plan_id":"cebpf4jnsgd1na2vs0mg"},{"bike_id":"8b5dbd72-a8b7-4f53-985f-ee1024989982","system_id":"levelo_inurba_marseille","lat":43.295363,"lon":5.385418,"is_reserved":false,"is_disabled":false,"rental_uris":{"android":"levelo://app?vid=8b5dbd72-a8b7-4f53-985f-ee1024989982","ios":"levelo://app?vid=8b5dbd72-a8b7-4f53-985f-ee1024989982"},"vehicle_type_id":"4","last_reported":1724353641,"current_range_meters":24000,"station_id":"ce4bgih2rcd13ifvqba0","pricing_plan_id":"cebpf4jnsgd1na2vs0mg"},{"bike_id":"4d27dd7a-8dd3-4df1-9c3c-c49f894eff62","system_id":"levelo_inurba_marseille","lat":43.29529,"lon":5.385581,"is_reserved":false,"is_disabled":false,"rental_uris":{"android":"levelo://app?vid=4d27dd7a-8dd3-4df1-9c3c-c49f894eff62","ios":"levelo://app?vid=4d27dd7a-8dd3-4df1-9c3c-c49f894eff62"},"vehicle_type_id":"4","last_reported":1724353641,"current_range_meters":19200,"station_id":"ce4bgih2rcd13ifvqba0","pricing_plan_id":"cebpf4jnsgd1na2vs0mg"},{"bike_id":"3fd48a92-37be-4551-86ea-9a70ef5d10b5","system_id":"levelo_inurba_marseille","lat":43.29532,"lon":5.38547,"is_reserved":false,"is_disabled":false,"rental_uris":{"android":"levelo://app?vid=3fd48a92-37be-4551-86ea-9a70ef5d10b5","ios":"levelo://app?vid=3fd48a92-37be-4551-86ea-9a70ef5d10b5"},"vehicle_type_id":"4","last_reported":1724353641,"current_range_meters":0,"station_id":"ce4bgih2rcd13ifvqba0","pricing_plan_id":"cebpf4jnsgd1na2vs0mg"},{"bike_id":"73fedffe-d779-4319-8571-aa28af4fd101","system_id":"levelo_inurba_marseille","lat":43.29529,"lon":5.385581,"is_reserved":false,"is_disabled":false,"rental_uris":{"android":"levelo://app?vid=73fedffe-d779-4319-8571-aa28af4fd101","ios":"levelo://app?vid=73fedffe-d779-4319-8571-aa28af4fd101"},"vehicle_type_id":"4","last_reported":1724353641,"current_range_meters":0,"station_id":"ce4bgih2rcd13ifvqba0","pricing_plan_id":"cebpf4jnsgd1na2vs0mg"},{"bike_id":"710a5aa4-472f-4f39-83ef-80b8e47f9782","system_id":"levelo_inurba_marseille","lat":43.29529,"lon":5.385581,"is_reserved":false,"is_disabled":false,"rental_uris":{"android":"levelo://app?vid=710a5aa4-472f-4f39-83ef-80b8e47f9782","ios":"levelo://app?vid=710a5aa4-472f-4f39-83ef-80b8e47f9782"},"vehicle_type_id":"4","last_reported":1724353641,"current_range_meters":14000,"station_id":"ce4bgih2rcd13ifvqba0","pricing_plan_id":"cebpf4jnsgd1na2vs0mg"},{"bike_id":"bfbafbde-0c02-4981-a3ee-56fae8b85048","system_id":"levelo_inurba_marseille","lat":43.29529,"lon":5.385581,"is_reserved":false,"is_disabled":false,"rental_uris":{"android":"levelo://app?vid=bfbafbde-0c02-4981-a3ee-56fae8b85048","ios":"levelo://app?vid=bfbafbde-0c02-4981-a3ee-56fae8b85048"},"vehicle_type_id":"4","last_reported":1724353641,"current_range_meters":20400,"station_id":"ce4bgih2rcd13ifvqba0","pricing_plan_id":"cebpf4jnsgd1na2vs0mg"},{"bike_id":"ff567eb4-68ad-440b-93fe-d6660b28fd04","system_id":"levelo_inurba_marseille","lat":43.29529,"lon":5.385581,"is_reserved":false,"is_disabled":false,"rental_uris":{"android":"levelo://app?vid=ff567eb4-68ad-440b-93fe-d6660b28fd04","ios":"levelo://app?vid=ff567eb4-68ad-440b-93fe-d6660b28fd04"},"vehicle_type_id":"4","last_reported":1724353641,"current_range_meters":15600,"station_id":"ce4bgih2rcd13ifvqba0","pricing_plan_id":"cebpf4jnsgd1na2vs0mg"},{"bike_id":"9357235f-d88d-4534-b6b3-92caed7163a3","system_id":"levelo_inurba_marseille","lat":43.3135,"lon":5.39736,"is_reserved":false,"is_disabled":false,"rental_uris":{"android":"levelo://app?vid=9357235f-d88d-4534-b6b3-92caed7163a3","ios":"levelo://app?vid=9357235f-d88d-4534-b6b3-92caed7163a3"},"vehicle_type_id":"4","last_reported":1724353641,"current_range_meters":24400,"station_id":"ce4bgvp2rcd13ifvqcu0","pricing_plan_id":"cebpf4jnsgd1na2vs0mg"},{"bike_id":"94bed425-6313-4770-8d16-1d43b31101e4","system_id":"levelo_inurba_marseille","lat":43.290593,"lon":5.36972,"is_reserved":false,"is_disabled":false,"rental_uris":{"android":"levelo://app?vid=94bed425-6313-4770-8d16-1d43b31101e4","ios":"levelo://app?vid=94bed425-6313-4770-8d16-1d43b31101e4"},"vehicle_type_id":"4","last_reported":1724353641,"current_range_meters":5200,"station_id":"","pricing_plan_id":"cebpf4jnsgd1na2vs0mg"},{"bike_id":"a71b0116-ce22-4a7b-9d31-539ad0d39719","system_id":"levelo_inurba_marseille","lat":43.29529,"lon":5.385581,"is_reserved":false,"is_disabled":false,"rental_uris":{"android":"levelo://app?vid=a71b0116-ce22-4a7b-9d31-539ad0d39719","ios":"levelo://app?vid=a71b0116-ce22-4a7b-9d31-539ad0d39719"},"vehicle_type_id":"4","last_reported":1724353641,"current_range_meters":21600,"station_id":"ce4bgih2rcd13ifvqba0","pricing_plan_id":"cebpf4jnsgd1na2vs0mg"},{"bike_id":"88c12e5e-4395-48ae-a2c8-0eb3105e3363","system_id":"levelo_inurba_marseille","lat":43.302008,"lon":5.394694,"is_reserved":false,"is_disabled":false,"rental_uris":{"android":"levelo://app?vid=88c12e5e-4395-48ae-a2c8-0eb3105e3363","ios":"levelo://app?vid=88c12e5e-4395-48ae-a2c8-0eb3105e3363"},"vehicle_type_id":"4","last_reported":1724353641,"current_range_meters":25600,"station_id":"ce4bh0p2rcd13ifvqd70","pricing_plan_id":"cebpf4jnsgd1na2vs0mg"},{"bike_id":"66dfcf31-c9c0-4c1f-9008-8dcf904dae68","system_id":"levelo_inurba_marseille","lat":43.302008,"lon":5.394694,"is_reserved":false,"is_disabled":false,"rental_uris":{"android":"levelo://app?vid=66dfcf31-c9c0-4c1f-9008-8dcf904dae68","ios":"levelo://app?vid=66dfcf31-c9c0-4c1f-9008-8dcf904dae68"},"vehicle_type_id":"4","last_reported":1724353641,"current_range_meters":4000,"station_id":"ce4bh0p2rcd13ifvqd70","pricing_plan_id":"cebpf4jnsgd1na2vs0mg"},{"bike_id":"0c28b7e0-ff04-4030-b72f-4021423c99dc","system_id":"levelo_inurba_marseille","lat":43.29474,"lon":5.38655,"is_reserved":false,"is_disabled":false,"rental_uris":{"android":"levelo://app?vid=0c28b7e0-ff04-4030-b72f-4021423c99dc","ios":"levelo://app?vid=0c28b7e0-ff04-4030-b72f-4021423c99dc"},"vehicle_type_id":"4","last_reported":1724353641,"current_range_meters":20800,"station_id":"","pricing_plan_id":"cebpf4jnsgd1na2vs0mg"},{"bike_id":"be8a2914-a35b-4eeb-ab6b-402eb8c38994","system_id":"levelo_inurba_marseille","lat":43.29042,"lon":5.35914,"is_reserved":false,"is_disabled":false,"rental_uris":{"android":"levelo://app?vid=be8a2914-a35b-4eeb-ab6b-402eb8c38994","ios":"levelo://app?vid=be8a2914-a35b-4eeb-ab6b-402eb8c38994"},"vehicle_type_id":"4","last_reported":1724353641,"current_range_meters":0,"station_id":"ce4bha92rcd13ifvqeg0","pricing_plan_id":"cebpf4jnsgd1na2vs0mg"},{"bike_id":"50764533-78d3-44f7-b629-4b1410a51a83","system_id":"levelo_inurba_marseille","lat":43.294763,"lon":5.386743,"is_reserved":false,"is_disabled":false,"rental_uris":{"android":"levelo://app?vid=50764533-78d3-44f7-b629-4b1410a51a83","ios":"levelo://app?vid=50764533-78d3-44f7-b629-4b1410a51a83"},"vehicle_type_id":"4","last_reported":1724353641,"current_range_meters":5200,"station_id":"","pricing_plan_id":"cebpf4jnsgd1na2vs0mg"},{"bike_id":"0032dc80-e9f4-4cd0-a459-aa153db6d496","system_id":"levelo_inurba_marseille","lat":43.29424,"lon":5.3862,"is_reserved":false,"is_disabled":false,"rental_uris":{"android":"levelo://app?vid=0032dc80-e9f4-4cd0-a459-aa153db6d496","ios":"levelo://app?vid=0032dc80-e9f4-4cd0-a459-aa153db6d496"},"vehicle_type_id":"4","last_reported":1724353641,"current_range_meters":0,"station_id":"ce4bh2h2rcd13ifvqdh0","pricing_plan_id":"cebpf4jnsgd1na2vs0mg"},{"bike_id":"f8ef3583-224e-447b-88ef-ac9fb8ddff75","system_id":"levelo_inurba_marseille","lat":43.29421,"lon":5.38615,"is_reserved":false,"is_disabled":false,"rental_uris":{"android":"levelo://app?vid=f8ef3583-224e-447b-88ef-ac9fb8ddff75","ios":"levelo://app?vid=f8ef3583-224e-447b-88ef-ac9fb8ddff75"},"vehicle_type_id":"4","last_reported":1724353641,"current_range_meters":31200,"station_id":"ce4bh2h2rcd13ifvqdh0","pricing_plan_id":"cebpf4jnsgd1na2vs0mg"},{"bike_id":"5608489a-ea4f-4b43-aa1f-55db124e1498","system_id":"levelo_inurba_marseille","lat":43.289543,"lon":5.365063,"is_reserved":false,"is_disabled":false,"rental_uris":{"android":"levelo://app?vid=5608489a-ea4f-4b43-aa1f-55db124e1498","ios":"levelo://app?vid=5608489a-ea4f-4b43-aa1f-55db124e1498"},"vehicle_type_id":"4","last_reported":1724353641,"current_range_meters":6000,"station_id":"ce4bhb92rcd13ifvqen0","pricing_plan_id":"cebpf4jnsgd1na2vs0mg"},{"bike_id":"17f45fa3-c804-45f6-95d7-6d2730fcb9e8","system_id":"levelo_inurba_marseille","lat":43.294153,"lon":5.386305,"is_reserved":false,"is_disabled":false,"rental_uris":{"android":"levelo://app?vid=17f45fa3-c804-45f6-95d7-6d2730fcb9e8","ios":"levelo://app?vid=17f45fa3-c804-45f6-95d7-6d2730fcb9e8"},"vehicle_type_id":"4","last_reported":1724353641,"current_range_meters":31200,"station_id":"ce4bh2h2rcd13ifvqdh0","pricing_plan_id":"cebpf4jnsgd1na2vs0mg"},{"bike_id":"e8a07588-e8f6-4204-90cb-04c25a36dcd4","system_id":"levelo_inurba_marseille","lat":43.29422,"lon":5.38622,"is_reserved":false,"is_disabled":false,"rental_uris":{"android":"levelo://app?vid=e8a07588-e8f6-4204-90cb-04c25a36dcd4","ios":"levelo://app?vid=e8a07588-e8f6-4204-90cb-04c25a36dcd4"},"vehicle_type_id":"4","last_reported":1724353641,"current_range_meters":0,"station_id":"ce4bh2h2rcd13ifvqdh0","pricing_plan_id":"cebpf4jnsgd1na2vs0mg"},{"bike_id":"10bd118c-68f6-421c-a0bb-f3faa345bb2f","system_id":"levelo_inurba_marseille","lat":43.29422,"lon":5.38622,"is_reserved":false,"is_disabled":false,"rental_uris":{"android":"levelo://app?vid=10bd118c-68f6-421c-a0bb-f3faa345bb2f","ios":"levelo://app?vid=10bd118c-68f6-421c-a0bb-f3faa345bb2f"},"vehicle_type_id":"4","last_reported":1724353641,"current_range_meters":6800,"station_id":"ce4bh2h2rcd13ifvqdh0","pricing_plan_id":"cebpf4jnsgd1na2vs0mg"},{"bike_id":"e5699963-5bda-4f4b-ab45-ab9514e3e8f4","system_id":"levelo_inurba_marseille","lat":43.294153,"lon":5.386305,"is_reserved":false,"is_disabled":false,"rental_uris":{"android":"levelo://app?vid=e5699963-5bda-4f4b-ab45-ab9514e3e8f4","ios":"levelo://app?vid=e5699963-5bda-4f4b-ab45-ab9514e3e8f4"},"vehicle_type_id":"4","last_reported":1724353641,"current_range_meters":31200,"station_id":"ce4bh2h2rcd13ifvqdh0","pricing_plan_id":"cebpf4jnsgd1na2vs0mg"},{"bike_id":"a6f07e49-13cd-46f0-9839-982311d9d41e","system_id":"levelo_inurba_marseille","lat":43.290319,"lon":5.375732,"is_reserved":false,"is_disabled":false,"rental_uris":{"android":"levelo://app?vid=a6f07e49-13cd-46f0-9839-982311d9d41e","ios":"levelo://app?vid=a6f07e49-13cd-46f0-9839-982311d9d41e"},"vehicle_type_id":"4","last_reported":1724353641,"current_range_meters":6000,"station_id":"ce4bh692rcd13ifvqe90","pricing_plan_id":"cebpf4jnsgd1na2vs0mg"},{"bike_id":"c193f81a-8dc1-4cf9-bf0e-9e9ed29d4a2a","system_id":"levelo_inurba_marseille","lat":43.290319,"lon":5.375732,"is_reserved":false,"is_disabled":false,"rental_uris":{"android":"levelo://app?vid=c193f81a-8dc1-4cf9-bf0e-9e9ed29d4a2a","ios":"levelo://app?vid=c193f81a-8dc1-4cf9-bf0e-9e9ed29d4a2a"},"vehicle_type_id":"4","last_reported":1724353641,"current_range_meters":5200,"station_id":"ce4bh692rcd13ifvqe90","pricing_plan_id":"cebpf4jnsgd1na2vs0mg"},