{"last_updated":1770910788,"ttl":60,"version":"2.2","data":{"bikes":[{"bike_id":"b32b0732-e4d0-4f51-ba0c-c2f5e5ffe7be","system_id":"levelo_inurba_marseille","lat":43.33759,"lon":5.37463,"is_reserved":false,"is_disabled":false,"rental_uris":{"android":"levelo://app?vid=b32b0732-e4d0-4f51-ba0c-c2f5e5ffe7be","ios":"levelo://app?vid=b32b0732-e4d0-4f51-ba0c-c2f5e5ffe7be"},"vehicle_type_id":"4","last_reported":1770910789,"current_range_meters":2800,"station_id":"","pricing_plan_id":"cebpf4jnsgd1na2vs0mg"},{"bike_id":"25194c15-75a4-48fc-b21a-afc9f452fc29","system_id":"levelo_inurba_marseille","lat":43.29534,"lon":5.39059,"is_reserved":false,"is_disabled":false,"rental_uris":{"android":"levelo://app?vid=25194c15-75a4-48fc-b21a-afc9f452fc29","ios":"levelo://app?vid=25194c15-75a4-48fc-b21a-afc9f452fc29"},"vehicle_type_id":"4","last_reported":1770910789,"current_range_meters":2800,"station_id":"ce4bh3p2rcd13ifvqdp0","pricing_plan_id":"cebpf4jnsgd1na2vs0mg"},{"bike_id":"04d8ad54-4294-413c-bc0f-d75e1f7c6398","system_id":"levelo_inurba_marseille","lat":43.29131,"lon":5.35546,"is_reserved":false,"is_disabled":false,"rental_uris":{"android":"levelo://app?vid=04d8ad54-4294-413c-bc0f-d75e1f7c6398","ios":"levelo://app?vid=04d8ad54-4294-413c-bc0f-d75e1f7c6398"},"vehicle_type_id":"4","last_reported":1770910789,"current_range_meters":2800,"station_id":"","pricing_plan_id":"cebpf4jnsgd1na2vs0mg"},{"bike_id":"9b586055-3525-4e43-ae53-8d6c2fff45ed","system_id":"levelo_inurba_marseille","lat":43.24185,"lon":5.36353,"is_reserved":false,"is_disabled":false,"rental_uris":{"android":"levelo://app?vid=9b586055-3525-4e43-ae53-8d6c2fff45ed","ios":"levelo://app?vid=9b586055-3525-4e43-ae53-8d6c2fff45ed"},"vehicle_type_id":"4","last_reported":1770910789,"current_range_meters":2800,"station_id":"cpo36qri1sfpv3e86is0","pricing_plan_id":"cebpf4jnsgd1na2vs0mg"},{"bike_id":"47f04c51-ba8c-49ef-8b63-b8837d248a8f","system_id":"levelo_inurba_marseille","lat":43.26368,"lon":5.4109,"is_reserved":false,"is_disabled":false,"rental_uris":{"android":"levelo://app?vid=47f04c51-ba8c-49ef-8b63-b8837d248a8f","ios":"levelo://app?vid=47f04c51-ba8c-49ef-8b63-b8837d248a8f"},"vehicle_type_id":"4","last_reported":1770910789,"current_range_meters":2800,"station_id":"st_d4e5ca6na9uc73bfl5fg","pricing_plan_id":"cebpf4jnsgd1na2vs0mg"},{"bike_id":"e0da377d-5183-4a43-81d2-d99f051745d2","system_id":"levelo_inurba_marseille","lat":43.31687,"lon":5.4048,"is_reserved":false,"is_disabled":false,"rental_uris":{"android":"levelo://app?vid=e0da377d-5183-4a43-81d2-d99f051745d2","ios":"levelo://app?vid=e0da377d-5183-4a43-81d2-d99f051745d2"},"vehicle_type_id":"4","last_reported":1770910789,"current_range_meters":3200,"station_id":"ce4bh012rcd13ifvqd00","pricing_plan_id":"cebpf4jnsgd1na2vs0mg"},{"bike_id":"fe86c9ba-789d-48cb-b139-57215407552e","system_id":"levelo_inurba_marseille","lat":43.33789,"lon":5.37483,"is_reserved":false,"is_disabled":false,"rental_uris":{"android":"levelo://app?vid=fe86c9ba-789d-48cb-b139-57215407552e","ios":"levelo://app?vid=fe86c9ba-789d-48cb-b139-57215407552e"},"vehicle_type_id":"4","last_reported":1770910789,"current_range_meters":3200,"station_id":"","pricing_plan_id":"cebpf4jnsgd1na2vs0mg"},{"bike_id":"c827f785-6516-4690-a790-85d042f7f3d1","system_id":"levelo_inurba_marseille","lat":43.308943,"lon":5.396479,"is_reserved":false,"is_disabled":false,"rental_uris":{"android":"levelo://app?vid=c827f785-6516-4690-a790-85d042f7f3d1","ios":"levelo://app?vid=c827f785-6516-4690-a790-85d042f7f3d1"},"vehicle_type_id":"4","last_reported":1770910789,"current_range_meters":3200,"station_id":"ce4bh012rcd13ifvqcv0","pricing_plan_id":"cebpf4jnsgd1na2vs0mg"},{"bike_id":"08db55f9-a0dc-421d-97f0-0787336c9706","system_id":"levelo_inurba_marseille","lat":43.31082,"lon":5.38356,"is_reserved":false,"is_disabled":true,"rental_uris":{"android":"levelo://app?vid=08db55f9-a0dc-421d-97f0-0787336c9706","ios":"levelo://app?vid=08db55f9-a0dc-421d-97f0-0787336c9706"},"vehicle_type_id":"4","last_reported":1770910789,"current_range_meters":3200,"station_id":"ce4bgv92rcd13ifvqcr0","pricing_plan_id":"cebpf4jnsgd1na2vs0mg"},{"bike_id":"3a716b4a-8625-4300-a90f-a64afbd66422","system_id":"levelo_inurba_marseille","lat":43.29098,"lon":5.38123,"is_reserved":false,"is_disabled":false,"rental_uris":{"android":"levelo://app?vid=3a716b4a-8625-4300-a90f-a64afbd66422","ios":"levelo://app?vid=3a716b4a-8625-4300-a90f-a64afbd66422"},"vehicle_type_id":"4","last_reported":1770910789,"current_range_meters":3200,"station_id":"ce4bh512rcd13ifvqe2g","pricing_plan_id":"cebpf4jnsgd1na2vs0mg"},{"bike_id":"88966826-ba77-48f3-b01b-a62b22628ea9","system_id":"levelo_inurba_marseille","lat":43.23151,"lon":5.43732,"is_reserved":false,"is_disabled":false,"rental_uris":{"android":"levelo://app?vid=88966826-ba77-48f3-b01b-a62b22628ea9","ios":"levelo://app?vid=88966826-ba77-48f3-b01b-a62b22628ea9"},"vehicle_type_id":"4","last_reported":1770910789,"current_range_meters":3200,"station_id":"ce4bhmp2rcd13ifvqgog","pricing_plan_id":"cebpf4jnsgd1na2vs0mg"},{"bike_id":"b3d06119-f0a6-4191-b374-93d7a840140e","system_id":"levelo_inurba_marseille","lat":43.28153,"lon":5.42635,"is_reserved":false,"is_disabled":false,"rental_uris":{"android":"levelo://app?vid=b3d06119-f0a6-4191-b374-93d7a840140e","ios":"levelo://app?vid=b3d06119-f0a6-4191-b374-93d7a840140e"},"vehicle_type_id":"4","last_reported":1770910789,"current_range_meters":3200,"station_id":"ce4bhnh2rcd13ifvqgug","pricing_plan_id":"cebpf4jnsgd1na2vs0mg"},{"bike_id":"cdb5c25c-a15a-4142-a44d-9f93b3d885b7","system_id":"levelo_inurba_marseille","lat":43.28899,"lon":5.4315,"is_reserved":false,"is_disabled":true,"rental_uris":{"android":"levelo://app?vid=cdb5c25c-a15a-4142-a44d-9f93b3d885b7","ios":"levelo://app?vid=cdb5c25c-a15a-4142-a44d-9f93b3d885b7"},"vehicle_type_id":"4","last_reported":1770910789,"current_range_meters":3200,"station_id":"","pricing_plan_id":"cebpf4jnsgd1na2vs0mg"},{"bike_id":"bbf37f33-8653-41c2-8b72-e6d66d6d5b14","system_id":"levelo_inurba_marseille","lat":43.282795,"lon":5.350633,"is_reserved":false,"is_disabled":false,"rental_uris":{"android":"levelo://app?vid=bbf37f33-8653-41c2-8b72-e6d66d6d5b14","ios":"levelo://app?vid=bbf37f33-8653-41c2-8b72-e6d66d6d5b14"},"vehicle_type_id":"4","last_reported":1770910789,"current_range_meters":3200,"station_id":"ce4bhbp2rcd13ifvqerg","pricing_plan_id":"cebpf4jnsgd1na2vs0mg"},{"bike_id":"e4f5d6b4-5214-4f51-adc4-9a51cc1f0b62","system_id":"levelo_inurba_marseille","lat":43.29255,"lon":5.40911,"is_reserved":false,"is_disabled":true,"rental_uris":{"android":"levelo://app?vid=e4f5d6b4-5214-4f51-adc4-9a51cc1f0b62","ios":"levelo://app?vid=e4f5d6b4-5214-4f51-adc4-9a51cc1f0b62"},"vehicle_type_id":"4","last_reported":1770910789,"current_range_meters":3200,"station_id":"ce4bh192rcd13ifvqdc0","pricing_plan_id":"cebpf4jnsgd1na2vs0mg"},{"bike_id":"1a0d99f0-ee74-4956-bad4-992b0789ccc7","system_id":"levelo_inurba_marseille","lat":43.212,"lon":5.35069,"is_reserved":false,"is_disabled":false,"rental_uris":{"android":"levelo://app?vid=1a0d99f0-ee74-4956-bad4-992b0789ccc7","ios":"levelo://app?vid=1a0d99f0-ee74-4956-bad4-992b0789ccc7"},"vehicle_type_id":"4","last_reported":1770910789,"current_range_meters":3600,"station_id":"st_cvj6sg6p6f1abm77japg","pricing_plan_id":"cebpf4jnsgd1na2vs0mg"},{"bike_id":"ed5f093d-1aa3-4ff9-ab82-20bb031f1bc6","system_id":"levelo_inurba_marseille","lat":43.28517,"lon":5.44088,"is_reserved":false,"is_disabled":false,"rental_uris":{"android":"levelo://app?vid=ed5f093d-1aa3-4ff9-ab82-20bb031f1bc6","ios":"levelo://app?vid=ed5f093d-1aa3-4ff9-ab82-20bb031f1bc6"},"vehicle_type_id":"4","last_reported":1770910789,"current_range_meters":3600,"station_id":"","pricing_plan_id":"cebpf4jnsgd1na2vs0mg"},{"bike_id":"d16e8676-bb91-42bf-b68a-481193eb39f4","system_id":"levelo_inurba_marseille","lat":43.24656,"lon":5.38163,"is_reserved":false,"is_disabled":false,"rental_uris":{"android":"levelo://app?vid=d16e8676-bb91-42bf-b68a-481193eb39f4","ios":"levelo://app?vid=d16e8676-bb91-42bf-b68a-481193eb39f4"},"vehicle_type_id":"4","last_reported":1770910789,"current_range_meters":3600,"station_id":"ce4bhih2rcd13ifvqfr0","pricing_plan_id":"cebpf4jnsgd1na2vs0mg"},{"bike_id":"44c6aa93-1f46-4cbd-a298-6cd74e811e92","system_id":"levelo_inurba_marseille","lat":43.21741,"lon":5.34624,"is_reserved":false,"is_disabled":false,"rental_uris":{"android":"levelo://app?vid=44c6aa93-1f46-4cbd-a298-6cd74e811e92","ios":"levelo://app?vid=44c6aa93-1f46-4cbd-a298-6cd74e811e92"},"vehicle_type_id":"4","last_reported":1770910789,"current_range_meters":3600,"station_id":"st_cvj6r9ubvosntc0bgbag","pricing_plan_id":"cebpf4jnsgd1na2vs0mg"},{"bike_id":"40d275ee-bd4a-4b39-b835-06105830d6f6","system_id":"levelo_inurba_marseille","lat":43.24071,"lon":5.37734,"is_reserved":false,"is_disabled":false,"rental_uris":{"android":"levelo://app?vid=40d275ee-bd4a-4b39-b835-06105830d6f6","ios":"levelo://app?vid=40d275ee-bd4a-4b39-b835-06105830d6f6"},"vehicle_type_id":"4","last_reported":1770910789,"current_range_meters":3600,"station_id":"ce4bhnp2rcd13ifvqgvg","pricing_plan_id":"cebpf4jnsgd1na2vs0mg"},{"bike_id":"698f2968-199f-46b5-8b34-18c17b86966d","system_id":"levelo_inurba_marseille","lat":43.28621,"lon":5.35102,"is_reserved":false,"is_disabled":false,"rental_uris":{"android":"levelo://app?vid=698f2968-199f-46b5-8b34-18c17b86966d","ios":"levelo://app?vid=698f2968-199f-46b5-8b34-18c17b86966d"},"vehicle_type_id":"4","last_reported":1770910789,"current_range_meters":3600,"station_id":"ce4bhch2rcd13ifvqeug","pricing_plan_id":"cebpf4jnsgd1na2vs0mg"},{"bike_id":"ae861497-9a22-4231-afa9-8238d5c5713c","system_id":"levelo_inurba_marseille","lat":43.241656,"lon":5.363941,"is_reserved":false,"is_disabled":false,"rental_uris":{"android":"levelo://app?vid=ae861497-9a22-4231-afa9-8238d5c5713c","ios":"levelo://app?vid=ae861497-9a22-4231-afa9-8238d5c5713c"},"vehicle_type_id":"4","last_reported":1770910789,"current_range_meters":3600,"station_id":"cpo36qri1sfpv3e86is0","pricing_plan_id":"cebpf4jnsgd1na2vs0mg"},{"bike_id":"6efe5f0a-6c4f-403e-907f-5428484845d2","system_id":"levelo_inurba_marseille","lat":43.31698,"lon":5.40389,"is_reserved":false,"is_disabled":false,"rental_uris":{"android":"levelo://app?vid=6efe5f0a-6c4f-403e-907f-5428484845d2","ios":"levelo://app?vid=6efe5f0a-6c4f-403e-907f-5428484845d2"},"vehicle_type_id":"4","last_reported":1770910789,"current_range_meters":3600,"station_id":"","pricing_plan_id":"cebpf4jnsgd1na2vs0mg"},{"bike_id":"dc2ed57c-6ecc-45e6-8b3e-8a0a71bee074","system_id":"levelo_inurba_marseille","lat":43.25584,"lon":5.38238,"is_reserved":false,"is_disabled":false,"rental_uris":{"android":"levelo://app?vid=dc2ed57c-6ecc-45e6-8b3e-8a0a71bee074","ios":"levelo://app?vid=dc2ed57c-6ecc-45e6-8b3e-8a0a71bee074"},"vehicle_type_id":"4","last_reported":1770910789,"current_range_meters":3600,"station_id":"ce4bhih2rcd13ifvqfs0","pricing_plan_id":"cebpf4jnsgd1na2vs0mg"},{"bike_id":"7e0507c7-87c5-4e0d-84c1-f5bd38c75cbc","system_id":"levelo_inurba_marseille","lat":43.29607,"lon":5.38085,"is_reserved":false,"is_disabled":false,"rental_uris":{"android":"levelo://app?vid=7e0507c7-87c5-4e0d-84c1-f5bd38c75cbc","ios":"levelo://app?vid=7e0507c7-87c5-4e0d-84c1-f5bd38c75cbc"},"vehicle_type_id":"4","last_reported":1770910789,"current_range_meters":3600,"station_id":"ce4bgl12rcd13ifvqbo0","pricing_plan_id":"cebpf4jnsgd1na2vs0mg"},{"bike_id":"0d60f49b-2168-485f-9c8c-8bf326d0ba55","system_id":"levelo_inurba_marseille","lat":43.2451,"lon":5.42456,"is_reserved":false,"is_disabled":false,"rental_uris":{"android":"levelo://app?vid=0d60f49b-2168-485f-9c8c-8bf326d0ba55","ios":"levelo://app?vid=0d60f49b-2168-485f-9c8c-8bf326d0ba55"},"vehicle_type_id":"4","last_reported":1770910789,"current_range_meters":4000,"station_id":"","pricing_plan_id":"cebpf4jnsgd1na2vs0mg"},{"bike_id":"9b7de680-e656-45c2-b846-8bd381e9ca89","system_id":"levelo_inurba_marseille","lat":43.30442,"lon":5.40725,"is_reserved":false,"is_disabled":false,"rental_uris":{"android":"levelo://app?vid=9b7de680-e656-45c2-b846-8bd381e9ca89","ios":"levelo://app?vid=9b7de680-e656-45c2-b846-8bd381e9ca89"},"vehicle_type_id":"4","last_reported":1770910789,"current_range_meters":4000,"station_id":"","pricing_plan_id":"cebpf4jnsgd1na2vs0mg"},{"bike_id":"11e89557-b7ab-4c78-855c-3f9580806aaa","system_id":"levelo_inurba_marseille","lat":43.30834,"lon":5.38298,"is_reserved":false,"is_disabled":false,"rental_uris":{"android":"levelo://app?vid=11e89557-b7ab-4c78-855c-3f9580806aaa","ios":"levelo://app?vid=11e89557-b7ab-4c78-855c-3f9580806aaa"},"vehicle_type_id":"4","last_reported":1770910789,"current_range_meters":4000,"station_id":"","pricing_plan_id":"cebpf4jnsgd1na2vs0mg"},{"bike_id":"ac9a885a-fe7d-4871-905c-95e91acf3aa8","system_id":"levelo_inurba_marseille","lat":43.22557,"lon":5.4165,"is_reserved":false,"is_disabled":false,"rental_uris":{"android":"levelo://app?vid=ac9a885a-fe7d-4871-905c-95e91acf3aa8","ios":"levelo://app?vid=ac9a885a-fe7d-4871-905c-95e91acf3aa8"},"vehicle_type_id":"4","last_reported":1770910789,"current_range_meters":4000,"station_id":"st_d2o4gvlbi1j2169b742g","pricing_plan_id":"cebpf4jnsgd1na2vs0mg"},{"bike_id":"babdcd4a-655b-4e95-88f5-77a8529739da","system_id":"levelo_inurba_marseille","lat":43.22551,"lon":5.41613,"is_reserved":false,"is_disabled":false,"rental_uris":{"android":"levelo://app?vid=babdcd4a-655b-4e95-88f5-77a8529739da","ios":"levelo://app?vid=babdcd4a-655b-4e95-88f5-77a8529739da"},"vehicle_type_id":"4","last_reported":1770910789,"current_range_meters":4000,"station_id":"st_d2o4gvlbi1j2169b742g","pricing_plan_id":"cebpf4jnsgd1na2vs0mg"},{"bike_id":"cc43a2a6-4df1-46ee-89a5-e5908a5338ed","system_id":"levelo_inurba_marseille","lat":43.28489,"lon":5.48382,"is_reserved":false,"is_disabled":false,"rental_uris":{"android":"levelo://app?vid=cc43a2a6-4df1-46ee-89a5-e5908a5338ed","ios":"levelo://app?vid=cc43a2a6-4df1-46ee-89a5-e5908a5338ed"},"vehicle_type_id":"4","last_reported":1770910789,"current_range_meters":4000,"station_id":"st_d3svhcjqgbts73a3dn0g","pricing_plan_id":"cebpf4jnsgd1na2vs0mg"},{"bike_id":"03c22168-23b9-4a4c-a686-068379a03132","system_id":"levelo_inurba_marseille","lat":43.31283,"lon":5.36726,"is_reserved":false,"is_disabled":false,"rental_uris":{"android":"levelo://app?vid=03c22168-23b9-4a4c-a686-068379a03132","ios":"levelo://app?vid=03c22168-23b9-4a4c-a686-068379a03132"},"vehicle_type_id":"4","last_reported":1770910789,"current_range_meters":4000,"station_id":"","pricing_plan_id":"cebpf4jnsgd1na2vs0mg"},{"bike_id":"1b51e78e-a966-4d88-bd61-cc946b95f0e5","system_id":"levelo_inurba_marseille","lat":43.27173,"lon":5.40984,"is_reserved":false,"is_disabled":false,"rental_uris":{"android":"levelo://app?vid=1b51e78e-a966-4d88-bd61-cc946b95f0e5","ios":"levelo://app?vid=1b51e78e-a966-4d88-bd61-cc946b95f0e5"},"vehicle_type_id":"4","last_reported":1770910789,"current_range_meters":4000,"station_id":"ce4bhl12rcd13ifvqgf0","pricing_plan_id":"cebpf4jnsgd1na2vs0mg"},{"bike_id":"5d8b11ac-fc32-4f8c-a9cf-b8bd6a3bf877","system_id":"levelo_inurba_marseille","lat":43.28635,"lon":5.35113,"is_reserved":false,"is_disabled":false,"rental_uris":{"android":"levelo://app?vid=5d8b11ac-fc32-4f8c-a9cf-b8bd6a3bf877","ios":"levelo://app?vid=5d8b11ac-fc32-4f8c-a9cf-b8bd6a3bf877"},"vehicle_type_id":"4","last_reported":1770910789,"current_range_meters":4400,"station_id":"ce4bhch2rcd13ifvqeug","pricing_plan_id":"cebpf4jnsgd1na2vs0mg"},{"bike_id":"9e3bc487-b0e5-43b2-98b8-caa6f87f206e","system_id":"levelo_inurba_marseille","lat":43.31722,"lon":5.37767,"is_reserved":false,"is_disabled":false,"rental_uris":{"android":"levelo://app?vid=9e3bc487-b0e5-43b2-98b8-caa6f87f206e","ios":"levelo://app?vid=9e3bc487-b0e5-43b2-98b8-caa6f87f206e"},"vehicle_type_id":"4","last_reported":1770910789,"current_range_meters":4400,"station_id":"ce4bgth2rcd13ifvqch0","pricing_plan_id":"cebpf4jnsgd1na2vs0mg"},{"bike_id":"47423f7a-747c-4b59-ba0a-ecee1764689f","system_id":"levelo_inurba_marseille","lat":43.24384,"lon":5.370565,"is_reserved":false,"is_disabled":false,"rental_uris":{"android":"levelo://app?vid=47423f7a-747c-4b59-ba0a-ecee1764689f","ios":"levelo://app?vid=47423f7a-747c-4b59-ba0a-ecee1764689f"},"vehicle_type_id":"4","last_reported":1770910789,"current_range_meters":4400,"station_id":"ce4bhhh2rcd13ifvqfk0","pricing_plan_id":"cebpf4jnsgd1na2vs0mg"},{"bike_id":"8eacced8-272b-41d9-9397-61b329ca6fac","system_id":"levelo_inurba_marseille","lat":43.25948,"lon":5.40894,"is_reserved":false,"is_disabled":false,"rental_uris":{"android":"levelo://app?vid=8eacced8-272b-41d9-9397-61b329ca6fac","ios":"levelo://app?vid=8eacced8-272b-41d9-9397-61b329ca6fac"},"vehicle_type_id":"4","last_reported":1770910789,"current_range_meters":4400,"station_id":"ce4bhm92rcd13ifvqglg","pricing_plan_id":"cebpf4jnsgd1na2vs0mg"},{"bike_id":"227b32ff-f86e-418c-ac80-b1e86407f216","system_id":"levelo_inurba_marseille","lat":43.30295,"lon":5.36871,"is_reserved":false,"is_disabled":false,"rental_uris":{"android":"levelo://app?vid=227b32ff-f86e-418c-ac80-b1e86407f216","ios":"levelo://app?vid=227b32ff-f86e-418c-ac80-b1e86407f216"},"vehicle_type_id":"4","last_reported":1770910789,"current_range_meters":4800,"station_id":"ce4bgqh2rcd13ifvqc5g","pricing_plan_id":"cebpf4jnsgd1na2vs0mg"},{"bike_id":"fdcca747-1f0c-4265-9d25-6a349973ec5d","system_id":"levelo_inurba_marseille","lat":43.33169,"lon":5.37668,"is_reserved":false,"is_disabled":false,"rental_uris":{"android":"levelo://app?vid=fdcca747-1f0c-4265-9d25-6a349973ec5d","ios":"levelo://app?vid=fdcca747-1f0c-4265-9d25-6a349973ec5d"},"vehicle_type_id":"4","last_reported":1770910789,"current_range_meters":4800,"station_id":"st_d46cu089ee8s73dldbu0","pricing_plan_id":"cebpf4jnsgd1na2vs0mg"},{"bike_id":"5e8bc9a0-31b7-4a14-ace2-5f70a6fe3fce","system_id":"levelo_inurba_marseille","lat":43.28616,"lon":5.39877,"is_reserved":false,"is_disabled":false,"rental_uris":{"android":"levelo://app?vid=5e8bc9a0-31b7-4a14-ace2-5f70a6fe3fce","ios":"levelo://app?vid=5e8bc9a0-31b7-4a14-ace2-5f70a6fe3fce"},"vehicle_type_id":"4","last_reported":1770910789,"current_range_meters":4800,"station_id":"st_d4a7ka997mjs738ck50g","pricing_plan_id":"cebpf4jnsgd1na2vs0mg"},{"bike_id":"28ab285e-8999-4889-8287-5d2f4a0123b3","system_id":"levelo_inurba_marseille","lat":43.24178,"lon":5.3972,"is_reserved":false,"is_disabled":false,"rental_uris":{"android":"levelo://app?vid=28ab285e-8999-4889-8287-5d2f4a0123b3","ios":"levelo://app?vid=28ab285e-8999-4889-8287-5d2f4a0123b3"},"vehicle_type_id":"4","last_reported":1770910789,"current_range_meters":4800,"station_id":"ce4bhn12rcd13ifvqgpg","pricing_plan_id":"cebpf4jnsgd1na2vs0mg"},{"bike_id":"9c4fa197-e784-47a1-9a3e-1e64aa186f14","system_id":"levelo_inurba_marseille","lat":43.25935,"lon":5.40911,"is_reserved":false,"is_disabled":false,"rental_uris":{"android":"levelo://app?vid=9c4fa197-e784-47a1-9a3e-1e64aa186f14","ios":"levelo://app?vid=9c4fa197-e784-47a1-9a3e-1e64aa186f14"},"vehicle_type_id":"4","last_reported":1770910789,"current_range_meters":5600,"station_id":"ce4bhm92rcd13ifvqglg","pricing_plan_id":"cebpf4jnsgd1na2vs0mg"},{"bike_id":"5fda65b6-7f98-4bf6-b2de-a2c95ed917cc","system_id":"levelo_inurba_marseille","lat":43.25477,"lon":5.38459,"is_reserved":false,"is_disabled":false,"rental_uris":{"android":"levelo://app?vid=5fda65b6-7f98-4bf6-b2de-a2c95ed917cc","ios":"levelo://app?vid=5fda65b6-7f98-4bf6-b2de-a2c95ed917cc"},"vehicle_type_id":"4","last_reported":1770910789,"current_range_meters":5600,"station_id":"","pricing_plan_id":"cebpf4jnsgd1na2vs0mg"},{"bike_id":"1eab5fb7-9337-43ee-91d2-e864b1a6d134","system_id":"levelo_inurba_marseille","lat":43.23145,"lon":5.43706,"is_reserved":false,"is_disabled":false,"rental_uris":{"android":"levelo://app?vid=1eab5fb7-9337-43ee-91d2-e864b1a6d134","ios":"levelo://app?vid=1eab5fb7-9337-43ee-91d2-e864b1a6d134"},"vehicle_type_id":"4","last_reported":1770910789,"current_range_meters":5600,"station_id":"ce4bhmp2rcd13ifvqgog","pricing_plan_id":"cebpf4jnsgd1na2vs0mg"},{"bike_id":"4b0402d0-6a44-4bbb-b789-624aca22b714","system_id":"levelo_inurba_marseille","lat":43.26193,"lon":5.41711,"is_reserved":false,"is_disabled":false,"rental_uris":{"android":"levelo://app?vid=4b0402d0-6a44-4bbb-b789-624aca22b714","ios":"levelo://app?vid=4b0402d0-6a44-4bbb-b789-624aca22b714"},"vehicle_type_id":"4","last_reported":1770910789,"current_range_meters":5600,"station_id":"","pricing_plan_id":"cebpf4jnsgd1na2vs0mg"},{"bike_id":"6d94361a-e0ab-44b1-a35e-db2dc15ed265","system_id":"levelo_inurba_marseille","lat":43.22563,"lon":5.41628,"is_reserved":false,"is_disabled":false,"rental_uris":{"android":"levelo://app?vid=6d94361a-e0ab-44b1-a35e-db2dc15ed265","ios":"levelo://app?vid=6d94361a-e0ab-44b1-a35e-db2dc15ed265"},"vehicle_type_id":"4","last_reported":1770910789,"current_range_meters":5600,"station_id":"st_d2o4gvlbi1j2169b742g","pricing_plan_id":"cebpf4jnsgd1na2vs0mg"},{"bike_id":"9df34885-ac04-43a6-b4c2-df2cea230626","system_id":"levelo_inurba_marseille","lat":43.31219,"lon":5.3682,"is_reserved":false,"is_disabled":false,"rental_uris":{"android":"levelo://app?vid=9df34885-ac04-43a6-b4c2-df2cea230626","ios":"levelo://app?vid=9df34885-ac04-43a6-b4c2-df2cea230626"},"vehicle_type_id":"4","last_reported":1770910789,"current_range_meters":6000,"station_id":"ce4bgl92rcd13ifvqbq0","pricing_plan_id":"cebpf4jnsgd1na2vs0mg"},{"bike_id":"d997c6b7-acb1-4efa-ae35-2d8c161e2e69","system_id":"levelo_inurba_marseille","lat":43.2319,"lon":5.35541,"is_reserved":false,"is_disabled":false,"rental_uris":{"android":"levelo://app?vid=d997c6b7-acb1-4efa-ae35-2d8c161e2e69","ios":"levelo://app?vid=d997c6b7-acb1-4efa-ae35-2d8c161e2e69"},"vehicle_type_id":"4","last_reported":1770910789,"current_range_meters":6000,"station_id":"ce4bhu92rcd13ifvqi70","pricing_plan_id":"cebpf4jnsgd1na2vs0mg"},{"bike_id":"6673ac44-296d-4959-9b90-4bd46007de83","system_id":"levelo_inurba_marseille","lat":43.24388,"lon":5.37039,"is_reserved":false,"is_disabled":false,"rental_uris":{"android":"levelo://app?vid=6673ac44-296d-4959-9b90-4bd46007de83","ios":"levelo://app?vid=6673ac44-296d-4959-9b90-4bd46007de83"},"vehicle_type_id":"4","last_reported":1770910789,"current_range_meters":6000,"station_id":"ce4bhhh2rcd13ifvqfk0","pricing_plan_id":"cebpf4jnsgd1na2vs0mg"},{"bike_id":"f9279045-5f23-4d4b-a78d-0570cb24285b","system_id":"levelo_inurba_marseille","lat":43.28717,"lon":5.37921,"is_reserved":false,"is_disabled":false,"rental_uris":{"android":"levelo://app?vid=f9279045-5f23-4d4b-a78d-0570cb24285b","ios":"levelo://app?vid=f9279045-5f23-4d4b-a78d-0570cb24285b"},"vehicle_type_id":"4","last_reported":1770910789,"current_range_meters":6000,"station_id":"ce4bh9p2rcd13ifvqec0","pricing_plan_id":"cebpf4jnsgd1na2vs0mg"},{"bike_id":"c8988db3-7868-4db9-a1ba-e2cb804510c0","system_id":"levelo_inurba_marseille","lat":43.292733,"lon":5.368443,"is_reserved":false,"is_disabled":false,"rental_uris":{"android":"levelo://app?vid=c8988db3-7868-4db9-a1ba-e2cb804510c0","ios":"levelo://app?vid=c8988db3-7868-4db9-a1ba-e2cb804510c0"},"vehicle_type_id":"4","last_reported":1770910789,"current_range_meters":6000,"station_id":"ce4bhbp2rcd13ifvqesg","pricing_plan_id":"cebpf4jnsgd1na2vs0mg"},{"bike_id":"dddd8dae-2150-40e8-9b96-7bf9dacad978","system_id":"levelo_inurba_marseille","lat":43.2989,"lon":5.43669,"is_reserved":false,"is_disabled":false,"rental_uris":{"android":"levelo://app?vid=dddd8dae-2150-40e8-9b96-7bf9dacad978","ios":"levelo://app?vid=dddd8dae-2150-40e8-9b96-7bf9dacad978"},"vehicle_type_id":"4","last_reported":1770910789,"current_range_meters":6000,"station_id":"ce4bhpp2rcd13ifvqhfg","pricing_plan_id":"cebpf4jnsgd1na2vs0mg"},{"bike_id":"686df884-4325-46e4-94dd-6bbb1527d221","system_id":"levelo_inurba_marseille","lat":43.24467,"lon":5.42543,"is_reserved":false,"is_disabled":false,"rental_uris":{"android":"levelo://app?vid=686df884-4325-46e4-94dd-6bbb1527d221","ios":"levelo://app?vid=686df884-4325-46e4-94dd-6bbb1527d221"},"vehicle_type_id":"4","last_reported":1770910789,"current_range_meters":6000,"station_id":"st_d4a3vfp97mjs738cd8kg","pricing_plan_id":"cebpf4jnsgd1na2vs0mg"},{"bike_id":"97fa5044-16b9-4eef-9afe-443ddc7e35a8","system_id":"levelo_inurba_marseille","lat":43.2847,"lon":5.35879,"is_reserved":false,"is_disabled":false,"rental_uris":{"android":"levelo://app?vid=97fa5044-16b9-4eef-9afe-443ddc7e35a8","ios":"levelo://app?vid=97fa5044-16b9-4eef-9afe-443ddc7e35a8"},"vehicle_type_id":"4","last_reported":1770910789,"current_range_meters":6000,"station_id":"ce4bhah2rcd13ifvqei0","pricing_plan_id":"cebpf4jnsgd1na2vs0mg"},{"bike_id":"4eea8287-5744-4826-aede-ff10343e7484","system_id":"levelo_inurba_marseille","lat":43.29929,"lon":5.36545,"is_reserved":false,"is_disabled":false,"rental_uris":{"android":"levelo://app?vid=4eea8287-5744-4826-aede-ff10343e7484","ios":"levelo://app?vid=4eea8287-5744-4826-aede-ff10343e7484"},"vehicle_type_id":"4","last_reported":1770910789,"current_range_meters":6000,"station_id":"ce4bgm92rcd13ifvqbr0","pricing_plan_id":"cebpf4jnsgd1na2vs0mg"},{"bike_id":"eb153995-5d33-4b1d-a5c0-ee8cc4302ea8","system_id":"levelo_inurba_marseille","lat":43.26585,"lon":5.38982,"is_reserved":false,"is_disabled":false,"rental_uris":{"android":"levelo://app?vid=eb153995-5d33-4b1d-a5c0-ee8cc4302ea8","ios":"levelo://app?vid=eb153995-5d33-4b1d-a5c0-ee8cc4302ea8"},"vehicle_type_id":"4","last_reported":1770910789,"current_range_meters":6400,"station_id":"ce4bhe12rcd13ifvqf30","pricing_plan_id":"cebpf4jnsgd1na2vs0mg"},{"bike_id":"406b8143-680c-411e-8da6-8818c609b259","system_id":"levelo_inurba_marseille","lat":43.22922,"lon":5.35406,"is_reserved":false,"is_disabled":false,"rental_uris":{"android":"levelo://app?vid=406b8143-680c-411e-8da6-8818c609b259","ios":"levelo://app?vid=406b8143-680c-411e-8da6-8818c609b259"},"vehicle_type_id":"4","last_reported":1770910789,"current_range_meters":6400,"station_id":"cpo3532slgdg3j2ikp40","pricing_plan_id":"cebpf4jnsgd1na2vs0mg"},{"bike_id":"74a1f7ea-d1e4-4213-bdad-d7e8c3e74a85","system_id":"levelo_inurba_marseille","lat":43.29529,"lon":5.39039,"is_reserved":false,"is_disabled":false,"rental_uris":{"android":"levelo://app?vid=74a1f7ea-d1e4-4213-bdad-d7e8c3e74a85","ios":"levelo://app?vid=74a1f7ea-d1e4-4213-bdad-d7e8c3e74a85"},"vehicle_type_id":"4","last_reported":1770910789,"current_range_meters":6400,"station_id":"ce4bgvp2rcd13ifvqcu0","pricing_plan_id":"cebpf4jnsgd1na2vs0mg"},{"bike_id":"20bf0ba4-e310-4983-9930-62e33b3f0a23","system_id":"levelo_inurba_marseille","lat":43.29002,"lon":5.35613,"is_reserved":false,"is_disabled":false,"rental_uris":{"android":"levelo://app?vid=20bf0ba4-e310-4983-9930-62e33b3f0a23","ios":"levelo://app?vid=20bf0ba4-e310-4983-9930-62e33b3f0a23"},"vehicle_type_id":"4","last_reported":1770910789,"current_range_meters":6400,"station_id":"ce4bhb92rcd13ifvqen0","pricing_plan_id":"cebpf4jnsgd1na2vs0mg"},{"bike_id":"78288666-4320-47d1-a1d4-5d9b6e0518e9","system_id":"levelo_inurba_marseille","lat":43.29595,"lon":5.36748,"is_reserved":false,"is_disabled":false,"rental_uris":{"android":"levelo://app?vid=78288666-4320-47d1-a1d4-5d9b6e0518e9","ios":"levelo://app?vid=78288666-4320-47d1-a1d4-5d9b6e0518e9"},"vehicle_type_id":"4","last_reported":1770910789,"current_range_meters":6400,"station_id":"ce4bgph2rcd13ifvqc2g","pricing_plan_id":"cebpf4jnsgd1na2vs0mg"},{"bike_id":"6e2fc0d4-a25b-4469-96ca-042c68399b84","system_id":"levelo_inurba_marseille","lat":43.29075,"lon":5.37152,"is_reserved":false,"is_disabled":false,"rental_uris":{"android":"levelo://app?vid=6e2fc0d4-a25b-4469-96ca-042c68399b84","ios":"levelo://app?vid=6e2fc0d4-a25b-4469-96ca-042c68399b84"},"vehicle_type_id":"4","last_reported":1770910789,"current_range_meters":6800,"station_id":"ce4bh5p2rcd13ifvqe4g","pricing_plan_id":"cebpf4jnsgd1na2vs0mg"},{"bike_id":"1666b265-643d-41e7-bcc3-6167a6d49f91","system_id":"levelo_inurba_marseille","lat":43.22533,"lon":5.34847,"is_reserved":false,"is_disabled":false,"rental_uris":{"android":"levelo://app?vid=1666b265-643d-41e7-bcc3-6167a6d49f91","ios":"levelo://app?vid=1666b265-643d-41e7-bcc3-6167a6d49f91"},"vehicle_type_id":"4","last_reported":1770910789,"current_range_meters":6800,"station_id":"","pricing_plan_id":"cebpf4jnsgd1na2vs0mg"},{"bike_id":"adedccca-d77d-4967-91ed-2661b5b510ba","system_id":"levelo_inurba_marseille","lat":43.2256,"lon":5.41637,"is_reserved":false,"is_disabled":false,"rental_uris":{"android":"levelo://app?vid=adedccca-d77d-4967-91ed-2661b5b510ba","ios":"levelo://app?vid=adedccca-d77d-4967-91ed-2661b5b510ba"},"vehicle_type_id":"4","last_reported":1770910789,"current_range_meters":6800,"station_id":"st_d2o4gvlbi1j2169b742g","pricing_plan_id":"cebpf4jnsgd1na2vs0mg"},{"bike_id":"e767e95b-e9e9-4576-94d6-7e47f685173c","system_id":"levelo_inurba_marseille","lat":43.30913,"lon":5.36847,"is_reserved":false,"is_disabled":false,"rental_uris":{"android":"levelo://app?vid=e767e95b-e9e9-4576-94d6-7e47f685173c","ios":"levelo://app?vid=e767e95b-e9e9-4576-94d6-7e47f685173c"},"vehicle_type_id":"4","last_reported":1770910789,"current_range_meters":6800,"station_id":"ce4bgn92rcd13ifvqbvg","pricing_plan_id":"cebpf4jnsgd1na2vs0mg"},{"bike_id":"eb9d66ff-a612-4121-8b67-1d84deda7e3a","system_id":"levelo_inurba_marseille","lat":43.331547,"lon":5.37664,"is_reserved":false,"is_disabled":false,"rental_uris":{"android":"levelo://app?vid=eb9d66ff-a612-4121-8b67-1d84deda7e3a","ios":"levelo://app?vid=eb9d66ff-a612-4121-8b67-1d84deda7e3a"},"vehicle_type_id":"4","last_reported":1770910789,"current_range_meters":6800,"station_id":"st_d46cu089ee8s73dldbu0","pricing_plan_id":"cebpf4jnsgd1na2vs0mg"},{"bike_id":"6a1cfcbe-e32a-439e-a968-714a4b55e721","system_id":"levelo_inurba_marseille","lat":43.281,"lon":5.37855,"is_reserved":false,"is_disabled":true,"rental_uris":{"android":"levelo://app?vid=6a1cfcbe-e32a-439e-a968-714a4b55e721","ios":"levelo://app?vid=6a1cfcbe-e32a-439e-a968-714a4b55e721"},"vehicle_type_id":"4","last_reported":1770910789,"current_range_meters":6800,"station_id":"ce4bha12rcd13ifvqee0","pricing_plan_id":"cebpf4jnsgd1na2vs0mg"},{"bike_id":"8141cdd5-f226-4743-8842-29b91ffb34e4","system_id":"levelo_inurba_marseille","lat":43.28944,"lon":5.39623,"is_reserved":false,"is_disabled":false,"rental_uris":{"android":"levelo://app?vid=8141cdd5-f226-4743-8842-29b91ffb34e4","ios":"levelo://app?vid=8141cdd5-f226-4743-8842-29b91ffb34e4"},"vehicle_type_id":"4","last_reported":1770910789,"current_range_meters":6800,"station_id":"ce4bh3h2rcd13ifvqdn0","pricing_plan_id":"cebpf4jnsgd1na2vs0mg"},{"bike_id":"5e7f268c-2ff0-41d8-93e1-85b4b8221ee1","system_id":"levelo_inurba_marseille","lat":43.23184,"lon":5.3999,"is_reserved":false,"is_disabled":false,"rental_uris":{"android":"levelo://app?vid=5e7f268c-2ff0-41d8-93e1-85b4b8221ee1","ios":"levelo://app?vid=5e7f268c-2ff0-41d8-93e1-85b4b8221ee1"},"vehicle_type_id":"4","last_reported":1770910789,"current_range_meters":6800,"station_id":"ce4bhn12rcd13ifvqgqg","pricing_plan_id":"cebpf4jnsgd1na2vs0mg"},{"bike_id":"5f6ae4c8-a7cd-4f3b-9adf-671bbd618c70","system_id":"levelo_inurba_marseille","lat":43.25575,"lon":5.3824,"is_reserved":false,"is_disabled":false,"rental_uris":{"android":"levelo://app?vid=5f6ae4c8-a7cd-4f3b-9adf-671bbd618c70","ios":"levelo://app?vid=5f6ae4c8-a7cd-4f3b-9adf-671bbd618c70"},"vehicle_type_id":"4","last_reported":1770910789,"current_range_meters":7200,"station_id":"ce4bhih2rcd13ifvqfs0","pricing_plan_id":"cebpf4jnsgd1na2vs0mg"},{"bike_id":"c4d52c50-a89f-445e-af8c-f5d7fd1b3a38","system_id":"levelo_inurba_marseille","lat":43.29939,"lon":5.36509,"is_reserved":false,"is_disabled":false,"rental_uris":{"android":"levelo://app?vid=c4d52c50-a89f-445e-af8c-f5d7fd1b3a38","ios":"levelo://app?vid=c4d52c50-a89f-445e-af8c-f5d7fd1b3a38"},"vehicle_type_id":"4","last_reported":1770910789,"current_range_meters":7200,"station_id":"ce4bgm92rcd13ifvqbr0","pricing_plan_id":"cebpf4jnsgd1na2vs0mg"},{"bike_id":"52c5007b-88c9-4d1c-9fe2-488c4cdcfbef","system_id":"levelo_inurba_marseille","lat":43.25868,"lon":5.39888,"is_reserved":false,"is_disabled":false,"rental_uris":{"android":"levelo://app?vid=52c5007b-88c9-4d1c-9fe2-488c4cdcfbef","ios":"levelo://app?vid=52c5007b-88c9-4d1c-9fe2-488c4cdcfbef"},"vehicle_type_id":"4","last_reported":1770910789,"current_range_meters":7200,"station_id":"ce4bhl92rcd13ifvqghg","pricing_plan_id":"cebpf4jnsgd1na2vs0mg"},{"bike_id":"e44df137-3a9f-4865-a2d3-769a6f5bfc14","system_id":"levelo_inurba_marseille","lat":43.30912,"lon":5.3685,"is_reserved":false,"is_disabled":false,"rental_uris":{"android":"levelo://app?vid=e44df137-3a9f-4865-a2d3-769a6f5bfc14","ios":"levelo://app?vid=e44df137-3a9f-4865-a2d3-769a6f5bfc14"},"vehicle_type_id":"4","last_reported":1770910789,"current_range_meters":7200,"station_id":"ce4bgn92rcd13ifvqbvg","pricing_plan_id":"cebpf4jnsgd1na2vs0mg"},{"bike_id":"a95bcbb6-9652-453d-a5aa-66a13cd5401c","system_id":"levelo_inurba_marseille","lat":43.25933,"lon":5.40883,"is_reserved":false,"is_disabled":false,"rental_uris":{"android":"levelo://app?vid=a95bcbb6-9652-453d-a5aa-66a13cd5401c","ios":"levelo://app?vid=a95bcbb6-9652-453d-a5aa-66a13cd5401c"},"vehicle_type_id":"4","last_reported":1770910789,"current_range_meters":7200,"station_id":"ce4bhm92rcd13ifvqglg","pricing_plan_id":"cebpf4jnsgd1na2vs0mg"},{"bike_id":"2d062516-f96d-4bc1-86f0-aa3654535a01","system_id":"levelo_inurba_marseille","lat":43.2975,"lon":5.42764,"is_reserved":false,"is_disabled":false,"rental_uris":{"android":"levelo://app?vid=2d062516-f96d-4bc1-86f0-aa3654535a01","ios":"levelo://app?vid=2d062516-f96d-4bc1-86f0-aa3654535a01"},"vehicle_type_id":"4","last_reported":1770910789,"current_range_meters":7200,"station_id":"st_d3md5207bmas73dh9klg","pricing_plan_id":"cebpf4jnsgd1na2vs0mg"},{"bike_id":"46939c8e-825e-45ec-ac05-85d9fb0a4528","system_id":"levelo_inurba_marseille","lat":43.31207,"lon":5.36887,"is_reserved":false,"is_disabled":false,"rental_uris":{"android":"levelo://app?vid=46939c8e-825e-45ec-ac05-85d9fb0a4528","ios":"levelo://app?vid=46939c8e-825e-45ec-ac05-85d9fb0a4528"},"vehicle_type_id":"4","last_reported":1770910789,"current_range_meters":7200,"station_id":"ce4bgl92rcd13ifvqbq0","pricing_plan_id":"cebpf4jnsgd1na2vs0mg"},{"bike_id":"1dbb69cb-8222-4e8a-9ca2-6df7c935fc4f","system_id":"levelo_inurba_marseille","lat":43.24695,"lon":5.37365,"is_reserved":false,"is_disabled":false,"rental_uris":{"android":"levelo://app?vid=1dbb69cb-8222-4e8a-9ca2-6df7c935fc4f","ios":"levelo://app?vid=1dbb69cb-8222-4e8a-9ca2-6df7c935fc4f"},"vehicle_type_id":"4","last_reported":1770910789,"current_range_meters":7200,"station_id":"ce4bhgh2rcd13ifvqfb0","pricing_plan_id":"cebpf4jnsgd1na2vs0mg"},{"bike_id":"6f36e1ce-a732-4813-9d77-efe6e46c862d","system_id":"levelo_inurba_marseille","lat":43.28622,"lon":5.35129,"is_reserved":false,"is_disabled":false,"rental_uris":{"android":"levelo://app?vid=6f36e1ce-a732-4813-9d77-efe6e46c862d","ios":"levelo://app?vid=6f36e1ce-a732-4813-9d77-efe6e46c862d"},"vehicle_type_id":"4","last_reported":1770910789,"current_range_meters":7200,"station_id":"ce4bhch2rcd13ifvqeug","pricing_plan_id":"cebpf4jnsgd1na2vs0mg"},{"bike_id":"989b5b08-d948-4be9-bc29-7318c8ff2142","system_id":"levelo_inurba_marseille","lat":43.24645,"lon":5.43107,"is_reserved":false,"is_disabled":false,"rental_uris":{"android":"levelo://app?vid=989b5b08-d948-4be9-bc29-7318c8ff2142","ios":"levelo://app?vid=989b5b08-d948-4be9-bc29-7318c8ff2142"},"vehicle_type_id":"4","last_reported":1770910789,"current_range_meters":7200,"station_id":"st_d2m6c4gdas8pm72e190g","pricing_plan_id":"cebpf4jnsgd1na2vs0mg"},{"bike_id":"864cec40-0ff3-4697-9da2-81d63157f80b","system_id":"levelo_inurba_marseille","lat":43.297523,"lon":5.427787,"is_reserved":false,"is_disabled":false,"rental_uris":{"android":"levelo://app?vid=864cec40-0ff3-4697-9da2-81d63157f80b","ios":"levelo://app?vid=864cec40-0ff3-4697-9da2-81d63157f80b"},"vehicle_type_id":"4","last_reported":1770910789,"current_range_meters":7200,"station_id":"st_d3md5207bmas73dh9klg","pricing_plan_id":"cebpf4jnsgd1na2vs0mg"},{"bike_id":"548fba75-5c03-4b29-bea8-86749ff3ac2d","system_id":"levelo_inurba_marseille","lat":43.29859,"lon":5.3629,"is_reserved":false,"is_disabled":false,"rental_uris":{"android":"levelo://app?vid=548fba75-5c03-4b29-bea8-86749ff3ac2d","ios":"levelo://app?vid=548fba75-5c03-4b29-bea8-86749ff3ac2d"},"vehicle_type_id":"4","last_reported":1770910789,"current_range_meters":8000,"station_id":"ce4bgpp2rcd13ifvqc3g","pricing_plan_id":"cebpf4jnsgd1na2vs0mg"},{"bike_id":"661c1ad9-8e78-490b-aa77-0dd317a910f6","system_id":"levelo_inurba_marseille","lat":43.27202,"lon":5.392,"is_reserved":false,"is_disabled":true,"rental_uris":{"android":"levelo://app?vid=661c1ad9-8e78-490b-aa77-0dd317a910f6","ios":"levelo://app?vid=661c1ad9-8e78-490b-aa77-0dd317a910f6"},"vehicle_type_id":"4","last_reported":1770910789,"current_range_meters":8000,"station_id":"ce4bhhp2rcd13ifvqfm0","pricing_plan_id":"cebpf4jnsgd1na2vs0mg"},{"bike_id":"8f3a9ea3-3d5f-4beb-8e6c-40222b0c90d4","system_id":"levelo_inurba_marseille","lat":43.2839,"lon":5.35312,"is_reserved":false,"is_disabled":false,"rental_uris":{"android":"levelo://app?vid=8f3a9ea3-3d5f-4beb-8e6c-40222b0c90d4","ios":"levelo://app?vid=8f3a9ea3-3d5f-4beb-8e6c-40222b0c90d4"},"vehicle_type_id":"4","last_reported":1770910789,"current_range_meters":8000,"station_id":"","pricing_plan_id":"cebpf4jnsgd1na2vs0mg"},{"bike_id":"e405be7d-9d65-415d-92c5-f1f1d5d9b415","system_id":"levelo_inurba_marseille","lat":43.29629,"lon":5.40621,"is_reserved":false,"is_disabled":false,"rental_uris":{"android":"levelo://app?vid=e405be7d-9d65-415d-92c5-f1f1d5d9b415","ios":"levelo://app?vid=e405be7d-9d65-415d-92c5-f1f1d5d9b415"},"vehicle_type_id":"4","last_reported":1770910789,"current_range_meters":8000,"station_id":"ce4bh0h2rcd13ifvqd60","pricing_plan_id":"cebpf4jnsgd1na2vs0mg"},{"bike_id":"52d294a6-dfc4-49e2-9128-2096407aa892","system_id":"levelo_inurba_marseille","lat":43.30158,"lon":5.37419,"is_reserved":false,"is_disabled":false,"rental_uris":{"android":"levelo://app?vid=52d294a6-dfc4-49e2-9128-2096407aa892","ios":"levelo://app?vid=52d294a6-dfc4-49e2-9128-2096407aa892"},"vehicle_type_id":"4","last_reported":1770910789,"current_range_meters":8000,"station_id":"ce4bgs92rcd13ifvqcc0","pricing_plan_id":"cebpf4jnsgd1na2vs0mg"},{"bike_id":"0079d939-22bf-4727-96d8-2fe94825e5ef","system_id":"levelo_inurba_marseille","lat":43.27607,"lon":5.36109,"is_reserved":false,"is_disabled":false,"rental_uris":{"android":"levelo://app?vid=0079d939-22bf-4727-96d8-2fe94825e5ef","ios":"levelo://app?vid=0079d939-22bf-4727-96d8-2fe94825e5ef"},"vehicle_type_id":"4","last_reported":1770910789,"current_range_meters":8000,"station_id":"ce4bgj92rcd13ifvqbe0","pricing_plan_id":"cebpf4jnsgd1na2vs0mg"},{"bike_id":"63616dc6-da91-4b0e-b74a-66f0aa885642","system_id":"levelo_inurba_marseille","lat":43.33027,"lon":5.39041,"is_reserved":false,"is_disabled":false,"rental_uris":{"android":"levelo://app?vid=63616dc6-da91-4b0e-b74a-66f0aa885642","ios":"levelo://app?vid=63616dc6-da91-4b0e-b74a-66f0aa885642"},"vehicle_type_id":"4","last_reported":1770910789,"current_range_meters":8000,"station_id":"ce4bhr92rcd13ifvqhrg","pricing_plan_id":"cebpf4jnsgd1na2vs0mg"},{"bike_id":"06edbac2-a66d-4487-8584-2623990a847b","system_id":"levelo_inurba_marseille","lat":43.260296,"lon":5.375588,"is_reserved":false,"is_disabled":false,"rental_uris":{"android":"levelo://app?vid=06edbac2-a66d-4487-8584-2623990a847b","ios":"levelo://app?vid=06edbac2-a66d-4487-8584-2623990a847b"},"vehicle_type_id":"4","last_reported":1770910789,"current_range_meters":8000,"station_id":"ce4bhgh2rcd13ifvqfa0","pricing_plan_id":"cebpf4jnsgd1na2vs0mg"},{"bike_id":"cb9be5fc-0f8f-4012-b222-62b158765b42","system_id":"levelo_inurba_marseille","lat":43.22947,"lon":5.35366,"is_reserved":false,"is_disabled":false,"rental_uris":{"android":"levelo://app?vid=cb9be5fc-0f8f-4012-b222-62b158765b42","ios":"levelo://app?vid=cb9be5fc-0f8f-4012-b222-62b158765b42"},"vehicle_type_id":"4","last_reported":1770910789,"current_range_meters":8000,"station_id":"cpo3532slgdg3j2ikp40","pricing_plan_id":"cebpf4jnsgd1na2vs0mg"},{"bike_id":"41536ba6-5dd4-4add-a646-491b9fa39068","system_id":"levelo_inurba_marseille","lat":43.24475,"lon":5.42521,"is_reserved":false,"is_disabled":false,"rental_uris":{"android":"levelo://app?vid=41536ba6-5dd4-4add-a646-491b9fa39068","ios":"levelo://app?vid=41536ba6-5dd4-4add-a646-491b9fa39068"},"vehicle_type_id":"4","last_reported":1770910789,"current_range_meters":8000,"station_id":"st_d4a3vfp97mjs738cd8kg","pricing_plan_id":"cebpf4jnsgd1na2vs0mg"},{"bike_id":"46795c32-d155-4823-a0f3-872b06d1e11d","system_id":"levelo_inurba_marseille","lat":43.21753,"lon":5.34604,"is_reserved":false,"is_disabled":false,"rental_uris":{"android":"levelo://app?vid=46795c32-d155-4823-a0f3-872b06d1e11d","ios":"levelo://app?vid=46795c32-d155-4823-a0f3-872b06d1e11d"},"vehicle_type_id":"4","last_reported":1770910789,"current_range_meters":8000,"station_id":"","pricing_plan_id":"cebpf4jnsgd1na2vs0mg"},{"bike_id":"85ca329a-9c55-4be1-b2da-c3d917ed6363","system_id":"levelo_inurba_marseille","lat":43.24542,"lon":5.39529,"is_reserved":false,"is_disabled":false,"rental_uris":{"android":"levelo://app?vid=85ca329a-9c55-4be1-b2da-c3d917ed6363","ios":"levelo://app?vid=85ca329a-9c55-4be1-b2da-c3d917ed6363"},"vehicle_type_id":"4","last_reported":1770910789,"current_range_meters":8400,"station_id":"ce4bhlp2rcd13ifvqgjg","pricing_plan_id":"cebpf4jnsgd1na2vs0mg"},{"bike_id":"4e0f9367-7bac-4416-a504-19f0c84a5aa3","system_id":"levelo_inurba_marseille","lat":43.28149,"lon":5.42625,"is_reserved":false,"is_disabled":false,"rental_uris":{"android":"levelo://app?vid=4e0f9367-7bac-4416-a504-19f0c84a5aa3","ios":"levelo://app?vid=4e0f9367-7bac-4416-a504-19f0c84a5aa3"},"vehicle_type_id":"4","last_reported":1770910789,"current_range_meters":8400,"station_id":"ce4bhnh2rcd13ifvqgug","pricing_plan_id":"cebpf4jnsgd1na2vs0mg"},{"bike_id":"e6368be2-7e62-4f22-9ec0-c26a8ba4b8e5","system_id":"levelo_inurba_marseille","lat":43.29222,"lon":5.36077,"is_reserved":false,"is_disabled":false,"rental_uris":{"android":"levelo://app?vid=e6368be2-7e62-4f22-9ec0-c26a8ba4b8e5","ios":"levelo://app?vid=e6368be2-7e62-4f22-9ec0-c26a8ba4b8e5"},"vehicle_type_id":"4","last_reported":1770910789,"current_range_meters":8400,"station_id":"ce4bhbh2rcd13ifvqeqg","pricing_plan_id":"cebpf4jnsgd1na2vs0mg"},{"bike_id":"558b0286-85fc-49cb-b13d-aa40847d1ce9","system_id":"levelo_inurba_marseille","lat":43.25002,"lon":5.3893,"is_reserved":false,"is_disabled":false,"rental_uris":{"android":"levelo://app?vid=558b0286-85fc-49cb-b13d-aa40847d1ce9","ios":"levelo://app?vid=558b0286-85fc-49cb-b13d-aa40847d1ce9"},"vehicle_type_id":"4","last_reported":1770910789,"current_range_meters":8400,"station_id":"ce4bhgp2rcd13ifvqfd0","pricing_plan_id":"cebpf4jnsgd1na2vs0mg"},{"bike_id":"3ad331d6-b4d1-49c7-b940-96959fff84a3","system_id":"levelo_inurba_marseille","lat":43.28638,"lon":5.35096,"is_reserved":false,"is_disabled":false,"rental_uris":{"android":"levelo://app?vid=3ad331d6-b4d1-49c7-b940-96959fff84a3","ios":"levelo://app?vid=3ad331d6-b4d1-49c7-b940-96959fff84a3"},"vehicle_type_id":"4","last_reported":1770910789,"current_range_meters":8400,"station_id":"ce4bhch2rcd13ifvqeug","pricing_plan_id":"cebpf4jnsgd1na2vs0mg"},{"bike_id":"9faee6f2-457c-410c-b197-c5102d1e22ad","system_id":"levelo_inurba_marseille","lat":43.23187,"lon":5.40001,"is_reserved":false,"is_disabled":false,"rental_uris":{"android":"levelo://app?vid=9faee6f2-457c-410c-b197-c5102d1e22ad","ios":"levelo://app?vid=9faee6f2-457c-410c-b197-c5102d1e22ad"},"vehicle_type_id":"4","last_reported":1770910789,"current_range_meters":8400,"station_id":"ce4bhn12rcd13ifvqgqg","pricing_plan_id":"cebpf4jnsgd1na2vs0mg"},{"bike_id":"6d146b90-da11-4bbb-b527-7da7e2561db2","system_id":"levelo_inurba_marseille","lat":43.28491,"lon":5.48391,"is_reserved":false,"is_disabled":false,"rental_uris":{"android":"levelo://app?vid=6d146b90-da11-4bbb-b527-7da7e2561db2","ios":"levelo://app?vid=6d146b90-da11-4bbb-b527-7da7e2561db2"},"vehicle_type_id":"4","last_reported":1770910789,"current_range_meters":8400,"station_id":"st_d3svhcjqgbts73a3dn0g","pricing_plan_id":"cebpf4jnsgd1na2vs0mg"},{"bike_id":"44b82be7-a2b9-42f1-8560-17e8ec787592","system_id":"levelo_inurba_marseille","lat":43.30925,"lon":5.36946,"is_reserved":false,"is_disabled":false,"rental_uris":{"android":"levelo://app?vid=44b82be7-a2b9-42f1-8560-17e8ec787592","ios":"levelo://app?vid=44b82be7-a2b9-42f1-8560-17e8ec787592"},"vehicle_type_id":"4","last_reported":1770910789,"current_range_meters":8400,"station_id":"","pricing_plan_id":"cebpf4jnsgd1na2vs0mg"},{"bike_id":"09ad556f-b6d8-43a2-9c08-0649a70ab239","system_id":"levelo_inurba_marseille","lat":43.2964,"lon":5.37734,"is_reserved":false,"is_disabled":false,"rental_uris":{"android":"levelo://app?vid=09ad556f-b6d8-43a2-9c08-0649a70ab239","ios":"levelo://app?vid=09ad556f-b6d8-43a2-9c08-0649a70ab239"},"vehicle_type_id":"4","last_reported":1770910789,"current_range_meters":8400,"station_id":"ce4bgi92rcd13ifvqb90","pricing_plan_id":"cebpf4jnsgd1na2vs0mg"},{"bike_id":"c0db1080-cf41-42e7-9096-d8b74011c4b0","system_id":"levelo_inurba_marseille","lat":43.27976,"lon":5.40067,"is_reserved":false,"is_disabled":false,"rental_uris":{"android":"levelo://app?vid=c0db1080-cf41-42e7-9096-d8b74011c4b0","ios":"levelo://app?vid=c0db1080-cf41-42e7-9096-d8b74011c4b0"},"vehicle_type_id":"4","last_reported":1770910789,"current_range_meters":8400,"station_id":"ce4bho92rcd13ifvqh4g","pricing_plan_id":"cebpf4jnsgd1na2vs0mg"},{"bike_id":"a311edce-7eaa-44a5-b845-c7ac5f407308","system_id":"levelo_inurba_marseille","lat":43.281582,"lon":5.426393,"is_reserved":false,"is_disabled":false,"rental_uris":{"android":"levelo://app?vid=a311edce-7eaa-44a5-b845-c7ac5f407308","ios":"levelo://app?vid=a311edce-7eaa-44a5-b845-c7ac5f407308"},"vehicle_type_id":"4","last_reported":1770910789,"current_range_meters":8400,"station_id":"","pricing_plan_id":"cebpf4jnsgd1na2vs0mg"},{"bike_id":"e61f8348-ac76-4cea-92f8-334c0273949b","system_id":"levelo_inurba_marseille","lat":43.24644,"lon":5.43144,"is_reserved":false,"is_disabled":false,"rental_uris":{"android":"levelo://app?vid=e61f8348-ac76-4cea-92f8-334c0273949b","ios":"levelo://app?vid=e61f8348-ac76-4cea-92f8-334c0273949b"},"vehicle_type_id":"4","last_reported":1770910789,"current_range_meters":8400,"station_id":"st_d2m6c4gdas8pm72e190g","pricing_plan_id":"cebpf4jnsgd1na2vs0mg"},{"bike_id":"22d2114e-9386-41fe-8ad1-075d6a0fb739","system_id":"levelo_inurba_marseille","lat":43.28973,"lon":5.37844,"is_reserved":false,"is_disabled":false,"rental_uris":{"android":"levelo://app?vid=22d2114e-9386-41fe-8ad1-075d6a0fb739","ios":"levelo://app?vid=22d2114e-9386-41fe-8ad1-075d6a0fb739"},"vehicle_type_id":"4","last_reported":1770910789,"current_range_meters":8400,"station_id":"ce4bh9p2rcd13ifvqed0","pricing_plan_id":"cebpf4jnsgd1na2vs0mg"},{"bike_id":"f5dfc69a-605e-4870-9f15-288a758bb79e","system_id":"levelo_inurba_marseille","lat":43.29761,"lon":5.42782,"is_reserved":false,"is_disabled":false,"rental_uris":{"android":"levelo://app?vid=f5dfc69a-605e-4870-9f15-288a758bb79e","ios":"levelo://app?vid=f5dfc69a-605e-4870-9f15-288a758bb79e"},"vehicle_type_id":"4","last_reported":1770910789,"current_range_meters":8400,"station_id":"st_d3md5207bmas73dh9klg","pricing_plan_id":"cebpf4jnsgd1na2vs0mg"},{"bike_id":"31ec33af-4b5b-47df-a935-7478bd3c999f","system_id":"levelo_inurba_marseille","lat":43.25341,"lon":5.42163,"is_reserved":false,"is_disabled":false,"rental_uris":{"android":"levelo://app?vid=31ec33af-4b5b-47df-a935-7478bd3c999f","ios":"levelo://app?vid=31ec33af-4b5b-47df-a935-7478bd3c999f"},"vehicle_type_id":"4","last_reported":1770910789,"current_range_meters":8400,"station_id":"st_d2m65c5bi1j21697t3ng","pricing_plan_id":"cebpf4jnsgd1na2vs0mg"},{"bike_id":"2df2ea82-95e7-4a60-95f3-65124ead56a0","system_id":"levelo_inurba_marseille","lat":43.29018,"lon":5.38124,"is_reserved":false,"is_disabled":false,"rental_uris":{"android":"levelo://app?vid=2df2ea82-95e7-4a60-95f3-65124ead56a0","ios":"levelo://app?vid=2df2ea82-95e7-4a60-95f3-65124ead56a0"},"vehicle_type_id":"4","last_reported":1770910789,"current_range_meters":8400,"station_id":"ce4bh4p2rcd13ifvqe1g","pricing_plan_id":"cebpf4jnsgd1na2vs0mg"},{"bike_id":"9fd31a3a-7318-4857-a073-ec1c7a194e94","system_id":"levelo_inurba_marseille","lat":43.29727,"lon":5.37695,"is_reserved":false,"is_disabled":false,"rental_uris":{"android":"levelo://app?vid=9fd31a3a-7318-4857-a073-ec1c7a194e94","ios":"levelo://app?vid=9fd31a3a-7318-4857-a073-ec1c7a194e94"},"vehicle_type_id":"4","last_reported":1770910789,"current_range_meters":8400,"station_id":"ce4bgkh2rcd13ifvqbl0","pricing_plan_id":"cebpf4jnsgd1na2vs0mg"},{"bike_id":"a0f00b77-3668-4cb1-9cb3-dbbe136dba2b","system_id":"levelo_inurba_marseille","lat":43.255852,"lon":5.382421,"is_reserved":false,"is_disabled":false,"rental_uris":{"android":"levelo://app?vid=a0f00b77-3668-4cb1-9cb3-dbbe136dba2b","ios":"levelo://app?vid=a0f00b77-3668-4cb1-9cb3-dbbe136dba2b"},"vehicle_type_id":"4","last_reported":1770910789,"current_range_meters":8400,"station_id":"ce4bhih2rcd13ifvqfs0","pricing_plan_id":"cebpf4jnsgd1na2vs0mg"},{"bike_id":"ab3e3ec3-cf64-442a-bc18-478d86b18191","system_id":"levelo_inurba_marseille","lat":43.30554,"lon":5.3655,"is_reserved":false,"is_disabled":false,"rental_uris":{"android":"levelo://app?vid=ab3e3ec3-cf64-442a-bc18-478d86b18191","ios":"levelo://app?vid=ab3e3ec3-cf64-442a-bc18-478d86b18191"},"vehicle_type_id":"4","last_reported":1770910789,"current_range_meters":8400,"station_id":"","pricing_plan_id":"cebpf4jnsgd1na2vs0mg"},{"bike_id":"cd2ea776-4312-4cb7-8563-066b16a10c75","system_id":"levelo_inurba_marseille","lat":43.23188,"lon":5.39981,"is_reserved":false,"is_disabled":false,"rental_uris":{"android":"levelo://app?vid=cd2ea776-4312-4cb7-8563-066b16a10c75","ios":"levelo://app?vid=cd2ea776-4312-4cb7-8563-066b16a10c75"},"vehicle_type_id":"4","last_reported":1770910789,"current_range_meters":8400,"station_id":"ce4bhn12rcd13ifvqgqg","pricing_plan_id":"cebpf4jnsgd1na2vs0mg"},{"bike_id":"98953d7a-07e6-4116-9d3d-05aea5077e72","system_id":"levelo_inurba_marseille","lat":43.31415,"lon":5.36666,"is_reserved":false,"is_disabled":false,"rental_uris":{"android":"levelo://app?vid=98953d7a-07e6-4116-9d3d-05aea5077e72","ios":"levelo://app?vid=98953d7a-07e6-4116-9d3d-05aea5077e72"},"vehicle_type_id":"4","last_reported":1770910789,"current_range_meters":8400,"station_id":"","pricing_plan_id":"cebpf4jnsgd1na2vs0mg"},{"bike_id":"ab2b49aa-7574-41ea-aafd-20e44f598b0a","system_id":"levelo_inurba_marseille","lat":43.3315,"lon":5.37699,"is_reserved":false,"is_disabled":false,"rental_uris":{"android":"levelo://app?vid=ab2b49aa-7574-41ea-aafd-20e44f598b0a","ios":"levelo://app?vid=ab2b49aa-7574-41ea-aafd-20e44f598b0a"},"vehicle_type_id":"4","last_reported":1770910789,"current_range_meters":8400,"station_id":"st_d46cu089ee8s73dldbu0","pricing_plan_id":"cebpf4jnsgd1na2vs0mg"},{"bike_id":"32726a3c-9f83-4689-84aa-08e8377eed60","system_id":"levelo_inurba_marseille","lat":43.23797,"lon":5.36617,"is_reserved":false,"is_disabled":true,"rental_uris":{"android":"levelo://app?vid=32726a3c-9f83-4689-84aa-08e8377eed60","ios":"levelo://app?vid=32726a3c-9f83-4689-84aa-08e8377eed60"},"vehicle_type_id":"4","last_reported":1770910789,"current_range_meters":8400,"station_id":"","pricing_plan_id":"cebpf4jnsgd1na2vs0mg"},{"bike_id":"9e49c384-30c1-4f45-a8df-9663175b8696","system_id":"levelo_inurba_marseille","lat":43.24476,"lon":5.42537,"is_reserved":false,"is_disabled":false,"rental_uris":{"android":"levelo://app?vid=9e49c384-30c1-4f45-a8df-9663175b8696","ios":"levelo://app?vid=9e49c384-30c1-4f45-a8df-9663175b8696"},"vehicle_type_id":"4","last_reported":1770910789,"current_range_meters":8800,"station_id":"st_d4a3vfp97mjs738cd8kg","pricing_plan_id":"cebpf4jnsgd1na2vs0mg"},{"bike_id":"5ff157dc-e3aa-4305-ad39-dfa58cf64b9c","system_id":"levelo_inurba_marseille","lat":43.24088,"lon":5.37748,"is_reserved":false,"is_disabled":false,"rental_uris":{"android":"levelo://app?vid=5ff157dc-e3aa-4305-ad39-dfa58cf64b9c","ios":"levelo://app?vid=5ff157dc-e3aa-4305-ad39-dfa58cf64b9c"},"vehicle_type_id":"4","last_reported":1770910789,"current_range_meters":8800,"station_id":"ce4bhnp2rcd13ifvqgvg","pricing_plan_id":"cebpf4jnsgd1na2vs0mg"},{"bike_id":"bb6faa0c-4182-45af-b174-e42f3eae8837","system_id":"levelo_inurba_marseille","lat":43.246512,"lon":5.388961,"is_reserved":false,"is_disabled":false,"rental_uris":{"android":"levelo://app?vid=bb6faa0c-4182-45af-b174-e42f3eae8837","ios":"levelo://app?vid=bb6faa0c-4182-45af-b174-e42f3eae8837"},"vehicle_type_id":"4","last_reported":1770910789,"current_range_meters":8800,"station_id":"ce4bhg12rcd13ifvqf60","pricing_plan_id":"cebpf4jnsgd1na2vs0mg"},{"bike_id":"e1ce11f2-86f2-4ad3-8fc9-41f4d09b2175","system_id":"levelo_inurba_marseille","lat":43.24659,"lon":5.38166,"is_reserved":false,"is_disabled":false,"rental_uris":{"android":"levelo://app?vid=e1ce11f2-86f2-4ad3-8fc9-41f4d09b2175","ios":"levelo://app?vid=e1ce11f2-86f2-4ad3-8fc9-41f4d09b2175"},"vehicle_type_id":"4","last_reported":1770910789,"current_range_meters":8800,"station_id":"ce4bhih2rcd13ifvqfr0","pricing_plan_id":"cebpf4jnsgd1na2vs0mg"},{"bike_id":"6f992222-ec7a-488c-a1d3-988179372f4d","system_id":"levelo_inurba_marseille","lat":43.2174,"lon":5.34612,"is_reserved":false,"is_disabled":false,"rental_uris":{"android":"levelo://app?vid=6f992222-ec7a-488c-a1d3-988179372f4d","ios":"levelo://app?vid=6f992222-ec7a-488c-a1d3-988179372f4d"},"vehicle_type_id":"4","last_reported":1770910789,"current_range_meters":8800,"station_id":"st_cvj6r9ubvosntc0bgbag","pricing_plan_id":"cebpf4jnsgd1na2vs0mg"},{"bike_id":"e0a99c59-b2ab-407c-8f36-dd4b7764ede6","system_id":"levelo_inurba_marseille","lat":43.29053,"lon":5.39928,"is_reserved":false,"is_disabled":false,"rental_uris":{"android":"levelo://app?vid=e0a99c59-b2ab-407c-8f36-dd4b7764ede6","ios":"levelo://app?vid=e0a99c59-b2ab-407c-8f36-dd4b7764ede6"},"vehicle_type_id":"4","last_reported":1770910789,"current_range_meters":8800,"station_id":"ce4bh392rcd13ifvqdm0","pricing_plan_id":"cebpf4jnsgd1na2vs0mg"},{"bike_id":"48ef2e5e-395e-487a-9e41-360aad012a1f","system_id":"levelo_inurba_marseille","lat":43.26214,"lon":5.37438,"is_reserved":false,"is_disabled":false,"rental_uris":{"android":"levelo://app?vid=48ef2e5e-395e-487a-9e41-360aad012a1f","ios":"levelo://app?vid=48ef2e5e-395e-487a-9e41-360aad012a1f"},"vehicle_type_id":"4","last_reported":1770910789,"current_range_meters":8800,"station_id":"ce4bhgp2rcd13ifvqfc0","pricing_plan_id":"cebpf4jnsgd1na2vs0mg"},{"bike_id":"40452636-8d5c-4483-9aa3-a6ea0d66c3ee","system_id":"levelo_inurba_marseille","lat":43.31059,"lon":5.39332,"is_reserved":false,"is_disabled":false,"rental_uris":{"android":"levelo://app?vid=40452636-8d5c-4483-9aa3-a6ea0d66c3ee","ios":"levelo://app?vid=40452636-8d5c-4483-9aa3-a6ea0d66c3ee"},"vehicle_type_id":"4","last_reported":1770910789,"current_range_meters":8800,"station_id":"","pricing_plan_id":"cebpf4jnsgd1na2vs0mg"},{"bike_id":"b5cfe035-0ac5-4157-91b6-fb5d92305462","system_id":"levelo_inurba_marseille","lat":43.28155,"lon":5.42643,"is_reserved":false,"is_disabled":false,"rental_uris":{"android":"levelo://app?vid=b5cfe035-0ac5-4157-91b6-fb5d92305462","ios":"levelo://app?vid=b5cfe035-0ac5-4157-91b6-fb5d92305462"},"vehicle_type_id":"4","last_reported":1770910789,"current_range_meters":8800,"station_id":"ce4bhnh2rcd13ifvqgug","pricing_plan_id":"cebpf4jnsgd1na2vs0mg"},{"bike_id":"c0d21250-70f7-405b-91f7-061919265b15","system_id":"levelo_inurba_marseille","lat":43.337444,"lon":5.374475,"is_reserved":false,"is_disabled":false,"rental_uris":{"android":"levelo://app?vid=c0d21250-70f7-405b-91f7-061919265b15","ios":"levelo://app?vid=c0d21250-70f7-405b-91f7-061919265b15"},"vehicle_type_id":"4","last_reported":1770910789,"current_range_meters":8800,"station_id":"","pricing_plan_id":"cebpf4jnsgd1na2vs0mg"},{"bike_id":"d133da66-969f-43a3-811d-2c8fd3e12789","system_id":"levelo_inurba_marseille","lat":43.288675,"lon":5.425121,"is_reserved":false,"is_disabled":false,"rental_uris":{"android":"levelo://app?vid=d133da66-969f-43a3-811d-2c8fd3e12789","ios":"levelo://app?vid=d133da66-969f-43a3-811d-2c8fd3e12789"},"vehicle_type_id":"4","last_reported":1770910789,"current_range_meters":8800,"station_id":"st_d3b462108ojc7389ooeg","pricing_plan_id":"cebpf4jnsgd1na2vs0mg"},{"bike_id":"eb195778-2ee3-4073-a261-addf2b73e777","system_id":"levelo_inurba_marseille","lat":43.25499,"lon":5.37647,"is_reserved":false,"is_disabled":false,"rental_uris":{"android":"levelo://app?vid=eb195778-2ee3-4073-a261-addf2b73e777","ios":"levelo://app?vid=eb195778-2ee3-4073-a261-addf2b73e777"},"vehicle_type_id":"4","last_reported":1770910789,"current_range_meters":8800,"station_id":"ce4bhh12rcd13ifvqff0","pricing_plan_id":"cebpf4jnsgd1na2vs0mg"},{"bike_id":"1d2595e7-24ec-4837-ac2e-333261d8dae0","system_id":"levelo_inurba_marseille","lat":43.22558,"lon":5.41624,"is_reserved":false,"is_disabled":false,"rental_uris":{"android":"levelo://app?vid=1d2595e7-24ec-4837-ac2e-333261d8dae0","ios":"levelo://app?vid=1d2595e7-24ec-4837-ac2e-333261d8dae0"},"vehicle_type_id":"4","last_reported":1770910789,"current_range_meters":8800,"station_id":"st_d2o4gvlbi1j2169b742g","pricing_plan_id":"cebpf4jnsgd1na2vs0mg"},{"bike_id":"7b37adcb-6ffe-4fa3-9609-a6a4a944a1cf","system_id":"levelo_inurba_marseille","lat":43.30536,"lon":5.367,"is_reserved":false,"is_disabled":false,"rental_uris":{"android":"levelo://app?vid=7b37adcb-6ffe-4fa3-9609-a6a4a944a1cf","ios":"levelo://app?vid=7b37adcb-6ffe-4fa3-9609-a6a4a944a1cf"},"vehicle_type_id":"4","last_reported":1770910789,"current_range_meters":8800,"station_id":"ce4bgrp2rcd13ifvqc9g","pricing_plan_id":"cebpf4jnsgd1na2vs0mg"},{"bike_id":"05797971-b1fa-4e10-9a08-cd7f223bbe55","system_id":"levelo_inurba_marseille","lat":43.21745,"lon":5.34601,"is_reserved":false,"is_disabled":false,"rental_uris":{"android":"levelo://app?vid=05797971-b1fa-4e10-9a08-cd7f223bbe55","ios":"levelo://app?vid=05797971-b1fa-4e10-9a08-cd7f223bbe55"},"vehicle_type_id":"4","last_reported":1770910789,"current_range_meters":8800,"station_id":"st_cvj6r9ubvosntc0bgbag","pricing_plan_id":"cebpf4jnsgd1na2vs0mg"},{"bike_id":"e6803627-acaa-4970-9ece-cd2f35ecf017","system_id":"levelo_inurba_marseille","lat":43.2668,"lon":5.38266,"is_reserved":false,"is_disabled":false,"rental_uris":{"android":"levelo://app?vid=e6803627-acaa-4970-9ece-cd2f35ecf017","ios":"levelo://app?vid=e6803627-acaa-4970-9ece-cd2f35ecf017"},"vehicle_type_id":"4","last_reported":1770910789,"current_range_meters":8800,"station_id":"ce4bhg92rcd13ifvqf90","pricing_plan_id":"cebpf4jnsgd1na2vs0mg"},{"bike_id":"76ea5260-ff82-43e8-a377-4f3ddffee2c7","system_id":"levelo_inurba_marseille","lat":43.2965,"lon":5.4273,"is_reserved":false,"is_disabled":false,"rental_uris":{"android":"levelo://app?vid=76ea5260-ff82-43e8-a377-4f3ddffee2c7","ios":"levelo://app?vid=76ea5260-ff82-43e8-a377-4f3ddffee2c7"},"vehicle_type_id":"4","last_reported":1770910789,"current_range_meters":8800,"station_id":"st_d3md5207bmas73dh9klg","pricing_plan_id":"cebpf4jnsgd1na2vs0mg"},{"bike_id":"2cdaaecc-f3f1-45ea-a338-8e3592ee7872","system_id":"levelo_inurba_marseille","lat":43.319941,"lon":5.381658,"is_reserved":false,"is_disabled":false,"rental_uris":{"android":"levelo://app?vid=2cdaaecc-f3f1-45ea-a338-8e3592ee7872","ios":"levelo://app?vid=2cdaaecc-f3f1-45ea-a338-8e3592ee7872"},"vehicle_type_id":"4","last_reported":1770910789,"current_range_meters":8800,"station_id":"ce4bhbh2rcd13ifvqeqg","pricing_plan_id":"cebpf4jnsgd1na2vs0mg"},{"bike_id":"107ddb99-edbe-400c-935b-2ceba13046dc","system_id":"levelo_inurba_marseille","lat":43.33164,"lon":5.37703,"is_reserved":false,"is_disabled":false,"rental_uris":{"android":"levelo://app?vid=107ddb99-edbe-400c-935b-2ceba13046dc","ios":"levelo://app?vid=107ddb99-edbe-400c-935b-2ceba13046dc"},"vehicle_type_id":"4","last_reported":1770910789,"current_range_meters":8800,"station_id":"st_d46cu089ee8s73dldbu0","pricing_plan_id":"cebpf4jnsgd1na2vs0mg"},{"bike_id":"2966434a-921f-4f6a-8543-92544bd2c40c","system_id":"levelo_inurba_marseille","lat":43.2984,"lon":5.3627,"is_reserved":false,"is_disabled":false,"rental_uris":{"android":"levelo://app?vid=2966434a-921f-4f6a-8543-92544bd2c40c","ios":"levelo://app?vid=2966434a-921f-4f6a-8543-92544bd2c40c"},"vehicle_type_id":"4","last_reported":1770910789,"current_range_meters":8800,"station_id":"ce4bgpp2rcd13ifvqc3g","pricing_plan_id":"cebpf4jnsgd1na2vs0mg"},{"bike_id":"bc757259-3231-42fc-84f1-e4b3f0804f84","system_id":"levelo_inurba_marseille","lat":43.259378,"lon":5.408933,"is_reserved":false,"is_disabled":false,"rental_uris":{"android":"levelo://app?vid=bc757259-3231-42fc-84f1-e4b3f0804f84","ios":"levelo://app?vid=bc757259-3231-42fc-84f1-e4b3f0804f84"},"vehicle_type_id":"4","last_reported":1770910789,"current_range_meters":9200,"station_id":"ce4bhm92rcd13ifvqglg","pricing_plan_id":"cebpf4jnsgd1na2vs0mg"},{"bike_id":"a7c6ceb7-b1a0-402c-84a2-2d3a6b476f03","system_id":"levelo_inurba_marseille","lat":43.301565,"lon":5.380903,"is_reserved":false,"is_disabled":false,"rental_uris":{"android":"levelo://app?vid=a7c6ceb7-b1a0-402c-84a2-2d3a6b476f03","ios":"levelo://app?vid=a7c6ceb7-b1a0-402c-84a2-2d3a6b476f03"},"vehicle_type_id":"4","last_reported":1770910789,"current_range_meters":9200,"station_id":"ce4bgjp2rcd13ifvqbh0","pricing_plan_id":"cebpf4jnsgd1na2vs0mg"},{"bike_id":"51ad0198-092e-4860-b994-3420575955f1","system_id":"levelo_inurba_marseille","lat":43.22527,"lon":5.34833,"is_reserved":false,"is_disabled":false,"rental_uris":{"android":"levelo://app?vid=51ad0198-092e-4860-b994-3420575955f1","ios":"levelo://app?vid=51ad0198-092e-4860-b994-3420575955f1"},"vehicle_type_id":"4","last_reported":1770910789,"current_range_meters":9200,"station_id":"st_cvj5dfep6f1abm77gieg","pricing_plan_id":"cebpf4jnsgd1na2vs0mg"},{"bike_id":"34f26a18-0cac-4d83-9ef2-1bc87e34f0f5","system_id":"levelo_inurba_marseille","lat":43.30132,"lon":5.38069,"is_reserved":false,"is_disabled":false,"rental_uris":{"android":"levelo://app?vid=34f26a18-0cac-4d83-9ef2-1bc87e34f0f5","ios":"levelo://app?vid=34f26a18-0cac-4d83-9ef2-1bc87e34f0f5"},"vehicle_type_id":"4","last_reported":1770910789,"current_range_meters":9200,"station_id":"ce4bgjp2rcd13ifvqbh0","pricing_plan_id":"cebpf4jnsgd1na2vs0mg"},{"bike_id":"b4f9e5f0-444b-4425-988a-11342775ff19","system_id":"levelo_inurba_marseille","lat":43.31221,"lon":5.3687,"is_reserved":false,"is_disabled":false,"rental_uris":{"android":"levelo://app?vid=b4f9e5f0-444b-4425-988a-11342775ff19","ios":"levelo://app?vid=b4f9e5f0-444b-4425-988a-11342775ff19"},"vehicle_type_id":"4","last_reported":1770910789,"current_range_meters":9200,"station_id":"ce4bgl92rcd13ifvqbq0","pricing_plan_id":"cebpf4jnsgd1na2vs0mg"},{"bike_id":"dc0bbbef-469e-4852-b275-445893c3bbfc","system_id":"levelo_inurba_marseille","lat":43.31227,"lon":5.3687,"is_reserved":false,"is_disabled":false,"rental_uris":{"android":"levelo://app?vid=dc0bbbef-469e-4852-b275-445893c3bbfc","ios":"levelo://app?vid=dc0bbbef-469e-4852-b275-445893c3bbfc"},"vehicle_type_id":"4","last_reported":1770910789,"current_range_meters":9200,"station_id":"ce4bgl92rcd13ifvqbq0","pricing_plan_id":"cebpf4jnsgd1na2vs0mg"},{"bike_id":"4fabe8f2-3686-4595-b208-5b1849f1d59a","system_id":"levelo_inurba_marseille","lat":43.21747,"lon":5.34624,"is_reserved":false,"is_disabled":false,"rental_uris":{"android":"levelo://app?vid=4fabe8f2-3686-4595-b208-5b1849f1d59a","ios":"levelo://app?vid=4fabe8f2-3686-4595-b208-5b1849f1d59a"},"vehicle_type_id":"4","last_reported":1770910789,"current_range_meters":9200,"station_id":"st_cvj6r9ubvosntc0bgbag","pricing_plan_id":"cebpf4jnsgd1na2vs0mg"},{"bike_id":"1666a0e7-ccfb-4a46-816c-bd1b996f577e","system_id":"levelo_inurba_marseille","lat":43.28635,"lon":5.38405,"is_reserved":false,"is_disabled":false,"rental_uris":{"android":"levelo://app?vid=1666a0e7-ccfb-4a46-816c-bd1b996f577e","ios":"levelo://app?vid=1666a0e7-ccfb-4a46-816c-bd1b996f577e"},"vehicle_type_id":"4","last_reported":1770910789,"current_range_meters":9200,"station_id":"","pricing_plan_id":"cebpf4jnsgd1na2vs0mg"},{"bike_id":"f28ee724-6771-4020-9ab3-7deb12288357","system_id":"levelo_inurba_marseille","lat":43.31072,"lon":5.37147,"is_reserved":false,"is_disabled":false,"rental_uris":{"android":"levelo://app?vid=f28ee724-6771-4020-9ab3-7deb12288357","ios":"levelo://app?vid=f28ee724-6771-4020-9ab3-7deb12288357"},"vehicle_type_id":"4","last_reported":1770910789,"current_range_meters":9200,"station_id":"st_d4kl2rp97mjs73e7tdfg","pricing_plan_id":"cebpf4jnsgd1na2vs0mg"},{"bike_id":"cf4cb214-add7-4259-9037-63a9e2c59cab","system_id":"levelo_inurba_marseille","lat":43.30305,"lon":5.36901,"is_reserved":false,"is_disabled":false,"rental_uris":{"android":"levelo://app?vid=cf4cb214-add7-4259-9037-63a9e2c59cab","ios":"levelo://app?vid=cf4cb214-add7-4259-9037-63a9e2c59cab"},"vehicle_type_id":"4","last_reported":1770910789,"current_range_meters":9200,"station_id":"ce4bgqh2rcd13ifvqc5g","pricing_plan_id":"cebpf4jnsgd1na2vs0mg"},{"bike_id":"9a02d4f6-a4a6-4079-8c54-962f11701012","system_id":"levelo_inurba_marseille","lat":43.29931,"lon":5.36549,"is_reserved":false,"is_disabled":false,"rental_uris":{"android":"levelo://app?vid=9a02d4f6-a4a6-4079-8c54-962f11701012","ios":"levelo://app?vid=9a02d4f6-a4a6-4079-8c54-962f11701012"},"vehicle_type_id":"4","last_reported":1770910789,"current_range_meters":9200,"station_id":"ce4bgm92rcd13ifvqbr0","pricing_plan_id":"cebpf4jnsgd1na2vs0mg"},{"bike_id":"93cc1b01-8d09-4162-95ee-93c6b99b4145","system_id":"levelo_inurba_marseille","lat":43.26201,"lon":5.37437,"is_reserved":false,"is_disabled":false,"rental_uris":{"android":"levelo://app?vid=93cc1b01-8d09-4162-95ee-93c6b99b4145","ios":"levelo://app?vid=93cc1b01-8d09-4162-95ee-93c6b99b4145"},"vehicle_type_id":"4","last_reported":1770910789,"current_range_meters":9200,"station_id":"ce4bhgp2rcd13ifvqfc0","pricing_plan_id":"cebpf4jnsgd1na2vs0mg"},{"bike_id":"38135c96-ade4-45b4-91a7-00b8377b3ac9","system_id":"levelo_inurba_marseille","lat":43.33716,"lon":5.39149,"is_reserved":false,"is_disabled":false,"rental_uris":{"android":"levelo://app?vid=38135c96-ade4-45b4-91a7-00b8377b3ac9","ios":"levelo://app?vid=38135c96-ade4-45b4-91a7-00b8377b3ac9"},"vehicle_type_id":"4","last_reported":1770910789,"current_range_meters":9600,"station_id":"ce4bhr92rcd13ifvqhsg","pricing_plan_id":"cebpf4jnsgd1na2vs0mg"},{"bike_id":"014613de-69aa-4aca-9291-67750cce2e69","system_id":"levelo_inurba_marseille","lat":43.28477,"lon":5.48402,"is_reserved":false,"is_disabled":false,"rental_uris":{"android":"levelo://app?vid=014613de-69aa-4aca-9291-67750cce2e69","ios":"levelo://app?vid=014613de-69aa-4aca-9291-67750cce2e69"},"vehicle_type_id":"4","last_reported":1770910789,"current_range_meters":9600,"station_id":"","pricing_plan_id":"cebpf4jnsgd1na2vs0mg"},{"bike_id":"65aac124-f4af-40a9-969f-9b86b76af09b","system_id":"levelo_inurba_marseille","lat":43.29448,"lon":5.395761,"is_reserved":false,"is_disabled":false,"rental_uris":{"android":"levelo://app?vid=65aac124-f4af-40a9-969f-9b86b76af09b","ios":"levelo://app?vid=65aac124-f4af-40a9-969f-9b86b76af09b"},"vehicle_type_id":"4","last_reported":1770910789,"current_range_meters":9600,"station_id":"","pricing_plan_id":"cebpf4jnsgd1na2vs0mg"},{"bike_id":"1ce107f6-c827-4fd0-952b-5454d05e9916","system_id":"levelo_inurba_marseille","lat":43.29612,"lon":5.37729,"is_reserved":false,"is_disabled":false,"rental_uris":{"android":"levelo://app?vid=1ce107f6-c827-4fd0-952b-5454d05e9916","ios":"levelo://app?vid=1ce107f6-c827-4fd0-952b-5454d05e9916"},"vehicle_type_id":"4","last_reported":1770910789,"current_range_meters":9600,"station_id":"ce4bgi92rcd13ifvqb90","pricing_plan_id":"cebpf4jnsgd1na2vs0mg"},{"bike_id":"806dba28-6b5b-471d-afa9-5e9335f17ebb","system_id":"levelo_inurba_marseille","lat":43.29264,"lon":5.40889,"is_reserved":false,"is_disabled":true,"rental_uris":{"android":"levelo://app?vid=806dba28-6b5b-471d-afa9-5e9335f17ebb","ios":"levelo://app?vid=806dba28-6b5b-471d-afa9-5e9335f17ebb"},"vehicle_type_id":"4","last_reported":1770910789,"current_range_meters":9600,"station_id":"ce4bh192rcd13ifvqdc0","pricing_plan_id":"cebpf4jnsgd1na2vs0mg"},{"bike_id":"d8c153e5-14a7-48cd-ba75-ef3b0368173f","system_id":"levelo_inurba_marseille","lat":43.23174,"lon":5.40008,"is_reserved":false,"is_disabled":false,"rental_uris":{"android":"levelo://app?vid=d8c153e5-14a7-48cd-ba75-ef3b0368173f","ios":"levelo://app?vid=d8c153e5-14a7-48cd-ba75-ef3b0368173f"},"vehicle_type_id":"4","last_reported":1770910789,"current_range_meters":9600,"station_id":"ce4bhn12rcd13ifvqgqg","pricing_plan_id":"cebpf4jnsgd1na2vs0mg"},{"bike_id":"51572d82-5e22-4291-b0fa-25a56dd1cc59","system_id":"levelo_inurba_marseille","lat":43.26214,"lon":5.37445,"is_reserved":false,"is_disabled":false,"rental_uris":{"android":"levelo://app?vid=51572d82-5e22-4291-b0fa-25a56dd1cc59","ios":"levelo://app?vid=51572d82-5e22-4291-b0fa-25a56dd1cc59"},"vehicle_type_id":"4","last_reported":1770910789,"current_range_meters":9600,"station_id":"ce4bhgp2rcd13ifvqfc0","pricing_plan_id":"cebpf4jnsgd1na2vs0mg"},{"bike_id":"0270cee7-d38d-40e7-8096-229f09bfe278","system_id":"levelo_inurba_marseille","lat":43.249971,"lon":5.389257,"is_reserved":false,"is_disabled":false,"rental_uris":{"android":"levelo://app?vid=0270cee7-d38d-40e7-8096-229f09bfe278","ios":"levelo://app?vid=0270cee7-d38d-40e7-8096-229f09bfe278"},"vehicle_type_id":"4","last_reported":1770910789,"current_range_meters":9600,"station_id":"ce4bhgp2rcd13ifvqfd0","pricing_plan_id":"cebpf4jnsgd1na2vs0mg"},{"bike_id":"5e6b363c-3285-4065-aa55-8f6ad4524674","system_id":"levelo_inurba_marseille","lat":43.211947,"lon":5.350681,"is_reserved":false,"is_disabled":false,"rental_uris":{"android":"levelo://app?vid=5e6b363c-3285-4065-aa55-8f6ad4524674","ios":"levelo://app?vid=5e6b363c-3285-4065-aa55-8f6ad4524674"},"vehicle_type_id":"4","last_reported":1770910789,"current_range_meters":9600,"station_id":"st_cvj6sg6p6f1abm77japg","pricing_plan_id":"cebpf4jnsgd1na2vs0mg"},{"bike_id":"7578ca6a-41b9-4d16-80d9-987a7c1630a9","system_id":"levelo_inurba_marseille","lat":43.24646,"lon":5.38887,"is_reserved":false,"is_disabled":false,"rental_uris":{"android":"levelo://app?vid=7578ca6a-41b9-4d16-80d9-987a7c1630a9","ios":"levelo://app?vid=7578ca6a-41b9-4d16-80d9-987a7c1630a9"},"vehicle_type_id":"4","last_reported":1770910789,"current_range_meters":9600,"station_id":"ce4bhg12rcd13ifvqf60","pricing_plan_id":"cebpf4jnsgd1na2vs0mg"},{"bike_id":"4c7ae58a-1681-4146-b5ee-d0af7898bf6f","system_id":"levelo_inurba_marseille","lat":43.27296,"lon":5.3908,"is_reserved":false,"is_disabled":false,"rental_uris":{"android":"levelo://app?vid=4c7ae58a-1681-4146-b5ee-d0af7898bf6f","ios":"levelo://app?vid=4c7ae58a-1681-4146-b5ee-d0af7898bf6f"},"vehicle_type_id":"4","last_reported":1770910789,"current_range_meters":9600,"station_id":"ce4bhgp2rcd13ifvqfe0","pricing_plan_id":"cebpf4jnsgd1na2vs0mg"},{"bike_id":"300bd048-5059-4d92-acd1-4068b19629fb","system_id":"levelo_inurba_marseille","lat":43.26853,"lon":5.40687,"is_reserved":false,"is_disabled":false,"rental_uris":{"android":"levelo://app?vid=300bd048-5059-4d92-acd1-4068b19629fb","ios":"levelo://app?vid=300bd048-5059-4d92-acd1-4068b19629fb"},"vehicle_type_id":"4","last_reported":1770910789,"current_range_meters":9600,"station_id":"","pricing_plan_id":"cebpf4jnsgd1na2vs0mg"},{"bike_id":"ba7d5086-526f-401d-b86d-eb9414a58cb1","system_id":"levelo_inurba_marseille","lat":43.25934,"lon":5.40893,"is_reserved":false,"is_disabled":false,"rental_uris":{"android":"levelo://app?vid=ba7d5086-526f-401d-b86d-eb9414a58cb1","ios":"levelo://app?vid=ba7d5086-526f-401d-b86d-eb9414a58cb1"},"vehicle_type_id":"4","last_reported":1770910789,"current_range_meters":9600,"station_id":"ce4bhm92rcd13ifvqglg","pricing_plan_id":"cebpf4jnsgd1na2vs0mg"},{"bike_id":"89dc407d-ca98-4662-aa6a-0e3472bfc645","system_id":"levelo_inurba_marseille","lat":43.2996,"lon":5.38545,"is_reserved":false,"is_disabled":false,"rental_uris":{"android":"levelo://app?vid=89dc407d-ca98-4662-aa6a-0e3472bfc645","ios":"levelo://app?vid=89dc407d-ca98-4662-aa6a-0e3472bfc645"},"vehicle_type_id":"4","last_reported":1770910789,"current_range_meters":9600,"station_id":"","pricing_plan_id":"cebpf4jnsgd1na2vs0mg"},{"bike_id":"70bb2ae6-7c8a-4812-8bd6-0ed491886a19","system_id":"levelo_inurba_marseille","lat":43.28716,"lon":5.37951,"is_reserved":false,"is_disabled":false,"rental_uris":{"android":"levelo://app?vid=70bb2ae6-7c8a-4812-8bd6-0ed491886a19","ios":"levelo://app?vid=70bb2ae6-7c8a-4812-8bd6-0ed491886a19"},"vehicle_type_id":"4","last_reported":1770910789,"current_range_meters":9600,"station_id":"ce4bh9p2rcd13ifvqec0","pricing_plan_id":"cebpf4jnsgd1na2vs0mg"},{"bike_id":"cae3340b-dabf-42ee-b29f-fab64d3e6b2c","system_id":"levelo_inurba_marseille","lat":43.2408,"lon":5.37726,"is_reserved":false,"is_disabled":false,"rental_uris":{"android":"levelo://app?vid=cae3340b-dabf-42ee-b29f-fab64d3e6b2c","ios":"levelo://app?vid=cae3340b-dabf-42ee-b29f-fab64d3e6b2c"},"vehicle_type_id":"4","last_reported":1770910789,"current_range_meters":10000,"station_id":"ce4bhnp2rcd13ifvqgvg","pricing_plan_id":"cebpf4jnsgd1na2vs0mg"},{"bike_id":"7f95666a-5b84-4ed5-9ff1-c35b8e289b98","system_id":"levelo_inurba_marseille","lat":43.28944,"lon":5.39635,"is_reserved":false,"is_disabled":false,"rental_uris":{"android":"levelo://app?vid=7f95666a-5b84-4ed5-9ff1-c35b8e289b98","ios":"levelo://app?vid=7f95666a-5b84-4ed5-9ff1-c35b8e289b98"},"vehicle_type_id":"4","last_reported":1770910789,"current_range_meters":10000,"station_id":"ce4bh3h2rcd13ifvqdn0","pricing_plan_id":"cebpf4jnsgd1na2vs0mg"},{"bike_id":"b39ba1aa-7b31-4368-898e-d2ae177a7edd","system_id":"levelo_inurba_marseille","lat":43.265635,"lon":5.372972,"is_reserved":false,"is_disabled":false,"rental_uris":{"android":"levelo://app?vid=b39ba1aa-7b31-4368-898e-d2ae177a7edd","ios":"levelo://app?vid=b39ba1aa-7b31-4368-898e-d2ae177a7edd"},"vehicle_type_id":"4","last_reported":1770910789,"current_range_meters":10000,"station_id":"ce4bhg12rcd13ifvqf70","pricing_plan_id":"cebpf4jnsgd1na2vs0mg"},{"bike_id":"3a9cc0b3-c08b-4b89-9569-bd3dfb1632fd","system_id":"levelo_inurba_marseille","lat":43.29075,"lon":5.3717,"is_reserved":false,"is_disabled":false,"rental_uris":{"android":"levelo://app?vid=3a9cc0b3-c08b-4b89-9569-bd3dfb1632fd","ios":"levelo://app?vid=3a9cc0b3-c08b-4b89-9569-bd3dfb1632fd"},"vehicle_type_id":"4","last_reported":1770910789,"current_range_meters":10000,"station_id":"ce4bh5p2rcd13ifvqe4g","pricing_plan_id":"cebpf4jnsgd1na2vs0mg"},{"bike_id":"bbf76c20-722d-4091-93ed-579710f24304","system_id":"levelo_inurba_marseille","lat":43.24398,"lon":5.37075,"is_reserved":false,"is_disabled":false,"rental_uris":{"android":"levelo://app?vid=bbf76c20-722d-4091-93ed-579710f24304","ios":"levelo://app?vid=bbf76c20-722d-4091-93ed-579710f24304"},"vehicle_type_id":"4","last_reported":1770910789,"current_range_meters":10000,"station_id":"ce4bhhh2rcd13ifvqfk0","pricing_plan_id":"cebpf4jnsgd1na2vs0mg"},{"bike_id":"acc4afec-e80f-436d-a4cf-d6122baf0d20","system_id":"levelo_inurba_marseille","lat":43.27184,"lon":5.40976,"is_reserved":false,"is_disabled":false,"rental_uris":{"android":"levelo://app?vid=acc4afec-e80f-436d-a4cf-d6122baf0d20","ios":"levelo://app?vid=acc4afec-e80f-436d-a4cf-d6122baf0d20"},"vehicle_type_id":"4","last_reported":1770910789,"current_range_meters":10000,"station_id":"ce4bhl12rcd13ifvqgf0","pricing_plan_id":"cebpf4jnsgd1na2vs0mg"},{"bike_id":"171b62e2-ba7e-4159-8190-27c62681b21e","system_id":"levelo_inurba_marseille","lat":43.27068,"lon":5.42294,"is_reserved":false,"is_disabled":false,"rental_uris":{"android":"levelo://app?vid=171b62e2-ba7e-4159-8190-27c62681b21e","ios":"levelo://app?vid=171b62e2-ba7e-4159-8190-27c62681b21e"},"vehicle_type_id":"4","last_reported":1770910789,"current_range_meters":10000,"station_id":"ce4bhk92rcd13ifvqgb0","pricing_plan_id":"cebpf4jnsgd1na2vs0mg"},{"bike_id":"998f7130-c295-4159-974f-c8a3e9bdef38","system_id":"levelo_inurba_marseille","lat":43.23152,"lon":5.43711,"is_reserved":false,"is_disabled":false,"rental_uris":{"android":"levelo://app?vid=998f7130-c295-4159-974f-c8a3e9bdef38","ios":"levelo://app?vid=998f7130-c295-4159-974f-c8a3e9bdef38"},"vehicle_type_id":"4","last_reported":1770910789,"current_range_meters":10000,"station_id":"ce4bhmp2rcd13ifvqgog","pricing_plan_id":"cebpf4jnsgd1na2vs0mg"},{"bike_id":"23edf86f-0d3b-4592-835d-eabf2ed9286d","system_id":"levelo_inurba_marseille","lat":43.30159,"lon":5.37391,"is_reserved":false,"is_disabled":false,"rental_uris":{"android":"levelo://app?vid=23edf86f-0d3b-4592-835d-eabf2ed9286d","ios":"levelo://app?vid=23edf86f-0d3b-4592-835d-eabf2ed9286d"},"vehicle_type_id":"4","last_reported":1770910789,"current_range_meters":10000,"station_id":"ce4bgs92rcd13ifvqcc0","pricing_plan_id":"cebpf4jnsgd1na2vs0mg"},{"bike_id":"8b6c6055-11c8-47ef-a755-295c17d6052d","system_id":"levelo_inurba_marseille","lat":43.28169,"lon":5.42632,"is_reserved":false,"is_disabled":false,"rental_uris":{"android":"levelo://app?vid=8b6c6055-11c8-47ef-a755-295c17d6052d","ios":"levelo://app?vid=8b6c6055-11c8-47ef-a755-295c17d6052d"},"vehicle_type_id":"4","last_reported":1770910789,"current_range_meters":10000,"station_id":"ce4bhnh2rcd13ifvqgug","pricing_plan_id":"cebpf4jnsgd1na2vs0mg"},{"bike_id":"8b9dda30-a538-4c56-8057-4354e193017c","system_id":"levelo_inurba_marseille","lat":43.29231,"lon":5.36064,"is_reserved":false,"is_disabled":false,"rental_uris":{"android":"levelo://app?vid=8b9dda30-a538-4c56-8057-4354e193017c","ios":"levelo://app?vid=8b9dda30-a538-4c56-8057-4354e193017c"},"vehicle_type_id":"4","last_reported":1770910789,"current_range_meters":10000,"station_id":"ce4bhbh2rcd13ifvqeqg","pricing_plan_id":"cebpf4jnsgd1na2vs0mg"},{"bike_id":"df373b99-2df4-45ca-b1f3-0caae337f4bd","system_id":"levelo_inurba_marseille","lat":43.24469,"lon":5.42532,"is_reserved":false,"is_disabled":false,"rental_uris":{"android":"levelo://app?vid=df373b99-2df4-45ca-b1f3-0caae337f4bd","ios":"levelo://app?vid=df373b99-2df4-45ca-b1f3-0caae337f4bd"},"vehicle_type_id":"4","last_reported":1770910789,"current_range_meters":10000,"station_id":"st_d4a3vfp97mjs738cd8kg","pricing_plan_id":"cebpf4jnsgd1na2vs0mg"},{"bike_id":"e6334b7b-0442-4156-b9a0-b2160f16303b","system_id":"levelo_inurba_marseille","lat":43.28228,"lon":5.39064,"is_reserved":false,"is_disabled":false,"rental_uris":{"android":"levelo://app?vid=e6334b7b-0442-4156-b9a0-b2160f16303b","ios":"levelo://app?vid=e6334b7b-0442-4156-b9a0-b2160f16303b"},"vehicle_type_id":"4","last_reported":1770910789,"current_range_meters":10000,"station_id":"ce4bhn92rcd13ifvqgsg","pricing_plan_id":"cebpf4jnsgd1na2vs0mg"},{"bike_id":"bc352de8-de61-4840-b097-c5cb16a89c06","system_id":"levelo_inurba_marseille","lat":43.29003,"lon":5.35616,"is_reserved":false,"is_disabled":false,"rental_uris":{"android":"levelo://app?vid=bc352de8-de61-4840-b097-c5cb16a89c06","ios":"levelo://app?vid=bc352de8-de61-4840-b097-c5cb16a89c06"},"vehicle_type_id":"4","last_reported":1770910789,"current_range_meters":10000,"station_id":"ce4bhb92rcd13ifvqen0","pricing_plan_id":"cebpf4jnsgd1na2vs0mg"},{"bike_id":"6797657d-9fd6-4a08-bcfa-56aa451af52a","system_id":"levelo_inurba_marseille","lat":43.3137,"lon":5.3848,"is_reserved":false,"is_disabled":false,"rental_uris":{"android":"levelo://app?vid=6797657d-9fd6-4a08-bcfa-56aa451af52a","ios":"levelo://app?vid=6797657d-9fd6-4a08-bcfa-56aa451af52a"},"vehicle_type_id":"4","last_reported":1770910789,"current_range_meters":10000,"station_id":"ce4bgt92rcd13ifvqcf0","pricing_plan_id":"cebpf4jnsgd1na2vs0mg"},{"bike_id":"7ebaa038-f7e8-4cf9-aac2-b18fb424d74a","system_id":"levelo_inurba_marseille","lat":43.27651,"lon":5.3957,"is_reserved":false,"is_disabled":false,"rental_uris":{"android":"levelo://app?vid=7ebaa038-f7e8-4cf9-aac2-b18fb424d74a","ios":"levelo://app?vid=7ebaa038-f7e8-4cf9-aac2-b18fb424d74a"},"vehicle_type_id":"4","last_reported":1770910789,"current_range_meters":10000,"station_id":"","pricing_plan_id":"cebpf4jnsgd1na2vs0mg"},{"bike_id":"5effb89f-1d70-4615-a4b6-1dc3bfffaecb","system_id":"levelo_inurba_marseille","lat":43.29222,"lon":5.36047,"is_reserved":false,"is_disabled":false,"rental_uris":{"android":"levelo://app?vid=5effb89f-1d70-4615-a4b6-1dc3bfffaecb","ios":"levelo://app?vid=5effb89f-1d70-4615-a4b6-1dc3bfffaecb"},"vehicle_type_id":"4","last_reported":1770910789,"current_range_meters":10000,"station_id":"ce4bhbh2rcd13ifvqeqg","pricing_plan_id":"cebpf4jnsgd1na2vs0mg"},{"bike_id":"bcad26e7-801b-45a3-9a6f-b11851106eac","system_id":"levelo_inurba_marseille","lat":43.28553,"lon":5.38347,"is_reserved":false,"is_disabled":false,"rental_uris":{"android":"levelo://app?vid=bcad26e7-801b-45a3-9a6f-b11851106eac","ios":"levelo://app?vid=bcad26e7-801b-45a3-9a6f-b11851106eac"},"vehicle_type_id":"4","last_reported":1770910789,"current_range_meters":10800,"station_id":"","pricing_plan_id":"cebpf4jnsgd1na2vs0mg"},{"bike_id":"e29024b3-288c-4d8b-ba32-8553041a7294","system_id":"levelo_inurba_marseille","lat":43.25944,"lon":5.40904,"is_reserved":false,"is_disabled":false,"rental_uris":{"android":"levelo://app?vid=e29024b3-288c-4d8b-ba32-8553041a7294","ios":"levelo://app?vid=e29024b3-288c-4d8b-ba32-8553041a7294"},"vehicle_type_id":"4","last_reported":1770910789,"current_range_meters":10800,"station_id":"ce4bhm92rcd13ifvqglg","pricing_plan_id":"cebpf4jnsgd1na2vs0mg"},{"bike_id":"f06d538b-97fe-4530-9d3d-a633bac60e6e","system_id":"levelo_inurba_marseille","lat":43.26946,"lon":5.40266,"is_reserved":false,"is_disabled":false,"rental_uris":{"android":"levelo://app?vid=f06d538b-97fe-4530-9d3d-a633bac60e6e","ios":"levelo://app?vid=f06d538b-97fe-4530-9d3d-a633bac60e6e"},"vehicle_type_id":"4","last_reported":1770910789,"current_range_meters":10800,"station_id":"cjm6bp8fraef2m0cb0m0","pricing_plan_id":"cebpf4jnsgd1na2vs0mg"},{"bike_id":"9c4c1e7a-1b62-44f2-90e2-1ab3714cbf42","system_id":"levelo_inurba_marseille","lat":43.31033,"lon":5.37172,"is_reserved":false,"is_disabled":false,"rental_uris":{"android":"levelo://app?vid=9c4c1e7a-1b62-44f2-90e2-1ab3714cbf42","ios":"levelo://app?vid=9c4c1e7a-1b62-44f2-90e2-1ab3714cbf42"},"vehicle_type_id":"4","last_reported":1770910789,"current_range_meters":10800,"station_id":"st_d4kl2rp97mjs73e7tdfg","pricing_plan_id":"cebpf4jnsgd1na2vs0mg"},{"bike_id":"4307a57a-99ed-4a09-a634-c820d1d60b65","system_id":"levelo_inurba_marseille","lat":43.29803,"lon":5.37089,"is_reserved":false,"is_disabled":false,"rental_uris":{"android":"levelo://app?vid=4307a57a-99ed-4a09-a634-c820d1d60b65","ios":"levelo://app?vid=4307a57a-99ed-4a09-a634-c820d1d60b65"},"vehicle_type_id":"4","last_reported":1770910789,"current_range_meters":10800,"station_id":"ce4bgop2rcd13ifvqc1g","pricing_plan_id":"cebpf4jnsgd1na2vs0mg"},{"bike_id":"1553a87a-c070-44ad-8771-3bf3220a47ca","system_id":"levelo_inurba_marseille","lat":43.27057,"lon":5.38297,"is_reserved":false,"is_disabled":false,"rental_uris":{"android":"levelo://app?vid=1553a87a-c070-44ad-8771-3bf3220a47ca","ios":"levelo://app?vid=1553a87a-c070-44ad-8771-3bf3220a47ca"},"vehicle_type_id":"4","last_reported":1770910789,"current_range_meters":10800,"station_id":"st_d3n2fo6cfp8s73cte1j0","pricing_plan_id":"cebpf4jnsgd1na2vs0mg"},{"bike_id":"24beb69c-3a8c-4d35-9631-070c88397c48","system_id":"levelo_inurba_marseille","lat":43.31343,"lon":5.36725,"is_reserved":false,"is_disabled":false,"rental_uris":{"android":"levelo://app?vid=24beb69c-3a8c-4d35-9631-070c88397c48","ios":"levelo://app?vid=24beb69c-3a8c-4d35-9631-070c88397c48"},"vehicle_type_id":"4","last_reported":1770910789,"current_range_meters":10800,"station_id":"ce4bgr92rcd13ifvqc6g","pricing_plan_id":"cebpf4jnsgd1na2vs0mg"},{"bike_id":"3e0818c0-4a68-4f37-b1c2-96b4a204dd0b","system_id":"levelo_inurba_marseille","lat":43.33737,"lon":5.37475,"is_reserved":false,"is_disabled":false,"rental_uris":{"android":"levelo://app?vid=3e0818c0-4a68-4f37-b1c2-96b4a204dd0b","ios":"levelo://app?vid=3e0818c0-4a68-4f37-b1c2-96b4a204dd0b"},"vehicle_type_id":"4","last_reported":1770910789,"current_range_meters":10800,"station_id":"","pricing_plan_id":"cebpf4jnsgd1na2vs0mg"},{"bike_id":"8e0642e5-765d-419c-9ff5-751012c40134","system_id":"levelo_inurba_marseille","lat":43.31542,"lon":5.38026,"is_reserved":false,"is_disabled":true,"rental_uris":{"android":"levelo://app?vid=8e0642e5-765d-419c-9ff5-751012c40134","ios":"levelo://app?vid=8e0642e5-765d-419c-9ff5-751012c40134"},"vehicle_type_id":"4","last_reported":1770910789,"current_range_meters":10800,"station_id":"ce4bhsp2rcd13ifvqi50","pricing_plan_id":"cebpf4jnsgd1na2vs0mg"},{"bike_id":"3ff93eed-be4e-4b3d-8059-24e6430fca23","system_id":"levelo_inurba_marseille","lat":43.29617,"lon":5.37767,"is_reserved":false,"is_disabled":false,"rental_uris":{"android":"levelo://app?vid=3ff93eed-be4e-4b3d-8059-24e6430fca23","ios":"levelo://app?vid=3ff93eed-be4e-4b3d-8059-24e6430fca23"},"vehicle_type_id":"4","last_reported":1770910789,"current_range_meters":10800,"station_id":"ce4bgi92rcd13ifvqb90","pricing_plan_id":"cebpf4jnsgd1na2vs0mg"},{"bike_id":"a20419cd-fa8e-4d0c-bbc9-24f12214c85e","system_id":"levelo_inurba_marseille","lat":43.28491,"lon":5.38565,"is_reserved":false,"is_disabled":false,"rental_uris":{"android":"levelo://app?vid=a20419cd-fa8e-4d0c-bbc9-24f12214c85e","ios":"levelo://app?vid=a20419cd-fa8e-4d0c-bbc9-24f12214c85e"},"vehicle_type_id":"4","last_reported":1770910789,"current_range_meters":10800,"station_id":"ce4bh8p2rcd13ifvqeb0","pricing_plan_id":"cebpf4jnsgd1na2vs0mg"},{"bike_id":"8c60d5ae-062c-413c-b8b5-655786fb316a","system_id":"levelo_inurba_marseille","lat":43.262088,"lon":5.379356,"is_reserved":false,"is_disabled":false,"rental_uris":{"android":"levelo://app?vid=8c60d5ae-062c-413c-b8b5-655786fb316a","ios":"levelo://app?vid=8c60d5ae-062c-413c-b8b5-655786fb316a"},"vehicle_type_id":"4","last_reported":1770910789,"current_range_meters":10800,"station_id":"ce4bhjp2rcd13ifvqg90","pricing_plan_id":"cebpf4jnsgd1na2vs0mg"},{"bike_id":"634b4ba2-2798-4972-95d0-ff6141ab2480","system_id":"levelo_inurba_marseille","lat":43.29246,"lon":5.40942,"is_reserved":false,"is_disabled":false,"rental_uris":{"android":"levelo://app?vid=634b4ba2-2798-4972-95d0-ff6141ab2480","ios":"levelo://app?vid=634b4ba2-2798-4972-95d0-ff6141ab2480"},"vehicle_type_id":"4","last_reported":1770910789,"current_range_meters":10800,"station_id":"ce4bh192rcd13ifvqdc0","pricing_plan_id":"cebpf4jnsgd1na2vs0mg"},{"bike_id":"b18fe5b4-fe94-414b-9052-f9c52c18c1b2","system_id":"levelo_inurba_marseille","lat":43.28849,"lon":5.39356,"is_reserved":false,"is_disabled":false,"rental_uris":{"android":"levelo://app?vid=b18fe5b4-fe94-414b-9052-f9c52c18c1b2","ios":"levelo://app?vid=b18fe5b4-fe94-414b-9052-f9c52c18c1b2"},"vehicle_type_id":"4","last_reported":1770910789,"current_range_meters":10800,"station_id":"ce4bh2p2rcd13ifvqdi0","pricing_plan_id":"cebpf4jnsgd1na2vs0mg"},{"bike_id":"481af2c1-cc29-4b4a-8874-d8a4ab66d08d","system_id":"levelo_inurba_marseille","lat":43.31861,"lon":5.38452,"is_reserved":false,"is_disabled":false,"rental_uris":{"android":"levelo://app?vid=481af2c1-cc29-4b4a-8874-d8a4ab66d08d","ios":"levelo://app?vid=481af2c1-cc29-4b4a-8874-d8a4ab66d08d"},"vehicle_type_id":"4","last_reported":1770910789,"current_range_meters":10800,"station_id":"","pricing_plan_id":"cebpf4jnsgd1na2vs0mg"},{"bike_id":"2ddb74e5-6790-45b0-ae81-55d53893d2bd","system_id":"levelo_inurba_marseille","lat":43.26367,"lon":5.41071,"is_reserved":false,"is_disabled":false,"rental_uris":{"android":"levelo://app?vid=2ddb74e5-6790-45b0-ae81-55d53893d2bd","ios":"levelo://app?vid=2ddb74e5-6790-45b0-ae81-55d53893d2bd"},"vehicle_type_id":"4","last_reported":1770910789,"current_range_meters":10800,"station_id":"st_d4e5ca6na9uc73bfl5fg","pricing_plan_id":"cebpf4jnsgd1na2vs0mg"},{"bike_id":"cda7d6c8-90ff-4c0c-aa9e-d7b16914d690","system_id":"levelo_inurba_marseille","lat":43.27372,"lon":5.36255,"is_reserved":false,"is_disabled":false,"rental_uris":{"android":"levelo://app?vid=cda7d6c8-90ff-4c0c-aa9e-d7b16914d690","ios":"levelo://app?vid=cda7d6c8-90ff-4c0c-aa9e-d7b16914d690"},"vehicle_type_id":"4","last_reported":1770910789,"current_range_meters":10800,"station_id":"ce4bhbh2rcd13ifvqeo0","pricing_plan_id":"cebpf4jnsgd1na2vs0mg"},{"bike_id":"af54d2f5-99fe-4d8f-a610-998580f1e210","system_id":"levelo_inurba_marseille","lat":43.249637,"lon":5.404897,"is_reserved":false,"is_disabled":false,"rental_uris":{"android":"levelo://app?vid=af54d2f5-99fe-4d8f-a610-998580f1e210","ios":"levelo://app?vid=af54d2f5-99fe-4d8f-a610-998580f1e210"},"vehicle_type_id":"4","last_reported":1770910789,"current_range_meters":10800,"station_id":"st_d2ngiaodas8pm72gd1h0","pricing_plan_id":"cebpf4jnsgd1na2vs0mg"},{"bike_id":"cda7fb8d-6765-42f9-8bb5-df02cebcab27","system_id":"levelo_inurba_marseille","lat":43.31087,"lon":5.38351,"is_reserved":false,"is_disabled":false,"rental_uris":{"android":"levelo://app?vid=cda7fb8d-6765-42f9-8bb5-df02cebcab27","ios":"levelo://app?vid=cda7fb8d-6765-42f9-8bb5-df02cebcab27"},"vehicle_type_id":"4","last_reported":1770910789,"current_range_meters":10800,"station_id":"ce4bgv92rcd13ifvqcr0","pricing_plan_id":"cebpf4jnsgd1na2vs0mg"},{"bike_id":"d2fbb244-ff6c-42b3-8846-89bd647ac6ee","system_id":"levelo_inurba_marseille","lat":43.29584,"lon":5.36743,"is_reserved":false,"is_disabled":false,"rental_uris":{"android":"levelo://app?vid=d2fbb244-ff6c-42b3-8846-89bd647ac6ee","ios":"levelo://app?vid=d2fbb244-ff6c-42b3-8846-89bd647ac6ee"},"vehicle_type_id":"4","last_reported":1770910789,"current_range_meters":10800,"station_id":"ce4bgph2rcd13ifvqc2g","pricing_plan_id":"cebpf4jnsgd1na2vs0mg"},{"bike_id":"630ace04-3797-4207-b4d3-670a194c9f19","system_id":"levelo_inurba_marseille","lat":43.24167,"lon":5.39761,"is_reserved":false,"is_disabled":false,"rental_uris":{"android":"levelo://app?vid=630ace04-3797-4207-b4d3-670a194c9f19","ios":"levelo://app?vid=630ace04-3797-4207-b4d3-670a194c9f19"},"vehicle_type_id":"4","last_reported":1770910789,"current_range_meters":11200,"station_id":"ce4bhn12rcd13ifvqgpg","pricing_plan_id":"cebpf4jnsgd1na2vs0mg"},{"bike_id":"1bf3c557-9b1e-42be-bafe-0a6443919d9f","system_id":"levelo_inurba_marseille","lat":43.3321,"lon":5.410445,"is_reserved":false,"is_disabled":false,"rental_uris":{"android":"levelo://app?vid=1bf3c557-9b1e-42be-bafe-0a6443919d9f","ios":"levelo://app?vid=1bf3c557-9b1e-42be-bafe-0a6443919d9f"},"vehicle_type_id":"4","last_reported":1770910789,"current_range_meters":11200,"station_id":"","pricing_plan_id":"cebpf4jnsgd1na2vs0mg"},{"bike_id":"142c133d-2434-483b-a2b6-5864a0a0c3be","system_id":"levelo_inurba_marseille","lat":43.27052,"lon":5.40255,"is_reserved":false,"is_disabled":false,"rental_uris":{"android":"levelo://app?vid=142c133d-2434-483b-a2b6-5864a0a0c3be","ios":"levelo://app?vid=142c133d-2434-483b-a2b6-5864a0a0c3be"},"vehicle_type_id":"4","last_reported":1770910789,"current_range_meters":11200,"station_id":"ce4bhk92rcd13ifvqgc0","pricing_plan_id":"cebpf4jnsgd1na2vs0mg"},{"bike_id":"ab3072c9-51a7-4445-a2a6-b9345bfef4e6","system_id":"levelo_inurba_marseille","lat":43.28949,"lon":5.39619,"is_reserved":false,"is_disabled":false,"rental_uris":{"android":"levelo://app?vid=ab3072c9-51a7-4445-a2a6-b9345bfef4e6","ios":"levelo://app?vid=ab3072c9-51a7-4445-a2a6-b9345bfef4e6"},"vehicle_type_id":"4","last_reported":1770910789,"current_range_meters":11200,"station_id":"ce4bh3h2rcd13ifvqdn0","pricing_plan_id":"cebpf4jnsgd1na2vs0mg"},{"bike_id":"3107e79a-3d51-4458-af90-1fa62ec090b1","system_id":"levelo_inurba_marseille","lat":43.2256,"lon":5.41632,"is_reserved":false,"is_disabled":false,"rental_uris":{"android":"levelo://app?vid=3107e79a-3d51-4458-af90-1fa62ec090b1","ios":"levelo://app?vid=3107e79a-3d51-4458-af90-1fa62ec090b1"},"vehicle_type_id":"4","last_reported":1770910789,"current_range_meters":11200,"station_id":"st_d2o4gvlbi1j2169b742g","pricing_plan_id":"cebpf4jnsgd1na2vs0mg"},{"bike_id":"5680e12d-61fe-4e87-a7bc-978c14b91ee6","system_id":"levelo_inurba_marseille","lat":43.27567,"lon":5.38424,"is_reserved":false,"is_disabled":false,"rental_uris":{"android":"levelo://app?vid=5680e12d-61fe-4e87-a7bc-978c14b91ee6","ios":"levelo://app?vid=5680e12d-61fe-4e87-a7bc-978c14b91ee6"},"vehicle_type_id":"4","last_reported":1770910789,"current_range_meters":11200,"station_id":"ce4bhh92rcd13ifvqfi0","pricing_plan_id":"cebpf4jnsgd1na2vs0mg"},{"bike_id":"53790252-848a-4d99-99e6-1c59596407ff","system_id":"levelo_inurba_marseille","lat":43.31062,"lon":5.38351,"is_reserved":false,"is_disabled":false,"rental_uris":{"android":"levelo://app?vid=53790252-848a-4d99-99e6-1c59596407ff","ios":"levelo://app?vid=53790252-848a-4d99-99e6-1c59596407ff"},"vehicle_type_id":"4","last_reported":1770910789,"current_range_meters":11200,"station_id":"ce4bgv92rcd13ifvqcr0","pricing_plan_id":"cebpf4jnsgd1na2vs0mg"},{"bike_id":"b52d20c4-aec1-47ab-b0a8-a26d6b63f7dc","system_id":"levelo_inurba_marseille","lat":43.25692,"lon":5.41057,"is_reserved":false,"is_disabled":false,"rental_uris":{"android":"levelo://app?vid=b52d20c4-aec1-47ab-b0a8-a26d6b63f7dc","ios":"levelo://app?vid=b52d20c4-aec1-47ab-b0a8-a26d6b63f7dc"},"vehicle_type_id":"4","last_reported":1770910789,"current_range_meters":11200,"station_id":"ce4bhkp2rcd13ifvqgd0","pricing_plan_id":"cebpf4jnsgd1na2vs0mg"},{"bike_id":"e2567af5-4358-41c8-a86d-ede427d871f3","system_id":"levelo_inurba_marseille","lat":43.249965,"lon":5.389347,"is_reserved":false,"is_disabled":false,"rental_uris":{"android":"levelo://app?vid=e2567af5-4358-41c8-a86d-ede427d871f3","ios":"levelo://app?vid=e2567af5-4358-41c8-a86d-ede427d871f3"},"vehicle_type_id":"4","last_reported":1770910789,"current_range_meters":11200,"station_id":"ce4bhgp2rcd13ifvqfd0","pricing_plan_id":"cebpf4jnsgd1na2vs0mg"},{"bike_id":"86845f83-82dc-4c86-a881-3f557d2b5ecb","system_id":"levelo_inurba_marseille","lat":43.31272,"lon":5.3777,"is_reserved":false,"is_disabled":false,"rental_uris":{"android":"levelo://app?vid=86845f83-82dc-4c86-a881-3f557d2b5ecb","ios":"levelo://app?vid=86845f83-82dc-4c86-a881-3f557d2b5ecb"},"vehicle_type_id":"4","last_reported":1770910789,"current_range_meters":11200,"station_id":"","pricing_plan_id":"cebpf4jnsgd1na2vs0mg"},{"bike_id":"58ed2ab1-f926-4351-9230-b54e329678c0","system_id":"levelo_inurba_marseille","lat":43.31928,"lon":5.4006,"is_reserved":false,"is_disabled":false,"rental_uris":{"android":"levelo://app?vid=58ed2ab1-f926-4351-9230-b54e329678c0","ios":"levelo://app?vid=58ed2ab1-f926-4351-9230-b54e329678c0"},"vehicle_type_id":"4","last_reported":1770910789,"current_range_meters":11200,"station_id":"","pricing_plan_id":"cebpf4jnsgd1na2vs0mg"},{"bike_id":"adc6109f-913b-40a2-901e-3e4d4ca6c02e","system_id":"levelo_inurba_marseille","lat":43.29565,"lon":5.42285,"is_reserved":false,"is_disabled":false,"rental_uris":{"android":"levelo://app?vid=adc6109f-913b-40a2-901e-3e4d4ca6c02e","ios":"levelo://app?vid=adc6109f-913b-40a2-901e-3e4d4ca6c02e"},"vehicle_type_id":"4","last_reported":1770910789,"current_range_meters":11200,"station_id":"ce4bhph2rcd13ifvqhdg","pricing_plan_id":"cebpf4jnsgd1na2vs0mg"},{"bike_id":"2604129a-474b-41d1-9d1a-972f3e9a5a95","system_id":"levelo_inurba_marseille","lat":43.29432,"lon":5.39776,"is_reserved":false,"is_disabled":true,"rental_uris":{"android":"levelo://app?vid=2604129a-474b-41d1-9d1a-972f3e9a5a95","ios":"levelo://app?vid=2604129a-474b-41d1-9d1a-972f3e9a5a95"},"vehicle_type_id":"4","last_reported":1770910789,"current_range_meters":11200,"station_id":"ce4bh3h2rcd13ifvqdo0","pricing_plan_id":"cebpf4jnsgd1na2vs0mg"},{"bike_id":"6f3e2f7d-44a9-4b52-b35d-554675bf6b18","system_id":"levelo_inurba_marseille","lat":43.31747,"lon":5.39062,"is_reserved":false,"is_disabled":false,"rental_uris":{"android":"levelo://app?vid=6f3e2f7d-44a9-4b52-b35d-554675bf6b18","ios":"levelo://app?vid=6f3e2f7d-44a9-4b52-b35d-554675bf6b18"},"vehicle_type_id":"4","last_reported":1770910789,"current_range_meters":11200,"station_id":"ce4bhqp2rcd13ifvqhng","pricing_plan_id":"cebpf4jnsgd1na2vs0mg"},{"bike_id":"413ed62a-9df8-405e-a13b-bcf2331aac63","system_id":"levelo_inurba_marseille","lat":43.28946,"lon":5.3964,"is_reserved":false,"is_disabled":true,"rental_uris":{"android":"levelo://app?vid=413ed62a-9df8-405e-a13b-bcf2331aac63","ios":"levelo://app?vid=413ed62a-9df8-405e-a13b-bcf2331aac63"},"vehicle_type_id":"4","last_reported":1770910789,"current_range_meters":11200,"station_id":"ce4bh3h2rcd13ifvqdn0","pricing_plan_id":"cebpf4jnsgd1na2vs0mg"},{"bike_id":"580a8d5e-0ed9-4ac2-8327-84bd4e0acf96","system_id":"levelo_inurba_marseille","lat":43.32354,"lon":5.3674,"is_reserved":false,"is_disabled":false,"rental_uris":{"android":"levelo://app?vid=580a8d5e-0ed9-4ac2-8327-84bd4e0acf96","ios":"levelo://app?vid=580a8d5e-0ed9-4ac2-8327-84bd4e0acf96"},"vehicle_type_id":"4","last_reported":1770910789,"current_range_meters":11200,"station_id":"ce4bhsh2rcd13ifvqi2g","pricing_plan_id":"cebpf4jnsgd1na2vs0mg"},{"bike_id":"1b5e2338-6f05-41ac-bc50-ec9bc7f15251","system_id":"levelo_inurba_marseille","lat":43.30552,"lon":5.36536,"is_reserved":false,"is_disabled":false,"rental_uris":{"android":"levelo://app?vid=1b5e2338-6f05-41ac-bc50-ec9bc7f15251","ios":"levelo://app?vid=1b5e2338-6f05-41ac-bc50-ec9bc7f15251"},"vehicle_type_id":"4","last_reported":1770910789,"current_range_meters":11600,"station_id":"ce4bgs12rcd13ifvqcag","pricing_plan_id":"cebpf4jnsgd1na2vs0mg"},{"bike_id":"547bba17-4a19-4e86-963e-0a2043e9608c","system_id":"levelo_inurba_marseille","lat":43.31371,"lon":5.36694,"is_reserved":false,"is_disabled":false,"rental_uris":{"android":"levelo://app?vid=547bba17-4a19-4e86-963e-0a2043e9608c","ios":"levelo://app?vid=547bba17-4a19-4e86-963e-0a2043e9608c"},"vehicle_type_id":"4","last_reported":1770910789,"current_range_meters":11600,"station_id":"ce4bgr92rcd13ifvqc6g","pricing_plan_id":"cebpf4jnsgd1na2vs0mg"},{"bike_id":"8e60b5a4-a529-4f60-ba31-4e446c412c7e","system_id":"levelo_inurba_marseille","lat":43.29041,"lon":5.39948,"is_reserved":false,"is_disabled":false,"rental_uris":{"android":"levelo://app?vid=8e60b5a4-a529-4f60-ba31-4e446c412c7e","ios":"levelo://app?vid=8e60b5a4-a529-4f60-ba31-4e446c412c7e"},"vehicle_type_id":"4","last_reported":1770910789,"current_range_meters":11600,"station_id":"ce4bh392rcd13ifvqdm0","pricing_plan_id":"cebpf4jnsgd1na2vs0mg"},{"bike_id":"051aa940-fc1a-43e5-8b2d-113eec558be5","system_id":"levelo_inurba_marseille","lat":43.25569,"lon":5.38239,"is_reserved":false,"is_disabled":false,"rental_uris":{"android":"levelo://app?vid=051aa940-fc1a-43e5-8b2d-113eec558be5","ios":"levelo://app?vid=051aa940-fc1a-43e5-8b2d-113eec558be5"},"vehicle_type_id":"4","last_reported":1770910789,"current_range_meters":11600,"station_id":"ce4bhih2rcd13ifvqfs0","pricing_plan_id":"cebpf4jnsgd1na2vs0mg"},{"bike_id":"5ba840a8-760b-4feb-91a9-72c44941510b","system_id":"levelo_inurba_marseille","lat":43.31277,"lon":5.40167,"is_reserved":false,"is_disabled":false,"rental_uris":{"android":"levelo://app?vid=5ba840a8-760b-4feb-91a9-72c44941510b","ios":"levelo://app?vid=5ba840a8-760b-4feb-91a9-72c44941510b"},"vehicle_type_id":"4","last_reported":1770910789,"current_range_meters":11600,"station_id":"ce4bh092rcd13ifvqd30","pricing_plan_id":"cebpf4jnsgd1na2vs0mg"},{"bike_id":"69da07ac-31c5-4d95-a3dd-27442b17141c","system_id":"levelo_inurba_marseille","lat":43.23151,"lon":5.4372,"is_reserved":false,"is_disabled":false,"rental_uris":{"android":"levelo://app?vid=69da07ac-31c5-4d95-a3dd-27442b17141c","ios":"levelo://app?vid=69da07ac-31c5-4d95-a3dd-27442b17141c"},"vehicle_type_id":"4","last_reported":1770910789,"current_range_meters":11600,"station_id":"ce4bhmp2rcd13ifvqgog","pricing_plan_id":"cebpf4jnsgd1na2vs0mg"},{"bike_id":"9641e7d4-5fb4-414c-a71a-21650bb05fe0","system_id":"levelo_inurba_marseille","lat":43.30113,"lon":5.37431,"is_reserved":false,"is_disabled":false,"rental_uris":{"android":"levelo://app?vid=9641e7d4-5fb4-414c-a71a-21650bb05fe0","ios":"levelo://app?vid=9641e7d4-5fb4-414c-a71a-21650bb05fe0"},"vehicle_type_id":"4","last_reported":1770910789,"current_range_meters":11600,"station_id":"ce4bgs92rcd13ifvqcc0","pricing_plan_id":"cebpf4jnsgd1na2vs0mg"},