{"last_updated":1773826906,"ttl":60,"version":"2.2","data":{"bikes":[{"bike_id":"3be68386-fcc7-4514-8adc-b98f87165b7f","system_id":"levelo_inurba_marseille","lat":43.31305,"lon":5.36821,"is_reserved":false,"is_disabled":true,"rental_uris":{"android":"levelo://app?vid=3be68386-fcc7-4514-8adc-b98f87165b7f","ios":"levelo://app?vid=3be68386-fcc7-4514-8adc-b98f87165b7f"},"vehicle_type_id":"4","last_reported":1773826906,"current_range_meters":2800,"station_id":"","pricing_plan_id":"cebpf4jnsgd1na2vs0mg"},{"bike_id":"feaf2e83-6bc7-46d3-b8dc-e52b9fc8cf3e","system_id":"levelo_inurba_marseille","lat":43.22563,"lon":5.41624,"is_reserved":false,"is_disabled":false,"rental_uris":{"android":"levelo://app?vid=feaf2e83-6bc7-46d3-b8dc-e52b9fc8cf3e","ios":"levelo://app?vid=feaf2e83-6bc7-46d3-b8dc-e52b9fc8cf3e"},"vehicle_type_id":"4","last_reported":1773826906,"current_range_meters":2800,"station_id":"st_d2o4gvlbi1j2169b742g","pricing_plan_id":"cebpf4jnsgd1na2vs0mg"},{"bike_id":"7138d584-ac6a-4689-8759-a454c6ada4aa","system_id":"levelo_inurba_marseille","lat":43.26688,"lon":5.38266,"is_reserved":false,"is_disabled":false,"rental_uris":{"android":"levelo://app?vid=7138d584-ac6a-4689-8759-a454c6ada4aa","ios":"levelo://app?vid=7138d584-ac6a-4689-8759-a454c6ada4aa"},"vehicle_type_id":"4","last_reported":1773826906,"current_range_meters":2800,"station_id":"ce4bhg92rcd13ifvqf90","pricing_plan_id":"cebpf4jnsgd1na2vs0mg"},{"bike_id":"55ad6576-3c79-4a6b-881b-323a7e8b70a1","system_id":"levelo_inurba_marseille","lat":43.25,"lon":5.38928,"is_reserved":false,"is_disabled":false,"rental_uris":{"android":"levelo://app?vid=55ad6576-3c79-4a6b-881b-323a7e8b70a1","ios":"levelo://app?vid=55ad6576-3c79-4a6b-881b-323a7e8b70a1"},"vehicle_type_id":"4","last_reported":1773826906,"current_range_meters":2800,"station_id":"ce4bhgp2rcd13ifvqfd0","pricing_plan_id":"cebpf4jnsgd1na2vs0mg"},{"bike_id":"3aa3d11b-ad41-4898-aa7f-dcaaf47f06cb","system_id":"levelo_inurba_marseille","lat":43.33534,"lon":5.37446,"is_reserved":false,"is_disabled":false,"rental_uris":{"android":"levelo://app?vid=3aa3d11b-ad41-4898-aa7f-dcaaf47f06cb","ios":"levelo://app?vid=3aa3d11b-ad41-4898-aa7f-dcaaf47f06cb"},"vehicle_type_id":"4","last_reported":1773826906,"current_range_meters":2800,"station_id":"st_d46tts09ee8s73dlu43g","pricing_plan_id":"cebpf4jnsgd1na2vs0mg"},{"bike_id":"65f2fbb0-89da-47b6-8077-a603b4ae0e5d","system_id":"levelo_inurba_marseille","lat":43.28443,"lon":5.39195,"is_reserved":false,"is_disabled":false,"rental_uris":{"android":"levelo://app?vid=65f2fbb0-89da-47b6-8077-a603b4ae0e5d","ios":"levelo://app?vid=65f2fbb0-89da-47b6-8077-a603b4ae0e5d"},"vehicle_type_id":"4","last_reported":1773826906,"current_range_meters":2800,"station_id":"ce4bhoh2rcd13ifvqh5g","pricing_plan_id":"cebpf4jnsgd1na2vs0mg"},{"bike_id":"bc8899e8-628d-4959-b604-21461341e264","system_id":"levelo_inurba_marseille","lat":43.24201,"lon":5.39728,"is_reserved":false,"is_disabled":false,"rental_uris":{"android":"levelo://app?vid=bc8899e8-628d-4959-b604-21461341e264","ios":"levelo://app?vid=bc8899e8-628d-4959-b604-21461341e264"},"vehicle_type_id":"4","last_reported":1773826906,"current_range_meters":2800,"station_id":"ce4bhn12rcd13ifvqgpg","pricing_plan_id":"cebpf4jnsgd1na2vs0mg"},{"bike_id":"d6f4fcc9-529e-44c9-8ab1-66a46ec0a2d7","system_id":"levelo_inurba_marseille","lat":43.29658,"lon":5.37461,"is_reserved":false,"is_disabled":false,"rental_uris":{"android":"levelo://app?vid=d6f4fcc9-529e-44c9-8ab1-66a46ec0a2d7","ios":"levelo://app?vid=d6f4fcc9-529e-44c9-8ab1-66a46ec0a2d7"},"vehicle_type_id":"4","last_reported":1773826906,"current_range_meters":2800,"station_id":"","pricing_plan_id":"cebpf4jnsgd1na2vs0mg"},{"bike_id":"bbfe8841-199e-4b23-a4c2-a064c4d2a196","system_id":"levelo_inurba_marseille","lat":43.3048,"lon":5.37913,"is_reserved":false,"is_disabled":false,"rental_uris":{"android":"levelo://app?vid=bbfe8841-199e-4b23-a4c2-a064c4d2a196","ios":"levelo://app?vid=bbfe8841-199e-4b23-a4c2-a064c4d2a196"},"vehicle_type_id":"4","last_reported":1773826906,"current_range_meters":2800,"station_id":"","pricing_plan_id":"cebpf4jnsgd1na2vs0mg"},{"bike_id":"eec0221d-83d8-4961-9b5c-72aab6d37b1e","system_id":"levelo_inurba_marseille","lat":43.27421,"lon":5.39418,"is_reserved":false,"is_disabled":false,"rental_uris":{"android":"levelo://app?vid=eec0221d-83d8-4961-9b5c-72aab6d37b1e","ios":"levelo://app?vid=eec0221d-83d8-4961-9b5c-72aab6d37b1e"},"vehicle_type_id":"4","last_reported":1773826906,"current_range_meters":2800,"station_id":"ce4bhdp2rcd13ifvqf20","pricing_plan_id":"cebpf4jnsgd1na2vs0mg"},{"bike_id":"f436ac02-748f-415a-893c-f30ce2c44d3e","system_id":"levelo_inurba_marseille","lat":43.26506,"lon":5.39542,"is_reserved":false,"is_disabled":false,"rental_uris":{"android":"levelo://app?vid=f436ac02-748f-415a-893c-f30ce2c44d3e","ios":"levelo://app?vid=f436ac02-748f-415a-893c-f30ce2c44d3e"},"vehicle_type_id":"4","last_reported":1773826906,"current_range_meters":2800,"station_id":"ce4bhi12rcd13ifvqfq0","pricing_plan_id":"cebpf4jnsgd1na2vs0mg"},{"bike_id":"e96a044f-2ef6-488d-9ecd-a61e027bbb5c","system_id":"levelo_inurba_marseille","lat":43.3267,"lon":5.40982,"is_reserved":false,"is_disabled":false,"rental_uris":{"android":"levelo://app?vid=e96a044f-2ef6-488d-9ecd-a61e027bbb5c","ios":"levelo://app?vid=e96a044f-2ef6-488d-9ecd-a61e027bbb5c"},"vehicle_type_id":"4","last_reported":1773826906,"current_range_meters":2800,"station_id":"ce4bhpp2rcd13ifvqhgg","pricing_plan_id":"cebpf4jnsgd1na2vs0mg"},{"bike_id":"290e0ba0-353e-477a-89d4-70e72afe5fbc","system_id":"levelo_inurba_marseille","lat":43.32491,"lon":5.383,"is_reserved":false,"is_disabled":false,"rental_uris":{"android":"levelo://app?vid=290e0ba0-353e-477a-89d4-70e72afe5fbc","ios":"levelo://app?vid=290e0ba0-353e-477a-89d4-70e72afe5fbc"},"vehicle_type_id":"4","last_reported":1773826906,"current_range_meters":2800,"station_id":"st_d4asgbiv49dc73anf9m0","pricing_plan_id":"cebpf4jnsgd1na2vs0mg"},{"bike_id":"e4b515b3-5a64-4f24-8a63-3407e3500a15","system_id":"levelo_inurba_marseille","lat":43.24335,"lon":5.40203,"is_reserved":false,"is_disabled":false,"rental_uris":{"android":"levelo://app?vid=e4b515b3-5a64-4f24-8a63-3407e3500a15","ios":"levelo://app?vid=e4b515b3-5a64-4f24-8a63-3407e3500a15"},"vehicle_type_id":"4","last_reported":1773826906,"current_range_meters":2800,"station_id":"","pricing_plan_id":"cebpf4jnsgd1na2vs0mg"},{"bike_id":"9492034a-044d-4bc3-9de8-c734d52ccd60","system_id":"levelo_inurba_marseille","lat":43.30484,"lon":5.37899,"is_reserved":false,"is_disabled":false,"rental_uris":{"android":"levelo://app?vid=9492034a-044d-4bc3-9de8-c734d52ccd60","ios":"levelo://app?vid=9492034a-044d-4bc3-9de8-c734d52ccd60"},"vehicle_type_id":"4","last_reported":1773826906,"current_range_meters":2800,"station_id":"","pricing_plan_id":"cebpf4jnsgd1na2vs0mg"},{"bike_id":"f6c860f4-9c2e-4a13-b509-50fb1709859b","system_id":"levelo_inurba_marseille","lat":43.2119,"lon":5.35072,"is_reserved":false,"is_disabled":false,"rental_uris":{"android":"levelo://app?vid=f6c860f4-9c2e-4a13-b509-50fb1709859b","ios":"levelo://app?vid=f6c860f4-9c2e-4a13-b509-50fb1709859b"},"vehicle_type_id":"4","last_reported":1773826906,"current_range_meters":3200,"station_id":"st_cvj6sg6p6f1abm77japg","pricing_plan_id":"cebpf4jnsgd1na2vs0mg"},{"bike_id":"ece33332-c9c7-4886-9a59-ebf38c4535a5","system_id":"levelo_inurba_marseille","lat":43.25866,"lon":5.39897,"is_reserved":false,"is_disabled":false,"rental_uris":{"android":"levelo://app?vid=ece33332-c9c7-4886-9a59-ebf38c4535a5","ios":"levelo://app?vid=ece33332-c9c7-4886-9a59-ebf38c4535a5"},"vehicle_type_id":"4","last_reported":1773826906,"current_range_meters":3200,"station_id":"ce4bhl92rcd13ifvqghg","pricing_plan_id":"cebpf4jnsgd1na2vs0mg"},{"bike_id":"66f9d857-e1db-4d91-9d65-d23b21feed98","system_id":"levelo_inurba_marseille","lat":43.30947,"lon":5.39027,"is_reserved":false,"is_disabled":false,"rental_uris":{"android":"levelo://app?vid=66f9d857-e1db-4d91-9d65-d23b21feed98","ios":"levelo://app?vid=66f9d857-e1db-4d91-9d65-d23b21feed98"},"vehicle_type_id":"4","last_reported":1773826906,"current_range_meters":3200,"station_id":"ce4bgup2rcd13ifvqco0","pricing_plan_id":"cebpf4jnsgd1na2vs0mg"},{"bike_id":"d44e10fb-6d97-4c2b-8ab3-e3d4038e2dcf","system_id":"levelo_inurba_marseille","lat":43.31366,"lon":5.367,"is_reserved":false,"is_disabled":false,"rental_uris":{"android":"levelo://app?vid=d44e10fb-6d97-4c2b-8ab3-e3d4038e2dcf","ios":"levelo://app?vid=d44e10fb-6d97-4c2b-8ab3-e3d4038e2dcf"},"vehicle_type_id":"4","last_reported":1773826906,"current_range_meters":3200,"station_id":"ce4bgr92rcd13ifvqc6g","pricing_plan_id":"cebpf4jnsgd1na2vs0mg"},{"bike_id":"da783e49-1347-455f-8b60-d2f97b4dacba","system_id":"levelo_inurba_marseille","lat":43.29272,"lon":5.36839,"is_reserved":false,"is_disabled":true,"rental_uris":{"android":"levelo://app?vid=da783e49-1347-455f-8b60-d2f97b4dacba","ios":"levelo://app?vid=da783e49-1347-455f-8b60-d2f97b4dacba"},"vehicle_type_id":"4","last_reported":1773826906,"current_range_meters":3200,"station_id":"ce4bhbp2rcd13ifvqesg","pricing_plan_id":"cebpf4jnsgd1na2vs0mg"},{"bike_id":"01a3571c-e8a5-4291-abe2-290bb44b75ab","system_id":"levelo_inurba_marseille","lat":43.29666,"lon":5.38707,"is_reserved":false,"is_disabled":false,"rental_uris":{"android":"levelo://app?vid=01a3571c-e8a5-4291-abe2-290bb44b75ab","ios":"levelo://app?vid=01a3571c-e8a5-4291-abe2-290bb44b75ab"},"vehicle_type_id":"4","last_reported":1773826906,"current_range_meters":3200,"station_id":"","pricing_plan_id":"cebpf4jnsgd1na2vs0mg"},{"bike_id":"f00fcd39-d458-47f2-97b4-5462c5c8dab5","system_id":"levelo_inurba_marseille","lat":43.25511,"lon":5.37633,"is_reserved":false,"is_disabled":false,"rental_uris":{"android":"levelo://app?vid=f00fcd39-d458-47f2-97b4-5462c5c8dab5","ios":"levelo://app?vid=f00fcd39-d458-47f2-97b4-5462c5c8dab5"},"vehicle_type_id":"4","last_reported":1773826906,"current_range_meters":3200,"station_id":"ce4bhh12rcd13ifvqff0","pricing_plan_id":"cebpf4jnsgd1na2vs0mg"},{"bike_id":"f9fcd0e4-64a8-49e7-b1c7-7c4d0ac98b5d","system_id":"levelo_inurba_marseille","lat":43.31461,"lon":5.37245,"is_reserved":false,"is_disabled":false,"rental_uris":{"android":"levelo://app?vid=f9fcd0e4-64a8-49e7-b1c7-7c4d0ac98b5d","ios":"levelo://app?vid=f9fcd0e4-64a8-49e7-b1c7-7c4d0ac98b5d"},"vehicle_type_id":"4","last_reported":1773826906,"current_range_meters":3200,"station_id":"ce4bgt12rcd13ifvqcd0","pricing_plan_id":"cebpf4jnsgd1na2vs0mg"},{"bike_id":"caa001d7-09eb-4bb0-84d9-d57cad6bd54c","system_id":"levelo_inurba_marseille","lat":43.33609,"lon":5.41014,"is_reserved":false,"is_disabled":false,"rental_uris":{"android":"levelo://app?vid=caa001d7-09eb-4bb0-84d9-d57cad6bd54c","ios":"levelo://app?vid=caa001d7-09eb-4bb0-84d9-d57cad6bd54c"},"vehicle_type_id":"4","last_reported":1773826906,"current_range_meters":3200,"station_id":"ce4bhqh2rcd13ifvqhmg","pricing_plan_id":"cebpf4jnsgd1na2vs0mg"},{"bike_id":"460c978a-7cee-4516-9a66-19f80c72bfb1","system_id":"levelo_inurba_marseille","lat":43.29584,"lon":5.37523,"is_reserved":false,"is_disabled":true,"rental_uris":{"android":"levelo://app?vid=460c978a-7cee-4516-9a66-19f80c72bfb1","ios":"levelo://app?vid=460c978a-7cee-4516-9a66-19f80c72bfb1"},"vehicle_type_id":"4","last_reported":1773826906,"current_range_meters":3200,"station_id":"ce4bgh92rcd13ifvqb50","pricing_plan_id":"cebpf4jnsgd1na2vs0mg"},{"bike_id":"4edc1e69-f919-4c2f-a6b8-66257e87a54f","system_id":"levelo_inurba_marseille","lat":43.2848,"lon":5.48403,"is_reserved":false,"is_disabled":false,"rental_uris":{"android":"levelo://app?vid=4edc1e69-f919-4c2f-a6b8-66257e87a54f","ios":"levelo://app?vid=4edc1e69-f919-4c2f-a6b8-66257e87a54f"},"vehicle_type_id":"4","last_reported":1773826906,"current_range_meters":3200,"station_id":"","pricing_plan_id":"cebpf4jnsgd1na2vs0mg"},{"bike_id":"7e942dea-2213-4fac-9551-db1de86a0c9c","system_id":"levelo_inurba_marseille","lat":43.30247,"lon":5.40038,"is_reserved":false,"is_disabled":false,"rental_uris":{"android":"levelo://app?vid=7e942dea-2213-4fac-9551-db1de86a0c9c","ios":"levelo://app?vid=7e942dea-2213-4fac-9551-db1de86a0c9c"},"vehicle_type_id":"4","last_reported":1773826906,"current_range_meters":3600,"station_id":"ce4bgvh2rcd13ifvqcs0","pricing_plan_id":"cebpf4jnsgd1na2vs0mg"},{"bike_id":"28934219-7bc1-494b-8007-d3749b5ec108","system_id":"levelo_inurba_marseille","lat":43.25906,"lon":5.40767,"is_reserved":false,"is_disabled":false,"rental_uris":{"android":"levelo://app?vid=28934219-7bc1-494b-8007-d3749b5ec108","ios":"levelo://app?vid=28934219-7bc1-494b-8007-d3749b5ec108"},"vehicle_type_id":"4","last_reported":1773826906,"current_range_meters":3600,"station_id":"ce4bhm92rcd13ifvqglg","pricing_plan_id":"cebpf4jnsgd1na2vs0mg"},{"bike_id":"57f59ea7-9661-484b-ab62-8930e39b76a3","system_id":"levelo_inurba_marseille","lat":43.23796,"lon":5.36635,"is_reserved":false,"is_disabled":false,"rental_uris":{"android":"levelo://app?vid=57f59ea7-9661-484b-ab62-8930e39b76a3","ios":"levelo://app?vid=57f59ea7-9661-484b-ab62-8930e39b76a3"},"vehicle_type_id":"4","last_reported":1773826906,"current_range_meters":3600,"station_id":"st_d3nk18o9ro0c73en2l3g","pricing_plan_id":"cebpf4jnsgd1na2vs0mg"},{"bike_id":"36933889-678d-4cd5-8ee2-ec803e63bcef","system_id":"levelo_inurba_marseille","lat":43.29022,"lon":5.37559,"is_reserved":false,"is_disabled":true,"rental_uris":{"android":"levelo://app?vid=36933889-678d-4cd5-8ee2-ec803e63bcef","ios":"levelo://app?vid=36933889-678d-4cd5-8ee2-ec803e63bcef"},"vehicle_type_id":"4","last_reported":1773826906,"current_range_meters":3600,"station_id":"ce4bh692rcd13ifvqe90","pricing_plan_id":"cebpf4jnsgd1na2vs0mg"},{"bike_id":"4eeecf6d-6108-42a0-b77f-fc0c0b55b73c","system_id":"levelo_inurba_marseille","lat":43.29913,"lon":5.37484,"is_reserved":false,"is_disabled":true,"rental_uris":{"android":"levelo://app?vid=4eeecf6d-6108-42a0-b77f-fc0c0b55b73c","ios":"levelo://app?vid=4eeecf6d-6108-42a0-b77f-fc0c0b55b73c"},"vehicle_type_id":"4","last_reported":1773826906,"current_range_meters":3600,"station_id":"ce4bgjh2rcd13ifvqbg0","pricing_plan_id":"cebpf4jnsgd1na2vs0mg"},{"bike_id":"e3903187-46ad-47f1-91c6-98d42f719495","system_id":"levelo_inurba_marseille","lat":43.27523,"lon":5.42431,"is_reserved":false,"is_disabled":false,"rental_uris":{"android":"levelo://app?vid=e3903187-46ad-47f1-91c6-98d42f719495","ios":"levelo://app?vid=e3903187-46ad-47f1-91c6-98d42f719495"},"vehicle_type_id":"4","last_reported":1773826906,"current_range_meters":3600,"station_id":"","pricing_plan_id":"cebpf4jnsgd1na2vs0mg"},{"bike_id":"c1a2a4f7-2f96-4d46-b948-1386fafbf585","system_id":"levelo_inurba_marseille","lat":43.29165,"lon":5.37158,"is_reserved":false,"is_disabled":false,"rental_uris":{"android":"levelo://app?vid=c1a2a4f7-2f96-4d46-b948-1386fafbf585","ios":"levelo://app?vid=c1a2a4f7-2f96-4d46-b948-1386fafbf585"},"vehicle_type_id":"4","last_reported":1773826906,"current_range_meters":3600,"station_id":"ce4bha92rcd13ifvqeh0","pricing_plan_id":"cebpf4jnsgd1na2vs0mg"},{"bike_id":"8518de49-644f-4a85-a5da-d0adbb5a3cc8","system_id":"levelo_inurba_marseille","lat":43.31526,"lon":5.37293,"is_reserved":false,"is_disabled":false,"rental_uris":{"android":"levelo://app?vid=8518de49-644f-4a85-a5da-d0adbb5a3cc8","ios":"levelo://app?vid=8518de49-644f-4a85-a5da-d0adbb5a3cc8"},"vehicle_type_id":"4","last_reported":1773826906,"current_range_meters":3600,"station_id":"ce4bgt12rcd13ifvqcd0","pricing_plan_id":"cebpf4jnsgd1na2vs0mg"},{"bike_id":"f99c995a-f3e5-4eda-9d8f-d63ae576869e","system_id":"levelo_inurba_marseille","lat":43.31488,"lon":5.37309,"is_reserved":false,"is_disabled":false,"rental_uris":{"android":"levelo://app?vid=f99c995a-f3e5-4eda-9d8f-d63ae576869e","ios":"levelo://app?vid=f99c995a-f3e5-4eda-9d8f-d63ae576869e"},"vehicle_type_id":"4","last_reported":1773826906,"current_range_meters":3600,"station_id":"ce4bgt12rcd13ifvqcd0","pricing_plan_id":"cebpf4jnsgd1na2vs0mg"},{"bike_id":"58df6535-2746-4ca5-8ec4-a2736cc7519f","system_id":"levelo_inurba_marseille","lat":43.21196,"lon":5.35074,"is_reserved":false,"is_disabled":false,"rental_uris":{"android":"levelo://app?vid=58df6535-2746-4ca5-8ec4-a2736cc7519f","ios":"levelo://app?vid=58df6535-2746-4ca5-8ec4-a2736cc7519f"},"vehicle_type_id":"4","last_reported":1773826906,"current_range_meters":3600,"station_id":"st_cvj6sg6p6f1abm77japg","pricing_plan_id":"cebpf4jnsgd1na2vs0mg"},{"bike_id":"9581202a-9f0b-4e3d-8ba8-487d1612fe8d","system_id":"levelo_inurba_marseille","lat":43.29868,"lon":5.37914,"is_reserved":false,"is_disabled":false,"rental_uris":{"android":"levelo://app?vid=9581202a-9f0b-4e3d-8ba8-487d1612fe8d","ios":"levelo://app?vid=9581202a-9f0b-4e3d-8ba8-487d1612fe8d"},"vehicle_type_id":"4","last_reported":1773826906,"current_range_meters":3600,"station_id":"","pricing_plan_id":"cebpf4jnsgd1na2vs0mg"},{"bike_id":"fa44eaac-f583-4562-b974-1e73ddc132f4","system_id":"levelo_inurba_marseille","lat":43.29513,"lon":5.3749,"is_reserved":false,"is_disabled":false,"rental_uris":{"android":"levelo://app?vid=fa44eaac-f583-4562-b974-1e73ddc132f4","ios":"levelo://app?vid=fa44eaac-f583-4562-b974-1e73ddc132f4"},"vehicle_type_id":"4","last_reported":1773826906,"current_range_meters":3600,"station_id":"ce4bgkp2rcd13ifvqbmg","pricing_plan_id":"cebpf4jnsgd1na2vs0mg"},{"bike_id":"0d33946c-dda7-4b3f-9757-2c7ef637d9ab","system_id":"levelo_inurba_marseille","lat":43.29258,"lon":5.40925,"is_reserved":false,"is_disabled":true,"rental_uris":{"android":"levelo://app?vid=0d33946c-dda7-4b3f-9757-2c7ef637d9ab","ios":"levelo://app?vid=0d33946c-dda7-4b3f-9757-2c7ef637d9ab"},"vehicle_type_id":"4","last_reported":1773826906,"current_range_meters":3600,"station_id":"ce4bh192rcd13ifvqdc0","pricing_plan_id":"cebpf4jnsgd1na2vs0mg"},{"bike_id":"58e17c87-fb2b-446b-a43c-e8b0dc07ae35","system_id":"levelo_inurba_marseille","lat":43.29272,"lon":5.38431,"is_reserved":false,"is_disabled":false,"rental_uris":{"android":"levelo://app?vid=58e17c87-fb2b-446b-a43c-e8b0dc07ae35","ios":"levelo://app?vid=58e17c87-fb2b-446b-a43c-e8b0dc07ae35"},"vehicle_type_id":"4","last_reported":1773826906,"current_range_meters":3600,"station_id":"ce4bh692rcd13ifvqea0","pricing_plan_id":"cebpf4jnsgd1na2vs0mg"},{"bike_id":"df51f949-c059-425b-93d2-f280e0d91676","system_id":"levelo_inurba_marseille","lat":43.28612,"lon":5.35109,"is_reserved":false,"is_disabled":false,"rental_uris":{"android":"levelo://app?vid=df51f949-c059-425b-93d2-f280e0d91676","ios":"levelo://app?vid=df51f949-c059-425b-93d2-f280e0d91676"},"vehicle_type_id":"4","last_reported":1773826906,"current_range_meters":3600,"station_id":"ce4bhch2rcd13ifvqeug","pricing_plan_id":"cebpf4jnsgd1na2vs0mg"},{"bike_id":"a0c5c5f8-8fc8-49f2-af86-114516413325","system_id":"levelo_inurba_marseille","lat":43.3211,"lon":5.36792,"is_reserved":false,"is_disabled":false,"rental_uris":{"android":"levelo://app?vid=a0c5c5f8-8fc8-49f2-af86-114516413325","ios":"levelo://app?vid=a0c5c5f8-8fc8-49f2-af86-114516413325"},"vehicle_type_id":"4","last_reported":1773826906,"current_range_meters":3600,"station_id":"ce4bhrh2rcd13ifvqhug","pricing_plan_id":"cebpf4jnsgd1na2vs0mg"},{"bike_id":"3cbb2ce7-e558-40f0-9ef7-308884bce6de","system_id":"levelo_inurba_marseille","lat":43.29165,"lon":5.37162,"is_reserved":false,"is_disabled":false,"rental_uris":{"android":"levelo://app?vid=3cbb2ce7-e558-40f0-9ef7-308884bce6de","ios":"levelo://app?vid=3cbb2ce7-e558-40f0-9ef7-308884bce6de"},"vehicle_type_id":"4","last_reported":1773826906,"current_range_meters":3600,"station_id":"ce4bha92rcd13ifvqeh0","pricing_plan_id":"cebpf4jnsgd1na2vs0mg"},{"bike_id":"c7a19c3c-98d3-4e4e-af58-36ddb7720ff6","system_id":"levelo_inurba_marseille","lat":43.25963,"lon":5.40888,"is_reserved":false,"is_disabled":false,"rental_uris":{"android":"levelo://app?vid=c7a19c3c-98d3-4e4e-af58-36ddb7720ff6","ios":"levelo://app?vid=c7a19c3c-98d3-4e4e-af58-36ddb7720ff6"},"vehicle_type_id":"4","last_reported":1773826906,"current_range_meters":3600,"station_id":"ce4bhm92rcd13ifvqglg","pricing_plan_id":"cebpf4jnsgd1na2vs0mg"},{"bike_id":"70dc4d05-aae3-4732-b154-15fa01d1cd08","system_id":"levelo_inurba_marseille","lat":43.27833,"lon":5.40733,"is_reserved":false,"is_disabled":true,"rental_uris":{"android":"levelo://app?vid=70dc4d05-aae3-4732-b154-15fa01d1cd08","ios":"levelo://app?vid=70dc4d05-aae3-4732-b154-15fa01d1cd08"},"vehicle_type_id":"4","last_reported":1773826906,"current_range_meters":4000,"station_id":"ce4bhnh2rcd13ifvqgtg","pricing_plan_id":"cebpf4jnsgd1na2vs0mg"},{"bike_id":"cbd9339d-6b5d-45fe-8986-e925f0446131","system_id":"levelo_inurba_marseille","lat":43.26556,"lon":5.3728,"is_reserved":false,"is_disabled":false,"rental_uris":{"android":"levelo://app?vid=cbd9339d-6b5d-45fe-8986-e925f0446131","ios":"levelo://app?vid=cbd9339d-6b5d-45fe-8986-e925f0446131"},"vehicle_type_id":"4","last_reported":1773826906,"current_range_meters":4000,"station_id":"ce4bhg12rcd13ifvqf70","pricing_plan_id":"cebpf4jnsgd1na2vs0mg"},{"bike_id":"7a73b128-6eb2-47bb-8ea6-432d8e929d53","system_id":"levelo_inurba_marseille","lat":43.29965,"lon":5.4132,"is_reserved":false,"is_disabled":false,"rental_uris":{"android":"levelo://app?vid=7a73b128-6eb2-47bb-8ea6-432d8e929d53","ios":"levelo://app?vid=7a73b128-6eb2-47bb-8ea6-432d8e929d53"},"vehicle_type_id":"4","last_reported":1773826906,"current_range_meters":4000,"station_id":"ce4bhp12rcd13ifvqh9g","pricing_plan_id":"cebpf4jnsgd1na2vs0mg"},{"bike_id":"1d851264-6ba3-48c2-86f6-b84e8d5a0c62","system_id":"levelo_inurba_marseille","lat":43.29178,"lon":5.35801,"is_reserved":false,"is_disabled":true,"rental_uris":{"android":"levelo://app?vid=1d851264-6ba3-48c2-86f6-b84e8d5a0c62","ios":"levelo://app?vid=1d851264-6ba3-48c2-86f6-b84e8d5a0c62"},"vehicle_type_id":"4","last_reported":1773826906,"current_range_meters":4000,"station_id":"ce4bhb12rcd13ifvqel0","pricing_plan_id":"cebpf4jnsgd1na2vs0mg"},{"bike_id":"2a6d2bc2-aba1-4a95-be1f-91380d7a712b","system_id":"levelo_inurba_marseille","lat":43.27501,"lon":5.41592,"is_reserved":false,"is_disabled":false,"rental_uris":{"android":"levelo://app?vid=2a6d2bc2-aba1-4a95-be1f-91380d7a712b","ios":"levelo://app?vid=2a6d2bc2-aba1-4a95-be1f-91380d7a712b"},"vehicle_type_id":"4","last_reported":1773826906,"current_range_meters":4000,"station_id":"st_d6im8g6chgec73a5pndg","pricing_plan_id":"cebpf4jnsgd1na2vs0mg"},{"bike_id":"40b31b29-2e9c-4452-9a1a-dfc7a53a0afd","system_id":"levelo_inurba_marseille","lat":43.31693,"lon":5.40466,"is_reserved":false,"is_disabled":false,"rental_uris":{"android":"levelo://app?vid=40b31b29-2e9c-4452-9a1a-dfc7a53a0afd","ios":"levelo://app?vid=40b31b29-2e9c-4452-9a1a-dfc7a53a0afd"},"vehicle_type_id":"4","last_reported":1773826906,"current_range_meters":4000,"station_id":"ce4bh012rcd13ifvqd00","pricing_plan_id":"cebpf4jnsgd1na2vs0mg"},{"bike_id":"4af15d60-b5e6-4a55-9404-2793b6d7cc47","system_id":"levelo_inurba_marseille","lat":43.2464,"lon":5.43159,"is_reserved":false,"is_disabled":false,"rental_uris":{"android":"levelo://app?vid=4af15d60-b5e6-4a55-9404-2793b6d7cc47","ios":"levelo://app?vid=4af15d60-b5e6-4a55-9404-2793b6d7cc47"},"vehicle_type_id":"4","last_reported":1773826906,"current_range_meters":4000,"station_id":"","pricing_plan_id":"cebpf4jnsgd1na2vs0mg"},{"bike_id":"4e4ba8f7-60dc-4959-9a01-6da668abb084","system_id":"levelo_inurba_marseille","lat":43.21171,"lon":5.35042,"is_reserved":false,"is_disabled":false,"rental_uris":{"android":"levelo://app?vid=4e4ba8f7-60dc-4959-9a01-6da668abb084","ios":"levelo://app?vid=4e4ba8f7-60dc-4959-9a01-6da668abb084"},"vehicle_type_id":"4","last_reported":1773826906,"current_range_meters":4000,"station_id":"st_cvj6sg6p6f1abm77japg","pricing_plan_id":"cebpf4jnsgd1na2vs0mg"},{"bike_id":"0edc70b6-d69b-4a82-b984-b6dcbfbcb380","system_id":"levelo_inurba_marseille","lat":43.32918,"lon":5.37529,"is_reserved":false,"is_disabled":false,"rental_uris":{"android":"levelo://app?vid=0edc70b6-d69b-4a82-b984-b6dcbfbcb380","ios":"levelo://app?vid=0edc70b6-d69b-4a82-b984-b6dcbfbcb380"},"vehicle_type_id":"4","last_reported":1773826906,"current_range_meters":4000,"station_id":"","pricing_plan_id":"cebpf4jnsgd1na2vs0mg"},{"bike_id":"7bd419bf-7063-4648-840f-e4e63ac8cb30","system_id":"levelo_inurba_marseille","lat":43.27993,"lon":5.40014,"is_reserved":false,"is_disabled":true,"rental_uris":{"android":"levelo://app?vid=7bd419bf-7063-4648-840f-e4e63ac8cb30","ios":"levelo://app?vid=7bd419bf-7063-4648-840f-e4e63ac8cb30"},"vehicle_type_id":"4","last_reported":1773826906,"current_range_meters":4400,"station_id":"ce4bho92rcd13ifvqh4g","pricing_plan_id":"cebpf4jnsgd1na2vs0mg"},{"bike_id":"5f3337a1-4c75-45af-9f56-b32120b8693e","system_id":"levelo_inurba_marseille","lat":43.29521,"lon":5.37505,"is_reserved":false,"is_disabled":false,"rental_uris":{"android":"levelo://app?vid=5f3337a1-4c75-45af-9f56-b32120b8693e","ios":"levelo://app?vid=5f3337a1-4c75-45af-9f56-b32120b8693e"},"vehicle_type_id":"4","last_reported":1773826906,"current_range_meters":4400,"station_id":"ce4bgkp2rcd13ifvqbmg","pricing_plan_id":"cebpf4jnsgd1na2vs0mg"},{"bike_id":"292abd82-4146-466f-9e34-79bd05209e5a","system_id":"levelo_inurba_marseille","lat":43.29949,"lon":5.38521,"is_reserved":false,"is_disabled":false,"rental_uris":{"android":"levelo://app?vid=292abd82-4146-466f-9e34-79bd05209e5a","ios":"levelo://app?vid=292abd82-4146-466f-9e34-79bd05209e5a"},"vehicle_type_id":"4","last_reported":1773826906,"current_range_meters":4400,"station_id":"ce4bgj92rcd13ifvqbd0","pricing_plan_id":"cebpf4jnsgd1na2vs0mg"},{"bike_id":"09c93a62-ec01-48ba-9dba-e80f7664bbec","system_id":"levelo_inurba_marseille","lat":43.31424,"lon":5.36685,"is_reserved":false,"is_disabled":false,"rental_uris":{"android":"levelo://app?vid=09c93a62-ec01-48ba-9dba-e80f7664bbec","ios":"levelo://app?vid=09c93a62-ec01-48ba-9dba-e80f7664bbec"},"vehicle_type_id":"4","last_reported":1773826906,"current_range_meters":4400,"station_id":"","pricing_plan_id":"cebpf4jnsgd1na2vs0mg"},{"bike_id":"227f3303-cedd-4125-894e-3bc1f1324a4b","system_id":"levelo_inurba_marseille","lat":43.30435,"lon":5.38888,"is_reserved":false,"is_disabled":false,"rental_uris":{"android":"levelo://app?vid=227f3303-cedd-4125-894e-3bc1f1324a4b","ios":"levelo://app?vid=227f3303-cedd-4125-894e-3bc1f1324a4b"},"vehicle_type_id":"4","last_reported":1773826906,"current_range_meters":4400,"station_id":"ce4bgk12rcd13ifvqbi0","pricing_plan_id":"cebpf4jnsgd1na2vs0mg"},{"bike_id":"73419fdb-c85d-4951-acae-bb5858285b0a","system_id":"levelo_inurba_marseille","lat":43.28468,"lon":5.35889,"is_reserved":false,"is_disabled":false,"rental_uris":{"android":"levelo://app?vid=73419fdb-c85d-4951-acae-bb5858285b0a","ios":"levelo://app?vid=73419fdb-c85d-4951-acae-bb5858285b0a"},"vehicle_type_id":"4","last_reported":1773826906,"current_range_meters":4400,"station_id":"ce4bhah2rcd13ifvqei0","pricing_plan_id":"cebpf4jnsgd1na2vs0mg"},{"bike_id":"d3608335-ba6f-414e-a947-515549509cf4","system_id":"levelo_inurba_marseille","lat":43.31894,"lon":5.40728,"is_reserved":false,"is_disabled":false,"rental_uris":{"android":"levelo://app?vid=d3608335-ba6f-414e-a947-515549509cf4","ios":"levelo://app?vid=d3608335-ba6f-414e-a947-515549509cf4"},"vehicle_type_id":"4","last_reported":1773826906,"current_range_meters":4400,"station_id":"ce4bhq12rcd13ifvqhig","pricing_plan_id":"cebpf4jnsgd1na2vs0mg"},{"bike_id":"ab2125f0-f477-425b-9c9a-e4231f7f002b","system_id":"levelo_inurba_marseille","lat":43.2175,"lon":5.3459,"is_reserved":false,"is_disabled":true,"rental_uris":{"android":"levelo://app?vid=ab2125f0-f477-425b-9c9a-e4231f7f002b","ios":"levelo://app?vid=ab2125f0-f477-425b-9c9a-e4231f7f002b"},"vehicle_type_id":"4","last_reported":1773826906,"current_range_meters":4400,"station_id":"st_cvj6r9ubvosntc0bgbag","pricing_plan_id":"cebpf4jnsgd1na2vs0mg"},{"bike_id":"a1cfb408-da52-4413-a934-9b5c4a9189a4","system_id":"levelo_inurba_marseille","lat":43.29584,"lon":5.37524,"is_reserved":false,"is_disabled":false,"rental_uris":{"android":"levelo://app?vid=a1cfb408-da52-4413-a934-9b5c4a9189a4","ios":"levelo://app?vid=a1cfb408-da52-4413-a934-9b5c4a9189a4"},"vehicle_type_id":"4","last_reported":1773826906,"current_range_meters":4400,"station_id":"ce4bgh92rcd13ifvqb50","pricing_plan_id":"cebpf4jnsgd1na2vs0mg"},{"bike_id":"354086ae-54df-4b93-8069-d1e97e0cc333","system_id":"levelo_inurba_marseille","lat":43.25719,"lon":5.41115,"is_reserved":false,"is_disabled":false,"rental_uris":{"android":"levelo://app?vid=354086ae-54df-4b93-8069-d1e97e0cc333","ios":"levelo://app?vid=354086ae-54df-4b93-8069-d1e97e0cc333"},"vehicle_type_id":"4","last_reported":1773826906,"current_range_meters":4800,"station_id":"ce4bhkp2rcd13ifvqgd0","pricing_plan_id":"cebpf4jnsgd1na2vs0mg"},{"bike_id":"458f604b-e062-47bf-ac14-a001a31d10d8","system_id":"levelo_inurba_marseille","lat":43.28459,"lon":5.4841,"is_reserved":false,"is_disabled":false,"rental_uris":{"android":"levelo://app?vid=458f604b-e062-47bf-ac14-a001a31d10d8","ios":"levelo://app?vid=458f604b-e062-47bf-ac14-a001a31d10d8"},"vehicle_type_id":"4","last_reported":1773826906,"current_range_meters":4800,"station_id":"","pricing_plan_id":"cebpf4jnsgd1na2vs0mg"},{"bike_id":"f7e79517-161a-451a-8a95-bb710b1b4d21","system_id":"levelo_inurba_marseille","lat":43.29589,"lon":5.36722,"is_reserved":false,"is_disabled":true,"rental_uris":{"android":"levelo://app?vid=f7e79517-161a-451a-8a95-bb710b1b4d21","ios":"levelo://app?vid=f7e79517-161a-451a-8a95-bb710b1b4d21"},"vehicle_type_id":"4","last_reported":1773826906,"current_range_meters":4800,"station_id":"ce4bgph2rcd13ifvqc2g","pricing_plan_id":"cebpf4jnsgd1na2vs0mg"},{"bike_id":"2134a193-4b3a-4038-a280-1a0ba6458570","system_id":"levelo_inurba_marseille","lat":43.29814,"lon":5.42121,"is_reserved":false,"is_disabled":false,"rental_uris":{"android":"levelo://app?vid=2134a193-4b3a-4038-a280-1a0ba6458570","ios":"levelo://app?vid=2134a193-4b3a-4038-a280-1a0ba6458570"},"vehicle_type_id":"4","last_reported":1773826906,"current_range_meters":4800,"station_id":"","pricing_plan_id":"cebpf4jnsgd1na2vs0mg"},{"bike_id":"b5b8b144-cfaf-4287-9933-5469d18ff1ca","system_id":"levelo_inurba_marseille","lat":43.28716,"lon":5.37929,"is_reserved":false,"is_disabled":true,"rental_uris":{"android":"levelo://app?vid=b5b8b144-cfaf-4287-9933-5469d18ff1ca","ios":"levelo://app?vid=b5b8b144-cfaf-4287-9933-5469d18ff1ca"},"vehicle_type_id":"4","last_reported":1773826906,"current_range_meters":4800,"station_id":"ce4bh9p2rcd13ifvqec0","pricing_plan_id":"cebpf4jnsgd1na2vs0mg"},{"bike_id":"83dfe6d5-7b4e-4962-9169-24132413c1be","system_id":"levelo_inurba_marseille","lat":43.31748,"lon":5.42414,"is_reserved":false,"is_disabled":false,"rental_uris":{"android":"levelo://app?vid=83dfe6d5-7b4e-4962-9169-24132413c1be","ios":"levelo://app?vid=83dfe6d5-7b4e-4962-9169-24132413c1be"},"vehicle_type_id":"4","last_reported":1773826906,"current_range_meters":4800,"station_id":"ce4bhp92rcd13ifvqhbg","pricing_plan_id":"cebpf4jnsgd1na2vs0mg"},{"bike_id":"bf249f81-2ef0-45f9-a595-8436dd14fe0c","system_id":"levelo_inurba_marseille","lat":43.3213,"lon":5.36706,"is_reserved":false,"is_disabled":false,"rental_uris":{"android":"levelo://app?vid=bf249f81-2ef0-45f9-a595-8436dd14fe0c","ios":"levelo://app?vid=bf249f81-2ef0-45f9-a595-8436dd14fe0c"},"vehicle_type_id":"4","last_reported":1773826906,"current_range_meters":4800,"station_id":"","pricing_plan_id":"cebpf4jnsgd1na2vs0mg"},{"bike_id":"c4de59ef-6398-4cec-b94b-a40317e8f015","system_id":"levelo_inurba_marseille","lat":43.29033,"lon":5.37569,"is_reserved":false,"is_disabled":false,"rental_uris":{"android":"levelo://app?vid=c4de59ef-6398-4cec-b94b-a40317e8f015","ios":"levelo://app?vid=c4de59ef-6398-4cec-b94b-a40317e8f015"},"vehicle_type_id":"4","last_reported":1773826906,"current_range_meters":4800,"station_id":"ce4bh692rcd13ifvqe90","pricing_plan_id":"cebpf4jnsgd1na2vs0mg"},{"bike_id":"73d6ac76-85e0-49b7-934a-5ac6787a0825","system_id":"levelo_inurba_marseille","lat":43.24086,"lon":5.37754,"is_reserved":false,"is_disabled":false,"rental_uris":{"android":"levelo://app?vid=73d6ac76-85e0-49b7-934a-5ac6787a0825","ios":"levelo://app?vid=73d6ac76-85e0-49b7-934a-5ac6787a0825"},"vehicle_type_id":"4","last_reported":1773826906,"current_range_meters":4800,"station_id":"ce4bhnp2rcd13ifvqgvg","pricing_plan_id":"cebpf4jnsgd1na2vs0mg"},{"bike_id":"811cb60e-c2e0-4eff-a720-ab1d90d9f80a","system_id":"levelo_inurba_marseille","lat":43.23387,"lon":5.41209,"is_reserved":false,"is_disabled":false,"rental_uris":{"android":"levelo://app?vid=811cb60e-c2e0-4eff-a720-ab1d90d9f80a","ios":"levelo://app?vid=811cb60e-c2e0-4eff-a720-ab1d90d9f80a"},"vehicle_type_id":"4","last_reported":1773826906,"current_range_meters":4800,"station_id":"","pricing_plan_id":"cebpf4jnsgd1na2vs0mg"},{"bike_id":"76f5b5cc-91d2-4f6e-9afc-4a8183bf0228","system_id":"levelo_inurba_marseille","lat":43.29764,"lon":5.39338,"is_reserved":false,"is_disabled":false,"rental_uris":{"android":"levelo://app?vid=76f5b5cc-91d2-4f6e-9afc-4a8183bf0228","ios":"levelo://app?vid=76f5b5cc-91d2-4f6e-9afc-4a8183bf0228"},"vehicle_type_id":"4","last_reported":1773826906,"current_range_meters":4800,"station_id":"chh1huq6cuj3fo74tm60","pricing_plan_id":"cebpf4jnsgd1na2vs0mg"},{"bike_id":"bd9aef9c-7b21-4372-8f6e-83816838458e","system_id":"levelo_inurba_marseille","lat":43.33557,"lon":5.37458,"is_reserved":false,"is_disabled":false,"rental_uris":{"android":"levelo://app?vid=bd9aef9c-7b21-4372-8f6e-83816838458e","ios":"levelo://app?vid=bd9aef9c-7b21-4372-8f6e-83816838458e"},"vehicle_type_id":"4","last_reported":1773826906,"current_range_meters":4800,"station_id":"st_d46tts09ee8s73dlu43g","pricing_plan_id":"cebpf4jnsgd1na2vs0mg"},{"bike_id":"a4456d89-d17c-400e-b5f6-bacb94ff5823","system_id":"levelo_inurba_marseille","lat":43.28162,"lon":5.42649,"is_reserved":false,"is_disabled":false,"rental_uris":{"android":"levelo://app?vid=a4456d89-d17c-400e-b5f6-bacb94ff5823","ios":"levelo://app?vid=a4456d89-d17c-400e-b5f6-bacb94ff5823"},"vehicle_type_id":"4","last_reported":1773826906,"current_range_meters":5600,"station_id":"ce4bhnh2rcd13ifvqgug","pricing_plan_id":"cebpf4jnsgd1na2vs0mg"},{"bike_id":"fdecd160-76e3-42a9-a844-a39b7ba69ed8","system_id":"levelo_inurba_marseille","lat":43.28267,"lon":5.35052,"is_reserved":false,"is_disabled":false,"rental_uris":{"android":"levelo://app?vid=fdecd160-76e3-42a9-a844-a39b7ba69ed8","ios":"levelo://app?vid=fdecd160-76e3-42a9-a844-a39b7ba69ed8"},"vehicle_type_id":"4","last_reported":1773826906,"current_range_meters":5600,"station_id":"ce4bhbp2rcd13ifvqerg","pricing_plan_id":"cebpf4jnsgd1na2vs0mg"},{"bike_id":"847d4693-77d7-4471-b991-ce5127a5399e","system_id":"levelo_inurba_marseille","lat":43.3359,"lon":5.41007,"is_reserved":false,"is_disabled":false,"rental_uris":{"android":"levelo://app?vid=847d4693-77d7-4471-b991-ce5127a5399e","ios":"levelo://app?vid=847d4693-77d7-4471-b991-ce5127a5399e"},"vehicle_type_id":"4","last_reported":1773826906,"current_range_meters":5600,"station_id":"ce4bhqh2rcd13ifvqhmg","pricing_plan_id":"cebpf4jnsgd1na2vs0mg"},{"bike_id":"7e372e61-a4a4-4320-b78e-0115edf72ed5","system_id":"levelo_inurba_marseille","lat":43.24166,"lon":5.36403,"is_reserved":false,"is_disabled":true,"rental_uris":{"android":"levelo://app?vid=7e372e61-a4a4-4320-b78e-0115edf72ed5","ios":"levelo://app?vid=7e372e61-a4a4-4320-b78e-0115edf72ed5"},"vehicle_type_id":"4","last_reported":1773826906,"current_range_meters":5600,"station_id":"cpo36qri1sfpv3e86is0","pricing_plan_id":"cebpf4jnsgd1na2vs0mg"},{"bike_id":"2766531c-9d05-4842-a2e2-e847b8b79916","system_id":"levelo_inurba_marseille","lat":43.29891,"lon":5.39748,"is_reserved":false,"is_disabled":false,"rental_uris":{"android":"levelo://app?vid=2766531c-9d05-4842-a2e2-e847b8b79916","ios":"levelo://app?vid=2766531c-9d05-4842-a2e2-e847b8b79916"},"vehicle_type_id":"4","last_reported":1773826906,"current_range_meters":5600,"station_id":"ce4bh0h2rcd13ifvqd50","pricing_plan_id":"cebpf4jnsgd1na2vs0mg"},{"bike_id":"64e4942c-04ec-475a-8745-de522dcf5faa","system_id":"levelo_inurba_marseille","lat":43.22929,"lon":5.35379,"is_reserved":false,"is_disabled":false,"rental_uris":{"android":"levelo://app?vid=64e4942c-04ec-475a-8745-de522dcf5faa","ios":"levelo://app?vid=64e4942c-04ec-475a-8745-de522dcf5faa"},"vehicle_type_id":"4","last_reported":1773826906,"current_range_meters":5600,"station_id":"cpo3532slgdg3j2ikp40","pricing_plan_id":"cebpf4jnsgd1na2vs0mg"},{"bike_id":"b28612e8-5afe-40d1-881e-117417946dc7","system_id":"levelo_inurba_marseille","lat":43.26548,"lon":5.37285,"is_reserved":false,"is_disabled":false,"rental_uris":{"android":"levelo://app?vid=b28612e8-5afe-40d1-881e-117417946dc7","ios":"levelo://app?vid=b28612e8-5afe-40d1-881e-117417946dc7"},"vehicle_type_id":"4","last_reported":1773826906,"current_range_meters":5600,"station_id":"ce4bhg12rcd13ifvqf70","pricing_plan_id":"cebpf4jnsgd1na2vs0mg"},{"bike_id":"96dac97a-0c76-4079-a74f-d3b50e0ff04c","system_id":"levelo_inurba_marseille","lat":43.21208,"lon":5.35073,"is_reserved":false,"is_disabled":false,"rental_uris":{"android":"levelo://app?vid=96dac97a-0c76-4079-a74f-d3b50e0ff04c","ios":"levelo://app?vid=96dac97a-0c76-4079-a74f-d3b50e0ff04c"},"vehicle_type_id":"4","last_reported":1773826906,"current_range_meters":5600,"station_id":"st_cvj6sg6p6f1abm77japg","pricing_plan_id":"cebpf4jnsgd1na2vs0mg"},{"bike_id":"a0ac2246-9e7f-437c-a4db-c626663f282c","system_id":"levelo_inurba_marseille","lat":43.31202,"lon":5.3692,"is_reserved":false,"is_disabled":false,"rental_uris":{"android":"levelo://app?vid=a0ac2246-9e7f-437c-a4db-c626663f282c","ios":"levelo://app?vid=a0ac2246-9e7f-437c-a4db-c626663f282c"},"vehicle_type_id":"4","last_reported":1773826906,"current_range_meters":5600,"station_id":"","pricing_plan_id":"cebpf4jnsgd1na2vs0mg"},{"bike_id":"61c1385e-e501-418f-bd93-68f0077338cb","system_id":"levelo_inurba_marseille","lat":43.29446,"lon":5.39754,"is_reserved":false,"is_disabled":false,"rental_uris":{"android":"levelo://app?vid=61c1385e-e501-418f-bd93-68f0077338cb","ios":"levelo://app?vid=61c1385e-e501-418f-bd93-68f0077338cb"},"vehicle_type_id":"4","last_reported":1773826906,"current_range_meters":5600,"station_id":"ce4bh3h2rcd13ifvqdo0","pricing_plan_id":"cebpf4jnsgd1na2vs0mg"},{"bike_id":"c2c7c530-5d90-493e-bc68-4654d00e1dc7","system_id":"levelo_inurba_marseille","lat":43.25203,"lon":5.40583,"is_reserved":false,"is_disabled":false,"rental_uris":{"android":"levelo://app?vid=c2c7c530-5d90-493e-bc68-4654d00e1dc7","ios":"levelo://app?vid=c2c7c530-5d90-493e-bc68-4654d00e1dc7"},"vehicle_type_id":"4","last_reported":1773826906,"current_range_meters":5600,"station_id":"","pricing_plan_id":"cebpf4jnsgd1na2vs0mg"},{"bike_id":"077ada9a-522a-41df-ad39-ea1bc4f99858","system_id":"levelo_inurba_marseille","lat":43.2314,"lon":5.43695,"is_reserved":false,"is_disabled":false,"rental_uris":{"android":"levelo://app?vid=077ada9a-522a-41df-ad39-ea1bc4f99858","ios":"levelo://app?vid=077ada9a-522a-41df-ad39-ea1bc4f99858"},"vehicle_type_id":"4","last_reported":1773826906,"current_range_meters":6000,"station_id":"ce4bhmp2rcd13ifvqgog","pricing_plan_id":"cebpf4jnsgd1na2vs0mg"},{"bike_id":"7ada2641-316b-4e07-8cf0-f1c79c755356","system_id":"levelo_inurba_marseille","lat":43.24938,"lon":5.40486,"is_reserved":false,"is_disabled":false,"rental_uris":{"android":"levelo://app?vid=7ada2641-316b-4e07-8cf0-f1c79c755356","ios":"levelo://app?vid=7ada2641-316b-4e07-8cf0-f1c79c755356"},"vehicle_type_id":"4","last_reported":1773826906,"current_range_meters":6000,"station_id":"st_d2ngiaodas8pm72gd1h0","pricing_plan_id":"cebpf4jnsgd1na2vs0mg"},{"bike_id":"4f5be7bd-8bd9-4195-8304-bfa4c36e87f7","system_id":"levelo_inurba_marseille","lat":43.29489,"lon":5.43306,"is_reserved":false,"is_disabled":false,"rental_uris":{"android":"levelo://app?vid=4f5be7bd-8bd9-4195-8304-bfa4c36e87f7","ios":"levelo://app?vid=4f5be7bd-8bd9-4195-8304-bfa4c36e87f7"},"vehicle_type_id":"4","last_reported":1773826906,"current_range_meters":6000,"station_id":"st_d3j5ugp08ojc73fj9d10","pricing_plan_id":"cebpf4jnsgd1na2vs0mg"},{"bike_id":"31e3819a-f513-4a8d-9344-521f47e7b0f9","system_id":"levelo_inurba_marseille","lat":43.28544,"lon":5.44093,"is_reserved":false,"is_disabled":false,"rental_uris":{"android":"levelo://app?vid=31e3819a-f513-4a8d-9344-521f47e7b0f9","ios":"levelo://app?vid=31e3819a-f513-4a8d-9344-521f47e7b0f9"},"vehicle_type_id":"4","last_reported":1773826906,"current_range_meters":6000,"station_id":"st_d3j3df2ikq2c7380ej80","pricing_plan_id":"cebpf4jnsgd1na2vs0mg"},{"bike_id":"82dcdf4f-8f8d-49c8-bf8f-175264f4f3bd","system_id":"levelo_inurba_marseille","lat":43.22539,"lon":5.34826,"is_reserved":false,"is_disabled":false,"rental_uris":{"android":"levelo://app?vid=82dcdf4f-8f8d-49c8-bf8f-175264f4f3bd","ios":"levelo://app?vid=82dcdf4f-8f8d-49c8-bf8f-175264f4f3bd"},"vehicle_type_id":"4","last_reported":1773826906,"current_range_meters":6000,"station_id":"st_cvj5dfep6f1abm77gieg","pricing_plan_id":"cebpf4jnsgd1na2vs0mg"},{"bike_id":"7ab0617c-a2be-4365-aa03-f37f738a1eff","system_id":"levelo_inurba_marseille","lat":43.28613,"lon":5.39878,"is_reserved":false,"is_disabled":false,"rental_uris":{"android":"levelo://app?vid=7ab0617c-a2be-4365-aa03-f37f738a1eff","ios":"levelo://app?vid=7ab0617c-a2be-4365-aa03-f37f738a1eff"},"vehicle_type_id":"4","last_reported":1773826906,"current_range_meters":6000,"station_id":"st_d4a7ka997mjs738ck50g","pricing_plan_id":"cebpf4jnsgd1na2vs0mg"},{"bike_id":"096bef8f-6e16-41c6-a787-300669e191fe","system_id":"levelo_inurba_marseille","lat":43.2962,"lon":5.37161,"is_reserved":false,"is_disabled":false,"rental_uris":{"android":"levelo://app?vid=096bef8f-6e16-41c6-a787-300669e191fe","ios":"levelo://app?vid=096bef8f-6e16-41c6-a787-300669e191fe"},"vehicle_type_id":"4","last_reported":1773826906,"current_range_meters":6000,"station_id":"ce4bgnh2rcd13ifvqc0g","pricing_plan_id":"cebpf4jnsgd1na2vs0mg"},{"bike_id":"e7212ae1-fad7-4895-8f92-2fe3f2ab11e1","system_id":"levelo_inurba_marseille","lat":43.25921,"lon":5.40875,"is_reserved":false,"is_disabled":false,"rental_uris":{"android":"levelo://app?vid=e7212ae1-fad7-4895-8f92-2fe3f2ab11e1","ios":"levelo://app?vid=e7212ae1-fad7-4895-8f92-2fe3f2ab11e1"},"vehicle_type_id":"4","last_reported":1773826906,"current_range_meters":6000,"station_id":"ce4bhm92rcd13ifvqglg","pricing_plan_id":"cebpf4jnsgd1na2vs0mg"},{"bike_id":"f6b870be-9d2a-4c98-b70b-215674098ee6","system_id":"levelo_inurba_marseille","lat":43.29586,"lon":5.37509,"is_reserved":false,"is_disabled":true,"rental_uris":{"android":"levelo://app?vid=f6b870be-9d2a-4c98-b70b-215674098ee6","ios":"levelo://app?vid=f6b870be-9d2a-4c98-b70b-215674098ee6"},"vehicle_type_id":"4","last_reported":1773826906,"current_range_meters":6000,"station_id":"ce4bgh92rcd13ifvqb50","pricing_plan_id":"cebpf4jnsgd1na2vs0mg"},{"bike_id":"f5d727e4-c743-4962-ac54-24124364ef40","system_id":"levelo_inurba_marseille","lat":43.27319,"lon":5.39081,"is_reserved":false,"is_disabled":false,"rental_uris":{"android":"levelo://app?vid=f5d727e4-c743-4962-ac54-24124364ef40","ios":"levelo://app?vid=f5d727e4-c743-4962-ac54-24124364ef40"},"vehicle_type_id":"4","last_reported":1773826906,"current_range_meters":6000,"station_id":"ce4bhgp2rcd13ifvqfe0","pricing_plan_id":"cebpf4jnsgd1na2vs0mg"},{"bike_id":"2874775b-146e-45de-9a13-98bbe699d55d","system_id":"levelo_inurba_marseille","lat":43.24637,"lon":5.43147,"is_reserved":false,"is_disabled":true,"rental_uris":{"android":"levelo://app?vid=2874775b-146e-45de-9a13-98bbe699d55d","ios":"levelo://app?vid=2874775b-146e-45de-9a13-98bbe699d55d"},"vehicle_type_id":"4","last_reported":1773826906,"current_range_meters":6000,"station_id":"","pricing_plan_id":"cebpf4jnsgd1na2vs0mg"},{"bike_id":"0940c0ab-3cca-4660-9974-509b4f5e9818","system_id":"levelo_inurba_marseille","lat":43.28928,"lon":5.39521,"is_reserved":false,"is_disabled":false,"rental_uris":{"android":"levelo://app?vid=0940c0ab-3cca-4660-9974-509b4f5e9818","ios":"levelo://app?vid=0940c0ab-3cca-4660-9974-509b4f5e9818"},"vehicle_type_id":"4","last_reported":1773826906,"current_range_meters":6000,"station_id":"","pricing_plan_id":"cebpf4jnsgd1na2vs0mg"},{"bike_id":"b9f2e5d5-d6ac-4c0d-86f2-4fe1a54ef3b3","system_id":"levelo_inurba_marseille","lat":43.32085,"lon":5.36742,"is_reserved":false,"is_disabled":false,"rental_uris":{"android":"levelo://app?vid=b9f2e5d5-d6ac-4c0d-86f2-4fe1a54ef3b3","ios":"levelo://app?vid=b9f2e5d5-d6ac-4c0d-86f2-4fe1a54ef3b3"},"vehicle_type_id":"4","last_reported":1773826906,"current_range_meters":6000,"station_id":"ce4bhrh2rcd13ifvqhug","pricing_plan_id":"cebpf4jnsgd1na2vs0mg"},{"bike_id":"77f82e91-30b6-4c8c-a0ef-dfcf78d748db","system_id":"levelo_inurba_marseille","lat":43.28863,"lon":5.42528,"is_reserved":false,"is_disabled":false,"rental_uris":{"android":"levelo://app?vid=77f82e91-30b6-4c8c-a0ef-dfcf78d748db","ios":"levelo://app?vid=77f82e91-30b6-4c8c-a0ef-dfcf78d748db"},"vehicle_type_id":"4","last_reported":1773826906,"current_range_meters":6400,"station_id":"","pricing_plan_id":"cebpf4jnsgd1na2vs0mg"},{"bike_id":"1d9f0e58-ab25-4f5e-ae03-d32896f2e73b","system_id":"levelo_inurba_marseille","lat":43.27984,"lon":5.38743,"is_reserved":false,"is_disabled":false,"rental_uris":{"android":"levelo://app?vid=1d9f0e58-ab25-4f5e-ae03-d32896f2e73b","ios":"levelo://app?vid=1d9f0e58-ab25-4f5e-ae03-d32896f2e73b"},"vehicle_type_id":"4","last_reported":1773826906,"current_range_meters":6400,"station_id":"ce4bhg12rcd13ifvqf80","pricing_plan_id":"cebpf4jnsgd1na2vs0mg"},{"bike_id":"90262aa5-0d89-4380-817a-bcad7f23969a","system_id":"levelo_inurba_marseille","lat":43.23914,"lon":5.3745,"is_reserved":false,"is_disabled":false,"rental_uris":{"android":"levelo://app?vid=90262aa5-0d89-4380-817a-bcad7f23969a","ios":"levelo://app?vid=90262aa5-0d89-4380-817a-bcad7f23969a"},"vehicle_type_id":"4","last_reported":1773826906,"current_range_meters":6400,"station_id":"st_d6sm7csbq4hs73f8fpjg","pricing_plan_id":"cebpf4jnsgd1na2vs0mg"},{"bike_id":"0aa81194-5fca-4a70-91c6-3ef30d559635","system_id":"levelo_inurba_marseille","lat":43.24373,"lon":5.37036,"is_reserved":false,"is_disabled":false,"rental_uris":{"android":"levelo://app?vid=0aa81194-5fca-4a70-91c6-3ef30d559635","ios":"levelo://app?vid=0aa81194-5fca-4a70-91c6-3ef30d559635"},"vehicle_type_id":"4","last_reported":1773826906,"current_range_meters":6400,"station_id":"ce4bhhh2rcd13ifvqfk0","pricing_plan_id":"cebpf4jnsgd1na2vs0mg"},{"bike_id":"e19bbcec-af9d-483d-ac29-18df3b9c0ab9","system_id":"levelo_inurba_marseille","lat":43.28479,"lon":5.48393,"is_reserved":false,"is_disabled":false,"rental_uris":{"android":"levelo://app?vid=e19bbcec-af9d-483d-ac29-18df3b9c0ab9","ios":"levelo://app?vid=e19bbcec-af9d-483d-ac29-18df3b9c0ab9"},"vehicle_type_id":"4","last_reported":1773826906,"current_range_meters":6400,"station_id":"st_d3svhcjqgbts73a3dn0g","pricing_plan_id":"cebpf4jnsgd1na2vs0mg"},{"bike_id":"f7cad0dd-4929-454b-8848-7575c69435e1","system_id":"levelo_inurba_marseille","lat":43.25855,"lon":5.39905,"is_reserved":false,"is_disabled":true,"rental_uris":{"android":"levelo://app?vid=f7cad0dd-4929-454b-8848-7575c69435e1","ios":"levelo://app?vid=f7cad0dd-4929-454b-8848-7575c69435e1"},"vehicle_type_id":"4","last_reported":1773826906,"current_range_meters":6400,"station_id":"ce4bhl92rcd13ifvqghg","pricing_plan_id":"cebpf4jnsgd1na2vs0mg"},{"bike_id":"0f8a9057-1ae1-45b6-af9b-ff1d43f8fd7d","system_id":"levelo_inurba_marseille","lat":43.28514,"lon":5.44106,"is_reserved":false,"is_disabled":false,"rental_uris":{"android":"levelo://app?vid=0f8a9057-1ae1-45b6-af9b-ff1d43f8fd7d","ios":"levelo://app?vid=0f8a9057-1ae1-45b6-af9b-ff1d43f8fd7d"},"vehicle_type_id":"4","last_reported":1773826906,"current_range_meters":6400,"station_id":"st_d3j3df2ikq2c7380ej80","pricing_plan_id":"cebpf4jnsgd1na2vs0mg"},{"bike_id":"0ca78609-f7bd-40cd-88a4-81abfb7c96e9","system_id":"levelo_inurba_marseille","lat":43.262,"lon":5.37926,"is_reserved":false,"is_disabled":false,"rental_uris":{"android":"levelo://app?vid=0ca78609-f7bd-40cd-88a4-81abfb7c96e9","ios":"levelo://app?vid=0ca78609-f7bd-40cd-88a4-81abfb7c96e9"},"vehicle_type_id":"4","last_reported":1773826906,"current_range_meters":6400,"station_id":"ce4bhjp2rcd13ifvqg90","pricing_plan_id":"cebpf4jnsgd1na2vs0mg"},{"bike_id":"90054e2b-2bc1-4c73-8f3e-5a77ef8baac1","system_id":"levelo_inurba_marseille","lat":43.29888,"lon":5.38902,"is_reserved":false,"is_disabled":false,"rental_uris":{"android":"levelo://app?vid=90054e2b-2bc1-4c73-8f3e-5a77ef8baac1","ios":"levelo://app?vid=90054e2b-2bc1-4c73-8f3e-5a77ef8baac1"},"vehicle_type_id":"4","last_reported":1773826906,"current_range_meters":6400,"station_id":"ce4bh392rcd13ifvqdl0","pricing_plan_id":"cebpf4jnsgd1na2vs0mg"},{"bike_id":"2289dc40-9433-4709-a15e-aea179fb7924","system_id":"levelo_inurba_marseille","lat":43.26579,"lon":5.37359,"is_reserved":false,"is_disabled":false,"rental_uris":{"android":"levelo://app?vid=2289dc40-9433-4709-a15e-aea179fb7924","ios":"levelo://app?vid=2289dc40-9433-4709-a15e-aea179fb7924"},"vehicle_type_id":"4","last_reported":1773826906,"current_range_meters":6400,"station_id":"ce4bhg12rcd13ifvqf70","pricing_plan_id":"cebpf4jnsgd1na2vs0mg"},{"bike_id":"988cf41c-8571-4251-94a5-cf5ad5ef4919","system_id":"levelo_inurba_marseille","lat":43.33616,"lon":5.41004,"is_reserved":false,"is_disabled":false,"rental_uris":{"android":"levelo://app?vid=988cf41c-8571-4251-94a5-cf5ad5ef4919","ios":"levelo://app?vid=988cf41c-8571-4251-94a5-cf5ad5ef4919"},"vehicle_type_id":"4","last_reported":1773826906,"current_range_meters":6400,"station_id":"ce4bhqh2rcd13ifvqhmg","pricing_plan_id":"cebpf4jnsgd1na2vs0mg"},{"bike_id":"3238b6c9-eba9-4966-bd8b-11ccde337c98","system_id":"levelo_inurba_marseille","lat":43.24391,"lon":5.37061,"is_reserved":false,"is_disabled":false,"rental_uris":{"android":"levelo://app?vid=3238b6c9-eba9-4966-bd8b-11ccde337c98","ios":"levelo://app?vid=3238b6c9-eba9-4966-bd8b-11ccde337c98"},"vehicle_type_id":"4","last_reported":1773826906,"current_range_meters":6800,"station_id":"ce4bhhh2rcd13ifvqfk0","pricing_plan_id":"cebpf4jnsgd1na2vs0mg"},{"bike_id":"f55ead6a-bb51-419f-876f-0dd455ed8d43","system_id":"levelo_inurba_marseille","lat":43.28284,"lon":5.35084,"is_reserved":false,"is_disabled":false,"rental_uris":{"android":"levelo://app?vid=f55ead6a-bb51-419f-876f-0dd455ed8d43","ios":"levelo://app?vid=f55ead6a-bb51-419f-876f-0dd455ed8d43"},"vehicle_type_id":"4","last_reported":1773826906,"current_range_meters":6800,"station_id":"ce4bhbp2rcd13ifvqerg","pricing_plan_id":"cebpf4jnsgd1na2vs0mg"},{"bike_id":"0ff1fa02-11a0-4d1a-95c8-453b08ba1b44","system_id":"levelo_inurba_marseille","lat":43.27316,"lon":5.39097,"is_reserved":false,"is_disabled":false,"rental_uris":{"android":"levelo://app?vid=0ff1fa02-11a0-4d1a-95c8-453b08ba1b44","ios":"levelo://app?vid=0ff1fa02-11a0-4d1a-95c8-453b08ba1b44"},"vehicle_type_id":"4","last_reported":1773826906,"current_range_meters":6800,"station_id":"ce4bhgp2rcd13ifvqfe0","pricing_plan_id":"cebpf4jnsgd1na2vs0mg"},{"bike_id":"71d1fbee-1405-484b-ac1a-38d153e0f20a","system_id":"levelo_inurba_marseille","lat":43.2925,"lon":5.37629,"is_reserved":false,"is_disabled":false,"rental_uris":{"android":"levelo://app?vid=71d1fbee-1405-484b-ac1a-38d153e0f20a","ios":"levelo://app?vid=71d1fbee-1405-484b-ac1a-38d153e0f20a"},"vehicle_type_id":"4","last_reported":1773826906,"current_range_meters":6800,"station_id":"","pricing_plan_id":"cebpf4jnsgd1na2vs0mg"},{"bike_id":"e563383a-8a89-4304-b11f-18268886193e","system_id":"levelo_inurba_marseille","lat":43.25577,"lon":5.38237,"is_reserved":false,"is_disabled":false,"rental_uris":{"android":"levelo://app?vid=e563383a-8a89-4304-b11f-18268886193e","ios":"levelo://app?vid=e563383a-8a89-4304-b11f-18268886193e"},"vehicle_type_id":"4","last_reported":1773826906,"current_range_meters":6800,"station_id":"ce4bhih2rcd13ifvqfs0","pricing_plan_id":"cebpf4jnsgd1na2vs0mg"},{"bike_id":"901c28db-c015-4313-845b-db71a8b5949f","system_id":"levelo_inurba_marseille","lat":43.24182,"lon":5.39744,"is_reserved":false,"is_disabled":false,"rental_uris":{"android":"levelo://app?vid=901c28db-c015-4313-845b-db71a8b5949f","ios":"levelo://app?vid=901c28db-c015-4313-845b-db71a8b5949f"},"vehicle_type_id":"4","last_reported":1773826906,"current_range_meters":6800,"station_id":"ce4bhn12rcd13ifvqgpg","pricing_plan_id":"cebpf4jnsgd1na2vs0mg"},{"bike_id":"d1d58ffe-2b74-486b-89f8-33ac7a985d1b","system_id":"levelo_inurba_marseille","lat":43.25949,"lon":5.4092,"is_reserved":false,"is_disabled":false,"rental_uris":{"android":"levelo://app?vid=d1d58ffe-2b74-486b-89f8-33ac7a985d1b","ios":"levelo://app?vid=d1d58ffe-2b74-486b-89f8-33ac7a985d1b"},"vehicle_type_id":"4","last_reported":1773826906,"current_range_meters":6800,"station_id":"ce4bhm92rcd13ifvqglg","pricing_plan_id":"cebpf4jnsgd1na2vs0mg"},{"bike_id":"70f98469-d2c0-43f4-9102-c6ad6fb97bca","system_id":"levelo_inurba_marseille","lat":43.21762,"lon":5.34589,"is_reserved":false,"is_disabled":false,"rental_uris":{"android":"levelo://app?vid=70f98469-d2c0-43f4-9102-c6ad6fb97bca","ios":"levelo://app?vid=70f98469-d2c0-43f4-9102-c6ad6fb97bca"},"vehicle_type_id":"4","last_reported":1773826906,"current_range_meters":6800,"station_id":"st_cvj6r9ubvosntc0bgbag","pricing_plan_id":"cebpf4jnsgd1na2vs0mg"},{"bike_id":"d227a8ef-222b-4754-bbc5-9756378e190e","system_id":"levelo_inurba_marseille","lat":43.30601,"lon":5.39363,"is_reserved":false,"is_disabled":false,"rental_uris":{"android":"levelo://app?vid=d227a8ef-222b-4754-bbc5-9756378e190e","ios":"levelo://app?vid=d227a8ef-222b-4754-bbc5-9756378e190e"},"vehicle_type_id":"4","last_reported":1773826906,"current_range_meters":6800,"station_id":"ce4bh0p2rcd13ifvqd80","pricing_plan_id":"cebpf4jnsgd1na2vs0mg"},{"bike_id":"efa56788-fd95-4d6e-84ce-b31b80bc3dea","system_id":"levelo_inurba_marseille","lat":43.29325,"lon":5.37468,"is_reserved":false,"is_disabled":true,"rental_uris":{"android":"levelo://app?vid=efa56788-fd95-4d6e-84ce-b31b80bc3dea","ios":"levelo://app?vid=efa56788-fd95-4d6e-84ce-b31b80bc3dea"},"vehicle_type_id":"4","last_reported":1773826906,"current_range_meters":6800,"station_id":"ce4bgi12rcd13ifvqb70","pricing_plan_id":"cebpf4jnsgd1na2vs0mg"},{"bike_id":"69f9e7d0-9e6e-48d9-8402-311a294217e6","system_id":"levelo_inurba_marseille","lat":43.29373,"lon":5.37861,"is_reserved":false,"is_disabled":true,"rental_uris":{"android":"levelo://app?vid=69f9e7d0-9e6e-48d9-8402-311a294217e6","ios":"levelo://app?vid=69f9e7d0-9e6e-48d9-8402-311a294217e6"},"vehicle_type_id":"4","last_reported":1773826906,"current_range_meters":6800,"station_id":"ce4bgjh2rcd13ifvqbf0","pricing_plan_id":"cebpf4jnsgd1na2vs0mg"},{"bike_id":"ba9acaf9-a04f-4cb7-b51f-474779e95aec","system_id":"levelo_inurba_marseille","lat":43.29212,"lon":5.39321,"is_reserved":false,"is_disabled":true,"rental_uris":{"android":"levelo://app?vid=ba9acaf9-a04f-4cb7-b51f-474779e95aec","ios":"levelo://app?vid=ba9acaf9-a04f-4cb7-b51f-474779e95aec"},"vehicle_type_id":"4","last_reported":1773826906,"current_range_meters":6800,"station_id":"ce4bh192rcd13ifvqdd0","pricing_plan_id":"cebpf4jnsgd1na2vs0mg"},{"bike_id":"f8a00c49-c93d-41ce-9f11-d81257ca6394","system_id":"levelo_inurba_marseille","lat":43.22925,"lon":5.35308,"is_reserved":false,"is_disabled":false,"rental_uris":{"android":"levelo://app?vid=f8a00c49-c93d-41ce-9f11-d81257ca6394","ios":"levelo://app?vid=f8a00c49-c93d-41ce-9f11-d81257ca6394"},"vehicle_type_id":"4","last_reported":1773826906,"current_range_meters":6800,"station_id":"","pricing_plan_id":"cebpf4jnsgd1na2vs0mg"},{"bike_id":"82877de1-c111-4a0f-9611-53e403501a39","system_id":"levelo_inurba_marseille","lat":43.25935,"lon":5.40902,"is_reserved":false,"is_disabled":false,"rental_uris":{"android":"levelo://app?vid=82877de1-c111-4a0f-9611-53e403501a39","ios":"levelo://app?vid=82877de1-c111-4a0f-9611-53e403501a39"},"vehicle_type_id":"4","last_reported":1773826906,"current_range_meters":7200,"station_id":"ce4bhm92rcd13ifvqglg","pricing_plan_id":"cebpf4jnsgd1na2vs0mg"},{"bike_id":"f73db6d9-2a65-4f2c-a1d0-e3040f08eccf","system_id":"levelo_inurba_marseille","lat":43.23201,"lon":5.35551,"is_reserved":false,"is_disabled":false,"rental_uris":{"android":"levelo://app?vid=f73db6d9-2a65-4f2c-a1d0-e3040f08eccf","ios":"levelo://app?vid=f73db6d9-2a65-4f2c-a1d0-e3040f08eccf"},"vehicle_type_id":"4","last_reported":1773826906,"current_range_meters":7200,"station_id":"ce4bhu92rcd13ifvqi70","pricing_plan_id":"cebpf4jnsgd1na2vs0mg"},{"bike_id":"b703c509-0a53-4f14-907b-c60fb0017c10","system_id":"levelo_inurba_marseille","lat":43.31111,"lon":5.37161,"is_reserved":false,"is_disabled":false,"rental_uris":{"android":"levelo://app?vid=b703c509-0a53-4f14-907b-c60fb0017c10","ios":"levelo://app?vid=b703c509-0a53-4f14-907b-c60fb0017c10"},"vehicle_type_id":"4","last_reported":1773826906,"current_range_meters":7200,"station_id":"st_d4kl2rp97mjs73e7tdfg","pricing_plan_id":"cebpf4jnsgd1na2vs0mg"},{"bike_id":"0ad4a684-db39-4af3-b1f2-8ab09b04dcb9","system_id":"levelo_inurba_marseille","lat":43.29048,"lon":5.39952,"is_reserved":false,"is_disabled":true,"rental_uris":{"android":"levelo://app?vid=0ad4a684-db39-4af3-b1f2-8ab09b04dcb9","ios":"levelo://app?vid=0ad4a684-db39-4af3-b1f2-8ab09b04dcb9"},"vehicle_type_id":"4","last_reported":1773826906,"current_range_meters":7200,"station_id":"","pricing_plan_id":"cebpf4jnsgd1na2vs0mg"},{"bike_id":"0de91aa7-85fc-42bc-9d70-ecd803417e08","system_id":"levelo_inurba_marseille","lat":43.27968,"lon":5.4107,"is_reserved":false,"is_disabled":true,"rental_uris":{"android":"levelo://app?vid=0de91aa7-85fc-42bc-9d70-ecd803417e08","ios":"levelo://app?vid=0de91aa7-85fc-42bc-9d70-ecd803417e08"},"vehicle_type_id":"4","last_reported":1773826906,"current_range_meters":7200,"station_id":"ce4bhnp2rcd13ifvqh0g","pricing_plan_id":"cebpf4jnsgd1na2vs0mg"},{"bike_id":"f20f82c5-e2c3-4db1-85d3-e096d4b03259","system_id":"levelo_inurba_marseille","lat":43.24651,"lon":5.38875,"is_reserved":false,"is_disabled":false,"rental_uris":{"android":"levelo://app?vid=f20f82c5-e2c3-4db1-85d3-e096d4b03259","ios":"levelo://app?vid=f20f82c5-e2c3-4db1-85d3-e096d4b03259"},"vehicle_type_id":"4","last_reported":1773826906,"current_range_meters":7200,"station_id":"ce4bhg12rcd13ifvqf60","pricing_plan_id":"cebpf4jnsgd1na2vs0mg"},{"bike_id":"3feb4c73-6e63-47f9-927f-446525b49f72","system_id":"levelo_inurba_marseille","lat":43.31892,"lon":5.36803,"is_reserved":false,"is_disabled":false,"rental_uris":{"android":"levelo://app?vid=3feb4c73-6e63-47f9-927f-446525b49f72","ios":"levelo://app?vid=3feb4c73-6e63-47f9-927f-446525b49f72"},"vehicle_type_id":"4","last_reported":1773826906,"current_range_meters":7200,"station_id":"st_d6o2h0d0559c73evc1b0","pricing_plan_id":"cebpf4jnsgd1na2vs0mg"},{"bike_id":"a266db77-7d4b-47a3-b204-b136086706b0","system_id":"levelo_inurba_marseille","lat":43.3122,"lon":5.36889,"is_reserved":false,"is_disabled":false,"rental_uris":{"android":"levelo://app?vid=a266db77-7d4b-47a3-b204-b136086706b0","ios":"levelo://app?vid=a266db77-7d4b-47a3-b204-b136086706b0"},"vehicle_type_id":"4","last_reported":1773826906,"current_range_meters":7200,"station_id":"ce4bgl92rcd13ifvqbq0","pricing_plan_id":"cebpf4jnsgd1na2vs0mg"},{"bike_id":"7c245f6b-63fb-4c36-8493-afb8fd5288f8","system_id":"levelo_inurba_marseille","lat":43.31184,"lon":5.39067,"is_reserved":false,"is_disabled":false,"rental_uris":{"android":"levelo://app?vid=7c245f6b-63fb-4c36-8493-afb8fd5288f8","ios":"levelo://app?vid=7c245f6b-63fb-4c36-8493-afb8fd5288f8"},"vehicle_type_id":"4","last_reported":1773826906,"current_range_meters":7200,"station_id":"","pricing_plan_id":"cebpf4jnsgd1na2vs0mg"},{"bike_id":"643281bc-1ddb-4326-b8ee-47c3de73f7fc","system_id":"levelo_inurba_marseille","lat":43.23063,"lon":5.35494,"is_reserved":false,"is_disabled":false,"rental_uris":{"android":"levelo://app?vid=643281bc-1ddb-4326-b8ee-47c3de73f7fc","ios":"levelo://app?vid=643281bc-1ddb-4326-b8ee-47c3de73f7fc"},"vehicle_type_id":"4","last_reported":1773826906,"current_range_meters":7200,"station_id":"cpo3342slgdg3j2ifvpg","pricing_plan_id":"cebpf4jnsgd1na2vs0mg"},{"bike_id":"2706db3b-3f01-4b6b-a1e9-42e6bda22571","system_id":"levelo_inurba_marseille","lat":43.26167,"lon":5.37294,"is_reserved":false,"is_disabled":false,"rental_uris":{"android":"levelo://app?vid=2706db3b-3f01-4b6b-a1e9-42e6bda22571","ios":"levelo://app?vid=2706db3b-3f01-4b6b-a1e9-42e6bda22571"},"vehicle_type_id":"4","last_reported":1773826906,"current_range_meters":7200,"station_id":"","pricing_plan_id":"cebpf4jnsgd1na2vs0mg"},{"bike_id":"67948058-2bb2-4a76-ab3b-c572c556efe7","system_id":"levelo_inurba_marseille","lat":43.24179,"lon":5.3973,"is_reserved":false,"is_disabled":false,"rental_uris":{"android":"levelo://app?vid=67948058-2bb2-4a76-ab3b-c572c556efe7","ios":"levelo://app?vid=67948058-2bb2-4a76-ab3b-c572c556efe7"},"vehicle_type_id":"4","last_reported":1773826906,"current_range_meters":7200,"station_id":"ce4bhn12rcd13ifvqgpg","pricing_plan_id":"cebpf4jnsgd1na2vs0mg"},{"bike_id":"72d913db-78b2-4ad0-a331-e716649dd3df","system_id":"levelo_inurba_marseille","lat":43.24074,"lon":5.37765,"is_reserved":false,"is_disabled":false,"rental_uris":{"android":"levelo://app?vid=72d913db-78b2-4ad0-a331-e716649dd3df","ios":"levelo://app?vid=72d913db-78b2-4ad0-a331-e716649dd3df"},"vehicle_type_id":"4","last_reported":1773826906,"current_range_meters":7200,"station_id":"ce4bhnp2rcd13ifvqgvg","pricing_plan_id":"cebpf4jnsgd1na2vs0mg"},{"bike_id":"f4fc0d9c-0b5a-421c-992e-fb4065e73b38","system_id":"levelo_inurba_marseille","lat":43.27999,"lon":5.40006,"is_reserved":false,"is_disabled":false,"rental_uris":{"android":"levelo://app?vid=f4fc0d9c-0b5a-421c-992e-fb4065e73b38","ios":"levelo://app?vid=f4fc0d9c-0b5a-421c-992e-fb4065e73b38"},"vehicle_type_id":"4","last_reported":1773826906,"current_range_meters":8000,"station_id":"ce4bho92rcd13ifvqh4g","pricing_plan_id":"cebpf4jnsgd1na2vs0mg"},{"bike_id":"e4513c75-ff94-4927-8ef2-5253891892d7","system_id":"levelo_inurba_marseille","lat":43.30427,"lon":5.39745,"is_reserved":false,"is_disabled":false,"rental_uris":{"android":"levelo://app?vid=e4513c75-ff94-4927-8ef2-5253891892d7","ios":"levelo://app?vid=e4513c75-ff94-4927-8ef2-5253891892d7"},"vehicle_type_id":"4","last_reported":1773826906,"current_range_meters":8000,"station_id":"ce4bh092rcd13ifvqd20","pricing_plan_id":"cebpf4jnsgd1na2vs0mg"},{"bike_id":"5dc49c0c-31a1-43f6-82c2-322485810394","system_id":"levelo_inurba_marseille","lat":43.26517,"lon":5.39583,"is_reserved":false,"is_disabled":false,"rental_uris":{"android":"levelo://app?vid=5dc49c0c-31a1-43f6-82c2-322485810394","ios":"levelo://app?vid=5dc49c0c-31a1-43f6-82c2-322485810394"},"vehicle_type_id":"4","last_reported":1773826906,"current_range_meters":8000,"station_id":"ce4bhi12rcd13ifvqfq0","pricing_plan_id":"cebpf4jnsgd1na2vs0mg"},{"bike_id":"ba16bc71-3c62-4074-9b94-56bc76b88dbc","system_id":"levelo_inurba_marseille","lat":43.26678,"lon":5.38269,"is_reserved":false,"is_disabled":true,"rental_uris":{"android":"levelo://app?vid=ba16bc71-3c62-4074-9b94-56bc76b88dbc","ios":"levelo://app?vid=ba16bc71-3c62-4074-9b94-56bc76b88dbc"},"vehicle_type_id":"4","last_reported":1773826906,"current_range_meters":8000,"station_id":"ce4bhg92rcd13ifvqf90","pricing_plan_id":"cebpf4jnsgd1na2vs0mg"},{"bike_id":"4ca5e067-9350-4cc0-855c-d565dcef7221","system_id":"levelo_inurba_marseille","lat":43.23154,"lon":5.35455,"is_reserved":false,"is_disabled":false,"rental_uris":{"android":"levelo://app?vid=4ca5e067-9350-4cc0-855c-d565dcef7221","ios":"levelo://app?vid=4ca5e067-9350-4cc0-855c-d565dcef7221"},"vehicle_type_id":"4","last_reported":1773826906,"current_range_meters":8000,"station_id":"","pricing_plan_id":"cebpf4jnsgd1na2vs0mg"},{"bike_id":"7d9d7aa8-fbf6-4ec2-9dd9-58e4fbfbf40b","system_id":"levelo_inurba_marseille","lat":43.33723,"lon":5.39194,"is_reserved":false,"is_disabled":false,"rental_uris":{"android":"levelo://app?vid=7d9d7aa8-fbf6-4ec2-9dd9-58e4fbfbf40b","ios":"levelo://app?vid=7d9d7aa8-fbf6-4ec2-9dd9-58e4fbfbf40b"},"vehicle_type_id":"4","last_reported":1773826906,"current_range_meters":8000,"station_id":"ce4bhr92rcd13ifvqhsg","pricing_plan_id":"cebpf4jnsgd1na2vs0mg"},{"bike_id":"d86f7f17-c40c-40d2-9445-70d30fa0ef64","system_id":"levelo_inurba_marseille","lat":43.2177,"lon":5.34597,"is_reserved":false,"is_disabled":true,"rental_uris":{"android":"levelo://app?vid=d86f7f17-c40c-40d2-9445-70d30fa0ef64","ios":"levelo://app?vid=d86f7f17-c40c-40d2-9445-70d30fa0ef64"},"vehicle_type_id":"4","last_reported":1773826906,"current_range_meters":8000,"station_id":"st_cvj6r9ubvosntc0bgbag","pricing_plan_id":"cebpf4jnsgd1na2vs0mg"},{"bike_id":"d0e658ae-6d7b-4756-a94b-be2999ddc02e","system_id":"levelo_inurba_marseille","lat":43.30664,"lon":5.39869,"is_reserved":false,"is_disabled":false,"rental_uris":{"android":"levelo://app?vid=d0e658ae-6d7b-4756-a94b-be2999ddc02e","ios":"levelo://app?vid=d0e658ae-6d7b-4756-a94b-be2999ddc02e"},"vehicle_type_id":"4","last_reported":1773826906,"current_range_meters":8000,"station_id":"","pricing_plan_id":"cebpf4jnsgd1na2vs0mg"},{"bike_id":"aafe2b99-28c9-4864-b0e8-45d46cc25909","system_id":"levelo_inurba_marseille","lat":43.30968,"lon":5.39034,"is_reserved":false,"is_disabled":false,"rental_uris":{"android":"levelo://app?vid=aafe2b99-28c9-4864-b0e8-45d46cc25909","ios":"levelo://app?vid=aafe2b99-28c9-4864-b0e8-45d46cc25909"},"vehicle_type_id":"4","last_reported":1773826906,"current_range_meters":8000,"station_id":"ce4bgup2rcd13ifvqco0","pricing_plan_id":"cebpf4jnsgd1na2vs0mg"},{"bike_id":"22ff51ab-3269-4fd2-bea8-7ed09807c27e","system_id":"levelo_inurba_marseille","lat":43.30427,"lon":5.38889,"is_reserved":false,"is_disabled":false,"rental_uris":{"android":"levelo://app?vid=22ff51ab-3269-4fd2-bea8-7ed09807c27e","ios":"levelo://app?vid=22ff51ab-3269-4fd2-bea8-7ed09807c27e"},"vehicle_type_id":"4","last_reported":1773826906,"current_range_meters":8000,"station_id":"ce4bgk12rcd13ifvqbi0","pricing_plan_id":"cebpf4jnsgd1na2vs0mg"},{"bike_id":"57bd606d-6ccc-48f4-985b-fcf6c5b1d2ed","system_id":"levelo_inurba_marseille","lat":43.30953,"lon":5.39038,"is_reserved":false,"is_disabled":false,"rental_uris":{"android":"levelo://app?vid=57bd606d-6ccc-48f4-985b-fcf6c5b1d2ed","ios":"levelo://app?vid=57bd606d-6ccc-48f4-985b-fcf6c5b1d2ed"},"vehicle_type_id":"4","last_reported":1773826906,"current_range_meters":8000,"station_id":"ce4bgup2rcd13ifvqco0","pricing_plan_id":"cebpf4jnsgd1na2vs0mg"},{"bike_id":"167cce82-8d98-4503-af2f-d498aee11de8","system_id":"levelo_inurba_marseille","lat":43.27326,"lon":5.39092,"is_reserved":false,"is_disabled":false,"rental_uris":{"android":"levelo://app?vid=167cce82-8d98-4503-af2f-d498aee11de8","ios":"levelo://app?vid=167cce82-8d98-4503-af2f-d498aee11de8"},"vehicle_type_id":"4","last_reported":1773826906,"current_range_meters":8000,"station_id":"ce4bhgp2rcd13ifvqfe0","pricing_plan_id":"cebpf4jnsgd1na2vs0mg"},{"bike_id":"639bb6b3-4ec4-4153-8b41-915e2cf0b2f9","system_id":"levelo_inurba_marseille","lat":43.31383,"lon":5.36636,"is_reserved":false,"is_disabled":false,"rental_uris":{"android":"levelo://app?vid=639bb6b3-4ec4-4153-8b41-915e2cf0b2f9","ios":"levelo://app?vid=639bb6b3-4ec4-4153-8b41-915e2cf0b2f9"},"vehicle_type_id":"4","last_reported":1773826906,"current_range_meters":8000,"station_id":"","pricing_plan_id":"cebpf4jnsgd1na2vs0mg"},{"bike_id":"935da9a9-5f63-42ea-afe6-9baa0a1672c4","system_id":"levelo_inurba_marseille","lat":43.28316,"lon":5.40498,"is_reserved":false,"is_disabled":false,"rental_uris":{"android":"levelo://app?vid=935da9a9-5f63-42ea-afe6-9baa0a1672c4","ios":"levelo://app?vid=935da9a9-5f63-42ea-afe6-9baa0a1672c4"},"vehicle_type_id":"4","last_reported":1773826906,"current_range_meters":8000,"station_id":"","pricing_plan_id":"cebpf4jnsgd1na2vs0mg"},{"bike_id":"678b6c9c-a116-4af5-b89b-a22995431517","system_id":"levelo_inurba_marseille","lat":43.25578,"lon":5.38221,"is_reserved":false,"is_disabled":false,"rental_uris":{"android":"levelo://app?vid=678b6c9c-a116-4af5-b89b-a22995431517","ios":"levelo://app?vid=678b6c9c-a116-4af5-b89b-a22995431517"},"vehicle_type_id":"4","last_reported":1773826906,"current_range_meters":8000,"station_id":"ce4bhih2rcd13ifvqfs0","pricing_plan_id":"cebpf4jnsgd1na2vs0mg"},{"bike_id":"779b8a3c-1846-46b5-9cab-bf0ec2b1118f","system_id":"levelo_inurba_marseille","lat":43.28478,"lon":5.48366,"is_reserved":false,"is_disabled":false,"rental_uris":{"android":"levelo://app?vid=779b8a3c-1846-46b5-9cab-bf0ec2b1118f","ios":"levelo://app?vid=779b8a3c-1846-46b5-9cab-bf0ec2b1118f"},"vehicle_type_id":"4","last_reported":1773826906,"current_range_meters":8000,"station_id":"st_d3svhcjqgbts73a3dn0g","pricing_plan_id":"cebpf4jnsgd1na2vs0mg"},{"bike_id":"df782bdd-0c89-47ef-a26a-4e54fb3fd647","system_id":"levelo_inurba_marseille","lat":43.29714,"lon":5.37693,"is_reserved":false,"is_disabled":false,"rental_uris":{"android":"levelo://app?vid=df782bdd-0c89-47ef-a26a-4e54fb3fd647","ios":"levelo://app?vid=df782bdd-0c89-47ef-a26a-4e54fb3fd647"},"vehicle_type_id":"4","last_reported":1773826906,"current_range_meters":8000,"station_id":"ce4bgkh2rcd13ifvqbl0","pricing_plan_id":"cebpf4jnsgd1na2vs0mg"},{"bike_id":"6c051e35-0c69-4d01-baaa-98a86b67518e","system_id":"levelo_inurba_marseille","lat":43.23178,"lon":5.39984,"is_reserved":false,"is_disabled":false,"rental_uris":{"android":"levelo://app?vid=6c051e35-0c69-4d01-baaa-98a86b67518e","ios":"levelo://app?vid=6c051e35-0c69-4d01-baaa-98a86b67518e"},"vehicle_type_id":"4","last_reported":1773826906,"current_range_meters":8400,"station_id":"ce4bhn12rcd13ifvqgqg","pricing_plan_id":"cebpf4jnsgd1na2vs0mg"},{"bike_id":"78811ac8-d0b5-417a-afd7-1b7b81fef5f5","system_id":"levelo_inurba_marseille","lat":43.23128,"lon":5.43673,"is_reserved":false,"is_disabled":false,"rental_uris":{"android":"levelo://app?vid=78811ac8-d0b5-417a-afd7-1b7b81fef5f5","ios":"levelo://app?vid=78811ac8-d0b5-417a-afd7-1b7b81fef5f5"},"vehicle_type_id":"4","last_reported":1773826906,"current_range_meters":8400,"station_id":"ce4bhmp2rcd13ifvqgog","pricing_plan_id":"cebpf4jnsgd1na2vs0mg"},{"bike_id":"052c329f-19a6-48ab-ba9f-1d15ae7d3f09","system_id":"levelo_inurba_marseille","lat":43.31065,"lon":5.37167,"is_reserved":false,"is_disabled":false,"rental_uris":{"android":"levelo://app?vid=052c329f-19a6-48ab-ba9f-1d15ae7d3f09","ios":"levelo://app?vid=052c329f-19a6-48ab-ba9f-1d15ae7d3f09"},"vehicle_type_id":"4","last_reported":1773826906,"current_range_meters":8400,"station_id":"st_d4kl2rp97mjs73e7tdfg","pricing_plan_id":"cebpf4jnsgd1na2vs0mg"},{"bike_id":"bd60a6ec-18d4-4476-ab1b-f354043c4b72","system_id":"levelo_inurba_marseille","lat":43.29801,"lon":5.42678,"is_reserved":false,"is_disabled":false,"rental_uris":{"android":"levelo://app?vid=bd60a6ec-18d4-4476-ab1b-f354043c4b72","ios":"levelo://app?vid=bd60a6ec-18d4-4476-ab1b-f354043c4b72"},"vehicle_type_id":"4","last_reported":1773826906,"current_range_meters":8400,"station_id":"","pricing_plan_id":"cebpf4jnsgd1na2vs0mg"},{"bike_id":"b1678298-3f5b-4e9b-bb34-63fa7c9d9c9c","system_id":"levelo_inurba_marseille","lat":43.28481,"lon":5.48393,"is_reserved":false,"is_disabled":false,"rental_uris":{"android":"levelo://app?vid=b1678298-3f5b-4e9b-bb34-63fa7c9d9c9c","ios":"levelo://app?vid=b1678298-3f5b-4e9b-bb34-63fa7c9d9c9c"},"vehicle_type_id":"4","last_reported":1773826906,"current_range_meters":8400,"station_id":"","pricing_plan_id":"cebpf4jnsgd1na2vs0mg"},{"bike_id":"a8831432-5dda-4112-a3e1-bcc9f2c881cc","system_id":"levelo_inurba_marseille","lat":43.29793,"lon":5.39361,"is_reserved":false,"is_disabled":true,"rental_uris":{"android":"levelo://app?vid=a8831432-5dda-4112-a3e1-bcc9f2c881cc","ios":"levelo://app?vid=a8831432-5dda-4112-a3e1-bcc9f2c881cc"},"vehicle_type_id":"4","last_reported":1773826906,"current_range_meters":8400,"station_id":"chh1huq6cuj3fo74tm60","pricing_plan_id":"cebpf4jnsgd1na2vs0mg"},{"bike_id":"d0b1f448-6af4-4ef1-a755-e03baf4488aa","system_id":"levelo_inurba_marseille","lat":43.29244,"lon":5.35742,"is_reserved":false,"is_disabled":false,"rental_uris":{"android":"levelo://app?vid=d0b1f448-6af4-4ef1-a755-e03baf4488aa","ios":"levelo://app?vid=d0b1f448-6af4-4ef1-a755-e03baf4488aa"},"vehicle_type_id":"4","last_reported":1773826906,"current_range_meters":8400,"station_id":"","pricing_plan_id":"cebpf4jnsgd1na2vs0mg"},{"bike_id":"d0c182af-fcaf-4e29-8f1c-b99abfd54af7","system_id":"levelo_inurba_marseille","lat":43.24546,"lon":5.3952,"is_reserved":false,"is_disabled":false,"rental_uris":{"android":"levelo://app?vid=d0c182af-fcaf-4e29-8f1c-b99abfd54af7","ios":"levelo://app?vid=d0c182af-fcaf-4e29-8f1c-b99abfd54af7"},"vehicle_type_id":"4","last_reported":1773826906,"current_range_meters":8400,"station_id":"ce4bhlp2rcd13ifvqgjg","pricing_plan_id":"cebpf4jnsgd1na2vs0mg"},{"bike_id":"8d1f2657-fe65-41f8-ac93-10688c583a73","system_id":"levelo_inurba_marseille","lat":43.29186,"lon":5.39345,"is_reserved":false,"is_disabled":false,"rental_uris":{"android":"levelo://app?vid=8d1f2657-fe65-41f8-ac93-10688c583a73","ios":"levelo://app?vid=8d1f2657-fe65-41f8-ac93-10688c583a73"},"vehicle_type_id":"4","last_reported":1773826906,"current_range_meters":8400,"station_id":"ce4bh192rcd13ifvqdd0","pricing_plan_id":"cebpf4jnsgd1na2vs0mg"},{"bike_id":"a9d31829-7e0d-482f-af05-97ddd320ae16","system_id":"levelo_inurba_marseille","lat":43.2975,"lon":5.42786,"is_reserved":false,"is_disabled":true,"rental_uris":{"android":"levelo://app?vid=a9d31829-7e0d-482f-af05-97ddd320ae16","ios":"levelo://app?vid=a9d31829-7e0d-482f-af05-97ddd320ae16"},"vehicle_type_id":"4","last_reported":1773826906,"current_range_meters":8400,"station_id":"st_d3md5207bmas73dh9klg","pricing_plan_id":"cebpf4jnsgd1na2vs0mg"},{"bike_id":"07b37295-cb1c-4cc4-80cd-aea4b2bed417","system_id":"levelo_inurba_marseille","lat":43.29057,"lon":5.39968,"is_reserved":false,"is_disabled":false,"rental_uris":{"android":"levelo://app?vid=07b37295-cb1c-4cc4-80cd-aea4b2bed417","ios":"levelo://app?vid=07b37295-cb1c-4cc4-80cd-aea4b2bed417"},"vehicle_type_id":"4","last_reported":1773826906,"current_range_meters":8400,"station_id":"ce4bh392rcd13ifvqdm0","pricing_plan_id":"cebpf4jnsgd1na2vs0mg"},{"bike_id":"e107cb22-a13d-4c03-93ce-8114e06b9a0f","system_id":"levelo_inurba_marseille","lat":43.28481,"lon":5.48405,"is_reserved":false,"is_disabled":false,"rental_uris":{"android":"levelo://app?vid=e107cb22-a13d-4c03-93ce-8114e06b9a0f","ios":"levelo://app?vid=e107cb22-a13d-4c03-93ce-8114e06b9a0f"},"vehicle_type_id":"4","last_reported":1773826906,"current_range_meters":8400,"station_id":"","pricing_plan_id":"cebpf4jnsgd1na2vs0mg"},{"bike_id":"83c09154-3f7e-4f70-8eba-2c0ee91d39c7","system_id":"levelo_inurba_marseille","lat":43.26223,"lon":5.37443,"is_reserved":false,"is_disabled":false,"rental_uris":{"android":"levelo://app?vid=83c09154-3f7e-4f70-8eba-2c0ee91d39c7","ios":"levelo://app?vid=83c09154-3f7e-4f70-8eba-2c0ee91d39c7"},"vehicle_type_id":"4","last_reported":1773826906,"current_range_meters":8400,"station_id":"ce4bhgp2rcd13ifvqfc0","pricing_plan_id":"cebpf4jnsgd1na2vs0mg"},{"bike_id":"447b11a1-21b5-4523-80dc-ebe593853403","system_id":"levelo_inurba_marseille","lat":43.29259,"lon":5.42702,"is_reserved":false,"is_disabled":false,"rental_uris":{"android":"levelo://app?vid=447b11a1-21b5-4523-80dc-ebe593853403","ios":"levelo://app?vid=447b11a1-21b5-4523-80dc-ebe593853403"},"vehicle_type_id":"4","last_reported":1773826906,"current_range_meters":8400,"station_id":"","pricing_plan_id":"cebpf4jnsgd1na2vs0mg"},{"bike_id":"d4531119-47d1-4e6e-8eab-6fb1adfb9a69","system_id":"levelo_inurba_marseille","lat":43.29496,"lon":5.43304,"is_reserved":false,"is_disabled":false,"rental_uris":{"android":"levelo://app?vid=d4531119-47d1-4e6e-8eab-6fb1adfb9a69","ios":"levelo://app?vid=d4531119-47d1-4e6e-8eab-6fb1adfb9a69"},"vehicle_type_id":"4","last_reported":1773826906,"current_range_meters":8400,"station_id":"st_d3j5ugp08ojc73fj9d10","pricing_plan_id":"cebpf4jnsgd1na2vs0mg"},{"bike_id":"fbde585d-efce-45ae-8a40-af039466b237","system_id":"levelo_inurba_marseille","lat":43.27323,"lon":5.39107,"is_reserved":false,"is_disabled":false,"rental_uris":{"android":"levelo://app?vid=fbde585d-efce-45ae-8a40-af039466b237","ios":"levelo://app?vid=fbde585d-efce-45ae-8a40-af039466b237"},"vehicle_type_id":"4","last_reported":1773826906,"current_range_meters":8400,"station_id":"ce4bhgp2rcd13ifvqfe0","pricing_plan_id":"cebpf4jnsgd1na2vs0mg"},{"bike_id":"41eddb91-9f23-4bfb-b1b1-be9d0638e06d","system_id":"levelo_inurba_marseille","lat":43.26681,"lon":5.38246,"is_reserved":false,"is_disabled":false,"rental_uris":{"android":"levelo://app?vid=41eddb91-9f23-4bfb-b1b1-be9d0638e06d","ios":"levelo://app?vid=41eddb91-9f23-4bfb-b1b1-be9d0638e06d"},"vehicle_type_id":"4","last_reported":1773826906,"current_range_meters":8400,"station_id":"ce4bhg92rcd13ifvqf90","pricing_plan_id":"cebpf4jnsgd1na2vs0mg"},{"bike_id":"383333ab-900a-4d8e-9e5f-5f8443133843","system_id":"levelo_inurba_marseille","lat":43.23969,"lon":5.36623,"is_reserved":false,"is_disabled":true,"rental_uris":{"android":"levelo://app?vid=383333ab-900a-4d8e-9e5f-5f8443133843","ios":"levelo://app?vid=383333ab-900a-4d8e-9e5f-5f8443133843"},"vehicle_type_id":"4","last_reported":1773826906,"current_range_meters":8400,"station_id":"ce4bhi12rcd13ifvqfp0","pricing_plan_id":"cebpf4jnsgd1na2vs0mg"},{"bike_id":"c254568e-c633-41d2-a2a1-33a24f4d39b7","system_id":"levelo_inurba_marseille","lat":43.26699,"lon":5.38231,"is_reserved":false,"is_disabled":false,"rental_uris":{"android":"levelo://app?vid=c254568e-c633-41d2-a2a1-33a24f4d39b7","ios":"levelo://app?vid=c254568e-c633-41d2-a2a1-33a24f4d39b7"},"vehicle_type_id":"4","last_reported":1773826906,"current_range_meters":8400,"station_id":"ce4bhg92rcd13ifvqf90","pricing_plan_id":"cebpf4jnsgd1na2vs0mg"},{"bike_id":"b9236ee7-cd1b-4e39-b04e-4a8e959fc4d2","system_id":"levelo_inurba_marseille","lat":43.29755,"lon":5.42784,"is_reserved":false,"is_disabled":false,"rental_uris":{"android":"levelo://app?vid=b9236ee7-cd1b-4e39-b04e-4a8e959fc4d2","ios":"levelo://app?vid=b9236ee7-cd1b-4e39-b04e-4a8e959fc4d2"},"vehicle_type_id":"4","last_reported":1773826906,"current_range_meters":8400,"station_id":"st_d3md5207bmas73dh9klg","pricing_plan_id":"cebpf4jnsgd1na2vs0mg"},{"bike_id":"59eecf13-b920-4e62-9f56-f6df4e1fbe03","system_id":"levelo_inurba_marseille","lat":43.32066,"lon":5.41609,"is_reserved":false,"is_disabled":false,"rental_uris":{"android":"levelo://app?vid=59eecf13-b920-4e62-9f56-f6df4e1fbe03","ios":"levelo://app?vid=59eecf13-b920-4e62-9f56-f6df4e1fbe03"},"vehicle_type_id":"4","last_reported":1773826906,"current_range_meters":8400,"station_id":"","pricing_plan_id":"cebpf4jnsgd1na2vs0mg"},{"bike_id":"b51425a2-b294-4b12-a06b-78afda0873c2","system_id":"levelo_inurba_marseille","lat":43.29817,"lon":5.40231,"is_reserved":false,"is_disabled":false,"rental_uris":{"android":"levelo://app?vid=b51425a2-b294-4b12-a06b-78afda0873c2","ios":"levelo://app?vid=b51425a2-b294-4b12-a06b-78afda0873c2"},"vehicle_type_id":"4","last_reported":1773826906,"current_range_meters":8400,"station_id":"","pricing_plan_id":"cebpf4jnsgd1na2vs0mg"},{"bike_id":"802f01cc-38ac-4593-b2ef-7684236846e7","system_id":"levelo_inurba_marseille","lat":43.30159,"lon":5.38081,"is_reserved":false,"is_disabled":false,"rental_uris":{"android":"levelo://app?vid=802f01cc-38ac-4593-b2ef-7684236846e7","ios":"levelo://app?vid=802f01cc-38ac-4593-b2ef-7684236846e7"},"vehicle_type_id":"4","last_reported":1773826906,"current_range_meters":8400,"station_id":"ce4bgjp2rcd13ifvqbh0","pricing_plan_id":"cebpf4jnsgd1na2vs0mg"},{"bike_id":"ede8bf75-b1b0-4834-bb2e-cdd9b3d7e62a","system_id":"levelo_inurba_marseille","lat":43.31261,"lon":5.46828,"is_reserved":false,"is_disabled":false,"rental_uris":{"android":"levelo://app?vid=ede8bf75-b1b0-4834-bb2e-cdd9b3d7e62a","ios":"levelo://app?vid=ede8bf75-b1b0-4834-bb2e-cdd9b3d7e62a"},"vehicle_type_id":"4","last_reported":1773826906,"current_range_meters":8400,"station_id":"","pricing_plan_id":"cebpf4jnsgd1na2vs0mg"},{"bike_id":"1e0b341c-6b09-4225-9697-8d11216727af","system_id":"levelo_inurba_marseille","lat":43.31498,"lon":5.37274,"is_reserved":false,"is_disabled":false,"rental_uris":{"android":"levelo://app?vid=1e0b341c-6b09-4225-9697-8d11216727af","ios":"levelo://app?vid=1e0b341c-6b09-4225-9697-8d11216727af"},"vehicle_type_id":"4","last_reported":1773826906,"current_range_meters":8800,"station_id":"ce4bgt12rcd13ifvqcd0","pricing_plan_id":"cebpf4jnsgd1na2vs0mg"},{"bike_id":"1c51670a-46e5-4a0c-9d9c-3c2806d077a8","system_id":"levelo_inurba_marseille","lat":43.29024,"lon":5.38092,"is_reserved":false,"is_disabled":true,"rental_uris":{"android":"levelo://app?vid=1c51670a-46e5-4a0c-9d9c-3c2806d077a8","ios":"levelo://app?vid=1c51670a-46e5-4a0c-9d9c-3c2806d077a8"},"vehicle_type_id":"4","last_reported":1773826906,"current_range_meters":8800,"station_id":"ce4bh4p2rcd13ifvqe1g","pricing_plan_id":"cebpf4jnsgd1na2vs0mg"},{"bike_id":"0c568fbf-621d-4cc8-ade7-4b24ab6705de","system_id":"levelo_inurba_marseille","lat":43.21759,"lon":5.34592,"is_reserved":false,"is_disabled":false,"rental_uris":{"android":"levelo://app?vid=0c568fbf-621d-4cc8-ade7-4b24ab6705de","ios":"levelo://app?vid=0c568fbf-621d-4cc8-ade7-4b24ab6705de"},"vehicle_type_id":"4","last_reported":1773826906,"current_range_meters":8800,"station_id":"st_cvj6r9ubvosntc0bgbag","pricing_plan_id":"cebpf4jnsgd1na2vs0mg"},{"bike_id":"6a3136ba-007e-4b3a-915f-a5bf2e3997f3","system_id":"levelo_inurba_marseille","lat":43.31703,"lon":5.37786,"is_reserved":false,"is_disabled":false,"rental_uris":{"android":"levelo://app?vid=6a3136ba-007e-4b3a-915f-a5bf2e3997f3","ios":"levelo://app?vid=6a3136ba-007e-4b3a-915f-a5bf2e3997f3"},"vehicle_type_id":"4","last_reported":1773826906,"current_range_meters":8800,"station_id":"ce4bgth2rcd13ifvqch0","pricing_plan_id":"cebpf4jnsgd1na2vs0mg"},{"bike_id":"38c2812d-97b4-4ea4-bf94-c067d20e1806","system_id":"levelo_inurba_marseille","lat":43.30213,"lon":5.39465,"is_reserved":false,"is_disabled":false,"rental_uris":{"android":"levelo://app?vid=38c2812d-97b4-4ea4-bf94-c067d20e1806","ios":"levelo://app?vid=38c2812d-97b4-4ea4-bf94-c067d20e1806"},"vehicle_type_id":"4","last_reported":1773826906,"current_range_meters":8800,"station_id":"ce4bh0p2rcd13ifvqd70","pricing_plan_id":"cebpf4jnsgd1na2vs0mg"},{"bike_id":"75b1f936-eed4-4c05-8e60-228ab1664ec0","system_id":"levelo_inurba_marseille","lat":43.31198,"lon":5.36858,"is_reserved":false,"is_disabled":false,"rental_uris":{"android":"levelo://app?vid=75b1f936-eed4-4c05-8e60-228ab1664ec0","ios":"levelo://app?vid=75b1f936-eed4-4c05-8e60-228ab1664ec0"},"vehicle_type_id":"4","last_reported":1773826906,"current_range_meters":8800,"station_id":"ce4bgl92rcd13ifvqbq0","pricing_plan_id":"cebpf4jnsgd1na2vs0mg"},{"bike_id":"a8d6e79d-eb50-488f-a7ea-43cddfdc825e","system_id":"levelo_inurba_marseille","lat":43.23791,"lon":5.36643,"is_reserved":false,"is_disabled":false,"rental_uris":{"android":"levelo://app?vid=a8d6e79d-eb50-488f-a7ea-43cddfdc825e","ios":"levelo://app?vid=a8d6e79d-eb50-488f-a7ea-43cddfdc825e"},"vehicle_type_id":"4","last_reported":1773826906,"current_range_meters":8800,"station_id":"st_d3nk18o9ro0c73en2l3g","pricing_plan_id":"cebpf4jnsgd1na2vs0mg"},{"bike_id":"b2d32596-5bca-4b9e-ac0d-9f0f2f521e45","system_id":"levelo_inurba_marseille","lat":43.32979,"lon":5.36012,"is_reserved":false,"is_disabled":true,"rental_uris":{"android":"levelo://app?vid=b2d32596-5bca-4b9e-ac0d-9f0f2f521e45","ios":"levelo://app?vid=b2d32596-5bca-4b9e-ac0d-9f0f2f521e45"},"vehicle_type_id":"4","last_reported":1773826906,"current_range_meters":8800,"station_id":"","pricing_plan_id":"cebpf4jnsgd1na2vs0mg"},{"bike_id":"3dffcbda-9d1f-4157-bbd0-7b2b689f7134","system_id":"levelo_inurba_marseille","lat":43.2317,"lon":5.43696,"is_reserved":false,"is_disabled":false,"rental_uris":{"android":"levelo://app?vid=3dffcbda-9d1f-4157-bbd0-7b2b689f7134","ios":"levelo://app?vid=3dffcbda-9d1f-4157-bbd0-7b2b689f7134"},"vehicle_type_id":"4","last_reported":1773826906,"current_range_meters":8800,"station_id":"ce4bhmp2rcd13ifvqgog","pricing_plan_id":"cebpf4jnsgd1na2vs0mg"},{"bike_id":"76cb48e8-de3c-4720-96be-600ba87cce61","system_id":"levelo_inurba_marseille","lat":43.26116,"lon":5.39423,"is_reserved":false,"is_disabled":false,"rental_uris":{"android":"levelo://app?vid=76cb48e8-de3c-4720-96be-600ba87cce61","ios":"levelo://app?vid=76cb48e8-de3c-4720-96be-600ba87cce61"},"vehicle_type_id":"4","last_reported":1773826906,"current_range_meters":8800,"station_id":"","pricing_plan_id":"cebpf4jnsgd1na2vs0mg"},{"bike_id":"10981fac-789c-4443-9a80-77fd6eb5dfd5","system_id":"levelo_inurba_marseille","lat":43.29537,"lon":5.38546,"is_reserved":false,"is_disabled":false,"rental_uris":{"android":"levelo://app?vid=10981fac-789c-4443-9a80-77fd6eb5dfd5","ios":"levelo://app?vid=10981fac-789c-4443-9a80-77fd6eb5dfd5"},"vehicle_type_id":"4","last_reported":1773826906,"current_range_meters":8800,"station_id":"ce4bgih2rcd13ifvqba0","pricing_plan_id":"cebpf4jnsgd1na2vs0mg"},{"bike_id":"ed16ab64-9c0f-4050-80fd-94e1f15913c3","system_id":"levelo_inurba_marseille","lat":43.25038,"lon":5.40372,"is_reserved":false,"is_disabled":false,"rental_uris":{"android":"levelo://app?vid=ed16ab64-9c0f-4050-80fd-94e1f15913c3","ios":"levelo://app?vid=ed16ab64-9c0f-4050-80fd-94e1f15913c3"},"vehicle_type_id":"4","last_reported":1773826906,"current_range_meters":8800,"station_id":"","pricing_plan_id":"cebpf4jnsgd1na2vs0mg"},{"bike_id":"72c2af1d-c829-426e-a247-06a2e53eb023","system_id":"levelo_inurba_marseille","lat":43.31497,"lon":5.37291,"is_reserved":false,"is_disabled":false,"rental_uris":{"android":"levelo://app?vid=72c2af1d-c829-426e-a247-06a2e53eb023","ios":"levelo://app?vid=72c2af1d-c829-426e-a247-06a2e53eb023"},"vehicle_type_id":"4","last_reported":1773826906,"current_range_meters":8800,"station_id":"ce4bgt12rcd13ifvqcd0","pricing_plan_id":"cebpf4jnsgd1na2vs0mg"},{"bike_id":"5173eb01-1501-409d-8735-5cd4a7564229","system_id":"levelo_inurba_marseille","lat":43.3177,"lon":5.44541,"is_reserved":false,"is_disabled":false,"rental_uris":{"android":"levelo://app?vid=5173eb01-1501-409d-8735-5cd4a7564229","ios":"levelo://app?vid=5173eb01-1501-409d-8735-5cd4a7564229"},"vehicle_type_id":"4","last_reported":1773826906,"current_range_meters":8800,"station_id":"","pricing_plan_id":"cebpf4jnsgd1na2vs0mg"},{"bike_id":"711cc478-4be2-49b5-9633-102eb85dbd0a","system_id":"levelo_inurba_marseille","lat":43.24097,"lon":5.37751,"is_reserved":false,"is_disabled":false,"rental_uris":{"android":"levelo://app?vid=711cc478-4be2-49b5-9633-102eb85dbd0a","ios":"levelo://app?vid=711cc478-4be2-49b5-9633-102eb85dbd0a"},"vehicle_type_id":"4","last_reported":1773826906,"current_range_meters":8800,"station_id":"ce4bhnp2rcd13ifvqgvg","pricing_plan_id":"cebpf4jnsgd1na2vs0mg"},{"bike_id":"8e172d94-3782-4a03-be7a-2a9235039fe0","system_id":"levelo_inurba_marseille","lat":43.28944,"lon":5.39618,"is_reserved":false,"is_disabled":false,"rental_uris":{"android":"levelo://app?vid=8e172d94-3782-4a03-be7a-2a9235039fe0","ios":"levelo://app?vid=8e172d94-3782-4a03-be7a-2a9235039fe0"},"vehicle_type_id":"4","last_reported":1773826906,"current_range_meters":8800,"station_id":"ce4bh3h2rcd13ifvqdn0","pricing_plan_id":"cebpf4jnsgd1na2vs0mg"},{"bike_id":"a2ba337b-0885-46a1-b4d5-1d0d04b18964","system_id":"levelo_inurba_marseille","lat":43.32478,"lon":5.36557,"is_reserved":false,"is_disabled":false,"rental_uris":{"android":"levelo://app?vid=a2ba337b-0885-46a1-b4d5-1d0d04b18964","ios":"levelo://app?vid=a2ba337b-0885-46a1-b4d5-1d0d04b18964"},"vehicle_type_id":"4","last_reported":1773826906,"current_range_meters":8800,"station_id":"ce4bhs12rcd13ifvqhvg","pricing_plan_id":"cebpf4jnsgd1na2vs0mg"},{"bike_id":"0dbf0073-ecb4-44a3-8d10-bdd4a51bc702","system_id":"levelo_inurba_marseille","lat":43.31498,"lon":5.37282,"is_reserved":false,"is_disabled":false,"rental_uris":{"android":"levelo://app?vid=0dbf0073-ecb4-44a3-8d10-bdd4a51bc702","ios":"levelo://app?vid=0dbf0073-ecb4-44a3-8d10-bdd4a51bc702"},"vehicle_type_id":"4","last_reported":1773826906,"current_range_meters":8800,"station_id":"ce4bgt12rcd13ifvqcd0","pricing_plan_id":"cebpf4jnsgd1na2vs0mg"},{"bike_id":"fd676e58-478d-401a-b670-a4ed7b7af8bf","system_id":"levelo_inurba_marseille","lat":43.24084,"lon":5.37789,"is_reserved":false,"is_disabled":false,"rental_uris":{"android":"levelo://app?vid=fd676e58-478d-401a-b670-a4ed7b7af8bf","ios":"levelo://app?vid=fd676e58-478d-401a-b670-a4ed7b7af8bf"},"vehicle_type_id":"4","last_reported":1773826906,"current_range_meters":8800,"station_id":"ce4bhnp2rcd13ifvqgvg","pricing_plan_id":"cebpf4jnsgd1na2vs0mg"},{"bike_id":"d532de73-31b0-408e-96ce-6676e6435a22","system_id":"levelo_inurba_marseille","lat":43.21174,"lon":5.34997,"is_reserved":false,"is_disabled":false,"rental_uris":{"android":"levelo://app?vid=d532de73-31b0-408e-96ce-6676e6435a22","ios":"levelo://app?vid=d532de73-31b0-408e-96ce-6676e6435a22"},"vehicle_type_id":"4","last_reported":1773826906,"current_range_meters":9200,"station_id":"","pricing_plan_id":"cebpf4jnsgd1na2vs0mg"},{"bike_id":"81330be2-86cd-4444-9307-8e51ae9fdf41","system_id":"levelo_inurba_marseille","lat":43.2623,"lon":5.3791,"is_reserved":false,"is_disabled":false,"rental_uris":{"android":"levelo://app?vid=81330be2-86cd-4444-9307-8e51ae9fdf41","ios":"levelo://app?vid=81330be2-86cd-4444-9307-8e51ae9fdf41"},"vehicle_type_id":"4","last_reported":1773826906,"current_range_meters":9200,"station_id":"ce4bhjp2rcd13ifvqg90","pricing_plan_id":"cebpf4jnsgd1na2vs0mg"},{"bike_id":"13ad50bf-7f2f-4ad1-a82f-209db682ff58","system_id":"levelo_inurba_marseille","lat":43.26561,"lon":5.38995,"is_reserved":false,"is_disabled":true,"rental_uris":{"android":"levelo://app?vid=13ad50bf-7f2f-4ad1-a82f-209db682ff58","ios":"levelo://app?vid=13ad50bf-7f2f-4ad1-a82f-209db682ff58"},"vehicle_type_id":"4","last_reported":1773826906,"current_range_meters":9200,"station_id":"ce4bhe12rcd13ifvqf30","pricing_plan_id":"cebpf4jnsgd1na2vs0mg"},{"bike_id":"fd627f34-34e1-4ae6-b0d2-d80d077ae859","system_id":"levelo_inurba_marseille","lat":43.27502,"lon":5.42454,"is_reserved":false,"is_disabled":false,"rental_uris":{"android":"levelo://app?vid=fd627f34-34e1-4ae6-b0d2-d80d077ae859","ios":"levelo://app?vid=fd627f34-34e1-4ae6-b0d2-d80d077ae859"},"vehicle_type_id":"4","last_reported":1773826906,"current_range_meters":9200,"station_id":"","pricing_plan_id":"cebpf4jnsgd1na2vs0mg"},{"bike_id":"ef7514de-bdb9-493d-9139-591c88036d12","system_id":"levelo_inurba_marseille","lat":43.28153,"lon":5.42647,"is_reserved":false,"is_disabled":false,"rental_uris":{"android":"levelo://app?vid=ef7514de-bdb9-493d-9139-591c88036d12","ios":"levelo://app?vid=ef7514de-bdb9-493d-9139-591c88036d12"},"vehicle_type_id":"4","last_reported":1773826906,"current_range_meters":9200,"station_id":"ce4bhnh2rcd13ifvqgug","pricing_plan_id":"cebpf4jnsgd1na2vs0mg"},{"bike_id":"caf5e45c-f3f2-43eb-99a6-b11ec33451e8","system_id":"levelo_inurba_marseille","lat":43.23969,"lon":5.36633,"is_reserved":false,"is_disabled":false,"rental_uris":{"android":"levelo://app?vid=caf5e45c-f3f2-43eb-99a6-b11ec33451e8","ios":"levelo://app?vid=caf5e45c-f3f2-43eb-99a6-b11ec33451e8"},"vehicle_type_id":"4","last_reported":1773826906,"current_range_meters":9200,"station_id":"ce4bhi12rcd13ifvqfp0","pricing_plan_id":"cebpf4jnsgd1na2vs0mg"},{"bike_id":"6452d9cd-6a05-4ec2-8587-36bbcaecd809","system_id":"levelo_inurba_marseille","lat":43.23153,"lon":5.43712,"is_reserved":false,"is_disabled":false,"rental_uris":{"android":"levelo://app?vid=6452d9cd-6a05-4ec2-8587-36bbcaecd809","ios":"levelo://app?vid=6452d9cd-6a05-4ec2-8587-36bbcaecd809"},"vehicle_type_id":"4","last_reported":1773826906,"current_range_meters":9200,"station_id":"ce4bhmp2rcd13ifvqgog","pricing_plan_id":"cebpf4jnsgd1na2vs0mg"},{"bike_id":"fad8e96d-acb2-4874-9608-7180f6b034b8","system_id":"levelo_inurba_marseille","lat":43.29166,"lon":5.40821,"is_reserved":false,"is_disabled":false,"rental_uris":{"android":"levelo://app?vid=fad8e96d-acb2-4874-9608-7180f6b034b8","ios":"levelo://app?vid=fad8e96d-acb2-4874-9608-7180f6b034b8"},"vehicle_type_id":"4","last_reported":1773826906,"current_range_meters":9200,"station_id":"","pricing_plan_id":"cebpf4jnsgd1na2vs0mg"},{"bike_id":"55614024-db25-486b-99e8-ed28b6d6957b","system_id":"levelo_inurba_marseille","lat":43.29118,"lon":5.39952,"is_reserved":false,"is_disabled":false,"rental_uris":{"android":"levelo://app?vid=55614024-db25-486b-99e8-ed28b6d6957b","ios":"levelo://app?vid=55614024-db25-486b-99e8-ed28b6d6957b"},"vehicle_type_id":"4","last_reported":1773826906,"current_range_meters":9200,"station_id":"","pricing_plan_id":"cebpf4jnsgd1na2vs0mg"},{"bike_id":"a02196b2-d108-42bd-a4eb-67e27fde7a09","system_id":"levelo_inurba_marseille","lat":43.23204,"lon":5.35578,"is_reserved":false,"is_disabled":false,"rental_uris":{"android":"levelo://app?vid=a02196b2-d108-42bd-a4eb-67e27fde7a09","ios":"levelo://app?vid=a02196b2-d108-42bd-a4eb-67e27fde7a09"},"vehicle_type_id":"4","last_reported":1773826906,"current_range_meters":9200,"station_id":"ce4bhu92rcd13ifvqi70","pricing_plan_id":"cebpf4jnsgd1na2vs0mg"},{"bike_id":"4603d8e6-1bdb-4e77-a999-dd174df795dd","system_id":"levelo_inurba_marseille","lat":43.21754,"lon":5.34606,"is_reserved":false,"is_disabled":false,"rental_uris":{"android":"levelo://app?vid=4603d8e6-1bdb-4e77-a999-dd174df795dd","ios":"levelo://app?vid=4603d8e6-1bdb-4e77-a999-dd174df795dd"},"vehicle_type_id":"4","last_reported":1773826906,"current_range_meters":9600,"station_id":"st_cvj6r9ubvosntc0bgbag","pricing_plan_id":"cebpf4jnsgd1na2vs0mg"},{"bike_id":"2cd6d2c4-9839-4b08-8d75-805c4c2214dc","system_id":"levelo_inurba_marseille","lat":43.23047,"lon":5.35497,"is_reserved":false,"is_disabled":false,"rental_uris":{"android":"levelo://app?vid=2cd6d2c4-9839-4b08-8d75-805c4c2214dc","ios":"levelo://app?vid=2cd6d2c4-9839-4b08-8d75-805c4c2214dc"},"vehicle_type_id":"4","last_reported":1773826906,"current_range_meters":9600,"station_id":"cpo3342slgdg3j2ifvpg","pricing_plan_id":"cebpf4jnsgd1na2vs0mg"},{"bike_id":"8c29270d-5d11-446e-a3f0-f5c56ae9c816","system_id":"levelo_inurba_marseille","lat":43.27547,"lon":5.43315,"is_reserved":false,"is_disabled":false,"rental_uris":{"android":"levelo://app?vid=8c29270d-5d11-446e-a3f0-f5c56ae9c816","ios":"levelo://app?vid=8c29270d-5d11-446e-a3f0-f5c56ae9c816"},"vehicle_type_id":"4","last_reported":1773826906,"current_range_meters":9600,"station_id":"","pricing_plan_id":"cebpf4jnsgd1na2vs0mg"},{"bike_id":"c7a58df1-e626-4613-bd92-acf1a3516baf","system_id":"levelo_inurba_marseille","lat":43.21742,"lon":5.34594,"is_reserved":false,"is_disabled":false,"rental_uris":{"android":"levelo://app?vid=c7a58df1-e626-4613-bd92-acf1a3516baf","ios":"levelo://app?vid=c7a58df1-e626-4613-bd92-acf1a3516baf"},"vehicle_type_id":"4","last_reported":1773826906,"current_range_meters":9600,"station_id":"st_cvj6r9ubvosntc0bgbag","pricing_plan_id":"cebpf4jnsgd1na2vs0mg"},{"bike_id":"233b5201-c768-4dc5-9306-cf7441cce2c0","system_id":"levelo_inurba_marseille","lat":43.29571,"lon":5.37509,"is_reserved":false,"is_disabled":false,"rental_uris":{"android":"levelo://app?vid=233b5201-c768-4dc5-9306-cf7441cce2c0","ios":"levelo://app?vid=233b5201-c768-4dc5-9306-cf7441cce2c0"},"vehicle_type_id":"4","last_reported":1773826906,"current_range_meters":9600,"station_id":"ce4bgh92rcd13ifvqb50","pricing_plan_id":"cebpf4jnsgd1na2vs0mg"},{"bike_id":"656f7f1c-73b7-415a-88df-0e80616a0a57","system_id":"levelo_inurba_marseille","lat":43.25003,"lon":5.38916,"is_reserved":false,"is_disabled":false,"rental_uris":{"android":"levelo://app?vid=656f7f1c-73b7-415a-88df-0e80616a0a57","ios":"levelo://app?vid=656f7f1c-73b7-415a-88df-0e80616a0a57"},"vehicle_type_id":"4","last_reported":1773826906,"current_range_meters":9600,"station_id":"ce4bhgp2rcd13ifvqfd0","pricing_plan_id":"cebpf4jnsgd1na2vs0mg"},{"bike_id":"e180415d-7a80-43b7-b988-41e07a0dcabb","system_id":"levelo_inurba_marseille","lat":43.29966,"lon":5.38494,"is_reserved":false,"is_disabled":false,"rental_uris":{"android":"levelo://app?vid=e180415d-7a80-43b7-b988-41e07a0dcabb","ios":"levelo://app?vid=e180415d-7a80-43b7-b988-41e07a0dcabb"},"vehicle_type_id":"4","last_reported":1773826906,"current_range_meters":9600,"station_id":"ce4bgj92rcd13ifvqbd0","pricing_plan_id":"cebpf4jnsgd1na2vs0mg"},{"bike_id":"0ee4ce16-829f-49ee-9a2a-4b4670dfbc6f","system_id":"levelo_inurba_marseille","lat":43.28489,"lon":5.48393,"is_reserved":false,"is_disabled":false,"rental_uris":{"android":"levelo://app?vid=0ee4ce16-829f-49ee-9a2a-4b4670dfbc6f","ios":"levelo://app?vid=0ee4ce16-829f-49ee-9a2a-4b4670dfbc6f"},"vehicle_type_id":"4","last_reported":1773826906,"current_range_meters":9600,"station_id":"st_d3svhcjqgbts73a3dn0g","pricing_plan_id":"cebpf4jnsgd1na2vs0mg"},{"bike_id":"b273c7e7-c4fe-47a1-9ebd-69d87a83eebf","system_id":"levelo_inurba_marseille","lat":43.31369,"lon":5.36662,"is_reserved":false,"is_disabled":false,"rental_uris":{"android":"levelo://app?vid=b273c7e7-c4fe-47a1-9ebd-69d87a83eebf","ios":"levelo://app?vid=b273c7e7-c4fe-47a1-9ebd-69d87a83eebf"},"vehicle_type_id":"4","last_reported":1773826906,"current_range_meters":9600,"station_id":"","pricing_plan_id":"cebpf4jnsgd1na2vs0mg"},{"bike_id":"30f098f2-037b-4b18-bb46-aaf0e1127844","system_id":"levelo_inurba_marseille","lat":43.3054,"lon":5.39915,"is_reserved":false,"is_disabled":false,"rental_uris":{"android":"levelo://app?vid=30f098f2-037b-4b18-bb46-aaf0e1127844","ios":"levelo://app?vid=30f098f2-037b-4b18-bb46-aaf0e1127844"},"vehicle_type_id":"4","last_reported":1773826906,"current_range_meters":9600,"station_id":"","pricing_plan_id":"cebpf4jnsgd1na2vs0mg"},{"bike_id":"56e68bb0-9b77-4db4-a369-96106c9eab13","system_id":"levelo_inurba_marseille","lat":43.24057,"lon":5.37696,"is_reserved":false,"is_disabled":false,"rental_uris":{"android":"levelo://app?vid=56e68bb0-9b77-4db4-a369-96106c9eab13","ios":"levelo://app?vid=56e68bb0-9b77-4db4-a369-96106c9eab13"},"vehicle_type_id":"4","last_reported":1773826906,"current_range_meters":9600,"station_id":"","pricing_plan_id":"cebpf4jnsgd1na2vs0mg"},{"bike_id":"88db41f5-96f3-4155-a4d0-ecc56f594edb","system_id":"levelo_inurba_marseille","lat":43.22922,"lon":5.35381,"is_reserved":false,"is_disabled":false,"rental_uris":{"android":"levelo://app?vid=88db41f5-96f3-4155-a4d0-ecc56f594edb","ios":"levelo://app?vid=88db41f5-96f3-4155-a4d0-ecc56f594edb"},"vehicle_type_id":"4","last_reported":1773826906,"current_range_meters":9600,"station_id":"cpo3532slgdg3j2ikp40","pricing_plan_id":"cebpf4jnsgd1na2vs0mg"},{"bike_id":"335345af-f8e1-4228-8876-8b854de1fd3d","system_id":"levelo_inurba_marseille","lat":43.28411,"lon":5.37499,"is_reserved":false,"is_disabled":false,"rental_uris":{"android":"levelo://app?vid=335345af-f8e1-4228-8876-8b854de1fd3d","ios":"levelo://app?vid=335345af-f8e1-4228-8876-8b854de1fd3d"},"vehicle_type_id":"4","last_reported":1773826906,"current_range_meters":9600,"station_id":"ce4bh412rcd13ifvqds0","pricing_plan_id":"cebpf4jnsgd1na2vs0mg"},{"bike_id":"73e44213-1cd8-4593-a09e-a9c4a914a5d2","system_id":"levelo_inurba_marseille","lat":43.28492,"lon":5.48394,"is_reserved":false,"is_disabled":false,"rental_uris":{"android":"levelo://app?vid=73e44213-1cd8-4593-a09e-a9c4a914a5d2","ios":"levelo://app?vid=73e44213-1cd8-4593-a09e-a9c4a914a5d2"},"vehicle_type_id":"4","last_reported":1773826906,"current_range_meters":9600,"station_id":"","pricing_plan_id":"cebpf4jnsgd1na2vs0mg"},{"bike_id":"cdb60d63-5803-434d-9d13-34c70d19c222","system_id":"levelo_inurba_marseille","lat":43.23156,"lon":5.4371,"is_reserved":false,"is_disabled":false,"rental_uris":{"android":"levelo://app?vid=cdb60d63-5803-434d-9d13-34c70d19c222","ios":"levelo://app?vid=cdb60d63-5803-434d-9d13-34c70d19c222"},"vehicle_type_id":"4","last_reported":1773826906,"current_range_meters":9600,"station_id":"ce4bhmp2rcd13ifvqgog","pricing_plan_id":"cebpf4jnsgd1na2vs0mg"},{"bike_id":"04b3915d-c848-4783-b657-1507b621b373","system_id":"levelo_inurba_marseille","lat":43.27491,"lon":5.42429,"is_reserved":false,"is_disabled":false,"rental_uris":{"android":"levelo://app?vid=04b3915d-c848-4783-b657-1507b621b373","ios":"levelo://app?vid=04b3915d-c848-4783-b657-1507b621b373"},"vehicle_type_id":"4","last_reported":1773826906,"current_range_meters":9600,"station_id":"","pricing_plan_id":"cebpf4jnsgd1na2vs0mg"},