{"last_updated":1781588739,"ttl":60,"version":"2.2","data":{"bikes":[{"bike_id":"aa997b49-7107-451c-9394-34a2015508bd","system_id":"levelo_inurba_marseille","lat":43.337444,"lon":5.374475,"is_reserved":false,"is_disabled":false,"rental_uris":{"android":"levelo://app?vid=aa997b49-7107-451c-9394-34a2015508bd","ios":"levelo://app?vid=aa997b49-7107-451c-9394-34a2015508bd"},"vehicle_type_id":"4","last_reported":1781588740,"current_range_meters":0,"station_id":"","pricing_plan_id":"cebpf4jnsgd1na2vs0mg"},{"bike_id":"b55c9442-177c-4b20-a860-6b70d1610e2c","system_id":"levelo_inurba_marseille","lat":43.31497,"lon":5.38597,"is_reserved":false,"is_disabled":false,"rental_uris":{"android":"levelo://app?vid=b55c9442-177c-4b20-a860-6b70d1610e2c","ios":"levelo://app?vid=b55c9442-177c-4b20-a860-6b70d1610e2c"},"vehicle_type_id":"4","last_reported":1781588740,"current_range_meters":2800,"station_id":"","pricing_plan_id":"cebpf4jnsgd1na2vs0mg"},{"bike_id":"16a8babb-6c2c-495e-8729-7c8dedd151bd","system_id":"levelo_inurba_marseille","lat":43.31877,"lon":5.36841,"is_reserved":false,"is_disabled":false,"rental_uris":{"android":"levelo://app?vid=16a8babb-6c2c-495e-8729-7c8dedd151bd","ios":"levelo://app?vid=16a8babb-6c2c-495e-8729-7c8dedd151bd"},"vehicle_type_id":"4","last_reported":1781588740,"current_range_meters":2800,"station_id":"st_d6o2h0d0559c73evc1b0","pricing_plan_id":"cebpf4jnsgd1na2vs0mg"},{"bike_id":"ccab2dd4-bcdc-40a8-8382-56da510e5e6d","system_id":"levelo_inurba_marseille","lat":43.3144,"lon":5.3739,"is_reserved":false,"is_disabled":false,"rental_uris":{"android":"levelo://app?vid=ccab2dd4-bcdc-40a8-8382-56da510e5e6d","ios":"levelo://app?vid=ccab2dd4-bcdc-40a8-8382-56da510e5e6d"},"vehicle_type_id":"4","last_reported":1781588740,"current_range_meters":2800,"station_id":"","pricing_plan_id":"cebpf4jnsgd1na2vs0mg"},{"bike_id":"93185bfd-02c6-46af-bbcb-f724715b4d15","system_id":"levelo_inurba_marseille","lat":43.30591,"lon":5.39341,"is_reserved":false,"is_disabled":false,"rental_uris":{"android":"levelo://app?vid=93185bfd-02c6-46af-bbcb-f724715b4d15","ios":"levelo://app?vid=93185bfd-02c6-46af-bbcb-f724715b4d15"},"vehicle_type_id":"4","last_reported":1781588740,"current_range_meters":2800,"station_id":"ce4bh0p2rcd13ifvqd80","pricing_plan_id":"cebpf4jnsgd1na2vs0mg"},{"bike_id":"c4f6f0d0-62ab-49ad-aeec-8dfdbe470673","system_id":"levelo_inurba_marseille","lat":43.303128,"lon":5.369038,"is_reserved":false,"is_disabled":true,"rental_uris":{"android":"levelo://app?vid=c4f6f0d0-62ab-49ad-aeec-8dfdbe470673","ios":"levelo://app?vid=c4f6f0d0-62ab-49ad-aeec-8dfdbe470673"},"vehicle_type_id":"4","last_reported":1781588740,"current_range_meters":2800,"station_id":"ce4bhgh2rcd13ifvqfb0","pricing_plan_id":"cebpf4jnsgd1na2vs0mg"},{"bike_id":"61a34d84-b380-4fda-a2f6-f1e34cfa8e9d","system_id":"levelo_inurba_marseille","lat":43.29259,"lon":5.38254,"is_reserved":false,"is_disabled":false,"rental_uris":{"android":"levelo://app?vid=61a34d84-b380-4fda-a2f6-f1e34cfa8e9d","ios":"levelo://app?vid=61a34d84-b380-4fda-a2f6-f1e34cfa8e9d"},"vehicle_type_id":"4","last_reported":1781588740,"current_range_meters":2800,"station_id":"","pricing_plan_id":"cebpf4jnsgd1na2vs0mg"},{"bike_id":"6f22ff3a-0a25-43bd-a428-94dc6e4b1e1f","system_id":"levelo_inurba_marseille","lat":43.29576,"lon":5.38174,"is_reserved":false,"is_disabled":false,"rental_uris":{"android":"levelo://app?vid=6f22ff3a-0a25-43bd-a428-94dc6e4b1e1f","ios":"levelo://app?vid=6f22ff3a-0a25-43bd-a428-94dc6e4b1e1f"},"vehicle_type_id":"4","last_reported":1781588740,"current_range_meters":2800,"station_id":"","pricing_plan_id":"cebpf4jnsgd1na2vs0mg"},{"bike_id":"fcc63f5f-5200-49ab-ae7a-b0a43ab9f9de","system_id":"levelo_inurba_marseille","lat":43.24947,"lon":5.40484,"is_reserved":false,"is_disabled":false,"rental_uris":{"android":"levelo://app?vid=fcc63f5f-5200-49ab-ae7a-b0a43ab9f9de","ios":"levelo://app?vid=fcc63f5f-5200-49ab-ae7a-b0a43ab9f9de"},"vehicle_type_id":"4","last_reported":1781588740,"current_range_meters":2800,"station_id":"st_d2ngiaodas8pm72gd1h0","pricing_plan_id":"cebpf4jnsgd1na2vs0mg"},{"bike_id":"529e8a7f-5e01-47b4-a1f7-89fd553a22b9","system_id":"levelo_inurba_marseille","lat":43.3081,"lon":5.38162,"is_reserved":false,"is_disabled":false,"rental_uris":{"android":"levelo://app?vid=529e8a7f-5e01-47b4-a1f7-89fd553a22b9","ios":"levelo://app?vid=529e8a7f-5e01-47b4-a1f7-89fd553a22b9"},"vehicle_type_id":"4","last_reported":1781588740,"current_range_meters":2800,"station_id":"ce4bgt12rcd13ifvqce0","pricing_plan_id":"cebpf4jnsgd1na2vs0mg"},{"bike_id":"11c33da6-b3d2-46a9-a954-cb01c922a54e","system_id":"levelo_inurba_marseille","lat":43.29909,"lon":5.38197,"is_reserved":false,"is_disabled":false,"rental_uris":{"android":"levelo://app?vid=11c33da6-b3d2-46a9-a954-cb01c922a54e","ios":"levelo://app?vid=11c33da6-b3d2-46a9-a954-cb01c922a54e"},"vehicle_type_id":"4","last_reported":1781588740,"current_range_meters":2800,"station_id":"ce4bgj12rcd13ifvqbc0","pricing_plan_id":"cebpf4jnsgd1na2vs0mg"},{"bike_id":"19e1e4a2-a8a6-41eb-9a3b-fd90864c402a","system_id":"levelo_inurba_marseille","lat":43.24957,"lon":5.40475,"is_reserved":false,"is_disabled":false,"rental_uris":{"android":"levelo://app?vid=19e1e4a2-a8a6-41eb-9a3b-fd90864c402a","ios":"levelo://app?vid=19e1e4a2-a8a6-41eb-9a3b-fd90864c402a"},"vehicle_type_id":"4","last_reported":1781588740,"current_range_meters":3200,"station_id":"st_d2ngiaodas8pm72gd1h0","pricing_plan_id":"cebpf4jnsgd1na2vs0mg"},{"bike_id":"936dfda5-be18-4412-a93f-8c09c57a8772","system_id":"levelo_inurba_marseille","lat":43.2934,"lon":5.3745,"is_reserved":false,"is_disabled":false,"rental_uris":{"android":"levelo://app?vid=936dfda5-be18-4412-a93f-8c09c57a8772","ios":"levelo://app?vid=936dfda5-be18-4412-a93f-8c09c57a8772"},"vehicle_type_id":"4","last_reported":1781588740,"current_range_meters":3200,"station_id":"ce4bgi12rcd13ifvqb70","pricing_plan_id":"cebpf4jnsgd1na2vs0mg"},{"bike_id":"82d81374-4fb4-47be-8b7b-917755afa823","system_id":"levelo_inurba_marseille","lat":43.29485,"lon":5.43308,"is_reserved":false,"is_disabled":false,"rental_uris":{"android":"levelo://app?vid=82d81374-4fb4-47be-8b7b-917755afa823","ios":"levelo://app?vid=82d81374-4fb4-47be-8b7b-917755afa823"},"vehicle_type_id":"4","last_reported":1781588740,"current_range_meters":3200,"station_id":"st_d3j5ugp08ojc73fj9d10","pricing_plan_id":"cebpf4jnsgd1na2vs0mg"},{"bike_id":"00d3679f-9ab3-4943-871f-0dceeeed14e2","system_id":"levelo_inurba_marseille","lat":43.29517,"lon":5.39403,"is_reserved":false,"is_disabled":false,"rental_uris":{"android":"levelo://app?vid=00d3679f-9ab3-4943-871f-0dceeeed14e2","ios":"levelo://app?vid=00d3679f-9ab3-4943-871f-0dceeeed14e2"},"vehicle_type_id":"4","last_reported":1781588740,"current_range_meters":3200,"station_id":"ce4bh292rcd13ifvqdf0","pricing_plan_id":"cebpf4jnsgd1na2vs0mg"},{"bike_id":"6d00de16-b695-4828-9793-13ca6b92168c","system_id":"levelo_inurba_marseille","lat":43.27839,"lon":5.39204,"is_reserved":false,"is_disabled":false,"rental_uris":{"android":"levelo://app?vid=6d00de16-b695-4828-9793-13ca6b92168c","ios":"levelo://app?vid=6d00de16-b695-4828-9793-13ca6b92168c"},"vehicle_type_id":"4","last_reported":1781588740,"current_range_meters":3200,"station_id":"ce4bhjp2rcd13ifvqga0","pricing_plan_id":"cebpf4jnsgd1na2vs0mg"},{"bike_id":"dcd3d462-d0c5-4d07-90df-bc080d656cb6","system_id":"levelo_inurba_marseille","lat":43.29788,"lon":5.3853,"is_reserved":false,"is_disabled":false,"rental_uris":{"android":"levelo://app?vid=dcd3d462-d0c5-4d07-90df-bc080d656cb6","ios":"levelo://app?vid=dcd3d462-d0c5-4d07-90df-bc080d656cb6"},"vehicle_type_id":"4","last_reported":1781588740,"current_range_meters":3200,"station_id":"","pricing_plan_id":"cebpf4jnsgd1na2vs0mg"},{"bike_id":"e3a905d4-c9c3-4770-b82f-da66d38b2d76","system_id":"levelo_inurba_marseille","lat":43.25081,"lon":5.39513,"is_reserved":false,"is_disabled":false,"rental_uris":{"android":"levelo://app?vid=e3a905d4-c9c3-4770-b82f-da66d38b2d76","ios":"levelo://app?vid=e3a905d4-c9c3-4770-b82f-da66d38b2d76"},"vehicle_type_id":"4","last_reported":1781588740,"current_range_meters":3200,"station_id":"ce4bhm12rcd13ifvqgkg","pricing_plan_id":"cebpf4jnsgd1na2vs0mg"},{"bike_id":"9e52e5fc-e1d9-4df7-8d60-5ee633d3bd6b","system_id":"levelo_inurba_marseille","lat":43.3124,"lon":5.38481,"is_reserved":false,"is_disabled":false,"rental_uris":{"android":"levelo://app?vid=9e52e5fc-e1d9-4df7-8d60-5ee633d3bd6b","ios":"levelo://app?vid=9e52e5fc-e1d9-4df7-8d60-5ee633d3bd6b"},"vehicle_type_id":"4","last_reported":1781588740,"current_range_meters":3200,"station_id":"","pricing_plan_id":"cebpf4jnsgd1na2vs0mg"},{"bike_id":"46142ebd-3de9-448d-855f-36bd87e5fd0b","system_id":"levelo_inurba_marseille","lat":43.24077,"lon":5.37777,"is_reserved":false,"is_disabled":false,"rental_uris":{"android":"levelo://app?vid=46142ebd-3de9-448d-855f-36bd87e5fd0b","ios":"levelo://app?vid=46142ebd-3de9-448d-855f-36bd87e5fd0b"},"vehicle_type_id":"4","last_reported":1781588740,"current_range_meters":3600,"station_id":"ce4bhnp2rcd13ifvqgvg","pricing_plan_id":"cebpf4jnsgd1na2vs0mg"},{"bike_id":"42562290-86f5-4c16-b982-1222da9d0479","system_id":"levelo_inurba_marseille","lat":43.30232,"lon":5.36619,"is_reserved":false,"is_disabled":false,"rental_uris":{"android":"levelo://app?vid=42562290-86f5-4c16-b982-1222da9d0479","ios":"levelo://app?vid=42562290-86f5-4c16-b982-1222da9d0479"},"vehicle_type_id":"4","last_reported":1781588740,"current_range_meters":3600,"station_id":"ce4bgrh2rcd13ifvqc8g","pricing_plan_id":"cebpf4jnsgd1na2vs0mg"},{"bike_id":"2b0774fd-df4e-4faa-94e4-5ca52189b44e","system_id":"levelo_inurba_marseille","lat":43.29227,"lon":5.36046,"is_reserved":false,"is_disabled":true,"rental_uris":{"android":"levelo://app?vid=2b0774fd-df4e-4faa-94e4-5ca52189b44e","ios":"levelo://app?vid=2b0774fd-df4e-4faa-94e4-5ca52189b44e"},"vehicle_type_id":"4","last_reported":1781588740,"current_range_meters":3600,"station_id":"ce4bhbh2rcd13ifvqeqg","pricing_plan_id":"cebpf4jnsgd1na2vs0mg"},{"bike_id":"9ed4071c-f5e5-4180-ab83-2724f8d151e0","system_id":"levelo_inurba_marseille","lat":43.28603,"lon":5.39872,"is_reserved":false,"is_disabled":false,"rental_uris":{"android":"levelo://app?vid=9ed4071c-f5e5-4180-ab83-2724f8d151e0","ios":"levelo://app?vid=9ed4071c-f5e5-4180-ab83-2724f8d151e0"},"vehicle_type_id":"4","last_reported":1781588740,"current_range_meters":3600,"station_id":"st_d4a7ka997mjs738ck50g","pricing_plan_id":"cebpf4jnsgd1na2vs0mg"},{"bike_id":"b1a7b4e2-c4de-4929-b9de-8b1c38cd950b","system_id":"levelo_inurba_marseille","lat":43.30829,"lon":5.38332,"is_reserved":false,"is_disabled":false,"rental_uris":{"android":"levelo://app?vid=b1a7b4e2-c4de-4929-b9de-8b1c38cd950b","ios":"levelo://app?vid=b1a7b4e2-c4de-4929-b9de-8b1c38cd950b"},"vehicle_type_id":"4","last_reported":1781588740,"current_range_meters":3600,"station_id":"","pricing_plan_id":"cebpf4jnsgd1na2vs0mg"},{"bike_id":"ede501e1-ac6b-419f-91d8-52a9e484b3db","system_id":"levelo_inurba_marseille","lat":43.27069,"lon":5.42266,"is_reserved":false,"is_disabled":false,"rental_uris":{"android":"levelo://app?vid=ede501e1-ac6b-419f-91d8-52a9e484b3db","ios":"levelo://app?vid=ede501e1-ac6b-419f-91d8-52a9e484b3db"},"vehicle_type_id":"4","last_reported":1781588740,"current_range_meters":3600,"station_id":"ce4bhk92rcd13ifvqgb0","pricing_plan_id":"cebpf4jnsgd1na2vs0mg"},{"bike_id":"ecf0898d-9dbb-44ff-a481-3c3f1a335ddf","system_id":"levelo_inurba_marseille","lat":43.29876,"lon":5.39752,"is_reserved":false,"is_disabled":false,"rental_uris":{"android":"levelo://app?vid=ecf0898d-9dbb-44ff-a481-3c3f1a335ddf","ios":"levelo://app?vid=ecf0898d-9dbb-44ff-a481-3c3f1a335ddf"},"vehicle_type_id":"4","last_reported":1781588740,"current_range_meters":3600,"station_id":"ce4bh0h2rcd13ifvqd50","pricing_plan_id":"cebpf4jnsgd1na2vs0mg"},{"bike_id":"4dff1ce9-2f16-4155-839a-dc517f4dddcb","system_id":"levelo_inurba_marseille","lat":43.255167,"lon":5.37651,"is_reserved":false,"is_disabled":false,"rental_uris":{"android":"levelo://app?vid=4dff1ce9-2f16-4155-839a-dc517f4dddcb","ios":"levelo://app?vid=4dff1ce9-2f16-4155-839a-dc517f4dddcb"},"vehicle_type_id":"4","last_reported":1781588740,"current_range_meters":3600,"station_id":"ce4bhh12rcd13ifvqff0","pricing_plan_id":"cebpf4jnsgd1na2vs0mg"},{"bike_id":"28d68514-628b-497a-8dfc-b15d7e44b891","system_id":"levelo_inurba_marseille","lat":43.29658,"lon":5.3662,"is_reserved":false,"is_disabled":true,"rental_uris":{"android":"levelo://app?vid=28d68514-628b-497a-8dfc-b15d7e44b891","ios":"levelo://app?vid=28d68514-628b-497a-8dfc-b15d7e44b891"},"vehicle_type_id":"4","last_reported":1781588740,"current_range_meters":3600,"station_id":"ce4bgn12rcd13ifvqbt0","pricing_plan_id":"cebpf4jnsgd1na2vs0mg"},{"bike_id":"2d6eff47-7c68-48d6-9b92-11793de4ccee","system_id":"levelo_inurba_marseille","lat":43.30776,"lon":5.37644,"is_reserved":false,"is_disabled":false,"rental_uris":{"android":"levelo://app?vid=2d6eff47-7c68-48d6-9b92-11793de4ccee","ios":"levelo://app?vid=2d6eff47-7c68-48d6-9b92-11793de4ccee"},"vehicle_type_id":"4","last_reported":1781588740,"current_range_meters":3600,"station_id":"ce4bgv92rcd13ifvqcq0","pricing_plan_id":"cebpf4jnsgd1na2vs0mg"},{"bike_id":"ad9fc3d6-18db-47eb-82f7-49728d600a2c","system_id":"levelo_inurba_marseille","lat":43.29135,"lon":5.38081,"is_reserved":false,"is_disabled":false,"rental_uris":{"android":"levelo://app?vid=ad9fc3d6-18db-47eb-82f7-49728d600a2c","ios":"levelo://app?vid=ad9fc3d6-18db-47eb-82f7-49728d600a2c"},"vehicle_type_id":"4","last_reported":1781588740,"current_range_meters":4000,"station_id":"","pricing_plan_id":"cebpf4jnsgd1na2vs0mg"},{"bike_id":"065b6009-2e7a-45cb-bd50-ea574925cd7f","system_id":"levelo_inurba_marseille","lat":43.25406,"lon":5.42792,"is_reserved":false,"is_disabled":false,"rental_uris":{"android":"levelo://app?vid=065b6009-2e7a-45cb-bd50-ea574925cd7f","ios":"levelo://app?vid=065b6009-2e7a-45cb-bd50-ea574925cd7f"},"vehicle_type_id":"4","last_reported":1781588740,"current_range_meters":4000,"station_id":"","pricing_plan_id":"cebpf4jnsgd1na2vs0mg"},{"bike_id":"ffcf8e0f-b1c2-403c-be8a-1b68faf82967","system_id":"levelo_inurba_marseille","lat":43.31493,"lon":5.37295,"is_reserved":false,"is_disabled":false,"rental_uris":{"android":"levelo://app?vid=ffcf8e0f-b1c2-403c-be8a-1b68faf82967","ios":"levelo://app?vid=ffcf8e0f-b1c2-403c-be8a-1b68faf82967"},"vehicle_type_id":"4","last_reported":1781588740,"current_range_meters":4000,"station_id":"ce4bgt12rcd13ifvqcd0","pricing_plan_id":"cebpf4jnsgd1na2vs0mg"},{"bike_id":"9aabb9cd-8524-48e4-bf52-6dd774a8bb60","system_id":"levelo_inurba_marseille","lat":43.32346,"lon":5.36751,"is_reserved":false,"is_disabled":false,"rental_uris":{"android":"levelo://app?vid=9aabb9cd-8524-48e4-bf52-6dd774a8bb60","ios":"levelo://app?vid=9aabb9cd-8524-48e4-bf52-6dd774a8bb60"},"vehicle_type_id":"4","last_reported":1781588740,"current_range_meters":4000,"station_id":"ce4bhsh2rcd13ifvqi2g","pricing_plan_id":"cebpf4jnsgd1na2vs0mg"},{"bike_id":"f965982f-f450-4c56-b1a2-9820a0cdc4b2","system_id":"levelo_inurba_marseille","lat":43.27989,"lon":5.41658,"is_reserved":false,"is_disabled":false,"rental_uris":{"android":"levelo://app?vid=f965982f-f450-4c56-b1a2-9820a0cdc4b2","ios":"levelo://app?vid=f965982f-f450-4c56-b1a2-9820a0cdc4b2"},"vehicle_type_id":"4","last_reported":1781588740,"current_range_meters":4000,"station_id":"ce4bho12rcd13ifvqh1g","pricing_plan_id":"cebpf4jnsgd1na2vs0mg"},{"bike_id":"63787175-31eb-4558-96d5-7ddcc7376d06","system_id":"levelo_inurba_marseille","lat":43.23195,"lon":5.35567,"is_reserved":false,"is_disabled":false,"rental_uris":{"android":"levelo://app?vid=63787175-31eb-4558-96d5-7ddcc7376d06","ios":"levelo://app?vid=63787175-31eb-4558-96d5-7ddcc7376d06"},"vehicle_type_id":"4","last_reported":1781588740,"current_range_meters":4000,"station_id":"ce4bhu92rcd13ifvqi70","pricing_plan_id":"cebpf4jnsgd1na2vs0mg"},{"bike_id":"8dbdffd6-18cf-432c-9bd5-7d3e1f87b52d","system_id":"levelo_inurba_marseille","lat":43.23964,"lon":5.36651,"is_reserved":false,"is_disabled":false,"rental_uris":{"android":"levelo://app?vid=8dbdffd6-18cf-432c-9bd5-7d3e1f87b52d","ios":"levelo://app?vid=8dbdffd6-18cf-432c-9bd5-7d3e1f87b52d"},"vehicle_type_id":"4","last_reported":1781588740,"current_range_meters":4000,"station_id":"ce4bhi12rcd13ifvqfp0","pricing_plan_id":"cebpf4jnsgd1na2vs0mg"},{"bike_id":"55fc349a-9924-458f-813c-ac53d3cf4328","system_id":"levelo_inurba_marseille","lat":43.303,"lon":5.39222,"is_reserved":false,"is_disabled":false,"rental_uris":{"android":"levelo://app?vid=55fc349a-9924-458f-813c-ac53d3cf4328","ios":"levelo://app?vid=55fc349a-9924-458f-813c-ac53d3cf4328"},"vehicle_type_id":"4","last_reported":1781588740,"current_range_meters":4000,"station_id":"ce4bgkh2rcd13ifvqbk0","pricing_plan_id":"cebpf4jnsgd1na2vs0mg"},{"bike_id":"ac0387b8-b30c-4b5d-ad98-7280018d1aa7","system_id":"levelo_inurba_marseille","lat":43.24674,"lon":5.38143,"is_reserved":false,"is_disabled":false,"rental_uris":{"android":"levelo://app?vid=ac0387b8-b30c-4b5d-ad98-7280018d1aa7","ios":"levelo://app?vid=ac0387b8-b30c-4b5d-ad98-7280018d1aa7"},"vehicle_type_id":"4","last_reported":1781588740,"current_range_meters":4000,"station_id":"ce4bhih2rcd13ifvqfr0","pricing_plan_id":"cebpf4jnsgd1na2vs0mg"},{"bike_id":"c2cdc4fb-c88c-40fe-9359-d929da0af253","system_id":"levelo_inurba_marseille","lat":43.225344,"lon":5.348326,"is_reserved":false,"is_disabled":false,"rental_uris":{"android":"levelo://app?vid=c2cdc4fb-c88c-40fe-9359-d929da0af253","ios":"levelo://app?vid=c2cdc4fb-c88c-40fe-9359-d929da0af253"},"vehicle_type_id":"4","last_reported":1781588740,"current_range_meters":4000,"station_id":"st_cvj5dfep6f1abm77gieg","pricing_plan_id":"cebpf4jnsgd1na2vs0mg"},{"bike_id":"4dda2717-19b7-4c1b-8217-0b2a9fae8a2e","system_id":"levelo_inurba_marseille","lat":43.31714,"lon":5.37752,"is_reserved":false,"is_disabled":false,"rental_uris":{"android":"levelo://app?vid=4dda2717-19b7-4c1b-8217-0b2a9fae8a2e","ios":"levelo://app?vid=4dda2717-19b7-4c1b-8217-0b2a9fae8a2e"},"vehicle_type_id":"4","last_reported":1781588740,"current_range_meters":4000,"station_id":"ce4bgth2rcd13ifvqch0","pricing_plan_id":"cebpf4jnsgd1na2vs0mg"},{"bike_id":"01f88f9c-81f5-4097-bd38-d7af29c5bd9c","system_id":"levelo_inurba_marseille","lat":43.29593,"lon":5.38094,"is_reserved":false,"is_disabled":false,"rental_uris":{"android":"levelo://app?vid=01f88f9c-81f5-4097-bd38-d7af29c5bd9c","ios":"levelo://app?vid=01f88f9c-81f5-4097-bd38-d7af29c5bd9c"},"vehicle_type_id":"4","last_reported":1781588740,"current_range_meters":4000,"station_id":"ce4bgl12rcd13ifvqbo0","pricing_plan_id":"cebpf4jnsgd1na2vs0mg"},{"bike_id":"1cda9577-9712-4b23-979b-c300e7420bfa","system_id":"levelo_inurba_marseille","lat":43.31753,"lon":5.39015,"is_reserved":false,"is_disabled":false,"rental_uris":{"android":"levelo://app?vid=1cda9577-9712-4b23-979b-c300e7420bfa","ios":"levelo://app?vid=1cda9577-9712-4b23-979b-c300e7420bfa"},"vehicle_type_id":"4","last_reported":1781588740,"current_range_meters":4000,"station_id":"ce4bhqp2rcd13ifvqhng","pricing_plan_id":"cebpf4jnsgd1na2vs0mg"},{"bike_id":"8e03a099-3603-4e3e-ae5e-b9e0742fdeae","system_id":"levelo_inurba_marseille","lat":43.28616,"lon":5.39883,"is_reserved":false,"is_disabled":true,"rental_uris":{"android":"levelo://app?vid=8e03a099-3603-4e3e-ae5e-b9e0742fdeae","ios":"levelo://app?vid=8e03a099-3603-4e3e-ae5e-b9e0742fdeae"},"vehicle_type_id":"4","last_reported":1781588740,"current_range_meters":4000,"station_id":"ce4bho92rcd13ifvqh3g","pricing_plan_id":"cebpf4jnsgd1na2vs0mg"},{"bike_id":"ad786be5-2e09-4658-be3d-ceceb7b4a725","system_id":"levelo_inurba_marseille","lat":43.28149,"lon":5.42642,"is_reserved":false,"is_disabled":false,"rental_uris":{"android":"levelo://app?vid=ad786be5-2e09-4658-be3d-ceceb7b4a725","ios":"levelo://app?vid=ad786be5-2e09-4658-be3d-ceceb7b4a725"},"vehicle_type_id":"4","last_reported":1781588740,"current_range_meters":4000,"station_id":"ce4bhnh2rcd13ifvqgug","pricing_plan_id":"cebpf4jnsgd1na2vs0mg"},{"bike_id":"c23fb373-7ad9-4348-a0f0-23ba5090a9b3","system_id":"levelo_inurba_marseille","lat":43.29242,"lon":5.38046,"is_reserved":false,"is_disabled":false,"rental_uris":{"android":"levelo://app?vid=c23fb373-7ad9-4348-a0f0-23ba5090a9b3","ios":"levelo://app?vid=c23fb373-7ad9-4348-a0f0-23ba5090a9b3"},"vehicle_type_id":"4","last_reported":1781588740,"current_range_meters":4000,"station_id":"","pricing_plan_id":"cebpf4jnsgd1na2vs0mg"},{"bike_id":"8cae7b90-2d74-42dc-af11-7fb5ea3c3f9d","system_id":"levelo_inurba_marseille","lat":43.26563,"lon":5.37282,"is_reserved":false,"is_disabled":false,"rental_uris":{"android":"levelo://app?vid=8cae7b90-2d74-42dc-af11-7fb5ea3c3f9d","ios":"levelo://app?vid=8cae7b90-2d74-42dc-af11-7fb5ea3c3f9d"},"vehicle_type_id":"4","last_reported":1781588740,"current_range_meters":4000,"station_id":"ce4bhg12rcd13ifvqf70","pricing_plan_id":"cebpf4jnsgd1na2vs0mg"},{"bike_id":"719e511b-3d56-42bb-bd13-9807736e0037","system_id":"levelo_inurba_marseille","lat":43.24819,"lon":5.37458,"is_reserved":false,"is_disabled":false,"rental_uris":{"android":"levelo://app?vid=719e511b-3d56-42bb-bd13-9807736e0037","ios":"levelo://app?vid=719e511b-3d56-42bb-bd13-9807736e0037"},"vehicle_type_id":"4","last_reported":1781588740,"current_range_meters":4400,"station_id":"ce4bhgh2rcd13ifvqfb0","pricing_plan_id":"cebpf4jnsgd1na2vs0mg"},{"bike_id":"a7423333-6c27-4dfa-8b68-5eb468877668","system_id":"levelo_inurba_marseille","lat":43.32471,"lon":5.38246,"is_reserved":false,"is_disabled":false,"rental_uris":{"android":"levelo://app?vid=a7423333-6c27-4dfa-8b68-5eb468877668","ios":"levelo://app?vid=a7423333-6c27-4dfa-8b68-5eb468877668"},"vehicle_type_id":"4","last_reported":1781588740,"current_range_meters":4400,"station_id":"st_d4asgbiv49dc73anf9m0","pricing_plan_id":"cebpf4jnsgd1na2vs0mg"},{"bike_id":"34624d46-65a4-4a75-9d5f-549007b8851f","system_id":"levelo_inurba_marseille","lat":43.337533,"lon":5.374474,"is_reserved":false,"is_disabled":false,"rental_uris":{"android":"levelo://app?vid=34624d46-65a4-4a75-9d5f-549007b8851f","ios":"levelo://app?vid=34624d46-65a4-4a75-9d5f-549007b8851f"},"vehicle_type_id":"4","last_reported":1781588740,"current_range_meters":4400,"station_id":"","pricing_plan_id":"cebpf4jnsgd1na2vs0mg"},{"bike_id":"a1bcdc1e-01dd-44a7-a8e1-b215f8c90261","system_id":"levelo_inurba_marseille","lat":43.29002,"lon":5.38133,"is_reserved":false,"is_disabled":false,"rental_uris":{"android":"levelo://app?vid=a1bcdc1e-01dd-44a7-a8e1-b215f8c90261","ios":"levelo://app?vid=a1bcdc1e-01dd-44a7-a8e1-b215f8c90261"},"vehicle_type_id":"4","last_reported":1781588740,"current_range_meters":4400,"station_id":"ce4bh4p2rcd13ifvqe1g","pricing_plan_id":"cebpf4jnsgd1na2vs0mg"},{"bike_id":"17180ebe-55c3-43c4-baf2-f968c9e4fb21","system_id":"levelo_inurba_marseille","lat":43.24575,"lon":5.41642,"is_reserved":false,"is_disabled":false,"rental_uris":{"android":"levelo://app?vid=17180ebe-55c3-43c4-baf2-f968c9e4fb21","ios":"levelo://app?vid=17180ebe-55c3-43c4-baf2-f968c9e4fb21"},"vehicle_type_id":"4","last_reported":1781588740,"current_range_meters":4400,"station_id":"","pricing_plan_id":"cebpf4jnsgd1na2vs0mg"},{"bike_id":"cf738518-8c8a-4295-9678-1a955c521a10","system_id":"levelo_inurba_marseille","lat":43.24461,"lon":5.42556,"is_reserved":false,"is_disabled":true,"rental_uris":{"android":"levelo://app?vid=cf738518-8c8a-4295-9678-1a955c521a10","ios":"levelo://app?vid=cf738518-8c8a-4295-9678-1a955c521a10"},"vehicle_type_id":"4","last_reported":1781588740,"current_range_meters":4400,"station_id":"st_d4a3vfp97mjs738cd8kg","pricing_plan_id":"cebpf4jnsgd1na2vs0mg"},{"bike_id":"0ed74b88-02bb-4e6a-bac8-0265efdf81e4","system_id":"levelo_inurba_marseille","lat":43.21747,"lon":5.34594,"is_reserved":false,"is_disabled":true,"rental_uris":{"android":"levelo://app?vid=0ed74b88-02bb-4e6a-bac8-0265efdf81e4","ios":"levelo://app?vid=0ed74b88-02bb-4e6a-bac8-0265efdf81e4"},"vehicle_type_id":"4","last_reported":1781588740,"current_range_meters":4400,"station_id":"st_cvj6r9ubvosntc0bgbag","pricing_plan_id":"cebpf4jnsgd1na2vs0mg"},{"bike_id":"d27f1b82-f6a1-46ff-8f2b-1d48ea3e4d67","system_id":"levelo_inurba_marseille","lat":43.23057,"lon":5.3548,"is_reserved":false,"is_disabled":false,"rental_uris":{"android":"levelo://app?vid=d27f1b82-f6a1-46ff-8f2b-1d48ea3e4d67","ios":"levelo://app?vid=d27f1b82-f6a1-46ff-8f2b-1d48ea3e4d67"},"vehicle_type_id":"4","last_reported":1781588740,"current_range_meters":4400,"station_id":"cpo3342slgdg3j2ifvpg","pricing_plan_id":"cebpf4jnsgd1na2vs0mg"},{"bike_id":"27c9adf0-5a2d-4b40-a0d2-7e33166d8640","system_id":"levelo_inurba_marseille","lat":43.27974,"lon":5.38748,"is_reserved":false,"is_disabled":true,"rental_uris":{"android":"levelo://app?vid=27c9adf0-5a2d-4b40-a0d2-7e33166d8640","ios":"levelo://app?vid=27c9adf0-5a2d-4b40-a0d2-7e33166d8640"},"vehicle_type_id":"4","last_reported":1781588740,"current_range_meters":4400,"station_id":"ce4bhg12rcd13ifvqf80","pricing_plan_id":"cebpf4jnsgd1na2vs0mg"},{"bike_id":"9743948b-c46e-4e8f-a6f3-84b573fce9b8","system_id":"levelo_inurba_marseille","lat":43.28047,"lon":5.35329,"is_reserved":false,"is_disabled":true,"rental_uris":{"android":"levelo://app?vid=9743948b-c46e-4e8f-a6f3-84b573fce9b8","ios":"levelo://app?vid=9743948b-c46e-4e8f-a6f3-84b573fce9b8"},"vehicle_type_id":"4","last_reported":1781588740,"current_range_meters":4400,"station_id":"","pricing_plan_id":"cebpf4jnsgd1na2vs0mg"},{"bike_id":"e24ee435-28fc-4183-a5b5-680e22b01863","system_id":"levelo_inurba_marseille","lat":43.2319,"lon":5.35564,"is_reserved":false,"is_disabled":false,"rental_uris":{"android":"levelo://app?vid=e24ee435-28fc-4183-a5b5-680e22b01863","ios":"levelo://app?vid=e24ee435-28fc-4183-a5b5-680e22b01863"},"vehicle_type_id":"4","last_reported":1781588740,"current_range_meters":4400,"station_id":"ce4bhu92rcd13ifvqi70","pricing_plan_id":"cebpf4jnsgd1na2vs0mg"},{"bike_id":"4b7eaace-99b5-4774-8882-9721d191072b","system_id":"levelo_inurba_marseille","lat":43.31323,"lon":5.39703,"is_reserved":false,"is_disabled":false,"rental_uris":{"android":"levelo://app?vid=4b7eaace-99b5-4774-8882-9721d191072b","ios":"levelo://app?vid=4b7eaace-99b5-4774-8882-9721d191072b"},"vehicle_type_id":"4","last_reported":1781588740,"current_range_meters":4400,"station_id":"ce4bgvp2rcd13ifvqcu0","pricing_plan_id":"cebpf4jnsgd1na2vs0mg"},{"bike_id":"e5fc4621-c5a4-4c12-9489-89d196f79039","system_id":"levelo_inurba_marseille","lat":43.29366,"lon":5.37851,"is_reserved":false,"is_disabled":true,"rental_uris":{"android":"levelo://app?vid=e5fc4621-c5a4-4c12-9489-89d196f79039","ios":"levelo://app?vid=e5fc4621-c5a4-4c12-9489-89d196f79039"},"vehicle_type_id":"4","last_reported":1781588740,"current_range_meters":4400,"station_id":"ce4bgjh2rcd13ifvqbf0","pricing_plan_id":"cebpf4jnsgd1na2vs0mg"},{"bike_id":"85966d85-f405-4b8d-8627-a33ebd9b258f","system_id":"levelo_inurba_marseille","lat":43.28687,"lon":5.469,"is_reserved":false,"is_disabled":false,"rental_uris":{"android":"levelo://app?vid=85966d85-f405-4b8d-8627-a33ebd9b258f","ios":"levelo://app?vid=85966d85-f405-4b8d-8627-a33ebd9b258f"},"vehicle_type_id":"4","last_reported":1781588740,"current_range_meters":4400,"station_id":"","pricing_plan_id":"cebpf4jnsgd1na2vs0mg"},{"bike_id":"48209e80-70e7-44f3-a632-0018c8c70356","system_id":"levelo_inurba_marseille","lat":43.29875,"lon":5.39729,"is_reserved":false,"is_disabled":false,"rental_uris":{"android":"levelo://app?vid=48209e80-70e7-44f3-a632-0018c8c70356","ios":"levelo://app?vid=48209e80-70e7-44f3-a632-0018c8c70356"},"vehicle_type_id":"4","last_reported":1781588740,"current_range_meters":4400,"station_id":"ce4bh0h2rcd13ifvqd50","pricing_plan_id":"cebpf4jnsgd1na2vs0mg"},{"bike_id":"198213cd-6c32-46ac-9299-65cb1e70e364","system_id":"levelo_inurba_marseille","lat":43.29555,"lon":5.42286,"is_reserved":false,"is_disabled":false,"rental_uris":{"android":"levelo://app?vid=198213cd-6c32-46ac-9299-65cb1e70e364","ios":"levelo://app?vid=198213cd-6c32-46ac-9299-65cb1e70e364"},"vehicle_type_id":"4","last_reported":1781588740,"current_range_meters":4400,"station_id":"ce4bhph2rcd13ifvqhdg","pricing_plan_id":"cebpf4jnsgd1na2vs0mg"},{"bike_id":"d932a5be-13d7-4c2c-8061-c002db7b6b3a","system_id":"levelo_inurba_marseille","lat":43.2838,"lon":5.45909,"is_reserved":false,"is_disabled":false,"rental_uris":{"android":"levelo://app?vid=d932a5be-13d7-4c2c-8061-c002db7b6b3a","ios":"levelo://app?vid=d932a5be-13d7-4c2c-8061-c002db7b6b3a"},"vehicle_type_id":"4","last_reported":1781588740,"current_range_meters":4400,"station_id":"","pricing_plan_id":"cebpf4jnsgd1na2vs0mg"},{"bike_id":"a8a81e65-af31-4a7d-b185-1f088073c431","system_id":"levelo_inurba_marseille","lat":43.30086,"lon":5.3909,"is_reserved":false,"is_disabled":false,"rental_uris":{"android":"levelo://app?vid=a8a81e65-af31-4a7d-b185-1f088073c431","ios":"levelo://app?vid=a8a81e65-af31-4a7d-b185-1f088073c431"},"vehicle_type_id":"4","last_reported":1781588740,"current_range_meters":4400,"station_id":"ce4bh192rcd13ifvqdb0","pricing_plan_id":"cebpf4jnsgd1na2vs0mg"},{"bike_id":"b1394792-f380-4a20-af34-7e2fd2fd9e76","system_id":"levelo_inurba_marseille","lat":43.32198,"lon":5.44029,"is_reserved":false,"is_disabled":false,"rental_uris":{"android":"levelo://app?vid=b1394792-f380-4a20-af34-7e2fd2fd9e76","ios":"levelo://app?vid=b1394792-f380-4a20-af34-7e2fd2fd9e76"},"vehicle_type_id":"4","last_reported":1781588740,"current_range_meters":4400,"station_id":"","pricing_plan_id":"cebpf4jnsgd1na2vs0mg"},{"bike_id":"9d50f63e-5200-4887-a517-fe7fb178b3b7","system_id":"levelo_inurba_marseille","lat":43.29901,"lon":5.38768,"is_reserved":false,"is_disabled":false,"rental_uris":{"android":"levelo://app?vid=9d50f63e-5200-4887-a517-fe7fb178b3b7","ios":"levelo://app?vid=9d50f63e-5200-4887-a517-fe7fb178b3b7"},"vehicle_type_id":"4","last_reported":1781588740,"current_range_meters":4400,"station_id":"","pricing_plan_id":"cebpf4jnsgd1na2vs0mg"},{"bike_id":"61192ebe-27e0-45e0-be33-ab2a7ff89581","system_id":"levelo_inurba_marseille","lat":43.31368,"lon":5.38513,"is_reserved":false,"is_disabled":false,"rental_uris":{"android":"levelo://app?vid=61192ebe-27e0-45e0-be33-ab2a7ff89581","ios":"levelo://app?vid=61192ebe-27e0-45e0-be33-ab2a7ff89581"},"vehicle_type_id":"4","last_reported":1781588740,"current_range_meters":4400,"station_id":"ce4bgt92rcd13ifvqcf0","pricing_plan_id":"cebpf4jnsgd1na2vs0mg"},{"bike_id":"2123c7ab-875f-4b38-8ccb-b36a19d2969c","system_id":"levelo_inurba_marseille","lat":43.32097,"lon":5.37508,"is_reserved":false,"is_disabled":false,"rental_uris":{"android":"levelo://app?vid=2123c7ab-875f-4b38-8ccb-b36a19d2969c","ios":"levelo://app?vid=2123c7ab-875f-4b38-8ccb-b36a19d2969c"},"vehicle_type_id":"4","last_reported":1781588740,"current_range_meters":4400,"station_id":"","pricing_plan_id":"cebpf4jnsgd1na2vs0mg"},{"bike_id":"297278de-fd5f-4616-b21c-f978459a9284","system_id":"levelo_inurba_marseille","lat":43.27614,"lon":5.36115,"is_reserved":false,"is_disabled":false,"rental_uris":{"android":"levelo://app?vid=297278de-fd5f-4616-b21c-f978459a9284","ios":"levelo://app?vid=297278de-fd5f-4616-b21c-f978459a9284"},"vehicle_type_id":"4","last_reported":1781588740,"current_range_meters":4400,"station_id":"ce4bgj92rcd13ifvqbe0","pricing_plan_id":"cebpf4jnsgd1na2vs0mg"},{"bike_id":"e2313909-b6a7-45a5-a8c8-987d11ccd375","system_id":"levelo_inurba_marseille","lat":43.23958,"lon":5.36648,"is_reserved":false,"is_disabled":false,"rental_uris":{"android":"levelo://app?vid=e2313909-b6a7-45a5-a8c8-987d11ccd375","ios":"levelo://app?vid=e2313909-b6a7-45a5-a8c8-987d11ccd375"},"vehicle_type_id":"4","last_reported":1781588740,"current_range_meters":4800,"station_id":"ce4bhi12rcd13ifvqfp0","pricing_plan_id":"cebpf4jnsgd1na2vs0mg"},{"bike_id":"a2654b81-3d87-4919-946f-74f161902ea0","system_id":"levelo_inurba_marseille","lat":43.28104,"lon":5.37857,"is_reserved":false,"is_disabled":false,"rental_uris":{"android":"levelo://app?vid=a2654b81-3d87-4919-946f-74f161902ea0","ios":"levelo://app?vid=a2654b81-3d87-4919-946f-74f161902ea0"},"vehicle_type_id":"4","last_reported":1781588740,"current_range_meters":4800,"station_id":"ce4bha12rcd13ifvqee0","pricing_plan_id":"cebpf4jnsgd1na2vs0mg"},{"bike_id":"bdde4b0c-ad7e-4733-81e7-5b2dde516d3b","system_id":"levelo_inurba_marseille","lat":43.28651,"lon":5.36346,"is_reserved":false,"is_disabled":false,"rental_uris":{"android":"levelo://app?vid=bdde4b0c-ad7e-4733-81e7-5b2dde516d3b","ios":"levelo://app?vid=bdde4b0c-ad7e-4733-81e7-5b2dde516d3b"},"vehicle_type_id":"4","last_reported":1781588740,"current_range_meters":4800,"station_id":"ce4bhah2rcd13ifvqej0","pricing_plan_id":"cebpf4jnsgd1na2vs0mg"},{"bike_id":"803266a3-0cff-47c1-a3a0-4589d8f4d2cf","system_id":"levelo_inurba_marseille","lat":43.30533,"lon":5.36547,"is_reserved":false,"is_disabled":false,"rental_uris":{"android":"levelo://app?vid=803266a3-0cff-47c1-a3a0-4589d8f4d2cf","ios":"levelo://app?vid=803266a3-0cff-47c1-a3a0-4589d8f4d2cf"},"vehicle_type_id":"4","last_reported":1781588740,"current_range_meters":4800,"station_id":"","pricing_plan_id":"cebpf4jnsgd1na2vs0mg"},{"bike_id":"e6e7c8fc-7a32-4d23-b263-ec3eec9fdffb","system_id":"levelo_inurba_marseille","lat":43.28482,"lon":5.48395,"is_reserved":false,"is_disabled":false,"rental_uris":{"android":"levelo://app?vid=e6e7c8fc-7a32-4d23-b263-ec3eec9fdffb","ios":"levelo://app?vid=e6e7c8fc-7a32-4d23-b263-ec3eec9fdffb"},"vehicle_type_id":"4","last_reported":1781588740,"current_range_meters":4800,"station_id":"st_d3svhcjqgbts73a3dn0g","pricing_plan_id":"cebpf4jnsgd1na2vs0mg"},{"bike_id":"a8690b33-2a3e-42e6-a1b4-22fc78cc9d7b","system_id":"levelo_inurba_marseille","lat":43.28656,"lon":5.36339,"is_reserved":false,"is_disabled":false,"rental_uris":{"android":"levelo://app?vid=a8690b33-2a3e-42e6-a1b4-22fc78cc9d7b","ios":"levelo://app?vid=a8690b33-2a3e-42e6-a1b4-22fc78cc9d7b"},"vehicle_type_id":"4","last_reported":1781588740,"current_range_meters":4800,"station_id":"ce4bhah2rcd13ifvqej0","pricing_plan_id":"cebpf4jnsgd1na2vs0mg"},{"bike_id":"e0feb090-02e8-435b-988a-cbd276485185","system_id":"levelo_inurba_marseille","lat":43.28477,"lon":5.38444,"is_reserved":false,"is_disabled":false,"rental_uris":{"android":"levelo://app?vid=e0feb090-02e8-435b-988a-cbd276485185","ios":"levelo://app?vid=e0feb090-02e8-435b-988a-cbd276485185"},"vehicle_type_id":"4","last_reported":1781588740,"current_range_meters":4800,"station_id":"ce4bh512rcd13ifvqe3g","pricing_plan_id":"cebpf4jnsgd1na2vs0mg"},{"bike_id":"3ee94fc0-8fea-4372-9289-fdd37c039599","system_id":"levelo_inurba_marseille","lat":43.32105,"lon":5.36777,"is_reserved":false,"is_disabled":false,"rental_uris":{"android":"levelo://app?vid=3ee94fc0-8fea-4372-9289-fdd37c039599","ios":"levelo://app?vid=3ee94fc0-8fea-4372-9289-fdd37c039599"},"vehicle_type_id":"4","last_reported":1781588740,"current_range_meters":4800,"station_id":"ce4bhrh2rcd13ifvqhug","pricing_plan_id":"cebpf4jnsgd1na2vs0mg"},{"bike_id":"6b7ced90-6d1a-4fb1-b255-5d7ae4fda32f","system_id":"levelo_inurba_marseille","lat":43.28979,"lon":5.37829,"is_reserved":false,"is_disabled":false,"rental_uris":{"android":"levelo://app?vid=6b7ced90-6d1a-4fb1-b255-5d7ae4fda32f","ios":"levelo://app?vid=6b7ced90-6d1a-4fb1-b255-5d7ae4fda32f"},"vehicle_type_id":"4","last_reported":1781588740,"current_range_meters":4800,"station_id":"ce4bh9p2rcd13ifvqed0","pricing_plan_id":"cebpf4jnsgd1na2vs0mg"},{"bike_id":"250815f4-5e6f-4a89-8b65-1ca429d80a1a","system_id":"levelo_inurba_marseille","lat":43.25816,"lon":5.39438,"is_reserved":false,"is_disabled":false,"rental_uris":{"android":"levelo://app?vid=250815f4-5e6f-4a89-8b65-1ca429d80a1a","ios":"levelo://app?vid=250815f4-5e6f-4a89-8b65-1ca429d80a1a"},"vehicle_type_id":"4","last_reported":1781588740,"current_range_meters":4800,"station_id":"ce4bhip2rcd13ifvqft0","pricing_plan_id":"cebpf4jnsgd1na2vs0mg"},{"bike_id":"f195559f-4e0d-4962-930c-43231d32b628","system_id":"levelo_inurba_marseille","lat":43.27828,"lon":5.40694,"is_reserved":false,"is_disabled":false,"rental_uris":{"android":"levelo://app?vid=f195559f-4e0d-4962-930c-43231d32b628","ios":"levelo://app?vid=f195559f-4e0d-4962-930c-43231d32b628"},"vehicle_type_id":"4","last_reported":1781588740,"current_range_meters":4800,"station_id":"ce4bhnh2rcd13ifvqgtg","pricing_plan_id":"cebpf4jnsgd1na2vs0mg"},{"bike_id":"7e03dc97-423b-46b2-828d-7f05cc89b1ad","system_id":"levelo_inurba_marseille","lat":43.29923,"lon":5.36536,"is_reserved":false,"is_disabled":false,"rental_uris":{"android":"levelo://app?vid=7e03dc97-423b-46b2-828d-7f05cc89b1ad","ios":"levelo://app?vid=7e03dc97-423b-46b2-828d-7f05cc89b1ad"},"vehicle_type_id":"4","last_reported":1781588740,"current_range_meters":4800,"station_id":"ce4bgm92rcd13ifvqbr0","pricing_plan_id":"cebpf4jnsgd1na2vs0mg"},{"bike_id":"98a7b3e7-0cc7-4f14-a206-c4c0837e0079","system_id":"levelo_inurba_marseille","lat":43.25128,"lon":5.40354,"is_reserved":false,"is_disabled":false,"rental_uris":{"android":"levelo://app?vid=98a7b3e7-0cc7-4f14-a206-c4c0837e0079","ios":"levelo://app?vid=98a7b3e7-0cc7-4f14-a206-c4c0837e0079"},"vehicle_type_id":"4","last_reported":1781588740,"current_range_meters":4800,"station_id":"ce4bhlh2rcd13ifvqgig","pricing_plan_id":"cebpf4jnsgd1na2vs0mg"},{"bike_id":"faab199b-f195-4600-9ace-1813703a26b2","system_id":"levelo_inurba_marseille","lat":43.22416,"lon":5.34753,"is_reserved":false,"is_disabled":false,"rental_uris":{"android":"levelo://app?vid=faab199b-f195-4600-9ace-1813703a26b2","ios":"levelo://app?vid=faab199b-f195-4600-9ace-1813703a26b2"},"vehicle_type_id":"4","last_reported":1781588740,"current_range_meters":4800,"station_id":"","pricing_plan_id":"cebpf4jnsgd1na2vs0mg"},{"bike_id":"c324f0c1-2267-4771-8379-c897baca7ba6","system_id":"levelo_inurba_marseille","lat":43.29592,"lon":5.38087,"is_reserved":false,"is_disabled":true,"rental_uris":{"android":"levelo://app?vid=c324f0c1-2267-4771-8379-c897baca7ba6","ios":"levelo://app?vid=c324f0c1-2267-4771-8379-c897baca7ba6"},"vehicle_type_id":"4","last_reported":1781588740,"current_range_meters":4800,"station_id":"ce4bgl12rcd13ifvqbo0","pricing_plan_id":"cebpf4jnsgd1na2vs0mg"},{"bike_id":"38d8c11f-8820-4075-87c9-d249fae0c2ec","system_id":"levelo_inurba_marseille","lat":43.28858,"lon":5.39315,"is_reserved":false,"is_disabled":true,"rental_uris":{"android":"levelo://app?vid=38d8c11f-8820-4075-87c9-d249fae0c2ec","ios":"levelo://app?vid=38d8c11f-8820-4075-87c9-d249fae0c2ec"},"vehicle_type_id":"4","last_reported":1781588740,"current_range_meters":4800,"station_id":"ce4bh2p2rcd13ifvqdi0","pricing_plan_id":"cebpf4jnsgd1na2vs0mg"},{"bike_id":"3c362e36-2f48-45f6-b66b-338f3efa190a","system_id":"levelo_inurba_marseille","lat":43.27944,"lon":5.41042,"is_reserved":false,"is_disabled":false,"rental_uris":{"android":"levelo://app?vid=3c362e36-2f48-45f6-b66b-338f3efa190a","ios":"levelo://app?vid=3c362e36-2f48-45f6-b66b-338f3efa190a"},"vehicle_type_id":"4","last_reported":1781588740,"current_range_meters":4800,"station_id":"ce4bhnp2rcd13ifvqh0g","pricing_plan_id":"cebpf4jnsgd1na2vs0mg"},{"bike_id":"7ad6749c-d621-468a-b3c9-10abd95885e0","system_id":"levelo_inurba_marseille","lat":43.22568,"lon":5.41627,"is_reserved":false,"is_disabled":false,"rental_uris":{"android":"levelo://app?vid=7ad6749c-d621-468a-b3c9-10abd95885e0","ios":"levelo://app?vid=7ad6749c-d621-468a-b3c9-10abd95885e0"},"vehicle_type_id":"4","last_reported":1781588740,"current_range_meters":5600,"station_id":"st_d2o4gvlbi1j2169b742g","pricing_plan_id":"cebpf4jnsgd1na2vs0mg"},{"bike_id":"1ab857ca-928f-44cb-9cde-1dfd221a0f9d","system_id":"levelo_inurba_marseille","lat":43.26583,"lon":5.39055,"is_reserved":false,"is_disabled":false,"rental_uris":{"android":"levelo://app?vid=1ab857ca-928f-44cb-9cde-1dfd221a0f9d","ios":"levelo://app?vid=1ab857ca-928f-44cb-9cde-1dfd221a0f9d"},"vehicle_type_id":"4","last_reported":1781588740,"current_range_meters":5600,"station_id":"ce4bhe12rcd13ifvqf30","pricing_plan_id":"cebpf4jnsgd1na2vs0mg"},{"bike_id":"c91dbe3c-f9ab-4aa2-8d6c-ffc25383acc9","system_id":"levelo_inurba_marseille","lat":43.31364,"lon":5.36699,"is_reserved":false,"is_disabled":false,"rental_uris":{"android":"levelo://app?vid=c91dbe3c-f9ab-4aa2-8d6c-ffc25383acc9","ios":"levelo://app?vid=c91dbe3c-f9ab-4aa2-8d6c-ffc25383acc9"},"vehicle_type_id":"4","last_reported":1781588740,"current_range_meters":5600,"station_id":"ce4bgr92rcd13ifvqc6g","pricing_plan_id":"cebpf4jnsgd1na2vs0mg"},{"bike_id":"b353daed-2536-46fd-8f9d-664209a11918","system_id":"levelo_inurba_marseille","lat":43.29001,"lon":5.35611,"is_reserved":false,"is_disabled":false,"rental_uris":{"android":"levelo://app?vid=b353daed-2536-46fd-8f9d-664209a11918","ios":"levelo://app?vid=b353daed-2536-46fd-8f9d-664209a11918"},"vehicle_type_id":"4","last_reported":1781588740,"current_range_meters":5600,"station_id":"ce4bhb92rcd13ifvqen0","pricing_plan_id":"cebpf4jnsgd1na2vs0mg"},{"bike_id":"d950f414-543d-474f-a5f8-1a6f6e336d39","system_id":"levelo_inurba_marseille","lat":43.25118,"lon":5.40317,"is_reserved":false,"is_disabled":false,"rental_uris":{"android":"levelo://app?vid=d950f414-543d-474f-a5f8-1a6f6e336d39","ios":"levelo://app?vid=d950f414-543d-474f-a5f8-1a6f6e336d39"},"vehicle_type_id":"4","last_reported":1781588740,"current_range_meters":5600,"station_id":"ce4bhlh2rcd13ifvqgig","pricing_plan_id":"cebpf4jnsgd1na2vs0mg"},{"bike_id":"d1fe4607-d904-483c-ab68-d6487b306366","system_id":"levelo_inurba_marseille","lat":43.27238,"lon":5.39194,"is_reserved":false,"is_disabled":true,"rental_uris":{"android":"levelo://app?vid=d1fe4607-d904-483c-ab68-d6487b306366","ios":"levelo://app?vid=d1fe4607-d904-483c-ab68-d6487b306366"},"vehicle_type_id":"4","last_reported":1781588740,"current_range_meters":5600,"station_id":"ce4bhhp2rcd13ifvqfm0","pricing_plan_id":"cebpf4jnsgd1na2vs0mg"},{"bike_id":"6a196ced-67e3-4dab-8bd0-3a8d7db0d897","system_id":"levelo_inurba_marseille","lat":43.33603,"lon":5.41022,"is_reserved":false,"is_disabled":false,"rental_uris":{"android":"levelo://app?vid=6a196ced-67e3-4dab-8bd0-3a8d7db0d897","ios":"levelo://app?vid=6a196ced-67e3-4dab-8bd0-3a8d7db0d897"},"vehicle_type_id":"4","last_reported":1781588740,"current_range_meters":5600,"station_id":"ce4bhqh2rcd13ifvqhmg","pricing_plan_id":"cebpf4jnsgd1na2vs0mg"},{"bike_id":"dd75378f-bb7c-47cd-89f2-6eeb092130cb","system_id":"levelo_inurba_marseille","lat":43.31896,"lon":5.36794,"is_reserved":false,"is_disabled":false,"rental_uris":{"android":"levelo://app?vid=dd75378f-bb7c-47cd-89f2-6eeb092130cb","ios":"levelo://app?vid=dd75378f-bb7c-47cd-89f2-6eeb092130cb"},"vehicle_type_id":"4","last_reported":1781588740,"current_range_meters":5600,"station_id":"st_d6o2h0d0559c73evc1b0","pricing_plan_id":"cebpf4jnsgd1na2vs0mg"},{"bike_id":"1066ffdb-1fb4-4374-a881-2eb6af6437b1","system_id":"levelo_inurba_marseille","lat":43.25119,"lon":5.39511,"is_reserved":false,"is_disabled":false,"rental_uris":{"android":"levelo://app?vid=1066ffdb-1fb4-4374-a881-2eb6af6437b1","ios":"levelo://app?vid=1066ffdb-1fb4-4374-a881-2eb6af6437b1"},"vehicle_type_id":"4","last_reported":1781588740,"current_range_meters":5600,"station_id":"ce4bhm12rcd13ifvqgkg","pricing_plan_id":"cebpf4jnsgd1na2vs0mg"},{"bike_id":"db41b9eb-9acb-49cf-84cd-8f9e13edc202","system_id":"levelo_inurba_marseille","lat":43.30215,"lon":5.4176,"is_reserved":false,"is_disabled":false,"rental_uris":{"android":"levelo://app?vid=db41b9eb-9acb-49cf-84cd-8f9e13edc202","ios":"levelo://app?vid=db41b9eb-9acb-49cf-84cd-8f9e13edc202"},"vehicle_type_id":"4","last_reported":1781588740,"current_range_meters":5600,"station_id":"","pricing_plan_id":"cebpf4jnsgd1na2vs0mg"},{"bike_id":"bebe8c03-9684-4d05-b9e8-5857f587d6f6","system_id":"levelo_inurba_marseille","lat":43.2916,"lon":5.38508,"is_reserved":false,"is_disabled":false,"rental_uris":{"android":"levelo://app?vid=bebe8c03-9684-4d05-b9e8-5857f587d6f6","ios":"levelo://app?vid=bebe8c03-9684-4d05-b9e8-5857f587d6f6"},"vehicle_type_id":"4","last_reported":1781588740,"current_range_meters":5600,"station_id":"","pricing_plan_id":"cebpf4jnsgd1na2vs0mg"},{"bike_id":"7305844b-fd35-4f9a-bcb2-b94a14914d46","system_id":"levelo_inurba_marseille","lat":43.23055,"lon":5.35506,"is_reserved":false,"is_disabled":false,"rental_uris":{"android":"levelo://app?vid=7305844b-fd35-4f9a-bcb2-b94a14914d46","ios":"levelo://app?vid=7305844b-fd35-4f9a-bcb2-b94a14914d46"},"vehicle_type_id":"4","last_reported":1781588740,"current_range_meters":5600,"station_id":"cpo3342slgdg3j2ifvpg","pricing_plan_id":"cebpf4jnsgd1na2vs0mg"},{"bike_id":"59c4b71c-4e3c-4d37-8150-e0595d40f81e","system_id":"levelo_inurba_marseille","lat":43.29374,"lon":5.37845,"is_reserved":false,"is_disabled":false,"rental_uris":{"android":"levelo://app?vid=59c4b71c-4e3c-4d37-8150-e0595d40f81e","ios":"levelo://app?vid=59c4b71c-4e3c-4d37-8150-e0595d40f81e"},"vehicle_type_id":"4","last_reported":1781588740,"current_range_meters":5600,"station_id":"ce4bgjh2rcd13ifvqbf0","pricing_plan_id":"cebpf4jnsgd1na2vs0mg"},{"bike_id":"bfa9cb94-9011-4a39-87ab-a819c31daaf4","system_id":"levelo_inurba_marseille","lat":43.24462,"lon":5.42534,"is_reserved":false,"is_disabled":false,"rental_uris":{"android":"levelo://app?vid=bfa9cb94-9011-4a39-87ab-a819c31daaf4","ios":"levelo://app?vid=bfa9cb94-9011-4a39-87ab-a819c31daaf4"},"vehicle_type_id":"4","last_reported":1781588740,"current_range_meters":5600,"station_id":"st_d4a3vfp97mjs738cd8kg","pricing_plan_id":"cebpf4jnsgd1na2vs0mg"},{"bike_id":"43e1faec-09da-4bd8-b276-a382d9a0bf09","system_id":"levelo_inurba_marseille","lat":43.27496,"lon":5.42444,"is_reserved":false,"is_disabled":false,"rental_uris":{"android":"levelo://app?vid=43e1faec-09da-4bd8-b276-a382d9a0bf09","ios":"levelo://app?vid=43e1faec-09da-4bd8-b276-a382d9a0bf09"},"vehicle_type_id":"4","last_reported":1781588740,"current_range_meters":5600,"station_id":"ce4bhn92rcd13ifvqgrg","pricing_plan_id":"cebpf4jnsgd1na2vs0mg"},{"bike_id":"cd06302c-11e6-4b40-8f44-7b482b32d4dc","system_id":"levelo_inurba_marseille","lat":43.31228,"lon":5.36847,"is_reserved":false,"is_disabled":true,"rental_uris":{"android":"levelo://app?vid=cd06302c-11e6-4b40-8f44-7b482b32d4dc","ios":"levelo://app?vid=cd06302c-11e6-4b40-8f44-7b482b32d4dc"},"vehicle_type_id":"4","last_reported":1781588740,"current_range_meters":5600,"station_id":"ce4bgl92rcd13ifvqbq0","pricing_plan_id":"cebpf4jnsgd1na2vs0mg"},{"bike_id":"869a35d6-4bbc-402c-864c-409fcbfc7479","system_id":"levelo_inurba_marseille","lat":43.24946,"lon":5.40497,"is_reserved":false,"is_disabled":false,"rental_uris":{"android":"levelo://app?vid=869a35d6-4bbc-402c-864c-409fcbfc7479","ios":"levelo://app?vid=869a35d6-4bbc-402c-864c-409fcbfc7479"},"vehicle_type_id":"4","last_reported":1781588740,"current_range_meters":5600,"station_id":"st_d2ngiaodas8pm72gd1h0","pricing_plan_id":"cebpf4jnsgd1na2vs0mg"},{"bike_id":"7b9ed607-3864-4ad0-957e-6065d8239210","system_id":"levelo_inurba_marseille","lat":43.30299,"lon":5.392,"is_reserved":false,"is_disabled":false,"rental_uris":{"android":"levelo://app?vid=7b9ed607-3864-4ad0-957e-6065d8239210","ios":"levelo://app?vid=7b9ed607-3864-4ad0-957e-6065d8239210"},"vehicle_type_id":"4","last_reported":1781588740,"current_range_meters":6000,"station_id":"ce4bgkh2rcd13ifvqbk0","pricing_plan_id":"cebpf4jnsgd1na2vs0mg"},{"bike_id":"b4730d5c-df75-42d5-84ec-3d7263fb3091","system_id":"levelo_inurba_marseille","lat":43.22673,"lon":5.34795,"is_reserved":false,"is_disabled":false,"rental_uris":{"android":"levelo://app?vid=b4730d5c-df75-42d5-84ec-3d7263fb3091","ios":"levelo://app?vid=b4730d5c-df75-42d5-84ec-3d7263fb3091"},"vehicle_type_id":"4","last_reported":1781588740,"current_range_meters":6000,"station_id":"","pricing_plan_id":"cebpf4jnsgd1na2vs0mg"},{"bike_id":"0a66c20d-f49a-4077-aba7-7854e3abcbe8","system_id":"levelo_inurba_marseille","lat":43.29528,"lon":5.39392,"is_reserved":false,"is_disabled":false,"rental_uris":{"android":"levelo://app?vid=0a66c20d-f49a-4077-aba7-7854e3abcbe8","ios":"levelo://app?vid=0a66c20d-f49a-4077-aba7-7854e3abcbe8"},"vehicle_type_id":"4","last_reported":1781588740,"current_range_meters":6000,"station_id":"ce4bh292rcd13ifvqdf0","pricing_plan_id":"cebpf4jnsgd1na2vs0mg"},{"bike_id":"ccff0d65-a8f7-44be-b82a-69dbb09dcdb7","system_id":"levelo_inurba_marseille","lat":43.29503,"lon":5.39417,"is_reserved":false,"is_disabled":false,"rental_uris":{"android":"levelo://app?vid=ccff0d65-a8f7-44be-b82a-69dbb09dcdb7","ios":"levelo://app?vid=ccff0d65-a8f7-44be-b82a-69dbb09dcdb7"},"vehicle_type_id":"4","last_reported":1781588740,"current_range_meters":6000,"station_id":"ce4bh292rcd13ifvqdf0","pricing_plan_id":"cebpf4jnsgd1na2vs0mg"},{"bike_id":"0305aafd-d5e8-4e07-a8e8-9496a5c25187","system_id":"levelo_inurba_marseille","lat":43.27497,"lon":5.41586,"is_reserved":false,"is_disabled":false,"rental_uris":{"android":"levelo://app?vid=0305aafd-d5e8-4e07-a8e8-9496a5c25187","ios":"levelo://app?vid=0305aafd-d5e8-4e07-a8e8-9496a5c25187"},"vehicle_type_id":"4","last_reported":1781588740,"current_range_meters":6000,"station_id":"st_d6im8g6chgec73a5pndg","pricing_plan_id":"cebpf4jnsgd1na2vs0mg"},{"bike_id":"3b6818b8-9c82-4bd3-b2a4-d38a38b4db1b","system_id":"levelo_inurba_marseille","lat":43.28178,"lon":5.42655,"is_reserved":false,"is_disabled":false,"rental_uris":{"android":"levelo://app?vid=3b6818b8-9c82-4bd3-b2a4-d38a38b4db1b","ios":"levelo://app?vid=3b6818b8-9c82-4bd3-b2a4-d38a38b4db1b"},"vehicle_type_id":"4","last_reported":1781588740,"current_range_meters":6000,"station_id":"ce4bhnh2rcd13ifvqgug","pricing_plan_id":"cebpf4jnsgd1na2vs0mg"},{"bike_id":"846efb49-dc50-4ee1-b3c8-d207b5acedf0","system_id":"levelo_inurba_marseille","lat":43.3171,"lon":5.4041,"is_reserved":false,"is_disabled":false,"rental_uris":{"android":"levelo://app?vid=846efb49-dc50-4ee1-b3c8-d207b5acedf0","ios":"levelo://app?vid=846efb49-dc50-4ee1-b3c8-d207b5acedf0"},"vehicle_type_id":"4","last_reported":1781588740,"current_range_meters":6000,"station_id":"ce4bh012rcd13ifvqd00","pricing_plan_id":"cebpf4jnsgd1na2vs0mg"},{"bike_id":"9fa2b198-91e8-4801-855e-2a4740e04268","system_id":"levelo_inurba_marseille","lat":43.2905,"lon":5.3995,"is_reserved":false,"is_disabled":false,"rental_uris":{"android":"levelo://app?vid=9fa2b198-91e8-4801-855e-2a4740e04268","ios":"levelo://app?vid=9fa2b198-91e8-4801-855e-2a4740e04268"},"vehicle_type_id":"4","last_reported":1781588740,"current_range_meters":6000,"station_id":"ce4bh392rcd13ifvqdm0","pricing_plan_id":"cebpf4jnsgd1na2vs0mg"},{"bike_id":"8ac4c1f7-a708-4f96-b505-f368096cff26","system_id":"levelo_inurba_marseille","lat":43.24395,"lon":5.37056,"is_reserved":false,"is_disabled":false,"rental_uris":{"android":"levelo://app?vid=8ac4c1f7-a708-4f96-b505-f368096cff26","ios":"levelo://app?vid=8ac4c1f7-a708-4f96-b505-f368096cff26"},"vehicle_type_id":"4","last_reported":1781588740,"current_range_meters":6000,"station_id":"ce4bhhh2rcd13ifvqfk0","pricing_plan_id":"cebpf4jnsgd1na2vs0mg"},{"bike_id":"6cbab291-c5ca-4879-8bda-0eb64a5e7303","system_id":"levelo_inurba_marseille","lat":43.24165,"lon":5.36386,"is_reserved":false,"is_disabled":false,"rental_uris":{"android":"levelo://app?vid=6cbab291-c5ca-4879-8bda-0eb64a5e7303","ios":"levelo://app?vid=6cbab291-c5ca-4879-8bda-0eb64a5e7303"},"vehicle_type_id":"4","last_reported":1781588740,"current_range_meters":6000,"station_id":"cpo36qri1sfpv3e86is0","pricing_plan_id":"cebpf4jnsgd1na2vs0mg"},{"bike_id":"f9ad348e-581c-4bfe-ae5c-69a0be30be7f","system_id":"levelo_inurba_marseille","lat":43.28442,"lon":5.37177,"is_reserved":false,"is_disabled":true,"rental_uris":{"android":"levelo://app?vid=f9ad348e-581c-4bfe-ae5c-69a0be30be7f","ios":"levelo://app?vid=f9ad348e-581c-4bfe-ae5c-69a0be30be7f"},"vehicle_type_id":"4","last_reported":1781588740,"current_range_meters":6000,"station_id":"","pricing_plan_id":"cebpf4jnsgd1na2vs0mg"},{"bike_id":"d2fa8930-45ca-4efe-b5da-57c80e13e3f6","system_id":"levelo_inurba_marseille","lat":43.27208,"lon":5.39177,"is_reserved":false,"is_disabled":false,"rental_uris":{"android":"levelo://app?vid=d2fa8930-45ca-4efe-b5da-57c80e13e3f6","ios":"levelo://app?vid=d2fa8930-45ca-4efe-b5da-57c80e13e3f6"},"vehicle_type_id":"4","last_reported":1781588740,"current_range_meters":6000,"station_id":"ce4bhhp2rcd13ifvqfm0","pricing_plan_id":"cebpf4jnsgd1na2vs0mg"},{"bike_id":"953474c1-4594-484f-9618-4b607ed58e04","system_id":"levelo_inurba_marseille","lat":43.30471,"lon":5.37905,"is_reserved":false,"is_disabled":false,"rental_uris":{"android":"levelo://app?vid=953474c1-4594-484f-9618-4b607ed58e04","ios":"levelo://app?vid=953474c1-4594-484f-9618-4b607ed58e04"},"vehicle_type_id":"4","last_reported":1781588740,"current_range_meters":6000,"station_id":"ce4bgup2rcd13ifvqcn0","pricing_plan_id":"cebpf4jnsgd1na2vs0mg"},{"bike_id":"35ca1110-c36b-4988-885e-23e0a869b5c7","system_id":"levelo_inurba_marseille","lat":43.29037,"lon":5.39964,"is_reserved":false,"is_disabled":false,"rental_uris":{"android":"levelo://app?vid=35ca1110-c36b-4988-885e-23e0a869b5c7","ios":"levelo://app?vid=35ca1110-c36b-4988-885e-23e0a869b5c7"},"vehicle_type_id":"4","last_reported":1781588740,"current_range_meters":6000,"station_id":"ce4bh392rcd13ifvqdm0","pricing_plan_id":"cebpf4jnsgd1na2vs0mg"},{"bike_id":"7b85899f-ec0e-4617-8a0e-aa86d7cef6cf","system_id":"levelo_inurba_marseille","lat":43.29008,"lon":5.36663,"is_reserved":false,"is_disabled":false,"rental_uris":{"android":"levelo://app?vid=7b85899f-ec0e-4617-8a0e-aa86d7cef6cf","ios":"levelo://app?vid=7b85899f-ec0e-4617-8a0e-aa86d7cef6cf"},"vehicle_type_id":"4","last_reported":1781588740,"current_range_meters":6000,"station_id":"","pricing_plan_id":"cebpf4jnsgd1na2vs0mg"},{"bike_id":"7cbcdbae-21eb-4d39-afa2-b1a54afd0845","system_id":"levelo_inurba_marseille","lat":43.26497,"lon":5.4074,"is_reserved":false,"is_disabled":false,"rental_uris":{"android":"levelo://app?vid=7cbcdbae-21eb-4d39-afa2-b1a54afd0845","ios":"levelo://app?vid=7cbcdbae-21eb-4d39-afa2-b1a54afd0845"},"vehicle_type_id":"4","last_reported":1781588740,"current_range_meters":6000,"station_id":"","pricing_plan_id":"cebpf4jnsgd1na2vs0mg"},{"bike_id":"4da64aaa-07c6-4e3f-a981-6e55ac68ca8b","system_id":"levelo_inurba_marseille","lat":43.28135,"lon":5.38912,"is_reserved":false,"is_disabled":false,"rental_uris":{"android":"levelo://app?vid=4da64aaa-07c6-4e3f-a981-6e55ac68ca8b","ios":"levelo://app?vid=4da64aaa-07c6-4e3f-a981-6e55ac68ca8b"},"vehicle_type_id":"4","last_reported":1781588740,"current_range_meters":6000,"station_id":"","pricing_plan_id":"cebpf4jnsgd1na2vs0mg"},{"bike_id":"85c13243-7921-4bc5-aeeb-8615f18e1cbd","system_id":"levelo_inurba_marseille","lat":43.26395,"lon":5.4105,"is_reserved":false,"is_disabled":false,"rental_uris":{"android":"levelo://app?vid=85c13243-7921-4bc5-aeeb-8615f18e1cbd","ios":"levelo://app?vid=85c13243-7921-4bc5-aeeb-8615f18e1cbd"},"vehicle_type_id":"4","last_reported":1781588740,"current_range_meters":6000,"station_id":"st_d4e5ca6na9uc73bfl5fg","pricing_plan_id":"cebpf4jnsgd1na2vs0mg"},{"bike_id":"53da42b5-a4b8-437e-9db9-6513ecaf48ca","system_id":"levelo_inurba_marseille","lat":43.30914,"lon":5.40158,"is_reserved":false,"is_disabled":false,"rental_uris":{"android":"levelo://app?vid=53da42b5-a4b8-437e-9db9-6513ecaf48ca","ios":"levelo://app?vid=53da42b5-a4b8-437e-9db9-6513ecaf48ca"},"vehicle_type_id":"4","last_reported":1781588740,"current_range_meters":6000,"station_id":"ce4bgvp2rcd13ifvqct0","pricing_plan_id":"cebpf4jnsgd1na2vs0mg"},{"bike_id":"e7ecc749-68bf-4ad3-8a4f-79ec4fe4cd36","system_id":"levelo_inurba_marseille","lat":43.30097,"lon":5.39083,"is_reserved":false,"is_disabled":false,"rental_uris":{"android":"levelo://app?vid=e7ecc749-68bf-4ad3-8a4f-79ec4fe4cd36","ios":"levelo://app?vid=e7ecc749-68bf-4ad3-8a4f-79ec4fe4cd36"},"vehicle_type_id":"4","last_reported":1781588740,"current_range_meters":6000,"station_id":"ce4bh192rcd13ifvqdb0","pricing_plan_id":"cebpf4jnsgd1na2vs0mg"},{"bike_id":"0213ac5a-1137-4629-8208-c62c36eb2c1f","system_id":"levelo_inurba_marseille","lat":43.249521,"lon":5.404873,"is_reserved":false,"is_disabled":false,"rental_uris":{"android":"levelo://app?vid=0213ac5a-1137-4629-8208-c62c36eb2c1f","ios":"levelo://app?vid=0213ac5a-1137-4629-8208-c62c36eb2c1f"},"vehicle_type_id":"4","last_reported":1781588740,"current_range_meters":6000,"station_id":"st_d2ngiaodas8pm72gd1h0","pricing_plan_id":"cebpf4jnsgd1na2vs0mg"},{"bike_id":"be6a70b7-6594-448b-8779-f0c66f7a8eda","system_id":"levelo_inurba_marseille","lat":43.30488,"lon":5.37904,"is_reserved":false,"is_disabled":false,"rental_uris":{"android":"levelo://app?vid=be6a70b7-6594-448b-8779-f0c66f7a8eda","ios":"levelo://app?vid=be6a70b7-6594-448b-8779-f0c66f7a8eda"},"vehicle_type_id":"4","last_reported":1781588740,"current_range_meters":6000,"station_id":"ce4bgup2rcd13ifvqcn0","pricing_plan_id":"cebpf4jnsgd1na2vs0mg"},{"bike_id":"92132944-91e0-4e0a-8448-3f1a1dc8d8c9","system_id":"levelo_inurba_marseille","lat":43.32518,"lon":5.38358,"is_reserved":false,"is_disabled":false,"rental_uris":{"android":"levelo://app?vid=92132944-91e0-4e0a-8448-3f1a1dc8d8c9","ios":"levelo://app?vid=92132944-91e0-4e0a-8448-3f1a1dc8d8c9"},"vehicle_type_id":"4","last_reported":1781588740,"current_range_meters":6400,"station_id":"","pricing_plan_id":"cebpf4jnsgd1na2vs0mg"},{"bike_id":"652501cd-58a0-40ec-8409-d9ad72f51281","system_id":"levelo_inurba_marseille","lat":43.30782,"lon":5.37647,"is_reserved":false,"is_disabled":true,"rental_uris":{"android":"levelo://app?vid=652501cd-58a0-40ec-8409-d9ad72f51281","ios":"levelo://app?vid=652501cd-58a0-40ec-8409-d9ad72f51281"},"vehicle_type_id":"4","last_reported":1781588740,"current_range_meters":6400,"station_id":"ce4bgv92rcd13ifvqcq0","pricing_plan_id":"cebpf4jnsgd1na2vs0mg"},{"bike_id":"0923adaf-f757-46db-81a0-15c981fb6f24","system_id":"levelo_inurba_marseille","lat":43.29785,"lon":5.3936,"is_reserved":false,"is_disabled":false,"rental_uris":{"android":"levelo://app?vid=0923adaf-f757-46db-81a0-15c981fb6f24","ios":"levelo://app?vid=0923adaf-f757-46db-81a0-15c981fb6f24"},"vehicle_type_id":"4","last_reported":1781588740,"current_range_meters":6400,"station_id":"chh1huq6cuj3fo74tm60","pricing_plan_id":"cebpf4jnsgd1na2vs0mg"},{"bike_id":"ff241622-405a-4955-937c-75f7b16cc558","system_id":"levelo_inurba_marseille","lat":43.30145,"lon":5.38084,"is_reserved":false,"is_disabled":false,"rental_uris":{"android":"levelo://app?vid=ff241622-405a-4955-937c-75f7b16cc558","ios":"levelo://app?vid=ff241622-405a-4955-937c-75f7b16cc558"},"vehicle_type_id":"4","last_reported":1781588740,"current_range_meters":6400,"station_id":"ce4bgjp2rcd13ifvqbh0","pricing_plan_id":"cebpf4jnsgd1na2vs0mg"},{"bike_id":"1e805f45-94b9-4d5c-8991-1a4dce4a5839","system_id":"levelo_inurba_marseille","lat":43.24702,"lon":5.39485,"is_reserved":false,"is_disabled":false,"rental_uris":{"android":"levelo://app?vid=1e805f45-94b9-4d5c-8991-1a4dce4a5839","ios":"levelo://app?vid=1e805f45-94b9-4d5c-8991-1a4dce4a5839"},"vehicle_type_id":"4","last_reported":1781588740,"current_range_meters":6400,"station_id":"","pricing_plan_id":"cebpf4jnsgd1na2vs0mg"},{"bike_id":"ba64b955-0d73-4058-8738-77a03cf2dc7a","system_id":"levelo_inurba_marseille","lat":43.22565,"lon":5.41618,"is_reserved":false,"is_disabled":false,"rental_uris":{"android":"levelo://app?vid=ba64b955-0d73-4058-8738-77a03cf2dc7a","ios":"levelo://app?vid=ba64b955-0d73-4058-8738-77a03cf2dc7a"},"vehicle_type_id":"4","last_reported":1781588740,"current_range_meters":6400,"station_id":"st_d2o4gvlbi1j2169b742g","pricing_plan_id":"cebpf4jnsgd1na2vs0mg"},{"bike_id":"7319f428-83b1-4eed-9619-86f9e9800683","system_id":"levelo_inurba_marseille","lat":43.28972,"lon":5.3784,"is_reserved":false,"is_disabled":false,"rental_uris":{"android":"levelo://app?vid=7319f428-83b1-4eed-9619-86f9e9800683","ios":"levelo://app?vid=7319f428-83b1-4eed-9619-86f9e9800683"},"vehicle_type_id":"4","last_reported":1781588740,"current_range_meters":6400,"station_id":"ce4bh9p2rcd13ifvqed0","pricing_plan_id":"cebpf4jnsgd1na2vs0mg"},{"bike_id":"5ba5ca3b-373f-47a4-8ede-22d92aac3721","system_id":"levelo_inurba_marseille","lat":43.28927,"lon":5.36385,"is_reserved":false,"is_disabled":true,"rental_uris":{"android":"levelo://app?vid=5ba5ca3b-373f-47a4-8ede-22d92aac3721","ios":"levelo://app?vid=5ba5ca3b-373f-47a4-8ede-22d92aac3721"},"vehicle_type_id":"4","last_reported":1781588740,"current_range_meters":6400,"station_id":"ce4bhc92rcd13ifvqetg","pricing_plan_id":"cebpf4jnsgd1na2vs0mg"},{"bike_id":"fc330720-30fd-4948-9971-1a95a83d03fc","system_id":"levelo_inurba_marseille","lat":43.27894,"lon":5.41137,"is_reserved":false,"is_disabled":false,"rental_uris":{"android":"levelo://app?vid=fc330720-30fd-4948-9971-1a95a83d03fc","ios":"levelo://app?vid=fc330720-30fd-4948-9971-1a95a83d03fc"},"vehicle_type_id":"4","last_reported":1781588740,"current_range_meters":6400,"station_id":"","pricing_plan_id":"cebpf4jnsgd1na2vs0mg"},{"bike_id":"d5508669-6646-45f6-9fa1-a09fb472fd0b","system_id":"levelo_inurba_marseille","lat":43.29196,"lon":5.393,"is_reserved":false,"is_disabled":true,"rental_uris":{"android":"levelo://app?vid=d5508669-6646-45f6-9fa1-a09fb472fd0b","ios":"levelo://app?vid=d5508669-6646-45f6-9fa1-a09fb472fd0b"},"vehicle_type_id":"4","last_reported":1781588740,"current_range_meters":6400,"station_id":"ce4bh192rcd13ifvqdd0","pricing_plan_id":"cebpf4jnsgd1na2vs0mg"},{"bike_id":"e19a2b9d-c42d-4230-8c63-3a57ee9f732d","system_id":"levelo_inurba_marseille","lat":43.28539,"lon":5.48284,"is_reserved":false,"is_disabled":false,"rental_uris":{"android":"levelo://app?vid=e19a2b9d-c42d-4230-8c63-3a57ee9f732d","ios":"levelo://app?vid=e19a2b9d-c42d-4230-8c63-3a57ee9f732d"},"vehicle_type_id":"4","last_reported":1781588740,"current_range_meters":6400,"station_id":"","pricing_plan_id":"cebpf4jnsgd1na2vs0mg"},{"bike_id":"d5391b8f-a166-430b-957f-0bcb877dd3bb","system_id":"levelo_inurba_marseille","lat":43.28731,"lon":5.36081,"is_reserved":false,"is_disabled":false,"rental_uris":{"android":"levelo://app?vid=d5391b8f-a166-430b-957f-0bcb877dd3bb","ios":"levelo://app?vid=d5391b8f-a166-430b-957f-0bcb877dd3bb"},"vehicle_type_id":"4","last_reported":1781588740,"current_range_meters":6400,"station_id":"cki0cbj6b192h4jlfktg","pricing_plan_id":"cebpf4jnsgd1na2vs0mg"},{"bike_id":"37086bdb-0b16-420e-a396-3a7db4249bc8","system_id":"levelo_inurba_marseille","lat":43.23354,"lon":5.43595,"is_reserved":false,"is_disabled":false,"rental_uris":{"android":"levelo://app?vid=37086bdb-0b16-420e-a396-3a7db4249bc8","ios":"levelo://app?vid=37086bdb-0b16-420e-a396-3a7db4249bc8"},"vehicle_type_id":"4","last_reported":1781588740,"current_range_meters":6400,"station_id":"","pricing_plan_id":"cebpf4jnsgd1na2vs0mg"},{"bike_id":"b036162c-184b-47b0-b9b2-a69688b907c3","system_id":"levelo_inurba_marseille","lat":43.29777,"lon":5.36755,"is_reserved":false,"is_disabled":false,"rental_uris":{"android":"levelo://app?vid=b036162c-184b-47b0-b9b2-a69688b907c3","ios":"levelo://app?vid=b036162c-184b-47b0-b9b2-a69688b907c3"},"vehicle_type_id":"4","last_reported":1781588740,"current_range_meters":6400,"station_id":"","pricing_plan_id":"cebpf4jnsgd1na2vs0mg"},{"bike_id":"51f745fa-3c53-461d-b870-31922a948693","system_id":"levelo_inurba_marseille","lat":43.23155,"lon":5.40466,"is_reserved":false,"is_disabled":false,"rental_uris":{"android":"levelo://app?vid=51f745fa-3c53-461d-b870-31922a948693","ios":"levelo://app?vid=51f745fa-3c53-461d-b870-31922a948693"},"vehicle_type_id":"4","last_reported":1781588740,"current_range_meters":6400,"station_id":"","pricing_plan_id":"cebpf4jnsgd1na2vs0mg"},{"bike_id":"cbebc6ee-f2ad-49d7-856d-25be310145af","system_id":"levelo_inurba_marseille","lat":43.29518,"lon":5.393994,"is_reserved":false,"is_disabled":true,"rental_uris":{"android":"levelo://app?vid=cbebc6ee-f2ad-49d7-856d-25be310145af","ios":"levelo://app?vid=cbebc6ee-f2ad-49d7-856d-25be310145af"},"vehicle_type_id":"4","last_reported":1781588740,"current_range_meters":6800,"station_id":"","pricing_plan_id":"cebpf4jnsgd1na2vs0mg"},{"bike_id":"86ee25b2-2f21-424f-9c42-98211711660b","system_id":"levelo_inurba_marseille","lat":43.23965,"lon":5.36622,"is_reserved":false,"is_disabled":false,"rental_uris":{"android":"levelo://app?vid=86ee25b2-2f21-424f-9c42-98211711660b","ios":"levelo://app?vid=86ee25b2-2f21-424f-9c42-98211711660b"},"vehicle_type_id":"4","last_reported":1781588740,"current_range_meters":6800,"station_id":"ce4bhi12rcd13ifvqfp0","pricing_plan_id":"cebpf4jnsgd1na2vs0mg"},{"bike_id":"6ece36cf-6929-4dff-95a4-0da954ae57c0","system_id":"levelo_inurba_marseille","lat":43.29639,"lon":5.37718,"is_reserved":false,"is_disabled":false,"rental_uris":{"android":"levelo://app?vid=6ece36cf-6929-4dff-95a4-0da954ae57c0","ios":"levelo://app?vid=6ece36cf-6929-4dff-95a4-0da954ae57c0"},"vehicle_type_id":"4","last_reported":1781588740,"current_range_meters":6800,"station_id":"ce4bgi92rcd13ifvqb90","pricing_plan_id":"cebpf4jnsgd1na2vs0mg"},{"bike_id":"596ce3b1-87f7-408e-8d07-41f96804a7ec","system_id":"levelo_inurba_marseille","lat":43.24546,"lon":5.41151,"is_reserved":false,"is_disabled":true,"rental_uris":{"android":"levelo://app?vid=596ce3b1-87f7-408e-8d07-41f96804a7ec","ios":"levelo://app?vid=596ce3b1-87f7-408e-8d07-41f96804a7ec"},"vehicle_type_id":"4","last_reported":1781588740,"current_range_meters":6800,"station_id":"","pricing_plan_id":"cebpf4jnsgd1na2vs0mg"},{"bike_id":"c8358c4f-314d-41c2-9d70-c9dd28e7c16d","system_id":"levelo_inurba_marseille","lat":43.33133,"lon":5.37942,"is_reserved":false,"is_disabled":false,"rental_uris":{"android":"levelo://app?vid=c8358c4f-314d-41c2-9d70-c9dd28e7c16d","ios":"levelo://app?vid=c8358c4f-314d-41c2-9d70-c9dd28e7c16d"},"vehicle_type_id":"4","last_reported":1781588740,"current_range_meters":6800,"station_id":"","pricing_plan_id":"cebpf4jnsgd1na2vs0mg"},{"bike_id":"0664e133-7b00-41bb-8bd6-5fd89c6bf821","system_id":"levelo_inurba_marseille","lat":43.27737,"lon":5.39561,"is_reserved":false,"is_disabled":false,"rental_uris":{"android":"levelo://app?vid=0664e133-7b00-41bb-8bd6-5fd89c6bf821","ios":"levelo://app?vid=0664e133-7b00-41bb-8bd6-5fd89c6bf821"},"vehicle_type_id":"4","last_reported":1781588740,"current_range_meters":6800,"station_id":"","pricing_plan_id":"cebpf4jnsgd1na2vs0mg"},{"bike_id":"10d80393-89e8-496a-b785-84aa5de118eb","system_id":"levelo_inurba_marseille","lat":43.2836,"lon":5.38109,"is_reserved":false,"is_disabled":false,"rental_uris":{"android":"levelo://app?vid=10d80393-89e8-496a-b785-84aa5de118eb","ios":"levelo://app?vid=10d80393-89e8-496a-b785-84aa5de118eb"},"vehicle_type_id":"4","last_reported":1781588740,"current_range_meters":6800,"station_id":"ce4bh412rcd13ifvqdr0","pricing_plan_id":"cebpf4jnsgd1na2vs0mg"},{"bike_id":"8c986069-cdd5-410c-97d1-d4a610b76b92","system_id":"levelo_inurba_marseille","lat":43.26174,"lon":5.37482,"is_reserved":false,"is_disabled":true,"rental_uris":{"android":"levelo://app?vid=8c986069-cdd5-410c-97d1-d4a610b76b92","ios":"levelo://app?vid=8c986069-cdd5-410c-97d1-d4a610b76b92"},"vehicle_type_id":"4","last_reported":1781588740,"current_range_meters":6800,"station_id":"ce4bhgp2rcd13ifvqfc0","pricing_plan_id":"cebpf4jnsgd1na2vs0mg"},{"bike_id":"3861b616-5645-4981-816a-dcff21df51d6","system_id":"levelo_inurba_marseille","lat":43.317282,"lon":5.423865,"is_reserved":false,"is_disabled":false,"rental_uris":{"android":"levelo://app?vid=3861b616-5645-4981-816a-dcff21df51d6","ios":"levelo://app?vid=3861b616-5645-4981-816a-dcff21df51d6"},"vehicle_type_id":"4","last_reported":1781588740,"current_range_meters":6800,"station_id":"ce4bhp92rcd13ifvqhbg","pricing_plan_id":"cebpf4jnsgd1na2vs0mg"},{"bike_id":"63fdcb2d-5b5b-4004-bf56-644258a99127","system_id":"levelo_inurba_marseille","lat":43.30121,"lon":5.43106,"is_reserved":false,"is_disabled":false,"rental_uris":{"android":"levelo://app?vid=63fdcb2d-5b5b-4004-bf56-644258a99127","ios":"levelo://app?vid=63fdcb2d-5b5b-4004-bf56-644258a99127"},"vehicle_type_id":"4","last_reported":1781588740,"current_range_meters":6800,"station_id":"st_d3js3co5814s73ftftug","pricing_plan_id":"cebpf4jnsgd1na2vs0mg"},{"bike_id":"57b07549-a96e-4ec6-b0fa-6b611c6ad420","system_id":"levelo_inurba_marseille","lat":43.32097,"lon":5.36774,"is_reserved":false,"is_disabled":false,"rental_uris":{"android":"levelo://app?vid=57b07549-a96e-4ec6-b0fa-6b611c6ad420","ios":"levelo://app?vid=57b07549-a96e-4ec6-b0fa-6b611c6ad420"},"vehicle_type_id":"4","last_reported":1781588740,"current_range_meters":6800,"station_id":"ce4bhrh2rcd13ifvqhug","pricing_plan_id":"cebpf4jnsgd1na2vs0mg"},{"bike_id":"e45cbeed-9852-4823-97d4-3d7181c5db2a","system_id":"levelo_inurba_marseille","lat":43.31995,"lon":5.38133,"is_reserved":false,"is_disabled":false,"rental_uris":{"android":"levelo://app?vid=e45cbeed-9852-4823-97d4-3d7181c5db2a","ios":"levelo://app?vid=e45cbeed-9852-4823-97d4-3d7181c5db2a"},"vehicle_type_id":"4","last_reported":1781588740,"current_range_meters":6800,"station_id":"ce4bhr12rcd13ifvqhpg","pricing_plan_id":"cebpf4jnsgd1na2vs0mg"},{"bike_id":"2aa5eac9-c087-436b-b40f-d916197fd321","system_id":"levelo_inurba_marseille","lat":43.2958,"lon":5.37518,"is_reserved":false,"is_disabled":true,"rental_uris":{"android":"levelo://app?vid=2aa5eac9-c087-436b-b40f-d916197fd321","ios":"levelo://app?vid=2aa5eac9-c087-436b-b40f-d916197fd321"},"vehicle_type_id":"4","last_reported":1781588740,"current_range_meters":6800,"station_id":"ce4bgh92rcd13ifvqb50","pricing_plan_id":"cebpf4jnsgd1na2vs0mg"},{"bike_id":"db9f8069-11de-48e2-9bee-2dcfc7c1fc26","system_id":"levelo_inurba_marseille","lat":43.29046,"lon":5.40003,"is_reserved":false,"is_disabled":false,"rental_uris":{"android":"levelo://app?vid=db9f8069-11de-48e2-9bee-2dcfc7c1fc26","ios":"levelo://app?vid=db9f8069-11de-48e2-9bee-2dcfc7c1fc26"},"vehicle_type_id":"4","last_reported":1781588740,"current_range_meters":6800,"station_id":"ce4bh392rcd13ifvqdm0","pricing_plan_id":"cebpf4jnsgd1na2vs0mg"},{"bike_id":"0cca5a1f-7507-49f7-9791-cbaeb1832311","system_id":"levelo_inurba_marseille","lat":43.24471,"lon":5.43977,"is_reserved":false,"is_disabled":false,"rental_uris":{"android":"levelo://app?vid=0cca5a1f-7507-49f7-9791-cbaeb1832311","ios":"levelo://app?vid=0cca5a1f-7507-49f7-9791-cbaeb1832311"},"vehicle_type_id":"4","last_reported":1781588740,"current_range_meters":6800,"station_id":"","pricing_plan_id":"cebpf4jnsgd1na2vs0mg"},{"bike_id":"080ae7f8-ebed-4d77-8980-50cc1035d758","system_id":"levelo_inurba_marseille","lat":43.29783,"lon":5.37613,"is_reserved":false,"is_disabled":true,"rental_uris":{"android":"levelo://app?vid=080ae7f8-ebed-4d77-8980-50cc1035d758","ios":"levelo://app?vid=080ae7f8-ebed-4d77-8980-50cc1035d758"},"vehicle_type_id":"4","last_reported":1781588740,"current_range_meters":6800,"station_id":"","pricing_plan_id":"cebpf4jnsgd1na2vs0mg"},{"bike_id":"1176e056-508b-4f45-9139-b6c669b5ab65","system_id":"levelo_inurba_marseille","lat":43.28474,"lon":5.48405,"is_reserved":false,"is_disabled":false,"rental_uris":{"android":"levelo://app?vid=1176e056-508b-4f45-9139-b6c669b5ab65","ios":"levelo://app?vid=1176e056-508b-4f45-9139-b6c669b5ab65"},"vehicle_type_id":"4","last_reported":1781588740,"current_range_meters":6800,"station_id":"st_d3svhcjqgbts73a3dn0g","pricing_plan_id":"cebpf4jnsgd1na2vs0mg"},{"bike_id":"df6a8f78-ee7d-4db1-9811-03e57c820235","system_id":"levelo_inurba_marseille","lat":43.31273,"lon":5.3688,"is_reserved":false,"is_disabled":true,"rental_uris":{"android":"levelo://app?vid=df6a8f78-ee7d-4db1-9811-03e57c820235","ios":"levelo://app?vid=df6a8f78-ee7d-4db1-9811-03e57c820235"},"vehicle_type_id":"4","last_reported":1781588740,"current_range_meters":6800,"station_id":"","pricing_plan_id":"cebpf4jnsgd1na2vs0mg"},{"bike_id":"7c03db94-6fe3-4182-abc9-1f74746d5fbd","system_id":"levelo_inurba_marseille","lat":43.30438,"lon":5.37939,"is_reserved":false,"is_disabled":true,"rental_uris":{"android":"levelo://app?vid=7c03db94-6fe3-4182-abc9-1f74746d5fbd","ios":"levelo://app?vid=7c03db94-6fe3-4182-abc9-1f74746d5fbd"},"vehicle_type_id":"4","last_reported":1781588740,"current_range_meters":6800,"station_id":"ce4bgup2rcd13ifvqcn0","pricing_plan_id":"cebpf4jnsgd1na2vs0mg"},{"bike_id":"ee17339f-9a50-4499-a870-3575b6ddb9df","system_id":"levelo_inurba_marseille","lat":43.28469,"lon":5.48459,"is_reserved":false,"is_disabled":false,"rental_uris":{"android":"levelo://app?vid=ee17339f-9a50-4499-a870-3575b6ddb9df","ios":"levelo://app?vid=ee17339f-9a50-4499-a870-3575b6ddb9df"},"vehicle_type_id":"4","last_reported":1781588740,"current_range_meters":6800,"station_id":"","pricing_plan_id":"cebpf4jnsgd1na2vs0mg"},{"bike_id":"69ff9e27-e6f4-44f6-b66f-bd4f1371d05b","system_id":"levelo_inurba_marseille","lat":43.29498,"lon":5.43303,"is_reserved":false,"is_disabled":false,"rental_uris":{"android":"levelo://app?vid=69ff9e27-e6f4-44f6-b66f-bd4f1371d05b","ios":"levelo://app?vid=69ff9e27-e6f4-44f6-b66f-bd4f1371d05b"},"vehicle_type_id":"4","last_reported":1781588740,"current_range_meters":6800,"station_id":"st_d3j5ugp08ojc73fj9d10","pricing_plan_id":"cebpf4jnsgd1na2vs0mg"},{"bike_id":"644eacd3-fcd1-49d3-9e60-c79490364449","system_id":"levelo_inurba_marseille","lat":43.32753,"lon":5.40155,"is_reserved":false,"is_disabled":false,"rental_uris":{"android":"levelo://app?vid=644eacd3-fcd1-49d3-9e60-c79490364449","ios":"levelo://app?vid=644eacd3-fcd1-49d3-9e60-c79490364449"},"vehicle_type_id":"4","last_reported":1781588740,"current_range_meters":6800,"station_id":"","pricing_plan_id":"cebpf4jnsgd1na2vs0mg"},{"bike_id":"cef80527-15e9-41fb-a6dd-d11866b7576c","system_id":"levelo_inurba_marseille","lat":43.3266,"lon":5.40987,"is_reserved":false,"is_disabled":false,"rental_uris":{"android":"levelo://app?vid=cef80527-15e9-41fb-a6dd-d11866b7576c","ios":"levelo://app?vid=cef80527-15e9-41fb-a6dd-d11866b7576c"},"vehicle_type_id":"4","last_reported":1781588740,"current_range_meters":6800,"station_id":"ce4bhpp2rcd13ifvqhgg","pricing_plan_id":"cebpf4jnsgd1na2vs0mg"},{"bike_id":"8d669742-ba70-4a28-b2b3-ed52d530f584","system_id":"levelo_inurba_marseille","lat":43.31114,"lon":5.37755,"is_reserved":false,"is_disabled":false,"rental_uris":{"android":"levelo://app?vid=8d669742-ba70-4a28-b2b3-ed52d530f584","ios":"levelo://app?vid=8d669742-ba70-4a28-b2b3-ed52d530f584"},"vehicle_type_id":"4","last_reported":1781588740,"current_range_meters":6800,"station_id":"ce4bgt92rcd13ifvqcg0","pricing_plan_id":"cebpf4jnsgd1na2vs0mg"},{"bike_id":"571280e5-6e12-4bb5-8744-82d185fa67d4","system_id":"levelo_inurba_marseille","lat":43.24671,"lon":5.38135,"is_reserved":false,"is_disabled":false,"rental_uris":{"android":"levelo://app?vid=571280e5-6e12-4bb5-8744-82d185fa67d4","ios":"levelo://app?vid=571280e5-6e12-4bb5-8744-82d185fa67d4"},"vehicle_type_id":"4","last_reported":1781588740,"current_range_meters":6800,"station_id":"ce4bhih2rcd13ifvqfr0","pricing_plan_id":"cebpf4jnsgd1na2vs0mg"},{"bike_id":"5c84af3f-18a3-4867-8dc3-b8e76a3c2346","system_id":"levelo_inurba_marseille","lat":43.26941,"lon":5.38621,"is_reserved":false,"is_disabled":true,"rental_uris":{"android":"levelo://app?vid=5c84af3f-18a3-4867-8dc3-b8e76a3c2346","ios":"levelo://app?vid=5c84af3f-18a3-4867-8dc3-b8e76a3c2346"},"vehicle_type_id":"4","last_reported":1781588740,"current_range_meters":7200,"station_id":"ce4bhh92rcd13ifvqfh0","pricing_plan_id":"cebpf4jnsgd1na2vs0mg"},{"bike_id":"47e52d70-cf70-4153-8a1c-a980e4308d72","system_id":"levelo_inurba_marseille","lat":43.28414,"lon":5.37527,"is_reserved":false,"is_disabled":false,"rental_uris":{"android":"levelo://app?vid=47e52d70-cf70-4153-8a1c-a980e4308d72","ios":"levelo://app?vid=47e52d70-cf70-4153-8a1c-a980e4308d72"},"vehicle_type_id":"4","last_reported":1781588740,"current_range_meters":7200,"station_id":"ce4bh412rcd13ifvqds0","pricing_plan_id":"cebpf4jnsgd1na2vs0mg"},{"bike_id":"8975bbfe-7692-4d21-bfe6-ffb910e52416","system_id":"levelo_inurba_marseille","lat":43.32364,"lon":5.36738,"is_reserved":false,"is_disabled":false,"rental_uris":{"android":"levelo://app?vid=8975bbfe-7692-4d21-bfe6-ffb910e52416","ios":"levelo://app?vid=8975bbfe-7692-4d21-bfe6-ffb910e52416"},"vehicle_type_id":"4","last_reported":1781588740,"current_range_meters":7200,"station_id":"ce4bhsh2rcd13ifvqi2g","pricing_plan_id":"cebpf4jnsgd1na2vs0mg"},{"bike_id":"9de48b79-dc85-40a7-801f-3b45f2116f0c","system_id":"levelo_inurba_marseille","lat":43.30886,"lon":5.37183,"is_reserved":false,"is_disabled":false,"rental_uris":{"android":"levelo://app?vid=9de48b79-dc85-40a7-801f-3b45f2116f0c","ios":"levelo://app?vid=9de48b79-dc85-40a7-801f-3b45f2116f0c"},"vehicle_type_id":"4","last_reported":1781588740,"current_range_meters":7200,"station_id":"ce4bguh2rcd13ifvqckg","pricing_plan_id":"cebpf4jnsgd1na2vs0mg"},{"bike_id":"cddad825-ea1f-4531-a7f2-5ab6b54d16e8","system_id":"levelo_inurba_marseille","lat":43.2933,"lon":5.39495,"is_reserved":false,"is_disabled":false,"rental_uris":{"android":"levelo://app?vid=cddad825-ea1f-4531-a7f2-5ab6b54d16e8","ios":"levelo://app?vid=cddad825-ea1f-4531-a7f2-5ab6b54d16e8"},"vehicle_type_id":"4","last_reported":1781588740,"current_range_meters":7200,"station_id":"","pricing_plan_id":"cebpf4jnsgd1na2vs0mg"},{"bike_id":"4bde50df-6da3-4c75-b961-168af5e4d377","system_id":"levelo_inurba_marseille","lat":43.25079,"lon":5.39512,"is_reserved":false,"is_disabled":false,"rental_uris":{"android":"levelo://app?vid=4bde50df-6da3-4c75-b961-168af5e4d377","ios":"levelo://app?vid=4bde50df-6da3-4c75-b961-168af5e4d377"},"vehicle_type_id":"4","last_reported":1781588740,"current_range_meters":7200,"station_id":"ce4bhm12rcd13ifvqgkg","pricing_plan_id":"cebpf4jnsgd1na2vs0mg"},{"bike_id":"dcd37e65-86d2-4c23-bc44-d313bfca3b08","system_id":"levelo_inurba_marseille","lat":43.30149,"lon":5.38085,"is_reserved":false,"is_disabled":true,"rental_uris":{"android":"levelo://app?vid=dcd37e65-86d2-4c23-bc44-d313bfca3b08","ios":"levelo://app?vid=dcd37e65-86d2-4c23-bc44-d313bfca3b08"},"vehicle_type_id":"4","last_reported":1781588740,"current_range_meters":7200,"station_id":"ce4bgjp2rcd13ifvqbh0","pricing_plan_id":"cebpf4jnsgd1na2vs0mg"},{"bike_id":"c633b7d6-bae2-4075-a638-e37d0fe576e2","system_id":"levelo_inurba_marseille","lat":43.31989,"lon":5.38122,"is_reserved":false,"is_disabled":false,"rental_uris":{"android":"levelo://app?vid=c633b7d6-bae2-4075-a638-e37d0fe576e2","ios":"levelo://app?vid=c633b7d6-bae2-4075-a638-e37d0fe576e2"},"vehicle_type_id":"4","last_reported":1781588740,"current_range_meters":7200,"station_id":"ce4bhr12rcd13ifvqhpg","pricing_plan_id":"cebpf4jnsgd1na2vs0mg"},{"bike_id":"21242544-9e4c-461d-8c3c-60ea61faef13","system_id":"levelo_inurba_marseille","lat":43.31769,"lon":5.38987,"is_reserved":false,"is_disabled":false,"rental_uris":{"android":"levelo://app?vid=21242544-9e4c-461d-8c3c-60ea61faef13","ios":"levelo://app?vid=21242544-9e4c-461d-8c3c-60ea61faef13"},"vehicle_type_id":"4","last_reported":1781588740,"current_range_meters":7200,"station_id":"ce4bhqp2rcd13ifvqhng","pricing_plan_id":"cebpf4jnsgd1na2vs0mg"},{"bike_id":"50a4ac47-4426-4904-9e85-894204c1b3e6","system_id":"levelo_inurba_marseille","lat":43.33765,"lon":5.37423,"is_reserved":false,"is_disabled":false,"rental_uris":{"android":"levelo://app?vid=50a4ac47-4426-4904-9e85-894204c1b3e6","ios":"levelo://app?vid=50a4ac47-4426-4904-9e85-894204c1b3e6"},"vehicle_type_id":"4","last_reported":1781588740,"current_range_meters":7200,"station_id":"","pricing_plan_id":"cebpf4jnsgd1na2vs0mg"},{"bike_id":"9a17ac7a-4779-4d8b-98a6-dcf5e41c6d29","system_id":"levelo_inurba_marseille","lat":43.23965,"lon":5.36592,"is_reserved":false,"is_disabled":false,"rental_uris":{"android":"levelo://app?vid=9a17ac7a-4779-4d8b-98a6-dcf5e41c6d29","ios":"levelo://app?vid=9a17ac7a-4779-4d8b-98a6-dcf5e41c6d29"},"vehicle_type_id":"4","last_reported":1781588740,"current_range_meters":7200,"station_id":"ce4bhi12rcd13ifvqfp0","pricing_plan_id":"cebpf4jnsgd1na2vs0mg"},{"bike_id":"d0ae3769-a570-47cd-9737-5c2f4f751edc","system_id":"levelo_inurba_marseille","lat":43.28484,"lon":5.38425,"is_reserved":false,"is_disabled":false,"rental_uris":{"android":"levelo://app?vid=d0ae3769-a570-47cd-9737-5c2f4f751edc","ios":"levelo://app?vid=d0ae3769-a570-47cd-9737-5c2f4f751edc"},"vehicle_type_id":"4","last_reported":1781588740,"current_range_meters":7200,"station_id":"ce4bh512rcd13ifvqe3g","pricing_plan_id":"cebpf4jnsgd1na2vs0mg"},{"bike_id":"7341ee7e-6d78-4a29-a19a-ec1d7703e2d7","system_id":"levelo_inurba_marseille","lat":43.30833,"lon":5.38156,"is_reserved":false,"is_disabled":false,"rental_uris":{"android":"levelo://app?vid=7341ee7e-6d78-4a29-a19a-ec1d7703e2d7","ios":"levelo://app?vid=7341ee7e-6d78-4a29-a19a-ec1d7703e2d7"},"vehicle_type_id":"4","last_reported":1781588740,"current_range_meters":7200,"station_id":"ce4bgt12rcd13ifvqce0","pricing_plan_id":"cebpf4jnsgd1na2vs0mg"},{"bike_id":"58ab759b-6ef3-4408-ad4e-4a57b53108cb","system_id":"levelo_inurba_marseille","lat":43.28938,"lon":5.36639,"is_reserved":false,"is_disabled":false,"rental_uris":{"android":"levelo://app?vid=58ab759b-6ef3-4408-ad4e-4a57b53108cb","ios":"levelo://app?vid=58ab759b-6ef3-4408-ad4e-4a57b53108cb"},"vehicle_type_id":"4","last_reported":1781588740,"current_range_meters":7200,"station_id":"ce4bhap2rcd13ifvqek0","pricing_plan_id":"cebpf4jnsgd1na2vs0mg"},{"bike_id":"5ce77182-f668-46c3-bfa9-6ac47f854ff1","system_id":"levelo_inurba_marseille","lat":43.31319,"lon":5.39698,"is_reserved":false,"is_disabled":false,"rental_uris":{"android":"levelo://app?vid=5ce77182-f668-46c3-bfa9-6ac47f854ff1","ios":"levelo://app?vid=5ce77182-f668-46c3-bfa9-6ac47f854ff1"},"vehicle_type_id":"4","last_reported":1781588740,"current_range_meters":7200,"station_id":"ce4bgvp2rcd13ifvqcu0","pricing_plan_id":"cebpf4jnsgd1na2vs0mg"},{"bike_id":"68acd689-fc00-43db-b9b8-a4b3de2031e5","system_id":"levelo_inurba_marseille","lat":43.28607,"lon":5.39894,"is_reserved":false,"is_disabled":false,"rental_uris":{"android":"levelo://app?vid=68acd689-fc00-43db-b9b8-a4b3de2031e5","ios":"levelo://app?vid=68acd689-fc00-43db-b9b8-a4b3de2031e5"},"vehicle_type_id":"4","last_reported":1781588740,"current_range_meters":7200,"station_id":"ce4bho92rcd13ifvqh3g","pricing_plan_id":"cebpf4jnsgd1na2vs0mg"},{"bike_id":"dd33fe62-4196-4497-9c18-a047c29ff1fd","system_id":"levelo_inurba_marseille","lat":43.29876,"lon":5.38921,"is_reserved":false,"is_disabled":true,"rental_uris":{"android":"levelo://app?vid=dd33fe62-4196-4497-9c18-a047c29ff1fd","ios":"levelo://app?vid=dd33fe62-4196-4497-9c18-a047c29ff1fd"},"vehicle_type_id":"4","last_reported":1781588740,"current_range_meters":7200,"station_id":"ce4bh392rcd13ifvqdl0","pricing_plan_id":"cebpf4jnsgd1na2vs0mg"},{"bike_id":"5a0dedb4-a769-44a1-883a-df428120e726","system_id":"levelo_inurba_marseille","lat":43.30066,"lon":5.40101,"is_reserved":false,"is_disabled":false,"rental_uris":{"android":"levelo://app?vid=5a0dedb4-a769-44a1-883a-df428120e726","ios":"levelo://app?vid=5a0dedb4-a769-44a1-883a-df428120e726"},"vehicle_type_id":"4","last_reported":1781588740,"current_range_meters":7200,"station_id":"","pricing_plan_id":"cebpf4jnsgd1na2vs0mg"},{"bike_id":"55284478-6c38-4211-8eb3-3e942febd525","system_id":"levelo_inurba_marseille","lat":43.28705,"lon":5.46674,"is_reserved":false,"is_disabled":false,"rental_uris":{"android":"levelo://app?vid=55284478-6c38-4211-8eb3-3e942febd525","ios":"levelo://app?vid=55284478-6c38-4211-8eb3-3e942febd525"},"vehicle_type_id":"4","last_reported":1781588740,"current_range_meters":7200,"station_id":"st_d6tc3vkotcvc738tfjhg","pricing_plan_id":"cebpf4jnsgd1na2vs0mg"},{"bike_id":"af1b3a4b-2825-40b9-94fc-904b7df48800","system_id":"levelo_inurba_marseille","lat":43.27921,"lon":5.41038,"is_reserved":false,"is_disabled":false,"rental_uris":{"android":"levelo://app?vid=af1b3a4b-2825-40b9-94fc-904b7df48800","ios":"levelo://app?vid=af1b3a4b-2825-40b9-94fc-904b7df48800"},"vehicle_type_id":"4","last_reported":1781588740,"current_range_meters":7200,"station_id":"ce4bhnp2rcd13ifvqh0g","pricing_plan_id":"cebpf4jnsgd1na2vs0mg"},{"bike_id":"e725fb96-64c2-456e-90f8-94d3c6a5a556","system_id":"levelo_inurba_marseille","lat":43.2902,"lon":5.38137,"is_reserved":false,"is_disabled":false,"rental_uris":{"android":"levelo://app?vid=e725fb96-64c2-456e-90f8-94d3c6a5a556","ios":"levelo://app?vid=e725fb96-64c2-456e-90f8-94d3c6a5a556"},"vehicle_type_id":"4","last_reported":1781588740,"current_range_meters":8000,"station_id":"ce4bh4p2rcd13ifvqe1g","pricing_plan_id":"cebpf4jnsgd1na2vs0mg"},{"bike_id":"08fa2fe4-76a4-4e56-97b7-8d2e6cad8c69","system_id":"levelo_inurba_marseille","lat":43.29,"lon":5.35619,"is_reserved":false,"is_disabled":true,"rental_uris":{"android":"levelo://app?vid=08fa2fe4-76a4-4e56-97b7-8d2e6cad8c69","ios":"levelo://app?vid=08fa2fe4-76a4-4e56-97b7-8d2e6cad8c69"},"vehicle_type_id":"4","last_reported":1781588740,"current_range_meters":8000,"station_id":"ce4bhb92rcd13ifvqen0","pricing_plan_id":"cebpf4jnsgd1na2vs0mg"},{"bike_id":"1d879e3a-cfd6-40f8-8ac4-1a5d2e9e827d","system_id":"levelo_inurba_marseille","lat":43.30805,"lon":5.38171,"is_reserved":false,"is_disabled":false,"rental_uris":{"android":"levelo://app?vid=1d879e3a-cfd6-40f8-8ac4-1a5d2e9e827d","ios":"levelo://app?vid=1d879e3a-cfd6-40f8-8ac4-1a5d2e9e827d"},"vehicle_type_id":"4","last_reported":1781588740,"current_range_meters":8000,"station_id":"ce4bgt12rcd13ifvqce0","pricing_plan_id":"cebpf4jnsgd1na2vs0mg"},{"bike_id":"3f1e297d-55bd-4cd9-bf63-bfc3f5a86811","system_id":"levelo_inurba_marseille","lat":43.29991,"lon":5.37868,"is_reserved":false,"is_disabled":false,"rental_uris":{"android":"levelo://app?vid=3f1e297d-55bd-4cd9-bf63-bfc3f5a86811","ios":"levelo://app?vid=3f1e297d-55bd-4cd9-bf63-bfc3f5a86811"},"vehicle_type_id":"4","last_reported":1781588740,"current_range_meters":8000,"station_id":"","pricing_plan_id":"cebpf4jnsgd1na2vs0mg"},{"bike_id":"0d47df3b-4995-4e80-8da4-22ff6a9c5e86","system_id":"levelo_inurba_marseille","lat":43.25873,"lon":5.39892,"is_reserved":false,"is_disabled":false,"rental_uris":{"android":"levelo://app?vid=0d47df3b-4995-4e80-8da4-22ff6a9c5e86","ios":"levelo://app?vid=0d47df3b-4995-4e80-8da4-22ff6a9c5e86"},"vehicle_type_id":"4","last_reported":1781588740,"current_range_meters":8000,"station_id":"ce4bhl92rcd13ifvqghg","pricing_plan_id":"cebpf4jnsgd1na2vs0mg"},{"bike_id":"3e0db31d-6c43-49e6-9e36-c0830e3b11a1","system_id":"levelo_inurba_marseille","lat":43.32351,"lon":5.36738,"is_reserved":false,"is_disabled":false,"rental_uris":{"android":"levelo://app?vid=3e0db31d-6c43-49e6-9e36-c0830e3b11a1","ios":"levelo://app?vid=3e0db31d-6c43-49e6-9e36-c0830e3b11a1"},"vehicle_type_id":"4","last_reported":1781588740,"current_range_meters":8000,"station_id":"ce4bhsh2rcd13ifvqi2g","pricing_plan_id":"cebpf4jnsgd1na2vs0mg"},{"bike_id":"9c9ec257-924a-4845-b988-b86db7358df0","system_id":"levelo_inurba_marseille","lat":43.29785,"lon":5.381,"is_reserved":false,"is_disabled":false,"rental_uris":{"android":"levelo://app?vid=9c9ec257-924a-4845-b988-b86db7358df0","ios":"levelo://app?vid=9c9ec257-924a-4845-b988-b86db7358df0"},"vehicle_type_id":"4","last_reported":1781588740,"current_range_meters":8000,"station_id":"ce4bgip2rcd13ifvqbb0","pricing_plan_id":"cebpf4jnsgd1na2vs0mg"},{"bike_id":"63c1cc80-26eb-4316-ac5a-c4cbb05fbdb4","system_id":"levelo_inurba_marseille","lat":43.28474,"lon":5.48392,"is_reserved":false,"is_disabled":false,"rental_uris":{"android":"levelo://app?vid=63c1cc80-26eb-4316-ac5a-c4cbb05fbdb4","ios":"levelo://app?vid=63c1cc80-26eb-4316-ac5a-c4cbb05fbdb4"},"vehicle_type_id":"4","last_reported":1781588740,"current_range_meters":8000,"station_id":"st_d3svhcjqgbts73a3dn0g","pricing_plan_id":"cebpf4jnsgd1na2vs0mg"},{"bike_id":"66d88993-b537-41ec-811e-acaa1552fd79","system_id":"levelo_inurba_marseille","lat":43.28712,"lon":5.39988,"is_reserved":false,"is_disabled":false,"rental_uris":{"android":"levelo://app?vid=66d88993-b537-41ec-811e-acaa1552fd79","ios":"levelo://app?vid=66d88993-b537-41ec-811e-acaa1552fd79"},"vehicle_type_id":"4","last_reported":1781588740,"current_range_meters":8000,"station_id":"ce4bho92rcd13ifvqh3g","pricing_plan_id":"cebpf4jnsgd1na2vs0mg"},{"bike_id":"0ad9cf6b-2531-4ff3-b68b-8f70ae4727ed","system_id":"levelo_inurba_marseille","lat":43.28366,"lon":5.38632,"is_reserved":false,"is_disabled":false,"rental_uris":{"android":"levelo://app?vid=0ad9cf6b-2531-4ff3-b68b-8f70ae4727ed","ios":"levelo://app?vid=0ad9cf6b-2531-4ff3-b68b-8f70ae4727ed"},"vehicle_type_id":"4","last_reported":1781588740,"current_range_meters":8000,"station_id":"ce4bh492rcd13ifvqdvg","pricing_plan_id":"cebpf4jnsgd1na2vs0mg"},{"bike_id":"a75f7f80-a470-41cb-ac6f-6abc7358bddc","system_id":"levelo_inurba_marseille","lat":43.24684,"lon":5.3813,"is_reserved":false,"is_disabled":false,"rental_uris":{"android":"levelo://app?vid=a75f7f80-a470-41cb-ac6f-6abc7358bddc","ios":"levelo://app?vid=a75f7f80-a470-41cb-ac6f-6abc7358bddc"},"vehicle_type_id":"4","last_reported":1781588740,"current_range_meters":8000,"station_id":"ce4bhih2rcd13ifvqfr0","pricing_plan_id":"cebpf4jnsgd1na2vs0mg"},{"bike_id":"c30ae016-4834-496e-b8ac-bfe62c120025","system_id":"levelo_inurba_marseille","lat":43.24458,"lon":5.42543,"is_reserved":false,"is_disabled":false,"rental_uris":{"android":"levelo://app?vid=c30ae016-4834-496e-b8ac-bfe62c120025","ios":"levelo://app?vid=c30ae016-4834-496e-b8ac-bfe62c120025"},"vehicle_type_id":"4","last_reported":1781588740,"current_range_meters":8000,"station_id":"st_d4a3vfp97mjs738cd8kg","pricing_plan_id":"cebpf4jnsgd1na2vs0mg"},{"bike_id":"574d1002-3801-4f0f-93f3-afd198211729","system_id":"levelo_inurba_marseille","lat":43.31078,"lon":5.42437,"is_reserved":false,"is_disabled":true,"rental_uris":{"android":"levelo://app?vid=574d1002-3801-4f0f-93f3-afd198211729","ios":"levelo://app?vid=574d1002-3801-4f0f-93f3-afd198211729"},"vehicle_type_id":"4","last_reported":1781588740,"current_range_meters":8000,"station_id":"ce4bhp92rcd13ifvqhag","pricing_plan_id":"cebpf4jnsgd1na2vs0mg"},{"bike_id":"1d66768f-2869-4826-adb3-e04e46e8f715","system_id":"levelo_inurba_marseille","lat":43.3355,"lon":5.37461,"is_reserved":false,"is_disabled":false,"rental_uris":{"android":"levelo://app?vid=1d66768f-2869-4826-adb3-e04e46e8f715","ios":"levelo://app?vid=1d66768f-2869-4826-adb3-e04e46e8f715"},"vehicle_type_id":"4","last_reported":1781588740,"current_range_meters":8000,"station_id":"st_d46tts09ee8s73dlu43g","pricing_plan_id":"cebpf4jnsgd1na2vs0mg"},{"bike_id":"30b0c986-9a38-4eaa-8e67-5bc71ee92d28","system_id":"levelo_inurba_marseille","lat":43.24069,"lon":5.37762,"is_reserved":false,"is_disabled":false,"rental_uris":{"android":"levelo://app?vid=30b0c986-9a38-4eaa-8e67-5bc71ee92d28","ios":"levelo://app?vid=30b0c986-9a38-4eaa-8e67-5bc71ee92d28"},"vehicle_type_id":"4","last_reported":1781588740,"current_range_meters":8000,"station_id":"ce4bhnp2rcd13ifvqgvg","pricing_plan_id":"cebpf4jnsgd1na2vs0mg"},{"bike_id":"abc92aa8-b9f3-42af-a8f9-a92a8b068ce5","system_id":"levelo_inurba_marseille","lat":43.31352,"lon":5.3851,"is_reserved":false,"is_disabled":false,"rental_uris":{"android":"levelo://app?vid=abc92aa8-b9f3-42af-a8f9-a92a8b068ce5","ios":"levelo://app?vid=abc92aa8-b9f3-42af-a8f9-a92a8b068ce5"},"vehicle_type_id":"4","last_reported":1781588740,"current_range_meters":8000,"station_id":"ce4bgt92rcd13ifvqcf0","pricing_plan_id":"cebpf4jnsgd1na2vs0mg"},{"bike_id":"5786c557-9560-4a10-93e8-f8d4cebf391f","system_id":"levelo_inurba_marseille","lat":43.25073,"lon":5.39544,"is_reserved":false,"is_disabled":false,"rental_uris":{"android":"levelo://app?vid=5786c557-9560-4a10-93e8-f8d4cebf391f","ios":"levelo://app?vid=5786c557-9560-4a10-93e8-f8d4cebf391f"},"vehicle_type_id":"4","last_reported":1781588740,"current_range_meters":8000,"station_id":"ce4bhm12rcd13ifvqgkg","pricing_plan_id":"cebpf4jnsgd1na2vs0mg"},{"bike_id":"24ab2018-e47d-455c-a0b0-f6a54ae21bcc","system_id":"levelo_inurba_marseille","lat":43.27781,"lon":5.40737,"is_reserved":false,"is_disabled":true,"rental_uris":{"android":"levelo://app?vid=24ab2018-e47d-455c-a0b0-f6a54ae21bcc","ios":"levelo://app?vid=24ab2018-e47d-455c-a0b0-f6a54ae21bcc"},"vehicle_type_id":"4","last_reported":1781588740,"current_range_meters":8000,"station_id":"ce4bhnh2rcd13ifvqgtg","pricing_plan_id":"cebpf4jnsgd1na2vs0mg"},{"bike_id":"280d03f8-d509-4ce9-a1b8-8667ebb7e127","system_id":"levelo_inurba_marseille","lat":43.25873,"lon":5.38855,"is_reserved":false,"is_disabled":false,"rental_uris":{"android":"levelo://app?vid=280d03f8-d509-4ce9-a1b8-8667ebb7e127","ios":"levelo://app?vid=280d03f8-d509-4ce9-a1b8-8667ebb7e127"},"vehicle_type_id":"4","last_reported":1781588740,"current_range_meters":8000,"station_id":"","pricing_plan_id":"cebpf4jnsgd1na2vs0mg"},{"bike_id":"e18f4c88-bd99-4150-b117-3bdadd746841","system_id":"levelo_inurba_marseille","lat":43.28706,"lon":5.46695,"is_reserved":false,"is_disabled":false,"rental_uris":{"android":"levelo://app?vid=e18f4c88-bd99-4150-b117-3bdadd746841","ios":"levelo://app?vid=e18f4c88-bd99-4150-b117-3bdadd746841"},"vehicle_type_id":"4","last_reported":1781588740,"current_range_meters":8000,"station_id":"st_d6tc3vkotcvc738tfjhg","pricing_plan_id":"cebpf4jnsgd1na2vs0mg"},{"bike_id":"a29a9be5-d99a-4063-bfff-335656b7e8b5","system_id":"levelo_inurba_marseille","lat":43.28599,"lon":5.39887,"is_reserved":false,"is_disabled":false,"rental_uris":{"android":"levelo://app?vid=a29a9be5-d99a-4063-bfff-335656b7e8b5","ios":"levelo://app?vid=a29a9be5-d99a-4063-bfff-335656b7e8b5"},"vehicle_type_id":"4","last_reported":1781588740,"current_range_meters":8000,"station_id":"st_d4a7ka997mjs738ck50g","pricing_plan_id":"cebpf4jnsgd1na2vs0mg"},{"bike_id":"3a46714c-439b-4ccd-bcaf-8bab07093116","system_id":"levelo_inurba_marseille","lat":43.28543,"lon":5.38505,"is_reserved":false,"is_disabled":false,"rental_uris":{"android":"levelo://app?vid=3a46714c-439b-4ccd-bcaf-8bab07093116","ios":"levelo://app?vid=3a46714c-439b-4ccd-bcaf-8bab07093116"},"vehicle_type_id":"4","last_reported":1781588740,"current_range_meters":8000,"station_id":"","pricing_plan_id":"cebpf4jnsgd1na2vs0mg"},{"bike_id":"57a964d9-4642-433e-a5ba-e93ac3d8b94c","system_id":"levelo_inurba_marseille","lat":43.2993,"lon":5.36508,"is_reserved":false,"is_disabled":true,"rental_uris":{"android":"levelo://app?vid=57a964d9-4642-433e-a5ba-e93ac3d8b94c","ios":"levelo://app?vid=57a964d9-4642-433e-a5ba-e93ac3d8b94c"},"vehicle_type_id":"4","last_reported":1781588740,"current_range_meters":8000,"station_id":"ce4bgm92rcd13ifvqbr0","pricing_plan_id":"cebpf4jnsgd1na2vs0mg"},{"bike_id":"6dd7a66f-91da-44f0-bc59-3790f3629b34","system_id":"levelo_inurba_marseille","lat":43.27079,"lon":5.42261,"is_reserved":false,"is_disabled":false,"rental_uris":{"android":"levelo://app?vid=6dd7a66f-91da-44f0-bc59-3790f3629b34","ios":"levelo://app?vid=6dd7a66f-91da-44f0-bc59-3790f3629b34"},"vehicle_type_id":"4","last_reported":1781588740,"current_range_meters":8000,"station_id":"ce4bhk92rcd13ifvqgb0","pricing_plan_id":"cebpf4jnsgd1na2vs0mg"},{"bike_id":"4b5426be-9611-4d02-918d-053e1cce99b9","system_id":"levelo_inurba_marseille","lat":43.26378,"lon":5.41053,"is_reserved":false,"is_disabled":false,"rental_uris":{"android":"levelo://app?vid=4b5426be-9611-4d02-918d-053e1cce99b9","ios":"levelo://app?vid=4b5426be-9611-4d02-918d-053e1cce99b9"},"vehicle_type_id":"4","last_reported":1781588740,"current_range_meters":8400,"station_id":"st_d4e5ca6na9uc73bfl5fg","pricing_plan_id":"cebpf4jnsgd1na2vs0mg"},{"bike_id":"d1a71da9-9b42-4e6c-825f-93adbdce2249","system_id":"levelo_inurba_marseille","lat":43.30883,"lon":5.372,"is_reserved":false,"is_disabled":true,"rental_uris":{"android":"levelo://app?vid=d1a71da9-9b42-4e6c-825f-93adbdce2249","ios":"levelo://app?vid=d1a71da9-9b42-4e6c-825f-93adbdce2249"},"vehicle_type_id":"4","last_reported":1781588740,"current_range_meters":8400,"station_id":"ce4bguh2rcd13ifvqckg","pricing_plan_id":"cebpf4jnsgd1na2vs0mg"},{"bike_id":"127580f5-e6a8-4149-998c-37af1527c40a","system_id":"levelo_inurba_marseille","lat":43.27196,"lon":5.40984,"is_reserved":false,"is_disabled":false,"rental_uris":{"android":"levelo://app?vid=127580f5-e6a8-4149-998c-37af1527c40a","ios":"levelo://app?vid=127580f5-e6a8-4149-998c-37af1527c40a"},"vehicle_type_id":"4","last_reported":1781588740,"current_range_meters":8400,"station_id":"ce4bhl12rcd13ifvqgf0","pricing_plan_id":"cebpf4jnsgd1na2vs0mg"},{"bike_id":"bbacbbb1-2394-40bd-9832-5b78a6947353","system_id":"levelo_inurba_marseille","lat":43.29807,"lon":5.40411,"is_reserved":false,"is_disabled":true,"rental_uris":{"android":"levelo://app?vid=bbacbbb1-2394-40bd-9832-5b78a6947353","ios":"levelo://app?vid=bbacbbb1-2394-40bd-9832-5b78a6947353"},"vehicle_type_id":"4","last_reported":1781588740,"current_range_meters":8400,"station_id":"ce4bh112rcd13ifvqd90","pricing_plan_id":"cebpf4jnsgd1na2vs0mg"},{"bike_id":"4599021c-30ad-4517-b8f7-7f87fe21393f","system_id":"levelo_inurba_marseille","lat":43.31518,"lon":5.40067,"is_reserved":false,"is_disabled":false,"rental_uris":{"android":"levelo://app?vid=4599021c-30ad-4517-b8f7-7f87fe21393f","ios":"levelo://app?vid=4599021c-30ad-4517-b8f7-7f87fe21393f"},"vehicle_type_id":"4","last_reported":1781588740,"current_range_meters":8400,"station_id":"","pricing_plan_id":"cebpf4jnsgd1na2vs0mg"},{"bike_id":"87846115-8400-498e-8cf7-6c0620a731ea","system_id":"levelo_inurba_marseille","lat":43.2846,"lon":5.48383,"is_reserved":false,"is_disabled":false,"rental_uris":{"android":"levelo://app?vid=87846115-8400-498e-8cf7-6c0620a731ea","ios":"levelo://app?vid=87846115-8400-498e-8cf7-6c0620a731ea"},"vehicle_type_id":"4","last_reported":1781588740,"current_range_meters":8400,"station_id":"st_d3svhcjqgbts73a3dn0g","pricing_plan_id":"cebpf4jnsgd1na2vs0mg"},{"bike_id":"ffec8027-4906-403f-bdd8-34cc0ba0ce02","system_id":"levelo_inurba_marseille","lat":43.29024,"lon":5.40004,"is_reserved":false,"is_disabled":false,"rental_uris":{"android":"levelo://app?vid=ffec8027-4906-403f-bdd8-34cc0ba0ce02","ios":"levelo://app?vid=ffec8027-4906-403f-bdd8-34cc0ba0ce02"},"vehicle_type_id":"4","last_reported":1781588740,"current_range_meters":8400,"station_id":"ce4bh392rcd13ifvqdm0","pricing_plan_id":"cebpf4jnsgd1na2vs0mg"},{"bike_id":"9b731127-cac9-414d-8e50-2b136f1bab0d","system_id":"levelo_inurba_marseille","lat":43.30264,"lon":5.40053,"is_reserved":false,"is_disabled":false,"rental_uris":{"android":"levelo://app?vid=9b731127-cac9-414d-8e50-2b136f1bab0d","ios":"levelo://app?vid=9b731127-cac9-414d-8e50-2b136f1bab0d"},"vehicle_type_id":"4","last_reported":1781588740,"current_range_meters":8400,"station_id":"ce4bgvh2rcd13ifvqcs0","pricing_plan_id":"cebpf4jnsgd1na2vs0mg"},{"bike_id":"779a3112-4608-475e-bcad-71e35d676d18","system_id":"levelo_inurba_marseille","lat":43.29897,"lon":5.38167,"is_reserved":false,"is_disabled":true,"rental_uris":{"android":"levelo://app?vid=779a3112-4608-475e-bcad-71e35d676d18","ios":"levelo://app?vid=779a3112-4608-475e-bcad-71e35d676d18"},"vehicle_type_id":"4","last_reported":1781588740,"current_range_meters":8400,"station_id":"ce4bgj12rcd13ifvqbc0","pricing_plan_id":"cebpf4jnsgd1na2vs0mg"},{"bike_id":"0560a502-2a60-4cee-addc-a009dbfdcf16","system_id":"levelo_inurba_marseille","lat":43.231966,"lon":5.355541,"is_reserved":false,"is_disabled":false,"rental_uris":{"android":"levelo://app?vid=0560a502-2a60-4cee-addc-a009dbfdcf16","ios":"levelo://app?vid=0560a502-2a60-4cee-addc-a009dbfdcf16"},"vehicle_type_id":"4","last_reported":1781588740,"current_range_meters":8400,"station_id":"ce4bhu92rcd13ifvqi70","pricing_plan_id":"cebpf4jnsgd1na2vs0mg"},{"bike_id":"4d8c51f0-5780-4dc0-8aca-97fafb11355d","system_id":"levelo_inurba_marseille","lat":43.25934,"lon":5.40899,"is_reserved":false,"is_disabled":false,"rental_uris":{"android":"levelo://app?vid=4d8c51f0-5780-4dc0-8aca-97fafb11355d","ios":"levelo://app?vid=4d8c51f0-5780-4dc0-8aca-97fafb11355d"},"vehicle_type_id":"4","last_reported":1781588740,"current_range_meters":8400,"station_id":"ce4bhm92rcd13ifvqglg","pricing_plan_id":"cebpf4jnsgd1na2vs0mg"},{"bike_id":"2f566132-1c9a-451f-b0d4-03be1c3482a0","system_id":"levelo_inurba_marseille","lat":43.24459,"lon":5.42549,"is_reserved":false,"is_disabled":false,"rental_uris":{"android":"levelo://app?vid=2f566132-1c9a-451f-b0d4-03be1c3482a0","ios":"levelo://app?vid=2f566132-1c9a-451f-b0d4-03be1c3482a0"},"vehicle_type_id":"4","last_reported":1781588740,"current_range_meters":8400,"station_id":"st_d4a3vfp97mjs738cd8kg","pricing_plan_id":"cebpf4jnsgd1na2vs0mg"},