{"last_updated":1758380884,"ttl":60,"version":"2.2","data":{"bikes":[{"bike_id":"2366a041-a76d-4495-92d8-c4e68f651c35","system_id":"levelo_inurba_marseille","lat":43.2894,"lon":5.39625,"is_reserved":false,"is_disabled":false,"rental_uris":{"android":"levelo://app?vid=2366a041-a76d-4495-92d8-c4e68f651c35","ios":"levelo://app?vid=2366a041-a76d-4495-92d8-c4e68f651c35"},"vehicle_type_id":"4","last_reported":1758380884,"current_range_meters":2000,"station_id":"ce4bh3h2rcd13ifvqdn0","pricing_plan_id":"cebpf4jnsgd1na2vs0mg"},{"bike_id":"57420cba-991e-4b93-a784-b6887c985f9d","system_id":"levelo_inurba_marseille","lat":43.2319,"lon":5.35554,"is_reserved":false,"is_disabled":false,"rental_uris":{"android":"levelo://app?vid=57420cba-991e-4b93-a784-b6887c985f9d","ios":"levelo://app?vid=57420cba-991e-4b93-a784-b6887c985f9d"},"vehicle_type_id":"4","last_reported":1758380884,"current_range_meters":2800,"station_id":"ce4bhu92rcd13ifvqi70","pricing_plan_id":"cebpf4jnsgd1na2vs0mg"},{"bike_id":"30186df0-539b-425c-b922-ba6bdf133f9b","system_id":"levelo_inurba_marseille","lat":43.28275,"lon":5.35057,"is_reserved":false,"is_disabled":false,"rental_uris":{"android":"levelo://app?vid=30186df0-539b-425c-b922-ba6bdf133f9b","ios":"levelo://app?vid=30186df0-539b-425c-b922-ba6bdf133f9b"},"vehicle_type_id":"4","last_reported":1758380884,"current_range_meters":2800,"station_id":"ce4bhbp2rcd13ifvqerg","pricing_plan_id":"cebpf4jnsgd1na2vs0mg"},{"bike_id":"b00c2d2d-b30a-435b-806e-6b7f1046437e","system_id":"levelo_inurba_marseille","lat":43.28418,"lon":5.34983,"is_reserved":false,"is_disabled":false,"rental_uris":{"android":"levelo://app?vid=b00c2d2d-b30a-435b-806e-6b7f1046437e","ios":"levelo://app?vid=b00c2d2d-b30a-435b-806e-6b7f1046437e"},"vehicle_type_id":"4","last_reported":1758380884,"current_range_meters":2800,"station_id":"ce4bhbh2rcd13ifvqepg","pricing_plan_id":"cebpf4jnsgd1na2vs0mg"},{"bike_id":"dd1d2b4a-16fc-4870-8590-1412c4c935b5","system_id":"levelo_inurba_marseille","lat":43.21742,"lon":5.34594,"is_reserved":false,"is_disabled":false,"rental_uris":{"android":"levelo://app?vid=dd1d2b4a-16fc-4870-8590-1412c4c935b5","ios":"levelo://app?vid=dd1d2b4a-16fc-4870-8590-1412c4c935b5"},"vehicle_type_id":"4","last_reported":1758380884,"current_range_meters":3200,"station_id":"st_cvj6r9ubvosntc0bgbag","pricing_plan_id":"cebpf4jnsgd1na2vs0mg"},{"bike_id":"59543e89-74c2-453b-8a36-5693685437e4","system_id":"levelo_inurba_marseille","lat":43.29075,"lon":5.37155,"is_reserved":false,"is_disabled":false,"rental_uris":{"android":"levelo://app?vid=59543e89-74c2-453b-8a36-5693685437e4","ios":"levelo://app?vid=59543e89-74c2-453b-8a36-5693685437e4"},"vehicle_type_id":"4","last_reported":1758380884,"current_range_meters":2800,"station_id":"ce4bh5p2rcd13ifvqe4g","pricing_plan_id":"cebpf4jnsgd1na2vs0mg"},{"bike_id":"97f2c631-a5b8-45f7-b54d-862e276eef7f","system_id":"levelo_inurba_marseille","lat":43.29513,"lon":5.37567,"is_reserved":false,"is_disabled":false,"rental_uris":{"android":"levelo://app?vid=97f2c631-a5b8-45f7-b54d-862e276eef7f","ios":"levelo://app?vid=97f2c631-a5b8-45f7-b54d-862e276eef7f"},"vehicle_type_id":"4","last_reported":1758380884,"current_range_meters":3200,"station_id":"","pricing_plan_id":"cebpf4jnsgd1na2vs0mg"},{"bike_id":"50c1c1e3-58c2-4ff0-a78a-a7e499f3540c","system_id":"levelo_inurba_marseille","lat":43.28912,"lon":5.43253,"is_reserved":false,"is_disabled":false,"rental_uris":{"android":"levelo://app?vid=50c1c1e3-58c2-4ff0-a78a-a7e499f3540c","ios":"levelo://app?vid=50c1c1e3-58c2-4ff0-a78a-a7e499f3540c"},"vehicle_type_id":"4","last_reported":1758380884,"current_range_meters":3200,"station_id":"","pricing_plan_id":"cebpf4jnsgd1na2vs0mg"},{"bike_id":"450f4acc-eeea-4eab-a763-688ffcd4423d","system_id":"levelo_inurba_marseille","lat":43.26952,"lon":5.38628,"is_reserved":false,"is_disabled":false,"rental_uris":{"android":"levelo://app?vid=450f4acc-eeea-4eab-a763-688ffcd4423d","ios":"levelo://app?vid=450f4acc-eeea-4eab-a763-688ffcd4423d"},"vehicle_type_id":"4","last_reported":1758380884,"current_range_meters":3200,"station_id":"ce4bhh92rcd13ifvqfh0","pricing_plan_id":"cebpf4jnsgd1na2vs0mg"},{"bike_id":"5e1549e6-879c-42e0-8ce8-b9675e30105c","system_id":"levelo_inurba_marseille","lat":43.21183,"lon":5.35072,"is_reserved":false,"is_disabled":false,"rental_uris":{"android":"levelo://app?vid=5e1549e6-879c-42e0-8ce8-b9675e30105c","ios":"levelo://app?vid=5e1549e6-879c-42e0-8ce8-b9675e30105c"},"vehicle_type_id":"4","last_reported":1758380884,"current_range_meters":3600,"station_id":"st_cvj6sg6p6f1abm77japg","pricing_plan_id":"cebpf4jnsgd1na2vs0mg"},{"bike_id":"e3e3fd82-10ff-4f15-b112-edb49d74b952","system_id":"levelo_inurba_marseille","lat":43.30551,"lon":5.36531,"is_reserved":false,"is_disabled":false,"rental_uris":{"android":"levelo://app?vid=e3e3fd82-10ff-4f15-b112-edb49d74b952","ios":"levelo://app?vid=e3e3fd82-10ff-4f15-b112-edb49d74b952"},"vehicle_type_id":"4","last_reported":1758380884,"current_range_meters":3200,"station_id":"ce4bgs12rcd13ifvqcag","pricing_plan_id":"cebpf4jnsgd1na2vs0mg"},{"bike_id":"73e870d6-ed53-463d-a61c-608035c7e13a","system_id":"levelo_inurba_marseille","lat":43.23202,"lon":5.35549,"is_reserved":false,"is_disabled":false,"rental_uris":{"android":"levelo://app?vid=73e870d6-ed53-463d-a61c-608035c7e13a","ios":"levelo://app?vid=73e870d6-ed53-463d-a61c-608035c7e13a"},"vehicle_type_id":"4","last_reported":1758380884,"current_range_meters":3600,"station_id":"ce4bhu92rcd13ifvqi70","pricing_plan_id":"cebpf4jnsgd1na2vs0mg"},{"bike_id":"6f71ecf7-f1e9-4b7a-9002-19947e852a77","system_id":"levelo_inurba_marseille","lat":43.30328,"lon":5.40425,"is_reserved":false,"is_disabled":false,"rental_uris":{"android":"levelo://app?vid=6f71ecf7-f1e9-4b7a-9002-19947e852a77","ios":"levelo://app?vid=6f71ecf7-f1e9-4b7a-9002-19947e852a77"},"vehicle_type_id":"4","last_reported":1758380884,"current_range_meters":3600,"station_id":"ce4bh012rcd13ifvqd10","pricing_plan_id":"cebpf4jnsgd1na2vs0mg"},{"bike_id":"815891fc-87ed-4688-8109-aeb0b86222ef","system_id":"levelo_inurba_marseille","lat":43.30143,"lon":5.38773,"is_reserved":false,"is_disabled":false,"rental_uris":{"android":"levelo://app?vid=815891fc-87ed-4688-8109-aeb0b86222ef","ios":"levelo://app?vid=815891fc-87ed-4688-8109-aeb0b86222ef"},"vehicle_type_id":"4","last_reported":1758380884,"current_range_meters":3200,"station_id":"ce4bghh2rcd13ifvqb60","pricing_plan_id":"cebpf4jnsgd1na2vs0mg"},{"bike_id":"4aaa181a-2758-443d-9201-74854302eeea","system_id":"levelo_inurba_marseille","lat":43.2175,"lon":5.34608,"is_reserved":false,"is_disabled":false,"rental_uris":{"android":"levelo://app?vid=4aaa181a-2758-443d-9201-74854302eeea","ios":"levelo://app?vid=4aaa181a-2758-443d-9201-74854302eeea"},"vehicle_type_id":"4","last_reported":1758380884,"current_range_meters":3600,"station_id":"","pricing_plan_id":"cebpf4jnsgd1na2vs0mg"},{"bike_id":"85c8e685-734d-4760-966b-86b771a65d9b","system_id":"levelo_inurba_marseille","lat":43.21171,"lon":5.35085,"is_reserved":false,"is_disabled":true,"rental_uris":{"android":"levelo://app?vid=85c8e685-734d-4760-966b-86b771a65d9b","ios":"levelo://app?vid=85c8e685-734d-4760-966b-86b771a65d9b"},"vehicle_type_id":"4","last_reported":1758380884,"current_range_meters":4000,"station_id":"st_cvj6sg6p6f1abm77japg","pricing_plan_id":"cebpf4jnsgd1na2vs0mg"},{"bike_id":"c548f171-150a-4779-93a6-693f7be10701","system_id":"levelo_inurba_marseille","lat":43.337444,"lon":5.374475,"is_reserved":false,"is_disabled":false,"rental_uris":{"android":"levelo://app?vid=c548f171-150a-4779-93a6-693f7be10701","ios":"levelo://app?vid=c548f171-150a-4779-93a6-693f7be10701"},"vehicle_type_id":"4","last_reported":1758380884,"current_range_meters":4000,"station_id":"","pricing_plan_id":"cebpf4jnsgd1na2vs0mg"},{"bike_id":"2eb6acf3-bccd-4505-af95-a5fc80d840b8","system_id":"levelo_inurba_marseille","lat":43.28857,"lon":5.3586,"is_reserved":false,"is_disabled":false,"rental_uris":{"android":"levelo://app?vid=2eb6acf3-bccd-4505-af95-a5fc80d840b8","ios":"levelo://app?vid=2eb6acf3-bccd-4505-af95-a5fc80d840b8"},"vehicle_type_id":"4","last_reported":1758380884,"current_range_meters":4000,"station_id":"ce4bhb12rcd13ifvqem0","pricing_plan_id":"cebpf4jnsgd1na2vs0mg"},{"bike_id":"42323a1a-489c-43cb-90ae-c675b27444d5","system_id":"levelo_inurba_marseille","lat":43.21655,"lon":5.3432,"is_reserved":false,"is_disabled":false,"rental_uris":{"android":"levelo://app?vid=42323a1a-489c-43cb-90ae-c675b27444d5","ios":"levelo://app?vid=42323a1a-489c-43cb-90ae-c675b27444d5"},"vehicle_type_id":"4","last_reported":1758380884,"current_range_meters":4000,"station_id":"","pricing_plan_id":"cebpf4jnsgd1na2vs0mg"},{"bike_id":"91a35495-06f7-4da8-8a7f-4a09435f09ee","system_id":"levelo_inurba_marseille","lat":43.2174,"lon":5.34596,"is_reserved":false,"is_disabled":false,"rental_uris":{"android":"levelo://app?vid=91a35495-06f7-4da8-8a7f-4a09435f09ee","ios":"levelo://app?vid=91a35495-06f7-4da8-8a7f-4a09435f09ee"},"vehicle_type_id":"4","last_reported":1758380884,"current_range_meters":4000,"station_id":"st_cvj6r9ubvosntc0bgbag","pricing_plan_id":"cebpf4jnsgd1na2vs0mg"},{"bike_id":"daee19f7-b2c7-4df3-afe2-585e91e2521c","system_id":"levelo_inurba_marseille","lat":43.282721,"lon":5.350658,"is_reserved":false,"is_disabled":false,"rental_uris":{"android":"levelo://app?vid=daee19f7-b2c7-4df3-afe2-585e91e2521c","ios":"levelo://app?vid=daee19f7-b2c7-4df3-afe2-585e91e2521c"},"vehicle_type_id":"4","last_reported":1758380884,"current_range_meters":4400,"station_id":"ce4bhbp2rcd13ifvqerg","pricing_plan_id":"cebpf4jnsgd1na2vs0mg"},{"bike_id":"e942f984-8fe7-48d1-8f04-3806656b9996","system_id":"levelo_inurba_marseille","lat":43.33627,"lon":5.37904,"is_reserved":false,"is_disabled":false,"rental_uris":{"android":"levelo://app?vid=e942f984-8fe7-48d1-8f04-3806656b9996","ios":"levelo://app?vid=e942f984-8fe7-48d1-8f04-3806656b9996"},"vehicle_type_id":"4","last_reported":1758380884,"current_range_meters":4800,"station_id":"","pricing_plan_id":"cebpf4jnsgd1na2vs0mg"},{"bike_id":"1935278d-66bd-4271-936d-1df08b9d6ed0","system_id":"levelo_inurba_marseille","lat":43.30956,"lon":5.3902,"is_reserved":false,"is_disabled":false,"rental_uris":{"android":"levelo://app?vid=1935278d-66bd-4271-936d-1df08b9d6ed0","ios":"levelo://app?vid=1935278d-66bd-4271-936d-1df08b9d6ed0"},"vehicle_type_id":"4","last_reported":1758380884,"current_range_meters":4800,"station_id":"ce4bgup2rcd13ifvqco0","pricing_plan_id":"cebpf4jnsgd1na2vs0mg"},{"bike_id":"38f7e331-7f64-421e-a836-adbc99ba00db","system_id":"levelo_inurba_marseille","lat":43.29706,"lon":5.3661,"is_reserved":false,"is_disabled":false,"rental_uris":{"android":"levelo://app?vid=38f7e331-7f64-421e-a836-adbc99ba00db","ios":"levelo://app?vid=38f7e331-7f64-421e-a836-adbc99ba00db"},"vehicle_type_id":"4","last_reported":1758380884,"current_range_meters":4800,"station_id":"ce4bgn12rcd13ifvqbt0","pricing_plan_id":"cebpf4jnsgd1na2vs0mg"},{"bike_id":"152456b3-4ced-4254-a942-0946b533f53e","system_id":"levelo_inurba_marseille","lat":43.3079,"lon":5.38157,"is_reserved":false,"is_disabled":false,"rental_uris":{"android":"levelo://app?vid=152456b3-4ced-4254-a942-0946b533f53e","ios":"levelo://app?vid=152456b3-4ced-4254-a942-0946b533f53e"},"vehicle_type_id":"4","last_reported":1758380884,"current_range_meters":4800,"station_id":"ce4bgt12rcd13ifvqce0","pricing_plan_id":"cebpf4jnsgd1na2vs0mg"},{"bike_id":"45f4502e-1c84-46a2-9487-45e43eb3408d","system_id":"levelo_inurba_marseille","lat":43.25581,"lon":5.38225,"is_reserved":false,"is_disabled":false,"rental_uris":{"android":"levelo://app?vid=45f4502e-1c84-46a2-9487-45e43eb3408d","ios":"levelo://app?vid=45f4502e-1c84-46a2-9487-45e43eb3408d"},"vehicle_type_id":"4","last_reported":1758380884,"current_range_meters":4800,"station_id":"ce4bhih2rcd13ifvqfs0","pricing_plan_id":"cebpf4jnsgd1na2vs0mg"},{"bike_id":"e6f8489d-fe42-4015-a82c-b604c2c8b33e","system_id":"levelo_inurba_marseille","lat":43.29795,"lon":5.36682,"is_reserved":false,"is_disabled":false,"rental_uris":{"android":"levelo://app?vid=e6f8489d-fe42-4015-a82c-b604c2c8b33e","ios":"levelo://app?vid=e6f8489d-fe42-4015-a82c-b604c2c8b33e"},"vehicle_type_id":"4","last_reported":1758380884,"current_range_meters":4800,"station_id":"","pricing_plan_id":"cebpf4jnsgd1na2vs0mg"},{"bike_id":"4753c16e-13b9-4eb1-a234-4296be73d545","system_id":"levelo_inurba_marseille","lat":43.21741,"lon":5.34602,"is_reserved":false,"is_disabled":false,"rental_uris":{"android":"levelo://app?vid=4753c16e-13b9-4eb1-a234-4296be73d545","ios":"levelo://app?vid=4753c16e-13b9-4eb1-a234-4296be73d545"},"vehicle_type_id":"4","last_reported":1758380884,"current_range_meters":5600,"station_id":"st_cvj6r9ubvosntc0bgbag","pricing_plan_id":"cebpf4jnsgd1na2vs0mg"},{"bike_id":"6dc49f8f-31b8-485c-b489-e3fd253e6676","system_id":"levelo_inurba_marseille","lat":43.32661,"lon":5.40985,"is_reserved":false,"is_disabled":true,"rental_uris":{"android":"levelo://app?vid=6dc49f8f-31b8-485c-b489-e3fd253e6676","ios":"levelo://app?vid=6dc49f8f-31b8-485c-b489-e3fd253e6676"},"vehicle_type_id":"4","last_reported":1758380884,"current_range_meters":5600,"station_id":"ce4bhpp2rcd13ifvqhgg","pricing_plan_id":"cebpf4jnsgd1na2vs0mg"},{"bike_id":"5ef819c2-54a4-470a-86c3-fbfeea8f48c7","system_id":"levelo_inurba_marseille","lat":43.289382,"lon":5.366288,"is_reserved":false,"is_disabled":false,"rental_uris":{"android":"levelo://app?vid=5ef819c2-54a4-470a-86c3-fbfeea8f48c7","ios":"levelo://app?vid=5ef819c2-54a4-470a-86c3-fbfeea8f48c7"},"vehicle_type_id":"4","last_reported":1758380884,"current_range_meters":4800,"station_id":"ce4bhap2rcd13ifvqek0","pricing_plan_id":"cebpf4jnsgd1na2vs0mg"},{"bike_id":"6c3a7177-7a02-4853-aec6-44447e1fec14","system_id":"levelo_inurba_marseille","lat":43.26217,"lon":5.37435,"is_reserved":false,"is_disabled":false,"rental_uris":{"android":"levelo://app?vid=6c3a7177-7a02-4853-aec6-44447e1fec14","ios":"levelo://app?vid=6c3a7177-7a02-4853-aec6-44447e1fec14"},"vehicle_type_id":"4","last_reported":1758380884,"current_range_meters":5600,"station_id":"ce4bhgp2rcd13ifvqfc0","pricing_plan_id":"cebpf4jnsgd1na2vs0mg"},{"bike_id":"9f0f401b-ff98-4040-b24f-13fefb233bef","system_id":"levelo_inurba_marseille","lat":43.21189,"lon":5.35074,"is_reserved":false,"is_disabled":false,"rental_uris":{"android":"levelo://app?vid=9f0f401b-ff98-4040-b24f-13fefb233bef","ios":"levelo://app?vid=9f0f401b-ff98-4040-b24f-13fefb233bef"},"vehicle_type_id":"4","last_reported":1758380884,"current_range_meters":5600,"station_id":"st_cvj6sg6p6f1abm77japg","pricing_plan_id":"cebpf4jnsgd1na2vs0mg"},{"bike_id":"a8a41e8e-9e80-4d13-8ef2-b078d885aeab","system_id":"levelo_inurba_marseille","lat":43.2931,"lon":5.37455,"is_reserved":false,"is_disabled":false,"rental_uris":{"android":"levelo://app?vid=a8a41e8e-9e80-4d13-8ef2-b078d885aeab","ios":"levelo://app?vid=a8a41e8e-9e80-4d13-8ef2-b078d885aeab"},"vehicle_type_id":"4","last_reported":1758380884,"current_range_meters":4800,"station_id":"ce4bgi12rcd13ifvqb70","pricing_plan_id":"cebpf4jnsgd1na2vs0mg"},{"bike_id":"40e21866-2945-4161-b9db-e3e6d807cfa2","system_id":"levelo_inurba_marseille","lat":43.28276,"lon":5.35051,"is_reserved":false,"is_disabled":false,"rental_uris":{"android":"levelo://app?vid=40e21866-2945-4161-b9db-e3e6d807cfa2","ios":"levelo://app?vid=40e21866-2945-4161-b9db-e3e6d807cfa2"},"vehicle_type_id":"4","last_reported":1758380884,"current_range_meters":5600,"station_id":"ce4bhbp2rcd13ifvqerg","pricing_plan_id":"cebpf4jnsgd1na2vs0mg"},{"bike_id":"16c5799c-fab8-41b5-8bfb-e125b3b53642","system_id":"levelo_inurba_marseille","lat":43.21745,"lon":5.34604,"is_reserved":false,"is_disabled":false,"rental_uris":{"android":"levelo://app?vid=16c5799c-fab8-41b5-8bfb-e125b3b53642","ios":"levelo://app?vid=16c5799c-fab8-41b5-8bfb-e125b3b53642"},"vehicle_type_id":"4","last_reported":1758380884,"current_range_meters":6000,"station_id":"","pricing_plan_id":"cebpf4jnsgd1na2vs0mg"},{"bike_id":"cad97885-b582-49b2-8b83-0a6c3d079fc6","system_id":"levelo_inurba_marseille","lat":43.297018,"lon":5.365873,"is_reserved":false,"is_disabled":false,"rental_uris":{"android":"levelo://app?vid=cad97885-b582-49b2-8b83-0a6c3d079fc6","ios":"levelo://app?vid=cad97885-b582-49b2-8b83-0a6c3d079fc6"},"vehicle_type_id":"4","last_reported":1758380884,"current_range_meters":6000,"station_id":"ce4bgn12rcd13ifvqbt0","pricing_plan_id":"cebpf4jnsgd1na2vs0mg"},{"bike_id":"0bbbf365-d8bd-437f-9e4c-a10335d9de46","system_id":"levelo_inurba_marseille","lat":43.286133,"lon":5.35116,"is_reserved":false,"is_disabled":false,"rental_uris":{"android":"levelo://app?vid=0bbbf365-d8bd-437f-9e4c-a10335d9de46","ios":"levelo://app?vid=0bbbf365-d8bd-437f-9e4c-a10335d9de46"},"vehicle_type_id":"4","last_reported":1758380884,"current_range_meters":6000,"station_id":"ce4bhch2rcd13ifvqeug","pricing_plan_id":"cebpf4jnsgd1na2vs0mg"},{"bike_id":"dd54508b-cebc-429e-947d-94cace74c022","system_id":"levelo_inurba_marseille","lat":43.23966,"lon":5.36611,"is_reserved":false,"is_disabled":true,"rental_uris":{"android":"levelo://app?vid=dd54508b-cebc-429e-947d-94cace74c022","ios":"levelo://app?vid=dd54508b-cebc-429e-947d-94cace74c022"},"vehicle_type_id":"4","last_reported":1758380884,"current_range_meters":6000,"station_id":"ce4bhi12rcd13ifvqfp0","pricing_plan_id":"cebpf4jnsgd1na2vs0mg"},{"bike_id":"5b46e134-80d0-4812-9418-f1c9533cfbed","system_id":"levelo_inurba_marseille","lat":43.311,"lon":5.377428,"is_reserved":false,"is_disabled":false,"rental_uris":{"android":"levelo://app?vid=5b46e134-80d0-4812-9418-f1c9533cfbed","ios":"levelo://app?vid=5b46e134-80d0-4812-9418-f1c9533cfbed"},"vehicle_type_id":"4","last_reported":1758380884,"current_range_meters":6000,"station_id":"ce4bgt92rcd13ifvqcg0","pricing_plan_id":"cebpf4jnsgd1na2vs0mg"},{"bike_id":"27cc2023-610f-4a78-ba41-0db80692ecc6","system_id":"levelo_inurba_marseille","lat":43.22581,"lon":5.41592,"is_reserved":false,"is_disabled":false,"rental_uris":{"android":"levelo://app?vid=27cc2023-610f-4a78-ba41-0db80692ecc6","ios":"levelo://app?vid=27cc2023-610f-4a78-ba41-0db80692ecc6"},"vehicle_type_id":"4","last_reported":1758380884,"current_range_meters":6000,"station_id":"st_d2o4gvlbi1j2169b742g","pricing_plan_id":"cebpf4jnsgd1na2vs0mg"},{"bike_id":"d2da788c-83ae-489a-8a16-2c6350deabb2","system_id":"levelo_inurba_marseille","lat":43.29612,"lon":5.37717,"is_reserved":false,"is_disabled":false,"rental_uris":{"android":"levelo://app?vid=d2da788c-83ae-489a-8a16-2c6350deabb2","ios":"levelo://app?vid=d2da788c-83ae-489a-8a16-2c6350deabb2"},"vehicle_type_id":"4","last_reported":1758380884,"current_range_meters":6000,"station_id":"ce4bgi92rcd13ifvqb90","pricing_plan_id":"cebpf4jnsgd1na2vs0mg"},{"bike_id":"59f51456-a5e7-466a-8b08-1d61d2bd0f37","system_id":"levelo_inurba_marseille","lat":43.27368,"lon":5.36269,"is_reserved":false,"is_disabled":false,"rental_uris":{"android":"levelo://app?vid=59f51456-a5e7-466a-8b08-1d61d2bd0f37","ios":"levelo://app?vid=59f51456-a5e7-466a-8b08-1d61d2bd0f37"},"vehicle_type_id":"4","last_reported":1758380884,"current_range_meters":6400,"station_id":"ce4bhbh2rcd13ifvqeo0","pricing_plan_id":"cebpf4jnsgd1na2vs0mg"},{"bike_id":"c3139e2c-9acb-4303-8cea-b83d3a35b84b","system_id":"levelo_inurba_marseille","lat":43.30336,"lon":5.42472,"is_reserved":false,"is_disabled":false,"rental_uris":{"android":"levelo://app?vid=c3139e2c-9acb-4303-8cea-b83d3a35b84b","ios":"levelo://app?vid=c3139e2c-9acb-4303-8cea-b83d3a35b84b"},"vehicle_type_id":"4","last_reported":1758380884,"current_range_meters":6400,"station_id":"","pricing_plan_id":"cebpf4jnsgd1na2vs0mg"},{"bike_id":"df9ce3e5-acfa-463f-9226-80d69349e5d3","system_id":"levelo_inurba_marseille","lat":43.270553,"lon":5.402582,"is_reserved":false,"is_disabled":false,"rental_uris":{"android":"levelo://app?vid=df9ce3e5-acfa-463f-9226-80d69349e5d3","ios":"levelo://app?vid=df9ce3e5-acfa-463f-9226-80d69349e5d3"},"vehicle_type_id":"4","last_reported":1758380884,"current_range_meters":6400,"station_id":"ce4bhk92rcd13ifvqgc0","pricing_plan_id":"cebpf4jnsgd1na2vs0mg"},{"bike_id":"08252226-8ab1-4b8f-aa71-245b08b9f8c9","system_id":"levelo_inurba_marseille","lat":43.30644,"lon":5.40065,"is_reserved":false,"is_disabled":false,"rental_uris":{"android":"levelo://app?vid=08252226-8ab1-4b8f-aa71-245b08b9f8c9","ios":"levelo://app?vid=08252226-8ab1-4b8f-aa71-245b08b9f8c9"},"vehicle_type_id":"4","last_reported":1758380884,"current_range_meters":6400,"station_id":"ce4bh112rcd13ifvqda0","pricing_plan_id":"cebpf4jnsgd1na2vs0mg"},{"bike_id":"d3f6e9e8-9364-4a93-b986-ef736ab400c4","system_id":"levelo_inurba_marseille","lat":43.27067,"lon":5.42264,"is_reserved":false,"is_disabled":false,"rental_uris":{"android":"levelo://app?vid=d3f6e9e8-9364-4a93-b986-ef736ab400c4","ios":"levelo://app?vid=d3f6e9e8-9364-4a93-b986-ef736ab400c4"},"vehicle_type_id":"4","last_reported":1758380884,"current_range_meters":6800,"station_id":"ce4bhk92rcd13ifvqgb0","pricing_plan_id":"cebpf4jnsgd1na2vs0mg"},{"bike_id":"f40606c5-5018-4881-bf85-5158ff83f02e","system_id":"levelo_inurba_marseille","lat":43.2978,"lon":5.38094,"is_reserved":false,"is_disabled":false,"rental_uris":{"android":"levelo://app?vid=f40606c5-5018-4881-bf85-5158ff83f02e","ios":"levelo://app?vid=f40606c5-5018-4881-bf85-5158ff83f02e"},"vehicle_type_id":"4","last_reported":1758380884,"current_range_meters":6800,"station_id":"ce4bgip2rcd13ifvqbb0","pricing_plan_id":"cebpf4jnsgd1na2vs0mg"},{"bike_id":"2c506e7d-0253-4252-b21f-01c1dffc4bfa","system_id":"levelo_inurba_marseille","lat":43.22571,"lon":5.41627,"is_reserved":false,"is_disabled":false,"rental_uris":{"android":"levelo://app?vid=2c506e7d-0253-4252-b21f-01c1dffc4bfa","ios":"levelo://app?vid=2c506e7d-0253-4252-b21f-01c1dffc4bfa"},"vehicle_type_id":"4","last_reported":1758380884,"current_range_meters":6800,"station_id":"st_d2o4gvlbi1j2169b742g","pricing_plan_id":"cebpf4jnsgd1na2vs0mg"},{"bike_id":"17f668f0-842d-4d08-87c5-ef6efb8513ab","system_id":"levelo_inurba_marseille","lat":43.24634,"lon":5.43149,"is_reserved":false,"is_disabled":false,"rental_uris":{"android":"levelo://app?vid=17f668f0-842d-4d08-87c5-ef6efb8513ab","ios":"levelo://app?vid=17f668f0-842d-4d08-87c5-ef6efb8513ab"},"vehicle_type_id":"4","last_reported":1758380884,"current_range_meters":7200,"station_id":"st_d2m6c4gdas8pm72e190g","pricing_plan_id":"cebpf4jnsgd1na2vs0mg"},{"bike_id":"a5e3a117-1c85-41cb-ad5f-d6448ec49b0b","system_id":"levelo_inurba_marseille","lat":43.231953,"lon":5.355525,"is_reserved":false,"is_disabled":false,"rental_uris":{"android":"levelo://app?vid=a5e3a117-1c85-41cb-ad5f-d6448ec49b0b","ios":"levelo://app?vid=a5e3a117-1c85-41cb-ad5f-d6448ec49b0b"},"vehicle_type_id":"4","last_reported":1758380884,"current_range_meters":7200,"station_id":"ce4bhu92rcd13ifvqi70","pricing_plan_id":"cebpf4jnsgd1na2vs0mg"},{"bike_id":"fb748f23-6444-4047-9f23-15e24307132a","system_id":"levelo_inurba_marseille","lat":43.26205,"lon":5.37932,"is_reserved":false,"is_disabled":false,"rental_uris":{"android":"levelo://app?vid=fb748f23-6444-4047-9f23-15e24307132a","ios":"levelo://app?vid=fb748f23-6444-4047-9f23-15e24307132a"},"vehicle_type_id":"4","last_reported":1758380884,"current_range_meters":7200,"station_id":"ce4bhjp2rcd13ifvqg90","pricing_plan_id":"cebpf4jnsgd1na2vs0mg"},{"bike_id":"5a41f60a-a62c-4c56-8661-f99b17b72b68","system_id":"levelo_inurba_marseille","lat":43.21746,"lon":5.34589,"is_reserved":false,"is_disabled":false,"rental_uris":{"android":"levelo://app?vid=5a41f60a-a62c-4c56-8661-f99b17b72b68","ios":"levelo://app?vid=5a41f60a-a62c-4c56-8661-f99b17b72b68"},"vehicle_type_id":"4","last_reported":1758380884,"current_range_meters":7200,"station_id":"st_cvj6r9ubvosntc0bgbag","pricing_plan_id":"cebpf4jnsgd1na2vs0mg"},{"bike_id":"3c9735e9-fd7e-4079-8199-725760347837","system_id":"levelo_inurba_marseille","lat":43.21193,"lon":5.35071,"is_reserved":false,"is_disabled":false,"rental_uris":{"android":"levelo://app?vid=3c9735e9-fd7e-4079-8199-725760347837","ios":"levelo://app?vid=3c9735e9-fd7e-4079-8199-725760347837"},"vehicle_type_id":"4","last_reported":1758380884,"current_range_meters":8000,"station_id":"st_cvj6sg6p6f1abm77japg","pricing_plan_id":"cebpf4jnsgd1na2vs0mg"},{"bike_id":"e1065c32-ac19-477b-812a-39f964d50769","system_id":"levelo_inurba_marseille","lat":43.23196,"lon":5.35539,"is_reserved":false,"is_disabled":true,"rental_uris":{"android":"levelo://app?vid=e1065c32-ac19-477b-812a-39f964d50769","ios":"levelo://app?vid=e1065c32-ac19-477b-812a-39f964d50769"},"vehicle_type_id":"4","last_reported":1758380884,"current_range_meters":8000,"station_id":"ce4bhu92rcd13ifvqi70","pricing_plan_id":"cebpf4jnsgd1na2vs0mg"},{"bike_id":"1e2732fc-c20e-4ec3-819a-eee0accbe642","system_id":"levelo_inurba_marseille","lat":43.26211,"lon":5.37442,"is_reserved":false,"is_disabled":false,"rental_uris":{"android":"levelo://app?vid=1e2732fc-c20e-4ec3-819a-eee0accbe642","ios":"levelo://app?vid=1e2732fc-c20e-4ec3-819a-eee0accbe642"},"vehicle_type_id":"4","last_reported":1758380884,"current_range_meters":8000,"station_id":"ce4bhgp2rcd13ifvqfc0","pricing_plan_id":"cebpf4jnsgd1na2vs0mg"},{"bike_id":"1c647894-2185-428f-a6b7-d3e8d7dde366","system_id":"levelo_inurba_marseille","lat":43.21197,"lon":5.35051,"is_reserved":false,"is_disabled":false,"rental_uris":{"android":"levelo://app?vid=1c647894-2185-428f-a6b7-d3e8d7dde366","ios":"levelo://app?vid=1c647894-2185-428f-a6b7-d3e8d7dde366"},"vehicle_type_id":"4","last_reported":1758380884,"current_range_meters":8000,"station_id":"st_cvj6sg6p6f1abm77japg","pricing_plan_id":"cebpf4jnsgd1na2vs0mg"},{"bike_id":"f5198037-c394-4599-a5bb-66e61f0e9c0e","system_id":"levelo_inurba_marseille","lat":43.31369,"lon":5.38494,"is_reserved":false,"is_disabled":false,"rental_uris":{"android":"levelo://app?vid=f5198037-c394-4599-a5bb-66e61f0e9c0e","ios":"levelo://app?vid=f5198037-c394-4599-a5bb-66e61f0e9c0e"},"vehicle_type_id":"4","last_reported":1758380884,"current_range_meters":8000,"station_id":"ce4bgt92rcd13ifvqcf0","pricing_plan_id":"cebpf4jnsgd1na2vs0mg"},{"bike_id":"db7f4e41-246c-427d-a028-09a7e82858f5","system_id":"levelo_inurba_marseille","lat":43.2396,"lon":5.36622,"is_reserved":false,"is_disabled":false,"rental_uris":{"android":"levelo://app?vid=db7f4e41-246c-427d-a028-09a7e82858f5","ios":"levelo://app?vid=db7f4e41-246c-427d-a028-09a7e82858f5"},"vehicle_type_id":"4","last_reported":1758380884,"current_range_meters":12800,"station_id":"ce4bhi12rcd13ifvqfp0","pricing_plan_id":"cebpf4jnsgd1na2vs0mg"},{"bike_id":"3e682cf4-5ea7-4563-9004-71435c031ec4","system_id":"levelo_inurba_marseille","lat":43.21182,"lon":5.35072,"is_reserved":false,"is_disabled":false,"rental_uris":{"android":"levelo://app?vid=3e682cf4-5ea7-4563-9004-71435c031ec4","ios":"levelo://app?vid=3e682cf4-5ea7-4563-9004-71435c031ec4"},"vehicle_type_id":"4","last_reported":1758380884,"current_range_meters":8400,"station_id":"st_cvj6sg6p6f1abm77japg","pricing_plan_id":"cebpf4jnsgd1na2vs0mg"},{"bike_id":"ac62e144-cbde-4ce0-b7eb-3292089f7153","system_id":"levelo_inurba_marseille","lat":43.28263,"lon":5.3506,"is_reserved":false,"is_disabled":false,"rental_uris":{"android":"levelo://app?vid=ac62e144-cbde-4ce0-b7eb-3292089f7153","ios":"levelo://app?vid=ac62e144-cbde-4ce0-b7eb-3292089f7153"},"vehicle_type_id":"4","last_reported":1758380884,"current_range_meters":8400,"station_id":"ce4bhbp2rcd13ifvqerg","pricing_plan_id":"cebpf4jnsgd1na2vs0mg"},{"bike_id":"5bb42022-0e19-48bc-a5b4-218bb1d7482e","system_id":"levelo_inurba_marseille","lat":43.31263,"lon":5.3775,"is_reserved":false,"is_disabled":false,"rental_uris":{"android":"levelo://app?vid=5bb42022-0e19-48bc-a5b4-218bb1d7482e","ios":"levelo://app?vid=5bb42022-0e19-48bc-a5b4-218bb1d7482e"},"vehicle_type_id":"4","last_reported":1758380884,"current_range_meters":8400,"station_id":"","pricing_plan_id":"cebpf4jnsgd1na2vs0mg"},{"bike_id":"bf6e6d27-c09e-4725-9fbc-20073fd5a515","system_id":"levelo_inurba_marseille","lat":43.289376,"lon":5.396214,"is_reserved":false,"is_disabled":false,"rental_uris":{"android":"levelo://app?vid=bf6e6d27-c09e-4725-9fbc-20073fd5a515","ios":"levelo://app?vid=bf6e6d27-c09e-4725-9fbc-20073fd5a515"},"vehicle_type_id":"4","last_reported":1758380884,"current_range_meters":8400,"station_id":"","pricing_plan_id":"cebpf4jnsgd1na2vs0mg"},{"bike_id":"c627b34a-8e81-4438-af3b-4fd0aab1c160","system_id":"levelo_inurba_marseille","lat":43.29651,"lon":5.36009,"is_reserved":false,"is_disabled":false,"rental_uris":{"android":"levelo://app?vid=c627b34a-8e81-4438-af3b-4fd0aab1c160","ios":"levelo://app?vid=c627b34a-8e81-4438-af3b-4fd0aab1c160"},"vehicle_type_id":"4","last_reported":1758380884,"current_range_meters":8400,"station_id":"","pricing_plan_id":"cebpf4jnsgd1na2vs0mg"},{"bike_id":"0960e3dd-c358-4474-bd10-8223758e1f6b","system_id":"levelo_inurba_marseille","lat":43.296996,"lon":5.376855,"is_reserved":false,"is_disabled":false,"rental_uris":{"android":"levelo://app?vid=0960e3dd-c358-4474-bd10-8223758e1f6b","ios":"levelo://app?vid=0960e3dd-c358-4474-bd10-8223758e1f6b"},"vehicle_type_id":"4","last_reported":1758380884,"current_range_meters":8400,"station_id":"","pricing_plan_id":"cebpf4jnsgd1na2vs0mg"},{"bike_id":"ceef8d2f-b7e8-4140-8b9b-55a600928ffa","system_id":"levelo_inurba_marseille","lat":43.27213,"lon":5.39135,"is_reserved":false,"is_disabled":false,"rental_uris":{"android":"levelo://app?vid=ceef8d2f-b7e8-4140-8b9b-55a600928ffa","ios":"levelo://app?vid=ceef8d2f-b7e8-4140-8b9b-55a600928ffa"},"vehicle_type_id":"4","last_reported":1758380884,"current_range_meters":8400,"station_id":"ce4bhhp2rcd13ifvqfm0","pricing_plan_id":"cebpf4jnsgd1na2vs0mg"},{"bike_id":"085359df-71e2-4ebe-a6c0-23c82f51aed1","system_id":"levelo_inurba_marseille","lat":43.24804,"lon":5.37456,"is_reserved":false,"is_disabled":false,"rental_uris":{"android":"levelo://app?vid=085359df-71e2-4ebe-a6c0-23c82f51aed1","ios":"levelo://app?vid=085359df-71e2-4ebe-a6c0-23c82f51aed1"},"vehicle_type_id":"4","last_reported":1758380884,"current_range_meters":8800,"station_id":"ce4bhgh2rcd13ifvqfb0","pricing_plan_id":"cebpf4jnsgd1na2vs0mg"},{"bike_id":"7dd65b1b-fb7b-4087-9803-34d477de11ae","system_id":"levelo_inurba_marseille","lat":43.2119,"lon":5.35066,"is_reserved":false,"is_disabled":false,"rental_uris":{"android":"levelo://app?vid=7dd65b1b-fb7b-4087-9803-34d477de11ae","ios":"levelo://app?vid=7dd65b1b-fb7b-4087-9803-34d477de11ae"},"vehicle_type_id":"4","last_reported":1758380884,"current_range_meters":8800,"station_id":"st_cvj6sg6p6f1abm77japg","pricing_plan_id":"cebpf4jnsgd1na2vs0mg"},{"bike_id":"4974e35e-3695-4e71-877f-aa9f9de46879","system_id":"levelo_inurba_marseille","lat":43.21734,"lon":5.34576,"is_reserved":false,"is_disabled":false,"rental_uris":{"android":"levelo://app?vid=4974e35e-3695-4e71-877f-aa9f9de46879","ios":"levelo://app?vid=4974e35e-3695-4e71-877f-aa9f9de46879"},"vehicle_type_id":"4","last_reported":1758380884,"current_range_meters":8800,"station_id":"st_cvj6r9ubvosntc0bgbag","pricing_plan_id":"cebpf4jnsgd1na2vs0mg"},{"bike_id":"70c5ed34-0ee9-4541-8c9e-7d93cb0ed0dd","system_id":"levelo_inurba_marseille","lat":43.216999,"lon":5.346249,"is_reserved":false,"is_disabled":false,"rental_uris":{"android":"levelo://app?vid=70c5ed34-0ee9-4541-8c9e-7d93cb0ed0dd","ios":"levelo://app?vid=70c5ed34-0ee9-4541-8c9e-7d93cb0ed0dd"},"vehicle_type_id":"4","last_reported":1758380884,"current_range_meters":8800,"station_id":"st_cvj6r9ubvosntc0bgbag","pricing_plan_id":"cebpf4jnsgd1na2vs0mg"},{"bike_id":"6ad3cb53-3839-4d48-a353-c9e79e7e4769","system_id":"levelo_inurba_marseille","lat":43.2991,"lon":5.38152,"is_reserved":false,"is_disabled":false,"rental_uris":{"android":"levelo://app?vid=6ad3cb53-3839-4d48-a353-c9e79e7e4769","ios":"levelo://app?vid=6ad3cb53-3839-4d48-a353-c9e79e7e4769"},"vehicle_type_id":"4","last_reported":1758380884,"current_range_meters":8800,"station_id":"ce4bgj12rcd13ifvqbc0","pricing_plan_id":"cebpf4jnsgd1na2vs0mg"},{"bike_id":"89384ef2-a957-4eff-ae79-02149d611c9d","system_id":"levelo_inurba_marseille","lat":43.217442,"lon":5.346055,"is_reserved":false,"is_disabled":false,"rental_uris":{"android":"levelo://app?vid=89384ef2-a957-4eff-ae79-02149d611c9d","ios":"levelo://app?vid=89384ef2-a957-4eff-ae79-02149d611c9d"},"vehicle_type_id":"4","last_reported":1758380884,"current_range_meters":8800,"station_id":"st_cvj6r9ubvosntc0bgbag","pricing_plan_id":"cebpf4jnsgd1na2vs0mg"},{"bike_id":"3082f593-a5a6-48f9-afa8-383813f7af0b","system_id":"levelo_inurba_marseille","lat":43.21745,"lon":5.34625,"is_reserved":false,"is_disabled":true,"rental_uris":{"android":"levelo://app?vid=3082f593-a5a6-48f9-afa8-383813f7af0b","ios":"levelo://app?vid=3082f593-a5a6-48f9-afa8-383813f7af0b"},"vehicle_type_id":"4","last_reported":1758380884,"current_range_meters":8800,"station_id":"","pricing_plan_id":"cebpf4jnsgd1na2vs0mg"},{"bike_id":"a30c1579-c7c1-4289-a603-df8763bcecdc","system_id":"levelo_inurba_marseille","lat":43.23157,"lon":5.43669,"is_reserved":false,"is_disabled":false,"rental_uris":{"android":"levelo://app?vid=a30c1579-c7c1-4289-a603-df8763bcecdc","ios":"levelo://app?vid=a30c1579-c7c1-4289-a603-df8763bcecdc"},"vehicle_type_id":"4","last_reported":1758380884,"current_range_meters":8800,"station_id":"ce4bhmp2rcd13ifvqgog","pricing_plan_id":"cebpf4jnsgd1na2vs0mg"},{"bike_id":"33d69153-3ab1-466b-9006-3187feb06b56","system_id":"levelo_inurba_marseille","lat":43.21193,"lon":5.35076,"is_reserved":false,"is_disabled":false,"rental_uris":{"android":"levelo://app?vid=33d69153-3ab1-466b-9006-3187feb06b56","ios":"levelo://app?vid=33d69153-3ab1-466b-9006-3187feb06b56"},"vehicle_type_id":"4","last_reported":1758380884,"current_range_meters":9200,"station_id":"st_cvj6sg6p6f1abm77japg","pricing_plan_id":"cebpf4jnsgd1na2vs0mg"},{"bike_id":"b319fc58-e14e-47e8-aac3-055da9c6862f","system_id":"levelo_inurba_marseille","lat":43.26556,"lon":5.37289,"is_reserved":false,"is_disabled":false,"rental_uris":{"android":"levelo://app?vid=b319fc58-e14e-47e8-aac3-055da9c6862f","ios":"levelo://app?vid=b319fc58-e14e-47e8-aac3-055da9c6862f"},"vehicle_type_id":"4","last_reported":1758380884,"current_range_meters":9200,"station_id":"ce4bhg12rcd13ifvqf70","pricing_plan_id":"cebpf4jnsgd1na2vs0mg"},{"bike_id":"615f4120-f443-47c5-93f3-e29e9f318559","system_id":"levelo_inurba_marseille","lat":43.27054,"lon":5.40256,"is_reserved":false,"is_disabled":false,"rental_uris":{"android":"levelo://app?vid=615f4120-f443-47c5-93f3-e29e9f318559","ios":"levelo://app?vid=615f4120-f443-47c5-93f3-e29e9f318559"},"vehicle_type_id":"4","last_reported":1758380884,"current_range_meters":9200,"station_id":"ce4bhk92rcd13ifvqgc0","pricing_plan_id":"cebpf4jnsgd1na2vs0mg"},{"bike_id":"d263549a-c957-45c0-9cb9-c48d3569a2ae","system_id":"levelo_inurba_marseille","lat":43.26217,"lon":5.37438,"is_reserved":false,"is_disabled":false,"rental_uris":{"android":"levelo://app?vid=d263549a-c957-45c0-9cb9-c48d3569a2ae","ios":"levelo://app?vid=d263549a-c957-45c0-9cb9-c48d3569a2ae"},"vehicle_type_id":"4","last_reported":1758380884,"current_range_meters":9200,"station_id":"ce4bhgp2rcd13ifvqfc0","pricing_plan_id":"cebpf4jnsgd1na2vs0mg"},{"bike_id":"5d95cf52-878e-49fd-81e4-d84ef2b3c3b8","system_id":"levelo_inurba_marseille","lat":43.33026,"lon":5.39045,"is_reserved":false,"is_disabled":false,"rental_uris":{"android":"levelo://app?vid=5d95cf52-878e-49fd-81e4-d84ef2b3c3b8","ios":"levelo://app?vid=5d95cf52-878e-49fd-81e4-d84ef2b3c3b8"},"vehicle_type_id":"4","last_reported":1758380884,"current_range_meters":9200,"station_id":"ce4bhr92rcd13ifvqhrg","pricing_plan_id":"cebpf4jnsgd1na2vs0mg"},{"bike_id":"eb7fa1b5-17e3-43e5-afee-4d26243c73e7","system_id":"levelo_inurba_marseille","lat":43.28239,"lon":5.35054,"is_reserved":false,"is_disabled":false,"rental_uris":{"android":"levelo://app?vid=eb7fa1b5-17e3-43e5-afee-4d26243c73e7","ios":"levelo://app?vid=eb7fa1b5-17e3-43e5-afee-4d26243c73e7"},"vehicle_type_id":"4","last_reported":1758380884,"current_range_meters":9200,"station_id":"ce4bhbp2rcd13ifvqerg","pricing_plan_id":"cebpf4jnsgd1na2vs0mg"},{"bike_id":"4270a342-c875-4f61-aaeb-ce3b20914d23","system_id":"levelo_inurba_marseille","lat":43.273212,"lon":5.390591,"is_reserved":false,"is_disabled":false,"rental_uris":{"android":"levelo://app?vid=4270a342-c875-4f61-aaeb-ce3b20914d23","ios":"levelo://app?vid=4270a342-c875-4f61-aaeb-ce3b20914d23"},"vehicle_type_id":"4","last_reported":1758380884,"current_range_meters":9200,"station_id":"ce4bhgp2rcd13ifvqfe0","pricing_plan_id":"cebpf4jnsgd1na2vs0mg"},{"bike_id":"fcb3f6af-c7d4-4ccc-be82-7f951e8865a2","system_id":"levelo_inurba_marseille","lat":43.21186,"lon":5.35058,"is_reserved":false,"is_disabled":false,"rental_uris":{"android":"levelo://app?vid=fcb3f6af-c7d4-4ccc-be82-7f951e8865a2","ios":"levelo://app?vid=fcb3f6af-c7d4-4ccc-be82-7f951e8865a2"},"vehicle_type_id":"4","last_reported":1758380884,"current_range_meters":9600,"station_id":"st_cvj6sg6p6f1abm77japg","pricing_plan_id":"cebpf4jnsgd1na2vs0mg"},{"bike_id":"192ce054-65fb-45a4-a854-dd05a8c84f47","system_id":"levelo_inurba_marseille","lat":43.28421,"lon":5.34995,"is_reserved":false,"is_disabled":false,"rental_uris":{"android":"levelo://app?vid=192ce054-65fb-45a4-a854-dd05a8c84f47","ios":"levelo://app?vid=192ce054-65fb-45a4-a854-dd05a8c84f47"},"vehicle_type_id":"4","last_reported":1758380884,"current_range_meters":9600,"station_id":"ce4bhbh2rcd13ifvqepg","pricing_plan_id":"cebpf4jnsgd1na2vs0mg"},{"bike_id":"b93cc46e-40c5-414a-ad75-b625800c417e","system_id":"levelo_inurba_marseille","lat":43.2845,"lon":5.39196,"is_reserved":false,"is_disabled":false,"rental_uris":{"android":"levelo://app?vid=b93cc46e-40c5-414a-ad75-b625800c417e","ios":"levelo://app?vid=b93cc46e-40c5-414a-ad75-b625800c417e"},"vehicle_type_id":"4","last_reported":1758380884,"current_range_meters":9600,"station_id":"ce4bhoh2rcd13ifvqh5g","pricing_plan_id":"cebpf4jnsgd1na2vs0mg"},{"bike_id":"e162e41c-3ba4-4964-a3c5-9e62d73dfb0e","system_id":"levelo_inurba_marseille","lat":43.32112,"lon":5.36762,"is_reserved":false,"is_disabled":false,"rental_uris":{"android":"levelo://app?vid=e162e41c-3ba4-4964-a3c5-9e62d73dfb0e","ios":"levelo://app?vid=e162e41c-3ba4-4964-a3c5-9e62d73dfb0e"},"vehicle_type_id":"4","last_reported":1758380884,"current_range_meters":9600,"station_id":"ce4bhrh2rcd13ifvqhug","pricing_plan_id":"cebpf4jnsgd1na2vs0mg"},{"bike_id":"b6b6c374-d60e-4481-ab2b-87345cce4f00","system_id":"levelo_inurba_marseille","lat":43.28422,"lon":5.34983,"is_reserved":false,"is_disabled":false,"rental_uris":{"android":"levelo://app?vid=b6b6c374-d60e-4481-ab2b-87345cce4f00","ios":"levelo://app?vid=b6b6c374-d60e-4481-ab2b-87345cce4f00"},"vehicle_type_id":"4","last_reported":1758380884,"current_range_meters":9600,"station_id":"ce4bhbh2rcd13ifvqepg","pricing_plan_id":"cebpf4jnsgd1na2vs0mg"},{"bike_id":"c06f205f-b149-48e1-af6e-4e386850564e","system_id":"levelo_inurba_marseille","lat":43.24386,"lon":5.37091,"is_reserved":false,"is_disabled":true,"rental_uris":{"android":"levelo://app?vid=c06f205f-b149-48e1-af6e-4e386850564e","ios":"levelo://app?vid=c06f205f-b149-48e1-af6e-4e386850564e"},"vehicle_type_id":"4","last_reported":1758380884,"current_range_meters":9600,"station_id":"ce4bhhh2rcd13ifvqfk0","pricing_plan_id":"cebpf4jnsgd1na2vs0mg"},{"bike_id":"9fbac999-524c-4120-8067-eef4922087bd","system_id":"levelo_inurba_marseille","lat":43.26203,"lon":5.37925,"is_reserved":false,"is_disabled":false,"rental_uris":{"android":"levelo://app?vid=9fbac999-524c-4120-8067-eef4922087bd","ios":"levelo://app?vid=9fbac999-524c-4120-8067-eef4922087bd"},"vehicle_type_id":"4","last_reported":1758380884,"current_range_meters":9600,"station_id":"ce4bhjp2rcd13ifvqg90","pricing_plan_id":"cebpf4jnsgd1na2vs0mg"},{"bike_id":"47a5b051-3d25-4f9d-a9d4-3b4111816b42","system_id":"levelo_inurba_marseille","lat":43.22564,"lon":5.41594,"is_reserved":false,"is_disabled":false,"rental_uris":{"android":"levelo://app?vid=47a5b051-3d25-4f9d-a9d4-3b4111816b42","ios":"levelo://app?vid=47a5b051-3d25-4f9d-a9d4-3b4111816b42"},"vehicle_type_id":"4","last_reported":1758380884,"current_range_meters":9600,"station_id":"st_d2o4gvlbi1j2169b742g","pricing_plan_id":"cebpf4jnsgd1na2vs0mg"},{"bike_id":"667b500f-a8f4-46e8-9ad2-496cf7435b58","system_id":"levelo_inurba_marseille","lat":43.295188,"lon":5.390328,"is_reserved":false,"is_disabled":false,"rental_uris":{"android":"levelo://app?vid=667b500f-a8f4-46e8-9ad2-496cf7435b58","ios":"levelo://app?vid=667b500f-a8f4-46e8-9ad2-496cf7435b58"},"vehicle_type_id":"4","last_reported":1758380884,"current_range_meters":9600,"station_id":"ce4bh3h2rcd13ifvqdo0","pricing_plan_id":"cebpf4jnsgd1na2vs0mg"},{"bike_id":"418d7d67-02c8-4a53-b7b2-f6517c88b2a3","system_id":"levelo_inurba_marseille","lat":43.23182,"lon":5.39984,"is_reserved":false,"is_disabled":false,"rental_uris":{"android":"levelo://app?vid=418d7d67-02c8-4a53-b7b2-f6517c88b2a3","ios":"levelo://app?vid=418d7d67-02c8-4a53-b7b2-f6517c88b2a3"},"vehicle_type_id":"4","last_reported":1758380884,"current_range_meters":9600,"station_id":"ce4bhn12rcd13ifvqgqg","pricing_plan_id":"cebpf4jnsgd1na2vs0mg"},{"bike_id":"d618ee16-b4cf-41da-8e25-667e1fab27a6","system_id":"levelo_inurba_marseille","lat":43.21738,"lon":5.34593,"is_reserved":false,"is_disabled":false,"rental_uris":{"android":"levelo://app?vid=d618ee16-b4cf-41da-8e25-667e1fab27a6","ios":"levelo://app?vid=d618ee16-b4cf-41da-8e25-667e1fab27a6"},"vehicle_type_id":"4","last_reported":1758380884,"current_range_meters":10000,"station_id":"st_cvj6r9ubvosntc0bgbag","pricing_plan_id":"cebpf4jnsgd1na2vs0mg"},{"bike_id":"b766d582-d4f0-4f9a-9867-0ae0b8177870","system_id":"levelo_inurba_marseille","lat":43.21201,"lon":5.35019,"is_reserved":false,"is_disabled":false,"rental_uris":{"android":"levelo://app?vid=b766d582-d4f0-4f9a-9867-0ae0b8177870","ios":"levelo://app?vid=b766d582-d4f0-4f9a-9867-0ae0b8177870"},"vehicle_type_id":"4","last_reported":1758380884,"current_range_meters":10000,"station_id":"","pricing_plan_id":"cebpf4jnsgd1na2vs0mg"},{"bike_id":"6901499f-f000-46e6-bbfe-6432b651ee79","system_id":"levelo_inurba_marseille","lat":43.261951,"lon":5.374476,"is_reserved":false,"is_disabled":false,"rental_uris":{"android":"levelo://app?vid=6901499f-f000-46e6-bbfe-6432b651ee79","ios":"levelo://app?vid=6901499f-f000-46e6-bbfe-6432b651ee79"},"vehicle_type_id":"4","last_reported":1758380884,"current_range_meters":10000,"station_id":"ce4bhgp2rcd13ifvqfc0","pricing_plan_id":"cebpf4jnsgd1na2vs0mg"},{"bike_id":"617dca4b-4508-4d52-9e62-d583d919ac44","system_id":"levelo_inurba_marseille","lat":43.29729,"lon":5.37112,"is_reserved":false,"is_disabled":false,"rental_uris":{"android":"levelo://app?vid=617dca4b-4508-4d52-9e62-d583d919ac44","ios":"levelo://app?vid=617dca4b-4508-4d52-9e62-d583d919ac44"},"vehicle_type_id":"4","last_reported":1758380884,"current_range_meters":10000,"station_id":"","pricing_plan_id":"cebpf4jnsgd1na2vs0mg"},{"bike_id":"575f379b-682e-45a6-a90b-e2da032a9ae0","system_id":"levelo_inurba_marseille","lat":43.21187,"lon":5.35065,"is_reserved":false,"is_disabled":false,"rental_uris":{"android":"levelo://app?vid=575f379b-682e-45a6-a90b-e2da032a9ae0","ios":"levelo://app?vid=575f379b-682e-45a6-a90b-e2da032a9ae0"},"vehicle_type_id":"4","last_reported":1758380884,"current_range_meters":10000,"station_id":"st_cvj6sg6p6f1abm77japg","pricing_plan_id":"cebpf4jnsgd1na2vs0mg"},{"bike_id":"b77580f2-2757-4ce2-89a7-bf551bfbec7a","system_id":"levelo_inurba_marseille","lat":43.292906,"lon":5.374648,"is_reserved":false,"is_disabled":false,"rental_uris":{"android":"levelo://app?vid=b77580f2-2757-4ce2-89a7-bf551bfbec7a","ios":"levelo://app?vid=b77580f2-2757-4ce2-89a7-bf551bfbec7a"},"vehicle_type_id":"4","last_reported":1758380884,"current_range_meters":10800,"station_id":"","pricing_plan_id":"cebpf4jnsgd1na2vs0mg"},{"bike_id":"5b84af94-a4d6-4b46-a63f-085ff5681f73","system_id":"levelo_inurba_marseille","lat":43.21202,"lon":5.35051,"is_reserved":false,"is_disabled":false,"rental_uris":{"android":"levelo://app?vid=5b84af94-a4d6-4b46-a63f-085ff5681f73","ios":"levelo://app?vid=5b84af94-a4d6-4b46-a63f-085ff5681f73"},"vehicle_type_id":"4","last_reported":1758380884,"current_range_meters":10800,"station_id":"st_cvj6sg6p6f1abm77japg","pricing_plan_id":"cebpf4jnsgd1na2vs0mg"},{"bike_id":"2dbb9a5f-994c-4cc3-be96-b9d4556d7225","system_id":"levelo_inurba_marseille","lat":43.28286,"lon":5.35023,"is_reserved":false,"is_disabled":false,"rental_uris":{"android":"levelo://app?vid=2dbb9a5f-994c-4cc3-be96-b9d4556d7225","ios":"levelo://app?vid=2dbb9a5f-994c-4cc3-be96-b9d4556d7225"},"vehicle_type_id":"4","last_reported":1758380884,"current_range_meters":10800,"station_id":"ce4bhbp2rcd13ifvqerg","pricing_plan_id":"cebpf4jnsgd1na2vs0mg"},{"bike_id":"fdcd22c2-cda0-4032-a915-ae77e75b1bb5","system_id":"levelo_inurba_marseille","lat":43.24165,"lon":5.3639,"is_reserved":false,"is_disabled":false,"rental_uris":{"android":"levelo://app?vid=fdcd22c2-cda0-4032-a915-ae77e75b1bb5","ios":"levelo://app?vid=fdcd22c2-cda0-4032-a915-ae77e75b1bb5"},"vehicle_type_id":"4","last_reported":1758380884,"current_range_meters":10800,"station_id":"cpo36qri1sfpv3e86is0","pricing_plan_id":"cebpf4jnsgd1na2vs0mg"},{"bike_id":"af77eb6d-dc27-4b4c-82d4-32525e244ac4","system_id":"levelo_inurba_marseille","lat":43.21736,"lon":5.34607,"is_reserved":false,"is_disabled":false,"rental_uris":{"android":"levelo://app?vid=af77eb6d-dc27-4b4c-82d4-32525e244ac4","ios":"levelo://app?vid=af77eb6d-dc27-4b4c-82d4-32525e244ac4"},"vehicle_type_id":"4","last_reported":1758380884,"current_range_meters":10800,"station_id":"st_cvj6r9ubvosntc0bgbag","pricing_plan_id":"cebpf4jnsgd1na2vs0mg"},{"bike_id":"c4706891-6ce1-4440-91ff-a3ecf2ff007e","system_id":"levelo_inurba_marseille","lat":43.26374,"lon":5.40075,"is_reserved":false,"is_disabled":false,"rental_uris":{"android":"levelo://app?vid=c4706891-6ce1-4440-91ff-a3ecf2ff007e","ios":"levelo://app?vid=c4706891-6ce1-4440-91ff-a3ecf2ff007e"},"vehicle_type_id":"4","last_reported":1758380884,"current_range_meters":11600,"station_id":"","pricing_plan_id":"cebpf4jnsgd1na2vs0mg"},{"bike_id":"8e86fe12-b2d6-4764-9720-31f5ab462b7b","system_id":"levelo_inurba_marseille","lat":43.22567,"lon":5.41612,"is_reserved":false,"is_disabled":false,"rental_uris":{"android":"levelo://app?vid=8e86fe12-b2d6-4764-9720-31f5ab462b7b","ios":"levelo://app?vid=8e86fe12-b2d6-4764-9720-31f5ab462b7b"},"vehicle_type_id":"4","last_reported":1758380884,"current_range_meters":11600,"station_id":"st_d2o4gvlbi1j2169b742g","pricing_plan_id":"cebpf4jnsgd1na2vs0mg"},{"bike_id":"127468be-c9ce-4a81-839b-70d439fb56eb","system_id":"levelo_inurba_marseille","lat":43.28614,"lon":5.35105,"is_reserved":false,"is_disabled":false,"rental_uris":{"android":"levelo://app?vid=127468be-c9ce-4a81-839b-70d439fb56eb","ios":"levelo://app?vid=127468be-c9ce-4a81-839b-70d439fb56eb"},"vehicle_type_id":"4","last_reported":1758380884,"current_range_meters":11600,"station_id":"ce4bhch2rcd13ifvqeug","pricing_plan_id":"cebpf4jnsgd1na2vs0mg"},{"bike_id":"1e4be91f-8fff-4474-b448-2286660f296b","system_id":"levelo_inurba_marseille","lat":43.29171,"lon":5.37159,"is_reserved":false,"is_disabled":false,"rental_uris":{"android":"levelo://app?vid=1e4be91f-8fff-4474-b448-2286660f296b","ios":"levelo://app?vid=1e4be91f-8fff-4474-b448-2286660f296b"},"vehicle_type_id":"4","last_reported":1758380884,"current_range_meters":11200,"station_id":"ce4bha92rcd13ifvqeh0","pricing_plan_id":"cebpf4jnsgd1na2vs0mg"},{"bike_id":"2b677e52-a11f-4d71-9095-c3e251c28ff6","system_id":"levelo_inurba_marseille","lat":43.269369,"lon":5.389151,"is_reserved":false,"is_disabled":false,"rental_uris":{"android":"levelo://app?vid=2b677e52-a11f-4d71-9095-c3e251c28ff6","ios":"levelo://app?vid=2b677e52-a11f-4d71-9095-c3e251c28ff6"},"vehicle_type_id":"4","last_reported":1758380884,"current_range_meters":11600,"station_id":"ce4bhhh2rcd13ifvqfl0","pricing_plan_id":"cebpf4jnsgd1na2vs0mg"},{"bike_id":"a6a0fe9b-5828-4e69-bd39-1f5f34d3d757","system_id":"levelo_inurba_marseille","lat":43.2736,"lon":5.36248,"is_reserved":false,"is_disabled":false,"rental_uris":{"android":"levelo://app?vid=a6a0fe9b-5828-4e69-bd39-1f5f34d3d757","ios":"levelo://app?vid=a6a0fe9b-5828-4e69-bd39-1f5f34d3d757"},"vehicle_type_id":"4","last_reported":1758380884,"current_range_meters":11600,"station_id":"ce4bhbh2rcd13ifvqeo0","pricing_plan_id":"cebpf4jnsgd1na2vs0mg"},{"bike_id":"b63f64d7-b69c-4beb-8478-932de87b7a46","system_id":"levelo_inurba_marseille","lat":43.211971,"lon":5.350739,"is_reserved":false,"is_disabled":false,"rental_uris":{"android":"levelo://app?vid=b63f64d7-b69c-4beb-8478-932de87b7a46","ios":"levelo://app?vid=b63f64d7-b69c-4beb-8478-932de87b7a46"},"vehicle_type_id":"4","last_reported":1758380884,"current_range_meters":12000,"station_id":"","pricing_plan_id":"cebpf4jnsgd1na2vs0mg"},{"bike_id":"98e8af00-4b83-49fb-a286-0d2396c92bd0","system_id":"levelo_inurba_marseille","lat":43.3089,"lon":5.3685,"is_reserved":false,"is_disabled":true,"rental_uris":{"android":"levelo://app?vid=98e8af00-4b83-49fb-a286-0d2396c92bd0","ios":"levelo://app?vid=98e8af00-4b83-49fb-a286-0d2396c92bd0"},"vehicle_type_id":"4","last_reported":1758380884,"current_range_meters":12000,"station_id":"ce4bgn92rcd13ifvqbvg","pricing_plan_id":"cebpf4jnsgd1na2vs0mg"},{"bike_id":"21100b46-a46f-4dba-8aca-533ef91f921b","system_id":"levelo_inurba_marseille","lat":43.21199,"lon":5.35065,"is_reserved":false,"is_disabled":false,"rental_uris":{"android":"levelo://app?vid=21100b46-a46f-4dba-8aca-533ef91f921b","ios":"levelo://app?vid=21100b46-a46f-4dba-8aca-533ef91f921b"},"vehicle_type_id":"4","last_reported":1758380884,"current_range_meters":12000,"station_id":"st_cvj6sg6p6f1abm77japg","pricing_plan_id":"cebpf4jnsgd1na2vs0mg"},{"bike_id":"4b51fe39-6b33-4333-aea3-822b80340ced","system_id":"levelo_inurba_marseille","lat":43.231823,"lon":5.399915,"is_reserved":false,"is_disabled":false,"rental_uris":{"android":"levelo://app?vid=4b51fe39-6b33-4333-aea3-822b80340ced","ios":"levelo://app?vid=4b51fe39-6b33-4333-aea3-822b80340ced"},"vehicle_type_id":"4","last_reported":1758380884,"current_range_meters":12000,"station_id":"ce4bhn12rcd13ifvqgqg","pricing_plan_id":"cebpf4jnsgd1na2vs0mg"},{"bike_id":"f6c5973e-ca54-404c-a9ce-417ea357c011","system_id":"levelo_inurba_marseille","lat":43.305401,"lon":5.365511,"is_reserved":false,"is_disabled":false,"rental_uris":{"android":"levelo://app?vid=f6c5973e-ca54-404c-a9ce-417ea357c011","ios":"levelo://app?vid=f6c5973e-ca54-404c-a9ce-417ea357c011"},"vehicle_type_id":"4","last_reported":1758380884,"current_range_meters":14800,"station_id":"ce4bgs12rcd13ifvqcag","pricing_plan_id":"cebpf4jnsgd1na2vs0mg"},{"bike_id":"4d00bd6d-6650-485a-b706-c20850ce2f87","system_id":"levelo_inurba_marseille","lat":43.21742,"lon":5.34604,"is_reserved":false,"is_disabled":false,"rental_uris":{"android":"levelo://app?vid=4d00bd6d-6650-485a-b706-c20850ce2f87","ios":"levelo://app?vid=4d00bd6d-6650-485a-b706-c20850ce2f87"},"vehicle_type_id":"4","last_reported":1758380884,"current_range_meters":12000,"station_id":"st_cvj6r9ubvosntc0bgbag","pricing_plan_id":"cebpf4jnsgd1na2vs0mg"},{"bike_id":"05ca0aa0-5596-4971-a0c3-94e65df6bd50","system_id":"levelo_inurba_marseille","lat":43.22557,"lon":5.4163,"is_reserved":false,"is_disabled":false,"rental_uris":{"android":"levelo://app?vid=05ca0aa0-5596-4971-a0c3-94e65df6bd50","ios":"levelo://app?vid=05ca0aa0-5596-4971-a0c3-94e65df6bd50"},"vehicle_type_id":"4","last_reported":1758380884,"current_range_meters":12000,"station_id":"st_d2o4gvlbi1j2169b742g","pricing_plan_id":"cebpf4jnsgd1na2vs0mg"},{"bike_id":"bf15a5e8-5f9d-465c-8783-852eb7e6ec72","system_id":"levelo_inurba_marseille","lat":43.26553,"lon":5.37272,"is_reserved":false,"is_disabled":false,"rental_uris":{"android":"levelo://app?vid=bf15a5e8-5f9d-465c-8783-852eb7e6ec72","ios":"levelo://app?vid=bf15a5e8-5f9d-465c-8783-852eb7e6ec72"},"vehicle_type_id":"4","last_reported":1758380884,"current_range_meters":12000,"station_id":"ce4bhg12rcd13ifvqf70","pricing_plan_id":"cebpf4jnsgd1na2vs0mg"},{"bike_id":"19ae4818-999a-4414-9d43-5fbf97c082bd","system_id":"levelo_inurba_marseille","lat":43.32478,"lon":5.36557,"is_reserved":false,"is_disabled":false,"rental_uris":{"android":"levelo://app?vid=19ae4818-999a-4414-9d43-5fbf97c082bd","ios":"levelo://app?vid=19ae4818-999a-4414-9d43-5fbf97c082bd"},"vehicle_type_id":"4","last_reported":1758380884,"current_range_meters":12000,"station_id":"ce4bhs12rcd13ifvqhvg","pricing_plan_id":"cebpf4jnsgd1na2vs0mg"},{"bike_id":"be512714-ebf0-4ae3-859e-b1004006351f","system_id":"levelo_inurba_marseille","lat":43.29256,"lon":5.40902,"is_reserved":false,"is_disabled":false,"rental_uris":{"android":"levelo://app?vid=be512714-ebf0-4ae3-859e-b1004006351f","ios":"levelo://app?vid=be512714-ebf0-4ae3-859e-b1004006351f"},"vehicle_type_id":"4","last_reported":1758380884,"current_range_meters":12000,"station_id":"ce4bh192rcd13ifvqdc0","pricing_plan_id":"cebpf4jnsgd1na2vs0mg"},{"bike_id":"d5e31001-214c-4203-b2ad-78b503011d6a","system_id":"levelo_inurba_marseille","lat":43.23194,"lon":5.35553,"is_reserved":false,"is_disabled":false,"rental_uris":{"android":"levelo://app?vid=d5e31001-214c-4203-b2ad-78b503011d6a","ios":"levelo://app?vid=d5e31001-214c-4203-b2ad-78b503011d6a"},"vehicle_type_id":"4","last_reported":1758380884,"current_range_meters":12000,"station_id":"ce4bhu92rcd13ifvqi70","pricing_plan_id":"cebpf4jnsgd1na2vs0mg"},{"bike_id":"4f487354-59ad-4456-bf80-7bbb0a1053f9","system_id":"levelo_inurba_marseille","lat":43.295264,"lon":5.390392,"is_reserved":false,"is_disabled":false,"rental_uris":{"android":"levelo://app?vid=4f487354-59ad-4456-bf80-7bbb0a1053f9","ios":"levelo://app?vid=4f487354-59ad-4456-bf80-7bbb0a1053f9"},"vehicle_type_id":"4","last_reported":1758380884,"current_range_meters":12400,"station_id":"ce4bh3p2rcd13ifvqdp0","pricing_plan_id":"cebpf4jnsgd1na2vs0mg"},{"bike_id":"100fc699-7bc2-45de-9e70-967069e79569","system_id":"levelo_inurba_marseille","lat":43.27934,"lon":5.41052,"is_reserved":false,"is_disabled":false,"rental_uris":{"android":"levelo://app?vid=100fc699-7bc2-45de-9e70-967069e79569","ios":"levelo://app?vid=100fc699-7bc2-45de-9e70-967069e79569"},"vehicle_type_id":"4","last_reported":1758380884,"current_range_meters":12400,"station_id":"ce4bhnp2rcd13ifvqh0g","pricing_plan_id":"cebpf4jnsgd1na2vs0mg"},{"bike_id":"d8ac1dd4-85cd-46eb-b9a3-bc6f25e1317b","system_id":"levelo_inurba_marseille","lat":43.28936,"lon":5.36634,"is_reserved":false,"is_disabled":false,"rental_uris":{"android":"levelo://app?vid=d8ac1dd4-85cd-46eb-b9a3-bc6f25e1317b","ios":"levelo://app?vid=d8ac1dd4-85cd-46eb-b9a3-bc6f25e1317b"},"vehicle_type_id":"4","last_reported":1758380884,"current_range_meters":10000,"station_id":"ce4bhap2rcd13ifvqek0","pricing_plan_id":"cebpf4jnsgd1na2vs0mg"},{"bike_id":"9dda362f-31ca-490a-a5c0-06c09f1dbe36","system_id":"levelo_inurba_marseille","lat":43.23963,"lon":5.36623,"is_reserved":false,"is_disabled":false,"rental_uris":{"android":"levelo://app?vid=9dda362f-31ca-490a-a5c0-06c09f1dbe36","ios":"levelo://app?vid=9dda362f-31ca-490a-a5c0-06c09f1dbe36"},"vehicle_type_id":"4","last_reported":1758380884,"current_range_meters":12400,"station_id":"ce4bhi12rcd13ifvqfp0","pricing_plan_id":"cebpf4jnsgd1na2vs0mg"},{"bike_id":"52b5f431-e387-4016-a9e0-232087690347","system_id":"levelo_inurba_marseille","lat":43.21187,"lon":5.35069,"is_reserved":false,"is_disabled":false,"rental_uris":{"android":"levelo://app?vid=52b5f431-e387-4016-a9e0-232087690347","ios":"levelo://app?vid=52b5f431-e387-4016-a9e0-232087690347"},"vehicle_type_id":"4","last_reported":1758380884,"current_range_meters":12400,"station_id":"st_cvj6sg6p6f1abm77japg","pricing_plan_id":"cebpf4jnsgd1na2vs0mg"},{"bike_id":"11f536f5-f858-4572-b106-c5cc3146e3cd","system_id":"levelo_inurba_marseille","lat":43.2533,"lon":5.42164,"is_reserved":false,"is_disabled":false,"rental_uris":{"android":"levelo://app?vid=11f536f5-f858-4572-b106-c5cc3146e3cd","ios":"levelo://app?vid=11f536f5-f858-4572-b106-c5cc3146e3cd"},"vehicle_type_id":"4","last_reported":1758380884,"current_range_meters":12400,"station_id":"st_d2m65c5bi1j21697t3ng","pricing_plan_id":"cebpf4jnsgd1na2vs0mg"},{"bike_id":"3fc70425-07a0-4969-a4e2-30ace61b756b","system_id":"levelo_inurba_marseille","lat":43.21748,"lon":5.34601,"is_reserved":false,"is_disabled":false,"rental_uris":{"android":"levelo://app?vid=3fc70425-07a0-4969-a4e2-30ace61b756b","ios":"levelo://app?vid=3fc70425-07a0-4969-a4e2-30ace61b756b"},"vehicle_type_id":"4","last_reported":1758380884,"current_range_meters":12400,"station_id":"st_cvj6r9ubvosntc0bgbag","pricing_plan_id":"cebpf4jnsgd1na2vs0mg"},{"bike_id":"1c184486-5df7-4033-bfa8-af74c49cbd92","system_id":"levelo_inurba_marseille","lat":43.23196,"lon":5.35549,"is_reserved":false,"is_disabled":false,"rental_uris":{"android":"levelo://app?vid=1c184486-5df7-4033-bfa8-af74c49cbd92","ios":"levelo://app?vid=1c184486-5df7-4033-bfa8-af74c49cbd92"},"vehicle_type_id":"4","last_reported":1758380884,"current_range_meters":12400,"station_id":"ce4bhu92rcd13ifvqi70","pricing_plan_id":"cebpf4jnsgd1na2vs0mg"},{"bike_id":"08156082-ce7f-420c-9f22-bee81ccbaab1","system_id":"levelo_inurba_marseille","lat":43.24166,"lon":5.36372,"is_reserved":false,"is_disabled":false,"rental_uris":{"android":"levelo://app?vid=08156082-ce7f-420c-9f22-bee81ccbaab1","ios":"levelo://app?vid=08156082-ce7f-420c-9f22-bee81ccbaab1"},"vehicle_type_id":"4","last_reported":1758380884,"current_range_meters":12800,"station_id":"cpo36qri1sfpv3e86is0","pricing_plan_id":"cebpf4jnsgd1na2vs0mg"},{"bike_id":"e4ea91dd-443e-494b-a0c5-a3eed0a8f214","system_id":"levelo_inurba_marseille","lat":43.25491,"lon":5.37652,"is_reserved":false,"is_disabled":false,"rental_uris":{"android":"levelo://app?vid=e4ea91dd-443e-494b-a0c5-a3eed0a8f214","ios":"levelo://app?vid=e4ea91dd-443e-494b-a0c5-a3eed0a8f214"},"vehicle_type_id":"4","last_reported":1758380884,"current_range_meters":12800,"station_id":"ce4bhh12rcd13ifvqff0","pricing_plan_id":"cebpf4jnsgd1na2vs0mg"},{"bike_id":"b3e4ad82-6024-4f4f-9a8b-026e1ff2f026","system_id":"levelo_inurba_marseille","lat":43.2175,"lon":5.34576,"is_reserved":false,"is_disabled":false,"rental_uris":{"android":"levelo://app?vid=b3e4ad82-6024-4f4f-9a8b-026e1ff2f026","ios":"levelo://app?vid=b3e4ad82-6024-4f4f-9a8b-026e1ff2f026"},"vehicle_type_id":"4","last_reported":1758380884,"current_range_meters":12800,"station_id":"st_cvj6r9ubvosntc0bgbag","pricing_plan_id":"cebpf4jnsgd1na2vs0mg"},{"bike_id":"7fb58d99-54fa-4834-9399-d93d773fcc6f","system_id":"levelo_inurba_marseille","lat":43.21195,"lon":5.35064,"is_reserved":false,"is_disabled":false,"rental_uris":{"android":"levelo://app?vid=7fb58d99-54fa-4834-9399-d93d773fcc6f","ios":"levelo://app?vid=7fb58d99-54fa-4834-9399-d93d773fcc6f"},"vehicle_type_id":"4","last_reported":1758380884,"current_range_meters":12800,"station_id":"st_cvj6sg6p6f1abm77japg","pricing_plan_id":"cebpf4jnsgd1na2vs0mg"},{"bike_id":"9b126147-d7d3-4964-8fcd-b673e357daae","system_id":"levelo_inurba_marseille","lat":43.30279,"lon":5.37716,"is_reserved":false,"is_disabled":false,"rental_uris":{"android":"levelo://app?vid=9b126147-d7d3-4964-8fcd-b673e357daae","ios":"levelo://app?vid=9b126147-d7d3-4964-8fcd-b673e357daae"},"vehicle_type_id":"4","last_reported":1758380884,"current_range_meters":12800,"station_id":"ce4bguh2rcd13ifvqcj0","pricing_plan_id":"cebpf4jnsgd1na2vs0mg"},{"bike_id":"995f22d9-1973-462a-ad18-2747a0b78087","system_id":"levelo_inurba_marseille","lat":43.28265,"lon":5.35062,"is_reserved":false,"is_disabled":false,"rental_uris":{"android":"levelo://app?vid=995f22d9-1973-462a-ad18-2747a0b78087","ios":"levelo://app?vid=995f22d9-1973-462a-ad18-2747a0b78087"},"vehicle_type_id":"4","last_reported":1758380884,"current_range_meters":13600,"station_id":"ce4bhbp2rcd13ifvqerg","pricing_plan_id":"cebpf4jnsgd1na2vs0mg"},{"bike_id":"035be1b5-37eb-4ce0-af39-f012d6e605bd","system_id":"levelo_inurba_marseille","lat":43.24175,"lon":5.36371,"is_reserved":false,"is_disabled":false,"rental_uris":{"android":"levelo://app?vid=035be1b5-37eb-4ce0-af39-f012d6e605bd","ios":"levelo://app?vid=035be1b5-37eb-4ce0-af39-f012d6e605bd"},"vehicle_type_id":"4","last_reported":1758380884,"current_range_meters":13600,"station_id":"cpo36qri1sfpv3e86is0","pricing_plan_id":"cebpf4jnsgd1na2vs0mg"},{"bike_id":"438ead59-de14-4fa0-a61d-03a70a4122ae","system_id":"levelo_inurba_marseille","lat":43.9726,"lon":4.89141,"is_reserved":false,"is_disabled":true,"rental_uris":{"android":"levelo://app?vid=438ead59-de14-4fa0-a61d-03a70a4122ae","ios":"levelo://app?vid=438ead59-de14-4fa0-a61d-03a70a4122ae"},"vehicle_type_id":"4","last_reported":1758380884,"current_range_meters":13600,"station_id":"","pricing_plan_id":"cebpf4jnsgd1na2vs0mg"},{"bike_id":"2a00cb84-e9e6-4781-804d-0494d7480777","system_id":"levelo_inurba_marseille","lat":43.22558,"lon":5.41622,"is_reserved":false,"is_disabled":false,"rental_uris":{"android":"levelo://app?vid=2a00cb84-e9e6-4781-804d-0494d7480777","ios":"levelo://app?vid=2a00cb84-e9e6-4781-804d-0494d7480777"},"vehicle_type_id":"4","last_reported":1758380884,"current_range_meters":14000,"station_id":"st_d2o4gvlbi1j2169b742g","pricing_plan_id":"cebpf4jnsgd1na2vs0mg"},{"bike_id":"0f7caa9f-1d1a-40d7-9b4a-2f8720e63681","system_id":"levelo_inurba_marseille","lat":43.30861,"lon":5.37539,"is_reserved":false,"is_disabled":false,"rental_uris":{"android":"levelo://app?vid=0f7caa9f-1d1a-40d7-9b4a-2f8720e63681","ios":"levelo://app?vid=0f7caa9f-1d1a-40d7-9b4a-2f8720e63681"},"vehicle_type_id":"4","last_reported":1758380884,"current_range_meters":14000,"station_id":"","pricing_plan_id":"cebpf4jnsgd1na2vs0mg"},{"bike_id":"213f818a-2fc2-423a-8734-2921a1895f7c","system_id":"levelo_inurba_marseille","lat":43.21197,"lon":5.35079,"is_reserved":false,"is_disabled":false,"rental_uris":{"android":"levelo://app?vid=213f818a-2fc2-423a-8734-2921a1895f7c","ios":"levelo://app?vid=213f818a-2fc2-423a-8734-2921a1895f7c"},"vehicle_type_id":"4","last_reported":1758380884,"current_range_meters":14000,"station_id":"st_cvj6sg6p6f1abm77japg","pricing_plan_id":"cebpf4jnsgd1na2vs0mg"},{"bike_id":"01d2d6f7-7c27-48a2-8c74-d64148b1df70","system_id":"levelo_inurba_marseille","lat":43.30438,"lon":5.38887,"is_reserved":false,"is_disabled":false,"rental_uris":{"android":"levelo://app?vid=01d2d6f7-7c27-48a2-8c74-d64148b1df70","ios":"levelo://app?vid=01d2d6f7-7c27-48a2-8c74-d64148b1df70"},"vehicle_type_id":"4","last_reported":1758380884,"current_range_meters":13600,"station_id":"ce4bgk12rcd13ifvqbi0","pricing_plan_id":"cebpf4jnsgd1na2vs0mg"},{"bike_id":"55d1bc08-fd54-4a82-afc7-2adcaa7b1c4e","system_id":"levelo_inurba_marseille","lat":43.30024,"lon":5.37701,"is_reserved":false,"is_disabled":false,"rental_uris":{"android":"levelo://app?vid=55d1bc08-fd54-4a82-afc7-2adcaa7b1c4e","ios":"levelo://app?vid=55d1bc08-fd54-4a82-afc7-2adcaa7b1c4e"},"vehicle_type_id":"4","last_reported":1758380884,"current_range_meters":14000,"station_id":"","pricing_plan_id":"cebpf4jnsgd1na2vs0mg"},{"bike_id":"c1843d42-9f15-4235-8c7f-0c60147cb155","system_id":"levelo_inurba_marseille","lat":43.21207,"lon":5.3508,"is_reserved":false,"is_disabled":false,"rental_uris":{"android":"levelo://app?vid=c1843d42-9f15-4235-8c7f-0c60147cb155","ios":"levelo://app?vid=c1843d42-9f15-4235-8c7f-0c60147cb155"},"vehicle_type_id":"4","last_reported":1758380884,"current_range_meters":14000,"station_id":"st_cvj6sg6p6f1abm77japg","pricing_plan_id":"cebpf4jnsgd1na2vs0mg"},{"bike_id":"d507e843-78d1-4fd7-a084-6bd9b612ebe8","system_id":"levelo_inurba_marseille","lat":43.28384,"lon":5.40478,"is_reserved":false,"is_disabled":true,"rental_uris":{"android":"levelo://app?vid=d507e843-78d1-4fd7-a084-6bd9b612ebe8","ios":"levelo://app?vid=d507e843-78d1-4fd7-a084-6bd9b612ebe8"},"vehicle_type_id":"4","last_reported":1758380884,"current_range_meters":14000,"station_id":"","pricing_plan_id":"cebpf4jnsgd1na2vs0mg"},{"bike_id":"7af0210f-1088-46ca-bac8-9bd355b2ff34","system_id":"levelo_inurba_marseille","lat":43.298698,"lon":5.397313,"is_reserved":false,"is_disabled":false,"rental_uris":{"android":"levelo://app?vid=7af0210f-1088-46ca-bac8-9bd355b2ff34","ios":"levelo://app?vid=7af0210f-1088-46ca-bac8-9bd355b2ff34"},"vehicle_type_id":"4","last_reported":1758380884,"current_range_meters":14400,"station_id":"ce4bh0h2rcd13ifvqd50","pricing_plan_id":"cebpf4jnsgd1na2vs0mg"},{"bike_id":"f752aa8c-ed7e-4239-b71e-771a2a3cec1e","system_id":"levelo_inurba_marseille","lat":43.21191,"lon":5.3508,"is_reserved":false,"is_disabled":false,"rental_uris":{"android":"levelo://app?vid=f752aa8c-ed7e-4239-b71e-771a2a3cec1e","ios":"levelo://app?vid=f752aa8c-ed7e-4239-b71e-771a2a3cec1e"},"vehicle_type_id":"4","last_reported":1758380884,"current_range_meters":14400,"station_id":"st_cvj6sg6p6f1abm77japg","pricing_plan_id":"cebpf4jnsgd1na2vs0mg"},{"bike_id":"19690668-1178-4799-8f23-d2282ebfd057","system_id":"levelo_inurba_marseille","lat":43.22933,"lon":5.35391,"is_reserved":false,"is_disabled":false,"rental_uris":{"android":"levelo://app?vid=19690668-1178-4799-8f23-d2282ebfd057","ios":"levelo://app?vid=19690668-1178-4799-8f23-d2282ebfd057"},"vehicle_type_id":"4","last_reported":1758380884,"current_range_meters":14400,"station_id":"cpo3532slgdg3j2ikp40","pricing_plan_id":"cebpf4jnsgd1na2vs0mg"},{"bike_id":"2d82061a-a240-43d1-93a6-ab71cf777b3c","system_id":"levelo_inurba_marseille","lat":43.21189,"lon":5.35049,"is_reserved":false,"is_disabled":false,"rental_uris":{"android":"levelo://app?vid=2d82061a-a240-43d1-93a6-ab71cf777b3c","ios":"levelo://app?vid=2d82061a-a240-43d1-93a6-ab71cf777b3c"},"vehicle_type_id":"4","last_reported":1758380884,"current_range_meters":14400,"station_id":"st_cvj6sg6p6f1abm77japg","pricing_plan_id":"cebpf4jnsgd1na2vs0mg"},{"bike_id":"3ddd109f-6940-4f22-9160-786f75d3c0db","system_id":"levelo_inurba_marseille","lat":43.24166,"lon":5.3639,"is_reserved":false,"is_disabled":false,"rental_uris":{"android":"levelo://app?vid=3ddd109f-6940-4f22-9160-786f75d3c0db","ios":"levelo://app?vid=3ddd109f-6940-4f22-9160-786f75d3c0db"},"vehicle_type_id":"4","last_reported":1758380884,"current_range_meters":14400,"station_id":"cpo36qri1sfpv3e86is0","pricing_plan_id":"cebpf4jnsgd1na2vs0mg"},{"bike_id":"2015c1f2-c286-408a-b930-50d865ce0bb9","system_id":"levelo_inurba_marseille","lat":43.21187,"lon":5.35057,"is_reserved":false,"is_disabled":false,"rental_uris":{"android":"levelo://app?vid=2015c1f2-c286-408a-b930-50d865ce0bb9","ios":"levelo://app?vid=2015c1f2-c286-408a-b930-50d865ce0bb9"},"vehicle_type_id":"4","last_reported":1758380884,"current_range_meters":14400,"station_id":"st_cvj6sg6p6f1abm77japg","pricing_plan_id":"cebpf4jnsgd1na2vs0mg"},{"bike_id":"a07a513e-e5a9-4481-8592-d991379bc662","system_id":"levelo_inurba_marseille","lat":43.337536,"lon":5.374536,"is_reserved":false,"is_disabled":false,"rental_uris":{"android":"levelo://app?vid=a07a513e-e5a9-4481-8592-d991379bc662","ios":"levelo://app?vid=a07a513e-e5a9-4481-8592-d991379bc662"},"vehicle_type_id":"4","last_reported":1758380884,"current_range_meters":14400,"station_id":"","pricing_plan_id":"cebpf4jnsgd1na2vs0mg"},{"bike_id":"e17a9efa-ca51-4bc9-9208-acfeac6036b9","system_id":"levelo_inurba_marseille","lat":43.28721,"lon":5.35208,"is_reserved":false,"is_disabled":false,"rental_uris":{"android":"levelo://app?vid=e17a9efa-ca51-4bc9-9208-acfeac6036b9","ios":"levelo://app?vid=e17a9efa-ca51-4bc9-9208-acfeac6036b9"},"vehicle_type_id":"4","last_reported":1758380884,"current_range_meters":14800,"station_id":"","pricing_plan_id":"cebpf4jnsgd1na2vs0mg"},{"bike_id":"2e293824-b51e-4d23-8047-40ce2de89912","system_id":"levelo_inurba_marseille","lat":43.32104,"lon":5.36772,"is_reserved":false,"is_disabled":false,"rental_uris":{"android":"levelo://app?vid=2e293824-b51e-4d23-8047-40ce2de89912","ios":"levelo://app?vid=2e293824-b51e-4d23-8047-40ce2de89912"},"vehicle_type_id":"4","last_reported":1758380884,"current_range_meters":14800,"station_id":"ce4bhrh2rcd13ifvqhug","pricing_plan_id":"cebpf4jnsgd1na2vs0mg"},{"bike_id":"8f90c6e9-c2a0-414b-a280-ed01b517d1e8","system_id":"levelo_inurba_marseille","lat":43.21186,"lon":5.35058,"is_reserved":false,"is_disabled":false,"rental_uris":{"android":"levelo://app?vid=8f90c6e9-c2a0-414b-a280-ed01b517d1e8","ios":"levelo://app?vid=8f90c6e9-c2a0-414b-a280-ed01b517d1e8"},"vehicle_type_id":"4","last_reported":1758380884,"current_range_meters":14800,"station_id":"st_cvj6sg6p6f1abm77japg","pricing_plan_id":"cebpf4jnsgd1na2vs0mg"},{"bike_id":"f0e1ef0b-10de-4f13-a7bd-e18e38e7cafb","system_id":"levelo_inurba_marseille","lat":43.25717,"lon":5.41113,"is_reserved":false,"is_disabled":false,"rental_uris":{"android":"levelo://app?vid=f0e1ef0b-10de-4f13-a7bd-e18e38e7cafb","ios":"levelo://app?vid=f0e1ef0b-10de-4f13-a7bd-e18e38e7cafb"},"vehicle_type_id":"4","last_reported":1758380884,"current_range_meters":14400,"station_id":"ce4bhkp2rcd13ifvqgd0","pricing_plan_id":"cebpf4jnsgd1na2vs0mg"},{"bike_id":"97893650-9a0c-47e4-baee-ec60bbc1b06d","system_id":"levelo_inurba_marseille","lat":43.25731,"lon":5.41065,"is_reserved":false,"is_disabled":true,"rental_uris":{"android":"levelo://app?vid=97893650-9a0c-47e4-baee-ec60bbc1b06d","ios":"levelo://app?vid=97893650-9a0c-47e4-baee-ec60bbc1b06d"},"vehicle_type_id":"4","last_reported":1758380884,"current_range_meters":14800,"station_id":"ce4bhkp2rcd13ifvqgd0","pricing_plan_id":"cebpf4jnsgd1na2vs0mg"},{"bike_id":"d0665e4f-00da-46e5-b2cc-396a4c65bcca","system_id":"levelo_inurba_marseille","lat":43.23189,"lon":5.3555,"is_reserved":false,"is_disabled":false,"rental_uris":{"android":"levelo://app?vid=d0665e4f-00da-46e5-b2cc-396a4c65bcca","ios":"levelo://app?vid=d0665e4f-00da-46e5-b2cc-396a4c65bcca"},"vehicle_type_id":"4","last_reported":1758380884,"current_range_meters":14800,"station_id":"ce4bhu92rcd13ifvqi70","pricing_plan_id":"cebpf4jnsgd1na2vs0mg"},{"bike_id":"ca65c51c-d730-4b5e-91c0-8a496ca003b9","system_id":"levelo_inurba_marseille","lat":43.24811,"lon":5.37451,"is_reserved":false,"is_disabled":false,"rental_uris":{"android":"levelo://app?vid=ca65c51c-d730-4b5e-91c0-8a496ca003b9","ios":"levelo://app?vid=ca65c51c-d730-4b5e-91c0-8a496ca003b9"},"vehicle_type_id":"4","last_reported":1758380884,"current_range_meters":15200,"station_id":"ce4bhgh2rcd13ifvqfb0","pricing_plan_id":"cebpf4jnsgd1na2vs0mg"},{"bike_id":"68adab37-f5ad-4072-b58a-fe6c68285ca6","system_id":"levelo_inurba_marseille","lat":43.30627,"lon":5.37664,"is_reserved":false,"is_disabled":false,"rental_uris":{"android":"levelo://app?vid=68adab37-f5ad-4072-b58a-fe6c68285ca6","ios":"levelo://app?vid=68adab37-f5ad-4072-b58a-fe6c68285ca6"},"vehicle_type_id":"4","last_reported":1758380884,"current_range_meters":16000,"station_id":"","pricing_plan_id":"cebpf4jnsgd1na2vs0mg"},{"bike_id":"ca75bfe4-f7ea-40f4-a58d-600a15790ce3","system_id":"levelo_inurba_marseille","lat":43.30098,"lon":5.39098,"is_reserved":false,"is_disabled":false,"rental_uris":{"android":"levelo://app?vid=ca75bfe4-f7ea-40f4-a58d-600a15790ce3","ios":"levelo://app?vid=ca75bfe4-f7ea-40f4-a58d-600a15790ce3"},"vehicle_type_id":"4","last_reported":1758380884,"current_range_meters":15200,"station_id":"ce4bh192rcd13ifvqdb0","pricing_plan_id":"cebpf4jnsgd1na2vs0mg"},{"bike_id":"1167b1ff-4dfa-44a5-8a6a-4e64f99edecf","system_id":"levelo_inurba_marseille","lat":43.282676,"lon":5.350512,"is_reserved":false,"is_disabled":false,"rental_uris":{"android":"levelo://app?vid=1167b1ff-4dfa-44a5-8a6a-4e64f99edecf","ios":"levelo://app?vid=1167b1ff-4dfa-44a5-8a6a-4e64f99edecf"},"vehicle_type_id":"4","last_reported":1758380884,"current_range_meters":16000,"station_id":"ce4bhbp2rcd13ifvqerg","pricing_plan_id":"cebpf4jnsgd1na2vs0mg"},{"bike_id":"9dafb5dd-6a47-444a-83f4-3901dc8338c9","system_id":"levelo_inurba_marseille","lat":43.304267,"lon":5.388978,"is_reserved":false,"is_disabled":false,"rental_uris":{"android":"levelo://app?vid=9dafb5dd-6a47-444a-83f4-3901dc8338c9","ios":"levelo://app?vid=9dafb5dd-6a47-444a-83f4-3901dc8338c9"},"vehicle_type_id":"4","last_reported":1758380884,"current_range_meters":15200,"station_id":"ce4bgk12rcd13ifvqbi0","pricing_plan_id":"cebpf4jnsgd1na2vs0mg"},{"bike_id":"60a5e849-0cc3-4075-b987-ee2dd7c93ce3","system_id":"levelo_inurba_marseille","lat":43.2117,"lon":5.35074,"is_reserved":false,"is_disabled":false,"rental_uris":{"android":"levelo://app?vid=60a5e849-0cc3-4075-b987-ee2dd7c93ce3","ios":"levelo://app?vid=60a5e849-0cc3-4075-b987-ee2dd7c93ce3"},"vehicle_type_id":"4","last_reported":1758380884,"current_range_meters":16000,"station_id":"st_cvj6sg6p6f1abm77japg","pricing_plan_id":"cebpf4jnsgd1na2vs0mg"},{"bike_id":"dcc2b65b-bebd-4ba8-9da3-161523780280","system_id":"levelo_inurba_marseille","lat":43.31713,"lon":5.43703,"is_reserved":false,"is_disabled":false,"rental_uris":{"android":"levelo://app?vid=dcc2b65b-bebd-4ba8-9da3-161523780280","ios":"levelo://app?vid=dcc2b65b-bebd-4ba8-9da3-161523780280"},"vehicle_type_id":"4","last_reported":1758380884,"current_range_meters":16000,"station_id":"ce4bhp92rcd13ifvqhcg","pricing_plan_id":"cebpf4jnsgd1na2vs0mg"},{"bike_id":"d370f65b-a987-4bbe-82e5-44b5dcc94ef4","system_id":"levelo_inurba_marseille","lat":43.29574,"lon":5.39977,"is_reserved":false,"is_disabled":false,"rental_uris":{"android":"levelo://app?vid=d370f65b-a987-4bbe-82e5-44b5dcc94ef4","ios":"levelo://app?vid=d370f65b-a987-4bbe-82e5-44b5dcc94ef4"},"vehicle_type_id":"4","last_reported":1758380884,"current_range_meters":16000,"station_id":"ce4bh312rcd13ifvqdj0","pricing_plan_id":"cebpf4jnsgd1na2vs0mg"},{"bike_id":"4c88ee36-8fda-4324-984b-03133962ce0e","system_id":"levelo_inurba_marseille","lat":43.28621,"lon":5.35101,"is_reserved":false,"is_disabled":false,"rental_uris":{"android":"levelo://app?vid=4c88ee36-8fda-4324-984b-03133962ce0e","ios":"levelo://app?vid=4c88ee36-8fda-4324-984b-03133962ce0e"},"vehicle_type_id":"4","last_reported":1758380884,"current_range_meters":16000,"station_id":"ce4bhch2rcd13ifvqeug","pricing_plan_id":"cebpf4jnsgd1na2vs0mg"},{"bike_id":"32b9e56e-8a59-4bea-89b5-1a85a2262e6d","system_id":"levelo_inurba_marseille","lat":43.28269,"lon":5.35053,"is_reserved":false,"is_disabled":false,"rental_uris":{"android":"levelo://app?vid=32b9e56e-8a59-4bea-89b5-1a85a2262e6d","ios":"levelo://app?vid=32b9e56e-8a59-4bea-89b5-1a85a2262e6d"},"vehicle_type_id":"4","last_reported":1758380884,"current_range_meters":16000,"station_id":"ce4bhbp2rcd13ifvqerg","pricing_plan_id":"cebpf4jnsgd1na2vs0mg"},{"bike_id":"ee6d0940-1dc3-470c-8280-f336617079e2","system_id":"levelo_inurba_marseille","lat":43.23064,"lon":5.35495,"is_reserved":false,"is_disabled":false,"rental_uris":{"android":"levelo://app?vid=ee6d0940-1dc3-470c-8280-f336617079e2","ios":"levelo://app?vid=ee6d0940-1dc3-470c-8280-f336617079e2"},"vehicle_type_id":"4","last_reported":1758380884,"current_range_meters":16000,"station_id":"cpo3342slgdg3j2ifvpg","pricing_plan_id":"cebpf4jnsgd1na2vs0mg"},{"bike_id":"7e975dd6-3305-4242-b876-a5c89e47261f","system_id":"levelo_inurba_marseille","lat":43.23965,"lon":5.36635,"is_reserved":false,"is_disabled":false,"rental_uris":{"android":"levelo://app?vid=7e975dd6-3305-4242-b876-a5c89e47261f","ios":"levelo://app?vid=7e975dd6-3305-4242-b876-a5c89e47261f"},"vehicle_type_id":"4","last_reported":1758380884,"current_range_meters":16000,"station_id":"ce4bhi12rcd13ifvqfp0","pricing_plan_id":"cebpf4jnsgd1na2vs0mg"},{"bike_id":"97514a44-1f4d-4ae1-a270-04ca7b75c621","system_id":"levelo_inurba_marseille","lat":43.28864,"lon":5.42518,"is_reserved":false,"is_disabled":false,"rental_uris":{"android":"levelo://app?vid=97514a44-1f4d-4ae1-a270-04ca7b75c621","ios":"levelo://app?vid=97514a44-1f4d-4ae1-a270-04ca7b75c621"},"vehicle_type_id":"4","last_reported":1758380884,"current_range_meters":16000,"station_id":"","pricing_plan_id":"cebpf4jnsgd1na2vs0mg"},{"bike_id":"5319fae8-be79-4d87-b5d0-b333eba32d6a","system_id":"levelo_inurba_marseille","lat":43.21176,"lon":5.34989,"is_reserved":false,"is_disabled":false,"rental_uris":{"android":"levelo://app?vid=5319fae8-be79-4d87-b5d0-b333eba32d6a","ios":"levelo://app?vid=5319fae8-be79-4d87-b5d0-b333eba32d6a"},"vehicle_type_id":"4","last_reported":1758380884,"current_range_meters":16000,"station_id":"","pricing_plan_id":"cebpf4jnsgd1na2vs0mg"},{"bike_id":"de78f6a7-766b-47ae-8c7a-32b3e3790d31","system_id":"levelo_inurba_marseille","lat":43.23058,"lon":5.35487,"is_reserved":false,"is_disabled":false,"rental_uris":{"android":"levelo://app?vid=de78f6a7-766b-47ae-8c7a-32b3e3790d31","ios":"levelo://app?vid=de78f6a7-766b-47ae-8c7a-32b3e3790d31"},"vehicle_type_id":"4","last_reported":1758380884,"current_range_meters":16000,"station_id":"cpo3342slgdg3j2ifvpg","pricing_plan_id":"cebpf4jnsgd1na2vs0mg"},{"bike_id":"a3797e3d-07a3-441c-8434-4c614eae3326","system_id":"levelo_inurba_marseille","lat":43.25533,"lon":5.37597,"is_reserved":false,"is_disabled":false,"rental_uris":{"android":"levelo://app?vid=a3797e3d-07a3-441c-8434-4c614eae3326","ios":"levelo://app?vid=a3797e3d-07a3-441c-8434-4c614eae3326"},"vehicle_type_id":"4","last_reported":1758380884,"current_range_meters":16000,"station_id":"","pricing_plan_id":"cebpf4jnsgd1na2vs0mg"},{"bike_id":"43d57fd4-047e-4ac8-97e5-ec9b96239472","system_id":"levelo_inurba_marseille","lat":43.33526,"lon":5.39798,"is_reserved":false,"is_disabled":false,"rental_uris":{"android":"levelo://app?vid=43d57fd4-047e-4ac8-97e5-ec9b96239472","ios":"levelo://app?vid=43d57fd4-047e-4ac8-97e5-ec9b96239472"},"vehicle_type_id":"4","last_reported":1758380884,"current_range_meters":16000,"station_id":"","pricing_plan_id":"cebpf4jnsgd1na2vs0mg"},{"bike_id":"534ff5b4-9e83-493b-9063-104ef0af4212","system_id":"levelo_inurba_marseille","lat":43.27988,"lon":5.41651,"is_reserved":false,"is_disabled":true,"rental_uris":{"android":"levelo://app?vid=534ff5b4-9e83-493b-9063-104ef0af4212","ios":"levelo://app?vid=534ff5b4-9e83-493b-9063-104ef0af4212"},"vehicle_type_id":"4","last_reported":1758380884,"current_range_meters":16000,"station_id":"ce4bho12rcd13ifvqh1g","pricing_plan_id":"cebpf4jnsgd1na2vs0mg"},{"bike_id":"d801b961-8b0f-429d-9d3e-817010448aec","system_id":"levelo_inurba_marseille","lat":43.337632,"lon":5.374376,"is_reserved":false,"is_disabled":false,"rental_uris":{"android":"levelo://app?vid=d801b961-8b0f-429d-9d3e-817010448aec","ios":"levelo://app?vid=d801b961-8b0f-429d-9d3e-817010448aec"},"vehicle_type_id":"4","last_reported":1758380884,"current_range_meters":16400,"station_id":"","pricing_plan_id":"cebpf4jnsgd1na2vs0mg"},{"bike_id":"6908add5-0d7a-4fa4-8c1e-ba48c875c088","system_id":"levelo_inurba_marseille","lat":43.28621,"lon":5.35092,"is_reserved":false,"is_disabled":false,"rental_uris":{"android":"levelo://app?vid=6908add5-0d7a-4fa4-8c1e-ba48c875c088","ios":"levelo://app?vid=6908add5-0d7a-4fa4-8c1e-ba48c875c088"},"vehicle_type_id":"4","last_reported":1758380884,"current_range_meters":16400,"station_id":"ce4bhch2rcd13ifvqeug","pricing_plan_id":"cebpf4jnsgd1na2vs0mg"},{"bike_id":"9637c146-59d7-436a-a4f3-e8022fe36949","system_id":"levelo_inurba_marseille","lat":43.21178,"lon":5.35061,"is_reserved":false,"is_disabled":false,"rental_uris":{"android":"levelo://app?vid=9637c146-59d7-436a-a4f3-e8022fe36949","ios":"levelo://app?vid=9637c146-59d7-436a-a4f3-e8022fe36949"},"vehicle_type_id":"4","last_reported":1758380884,"current_range_meters":16400,"station_id":"st_cvj6sg6p6f1abm77japg","pricing_plan_id":"cebpf4jnsgd1na2vs0mg"},{"bike_id":"a0e6dacd-bddf-4fe7-8823-e9187a1da573","system_id":"levelo_inurba_marseille","lat":43.26213,"lon":5.37427,"is_reserved":false,"is_disabled":false,"rental_uris":{"android":"levelo://app?vid=a0e6dacd-bddf-4fe7-8823-e9187a1da573","ios":"levelo://app?vid=a0e6dacd-bddf-4fe7-8823-e9187a1da573"},"vehicle_type_id":"4","last_reported":1758380884,"current_range_meters":16400,"station_id":"ce4bhgp2rcd13ifvqfc0","pricing_plan_id":"cebpf4jnsgd1na2vs0mg"},{"bike_id":"8171bb39-1823-4beb-9d0f-da3a0a84e3df","system_id":"levelo_inurba_marseille","lat":43.23028,"lon":5.35514,"is_reserved":false,"is_disabled":false,"rental_uris":{"android":"levelo://app?vid=8171bb39-1823-4beb-9d0f-da3a0a84e3df","ios":"levelo://app?vid=8171bb39-1823-4beb-9d0f-da3a0a84e3df"},"vehicle_type_id":"4","last_reported":1758380884,"current_range_meters":16400,"station_id":"cpo3342slgdg3j2ifvpg","pricing_plan_id":"cebpf4jnsgd1na2vs0mg"},{"bike_id":"656727c2-557d-4e2a-b5ee-334ecbd03cf7","system_id":"levelo_inurba_marseille","lat":43.29921,"lon":5.37481,"is_reserved":false,"is_disabled":false,"rental_uris":{"android":"levelo://app?vid=656727c2-557d-4e2a-b5ee-334ecbd03cf7","ios":"levelo://app?vid=656727c2-557d-4e2a-b5ee-334ecbd03cf7"},"vehicle_type_id":"4","last_reported":1758380884,"current_range_meters":16400,"station_id":"ce4bgjh2rcd13ifvqbg0","pricing_plan_id":"cebpf4jnsgd1na2vs0mg"},{"bike_id":"eb103872-17f2-4b2f-a1c9-35607b3611bc","system_id":"levelo_inurba_marseille","lat":43.30162,"lon":5.38086,"is_reserved":false,"is_disabled":false,"rental_uris":{"android":"levelo://app?vid=eb103872-17f2-4b2f-a1c9-35607b3611bc","ios":"levelo://app?vid=eb103872-17f2-4b2f-a1c9-35607b3611bc"},"vehicle_type_id":"4","last_reported":1758380884,"current_range_meters":16400,"station_id":"ce4bgjp2rcd13ifvqbh0","pricing_plan_id":"cebpf4jnsgd1na2vs0mg"},{"bike_id":"eb7520f4-5f4d-4e55-b4c0-54921aee0a86","system_id":"levelo_inurba_marseille","lat":43.23189,"lon":5.35572,"is_reserved":false,"is_disabled":false,"rental_uris":{"android":"levelo://app?vid=eb7520f4-5f4d-4e55-b4c0-54921aee0a86","ios":"levelo://app?vid=eb7520f4-5f4d-4e55-b4c0-54921aee0a86"},"vehicle_type_id":"4","last_reported":1758380884,"current_range_meters":16400,"station_id":"ce4bhu92rcd13ifvqi70","pricing_plan_id":"cebpf4jnsgd1na2vs0mg"},{"bike_id":"43d8cf6d-ac84-495f-a7ea-69bbd7c6d7e2","system_id":"levelo_inurba_marseille","lat":43.28425,"lon":5.34984,"is_reserved":false,"is_disabled":false,"rental_uris":{"android":"levelo://app?vid=43d8cf6d-ac84-495f-a7ea-69bbd7c6d7e2","ios":"levelo://app?vid=43d8cf6d-ac84-495f-a7ea-69bbd7c6d7e2"},"vehicle_type_id":"4","last_reported":1758380884,"current_range_meters":16400,"station_id":"ce4bhbh2rcd13ifvqepg","pricing_plan_id":"cebpf4jnsgd1na2vs0mg"},{"bike_id":"118b6d7e-3328-44e2-ae13-d04071b8c00f","system_id":"levelo_inurba_marseille","lat":43.21191,"lon":5.3507,"is_reserved":false,"is_disabled":false,"rental_uris":{"android":"levelo://app?vid=118b6d7e-3328-44e2-ae13-d04071b8c00f","ios":"levelo://app?vid=118b6d7e-3328-44e2-ae13-d04071b8c00f"},"vehicle_type_id":"4","last_reported":1758380884,"current_range_meters":16800,"station_id":"st_cvj6sg6p6f1abm77japg","pricing_plan_id":"cebpf4jnsgd1na2vs0mg"},{"bike_id":"ff470408-818a-406c-b60f-5c6256d1cb9e","system_id":"levelo_inurba_marseille","lat":43.254605,"lon":5.37668,"is_reserved":false,"is_disabled":false,"rental_uris":{"android":"levelo://app?vid=ff470408-818a-406c-b60f-5c6256d1cb9e","ios":"levelo://app?vid=ff470408-818a-406c-b60f-5c6256d1cb9e"},"vehicle_type_id":"4","last_reported":1758380884,"current_range_meters":16400,"station_id":"ce4bhh12rcd13ifvqff0","pricing_plan_id":"cebpf4jnsgd1na2vs0mg"},{"bike_id":"61183c5b-24a7-40b0-a073-cfa757e6c464","system_id":"levelo_inurba_marseille","lat":43.23958,"lon":5.36629,"is_reserved":false,"is_disabled":false,"rental_uris":{"android":"levelo://app?vid=61183c5b-24a7-40b0-a073-cfa757e6c464","ios":"levelo://app?vid=61183c5b-24a7-40b0-a073-cfa757e6c464"},"vehicle_type_id":"4","last_reported":1758380884,"current_range_meters":16800,"station_id":"ce4bhi12rcd13ifvqfp0","pricing_plan_id":"cebpf4jnsgd1na2vs0mg"},{"bike_id":"8c98f7a3-22ae-457d-8ebf-2fdf0fc7f698","system_id":"levelo_inurba_marseille","lat":43.23059,"lon":5.35483,"is_reserved":false,"is_disabled":false,"rental_uris":{"android":"levelo://app?vid=8c98f7a3-22ae-457d-8ebf-2fdf0fc7f698","ios":"levelo://app?vid=8c98f7a3-22ae-457d-8ebf-2fdf0fc7f698"},"vehicle_type_id":"4","last_reported":1758380884,"current_range_meters":16800,"station_id":"cpo3342slgdg3j2ifvpg","pricing_plan_id":"cebpf4jnsgd1na2vs0mg"},{"bike_id":"6f00a981-ea1c-4e5d-813b-84daaa170976","system_id":"levelo_inurba_marseille","lat":43.2862,"lon":5.35096,"is_reserved":false,"is_disabled":false,"rental_uris":{"android":"levelo://app?vid=6f00a981-ea1c-4e5d-813b-84daaa170976","ios":"levelo://app?vid=6f00a981-ea1c-4e5d-813b-84daaa170976"},"vehicle_type_id":"4","last_reported":1758380884,"current_range_meters":16800,"station_id":"ce4bhch2rcd13ifvqeug","pricing_plan_id":"cebpf4jnsgd1na2vs0mg"},{"bike_id":"d14b3ed9-9f17-4c95-8258-8a998ac0d820","system_id":"levelo_inurba_marseille","lat":43.24177,"lon":5.39724,"is_reserved":false,"is_disabled":false,"rental_uris":{"android":"levelo://app?vid=d14b3ed9-9f17-4c95-8258-8a998ac0d820","ios":"levelo://app?vid=d14b3ed9-9f17-4c95-8258-8a998ac0d820"},"vehicle_type_id":"4","last_reported":1758380884,"current_range_meters":17200,"station_id":"ce4bhn12rcd13ifvqgpg","pricing_plan_id":"cebpf4jnsgd1na2vs0mg"},{"bike_id":"8577855a-3917-410c-8351-318c5974fc10","system_id":"levelo_inurba_marseille","lat":43.28156,"lon":5.42636,"is_reserved":false,"is_disabled":false,"rental_uris":{"android":"levelo://app?vid=8577855a-3917-410c-8351-318c5974fc10","ios":"levelo://app?vid=8577855a-3917-410c-8351-318c5974fc10"},"vehicle_type_id":"4","last_reported":1758380884,"current_range_meters":17200,"station_id":"ce4bhnh2rcd13ifvqgug","pricing_plan_id":"cebpf4jnsgd1na2vs0mg"},{"bike_id":"e86857f8-f405-4657-b145-ec58ed187087","system_id":"levelo_inurba_marseille","lat":43.31484,"lon":5.3881,"is_reserved":false,"is_disabled":false,"rental_uris":{"android":"levelo://app?vid=e86857f8-f405-4657-b145-ec58ed187087","ios":"levelo://app?vid=e86857f8-f405-4657-b145-ec58ed187087"},"vehicle_type_id":"4","last_reported":1758380884,"current_range_meters":17200,"station_id":"ce4bgt92rcd13ifvqcf0","pricing_plan_id":"cebpf4jnsgd1na2vs0mg"},{"bike_id":"5e845cf4-60f1-4566-aad1-cf4d2d13c15d","system_id":"levelo_inurba_marseille","lat":43.21746,"lon":5.34597,"is_reserved":false,"is_disabled":false,"rental_uris":{"android":"levelo://app?vid=5e845cf4-60f1-4566-aad1-cf4d2d13c15d","ios":"levelo://app?vid=5e845cf4-60f1-4566-aad1-cf4d2d13c15d"},"vehicle_type_id":"4","last_reported":1758380884,"current_range_meters":17200,"station_id":"st_cvj6r9ubvosntc0bgbag","pricing_plan_id":"cebpf4jnsgd1na2vs0mg"},{"bike_id":"d309effb-ef13-4c29-b1b9-d1857e082fac","system_id":"levelo_inurba_marseille","lat":43.2304,"lon":5.35466,"is_reserved":false,"is_disabled":false,"rental_uris":{"android":"levelo://app?vid=d309effb-ef13-4c29-b1b9-d1857e082fac","ios":"levelo://app?vid=d309effb-ef13-4c29-b1b9-d1857e082fac"},"vehicle_type_id":"4","last_reported":1758380884,"current_range_meters":17200,"station_id":"cpo3342slgdg3j2ifvpg","pricing_plan_id":"cebpf4jnsgd1na2vs0mg"},{"bike_id":"363d99e5-837c-43c8-abcc-c80ef2e2786a","system_id":"levelo_inurba_marseille","lat":43.212,"lon":5.35079,"is_reserved":false,"is_disabled":false,"rental_uris":{"android":"levelo://app?vid=363d99e5-837c-43c8-abcc-c80ef2e2786a","ios":"levelo://app?vid=363d99e5-837c-43c8-abcc-c80ef2e2786a"},"vehicle_type_id":"4","last_reported":1758380884,"current_range_meters":17200,"station_id":"st_cvj6sg6p6f1abm77japg","pricing_plan_id":"cebpf4jnsgd1na2vs0mg"},{"bike_id":"161a8b37-a837-4c55-9a8e-41a7be55e35e","system_id":"levelo_inurba_marseille","lat":43.28982,"lon":5.37836,"is_reserved":false,"is_disabled":false,"rental_uris":{"android":"levelo://app?vid=161a8b37-a837-4c55-9a8e-41a7be55e35e","ios":"levelo://app?vid=161a8b37-a837-4c55-9a8e-41a7be55e35e"},"vehicle_type_id":"4","last_reported":1758380884,"current_range_meters":16800,"station_id":"ce4bh9p2rcd13ifvqed0","pricing_plan_id":"cebpf4jnsgd1na2vs0mg"},{"bike_id":"52891033-621a-4634-afe5-8bb6d992286c","system_id":"levelo_inurba_marseille","lat":43.27634,"lon":5.3608,"is_reserved":false,"is_disabled":false,"rental_uris":{"android":"levelo://app?vid=52891033-621a-4634-afe5-8bb6d992286c","ios":"levelo://app?vid=52891033-621a-4634-afe5-8bb6d992286c"},"vehicle_type_id":"4","last_reported":1758380884,"current_range_meters":17200,"station_id":"ce4bgj92rcd13ifvqbe0","pricing_plan_id":"cebpf4jnsgd1na2vs0mg"},{"bike_id":"7adb1cef-ad97-4369-a9d3-6bdd0cb48240","system_id":"levelo_inurba_marseille","lat":43.23198,"lon":5.35552,"is_reserved":false,"is_disabled":false,"rental_uris":{"android":"levelo://app?vid=7adb1cef-ad97-4369-a9d3-6bdd0cb48240","ios":"levelo://app?vid=7adb1cef-ad97-4369-a9d3-6bdd0cb48240"},"vehicle_type_id":"4","last_reported":1758380884,"current_range_meters":17200,"station_id":"ce4bhu92rcd13ifvqi70","pricing_plan_id":"cebpf4jnsgd1na2vs0mg"},{"bike_id":"3167f28a-6c46-4379-b41f-5bde089ea22d","system_id":"levelo_inurba_marseille","lat":43.21749,"lon":5.34595,"is_reserved":false,"is_disabled":false,"rental_uris":{"android":"levelo://app?vid=3167f28a-6c46-4379-b41f-5bde089ea22d","ios":"levelo://app?vid=3167f28a-6c46-4379-b41f-5bde089ea22d"},"vehicle_type_id":"4","last_reported":1758380884,"current_range_meters":17200,"station_id":"st_cvj6r9ubvosntc0bgbag","pricing_plan_id":"cebpf4jnsgd1na2vs0mg"},{"bike_id":"ba1605ef-ec48-43b2-8028-026e2d342e63","system_id":"levelo_inurba_marseille","lat":43.2119,"lon":5.35068,"is_reserved":false,"is_disabled":false,"rental_uris":{"android":"levelo://app?vid=ba1605ef-ec48-43b2-8028-026e2d342e63","ios":"levelo://app?vid=ba1605ef-ec48-43b2-8028-026e2d342e63"},"vehicle_type_id":"4","last_reported":1758380884,"current_range_meters":17200,"station_id":"st_cvj6sg6p6f1abm77japg","pricing_plan_id":"cebpf4jnsgd1na2vs0mg"},{"bike_id":"76bbf107-7ec5-4826-b296-ab629ecd14ab","system_id":"levelo_inurba_marseille","lat":43.29841,"lon":5.42021,"is_reserved":false,"is_disabled":false,"rental_uris":{"android":"levelo://app?vid=76bbf107-7ec5-4826-b296-ab629ecd14ab","ios":"levelo://app?vid=76bbf107-7ec5-4826-b296-ab629ecd14ab"},"vehicle_type_id":"4","last_reported":1758380884,"current_range_meters":17200,"station_id":"","pricing_plan_id":"cebpf4jnsgd1na2vs0mg"},{"bike_id":"4dfecd9c-2d62-4618-9712-2bee050edd61","system_id":"levelo_inurba_marseille","lat":43.29167,"lon":5.37147,"is_reserved":false,"is_disabled":false,"rental_uris":{"android":"levelo://app?vid=4dfecd9c-2d62-4618-9712-2bee050edd61","ios":"levelo://app?vid=4dfecd9c-2d62-4618-9712-2bee050edd61"},"vehicle_type_id":"4","last_reported":1758380884,"current_range_meters":17600,"station_id":"ce4bha92rcd13ifvqeh0","pricing_plan_id":"cebpf4jnsgd1na2vs0mg"},{"bike_id":"495e5365-07b3-4fca-959d-84dde87761d1","system_id":"levelo_inurba_marseille","lat":43.29557,"lon":5.42292,"is_reserved":false,"is_disabled":false,"rental_uris":{"android":"levelo://app?vid=495e5365-07b3-4fca-959d-84dde87761d1","ios":"levelo://app?vid=495e5365-07b3-4fca-959d-84dde87761d1"},"vehicle_type_id":"4","last_reported":1758380884,"current_range_meters":17600,"station_id":"ce4bhph2rcd13ifvqhdg","pricing_plan_id":"cebpf4jnsgd1na2vs0mg"},{"bike_id":"91c17b80-40f0-41b4-a02f-f4cc3da366c6","system_id":"levelo_inurba_marseille","lat":43.27075,"lon":5.40246,"is_reserved":false,"is_disabled":false,"rental_uris":{"android":"levelo://app?vid=91c17b80-40f0-41b4-a02f-f4cc3da366c6","ios":"levelo://app?vid=91c17b80-40f0-41b4-a02f-f4cc3da366c6"},"vehicle_type_id":"4","last_reported":1758380884,"current_range_meters":17600,"station_id":"ce4bhk92rcd13ifvqgc0","pricing_plan_id":"cebpf4jnsgd1na2vs0mg"},{"bike_id":"4b858751-1868-4a51-af0a-6fa04d601d0c","system_id":"levelo_inurba_marseille","lat":43.28859,"lon":5.35844,"is_reserved":false,"is_disabled":false,"rental_uris":{"android":"levelo://app?vid=4b858751-1868-4a51-af0a-6fa04d601d0c","ios":"levelo://app?vid=4b858751-1868-4a51-af0a-6fa04d601d0c"},"vehicle_type_id":"4","last_reported":1758380884,"current_range_meters":17600,"station_id":"ce4bhb12rcd13ifvqem0","pricing_plan_id":"cebpf4jnsgd1na2vs0mg"},{"bike_id":"cd9f80d1-2797-4053-a2cc-7f1e9178fa7d","system_id":"levelo_inurba_marseille","lat":43.22551,"lon":5.41623,"is_reserved":false,"is_disabled":false,"rental_uris":{"android":"levelo://app?vid=cd9f80d1-2797-4053-a2cc-7f1e9178fa7d","ios":"levelo://app?vid=cd9f80d1-2797-4053-a2cc-7f1e9178fa7d"},"vehicle_type_id":"4","last_reported":1758380884,"current_range_meters":17600,"station_id":"st_d2o4gvlbi1j2169b742g","pricing_plan_id":"cebpf4jnsgd1na2vs0mg"},{"bike_id":"46c9436b-3d3f-49cd-84fa-f11b1f1c11d3","system_id":"levelo_inurba_marseille","lat":43.261902,"lon":5.374633,"is_reserved":false,"is_disabled":false,"rental_uris":{"android":"levelo://app?vid=46c9436b-3d3f-49cd-84fa-f11b1f1c11d3","ios":"levelo://app?vid=46c9436b-3d3f-49cd-84fa-f11b1f1c11d3"},"vehicle_type_id":"4","last_reported":1758380884,"current_range_meters":17600,"station_id":"ce4bhgp2rcd13ifvqfc0","pricing_plan_id":"cebpf4jnsgd1na2vs0mg"},{"bike_id":"9345ed12-5290-439b-a75d-d4a7a71025f4","system_id":"levelo_inurba_marseille","lat":43.31166,"lon":5.38722,"is_reserved":false,"is_disabled":false,"rental_uris":{"android":"levelo://app?vid=9345ed12-5290-439b-a75d-d4a7a71025f4","ios":"levelo://app?vid=9345ed12-5290-439b-a75d-d4a7a71025f4"},"vehicle_type_id":"4","last_reported":1758380884,"current_range_meters":17600,"station_id":"ce4bgv12rcd13ifvqcp0","pricing_plan_id":"cebpf4jnsgd1na2vs0mg"},{"bike_id":"401d647c-0509-4bf9-99d0-bf9b290253db","system_id":"levelo_inurba_marseille","lat":43.28026,"lon":5.3535,"is_reserved":false,"is_disabled":false,"rental_uris":{"android":"levelo://app?vid=401d647c-0509-4bf9-99d0-bf9b290253db","ios":"levelo://app?vid=401d647c-0509-4bf9-99d0-bf9b290253db"},"vehicle_type_id":"4","last_reported":1758380884,"current_range_meters":17600,"station_id":"","pricing_plan_id":"cebpf4jnsgd1na2vs0mg"},{"bike_id":"234f3b8d-078f-4441-9725-5eae668f1473","system_id":"levelo_inurba_marseille","lat":43.23055,"lon":5.35489,"is_reserved":false,"is_disabled":false,"rental_uris":{"android":"levelo://app?vid=234f3b8d-078f-4441-9725-5eae668f1473","ios":"levelo://app?vid=234f3b8d-078f-4441-9725-5eae668f1473"},"vehicle_type_id":"4","last_reported":1758380884,"current_range_meters":18000,"station_id":"cpo3342slgdg3j2ifvpg","pricing_plan_id":"cebpf4jnsgd1na2vs0mg"},{"bike_id":"483eb671-470d-4559-876d-6bf14b424a2c","system_id":"levelo_inurba_marseille","lat":43.2306,"lon":5.35479,"is_reserved":false,"is_disabled":false,"rental_uris":{"android":"levelo://app?vid=483eb671-470d-4559-876d-6bf14b424a2c","ios":"levelo://app?vid=483eb671-470d-4559-876d-6bf14b424a2c"},"vehicle_type_id":"4","last_reported":1758380884,"current_range_meters":18000,"station_id":"cpo3342slgdg3j2ifvpg","pricing_plan_id":"cebpf4jnsgd1na2vs0mg"},{"bike_id":"046ba709-b940-4fa3-9690-1d81db536e4b","system_id":"levelo_inurba_marseille","lat":43.22566,"lon":5.41614,"is_reserved":false,"is_disabled":false,"rental_uris":{"android":"levelo://app?vid=046ba709-b940-4fa3-9690-1d81db536e4b","ios":"levelo://app?vid=046ba709-b940-4fa3-9690-1d81db536e4b"},"vehicle_type_id":"4","last_reported":1758380884,"current_range_meters":18000,"station_id":"st_d2o4gvlbi1j2169b742g","pricing_plan_id":"cebpf4jnsgd1na2vs0mg"},{"bike_id":"bb274c52-87e4-4e77-ba13-73a8961e31da","system_id":"levelo_inurba_marseille","lat":43.23058,"lon":5.35488,"is_reserved":false,"is_disabled":false,"rental_uris":{"android":"levelo://app?vid=bb274c52-87e4-4e77-ba13-73a8961e31da","ios":"levelo://app?vid=bb274c52-87e4-4e77-ba13-73a8961e31da"},"vehicle_type_id":"4","last_reported":1758380884,"current_range_meters":18000,"station_id":"cpo3342slgdg3j2ifvpg","pricing_plan_id":"cebpf4jnsgd1na2vs0mg"},{"bike_id":"f0663639-8187-4a8a-a5db-c7eb08538e4d","system_id":"levelo_inurba_marseille","lat":43.29896,"lon":5.43668,"is_reserved":false,"is_disabled":false,"rental_uris":{"android":"levelo://app?vid=f0663639-8187-4a8a-a5db-c7eb08538e4d","ios":"levelo://app?vid=f0663639-8187-4a8a-a5db-c7eb08538e4d"},"vehicle_type_id":"4","last_reported":1758380884,"current_range_meters":17600,"station_id":"ce4bhpp2rcd13ifvqhfg","pricing_plan_id":"cebpf4jnsgd1na2vs0mg"},{"bike_id":"75cdae86-aa3c-46f9-92bf-f3662c1063cf","system_id":"levelo_inurba_marseille","lat":43.33732,"lon":5.3917,"is_reserved":false,"is_disabled":false,"rental_uris":{"android":"levelo://app?vid=75cdae86-aa3c-46f9-92bf-f3662c1063cf","ios":"levelo://app?vid=75cdae86-aa3c-46f9-92bf-f3662c1063cf"},"vehicle_type_id":"4","last_reported":1758380884,"current_range_meters":18000,"station_id":"ce4bhr92rcd13ifvqhsg","pricing_plan_id":"cebpf4jnsgd1na2vs0mg"},{"bike_id":"a3a4206e-9698-40c4-99a7-c2a694b15382","system_id":"levelo_inurba_marseille","lat":43.25905,"lon":5.40898,"is_reserved":false,"is_disabled":false,"rental_uris":{"android":"levelo://app?vid=a3a4206e-9698-40c4-99a7-c2a694b15382","ios":"levelo://app?vid=a3a4206e-9698-40c4-99a7-c2a694b15382"},"vehicle_type_id":"4","last_reported":1758380884,"current_range_meters":18000,"station_id":"ce4bhm92rcd13ifvqglg","pricing_plan_id":"cebpf4jnsgd1na2vs0mg"},{"bike_id":"51334284-92e3-4037-b9bb-8eeb5a4f88d1","system_id":"levelo_inurba_marseille","lat":43.28268,"lon":5.35057,"is_reserved":false,"is_disabled":false,"rental_uris":{"android":"levelo://app?vid=51334284-92e3-4037-b9bb-8eeb5a4f88d1","ios":"levelo://app?vid=51334284-92e3-4037-b9bb-8eeb5a4f88d1"},"vehicle_type_id":"4","last_reported":1758380884,"current_range_meters":18000,"station_id":"ce4bhbp2rcd13ifvqerg","pricing_plan_id":"cebpf4jnsgd1na2vs0mg"},{"bike_id":"0ef9fd2f-774b-4d8a-9877-dffbf58a2529","system_id":"levelo_inurba_marseille","lat":43.217662,"lon":5.346092,"is_reserved":false,"is_disabled":false,"rental_uris":{"android":"levelo://app?vid=0ef9fd2f-774b-4d8a-9877-dffbf58a2529","ios":"levelo://app?vid=0ef9fd2f-774b-4d8a-9877-dffbf58a2529"},"vehicle_type_id":"4","last_reported":1758380884,"current_range_meters":18800,"station_id":"st_cvj6r9ubvosntc0bgbag","pricing_plan_id":"cebpf4jnsgd1na2vs0mg"},{"bike_id":"577d3c29-6b4b-4ec6-b481-78fe8b41a934","system_id":"levelo_inurba_marseille","lat":43.225328,"lon":5.348331,"is_reserved":false,"is_disabled":false,"rental_uris":{"android":"levelo://app?vid=577d3c29-6b4b-4ec6-b481-78fe8b41a934","ios":"levelo://app?vid=577d3c29-6b4b-4ec6-b481-78fe8b41a934"},"vehicle_type_id":"4","last_reported":1758380884,"current_range_meters":18800,"station_id":"","pricing_plan_id":"cebpf4jnsgd1na2vs0mg"},{"bike_id":"f1fed1ca-8816-44c8-8d21-52e8ab64d46d","system_id":"levelo_inurba_marseille","lat":43.25946,"lon":5.37543,"is_reserved":false,"is_disabled":false,"rental_uris":{"android":"levelo://app?vid=f1fed1ca-8816-44c8-8d21-52e8ab64d46d","ios":"levelo://app?vid=f1fed1ca-8816-44c8-8d21-52e8ab64d46d"},"vehicle_type_id":"4","last_reported":1758380884,"current_range_meters":18800,"station_id":"","pricing_plan_id":"cebpf4jnsgd1na2vs0mg"},{"bike_id":"f3805ac9-2ab6-41f8-b374-0887d951860e","system_id":"levelo_inurba_marseille","lat":43.21753,"lon":5.3459,"is_reserved":false,"is_disabled":true,"rental_uris":{"android":"levelo://app?vid=f3805ac9-2ab6-41f8-b374-0887d951860e","ios":"levelo://app?vid=f3805ac9-2ab6-41f8-b374-0887d951860e"},"vehicle_type_id":"4","last_reported":1758380884,"current_range_meters":19200,"station_id":"st_cvj6r9ubvosntc0bgbag","pricing_plan_id":"cebpf4jnsgd1na2vs0mg"},{"bike_id":"00ba1b13-39a8-4708-b05f-70cad7d13461","system_id":"levelo_inurba_marseille","lat":43.32354,"lon":5.38904,"is_reserved":false,"is_disabled":false,"rental_uris":{"android":"levelo://app?vid=00ba1b13-39a8-4708-b05f-70cad7d13461","ios":"levelo://app?vid=00ba1b13-39a8-4708-b05f-70cad7d13461"},"vehicle_type_id":"4","last_reported":1758380884,"current_range_meters":18800,"station_id":"ce4bhqp2rcd13ifvqhog","pricing_plan_id":"cebpf4jnsgd1na2vs0mg"},{"bike_id":"829a9c6a-2907-4fcf-996b-1dc6eb22c894","system_id":"levelo_inurba_marseille","lat":43.22575,"lon":5.41612,"is_reserved":false,"is_disabled":false,"rental_uris":{"android":"levelo://app?vid=829a9c6a-2907-4fcf-996b-1dc6eb22c894","ios":"levelo://app?vid=829a9c6a-2907-4fcf-996b-1dc6eb22c894"},"vehicle_type_id":"4","last_reported":1758380884,"current_range_meters":18800,"station_id":"st_d2o4gvlbi1j2169b742g","pricing_plan_id":"cebpf4jnsgd1na2vs0mg"},{"bike_id":"9176512c-2cc1-4df2-a8e0-6be514fbcdbf","system_id":"levelo_inurba_marseille","lat":43.33748,"lon":5.37465,"is_reserved":false,"is_disabled":false,"rental_uris":{"android":"levelo://app?vid=9176512c-2cc1-4df2-a8e0-6be514fbcdbf","ios":"levelo://app?vid=9176512c-2cc1-4df2-a8e0-6be514fbcdbf"},"vehicle_type_id":"4","last_reported":1758380884,"current_range_meters":18800,"station_id":"","pricing_plan_id":"cebpf4jnsgd1na2vs0mg"},