{"last_updated":1742375435,"ttl":60,"version":"2.2","data":{"bikes":[{"bike_id":"c47cd96f-fb89-45d3-9706-73222cfc8331","system_id":"levelo_inurba_marseille","lat":43.31031,"lon":5.37552,"is_reserved":false,"is_disabled":false,"rental_uris":{"android":"levelo://app?vid=c47cd96f-fb89-45d3-9706-73222cfc8331","ios":"levelo://app?vid=c47cd96f-fb89-45d3-9706-73222cfc8331"},"vehicle_type_id":"4","last_reported":1742375435,"current_range_meters":2800,"station_id":"","pricing_plan_id":"cebpf4jnsgd1na2vs0mg"},{"bike_id":"637995e0-cc0c-4d95-8d5f-d31b4a662aff","system_id":"levelo_inurba_marseille","lat":43.24998,"lon":5.38932,"is_reserved":false,"is_disabled":false,"rental_uris":{"android":"levelo://app?vid=637995e0-cc0c-4d95-8d5f-d31b4a662aff","ios":"levelo://app?vid=637995e0-cc0c-4d95-8d5f-d31b4a662aff"},"vehicle_type_id":"4","last_reported":1742375435,"current_range_meters":2800,"station_id":"ce4bhgp2rcd13ifvqfd0","pricing_plan_id":"cebpf4jnsgd1na2vs0mg"},{"bike_id":"3db91aa6-845b-4ce3-9a81-55687c0461bc","system_id":"levelo_inurba_marseille","lat":43.25003,"lon":5.38924,"is_reserved":false,"is_disabled":false,"rental_uris":{"android":"levelo://app?vid=3db91aa6-845b-4ce3-9a81-55687c0461bc","ios":"levelo://app?vid=3db91aa6-845b-4ce3-9a81-55687c0461bc"},"vehicle_type_id":"4","last_reported":1742375435,"current_range_meters":2800,"station_id":"ce4bhgp2rcd13ifvqfd0","pricing_plan_id":"cebpf4jnsgd1na2vs0mg"},{"bike_id":"94f1fb51-e114-49b3-99fe-2d73eaedee0d","system_id":"levelo_inurba_marseille","lat":43.25001,"lon":5.38906,"is_reserved":false,"is_disabled":false,"rental_uris":{"android":"levelo://app?vid=94f1fb51-e114-49b3-99fe-2d73eaedee0d","ios":"levelo://app?vid=94f1fb51-e114-49b3-99fe-2d73eaedee0d"},"vehicle_type_id":"4","last_reported":1742375435,"current_range_meters":2800,"station_id":"ce4bhgp2rcd13ifvqfd0","pricing_plan_id":"cebpf4jnsgd1na2vs0mg"},{"bike_id":"32457d4a-b55d-4284-b1a0-a869a1d3c303","system_id":"levelo_inurba_marseille","lat":43.26608,"lon":5.39056,"is_reserved":false,"is_disabled":false,"rental_uris":{"android":"levelo://app?vid=32457d4a-b55d-4284-b1a0-a869a1d3c303","ios":"levelo://app?vid=32457d4a-b55d-4284-b1a0-a869a1d3c303"},"vehicle_type_id":"4","last_reported":1742375435,"current_range_meters":2800,"station_id":"","pricing_plan_id":"cebpf4jnsgd1na2vs0mg"},{"bike_id":"21032f3f-ddb9-4d93-ad0a-e8740b657459","system_id":"levelo_inurba_marseille","lat":43.26692,"lon":5.38274,"is_reserved":false,"is_disabled":false,"rental_uris":{"android":"levelo://app?vid=21032f3f-ddb9-4d93-ad0a-e8740b657459","ios":"levelo://app?vid=21032f3f-ddb9-4d93-ad0a-e8740b657459"},"vehicle_type_id":"4","last_reported":1742375435,"current_range_meters":2800,"station_id":"ce4bhg92rcd13ifvqf90","pricing_plan_id":"cebpf4jnsgd1na2vs0mg"},{"bike_id":"916d4bfa-8c3d-4ab2-9d90-24ecce2674a8","system_id":"levelo_inurba_marseille","lat":43.25008,"lon":5.38918,"is_reserved":false,"is_disabled":false,"rental_uris":{"android":"levelo://app?vid=916d4bfa-8c3d-4ab2-9d90-24ecce2674a8","ios":"levelo://app?vid=916d4bfa-8c3d-4ab2-9d90-24ecce2674a8"},"vehicle_type_id":"4","last_reported":1742375435,"current_range_meters":2800,"station_id":"ce4bhgp2rcd13ifvqfd0","pricing_plan_id":"cebpf4jnsgd1na2vs0mg"},{"bike_id":"0a7df62a-5f11-46d8-aea2-a182fee2a3e0","system_id":"levelo_inurba_marseille","lat":43.28357,"lon":5.38095,"is_reserved":false,"is_disabled":false,"rental_uris":{"android":"levelo://app?vid=0a7df62a-5f11-46d8-aea2-a182fee2a3e0","ios":"levelo://app?vid=0a7df62a-5f11-46d8-aea2-a182fee2a3e0"},"vehicle_type_id":"4","last_reported":1742375435,"current_range_meters":2800,"station_id":"ce4bh412rcd13ifvqdr0","pricing_plan_id":"cebpf4jnsgd1na2vs0mg"},{"bike_id":"fd04e5af-c40b-4959-b835-28bd614c0d14","system_id":"levelo_inurba_marseille","lat":43.23205,"lon":5.35555,"is_reserved":false,"is_disabled":false,"rental_uris":{"android":"levelo://app?vid=fd04e5af-c40b-4959-b835-28bd614c0d14","ios":"levelo://app?vid=fd04e5af-c40b-4959-b835-28bd614c0d14"},"vehicle_type_id":"4","last_reported":1742375435,"current_range_meters":3200,"station_id":"ce4bhu92rcd13ifvqi70","pricing_plan_id":"cebpf4jnsgd1na2vs0mg"},{"bike_id":"b157661b-022b-4aa0-b21e-49789ef76c80","system_id":"levelo_inurba_marseille","lat":43.26152,"lon":5.39774,"is_reserved":false,"is_disabled":false,"rental_uris":{"android":"levelo://app?vid=b157661b-022b-4aa0-b21e-49789ef76c80","ios":"levelo://app?vid=b157661b-022b-4aa0-b21e-49789ef76c80"},"vehicle_type_id":"4","last_reported":1742375435,"current_range_meters":3200,"station_id":"","pricing_plan_id":"cebpf4jnsgd1na2vs0mg"},{"bike_id":"2665cc4b-07ed-4ae6-a66f-2b09983c709d","system_id":"levelo_inurba_marseille","lat":43.33761,"lon":5.37489,"is_reserved":false,"is_disabled":false,"rental_uris":{"android":"levelo://app?vid=2665cc4b-07ed-4ae6-a66f-2b09983c709d","ios":"levelo://app?vid=2665cc4b-07ed-4ae6-a66f-2b09983c709d"},"vehicle_type_id":"4","last_reported":1742375435,"current_range_meters":3200,"station_id":"","pricing_plan_id":"cebpf4jnsgd1na2vs0mg"},{"bike_id":"0d3accb9-853e-4df0-b9d8-4607b8048f46","system_id":"levelo_inurba_marseille","lat":43.24178,"lon":5.36396,"is_reserved":false,"is_disabled":false,"rental_uris":{"android":"levelo://app?vid=0d3accb9-853e-4df0-b9d8-4607b8048f46","ios":"levelo://app?vid=0d3accb9-853e-4df0-b9d8-4607b8048f46"},"vehicle_type_id":"4","last_reported":1742375435,"current_range_meters":3200,"station_id":"cpo36qri1sfpv3e86is0","pricing_plan_id":"cebpf4jnsgd1na2vs0mg"},{"bike_id":"bf53558a-323c-40e3-9c37-ac64ba388e1c","system_id":"levelo_inurba_marseille","lat":43.239588,"lon":5.366326,"is_reserved":false,"is_disabled":false,"rental_uris":{"android":"levelo://app?vid=bf53558a-323c-40e3-9c37-ac64ba388e1c","ios":"levelo://app?vid=bf53558a-323c-40e3-9c37-ac64ba388e1c"},"vehicle_type_id":"4","last_reported":1742375435,"current_range_meters":3200,"station_id":"ce4bhi12rcd13ifvqfp0","pricing_plan_id":"cebpf4jnsgd1na2vs0mg"},{"bike_id":"5e0398be-f119-413f-8e39-33599682963e","system_id":"levelo_inurba_marseille","lat":43.29715,"lon":5.36597,"is_reserved":false,"is_disabled":false,"rental_uris":{"android":"levelo://app?vid=5e0398be-f119-413f-8e39-33599682963e","ios":"levelo://app?vid=5e0398be-f119-413f-8e39-33599682963e"},"vehicle_type_id":"4","last_reported":1742375435,"current_range_meters":3600,"station_id":"ce4bgn12rcd13ifvqbt0","pricing_plan_id":"cebpf4jnsgd1na2vs0mg"},{"bike_id":"0a2495fb-9f70-4096-859d-7b9dcf2f32b0","system_id":"levelo_inurba_marseille","lat":43.28359,"lon":5.38101,"is_reserved":false,"is_disabled":false,"rental_uris":{"android":"levelo://app?vid=0a2495fb-9f70-4096-859d-7b9dcf2f32b0","ios":"levelo://app?vid=0a2495fb-9f70-4096-859d-7b9dcf2f32b0"},"vehicle_type_id":"4","last_reported":1742375435,"current_range_meters":3600,"station_id":"ce4bh412rcd13ifvqdr0","pricing_plan_id":"cebpf4jnsgd1na2vs0mg"},{"bike_id":"cc4e54e8-ddf0-435d-bfc6-b6e10e1bfebf","system_id":"levelo_inurba_marseille","lat":43.30429,"lon":5.38888,"is_reserved":false,"is_disabled":false,"rental_uris":{"android":"levelo://app?vid=cc4e54e8-ddf0-435d-bfc6-b6e10e1bfebf","ios":"levelo://app?vid=cc4e54e8-ddf0-435d-bfc6-b6e10e1bfebf"},"vehicle_type_id":"4","last_reported":1742375435,"current_range_meters":3600,"station_id":"ce4bgk12rcd13ifvqbi0","pricing_plan_id":"cebpf4jnsgd1na2vs0mg"},{"bike_id":"9034c0b3-1976-4453-b033-3ff115c76c4c","system_id":"levelo_inurba_marseille","lat":43.25868,"lon":5.39896,"is_reserved":false,"is_disabled":false,"rental_uris":{"android":"levelo://app?vid=9034c0b3-1976-4453-b033-3ff115c76c4c","ios":"levelo://app?vid=9034c0b3-1976-4453-b033-3ff115c76c4c"},"vehicle_type_id":"4","last_reported":1742375435,"current_range_meters":3600,"station_id":"ce4bhl92rcd13ifvqghg","pricing_plan_id":"cebpf4jnsgd1na2vs0mg"},{"bike_id":"dbfa235b-b662-4da8-b9c3-cfacc164d8cc","system_id":"levelo_inurba_marseille","lat":43.28953,"lon":5.36399,"is_reserved":false,"is_disabled":false,"rental_uris":{"android":"levelo://app?vid=dbfa235b-b662-4da8-b9c3-cfacc164d8cc","ios":"levelo://app?vid=dbfa235b-b662-4da8-b9c3-cfacc164d8cc"},"vehicle_type_id":"4","last_reported":1742375435,"current_range_meters":3600,"station_id":"ce4bhc92rcd13ifvqetg","pricing_plan_id":"cebpf4jnsgd1na2vs0mg"},{"bike_id":"453d476e-d55d-432e-82a1-ce7d5ee8c4da","system_id":"levelo_inurba_marseille","lat":43.32483,"lon":5.36563,"is_reserved":false,"is_disabled":false,"rental_uris":{"android":"levelo://app?vid=453d476e-d55d-432e-82a1-ce7d5ee8c4da","ios":"levelo://app?vid=453d476e-d55d-432e-82a1-ce7d5ee8c4da"},"vehicle_type_id":"4","last_reported":1742375435,"current_range_meters":3600,"station_id":"ce4bhs12rcd13ifvqhvg","pricing_plan_id":"cebpf4jnsgd1na2vs0mg"},{"bike_id":"387c0397-2461-427d-82e7-228478ad047c","system_id":"levelo_inurba_marseille","lat":43.25004,"lon":5.38928,"is_reserved":false,"is_disabled":false,"rental_uris":{"android":"levelo://app?vid=387c0397-2461-427d-82e7-228478ad047c","ios":"levelo://app?vid=387c0397-2461-427d-82e7-228478ad047c"},"vehicle_type_id":"4","last_reported":1742375435,"current_range_meters":3600,"station_id":"ce4bhgp2rcd13ifvqfd0","pricing_plan_id":"cebpf4jnsgd1na2vs0mg"},{"bike_id":"6368f354-6da7-4884-a394-062f1a963ed6","system_id":"levelo_inurba_marseille","lat":43.29296,"lon":5.42833,"is_reserved":false,"is_disabled":false,"rental_uris":{"android":"levelo://app?vid=6368f354-6da7-4884-a394-062f1a963ed6","ios":"levelo://app?vid=6368f354-6da7-4884-a394-062f1a963ed6"},"vehicle_type_id":"4","last_reported":1742375435,"current_range_meters":3600,"station_id":"","pricing_plan_id":"cebpf4jnsgd1na2vs0mg"},{"bike_id":"ccfdb431-bb04-4363-b7af-1f627abac2a9","system_id":"levelo_inurba_marseille","lat":43.31117,"lon":5.37775,"is_reserved":false,"is_disabled":false,"rental_uris":{"android":"levelo://app?vid=ccfdb431-bb04-4363-b7af-1f627abac2a9","ios":"levelo://app?vid=ccfdb431-bb04-4363-b7af-1f627abac2a9"},"vehicle_type_id":"4","last_reported":1742375435,"current_range_meters":3600,"station_id":"ce4bgt92rcd13ifvqcg0","pricing_plan_id":"cebpf4jnsgd1na2vs0mg"},{"bike_id":"edf15af3-1e8a-4be7-89e5-57735abdfb36","system_id":"levelo_inurba_marseille","lat":43.23154,"lon":5.43724,"is_reserved":false,"is_disabled":false,"rental_uris":{"android":"levelo://app?vid=edf15af3-1e8a-4be7-89e5-57735abdfb36","ios":"levelo://app?vid=edf15af3-1e8a-4be7-89e5-57735abdfb36"},"vehicle_type_id":"4","last_reported":1742375435,"current_range_meters":4000,"station_id":"ce4bhmp2rcd13ifvqgog","pricing_plan_id":"cebpf4jnsgd1na2vs0mg"},{"bike_id":"f5c97f8a-2624-4b99-bdf9-59f10ff7cfce","system_id":"levelo_inurba_marseille","lat":43.27628,"lon":5.36123,"is_reserved":false,"is_disabled":false,"rental_uris":{"android":"levelo://app?vid=f5c97f8a-2624-4b99-bdf9-59f10ff7cfce","ios":"levelo://app?vid=f5c97f8a-2624-4b99-bdf9-59f10ff7cfce"},"vehicle_type_id":"4","last_reported":1742375435,"current_range_meters":4000,"station_id":"ce4bgj92rcd13ifvqbe0","pricing_plan_id":"cebpf4jnsgd1na2vs0mg"},{"bike_id":"97a1e633-c2b3-487e-8569-9036bf18d175","system_id":"levelo_inurba_marseille","lat":43.2418,"lon":5.36405,"is_reserved":false,"is_disabled":false,"rental_uris":{"android":"levelo://app?vid=97a1e633-c2b3-487e-8569-9036bf18d175","ios":"levelo://app?vid=97a1e633-c2b3-487e-8569-9036bf18d175"},"vehicle_type_id":"4","last_reported":1742375435,"current_range_meters":4000,"station_id":"cpo36qri1sfpv3e86is0","pricing_plan_id":"cebpf4jnsgd1na2vs0mg"},{"bike_id":"998e10fe-5ca8-489c-be43-4274820067b9","system_id":"levelo_inurba_marseille","lat":43.31345,"lon":5.36716,"is_reserved":false,"is_disabled":false,"rental_uris":{"android":"levelo://app?vid=998e10fe-5ca8-489c-be43-4274820067b9","ios":"levelo://app?vid=998e10fe-5ca8-489c-be43-4274820067b9"},"vehicle_type_id":"4","last_reported":1742375435,"current_range_meters":4000,"station_id":"ce4bgr92rcd13ifvqc6g","pricing_plan_id":"cebpf4jnsgd1na2vs0mg"},{"bike_id":"5e2fca71-0f3f-4aa4-affd-fff1472c16b4","system_id":"levelo_inurba_marseille","lat":43.24184,"lon":5.39739,"is_reserved":false,"is_disabled":false,"rental_uris":{"android":"levelo://app?vid=5e2fca71-0f3f-4aa4-affd-fff1472c16b4","ios":"levelo://app?vid=5e2fca71-0f3f-4aa4-affd-fff1472c16b4"},"vehicle_type_id":"4","last_reported":1742375435,"current_range_meters":4000,"station_id":"ce4bhn12rcd13ifvqgpg","pricing_plan_id":"cebpf4jnsgd1na2vs0mg"},{"bike_id":"24695756-5ec5-49d5-a8dd-252d655ff455","system_id":"levelo_inurba_marseille","lat":43.27213,"lon":5.39179,"is_reserved":false,"is_disabled":false,"rental_uris":{"android":"levelo://app?vid=24695756-5ec5-49d5-a8dd-252d655ff455","ios":"levelo://app?vid=24695756-5ec5-49d5-a8dd-252d655ff455"},"vehicle_type_id":"4","last_reported":1742375435,"current_range_meters":4000,"station_id":"ce4bhhp2rcd13ifvqfm0","pricing_plan_id":"cebpf4jnsgd1na2vs0mg"},{"bike_id":"d1545a85-0a45-478f-b2e4-9f498e55e1ab","system_id":"levelo_inurba_marseille","lat":43.24177,"lon":5.36388,"is_reserved":false,"is_disabled":false,"rental_uris":{"android":"levelo://app?vid=d1545a85-0a45-478f-b2e4-9f498e55e1ab","ios":"levelo://app?vid=d1545a85-0a45-478f-b2e4-9f498e55e1ab"},"vehicle_type_id":"4","last_reported":1742375435,"current_range_meters":4400,"station_id":"cpo36qri1sfpv3e86is0","pricing_plan_id":"cebpf4jnsgd1na2vs0mg"},{"bike_id":"b0533822-d15b-49d0-beef-adf96124c18b","system_id":"levelo_inurba_marseille","lat":43.30465,"lon":5.37917,"is_reserved":false,"is_disabled":false,"rental_uris":{"android":"levelo://app?vid=b0533822-d15b-49d0-beef-adf96124c18b","ios":"levelo://app?vid=b0533822-d15b-49d0-beef-adf96124c18b"},"vehicle_type_id":"4","last_reported":1742375435,"current_range_meters":4400,"station_id":"ce4bgup2rcd13ifvqcn0","pricing_plan_id":"cebpf4jnsgd1na2vs0mg"},{"bike_id":"abb7f151-1f39-4f90-83f6-5d982c1ecbed","system_id":"levelo_inurba_marseille","lat":43.30329,"lon":5.36895,"is_reserved":false,"is_disabled":false,"rental_uris":{"android":"levelo://app?vid=abb7f151-1f39-4f90-83f6-5d982c1ecbed","ios":"levelo://app?vid=abb7f151-1f39-4f90-83f6-5d982c1ecbed"},"vehicle_type_id":"4","last_reported":1742375435,"current_range_meters":4400,"station_id":"","pricing_plan_id":"cebpf4jnsgd1na2vs0mg"},{"bike_id":"56c96f54-f3ad-4e3b-882a-3ef396c7ce4c","system_id":"levelo_inurba_marseille","lat":43.2695,"lon":5.38629,"is_reserved":false,"is_disabled":false,"rental_uris":{"android":"levelo://app?vid=56c96f54-f3ad-4e3b-882a-3ef396c7ce4c","ios":"levelo://app?vid=56c96f54-f3ad-4e3b-882a-3ef396c7ce4c"},"vehicle_type_id":"4","last_reported":1742375435,"current_range_meters":4400,"station_id":"ce4bhh92rcd13ifvqfh0","pricing_plan_id":"cebpf4jnsgd1na2vs0mg"},{"bike_id":"5025280c-37e3-4478-935f-255b25fcad35","system_id":"levelo_inurba_marseille","lat":43.28936,"lon":5.36646,"is_reserved":false,"is_disabled":false,"rental_uris":{"android":"levelo://app?vid=5025280c-37e3-4478-935f-255b25fcad35","ios":"levelo://app?vid=5025280c-37e3-4478-935f-255b25fcad35"},"vehicle_type_id":"4","last_reported":1742375435,"current_range_meters":4400,"station_id":"ce4bhap2rcd13ifvqek0","pricing_plan_id":"cebpf4jnsgd1na2vs0mg"},{"bike_id":"df227953-74ac-4151-8017-3b7a1e24e192","system_id":"levelo_inurba_marseille","lat":43.23973,"lon":5.36648,"is_reserved":false,"is_disabled":false,"rental_uris":{"android":"levelo://app?vid=df227953-74ac-4151-8017-3b7a1e24e192","ios":"levelo://app?vid=df227953-74ac-4151-8017-3b7a1e24e192"},"vehicle_type_id":"4","last_reported":1742375435,"current_range_meters":4400,"station_id":"ce4bhi12rcd13ifvqfp0","pricing_plan_id":"cebpf4jnsgd1na2vs0mg"},{"bike_id":"a5524cec-81c6-4f26-bae1-d0dae177fe4b","system_id":"levelo_inurba_marseille","lat":43.25575,"lon":5.38234,"is_reserved":false,"is_disabled":false,"rental_uris":{"android":"levelo://app?vid=a5524cec-81c6-4f26-bae1-d0dae177fe4b","ios":"levelo://app?vid=a5524cec-81c6-4f26-bae1-d0dae177fe4b"},"vehicle_type_id":"4","last_reported":1742375435,"current_range_meters":4000,"station_id":"ce4bhih2rcd13ifvqfs0","pricing_plan_id":"cebpf4jnsgd1na2vs0mg"},{"bike_id":"eace6b6a-b3cf-4501-bb8b-a4419e0acacf","system_id":"levelo_inurba_marseille","lat":43.29614,"lon":5.37728,"is_reserved":false,"is_disabled":false,"rental_uris":{"android":"levelo://app?vid=eace6b6a-b3cf-4501-bb8b-a4419e0acacf","ios":"levelo://app?vid=eace6b6a-b3cf-4501-bb8b-a4419e0acacf"},"vehicle_type_id":"4","last_reported":1742375435,"current_range_meters":4400,"station_id":"ce4bgi92rcd13ifvqb90","pricing_plan_id":"cebpf4jnsgd1na2vs0mg"},{"bike_id":"8a4e1b2e-8fac-480b-a668-ef6a620a9814","system_id":"levelo_inurba_marseille","lat":43.27849,"lon":5.42427,"is_reserved":false,"is_disabled":false,"rental_uris":{"android":"levelo://app?vid=8a4e1b2e-8fac-480b-a668-ef6a620a9814","ios":"levelo://app?vid=8a4e1b2e-8fac-480b-a668-ef6a620a9814"},"vehicle_type_id":"4","last_reported":1742375435,"current_range_meters":4400,"station_id":"","pricing_plan_id":"cebpf4jnsgd1na2vs0mg"},{"bike_id":"e7ac7a57-bc7a-451e-be23-ef2cbf01a9ae","system_id":"levelo_inurba_marseille","lat":43.29014,"lon":5.37127,"is_reserved":false,"is_disabled":false,"rental_uris":{"android":"levelo://app?vid=e7ac7a57-bc7a-451e-be23-ef2cbf01a9ae","ios":"levelo://app?vid=e7ac7a57-bc7a-451e-be23-ef2cbf01a9ae"},"vehicle_type_id":"4","last_reported":1742375435,"current_range_meters":4400,"station_id":"","pricing_plan_id":"cebpf4jnsgd1na2vs0mg"},{"bike_id":"a3bdd7a0-082b-43aa-8c66-de9aa41563f2","system_id":"levelo_inurba_marseille","lat":43.31408,"lon":5.38547,"is_reserved":false,"is_disabled":false,"rental_uris":{"android":"levelo://app?vid=a3bdd7a0-082b-43aa-8c66-de9aa41563f2","ios":"levelo://app?vid=a3bdd7a0-082b-43aa-8c66-de9aa41563f2"},"vehicle_type_id":"4","last_reported":1742375435,"current_range_meters":4400,"station_id":"","pricing_plan_id":"cebpf4jnsgd1na2vs0mg"},{"bike_id":"8183c6ca-3f48-49ab-8e9d-618476846754","system_id":"levelo_inurba_marseille","lat":43.27069,"lon":5.42279,"is_reserved":false,"is_disabled":false,"rental_uris":{"android":"levelo://app?vid=8183c6ca-3f48-49ab-8e9d-618476846754","ios":"levelo://app?vid=8183c6ca-3f48-49ab-8e9d-618476846754"},"vehicle_type_id":"4","last_reported":1742375435,"current_range_meters":4400,"station_id":"ce4bhk92rcd13ifvqgb0","pricing_plan_id":"cebpf4jnsgd1na2vs0mg"},{"bike_id":"a93ab5b1-d5d9-4c19-a2ab-715f2786680c","system_id":"levelo_inurba_marseille","lat":43.30911,"lon":5.36853,"is_reserved":false,"is_disabled":false,"rental_uris":{"android":"levelo://app?vid=a93ab5b1-d5d9-4c19-a2ab-715f2786680c","ios":"levelo://app?vid=a93ab5b1-d5d9-4c19-a2ab-715f2786680c"},"vehicle_type_id":"4","last_reported":1742375435,"current_range_meters":4800,"station_id":"ce4bgr92rcd13ifvqc6g","pricing_plan_id":"cebpf4jnsgd1na2vs0mg"},{"bike_id":"8257fa4b-011c-40dc-8f4e-ee1db1b5964c","system_id":"levelo_inurba_marseille","lat":43.29249,"lon":5.36855,"is_reserved":false,"is_disabled":false,"rental_uris":{"android":"levelo://app?vid=8257fa4b-011c-40dc-8f4e-ee1db1b5964c","ios":"levelo://app?vid=8257fa4b-011c-40dc-8f4e-ee1db1b5964c"},"vehicle_type_id":"4","last_reported":1742375435,"current_range_meters":4800,"station_id":"ce4bhbp2rcd13ifvqesg","pricing_plan_id":"cebpf4jnsgd1na2vs0mg"},{"bike_id":"a4647986-2229-462e-9248-2a45a552d1fb","system_id":"levelo_inurba_marseille","lat":43.31361,"lon":5.367,"is_reserved":false,"is_disabled":false,"rental_uris":{"android":"levelo://app?vid=a4647986-2229-462e-9248-2a45a552d1fb","ios":"levelo://app?vid=a4647986-2229-462e-9248-2a45a552d1fb"},"vehicle_type_id":"4","last_reported":1742375435,"current_range_meters":4800,"station_id":"ce4bgr92rcd13ifvqc6g","pricing_plan_id":"cebpf4jnsgd1na2vs0mg"},{"bike_id":"f51f34c4-1fe1-43c1-b616-3067162d8b45","system_id":"levelo_inurba_marseille","lat":43.24176,"lon":5.3973,"is_reserved":false,"is_disabled":false,"rental_uris":{"android":"levelo://app?vid=f51f34c4-1fe1-43c1-b616-3067162d8b45","ios":"levelo://app?vid=f51f34c4-1fe1-43c1-b616-3067162d8b45"},"vehicle_type_id":"4","last_reported":1742375435,"current_range_meters":4800,"station_id":"ce4bhn12rcd13ifvqgpg","pricing_plan_id":"cebpf4jnsgd1na2vs0mg"},{"bike_id":"e113fe97-3ef4-4fb3-8e0c-6311bdcf6e67","system_id":"levelo_inurba_marseille","lat":43.30952,"lon":5.39038,"is_reserved":false,"is_disabled":false,"rental_uris":{"android":"levelo://app?vid=e113fe97-3ef4-4fb3-8e0c-6311bdcf6e67","ios":"levelo://app?vid=e113fe97-3ef4-4fb3-8e0c-6311bdcf6e67"},"vehicle_type_id":"4","last_reported":1742375435,"current_range_meters":4800,"station_id":"ce4bgup2rcd13ifvqco0","pricing_plan_id":"cebpf4jnsgd1na2vs0mg"},{"bike_id":"75c7d171-41c9-49f4-a46e-fa8d7f6f669c","system_id":"levelo_inurba_marseille","lat":43.3029,"lon":5.37697,"is_reserved":false,"is_disabled":false,"rental_uris":{"android":"levelo://app?vid=75c7d171-41c9-49f4-a46e-fa8d7f6f669c","ios":"levelo://app?vid=75c7d171-41c9-49f4-a46e-fa8d7f6f669c"},"vehicle_type_id":"4","last_reported":1742375435,"current_range_meters":4800,"station_id":"ce4bguh2rcd13ifvqcj0","pricing_plan_id":"cebpf4jnsgd1na2vs0mg"},{"bike_id":"444ca085-c785-4d56-8339-9d70bc0983ca","system_id":"levelo_inurba_marseille","lat":43.30553,"lon":5.36517,"is_reserved":false,"is_disabled":false,"rental_uris":{"android":"levelo://app?vid=444ca085-c785-4d56-8339-9d70bc0983ca","ios":"levelo://app?vid=444ca085-c785-4d56-8339-9d70bc0983ca"},"vehicle_type_id":"4","last_reported":1742375435,"current_range_meters":5600,"station_id":"ce4bgs12rcd13ifvqcag","pricing_plan_id":"cebpf4jnsgd1na2vs0mg"},{"bike_id":"52078a88-ea2d-49c7-9b50-8de076ee23e0","system_id":"levelo_inurba_marseille","lat":43.31267,"lon":5.40182,"is_reserved":false,"is_disabled":false,"rental_uris":{"android":"levelo://app?vid=52078a88-ea2d-49c7-9b50-8de076ee23e0","ios":"levelo://app?vid=52078a88-ea2d-49c7-9b50-8de076ee23e0"},"vehicle_type_id":"4","last_reported":1742375435,"current_range_meters":4800,"station_id":"ce4bh092rcd13ifvqd30","pricing_plan_id":"cebpf4jnsgd1na2vs0mg"},{"bike_id":"f175e98e-b5f7-4bcf-a8d0-91885bb7df74","system_id":"levelo_inurba_marseille","lat":43.30136,"lon":5.37407,"is_reserved":false,"is_disabled":false,"rental_uris":{"android":"levelo://app?vid=f175e98e-b5f7-4bcf-a8d0-91885bb7df74","ios":"levelo://app?vid=f175e98e-b5f7-4bcf-a8d0-91885bb7df74"},"vehicle_type_id":"4","last_reported":1742375435,"current_range_meters":5600,"station_id":"ce4bgs92rcd13ifvqcc0","pricing_plan_id":"cebpf4jnsgd1na2vs0mg"},{"bike_id":"197ee7d2-492c-4efc-8a32-603d6446f10f","system_id":"levelo_inurba_marseille","lat":43.28924,"lon":5.38405,"is_reserved":false,"is_disabled":false,"rental_uris":{"android":"levelo://app?vid=197ee7d2-492c-4efc-8a32-603d6446f10f","ios":"levelo://app?vid=197ee7d2-492c-4efc-8a32-603d6446f10f"},"vehicle_type_id":"4","last_reported":1742375435,"current_range_meters":5600,"station_id":"ce4bh612rcd13ifvqe6g","pricing_plan_id":"cebpf4jnsgd1na2vs0mg"},{"bike_id":"9a03147d-a4e5-47b9-892a-2886318bbb36","system_id":"levelo_inurba_marseille","lat":43.30184,"lon":5.36621,"is_reserved":false,"is_disabled":false,"rental_uris":{"android":"levelo://app?vid=9a03147d-a4e5-47b9-892a-2886318bbb36","ios":"levelo://app?vid=9a03147d-a4e5-47b9-892a-2886318bbb36"},"vehicle_type_id":"4","last_reported":1742375435,"current_range_meters":5600,"station_id":"ce4bgrh2rcd13ifvqc8g","pricing_plan_id":"cebpf4jnsgd1na2vs0mg"},{"bike_id":"99dd7654-2075-4099-aec2-4e77510eab61","system_id":"levelo_inurba_marseille","lat":43.33601,"lon":5.41037,"is_reserved":false,"is_disabled":false,"rental_uris":{"android":"levelo://app?vid=99dd7654-2075-4099-aec2-4e77510eab61","ios":"levelo://app?vid=99dd7654-2075-4099-aec2-4e77510eab61"},"vehicle_type_id":"4","last_reported":1742375435,"current_range_meters":5600,"station_id":"ce4bhqh2rcd13ifvqhmg","pricing_plan_id":"cebpf4jnsgd1na2vs0mg"},{"bike_id":"52bd4f14-775f-459f-9791-851d088e69cb","system_id":"levelo_inurba_marseille","lat":43.25005,"lon":5.3893,"is_reserved":false,"is_disabled":false,"rental_uris":{"android":"levelo://app?vid=52bd4f14-775f-459f-9791-851d088e69cb","ios":"levelo://app?vid=52bd4f14-775f-459f-9791-851d088e69cb"},"vehicle_type_id":"4","last_reported":1742375435,"current_range_meters":6000,"station_id":"ce4bhgp2rcd13ifvqfd0","pricing_plan_id":"cebpf4jnsgd1na2vs0mg"},{"bike_id":"a2b55b3e-6d2a-48ab-b87d-838913aa8d96","system_id":"levelo_inurba_marseille","lat":43.25913,"lon":5.40902,"is_reserved":false,"is_disabled":false,"rental_uris":{"android":"levelo://app?vid=a2b55b3e-6d2a-48ab-b87d-838913aa8d96","ios":"levelo://app?vid=a2b55b3e-6d2a-48ab-b87d-838913aa8d96"},"vehicle_type_id":"4","last_reported":1742375435,"current_range_meters":6000,"station_id":"ce4bhm92rcd13ifvqglg","pricing_plan_id":"cebpf4jnsgd1na2vs0mg"},{"bike_id":"4f6d11f4-8d23-4e35-8c59-e818e64ce7ab","system_id":"levelo_inurba_marseille","lat":43.29528,"lon":5.43899,"is_reserved":false,"is_disabled":false,"rental_uris":{"android":"levelo://app?vid=4f6d11f4-8d23-4e35-8c59-e818e64ce7ab","ios":"levelo://app?vid=4f6d11f4-8d23-4e35-8c59-e818e64ce7ab"},"vehicle_type_id":"4","last_reported":1742375435,"current_range_meters":6000,"station_id":"","pricing_plan_id":"cebpf4jnsgd1na2vs0mg"},{"bike_id":"2b13f4ac-f5a7-4be7-a38e-b248ce22b04d","system_id":"levelo_inurba_marseille","lat":43.31236,"lon":5.36846,"is_reserved":false,"is_disabled":false,"rental_uris":{"android":"levelo://app?vid=2b13f4ac-f5a7-4be7-a38e-b248ce22b04d","ios":"levelo://app?vid=2b13f4ac-f5a7-4be7-a38e-b248ce22b04d"},"vehicle_type_id":"4","last_reported":1742375435,"current_range_meters":6000,"station_id":"ce4bgl92rcd13ifvqbq0","pricing_plan_id":"cebpf4jnsgd1na2vs0mg"},{"bike_id":"dd039e60-65bb-4c3a-a12f-627ab036ab4c","system_id":"levelo_inurba_marseille","lat":43.3091,"lon":5.36847,"is_reserved":false,"is_disabled":false,"rental_uris":{"android":"levelo://app?vid=dd039e60-65bb-4c3a-a12f-627ab036ab4c","ios":"levelo://app?vid=dd039e60-65bb-4c3a-a12f-627ab036ab4c"},"vehicle_type_id":"4","last_reported":1742375435,"current_range_meters":6000,"station_id":"ce4bgn92rcd13ifvqbvg","pricing_plan_id":"cebpf4jnsgd1na2vs0mg"},{"bike_id":"eba83c3e-d2db-4dea-afe0-99814e4ae29d","system_id":"levelo_inurba_marseille","lat":43.29595,"lon":5.38106,"is_reserved":false,"is_disabled":false,"rental_uris":{"android":"levelo://app?vid=eba83c3e-d2db-4dea-afe0-99814e4ae29d","ios":"levelo://app?vid=eba83c3e-d2db-4dea-afe0-99814e4ae29d"},"vehicle_type_id":"4","last_reported":1742375435,"current_range_meters":6000,"station_id":"ce4bgl12rcd13ifvqbo0","pricing_plan_id":"cebpf4jnsgd1na2vs0mg"},{"bike_id":"d8a33174-5616-423c-af42-3b02f62c5cbf","system_id":"levelo_inurba_marseille","lat":43.26928,"lon":5.38922,"is_reserved":false,"is_disabled":false,"rental_uris":{"android":"levelo://app?vid=d8a33174-5616-423c-af42-3b02f62c5cbf","ios":"levelo://app?vid=d8a33174-5616-423c-af42-3b02f62c5cbf"},"vehicle_type_id":"4","last_reported":1742375435,"current_range_meters":6400,"station_id":"ce4bhhh2rcd13ifvqfl0","pricing_plan_id":"cebpf4jnsgd1na2vs0mg"},{"bike_id":"1ce72860-f5cb-4ec9-a1bb-93bab351c7f4","system_id":"levelo_inurba_marseille","lat":43.29293,"lon":5.37465,"is_reserved":false,"is_disabled":false,"rental_uris":{"android":"levelo://app?vid=1ce72860-f5cb-4ec9-a1bb-93bab351c7f4","ios":"levelo://app?vid=1ce72860-f5cb-4ec9-a1bb-93bab351c7f4"},"vehicle_type_id":"4","last_reported":1742375435,"current_range_meters":6400,"station_id":"ce4bgi12rcd13ifvqb70","pricing_plan_id":"cebpf4jnsgd1na2vs0mg"},{"bike_id":"284246fb-e8a0-47be-af3d-27a97f0de6bc","system_id":"levelo_inurba_marseille","lat":43.24067,"lon":5.37756,"is_reserved":false,"is_disabled":false,"rental_uris":{"android":"levelo://app?vid=284246fb-e8a0-47be-af3d-27a97f0de6bc","ios":"levelo://app?vid=284246fb-e8a0-47be-af3d-27a97f0de6bc"},"vehicle_type_id":"4","last_reported":1742375435,"current_range_meters":6400,"station_id":"ce4bhnp2rcd13ifvqgvg","pricing_plan_id":"cebpf4jnsgd1na2vs0mg"},{"bike_id":"5cc7107b-4638-44b7-9016-fb56a8137a82","system_id":"levelo_inurba_marseille","lat":43.33028,"lon":5.39072,"is_reserved":false,"is_disabled":false,"rental_uris":{"android":"levelo://app?vid=5cc7107b-4638-44b7-9016-fb56a8137a82","ios":"levelo://app?vid=5cc7107b-4638-44b7-9016-fb56a8137a82"},"vehicle_type_id":"4","last_reported":1742375435,"current_range_meters":6400,"station_id":"ce4bhr92rcd13ifvqhrg","pricing_plan_id":"cebpf4jnsgd1na2vs0mg"},{"bike_id":"ba5842e2-aaf8-4307-aa35-7bb3263336fd","system_id":"levelo_inurba_marseille","lat":43.27499,"lon":5.42448,"is_reserved":false,"is_disabled":false,"rental_uris":{"android":"levelo://app?vid=ba5842e2-aaf8-4307-aa35-7bb3263336fd","ios":"levelo://app?vid=ba5842e2-aaf8-4307-aa35-7bb3263336fd"},"vehicle_type_id":"4","last_reported":1742375435,"current_range_meters":6400,"station_id":"ce4bhn92rcd13ifvqgrg","pricing_plan_id":"cebpf4jnsgd1na2vs0mg"},{"bike_id":"917157bf-1a46-4ec7-8af5-51f958b198bf","system_id":"levelo_inurba_marseille","lat":43.31357,"lon":5.36717,"is_reserved":false,"is_disabled":false,"rental_uris":{"android":"levelo://app?vid=917157bf-1a46-4ec7-8af5-51f958b198bf","ios":"levelo://app?vid=917157bf-1a46-4ec7-8af5-51f958b198bf"},"vehicle_type_id":"4","last_reported":1742375435,"current_range_meters":6400,"station_id":"ce4bgr92rcd13ifvqc6g","pricing_plan_id":"cebpf4jnsgd1na2vs0mg"},{"bike_id":"b47cfc94-fe97-44e7-9c8f-ed650de05ec1","system_id":"levelo_inurba_marseille","lat":43.2587,"lon":5.39897,"is_reserved":false,"is_disabled":false,"rental_uris":{"android":"levelo://app?vid=b47cfc94-fe97-44e7-9c8f-ed650de05ec1","ios":"levelo://app?vid=b47cfc94-fe97-44e7-9c8f-ed650de05ec1"},"vehicle_type_id":"4","last_reported":1742375435,"current_range_meters":12800,"station_id":"ce4bhl92rcd13ifvqghg","pricing_plan_id":"cebpf4jnsgd1na2vs0mg"},{"bike_id":"c8aebf71-8f92-4a15-a86e-14c7cfbd9a29","system_id":"levelo_inurba_marseille","lat":43.29588,"lon":5.38037,"is_reserved":false,"is_disabled":false,"rental_uris":{"android":"levelo://app?vid=c8aebf71-8f92-4a15-a86e-14c7cfbd9a29","ios":"levelo://app?vid=c8aebf71-8f92-4a15-a86e-14c7cfbd9a29"},"vehicle_type_id":"4","last_reported":1742375435,"current_range_meters":6400,"station_id":"","pricing_plan_id":"cebpf4jnsgd1na2vs0mg"},{"bike_id":"8f79f3b7-6513-4def-bb2d-05a7d82b97a5","system_id":"levelo_inurba_marseille","lat":43.24171,"lon":5.36421,"is_reserved":false,"is_disabled":false,"rental_uris":{"android":"levelo://app?vid=8f79f3b7-6513-4def-bb2d-05a7d82b97a5","ios":"levelo://app?vid=8f79f3b7-6513-4def-bb2d-05a7d82b97a5"},"vehicle_type_id":"4","last_reported":1742375435,"current_range_meters":6400,"station_id":"cpo36qri1sfpv3e86is0","pricing_plan_id":"cebpf4jnsgd1na2vs0mg"},{"bike_id":"faccb755-09d8-4857-a76e-a52465dbf53e","system_id":"levelo_inurba_marseille","lat":43.28425,"lon":5.34988,"is_reserved":false,"is_disabled":false,"rental_uris":{"android":"levelo://app?vid=faccb755-09d8-4857-a76e-a52465dbf53e","ios":"levelo://app?vid=faccb755-09d8-4857-a76e-a52465dbf53e"},"vehicle_type_id":"4","last_reported":1742375435,"current_range_meters":6800,"station_id":"ce4bhbh2rcd13ifvqepg","pricing_plan_id":"cebpf4jnsgd1na2vs0mg"},{"bike_id":"0be2b54a-2df5-4cb9-ab77-c64ea4c4d6a6","system_id":"levelo_inurba_marseille","lat":43.29557,"lon":5.42286,"is_reserved":false,"is_disabled":false,"rental_uris":{"android":"levelo://app?vid=0be2b54a-2df5-4cb9-ab77-c64ea4c4d6a6","ios":"levelo://app?vid=0be2b54a-2df5-4cb9-ab77-c64ea4c4d6a6"},"vehicle_type_id":"4","last_reported":1742375435,"current_range_meters":6800,"station_id":"ce4bhph2rcd13ifvqhdg","pricing_plan_id":"cebpf4jnsgd1na2vs0mg"},{"bike_id":"d0ecd06f-b344-485c-8550-9fa5bf448f53","system_id":"levelo_inurba_marseille","lat":43.25833,"lon":5.39448,"is_reserved":false,"is_disabled":false,"rental_uris":{"android":"levelo://app?vid=d0ecd06f-b344-485c-8550-9fa5bf448f53","ios":"levelo://app?vid=d0ecd06f-b344-485c-8550-9fa5bf448f53"},"vehicle_type_id":"4","last_reported":1742375435,"current_range_meters":6800,"station_id":"ce4bhip2rcd13ifvqft0","pricing_plan_id":"cebpf4jnsgd1na2vs0mg"},{"bike_id":"6b881e12-305b-4a37-a4bf-f0dc2e3924a3","system_id":"levelo_inurba_marseille","lat":43.28148,"lon":5.42637,"is_reserved":false,"is_disabled":false,"rental_uris":{"android":"levelo://app?vid=6b881e12-305b-4a37-a4bf-f0dc2e3924a3","ios":"levelo://app?vid=6b881e12-305b-4a37-a4bf-f0dc2e3924a3"},"vehicle_type_id":"4","last_reported":1742375435,"current_range_meters":6800,"station_id":"ce4bhnh2rcd13ifvqgug","pricing_plan_id":"cebpf4jnsgd1na2vs0mg"},{"bike_id":"22224239-5f2c-4009-afd9-f257e1b4b95d","system_id":"levelo_inurba_marseille","lat":43.29038,"lon":5.37555,"is_reserved":false,"is_disabled":false,"rental_uris":{"android":"levelo://app?vid=22224239-5f2c-4009-afd9-f257e1b4b95d","ios":"levelo://app?vid=22224239-5f2c-4009-afd9-f257e1b4b95d"},"vehicle_type_id":"4","last_reported":1742375435,"current_range_meters":6800,"station_id":"ce4bh692rcd13ifvqe90","pricing_plan_id":"cebpf4jnsgd1na2vs0mg"},{"bike_id":"e2f4c9ff-4312-4727-bea5-296d57083a26","system_id":"levelo_inurba_marseille","lat":43.28936,"lon":5.39629,"is_reserved":false,"is_disabled":false,"rental_uris":{"android":"levelo://app?vid=e2f4c9ff-4312-4727-bea5-296d57083a26","ios":"levelo://app?vid=e2f4c9ff-4312-4727-bea5-296d57083a26"},"vehicle_type_id":"4","last_reported":1742375435,"current_range_meters":6800,"station_id":"ce4bh3h2rcd13ifvqdn0","pricing_plan_id":"cebpf4jnsgd1na2vs0mg"},{"bike_id":"8528cfd6-758c-4197-aaac-800294acfea6","system_id":"levelo_inurba_marseille","lat":43.25859,"lon":5.39913,"is_reserved":false,"is_disabled":false,"rental_uris":{"android":"levelo://app?vid=8528cfd6-758c-4197-aaac-800294acfea6","ios":"levelo://app?vid=8528cfd6-758c-4197-aaac-800294acfea6"},"vehicle_type_id":"4","last_reported":1742375435,"current_range_meters":6800,"station_id":"ce4bhl92rcd13ifvqghg","pricing_plan_id":"cebpf4jnsgd1na2vs0mg"},{"bike_id":"0ed3ed05-ceac-43cb-a199-b6d7f8d3dda2","system_id":"levelo_inurba_marseille","lat":43.2707,"lon":5.42282,"is_reserved":false,"is_disabled":false,"rental_uris":{"android":"levelo://app?vid=0ed3ed05-ceac-43cb-a199-b6d7f8d3dda2","ios":"levelo://app?vid=0ed3ed05-ceac-43cb-a199-b6d7f8d3dda2"},"vehicle_type_id":"4","last_reported":1742375435,"current_range_meters":6800,"station_id":"ce4bhk92rcd13ifvqgb0","pricing_plan_id":"cebpf4jnsgd1na2vs0mg"},{"bike_id":"a7810caf-e06b-4d5e-97ed-47c7b1b3724f","system_id":"levelo_inurba_marseille","lat":43.28929,"lon":5.38397,"is_reserved":false,"is_disabled":false,"rental_uris":{"android":"levelo://app?vid=a7810caf-e06b-4d5e-97ed-47c7b1b3724f","ios":"levelo://app?vid=a7810caf-e06b-4d5e-97ed-47c7b1b3724f"},"vehicle_type_id":"4","last_reported":1742375435,"current_range_meters":6800,"station_id":"ce4bh612rcd13ifvqe6g","pricing_plan_id":"cebpf4jnsgd1na2vs0mg"},{"bike_id":"d3cc3b00-f881-4a5a-8920-6e75d0fcab4b","system_id":"levelo_inurba_marseille","lat":43.30325,"lon":5.36892,"is_reserved":false,"is_disabled":false,"rental_uris":{"android":"levelo://app?vid=d3cc3b00-f881-4a5a-8920-6e75d0fcab4b","ios":"levelo://app?vid=d3cc3b00-f881-4a5a-8920-6e75d0fcab4b"},"vehicle_type_id":"4","last_reported":1742375435,"current_range_meters":6800,"station_id":"ce4bgqh2rcd13ifvqc5g","pricing_plan_id":"cebpf4jnsgd1na2vs0mg"},{"bike_id":"2fc9495d-c829-4229-a4db-5c8674880d7a","system_id":"levelo_inurba_marseille","lat":43.23062,"lon":5.35492,"is_reserved":false,"is_disabled":false,"rental_uris":{"android":"levelo://app?vid=2fc9495d-c829-4229-a4db-5c8674880d7a","ios":"levelo://app?vid=2fc9495d-c829-4229-a4db-5c8674880d7a"},"vehicle_type_id":"4","last_reported":1742375435,"current_range_meters":7200,"station_id":"cpo3342slgdg3j2ifvpg","pricing_plan_id":"cebpf4jnsgd1na2vs0mg"},{"bike_id":"0a4eeb4c-13c2-4080-92d0-9d87181fd89b","system_id":"levelo_inurba_marseille","lat":43.30182,"lon":5.36636,"is_reserved":false,"is_disabled":false,"rental_uris":{"android":"levelo://app?vid=0a4eeb4c-13c2-4080-92d0-9d87181fd89b","ios":"levelo://app?vid=0a4eeb4c-13c2-4080-92d0-9d87181fd89b"},"vehicle_type_id":"4","last_reported":1742375435,"current_range_meters":6800,"station_id":"ce4bgrh2rcd13ifvqc8g","pricing_plan_id":"cebpf4jnsgd1na2vs0mg"},{"bike_id":"0b60e72b-d8b1-4266-9b63-b94b87c1ad4b","system_id":"levelo_inurba_marseille","lat":43.23185,"lon":5.39988,"is_reserved":false,"is_disabled":false,"rental_uris":{"android":"levelo://app?vid=0b60e72b-d8b1-4266-9b63-b94b87c1ad4b","ios":"levelo://app?vid=0b60e72b-d8b1-4266-9b63-b94b87c1ad4b"},"vehicle_type_id":"4","last_reported":1742375435,"current_range_meters":7200,"station_id":"ce4bhn12rcd13ifvqgqg","pricing_plan_id":"cebpf4jnsgd1na2vs0mg"},{"bike_id":"538b2a74-6dc4-43cc-b3ce-cd2555f34771","system_id":"levelo_inurba_marseille","lat":43.30951,"lon":5.39042,"is_reserved":false,"is_disabled":true,"rental_uris":{"android":"levelo://app?vid=538b2a74-6dc4-43cc-b3ce-cd2555f34771","ios":"levelo://app?vid=538b2a74-6dc4-43cc-b3ce-cd2555f34771"},"vehicle_type_id":"4","last_reported":1742375435,"current_range_meters":7200,"station_id":"ce4bgup2rcd13ifvqco0","pricing_plan_id":"cebpf4jnsgd1na2vs0mg"},{"bike_id":"3c4f394c-0305-4c58-97e5-6826bd9d917e","system_id":"levelo_inurba_marseille","lat":43.32474,"lon":5.36576,"is_reserved":false,"is_disabled":false,"rental_uris":{"android":"levelo://app?vid=3c4f394c-0305-4c58-97e5-6826bd9d917e","ios":"levelo://app?vid=3c4f394c-0305-4c58-97e5-6826bd9d917e"},"vehicle_type_id":"4","last_reported":1742375435,"current_range_meters":7200,"station_id":"ce4bhs12rcd13ifvqhvg","pricing_plan_id":"cebpf4jnsgd1na2vs0mg"},{"bike_id":"d27d5afd-0e24-429e-8ec6-1c1f94770480","system_id":"levelo_inurba_marseille","lat":43.26935,"lon":5.38653,"is_reserved":false,"is_disabled":false,"rental_uris":{"android":"levelo://app?vid=d27d5afd-0e24-429e-8ec6-1c1f94770480","ios":"levelo://app?vid=d27d5afd-0e24-429e-8ec6-1c1f94770480"},"vehicle_type_id":"4","last_reported":1742375435,"current_range_meters":7200,"station_id":"ce4bhh92rcd13ifvqfh0","pricing_plan_id":"cebpf4jnsgd1na2vs0mg"},{"bike_id":"2ac078ab-e001-43fb-b693-8d90890b50db","system_id":"levelo_inurba_marseille","lat":43.296997,"lon":5.379082,"is_reserved":false,"is_disabled":false,"rental_uris":{"android":"levelo://app?vid=2ac078ab-e001-43fb-b693-8d90890b50db","ios":"levelo://app?vid=2ac078ab-e001-43fb-b693-8d90890b50db"},"vehicle_type_id":"4","last_reported":1742375435,"current_range_meters":7200,"station_id":"ce4bgvh2rcd13ifvqcs0","pricing_plan_id":"cebpf4jnsgd1na2vs0mg"},{"bike_id":"519efbbc-7577-4063-8eac-658ef30e98a3","system_id":"levelo_inurba_marseille","lat":43.25004,"lon":5.38985,"is_reserved":false,"is_disabled":false,"rental_uris":{"android":"levelo://app?vid=519efbbc-7577-4063-8eac-658ef30e98a3","ios":"levelo://app?vid=519efbbc-7577-4063-8eac-658ef30e98a3"},"vehicle_type_id":"4","last_reported":1742375435,"current_range_meters":7200,"station_id":"","pricing_plan_id":"cebpf4jnsgd1na2vs0mg"},{"bike_id":"49d04d98-1548-409e-b15d-5f0b85a3c26c","system_id":"levelo_inurba_marseille","lat":43.30385,"lon":5.42475,"is_reserved":false,"is_disabled":false,"rental_uris":{"android":"levelo://app?vid=49d04d98-1548-409e-b15d-5f0b85a3c26c","ios":"levelo://app?vid=49d04d98-1548-409e-b15d-5f0b85a3c26c"},"vehicle_type_id":"4","last_reported":1742375435,"current_range_meters":7200,"station_id":"ce4bhoh2rcd13ifvqh6g","pricing_plan_id":"cebpf4jnsgd1na2vs0mg"},{"bike_id":"049b5602-ba3f-4a09-ad40-b8c54e6f1cb6","system_id":"levelo_inurba_marseille","lat":43.24999,"lon":5.38924,"is_reserved":false,"is_disabled":false,"rental_uris":{"android":"levelo://app?vid=049b5602-ba3f-4a09-ad40-b8c54e6f1cb6","ios":"levelo://app?vid=049b5602-ba3f-4a09-ad40-b8c54e6f1cb6"},"vehicle_type_id":"4","last_reported":1742375435,"current_range_meters":7200,"station_id":"ce4bhgp2rcd13ifvqfd0","pricing_plan_id":"cebpf4jnsgd1na2vs0mg"},{"bike_id":"c12dbdad-22a4-4e8a-bfd1-73baf79aae9f","system_id":"levelo_inurba_marseille","lat":43.30136,"lon":5.37384,"is_reserved":false,"is_disabled":false,"rental_uris":{"android":"levelo://app?vid=c12dbdad-22a4-4e8a-bfd1-73baf79aae9f","ios":"levelo://app?vid=c12dbdad-22a4-4e8a-bfd1-73baf79aae9f"},"vehicle_type_id":"4","last_reported":1742375435,"current_range_meters":7200,"station_id":"ce4bgs92rcd13ifvqcc0","pricing_plan_id":"cebpf4jnsgd1na2vs0mg"},{"bike_id":"2b1860cd-c7d7-4275-92ee-e31c02194138","system_id":"levelo_inurba_marseille","lat":43.26945,"lon":5.38634,"is_reserved":false,"is_disabled":false,"rental_uris":{"android":"levelo://app?vid=2b1860cd-c7d7-4275-92ee-e31c02194138","ios":"levelo://app?vid=2b1860cd-c7d7-4275-92ee-e31c02194138"},"vehicle_type_id":"4","last_reported":1742375435,"current_range_meters":7200,"station_id":"ce4bhh92rcd13ifvqfh0","pricing_plan_id":"cebpf4jnsgd1na2vs0mg"},{"bike_id":"3a1ecb90-139b-4d1c-aa61-12de3856d914","system_id":"levelo_inurba_marseille","lat":43.29278,"lon":5.36852,"is_reserved":false,"is_disabled":false,"rental_uris":{"android":"levelo://app?vid=3a1ecb90-139b-4d1c-aa61-12de3856d914","ios":"levelo://app?vid=3a1ecb90-139b-4d1c-aa61-12de3856d914"},"vehicle_type_id":"4","last_reported":1742375435,"current_range_meters":7200,"station_id":"ce4bhbp2rcd13ifvqesg","pricing_plan_id":"cebpf4jnsgd1na2vs0mg"},{"bike_id":"a04ae831-6869-46e7-9513-0e6fd0cb0802","system_id":"levelo_inurba_marseille","lat":43.2407,"lon":5.3776,"is_reserved":false,"is_disabled":false,"rental_uris":{"android":"levelo://app?vid=a04ae831-6869-46e7-9513-0e6fd0cb0802","ios":"levelo://app?vid=a04ae831-6869-46e7-9513-0e6fd0cb0802"},"vehicle_type_id":"4","last_reported":1742375435,"current_range_meters":8000,"station_id":"ce4bhnp2rcd13ifvqgvg","pricing_plan_id":"cebpf4jnsgd1na2vs0mg"},{"bike_id":"b2bf5e3b-30f1-4757-9555-200f5395a4de","system_id":"levelo_inurba_marseille","lat":43.29617,"lon":5.37729,"is_reserved":false,"is_disabled":false,"rental_uris":{"android":"levelo://app?vid=b2bf5e3b-30f1-4757-9555-200f5395a4de","ios":"levelo://app?vid=b2bf5e3b-30f1-4757-9555-200f5395a4de"},"vehicle_type_id":"4","last_reported":1742375435,"current_range_meters":8000,"station_id":"ce4bgi92rcd13ifvqb90","pricing_plan_id":"cebpf4jnsgd1na2vs0mg"},{"bike_id":"6ae6f76c-6a01-4d75-9d3f-dfa610803a78","system_id":"levelo_inurba_marseille","lat":43.23067,"lon":5.35492,"is_reserved":false,"is_disabled":false,"rental_uris":{"android":"levelo://app?vid=6ae6f76c-6a01-4d75-9d3f-dfa610803a78","ios":"levelo://app?vid=6ae6f76c-6a01-4d75-9d3f-dfa610803a78"},"vehicle_type_id":"4","last_reported":1742375435,"current_range_meters":8000,"station_id":"cpo3342slgdg3j2ifvpg","pricing_plan_id":"cebpf4jnsgd1na2vs0mg"},{"bike_id":"253fce13-8607-4f2f-839f-40104be19b05","system_id":"levelo_inurba_marseille","lat":43.23967,"lon":5.36664,"is_reserved":false,"is_disabled":false,"rental_uris":{"android":"levelo://app?vid=253fce13-8607-4f2f-839f-40104be19b05","ios":"levelo://app?vid=253fce13-8607-4f2f-839f-40104be19b05"},"vehicle_type_id":"4","last_reported":1742375435,"current_range_meters":8000,"station_id":"ce4bhi12rcd13ifvqfp0","pricing_plan_id":"cebpf4jnsgd1na2vs0mg"},{"bike_id":"9618187c-b1a2-4138-b907-6f9a3d291677","system_id":"levelo_inurba_marseille","lat":43.3046,"lon":5.37916,"is_reserved":false,"is_disabled":false,"rental_uris":{"android":"levelo://app?vid=9618187c-b1a2-4138-b907-6f9a3d291677","ios":"levelo://app?vid=9618187c-b1a2-4138-b907-6f9a3d291677"},"vehicle_type_id":"4","last_reported":1742375435,"current_range_meters":8000,"station_id":"ce4bgup2rcd13ifvqcn0","pricing_plan_id":"cebpf4jnsgd1na2vs0mg"},{"bike_id":"d047e02c-6362-4174-b551-530d62372109","system_id":"levelo_inurba_marseille","lat":43.2953,"lon":5.39038,"is_reserved":false,"is_disabled":false,"rental_uris":{"android":"levelo://app?vid=d047e02c-6362-4174-b551-530d62372109","ios":"levelo://app?vid=d047e02c-6362-4174-b551-530d62372109"},"vehicle_type_id":"4","last_reported":1742375435,"current_range_meters":8000,"station_id":"ce4bh3p2rcd13ifvqdp0","pricing_plan_id":"cebpf4jnsgd1na2vs0mg"},{"bike_id":"1b2b097c-30a0-445c-b086-9bc752348acb","system_id":"levelo_inurba_marseille","lat":43.24049,"lon":5.37779,"is_reserved":false,"is_disabled":false,"rental_uris":{"android":"levelo://app?vid=1b2b097c-30a0-445c-b086-9bc752348acb","ios":"levelo://app?vid=1b2b097c-30a0-445c-b086-9bc752348acb"},"vehicle_type_id":"4","last_reported":1742375435,"current_range_meters":8000,"station_id":"ce4bhnp2rcd13ifvqgvg","pricing_plan_id":"cebpf4jnsgd1na2vs0mg"},{"bike_id":"3bff80ec-e94e-42a9-988b-9e0817493bec","system_id":"levelo_inurba_marseille","lat":43.23194,"lon":5.35549,"is_reserved":false,"is_disabled":false,"rental_uris":{"android":"levelo://app?vid=3bff80ec-e94e-42a9-988b-9e0817493bec","ios":"levelo://app?vid=3bff80ec-e94e-42a9-988b-9e0817493bec"},"vehicle_type_id":"4","last_reported":1742375435,"current_range_meters":8000,"station_id":"ce4bhu92rcd13ifvqi70","pricing_plan_id":"cebpf4jnsgd1na2vs0mg"},{"bike_id":"61c41159-7a8b-45ee-a18c-926f56b3edec","system_id":"levelo_inurba_marseille","lat":43.25886,"lon":5.39394,"is_reserved":false,"is_disabled":false,"rental_uris":{"android":"levelo://app?vid=61c41159-7a8b-45ee-a18c-926f56b3edec","ios":"levelo://app?vid=61c41159-7a8b-45ee-a18c-926f56b3edec"},"vehicle_type_id":"4","last_reported":1742375435,"current_range_meters":8000,"station_id":"","pricing_plan_id":"cebpf4jnsgd1na2vs0mg"},{"bike_id":"507548fe-45b7-473a-8973-0944b7d42659","system_id":"levelo_inurba_marseille","lat":43.295537,"lon":5.42289,"is_reserved":false,"is_disabled":true,"rental_uris":{"android":"levelo://app?vid=507548fe-45b7-473a-8973-0944b7d42659","ios":"levelo://app?vid=507548fe-45b7-473a-8973-0944b7d42659"},"vehicle_type_id":"4","last_reported":1742375435,"current_range_meters":8000,"station_id":"ce4bhph2rcd13ifvqhdg","pricing_plan_id":"cebpf4jnsgd1na2vs0mg"},{"bike_id":"e4d45dd0-64e1-438b-960f-23bacc6e4e06","system_id":"levelo_inurba_marseille","lat":43.2313,"lon":5.4369,"is_reserved":false,"is_disabled":false,"rental_uris":{"android":"levelo://app?vid=e4d45dd0-64e1-438b-960f-23bacc6e4e06","ios":"levelo://app?vid=e4d45dd0-64e1-438b-960f-23bacc6e4e06"},"vehicle_type_id":"4","last_reported":1742375435,"current_range_meters":8400,"station_id":"ce4bhmp2rcd13ifvqgog","pricing_plan_id":"cebpf4jnsgd1na2vs0mg"},{"bike_id":"bd82a1ad-3fe0-4df5-9d0a-433edfa082db","system_id":"levelo_inurba_marseille","lat":43.24547,"lon":5.39523,"is_reserved":false,"is_disabled":false,"rental_uris":{"android":"levelo://app?vid=bd82a1ad-3fe0-4df5-9d0a-433edfa082db","ios":"levelo://app?vid=bd82a1ad-3fe0-4df5-9d0a-433edfa082db"},"vehicle_type_id":"4","last_reported":1742375435,"current_range_meters":8400,"station_id":"ce4bhlp2rcd13ifvqgjg","pricing_plan_id":"cebpf4jnsgd1na2vs0mg"},{"bike_id":"d6b9e128-f49d-40de-bc36-9f7b35d0136a","system_id":"levelo_inurba_marseille","lat":43.3046,"lon":5.37914,"is_reserved":false,"is_disabled":false,"rental_uris":{"android":"levelo://app?vid=d6b9e128-f49d-40de-bc36-9f7b35d0136a","ios":"levelo://app?vid=d6b9e128-f49d-40de-bc36-9f7b35d0136a"},"vehicle_type_id":"4","last_reported":1742375435,"current_range_meters":8400,"station_id":"ce4bgup2rcd13ifvqcn0","pricing_plan_id":"cebpf4jnsgd1na2vs0mg"},{"bike_id":"d00028dc-9b0d-47df-ad9d-778d21fb21b2","system_id":"levelo_inurba_marseille","lat":43.23196,"lon":5.35566,"is_reserved":false,"is_disabled":false,"rental_uris":{"android":"levelo://app?vid=d00028dc-9b0d-47df-ad9d-778d21fb21b2","ios":"levelo://app?vid=d00028dc-9b0d-47df-ad9d-778d21fb21b2"},"vehicle_type_id":"4","last_reported":1742375435,"current_range_meters":8400,"station_id":"ce4bhu92rcd13ifvqi70","pricing_plan_id":"cebpf4jnsgd1na2vs0mg"},{"bike_id":"ca1c0a28-8faf-435f-9d8b-370c3a07ff34","system_id":"levelo_inurba_marseille","lat":43.24169,"lon":5.36396,"is_reserved":false,"is_disabled":false,"rental_uris":{"android":"levelo://app?vid=ca1c0a28-8faf-435f-9d8b-370c3a07ff34","ios":"levelo://app?vid=ca1c0a28-8faf-435f-9d8b-370c3a07ff34"},"vehicle_type_id":"4","last_reported":1742375435,"current_range_meters":8400,"station_id":"cpo36qri1sfpv3e86is0","pricing_plan_id":"cebpf4jnsgd1na2vs0mg"},{"bike_id":"a342afa1-fe1b-4de5-8f98-f3f81167fac6","system_id":"levelo_inurba_marseille","lat":43.22944,"lon":5.35391,"is_reserved":false,"is_disabled":false,"rental_uris":{"android":"levelo://app?vid=a342afa1-fe1b-4de5-8f98-f3f81167fac6","ios":"levelo://app?vid=a342afa1-fe1b-4de5-8f98-f3f81167fac6"},"vehicle_type_id":"4","last_reported":1742375435,"current_range_meters":8400,"station_id":"cpo3532slgdg3j2ikp40","pricing_plan_id":"cebpf4jnsgd1na2vs0mg"},{"bike_id":"539fc8c4-24e6-4af1-852f-0f9aae2257a1","system_id":"levelo_inurba_marseille","lat":43.23195,"lon":5.35549,"is_reserved":false,"is_disabled":false,"rental_uris":{"android":"levelo://app?vid=539fc8c4-24e6-4af1-852f-0f9aae2257a1","ios":"levelo://app?vid=539fc8c4-24e6-4af1-852f-0f9aae2257a1"},"vehicle_type_id":"4","last_reported":1742375435,"current_range_meters":8400,"station_id":"ce4bhu92rcd13ifvqi70","pricing_plan_id":"cebpf4jnsgd1na2vs0mg"},{"bike_id":"9c8134ef-643b-49fa-9210-7d7e31a881df","system_id":"levelo_inurba_marseille","lat":43.27207,"lon":5.39173,"is_reserved":false,"is_disabled":false,"rental_uris":{"android":"levelo://app?vid=9c8134ef-643b-49fa-9210-7d7e31a881df","ios":"levelo://app?vid=9c8134ef-643b-49fa-9210-7d7e31a881df"},"vehicle_type_id":"4","last_reported":1742375435,"current_range_meters":8400,"station_id":"ce4bhhp2rcd13ifvqfm0","pricing_plan_id":"cebpf4jnsgd1na2vs0mg"},{"bike_id":"5bead0f2-5ada-420f-bea0-acb8d2ad9da4","system_id":"levelo_inurba_marseille","lat":43.23208,"lon":5.40011,"is_reserved":false,"is_disabled":false,"rental_uris":{"android":"levelo://app?vid=5bead0f2-5ada-420f-bea0-acb8d2ad9da4","ios":"levelo://app?vid=5bead0f2-5ada-420f-bea0-acb8d2ad9da4"},"vehicle_type_id":"4","last_reported":1742375435,"current_range_meters":8400,"station_id":"ce4bhn12rcd13ifvqgqg","pricing_plan_id":"cebpf4jnsgd1na2vs0mg"},{"bike_id":"2d85ed1a-82cf-4779-9d1c-d844b7a78b3a","system_id":"levelo_inurba_marseille","lat":43.29694,"lon":5.37299,"is_reserved":false,"is_disabled":false,"rental_uris":{"android":"levelo://app?vid=2d85ed1a-82cf-4779-9d1c-d844b7a78b3a","ios":"levelo://app?vid=2d85ed1a-82cf-4779-9d1c-d844b7a78b3a"},"vehicle_type_id":"4","last_reported":1742375435,"current_range_meters":8400,"station_id":"ce4bgk12rcd13ifvqbj0","pricing_plan_id":"cebpf4jnsgd1na2vs0mg"},{"bike_id":"f1683398-f7db-40b4-a673-b93a02887619","system_id":"levelo_inurba_marseille","lat":43.29255,"lon":5.40914,"is_reserved":false,"is_disabled":false,"rental_uris":{"android":"levelo://app?vid=f1683398-f7db-40b4-a673-b93a02887619","ios":"levelo://app?vid=f1683398-f7db-40b4-a673-b93a02887619"},"vehicle_type_id":"4","last_reported":1742375435,"current_range_meters":8400,"station_id":"ce4bh192rcd13ifvqdc0","pricing_plan_id":"cebpf4jnsgd1na2vs0mg"},{"bike_id":"2e8e2e12-65e7-450a-83a2-d80d023fe506","system_id":"levelo_inurba_marseille","lat":43.31709,"lon":5.40512,"is_reserved":false,"is_disabled":false,"rental_uris":{"android":"levelo://app?vid=2e8e2e12-65e7-450a-83a2-d80d023fe506","ios":"levelo://app?vid=2e8e2e12-65e7-450a-83a2-d80d023fe506"},"vehicle_type_id":"4","last_reported":1742375435,"current_range_meters":8400,"station_id":"ce4bh012rcd13ifvqd00","pricing_plan_id":"cebpf4jnsgd1na2vs0mg"},{"bike_id":"7ba16f5b-fd2b-4da1-835b-3f2aba84d472","system_id":"levelo_inurba_marseille","lat":43.30531,"lon":5.36537,"is_reserved":false,"is_disabled":false,"rental_uris":{"android":"levelo://app?vid=7ba16f5b-fd2b-4da1-835b-3f2aba84d472","ios":"levelo://app?vid=7ba16f5b-fd2b-4da1-835b-3f2aba84d472"},"vehicle_type_id":"4","last_reported":1742375435,"current_range_meters":8400,"station_id":"ce4bgs12rcd13ifvqcag","pricing_plan_id":"cebpf4jnsgd1na2vs0mg"},{"bike_id":"89cb3140-d211-4c4d-97ca-7e01c3c4da90","system_id":"levelo_inurba_marseille","lat":43.23194,"lon":5.35546,"is_reserved":false,"is_disabled":false,"rental_uris":{"android":"levelo://app?vid=89cb3140-d211-4c4d-97ca-7e01c3c4da90","ios":"levelo://app?vid=89cb3140-d211-4c4d-97ca-7e01c3c4da90"},"vehicle_type_id":"4","last_reported":1742375435,"current_range_meters":8400,"station_id":"ce4bhu92rcd13ifvqi70","pricing_plan_id":"cebpf4jnsgd1na2vs0mg"},{"bike_id":"e7727825-1550-4ac5-83b8-e36a5d869f96","system_id":"levelo_inurba_marseille","lat":43.26235,"lon":5.40452,"is_reserved":false,"is_disabled":false,"rental_uris":{"android":"levelo://app?vid=e7727825-1550-4ac5-83b8-e36a5d869f96","ios":"levelo://app?vid=e7727825-1550-4ac5-83b8-e36a5d869f96"},"vehicle_type_id":"4","last_reported":1742375435,"current_range_meters":8400,"station_id":"ce4bhmh2rcd13ifvqgmg","pricing_plan_id":"cebpf4jnsgd1na2vs0mg"},{"bike_id":"3c599588-a574-45e0-9f57-2f9038f7466d","system_id":"levelo_inurba_marseille","lat":43.27493,"lon":5.42465,"is_reserved":false,"is_disabled":false,"rental_uris":{"android":"levelo://app?vid=3c599588-a574-45e0-9f57-2f9038f7466d","ios":"levelo://app?vid=3c599588-a574-45e0-9f57-2f9038f7466d"},"vehicle_type_id":"4","last_reported":1742375435,"current_range_meters":4800,"station_id":"ce4bhn92rcd13ifvqgrg","pricing_plan_id":"cebpf4jnsgd1na2vs0mg"},{"bike_id":"5e244767-2fd5-4cae-9f0c-0a11498d0074","system_id":"levelo_inurba_marseille","lat":43.275,"lon":5.42455,"is_reserved":false,"is_disabled":false,"rental_uris":{"android":"levelo://app?vid=5e244767-2fd5-4cae-9f0c-0a11498d0074","ios":"levelo://app?vid=5e244767-2fd5-4cae-9f0c-0a11498d0074"},"vehicle_type_id":"4","last_reported":1742375435,"current_range_meters":8800,"station_id":"ce4bhn92rcd13ifvqgrg","pricing_plan_id":"cebpf4jnsgd1na2vs0mg"},{"bike_id":"08cff6c0-2f6b-4ca9-a2b0-296772c573fe","system_id":"levelo_inurba_marseille","lat":43.2989,"lon":5.43671,"is_reserved":false,"is_disabled":false,"rental_uris":{"android":"levelo://app?vid=08cff6c0-2f6b-4ca9-a2b0-296772c573fe","ios":"levelo://app?vid=08cff6c0-2f6b-4ca9-a2b0-296772c573fe"},"vehicle_type_id":"4","last_reported":1742375435,"current_range_meters":8800,"station_id":"ce4bhpp2rcd13ifvqhfg","pricing_plan_id":"cebpf4jnsgd1na2vs0mg"},{"bike_id":"a222911a-0745-48f4-8afa-382ae2fd2e00","system_id":"levelo_inurba_marseille","lat":43.30534,"lon":5.36523,"is_reserved":false,"is_disabled":false,"rental_uris":{"android":"levelo://app?vid=a222911a-0745-48f4-8afa-382ae2fd2e00","ios":"levelo://app?vid=a222911a-0745-48f4-8afa-382ae2fd2e00"},"vehicle_type_id":"4","last_reported":1742375435,"current_range_meters":8800,"station_id":"ce4bgs12rcd13ifvqcag","pricing_plan_id":"cebpf4jnsgd1na2vs0mg"},{"bike_id":"1cdd4cb0-5174-47d9-b59c-b9aedd3081d4","system_id":"levelo_inurba_marseille","lat":43.33601,"lon":5.41041,"is_reserved":false,"is_disabled":false,"rental_uris":{"android":"levelo://app?vid=1cdd4cb0-5174-47d9-b59c-b9aedd3081d4","ios":"levelo://app?vid=1cdd4cb0-5174-47d9-b59c-b9aedd3081d4"},"vehicle_type_id":"4","last_reported":1742375435,"current_range_meters":8800,"station_id":"ce4bhqh2rcd13ifvqhmg","pricing_plan_id":"cebpf4jnsgd1na2vs0mg"},{"bike_id":"e94b1f20-3e0e-4dcb-9056-1e4af333e85a","system_id":"levelo_inurba_marseille","lat":43.28922,"lon":5.3972,"is_reserved":false,"is_disabled":false,"rental_uris":{"android":"levelo://app?vid=e94b1f20-3e0e-4dcb-9056-1e4af333e85a","ios":"levelo://app?vid=e94b1f20-3e0e-4dcb-9056-1e4af333e85a"},"vehicle_type_id":"4","last_reported":1742375435,"current_range_meters":8800,"station_id":"","pricing_plan_id":"cebpf4jnsgd1na2vs0mg"},{"bike_id":"6b162ed9-3599-4156-a34b-2df90433ae5c","system_id":"levelo_inurba_marseille","lat":43.24192,"lon":5.39738,"is_reserved":false,"is_disabled":false,"rental_uris":{"android":"levelo://app?vid=6b162ed9-3599-4156-a34b-2df90433ae5c","ios":"levelo://app?vid=6b162ed9-3599-4156-a34b-2df90433ae5c"},"vehicle_type_id":"4","last_reported":1742375435,"current_range_meters":8800,"station_id":"ce4bhn12rcd13ifvqgpg","pricing_plan_id":"cebpf4jnsgd1na2vs0mg"},{"bike_id":"4ccc3f56-6ae5-4d6a-9eb1-b86c5e38aaee","system_id":"levelo_inurba_marseille","lat":43.27809,"lon":5.40717,"is_reserved":false,"is_disabled":false,"rental_uris":{"android":"levelo://app?vid=4ccc3f56-6ae5-4d6a-9eb1-b86c5e38aaee","ios":"levelo://app?vid=4ccc3f56-6ae5-4d6a-9eb1-b86c5e38aaee"},"vehicle_type_id":"4","last_reported":1742375435,"current_range_meters":8800,"station_id":"ce4bhnh2rcd13ifvqgtg","pricing_plan_id":"cebpf4jnsgd1na2vs0mg"},{"bike_id":"1ff4b712-0199-4a94-832d-5142c1180356","system_id":"levelo_inurba_marseille","lat":43.31333,"lon":5.36729,"is_reserved":false,"is_disabled":false,"rental_uris":{"android":"levelo://app?vid=1ff4b712-0199-4a94-832d-5142c1180356","ios":"levelo://app?vid=1ff4b712-0199-4a94-832d-5142c1180356"},"vehicle_type_id":"4","last_reported":1742375435,"current_range_meters":9200,"station_id":"ce4bgr92rcd13ifvqc6g","pricing_plan_id":"cebpf4jnsgd1na2vs0mg"},{"bike_id":"613d47dd-19fe-4699-9531-1fd6c3a43c75","system_id":"levelo_inurba_marseille","lat":43.23968,"lon":5.3662,"is_reserved":false,"is_disabled":false,"rental_uris":{"android":"levelo://app?vid=613d47dd-19fe-4699-9531-1fd6c3a43c75","ios":"levelo://app?vid=613d47dd-19fe-4699-9531-1fd6c3a43c75"},"vehicle_type_id":"4","last_reported":1742375435,"current_range_meters":8800,"station_id":"ce4bhi12rcd13ifvqfp0","pricing_plan_id":"cebpf4jnsgd1na2vs0mg"},{"bike_id":"10eed6fd-0341-4510-a4a6-4c8769f4a4be","system_id":"levelo_inurba_marseille","lat":43.26687,"lon":5.38279,"is_reserved":false,"is_disabled":false,"rental_uris":{"android":"levelo://app?vid=10eed6fd-0341-4510-a4a6-4c8769f4a4be","ios":"levelo://app?vid=10eed6fd-0341-4510-a4a6-4c8769f4a4be"},"vehicle_type_id":"4","last_reported":1742375435,"current_range_meters":9200,"station_id":"ce4bhg92rcd13ifvqf90","pricing_plan_id":"cebpf4jnsgd1na2vs0mg"},{"bike_id":"a5f9c024-d079-4e35-ac58-b94ad5b4cf40","system_id":"levelo_inurba_marseille","lat":43.33601,"lon":5.41043,"is_reserved":false,"is_disabled":false,"rental_uris":{"android":"levelo://app?vid=a5f9c024-d079-4e35-ac58-b94ad5b4cf40","ios":"levelo://app?vid=a5f9c024-d079-4e35-ac58-b94ad5b4cf40"},"vehicle_type_id":"4","last_reported":1742375435,"current_range_meters":9200,"station_id":"ce4bhqh2rcd13ifvqhmg","pricing_plan_id":"cebpf4jnsgd1na2vs0mg"},{"bike_id":"4da10fc9-ca04-4201-a952-ed5f93ce34d2","system_id":"levelo_inurba_marseille","lat":43.28355,"lon":5.38102,"is_reserved":false,"is_disabled":false,"rental_uris":{"android":"levelo://app?vid=4da10fc9-ca04-4201-a952-ed5f93ce34d2","ios":"levelo://app?vid=4da10fc9-ca04-4201-a952-ed5f93ce34d2"},"vehicle_type_id":"4","last_reported":1742375435,"current_range_meters":9200,"station_id":"ce4bh412rcd13ifvqdr0","pricing_plan_id":"cebpf4jnsgd1na2vs0mg"},{"bike_id":"940e816e-4f07-47f8-8676-f1878d791ee8","system_id":"levelo_inurba_marseille","lat":43.25507,"lon":5.37651,"is_reserved":false,"is_disabled":false,"rental_uris":{"android":"levelo://app?vid=940e816e-4f07-47f8-8676-f1878d791ee8","ios":"levelo://app?vid=940e816e-4f07-47f8-8676-f1878d791ee8"},"vehicle_type_id":"4","last_reported":1742375435,"current_range_meters":9200,"station_id":"ce4bhh12rcd13ifvqff0","pricing_plan_id":"cebpf4jnsgd1na2vs0mg"},{"bike_id":"2312adcb-aec8-4176-9b08-9c8733b32e1a","system_id":"levelo_inurba_marseille","lat":43.31235,"lon":5.36851,"is_reserved":false,"is_disabled":false,"rental_uris":{"android":"levelo://app?vid=2312adcb-aec8-4176-9b08-9c8733b32e1a","ios":"levelo://app?vid=2312adcb-aec8-4176-9b08-9c8733b32e1a"},"vehicle_type_id":"4","last_reported":1742375435,"current_range_meters":9200,"station_id":"ce4bgl92rcd13ifvqbq0","pricing_plan_id":"cebpf4jnsgd1na2vs0mg"},{"bike_id":"ec31732b-9dfc-48ca-aeba-f8aba544d1d4","system_id":"levelo_inurba_marseille","lat":43.25948,"lon":5.40853,"is_reserved":false,"is_disabled":false,"rental_uris":{"android":"levelo://app?vid=ec31732b-9dfc-48ca-aeba-f8aba544d1d4","ios":"levelo://app?vid=ec31732b-9dfc-48ca-aeba-f8aba544d1d4"},"vehicle_type_id":"4","last_reported":1742375435,"current_range_meters":9200,"station_id":"ce4bhm92rcd13ifvqglg","pricing_plan_id":"cebpf4jnsgd1na2vs0mg"},{"bike_id":"61e9fd90-e9dd-462d-a9bd-1aa2307b7287","system_id":"levelo_inurba_marseille","lat":43.23148,"lon":5.43706,"is_reserved":false,"is_disabled":false,"rental_uris":{"android":"levelo://app?vid=61e9fd90-e9dd-462d-a9bd-1aa2307b7287","ios":"levelo://app?vid=61e9fd90-e9dd-462d-a9bd-1aa2307b7287"},"vehicle_type_id":"4","last_reported":1742375435,"current_range_meters":9200,"station_id":"ce4bhmp2rcd13ifvqgog","pricing_plan_id":"cebpf4jnsgd1na2vs0mg"},{"bike_id":"825ba034-bb76-4c23-8a05-790205db08cb","system_id":"levelo_inurba_marseille","lat":43.28671,"lon":5.38682,"is_reserved":false,"is_disabled":false,"rental_uris":{"android":"levelo://app?vid=825ba034-bb76-4c23-8a05-790205db08cb","ios":"levelo://app?vid=825ba034-bb76-4c23-8a05-790205db08cb"},"vehicle_type_id":"4","last_reported":1742375435,"current_range_meters":9200,"station_id":"ce4bh492rcd13ifvqdug","pricing_plan_id":"cebpf4jnsgd1na2vs0mg"},{"bike_id":"ca68af57-a275-4814-a127-9237c059e912","system_id":"levelo_inurba_marseille","lat":43.267725,"lon":5.394161,"is_reserved":false,"is_disabled":false,"rental_uris":{"android":"levelo://app?vid=ca68af57-a275-4814-a127-9237c059e912","ios":"levelo://app?vid=ca68af57-a275-4814-a127-9237c059e912"},"vehicle_type_id":"4","last_reported":1742375435,"current_range_meters":9600,"station_id":"ce4bhh12rcd13ifvqfg0","pricing_plan_id":"cebpf4jnsgd1na2vs0mg"},{"bike_id":"8f2ce796-5b11-42cc-a98e-cdef8ad67592","system_id":"levelo_inurba_marseille","lat":43.30311,"lon":5.369,"is_reserved":false,"is_disabled":false,"rental_uris":{"android":"levelo://app?vid=8f2ce796-5b11-42cc-a98e-cdef8ad67592","ios":"levelo://app?vid=8f2ce796-5b11-42cc-a98e-cdef8ad67592"},"vehicle_type_id":"4","last_reported":1742375435,"current_range_meters":9600,"station_id":"ce4bgqh2rcd13ifvqc5g","pricing_plan_id":"cebpf4jnsgd1na2vs0mg"},{"bike_id":"b132483d-1d99-4f2a-9ca2-8544144e934f","system_id":"levelo_inurba_marseille","lat":43.32363,"lon":5.389,"is_reserved":false,"is_disabled":false,"rental_uris":{"android":"levelo://app?vid=b132483d-1d99-4f2a-9ca2-8544144e934f","ios":"levelo://app?vid=b132483d-1d99-4f2a-9ca2-8544144e934f"},"vehicle_type_id":"4","last_reported":1742375435,"current_range_meters":9600,"station_id":"ce4bhqp2rcd13ifvqhog","pricing_plan_id":"cebpf4jnsgd1na2vs0mg"},{"bike_id":"b98eff8b-8bbd-44cf-94d7-71a6341eecc2","system_id":"levelo_inurba_marseille","lat":43.2318,"lon":5.40003,"is_reserved":false,"is_disabled":false,"rental_uris":{"android":"levelo://app?vid=b98eff8b-8bbd-44cf-94d7-71a6341eecc2","ios":"levelo://app?vid=b98eff8b-8bbd-44cf-94d7-71a6341eecc2"},"vehicle_type_id":"4","last_reported":1742375435,"current_range_meters":9600,"station_id":"ce4bhn12rcd13ifvqgqg","pricing_plan_id":"cebpf4jnsgd1na2vs0mg"},{"bike_id":"46bb371c-22fb-4f4b-b4cd-6276a971bef1","system_id":"levelo_inurba_marseille","lat":43.2408,"lon":5.37757,"is_reserved":false,"is_disabled":false,"rental_uris":{"android":"levelo://app?vid=46bb371c-22fb-4f4b-b4cd-6276a971bef1","ios":"levelo://app?vid=46bb371c-22fb-4f4b-b4cd-6276a971bef1"},"vehicle_type_id":"4","last_reported":1742375435,"current_range_meters":9600,"station_id":"ce4bhnp2rcd13ifvqgvg","pricing_plan_id":"cebpf4jnsgd1na2vs0mg"},{"bike_id":"e3a6c54f-9dca-46eb-8295-c6e43c19d01a","system_id":"levelo_inurba_marseille","lat":43.306016,"lon":5.393548,"is_reserved":false,"is_disabled":false,"rental_uris":{"android":"levelo://app?vid=e3a6c54f-9dca-46eb-8295-c6e43c19d01a","ios":"levelo://app?vid=e3a6c54f-9dca-46eb-8295-c6e43c19d01a"},"vehicle_type_id":"4","last_reported":1742375435,"current_range_meters":9600,"station_id":"ce4bh0p2rcd13ifvqd80","pricing_plan_id":"cebpf4jnsgd1na2vs0mg"},{"bike_id":"73775d85-d06e-4705-b3d6-611dd3926542","system_id":"levelo_inurba_marseille","lat":43.25925,"lon":5.40904,"is_reserved":false,"is_disabled":false,"rental_uris":{"android":"levelo://app?vid=73775d85-d06e-4705-b3d6-611dd3926542","ios":"levelo://app?vid=73775d85-d06e-4705-b3d6-611dd3926542"},"vehicle_type_id":"4","last_reported":1742375435,"current_range_meters":9600,"station_id":"ce4bhm92rcd13ifvqglg","pricing_plan_id":"cebpf4jnsgd1na2vs0mg"},{"bike_id":"f142dc05-f5d3-4cbc-afe5-c54cd3d760d6","system_id":"levelo_inurba_marseille","lat":43.28082,"lon":5.39651,"is_reserved":false,"is_disabled":false,"rental_uris":{"android":"levelo://app?vid=f142dc05-f5d3-4cbc-afe5-c54cd3d760d6","ios":"levelo://app?vid=f142dc05-f5d3-4cbc-afe5-c54cd3d760d6"},"vehicle_type_id":"4","last_reported":1742375435,"current_range_meters":9600,"station_id":"ce4bho12rcd13ifvqh2g","pricing_plan_id":"cebpf4jnsgd1na2vs0mg"},{"bike_id":"26c2631b-46f6-409c-a580-55e899da84dc","system_id":"levelo_inurba_marseille","lat":43.29266,"lon":5.40912,"is_reserved":false,"is_disabled":false,"rental_uris":{"android":"levelo://app?vid=26c2631b-46f6-409c-a580-55e899da84dc","ios":"levelo://app?vid=26c2631b-46f6-409c-a580-55e899da84dc"},"vehicle_type_id":"4","last_reported":1742375435,"current_range_meters":9200,"station_id":"ce4bh192rcd13ifvqdc0","pricing_plan_id":"cebpf4jnsgd1na2vs0mg"},{"bike_id":"cabc56a7-dd90-4978-a4aa-b0149cec9ec6","system_id":"levelo_inurba_marseille","lat":43.25499,"lon":5.37657,"is_reserved":false,"is_disabled":false,"rental_uris":{"android":"levelo://app?vid=cabc56a7-dd90-4978-a4aa-b0149cec9ec6","ios":"levelo://app?vid=cabc56a7-dd90-4978-a4aa-b0149cec9ec6"},"vehicle_type_id":"4","last_reported":1742375435,"current_range_meters":9600,"station_id":"ce4bhh12rcd13ifvqff0","pricing_plan_id":"cebpf4jnsgd1na2vs0mg"},{"bike_id":"62f7539b-b047-479e-84e9-11e5c010431d","system_id":"levelo_inurba_marseille","lat":43.30023,"lon":5.40003,"is_reserved":false,"is_disabled":false,"rental_uris":{"android":"levelo://app?vid=62f7539b-b047-479e-84e9-11e5c010431d","ios":"levelo://app?vid=62f7539b-b047-479e-84e9-11e5c010431d"},"vehicle_type_id":"4","last_reported":1742375435,"current_range_meters":9600,"station_id":"","pricing_plan_id":"cebpf4jnsgd1na2vs0mg"},{"bike_id":"15eed323-29bd-4edf-88a5-76c6dbbfb920","system_id":"levelo_inurba_marseille","lat":43.29849,"lon":5.36275,"is_reserved":false,"is_disabled":false,"rental_uris":{"android":"levelo://app?vid=15eed323-29bd-4edf-88a5-76c6dbbfb920","ios":"levelo://app?vid=15eed323-29bd-4edf-88a5-76c6dbbfb920"},"vehicle_type_id":"4","last_reported":1742375435,"current_range_meters":9600,"station_id":"ce4bgpp2rcd13ifvqc3g","pricing_plan_id":"cebpf4jnsgd1na2vs0mg"},{"bike_id":"45233882-6a89-4b02-addd-28d39958200a","system_id":"levelo_inurba_marseille","lat":43.32357,"lon":5.3676,"is_reserved":false,"is_disabled":false,"rental_uris":{"android":"levelo://app?vid=45233882-6a89-4b02-addd-28d39958200a","ios":"levelo://app?vid=45233882-6a89-4b02-addd-28d39958200a"},"vehicle_type_id":"4","last_reported":1742375435,"current_range_meters":10000,"station_id":"ce4bhsh2rcd13ifvqi2g","pricing_plan_id":"cebpf4jnsgd1na2vs0mg"},{"bike_id":"eb1b87c2-8633-452c-92ee-d083f5f14a15","system_id":"levelo_inurba_marseille","lat":43.30212,"lon":5.36621,"is_reserved":false,"is_disabled":false,"rental_uris":{"android":"levelo://app?vid=eb1b87c2-8633-452c-92ee-d083f5f14a15","ios":"levelo://app?vid=eb1b87c2-8633-452c-92ee-d083f5f14a15"},"vehicle_type_id":"4","last_reported":1742375435,"current_range_meters":10000,"station_id":"ce4bgrh2rcd13ifvqc8g","pricing_plan_id":"cebpf4jnsgd1na2vs0mg"},{"bike_id":"33eb9847-6092-46be-8588-371554193324","system_id":"levelo_inurba_marseille","lat":43.30203,"lon":5.36625,"is_reserved":false,"is_disabled":false,"rental_uris":{"android":"levelo://app?vid=33eb9847-6092-46be-8588-371554193324","ios":"levelo://app?vid=33eb9847-6092-46be-8588-371554193324"},"vehicle_type_id":"4","last_reported":1742375435,"current_range_meters":10000,"station_id":"ce4bgrh2rcd13ifvqc8g","pricing_plan_id":"cebpf4jnsgd1na2vs0mg"},{"bike_id":"fa76ef1f-d2d3-412c-aeec-8fa47b54f6a2","system_id":"levelo_inurba_marseille","lat":43.32486,"lon":5.36567,"is_reserved":false,"is_disabled":false,"rental_uris":{"android":"levelo://app?vid=fa76ef1f-d2d3-412c-aeec-8fa47b54f6a2","ios":"levelo://app?vid=fa76ef1f-d2d3-412c-aeec-8fa47b54f6a2"},"vehicle_type_id":"4","last_reported":1742375435,"current_range_meters":10000,"station_id":"ce4bhs12rcd13ifvqhvg","pricing_plan_id":"cebpf4jnsgd1na2vs0mg"},{"bike_id":"7f61d7be-d227-44df-9b33-b8f4965e514f","system_id":"levelo_inurba_marseille","lat":43.23212,"lon":5.35566,"is_reserved":false,"is_disabled":false,"rental_uris":{"android":"levelo://app?vid=7f61d7be-d227-44df-9b33-b8f4965e514f","ios":"levelo://app?vid=7f61d7be-d227-44df-9b33-b8f4965e514f"},"vehicle_type_id":"4","last_reported":1742375435,"current_range_meters":10000,"station_id":"ce4bhu92rcd13ifvqi70","pricing_plan_id":"cebpf4jnsgd1na2vs0mg"},{"bike_id":"ff96d0c6-c885-4b3a-b500-8810ee379eb8","system_id":"levelo_inurba_marseille","lat":43.27935,"lon":5.41041,"is_reserved":false,"is_disabled":false,"rental_uris":{"android":"levelo://app?vid=ff96d0c6-c885-4b3a-b500-8810ee379eb8","ios":"levelo://app?vid=ff96d0c6-c885-4b3a-b500-8810ee379eb8"},"vehicle_type_id":"4","last_reported":1742375435,"current_range_meters":10000,"station_id":"ce4bhnp2rcd13ifvqh0g","pricing_plan_id":"cebpf4jnsgd1na2vs0mg"},{"bike_id":"8abf66b0-4c7b-4a5b-9216-254c311cdf06","system_id":"levelo_inurba_marseille","lat":43.255791,"lon":5.382373,"is_reserved":false,"is_disabled":false,"rental_uris":{"android":"levelo://app?vid=8abf66b0-4c7b-4a5b-9216-254c311cdf06","ios":"levelo://app?vid=8abf66b0-4c7b-4a5b-9216-254c311cdf06"},"vehicle_type_id":"4","last_reported":1742375435,"current_range_meters":10000,"station_id":"ce4bhih2rcd13ifvqfs0","pricing_plan_id":"cebpf4jnsgd1na2vs0mg"},{"bike_id":"cb378fb9-ff22-4baa-aa20-925f7511d155","system_id":"levelo_inurba_marseille","lat":43.29382,"lon":5.37845,"is_reserved":false,"is_disabled":false,"rental_uris":{"android":"levelo://app?vid=cb378fb9-ff22-4baa-aa20-925f7511d155","ios":"levelo://app?vid=cb378fb9-ff22-4baa-aa20-925f7511d155"},"vehicle_type_id":"4","last_reported":1742375435,"current_range_meters":10000,"station_id":"ce4bgjh2rcd13ifvqbf0","pricing_plan_id":"cebpf4jnsgd1na2vs0mg"},{"bike_id":"bd68f678-16cb-4c38-81de-5da19b0ce0d5","system_id":"levelo_inurba_marseille","lat":43.24089,"lon":5.37742,"is_reserved":false,"is_disabled":false,"rental_uris":{"android":"levelo://app?vid=bd68f678-16cb-4c38-81de-5da19b0ce0d5","ios":"levelo://app?vid=bd68f678-16cb-4c38-81de-5da19b0ce0d5"},"vehicle_type_id":"4","last_reported":1742375435,"current_range_meters":10000,"station_id":"ce4bhnp2rcd13ifvqgvg","pricing_plan_id":"cebpf4jnsgd1na2vs0mg"},{"bike_id":"af56a6eb-2509-45be-8321-3ce687f2364e","system_id":"levelo_inurba_marseille","lat":43.295669,"lon":5.375274,"is_reserved":false,"is_disabled":false,"rental_uris":{"android":"levelo://app?vid=af56a6eb-2509-45be-8321-3ce687f2364e","ios":"levelo://app?vid=af56a6eb-2509-45be-8321-3ce687f2364e"},"vehicle_type_id":"4","last_reported":1742375435,"current_range_meters":10000,"station_id":"ce4bgrp2rcd13ifvqc9g","pricing_plan_id":"cebpf4jnsgd1na2vs0mg"},{"bike_id":"7432cdd4-eb2d-4866-b811-56e04f790394","system_id":"levelo_inurba_marseille","lat":43.28478,"lon":5.38429,"is_reserved":false,"is_disabled":false,"rental_uris":{"android":"levelo://app?vid=7432cdd4-eb2d-4866-b811-56e04f790394","ios":"levelo://app?vid=7432cdd4-eb2d-4866-b811-56e04f790394"},"vehicle_type_id":"4","last_reported":1742375435,"current_range_meters":6400,"station_id":"ce4bh512rcd13ifvqe3g","pricing_plan_id":"cebpf4jnsgd1na2vs0mg"},{"bike_id":"bee239d2-2a40-41dd-8204-6e42885fdc2f","system_id":"levelo_inurba_marseille","lat":43.30147,"lon":5.37423,"is_reserved":false,"is_disabled":false,"rental_uris":{"android":"levelo://app?vid=bee239d2-2a40-41dd-8204-6e42885fdc2f","ios":"levelo://app?vid=bee239d2-2a40-41dd-8204-6e42885fdc2f"},"vehicle_type_id":"4","last_reported":1742375435,"current_range_meters":10000,"station_id":"ce4bgs92rcd13ifvqcc0","pricing_plan_id":"cebpf4jnsgd1na2vs0mg"},{"bike_id":"2eb1ce68-de4c-484d-bc50-9b4d630f9f02","system_id":"levelo_inurba_marseille","lat":43.27499,"lon":5.42442,"is_reserved":false,"is_disabled":false,"rental_uris":{"android":"levelo://app?vid=2eb1ce68-de4c-484d-bc50-9b4d630f9f02","ios":"levelo://app?vid=2eb1ce68-de4c-484d-bc50-9b4d630f9f02"},"vehicle_type_id":"4","last_reported":1742375435,"current_range_meters":10000,"station_id":"ce4bhn92rcd13ifvqgrg","pricing_plan_id":"cebpf4jnsgd1na2vs0mg"},{"bike_id":"c2f4da44-a44d-44d2-8be6-51648ee37d7f","system_id":"levelo_inurba_marseille","lat":43.25009,"lon":5.38933,"is_reserved":false,"is_disabled":false,"rental_uris":{"android":"levelo://app?vid=c2f4da44-a44d-44d2-8be6-51648ee37d7f","ios":"levelo://app?vid=c2f4da44-a44d-44d2-8be6-51648ee37d7f"},"vehicle_type_id":"4","last_reported":1742375435,"current_range_meters":10000,"station_id":"ce4bhgp2rcd13ifvqfd0","pricing_plan_id":"cebpf4jnsgd1na2vs0mg"},{"bike_id":"b6516885-6b2a-4c3b-b46a-6df7fec02364","system_id":"levelo_inurba_marseille","lat":43.25929,"lon":5.40903,"is_reserved":false,"is_disabled":false,"rental_uris":{"android":"levelo://app?vid=b6516885-6b2a-4c3b-b46a-6df7fec02364","ios":"levelo://app?vid=b6516885-6b2a-4c3b-b46a-6df7fec02364"},"vehicle_type_id":"4","last_reported":1742375435,"current_range_meters":10000,"station_id":"ce4bhm92rcd13ifvqglg","pricing_plan_id":"cebpf4jnsgd1na2vs0mg"},{"bike_id":"fcd1958e-194b-45c5-9bd4-7b615fed313f","system_id":"levelo_inurba_marseille","lat":43.255778,"lon":5.382314,"is_reserved":false,"is_disabled":false,"rental_uris":{"android":"levelo://app?vid=fcd1958e-194b-45c5-9bd4-7b615fed313f","ios":"levelo://app?vid=fcd1958e-194b-45c5-9bd4-7b615fed313f"},"vehicle_type_id":"4","last_reported":1742375435,"current_range_meters":10000,"station_id":"ce4bhih2rcd13ifvqfs0","pricing_plan_id":"cebpf4jnsgd1na2vs0mg"},{"bike_id":"f6f5223a-c3ba-42da-bb16-ad8f9ac92f19","system_id":"levelo_inurba_marseille","lat":43.30959,"lon":5.39038,"is_reserved":false,"is_disabled":false,"rental_uris":{"android":"levelo://app?vid=f6f5223a-c3ba-42da-bb16-ad8f9ac92f19","ios":"levelo://app?vid=f6f5223a-c3ba-42da-bb16-ad8f9ac92f19"},"vehicle_type_id":"4","last_reported":1742375435,"current_range_meters":10000,"station_id":"ce4bgup2rcd13ifvqco0","pricing_plan_id":"cebpf4jnsgd1na2vs0mg"},{"bike_id":"6d5a3034-93bc-491b-81de-69c0058f484e","system_id":"levelo_inurba_marseille","lat":43.30805,"lon":5.43556,"is_reserved":false,"is_disabled":true,"rental_uris":{"android":"levelo://app?vid=6d5a3034-93bc-491b-81de-69c0058f484e","ios":"levelo://app?vid=6d5a3034-93bc-491b-81de-69c0058f484e"},"vehicle_type_id":"4","last_reported":1742375435,"current_range_meters":10000,"station_id":"ce4bhph2rcd13ifvqheg","pricing_plan_id":"cebpf4jnsgd1na2vs0mg"},{"bike_id":"bb78a1d1-78ba-4f37-81f4-87b10a1775a5","system_id":"levelo_inurba_marseille","lat":43.32186,"lon":5.36769,"is_reserved":false,"is_disabled":false,"rental_uris":{"android":"levelo://app?vid=bb78a1d1-78ba-4f37-81f4-87b10a1775a5","ios":"levelo://app?vid=bb78a1d1-78ba-4f37-81f4-87b10a1775a5"},"vehicle_type_id":"4","last_reported":1742375435,"current_range_meters":10800,"station_id":"","pricing_plan_id":"cebpf4jnsgd1na2vs0mg"},{"bike_id":"44a4af3e-84f5-4f54-943d-83cf9fa4d793","system_id":"levelo_inurba_marseille","lat":43.27814,"lon":5.40716,"is_reserved":false,"is_disabled":false,"rental_uris":{"android":"levelo://app?vid=44a4af3e-84f5-4f54-943d-83cf9fa4d793","ios":"levelo://app?vid=44a4af3e-84f5-4f54-943d-83cf9fa4d793"},"vehicle_type_id":"4","last_reported":1742375435,"current_range_meters":10800,"station_id":"ce4bhnh2rcd13ifvqgtg","pricing_plan_id":"cebpf4jnsgd1na2vs0mg"},{"bike_id":"78c7f344-224f-4ee1-abbd-94f4d94ef023","system_id":"levelo_inurba_marseille","lat":43.2396,"lon":5.36627,"is_reserved":false,"is_disabled":true,"rental_uris":{"android":"levelo://app?vid=78c7f344-224f-4ee1-abbd-94f4d94ef023","ios":"levelo://app?vid=78c7f344-224f-4ee1-abbd-94f4d94ef023"},"vehicle_type_id":"4","last_reported":1742375435,"current_range_meters":10800,"station_id":"ce4bhi12rcd13ifvqfp0","pricing_plan_id":"cebpf4jnsgd1na2vs0mg"},{"bike_id":"08d56bcc-bbf2-4353-b0cf-3696938f842a","system_id":"levelo_inurba_marseille","lat":43.292354,"lon":5.361405,"is_reserved":false,"is_disabled":false,"rental_uris":{"android":"levelo://app?vid=08d56bcc-bbf2-4353-b0cf-3696938f842a","ios":"levelo://app?vid=08d56bcc-bbf2-4353-b0cf-3696938f842a"},"vehicle_type_id":"4","last_reported":1742375435,"current_range_meters":10800,"station_id":"ce4bhbh2rcd13ifvqeqg","pricing_plan_id":"cebpf4jnsgd1na2vs0mg"},{"bike_id":"f8fe5832-a089-4581-898a-e8c164fc5d3e","system_id":"levelo_inurba_marseille","lat":43.30457,"lon":5.3791,"is_reserved":false,"is_disabled":false,"rental_uris":{"android":"levelo://app?vid=f8fe5832-a089-4581-898a-e8c164fc5d3e","ios":"levelo://app?vid=f8fe5832-a089-4581-898a-e8c164fc5d3e"},"vehicle_type_id":"4","last_reported":1742375435,"current_range_meters":10800,"station_id":"ce4bgup2rcd13ifvqcn0","pricing_plan_id":"cebpf4jnsgd1na2vs0mg"},{"bike_id":"f4165607-80d2-4e6e-8b9c-c523c42872fb","system_id":"levelo_inurba_marseille","lat":43.24814,"lon":5.37474,"is_reserved":false,"is_disabled":false,"rental_uris":{"android":"levelo://app?vid=f4165607-80d2-4e6e-8b9c-c523c42872fb","ios":"levelo://app?vid=f4165607-80d2-4e6e-8b9c-c523c42872fb"},"vehicle_type_id":"4","last_reported":1742375435,"current_range_meters":11200,"station_id":"ce4bhgh2rcd13ifvqfb0","pricing_plan_id":"cebpf4jnsgd1na2vs0mg"},{"bike_id":"927ccfa8-7feb-41ec-9901-39dd721ef6c8","system_id":"levelo_inurba_marseille","lat":43.27819,"lon":5.40753,"is_reserved":false,"is_disabled":false,"rental_uris":{"android":"levelo://app?vid=927ccfa8-7feb-41ec-9901-39dd721ef6c8","ios":"levelo://app?vid=927ccfa8-7feb-41ec-9901-39dd721ef6c8"},"vehicle_type_id":"4","last_reported":1742375435,"current_range_meters":11200,"station_id":"ce4bhnh2rcd13ifvqgtg","pricing_plan_id":"cebpf4jnsgd1na2vs0mg"},{"bike_id":"3455258b-4135-46b9-9a26-10bf95160e40","system_id":"levelo_inurba_marseille","lat":43.23191,"lon":5.35559,"is_reserved":false,"is_disabled":false,"rental_uris":{"android":"levelo://app?vid=3455258b-4135-46b9-9a26-10bf95160e40","ios":"levelo://app?vid=3455258b-4135-46b9-9a26-10bf95160e40"},"vehicle_type_id":"4","last_reported":1742375435,"current_range_meters":10800,"station_id":"ce4bhu92rcd13ifvqi70","pricing_plan_id":"cebpf4jnsgd1na2vs0mg"},{"bike_id":"b3ab2806-f410-4cce-8b04-fb1a4b877921","system_id":"levelo_inurba_marseille","lat":43.2417,"lon":5.39734,"is_reserved":false,"is_disabled":false,"rental_uris":{"android":"levelo://app?vid=b3ab2806-f410-4cce-8b04-fb1a4b877921","ios":"levelo://app?vid=b3ab2806-f410-4cce-8b04-fb1a4b877921"},"vehicle_type_id":"4","last_reported":1742375435,"current_range_meters":10800,"station_id":"ce4bhn12rcd13ifvqgpg","pricing_plan_id":"cebpf4jnsgd1na2vs0mg"},{"bike_id":"e4e9c206-4fbc-4baa-9db1-0f85766d4ac0","system_id":"levelo_inurba_marseille","lat":43.29721,"lon":5.37698,"is_reserved":false,"is_disabled":false,"rental_uris":{"android":"levelo://app?vid=e4e9c206-4fbc-4baa-9db1-0f85766d4ac0","ios":"levelo://app?vid=e4e9c206-4fbc-4baa-9db1-0f85766d4ac0"},"vehicle_type_id":"4","last_reported":1742375435,"current_range_meters":10800,"station_id":"ce4bgkh2rcd13ifvqbl0","pricing_plan_id":"cebpf4jnsgd1na2vs0mg"},{"bike_id":"b88fcb70-1aac-4a9f-957b-6b2f31e07965","system_id":"levelo_inurba_marseille","lat":43.24086,"lon":5.37756,"is_reserved":false,"is_disabled":false,"rental_uris":{"android":"levelo://app?vid=b88fcb70-1aac-4a9f-957b-6b2f31e07965","ios":"levelo://app?vid=b88fcb70-1aac-4a9f-957b-6b2f31e07965"},"vehicle_type_id":"4","last_reported":1742375435,"current_range_meters":10800,"station_id":"ce4bhnp2rcd13ifvqgvg","pricing_plan_id":"cebpf4jnsgd1na2vs0mg"},{"bike_id":"40519983-510e-4b9a-9562-e0995123f6e0","system_id":"levelo_inurba_marseille","lat":43.23208,"lon":5.35558,"is_reserved":false,"is_disabled":false,"rental_uris":{"android":"levelo://app?vid=40519983-510e-4b9a-9562-e0995123f6e0","ios":"levelo://app?vid=40519983-510e-4b9a-9562-e0995123f6e0"},"vehicle_type_id":"4","last_reported":1742375435,"current_range_meters":10800,"station_id":"ce4bhu92rcd13ifvqi70","pricing_plan_id":"cebpf4jnsgd1na2vs0mg"},{"bike_id":"85d1efe4-a581-4717-b738-a759fefc8017","system_id":"levelo_inurba_marseille","lat":43.30438,"lon":5.38893,"is_reserved":false,"is_disabled":false,"rental_uris":{"android":"levelo://app?vid=85d1efe4-a581-4717-b738-a759fefc8017","ios":"levelo://app?vid=85d1efe4-a581-4717-b738-a759fefc8017"},"vehicle_type_id":"4","last_reported":1742375435,"current_range_meters":10000,"station_id":"ce4bgk12rcd13ifvqbi0","pricing_plan_id":"cebpf4jnsgd1na2vs0mg"},{"bike_id":"06a6152a-e477-491f-83ed-9b68fd573e32","system_id":"levelo_inurba_marseille","lat":43.2583,"lon":5.39416,"is_reserved":false,"is_disabled":false,"rental_uris":{"android":"levelo://app?vid=06a6152a-e477-491f-83ed-9b68fd573e32","ios":"levelo://app?vid=06a6152a-e477-491f-83ed-9b68fd573e32"},"vehicle_type_id":"4","last_reported":1742375435,"current_range_meters":10800,"station_id":"ce4bhip2rcd13ifvqft0","pricing_plan_id":"cebpf4jnsgd1na2vs0mg"},{"bike_id":"609e8c00-5703-40c6-8316-6658d181edc1","system_id":"levelo_inurba_marseille","lat":43.30285,"lon":5.37694,"is_reserved":false,"is_disabled":false,"rental_uris":{"android":"levelo://app?vid=609e8c00-5703-40c6-8316-6658d181edc1","ios":"levelo://app?vid=609e8c00-5703-40c6-8316-6658d181edc1"},"vehicle_type_id":"4","last_reported":1742375435,"current_range_meters":10800,"station_id":"ce4bguh2rcd13ifvqcj0","pricing_plan_id":"cebpf4jnsgd1na2vs0mg"},{"bike_id":"243c69e7-5962-48a4-a307-3cb9ae3b3519","system_id":"levelo_inurba_marseille","lat":43.33022,"lon":5.39039,"is_reserved":false,"is_disabled":false,"rental_uris":{"android":"levelo://app?vid=243c69e7-5962-48a4-a307-3cb9ae3b3519","ios":"levelo://app?vid=243c69e7-5962-48a4-a307-3cb9ae3b3519"},"vehicle_type_id":"4","last_reported":1742375435,"current_range_meters":11200,"station_id":"ce4bhr92rcd13ifvqhrg","pricing_plan_id":"cebpf4jnsgd1na2vs0mg"},{"bike_id":"8c07c4a7-d14f-4051-9d3d-4085873163f0","system_id":"levelo_inurba_marseille","lat":43.24674,"lon":5.38157,"is_reserved":false,"is_disabled":false,"rental_uris":{"android":"levelo://app?vid=8c07c4a7-d14f-4051-9d3d-4085873163f0","ios":"levelo://app?vid=8c07c4a7-d14f-4051-9d3d-4085873163f0"},"vehicle_type_id":"4","last_reported":1742375435,"current_range_meters":11200,"station_id":"ce4bhih2rcd13ifvqfr0","pricing_plan_id":"cebpf4jnsgd1na2vs0mg"},{"bike_id":"2ee81e41-bc1f-44d9-bac7-b060bfe39933","system_id":"levelo_inurba_marseille","lat":43.27499,"lon":5.42442,"is_reserved":false,"is_disabled":false,"rental_uris":{"android":"levelo://app?vid=2ee81e41-bc1f-44d9-bac7-b060bfe39933","ios":"levelo://app?vid=2ee81e41-bc1f-44d9-bac7-b060bfe39933"},"vehicle_type_id":"4","last_reported":1742375435,"current_range_meters":11200,"station_id":"ce4bhn92rcd13ifvqgrg","pricing_plan_id":"cebpf4jnsgd1na2vs0mg"},{"bike_id":"b6cec0a8-8151-4282-95b3-b7e2e2bb4ad7","system_id":"levelo_inurba_marseille","lat":43.29543,"lon":5.37542,"is_reserved":false,"is_disabled":false,"rental_uris":{"android":"levelo://app?vid=b6cec0a8-8151-4282-95b3-b7e2e2bb4ad7","ios":"levelo://app?vid=b6cec0a8-8151-4282-95b3-b7e2e2bb4ad7"},"vehicle_type_id":"4","last_reported":1742375435,"current_range_meters":11200,"station_id":"ce4bgkp2rcd13ifvqbmg","pricing_plan_id":"cebpf4jnsgd1na2vs0mg"},{"bike_id":"f3bf8035-4148-4b9c-9a97-70c1dd008437","system_id":"levelo_inurba_marseille","lat":43.31365,"lon":5.385,"is_reserved":false,"is_disabled":false,"rental_uris":{"android":"levelo://app?vid=f3bf8035-4148-4b9c-9a97-70c1dd008437","ios":"levelo://app?vid=f3bf8035-4148-4b9c-9a97-70c1dd008437"},"vehicle_type_id":"4","last_reported":1742375435,"current_range_meters":11200,"station_id":"ce4bgt92rcd13ifvqcf0","pricing_plan_id":"cebpf4jnsgd1na2vs0mg"},{"bike_id":"ce498500-3d58-490a-816b-ba01b7a6b7c5","system_id":"levelo_inurba_marseille","lat":43.27308,"lon":5.39091,"is_reserved":false,"is_disabled":false,"rental_uris":{"android":"levelo://app?vid=ce498500-3d58-490a-816b-ba01b7a6b7c5","ios":"levelo://app?vid=ce498500-3d58-490a-816b-ba01b7a6b7c5"},"vehicle_type_id":"4","last_reported":1742375435,"current_range_meters":11200,"station_id":"ce4bhgp2rcd13ifvqfe0","pricing_plan_id":"cebpf4jnsgd1na2vs0mg"},{"bike_id":"7c67c1ac-9f8e-48cd-973f-d2cb72b5bc79","system_id":"levelo_inurba_marseille","lat":43.32469,"lon":5.36594,"is_reserved":false,"is_disabled":false,"rental_uris":{"android":"levelo://app?vid=7c67c1ac-9f8e-48cd-973f-d2cb72b5bc79","ios":"levelo://app?vid=7c67c1ac-9f8e-48cd-973f-d2cb72b5bc79"},"vehicle_type_id":"4","last_reported":1742375435,"current_range_meters":11200,"station_id":"ce4bhs12rcd13ifvqhvg","pricing_plan_id":"cebpf4jnsgd1na2vs0mg"},{"bike_id":"26c3156d-8d38-4b11-92b6-f3f49ed4bf9b","system_id":"levelo_inurba_marseille","lat":43.27911,"lon":5.41215,"is_reserved":false,"is_disabled":false,"rental_uris":{"android":"levelo://app?vid=26c3156d-8d38-4b11-92b6-f3f49ed4bf9b","ios":"levelo://app?vid=26c3156d-8d38-4b11-92b6-f3f49ed4bf9b"},"vehicle_type_id":"4","last_reported":1742375435,"current_range_meters":11200,"station_id":"","pricing_plan_id":"cebpf4jnsgd1na2vs0mg"},{"bike_id":"6138b640-3a79-45fe-b651-9195792b5201","system_id":"levelo_inurba_marseille","lat":43.23957,"lon":5.36637,"is_reserved":false,"is_disabled":false,"rental_uris":{"android":"levelo://app?vid=6138b640-3a79-45fe-b651-9195792b5201","ios":"levelo://app?vid=6138b640-3a79-45fe-b651-9195792b5201"},"vehicle_type_id":"4","last_reported":1742375435,"current_range_meters":11200,"station_id":"ce4bhi12rcd13ifvqfp0","pricing_plan_id":"cebpf4jnsgd1na2vs0mg"},{"bike_id":"c48c3f9d-d09a-42a3-8230-b79e6433ec47","system_id":"levelo_inurba_marseille","lat":43.28486,"lon":5.38417,"is_reserved":false,"is_disabled":false,"rental_uris":{"android":"levelo://app?vid=c48c3f9d-d09a-42a3-8230-b79e6433ec47","ios":"levelo://app?vid=c48c3f9d-d09a-42a3-8230-b79e6433ec47"},"vehicle_type_id":"4","last_reported":1742375435,"current_range_meters":11200,"station_id":"ce4bh512rcd13ifvqe3g","pricing_plan_id":"cebpf4jnsgd1na2vs0mg"},{"bike_id":"ab27b7f4-e913-4277-b4db-91f6914f8212","system_id":"levelo_inurba_marseille","lat":43.30311,"lon":5.36903,"is_reserved":false,"is_disabled":false,"rental_uris":{"android":"levelo://app?vid=ab27b7f4-e913-4277-b4db-91f6914f8212","ios":"levelo://app?vid=ab27b7f4-e913-4277-b4db-91f6914f8212"},"vehicle_type_id":"4","last_reported":1742375435,"current_range_meters":11200,"station_id":"ce4bgqh2rcd13ifvqc5g","pricing_plan_id":"cebpf4jnsgd1na2vs0mg"},{"bike_id":"537c08a1-5a53-47eb-a09b-e80f349fd631","system_id":"levelo_inurba_marseille","lat":43.27059,"lon":5.4026,"is_reserved":false,"is_disabled":false,"rental_uris":{"android":"levelo://app?vid=537c08a1-5a53-47eb-a09b-e80f349fd631","ios":"levelo://app?vid=537c08a1-5a53-47eb-a09b-e80f349fd631"},"vehicle_type_id":"4","last_reported":1742375435,"current_range_meters":11200,"station_id":"ce4bhk92rcd13ifvqgc0","pricing_plan_id":"cebpf4jnsgd1na2vs0mg"},{"bike_id":"b42f4c9a-9892-43f7-a581-bbb76ea4bd1b","system_id":"levelo_inurba_marseille","lat":43.31509,"lon":5.37269,"is_reserved":false,"is_disabled":false,"rental_uris":{"android":"levelo://app?vid=b42f4c9a-9892-43f7-a581-bbb76ea4bd1b","ios":"levelo://app?vid=b42f4c9a-9892-43f7-a581-bbb76ea4bd1b"},"vehicle_type_id":"4","last_reported":1742375435,"current_range_meters":11200,"station_id":"ce4bgt12rcd13ifvqcd0","pricing_plan_id":"cebpf4jnsgd1na2vs0mg"},{"bike_id":"4dd87ef8-8d15-4b6b-ad14-e05b7933df96","system_id":"levelo_inurba_marseille","lat":43.30526,"lon":5.36504,"is_reserved":false,"is_disabled":false,"rental_uris":{"android":"levelo://app?vid=4dd87ef8-8d15-4b6b-ad14-e05b7933df96","ios":"levelo://app?vid=4dd87ef8-8d15-4b6b-ad14-e05b7933df96"},"vehicle_type_id":"4","last_reported":1742375435,"current_range_meters":11600,"station_id":"ce4bgs12rcd13ifvqcag","pricing_plan_id":"cebpf4jnsgd1na2vs0mg"},{"bike_id":"7b660f94-53f2-4ea2-ac2b-9a7c88505f64","system_id":"levelo_inurba_marseille","lat":43.25936,"lon":5.4092,"is_reserved":false,"is_disabled":false,"rental_uris":{"android":"levelo://app?vid=7b660f94-53f2-4ea2-ac2b-9a7c88505f64","ios":"levelo://app?vid=7b660f94-53f2-4ea2-ac2b-9a7c88505f64"},"vehicle_type_id":"4","last_reported":1742375435,"current_range_meters":11600,"station_id":"ce4bhm92rcd13ifvqglg","pricing_plan_id":"cebpf4jnsgd1na2vs0mg"},{"bike_id":"c03bf0bc-bd13-4839-83fb-cde67bd118c3","system_id":"levelo_inurba_marseille","lat":43.27488,"lon":5.42445,"is_reserved":false,"is_disabled":false,"rental_uris":{"android":"levelo://app?vid=c03bf0bc-bd13-4839-83fb-cde67bd118c3","ios":"levelo://app?vid=c03bf0bc-bd13-4839-83fb-cde67bd118c3"},"vehicle_type_id":"4","last_reported":1742375435,"current_range_meters":11600,"station_id":"ce4bhn92rcd13ifvqgrg","pricing_plan_id":"cebpf4jnsgd1na2vs0mg"},{"bike_id":"1419c31b-845a-44c3-b6ce-4ce0a428a907","system_id":"levelo_inurba_marseille","lat":43.30129,"lon":5.37414,"is_reserved":false,"is_disabled":false,"rental_uris":{"android":"levelo://app?vid=1419c31b-845a-44c3-b6ce-4ce0a428a907","ios":"levelo://app?vid=1419c31b-845a-44c3-b6ce-4ce0a428a907"},"vehicle_type_id":"4","last_reported":1742375435,"current_range_meters":11600,"station_id":"ce4bgs92rcd13ifvqcc0","pricing_plan_id":"cebpf4jnsgd1na2vs0mg"},{"bike_id":"963a17fa-4222-4f93-b414-09c4cce8d25a","system_id":"levelo_inurba_marseille","lat":43.28405,"lon":5.38508,"is_reserved":false,"is_disabled":false,"rental_uris":{"android":"levelo://app?vid=963a17fa-4222-4f93-b414-09c4cce8d25a","ios":"levelo://app?vid=963a17fa-4222-4f93-b414-09c4cce8d25a"},"vehicle_type_id":"4","last_reported":1742375435,"current_range_meters":11600,"station_id":"","pricing_plan_id":"cebpf4jnsgd1na2vs0mg"},{"bike_id":"95335876-88d4-4fc9-816f-c9a7c105be3e","system_id":"levelo_inurba_marseille","lat":43.27959,"lon":5.41058,"is_reserved":false,"is_disabled":false,"rental_uris":{"android":"levelo://app?vid=95335876-88d4-4fc9-816f-c9a7c105be3e","ios":"levelo://app?vid=95335876-88d4-4fc9-816f-c9a7c105be3e"},"vehicle_type_id":"4","last_reported":1742375435,"current_range_meters":12000,"station_id":"ce4bhnp2rcd13ifvqh0g","pricing_plan_id":"cebpf4jnsgd1na2vs0mg"},{"bike_id":"3a93b571-ed30-4cd4-aca9-8a8fdc87a1c6","system_id":"levelo_inurba_marseille","lat":43.23962,"lon":5.36624,"is_reserved":false,"is_disabled":false,"rental_uris":{"android":"levelo://app?vid=3a93b571-ed30-4cd4-aca9-8a8fdc87a1c6","ios":"levelo://app?vid=3a93b571-ed30-4cd4-aca9-8a8fdc87a1c6"},"vehicle_type_id":"4","last_reported":1742375435,"current_range_meters":12000,"station_id":"ce4bhi12rcd13ifvqfp0","pricing_plan_id":"cebpf4jnsgd1na2vs0mg"},{"bike_id":"e9348412-b4b6-40af-aa45-a0ebd175b330","system_id":"levelo_inurba_marseille","lat":43.30317,"lon":5.36899,"is_reserved":false,"is_disabled":false,"rental_uris":{"android":"levelo://app?vid=e9348412-b4b6-40af-aa45-a0ebd175b330","ios":"levelo://app?vid=e9348412-b4b6-40af-aa45-a0ebd175b330"},"vehicle_type_id":"4","last_reported":1742375435,"current_range_meters":12000,"station_id":"ce4bgqh2rcd13ifvqc5g","pricing_plan_id":"cebpf4jnsgd1na2vs0mg"},{"bike_id":"de927ab0-f176-4ee0-8e8d-94716d237bf6","system_id":"levelo_inurba_marseille","lat":43.30951,"lon":5.39047,"is_reserved":false,"is_disabled":false,"rental_uris":{"android":"levelo://app?vid=de927ab0-f176-4ee0-8e8d-94716d237bf6","ios":"levelo://app?vid=de927ab0-f176-4ee0-8e8d-94716d237bf6"},"vehicle_type_id":"4","last_reported":1742375435,"current_range_meters":12000,"station_id":"ce4bgup2rcd13ifvqco0","pricing_plan_id":"cebpf4jnsgd1na2vs0mg"},{"bike_id":"6bee3c6c-e2c9-4c22-a36b-0c51b779b449","system_id":"levelo_inurba_marseille","lat":43.31275,"lon":5.36749,"is_reserved":false,"is_disabled":false,"rental_uris":{"android":"levelo://app?vid=6bee3c6c-e2c9-4c22-a36b-0c51b779b449","ios":"levelo://app?vid=6bee3c6c-e2c9-4c22-a36b-0c51b779b449"},"vehicle_type_id":"4","last_reported":1742375435,"current_range_meters":12000,"station_id":"","pricing_plan_id":"cebpf4jnsgd1na2vs0mg"},{"bike_id":"75e8bee3-0a10-4522-9d7e-72ece2846129","system_id":"levelo_inurba_marseille","lat":43.33048,"lon":5.3902,"is_reserved":false,"is_disabled":false,"rental_uris":{"android":"levelo://app?vid=75e8bee3-0a10-4522-9d7e-72ece2846129","ios":"levelo://app?vid=75e8bee3-0a10-4522-9d7e-72ece2846129"},"vehicle_type_id":"4","last_reported":1742375435,"current_range_meters":12000,"station_id":"ce4bhr92rcd13ifvqhrg","pricing_plan_id":"cebpf4jnsgd1na2vs0mg"},{"bike_id":"d3dbe423-85f4-46cd-bd98-e681ae860059","system_id":"levelo_inurba_marseille","lat":43.33611,"lon":5.41038,"is_reserved":false,"is_disabled":false,"rental_uris":{"android":"levelo://app?vid=d3dbe423-85f4-46cd-bd98-e681ae860059","ios":"levelo://app?vid=d3dbe423-85f4-46cd-bd98-e681ae860059"},"vehicle_type_id":"4","last_reported":1742375435,"current_range_meters":12400,"station_id":"ce4bhqh2rcd13ifvqhmg","pricing_plan_id":"cebpf4jnsgd1na2vs0mg"},{"bike_id":"5d3cfd74-2a59-427d-9e50-aff8dd236c3c","system_id":"levelo_inurba_marseille","lat":43.27068,"lon":5.42278,"is_reserved":false,"is_disabled":false,"rental_uris":{"android":"levelo://app?vid=5d3cfd74-2a59-427d-9e50-aff8dd236c3c","ios":"levelo://app?vid=5d3cfd74-2a59-427d-9e50-aff8dd236c3c"},"vehicle_type_id":"4","last_reported":1742375435,"current_range_meters":12400,"station_id":"ce4bhk92rcd13ifvqgb0","pricing_plan_id":"cebpf4jnsgd1na2vs0mg"},{"bike_id":"55f54ed6-2a8d-4ab0-b86c-74918f778d3f","system_id":"levelo_inurba_marseille","lat":43.24082,"lon":5.37754,"is_reserved":false,"is_disabled":false,"rental_uris":{"android":"levelo://app?vid=55f54ed6-2a8d-4ab0-b86c-74918f778d3f","ios":"levelo://app?vid=55f54ed6-2a8d-4ab0-b86c-74918f778d3f"},"vehicle_type_id":"4","last_reported":1742375435,"current_range_meters":12400,"station_id":"ce4bhnp2rcd13ifvqgvg","pricing_plan_id":"cebpf4jnsgd1na2vs0mg"},{"bike_id":"3a34c87c-3a7c-409e-814d-9fb27cf6bcdf","system_id":"levelo_inurba_marseille","lat":43.29613,"lon":5.3773,"is_reserved":false,"is_disabled":false,"rental_uris":{"android":"levelo://app?vid=3a34c87c-3a7c-409e-814d-9fb27cf6bcdf","ios":"levelo://app?vid=3a34c87c-3a7c-409e-814d-9fb27cf6bcdf"},"vehicle_type_id":"4","last_reported":1742375435,"current_range_meters":12400,"station_id":"ce4bgi92rcd13ifvqb90","pricing_plan_id":"cebpf4jnsgd1na2vs0mg"},{"bike_id":"0c299236-26b5-451f-bd52-2b3f0194b880","system_id":"levelo_inurba_marseille","lat":43.31372,"lon":5.38507,"is_reserved":false,"is_disabled":false,"rental_uris":{"android":"levelo://app?vid=0c299236-26b5-451f-bd52-2b3f0194b880","ios":"levelo://app?vid=0c299236-26b5-451f-bd52-2b3f0194b880"},"vehicle_type_id":"4","last_reported":1742375435,"current_range_meters":12400,"station_id":"ce4bgt92rcd13ifvqcf0","pricing_plan_id":"cebpf4jnsgd1na2vs0mg"},{"bike_id":"eb6ad15b-5d6f-4c9e-aca2-00662fed81a8","system_id":"levelo_inurba_marseille","lat":43.30532,"lon":5.36712,"is_reserved":false,"is_disabled":false,"rental_uris":{"android":"levelo://app?vid=eb6ad15b-5d6f-4c9e-aca2-00662fed81a8","ios":"levelo://app?vid=eb6ad15b-5d6f-4c9e-aca2-00662fed81a8"},"vehicle_type_id":"4","last_reported":1742375435,"current_range_meters":12400,"station_id":"ce4bgrp2rcd13ifvqc9g","pricing_plan_id":"cebpf4jnsgd1na2vs0mg"},{"bike_id":"bcbae612-be4d-4906-83f7-720f31e48858","system_id":"levelo_inurba_marseille","lat":43.28963,"lon":5.37838,"is_reserved":false,"is_disabled":false,"rental_uris":{"android":"levelo://app?vid=bcbae612-be4d-4906-83f7-720f31e48858","ios":"levelo://app?vid=bcbae612-be4d-4906-83f7-720f31e48858"},"vehicle_type_id":"4","last_reported":1742375435,"current_range_meters":12800,"station_id":"ce4bh9p2rcd13ifvqed0","pricing_plan_id":"cebpf4jnsgd1na2vs0mg"},{"bike_id":"6450165b-aca9-423c-bc17-e78fe46f1184","system_id":"levelo_inurba_marseille","lat":43.23959,"lon":5.36646,"is_reserved":false,"is_disabled":false,"rental_uris":{"android":"levelo://app?vid=6450165b-aca9-423c-bc17-e78fe46f1184","ios":"levelo://app?vid=6450165b-aca9-423c-bc17-e78fe46f1184"},"vehicle_type_id":"4","last_reported":1742375435,"current_range_meters":12800,"station_id":"ce4bhi12rcd13ifvqfp0","pricing_plan_id":"cebpf4jnsgd1na2vs0mg"},{"bike_id":"446d3bc1-911c-49dc-9eed-88d006c466c1","system_id":"levelo_inurba_marseille","lat":43.33029,"lon":5.39042,"is_reserved":false,"is_disabled":false,"rental_uris":{"android":"levelo://app?vid=446d3bc1-911c-49dc-9eed-88d006c466c1","ios":"levelo://app?vid=446d3bc1-911c-49dc-9eed-88d006c466c1"},"vehicle_type_id":"4","last_reported":1742375435,"current_range_meters":12800,"station_id":"ce4bhr92rcd13ifvqhrg","pricing_plan_id":"cebpf4jnsgd1na2vs0mg"},{"bike_id":"71f9f3f7-1dec-45cd-b0fe-d3d23c5535c1","system_id":"levelo_inurba_marseille","lat":43.26501,"lon":5.39546,"is_reserved":false,"is_disabled":false,"rental_uris":{"android":"levelo://app?vid=71f9f3f7-1dec-45cd-b0fe-d3d23c5535c1","ios":"levelo://app?vid=71f9f3f7-1dec-45cd-b0fe-d3d23c5535c1"},"vehicle_type_id":"4","last_reported":1742375435,"current_range_meters":12800,"station_id":"ce4bhi12rcd13ifvqfq0","pricing_plan_id":"cebpf4jnsgd1na2vs0mg"},{"bike_id":"eb358409-5b5b-45c2-a54d-54327da52ff6","system_id":"levelo_inurba_marseille","lat":43.2721,"lon":5.39175,"is_reserved":false,"is_disabled":false,"rental_uris":{"android":"levelo://app?vid=eb358409-5b5b-45c2-a54d-54327da52ff6","ios":"levelo://app?vid=eb358409-5b5b-45c2-a54d-54327da52ff6"},"vehicle_type_id":"4","last_reported":1742375435,"current_range_meters":12800,"station_id":"ce4bhhp2rcd13ifvqfm0","pricing_plan_id":"cebpf4jnsgd1na2vs0mg"},{"bike_id":"9d26c008-8ec1-4269-9cd2-f45774f03ccb","system_id":"levelo_inurba_marseille","lat":43.27951,"lon":5.37942,"is_reserved":false,"is_disabled":false,"rental_uris":{"android":"levelo://app?vid=9d26c008-8ec1-4269-9cd2-f45774f03ccb","ios":"levelo://app?vid=9d26c008-8ec1-4269-9cd2-f45774f03ccb"},"vehicle_type_id":"4","last_reported":1742375435,"current_range_meters":12800,"station_id":"","pricing_plan_id":"cebpf4jnsgd1na2vs0mg"},{"bike_id":"5271c92a-dd45-4451-91d5-7ee7231dcf2e","system_id":"levelo_inurba_marseille","lat":43.29698,"lon":5.37704,"is_reserved":false,"is_disabled":false,"rental_uris":{"android":"levelo://app?vid=5271c92a-dd45-4451-91d5-7ee7231dcf2e","ios":"levelo://app?vid=5271c92a-dd45-4451-91d5-7ee7231dcf2e"},"vehicle_type_id":"4","last_reported":1742375435,"current_range_meters":12800,"station_id":"ce4bgkh2rcd13ifvqbl0","pricing_plan_id":"cebpf4jnsgd1na2vs0mg"},{"bike_id":"96e343bd-79d6-4e3f-b7dd-d78e5f35d6d8","system_id":"levelo_inurba_marseille","lat":43.28162,"lon":5.42656,"is_reserved":false,"is_disabled":false,"rental_uris":{"android":"levelo://app?vid=96e343bd-79d6-4e3f-b7dd-d78e5f35d6d8","ios":"levelo://app?vid=96e343bd-79d6-4e3f-b7dd-d78e5f35d6d8"},"vehicle_type_id":"4","last_reported":1742375435,"current_range_meters":12800,"station_id":"ce4bhnh2rcd13ifvqgug","pricing_plan_id":"cebpf4jnsgd1na2vs0mg"},{"bike_id":"bfe496da-cd17-4b5f-8593-6463555ff7ce","system_id":"levelo_inurba_marseille","lat":43.24998,"lon":5.38934,"is_reserved":false,"is_disabled":false,"rental_uris":{"android":"levelo://app?vid=bfe496da-cd17-4b5f-8593-6463555ff7ce","ios":"levelo://app?vid=bfe496da-cd17-4b5f-8593-6463555ff7ce"},"vehicle_type_id":"4","last_reported":1742375435,"current_range_meters":13600,"station_id":"ce4bhgp2rcd13ifvqfd0","pricing_plan_id":"cebpf4jnsgd1na2vs0mg"},{"bike_id":"f7851504-3ee5-461f-8e41-628ad3d19a7a","system_id":"levelo_inurba_marseille","lat":43.23965,"lon":5.36626,"is_reserved":false,"is_disabled":false,"rental_uris":{"android":"levelo://app?vid=f7851504-3ee5-461f-8e41-628ad3d19a7a","ios":"levelo://app?vid=f7851504-3ee5-461f-8e41-628ad3d19a7a"},"vehicle_type_id":"4","last_reported":1742375435,"current_range_meters":13600,"station_id":"ce4bhi12rcd13ifvqfp0","pricing_plan_id":"cebpf4jnsgd1na2vs0mg"},{"bike_id":"5f90e3d6-b886-48e6-b60e-2dd77fb6d3d6","system_id":"levelo_inurba_marseille","lat":43.24197,"lon":5.39727,"is_reserved":false,"is_disabled":false,"rental_uris":{"android":"levelo://app?vid=5f90e3d6-b886-48e6-b60e-2dd77fb6d3d6","ios":"levelo://app?vid=5f90e3d6-b886-48e6-b60e-2dd77fb6d3d6"},"vehicle_type_id":"4","last_reported":1742375435,"current_range_meters":13600,"station_id":"ce4bhn12rcd13ifvqgpg","pricing_plan_id":"cebpf4jnsgd1na2vs0mg"},{"bike_id":"e3dc2bda-203a-49b1-9fc0-6631eae1e60d","system_id":"levelo_inurba_marseille","lat":43.33606,"lon":5.41037,"is_reserved":false,"is_disabled":false,"rental_uris":{"android":"levelo://app?vid=e3dc2bda-203a-49b1-9fc0-6631eae1e60d","ios":"levelo://app?vid=e3dc2bda-203a-49b1-9fc0-6631eae1e60d"},