{"last_updated":1727705343,"ttl":60,"version":"2.2","data":{"bikes":[{"bike_id":"d06dd820-bcd6-4fac-b514-ee5f46eb52ef","system_id":"levelo_inurba_marseille","lat":43.29622,"lon":5.37157,"is_reserved":false,"is_disabled":false,"rental_uris":{"android":"levelo://app?vid=d06dd820-bcd6-4fac-b514-ee5f46eb52ef","ios":"levelo://app?vid=d06dd820-bcd6-4fac-b514-ee5f46eb52ef"},"vehicle_type_id":"4","last_reported":1727705343,"current_range_meters":8400,"station_id":"ce4bgnh2rcd13ifvqc0g","pricing_plan_id":"cebpf4jnsgd1na2vs0mg"},{"bike_id":"9d32dcbc-8ead-4d60-b9de-9a6f184651e1","system_id":"levelo_inurba_marseille","lat":43.27815,"lon":5.40697,"is_reserved":false,"is_disabled":false,"rental_uris":{"android":"levelo://app?vid=9d32dcbc-8ead-4d60-b9de-9a6f184651e1","ios":"levelo://app?vid=9d32dcbc-8ead-4d60-b9de-9a6f184651e1"},"vehicle_type_id":"4","last_reported":1727705343,"current_range_meters":28000,"station_id":"ce4bhnh2rcd13ifvqgtg","pricing_plan_id":"cebpf4jnsgd1na2vs0mg"},{"bike_id":"85b7e542-d9aa-4411-8363-a890de08af0a","system_id":"levelo_inurba_marseille","lat":43.30913,"lon":5.36855,"is_reserved":false,"is_disabled":false,"rental_uris":{"android":"levelo://app?vid=85b7e542-d9aa-4411-8363-a890de08af0a","ios":"levelo://app?vid=85b7e542-d9aa-4411-8363-a890de08af0a"},"vehicle_type_id":"4","last_reported":1727705343,"current_range_meters":28000,"station_id":"ce4bgn92rcd13ifvqbvg","pricing_plan_id":"cebpf4jnsgd1na2vs0mg"},{"bike_id":"a64d2604-8992-49e7-bfbe-4c73da1546c0","system_id":"levelo_inurba_marseille","lat":43.305384,"lon":5.365324,"is_reserved":false,"is_disabled":false,"rental_uris":{"android":"levelo://app?vid=a64d2604-8992-49e7-bfbe-4c73da1546c0","ios":"levelo://app?vid=a64d2604-8992-49e7-bfbe-4c73da1546c0"},"vehicle_type_id":"4","last_reported":1727705343,"current_range_meters":24800,"station_id":"ce4bgs12rcd13ifvqcag","pricing_plan_id":"cebpf4jnsgd1na2vs0mg"},{"bike_id":"3ad168c0-f1fc-4900-bb75-ce190d3920b3","system_id":"levelo_inurba_marseille","lat":43.33758,"lon":5.37432,"is_reserved":false,"is_disabled":false,"rental_uris":{"android":"levelo://app?vid=3ad168c0-f1fc-4900-bb75-ce190d3920b3","ios":"levelo://app?vid=3ad168c0-f1fc-4900-bb75-ce190d3920b3"},"vehicle_type_id":"4","last_reported":1727705343,"current_range_meters":38400,"station_id":"","pricing_plan_id":"cebpf4jnsgd1na2vs0mg"},{"bike_id":"130abd5a-54f9-4f2b-943b-d3eb2b1a358c","system_id":"levelo_inurba_marseille","lat":43.301252,"lon":5.398676,"is_reserved":false,"is_disabled":false,"rental_uris":{"android":"levelo://app?vid=130abd5a-54f9-4f2b-943b-d3eb2b1a358c","ios":"levelo://app?vid=130abd5a-54f9-4f2b-943b-d3eb2b1a358c"},"vehicle_type_id":"4","last_reported":1727705343,"current_range_meters":17600,"station_id":"ce4bgvp2rcd13ifvqct0","pricing_plan_id":"cebpf4jnsgd1na2vs0mg"},{"bike_id":"73d0d5df-4401-40c0-89eb-aa4e1f20a05f","system_id":"levelo_inurba_marseille","lat":43.29331,"lon":5.41167,"is_reserved":false,"is_disabled":false,"rental_uris":{"android":"levelo://app?vid=73d0d5df-4401-40c0-89eb-aa4e1f20a05f","ios":"levelo://app?vid=73d0d5df-4401-40c0-89eb-aa4e1f20a05f"},"vehicle_type_id":"4","last_reported":1727705343,"current_range_meters":27600,"station_id":"","pricing_plan_id":"cebpf4jnsgd1na2vs0mg"},{"bike_id":"76e34cad-0ed0-4625-87d2-dd2a19fc63b1","system_id":"levelo_inurba_marseille","lat":43.30543,"lon":5.36523,"is_reserved":false,"is_disabled":false,"rental_uris":{"android":"levelo://app?vid=76e34cad-0ed0-4625-87d2-dd2a19fc63b1","ios":"levelo://app?vid=76e34cad-0ed0-4625-87d2-dd2a19fc63b1"},"vehicle_type_id":"4","last_reported":1727705343,"current_range_meters":34000,"station_id":"ce4bgs12rcd13ifvqcag","pricing_plan_id":"cebpf4jnsgd1na2vs0mg"},{"bike_id":"08285dd5-2fb9-4f46-a86e-d9f6a5f9390c","system_id":"levelo_inurba_marseille","lat":43.30146,"lon":5.38058,"is_reserved":false,"is_disabled":false,"rental_uris":{"android":"levelo://app?vid=08285dd5-2fb9-4f46-a86e-d9f6a5f9390c","ios":"levelo://app?vid=08285dd5-2fb9-4f46-a86e-d9f6a5f9390c"},"vehicle_type_id":"4","last_reported":1727705343,"current_range_meters":30000,"station_id":"ce4bgjp2rcd13ifvqbh0","pricing_plan_id":"cebpf4jnsgd1na2vs0mg"},{"bike_id":"43defcf7-27fa-4722-b56f-e45a1dfc2de3","system_id":"levelo_inurba_marseille","lat":43.32405,"lon":5.38354,"is_reserved":false,"is_disabled":false,"rental_uris":{"android":"levelo://app?vid=43defcf7-27fa-4722-b56f-e45a1dfc2de3","ios":"levelo://app?vid=43defcf7-27fa-4722-b56f-e45a1dfc2de3"},"vehicle_type_id":"4","last_reported":1727705343,"current_range_meters":20800,"station_id":"","pricing_plan_id":"cebpf4jnsgd1na2vs0mg"},{"bike_id":"df2b664d-5bac-465f-88e7-ae06dcb5ed98","system_id":"levelo_inurba_marseille","lat":43.24171,"lon":5.36405,"is_reserved":false,"is_disabled":false,"rental_uris":{"android":"levelo://app?vid=df2b664d-5bac-465f-88e7-ae06dcb5ed98","ios":"levelo://app?vid=df2b664d-5bac-465f-88e7-ae06dcb5ed98"},"vehicle_type_id":"4","last_reported":1727705343,"current_range_meters":20000,"station_id":"cpo36qri1sfpv3e86is0","pricing_plan_id":"cebpf4jnsgd1na2vs0mg"},{"bike_id":"ce3b3e18-c5f9-4f6d-9731-c710603bbc0d","system_id":"levelo_inurba_marseille","lat":43.30883,"lon":5.3719,"is_reserved":false,"is_disabled":false,"rental_uris":{"android":"levelo://app?vid=ce3b3e18-c5f9-4f6d-9731-c710603bbc0d","ios":"levelo://app?vid=ce3b3e18-c5f9-4f6d-9731-c710603bbc0d"},"vehicle_type_id":"4","last_reported":1727705343,"current_range_meters":22800,"station_id":"ce4bguh2rcd13ifvqckg","pricing_plan_id":"cebpf4jnsgd1na2vs0mg"},{"bike_id":"ee427ff1-d7c9-4d34-b3e2-0cf6eb9e2d82","system_id":"levelo_inurba_marseille","lat":43.28669,"lon":5.36353,"is_reserved":false,"is_disabled":false,"rental_uris":{"android":"levelo://app?vid=ee427ff1-d7c9-4d34-b3e2-0cf6eb9e2d82","ios":"levelo://app?vid=ee427ff1-d7c9-4d34-b3e2-0cf6eb9e2d82"},"vehicle_type_id":"4","last_reported":1727705343,"current_range_meters":33200,"station_id":"ce4bhah2rcd13ifvqej0","pricing_plan_id":"cebpf4jnsgd1na2vs0mg"},{"bike_id":"365dfba5-918f-44ac-8c71-9138dda11f13","system_id":"levelo_inurba_marseille","lat":43.28265,"lon":5.35061,"is_reserved":false,"is_disabled":false,"rental_uris":{"android":"levelo://app?vid=365dfba5-918f-44ac-8c71-9138dda11f13","ios":"levelo://app?vid=365dfba5-918f-44ac-8c71-9138dda11f13"},"vehicle_type_id":"4","last_reported":1727705343,"current_range_meters":17600,"station_id":"ce4bhbp2rcd13ifvqerg","pricing_plan_id":"cebpf4jnsgd1na2vs0mg"},{"bike_id":"bbe9db71-e8b6-4354-ba53-14b63b97e961","system_id":"levelo_inurba_marseille","lat":43.30599,"lon":5.37228,"is_reserved":false,"is_disabled":false,"rental_uris":{"android":"levelo://app?vid=bbe9db71-e8b6-4354-ba53-14b63b97e961","ios":"levelo://app?vid=bbe9db71-e8b6-4354-ba53-14b63b97e961"},"vehicle_type_id":"4","last_reported":1727705343,"current_range_meters":28400,"station_id":"ce4bgqh2rcd13ifvqc4g","pricing_plan_id":"cebpf4jnsgd1na2vs0mg"},{"bike_id":"57a80ae8-44a5-4b59-8305-8e5662314638","system_id":"levelo_inurba_marseille","lat":43.28231,"lon":5.38757,"is_reserved":false,"is_disabled":false,"rental_uris":{"android":"levelo://app?vid=57a80ae8-44a5-4b59-8305-8e5662314638","ios":"levelo://app?vid=57a80ae8-44a5-4b59-8305-8e5662314638"},"vehicle_type_id":"4","last_reported":1727705343,"current_range_meters":22400,"station_id":"","pricing_plan_id":"cebpf4jnsgd1na2vs0mg"},{"bike_id":"73f665e8-ac48-42f1-a51d-4b2e92c6d88c","system_id":"levelo_inurba_marseille","lat":43.28359,"lon":5.38635,"is_reserved":false,"is_disabled":false,"rental_uris":{"android":"levelo://app?vid=73f665e8-ac48-42f1-a51d-4b2e92c6d88c","ios":"levelo://app?vid=73f665e8-ac48-42f1-a51d-4b2e92c6d88c"},"vehicle_type_id":"4","last_reported":1727705343,"current_range_meters":17600,"station_id":"ce4bh492rcd13ifvqdvg","pricing_plan_id":"cebpf4jnsgd1na2vs0mg"},{"bike_id":"380892d5-0c07-4382-989e-ba79e6cba25e","system_id":"levelo_inurba_marseille","lat":43.28015,"lon":5.36085,"is_reserved":false,"is_disabled":false,"rental_uris":{"android":"levelo://app?vid=380892d5-0c07-4382-989e-ba79e6cba25e","ios":"levelo://app?vid=380892d5-0c07-4382-989e-ba79e6cba25e"},"vehicle_type_id":"4","last_reported":1727705343,"current_range_meters":18000,"station_id":"","pricing_plan_id":"cebpf4jnsgd1na2vs0mg"},{"bike_id":"08774d0f-a3b8-4a21-a628-f29745a6516e","system_id":"levelo_inurba_marseille","lat":43.27497,"lon":5.42451,"is_reserved":false,"is_disabled":false,"rental_uris":{"android":"levelo://app?vid=08774d0f-a3b8-4a21-a628-f29745a6516e","ios":"levelo://app?vid=08774d0f-a3b8-4a21-a628-f29745a6516e"},"vehicle_type_id":"4","last_reported":1727705343,"current_range_meters":32000,"station_id":"ce4bhn92rcd13ifvqgrg","pricing_plan_id":"cebpf4jnsgd1na2vs0mg"},{"bike_id":"2781c9d5-86e8-43d9-a819-20df714453ba","system_id":"levelo_inurba_marseille","lat":43.25725,"lon":5.41109,"is_reserved":false,"is_disabled":false,"rental_uris":{"android":"levelo://app?vid=2781c9d5-86e8-43d9-a819-20df714453ba","ios":"levelo://app?vid=2781c9d5-86e8-43d9-a819-20df714453ba"},"vehicle_type_id":"4","last_reported":1727705343,"current_range_meters":34800,"station_id":"ce4bhkp2rcd13ifvqgd0","pricing_plan_id":"cebpf4jnsgd1na2vs0mg"},{"bike_id":"0a50d5fa-f059-4d48-8c4b-6209b638ce1b","system_id":"levelo_inurba_marseille","lat":43.29264,"lon":5.40907,"is_reserved":false,"is_disabled":false,"rental_uris":{"android":"levelo://app?vid=0a50d5fa-f059-4d48-8c4b-6209b638ce1b","ios":"levelo://app?vid=0a50d5fa-f059-4d48-8c4b-6209b638ce1b"},"vehicle_type_id":"4","last_reported":1727705343,"current_range_meters":28800,"station_id":"ce4bh192rcd13ifvqdc0","pricing_plan_id":"cebpf4jnsgd1na2vs0mg"},{"bike_id":"33b0472f-36a6-4445-93eb-973b713aee75","system_id":"levelo_inurba_marseille","lat":43.31264,"lon":5.40159,"is_reserved":false,"is_disabled":false,"rental_uris":{"android":"levelo://app?vid=33b0472f-36a6-4445-93eb-973b713aee75","ios":"levelo://app?vid=33b0472f-36a6-4445-93eb-973b713aee75"},"vehicle_type_id":"4","last_reported":1727705343,"current_range_meters":38800,"station_id":"ce4bh092rcd13ifvqd30","pricing_plan_id":"cebpf4jnsgd1na2vs0mg"},{"bike_id":"37daee57-810c-4d09-b94e-d5d2241434e6","system_id":"levelo_inurba_marseille","lat":43.33025,"lon":5.39036,"is_reserved":false,"is_disabled":false,"rental_uris":{"android":"levelo://app?vid=37daee57-810c-4d09-b94e-d5d2241434e6","ios":"levelo://app?vid=37daee57-810c-4d09-b94e-d5d2241434e6"},"vehicle_type_id":"4","last_reported":1727705343,"current_range_meters":33200,"station_id":"ce4bhr92rcd13ifvqhrg","pricing_plan_id":"cebpf4jnsgd1na2vs0mg"},{"bike_id":"06c365e2-ada5-4784-b552-01f94928c737","system_id":"levelo_inurba_marseille","lat":43.337667,"lon":5.374383,"is_reserved":false,"is_disabled":false,"rental_uris":{"android":"levelo://app?vid=06c365e2-ada5-4784-b552-01f94928c737","ios":"levelo://app?vid=06c365e2-ada5-4784-b552-01f94928c737"},"vehicle_type_id":"4","last_reported":1727705343,"current_range_meters":12000,"station_id":"","pricing_plan_id":"cebpf4jnsgd1na2vs0mg"},{"bike_id":"27259275-6d2c-4dbe-82cb-b32b174259aa","system_id":"levelo_inurba_marseille","lat":43.28276,"lon":5.35063,"is_reserved":false,"is_disabled":false,"rental_uris":{"android":"levelo://app?vid=27259275-6d2c-4dbe-82cb-b32b174259aa","ios":"levelo://app?vid=27259275-6d2c-4dbe-82cb-b32b174259aa"},"vehicle_type_id":"4","last_reported":1727705343,"current_range_meters":23200,"station_id":"ce4bhbp2rcd13ifvqerg","pricing_plan_id":"cebpf4jnsgd1na2vs0mg"},{"bike_id":"683cdf7a-d3ac-4930-b554-580cc9b590bb","system_id":"levelo_inurba_marseille","lat":43.3055,"lon":5.36527,"is_reserved":false,"is_disabled":false,"rental_uris":{"android":"levelo://app?vid=683cdf7a-d3ac-4930-b554-580cc9b590bb","ios":"levelo://app?vid=683cdf7a-d3ac-4930-b554-580cc9b590bb"},"vehicle_type_id":"4","last_reported":1727705343,"current_range_meters":38800,"station_id":"ce4bgs12rcd13ifvqcag","pricing_plan_id":"cebpf4jnsgd1na2vs0mg"},{"bike_id":"7f65494c-bb0c-463b-b3a3-c11c60597589","system_id":"levelo_inurba_marseille","lat":43.24386,"lon":5.37067,"is_reserved":false,"is_disabled":false,"rental_uris":{"android":"levelo://app?vid=7f65494c-bb0c-463b-b3a3-c11c60597589","ios":"levelo://app?vid=7f65494c-bb0c-463b-b3a3-c11c60597589"},"vehicle_type_id":"4","last_reported":1727705343,"current_range_meters":37600,"station_id":"ce4bhhh2rcd13ifvqfk0","pricing_plan_id":"cebpf4jnsgd1na2vs0mg"},{"bike_id":"25b1f2fe-bd28-45e2-8eec-bea87ae3b162","system_id":"levelo_inurba_marseille","lat":43.272905,"lon":5.391789,"is_reserved":false,"is_disabled":false,"rental_uris":{"android":"levelo://app?vid=25b1f2fe-bd28-45e2-8eec-bea87ae3b162","ios":"levelo://app?vid=25b1f2fe-bd28-45e2-8eec-bea87ae3b162"},"vehicle_type_id":"4","last_reported":1727705343,"current_range_meters":11200,"station_id":"ce4bhhp2rcd13ifvqfm0","pricing_plan_id":"cebpf4jnsgd1na2vs0mg"},{"bike_id":"918a76fa-3501-4977-94c9-aac2efae816d","system_id":"levelo_inurba_marseille","lat":43.32489,"lon":5.36561,"is_reserved":false,"is_disabled":false,"rental_uris":{"android":"levelo://app?vid=918a76fa-3501-4977-94c9-aac2efae816d","ios":"levelo://app?vid=918a76fa-3501-4977-94c9-aac2efae816d"},"vehicle_type_id":"4","last_reported":1727705343,"current_range_meters":38800,"station_id":"ce4bhs12rcd13ifvqhvg","pricing_plan_id":"cebpf4jnsgd1na2vs0mg"},{"bike_id":"3c423d2f-a6c6-4047-aeb4-33efbda204f0","system_id":"levelo_inurba_marseille","lat":43.262177,"lon":5.375212,"is_reserved":false,"is_disabled":false,"rental_uris":{"android":"levelo://app?vid=3c423d2f-a6c6-4047-aeb4-33efbda204f0","ios":"levelo://app?vid=3c423d2f-a6c6-4047-aeb4-33efbda204f0"},"vehicle_type_id":"4","last_reported":1727705343,"current_range_meters":8400,"station_id":"ce4bhgp2rcd13ifvqfc0","pricing_plan_id":"cebpf4jnsgd1na2vs0mg"},{"bike_id":"e2445757-eb05-4693-8073-afe208a9f0ac","system_id":"levelo_inurba_marseille","lat":43.27561,"lon":5.38427,"is_reserved":false,"is_disabled":false,"rental_uris":{"android":"levelo://app?vid=e2445757-eb05-4693-8073-afe208a9f0ac","ios":"levelo://app?vid=e2445757-eb05-4693-8073-afe208a9f0ac"},"vehicle_type_id":"4","last_reported":1727705343,"current_range_meters":33200,"station_id":"ce4bhh92rcd13ifvqfi0","pricing_plan_id":"cebpf4jnsgd1na2vs0mg"},{"bike_id":"f88ad5e4-639a-4417-977d-7f4b34b15257","system_id":"levelo_inurba_marseille","lat":43.28929,"lon":5.38387,"is_reserved":false,"is_disabled":false,"rental_uris":{"android":"levelo://app?vid=f88ad5e4-639a-4417-977d-7f4b34b15257","ios":"levelo://app?vid=f88ad5e4-639a-4417-977d-7f4b34b15257"},"vehicle_type_id":"4","last_reported":1727705343,"current_range_meters":8800,"station_id":"ce4bh612rcd13ifvqe6g","pricing_plan_id":"cebpf4jnsgd1na2vs0mg"},{"bike_id":"a3ca32aa-a913-4a1a-9f7e-ea4fb5810586","system_id":"levelo_inurba_marseille","lat":43.2844,"lon":5.39181,"is_reserved":false,"is_disabled":false,"rental_uris":{"android":"levelo://app?vid=a3ca32aa-a913-4a1a-9f7e-ea4fb5810586","ios":"levelo://app?vid=a3ca32aa-a913-4a1a-9f7e-ea4fb5810586"},"vehicle_type_id":"4","last_reported":1727705343,"current_range_meters":4000,"station_id":"ce4bhoh2rcd13ifvqh5g","pricing_plan_id":"cebpf4jnsgd1na2vs0mg"},{"bike_id":"95f864cd-3d33-4a22-9e76-46c0e49460f2","system_id":"levelo_inurba_marseille","lat":43.30531,"lon":5.36535,"is_reserved":false,"is_disabled":false,"rental_uris":{"android":"levelo://app?vid=95f864cd-3d33-4a22-9e76-46c0e49460f2","ios":"levelo://app?vid=95f864cd-3d33-4a22-9e76-46c0e49460f2"},"vehicle_type_id":"4","last_reported":1727705343,"current_range_meters":8000,"station_id":"ce4bgs12rcd13ifvqcag","pricing_plan_id":"cebpf4jnsgd1na2vs0mg"},{"bike_id":"65b81cad-d8c4-4688-a851-db55e68aac95","system_id":"levelo_inurba_marseille","lat":43.31335,"lon":5.36731,"is_reserved":false,"is_disabled":false,"rental_uris":{"android":"levelo://app?vid=65b81cad-d8c4-4688-a851-db55e68aac95","ios":"levelo://app?vid=65b81cad-d8c4-4688-a851-db55e68aac95"},"vehicle_type_id":"4","last_reported":1727705343,"current_range_meters":37600,"station_id":"ce4bgr92rcd13ifvqc6g","pricing_plan_id":"cebpf4jnsgd1na2vs0mg"},{"bike_id":"43c06965-23b9-4d30-b7e8-7a5ba49ffbec","system_id":"levelo_inurba_marseille","lat":43.32318,"lon":5.38295,"is_reserved":false,"is_disabled":false,"rental_uris":{"android":"levelo://app?vid=43c06965-23b9-4d30-b7e8-7a5ba49ffbec","ios":"levelo://app?vid=43c06965-23b9-4d30-b7e8-7a5ba49ffbec"},"vehicle_type_id":"4","last_reported":1727705343,"current_range_meters":32800,"station_id":"ce4bhr12rcd13ifvqhqg","pricing_plan_id":"cebpf4jnsgd1na2vs0mg"},{"bike_id":"5cdccf72-50dd-499c-a8f5-5a5b0dafc73e","system_id":"levelo_inurba_marseille","lat":43.29013,"lon":5.3561,"is_reserved":false,"is_disabled":false,"rental_uris":{"android":"levelo://app?vid=5cdccf72-50dd-499c-a8f5-5a5b0dafc73e","ios":"levelo://app?vid=5cdccf72-50dd-499c-a8f5-5a5b0dafc73e"},"vehicle_type_id":"4","last_reported":1727705343,"current_range_meters":8800,"station_id":"ce4bhb92rcd13ifvqen0","pricing_plan_id":"cebpf4jnsgd1na2vs0mg"},{"bike_id":"5b800d39-ba23-48e7-941c-fd0fa9bc4b89","system_id":"levelo_inurba_marseille","lat":43.31261,"lon":5.36912,"is_reserved":false,"is_disabled":false,"rental_uris":{"android":"levelo://app?vid=5b800d39-ba23-48e7-941c-fd0fa9bc4b89","ios":"levelo://app?vid=5b800d39-ba23-48e7-941c-fd0fa9bc4b89"},"vehicle_type_id":"4","last_reported":1727705343,"current_range_meters":2800,"station_id":"ce4bgl92rcd13ifvqbq0","pricing_plan_id":"cebpf4jnsgd1na2vs0mg"},{"bike_id":"6d165c85-437f-48d3-b6d6-82357d99a12b","system_id":"levelo_inurba_marseille","lat":43.28442,"lon":5.39205,"is_reserved":false,"is_disabled":false,"rental_uris":{"android":"levelo://app?vid=6d165c85-437f-48d3-b6d6-82357d99a12b","ios":"levelo://app?vid=6d165c85-437f-48d3-b6d6-82357d99a12b"},"vehicle_type_id":"4","last_reported":1727705343,"current_range_meters":35200,"station_id":"ce4bhoh2rcd13ifvqh5g","pricing_plan_id":"cebpf4jnsgd1na2vs0mg"},{"bike_id":"1b019db2-ef06-4c36-bae6-d19a82dfd8bc","system_id":"levelo_inurba_marseille","lat":43.24077,"lon":5.37746,"is_reserved":false,"is_disabled":false,"rental_uris":{"android":"levelo://app?vid=1b019db2-ef06-4c36-bae6-d19a82dfd8bc","ios":"levelo://app?vid=1b019db2-ef06-4c36-bae6-d19a82dfd8bc"},"vehicle_type_id":"4","last_reported":1727705343,"current_range_meters":10800,"station_id":"ce4bhnp2rcd13ifvqgvg","pricing_plan_id":"cebpf4jnsgd1na2vs0mg"},{"bike_id":"daa1cf65-00c7-4433-9b4b-c23c9ed81bff","system_id":"levelo_inurba_marseille","lat":43.24801,"lon":5.3745,"is_reserved":false,"is_disabled":false,"rental_uris":{"android":"levelo://app?vid=daa1cf65-00c7-4433-9b4b-c23c9ed81bff","ios":"levelo://app?vid=daa1cf65-00c7-4433-9b4b-c23c9ed81bff"},"vehicle_type_id":"4","last_reported":1727705343,"current_range_meters":6800,"station_id":"ce4bhgh2rcd13ifvqfb0","pricing_plan_id":"cebpf4jnsgd1na2vs0mg"},{"bike_id":"1123f35f-7ca2-40da-8d0d-2660f6ddca34","system_id":"levelo_inurba_marseille","lat":43.26789,"lon":5.39425,"is_reserved":false,"is_disabled":false,"rental_uris":{"android":"levelo://app?vid=1123f35f-7ca2-40da-8d0d-2660f6ddca34","ios":"levelo://app?vid=1123f35f-7ca2-40da-8d0d-2660f6ddca34"},"vehicle_type_id":"4","last_reported":1727705343,"current_range_meters":16400,"station_id":"ce4bhh12rcd13ifvqfg0","pricing_plan_id":"cebpf4jnsgd1na2vs0mg"},{"bike_id":"4fe79afc-3295-4d2e-9ac0-984aec7f2fb8","system_id":"levelo_inurba_marseille","lat":43.29071,"lon":5.37165,"is_reserved":false,"is_disabled":false,"rental_uris":{"android":"levelo://app?vid=4fe79afc-3295-4d2e-9ac0-984aec7f2fb8","ios":"levelo://app?vid=4fe79afc-3295-4d2e-9ac0-984aec7f2fb8"},"vehicle_type_id":"4","last_reported":1727705343,"current_range_meters":38000,"station_id":"ce4bh5p2rcd13ifvqe4g","pricing_plan_id":"cebpf4jnsgd1na2vs0mg"},{"bike_id":"af8726ce-1f41-4136-ae0b-14a0449a0611","system_id":"levelo_inurba_marseille","lat":43.23971,"lon":5.36633,"is_reserved":false,"is_disabled":false,"rental_uris":{"android":"levelo://app?vid=af8726ce-1f41-4136-ae0b-14a0449a0611","ios":"levelo://app?vid=af8726ce-1f41-4136-ae0b-14a0449a0611"},"vehicle_type_id":"4","last_reported":1727705343,"current_range_meters":27600,"station_id":"ce4bhi12rcd13ifvqfp0","pricing_plan_id":"cebpf4jnsgd1na2vs0mg"},{"bike_id":"4e0767bc-a387-4078-b92c-53b47b25227f","system_id":"levelo_inurba_marseille","lat":43.24668,"lon":5.3816,"is_reserved":false,"is_disabled":false,"rental_uris":{"android":"levelo://app?vid=4e0767bc-a387-4078-b92c-53b47b25227f","ios":"levelo://app?vid=4e0767bc-a387-4078-b92c-53b47b25227f"},"vehicle_type_id":"4","last_reported":1727705343,"current_range_meters":35600,"station_id":"ce4bhih2rcd13ifvqfr0","pricing_plan_id":"cebpf4jnsgd1na2vs0mg"},{"bike_id":"6b871473-9ba4-46b0-840b-f129c7a8b550","system_id":"levelo_inurba_marseille","lat":43.26938,"lon":5.40252,"is_reserved":false,"is_disabled":false,"rental_uris":{"android":"levelo://app?vid=6b871473-9ba4-46b0-840b-f129c7a8b550","ios":"levelo://app?vid=6b871473-9ba4-46b0-840b-f129c7a8b550"},"vehicle_type_id":"4","last_reported":1727705343,"current_range_meters":17600,"station_id":"cjm6bp8fraef2m0cb0m0","pricing_plan_id":"cebpf4jnsgd1na2vs0mg"},{"bike_id":"58303d09-2231-4d94-8ee6-9f07e0a1e318","system_id":"levelo_inurba_marseille","lat":43.29894,"lon":5.43672,"is_reserved":false,"is_disabled":false,"rental_uris":{"android":"levelo://app?vid=58303d09-2231-4d94-8ee6-9f07e0a1e318","ios":"levelo://app?vid=58303d09-2231-4d94-8ee6-9f07e0a1e318"},"vehicle_type_id":"4","last_reported":1727705343,"current_range_meters":38800,"station_id":"ce4bhpp2rcd13ifvqhfg","pricing_plan_id":"cebpf4jnsgd1na2vs0mg"},{"bike_id":"5cc44958-d4c5-440b-b694-0afa9e2c3989","system_id":"levelo_inurba_marseille","lat":43.2962,"lon":5.37721,"is_reserved":false,"is_disabled":false,"rental_uris":{"android":"levelo://app?vid=5cc44958-d4c5-440b-b694-0afa9e2c3989","ios":"levelo://app?vid=5cc44958-d4c5-440b-b694-0afa9e2c3989"},"vehicle_type_id":"4","last_reported":1727705343,"current_range_meters":11200,"station_id":"ce4bgi92rcd13ifvqb90","pricing_plan_id":"cebpf4jnsgd1na2vs0mg"},{"bike_id":"f9ab2f40-2aa7-4215-b746-767e881314dc","system_id":"levelo_inurba_marseille","lat":43.30909,"lon":5.36846,"is_reserved":false,"is_disabled":false,"rental_uris":{"android":"levelo://app?vid=f9ab2f40-2aa7-4215-b746-767e881314dc","ios":"levelo://app?vid=f9ab2f40-2aa7-4215-b746-767e881314dc"},"vehicle_type_id":"4","last_reported":1727705343,"current_range_meters":22800,"station_id":"ce4bgn92rcd13ifvqbvg","pricing_plan_id":"cebpf4jnsgd1na2vs0mg"},{"bike_id":"62110c18-ba6e-4a54-8b88-fbfbaf57e32e","system_id":"levelo_inurba_marseille","lat":43.32549,"lon":5.41419,"is_reserved":false,"is_disabled":false,"rental_uris":{"android":"levelo://app?vid=62110c18-ba6e-4a54-8b88-fbfbaf57e32e","ios":"levelo://app?vid=62110c18-ba6e-4a54-8b88-fbfbaf57e32e"},"vehicle_type_id":"4","last_reported":1727705343,"current_range_meters":38800,"station_id":"ce4bhq12rcd13ifvqhhg","pricing_plan_id":"cebpf4jnsgd1na2vs0mg"},{"bike_id":"9308beda-29c1-4a26-86e5-b137a38307d2","system_id":"levelo_inurba_marseille","lat":43.25106,"lon":5.40321,"is_reserved":false,"is_disabled":false,"rental_uris":{"android":"levelo://app?vid=9308beda-29c1-4a26-86e5-b137a38307d2","ios":"levelo://app?vid=9308beda-29c1-4a26-86e5-b137a38307d2"},"vehicle_type_id":"4","last_reported":1727705343,"current_range_meters":27600,"station_id":"ce4bhlh2rcd13ifvqgig","pricing_plan_id":"cebpf4jnsgd1na2vs0mg"},{"bike_id":"0d4a15b2-3df7-4a30-a28e-5d4bc276e27e","system_id":"levelo_inurba_marseille","lat":43.295988,"lon":5.380962,"is_reserved":false,"is_disabled":false,"rental_uris":{"android":"levelo://app?vid=0d4a15b2-3df7-4a30-a28e-5d4bc276e27e","ios":"levelo://app?vid=0d4a15b2-3df7-4a30-a28e-5d4bc276e27e"},"vehicle_type_id":"4","last_reported":1727705343,"current_range_meters":7200,"station_id":"ce4bgl12rcd13ifvqbo0","pricing_plan_id":"cebpf4jnsgd1na2vs0mg"},{"bike_id":"a3bae38d-b4e8-4a43-8b45-1011df5832c0","system_id":"levelo_inurba_marseille","lat":43.30789,"lon":5.37644,"is_reserved":false,"is_disabled":false,"rental_uris":{"android":"levelo://app?vid=a3bae38d-b4e8-4a43-8b45-1011df5832c0","ios":"levelo://app?vid=a3bae38d-b4e8-4a43-8b45-1011df5832c0"},"vehicle_type_id":"4","last_reported":1727705343,"current_range_meters":24400,"station_id":"ce4bgv92rcd13ifvqcq0","pricing_plan_id":"cebpf4jnsgd1na2vs0mg"},{"bike_id":"27032e59-ac11-432d-afc2-d44964cc9639","system_id":"levelo_inurba_marseille","lat":43.31759,"lon":5.39017,"is_reserved":false,"is_disabled":false,"rental_uris":{"android":"levelo://app?vid=27032e59-ac11-432d-afc2-d44964cc9639","ios":"levelo://app?vid=27032e59-ac11-432d-afc2-d44964cc9639"},"vehicle_type_id":"4","last_reported":1727705343,"current_range_meters":8000,"station_id":"ce4bhqp2rcd13ifvqhng","pricing_plan_id":"cebpf4jnsgd1na2vs0mg"},{"bike_id":"bc45cfbe-4c9f-4e8c-bbdc-d6d36ba3a6d9","system_id":"levelo_inurba_marseille","lat":43.26932,"lon":5.40245,"is_reserved":false,"is_disabled":false,"rental_uris":{"android":"levelo://app?vid=bc45cfbe-4c9f-4e8c-bbdc-d6d36ba3a6d9","ios":"levelo://app?vid=bc45cfbe-4c9f-4e8c-bbdc-d6d36ba3a6d9"},"vehicle_type_id":"4","last_reported":1727705343,"current_range_meters":11600,"station_id":"cjm6bp8fraef2m0cb0m0","pricing_plan_id":"cebpf4jnsgd1na2vs0mg"},{"bike_id":"cc9682ce-f62f-4cdc-99b3-d8234b52a42e","system_id":"levelo_inurba_marseille","lat":43.29021,"lon":5.38129,"is_reserved":false,"is_disabled":false,"rental_uris":{"android":"levelo://app?vid=cc9682ce-f62f-4cdc-99b3-d8234b52a42e","ios":"levelo://app?vid=cc9682ce-f62f-4cdc-99b3-d8234b52a42e"},"vehicle_type_id":"4","last_reported":1727705343,"current_range_meters":6400,"station_id":"ce4bh4p2rcd13ifvqe1g","pricing_plan_id":"cebpf4jnsgd1na2vs0mg"},{"bike_id":"1a735b9c-d40d-4be1-8f17-20db92374db4","system_id":"levelo_inurba_marseille","lat":43.27997,"lon":5.40018,"is_reserved":false,"is_disabled":false,"rental_uris":{"android":"levelo://app?vid=1a735b9c-d40d-4be1-8f17-20db92374db4","ios":"levelo://app?vid=1a735b9c-d40d-4be1-8f17-20db92374db4"},"vehicle_type_id":"4","last_reported":1727705343,"current_range_meters":23200,"station_id":"ce4bho92rcd13ifvqh4g","pricing_plan_id":"cebpf4jnsgd1na2vs0mg"},{"bike_id":"18bd0101-baec-4df5-aea8-6b5390ae0786","system_id":"levelo_inurba_marseille","lat":43.23182,"lon":5.39988,"is_reserved":false,"is_disabled":false,"rental_uris":{"android":"levelo://app?vid=18bd0101-baec-4df5-aea8-6b5390ae0786","ios":"levelo://app?vid=18bd0101-baec-4df5-aea8-6b5390ae0786"},"vehicle_type_id":"4","last_reported":1727705343,"current_range_meters":22000,"station_id":"ce4bhn12rcd13ifvqgqg","pricing_plan_id":"cebpf4jnsgd1na2vs0mg"},{"bike_id":"229a8995-1e93-493b-b5e4-4d38a62aeedc","system_id":"levelo_inurba_marseille","lat":43.30327,"lon":5.40448,"is_reserved":false,"is_disabled":false,"rental_uris":{"android":"levelo://app?vid=229a8995-1e93-493b-b5e4-4d38a62aeedc","ios":"levelo://app?vid=229a8995-1e93-493b-b5e4-4d38a62aeedc"},"vehicle_type_id":"4","last_reported":1727705343,"current_range_meters":19200,"station_id":"ce4bh012rcd13ifvqd10","pricing_plan_id":"cebpf4jnsgd1na2vs0mg"},{"bike_id":"560eec86-d20e-4632-be2b-0f04c3e3f7f0","system_id":"levelo_inurba_marseille","lat":43.27069,"lon":5.42277,"is_reserved":false,"is_disabled":false,"rental_uris":{"android":"levelo://app?vid=560eec86-d20e-4632-be2b-0f04c3e3f7f0","ios":"levelo://app?vid=560eec86-d20e-4632-be2b-0f04c3e3f7f0"},"vehicle_type_id":"4","last_reported":1727705343,"current_range_meters":28400,"station_id":"ce4bhk92rcd13ifvqgb0","pricing_plan_id":"cebpf4jnsgd1na2vs0mg"},{"bike_id":"791778cb-b9b1-46da-80e8-ce0940cdd61d","system_id":"levelo_inurba_marseille","lat":43.23188,"lon":5.35547,"is_reserved":false,"is_disabled":false,"rental_uris":{"android":"levelo://app?vid=791778cb-b9b1-46da-80e8-ce0940cdd61d","ios":"levelo://app?vid=791778cb-b9b1-46da-80e8-ce0940cdd61d"},"vehicle_type_id":"4","last_reported":1727705343,"current_range_meters":10000,"station_id":"ce4bhu92rcd13ifvqi70","pricing_plan_id":"cebpf4jnsgd1na2vs0mg"},{"bike_id":"c91b2253-767b-4237-82bc-49763653b489","system_id":"levelo_inurba_marseille","lat":43.30412,"lon":5.41276,"is_reserved":false,"is_disabled":false,"rental_uris":{"android":"levelo://app?vid=c91b2253-767b-4237-82bc-49763653b489","ios":"levelo://app?vid=c91b2253-767b-4237-82bc-49763653b489"},"vehicle_type_id":"4","last_reported":1727705343,"current_range_meters":40000,"station_id":"ce4bhop2rcd13ifvqh8g","pricing_plan_id":"cebpf4jnsgd1na2vs0mg"},{"bike_id":"0569ffd9-5d73-439a-979a-a1c88b9a1061","system_id":"levelo_inurba_marseille","lat":43.32914,"lon":5.39046,"is_reserved":false,"is_disabled":false,"rental_uris":{"android":"levelo://app?vid=0569ffd9-5d73-439a-979a-a1c88b9a1061","ios":"levelo://app?vid=0569ffd9-5d73-439a-979a-a1c88b9a1061"},"vehicle_type_id":"4","last_reported":1727705343,"current_range_meters":32400,"station_id":"","pricing_plan_id":"cebpf4jnsgd1na2vs0mg"},{"bike_id":"32a72ace-84a7-4deb-bd85-9c28afc1475a","system_id":"levelo_inurba_marseille","lat":43.283966,"lon":5.350033,"is_reserved":false,"is_disabled":false,"rental_uris":{"android":"levelo://app?vid=32a72ace-84a7-4deb-bd85-9c28afc1475a","ios":"levelo://app?vid=32a72ace-84a7-4deb-bd85-9c28afc1475a"},"vehicle_type_id":"4","last_reported":1727705343,"current_range_meters":20800,"station_id":"ce4bhbh2rcd13ifvqepg","pricing_plan_id":"cebpf4jnsgd1na2vs0mg"},{"bike_id":"b513442b-6c10-4d05-9961-8edafb74c6b5","system_id":"levelo_inurba_marseille","lat":43.29042,"lon":5.35916,"is_reserved":false,"is_disabled":false,"rental_uris":{"android":"levelo://app?vid=b513442b-6c10-4d05-9961-8edafb74c6b5","ios":"levelo://app?vid=b513442b-6c10-4d05-9961-8edafb74c6b5"},"vehicle_type_id":"4","last_reported":1727705343,"current_range_meters":25200,"station_id":"ce4bha92rcd13ifvqeg0","pricing_plan_id":"cebpf4jnsgd1na2vs0mg"},{"bike_id":"80e06d63-e4bc-451b-a7e9-c06cc1bc640e","system_id":"levelo_inurba_marseille","lat":43.27076,"lon":5.42274,"is_reserved":false,"is_disabled":false,"rental_uris":{"android":"levelo://app?vid=80e06d63-e4bc-451b-a7e9-c06cc1bc640e","ios":"levelo://app?vid=80e06d63-e4bc-451b-a7e9-c06cc1bc640e"},"vehicle_type_id":"4","last_reported":1727705343,"current_range_meters":14800,"station_id":"ce4bhk92rcd13ifvqgb0","pricing_plan_id":"cebpf4jnsgd1na2vs0mg"},{"bike_id":"29cd1976-89d1-43cb-84d2-80e4439db4b1","system_id":"levelo_inurba_marseille","lat":43.31226,"lon":5.36854,"is_reserved":false,"is_disabled":false,"rental_uris":{"android":"levelo://app?vid=29cd1976-89d1-43cb-84d2-80e4439db4b1","ios":"levelo://app?vid=29cd1976-89d1-43cb-84d2-80e4439db4b1"},"vehicle_type_id":"4","last_reported":1727705343,"current_range_meters":39200,"station_id":"ce4bgl92rcd13ifvqbq0","pricing_plan_id":"cebpf4jnsgd1na2vs0mg"},{"bike_id":"16fc051d-3f01-4e92-88a2-13d238376482","system_id":"levelo_inurba_marseille","lat":43.2407,"lon":5.37761,"is_reserved":false,"is_disabled":false,"rental_uris":{"android":"levelo://app?vid=16fc051d-3f01-4e92-88a2-13d238376482","ios":"levelo://app?vid=16fc051d-3f01-4e92-88a2-13d238376482"},"vehicle_type_id":"4","last_reported":1727705343,"current_range_meters":36000,"station_id":"ce4bhnp2rcd13ifvqgvg","pricing_plan_id":"cebpf4jnsgd1na2vs0mg"},{"bike_id":"961527de-0319-4837-b48d-628132b8d085","system_id":"levelo_inurba_marseille","lat":43.2992,"lon":5.36536,"is_reserved":false,"is_disabled":false,"rental_uris":{"android":"levelo://app?vid=961527de-0319-4837-b48d-628132b8d085","ios":"levelo://app?vid=961527de-0319-4837-b48d-628132b8d085"},"vehicle_type_id":"4","last_reported":1727705343,"current_range_meters":30800,"station_id":"ce4bgm92rcd13ifvqbr0","pricing_plan_id":"cebpf4jnsgd1na2vs0mg"},{"bike_id":"66270a4b-d009-417d-807c-5bc170647e9b","system_id":"levelo_inurba_marseille","lat":43.33761,"lon":5.37456,"is_reserved":false,"is_disabled":false,"rental_uris":{"android":"levelo://app?vid=66270a4b-d009-417d-807c-5bc170647e9b","ios":"levelo://app?vid=66270a4b-d009-417d-807c-5bc170647e9b"},"vehicle_type_id":"4","last_reported":1727705343,"current_range_meters":38800,"station_id":"","pricing_plan_id":"cebpf4jnsgd1na2vs0mg"},{"bike_id":"bd86acbb-18ff-4457-8d99-e11793cb14a0","system_id":"levelo_inurba_marseille","lat":43.27082,"lon":5.42275,"is_reserved":false,"is_disabled":false,"rental_uris":{"android":"levelo://app?vid=bd86acbb-18ff-4457-8d99-e11793cb14a0","ios":"levelo://app?vid=bd86acbb-18ff-4457-8d99-e11793cb14a0"},"vehicle_type_id":"4","last_reported":1727705343,"current_range_meters":30800,"station_id":"ce4bhk92rcd13ifvqgb0","pricing_plan_id":"cebpf4jnsgd1na2vs0mg"},{"bike_id":"53b8b279-3e36-4185-b3b0-4688e1a414fb","system_id":"levelo_inurba_marseille","lat":43.28422,"lon":5.34968,"is_reserved":false,"is_disabled":false,"rental_uris":{"android":"levelo://app?vid=53b8b279-3e36-4185-b3b0-4688e1a414fb","ios":"levelo://app?vid=53b8b279-3e36-4185-b3b0-4688e1a414fb"},"vehicle_type_id":"4","last_reported":1727705343,"current_range_meters":36000,"station_id":"ce4bhbh2rcd13ifvqepg","pricing_plan_id":"cebpf4jnsgd1na2vs0mg"},{"bike_id":"f9386532-3b5b-4c20-8869-0bafd7a7edfc","system_id":"levelo_inurba_marseille","lat":43.2606,"lon":5.394,"is_reserved":false,"is_disabled":false,"rental_uris":{"android":"levelo://app?vid=f9386532-3b5b-4c20-8869-0bafd7a7edfc","ios":"levelo://app?vid=f9386532-3b5b-4c20-8869-0bafd7a7edfc"},"vehicle_type_id":"4","last_reported":1727705343,"current_range_meters":6000,"station_id":"ce4bhh92rcd13ifvqfj0","pricing_plan_id":"cebpf4jnsgd1na2vs0mg"},{"bike_id":"7ebef0d5-ad33-4431-ac87-a11795f91fb2","system_id":"levelo_inurba_marseille","lat":43.31762,"lon":5.39013,"is_reserved":false,"is_disabled":false,"rental_uris":{"android":"levelo://app?vid=7ebef0d5-ad33-4431-ac87-a11795f91fb2","ios":"levelo://app?vid=7ebef0d5-ad33-4431-ac87-a11795f91fb2"},"vehicle_type_id":"4","last_reported":1727705343,"current_range_meters":18000,"station_id":"ce4bhqp2rcd13ifvqhng","pricing_plan_id":"cebpf4jnsgd1na2vs0mg"},{"bike_id":"d99f5454-23eb-4300-94f4-1c3fcbdbd56b","system_id":"levelo_inurba_marseille","lat":43.29055,"lon":5.35899,"is_reserved":false,"is_disabled":false,"rental_uris":{"android":"levelo://app?vid=d99f5454-23eb-4300-94f4-1c3fcbdbd56b","ios":"levelo://app?vid=d99f5454-23eb-4300-94f4-1c3fcbdbd56b"},"vehicle_type_id":"4","last_reported":1727705343,"current_range_meters":21600,"station_id":"ce4bha92rcd13ifvqeg0","pricing_plan_id":"cebpf4jnsgd1na2vs0mg"},{"bike_id":"b5287088-8145-4a2d-aba3-2d3c6aacbb87","system_id":"levelo_inurba_marseille","lat":43.23966,"lon":5.36639,"is_reserved":false,"is_disabled":false,"rental_uris":{"android":"levelo://app?vid=b5287088-8145-4a2d-aba3-2d3c6aacbb87","ios":"levelo://app?vid=b5287088-8145-4a2d-aba3-2d3c6aacbb87"},"vehicle_type_id":"4","last_reported":1727705343,"current_range_meters":36000,"station_id":"ce4bhi12rcd13ifvqfp0","pricing_plan_id":"cebpf4jnsgd1na2vs0mg"},{"bike_id":"85b66089-f5dc-40c1-a0b9-5b724c307c5f","system_id":"levelo_inurba_marseille","lat":43.28604,"lon":5.37068,"is_reserved":false,"is_disabled":false,"rental_uris":{"android":"levelo://app?vid=85b66089-f5dc-40c1-a0b9-5b724c307c5f","ios":"levelo://app?vid=85b66089-f5dc-40c1-a0b9-5b724c307c5f"},"vehicle_type_id":"4","last_reported":1727705343,"current_range_meters":24400,"station_id":"ce4bht12rcd13ifvqi60","pricing_plan_id":"cebpf4jnsgd1na2vs0mg"},{"bike_id":"dada2e4e-abd2-4f50-8ed4-99353f472f46","system_id":"levelo_inurba_marseille","lat":43.28936,"lon":5.36635,"is_reserved":false,"is_disabled":false,"rental_uris":{"android":"levelo://app?vid=dada2e4e-abd2-4f50-8ed4-99353f472f46","ios":"levelo://app?vid=dada2e4e-abd2-4f50-8ed4-99353f472f46"},"vehicle_type_id":"4","last_reported":1727705343,"current_range_meters":24800,"station_id":"ce4bhap2rcd13ifvqek0","pricing_plan_id":"cebpf4jnsgd1na2vs0mg"},{"bike_id":"4b8c8b27-48ee-4f45-b57e-738460c2fbb7","system_id":"levelo_inurba_marseille","lat":43.33748,"lon":5.37423,"is_reserved":false,"is_disabled":false,"rental_uris":{"android":"levelo://app?vid=4b8c8b27-48ee-4f45-b57e-738460c2fbb7","ios":"levelo://app?vid=4b8c8b27-48ee-4f45-b57e-738460c2fbb7"},"vehicle_type_id":"4","last_reported":1727705343,"current_range_meters":37600,"station_id":"","pricing_plan_id":"cebpf4jnsgd1na2vs0mg"},{"bike_id":"9f8f2862-e867-455a-a1ee-83c1fb19a77c","system_id":"levelo_inurba_marseille","lat":43.29193,"lon":5.3934,"is_reserved":false,"is_disabled":false,"rental_uris":{"android":"levelo://app?vid=9f8f2862-e867-455a-a1ee-83c1fb19a77c","ios":"levelo://app?vid=9f8f2862-e867-455a-a1ee-83c1fb19a77c"},"vehicle_type_id":"4","last_reported":1727705343,"current_range_meters":4400,"station_id":"ce4bh192rcd13ifvqdd0","pricing_plan_id":"cebpf4jnsgd1na2vs0mg"},{"bike_id":"3a1bb991-d927-4e42-83c7-80db4be539f3","system_id":"levelo_inurba_marseille","lat":43.31073,"lon":5.38355,"is_reserved":false,"is_disabled":false,"rental_uris":{"android":"levelo://app?vid=3a1bb991-d927-4e42-83c7-80db4be539f3","ios":"levelo://app?vid=3a1bb991-d927-4e42-83c7-80db4be539f3"},"vehicle_type_id":"4","last_reported":1727705343,"current_range_meters":10000,"station_id":"ce4bgv92rcd13ifvqcr0","pricing_plan_id":"cebpf4jnsgd1na2vs0mg"},{"bike_id":"3c181315-3d74-4c3b-9d25-12dc6c7bc173","system_id":"levelo_inurba_marseille","lat":43.24078,"lon":5.37756,"is_reserved":false,"is_disabled":false,"rental_uris":{"android":"levelo://app?vid=3c181315-3d74-4c3b-9d25-12dc6c7bc173","ios":"levelo://app?vid=3c181315-3d74-4c3b-9d25-12dc6c7bc173"},"vehicle_type_id":"4","last_reported":1727705343,"current_range_meters":19200,"station_id":"ce4bhnp2rcd13ifvqgvg","pricing_plan_id":"cebpf4jnsgd1na2vs0mg"},{"bike_id":"1e79c019-699e-428e-8425-e4cd5fa054f5","system_id":"levelo_inurba_marseille","lat":43.29607,"lon":5.38098,"is_reserved":false,"is_disabled":false,"rental_uris":{"android":"levelo://app?vid=1e79c019-699e-428e-8425-e4cd5fa054f5","ios":"levelo://app?vid=1e79c019-699e-428e-8425-e4cd5fa054f5"},"vehicle_type_id":"4","last_reported":1727705343,"current_range_meters":38000,"station_id":"ce4bgl12rcd13ifvqbo0","pricing_plan_id":"cebpf4jnsgd1na2vs0mg"},{"bike_id":"4e5e68f5-b33a-47a3-84a3-2efaa50bda97","system_id":"levelo_inurba_marseille","lat":43.24073,"lon":5.37758,"is_reserved":false,"is_disabled":false,"rental_uris":{"android":"levelo://app?vid=4e5e68f5-b33a-47a3-84a3-2efaa50bda97","ios":"levelo://app?vid=4e5e68f5-b33a-47a3-84a3-2efaa50bda97"},"vehicle_type_id":"4","last_reported":1727705343,"current_range_meters":23200,"station_id":"ce4bhnp2rcd13ifvqgvg","pricing_plan_id":"cebpf4jnsgd1na2vs0mg"},{"bike_id":"f3f00dbf-323a-42a8-ace3-4a4195aa797c","system_id":"levelo_inurba_marseille","lat":43.27901,"lon":5.37992,"is_reserved":false,"is_disabled":false,"rental_uris":{"android":"levelo://app?vid=f3f00dbf-323a-42a8-ace3-4a4195aa797c","ios":"levelo://app?vid=f3f00dbf-323a-42a8-ace3-4a4195aa797c"},"vehicle_type_id":"4","last_reported":1727705343,"current_range_meters":38400,"station_id":"ce4bhf92rcd13ifvqf50","pricing_plan_id":"cebpf4jnsgd1na2vs0mg"},{"bike_id":"17d035c5-71ce-4fa9-90b6-5ab84038bb5b","system_id":"levelo_inurba_marseille","lat":43.31222,"lon":5.36847,"is_reserved":false,"is_disabled":false,"rental_uris":{"android":"levelo://app?vid=17d035c5-71ce-4fa9-90b6-5ab84038bb5b","ios":"levelo://app?vid=17d035c5-71ce-4fa9-90b6-5ab84038bb5b"},"vehicle_type_id":"4","last_reported":1727705343,"current_range_meters":12800,"station_id":"ce4bgl92rcd13ifvqbq0","pricing_plan_id":"cebpf4jnsgd1na2vs0mg"},{"bike_id":"506065c9-a261-470c-8a02-26fb6f0ed83c","system_id":"levelo_inurba_marseille","lat":43.30778,"lon":5.37652,"is_reserved":false,"is_disabled":false,"rental_uris":{"android":"levelo://app?vid=506065c9-a261-470c-8a02-26fb6f0ed83c","ios":"levelo://app?vid=506065c9-a261-470c-8a02-26fb6f0ed83c"},"vehicle_type_id":"4","last_reported":1727705343,"current_range_meters":39200,"station_id":"ce4bgv92rcd13ifvqcq0","pricing_plan_id":"cebpf4jnsgd1na2vs0mg"},{"bike_id":"92be9d82-e1e4-44e3-ae49-4dc29f4f43a2","system_id":"levelo_inurba_marseille","lat":43.28849,"lon":5.39306,"is_reserved":false,"is_disabled":false,"rental_uris":{"android":"levelo://app?vid=92be9d82-e1e4-44e3-ae49-4dc29f4f43a2","ios":"levelo://app?vid=92be9d82-e1e4-44e3-ae49-4dc29f4f43a2"},"vehicle_type_id":"4","last_reported":1727705343,"current_range_meters":36400,"station_id":"ce4bh2p2rcd13ifvqdi0","pricing_plan_id":"cebpf4jnsgd1na2vs0mg"},{"bike_id":"b331d5f9-f345-4cc8-90d0-d256d6a2c75a","system_id":"levelo_inurba_marseille","lat":43.30891,"lon":5.39638,"is_reserved":false,"is_disabled":false,"rental_uris":{"android":"levelo://app?vid=b331d5f9-f345-4cc8-90d0-d256d6a2c75a","ios":"levelo://app?vid=b331d5f9-f345-4cc8-90d0-d256d6a2c75a"},"vehicle_type_id":"4","last_reported":1727705343,"current_range_meters":33200,"station_id":"ce4bh012rcd13ifvqcv0","pricing_plan_id":"cebpf4jnsgd1na2vs0mg"},{"bike_id":"58eab6e4-00e6-4470-a933-0797b3ebe7f3","system_id":"levelo_inurba_marseille","lat":43.29901,"lon":5.43661,"is_reserved":false,"is_disabled":false,"rental_uris":{"android":"levelo://app?vid=58eab6e4-00e6-4470-a933-0797b3ebe7f3","ios":"levelo://app?vid=58eab6e4-00e6-4470-a933-0797b3ebe7f3"},"vehicle_type_id":"4","last_reported":1727705343,"current_range_meters":38800,"station_id":"ce4bhpp2rcd13ifvqhfg","pricing_plan_id":"cebpf4jnsgd1na2vs0mg"},{"bike_id":"bce9309b-864a-4e01-a757-a4db2cf43fcc","system_id":"levelo_inurba_marseille","lat":43.29039,"lon":5.39956,"is_reserved":false,"is_disabled":false,"rental_uris":{"android":"levelo://app?vid=bce9309b-864a-4e01-a757-a4db2cf43fcc","ios":"levelo://app?vid=bce9309b-864a-4e01-a757-a4db2cf43fcc"},"vehicle_type_id":"4","last_reported":1727705343,"current_range_meters":38000,"station_id":"ce4bh392rcd13ifvqdm0","pricing_plan_id":"cebpf4jnsgd1na2vs0mg"},{"bike_id":"695de4c6-5013-4c99-b380-17d1a5661ab0","system_id":"levelo_inurba_marseille","lat":43.29598,"lon":5.38099,"is_reserved":false,"is_disabled":false,"rental_uris":{"android":"levelo://app?vid=695de4c6-5013-4c99-b380-17d1a5661ab0","ios":"levelo://app?vid=695de4c6-5013-4c99-b380-17d1a5661ab0"},"vehicle_type_id":"4","last_reported":1727705343,"current_range_meters":28400,"station_id":"ce4bgl12rcd13ifvqbo0","pricing_plan_id":"cebpf4jnsgd1na2vs0mg"},{"bike_id":"c401dba4-1723-41b5-8245-09382eea96a2","system_id":"levelo_inurba_marseille","lat":43.28613,"lon":5.35102,"is_reserved":false,"is_disabled":false,"rental_uris":{"android":"levelo://app?vid=c401dba4-1723-41b5-8245-09382eea96a2","ios":"levelo://app?vid=c401dba4-1723-41b5-8245-09382eea96a2"},"vehicle_type_id":"4","last_reported":1727705343,"current_range_meters":28800,"station_id":"ce4bhch2rcd13ifvqeug","pricing_plan_id":"cebpf4jnsgd1na2vs0mg"},{"bike_id":"137d478a-69d8-4b77-ad5f-e7af690c0925","system_id":"levelo_inurba_marseille","lat":43.24082,"lon":5.37744,"is_reserved":false,"is_disabled":false,"rental_uris":{"android":"levelo://app?vid=137d478a-69d8-4b77-ad5f-e7af690c0925","ios":"levelo://app?vid=137d478a-69d8-4b77-ad5f-e7af690c0925"},"vehicle_type_id":"4","last_reported":1727705343,"current_range_meters":7200,"station_id":"ce4bhnp2rcd13ifvqgvg","pricing_plan_id":"cebpf4jnsgd1na2vs0mg"},{"bike_id":"318262dc-85f7-4629-9884-6167fafac465","system_id":"levelo_inurba_marseille","lat":43.23155,"lon":5.43699,"is_reserved":false,"is_disabled":false,"rental_uris":{"android":"levelo://app?vid=318262dc-85f7-4629-9884-6167fafac465","ios":"levelo://app?vid=318262dc-85f7-4629-9884-6167fafac465"},"vehicle_type_id":"4","last_reported":1727705343,"current_range_meters":36400,"station_id":"ce4bhmp2rcd13ifvqgog","pricing_plan_id":"cebpf4jnsgd1na2vs0mg"},{"bike_id":"34dbaa2a-84b7-4001-9052-fbf4609a0fd5","system_id":"levelo_inurba_marseille","lat":43.29188,"lon":5.39317,"is_reserved":false,"is_disabled":false,"rental_uris":{"android":"levelo://app?vid=34dbaa2a-84b7-4001-9052-fbf4609a0fd5","ios":"levelo://app?vid=34dbaa2a-84b7-4001-9052-fbf4609a0fd5"},"vehicle_type_id":"4","last_reported":1727705343,"current_range_meters":36000,"station_id":"ce4bh192rcd13ifvqdd0","pricing_plan_id":"cebpf4jnsgd1na2vs0mg"},{"bike_id":"7977a9c9-5512-4fa7-9026-3e7c33952b44","system_id":"levelo_inurba_marseille","lat":43.267177,"lon":5.401432,"is_reserved":false,"is_disabled":false,"rental_uris":{"android":"levelo://app?vid=7977a9c9-5512-4fa7-9026-3e7c33952b44","ios":"levelo://app?vid=7977a9c9-5512-4fa7-9026-3e7c33952b44"},"vehicle_type_id":"4","last_reported":1727705343,"current_range_meters":18000,"station_id":"ce4bhm92rcd13ifvqglg","pricing_plan_id":"cebpf4jnsgd1na2vs0mg"},{"bike_id":"1d286a80-5997-43a6-9676-c9bc8437cf0c","system_id":"levelo_inurba_marseille","lat":43.2511,"lon":5.40328,"is_reserved":false,"is_disabled":false,"rental_uris":{"android":"levelo://app?vid=1d286a80-5997-43a6-9676-c9bc8437cf0c","ios":"levelo://app?vid=1d286a80-5997-43a6-9676-c9bc8437cf0c"},"vehicle_type_id":"4","last_reported":1727705343,"current_range_meters":36800,"station_id":"ce4bhlh2rcd13ifvqgig","pricing_plan_id":"cebpf4jnsgd1na2vs0mg"},{"bike_id":"c71238f9-2ef0-49ca-9ab9-2be29d8549d8","system_id":"levelo_inurba_marseille","lat":43.31365,"lon":5.38498,"is_reserved":false,"is_disabled":false,"rental_uris":{"android":"levelo://app?vid=c71238f9-2ef0-49ca-9ab9-2be29d8549d8","ios":"levelo://app?vid=c71238f9-2ef0-49ca-9ab9-2be29d8549d8"},"vehicle_type_id":"4","last_reported":1727705343,"current_range_meters":36000,"station_id":"ce4bgt92rcd13ifvqcf0","pricing_plan_id":"cebpf4jnsgd1na2vs0mg"},{"bike_id":"8a481097-b464-44ad-b01c-03ed9d3b832d","system_id":"levelo_inurba_marseille","lat":43.28038,"lon":5.3695,"is_reserved":false,"is_disabled":false,"rental_uris":{"android":"levelo://app?vid=8a481097-b464-44ad-b01c-03ed9d3b832d","ios":"levelo://app?vid=8a481097-b464-44ad-b01c-03ed9d3b832d"},"vehicle_type_id":"4","last_reported":1727705343,"current_range_meters":33600,"station_id":"ce4bha12rcd13ifvqef0","pricing_plan_id":"cebpf4jnsgd1na2vs0mg"},{"bike_id":"66481cd4-b042-4898-8cd4-5db39228bde7","system_id":"levelo_inurba_marseille","lat":43.24657,"lon":5.38159,"is_reserved":false,"is_disabled":false,"rental_uris":{"android":"levelo://app?vid=66481cd4-b042-4898-8cd4-5db39228bde7","ios":"levelo://app?vid=66481cd4-b042-4898-8cd4-5db39228bde7"},"vehicle_type_id":"4","last_reported":1727705343,"current_range_meters":4400,"station_id":"ce4bhih2rcd13ifvqfr0","pricing_plan_id":"cebpf4jnsgd1na2vs0mg"},{"bike_id":"9aa714ff-32ac-45c6-9230-72549b98afe2","system_id":"levelo_inurba_marseille","lat":43.27944,"lon":5.41042,"is_reserved":false,"is_disabled":false,"rental_uris":{"android":"levelo://app?vid=9aa714ff-32ac-45c6-9230-72549b98afe2","ios":"levelo://app?vid=9aa714ff-32ac-45c6-9230-72549b98afe2"},"vehicle_type_id":"4","last_reported":1727705343,"current_range_meters":4800,"station_id":"ce4bhnp2rcd13ifvqh0g","pricing_plan_id":"cebpf4jnsgd1na2vs0mg"},{"bike_id":"198c6525-69f6-4d89-bcbd-1175e992d462","system_id":"levelo_inurba_marseille","lat":43.33753,"lon":5.37435,"is_reserved":false,"is_disabled":false,"rental_uris":{"android":"levelo://app?vid=198c6525-69f6-4d89-bcbd-1175e992d462","ios":"levelo://app?vid=198c6525-69f6-4d89-bcbd-1175e992d462"},"vehicle_type_id":"4","last_reported":1727705343,"current_range_meters":36400,"station_id":"","pricing_plan_id":"cebpf4jnsgd1na2vs0mg"},{"bike_id":"a826e2aa-a58b-4ac2-a99f-71ac85355247","system_id":"levelo_inurba_marseille","lat":43.30884,"lon":5.37197,"is_reserved":false,"is_disabled":false,"rental_uris":{"android":"levelo://app?vid=a826e2aa-a58b-4ac2-a99f-71ac85355247","ios":"levelo://app?vid=a826e2aa-a58b-4ac2-a99f-71ac85355247"},"vehicle_type_id":"4","last_reported":1727705343,"current_range_meters":33600,"station_id":"ce4bguh2rcd13ifvqckg","pricing_plan_id":"cebpf4jnsgd1na2vs0mg"},{"bike_id":"3fdebe24-883a-4fd4-b163-8eb8e45c6b23","system_id":"levelo_inurba_marseille","lat":43.28364,"lon":5.38638,"is_reserved":false,"is_disabled":false,"rental_uris":{"android":"levelo://app?vid=3fdebe24-883a-4fd4-b163-8eb8e45c6b23","ios":"levelo://app?vid=3fdebe24-883a-4fd4-b163-8eb8e45c6b23"},"vehicle_type_id":"4","last_reported":1727705343,"current_range_meters":26000,"station_id":"ce4bh492rcd13ifvqdvg","pricing_plan_id":"cebpf4jnsgd1na2vs0mg"},{"bike_id":"0079a2ab-35ac-44a9-a3fb-2b221435dedf","system_id":"levelo_inurba_marseille","lat":43.2407,"lon":5.37762,"is_reserved":false,"is_disabled":false,"rental_uris":{"android":"levelo://app?vid=0079a2ab-35ac-44a9-a3fb-2b221435dedf","ios":"levelo://app?vid=0079a2ab-35ac-44a9-a3fb-2b221435dedf"},"vehicle_type_id":"4","last_reported":1727705343,"current_range_meters":17600,"station_id":"ce4bhnp2rcd13ifvqgvg","pricing_plan_id":"cebpf4jnsgd1na2vs0mg"},{"bike_id":"e333d9dd-0090-46f9-a1a4-1c15628fa9d1","system_id":"levelo_inurba_marseille","lat":43.33758,"lon":5.37451,"is_reserved":false,"is_disabled":false,"rental_uris":{"android":"levelo://app?vid=e333d9dd-0090-46f9-a1a4-1c15628fa9d1","ios":"levelo://app?vid=e333d9dd-0090-46f9-a1a4-1c15628fa9d1"},"vehicle_type_id":"4","last_reported":1727705343,"current_range_meters":29600,"station_id":"","pricing_plan_id":"cebpf4jnsgd1na2vs0mg"},{"bike_id":"b98c0ab9-0367-4eb2-a7bd-6f4abbeb0e08","system_id":"levelo_inurba_marseille","lat":43.28157,"lon":5.42646,"is_reserved":false,"is_disabled":false,"rental_uris":{"android":"levelo://app?vid=b98c0ab9-0367-4eb2-a7bd-6f4abbeb0e08","ios":"levelo://app?vid=b98c0ab9-0367-4eb2-a7bd-6f4abbeb0e08"},"vehicle_type_id":"4","last_reported":1727705343,"current_range_meters":13600,"station_id":"ce4bhnh2rcd13ifvqgug","pricing_plan_id":"cebpf4jnsgd1na2vs0mg"},{"bike_id":"74479432-8491-41df-b67e-3d5fce6ca1e0","system_id":"levelo_inurba_marseille","lat":43.33738,"lon":5.37457,"is_reserved":false,"is_disabled":false,"rental_uris":{"android":"levelo://app?vid=74479432-8491-41df-b67e-3d5fce6ca1e0","ios":"levelo://app?vid=74479432-8491-41df-b67e-3d5fce6ca1e0"},"vehicle_type_id":"4","last_reported":1727705343,"current_range_meters":33200,"station_id":"","pricing_plan_id":"cebpf4jnsgd1na2vs0mg"},{"bike_id":"a067b808-3abd-41c3-b93e-0ad93d072100","system_id":"levelo_inurba_marseille","lat":43.2481,"lon":5.37457,"is_reserved":false,"is_disabled":false,"rental_uris":{"android":"levelo://app?vid=a067b808-3abd-41c3-b93e-0ad93d072100","ios":"levelo://app?vid=a067b808-3abd-41c3-b93e-0ad93d072100"},"vehicle_type_id":"4","last_reported":1727705343,"current_range_meters":11600,"station_id":"ce4bhgh2rcd13ifvqfb0","pricing_plan_id":"cebpf4jnsgd1na2vs0mg"},{"bike_id":"87dec603-f582-4cdd-bcb5-d6c85b8852bf","system_id":"levelo_inurba_marseille","lat":43.24663,"lon":5.38162,"is_reserved":false,"is_disabled":false,"rental_uris":{"android":"levelo://app?vid=87dec603-f582-4cdd-bcb5-d6c85b8852bf","ios":"levelo://app?vid=87dec603-f582-4cdd-bcb5-d6c85b8852bf"},"vehicle_type_id":"4","last_reported":1727705343,"current_range_meters":28000,"station_id":"ce4bhih2rcd13ifvqfr0","pricing_plan_id":"cebpf4jnsgd1na2vs0mg"},{"bike_id":"6c15b6fe-f957-44b9-9482-3e1638347433","system_id":"levelo_inurba_marseille","lat":43.2931,"lon":5.37186,"is_reserved":false,"is_disabled":false,"rental_uris":{"android":"levelo://app?vid=6c15b6fe-f957-44b9-9482-3e1638347433","ios":"levelo://app?vid=6c15b6fe-f957-44b9-9482-3e1638347433"},"vehicle_type_id":"4","last_reported":1727705343,"current_range_meters":21600,"station_id":"ce4bgh92rcd13ifvqb40","pricing_plan_id":"cebpf4jnsgd1na2vs0mg"},{"bike_id":"5f5feaf6-953c-4ab3-b1b9-502fc5ee8b0f","system_id":"levelo_inurba_marseille","lat":43.23194,"lon":5.35556,"is_reserved":false,"is_disabled":false,"rental_uris":{"android":"levelo://app?vid=5f5feaf6-953c-4ab3-b1b9-502fc5ee8b0f","ios":"levelo://app?vid=5f5feaf6-953c-4ab3-b1b9-502fc5ee8b0f"},"vehicle_type_id":"4","last_reported":1727705343,"current_range_meters":18800,"station_id":"ce4bhu92rcd13ifvqi70","pricing_plan_id":"cebpf4jnsgd1na2vs0mg"},{"bike_id":"757306db-bc8b-4147-85a6-62da2b338c0f","system_id":"levelo_inurba_marseille","lat":43.25725,"lon":5.41111,"is_reserved":false,"is_disabled":false,"rental_uris":{"android":"levelo://app?vid=757306db-bc8b-4147-85a6-62da2b338c0f","ios":"levelo://app?vid=757306db-bc8b-4147-85a6-62da2b338c0f"},"vehicle_type_id":"4","last_reported":1727705343,"current_range_meters":24400,"station_id":"ce4bhkp2rcd13ifvqgd0","pricing_plan_id":"cebpf4jnsgd1na2vs0mg"},{"bike_id":"917e5486-e110-4358-a075-527001b4be1e","system_id":"levelo_inurba_marseille","lat":43.25585,"lon":5.38234,"is_reserved":false,"is_disabled":false,"rental_uris":{"android":"levelo://app?vid=917e5486-e110-4358-a075-527001b4be1e","ios":"levelo://app?vid=917e5486-e110-4358-a075-527001b4be1e"},"vehicle_type_id":"4","last_reported":1727705343,"current_range_meters":18000,"station_id":"ce4bhih2rcd13ifvqfs0","pricing_plan_id":"cebpf4jnsgd1na2vs0mg"},{"bike_id":"cca31004-19ce-4e6e-b4c1-3ee676597893","system_id":"levelo_inurba_marseille","lat":43.24655,"lon":5.38894,"is_reserved":false,"is_disabled":false,"rental_uris":{"android":"levelo://app?vid=cca31004-19ce-4e6e-b4c1-3ee676597893","ios":"levelo://app?vid=cca31004-19ce-4e6e-b4c1-3ee676597893"},"vehicle_type_id":"4","last_reported":1727705343,"current_range_meters":17600,"station_id":"ce4bhg12rcd13ifvqf60","pricing_plan_id":"cebpf4jnsgd1na2vs0mg"},{"bike_id":"cf33b555-cac1-43f8-89f7-e84b64897cfd","system_id":"levelo_inurba_marseille","lat":43.28381,"lon":5.3729,"is_reserved":false,"is_disabled":false,"rental_uris":{"android":"levelo://app?vid=cf33b555-cac1-43f8-89f7-e84b64897cfd","ios":"levelo://app?vid=cf33b555-cac1-43f8-89f7-e84b64897cfd"},"vehicle_type_id":"4","last_reported":1727705343,"current_range_meters":4400,"station_id":"","pricing_plan_id":"cebpf4jnsgd1na2vs0mg"},{"bike_id":"775b821b-1e28-4064-a50b-b93c8b7ffd3b","system_id":"levelo_inurba_marseille","lat":43.24087,"lon":5.37746,"is_reserved":false,"is_disabled":false,"rental_uris":{"android":"levelo://app?vid=775b821b-1e28-4064-a50b-b93c8b7ffd3b","ios":"levelo://app?vid=775b821b-1e28-4064-a50b-b93c8b7ffd3b"},"vehicle_type_id":"4","last_reported":1727705343,"current_range_meters":38800,"station_id":"ce4bhnp2rcd13ifvqgvg","pricing_plan_id":"cebpf4jnsgd1na2vs0mg"},{"bike_id":"57ef25ef-c4c8-49fc-9cb9-dcf163f81726","system_id":"levelo_inurba_marseille","lat":43.31756,"lon":5.3902,"is_reserved":false,"is_disabled":false,"rental_uris":{"android":"levelo://app?vid=57ef25ef-c4c8-49fc-9cb9-dcf163f81726","ios":"levelo://app?vid=57ef25ef-c4c8-49fc-9cb9-dcf163f81726"},"vehicle_type_id":"4","last_reported":1727705343,"current_range_meters":38400,"station_id":"ce4bhqp2rcd13ifvqhng","pricing_plan_id":"cebpf4jnsgd1na2vs0mg"},{"bike_id":"fccbf3e6-5544-49b0-9b2e-1ac91a97c9f4","system_id":"levelo_inurba_marseille","lat":43.30541,"lon":5.36532,"is_reserved":false,"is_disabled":false,"rental_uris":{"android":"levelo://app?vid=fccbf3e6-5544-49b0-9b2e-1ac91a97c9f4","ios":"levelo://app?vid=fccbf3e6-5544-49b0-9b2e-1ac91a97c9f4"},"vehicle_type_id":"4","last_reported":1727705343,"current_range_meters":32000,"station_id":"ce4bgs12rcd13ifvqcag","pricing_plan_id":"cebpf4jnsgd1na2vs0mg"},{"bike_id":"f41e6ac7-d39b-432c-a205-b5e52984b1b4","system_id":"levelo_inurba_marseille","lat":43.33027,"lon":5.39371,"is_reserved":false,"is_disabled":false,"rental_uris":{"android":"levelo://app?vid=f41e6ac7-d39b-432c-a205-b5e52984b1b4","ios":"levelo://app?vid=f41e6ac7-d39b-432c-a205-b5e52984b1b4"},"vehicle_type_id":"4","last_reported":1727705343,"current_range_meters":36000,"station_id":"","pricing_plan_id":"cebpf4jnsgd1na2vs0mg"},{"bike_id":"bd4818fc-c3a3-49ae-88f0-5543b2bac4d1","system_id":"levelo_inurba_marseille","lat":43.23965,"lon":5.36635,"is_reserved":false,"is_disabled":false,"rental_uris":{"android":"levelo://app?vid=bd4818fc-c3a3-49ae-88f0-5543b2bac4d1","ios":"levelo://app?vid=bd4818fc-c3a3-49ae-88f0-5543b2bac4d1"},"vehicle_type_id":"4","last_reported":1727705343,"current_range_meters":39200,"station_id":"ce4bhi12rcd13ifvqfp0","pricing_plan_id":"cebpf4jnsgd1na2vs0mg"},{"bike_id":"dfcd25eb-0455-4a7c-af04-cb98f76b63ed","system_id":"levelo_inurba_marseille","lat":43.28618,"lon":5.35105,"is_reserved":false,"is_disabled":false,"rental_uris":{"android":"levelo://app?vid=dfcd25eb-0455-4a7c-af04-cb98f76b63ed","ios":"levelo://app?vid=dfcd25eb-0455-4a7c-af04-cb98f76b63ed"},"vehicle_type_id":"4","last_reported":1727705343,"current_range_meters":30000,"station_id":"ce4bhch2rcd13ifvqeug","pricing_plan_id":"cebpf4jnsgd1na2vs0mg"},{"bike_id":"db4c028c-4eda-46d1-9387-ead0dd8e4029","system_id":"levelo_inurba_marseille","lat":43.27576,"lon":5.36068,"is_reserved":false,"is_disabled":false,"rental_uris":{"android":"levelo://app?vid=db4c028c-4eda-46d1-9387-ead0dd8e4029","ios":"levelo://app?vid=db4c028c-4eda-46d1-9387-ead0dd8e4029"},"vehicle_type_id":"4","last_reported":1727705343,"current_range_meters":28000,"station_id":"ce4bgj92rcd13ifvqbe0","pricing_plan_id":"cebpf4jnsgd1na2vs0mg"},{"bike_id":"6b8929d5-ad92-409d-a69a-a9e49ae36445","system_id":"levelo_inurba_marseille","lat":43.24168,"lon":5.36395,"is_reserved":false,"is_disabled":false,"rental_uris":{"android":"levelo://app?vid=6b8929d5-ad92-409d-a69a-a9e49ae36445","ios":"levelo://app?vid=6b8929d5-ad92-409d-a69a-a9e49ae36445"},"vehicle_type_id":"4","last_reported":1727705343,"current_range_meters":8400,"station_id":"cpo36qri1sfpv3e86is0","pricing_plan_id":"cebpf4jnsgd1na2vs0mg"},{"bike_id":"1b3ca522-0bca-46f9-a602-48eea883efae","system_id":"levelo_inurba_marseille","lat":43.27207,"lon":5.3919,"is_reserved":false,"is_disabled":false,"rental_uris":{"android":"levelo://app?vid=1b3ca522-0bca-46f9-a602-48eea883efae","ios":"levelo://app?vid=1b3ca522-0bca-46f9-a602-48eea883efae"},"vehicle_type_id":"4","last_reported":1727705343,"current_range_meters":12400,"station_id":"ce4bhhp2rcd13ifvqfm0","pricing_plan_id":"cebpf4jnsgd1na2vs0mg"},{"bike_id":"be3577c7-2a90-4f20-99da-dd64110a8f3f","system_id":"levelo_inurba_marseille","lat":43.24077,"lon":5.37744,"is_reserved":false,"is_disabled":false,"rental_uris":{"android":"levelo://app?vid=be3577c7-2a90-4f20-99da-dd64110a8f3f","ios":"levelo://app?vid=be3577c7-2a90-4f20-99da-dd64110a8f3f"},"vehicle_type_id":"4","last_reported":1727705343,"current_range_meters":13600,"station_id":"ce4bhnp2rcd13ifvqgvg","pricing_plan_id":"cebpf4jnsgd1na2vs0mg"},{"bike_id":"2fede673-a879-4ec1-bee9-00ba9def34b8","system_id":"levelo_inurba_marseille","lat":43.32045,"lon":5.41568,"is_reserved":false,"is_disabled":false,"rental_uris":{"android":"levelo://app?vid=2fede673-a879-4ec1-bee9-00ba9def34b8","ios":"levelo://app?vid=2fede673-a879-4ec1-bee9-00ba9def34b8"},"vehicle_type_id":"4","last_reported":1727705343,"current_range_meters":5600,"station_id":"ce4bhq92rcd13ifvqhkg","pricing_plan_id":"cebpf4jnsgd1na2vs0mg"},{"bike_id":"3dc02e90-07ec-4b9c-ae98-f92e543c6339","system_id":"levelo_inurba_marseille","lat":43.32042,"lon":5.41564,"is_reserved":false,"is_disabled":false,"rental_uris":{"android":"levelo://app?vid=3dc02e90-07ec-4b9c-ae98-f92e543c6339","ios":"levelo://app?vid=3dc02e90-07ec-4b9c-ae98-f92e543c6339"},"vehicle_type_id":"4","last_reported":1727705343,"current_range_meters":17600,"station_id":"ce4bhq92rcd13ifvqhkg","pricing_plan_id":"cebpf4jnsgd1na2vs0mg"},{"bike_id":"d1a4e3ee-6415-46fb-989a-8ab06e589b76","system_id":"levelo_inurba_marseille","lat":43.30915,"lon":5.36857,"is_reserved":false,"is_disabled":false,"rental_uris":{"android":"levelo://app?vid=d1a4e3ee-6415-46fb-989a-8ab06e589b76","ios":"levelo://app?vid=d1a4e3ee-6415-46fb-989a-8ab06e589b76"},"vehicle_type_id":"4","last_reported":1727705343,"current_range_meters":38800,"station_id":"ce4bgn92rcd13ifvqbvg","pricing_plan_id":"cebpf4jnsgd1na2vs0mg"},{"bike_id":"d1087daa-1c2f-4724-9338-437f5590a780","system_id":"levelo_inurba_marseille","lat":43.29563,"lon":5.37521,"is_reserved":false,"is_disabled":false,"rental_uris":{"android":"levelo://app?vid=d1087daa-1c2f-4724-9338-437f5590a780","ios":"levelo://app?vid=d1087daa-1c2f-4724-9338-437f5590a780"},"vehicle_type_id":"4","last_reported":1727705343,"current_range_meters":34800,"station_id":"ce4bgh92rcd13ifvqb50","pricing_plan_id":"cebpf4jnsgd1na2vs0mg"},{"bike_id":"31664bce-bbec-419b-bb37-e9a0d64b6d78","system_id":"levelo_inurba_marseille","lat":43.29529,"lon":5.38541,"is_reserved":false,"is_disabled":false,"rental_uris":{"android":"levelo://app?vid=31664bce-bbec-419b-bb37-e9a0d64b6d78","ios":"levelo://app?vid=31664bce-bbec-419b-bb37-e9a0d64b6d78"},"vehicle_type_id":"4","last_reported":1727705343,"current_range_meters":33600,"station_id":"ce4bgih2rcd13ifvqba0","pricing_plan_id":"cebpf4jnsgd1na2vs0mg"},{"bike_id":"6bea1909-1745-4b05-975d-6e88d831241e","system_id":"levelo_inurba_marseille","lat":43.29915,"lon":5.37469,"is_reserved":false,"is_disabled":false,"rental_uris":{"android":"levelo://app?vid=6bea1909-1745-4b05-975d-6e88d831241e","ios":"levelo://app?vid=6bea1909-1745-4b05-975d-6e88d831241e"},"vehicle_type_id":"4","last_reported":1727705343,"current_range_meters":20800,"station_id":"ce4bgjh2rcd13ifvqbg0","pricing_plan_id":"cebpf4jnsgd1na2vs0mg"},{"bike_id":"f71b7f63-17f8-4803-ba81-e0aaab220a33","system_id":"levelo_inurba_marseille","lat":43.30538,"lon":5.36529,"is_reserved":false,"is_disabled":false,"rental_uris":{"android":"levelo://app?vid=f71b7f63-17f8-4803-ba81-e0aaab220a33","ios":"levelo://app?vid=f71b7f63-17f8-4803-ba81-e0aaab220a33"},"vehicle_type_id":"4","last_reported":1727705343,"current_range_meters":39200,"station_id":"ce4bgs12rcd13ifvqcag","pricing_plan_id":"cebpf4jnsgd1na2vs0mg"},{"bike_id":"2e3f0053-8b32-4d58-8c24-0f6b0552b4bb","system_id":"levelo_inurba_marseille","lat":43.30166,"lon":5.38087,"is_reserved":false,"is_disabled":false,"rental_uris":{"android":"levelo://app?vid=2e3f0053-8b32-4d58-8c24-0f6b0552b4bb","ios":"levelo://app?vid=2e3f0053-8b32-4d58-8c24-0f6b0552b4bb"},"vehicle_type_id":"4","last_reported":1727705343,"current_range_meters":38800,"station_id":"ce4bgjp2rcd13ifvqbh0","pricing_plan_id":"cebpf4jnsgd1na2vs0mg"},{"bike_id":"92a377c1-c83e-4ce0-8033-a37f64060b32","system_id":"levelo_inurba_marseille","lat":43.29891,"lon":5.43656,"is_reserved":false,"is_disabled":false,"rental_uris":{"android":"levelo://app?vid=92a377c1-c83e-4ce0-8033-a37f64060b32","ios":"levelo://app?vid=92a377c1-c83e-4ce0-8033-a37f64060b32"},"vehicle_type_id":"4","last_reported":1727705343,"current_range_meters":22800,"station_id":"ce4bhpp2rcd13ifvqhfg","pricing_plan_id":"cebpf4jnsgd1na2vs0mg"},{"bike_id":"66c626da-c5b2-4c5c-abb5-549a9ee9c938","system_id":"levelo_inurba_marseille","lat":43.27492,"lon":5.42453,"is_reserved":false,"is_disabled":false,"rental_uris":{"android":"levelo://app?vid=66c626da-c5b2-4c5c-abb5-549a9ee9c938","ios":"levelo://app?vid=66c626da-c5b2-4c5c-abb5-549a9ee9c938"},"vehicle_type_id":"4","last_reported":1727705343,"current_range_meters":22000,"station_id":"ce4bhn92rcd13ifvqgrg","pricing_plan_id":"cebpf4jnsgd1na2vs0mg"},{"bike_id":"ea88f175-1253-4005-ab4b-521849ff489d","system_id":"levelo_inurba_marseille","lat":43.32366,"lon":5.38887,"is_reserved":false,"is_disabled":false,"rental_uris":{"android":"levelo://app?vid=ea88f175-1253-4005-ab4b-521849ff489d","ios":"levelo://app?vid=ea88f175-1253-4005-ab4b-521849ff489d"},"vehicle_type_id":"4","last_reported":1727705343,"current_range_meters":33600,"station_id":"ce4bhqp2rcd13ifvqhog","pricing_plan_id":"cebpf4jnsgd1na2vs0mg"},{"bike_id":"6dc7b44d-9d0d-42f9-bc6f-4dff416c688a","system_id":"levelo_inurba_marseille","lat":43.31332,"lon":5.36727,"is_reserved":false,"is_disabled":false,"rental_uris":{"android":"levelo://app?vid=6dc7b44d-9d0d-42f9-bc6f-4dff416c688a","ios":"levelo://app?vid=6dc7b44d-9d0d-42f9-bc6f-4dff416c688a"},"vehicle_type_id":"4","last_reported":1727705343,"current_range_meters":17200,"station_id":"ce4bgr92rcd13ifvqc6g","pricing_plan_id":"cebpf4jnsgd1na2vs0mg"},{"bike_id":"7267344b-d071-407a-99ce-1ec821932d37","system_id":"levelo_inurba_marseille","lat":43.30912,"lon":5.36849,"is_reserved":false,"is_disabled":false,"rental_uris":{"android":"levelo://app?vid=7267344b-d071-407a-99ce-1ec821932d37","ios":"levelo://app?vid=7267344b-d071-407a-99ce-1ec821932d37"},"vehicle_type_id":"4","last_reported":1727705343,"current_range_meters":19200,"station_id":"ce4bgn92rcd13ifvqbvg","pricing_plan_id":"cebpf4jnsgd1na2vs0mg"},{"bike_id":"31f89c08-66db-40cc-ab41-9fc83559f379","system_id":"levelo_inurba_marseille","lat":43.2319,"lon":5.35552,"is_reserved":false,"is_disabled":false,"rental_uris":{"android":"levelo://app?vid=31f89c08-66db-40cc-ab41-9fc83559f379","ios":"levelo://app?vid=31f89c08-66db-40cc-ab41-9fc83559f379"},"vehicle_type_id":"4","last_reported":1727705343,"current_range_meters":26800,"station_id":"ce4bhu92rcd13ifvqi70","pricing_plan_id":"cebpf4jnsgd1na2vs0mg"},{"bike_id":"59510abb-fafa-4630-b83f-d63886aa047f","system_id":"levelo_inurba_marseille","lat":43.2792,"lon":5.39578,"is_reserved":false,"is_disabled":false,"rental_uris":{"android":"levelo://app?vid=59510abb-fafa-4630-b83f-d63886aa047f","ios":"levelo://app?vid=59510abb-fafa-4630-b83f-d63886aa047f"},"vehicle_type_id":"4","last_reported":1727705343,"current_range_meters":6800,"station_id":"ce4bhf92rcd13ifvqf40","pricing_plan_id":"cebpf4jnsgd1na2vs0mg"},{"bike_id":"03f573ac-7490-42b6-bb94-0191a3c93d6f","system_id":"levelo_inurba_marseille","lat":43.33728,"lon":5.39187,"is_reserved":false,"is_disabled":false,"rental_uris":{"android":"levelo://app?vid=03f573ac-7490-42b6-bb94-0191a3c93d6f","ios":"levelo://app?vid=03f573ac-7490-42b6-bb94-0191a3c93d6f"},"vehicle_type_id":"4","last_reported":1727705343,"current_range_meters":32000,"station_id":"ce4bhr92rcd13ifvqhsg","pricing_plan_id":"cebpf4jnsgd1na2vs0mg"},{"bike_id":"3658bbe6-1d83-49e9-ae55-529ae3b5ea81","system_id":"levelo_inurba_marseille","lat":43.30547,"lon":5.36533,"is_reserved":false,"is_disabled":false,"rental_uris":{"android":"levelo://app?vid=3658bbe6-1d83-49e9-ae55-529ae3b5ea81","ios":"levelo://app?vid=3658bbe6-1d83-49e9-ae55-529ae3b5ea81"},"vehicle_type_id":"4","last_reported":1727705343,"current_range_meters":20800,"station_id":"ce4bgs12rcd13ifvqcag","pricing_plan_id":"cebpf4jnsgd1na2vs0mg"},{"bike_id":"fe875b08-7bdb-47a5-a96d-d38c7513f927","system_id":"levelo_inurba_marseille","lat":43.31493,"lon":5.37305,"is_reserved":false,"is_disabled":false,"rental_uris":{"android":"levelo://app?vid=fe875b08-7bdb-47a5-a96d-d38c7513f927","ios":"levelo://app?vid=fe875b08-7bdb-47a5-a96d-d38c7513f927"},"vehicle_type_id":"4","last_reported":1727705343,"current_range_meters":14800,"station_id":"ce4bgt12rcd13ifvqcd0","pricing_plan_id":"cebpf4jnsgd1na2vs0mg"},{"bike_id":"28b1b158-714f-486b-94ed-016ac5f75e3c","system_id":"levelo_inurba_marseille","lat":43.292903,"lon":5.401682,"is_reserved":false,"is_disabled":false,"rental_uris":{"android":"levelo://app?vid=28b1b158-714f-486b-94ed-016ac5f75e3c","ios":"levelo://app?vid=28b1b158-714f-486b-94ed-016ac5f75e3c"},"vehicle_type_id":"4","last_reported":1727705343,"current_range_meters":38800,"station_id":"ce4bh312rcd13ifvqdk0","pricing_plan_id":"cebpf4jnsgd1na2vs0mg"},{"bike_id":"8899af5b-9f62-4731-b7cd-121df8ac8752","system_id":"levelo_inurba_marseille","lat":43.30909,"lon":5.36861,"is_reserved":false,"is_disabled":false,"rental_uris":{"android":"levelo://app?vid=8899af5b-9f62-4731-b7cd-121df8ac8752","ios":"levelo://app?vid=8899af5b-9f62-4731-b7cd-121df8ac8752"},"vehicle_type_id":"4","last_reported":1727705343,"current_range_meters":38800,"station_id":"ce4bgn92rcd13ifvqbvg","pricing_plan_id":"cebpf4jnsgd1na2vs0mg"},{"bike_id":"bbfa4e14-7fa4-4aa7-91bf-e112b9082e51","system_id":"levelo_inurba_marseille","lat":43.23148,"lon":5.43718,"is_reserved":false,"is_disabled":false,"rental_uris":{"android":"levelo://app?vid=bbfa4e14-7fa4-4aa7-91bf-e112b9082e51","ios":"levelo://app?vid=bbfa4e14-7fa4-4aa7-91bf-e112b9082e51"},"vehicle_type_id":"4","last_reported":1727705343,"current_range_meters":24000,"station_id":"ce4bhmp2rcd13ifvqgog","pricing_plan_id":"cebpf4jnsgd1na2vs0mg"},{"bike_id":"089f0fd6-ba6c-4c66-a20c-fab2c78aeaef","system_id":"levelo_inurba_marseille","lat":43.24066,"lon":5.37759,"is_reserved":false,"is_disabled":false,"rental_uris":{"android":"levelo://app?vid=089f0fd6-ba6c-4c66-a20c-fab2c78aeaef","ios":"levelo://app?vid=089f0fd6-ba6c-4c66-a20c-fab2c78aeaef"},"vehicle_type_id":"4","last_reported":1727705343,"current_range_meters":7200,"station_id":"ce4bhnp2rcd13ifvqgvg","pricing_plan_id":"cebpf4jnsgd1na2vs0mg"},{"bike_id":"8490e44e-0aff-4d7e-8a96-481d57cd3987","system_id":"levelo_inurba_marseille","lat":43.28511,"lon":5.39132,"is_reserved":false,"is_disabled":false,"rental_uris":{"android":"levelo://app?vid=8490e44e-0aff-4d7e-8a96-481d57cd3987","ios":"levelo://app?vid=8490e44e-0aff-4d7e-8a96-481d57cd3987"},"vehicle_type_id":"4","last_reported":1727705343,"current_range_meters":23200,"station_id":"ce4bh3p2rcd13ifvqdp0","pricing_plan_id":"cebpf4jnsgd1na2vs0mg"},{"bike_id":"0dfddd0d-90e5-4782-b120-91bd92977f9d","system_id":"levelo_inurba_marseille","lat":43.30326,"lon":5.40437,"is_reserved":false,"is_disabled":false,"rental_uris":{"android":"levelo://app?vid=0dfddd0d-90e5-4782-b120-91bd92977f9d","ios":"levelo://app?vid=0dfddd0d-90e5-4782-b120-91bd92977f9d"},"vehicle_type_id":"4","last_reported":1727705343,"current_range_meters":24800,"station_id":"ce4bh012rcd13ifvqd10","pricing_plan_id":"cebpf4jnsgd1na2vs0mg"},{"bike_id":"989806e5-c594-4fef-8e8c-ee09efc467f3","system_id":"levelo_inurba_marseille","lat":43.298751,"lon":5.389119,"is_reserved":false,"is_disabled":false,"rental_uris":{"android":"levelo://app?vid=989806e5-c594-4fef-8e8c-ee09efc467f3","ios":"levelo://app?vid=989806e5-c594-4fef-8e8c-ee09efc467f3"},"vehicle_type_id":"4","last_reported":1727705343,"current_range_meters":8000,"station_id":"ce4bh392rcd13ifvqdl0","pricing_plan_id":"cebpf4jnsgd1na2vs0mg"},{"bike_id":"65dcc76e-9790-4f4b-a2c2-030038a59057","system_id":"levelo_inurba_marseille","lat":43.28701,"lon":5.3739,"is_reserved":false,"is_disabled":false,"rental_uris":{"android":"levelo://app?vid=65dcc76e-9790-4f4b-a2c2-030038a59057","ios":"levelo://app?vid=65dcc76e-9790-4f4b-a2c2-030038a59057"},"vehicle_type_id":"4","last_reported":1727705343,"current_range_meters":38800,"station_id":"ce4bh3p2rcd13ifvqdq0","pricing_plan_id":"cebpf4jnsgd1na2vs0mg"},{"bike_id":"f39670d7-d148-4386-a631-162c104cdcdc","system_id":"levelo_inurba_marseille","lat":43.24387,"lon":5.37059,"is_reserved":false,"is_disabled":false,"rental_uris":{"android":"levelo://app?vid=f39670d7-d148-4386-a631-162c104cdcdc","ios":"levelo://app?vid=f39670d7-d148-4386-a631-162c104cdcdc"},"vehicle_type_id":"4","last_reported":1727705343,"current_range_meters":6800,"station_id":"ce4bhhh2rcd13ifvqfk0","pricing_plan_id":"cebpf4jnsgd1na2vs0mg"},{"bike_id":"6f0510e0-e0f7-4fbf-b61a-5263c22ae12f","system_id":"levelo_inurba_marseille","lat":43.30542,"lon":5.36698,"is_reserved":false,"is_disabled":false,"rental_uris":{"android":"levelo://app?vid=6f0510e0-e0f7-4fbf-b61a-5263c22ae12f","ios":"levelo://app?vid=6f0510e0-e0f7-4fbf-b61a-5263c22ae12f"},"vehicle_type_id":"4","last_reported":1727705343,"current_range_meters":28000,"station_id":"ce4bgrp2rcd13ifvqc9g","pricing_plan_id":"cebpf4jnsgd1na2vs0mg"},{"bike_id":"5f71d534-508b-44aa-ab48-4ceb1dc17092","system_id":"levelo_inurba_marseille","lat":43.26193,"lon":5.37451,"is_reserved":false,"is_disabled":false,"rental_uris":{"android":"levelo://app?vid=5f71d534-508b-44aa-ab48-4ceb1dc17092","ios":"levelo://app?vid=5f71d534-508b-44aa-ab48-4ceb1dc17092"},"vehicle_type_id":"4","last_reported":1727705343,"current_range_meters":16000,"station_id":"ce4bhgp2rcd13ifvqfc0","pricing_plan_id":"cebpf4jnsgd1na2vs0mg"},{"bike_id":"497f4ee1-9712-4d23-982a-cc05ec051d3c","system_id":"levelo_inurba_marseille","lat":43.293058,"lon":5.371724,"is_reserved":false,"is_disabled":false,"rental_uris":{"android":"levelo://app?vid=497f4ee1-9712-4d23-982a-cc05ec051d3c","ios":"levelo://app?vid=497f4ee1-9712-4d23-982a-cc05ec051d3c"},"vehicle_type_id":"4","last_reported":1727705343,"current_range_meters":17600,"station_id":"ce4bgh92rcd13ifvqb40","pricing_plan_id":"cebpf4jnsgd1na2vs0mg"},{"bike_id":"ab8a2da6-91dc-4469-9b19-ff6b3fb09037","system_id":"levelo_inurba_marseille","lat":43.30128,"lon":5.39871,"is_reserved":false,"is_disabled":false,"rental_uris":{"android":"levelo://app?vid=ab8a2da6-91dc-4469-9b19-ff6b3fb09037","ios":"levelo://app?vid=ab8a2da6-91dc-4469-9b19-ff6b3fb09037"},"vehicle_type_id":"4","last_reported":1727705343,"current_range_meters":38400,"station_id":"ce4bh0h2rcd13ifvqd40","pricing_plan_id":"cebpf4jnsgd1na2vs0mg"},{"bike_id":"70b459b4-728c-4e06-8701-8e11884852d3","system_id":"levelo_inurba_marseille","lat":43.2992,"lon":5.37481,"is_reserved":false,"is_disabled":false,"rental_uris":{"android":"levelo://app?vid=70b459b4-728c-4e06-8701-8e11884852d3","ios":"levelo://app?vid=70b459b4-728c-4e06-8701-8e11884852d3"},"vehicle_type_id":"4","last_reported":1727705343,"current_range_meters":9200,"station_id":"ce4bgjh2rcd13ifvqbg0","pricing_plan_id":"cebpf4jnsgd1na2vs0mg"},{"bike_id":"f54334eb-2195-4db5-889a-3481da52f9df","system_id":"levelo_inurba_marseille","lat":43.32294,"lon":5.38276,"is_reserved":false,"is_disabled":false,"rental_uris":{"android":"levelo://app?vid=f54334eb-2195-4db5-889a-3481da52f9df","ios":"levelo://app?vid=f54334eb-2195-4db5-889a-3481da52f9df"},"vehicle_type_id":"4","last_reported":1727705343,"current_range_meters":38800,"station_id":"ce4bhr12rcd13ifvqhqg","pricing_plan_id":"cebpf4jnsgd1na2vs0mg"},{"bike_id":"5b8f26ab-6b51-4c9d-ac3e-b872a6071183","system_id":"levelo_inurba_marseille","lat":43.31222,"lon":5.36852,"is_reserved":false,"is_disabled":false,"rental_uris":{"android":"levelo://app?vid=5b8f26ab-6b51-4c9d-ac3e-b872a6071183","ios":"levelo://app?vid=5b8f26ab-6b51-4c9d-ac3e-b872a6071183"},"vehicle_type_id":"4","last_reported":1727705343,"current_range_meters":39200,"station_id":"ce4bgl92rcd13ifvqbq0","pricing_plan_id":"cebpf4jnsgd1na2vs0mg"},{"bike_id":"6f081863-a512-4723-836e-629c741eb794","system_id":"levelo_inurba_marseille","lat":43.29986,"lon":5.38481,"is_reserved":false,"is_disabled":false,"rental_uris":{"android":"levelo://app?vid=6f081863-a512-4723-836e-629c741eb794","ios":"levelo://app?vid=6f081863-a512-4723-836e-629c741eb794"},"vehicle_type_id":"4","last_reported":1727705343,"current_range_meters":36400,"station_id":"ce4bgj92rcd13ifvqbd0","pricing_plan_id":"cebpf4jnsgd1na2vs0mg"},{"bike_id":"94b56535-6e39-4d09-be56-1cf2a7e3f03b","system_id":"levelo_inurba_marseille","lat":43.26215,"lon":5.3744,"is_reserved":false,"is_disabled":false,"rental_uris":{"android":"levelo://app?vid=94b56535-6e39-4d09-be56-1cf2a7e3f03b","ios":"levelo://app?vid=94b56535-6e39-4d09-be56-1cf2a7e3f03b"},"vehicle_type_id":"4","last_reported":1727705343,"current_range_meters":36800,"station_id":"ce4bhgp2rcd13ifvqfc0","pricing_plan_id":"cebpf4jnsgd1na2vs0mg"},{"bike_id":"5427f3f0-8202-4403-a0ad-6756fd69e827","system_id":"levelo_inurba_marseille","lat":43.25007,"lon":5.38937,"is_reserved":false,"is_disabled":false,"rental_uris":{"android":"levelo://app?vid=5427f3f0-8202-4403-a0ad-6756fd69e827","ios":"levelo://app?vid=5427f3f0-8202-4403-a0ad-6756fd69e827"},"vehicle_type_id":"4","last_reported":1727705343,"current_range_meters":12000,"station_id":"ce4bhgp2rcd13ifvqfd0","pricing_plan_id":"cebpf4jnsgd1na2vs0mg"},{"bike_id":"5dfd9658-fa7f-46fc-b68f-ea8f76487a17","system_id":"levelo_inurba_marseille","lat":43.337444,"lon":5.374475,"is_reserved":false,"is_disabled":false,"rental_uris":{"android":"levelo://app?vid=5dfd9658-fa7f-46fc-b68f-ea8f76487a17","ios":"levelo://app?vid=5dfd9658-fa7f-46fc-b68f-ea8f76487a17"},"vehicle_type_id":"4","last_reported":1727705343,"current_range_meters":21600,"station_id":"","pricing_plan_id":"cebpf4jnsgd1na2vs0mg"},{"bike_id":"57e46408-3d6b-48d5-8712-9b0cbc7c92bf","system_id":"levelo_inurba_marseille","lat":43.27938,"lon":5.41046,"is_reserved":false,"is_disabled":false,"rental_uris":{"android":"levelo://app?vid=57e46408-3d6b-48d5-8712-9b0cbc7c92bf","ios":"levelo://app?vid=57e46408-3d6b-48d5-8712-9b0cbc7c92bf"},"vehicle_type_id":"4","last_reported":1727705343,"current_range_meters":36800,"station_id":"ce4bhnp2rcd13ifvqh0g","pricing_plan_id":"cebpf4jnsgd1na2vs0mg"},{"bike_id":"eab30390-0c07-449c-a891-cba8bee1096b","system_id":"levelo_inurba_marseille","lat":43.32316,"lon":5.38278,"is_reserved":false,"is_disabled":false,"rental_uris":{"android":"levelo://app?vid=eab30390-0c07-449c-a891-cba8bee1096b","ios":"levelo://app?vid=eab30390-0c07-449c-a891-cba8bee1096b"},"vehicle_type_id":"4","last_reported":1727705343,"current_range_meters":36800,"station_id":"ce4bhr12rcd13ifvqhqg","pricing_plan_id":"cebpf4jnsgd1na2vs0mg"},{"bike_id":"fdef7ae9-ba96-44b0-b95b-7baf90afc649","system_id":"levelo_inurba_marseille","lat":43.23959,"lon":5.36626,"is_reserved":false,"is_disabled":false,"rental_uris":{"android":"levelo://app?vid=fdef7ae9-ba96-44b0-b95b-7baf90afc649","ios":"levelo://app?vid=fdef7ae9-ba96-44b0-b95b-7baf90afc649"},"vehicle_type_id":"4","last_reported":1727705343,"current_range_meters":24400,"station_id":"ce4bhi12rcd13ifvqfp0","pricing_plan_id":"cebpf4jnsgd1na2vs0mg"},{"bike_id":"363be899-4c0b-425e-a848-ffbfe359d432","system_id":"levelo_inurba_marseille","lat":43.29533,"lon":5.37502,"is_reserved":false,"is_disabled":false,"rental_uris":{"android":"levelo://app?vid=363be899-4c0b-425e-a848-ffbfe359d432","ios":"levelo://app?vid=363be899-4c0b-425e-a848-ffbfe359d432"},"vehicle_type_id":"4","last_reported":1727705343,"current_range_meters":9600,"station_id":"ce4bgkp2rcd13ifvqbmg","pricing_plan_id":"cebpf4jnsgd1na2vs0mg"},{"bike_id":"bbdab2db-7eb7-419f-a4a4-6a61184f3a1f","system_id":"levelo_inurba_marseille","lat":43.33024,"lon":5.39038,"is_reserved":false,"is_disabled":false,"rental_uris":{"android":"levelo://app?vid=bbdab2db-7eb7-419f-a4a4-6a61184f3a1f","ios":"levelo://app?vid=bbdab2db-7eb7-419f-a4a4-6a61184f3a1f"},"vehicle_type_id":"4","last_reported":1727705343,"current_range_meters":38000,"station_id":"ce4bhr92rcd13ifvqhrg","pricing_plan_id":"cebpf4jnsgd1na2vs0mg"},{"bike_id":"cf252e86-32bb-41fa-993e-5d2184461476","system_id":"levelo_inurba_marseille","lat":43.31122,"lon":5.37764,"is_reserved":false,"is_disabled":false,"rental_uris":{"android":"levelo://app?vid=cf252e86-32bb-41fa-993e-5d2184461476","ios":"levelo://app?vid=cf252e86-32bb-41fa-993e-5d2184461476"},"vehicle_type_id":"4","last_reported":1727705343,"current_range_meters":28400,"station_id":"ce4bgt92rcd13ifvqcg0","pricing_plan_id":"cebpf4jnsgd1na2vs0mg"},{"bike_id":"df5327e4-865d-4ebf-aa09-fe6cc14f2e3b","system_id":"levelo_inurba_marseille","lat":43.30248,"lon":5.40038,"is_reserved":false,"is_disabled":false,"rental_uris":{"android":"levelo://app?vid=df5327e4-865d-4ebf-aa09-fe6cc14f2e3b","ios":"levelo://app?vid=df5327e4-865d-4ebf-aa09-fe6cc14f2e3b"},"vehicle_type_id":"4","last_reported":1727705343,"current_range_meters":33200,"station_id":"ce4bgvh2rcd13ifvqcs0","pricing_plan_id":"cebpf4jnsgd1na2vs0mg"},{"bike_id":"a9d94fc0-5899-49ba-a07e-e9ffffddb5c4","system_id":"levelo_inurba_marseille","lat":43.23068,"lon":5.35495,"is_reserved":false,"is_disabled":false,"rental_uris":{"android":"levelo://app?vid=a9d94fc0-5899-49ba-a07e-e9ffffddb5c4","ios":"levelo://app?vid=a9d94fc0-5899-49ba-a07e-e9ffffddb5c4"},"vehicle_type_id":"4","last_reported":1727705343,"current_range_meters":24400,"station_id":"cpo3342slgdg3j2ifvpg","pricing_plan_id":"cebpf4jnsgd1na2vs0mg"},{"bike_id":"6f2d35b1-0278-43da-99ef-8d608ea1f489","system_id":"levelo_inurba_marseille","lat":43.23154,"lon":5.43716,"is_reserved":false,"is_disabled":false,"rental_uris":{"android":"levelo://app?vid=6f2d35b1-0278-43da-99ef-8d608ea1f489","ios":"levelo://app?vid=6f2d35b1-0278-43da-99ef-8d608ea1f489"},"vehicle_type_id":"4","last_reported":1727705343,"current_range_meters":21600,"station_id":"ce4bhmp2rcd13ifvqgog","pricing_plan_id":"cebpf4jnsgd1na2vs0mg"},{"bike_id":"6f9ac123-7a86-4ec5-89af-24c592dc64cb","system_id":"levelo_inurba_marseille","lat":43.29906,"lon":5.38148,"is_reserved":false,"is_disabled":false,"rental_uris":{"android":"levelo://app?vid=6f9ac123-7a86-4ec5-89af-24c592dc64cb","ios":"levelo://app?vid=6f9ac123-7a86-4ec5-89af-24c592dc64cb"},"vehicle_type_id":"4","last_reported":1727705343,"current_range_meters":13600,"station_id":"ce4bgj12rcd13ifvqbc0","pricing_plan_id":"cebpf4jnsgd1na2vs0mg"},{"bike_id":"739dee7a-4420-431f-b36c-57db5114b5f2","system_id":"levelo_inurba_marseille","lat":43.28933,"lon":5.36636,"is_reserved":false,"is_disabled":false,"rental_uris":{"android":"levelo://app?vid=739dee7a-4420-431f-b36c-57db5114b5f2","ios":"levelo://app?vid=739dee7a-4420-431f-b36c-57db5114b5f2"},"vehicle_type_id":"4","last_reported":1727705343,"current_range_meters":3600,"station_id":"ce4bhap2rcd13ifvqek0","pricing_plan_id":"cebpf4jnsgd1na2vs0mg"},{"bike_id":"a426d226-6c56-4a77-8958-260784630bbd","system_id":"levelo_inurba_marseille","lat":43.24664,"lon":5.3817,"is_reserved":false,"is_disabled":false,"rental_uris":{"android":"levelo://app?vid=a426d226-6c56-4a77-8958-260784630bbd","ios":"levelo://app?vid=a426d226-6c56-4a77-8958-260784630bbd"},"vehicle_type_id":"4","last_reported":1727705343,"current_range_meters":27600,"station_id":"ce4bhih2rcd13ifvqfr0","pricing_plan_id":"cebpf4jnsgd1na2vs0mg"},{"bike_id":"ce0a6298-7234-4702-b5b4-87c097f2e621","system_id":"levelo_inurba_marseille","lat":43.22931,"lon":5.35384,"is_reserved":false,"is_disabled":false,"rental_uris":{"android":"levelo://app?vid=ce0a6298-7234-4702-b5b4-87c097f2e621","ios":"levelo://app?vid=ce0a6298-7234-4702-b5b4-87c097f2e621"},"vehicle_type_id":"4","last_reported":1727705343,"current_range_meters":12400,"station_id":"cpo3532slgdg3j2ikp40","pricing_plan_id":"cebpf4jnsgd1na2vs0mg"},{"bike_id":"d9f7433d-6a2d-4c61-a60e-e1dfe382af8b","system_id":"levelo_inurba_marseille","lat":43.31909,"lon":5.41016,"is_reserved":false,"is_disabled":false,"rental_uris":{"android":"levelo://app?vid=d9f7433d-6a2d-4c61-a60e-e1dfe382af8b","ios":"levelo://app?vid=d9f7433d-6a2d-4c61-a60e-e1dfe382af8b"},"vehicle_type_id":"4","last_reported":1727705343,"current_range_meters":9200,"station_id":"","pricing_plan_id":"cebpf4jnsgd1na2vs0mg"},{"bike_id":"512bb4ed-c2e7-473f-aa47-7ed3f92d1436","system_id":"levelo_inurba_marseille","lat":43.27496,"lon":5.42457,"is_reserved":false,"is_disabled":false,"rental_uris":{"android":"levelo://app?vid=512bb4ed-c2e7-473f-aa47-7ed3f92d1436","ios":"levelo://app?vid=512bb4ed-c2e7-473f-aa47-7ed3f92d1436"},"vehicle_type_id":"4","last_reported":1727705343,"current_range_meters":34000,"station_id":"ce4bhn92rcd13ifvqgrg","pricing_plan_id":"cebpf4jnsgd1na2vs0mg"},{"bike_id":"e12ecaf8-c078-4476-a060-41b222cbcc71","system_id":"levelo_inurba_marseille","lat":43.262033,"lon":5.379368,"is_reserved":false,"is_disabled":false,"rental_uris":{"android":"levelo://app?vid=e12ecaf8-c078-4476-a060-41b222cbcc71","ios":"levelo://app?vid=e12ecaf8-c078-4476-a060-41b222cbcc71"},"vehicle_type_id":"4","last_reported":1727705343,"current_range_meters":37600,"station_id":"ce4bhjp2rcd13ifvqg90","pricing_plan_id":"cebpf4jnsgd1na2vs0mg"},{"bike_id":"b54a9626-109e-4d4b-bfb3-41424061170c","system_id":"levelo_inurba_marseille","lat":43.2749,"lon":5.4246,"is_reserved":false,"is_disabled":false,"rental_uris":{"android":"levelo://app?vid=b54a9626-109e-4d4b-bfb3-41424061170c","ios":"levelo://app?vid=b54a9626-109e-4d4b-bfb3-41424061170c"},"vehicle_type_id":"4","last_reported":1727705343,"current_range_meters":27600,"station_id":"ce4bhn92rcd13ifvqgrg","pricing_plan_id":"cebpf4jnsgd1na2vs0mg"},{"bike_id":"4e8b7109-29dd-4dab-8609-d168c70df700","system_id":"levelo_inurba_marseille","lat":43.306,"lon":5.3723,"is_reserved":false,"is_disabled":false,"rental_uris":{"android":"levelo://app?vid=4e8b7109-29dd-4dab-8609-d168c70df700","ios":"levelo://app?vid=4e8b7109-29dd-4dab-8609-d168c70df700"},"vehicle_type_id":"4","last_reported":1727705343,"current_range_meters":20800,"station_id":"ce4bgqh2rcd13ifvqc4g","pricing_plan_id":"cebpf4jnsgd1na2vs0mg"},{"bike_id":"c6b23f16-02af-4ae4-8ec7-a0c687c54e60","system_id":"levelo_inurba_marseille","lat":43.29418,"lon":5.38616,"is_reserved":false,"is_disabled":false,"rental_uris":{"android":"levelo://app?vid=c6b23f16-02af-4ae4-8ec7-a0c687c54e60","ios":"levelo://app?vid=c6b23f16-02af-4ae4-8ec7-a0c687c54e60"},"vehicle_type_id":"4","last_reported":1727705343,"current_range_meters":36800,"station_id":"ce4bh2h2rcd13ifvqdh0","pricing_plan_id":"cebpf4jnsgd1na2vs0mg"},{"bike_id":"064fbc96-87b4-421e-af03-f3f5f0c253eb","system_id":"levelo_inurba_marseille","lat":43.32111,"lon":5.36778,"is_reserved":false,"is_disabled":false,"rental_uris":{"android":"levelo://app?vid=064fbc96-87b4-421e-af03-f3f5f0c253eb","ios":"levelo://app?vid=064fbc96-87b4-421e-af03-f3f5f0c253eb"},"vehicle_type_id":"4","last_reported":1727705343,"current_range_meters":26000,"station_id":"ce4bhrh2rcd13ifvqhug","pricing_plan_id":"cebpf4jnsgd1na2vs0mg"},{"bike_id":"3e6e294c-79b6-4dcc-976d-8bdd07cd84f8","system_id":"levelo_inurba_marseille","lat":43.30952,"lon":5.39028,"is_reserved":false,"is_disabled":false,"rental_uris":{"android":"levelo://app?vid=3e6e294c-79b6-4dcc-976d-8bdd07cd84f8","ios":"levelo://app?vid=3e6e294c-79b6-4dcc-976d-8bdd07cd84f8"},"vehicle_type_id":"4","last_reported":1727705343,"current_range_meters":14000,"station_id":"ce4bgup2rcd13ifvqco0","pricing_plan_id":"cebpf4jnsgd1na2vs0mg"},{"bike_id":"dcca5eb1-337d-4677-b150-3612f0c83882","system_id":"levelo_inurba_marseille","lat":43.31356,"lon":5.36707,"is_reserved":false,"is_disabled":false,"rental_uris":{"android":"levelo://app?vid=dcca5eb1-337d-4677-b150-3612f0c83882","ios":"levelo://app?vid=dcca5eb1-337d-4677-b150-3612f0c83882"},"vehicle_type_id":"4","last_reported":1727705343,"current_range_meters":30000,"station_id":"ce4bgr92rcd13ifvqc6g","pricing_plan_id":"cebpf4jnsgd1na2vs0mg"},{"bike_id":"5eeea372-2711-4d21-8d24-8440bc9ab4b3","system_id":"levelo_inurba_marseille","lat":43.32485,"lon":5.36556,"is_reserved":false,"is_disabled":false,"rental_uris":{"android":"levelo://app?vid=5eeea372-2711-4d21-8d24-8440bc9ab4b3","ios":"levelo://app?vid=5eeea372-2711-4d21-8d24-8440bc9ab4b3"},"vehicle_type_id":"4","last_reported":1727705343,"current_range_meters":12000,"station_id":"ce4bhs12rcd13ifvqhvg","pricing_plan_id":"cebpf4jnsgd1na2vs0mg"},{"bike_id":"245b9bf3-a805-45aa-b6e9-4d57e2017da5","system_id":"levelo_inurba_marseille","lat":43.31337,"lon":5.36732,"is_reserved":false,"is_disabled":false,"rental_uris":{"android":"levelo://app?vid=245b9bf3-a805-45aa-b6e9-4d57e2017da5","ios":"levelo://app?vid=245b9bf3-a805-45aa-b6e9-4d57e2017da5"},"vehicle_type_id":"4","last_reported":1727705343,"current_range_meters":5600,"station_id":"ce4bgr92rcd13ifvqc6g","pricing_plan_id":"cebpf4jnsgd1na2vs0mg"},{"bike_id":"b1d361e1-7dbf-43b7-9364-8dc174bf8cf5","system_id":"levelo_inurba_marseille","lat":43.30354,"lon":5.41878,"is_reserved":false,"is_disabled":false,"rental_uris":{"android":"levelo://app?vid=b1d361e1-7dbf-43b7-9364-8dc174bf8cf5","ios":"levelo://app?vid=b1d361e1-7dbf-43b7-9364-8dc174bf8cf5"},"vehicle_type_id":"4","last_reported":1727705343,"current_range_meters":9600,"station_id":"ce4bhop2rcd13ifvqh7g","pricing_plan_id":"cebpf4jnsgd1na2vs0mg"},{"bike_id":"d2510458-9021-47e9-a5f4-1eb3ebe0c080","system_id":"levelo_inurba_marseille","lat":43.31759,"lon":5.39017,"is_reserved":false,"is_disabled":false,"rental_uris":{"android":"levelo://app?vid=d2510458-9021-47e9-a5f4-1eb3ebe0c080","ios":"levelo://app?vid=d2510458-9021-47e9-a5f4-1eb3ebe0c080"},"vehicle_type_id":"4","last_reported":1727705343,"current_range_meters":39200,"station_id":"ce4bhqp2rcd13ifvqhng","pricing_plan_id":"cebpf4jnsgd1na2vs0mg"},{"bike_id":"f6a17653-60fe-4905-8fcc-171ea7153dd8","system_id":"levelo_inurba_marseille","lat":43.337444,"lon":5.374475,"is_reserved":false,"is_disabled":false,"rental_uris":{"android":"levelo://app?vid=f6a17653-60fe-4905-8fcc-171ea7153dd8","ios":"levelo://app?vid=f6a17653-60fe-4905-8fcc-171ea7153dd8"},"vehicle_type_id":"4","last_reported":1727705343,"current_range_meters":36000,"station_id":"","pricing_plan_id":"cebpf4jnsgd1na2vs0mg"},{"bike_id":"79e3b807-678c-4e9f-bcb7-05c9cb3c6740","system_id":"levelo_inurba_marseille","lat":43.32266,"lon":5.38284,"is_reserved":false,"is_disabled":false,"rental_uris":{"android":"levelo://app?vid=79e3b807-678c-4e9f-bcb7-05c9cb3c6740","ios":"levelo://app?vid=79e3b807-678c-4e9f-bcb7-05c9cb3c6740"},"vehicle_type_id":"4","last_reported":1727705343,"current_range_meters":6400,"station_id":"ce4bhr12rcd13ifvqhqg","pricing_plan_id":"cebpf4jnsgd1na2vs0mg"},{"bike_id":"82dff0a2-493c-4610-8b02-9d78c8f26e60","system_id":"levelo_inurba_marseille","lat":43.32496,"lon":5.36504,"is_reserved":false,"is_disabled":false,"rental_uris":{"android":"levelo://app?vid=82dff0a2-493c-4610-8b02-9d78c8f26e60","ios":"levelo://app?vid=82dff0a2-493c-4610-8b02-9d78c8f26e60"},"vehicle_type_id":"4","last_reported":1727705343,"current_range_meters":5600,"station_id":"ce4bhs12rcd13ifvqhvg","pricing_plan_id":"cebpf4jnsgd1na2vs0mg"},{"bike_id":"39e00de0-b023-4566-9f72-643ee5b97e44","system_id":"levelo_inurba_marseille","lat":43.280365,"lon":5.36952,"is_reserved":false,"is_disabled":false,"rental_uris":{"android":"levelo://app?vid=39e00de0-b023-4566-9f72-643ee5b97e44","ios":"levelo://app?vid=39e00de0-b023-4566-9f72-643ee5b97e44"},"vehicle_type_id":"4","last_reported":1727705343,"current_range_meters":32000,"station_id":"ce4bha12rcd13ifvqef0","pricing_plan_id":"cebpf4jnsgd1na2vs0mg"},{"bike_id":"e75aa8e0-0e54-497c-9152-139f34f8af50","system_id":"levelo_inurba_marseille","lat":43.29253,"lon":5.40902,"is_reserved":false,"is_disabled":false,"rental_uris":{"android":"levelo://app?vid=e75aa8e0-0e54-497c-9152-139f34f8af50","ios":"levelo://app?vid=e75aa8e0-0e54-497c-9152-139f34f8af50"},"vehicle_type_id":"4","last_reported":1727705343,"current_range_meters":9200,"station_id":"ce4bh192rcd13ifvqdc0","pricing_plan_id":"cebpf4jnsgd1na2vs0mg"},{"bike_id":"2cf6b01c-6a8c-4250-867f-09c79e0e1ee4","system_id":"levelo_inurba_marseille","lat":43.30432,"lon":5.38878,"is_reserved":false,"is_disabled":false,"rental_uris":{"android":"levelo://app?vid=2cf6b01c-6a8c-4250-867f-09c79e0e1ee4","ios":"levelo://app?vid=2cf6b01c-6a8c-4250-867f-09c79e0e1ee4"},"vehicle_type_id":"4","last_reported":1727705343,"current_range_meters":13600,"station_id":"ce4bgk12rcd13ifvqbi0","pricing_plan_id":"cebpf4jnsgd1na2vs0mg"},{"bike_id":"e899fc0c-bf30-45b2-a4c8-efb32f92764e","system_id":"levelo_inurba_marseille","lat":43.29967,"lon":5.38495,"is_reserved":false,"is_disabled":false,"rental_uris":{"android":"levelo://app?vid=e899fc0c-bf30-45b2-a4c8-efb32f92764e","ios":"levelo://app?vid=e899fc0c-bf30-45b2-a4c8-efb32f92764e"},"vehicle_type_id":"4","last_reported":1727705343,"current_range_meters":28800,"station_id":"ce4bgj92rcd13ifvqbd0","pricing_plan_id":"cebpf4jnsgd1na2vs0mg"},{"bike_id":"3e875e81-2bcf-4eb0-9a39-de622782e79e","system_id":"levelo_inurba_marseille","lat":43.28714,"lon":5.37941,"is_reserved":false,"is_disabled":false,"rental_uris":{"android":"levelo://app?vid=3e875e81-2bcf-4eb0-9a39-de622782e79e","ios":"levelo://app?vid=3e875e81-2bcf-4eb0-9a39-de622782e79e"},"vehicle_type_id":"4","last_reported":1727705343,"current_range_meters":9200,"station_id":"ce4bh9p2rcd13ifvqec0","pricing_plan_id":"cebpf4jnsgd1na2vs0mg"},{"bike_id":"c871162d-4a09-4905-84c3-918488734b8a","system_id":"levelo_inurba_marseille","lat":43.28262,"lon":5.35063,"is_reserved":false,"is_disabled":false,"rental_uris":{"android":"levelo://app?vid=c871162d-4a09-4905-84c3-918488734b8a","ios":"levelo://app?vid=c871162d-4a09-4905-84c3-918488734b8a"},"vehicle_type_id":"4","last_reported":1727705343,"current_range_meters":2000,"station_id":"ce4bhbp2rcd13ifvqerg","pricing_plan_id":"cebpf4jnsgd1na2vs0mg"},{"bike_id":"a7ed78e2-aaf2-4ce4-b2f7-ffa32dd089ec","system_id":"levelo_inurba_marseille","lat":43.24663,"lon":5.38163,"is_reserved":false,"is_disabled":false,"rental_uris":{"android":"levelo://app?vid=a7ed78e2-aaf2-4ce4-b2f7-ffa32dd089ec","ios":"levelo://app?vid=a7ed78e2-aaf2-4ce4-b2f7-ffa32dd089ec"},"vehicle_type_id":"4","last_reported":1727705343,"current_range_meters":36000,"station_id":"ce4bhih2rcd13ifvqfr0","pricing_plan_id":"cebpf4jnsgd1na2vs0mg"},{"bike_id":"8dddc838-89b5-41e8-96f9-7d7f05e18f04","system_id":"levelo_inurba_marseille","lat":43.2315,"lon":5.43724,"is_reserved":false,"is_disabled":false,"rental_uris":{"android":"levelo://app?vid=8dddc838-89b5-41e8-96f9-7d7f05e18f04","ios":"levelo://app?vid=8dddc838-89b5-41e8-96f9-7d7f05e18f04"},"vehicle_type_id":"4","last_reported":1727705343,"current_range_meters":36000,"station_id":"ce4bhmp2rcd13ifvqgog","pricing_plan_id":"cebpf4jnsgd1na2vs0mg"},{"bike_id":"08d11b4e-4dcc-47b8-870d-0ca4ef843157","system_id":"levelo_inurba_marseille","lat":43.23149,"lon":5.43717,"is_reserved":false,"is_disabled":false,"rental_uris":{"android":"levelo://app?vid=08d11b4e-4dcc-47b8-870d-0ca4ef843157","ios":"levelo://app?vid=08d11b4e-4dcc-47b8-870d-0ca4ef843157"},"vehicle_type_id":"4","last_reported":1727705343,"current_range_meters":25200,"station_id":"ce4bhmp2rcd13ifvqgog","pricing_plan_id":"cebpf4jnsgd1na2vs0mg"},{"bike_id":"a5d29f3e-acb0-4d02-89e1-5b90233abed7","system_id":"levelo_inurba_marseille","lat":43.2991,"lon":5.38144,"is_reserved":false,"is_disabled":false,"rental_uris":{"android":"levelo://app?vid=a5d29f3e-acb0-4d02-89e1-5b90233abed7","ios":"levelo://app?vid=a5d29f3e-acb0-4d02-89e1-5b90233abed7"},"vehicle_type_id":"4","last_reported":1727705343,"current_range_meters":36800,"station_id":"ce4bgj12rcd13ifvqbc0","pricing_plan_id":"cebpf4jnsgd1na2vs0mg"},{"bike_id":"801bb895-ced4-4ff7-895d-2a002649fc1c","system_id":"levelo_inurba_marseille","lat":43.28928,"lon":5.38387,"is_reserved":false,"is_disabled":false,"rental_uris":{"android":"levelo://app?vid=801bb895-ced4-4ff7-895d-2a002649fc1c","ios":"levelo://app?vid=801bb895-ced4-4ff7-895d-2a002649fc1c"},"vehicle_type_id":"4","last_reported":1727705343,"current_range_meters":38000,"station_id":"ce4bh612rcd13ifvqe6g","pricing_plan_id":"cebpf4jnsgd1na2vs0mg"},{"bike_id":"bbb23734-6aed-4ea8-8851-f38712ae567b","system_id":"levelo_inurba_marseille","lat":43.32366,"lon":5.38881,"is_reserved":false,"is_disabled":false,"rental_uris":{"android":"levelo://app?vid=bbb23734-6aed-4ea8-8851-f38712ae567b","ios":"levelo://app?vid=bbb23734-6aed-4ea8-8851-f38712ae567b"},"vehicle_type_id":"4","last_reported":1727705343,"current_range_meters":25200,"station_id":"ce4bhqp2rcd13ifvqhog","pricing_plan_id":"cebpf4jnsgd1na2vs0mg"},{"bike_id":"22e803db-e6b6-487e-aa35-184ea2106aec","system_id":"levelo_inurba_marseille","lat":43.28714,"lon":5.37932,"is_reserved":false,"is_disabled":false,"rental_uris":{"android":"levelo://app?vid=22e803db-e6b6-487e-aa35-184ea2106aec","ios":"levelo://app?vid=22e803db-e6b6-487e-aa35-184ea2106aec"},"vehicle_type_id":"4","last_reported":1727705343,"current_range_meters":4800,"station_id":"ce4bh9p2rcd13ifvqec0","pricing_plan_id":"cebpf4jnsgd1na2vs0mg"},{"bike_id":"68ee7c6a-9557-4ff4-890d-5a501ce717cc","system_id":"levelo_inurba_marseille","lat":43.3375,"lon":5.37443,"is_reserved":false,"is_disabled":false,"rental_uris":{"android":"levelo://app?vid=68ee7c6a-9557-4ff4-890d-5a501ce717cc","ios":"levelo://app?vid=68ee7c6a-9557-4ff4-890d-5a501ce717cc"},"vehicle_type_id":"4","last_reported":1727705343,"current_range_meters":35600,"station_id":"","pricing_plan_id":"cebpf4jnsgd1na2vs0mg"},{"bike_id":"a6837de5-6ae7-4e7f-b543-3e15611597ba","system_id":"levelo_inurba_marseille","lat":43.28935,"lon":5.3664,"is_reserved":false,"is_disabled":false,"rental_uris":{"android":"levelo://app?vid=a6837de5-6ae7-4e7f-b543-3e15611597ba","ios":"levelo://app?vid=a6837de5-6ae7-4e7f-b543-3e15611597ba"},"vehicle_type_id":"4","last_reported":1727705343,"current_range_meters":27200,"station_id":"ce4bhap2rcd13ifvqek0","pricing_plan_id":"cebpf4jnsgd1na2vs0mg"},{"bike_id":"f282826d-92f5-4a42-96ed-11a01561f56f","system_id":"levelo_inurba_marseille","lat":43.25821,"lon":5.39436,"is_reserved":false,"is_disabled":false,"rental_uris":{"android":"levelo://app?vid=f282826d-92f5-4a42-96ed-11a01561f56f","ios":"levelo://app?vid=f282826d-92f5-4a42-96ed-11a01561f56f"},"vehicle_type_id":"4","last_reported":1727705343,"current_range_meters":36400,"station_id":"ce4bhip2rcd13ifvqft0","pricing_plan_id":"cebpf4jnsgd1na2vs0mg"},{"bike_id":"d25e1f22-e5f1-4fa6-bdda-e90b0116a83f","system_id":"levelo_inurba_marseille","lat":43.30549,"lon":5.3655,"is_reserved":false,"is_disabled":false,"rental_uris":{"android":"levelo://app?vid=d25e1f22-e5f1-4fa6-bdda-e90b0116a83f","ios":"levelo://app?vid=d25e1f22-e5f1-4fa6-bdda-e90b0116a83f"},"vehicle_type_id":"4","last_reported":1727705343,"current_range_meters":36000,"station_id":"ce4bgs12rcd13ifvqcag","pricing_plan_id":"cebpf4jnsgd1na2vs0mg"},{"bike_id":"c3a595c3-1911-4c8c-809b-bf89d41903e4","system_id":"levelo_inurba_marseille","lat":43.28261,"lon":5.35063,"is_reserved":false,"is_disabled":false,"rental_uris":{"android":"levelo://app?vid=c3a595c3-1911-4c8c-809b-bf89d41903e4","ios":"levelo://app?vid=c3a595c3-1911-4c8c-809b-bf89d41903e4"},"vehicle_type_id":"4","last_reported":1727705343,"current_range_meters":38800,"station_id":"ce4bhbp2rcd13ifvqerg","pricing_plan_id":"cebpf4jnsgd1na2vs0mg"},{"bike_id":"b9e9fd2a-12f5-4261-b641-9eb2db0051e0","system_id":"levelo_inurba_marseille","lat":43.30783,"lon":5.37643,"is_reserved":false,"is_disabled":false,"rental_uris":{"android":"levelo://app?vid=b9e9fd2a-12f5-4261-b641-9eb2db0051e0","ios":"levelo://app?vid=b9e9fd2a-12f5-4261-b641-9eb2db0051e0"},"vehicle_type_id":"4","last_reported":1727705343,"current_range_meters":18000,"station_id":"ce4bgv92rcd13ifvqcq0","pricing_plan_id":"cebpf4jnsgd1na2vs0mg"},{"bike_id":"15313af8-27c1-48b7-b05b-d3395a2bf78f","system_id":"levelo_inurba_marseille","lat":43.27999,"lon":5.40017,"is_reserved":false,"is_disabled":false,"rental_uris":{"android":"levelo://app?vid=15313af8-27c1-48b7-b05b-d3395a2bf78f","ios":"levelo://app?vid=15313af8-27c1-48b7-b05b-d3395a2bf78f"},"vehicle_type_id":"4","last_reported":1727705343,"current_range_meters":6800,"station_id":"ce4bho92rcd13ifvqh4g","pricing_plan_id":"cebpf4jnsgd1na2vs0mg"},{"bike_id":"d9da2ee4-ef42-41dd-998a-e55a387cfe89","system_id":"levelo_inurba_marseille","lat":43.30595,"lon":5.37228,"is_reserved":false,"is_disabled":false,"rental_uris":{"android":"levelo://app?vid=d9da2ee4-ef42-41dd-998a-e55a387cfe89","ios":"levelo://app?vid=d9da2ee4-ef42-41dd-998a-e55a387cfe89"},"vehicle_type_id":"4","last_reported":1727705343,"current_range_meters":32000,"station_id":"ce4bgqh2rcd13ifvqc4g","pricing_plan_id":"cebpf4jnsgd1na2vs0mg"},{"bike_id":"10597d29-f045-497d-9ace-494afa07c777","system_id":"levelo_inurba_marseille","lat":43.2407,"lon":5.37763,"is_reserved":false,"is_disabled":false,"rental_uris":{"android":"levelo://app?vid=10597d29-f045-497d-9ace-494afa07c777","ios":"levelo://app?vid=10597d29-f045-497d-9ace-494afa07c777"},"vehicle_type_id":"4","last_reported":1727705343,"current_range_meters":36800,"station_id":"ce4bhnp2rcd13ifvqgvg","pricing_plan_id":"cebpf4jnsgd1na2vs0mg"},{"bike_id":"209b3ab4-4b23-4ad6-8de8-97ae20a2ca21","system_id":"levelo_inurba_marseille","lat":43.30421,"lon":5.41276,"is_reserved":false,"is_disabled":false,"rental_uris":{"android":"levelo://app?vid=209b3ab4-4b23-4ad6-8de8-97ae20a2ca21","ios":"levelo://app?vid=209b3ab4-4b23-4ad6-8de8-97ae20a2ca21"},"vehicle_type_id":"4","last_reported":1727705343,"current_range_meters":34000,"station_id":"ce4bhop2rcd13ifvqh8g","pricing_plan_id":"cebpf4jnsgd1na2vs0mg"},{"bike_id":"fb084b9d-352a-4f0f-9104-a0952a3618c8","system_id":"levelo_inurba_marseille","lat":43.299622,"lon":5.384753,"is_reserved":false,"is_disabled":false,"rental_uris":{"android":"levelo://app?vid=fb084b9d-352a-4f0f-9104-a0952a3618c8","ios":"levelo://app?vid=fb084b9d-352a-4f0f-9104-a0952a3618c8"},"vehicle_type_id":"4","last_reported":1727705343,"current_range_meters":20400,"station_id":"ce4bgj92rcd13ifvqbd0","pricing_plan_id":"cebpf4jnsgd1na2vs0mg"},{"bike_id":"eb44b663-8b9d-423c-8635-0e18ff10dd3d","system_id":"levelo_inurba_marseille","lat":43.25721,"lon":5.4111,"is_reserved":false,"is_disabled":false,"rental_uris":{"android":"levelo://app?vid=eb44b663-8b9d-423c-8635-0e18ff10dd3d","ios":"levelo://app?vid=eb44b663-8b9d-423c-8635-0e18ff10dd3d"},"vehicle_type_id":"4","last_reported":1727705343,"current_range_meters":11600,"station_id":"ce4bhkp2rcd13ifvqgd0","pricing_plan_id":"cebpf4jnsgd1na2vs0mg"},