{"last_updated":1741785528,"ttl":60,"version":"2.2","data":{"bikes":[{"bike_id":"01a9c16f-d127-416f-994b-179292b43966","system_id":"levelo_inurba_marseille","lat":43.29981,"lon":5.38493,"is_reserved":false,"is_disabled":false,"rental_uris":{"android":"levelo://app?vid=01a9c16f-d127-416f-994b-179292b43966","ios":"levelo://app?vid=01a9c16f-d127-416f-994b-179292b43966"},"vehicle_type_id":"4","last_reported":1741785528,"current_range_meters":2800,"station_id":"ce4bgj92rcd13ifvqbd0","pricing_plan_id":"cebpf4jnsgd1na2vs0mg"},{"bike_id":"18b5c5cf-b22b-48f2-aa97-ed0059cfc31d","system_id":"levelo_inurba_marseille","lat":43.28356,"lon":5.38639,"is_reserved":false,"is_disabled":false,"rental_uris":{"android":"levelo://app?vid=18b5c5cf-b22b-48f2-aa97-ed0059cfc31d","ios":"levelo://app?vid=18b5c5cf-b22b-48f2-aa97-ed0059cfc31d"},"vehicle_type_id":"4","last_reported":1741785528,"current_range_meters":2800,"station_id":"ce4bh492rcd13ifvqdvg","pricing_plan_id":"cebpf4jnsgd1na2vs0mg"},{"bike_id":"64f4c5b2-0354-439a-b475-85fa4cd22d87","system_id":"levelo_inurba_marseille","lat":43.261865,"lon":5.374532,"is_reserved":false,"is_disabled":false,"rental_uris":{"android":"levelo://app?vid=64f4c5b2-0354-439a-b475-85fa4cd22d87","ios":"levelo://app?vid=64f4c5b2-0354-439a-b475-85fa4cd22d87"},"vehicle_type_id":"4","last_reported":1741785528,"current_range_meters":2800,"station_id":"ce4bhgp2rcd13ifvqfc0","pricing_plan_id":"cebpf4jnsgd1na2vs0mg"},{"bike_id":"49fb6dfe-05b0-4837-a19b-040913e0e766","system_id":"levelo_inurba_marseille","lat":43.29001,"lon":5.3561,"is_reserved":false,"is_disabled":false,"rental_uris":{"android":"levelo://app?vid=49fb6dfe-05b0-4837-a19b-040913e0e766","ios":"levelo://app?vid=49fb6dfe-05b0-4837-a19b-040913e0e766"},"vehicle_type_id":"4","last_reported":1741785528,"current_range_meters":3200,"station_id":"ce4bhb92rcd13ifvqen0","pricing_plan_id":"cebpf4jnsgd1na2vs0mg"},{"bike_id":"8c016f55-0510-4a9f-b9fb-5d7f97786455","system_id":"levelo_inurba_marseille","lat":43.27375,"lon":5.36262,"is_reserved":false,"is_disabled":false,"rental_uris":{"android":"levelo://app?vid=8c016f55-0510-4a9f-b9fb-5d7f97786455","ios":"levelo://app?vid=8c016f55-0510-4a9f-b9fb-5d7f97786455"},"vehicle_type_id":"4","last_reported":1741785528,"current_range_meters":3600,"station_id":"ce4bhbh2rcd13ifvqeo0","pricing_plan_id":"cebpf4jnsgd1na2vs0mg"},{"bike_id":"24cc77ce-7229-481f-8cf4-4aa3c1d2e091","system_id":"levelo_inurba_marseille","lat":43.288515,"lon":5.39323,"is_reserved":false,"is_disabled":false,"rental_uris":{"android":"levelo://app?vid=24cc77ce-7229-481f-8cf4-4aa3c1d2e091","ios":"levelo://app?vid=24cc77ce-7229-481f-8cf4-4aa3c1d2e091"},"vehicle_type_id":"4","last_reported":1741785528,"current_range_meters":3600,"station_id":"ce4bh2p2rcd13ifvqdi0","pricing_plan_id":"cebpf4jnsgd1na2vs0mg"},{"bike_id":"043f09e5-716e-452f-8945-de6a3ec606f9","system_id":"levelo_inurba_marseille","lat":43.28444,"lon":5.39186,"is_reserved":false,"is_disabled":false,"rental_uris":{"android":"levelo://app?vid=043f09e5-716e-452f-8945-de6a3ec606f9","ios":"levelo://app?vid=043f09e5-716e-452f-8945-de6a3ec606f9"},"vehicle_type_id":"4","last_reported":1741785528,"current_range_meters":3600,"station_id":"ce4bhoh2rcd13ifvqh5g","pricing_plan_id":"cebpf4jnsgd1na2vs0mg"},{"bike_id":"4655ae61-9f01-41c1-8540-ac39b4dc6c5b","system_id":"levelo_inurba_marseille","lat":43.32536,"lon":5.41444,"is_reserved":false,"is_disabled":false,"rental_uris":{"android":"levelo://app?vid=4655ae61-9f01-41c1-8540-ac39b4dc6c5b","ios":"levelo://app?vid=4655ae61-9f01-41c1-8540-ac39b4dc6c5b"},"vehicle_type_id":"4","last_reported":1741785528,"current_range_meters":3600,"station_id":"ce4bhq12rcd13ifvqhhg","pricing_plan_id":"cebpf4jnsgd1na2vs0mg"},{"bike_id":"1cccf9ee-139c-4dc2-8dd0-ced14ebbe202","system_id":"levelo_inurba_marseille","lat":43.2396,"lon":5.3663,"is_reserved":false,"is_disabled":false,"rental_uris":{"android":"levelo://app?vid=1cccf9ee-139c-4dc2-8dd0-ced14ebbe202","ios":"levelo://app?vid=1cccf9ee-139c-4dc2-8dd0-ced14ebbe202"},"vehicle_type_id":"4","last_reported":1741785528,"current_range_meters":3600,"station_id":"ce4bhi12rcd13ifvqfp0","pricing_plan_id":"cebpf4jnsgd1na2vs0mg"},{"bike_id":"c63bf5bb-6dd1-4182-83d0-06b04d837e5f","system_id":"levelo_inurba_marseille","lat":43.24997,"lon":5.38947,"is_reserved":false,"is_disabled":false,"rental_uris":{"android":"levelo://app?vid=c63bf5bb-6dd1-4182-83d0-06b04d837e5f","ios":"levelo://app?vid=c63bf5bb-6dd1-4182-83d0-06b04d837e5f"},"vehicle_type_id":"4","last_reported":1741785528,"current_range_meters":3600,"station_id":"ce4bhgp2rcd13ifvqfd0","pricing_plan_id":"cebpf4jnsgd1na2vs0mg"},{"bike_id":"cc7122f3-48be-40b8-9b9a-6fbe9aeeeb84","system_id":"levelo_inurba_marseille","lat":43.30465,"lon":5.37908,"is_reserved":false,"is_disabled":false,"rental_uris":{"android":"levelo://app?vid=cc7122f3-48be-40b8-9b9a-6fbe9aeeeb84","ios":"levelo://app?vid=cc7122f3-48be-40b8-9b9a-6fbe9aeeeb84"},"vehicle_type_id":"4","last_reported":1741785528,"current_range_meters":3600,"station_id":"","pricing_plan_id":"cebpf4jnsgd1na2vs0mg"},{"bike_id":"03690356-08e9-4ea7-b9a3-8e88bf471e93","system_id":"levelo_inurba_marseille","lat":43.337444,"lon":5.374475,"is_reserved":false,"is_disabled":true,"rental_uris":{"android":"levelo://app?vid=03690356-08e9-4ea7-b9a3-8e88bf471e93","ios":"levelo://app?vid=03690356-08e9-4ea7-b9a3-8e88bf471e93"},"vehicle_type_id":"4","last_reported":1741785528,"current_range_meters":3600,"station_id":"","pricing_plan_id":"cebpf4jnsgd1na2vs0mg"},{"bike_id":"f94b5e5f-4de8-4a47-a339-ef40eb076d0b","system_id":"levelo_inurba_marseille","lat":43.33355,"lon":5.40037,"is_reserved":false,"is_disabled":false,"rental_uris":{"android":"levelo://app?vid=f94b5e5f-4de8-4a47-a339-ef40eb076d0b","ios":"levelo://app?vid=f94b5e5f-4de8-4a47-a339-ef40eb076d0b"},"vehicle_type_id":"4","last_reported":1741785528,"current_range_meters":4000,"station_id":"","pricing_plan_id":"cebpf4jnsgd1na2vs0mg"},{"bike_id":"09bbb690-af86-458c-bbad-70d10e2033ee","system_id":"levelo_inurba_marseille","lat":43.23056,"lon":5.3548,"is_reserved":false,"is_disabled":false,"rental_uris":{"android":"levelo://app?vid=09bbb690-af86-458c-bbad-70d10e2033ee","ios":"levelo://app?vid=09bbb690-af86-458c-bbad-70d10e2033ee"},"vehicle_type_id":"4","last_reported":1741785528,"current_range_meters":4000,"station_id":"cpo3342slgdg3j2ifvpg","pricing_plan_id":"cebpf4jnsgd1na2vs0mg"},{"bike_id":"af7870b3-58a8-494a-9abb-91575eec2240","system_id":"levelo_inurba_marseille","lat":43.29565,"lon":5.37518,"is_reserved":false,"is_disabled":false,"rental_uris":{"android":"levelo://app?vid=af7870b3-58a8-494a-9abb-91575eec2240","ios":"levelo://app?vid=af7870b3-58a8-494a-9abb-91575eec2240"},"vehicle_type_id":"4","last_reported":1741785528,"current_range_meters":4400,"station_id":"ce4bgh92rcd13ifvqb50","pricing_plan_id":"cebpf4jnsgd1na2vs0mg"},{"bike_id":"2ccaeeac-600e-4b6a-8170-b889444f158d","system_id":"levelo_inurba_marseille","lat":43.312902,"lon":5.401888,"is_reserved":false,"is_disabled":false,"rental_uris":{"android":"levelo://app?vid=2ccaeeac-600e-4b6a-8170-b889444f158d","ios":"levelo://app?vid=2ccaeeac-600e-4b6a-8170-b889444f158d"},"vehicle_type_id":"4","last_reported":1741785528,"current_range_meters":4800,"station_id":"ce4bh092rcd13ifvqd30","pricing_plan_id":"cebpf4jnsgd1na2vs0mg"},{"bike_id":"8d9518e5-0926-4b9e-abac-8af637e92076","system_id":"levelo_inurba_marseille","lat":43.32477,"lon":5.36598,"is_reserved":false,"is_disabled":false,"rental_uris":{"android":"levelo://app?vid=8d9518e5-0926-4b9e-abac-8af637e92076","ios":"levelo://app?vid=8d9518e5-0926-4b9e-abac-8af637e92076"},"vehicle_type_id":"4","last_reported":1741785528,"current_range_meters":4800,"station_id":"ce4bhs12rcd13ifvqhvg","pricing_plan_id":"cebpf4jnsgd1na2vs0mg"},{"bike_id":"d3acab28-3125-4afa-b5eb-02e807f46858","system_id":"levelo_inurba_marseille","lat":43.24197,"lon":5.39712,"is_reserved":false,"is_disabled":false,"rental_uris":{"android":"levelo://app?vid=d3acab28-3125-4afa-b5eb-02e807f46858","ios":"levelo://app?vid=d3acab28-3125-4afa-b5eb-02e807f46858"},"vehicle_type_id":"4","last_reported":1741785528,"current_range_meters":4800,"station_id":"ce4bhn12rcd13ifvqgpg","pricing_plan_id":"cebpf4jnsgd1na2vs0mg"},{"bike_id":"bf2feb02-4272-4476-92f9-9420844c4078","system_id":"levelo_inurba_marseille","lat":43.31205,"lon":5.37656,"is_reserved":false,"is_disabled":false,"rental_uris":{"android":"levelo://app?vid=bf2feb02-4272-4476-92f9-9420844c4078","ios":"levelo://app?vid=bf2feb02-4272-4476-92f9-9420844c4078"},"vehicle_type_id":"4","last_reported":1741785528,"current_range_meters":4800,"station_id":"","pricing_plan_id":"cebpf4jnsgd1na2vs0mg"},{"bike_id":"8d148f9c-d435-4123-bd0e-8d7ebd73846f","system_id":"levelo_inurba_marseille","lat":43.27059,"lon":5.40262,"is_reserved":false,"is_disabled":true,"rental_uris":{"android":"levelo://app?vid=8d148f9c-d435-4123-bd0e-8d7ebd73846f","ios":"levelo://app?vid=8d148f9c-d435-4123-bd0e-8d7ebd73846f"},"vehicle_type_id":"4","last_reported":1741785528,"current_range_meters":4800,"station_id":"ce4bhk92rcd13ifvqgc0","pricing_plan_id":"cebpf4jnsgd1na2vs0mg"},{"bike_id":"ee3470b0-a6a9-4f94-b140-463e351648db","system_id":"levelo_inurba_marseille","lat":43.2464,"lon":5.38908,"is_reserved":false,"is_disabled":false,"rental_uris":{"android":"levelo://app?vid=ee3470b0-a6a9-4f94-b140-463e351648db","ios":"levelo://app?vid=ee3470b0-a6a9-4f94-b140-463e351648db"},"vehicle_type_id":"4","last_reported":1741785528,"current_range_meters":5600,"station_id":"ce4bhg12rcd13ifvqf60","pricing_plan_id":"cebpf4jnsgd1na2vs0mg"},{"bike_id":"2a39b02c-4f6a-4f35-af2e-e9fb7ada9487","system_id":"levelo_inurba_marseille","lat":43.27941,"lon":5.41039,"is_reserved":false,"is_disabled":false,"rental_uris":{"android":"levelo://app?vid=2a39b02c-4f6a-4f35-af2e-e9fb7ada9487","ios":"levelo://app?vid=2a39b02c-4f6a-4f35-af2e-e9fb7ada9487"},"vehicle_type_id":"4","last_reported":1741785528,"current_range_meters":5600,"station_id":"ce4bhnp2rcd13ifvqh0g","pricing_plan_id":"cebpf4jnsgd1na2vs0mg"},{"bike_id":"80771939-f406-42f7-81c5-33180fd8a338","system_id":"levelo_inurba_marseille","lat":43.232,"lon":5.35556,"is_reserved":false,"is_disabled":false,"rental_uris":{"android":"levelo://app?vid=80771939-f406-42f7-81c5-33180fd8a338","ios":"levelo://app?vid=80771939-f406-42f7-81c5-33180fd8a338"},"vehicle_type_id":"4","last_reported":1741785528,"current_range_meters":5600,"station_id":"ce4bhu92rcd13ifvqi70","pricing_plan_id":"cebpf4jnsgd1na2vs0mg"},{"bike_id":"1352778d-01df-414b-9904-1d2491aaf28e","system_id":"levelo_inurba_marseille","lat":43.31346,"lon":5.36735,"is_reserved":false,"is_disabled":false,"rental_uris":{"android":"levelo://app?vid=1352778d-01df-414b-9904-1d2491aaf28e","ios":"levelo://app?vid=1352778d-01df-414b-9904-1d2491aaf28e"},"vehicle_type_id":"4","last_reported":1741785528,"current_range_meters":6000,"station_id":"ce4bgr92rcd13ifvqc6g","pricing_plan_id":"cebpf4jnsgd1na2vs0mg"},{"bike_id":"794b8f3f-cda0-4196-9618-5e0e95292620","system_id":"levelo_inurba_marseille","lat":43.2828,"lon":5.35082,"is_reserved":false,"is_disabled":false,"rental_uris":{"android":"levelo://app?vid=794b8f3f-cda0-4196-9618-5e0e95292620","ios":"levelo://app?vid=794b8f3f-cda0-4196-9618-5e0e95292620"},"vehicle_type_id":"4","last_reported":1741785528,"current_range_meters":6000,"station_id":"ce4bhbp2rcd13ifvqerg","pricing_plan_id":"cebpf4jnsgd1na2vs0mg"},{"bike_id":"9b8580bc-ae0f-4f8a-90a3-feb852a37ce9","system_id":"levelo_inurba_marseille","lat":43.31084,"lon":5.42435,"is_reserved":false,"is_disabled":false,"rental_uris":{"android":"levelo://app?vid=9b8580bc-ae0f-4f8a-90a3-feb852a37ce9","ios":"levelo://app?vid=9b8580bc-ae0f-4f8a-90a3-feb852a37ce9"},"vehicle_type_id":"4","last_reported":1741785528,"current_range_meters":6000,"station_id":"ce4bhp92rcd13ifvqhag","pricing_plan_id":"cebpf4jnsgd1na2vs0mg"},{"bike_id":"f7c247c8-1427-4f82-9ab0-f89a78d24ab2","system_id":"levelo_inurba_marseille","lat":43.29278,"lon":5.36845,"is_reserved":false,"is_disabled":false,"rental_uris":{"android":"levelo://app?vid=f7c247c8-1427-4f82-9ab0-f89a78d24ab2","ios":"levelo://app?vid=f7c247c8-1427-4f82-9ab0-f89a78d24ab2"},"vehicle_type_id":"4","last_reported":1741785528,"current_range_meters":6000,"station_id":"ce4bhbp2rcd13ifvqesg","pricing_plan_id":"cebpf4jnsgd1na2vs0mg"},{"bike_id":"d07b2204-be60-43db-81a4-f58447c212e4","system_id":"levelo_inurba_marseille","lat":43.29555,"lon":5.42293,"is_reserved":false,"is_disabled":false,"rental_uris":{"android":"levelo://app?vid=d07b2204-be60-43db-81a4-f58447c212e4","ios":"levelo://app?vid=d07b2204-be60-43db-81a4-f58447c212e4"},"vehicle_type_id":"4","last_reported":1741785528,"current_range_meters":6000,"station_id":"ce4bhph2rcd13ifvqhdg","pricing_plan_id":"cebpf4jnsgd1na2vs0mg"},{"bike_id":"56960358-dafd-449e-bd84-3d20aafb946d","system_id":"levelo_inurba_marseille","lat":43.26041,"lon":5.37545,"is_reserved":false,"is_disabled":false,"rental_uris":{"android":"levelo://app?vid=56960358-dafd-449e-bd84-3d20aafb946d","ios":"levelo://app?vid=56960358-dafd-449e-bd84-3d20aafb946d"},"vehicle_type_id":"4","last_reported":1741785528,"current_range_meters":6400,"station_id":"ce4bhgh2rcd13ifvqfa0","pricing_plan_id":"cebpf4jnsgd1na2vs0mg"},{"bike_id":"fe3a696f-ed7f-48e4-8097-592a425c065d","system_id":"levelo_inurba_marseille","lat":43.29628,"lon":5.37169,"is_reserved":false,"is_disabled":false,"rental_uris":{"android":"levelo://app?vid=fe3a696f-ed7f-48e4-8097-592a425c065d","ios":"levelo://app?vid=fe3a696f-ed7f-48e4-8097-592a425c065d"},"vehicle_type_id":"4","last_reported":1741785528,"current_range_meters":6400,"station_id":"ce4bgnh2rcd13ifvqc0g","pricing_plan_id":"cebpf4jnsgd1na2vs0mg"},{"bike_id":"cec6458d-2bf5-4cc3-b72a-8930c855e1a8","system_id":"levelo_inurba_marseille","lat":43.31086,"lon":5.42435,"is_reserved":false,"is_disabled":false,"rental_uris":{"android":"levelo://app?vid=cec6458d-2bf5-4cc3-b72a-8930c855e1a8","ios":"levelo://app?vid=cec6458d-2bf5-4cc3-b72a-8930c855e1a8"},"vehicle_type_id":"4","last_reported":1741785528,"current_range_meters":6400,"station_id":"ce4bhp92rcd13ifvqhag","pricing_plan_id":"cebpf4jnsgd1na2vs0mg"},{"bike_id":"4db736b9-68d3-4f2a-9431-002ce7a44183","system_id":"levelo_inurba_marseille","lat":43.231614,"lon":5.437037,"is_reserved":false,"is_disabled":false,"rental_uris":{"android":"levelo://app?vid=4db736b9-68d3-4f2a-9431-002ce7a44183","ios":"levelo://app?vid=4db736b9-68d3-4f2a-9431-002ce7a44183"},"vehicle_type_id":"4","last_reported":1741785528,"current_range_meters":6400,"station_id":"ce4bhmp2rcd13ifvqgog","pricing_plan_id":"cebpf4jnsgd1na2vs0mg"},{"bike_id":"b9680ac6-d12e-4a12-9dd8-1396db5e067b","system_id":"levelo_inurba_marseille","lat":43.23157,"lon":5.43712,"is_reserved":false,"is_disabled":false,"rental_uris":{"android":"levelo://app?vid=b9680ac6-d12e-4a12-9dd8-1396db5e067b","ios":"levelo://app?vid=b9680ac6-d12e-4a12-9dd8-1396db5e067b"},"vehicle_type_id":"4","last_reported":1741785528,"current_range_meters":6800,"station_id":"ce4bhmp2rcd13ifvqgog","pricing_plan_id":"cebpf4jnsgd1na2vs0mg"},{"bike_id":"7897ed63-4f21-4db4-b932-6ec1073d9ede","system_id":"levelo_inurba_marseille","lat":43.24997,"lon":5.3894,"is_reserved":false,"is_disabled":false,"rental_uris":{"android":"levelo://app?vid=7897ed63-4f21-4db4-b932-6ec1073d9ede","ios":"levelo://app?vid=7897ed63-4f21-4db4-b932-6ec1073d9ede"},"vehicle_type_id":"4","last_reported":1741785528,"current_range_meters":6800,"station_id":"ce4bhgp2rcd13ifvqfd0","pricing_plan_id":"cebpf4jnsgd1na2vs0mg"},{"bike_id":"46b47549-8f4f-4088-a27a-bea7bc202563","system_id":"levelo_inurba_marseille","lat":43.22931,"lon":5.35372,"is_reserved":false,"is_disabled":false,"rental_uris":{"android":"levelo://app?vid=46b47549-8f4f-4088-a27a-bea7bc202563","ios":"levelo://app?vid=46b47549-8f4f-4088-a27a-bea7bc202563"},"vehicle_type_id":"4","last_reported":1741785528,"current_range_meters":6800,"station_id":"cpo3532slgdg3j2ikp40","pricing_plan_id":"cebpf4jnsgd1na2vs0mg"},{"bike_id":"c73f9aa8-acf3-43f4-8673-a325cb00a2c3","system_id":"levelo_inurba_marseille","lat":43.28431,"lon":5.3591,"is_reserved":false,"is_disabled":false,"rental_uris":{"android":"levelo://app?vid=c73f9aa8-acf3-43f4-8673-a325cb00a2c3","ios":"levelo://app?vid=c73f9aa8-acf3-43f4-8673-a325cb00a2c3"},"vehicle_type_id":"4","last_reported":1741785528,"current_range_meters":6800,"station_id":"ce4bhah2rcd13ifvqei0","pricing_plan_id":"cebpf4jnsgd1na2vs0mg"},{"bike_id":"58d1b5b3-d322-4418-97d0-3066ec3d9afc","system_id":"levelo_inurba_marseille","lat":43.23204,"lon":5.35554,"is_reserved":false,"is_disabled":false,"rental_uris":{"android":"levelo://app?vid=58d1b5b3-d322-4418-97d0-3066ec3d9afc","ios":"levelo://app?vid=58d1b5b3-d322-4418-97d0-3066ec3d9afc"},"vehicle_type_id":"4","last_reported":1741785528,"current_range_meters":6800,"station_id":"ce4bhu92rcd13ifvqi70","pricing_plan_id":"cebpf4jnsgd1na2vs0mg"},{"bike_id":"4d498f7e-c30a-49c0-81cc-78df01a5fc13","system_id":"levelo_inurba_marseille","lat":43.29439,"lon":5.39748,"is_reserved":false,"is_disabled":false,"rental_uris":{"android":"levelo://app?vid=4d498f7e-c30a-49c0-81cc-78df01a5fc13","ios":"levelo://app?vid=4d498f7e-c30a-49c0-81cc-78df01a5fc13"},"vehicle_type_id":"4","last_reported":1741785528,"current_range_meters":6800,"station_id":"ce4bh3h2rcd13ifvqdo0","pricing_plan_id":"cebpf4jnsgd1na2vs0mg"},{"bike_id":"439145b5-f2bd-4a3e-a49d-618a0cdc32bb","system_id":"levelo_inurba_marseille","lat":43.26938,"lon":5.40253,"is_reserved":false,"is_disabled":false,"rental_uris":{"android":"levelo://app?vid=439145b5-f2bd-4a3e-a49d-618a0cdc32bb","ios":"levelo://app?vid=439145b5-f2bd-4a3e-a49d-618a0cdc32bb"},"vehicle_type_id":"4","last_reported":1741785528,"current_range_meters":7200,"station_id":"cjm6bp8fraef2m0cb0m0","pricing_plan_id":"cebpf4jnsgd1na2vs0mg"},{"bike_id":"d9ee3502-cee6-470a-9ce5-71f0e0384d68","system_id":"levelo_inurba_marseille","lat":43.24665,"lon":5.38167,"is_reserved":false,"is_disabled":false,"rental_uris":{"android":"levelo://app?vid=d9ee3502-cee6-470a-9ce5-71f0e0384d68","ios":"levelo://app?vid=d9ee3502-cee6-470a-9ce5-71f0e0384d68"},"vehicle_type_id":"4","last_reported":1741785528,"current_range_meters":7200,"station_id":"ce4bhih2rcd13ifvqfr0","pricing_plan_id":"cebpf4jnsgd1na2vs0mg"},{"bike_id":"6d6f31f6-cda1-4149-a5cf-acdd77d9dd11","system_id":"levelo_inurba_marseille","lat":43.28937,"lon":5.36396,"is_reserved":false,"is_disabled":false,"rental_uris":{"android":"levelo://app?vid=6d6f31f6-cda1-4149-a5cf-acdd77d9dd11","ios":"levelo://app?vid=6d6f31f6-cda1-4149-a5cf-acdd77d9dd11"},"vehicle_type_id":"4","last_reported":1741785528,"current_range_meters":7200,"station_id":"ce4bhc92rcd13ifvqetg","pricing_plan_id":"cebpf4jnsgd1na2vs0mg"},{"bike_id":"00559a84-bfdd-4a60-a5de-01556800e8d9","system_id":"levelo_inurba_marseille","lat":43.24196,"lon":5.39725,"is_reserved":false,"is_disabled":false,"rental_uris":{"android":"levelo://app?vid=00559a84-bfdd-4a60-a5de-01556800e8d9","ios":"levelo://app?vid=00559a84-bfdd-4a60-a5de-01556800e8d9"},"vehicle_type_id":"4","last_reported":1741785528,"current_range_meters":7200,"station_id":"ce4bhn12rcd13ifvqgpg","pricing_plan_id":"cebpf4jnsgd1na2vs0mg"},{"bike_id":"62d9fb39-b2d8-4c58-88bd-f5d77d8cfe03","system_id":"levelo_inurba_marseille","lat":43.27933,"lon":5.41028,"is_reserved":false,"is_disabled":false,"rental_uris":{"android":"levelo://app?vid=62d9fb39-b2d8-4c58-88bd-f5d77d8cfe03","ios":"levelo://app?vid=62d9fb39-b2d8-4c58-88bd-f5d77d8cfe03"},"vehicle_type_id":"4","last_reported":1741785528,"current_range_meters":7200,"station_id":"ce4bhnp2rcd13ifvqh0g","pricing_plan_id":"cebpf4jnsgd1na2vs0mg"},{"bike_id":"3aefe6f5-8150-4e5b-afa7-dca21edb0c1d","system_id":"levelo_inurba_marseille","lat":43.30886,"lon":5.39659,"is_reserved":false,"is_disabled":false,"rental_uris":{"android":"levelo://app?vid=3aefe6f5-8150-4e5b-afa7-dca21edb0c1d","ios":"levelo://app?vid=3aefe6f5-8150-4e5b-afa7-dca21edb0c1d"},"vehicle_type_id":"4","last_reported":1741785528,"current_range_meters":7200,"station_id":"ce4bh012rcd13ifvqcv0","pricing_plan_id":"cebpf4jnsgd1na2vs0mg"},{"bike_id":"1bb5dae5-2cdb-43ae-b04c-dad911982ded","system_id":"levelo_inurba_marseille","lat":43.25145,"lon":5.40298,"is_reserved":false,"is_disabled":false,"rental_uris":{"android":"levelo://app?vid=1bb5dae5-2cdb-43ae-b04c-dad911982ded","ios":"levelo://app?vid=1bb5dae5-2cdb-43ae-b04c-dad911982ded"},"vehicle_type_id":"4","last_reported":1741785528,"current_range_meters":7200,"station_id":"","pricing_plan_id":"cebpf4jnsgd1na2vs0mg"},{"bike_id":"f640465e-8c9e-425a-8e36-08d8d5201bf6","system_id":"levelo_inurba_marseille","lat":43.23196,"lon":5.35551,"is_reserved":false,"is_disabled":false,"rental_uris":{"android":"levelo://app?vid=f640465e-8c9e-425a-8e36-08d8d5201bf6","ios":"levelo://app?vid=f640465e-8c9e-425a-8e36-08d8d5201bf6"},"vehicle_type_id":"4","last_reported":1741785528,"current_range_meters":7200,"station_id":"ce4bhu92rcd13ifvqi70","pricing_plan_id":"cebpf4jnsgd1na2vs0mg"},{"bike_id":"5eef5338-ff8a-466a-999e-0f162b00ff22","system_id":"levelo_inurba_marseille","lat":43.24544,"lon":5.39526,"is_reserved":false,"is_disabled":false,"rental_uris":{"android":"levelo://app?vid=5eef5338-ff8a-466a-999e-0f162b00ff22","ios":"levelo://app?vid=5eef5338-ff8a-466a-999e-0f162b00ff22"},"vehicle_type_id":"4","last_reported":1741785528,"current_range_meters":7200,"station_id":"ce4bhlp2rcd13ifvqgjg","pricing_plan_id":"cebpf4jnsgd1na2vs0mg"},{"bike_id":"99aee515-4f6c-4708-b974-132dc33326df","system_id":"levelo_inurba_marseille","lat":43.29572,"lon":5.39976,"is_reserved":false,"is_disabled":false,"rental_uris":{"android":"levelo://app?vid=99aee515-4f6c-4708-b974-132dc33326df","ios":"levelo://app?vid=99aee515-4f6c-4708-b974-132dc33326df"},"vehicle_type_id":"4","last_reported":1741785528,"current_range_meters":8000,"station_id":"ce4bh312rcd13ifvqdj0","pricing_plan_id":"cebpf4jnsgd1na2vs0mg"},{"bike_id":"f57125ae-71fb-4c19-8ca8-136b1ad2f9c2","system_id":"levelo_inurba_marseille","lat":43.23196,"lon":5.39984,"is_reserved":false,"is_disabled":false,"rental_uris":{"android":"levelo://app?vid=f57125ae-71fb-4c19-8ca8-136b1ad2f9c2","ios":"levelo://app?vid=f57125ae-71fb-4c19-8ca8-136b1ad2f9c2"},"vehicle_type_id":"4","last_reported":1741785528,"current_range_meters":8000,"station_id":"ce4bhn12rcd13ifvqgqg","pricing_plan_id":"cebpf4jnsgd1na2vs0mg"},{"bike_id":"241d79a7-8164-4ee5-8d3f-2565e2e0b3e8","system_id":"levelo_inurba_marseille","lat":43.31377,"lon":5.37965,"is_reserved":false,"is_disabled":false,"rental_uris":{"android":"levelo://app?vid=241d79a7-8164-4ee5-8d3f-2565e2e0b3e8","ios":"levelo://app?vid=241d79a7-8164-4ee5-8d3f-2565e2e0b3e8"},"vehicle_type_id":"4","last_reported":1741785528,"current_range_meters":8000,"station_id":"","pricing_plan_id":"cebpf4jnsgd1na2vs0mg"},{"bike_id":"816588b3-9f81-48c0-999d-6699067e2ab5","system_id":"levelo_inurba_marseille","lat":43.278989,"lon":5.405499,"is_reserved":false,"is_disabled":false,"rental_uris":{"android":"levelo://app?vid=816588b3-9f81-48c0-999d-6699067e2ab5","ios":"levelo://app?vid=816588b3-9f81-48c0-999d-6699067e2ab5"},"vehicle_type_id":"4","last_reported":1741785528,"current_range_meters":8000,"station_id":"ce4bhl12rcd13ifvqgf0","pricing_plan_id":"cebpf4jnsgd1na2vs0mg"},{"bike_id":"c97dfa2b-c11e-4ecc-972f-40a33cfb17b5","system_id":"levelo_inurba_marseille","lat":43.31275,"lon":5.40185,"is_reserved":false,"is_disabled":false,"rental_uris":{"android":"levelo://app?vid=c97dfa2b-c11e-4ecc-972f-40a33cfb17b5","ios":"levelo://app?vid=c97dfa2b-c11e-4ecc-972f-40a33cfb17b5"},"vehicle_type_id":"4","last_reported":1741785528,"current_range_meters":8000,"station_id":"ce4bhq92rcd13ifvqhjg","pricing_plan_id":"cebpf4jnsgd1na2vs0mg"},{"bike_id":"7bf7f58f-ad56-40af-be2a-789cf052b870","system_id":"levelo_inurba_marseille","lat":43.29422,"lon":5.38622,"is_reserved":false,"is_disabled":false,"rental_uris":{"android":"levelo://app?vid=7bf7f58f-ad56-40af-be2a-789cf052b870","ios":"levelo://app?vid=7bf7f58f-ad56-40af-be2a-789cf052b870"},"vehicle_type_id":"4","last_reported":1741785528,"current_range_meters":7200,"station_id":"ce4bh2h2rcd13ifvqdh0","pricing_plan_id":"cebpf4jnsgd1na2vs0mg"},{"bike_id":"8091ba98-e234-4cbd-b6ca-94aedaf9af70","system_id":"levelo_inurba_marseille","lat":43.29935,"lon":5.3654,"is_reserved":false,"is_disabled":false,"rental_uris":{"android":"levelo://app?vid=8091ba98-e234-4cbd-b6ca-94aedaf9af70","ios":"levelo://app?vid=8091ba98-e234-4cbd-b6ca-94aedaf9af70"},"vehicle_type_id":"4","last_reported":1741785528,"current_range_meters":8000,"station_id":"ce4bgm92rcd13ifvqbr0","pricing_plan_id":"cebpf4jnsgd1na2vs0mg"},{"bike_id":"feb4b9df-ca5a-441d-8892-405597e7da99","system_id":"levelo_inurba_marseille","lat":43.23053,"lon":5.35506,"is_reserved":false,"is_disabled":false,"rental_uris":{"android":"levelo://app?vid=feb4b9df-ca5a-441d-8892-405597e7da99","ios":"levelo://app?vid=feb4b9df-ca5a-441d-8892-405597e7da99"},"vehicle_type_id":"4","last_reported":1741785528,"current_range_meters":8000,"station_id":"cpo3342slgdg3j2ifvpg","pricing_plan_id":"cebpf4jnsgd1na2vs0mg"},{"bike_id":"a901814a-01c8-4dae-a1e9-d1577fa2ec88","system_id":"levelo_inurba_marseille","lat":43.2872,"lon":5.37937,"is_reserved":false,"is_disabled":false,"rental_uris":{"android":"levelo://app?vid=a901814a-01c8-4dae-a1e9-d1577fa2ec88","ios":"levelo://app?vid=a901814a-01c8-4dae-a1e9-d1577fa2ec88"},"vehicle_type_id":"4","last_reported":1741785528,"current_range_meters":8400,"station_id":"ce4bh9p2rcd13ifvqec0","pricing_plan_id":"cebpf4jnsgd1na2vs0mg"},{"bike_id":"415e7a31-245d-4ead-9f33-dad092a04302","system_id":"levelo_inurba_marseille","lat":43.23074,"lon":5.3548,"is_reserved":false,"is_disabled":false,"rental_uris":{"android":"levelo://app?vid=415e7a31-245d-4ead-9f33-dad092a04302","ios":"levelo://app?vid=415e7a31-245d-4ead-9f33-dad092a04302"},"vehicle_type_id":"4","last_reported":1741785528,"current_range_meters":8400,"station_id":"cpo3342slgdg3j2ifvpg","pricing_plan_id":"cebpf4jnsgd1na2vs0mg"},{"bike_id":"137550d2-c010-445c-a97f-7e855af297e1","system_id":"levelo_inurba_marseille","lat":43.27052,"lon":5.40261,"is_reserved":false,"is_disabled":false,"rental_uris":{"android":"levelo://app?vid=137550d2-c010-445c-a97f-7e855af297e1","ios":"levelo://app?vid=137550d2-c010-445c-a97f-7e855af297e1"},"vehicle_type_id":"4","last_reported":1741785528,"current_range_meters":8400,"station_id":"ce4bhk92rcd13ifvqgc0","pricing_plan_id":"cebpf4jnsgd1na2vs0mg"},{"bike_id":"5fd3b54b-1dcc-4184-9deb-86eaa2dd2bd3","system_id":"levelo_inurba_marseille","lat":43.28488,"lon":5.38419,"is_reserved":false,"is_disabled":false,"rental_uris":{"android":"levelo://app?vid=5fd3b54b-1dcc-4184-9deb-86eaa2dd2bd3","ios":"levelo://app?vid=5fd3b54b-1dcc-4184-9deb-86eaa2dd2bd3"},"vehicle_type_id":"4","last_reported":1741785528,"current_range_meters":8400,"station_id":"ce4bh512rcd13ifvqe3g","pricing_plan_id":"cebpf4jnsgd1na2vs0mg"},{"bike_id":"14c9745d-9d86-4b92-b845-1e0a82865cbd","system_id":"levelo_inurba_marseille","lat":43.3361,"lon":5.41032,"is_reserved":false,"is_disabled":false,"rental_uris":{"android":"levelo://app?vid=14c9745d-9d86-4b92-b845-1e0a82865cbd","ios":"levelo://app?vid=14c9745d-9d86-4b92-b845-1e0a82865cbd"},"vehicle_type_id":"4","last_reported":1741785528,"current_range_meters":8400,"station_id":"ce4bhqh2rcd13ifvqhmg","pricing_plan_id":"cebpf4jnsgd1na2vs0mg"},{"bike_id":"29dcf4e5-3fc4-4240-b459-5be7b3d8998f","system_id":"levelo_inurba_marseille","lat":43.33611,"lon":5.4098,"is_reserved":false,"is_disabled":false,"rental_uris":{"android":"levelo://app?vid=29dcf4e5-3fc4-4240-b459-5be7b3d8998f","ios":"levelo://app?vid=29dcf4e5-3fc4-4240-b459-5be7b3d8998f"},"vehicle_type_id":"4","last_reported":1741785528,"current_range_meters":8400,"station_id":"ce4bhqh2rcd13ifvqhmg","pricing_plan_id":"cebpf4jnsgd1na2vs0mg"},{"bike_id":"c162d31b-46b9-4d97-bb02-89f384506e7e","system_id":"levelo_inurba_marseille","lat":43.25782,"lon":5.41087,"is_reserved":false,"is_disabled":false,"rental_uris":{"android":"levelo://app?vid=c162d31b-46b9-4d97-bb02-89f384506e7e","ios":"levelo://app?vid=c162d31b-46b9-4d97-bb02-89f384506e7e"},"vehicle_type_id":"4","last_reported":1741785528,"current_range_meters":8400,"station_id":"","pricing_plan_id":"cebpf4jnsgd1na2vs0mg"},{"bike_id":"9665822a-509b-4c77-8919-a1ba46c55339","system_id":"levelo_inurba_marseille","lat":43.30775,"lon":5.367996,"is_reserved":false,"is_disabled":false,"rental_uris":{"android":"levelo://app?vid=9665822a-509b-4c77-8919-a1ba46c55339","ios":"levelo://app?vid=9665822a-509b-4c77-8919-a1ba46c55339"},"vehicle_type_id":"4","last_reported":1741785528,"current_range_meters":8400,"station_id":"ce4bgn92rcd13ifvqbvg","pricing_plan_id":"cebpf4jnsgd1na2vs0mg"},{"bike_id":"97d4666e-c4ba-47a7-9327-41075a0d7383","system_id":"levelo_inurba_marseille","lat":43.30312,"lon":5.36898,"is_reserved":false,"is_disabled":false,"rental_uris":{"android":"levelo://app?vid=97d4666e-c4ba-47a7-9327-41075a0d7383","ios":"levelo://app?vid=97d4666e-c4ba-47a7-9327-41075a0d7383"},"vehicle_type_id":"4","last_reported":1741785528,"current_range_meters":8400,"station_id":"ce4bgqh2rcd13ifvqc5g","pricing_plan_id":"cebpf4jnsgd1na2vs0mg"},{"bike_id":"80160602-9be5-4bff-ab04-8eb5a2c2a942","system_id":"levelo_inurba_marseille","lat":43.2587,"lon":5.39897,"is_reserved":false,"is_disabled":false,"rental_uris":{"android":"levelo://app?vid=80160602-9be5-4bff-ab04-8eb5a2c2a942","ios":"levelo://app?vid=80160602-9be5-4bff-ab04-8eb5a2c2a942"},"vehicle_type_id":"4","last_reported":1741785528,"current_range_meters":8400,"station_id":"ce4bhl92rcd13ifvqghg","pricing_plan_id":"cebpf4jnsgd1na2vs0mg"},{"bike_id":"b1494e1c-7159-4f9c-b8c5-96698d9b5be3","system_id":"levelo_inurba_marseille","lat":43.30883,"lon":5.39658,"is_reserved":false,"is_disabled":false,"rental_uris":{"android":"levelo://app?vid=b1494e1c-7159-4f9c-b8c5-96698d9b5be3","ios":"levelo://app?vid=b1494e1c-7159-4f9c-b8c5-96698d9b5be3"},"vehicle_type_id":"4","last_reported":1741785528,"current_range_meters":8400,"station_id":"ce4bh012rcd13ifvqcv0","pricing_plan_id":"cebpf4jnsgd1na2vs0mg"},{"bike_id":"702cb46f-b487-4fa7-bb19-ff8a8de79b57","system_id":"levelo_inurba_marseille","lat":43.26802,"lon":5.40252,"is_reserved":false,"is_disabled":false,"rental_uris":{"android":"levelo://app?vid=702cb46f-b487-4fa7-bb19-ff8a8de79b57","ios":"levelo://app?vid=702cb46f-b487-4fa7-bb19-ff8a8de79b57"},"vehicle_type_id":"4","last_reported":1741785528,"current_range_meters":8400,"station_id":"ce501612rcd8frsf0b60","pricing_plan_id":"cebpf4jnsgd1na2vs0mg"},{"bike_id":"05388ace-665a-4114-a828-939b708a2589","system_id":"levelo_inurba_marseille","lat":43.23199,"lon":5.39966,"is_reserved":false,"is_disabled":false,"rental_uris":{"android":"levelo://app?vid=05388ace-665a-4114-a828-939b708a2589","ios":"levelo://app?vid=05388ace-665a-4114-a828-939b708a2589"},"vehicle_type_id":"4","last_reported":1741785528,"current_range_meters":8400,"station_id":"ce4bhn12rcd13ifvqgqg","pricing_plan_id":"cebpf4jnsgd1na2vs0mg"},{"bike_id":"e12be538-6dde-4604-98c7-f66a323a5270","system_id":"levelo_inurba_marseille","lat":43.25404,"lon":5.41879,"is_reserved":false,"is_disabled":false,"rental_uris":{"android":"levelo://app?vid=e12be538-6dde-4604-98c7-f66a323a5270","ios":"levelo://app?vid=e12be538-6dde-4604-98c7-f66a323a5270"},"vehicle_type_id":"4","last_reported":1741785528,"current_range_meters":8400,"station_id":"","pricing_plan_id":"cebpf4jnsgd1na2vs0mg"},{"bike_id":"57e37cca-bdc7-4218-826b-7149e78c606a","system_id":"levelo_inurba_marseille","lat":43.23151,"lon":5.43696,"is_reserved":false,"is_disabled":false,"rental_uris":{"android":"levelo://app?vid=57e37cca-bdc7-4218-826b-7149e78c606a","ios":"levelo://app?vid=57e37cca-bdc7-4218-826b-7149e78c606a"},"vehicle_type_id":"4","last_reported":1741785528,"current_range_meters":8400,"station_id":"ce4bhmp2rcd13ifvqgog","pricing_plan_id":"cebpf4jnsgd1na2vs0mg"},{"bike_id":"eb1ba1b6-2e87-45ed-8cf3-925b9709627f","system_id":"levelo_inurba_marseille","lat":43.29489,"lon":5.39408,"is_reserved":false,"is_disabled":false,"rental_uris":{"android":"levelo://app?vid=eb1ba1b6-2e87-45ed-8cf3-925b9709627f","ios":"levelo://app?vid=eb1ba1b6-2e87-45ed-8cf3-925b9709627f"},"vehicle_type_id":"4","last_reported":1741785528,"current_range_meters":8800,"station_id":"ce4bh3p2rcd13ifvqdp0","pricing_plan_id":"cebpf4jnsgd1na2vs0mg"},{"bike_id":"1e383331-4cf9-4f27-840c-e013f13c25d8","system_id":"levelo_inurba_marseille","lat":43.23155,"lon":5.39979,"is_reserved":false,"is_disabled":false,"rental_uris":{"android":"levelo://app?vid=1e383331-4cf9-4f27-840c-e013f13c25d8","ios":"levelo://app?vid=1e383331-4cf9-4f27-840c-e013f13c25d8"},"vehicle_type_id":"4","last_reported":1741785528,"current_range_meters":8800,"station_id":"ce4bhn12rcd13ifvqgqg","pricing_plan_id":"cebpf4jnsgd1na2vs0mg"},{"bike_id":"948e0535-f8ee-42aa-b3c6-de33694c2f18","system_id":"levelo_inurba_marseille","lat":43.32728,"lon":5.39236,"is_reserved":false,"is_disabled":false,"rental_uris":{"android":"levelo://app?vid=948e0535-f8ee-42aa-b3c6-de33694c2f18","ios":"levelo://app?vid=948e0535-f8ee-42aa-b3c6-de33694c2f18"},"vehicle_type_id":"4","last_reported":1741785528,"current_range_meters":8800,"station_id":"","pricing_plan_id":"cebpf4jnsgd1na2vs0mg"},{"bike_id":"fa1f3d6d-791c-4304-9b5c-be3a4cd4a4ba","system_id":"levelo_inurba_marseille","lat":43.27808,"lon":5.40705,"is_reserved":false,"is_disabled":false,"rental_uris":{"android":"levelo://app?vid=fa1f3d6d-791c-4304-9b5c-be3a4cd4a4ba","ios":"levelo://app?vid=fa1f3d6d-791c-4304-9b5c-be3a4cd4a4ba"},"vehicle_type_id":"4","last_reported":1741785528,"current_range_meters":8800,"station_id":"ce4bhnh2rcd13ifvqgtg","pricing_plan_id":"cebpf4jnsgd1na2vs0mg"},{"bike_id":"6216841f-c9be-4e6e-bcf4-810c7dd12453","system_id":"levelo_inurba_marseille","lat":43.31206,"lon":5.36852,"is_reserved":false,"is_disabled":false,"rental_uris":{"android":"levelo://app?vid=6216841f-c9be-4e6e-bcf4-810c7dd12453","ios":"levelo://app?vid=6216841f-c9be-4e6e-bcf4-810c7dd12453"},"vehicle_type_id":"4","last_reported":1741785528,"current_range_meters":8800,"station_id":"ce4bgl92rcd13ifvqbq0","pricing_plan_id":"cebpf4jnsgd1na2vs0mg"},{"bike_id":"9101287b-43dc-4f41-8fe9-39f299913c2e","system_id":"levelo_inurba_marseille","lat":43.25916,"lon":5.40881,"is_reserved":false,"is_disabled":false,"rental_uris":{"android":"levelo://app?vid=9101287b-43dc-4f41-8fe9-39f299913c2e","ios":"levelo://app?vid=9101287b-43dc-4f41-8fe9-39f299913c2e"},"vehicle_type_id":"4","last_reported":1741785528,"current_range_meters":8800,"station_id":"ce4bhm92rcd13ifvqglg","pricing_plan_id":"cebpf4jnsgd1na2vs0mg"},{"bike_id":"35d3f2ad-3fb6-45ed-85dd-25e7dbbdcae4","system_id":"levelo_inurba_marseille","lat":43.27375,"lon":5.36258,"is_reserved":false,"is_disabled":false,"rental_uris":{"android":"levelo://app?vid=35d3f2ad-3fb6-45ed-85dd-25e7dbbdcae4","ios":"levelo://app?vid=35d3f2ad-3fb6-45ed-85dd-25e7dbbdcae4"},"vehicle_type_id":"4","last_reported":1741785528,"current_range_meters":8800,"station_id":"ce4bhbh2rcd13ifvqeo0","pricing_plan_id":"cebpf4jnsgd1na2vs0mg"},{"bike_id":"d31a9b9e-c671-4c10-bfe3-fe674b86365e","system_id":"levelo_inurba_marseille","lat":43.315,"lon":5.37312,"is_reserved":false,"is_disabled":false,"rental_uris":{"android":"levelo://app?vid=d31a9b9e-c671-4c10-bfe3-fe674b86365e","ios":"levelo://app?vid=d31a9b9e-c671-4c10-bfe3-fe674b86365e"},"vehicle_type_id":"4","last_reported":1741785528,"current_range_meters":9200,"station_id":"ce4bgt12rcd13ifvqcd0","pricing_plan_id":"cebpf4jnsgd1na2vs0mg"},{"bike_id":"b07eb6c8-419a-48b6-91ae-1abf76913aa5","system_id":"levelo_inurba_marseille","lat":43.2315,"lon":5.43727,"is_reserved":false,"is_disabled":false,"rental_uris":{"android":"levelo://app?vid=b07eb6c8-419a-48b6-91ae-1abf76913aa5","ios":"levelo://app?vid=b07eb6c8-419a-48b6-91ae-1abf76913aa5"},"vehicle_type_id":"4","last_reported":1741785528,"current_range_meters":9200,"station_id":"","pricing_plan_id":"cebpf4jnsgd1na2vs0mg"},{"bike_id":"04b6b0f6-d318-40e6-a023-347d481d621c","system_id":"levelo_inurba_marseille","lat":43.29201,"lon":5.37591,"is_reserved":false,"is_disabled":false,"rental_uris":{"android":"levelo://app?vid=04b6b0f6-d318-40e6-a023-347d481d621c","ios":"levelo://app?vid=04b6b0f6-d318-40e6-a023-347d481d621c"},"vehicle_type_id":"4","last_reported":1741785528,"current_range_meters":9200,"station_id":"","pricing_plan_id":"cebpf4jnsgd1na2vs0mg"},{"bike_id":"82512acd-d4a4-4e69-ad68-d5bb4078ae7a","system_id":"levelo_inurba_marseille","lat":43.23964,"lon":5.36634,"is_reserved":false,"is_disabled":false,"rental_uris":{"android":"levelo://app?vid=82512acd-d4a4-4e69-ad68-d5bb4078ae7a","ios":"levelo://app?vid=82512acd-d4a4-4e69-ad68-d5bb4078ae7a"},"vehicle_type_id":"4","last_reported":1741785528,"current_range_meters":9200,"station_id":"ce4bhi12rcd13ifvqfp0","pricing_plan_id":"cebpf4jnsgd1na2vs0mg"},{"bike_id":"363c2aeb-9540-4815-aaf5-4af8304b06b1","system_id":"levelo_inurba_marseille","lat":43.30882,"lon":5.39651,"is_reserved":false,"is_disabled":false,"rental_uris":{"android":"levelo://app?vid=363c2aeb-9540-4815-aaf5-4af8304b06b1","ios":"levelo://app?vid=363c2aeb-9540-4815-aaf5-4af8304b06b1"},"vehicle_type_id":"4","last_reported":1741785528,"current_range_meters":9200,"station_id":"ce4bh012rcd13ifvqcv0","pricing_plan_id":"cebpf4jnsgd1na2vs0mg"},{"bike_id":"9880b3b3-4334-44f1-88d3-e581c8981652","system_id":"levelo_inurba_marseille","lat":43.270619,"lon":5.40262,"is_reserved":false,"is_disabled":false,"rental_uris":{"android":"levelo://app?vid=9880b3b3-4334-44f1-88d3-e581c8981652","ios":"levelo://app?vid=9880b3b3-4334-44f1-88d3-e581c8981652"},"vehicle_type_id":"4","last_reported":1741785528,"current_range_meters":9200,"station_id":"ce4bhk92rcd13ifvqgc0","pricing_plan_id":"cebpf4jnsgd1na2vs0mg"},{"bike_id":"2931d81f-abb3-45b8-9224-dc3fce2fae31","system_id":"levelo_inurba_marseille","lat":43.323617,"lon":5.367568,"is_reserved":false,"is_disabled":false,"rental_uris":{"android":"levelo://app?vid=2931d81f-abb3-45b8-9224-dc3fce2fae31","ios":"levelo://app?vid=2931d81f-abb3-45b8-9224-dc3fce2fae31"},"vehicle_type_id":"4","last_reported":1741785528,"current_range_meters":9200,"station_id":"ce4bhsh2rcd13ifvqi2g","pricing_plan_id":"cebpf4jnsgd1na2vs0mg"},{"bike_id":"c1fdf776-5ff6-4f38-96ad-d3bee4a7cebb","system_id":"levelo_inurba_marseille","lat":43.23154,"lon":5.43722,"is_reserved":false,"is_disabled":false,"rental_uris":{"android":"levelo://app?vid=c1fdf776-5ff6-4f38-96ad-d3bee4a7cebb","ios":"levelo://app?vid=c1fdf776-5ff6-4f38-96ad-d3bee4a7cebb"},"vehicle_type_id":"4","last_reported":1741785528,"current_range_meters":9200,"station_id":"ce4bhmp2rcd13ifvqgog","pricing_plan_id":"cebpf4jnsgd1na2vs0mg"},{"bike_id":"e903bbff-5792-47a1-b07a-fcd1122515a2","system_id":"levelo_inurba_marseille","lat":43.29894,"lon":5.4368,"is_reserved":false,"is_disabled":false,"rental_uris":{"android":"levelo://app?vid=e903bbff-5792-47a1-b07a-fcd1122515a2","ios":"levelo://app?vid=e903bbff-5792-47a1-b07a-fcd1122515a2"},"vehicle_type_id":"4","last_reported":1741785528,"current_range_meters":9200,"station_id":"ce4bhpp2rcd13ifvqhfg","pricing_plan_id":"cebpf4jnsgd1na2vs0mg"},{"bike_id":"0117055b-abaa-4782-a83e-c23d24cb8a2e","system_id":"levelo_inurba_marseille","lat":43.24638,"lon":5.38893,"is_reserved":false,"is_disabled":false,"rental_uris":{"android":"levelo://app?vid=0117055b-abaa-4782-a83e-c23d24cb8a2e","ios":"levelo://app?vid=0117055b-abaa-4782-a83e-c23d24cb8a2e"},"vehicle_type_id":"4","last_reported":1741785528,"current_range_meters":9200,"station_id":"ce4bhg12rcd13ifvqf60","pricing_plan_id":"cebpf4jnsgd1na2vs0mg"},{"bike_id":"f076f6f7-e4b4-48be-92db-c2ec27c500f6","system_id":"levelo_inurba_marseille","lat":43.23177,"lon":5.40044,"is_reserved":false,"is_disabled":false,"rental_uris":{"android":"levelo://app?vid=f076f6f7-e4b4-48be-92db-c2ec27c500f6","ios":"levelo://app?vid=f076f6f7-e4b4-48be-92db-c2ec27c500f6"},"vehicle_type_id":"4","last_reported":1741785528,"current_range_meters":9600,"station_id":"ce4bhn12rcd13ifvqgqg","pricing_plan_id":"cebpf4jnsgd1na2vs0mg"},{"bike_id":"ba18639b-98cc-4ab3-ad63-4ac259cc4916","system_id":"levelo_inurba_marseille","lat":43.239642,"lon":5.366312,"is_reserved":false,"is_disabled":false,"rental_uris":{"android":"levelo://app?vid=ba18639b-98cc-4ab3-ad63-4ac259cc4916","ios":"levelo://app?vid=ba18639b-98cc-4ab3-ad63-4ac259cc4916"},"vehicle_type_id":"4","last_reported":1741785528,"current_range_meters":9600,"station_id":"ce4bhi12rcd13ifvqfp0","pricing_plan_id":"cebpf4jnsgd1na2vs0mg"},{"bike_id":"13038f8e-ae85-4d9c-ac24-31f2124a973b","system_id":"levelo_inurba_marseille","lat":43.24655,"lon":5.38885,"is_reserved":false,"is_disabled":false,"rental_uris":{"android":"levelo://app?vid=13038f8e-ae85-4d9c-ac24-31f2124a973b","ios":"levelo://app?vid=13038f8e-ae85-4d9c-ac24-31f2124a973b"},"vehicle_type_id":"4","last_reported":1741785528,"current_range_meters":9600,"station_id":"ce4bhg12rcd13ifvqf60","pricing_plan_id":"cebpf4jnsgd1na2vs0mg"},{"bike_id":"25ca95ce-3199-4e41-8d32-cf42333bc895","system_id":"levelo_inurba_marseille","lat":43.29868,"lon":5.39738,"is_reserved":false,"is_disabled":false,"rental_uris":{"android":"levelo://app?vid=25ca95ce-3199-4e41-8d32-cf42333bc895","ios":"levelo://app?vid=25ca95ce-3199-4e41-8d32-cf42333bc895"},"vehicle_type_id":"4","last_reported":1741785528,"current_range_meters":9600,"station_id":"ce4bh0h2rcd13ifvqd50","pricing_plan_id":"cebpf4jnsgd1na2vs0mg"},{"bike_id":"c3119a68-c411-4092-8188-25e1cea36589","system_id":"levelo_inurba_marseille","lat":43.30638,"lon":5.40099,"is_reserved":false,"is_disabled":false,"rental_uris":{"android":"levelo://app?vid=c3119a68-c411-4092-8188-25e1cea36589","ios":"levelo://app?vid=c3119a68-c411-4092-8188-25e1cea36589"},"vehicle_type_id":"4","last_reported":1741785528,"current_range_meters":9600,"station_id":"ce4bh112rcd13ifvqda0","pricing_plan_id":"cebpf4jnsgd1na2vs0mg"},{"bike_id":"35e1c8de-568f-4d43-8c4f-5ad221c99a90","system_id":"levelo_inurba_marseille","lat":43.30184,"lon":5.36616,"is_reserved":false,"is_disabled":false,"rental_uris":{"android":"levelo://app?vid=35e1c8de-568f-4d43-8c4f-5ad221c99a90","ios":"levelo://app?vid=35e1c8de-568f-4d43-8c4f-5ad221c99a90"},"vehicle_type_id":"4","last_reported":1741785528,"current_range_meters":9600,"station_id":"ce4bgrh2rcd13ifvqc8g","pricing_plan_id":"cebpf4jnsgd1na2vs0mg"},{"bike_id":"8dee66dd-a753-4e90-9df0-a75f60b0d66f","system_id":"levelo_inurba_marseille","lat":43.28573,"lon":5.42484,"is_reserved":false,"is_disabled":false,"rental_uris":{"android":"levelo://app?vid=8dee66dd-a753-4e90-9df0-a75f60b0d66f","ios":"levelo://app?vid=8dee66dd-a753-4e90-9df0-a75f60b0d66f"},"vehicle_type_id":"4","last_reported":1741785528,"current_range_meters":9600,"station_id":"","pricing_plan_id":"cebpf4jnsgd1na2vs0mg"},{"bike_id":"ebcd70c6-eb93-44d4-90c3-54c9dd3bc4cd","system_id":"levelo_inurba_marseille","lat":43.26565,"lon":5.37291,"is_reserved":false,"is_disabled":false,"rental_uris":{"android":"levelo://app?vid=ebcd70c6-eb93-44d4-90c3-54c9dd3bc4cd","ios":"levelo://app?vid=ebcd70c6-eb93-44d4-90c3-54c9dd3bc4cd"},"vehicle_type_id":"4","last_reported":1741785528,"current_range_meters":9600,"station_id":"ce4bhg12rcd13ifvqf70","pricing_plan_id":"cebpf4jnsgd1na2vs0mg"},{"bike_id":"3c0dd8f0-5b66-45c4-aa35-d8c26ffd748c","system_id":"levelo_inurba_marseille","lat":43.27948,"lon":5.41041,"is_reserved":false,"is_disabled":false,"rental_uris":{"android":"levelo://app?vid=3c0dd8f0-5b66-45c4-aa35-d8c26ffd748c","ios":"levelo://app?vid=3c0dd8f0-5b66-45c4-aa35-d8c26ffd748c"},"vehicle_type_id":"4","last_reported":1741785528,"current_range_meters":9600,"station_id":"ce4bhnp2rcd13ifvqh0g","pricing_plan_id":"cebpf4jnsgd1na2vs0mg"},{"bike_id":"511a478b-16c6-4549-a89d-177a4b1ec633","system_id":"levelo_inurba_marseille","lat":43.26577,"lon":5.37285,"is_reserved":false,"is_disabled":false,"rental_uris":{"android":"levelo://app?vid=511a478b-16c6-4549-a89d-177a4b1ec633","ios":"levelo://app?vid=511a478b-16c6-4549-a89d-177a4b1ec633"},"vehicle_type_id":"4","last_reported":1741785528,"current_range_meters":9600,"station_id":"ce4bhg12rcd13ifvqf70","pricing_plan_id":"cebpf4jnsgd1na2vs0mg"},{"bike_id":"03fcef79-f017-4d15-a10d-891c5cd96db2","system_id":"levelo_inurba_marseille","lat":43.23081,"lon":5.35493,"is_reserved":false,"is_disabled":false,"rental_uris":{"android":"levelo://app?vid=03fcef79-f017-4d15-a10d-891c5cd96db2","ios":"levelo://app?vid=03fcef79-f017-4d15-a10d-891c5cd96db2"},"vehicle_type_id":"4","last_reported":1741785528,"current_range_meters":9600,"station_id":"cpo3342slgdg3j2ifvpg","pricing_plan_id":"cebpf4jnsgd1na2vs0mg"},{"bike_id":"f829a819-671e-4b71-9c22-56c5f8047725","system_id":"levelo_inurba_marseille","lat":43.32355,"lon":5.36759,"is_reserved":false,"is_disabled":false,"rental_uris":{"android":"levelo://app?vid=f829a819-671e-4b71-9c22-56c5f8047725","ios":"levelo://app?vid=f829a819-671e-4b71-9c22-56c5f8047725"},"vehicle_type_id":"4","last_reported":1741785528,"current_range_meters":9600,"station_id":"ce4bhsh2rcd13ifvqi2g","pricing_plan_id":"cebpf4jnsgd1na2vs0mg"},{"bike_id":"85ed05c6-632d-4954-86ee-72e8e07f68f6","system_id":"levelo_inurba_marseille","lat":43.30303,"lon":5.36879,"is_reserved":false,"is_disabled":false,"rental_uris":{"android":"levelo://app?vid=85ed05c6-632d-4954-86ee-72e8e07f68f6","ios":"levelo://app?vid=85ed05c6-632d-4954-86ee-72e8e07f68f6"},"vehicle_type_id":"4","last_reported":1741785528,"current_range_meters":10000,"station_id":"ce4bgqh2rcd13ifvqc5g","pricing_plan_id":"cebpf4jnsgd1na2vs0mg"},{"bike_id":"b090c9b5-c457-4bdb-a10a-0abcc6badcd7","system_id":"levelo_inurba_marseille","lat":43.30539,"lon":5.36558,"is_reserved":false,"is_disabled":false,"rental_uris":{"android":"levelo://app?vid=b090c9b5-c457-4bdb-a10a-0abcc6badcd7","ios":"levelo://app?vid=b090c9b5-c457-4bdb-a10a-0abcc6badcd7"},"vehicle_type_id":"4","last_reported":1741785528,"current_range_meters":10000,"station_id":"ce4bgs12rcd13ifvqcag","pricing_plan_id":"cebpf4jnsgd1na2vs0mg"},{"bike_id":"d102b4e9-e81b-49b6-ba97-bd718b5a9515","system_id":"levelo_inurba_marseille","lat":43.30264,"lon":5.37725,"is_reserved":false,"is_disabled":false,"rental_uris":{"android":"levelo://app?vid=d102b4e9-e81b-49b6-ba97-bd718b5a9515","ios":"levelo://app?vid=d102b4e9-e81b-49b6-ba97-bd718b5a9515"},"vehicle_type_id":"4","last_reported":1741785528,"current_range_meters":10000,"station_id":"ce4bguh2rcd13ifvqcj0","pricing_plan_id":"cebpf4jnsgd1na2vs0mg"},{"bike_id":"e35cbe39-60ed-43d9-8160-1534baea73c3","system_id":"levelo_inurba_marseille","lat":43.31319,"lon":5.39692,"is_reserved":false,"is_disabled":false,"rental_uris":{"android":"levelo://app?vid=e35cbe39-60ed-43d9-8160-1534baea73c3","ios":"levelo://app?vid=e35cbe39-60ed-43d9-8160-1534baea73c3"},"vehicle_type_id":"4","last_reported":1741785528,"current_range_meters":10000,"station_id":"ce4bgvp2rcd13ifvqcu0","pricing_plan_id":"cebpf4jnsgd1na2vs0mg"},{"bike_id":"78b2cd09-81de-4253-8f12-38223b16b1e6","system_id":"levelo_inurba_marseille","lat":43.26682,"lon":5.38273,"is_reserved":false,"is_disabled":false,"rental_uris":{"android":"levelo://app?vid=78b2cd09-81de-4253-8f12-38223b16b1e6","ios":"levelo://app?vid=78b2cd09-81de-4253-8f12-38223b16b1e6"},"vehicle_type_id":"4","last_reported":1741785528,"current_range_meters":11600,"station_id":"ce4bhg92rcd13ifvqf90","pricing_plan_id":"cebpf4jnsgd1na2vs0mg"},{"bike_id":"18a276e7-3cf0-4673-85e1-471adfb91da4","system_id":"levelo_inurba_marseille","lat":43.27853,"lon":5.39212,"is_reserved":false,"is_disabled":false,"rental_uris":{"android":"levelo://app?vid=18a276e7-3cf0-4673-85e1-471adfb91da4","ios":"levelo://app?vid=18a276e7-3cf0-4673-85e1-471adfb91da4"},"vehicle_type_id":"4","last_reported":1741785528,"current_range_meters":10000,"station_id":"ce4bhjp2rcd13ifvqga0","pricing_plan_id":"cebpf4jnsgd1na2vs0mg"},{"bike_id":"6190eac7-4d69-4aee-8885-569caf678aef","system_id":"levelo_inurba_marseille","lat":43.25714,"lon":5.41122,"is_reserved":false,"is_disabled":false,"rental_uris":{"android":"levelo://app?vid=6190eac7-4d69-4aee-8885-569caf678aef","ios":"levelo://app?vid=6190eac7-4d69-4aee-8885-569caf678aef"},"vehicle_type_id":"4","last_reported":1741785528,"current_range_meters":10000,"station_id":"ce4bhkp2rcd13ifvqgd0","pricing_plan_id":"cebpf4jnsgd1na2vs0mg"},{"bike_id":"a8d39cbd-fcf8-48d7-ace7-aaca4c293c33","system_id":"levelo_inurba_marseille","lat":43.29565,"lon":5.39976,"is_reserved":false,"is_disabled":false,"rental_uris":{"android":"levelo://app?vid=a8d39cbd-fcf8-48d7-ace7-aaca4c293c33","ios":"levelo://app?vid=a8d39cbd-fcf8-48d7-ace7-aaca4c293c33"},"vehicle_type_id":"4","last_reported":1741785528,"current_range_meters":10000,"station_id":"ce4bh312rcd13ifvqdj0","pricing_plan_id":"cebpf4jnsgd1na2vs0mg"},{"bike_id":"abd01563-25ee-495a-a95b-891dbf0a92ef","system_id":"levelo_inurba_marseille","lat":43.249953,"lon":5.389263,"is_reserved":false,"is_disabled":false,"rental_uris":{"android":"levelo://app?vid=abd01563-25ee-495a-a95b-891dbf0a92ef","ios":"levelo://app?vid=abd01563-25ee-495a-a95b-891dbf0a92ef"},"vehicle_type_id":"4","last_reported":1741785528,"current_range_meters":10000,"station_id":"ce4bhgp2rcd13ifvqfd0","pricing_plan_id":"cebpf4jnsgd1na2vs0mg"},{"bike_id":"a4ce6389-69c8-41eb-a2cb-27e113df5153","system_id":"levelo_inurba_marseille","lat":43.28602,"lon":5.35122,"is_reserved":false,"is_disabled":false,"rental_uris":{"android":"levelo://app?vid=a4ce6389-69c8-41eb-a2cb-27e113df5153","ios":"levelo://app?vid=a4ce6389-69c8-41eb-a2cb-27e113df5153"},"vehicle_type_id":"4","last_reported":1741785528,"current_range_meters":10800,"station_id":"ce4bhch2rcd13ifvqeug","pricing_plan_id":"cebpf4jnsgd1na2vs0mg"},{"bike_id":"15945df9-cece-4165-b8da-5cff592695e2","system_id":"levelo_inurba_marseille","lat":43.305585,"lon":5.365286,"is_reserved":false,"is_disabled":false,"rental_uris":{"android":"levelo://app?vid=15945df9-cece-4165-b8da-5cff592695e2","ios":"levelo://app?vid=15945df9-cece-4165-b8da-5cff592695e2"},"vehicle_type_id":"4","last_reported":1741785528,"current_range_meters":10800,"station_id":"ce4bgs12rcd13ifvqcag","pricing_plan_id":"cebpf4jnsgd1na2vs0mg"},{"bike_id":"28ddcdf4-024a-4f42-80ff-fb3bac3f5f61","system_id":"levelo_inurba_marseille","lat":43.24168,"lon":5.36389,"is_reserved":false,"is_disabled":false,"rental_uris":{"android":"levelo://app?vid=28ddcdf4-024a-4f42-80ff-fb3bac3f5f61","ios":"levelo://app?vid=28ddcdf4-024a-4f42-80ff-fb3bac3f5f61"},"vehicle_type_id":"4","last_reported":1741785528,"current_range_meters":10800,"station_id":"cpo36qri1sfpv3e86is0","pricing_plan_id":"cebpf4jnsgd1na2vs0mg"},{"bike_id":"d8fc7225-0157-4f46-bfde-5e8a21a4823b","system_id":"levelo_inurba_marseille","lat":43.25831,"lon":5.39401,"is_reserved":false,"is_disabled":false,"rental_uris":{"android":"levelo://app?vid=d8fc7225-0157-4f46-bfde-5e8a21a4823b","ios":"levelo://app?vid=d8fc7225-0157-4f46-bfde-5e8a21a4823b"},"vehicle_type_id":"4","last_reported":1741785528,"current_range_meters":10800,"station_id":"ce4bhip2rcd13ifvqft0","pricing_plan_id":"cebpf4jnsgd1na2vs0mg"},{"bike_id":"5dff7e4b-00a4-4649-9663-d77c949847a1","system_id":"levelo_inurba_marseille","lat":43.24179,"lon":5.3639,"is_reserved":false,"is_disabled":false,"rental_uris":{"android":"levelo://app?vid=5dff7e4b-00a4-4649-9663-d77c949847a1","ios":"levelo://app?vid=5dff7e4b-00a4-4649-9663-d77c949847a1"},"vehicle_type_id":"4","last_reported":1741785528,"current_range_meters":10800,"station_id":"cpo36qri1sfpv3e86is0","pricing_plan_id":"cebpf4jnsgd1na2vs0mg"},{"bike_id":"ec5d08ce-934d-49b5-9a73-c20b44942d11","system_id":"levelo_inurba_marseille","lat":43.31431,"lon":5.37643,"is_reserved":false,"is_disabled":false,"rental_uris":{"android":"levelo://app?vid=ec5d08ce-934d-49b5-9a73-c20b44942d11","ios":"levelo://app?vid=ec5d08ce-934d-49b5-9a73-c20b44942d11"},"vehicle_type_id":"4","last_reported":1741785528,"current_range_meters":10800,"station_id":"","pricing_plan_id":"cebpf4jnsgd1na2vs0mg"},{"bike_id":"b0783381-ea64-4035-b38d-9beb860ee3b3","system_id":"levelo_inurba_marseille","lat":43.29718,"lon":5.36607,"is_reserved":false,"is_disabled":false,"rental_uris":{"android":"levelo://app?vid=b0783381-ea64-4035-b38d-9beb860ee3b3","ios":"levelo://app?vid=b0783381-ea64-4035-b38d-9beb860ee3b3"},"vehicle_type_id":"4","last_reported":1741785528,"current_range_meters":10000,"station_id":"ce4bgn12rcd13ifvqbt0","pricing_plan_id":"cebpf4jnsgd1na2vs0mg"},{"bike_id":"401d6ce7-33fc-4929-b3d9-05de4044e4d4","system_id":"levelo_inurba_marseille","lat":43.29,"lon":5.35621,"is_reserved":false,"is_disabled":false,"rental_uris":{"android":"levelo://app?vid=401d6ce7-33fc-4929-b3d9-05de4044e4d4","ios":"levelo://app?vid=401d6ce7-33fc-4929-b3d9-05de4044e4d4"},"vehicle_type_id":"4","last_reported":1741785528,"current_range_meters":10000,"station_id":"ce4bhb92rcd13ifvqen0","pricing_plan_id":"cebpf4jnsgd1na2vs0mg"},{"bike_id":"2d16443d-ed2e-4c48-af94-4deffe2479f1","system_id":"levelo_inurba_marseille","lat":43.25016,"lon":5.38908,"is_reserved":false,"is_disabled":false,"rental_uris":{"android":"levelo://app?vid=2d16443d-ed2e-4c48-af94-4deffe2479f1","ios":"levelo://app?vid=2d16443d-ed2e-4c48-af94-4deffe2479f1"},"vehicle_type_id":"4","last_reported":1741785528,"current_range_meters":10800,"station_id":"ce4bhgp2rcd13ifvqfd0","pricing_plan_id":"cebpf4jnsgd1na2vs0mg"},{"bike_id":"b47f8cd2-01da-48b4-8642-b2bd3fa34292","system_id":"levelo_inurba_marseille","lat":43.29439,"lon":5.39748,"is_reserved":false,"is_disabled":false,"rental_uris":{"android":"levelo://app?vid=b47f8cd2-01da-48b4-8642-b2bd3fa34292","ios":"levelo://app?vid=b47f8cd2-01da-48b4-8642-b2bd3fa34292"},"vehicle_type_id":"4","last_reported":1741785528,"current_range_meters":10800,"station_id":"ce4bh3h2rcd13ifvqdo0","pricing_plan_id":"cebpf4jnsgd1na2vs0mg"},{"bike_id":"3eeeac4b-7136-4c9c-993f-d8ac73f741bf","system_id":"levelo_inurba_marseille","lat":43.29961,"lon":5.38497,"is_reserved":false,"is_disabled":false,"rental_uris":{"android":"levelo://app?vid=3eeeac4b-7136-4c9c-993f-d8ac73f741bf","ios":"levelo://app?vid=3eeeac4b-7136-4c9c-993f-d8ac73f741bf"},"vehicle_type_id":"4","last_reported":1741785528,"current_range_meters":10800,"station_id":"ce4bgj92rcd13ifvqbd0","pricing_plan_id":"cebpf4jnsgd1na2vs0mg"},{"bike_id":"2f5af948-065d-48fe-87ba-52806f22ac74","system_id":"levelo_inurba_marseille","lat":43.28257,"lon":5.35056,"is_reserved":false,"is_disabled":false,"rental_uris":{"android":"levelo://app?vid=2f5af948-065d-48fe-87ba-52806f22ac74","ios":"levelo://app?vid=2f5af948-065d-48fe-87ba-52806f22ac74"},"vehicle_type_id":"4","last_reported":1741785528,"current_range_meters":10800,"station_id":"ce4bhbp2rcd13ifvqerg","pricing_plan_id":"cebpf4jnsgd1na2vs0mg"},{"bike_id":"13fe6d94-935d-42fe-a51f-7a8c162fd6d2","system_id":"levelo_inurba_marseille","lat":43.29591,"lon":5.39973,"is_reserved":false,"is_disabled":false,"rental_uris":{"android":"levelo://app?vid=13fe6d94-935d-42fe-a51f-7a8c162fd6d2","ios":"levelo://app?vid=13fe6d94-935d-42fe-a51f-7a8c162fd6d2"},"vehicle_type_id":"4","last_reported":1741785528,"current_range_meters":11200,"station_id":"ce4bh312rcd13ifvqdj0","pricing_plan_id":"cebpf4jnsgd1na2vs0mg"},{"bike_id":"8dd448ea-028c-494a-92b5-056fabd112c6","system_id":"levelo_inurba_marseille","lat":43.30545,"lon":5.36558,"is_reserved":false,"is_disabled":false,"rental_uris":{"android":"levelo://app?vid=8dd448ea-028c-494a-92b5-056fabd112c6","ios":"levelo://app?vid=8dd448ea-028c-494a-92b5-056fabd112c6"},"vehicle_type_id":"4","last_reported":1741785528,"current_range_meters":11200,"station_id":"ce4bgs12rcd13ifvqcag","pricing_plan_id":"cebpf4jnsgd1na2vs0mg"},{"bike_id":"4ad9c640-704f-4648-a12d-b5105947d193","system_id":"levelo_inurba_marseille","lat":43.27815,"lon":5.40708,"is_reserved":false,"is_disabled":false,"rental_uris":{"android":"levelo://app?vid=4ad9c640-704f-4648-a12d-b5105947d193","ios":"levelo://app?vid=4ad9c640-704f-4648-a12d-b5105947d193"},"vehicle_type_id":"4","last_reported":1741785528,"current_range_meters":11200,"station_id":"ce4bhnh2rcd13ifvqgtg","pricing_plan_id":"cebpf4jnsgd1na2vs0mg"},{"bike_id":"54183ff0-6130-41c8-822f-33a1605854c0","system_id":"levelo_inurba_marseille","lat":43.31359,"lon":5.36731,"is_reserved":false,"is_disabled":false,"rental_uris":{"android":"levelo://app?vid=54183ff0-6130-41c8-822f-33a1605854c0","ios":"levelo://app?vid=54183ff0-6130-41c8-822f-33a1605854c0"},"vehicle_type_id":"4","last_reported":1741785528,"current_range_meters":11200,"station_id":"ce4bgr92rcd13ifvqc6g","pricing_plan_id":"cebpf4jnsgd1na2vs0mg"},{"bike_id":"5b3bfd16-0470-4fb7-b202-4bdbc648bace","system_id":"levelo_inurba_marseille","lat":43.24541,"lon":5.39524,"is_reserved":false,"is_disabled":false,"rental_uris":{"android":"levelo://app?vid=5b3bfd16-0470-4fb7-b202-4bdbc648bace","ios":"levelo://app?vid=5b3bfd16-0470-4fb7-b202-4bdbc648bace"},"vehicle_type_id":"4","last_reported":1741785528,"current_range_meters":11200,"station_id":"ce4bhlp2rcd13ifvqgjg","pricing_plan_id":"cebpf4jnsgd1na2vs0mg"},{"bike_id":"0a995a9a-6122-4f4b-b298-a8b06cbca7e2","system_id":"levelo_inurba_marseille","lat":43.25016,"lon":5.38931,"is_reserved":false,"is_disabled":false,"rental_uris":{"android":"levelo://app?vid=0a995a9a-6122-4f4b-b298-a8b06cbca7e2","ios":"levelo://app?vid=0a995a9a-6122-4f4b-b298-a8b06cbca7e2"},"vehicle_type_id":"4","last_reported":1741785528,"current_range_meters":11600,"station_id":"ce4bhgp2rcd13ifvqfd0","pricing_plan_id":"cebpf4jnsgd1na2vs0mg"},{"bike_id":"0b40be10-cbab-420b-a83d-40fb17cb5b5f","system_id":"levelo_inurba_marseille","lat":43.28653,"lon":5.36349,"is_reserved":false,"is_disabled":false,"rental_uris":{"android":"levelo://app?vid=0b40be10-cbab-420b-a83d-40fb17cb5b5f","ios":"levelo://app?vid=0b40be10-cbab-420b-a83d-40fb17cb5b5f"},"vehicle_type_id":"4","last_reported":1741785528,"current_range_meters":11600,"station_id":"ce4bhah2rcd13ifvqej0","pricing_plan_id":"cebpf4jnsgd1na2vs0mg"},{"bike_id":"e18aaafa-c5dd-4020-a695-36ea398e5f59","system_id":"levelo_inurba_marseille","lat":43.30458,"lon":5.3791,"is_reserved":false,"is_disabled":false,"rental_uris":{"android":"levelo://app?vid=e18aaafa-c5dd-4020-a695-36ea398e5f59","ios":"levelo://app?vid=e18aaafa-c5dd-4020-a695-36ea398e5f59"},"vehicle_type_id":"4","last_reported":1741785528,"current_range_meters":11600,"station_id":"ce4bgup2rcd13ifvqcn0","pricing_plan_id":"cebpf4jnsgd1na2vs0mg"},{"bike_id":"57ea39e3-cb3d-43bc-970e-be7c572c685a","system_id":"levelo_inurba_marseille","lat":43.27945,"lon":5.41053,"is_reserved":false,"is_disabled":false,"rental_uris":{"android":"levelo://app?vid=57ea39e3-cb3d-43bc-970e-be7c572c685a","ios":"levelo://app?vid=57ea39e3-cb3d-43bc-970e-be7c572c685a"},"vehicle_type_id":"4","last_reported":1741785528,"current_range_meters":11600,"station_id":"ce4bhnp2rcd13ifvqh0g","pricing_plan_id":"cebpf4jnsgd1na2vs0mg"},{"bike_id":"79aa20a0-e0f8-4ece-b583-c8030c6058ae","system_id":"levelo_inurba_marseille","lat":43.29246,"lon":5.37643,"is_reserved":false,"is_disabled":false,"rental_uris":{"android":"levelo://app?vid=79aa20a0-e0f8-4ece-b583-c8030c6058ae","ios":"levelo://app?vid=79aa20a0-e0f8-4ece-b583-c8030c6058ae"},"vehicle_type_id":"4","last_reported":1741785528,"current_range_meters":11600,"station_id":"ce4bgi12rcd13ifvqb80","pricing_plan_id":"cebpf4jnsgd1na2vs0mg"},{"bike_id":"1674c92d-479e-44d9-8d6c-960920b59508","system_id":"levelo_inurba_marseille","lat":43.31362,"lon":5.36708,"is_reserved":false,"is_disabled":false,"rental_uris":{"android":"levelo://app?vid=1674c92d-479e-44d9-8d6c-960920b59508","ios":"levelo://app?vid=1674c92d-479e-44d9-8d6c-960920b59508"},"vehicle_type_id":"4","last_reported":1741785528,"current_range_meters":11600,"station_id":"ce4bgr92rcd13ifvqc6g","pricing_plan_id":"cebpf4jnsgd1na2vs0mg"},{"bike_id":"6b11f67d-0dab-455e-ac8d-184274c32cc6","system_id":"levelo_inurba_marseille","lat":43.29027,"lon":5.38142,"is_reserved":false,"is_disabled":false,"rental_uris":{"android":"levelo://app?vid=6b11f67d-0dab-455e-ac8d-184274c32cc6","ios":"levelo://app?vid=6b11f67d-0dab-455e-ac8d-184274c32cc6"},"vehicle_type_id":"4","last_reported":1741785528,"current_range_meters":11600,"station_id":"ce4bh4p2rcd13ifvqe1g","pricing_plan_id":"cebpf4jnsgd1na2vs0mg"},{"bike_id":"8afc345b-56b8-46e6-a0b1-6f81dadf6638","system_id":"levelo_inurba_marseille","lat":43.24152,"lon":5.39742,"is_reserved":false,"is_disabled":false,"rental_uris":{"android":"levelo://app?vid=8afc345b-56b8-46e6-a0b1-6f81dadf6638","ios":"levelo://app?vid=8afc345b-56b8-46e6-a0b1-6f81dadf6638"},"vehicle_type_id":"4","last_reported":1741785528,"current_range_meters":11600,"station_id":"ce4bhn12rcd13ifvqgpg","pricing_plan_id":"cebpf4jnsgd1na2vs0mg"},{"bike_id":"d5296f2c-e1fa-4af4-94a2-e4a4501cef85","system_id":"levelo_inurba_marseille","lat":43.29845,"lon":5.36279,"is_reserved":false,"is_disabled":false,"rental_uris":{"android":"levelo://app?vid=d5296f2c-e1fa-4af4-94a2-e4a4501cef85","ios":"levelo://app?vid=d5296f2c-e1fa-4af4-94a2-e4a4501cef85"},"vehicle_type_id":"4","last_reported":1741785528,"current_range_meters":11600,"station_id":"ce4bgpp2rcd13ifvqc3g","pricing_plan_id":"cebpf4jnsgd1na2vs0mg"},{"bike_id":"a4e6155a-6c9c-4b1e-a5c7-21b2c82df6ca","system_id":"levelo_inurba_marseille","lat":43.2679,"lon":5.39414,"is_reserved":false,"is_disabled":false,"rental_uris":{"android":"levelo://app?vid=a4e6155a-6c9c-4b1e-a5c7-21b2c82df6ca","ios":"levelo://app?vid=a4e6155a-6c9c-4b1e-a5c7-21b2c82df6ca"},"vehicle_type_id":"4","last_reported":1741785528,"current_range_meters":12000,"station_id":"ce4bhh12rcd13ifvqfg0","pricing_plan_id":"cebpf4jnsgd1na2vs0mg"},{"bike_id":"297903bf-f6be-4d10-bca8-f606030d376b","system_id":"levelo_inurba_marseille","lat":43.31533,"lon":5.38029,"is_reserved":false,"is_disabled":false,"rental_uris":{"android":"levelo://app?vid=297903bf-f6be-4d10-bca8-f606030d376b","ios":"levelo://app?vid=297903bf-f6be-4d10-bca8-f606030d376b"},"vehicle_type_id":"4","last_reported":1741785528,"current_range_meters":12000,"station_id":"ce4bhsp2rcd13ifvqi50","pricing_plan_id":"cebpf4jnsgd1na2vs0mg"},{"bike_id":"e39f6efa-32c8-477c-aac6-900beb1c8dc7","system_id":"levelo_inurba_marseille","lat":43.22929,"lon":5.35382,"is_reserved":false,"is_disabled":false,"rental_uris":{"android":"levelo://app?vid=e39f6efa-32c8-477c-aac6-900beb1c8dc7","ios":"levelo://app?vid=e39f6efa-32c8-477c-aac6-900beb1c8dc7"},"vehicle_type_id":"4","last_reported":1741785528,"current_range_meters":12000,"station_id":"cpo3532slgdg3j2ikp40","pricing_plan_id":"cebpf4jnsgd1na2vs0mg"},{"bike_id":"6dbc9b4a-c5a1-4dbf-a00f-5bb7462d2694","system_id":"levelo_inurba_marseille","lat":43.28096,"lon":5.39854,"is_reserved":false,"is_disabled":true,"rental_uris":{"android":"levelo://app?vid=6dbc9b4a-c5a1-4dbf-a00f-5bb7462d2694","ios":"levelo://app?vid=6dbc9b4a-c5a1-4dbf-a00f-5bb7462d2694"},"vehicle_type_id":"4","last_reported":1741785528,"current_range_meters":12000,"station_id":"","pricing_plan_id":"cebpf4jnsgd1na2vs0mg"},{"bike_id":"45345445-a78a-493f-a730-c619602e3241","system_id":"levelo_inurba_marseille","lat":43.25605,"lon":5.38554,"is_reserved":false,"is_disabled":false,"rental_uris":{"android":"levelo://app?vid=45345445-a78a-493f-a730-c619602e3241","ios":"levelo://app?vid=45345445-a78a-493f-a730-c619602e3241"},"vehicle_type_id":"4","last_reported":1741785528,"current_range_meters":12000,"station_id":"","pricing_plan_id":"cebpf4jnsgd1na2vs0mg"},{"bike_id":"6bbd8167-677b-4915-9d5a-11e650cf2ac2","system_id":"levelo_inurba_marseille","lat":43.26553,"lon":5.37288,"is_reserved":false,"is_disabled":false,"rental_uris":{"android":"levelo://app?vid=6bbd8167-677b-4915-9d5a-11e650cf2ac2","ios":"levelo://app?vid=6bbd8167-677b-4915-9d5a-11e650cf2ac2"},"vehicle_type_id":"4","last_reported":1741785528,"current_range_meters":12400,"station_id":"ce4bhg12rcd13ifvqf70","pricing_plan_id":"cebpf4jnsgd1na2vs0mg"},{"bike_id":"d4df08b0-e4dd-4c4b-ac7e-66a43d848ae1","system_id":"levelo_inurba_marseille","lat":43.31273,"lon":5.36789,"is_reserved":false,"is_disabled":false,"rental_uris":{"android":"levelo://app?vid=d4df08b0-e4dd-4c4b-ac7e-66a43d848ae1","ios":"levelo://app?vid=d4df08b0-e4dd-4c4b-ac7e-66a43d848ae1"},"vehicle_type_id":"4","last_reported":1741785528,"current_range_meters":12400,"station_id":"ce4bgl92rcd13ifvqbq0","pricing_plan_id":"cebpf4jnsgd1na2vs0mg"},{"bike_id":"c040d266-b0e5-4e85-b3b0-28f1ce31f807","system_id":"levelo_inurba_marseille","lat":43.30882,"lon":5.37192,"is_reserved":false,"is_disabled":false,"rental_uris":{"android":"levelo://app?vid=c040d266-b0e5-4e85-b3b0-28f1ce31f807","ios":"levelo://app?vid=c040d266-b0e5-4e85-b3b0-28f1ce31f807"},"vehicle_type_id":"4","last_reported":1741785528,"current_range_meters":12400,"station_id":"ce4bguh2rcd13ifvqckg","pricing_plan_id":"cebpf4jnsgd1na2vs0mg"},{"bike_id":"07df33d3-d0b3-4639-a7a9-9af76ae865dc","system_id":"levelo_inurba_marseille","lat":43.27663,"lon":5.38936,"is_reserved":false,"is_disabled":false,"rental_uris":{"android":"levelo://app?vid=07df33d3-d0b3-4639-a7a9-9af76ae865dc","ios":"levelo://app?vid=07df33d3-d0b3-4639-a7a9-9af76ae865dc"},"vehicle_type_id":"4","last_reported":1741785528,"current_range_meters":12400,"station_id":"ce4bhi12rcd13ifvqfo0","pricing_plan_id":"cebpf4jnsgd1na2vs0mg"},{"bike_id":"acbad0fb-6d08-48a5-87a0-b4f240cab73d","system_id":"levelo_inurba_marseille","lat":43.23185,"lon":5.4,"is_reserved":false,"is_disabled":false,"rental_uris":{"android":"levelo://app?vid=acbad0fb-6d08-48a5-87a0-b4f240cab73d","ios":"levelo://app?vid=acbad0fb-6d08-48a5-87a0-b4f240cab73d"},"vehicle_type_id":"4","last_reported":1741785528,"current_range_meters":12400,"station_id":"ce4bhn12rcd13ifvqgqg","pricing_plan_id":"cebpf4jnsgd1na2vs0mg"},{"bike_id":"c2fdc035-3896-46f1-aee2-5294a5907071","system_id":"levelo_inurba_marseille","lat":43.25013,"lon":5.3893,"is_reserved":false,"is_disabled":false,"rental_uris":{"android":"levelo://app?vid=c2fdc035-3896-46f1-aee2-5294a5907071","ios":"levelo://app?vid=c2fdc035-3896-46f1-aee2-5294a5907071"},"vehicle_type_id":"4","last_reported":1741785528,"current_range_meters":12400,"station_id":"ce4bhgp2rcd13ifvqfd0","pricing_plan_id":"cebpf4jnsgd1na2vs0mg"},{"bike_id":"f9ef0e3a-378e-4672-b9ba-509616575cb9","system_id":"levelo_inurba_marseille","lat":43.29429,"lon":5.38637,"is_reserved":false,"is_disabled":false,"rental_uris":{"android":"levelo://app?vid=f9ef0e3a-378e-4672-b9ba-509616575cb9","ios":"levelo://app?vid=f9ef0e3a-378e-4672-b9ba-509616575cb9"},"vehicle_type_id":"4","last_reported":1741785528,"current_range_meters":12400,"station_id":"ce4bh2h2rcd13ifvqdh0","pricing_plan_id":"cebpf4jnsgd1na2vs0mg"},{"bike_id":"bb86bc22-eba2-4a63-a6c0-b340d28e21ab","system_id":"levelo_inurba_marseille","lat":43.28475,"lon":5.38559,"is_reserved":false,"is_disabled":false,"rental_uris":{"android":"levelo://app?vid=bb86bc22-eba2-4a63-a6c0-b340d28e21ab","ios":"levelo://app?vid=bb86bc22-eba2-4a63-a6c0-b340d28e21ab"},"vehicle_type_id":"4","last_reported":1741785528,"current_range_meters":12000,"station_id":"ce4bh8p2rcd13ifvqeb0","pricing_plan_id":"cebpf4jnsgd1na2vs0mg"},{"bike_id":"c50d7408-c6e5-43d8-a4d9-22a10170cd8d","system_id":"levelo_inurba_marseille","lat":43.28942,"lon":5.36638,"is_reserved":false,"is_disabled":false,"rental_uris":{"android":"levelo://app?vid=c50d7408-c6e5-43d8-a4d9-22a10170cd8d","ios":"levelo://app?vid=c50d7408-c6e5-43d8-a4d9-22a10170cd8d"},"vehicle_type_id":"4","last_reported":1741785528,"current_range_meters":12800,"station_id":"ce4bhap2rcd13ifvqek0","pricing_plan_id":"cebpf4jnsgd1na2vs0mg"},{"bike_id":"4d2aa3b9-227a-4ede-a47f-9e7e271a7289","system_id":"levelo_inurba_marseille","lat":43.24663,"lon":5.38164,"is_reserved":false,"is_disabled":false,"rental_uris":{"android":"levelo://app?vid=4d2aa3b9-227a-4ede-a47f-9e7e271a7289","ios":"levelo://app?vid=4d2aa3b9-227a-4ede-a47f-9e7e271a7289"},"vehicle_type_id":"4","last_reported":1741785528,"current_range_meters":12800,"station_id":"ce4bhih2rcd13ifvqfr0","pricing_plan_id":"cebpf4jnsgd1na2vs0mg"},{"bike_id":"8d151043-ec10-485e-88a4-22612e0f63c3","system_id":"levelo_inurba_marseille","lat":43.30124,"lon":5.37414,"is_reserved":false,"is_disabled":true,"rental_uris":{"android":"levelo://app?vid=8d151043-ec10-485e-88a4-22612e0f63c3","ios":"levelo://app?vid=8d151043-ec10-485e-88a4-22612e0f63c3"},"vehicle_type_id":"4","last_reported":1741785528,"current_range_meters":12800,"station_id":"ce4bgs92rcd13ifvqcc0","pricing_plan_id":"cebpf4jnsgd1na2vs0mg"},{"bike_id":"1aa26f0a-749c-474e-b4d4-5af797a5f659","system_id":"levelo_inurba_marseille","lat":43.29025,"lon":5.38624,"is_reserved":false,"is_disabled":false,"rental_uris":{"android":"levelo://app?vid=1aa26f0a-749c-474e-b4d4-5af797a5f659","ios":"levelo://app?vid=1aa26f0a-749c-474e-b4d4-5af797a5f659"},"vehicle_type_id":"4","last_reported":1741785528,"current_range_meters":12800,"station_id":"ce4bh4p2rcd13ifvqe0g","pricing_plan_id":"cebpf4jnsgd1na2vs0mg"},{"bike_id":"5ddcf71f-f183-4f21-82fd-a589a4ecaf3d","system_id":"levelo_inurba_marseille","lat":43.30351,"lon":5.41874,"is_reserved":false,"is_disabled":false,"rental_uris":{"android":"levelo://app?vid=5ddcf71f-f183-4f21-82fd-a589a4ecaf3d","ios":"levelo://app?vid=5ddcf71f-f183-4f21-82fd-a589a4ecaf3d"},"vehicle_type_id":"4","last_reported":1741785528,"current_range_meters":12800,"station_id":"ce4bhop2rcd13ifvqh7g","pricing_plan_id":"cebpf4jnsgd1na2vs0mg"},{"bike_id":"abb8130c-0efc-4f1c-8e7f-7f7bfbc0b715","system_id":"levelo_inurba_marseille","lat":43.30429,"lon":5.3975,"is_reserved":false,"is_disabled":false,"rental_uris":{"android":"levelo://app?vid=abb8130c-0efc-4f1c-8e7f-7f7bfbc0b715","ios":"levelo://app?vid=abb8130c-0efc-4f1c-8e7f-7f7bfbc0b715"},"vehicle_type_id":"4","last_reported":1741785528,"current_range_meters":12800,"station_id":"ce4bh092rcd13ifvqd20","pricing_plan_id":"cebpf4jnsgd1na2vs0mg"},{"bike_id":"3df36386-765a-4846-a741-756b7dd076ce","system_id":"levelo_inurba_marseille","lat":43.30597,"lon":5.39355,"is_reserved":false,"is_disabled":false,"rental_uris":{"android":"levelo://app?vid=3df36386-765a-4846-a741-756b7dd076ce","ios":"levelo://app?vid=3df36386-765a-4846-a741-756b7dd076ce"},"vehicle_type_id":"4","last_reported":1741785528,"current_range_meters":12800,"station_id":"ce4bh0p2rcd13ifvqd80","pricing_plan_id":"cebpf4jnsgd1na2vs0mg"},{"bike_id":"07d514da-daa5-4a51-ad4f-da23bea5a512","system_id":"levelo_inurba_marseille","lat":43.30549,"lon":5.36531,"is_reserved":false,"is_disabled":false,"rental_uris":{"android":"levelo://app?vid=07d514da-daa5-4a51-ad4f-da23bea5a512","ios":"levelo://app?vid=07d514da-daa5-4a51-ad4f-da23bea5a512"},"vehicle_type_id":"4","last_reported":1741785528,"current_range_meters":12800,"station_id":"ce4bgs12rcd13ifvqcag","pricing_plan_id":"cebpf4jnsgd1na2vs0mg"},{"bike_id":"30441505-cc04-4481-b2ab-1f8386edbae1","system_id":"levelo_inurba_marseille","lat":43.26561,"lon":5.37289,"is_reserved":false,"is_disabled":false,"rental_uris":{"android":"levelo://app?vid=30441505-cc04-4481-b2ab-1f8386edbae1","ios":"levelo://app?vid=30441505-cc04-4481-b2ab-1f8386edbae1"},"vehicle_type_id":"4","last_reported":1741785528,"current_range_meters":13600,"station_id":"ce4bhg12rcd13ifvqf70","pricing_plan_id":"cebpf4jnsgd1na2vs0mg"},{"bike_id":"76ad1b1e-b33c-49e6-8933-99c10dbea044","system_id":"levelo_inurba_marseille","lat":43.311313,"lon":5.378951,"is_reserved":false,"is_disabled":false,"rental_uris":{"android":"levelo://app?vid=76ad1b1e-b33c-49e6-8933-99c10dbea044","ios":"levelo://app?vid=76ad1b1e-b33c-49e6-8933-99c10dbea044"},"vehicle_type_id":"4","last_reported":1741785528,"current_range_meters":13600,"station_id":"ce4bgvp2rcd13ifvqct0","pricing_plan_id":"cebpf4jnsgd1na2vs0mg"},{"bike_id":"c7c1ce4e-10c5-4182-880f-870117bc6814","system_id":"levelo_inurba_marseille","lat":43.32537,"lon":5.41436,"is_reserved":false,"is_disabled":false,"rental_uris":{"android":"levelo://app?vid=c7c1ce4e-10c5-4182-880f-870117bc6814","ios":"levelo://app?vid=c7c1ce4e-10c5-4182-880f-870117bc6814"},"vehicle_type_id":"4","last_reported":1741785528,"current_range_meters":13600,"station_id":"ce4bhq12rcd13ifvqhhg","pricing_plan_id":"cebpf4jnsgd1na2vs0mg"},{"bike_id":"a7a0bdd7-6c5f-4cdc-8471-ac7a380c269d","system_id":"levelo_inurba_marseille","lat":43.29907,"lon":5.37479,"is_reserved":false,"is_disabled":false,"rental_uris":{"android":"levelo://app?vid=a7a0bdd7-6c5f-4cdc-8471-ac7a380c269d","ios":"levelo://app?vid=a7a0bdd7-6c5f-4cdc-8471-ac7a380c269d"},"vehicle_type_id":"4","last_reported":1741785528,"current_range_meters":13600,"station_id":"ce4bgjh2rcd13ifvqbg0","pricing_plan_id":"cebpf4jnsgd1na2vs0mg"},{"bike_id":"896a263a-5a77-42c9-bef6-e14f4fff6573","system_id":"levelo_inurba_marseille","lat":43.30143,"lon":5.39875,"is_reserved":false,"is_disabled":false,"rental_uris":{"android":"levelo://app?vid=896a263a-5a77-42c9-bef6-e14f4fff6573","ios":"levelo://app?vid=896a263a-5a77-42c9-bef6-e14f4fff6573"},"vehicle_type_id":"4","last_reported":1741785528,"current_range_meters":13600,"station_id":"ce4bh0h2rcd13ifvqd40","pricing_plan_id":"cebpf4jnsgd1na2vs0mg"},{"bike_id":"249f8d16-587f-49d1-88de-d20e00a4b816","system_id":"levelo_inurba_marseille","lat":43.32355,"lon":5.38895,"is_reserved":false,"is_disabled":false,"rental_uris":{"android":"levelo://app?vid=249f8d16-587f-49d1-88de-d20e00a4b816","ios":"levelo://app?vid=249f8d16-587f-49d1-88de-d20e00a4b816"},"vehicle_type_id":"4","last_reported":1741785528,"current_range_meters":13600,"station_id":"ce4bhqp2rcd13ifvqhog","pricing_plan_id":"cebpf4jnsgd1na2vs0mg"},{"bike_id":"49e72b18-eac3-4111-bfeb-46acfbcfc6e8","system_id":"levelo_inurba_marseille","lat":43.30467,"lon":5.37904,"is_reserved":false,"is_disabled":false,"rental_uris":{"android":"levelo://app?vid=49e72b18-eac3-4111-bfeb-46acfbcfc6e8","ios":"levelo://app?vid=49e72b18-eac3-4111-bfeb-46acfbcfc6e8"},"vehicle_type_id":"4","last_reported":1741785528,"current_range_meters":14000,"station_id":"ce4bgup2rcd13ifvqcn0","pricing_plan_id":"cebpf4jnsgd1na2vs0mg"},{"bike_id":"c21b0a40-5e50-4d00-aae9-340e415e7c85","system_id":"levelo_inurba_marseille","lat":43.265,"lon":5.39533,"is_reserved":false,"is_disabled":false,"rental_uris":{"android":"levelo://app?vid=c21b0a40-5e50-4d00-aae9-340e415e7c85","ios":"levelo://app?vid=c21b0a40-5e50-4d00-aae9-340e415e7c85"},"vehicle_type_id":"4","last_reported":1741785528,"current_range_meters":14000,"station_id":"ce4bhi12rcd13ifvqfq0","pricing_plan_id":"cebpf4jnsgd1na2vs0mg"},{"bike_id":"d5b557b7-742b-4ab4-b1ed-f784a1f7c9d6","system_id":"levelo_inurba_marseille","lat":43.31707,"lon":5.37758,"is_reserved":false,"is_disabled":false,"rental_uris":{"android":"levelo://app?vid=d5b557b7-742b-4ab4-b1ed-f784a1f7c9d6","ios":"levelo://app?vid=d5b557b7-742b-4ab4-b1ed-f784a1f7c9d6"},"vehicle_type_id":"4","last_reported":1741785528,"current_range_meters":14000,"station_id":"ce4bgth2rcd13ifvqch0","pricing_plan_id":"cebpf4jnsgd1na2vs0mg"},{"bike_id":"4c607265-c996-4d9b-81fd-daa80dd99e32","system_id":"levelo_inurba_marseille","lat":43.28778,"lon":5.38429,"is_reserved":false,"is_disabled":false,"rental_uris":{"android":"levelo://app?vid=4c607265-c996-4d9b-81fd-daa80dd99e32","ios":"levelo://app?vid=4c607265-c996-4d9b-81fd-daa80dd99e32"},"vehicle_type_id":"4","last_reported":1741785528,"current_range_meters":14000,"station_id":"","pricing_plan_id":"cebpf4jnsgd1na2vs0mg"},{"bike_id":"79397302-4916-493d-9bc0-e5035ae3c476","system_id":"levelo_inurba_marseille","lat":43.22966,"lon":5.35344,"is_reserved":false,"is_disabled":false,"rental_uris":{"android":"levelo://app?vid=79397302-4916-493d-9bc0-e5035ae3c476","ios":"levelo://app?vid=79397302-4916-493d-9bc0-e5035ae3c476"},"vehicle_type_id":"4","last_reported":1741785528,"current_range_meters":14000,"station_id":"cpo3532slgdg3j2ikp40","pricing_plan_id":"cebpf4jnsgd1na2vs0mg"},{"bike_id":"2686fe0b-7cb1-4057-9bb6-c43894c36544","system_id":"levelo_inurba_marseille","lat":43.25717,"lon":5.41113,"is_reserved":false,"is_disabled":false,"rental_uris":{"android":"levelo://app?vid=2686fe0b-7cb1-4057-9bb6-c43894c36544","ios":"levelo://app?vid=2686fe0b-7cb1-4057-9bb6-c43894c36544"},"vehicle_type_id":"4","last_reported":1741785528,"current_range_meters":14000,"station_id":"ce4bhkp2rcd13ifvqgd0","pricing_plan_id":"cebpf4jnsgd1na2vs0mg"},{"bike_id":"e4e7b0f4-be16-4e67-8045-462e24fe9df7","system_id":"levelo_inurba_marseille","lat":43.23162,"lon":5.4371,"is_reserved":false,"is_disabled":false,"rental_uris":{"android":"levelo://app?vid=e4e7b0f4-be16-4e67-8045-462e24fe9df7","ios":"levelo://app?vid=e4e7b0f4-be16-4e67-8045-462e24fe9df7"},"vehicle_type_id":"4","last_reported":1741785528,"current_range_meters":14400,"station_id":"ce4bhmp2rcd13ifvqgog","pricing_plan_id":"cebpf4jnsgd1na2vs0mg"},{"bike_id":"b842ecbb-7261-4449-aed6-c04d81425ff7","system_id":"levelo_inurba_marseille","lat":43.29265,"lon":5.38442,"is_reserved":false,"is_disabled":false,"rental_uris":{"android":"levelo://app?vid=b842ecbb-7261-4449-aed6-c04d81425ff7","ios":"levelo://app?vid=b842ecbb-7261-4449-aed6-c04d81425ff7"},"vehicle_type_id":"4","last_reported":1741785528,"current_range_meters":14400,"station_id":"ce4bh692rcd13ifvqea0","pricing_plan_id":"cebpf4jnsgd1na2vs0mg"},{"bike_id":"86fc146c-4af9-49a2-9b65-b6b8fa03c722","system_id":"levelo_inurba_marseille","lat":43.29205,"lon":5.39325,"is_reserved":false,"is_disabled":false,"rental_uris":{"android":"levelo://app?vid=86fc146c-4af9-49a2-9b65-b6b8fa03c722","ios":"levelo://app?vid=86fc146c-4af9-49a2-9b65-b6b8fa03c722"},"vehicle_type_id":"4","last_reported":1741785528,"current_range_meters":14400,"station_id":"ce4bh192rcd13ifvqdd0","pricing_plan_id":"cebpf4jnsgd1na2vs0mg"},{"bike_id":"f5a8ef44-dbcb-4eaa-aae1-66659d802509","system_id":"levelo_inurba_marseille","lat":43.30138,"lon":5.37417,"is_reserved":false,"is_disabled":false,"rental_uris":{"android":"levelo://app?vid=f5a8ef44-dbcb-4eaa-aae1-66659d802509","ios":"levelo://app?vid=f5a8ef44-dbcb-4eaa-aae1-66659d802509"},"vehicle_type_id":"4","last_reported":1741785528,"current_range_meters":14400,"station_id":"ce4bgs92rcd13ifvqcc0","pricing_plan_id":"cebpf4jnsgd1na2vs0mg"},{"bike_id":"2872f208-7a92-4283-a98c-8da021fd4c46","system_id":"levelo_inurba_marseille","lat":43.302751,"lon":5.37697,"is_reserved":false,"is_disabled":false,"rental_uris":{"android":"levelo://app?vid=2872f208-7a92-4283-a98c-8da021fd4c46","ios":"levelo://app?vid=2872f208-7a92-4283-a98c-8da021fd4c46"},"vehicle_type_id":"4","last_reported":1741785528,"current_range_meters":14400,"station_id":"ce4bguh2rcd13ifvqcj0","pricing_plan_id":"cebpf4jnsgd1na2vs0mg"},{"bike_id":"c8f5a7aa-328f-49c1-a785-9624fa888d07","system_id":"levelo_inurba_marseille","lat":43.25015,"lon":5.38902,"is_reserved":false,"is_disabled":false,"rental_uris":{"android":"levelo://app?vid=c8f5a7aa-328f-49c1-a785-9624fa888d07","ios":"levelo://app?vid=c8f5a7aa-328f-49c1-a785-9624fa888d07"},"vehicle_type_id":"4","last_reported":1741785528,"current_range_meters":14400,"station_id":"ce4bhgp2rcd13ifvqfd0","pricing_plan_id":"cebpf4jnsgd1na2vs0mg"},{"bike_id":"c32eb91c-0d61-4af3-8b86-ea1d03823ab1","system_id":"levelo_inurba_marseille","lat":43.28457,"lon":5.35876,"is_reserved":false,"is_disabled":false,"rental_uris":{"android":"levelo://app?vid=c32eb91c-0d61-4af3-8b86-ea1d03823ab1","ios":"levelo://app?vid=c32eb91c-0d61-4af3-8b86-ea1d03823ab1"},"vehicle_type_id":"4","last_reported":1741785528,"current_range_meters":14400,"station_id":"ce4bhah2rcd13ifvqei0","pricing_plan_id":"cebpf4jnsgd1na2vs0mg"},{"bike_id":"477af7ea-1faf-4582-a5af-9ae465ff10c5","system_id":"levelo_inurba_marseille","lat":43.32939,"lon":5.3937,"is_reserved":false,"is_disabled":false,"rental_uris":{"android":"levelo://app?vid=477af7ea-1faf-4582-a5af-9ae465ff10c5","ios":"levelo://app?vid=477af7ea-1faf-4582-a5af-9ae465ff10c5"},"vehicle_type_id":"4","last_reported":1741785528,"current_range_meters":14800,"station_id":"","pricing_plan_id":"cebpf4jnsgd1na2vs0mg"},{"bike_id":"843f7cc0-cc9e-4e0e-9ebe-4361ac34fb58","system_id":"levelo_inurba_marseille","lat":43.30592,"lon":5.39352,"is_reserved":false,"is_disabled":false,"rental_uris":{"android":"levelo://app?vid=843f7cc0-cc9e-4e0e-9ebe-4361ac34fb58","ios":"levelo://app?vid=843f7cc0-cc9e-4e0e-9ebe-4361ac34fb58"},"vehicle_type_id":"4","last_reported":1741785528,"current_range_meters":14800,"station_id":"ce4bh0p2rcd13ifvqd80","pricing_plan_id":"cebpf4jnsgd1na2vs0mg"},{"bike_id":"583e9a08-8a7b-47cc-aaab-563ec5211ebd","system_id":"levelo_inurba_marseille","lat":43.30548,"lon":5.36564,"is_reserved":false,"is_disabled":false,"rental_uris":{"android":"levelo://app?vid=583e9a08-8a7b-47cc-aaab-563ec5211ebd","ios":"levelo://app?vid=583e9a08-8a7b-47cc-aaab-563ec5211ebd"},"vehicle_type_id":"4","last_reported":1741785528,"current_range_meters":14800,"station_id":"ce4bgs12rcd13ifvqcag","pricing_plan_id":"cebpf4jnsgd1na2vs0mg"},{"bike_id":"c3007be7-567f-4aaa-a34e-76fe2b193d34","system_id":"levelo_inurba_marseille","lat":43.2582,"lon":5.39434,"is_reserved":false,"is_disabled":false,"rental_uris":{"android":"levelo://app?vid=c3007be7-567f-4aaa-a34e-76fe2b193d34","ios":"levelo://app?vid=c3007be7-567f-4aaa-a34e-76fe2b193d34"},"vehicle_type_id":"4","last_reported":1741785528,"current_range_meters":15200,"station_id":"ce4bhip2rcd13ifvqft0","pricing_plan_id":"cebpf4jnsgd1na2vs0mg"},{"bike_id":"d3ac1ba6-6349-4d47-99e4-9f85d3ef1aa5","system_id":"levelo_inurba_marseille","lat":43.28478,"lon":5.369,"is_reserved":false,"is_disabled":false,"rental_uris":{"android":"levelo://app?vid=d3ac1ba6-6349-4d47-99e4-9f85d3ef1aa5","ios":"levelo://app?vid=d3ac1ba6-6349-4d47-99e4-9f85d3ef1aa5"},"vehicle_type_id":"4","last_reported":1741785528,"current_range_meters":15200,"station_id":"","pricing_plan_id":"cebpf4jnsgd1na2vs0mg"},{"bike_id":"7c796e6e-50dd-4331-aa27-8fb6b1d938a5","system_id":"levelo_inurba_marseille","lat":43.31381,"lon":5.38498,"is_reserved":false,"is_disabled":true,"rental_uris":{"android":"levelo://app?vid=7c796e6e-50dd-4331-aa27-8fb6b1d938a5","ios":"levelo://app?vid=7c796e6e-50dd-4331-aa27-8fb6b1d938a5"},"vehicle_type_id":"4","last_reported":1741785528,"current_range_meters":15200,"station_id":"ce4bgt92rcd13ifvqcf0","pricing_plan_id":"cebpf4jnsgd1na2vs0mg"},{"bike_id":"fa8f8249-fd86-4153-9f9d-d37fdddd786e","system_id":"levelo_inurba_marseille","lat":43.28609,"lon":5.35098,"is_reserved":false,"is_disabled":false,"rental_uris":{"android":"levelo://app?vid=fa8f8249-fd86-4153-9f9d-d37fdddd786e","ios":"levelo://app?vid=fa8f8249-fd86-4153-9f9d-d37fdddd786e"},"vehicle_type_id":"4","last_reported":1741785528,"current_range_meters":15200,"station_id":"ce4bhch2rcd13ifvqeug","pricing_plan_id":"cebpf4jnsgd1na2vs0mg"},{"bike_id":"99a3f406-b0b8-4066-adb6-b7e55216ac38","system_id":"levelo_inurba_marseille","lat":43.30288,"lon":5.37695,"is_reserved":false,"is_disabled":false,"rental_uris":{"android":"levelo://app?vid=99a3f406-b0b8-4066-adb6-b7e55216ac38","ios":"levelo://app?vid=99a3f406-b0b8-4066-adb6-b7e55216ac38"},"vehicle_type_id":"4","last_reported":1741785528,"current_range_meters":15200,"station_id":"ce4bguh2rcd13ifvqcj0","pricing_plan_id":"cebpf4jnsgd1na2vs0mg"},{"bike_id":"7382db7c-ea28-4d6b-a6ac-0a5dc179880b","system_id":"levelo_inurba_marseille","lat":43.33149,"lon":5.3818,"is_reserved":false,"is_disabled":false,"rental_uris":{"android":"levelo://app?vid=7382db7c-ea28-4d6b-a6ac-0a5dc179880b","ios":"levelo://app?vid=7382db7c-ea28-4d6b-a6ac-0a5dc179880b"},"vehicle_type_id":"4","last_reported":1741785528,"current_range_meters":16000,"station_id":"","pricing_plan_id":"cebpf4jnsgd1na2vs0mg"},{"bike_id":"aed097e0-d55d-45ea-a68b-8d1ab9043854","system_id":"levelo_inurba_marseille","lat":43.29523,"lon":5.39054,"is_reserved":false,"is_disabled":false,"rental_uris":{"android":"levelo://app?vid=aed097e0-d55d-45ea-a68b-8d1ab9043854","ios":"levelo://app?vid=aed097e0-d55d-45ea-a68b-8d1ab9043854"},"vehicle_type_id":"4","last_reported":1741785528,"current_range_meters":16000,"station_id":"ce4bh3p2rcd13ifvqdp0","pricing_plan_id":"cebpf4jnsgd1na2vs0mg"},{"bike_id":"5a2fac9e-7560-4954-8011-a7bd59004a4d","system_id":"levelo_inurba_marseille","lat":43.29839,"lon":5.36259,"is_reserved":false,"is_disabled":false,"rental_uris":{"android":"levelo://app?vid=5a2fac9e-7560-4954-8011-a7bd59004a4d","ios":"levelo://app?vid=5a2fac9e-7560-4954-8011-a7bd59004a4d"},"vehicle_type_id":"4","last_reported":1741785528,"current_range_meters":16000,"station_id":"ce4bgpp2rcd13ifvqc3g","pricing_plan_id":"cebpf4jnsgd1na2vs0mg"},{"bike_id":"e33efe00-c5a7-4b89-b1cb-e7d4217b1137","system_id":"levelo_inurba_marseille","lat":43.29388,"lon":5.3785,"is_reserved":false,"is_disabled":false,"rental_uris":{"android":"levelo://app?vid=e33efe00-c5a7-4b89-b1cb-e7d4217b1137","ios":"levelo://app?vid=e33efe00-c5a7-4b89-b1cb-e7d4217b1137"},"vehicle_type_id":"4","last_reported":1741785528,"current_range_meters":16000,"station_id":"ce4bgjh2rcd13ifvqbf0","pricing_plan_id":"cebpf4jnsgd1na2vs0mg"},{"bike_id":"b2f5d5de-a3e6-42cc-8964-81fe52d33ec5","system_id":"levelo_inurba_marseille","lat":43.30469,"lon":5.37862,"is_reserved":false,"is_disabled":false,"rental_uris":{"android":"levelo://app?vid=b2f5d5de-a3e6-42cc-8964-81fe52d33ec5","ios":"levelo://app?vid=b2f5d5de-a3e6-42cc-8964-81fe52d33ec5"},"vehicle_type_id":"4","last_reported":1741785528,"current_range_meters":16000,"station_id":"ce4bgup2rcd13ifvqcn0","pricing_plan_id":"cebpf4jnsgd1na2vs0mg"},{"bike_id":"d1235ce3-1007-4d2d-9e28-ea39398a63a8","system_id":"levelo_inurba_marseille","lat":43.23199,"lon":5.35553,"is_reserved":false,"is_disabled":false,"rental_uris":{"android":"levelo://app?vid=d1235ce3-1007-4d2d-9e28-ea39398a63a8","ios":"levelo://app?vid=d1235ce3-1007-4d2d-9e28-ea39398a63a8"},"vehicle_type_id":"4","last_reported":1741785528,"current_range_meters":16000,"station_id":"ce4bhu92rcd13ifvqi70","pricing_plan_id":"cebpf4jnsgd1na2vs0mg"},{"bike_id":"fb95f600-39fe-4b89-ac97-febee8eb1aae","system_id":"levelo_inurba_marseille","lat":43.25576,"lon":5.38228,"is_reserved":false,"is_disabled":false,"rental_uris":{"android":"levelo://app?vid=fb95f600-39fe-4b89-ac97-febee8eb1aae","ios":"levelo://app?vid=fb95f600-39fe-4b89-ac97-febee8eb1aae"},"vehicle_type_id":"4","last_reported":1741785528,"current_range_meters":16000,"station_id":"ce4bhih2rcd13ifvqfs0","pricing_plan_id":"cebpf4jnsgd1na2vs0mg"},{"bike_id":"5dacfbf2-7e22-43d8-98f2-6c8f964ce898","system_id":"levelo_inurba_marseille","lat":43.23073,"lon":5.35489,"is_reserved":false,"is_disabled":true,"rental_uris":{"android":"levelo://app?vid=5dacfbf2-7e22-43d8-98f2-6c8f964ce898","ios":"levelo://app?vid=5dacfbf2-7e22-43d8-98f2-6c8f964ce898"},"vehicle_type_id":"4","last_reported":1741785528,"current_range_meters":16000,"station_id":"cpo3342slgdg3j2ifvpg","pricing_plan_id":"cebpf4jnsgd1na2vs0mg"},{"bike_id":"0118782e-a9be-4c57-a3c6-f989e8d3b9bf","system_id":"levelo_inurba_marseille","lat":43.2417,"lon":5.39704,"is_reserved":false,"is_disabled":false,"rental_uris":{"android":"levelo://app?vid=0118782e-a9be-4c57-a3c6-f989e8d3b9bf","ios":"levelo://app?vid=0118782e-a9be-4c57-a3c6-f989e8d3b9bf"},"vehicle_type_id":"4","last_reported":1741785528,"current_range_meters":16000,"station_id":"ce4bhn12rcd13ifvqgpg","pricing_plan_id":"cebpf4jnsgd1na2vs0mg"},{"bike_id":"7b8b288a-1263-4bb7-b082-b8cec0e2c2c0","system_id":"levelo_inurba_marseille","lat":43.32693,"lon":5.39162,"is_reserved":false,"is_disabled":false,"rental_uris":{"android":"levelo://app?vid=7b8b288a-1263-4bb7-b082-b8cec0e2c2c0","ios":"levelo://app?vid=7b8b288a-1263-4bb7-b082-b8cec0e2c2c0"},"vehicle_type_id":"4","last_reported":1741785528,"current_range_meters":16000,"station_id":"","pricing_plan_id":"cebpf4jnsgd1na2vs0mg"},{"bike_id":"64e0b910-7146-44c4-b5e7-765e3f3d80b2","system_id":"levelo_inurba_marseille","lat":43.30238,"lon":5.40474,"is_reserved":false,"is_disabled":false,"rental_uris":{"android":"levelo://app?vid=64e0b910-7146-44c4-b5e7-765e3f3d80b2","ios":"levelo://app?vid=64e0b910-7146-44c4-b5e7-765e3f3d80b2"},"vehicle_type_id":"4","last_reported":1741785528,"current_range_meters":16000,"station_id":"ce4bh012rcd13ifvqd10","pricing_plan_id":"cebpf4jnsgd1na2vs0mg"},{"bike_id":"ca762409-3e9b-49eb-b311-18b138aaa95f","system_id":"levelo_inurba_marseille","lat":43.33726,"lon":5.39213,"is_reserved":false,"is_disabled":false,"rental_uris":{"android":"levelo://app?vid=ca762409-3e9b-49eb-b311-18b138aaa95f","ios":"levelo://app?vid=ca762409-3e9b-49eb-b311-18b138aaa95f"},"vehicle_type_id":"4","last_reported":1741785528,"current_range_meters":16000,"station_id":"ce4bhr92rcd13ifvqhsg","pricing_plan_id":"cebpf4jnsgd1na2vs0mg"},{"bike_id":"b537ef3b-4b23-410a-950f-8e97fb3c3ce8","system_id":"levelo_inurba_marseille","lat":43.295471,"lon":5.390419,"is_reserved":false,"is_disabled":false,"rental_uris":{"android":"levelo://app?vid=b537ef3b-4b23-410a-950f-8e97fb3c3ce8","ios":"levelo://app?vid=b537ef3b-4b23-410a-950f-8e97fb3c3ce8"},"vehicle_type_id":"4","last_reported":1741785528,"current_range_meters":16000,"station_id":"ce4bh012rcd13ifvqd10","pricing_plan_id":"cebpf4jnsgd1na2vs0mg"},{"bike_id":"741331bb-820f-4e72-8665-c4c929ad7136","system_id":"levelo_inurba_marseille","lat":43.30461,"lon":5.37911,"is_reserved":false,"is_disabled":false,"rental_uris":{"android":"levelo://app?vid=741331bb-820f-4e72-8665-c4c929ad7136","ios":"levelo://app?vid=741331bb-820f-4e72-8665-c4c929ad7136"},"vehicle_type_id":"4","last_reported":1741785528,"current_range_meters":16000,"station_id":"ce4bgup2rcd13ifvqcn0","pricing_plan_id":"cebpf4jnsgd1na2vs0mg"},{"bike_id":"70e6be62-0414-44e1-8fea-9b845a8a0d98","system_id":"levelo_inurba_marseille","lat":43.25807,"lon":5.3943,"is_reserved":false,"is_disabled":false,"rental_uris":{"android":"levelo://app?vid=70e6be62-0414-44e1-8fea-9b845a8a0d98","ios":"levelo://app?vid=70e6be62-0414-44e1-8fea-9b845a8a0d98"},"vehicle_type_id":"4","last_reported":1741785528,"current_range_meters":16000,"station_id":"ce4bhip2rcd13ifvqft0","pricing_plan_id":"cebpf4jnsgd1na2vs0mg"},{"bike_id":"207a727b-1250-4b39-a0ae-eb357b3541b9","system_id":"levelo_inurba_marseille","lat":43.29603,"lon":5.3773,"is_reserved":false,"is_disabled":false,"rental_uris":{"android":"levelo://app?vid=207a727b-1250-4b39-a0ae-eb357b3541b9","ios":"levelo://app?vid=207a727b-1250-4b39-a0ae-eb357b3541b9"},"vehicle_type_id":"4","last_reported":1741785528,"current_range_meters":11200,"station_id":"ce4bgi92rcd13ifvqb90","pricing_plan_id":"cebpf4jnsgd1na2vs0mg"},{"bike_id":"65b70502-242b-49ed-b345-2c1ffd2de63d","system_id":"levelo_inurba_marseille","lat":43.28663,"lon":5.36361,"is_reserved":false,"is_disabled":false,"rental_uris":{"android":"levelo://app?vid=65b70502-242b-49ed-b345-2c1ffd2de63d","ios":"levelo://app?vid=65b70502-242b-49ed-b345-2c1ffd2de63d"},"vehicle_type_id":"4","last_reported":1741785528,"current_range_meters":16000,"station_id":"ce4bhah2rcd13ifvqej0","pricing_plan_id":"cebpf4jnsgd1na2vs0mg"},{"bike_id":"945e3e1a-3c53-4b7a-88b0-5888cc31ab6e","system_id":"levelo_inurba_marseille","lat":43.281799,"lon":5.384563,"is_reserved":false,"is_disabled":false,"rental_uris":{"android":"levelo://app?vid=945e3e1a-3c53-4b7a-88b0-5888cc31ab6e","ios":"levelo://app?vid=945e3e1a-3c53-4b7a-88b0-5888cc31ab6e"},"vehicle_type_id":"4","last_reported":1741785528,"current_range_meters":16400,"station_id":"ce4bhmp2rcd13ifvqgog","pricing_plan_id":"cebpf4jnsgd1na2vs0mg"},{"bike_id":"e85e7281-8ded-4f9f-9074-cd43c73f5f32","system_id":"levelo_inurba_marseille","lat":43.31308,"lon":5.37359,"is_reserved":false,"is_disabled":false,"rental_uris":{"android":"levelo://app?vid=e85e7281-8ded-4f9f-9074-cd43c73f5f32","ios":"levelo://app?vid=e85e7281-8ded-4f9f-9074-cd43c73f5f32"},"vehicle_type_id":"4","last_reported":1741785528,"current_range_meters":16400,"station_id":"","pricing_plan_id":"cebpf4jnsgd1na2vs0mg"},{"bike_id":"894adb72-eba3-4c31-be33-a34cdb918fbd","system_id":"levelo_inurba_marseille","lat":43.2572,"lon":5.411,"is_reserved":false,"is_disabled":false,"rental_uris":{"android":"levelo://app?vid=894adb72-eba3-4c31-be33-a34cdb918fbd","ios":"levelo://app?vid=894adb72-eba3-4c31-be33-a34cdb918fbd"},"vehicle_type_id":"4","last_reported":1741785528,"current_range_meters":16400,"station_id":"ce4bhkp2rcd13ifvqgd0","pricing_plan_id":"cebpf4jnsgd1na2vs0mg"},{"bike_id":"a44739fe-6c4a-4d10-b7d6-ed0ad39ea565","system_id":"levelo_inurba_marseille","lat":43.28437,"lon":5.35909,"is_reserved":false,"is_disabled":false,"rental_uris":{"android":"levelo://app?vid=a44739fe-6c4a-4d10-b7d6-ed0ad39ea565","ios":"levelo://app?vid=a44739fe-6c4a-4d10-b7d6-ed0ad39ea565"},"vehicle_type_id":"4","last_reported":1741785528,"current_range_meters":16400,"station_id":"ce4bhah2rcd13ifvqei0","pricing_plan_id":"cebpf4jnsgd1na2vs0mg"},{"bike_id":"e271fc07-a814-4526-aebc-529ef1e54b63","system_id":"levelo_inurba_marseille","lat":43.2827,"lon":5.35081,"is_reserved":false,"is_disabled":false,"rental_uris":{"android":"levelo://app?vid=e271fc07-a814-4526-aebc-529ef1e54b63","ios":"levelo://app?vid=e271fc07-a814-4526-aebc-529ef1e54b63"},"vehicle_type_id":"4","last_reported":1741785528,"current_range_meters":16400,"station_id":"ce4bhbp2rcd13ifvqerg","pricing_plan_id":"cebpf4jnsgd1na2vs0mg"},{"bike_id":"347558f6-f7b0-4711-b23d-01564d40bb4b","system_id":"levelo_inurba_marseille","lat":43.28484,"lon":5.38554,"is_reserved":false,"is_disabled":false,"rental_uris":{"android":"levelo://app?vid=347558f6-f7b0-4711-b23d-01564d40bb4b","ios":"levelo://app?vid=347558f6-f7b0-4711-b23d-01564d40bb4b"},"vehicle_type_id":"4","last_reported":1741785528,"current_range_meters":16400,"station_id":"ce4bh8p2rcd13ifvqeb0","pricing_plan_id":"cebpf4jnsgd1na2vs0mg"},{"bike_id":"de644c55-b60a-4283-89bd-eecd0a3f2570","system_id":"levelo_inurba_marseille","lat":43.30481,"lon":5.38231,"is_reserved":false,"is_disabled":false,"rental_uris":{"android":"levelo://app?vid=de644c55-b60a-4283-89bd-eecd0a3f2570","ios":"levelo://app?vid=de644c55-b60a-4283-89bd-eecd0a3f2570"},"vehicle_type_id":"4","last_reported":1741785528,"current_range_meters":16400,"station_id":"","pricing_plan_id":"cebpf4jnsgd1na2vs0mg"},{"bike_id":"11d08114-112d-46c0-a65f-4618e442acb5","system_id":"levelo_inurba_marseille","lat":43.30881,"lon":5.39636,"is_reserved":false,"is_disabled":false,"rental_uris":{"android":"levelo://app?vid=11d08114-112d-46c0-a65f-4618e442acb5","ios":"levelo://app?vid=11d08114-112d-46c0-a65f-4618e442acb5"},"vehicle_type_id":"4","last_reported":1741785528,"current_range_meters":16800,"station_id":"ce4bh012rcd13ifvqcv0","pricing_plan_id":"cebpf4jnsgd1na2vs0mg"},{"bike_id":"2f13eb80-dbf0-4d8f-9322-d186beef59c7","system_id":"levelo_inurba_marseille","lat":43.30305,"lon":5.39218,"is_reserved":false,"is_disabled":false,"rental_uris":{"android":"levelo://app?vid=2f13eb80-dbf0-4d8f-9322-d186beef59c7","ios":"levelo://app?vid=2f13eb80-dbf0-4d8f-9322-d186beef59c7"},"vehicle_type_id":"4","last_reported":1741785528,"current_range_meters":16800,"station_id":"ce4bgkh2rcd13ifvqbk0","pricing_plan_id":"cebpf4jnsgd1na2vs0mg"},{"bike_id":"94b30f95-19e8-4b24-809a-d279976d82ea","system_id":"levelo_inurba_marseille","lat":43.31349,"lon":5.3965,"is_reserved":false,"is_disabled":false,"rental_uris":{"android":"levelo://app?vid=94b30f95-19e8-4b24-809a-d279976d82ea","ios":"levelo://app?vid=94b30f95-19e8-4b24-809a-d279976d82ea"},"vehicle_type_id":"4","last_reported":1741785528,"current_range_meters":16800,"station_id":"ce4bgvp2rcd13ifvqcu0","pricing_plan_id":"cebpf4jnsgd1na2vs0mg"},{"bike_id":"f20f3729-9195-45eb-9884-807e936d3181","system_id":"levelo_inurba_marseille","lat":43.28716,"lon":5.37936,"is_reserved":false,"is_disabled":false,"rental_uris":{"android":"levelo://app?vid=f20f3729-9195-45eb-9884-807e936d3181","ios":"levelo://app?vid=f20f3729-9195-45eb-9884-807e936d3181"},"vehicle_type_id":"4","last_reported":1741785528,"current_range_meters":16400,"station_id":"ce4bh9p2rcd13ifvqec0","pricing_plan_id":"cebpf4jnsgd1na2vs0mg"},{"bike_id":"ae7fc1ea-84cd-4b37-95fa-39065213291a","system_id":"levelo_inurba_marseille","lat":43.28453,"lon":5.35891,"is_reserved":false,"is_disabled":false,"rental_uris":{"android":"levelo://app?vid=ae7fc1ea-84cd-4b37-95fa-39065213291a","ios":"levelo://app?vid=ae7fc1ea-84cd-4b37-95fa-39065213291a"},"vehicle_type_id":"4","last_reported":1741785528,"current_range_meters":16800,"station_id":"ce4bhah2rcd13ifvqei0","pricing_plan_id":"cebpf4jnsgd1na2vs0mg"},{"bike_id":"f550acae-a478-493d-8418-eb4ab17dc323","system_id":"levelo_inurba_marseille","lat":43.25002,"lon":5.38921,"is_reserved":false,"is_disabled":false,"rental_uris":{"android":"levelo://app?vid=f550acae-a478-493d-8418-eb4ab17dc323","ios":"levelo://app?vid=f550acae-a478-493d-8418-eb4ab17dc323"},"vehicle_type_id":"4","last_reported":1741785528,"current_range_meters":16800,"station_id":"ce4bhgp2rcd13ifvqfd0","pricing_plan_id":"cebpf4jnsgd1na2vs0mg"},{"bike_id":"eeea7d06-f2cd-4abb-9749-d05c7c9cfb13","system_id":"levelo_inurba_marseille","lat":43.31485,"lon":5.37278,"is_reserved":false,"is_disabled":false,"rental_uris":{"android":"levelo://app?vid=eeea7d06-f2cd-4abb-9749-d05c7c9cfb13","ios":"levelo://app?vid=eeea7d06-f2cd-4abb-9749-d05c7c9cfb13"},"vehicle_type_id":"4","last_reported":1741785528,"current_range_meters":16800,"station_id":"ce4bgt12rcd13ifvqcd0","pricing_plan_id":"cebpf4jnsgd1na2vs0mg"},{"bike_id":"a33d824b-a915-49ed-9fda-77230b6c6837","system_id":"levelo_inurba_marseille","lat":43.28616,"lon":5.35107,"is_reserved":false,"is_disabled":false,"rental_uris":{"android":"levelo://app?vid=a33d824b-a915-49ed-9fda-77230b6c6837","ios":"levelo://app?vid=a33d824b-a915-49ed-9fda-77230b6c6837"},"vehicle_type_id":"4","last_reported":1741785528,"current_range_meters":16800,"station_id":"ce4bhch2rcd13ifvqeug","pricing_plan_id":"cebpf4jnsgd1na2vs0mg"},{"bike_id":"8ed28a40-c794-442d-9213-99112774c4f0","system_id":"levelo_inurba_marseille","lat":43.30374,"lon":5.42489,"is_reserved":false,"is_disabled":false,"rental_uris":{"android":"levelo://app?vid=8ed28a40-c794-442d-9213-99112774c4f0","ios":"levelo://app?vid=8ed28a40-c794-442d-9213-99112774c4f0"},"vehicle_type_id":"4","last_reported":1741785528,"current_range_meters":16800,"station_id":"ce4bghh2rcd13ifvqb60","pricing_plan_id":"cebpf4jnsgd1na2vs0mg"},{"bike_id":"8ccee4ad-cf54-4a8b-99d9-c47625f0e120","system_id":"levelo_inurba_marseille","lat":43.305503,"lon":5.365507,"is_reserved":false,"is_disabled":false,"rental_uris":{"android":"levelo://app?vid=8ccee4ad-cf54-4a8b-99d9-c47625f0e120","ios":"levelo://app?vid=8ccee4ad-cf54-4a8b-99d9-c47625f0e120"},"vehicle_type_id":"4","last_reported":1741785528,"current_range_meters":16800,"station_id":"ce4bgs12rcd13ifvqcag","pricing_plan_id":"cebpf4jnsgd1na2vs0mg"},{"bike_id":"a823fe98-0845-44f0-af70-a3e75e70ed04","system_id":"levelo_inurba_marseille","lat":43.24992,"lon":5.38952,"is_reserved":false,"is_disabled":false,"rental_uris":{"android":"levelo://app?vid=a823fe98-0845-44f0-af70-a3e75e70ed04","ios":"levelo://app?vid=a823fe98-0845-44f0-af70-a3e75e70ed04"},"vehicle_type_id":"4","last_reported":1741785528,"current_range_meters":17200,"station_id":"ce4bhgp2rcd13ifvqfd0","pricing_plan_id":"cebpf4jnsgd1na2vs0mg"},{"bike_id":"c2fc0f9a-56ca-4509-8e2d-54b6b468cd50","system_id":"levelo_inurba_marseille","lat":43.23157,"lon":5.43699,"is_reserved":false,"is_disabled":false,"rental_uris":{"android":"levelo://app?vid=c2fc0f9a-56ca-4509-8e2d-54b6b468cd50","ios":"levelo://app?vid=c2fc0f9a-56ca-4509-8e2d-54b6b468cd50"},"vehicle_type_id":"4","last_reported":1741785528,"current_range_meters":17200,"station_id":"ce4bhmp2rcd13ifvqgog","pricing_plan_id":"cebpf4jnsgd1na2vs0mg"},{"bike_id":"a4bcc6ed-ca97-4418-a037-e48d84319f35","system_id":"levelo_inurba_marseille","lat":43.30183,"lon":5.366,"is_reserved":false,"is_disabled":false,"rental_uris":{"android":"levelo://app?vid=a4bcc6ed-ca97-4418-a037-e48d84319f35","ios":"levelo://app?vid=a4bcc6ed-ca97-4418-a037-e48d84319f35"},"vehicle_type_id":"4","last_reported":1741785528,"current_range_meters":17200,"station_id":"ce4bgrh2rcd13ifvqc8g","pricing_plan_id":"cebpf4jnsgd1na2vs0mg"},{"bike_id":"e215f50d-edda-44ce-bf9c-14ab9e49ca11","system_id":"levelo_inurba_marseille","lat":43.25721,"lon":5.41119,"is_reserved":false,"is_disabled":false,"rental_uris":{"android":"levelo://app?vid=e215f50d-edda-44ce-bf9c-14ab9e49ca11","ios":"levelo://app?vid=e215f50d-edda-44ce-bf9c-14ab9e49ca11"},