{"last_updated":1733638388,"ttl":60,"version":"2.2","data":{"bikes":[{"bike_id":"315cda4d-54e6-44c6-9a3e-df4c6e9b61b0","system_id":"levelo_inurba_marseille","lat":43.337444,"lon":5.374475,"is_reserved":false,"is_disabled":false,"rental_uris":{"android":"levelo://app?vid=315cda4d-54e6-44c6-9a3e-df4c6e9b61b0","ios":"levelo://app?vid=315cda4d-54e6-44c6-9a3e-df4c6e9b61b0"},"vehicle_type_id":"4","last_reported":1733638388,"current_range_meters":17200,"station_id":"","pricing_plan_id":"cebpf4jnsgd1na2vs0mg"},{"bike_id":"84041e52-693d-4174-b244-2a69f2b7b850","system_id":"levelo_inurba_marseille","lat":43.26935,"lon":5.3892,"is_reserved":false,"is_disabled":false,"rental_uris":{"android":"levelo://app?vid=84041e52-693d-4174-b244-2a69f2b7b850","ios":"levelo://app?vid=84041e52-693d-4174-b244-2a69f2b7b850"},"vehicle_type_id":"4","last_reported":1733638388,"current_range_meters":36000,"station_id":"ce4bhhh2rcd13ifvqfl0","pricing_plan_id":"cebpf4jnsgd1na2vs0mg"},{"bike_id":"55d7a831-40f8-4501-9bc4-264da11c1dd0","system_id":"levelo_inurba_marseille","lat":43.29266,"lon":5.40124,"is_reserved":false,"is_disabled":true,"rental_uris":{"android":"levelo://app?vid=55d7a831-40f8-4501-9bc4-264da11c1dd0","ios":"levelo://app?vid=55d7a831-40f8-4501-9bc4-264da11c1dd0"},"vehicle_type_id":"4","last_reported":1733638388,"current_range_meters":24400,"station_id":"ce4bh312rcd13ifvqdk0","pricing_plan_id":"cebpf4jnsgd1na2vs0mg"},{"bike_id":"8e029eaf-e104-4c5d-858d-6cd39de73d09","system_id":"levelo_inurba_marseille","lat":43.2416,"lon":5.36394,"is_reserved":false,"is_disabled":false,"rental_uris":{"android":"levelo://app?vid=8e029eaf-e104-4c5d-858d-6cd39de73d09","ios":"levelo://app?vid=8e029eaf-e104-4c5d-858d-6cd39de73d09"},"vehicle_type_id":"4","last_reported":1733638388,"current_range_meters":28400,"station_id":"cpo36qri1sfpv3e86is0","pricing_plan_id":"cebpf4jnsgd1na2vs0mg"},{"bike_id":"7dea0d96-70fa-4522-82a7-67f7fc092a81","system_id":"levelo_inurba_marseille","lat":43.29576,"lon":5.37506,"is_reserved":false,"is_disabled":true,"rental_uris":{"android":"levelo://app?vid=7dea0d96-70fa-4522-82a7-67f7fc092a81","ios":"levelo://app?vid=7dea0d96-70fa-4522-82a7-67f7fc092a81"},"vehicle_type_id":"4","last_reported":1733638388,"current_range_meters":0,"station_id":"ce4bgh92rcd13ifvqb50","pricing_plan_id":"cebpf4jnsgd1na2vs0mg"},{"bike_id":"1595fe43-3a99-4caa-98c6-5b347449a2e3","system_id":"levelo_inurba_marseille","lat":43.27213,"lon":5.39172,"is_reserved":false,"is_disabled":false,"rental_uris":{"android":"levelo://app?vid=1595fe43-3a99-4caa-98c6-5b347449a2e3","ios":"levelo://app?vid=1595fe43-3a99-4caa-98c6-5b347449a2e3"},"vehicle_type_id":"4","last_reported":1733638388,"current_range_meters":14400,"station_id":"ce4bhhp2rcd13ifvqfm0","pricing_plan_id":"cebpf4jnsgd1na2vs0mg"},{"bike_id":"3d2b4324-56ba-4ca4-85fc-7f8261a44d55","system_id":"levelo_inurba_marseille","lat":43.28,"lon":5.41663,"is_reserved":false,"is_disabled":false,"rental_uris":{"android":"levelo://app?vid=3d2b4324-56ba-4ca4-85fc-7f8261a44d55","ios":"levelo://app?vid=3d2b4324-56ba-4ca4-85fc-7f8261a44d55"},"vehicle_type_id":"4","last_reported":1733638388,"current_range_meters":32800,"station_id":"ce4bho12rcd13ifvqh1g","pricing_plan_id":"cebpf4jnsgd1na2vs0mg"},{"bike_id":"e232d7ae-0864-4a70-8b5e-627ae37536a1","system_id":"levelo_inurba_marseille","lat":43.28104,"lon":5.37845,"is_reserved":false,"is_disabled":false,"rental_uris":{"android":"levelo://app?vid=e232d7ae-0864-4a70-8b5e-627ae37536a1","ios":"levelo://app?vid=e232d7ae-0864-4a70-8b5e-627ae37536a1"},"vehicle_type_id":"4","last_reported":1733638388,"current_range_meters":38800,"station_id":"ce4bha12rcd13ifvqee0","pricing_plan_id":"cebpf4jnsgd1na2vs0mg"},{"bike_id":"e37f0f48-ff13-4242-bca9-0687552cbad4","system_id":"levelo_inurba_marseille","lat":43.33018,"lon":5.3904,"is_reserved":false,"is_disabled":true,"rental_uris":{"android":"levelo://app?vid=e37f0f48-ff13-4242-bca9-0687552cbad4","ios":"levelo://app?vid=e37f0f48-ff13-4242-bca9-0687552cbad4"},"vehicle_type_id":"4","last_reported":1733638388,"current_range_meters":0,"station_id":"ce4bhr92rcd13ifvqhrg","pricing_plan_id":"cebpf4jnsgd1na2vs0mg"},{"bike_id":"f9e2e07a-1a1c-476a-b907-f71ab25c578d","system_id":"levelo_inurba_marseille","lat":43.3149,"lon":5.37301,"is_reserved":false,"is_disabled":false,"rental_uris":{"android":"levelo://app?vid=f9e2e07a-1a1c-476a-b907-f71ab25c578d","ios":"levelo://app?vid=f9e2e07a-1a1c-476a-b907-f71ab25c578d"},"vehicle_type_id":"4","last_reported":1733638388,"current_range_meters":38400,"station_id":"ce4bgt12rcd13ifvqcd0","pricing_plan_id":"cebpf4jnsgd1na2vs0mg"},{"bike_id":"2a4714ce-60ea-4e4b-8d17-db8f48e78980","system_id":"levelo_inurba_marseille","lat":43.32486,"lon":5.36556,"is_reserved":false,"is_disabled":false,"rental_uris":{"android":"levelo://app?vid=2a4714ce-60ea-4e4b-8d17-db8f48e78980","ios":"levelo://app?vid=2a4714ce-60ea-4e4b-8d17-db8f48e78980"},"vehicle_type_id":"4","last_reported":1733638388,"current_range_meters":38800,"station_id":"ce4bhs12rcd13ifvqhvg","pricing_plan_id":"cebpf4jnsgd1na2vs0mg"},{"bike_id":"7c346c6c-ed66-4c5c-b77c-8bab2d3558cd","system_id":"levelo_inurba_marseille","lat":43.29026,"lon":5.3864,"is_reserved":false,"is_disabled":false,"rental_uris":{"android":"levelo://app?vid=7c346c6c-ed66-4c5c-b77c-8bab2d3558cd","ios":"levelo://app?vid=7c346c6c-ed66-4c5c-b77c-8bab2d3558cd"},"vehicle_type_id":"4","last_reported":1733638388,"current_range_meters":4400,"station_id":"ce4bh4p2rcd13ifvqe0g","pricing_plan_id":"cebpf4jnsgd1na2vs0mg"},{"bike_id":"5fd8fda4-5ceb-4e39-b9f4-ea27acda2ce7","system_id":"levelo_inurba_marseille","lat":43.27183,"lon":5.40988,"is_reserved":false,"is_disabled":true,"rental_uris":{"android":"levelo://app?vid=5fd8fda4-5ceb-4e39-b9f4-ea27acda2ce7","ios":"levelo://app?vid=5fd8fda4-5ceb-4e39-b9f4-ea27acda2ce7"},"vehicle_type_id":"4","last_reported":1733638388,"current_range_meters":17600,"station_id":"ce4bhl12rcd13ifvqgf0","pricing_plan_id":"cebpf4jnsgd1na2vs0mg"},{"bike_id":"790e6b94-ce45-4889-b455-25e1aa551929","system_id":"levelo_inurba_marseille","lat":43.30796,"lon":5.38177,"is_reserved":false,"is_disabled":false,"rental_uris":{"android":"levelo://app?vid=790e6b94-ce45-4889-b455-25e1aa551929","ios":"levelo://app?vid=790e6b94-ce45-4889-b455-25e1aa551929"},"vehicle_type_id":"4","last_reported":1733638388,"current_range_meters":38800,"station_id":"ce4bgt12rcd13ifvqce0","pricing_plan_id":"cebpf4jnsgd1na2vs0mg"},{"bike_id":"aec7038c-742f-46ef-8a85-6063c6455cd7","system_id":"levelo_inurba_marseille","lat":43.3089,"lon":5.39649,"is_reserved":false,"is_disabled":false,"rental_uris":{"android":"levelo://app?vid=aec7038c-742f-46ef-8a85-6063c6455cd7","ios":"levelo://app?vid=aec7038c-742f-46ef-8a85-6063c6455cd7"},"vehicle_type_id":"4","last_reported":1733638388,"current_range_meters":30400,"station_id":"ce4bh012rcd13ifvqcv0","pricing_plan_id":"cebpf4jnsgd1na2vs0mg"},{"bike_id":"8bd642b2-0279-44c7-9ee2-fc3b57332c83","system_id":"levelo_inurba_marseille","lat":43.27455,"lon":5.40073,"is_reserved":false,"is_disabled":true,"rental_uris":{"android":"levelo://app?vid=8bd642b2-0279-44c7-9ee2-fc3b57332c83","ios":"levelo://app?vid=8bd642b2-0279-44c7-9ee2-fc3b57332c83"},"vehicle_type_id":"4","last_reported":1733638388,"current_range_meters":0,"station_id":"","pricing_plan_id":"cebpf4jnsgd1na2vs0mg"},{"bike_id":"77c01485-b35f-4217-9d30-c740816ff6d4","system_id":"levelo_inurba_marseille","lat":43.28357,"lon":5.38109,"is_reserved":false,"is_disabled":false,"rental_uris":{"android":"levelo://app?vid=77c01485-b35f-4217-9d30-c740816ff6d4","ios":"levelo://app?vid=77c01485-b35f-4217-9d30-c740816ff6d4"},"vehicle_type_id":"4","last_reported":1733638388,"current_range_meters":27600,"station_id":"ce4bh412rcd13ifvqdr0","pricing_plan_id":"cebpf4jnsgd1na2vs0mg"},{"bike_id":"bcdd65dc-97de-4383-95a4-ecae3a23ba68","system_id":"levelo_inurba_marseille","lat":43.29095,"lon":5.38121,"is_reserved":false,"is_disabled":false,"rental_uris":{"android":"levelo://app?vid=bcdd65dc-97de-4383-95a4-ecae3a23ba68","ios":"levelo://app?vid=bcdd65dc-97de-4383-95a4-ecae3a23ba68"},"vehicle_type_id":"4","last_reported":1733638388,"current_range_meters":17200,"station_id":"ce4bh512rcd13ifvqe2g","pricing_plan_id":"cebpf4jnsgd1na2vs0mg"},{"bike_id":"bf7f9dbd-bb96-429c-95f1-29b3881ba5e9","system_id":"levelo_inurba_marseille","lat":43.30806,"lon":5.38147,"is_reserved":false,"is_disabled":false,"rental_uris":{"android":"levelo://app?vid=bf7f9dbd-bb96-429c-95f1-29b3881ba5e9","ios":"levelo://app?vid=bf7f9dbd-bb96-429c-95f1-29b3881ba5e9"},"vehicle_type_id":"4","last_reported":1733638388,"current_range_meters":38800,"station_id":"ce4bgt12rcd13ifvqce0","pricing_plan_id":"cebpf4jnsgd1na2vs0mg"},{"bike_id":"d83d9dc7-ce4c-43e2-8c7d-eeda83c183ce","system_id":"levelo_inurba_marseille","lat":43.26055,"lon":5.39398,"is_reserved":false,"is_disabled":false,"rental_uris":{"android":"levelo://app?vid=d83d9dc7-ce4c-43e2-8c7d-eeda83c183ce","ios":"levelo://app?vid=d83d9dc7-ce4c-43e2-8c7d-eeda83c183ce"},"vehicle_type_id":"4","last_reported":1733638388,"current_range_meters":38800,"station_id":"ce4bhh92rcd13ifvqfj0","pricing_plan_id":"cebpf4jnsgd1na2vs0mg"},{"bike_id":"6293356c-f2a8-454b-8fae-7ad113ad0512","system_id":"levelo_inurba_marseille","lat":43.30643,"lon":5.40074,"is_reserved":false,"is_disabled":false,"rental_uris":{"android":"levelo://app?vid=6293356c-f2a8-454b-8fae-7ad113ad0512","ios":"levelo://app?vid=6293356c-f2a8-454b-8fae-7ad113ad0512"},"vehicle_type_id":"4","last_reported":1733638388,"current_range_meters":29600,"station_id":"ce4bh112rcd13ifvqda0","pricing_plan_id":"cebpf4jnsgd1na2vs0mg"},{"bike_id":"3e2e0554-cfd9-46a1-83e1-b68226cc65d7","system_id":"levelo_inurba_marseille","lat":43.3095,"lon":5.39071,"is_reserved":false,"is_disabled":false,"rental_uris":{"android":"levelo://app?vid=3e2e0554-cfd9-46a1-83e1-b68226cc65d7","ios":"levelo://app?vid=3e2e0554-cfd9-46a1-83e1-b68226cc65d7"},"vehicle_type_id":"4","last_reported":1733638388,"current_range_meters":38800,"station_id":"ce4bgup2rcd13ifvqco0","pricing_plan_id":"cebpf4jnsgd1na2vs0mg"},{"bike_id":"74cdbc6e-5f1e-47ec-8395-54504d1f82a3","system_id":"levelo_inurba_marseille","lat":43.30888,"lon":5.37207,"is_reserved":false,"is_disabled":false,"rental_uris":{"android":"levelo://app?vid=74cdbc6e-5f1e-47ec-8395-54504d1f82a3","ios":"levelo://app?vid=74cdbc6e-5f1e-47ec-8395-54504d1f82a3"},"vehicle_type_id":"4","last_reported":1733638388,"current_range_meters":38000,"station_id":"ce4bguh2rcd13ifvqckg","pricing_plan_id":"cebpf4jnsgd1na2vs0mg"},{"bike_id":"650aedbd-7fe9-41b2-ab79-4b8450652642","system_id":"levelo_inurba_marseille","lat":43.292,"lon":5.35793,"is_reserved":false,"is_disabled":true,"rental_uris":{"android":"levelo://app?vid=650aedbd-7fe9-41b2-ab79-4b8450652642","ios":"levelo://app?vid=650aedbd-7fe9-41b2-ab79-4b8450652642"},"vehicle_type_id":"4","last_reported":1733638388,"current_range_meters":38000,"station_id":"ce4bhb12rcd13ifvqel0","pricing_plan_id":"cebpf4jnsgd1na2vs0mg"},{"bike_id":"92fe1ecd-d962-4721-9023-eb907db34c93","system_id":"levelo_inurba_marseille","lat":43.28665,"lon":5.36359,"is_reserved":false,"is_disabled":false,"rental_uris":{"android":"levelo://app?vid=92fe1ecd-d962-4721-9023-eb907db34c93","ios":"levelo://app?vid=92fe1ecd-d962-4721-9023-eb907db34c93"},"vehicle_type_id":"4","last_reported":1733638388,"current_range_meters":39200,"station_id":"ce4bhah2rcd13ifvqej0","pricing_plan_id":"cebpf4jnsgd1na2vs0mg"},{"bike_id":"479889bf-dbf3-4abb-926f-bf7556951acc","system_id":"levelo_inurba_marseille","lat":43.29897,"lon":5.43664,"is_reserved":false,"is_disabled":false,"rental_uris":{"android":"levelo://app?vid=479889bf-dbf3-4abb-926f-bf7556951acc","ios":"levelo://app?vid=479889bf-dbf3-4abb-926f-bf7556951acc"},"vehicle_type_id":"4","last_reported":1733638388,"current_range_meters":38400,"station_id":"ce4bhpp2rcd13ifvqhfg","pricing_plan_id":"cebpf4jnsgd1na2vs0mg"},{"bike_id":"3000a861-0903-41f2-bb5d-48554b17ed5a","system_id":"levelo_inurba_marseille","lat":43.337444,"lon":5.374475,"is_reserved":false,"is_disabled":false,"rental_uris":{"android":"levelo://app?vid=3000a861-0903-41f2-bb5d-48554b17ed5a","ios":"levelo://app?vid=3000a861-0903-41f2-bb5d-48554b17ed5a"},"vehicle_type_id":"4","last_reported":1733638388,"current_range_meters":29600,"station_id":"","pricing_plan_id":"cebpf4jnsgd1na2vs0mg"},{"bike_id":"e14ff483-f290-4a96-beab-fc577b54c818","system_id":"levelo_inurba_marseille","lat":43.28491,"lon":5.36814,"is_reserved":false,"is_disabled":false,"rental_uris":{"android":"levelo://app?vid=e14ff483-f290-4a96-beab-fc577b54c818","ios":"levelo://app?vid=e14ff483-f290-4a96-beab-fc577b54c818"},"vehicle_type_id":"4","last_reported":1733638388,"current_range_meters":12800,"station_id":"","pricing_plan_id":"cebpf4jnsgd1na2vs0mg"},{"bike_id":"81ce3000-a05b-4d2b-b46b-09e6e484470a","system_id":"levelo_inurba_marseille","lat":43.24645,"lon":5.38901,"is_reserved":false,"is_disabled":false,"rental_uris":{"android":"levelo://app?vid=81ce3000-a05b-4d2b-b46b-09e6e484470a","ios":"levelo://app?vid=81ce3000-a05b-4d2b-b46b-09e6e484470a"},"vehicle_type_id":"4","last_reported":1733638388,"current_range_meters":38800,"station_id":"ce4bhg12rcd13ifvqf60","pricing_plan_id":"cebpf4jnsgd1na2vs0mg"},{"bike_id":"95cfddd6-1f3c-4fd2-9652-931f20cf06bd","system_id":"levelo_inurba_marseille","lat":43.255721,"lon":5.382351,"is_reserved":false,"is_disabled":false,"rental_uris":{"android":"levelo://app?vid=95cfddd6-1f3c-4fd2-9652-931f20cf06bd","ios":"levelo://app?vid=95cfddd6-1f3c-4fd2-9652-931f20cf06bd"},"vehicle_type_id":"4","last_reported":1733638388,"current_range_meters":26000,"station_id":"ce4bhih2rcd13ifvqfs0","pricing_plan_id":"cebpf4jnsgd1na2vs0mg"},{"bike_id":"73ccbd70-1a9a-4dfe-83ab-06455939b50a","system_id":"levelo_inurba_marseille","lat":43.26946,"lon":5.40266,"is_reserved":false,"is_disabled":false,"rental_uris":{"android":"levelo://app?vid=73ccbd70-1a9a-4dfe-83ab-06455939b50a","ios":"levelo://app?vid=73ccbd70-1a9a-4dfe-83ab-06455939b50a"},"vehicle_type_id":"4","last_reported":1733638388,"current_range_meters":39200,"station_id":"cjm6bp8fraef2m0cb0m0","pricing_plan_id":"cebpf4jnsgd1na2vs0mg"},{"bike_id":"9223c377-69ec-465d-a41a-a36f215c00fc","system_id":"levelo_inurba_marseille","lat":43.29031,"lon":5.39986,"is_reserved":false,"is_disabled":false,"rental_uris":{"android":"levelo://app?vid=9223c377-69ec-465d-a41a-a36f215c00fc","ios":"levelo://app?vid=9223c377-69ec-465d-a41a-a36f215c00fc"},"vehicle_type_id":"4","last_reported":1733638388,"current_range_meters":38800,"station_id":"ce4bh392rcd13ifvqdm0","pricing_plan_id":"cebpf4jnsgd1na2vs0mg"},{"bike_id":"89ceac00-2c22-4cb1-b85d-583fccdb788b","system_id":"levelo_inurba_marseille","lat":43.32095,"lon":5.36786,"is_reserved":false,"is_disabled":false,"rental_uris":{"android":"levelo://app?vid=89ceac00-2c22-4cb1-b85d-583fccdb788b","ios":"levelo://app?vid=89ceac00-2c22-4cb1-b85d-583fccdb788b"},"vehicle_type_id":"4","last_reported":1733638388,"current_range_meters":13600,"station_id":"ce4bhrh2rcd13ifvqhug","pricing_plan_id":"cebpf4jnsgd1na2vs0mg"},{"bike_id":"686da00d-589f-4977-821e-e278f1ac498e","system_id":"levelo_inurba_marseille","lat":43.317124,"lon":5.437072,"is_reserved":false,"is_disabled":false,"rental_uris":{"android":"levelo://app?vid=686da00d-589f-4977-821e-e278f1ac498e","ios":"levelo://app?vid=686da00d-589f-4977-821e-e278f1ac498e"},"vehicle_type_id":"4","last_reported":1733638388,"current_range_meters":38800,"station_id":"ce4bhp92rcd13ifvqhcg","pricing_plan_id":"cebpf4jnsgd1na2vs0mg"},{"bike_id":"ab1f0d28-f380-4551-95aa-09889e73948a","system_id":"levelo_inurba_marseille","lat":43.3112,"lon":5.3776,"is_reserved":false,"is_disabled":false,"rental_uris":{"android":"levelo://app?vid=ab1f0d28-f380-4551-95aa-09889e73948a","ios":"levelo://app?vid=ab1f0d28-f380-4551-95aa-09889e73948a"},"vehicle_type_id":"4","last_reported":1733638388,"current_range_meters":28400,"station_id":"ce4bgt92rcd13ifvqcg0","pricing_plan_id":"cebpf4jnsgd1na2vs0mg"},{"bike_id":"7618691e-e9af-476b-b5ee-1882fa8d3e27","system_id":"levelo_inurba_marseille","lat":43.31114,"lon":5.37774,"is_reserved":false,"is_disabled":false,"rental_uris":{"android":"levelo://app?vid=7618691e-e9af-476b-b5ee-1882fa8d3e27","ios":"levelo://app?vid=7618691e-e9af-476b-b5ee-1882fa8d3e27"},"vehicle_type_id":"4","last_reported":1733638388,"current_range_meters":38800,"station_id":"ce4bgt92rcd13ifvqcg0","pricing_plan_id":"cebpf4jnsgd1na2vs0mg"},{"bike_id":"e6ef4c64-4c4c-48fa-a061-246db244ae4c","system_id":"levelo_inurba_marseille","lat":43.25579,"lon":5.38235,"is_reserved":false,"is_disabled":false,"rental_uris":{"android":"levelo://app?vid=e6ef4c64-4c4c-48fa-a061-246db244ae4c","ios":"levelo://app?vid=e6ef4c64-4c4c-48fa-a061-246db244ae4c"},"vehicle_type_id":"4","last_reported":1733638388,"current_range_meters":22400,"station_id":"ce4bhih2rcd13ifvqfs0","pricing_plan_id":"cebpf4jnsgd1na2vs0mg"},{"bike_id":"2b247ce2-f875-40e9-bf2a-461f41bc9f8c","system_id":"levelo_inurba_marseille","lat":43.24812,"lon":5.37457,"is_reserved":false,"is_disabled":true,"rental_uris":{"android":"levelo://app?vid=2b247ce2-f875-40e9-bf2a-461f41bc9f8c","ios":"levelo://app?vid=2b247ce2-f875-40e9-bf2a-461f41bc9f8c"},"vehicle_type_id":"4","last_reported":1733638388,"current_range_meters":800,"station_id":"ce4bhgh2rcd13ifvqfb0","pricing_plan_id":"cebpf4jnsgd1na2vs0mg"},{"bike_id":"938640b4-f78c-4def-9b16-e6205edb88bc","system_id":"levelo_inurba_marseille","lat":43.281511,"lon":5.426408,"is_reserved":false,"is_disabled":true,"rental_uris":{"android":"levelo://app?vid=938640b4-f78c-4def-9b16-e6205edb88bc","ios":"levelo://app?vid=938640b4-f78c-4def-9b16-e6205edb88bc"},"vehicle_type_id":"4","last_reported":1733638388,"current_range_meters":10800,"station_id":"ce4bhnh2rcd13ifvqgug","pricing_plan_id":"cebpf4jnsgd1na2vs0mg"},{"bike_id":"bd66e220-aa2d-4e33-82f2-5837531933f5","system_id":"levelo_inurba_marseille","lat":43.269362,"lon":5.389192,"is_reserved":false,"is_disabled":false,"rental_uris":{"android":"levelo://app?vid=bd66e220-aa2d-4e33-82f2-5837531933f5","ios":"levelo://app?vid=bd66e220-aa2d-4e33-82f2-5837531933f5"},"vehicle_type_id":"4","last_reported":1733638388,"current_range_meters":16000,"station_id":"ce4bhhh2rcd13ifvqfl0","pricing_plan_id":"cebpf4jnsgd1na2vs0mg"},{"bike_id":"527c5910-8a21-4eda-90d7-63496c329f8c","system_id":"levelo_inurba_marseille","lat":43.3266,"lon":5.40989,"is_reserved":false,"is_disabled":false,"rental_uris":{"android":"levelo://app?vid=527c5910-8a21-4eda-90d7-63496c329f8c","ios":"levelo://app?vid=527c5910-8a21-4eda-90d7-63496c329f8c"},"vehicle_type_id":"4","last_reported":1733638388,"current_range_meters":36000,"station_id":"ce4bhpp2rcd13ifvqhgg","pricing_plan_id":"cebpf4jnsgd1na2vs0mg"},{"bike_id":"74afb9b9-24d4-4583-a3fe-ca59a6055037","system_id":"levelo_inurba_marseille","lat":43.28851,"lon":5.35857,"is_reserved":false,"is_disabled":false,"rental_uris":{"android":"levelo://app?vid=74afb9b9-24d4-4583-a3fe-ca59a6055037","ios":"levelo://app?vid=74afb9b9-24d4-4583-a3fe-ca59a6055037"},"vehicle_type_id":"4","last_reported":1733638388,"current_range_meters":38800,"station_id":"ce4bhb12rcd13ifvqem0","pricing_plan_id":"cebpf4jnsgd1na2vs0mg"},{"bike_id":"32d80771-6afa-481c-905b-bbdfdc2c61dd","system_id":"levelo_inurba_marseille","lat":43.32485,"lon":5.36574,"is_reserved":false,"is_disabled":true,"rental_uris":{"android":"levelo://app?vid=32d80771-6afa-481c-905b-bbdfdc2c61dd","ios":"levelo://app?vid=32d80771-6afa-481c-905b-bbdfdc2c61dd"},"vehicle_type_id":"4","last_reported":1733638388,"current_range_meters":24400,"station_id":"ce4bhs12rcd13ifvqhvg","pricing_plan_id":"cebpf4jnsgd1na2vs0mg"},{"bike_id":"2f3968e7-9336-4ee4-ba78-8e92c0a818cc","system_id":"levelo_inurba_marseille","lat":43.31322,"lon":5.36647,"is_reserved":false,"is_disabled":true,"rental_uris":{"android":"levelo://app?vid=2f3968e7-9336-4ee4-ba78-8e92c0a818cc","ios":"levelo://app?vid=2f3968e7-9336-4ee4-ba78-8e92c0a818cc"},"vehicle_type_id":"4","last_reported":1733638388,"current_range_meters":0,"station_id":"","pricing_plan_id":"cebpf4jnsgd1na2vs0mg"},{"bike_id":"5ebc19a5-4eab-4ea6-b558-b6d986ab3c2e","system_id":"levelo_inurba_marseille","lat":43.2465,"lon":5.38902,"is_reserved":false,"is_disabled":false,"rental_uris":{"android":"levelo://app?vid=5ebc19a5-4eab-4ea6-b558-b6d986ab3c2e","ios":"levelo://app?vid=5ebc19a5-4eab-4ea6-b558-b6d986ab3c2e"},"vehicle_type_id":"4","last_reported":1733638388,"current_range_meters":38800,"station_id":"ce4bhg12rcd13ifvqf60","pricing_plan_id":"cebpf4jnsgd1na2vs0mg"},{"bike_id":"05b56b9e-e664-46b1-996a-f434933add32","system_id":"levelo_inurba_marseille","lat":43.305993,"lon":5.37221,"is_reserved":false,"is_disabled":false,"rental_uris":{"android":"levelo://app?vid=05b56b9e-e664-46b1-996a-f434933add32","ios":"levelo://app?vid=05b56b9e-e664-46b1-996a-f434933add32"},"vehicle_type_id":"4","last_reported":1733638388,"current_range_meters":34000,"station_id":"ce4bgqh2rcd13ifvqc4g","pricing_plan_id":"cebpf4jnsgd1na2vs0mg"},{"bike_id":"d6a98d8d-1375-44c2-9bec-0fc3fa856af8","system_id":"levelo_inurba_marseille","lat":43.28273,"lon":5.35054,"is_reserved":false,"is_disabled":false,"rental_uris":{"android":"levelo://app?vid=d6a98d8d-1375-44c2-9bec-0fc3fa856af8","ios":"levelo://app?vid=d6a98d8d-1375-44c2-9bec-0fc3fa856af8"},"vehicle_type_id":"4","last_reported":1733638388,"current_range_meters":22000,"station_id":"ce4bhbp2rcd13ifvqerg","pricing_plan_id":"cebpf4jnsgd1na2vs0mg"},{"bike_id":"3ba2ee36-2b31-4bc9-b8c0-c8096e25c27c","system_id":"levelo_inurba_marseille","lat":43.29898,"lon":5.43642,"is_reserved":false,"is_disabled":false,"rental_uris":{"android":"levelo://app?vid=3ba2ee36-2b31-4bc9-b8c0-c8096e25c27c","ios":"levelo://app?vid=3ba2ee36-2b31-4bc9-b8c0-c8096e25c27c"},"vehicle_type_id":"4","last_reported":1733638388,"current_range_meters":26000,"station_id":"ce4bhpp2rcd13ifvqhfg","pricing_plan_id":"cebpf4jnsgd1na2vs0mg"},{"bike_id":"022baaa0-60fe-42c8-9545-2a67c58e5e19","system_id":"levelo_inurba_marseille","lat":43.29629,"lon":5.40602,"is_reserved":false,"is_disabled":false,"rental_uris":{"android":"levelo://app?vid=022baaa0-60fe-42c8-9545-2a67c58e5e19","ios":"levelo://app?vid=022baaa0-60fe-42c8-9545-2a67c58e5e19"},"vehicle_type_id":"4","last_reported":1733638388,"current_range_meters":22800,"station_id":"ce4bh0h2rcd13ifvqd60","pricing_plan_id":"cebpf4jnsgd1na2vs0mg"},{"bike_id":"4b44ee6d-fcd6-4dc6-8f44-84800125b288","system_id":"levelo_inurba_marseille","lat":43.28453,"lon":5.35885,"is_reserved":false,"is_disabled":false,"rental_uris":{"android":"levelo://app?vid=4b44ee6d-fcd6-4dc6-8f44-84800125b288","ios":"levelo://app?vid=4b44ee6d-fcd6-4dc6-8f44-84800125b288"},"vehicle_type_id":"4","last_reported":1733638388,"current_range_meters":33200,"station_id":"ce4bhah2rcd13ifvqei0","pricing_plan_id":"cebpf4jnsgd1na2vs0mg"},{"bike_id":"7736d0dc-1989-4505-a61b-7fdb0a6489c6","system_id":"levelo_inurba_marseille","lat":43.32367,"lon":5.38894,"is_reserved":false,"is_disabled":true,"rental_uris":{"android":"levelo://app?vid=7736d0dc-1989-4505-a61b-7fdb0a6489c6","ios":"levelo://app?vid=7736d0dc-1989-4505-a61b-7fdb0a6489c6"},"vehicle_type_id":"4","last_reported":1733638388,"current_range_meters":2000,"station_id":"ce4bhqp2rcd13ifvqhog","pricing_plan_id":"cebpf4jnsgd1na2vs0mg"},{"bike_id":"1e8f9911-49f1-40e7-b2c6-a411a48272e0","system_id":"levelo_inurba_marseille","lat":43.29794,"lon":5.3812,"is_reserved":false,"is_disabled":true,"rental_uris":{"android":"levelo://app?vid=1e8f9911-49f1-40e7-b2c6-a411a48272e0","ios":"levelo://app?vid=1e8f9911-49f1-40e7-b2c6-a411a48272e0"},"vehicle_type_id":"4","last_reported":1733638388,"current_range_meters":22400,"station_id":"ce4bgip2rcd13ifvqbb0","pricing_plan_id":"cebpf4jnsgd1na2vs0mg"},{"bike_id":"6583aefc-6815-4bd5-8f5c-a9c5d794f47e","system_id":"levelo_inurba_marseille","lat":43.364952,"lon":5.34272,"is_reserved":false,"is_disabled":false,"rental_uris":{"android":"levelo://app?vid=6583aefc-6815-4bd5-8f5c-a9c5d794f47e","ios":"levelo://app?vid=6583aefc-6815-4bd5-8f5c-a9c5d794f47e"},"vehicle_type_id":"4","last_reported":1733638388,"current_range_meters":22800,"station_id":"","pricing_plan_id":"cebpf4jnsgd1na2vs0mg"},{"bike_id":"c6467936-29c7-4106-b86b-d8da0acf5b14","system_id":"levelo_inurba_marseille","lat":43.32483,"lon":5.36564,"is_reserved":false,"is_disabled":false,"rental_uris":{"android":"levelo://app?vid=c6467936-29c7-4106-b86b-d8da0acf5b14","ios":"levelo://app?vid=c6467936-29c7-4106-b86b-d8da0acf5b14"},"vehicle_type_id":"4","last_reported":1733638388,"current_range_meters":17600,"station_id":"ce4bhs12rcd13ifvqhvg","pricing_plan_id":"cebpf4jnsgd1na2vs0mg"},{"bike_id":"18c465ad-16a0-4d72-a337-11a15929aab8","system_id":"levelo_inurba_marseille","lat":43.2396,"lon":5.36635,"is_reserved":false,"is_disabled":true,"rental_uris":{"android":"levelo://app?vid=18c465ad-16a0-4d72-a337-11a15929aab8","ios":"levelo://app?vid=18c465ad-16a0-4d72-a337-11a15929aab8"},"vehicle_type_id":"4","last_reported":1733638388,"current_range_meters":38400,"station_id":"ce4bhi12rcd13ifvqfp0","pricing_plan_id":"cebpf4jnsgd1na2vs0mg"},{"bike_id":"5abd469a-7386-4b4a-a2de-a9c3ef73095b","system_id":"levelo_inurba_marseille","lat":43.30156,"lon":5.38089,"is_reserved":false,"is_disabled":false,"rental_uris":{"android":"levelo://app?vid=5abd469a-7386-4b4a-a2de-a9c3ef73095b","ios":"levelo://app?vid=5abd469a-7386-4b4a-a2de-a9c3ef73095b"},"vehicle_type_id":"4","last_reported":1733638388,"current_range_meters":30800,"station_id":"ce4bgjp2rcd13ifvqbh0","pricing_plan_id":"cebpf4jnsgd1na2vs0mg"},{"bike_id":"f825a6e3-d202-4ddc-917b-5da49c4114c4","system_id":"levelo_inurba_marseille","lat":43.23197,"lon":5.35545,"is_reserved":false,"is_disabled":false,"rental_uris":{"android":"levelo://app?vid=f825a6e3-d202-4ddc-917b-5da49c4114c4","ios":"levelo://app?vid=f825a6e3-d202-4ddc-917b-5da49c4114c4"},"vehicle_type_id":"4","last_reported":1733638388,"current_range_meters":38400,"station_id":"ce4bhu92rcd13ifvqi70","pricing_plan_id":"cebpf4jnsgd1na2vs0mg"},{"bike_id":"468d023e-e483-49f2-92d7-7b95c7b3c650","system_id":"levelo_inurba_marseille","lat":43.29896,"lon":5.43616,"is_reserved":false,"is_disabled":false,"rental_uris":{"android":"levelo://app?vid=468d023e-e483-49f2-92d7-7b95c7b3c650","ios":"levelo://app?vid=468d023e-e483-49f2-92d7-7b95c7b3c650"},"vehicle_type_id":"4","last_reported":1733638388,"current_range_meters":9600,"station_id":"ce4bhpp2rcd13ifvqhfg","pricing_plan_id":"cebpf4jnsgd1na2vs0mg"},{"bike_id":"6abdf2a4-1bb1-4a68-ad76-46533474582c","system_id":"levelo_inurba_marseille","lat":43.260328,"lon":5.375547,"is_reserved":false,"is_disabled":false,"rental_uris":{"android":"levelo://app?vid=6abdf2a4-1bb1-4a68-ad76-46533474582c","ios":"levelo://app?vid=6abdf2a4-1bb1-4a68-ad76-46533474582c"},"vehicle_type_id":"4","last_reported":1733638388,"current_range_meters":34000,"station_id":"ce4bhgh2rcd13ifvqfa0","pricing_plan_id":"cebpf4jnsgd1na2vs0mg"},{"bike_id":"3303d00f-ba00-4a57-a969-41605d4fc157","system_id":"levelo_inurba_marseille","lat":43.28452,"lon":5.35897,"is_reserved":false,"is_disabled":false,"rental_uris":{"android":"levelo://app?vid=3303d00f-ba00-4a57-a969-41605d4fc157","ios":"levelo://app?vid=3303d00f-ba00-4a57-a969-41605d4fc157"},"vehicle_type_id":"4","last_reported":1733638388,"current_range_meters":11200,"station_id":"ce4bhah2rcd13ifvqei0","pricing_plan_id":"cebpf4jnsgd1na2vs0mg"},{"bike_id":"4ab447c5-d4cc-46e6-95bb-27430d7bc53f","system_id":"levelo_inurba_marseille","lat":43.27317,"lon":5.39083,"is_reserved":false,"is_disabled":false,"rental_uris":{"android":"levelo://app?vid=4ab447c5-d4cc-46e6-95bb-27430d7bc53f","ios":"levelo://app?vid=4ab447c5-d4cc-46e6-95bb-27430d7bc53f"},"vehicle_type_id":"4","last_reported":1733638388,"current_range_meters":38800,"station_id":"ce4bhgp2rcd13ifvqfe0","pricing_plan_id":"cebpf4jnsgd1na2vs0mg"},{"bike_id":"95549e99-3d14-4048-a51a-7392522446dc","system_id":"levelo_inurba_marseille","lat":43.23192,"lon":5.35556,"is_reserved":false,"is_disabled":false,"rental_uris":{"android":"levelo://app?vid=95549e99-3d14-4048-a51a-7392522446dc","ios":"levelo://app?vid=95549e99-3d14-4048-a51a-7392522446dc"},"vehicle_type_id":"4","last_reported":1733638388,"current_range_meters":28800,"station_id":"ce4bhu92rcd13ifvqi70","pricing_plan_id":"cebpf4jnsgd1na2vs0mg"},{"bike_id":"0ae91b1e-777d-4df5-a12e-1138de124b4a","system_id":"levelo_inurba_marseille","lat":43.28278,"lon":5.3508,"is_reserved":false,"is_disabled":false,"rental_uris":{"android":"levelo://app?vid=0ae91b1e-777d-4df5-a12e-1138de124b4a","ios":"levelo://app?vid=0ae91b1e-777d-4df5-a12e-1138de124b4a"},"vehicle_type_id":"4","last_reported":1733638388,"current_range_meters":24400,"station_id":"ce4bhbp2rcd13ifvqerg","pricing_plan_id":"cebpf4jnsgd1na2vs0mg"},{"bike_id":"f10c5e90-601b-4bd4-87e7-4cbb6a13a4fb","system_id":"levelo_inurba_marseille","lat":43.26123,"lon":5.39268,"is_reserved":false,"is_disabled":true,"rental_uris":{"android":"levelo://app?vid=f10c5e90-601b-4bd4-87e7-4cbb6a13a4fb","ios":"levelo://app?vid=f10c5e90-601b-4bd4-87e7-4cbb6a13a4fb"},"vehicle_type_id":"4","last_reported":1733638388,"current_range_meters":0,"station_id":"","pricing_plan_id":"cebpf4jnsgd1na2vs0mg"},{"bike_id":"b1a023a8-bfe2-4a8e-8aaa-4e18b6da929e","system_id":"levelo_inurba_marseille","lat":43.294141,"lon":5.386021,"is_reserved":false,"is_disabled":true,"rental_uris":{"android":"levelo://app?vid=b1a023a8-bfe2-4a8e-8aaa-4e18b6da929e","ios":"levelo://app?vid=b1a023a8-bfe2-4a8e-8aaa-4e18b6da929e"},"vehicle_type_id":"4","last_reported":1733638388,"current_range_meters":4000,"station_id":"ce4bh2h2rcd13ifvqdh0","pricing_plan_id":"cebpf4jnsgd1na2vs0mg"},{"bike_id":"7f10e845-c1cf-45fa-aa2f-716e359991a1","system_id":"levelo_inurba_marseille","lat":43.30882,"lon":5.39636,"is_reserved":false,"is_disabled":false,"rental_uris":{"android":"levelo://app?vid=7f10e845-c1cf-45fa-aa2f-716e359991a1","ios":"levelo://app?vid=7f10e845-c1cf-45fa-aa2f-716e359991a1"},"vehicle_type_id":"4","last_reported":1733638388,"current_range_meters":32000,"station_id":"ce4bh012rcd13ifvqcv0","pricing_plan_id":"cebpf4jnsgd1na2vs0mg"},{"bike_id":"d2d77fb1-d8e4-4d93-af48-f4130e25810f","system_id":"levelo_inurba_marseille","lat":43.258287,"lon":5.394356,"is_reserved":false,"is_disabled":false,"rental_uris":{"android":"levelo://app?vid=d2d77fb1-d8e4-4d93-af48-f4130e25810f","ios":"levelo://app?vid=d2d77fb1-d8e4-4d93-af48-f4130e25810f"},"vehicle_type_id":"4","last_reported":1733638388,"current_range_meters":33200,"station_id":"ce4bhip2rcd13ifvqft0","pricing_plan_id":"cebpf4jnsgd1na2vs0mg"},{"bike_id":"5d5e8e08-dd36-4331-9be8-d7717274c4bc","system_id":"levelo_inurba_marseille","lat":43.31264,"lon":5.4017,"is_reserved":false,"is_disabled":false,"rental_uris":{"android":"levelo://app?vid=5d5e8e08-dd36-4331-9be8-d7717274c4bc","ios":"levelo://app?vid=5d5e8e08-dd36-4331-9be8-d7717274c4bc"},"vehicle_type_id":"4","last_reported":1733638388,"current_range_meters":38800,"station_id":"ce4bh092rcd13ifvqd30","pricing_plan_id":"cebpf4jnsgd1na2vs0mg"},{"bike_id":"836e31b4-84ea-485a-9aef-0c295c7b4152","system_id":"levelo_inurba_marseille","lat":43.23201,"lon":5.35548,"is_reserved":false,"is_disabled":false,"rental_uris":{"android":"levelo://app?vid=836e31b4-84ea-485a-9aef-0c295c7b4152","ios":"levelo://app?vid=836e31b4-84ea-485a-9aef-0c295c7b4152"},"vehicle_type_id":"4","last_reported":1733638388,"current_range_meters":9200,"station_id":"ce4bhu92rcd13ifvqi70","pricing_plan_id":"cebpf4jnsgd1na2vs0mg"},{"bike_id":"95414d5c-6629-4e8c-8b6c-ad295613082f","system_id":"levelo_inurba_marseille","lat":43.30552,"lon":5.36535,"is_reserved":false,"is_disabled":true,"rental_uris":{"android":"levelo://app?vid=95414d5c-6629-4e8c-8b6c-ad295613082f","ios":"levelo://app?vid=95414d5c-6629-4e8c-8b6c-ad295613082f"},"vehicle_type_id":"4","last_reported":1733638388,"current_range_meters":0,"station_id":"ce4bgs12rcd13ifvqcag","pricing_plan_id":"cebpf4jnsgd1na2vs0mg"},{"bike_id":"d1c54e29-6abc-46ab-acdc-a92a33356190","system_id":"levelo_inurba_marseille","lat":43.33607,"lon":5.41035,"is_reserved":false,"is_disabled":false,"rental_uris":{"android":"levelo://app?vid=d1c54e29-6abc-46ab-acdc-a92a33356190","ios":"levelo://app?vid=d1c54e29-6abc-46ab-acdc-a92a33356190"},"vehicle_type_id":"4","last_reported":1733638388,"current_range_meters":27600,"station_id":"ce4bhqh2rcd13ifvqhmg","pricing_plan_id":"cebpf4jnsgd1na2vs0mg"},{"bike_id":"2bf6e188-f5c0-404f-8c9d-c6892de64b20","system_id":"levelo_inurba_marseille","lat":43.31883,"lon":5.40732,"is_reserved":false,"is_disabled":false,"rental_uris":{"android":"levelo://app?vid=2bf6e188-f5c0-404f-8c9d-c6892de64b20","ios":"levelo://app?vid=2bf6e188-f5c0-404f-8c9d-c6892de64b20"},"vehicle_type_id":"4","last_reported":1733638388,"current_range_meters":28800,"station_id":"ce4bhq12rcd13ifvqhig","pricing_plan_id":"cebpf4jnsgd1na2vs0mg"},{"bike_id":"94595565-54d5-4386-9c62-8b6cb35f0cf0","system_id":"levelo_inurba_marseille","lat":43.28939,"lon":5.39624,"is_reserved":false,"is_disabled":false,"rental_uris":{"android":"levelo://app?vid=94595565-54d5-4386-9c62-8b6cb35f0cf0","ios":"levelo://app?vid=94595565-54d5-4386-9c62-8b6cb35f0cf0"},"vehicle_type_id":"4","last_reported":1733638388,"current_range_meters":36800,"station_id":"ce4bh3h2rcd13ifvqdn0","pricing_plan_id":"cebpf4jnsgd1na2vs0mg"},{"bike_id":"4e8813f7-059e-4f1a-92cd-87fd97b079e7","system_id":"levelo_inurba_marseille","lat":43.30421,"lon":5.41277,"is_reserved":false,"is_disabled":false,"rental_uris":{"android":"levelo://app?vid=4e8813f7-059e-4f1a-92cd-87fd97b079e7","ios":"levelo://app?vid=4e8813f7-059e-4f1a-92cd-87fd97b079e7"},"vehicle_type_id":"4","last_reported":1733638388,"current_range_meters":38800,"station_id":"ce4bhop2rcd13ifvqh8g","pricing_plan_id":"cebpf4jnsgd1na2vs0mg"},{"bike_id":"21835eb8-c8da-486b-9ba8-505880f36e12","system_id":"levelo_inurba_marseille","lat":43.31278,"lon":5.40167,"is_reserved":false,"is_disabled":false,"rental_uris":{"android":"levelo://app?vid=21835eb8-c8da-486b-9ba8-505880f36e12","ios":"levelo://app?vid=21835eb8-c8da-486b-9ba8-505880f36e12"},"vehicle_type_id":"4","last_reported":1733638388,"current_range_meters":33600,"station_id":"ce4bh092rcd13ifvqd30","pricing_plan_id":"cebpf4jnsgd1na2vs0mg"},{"bike_id":"c9b870d0-adbc-477b-b2c3-23e72738799d","system_id":"levelo_inurba_marseille","lat":43.24173,"lon":5.39728,"is_reserved":false,"is_disabled":false,"rental_uris":{"android":"levelo://app?vid=c9b870d0-adbc-477b-b2c3-23e72738799d","ios":"levelo://app?vid=c9b870d0-adbc-477b-b2c3-23e72738799d"},"vehicle_type_id":"4","last_reported":1733638388,"current_range_meters":22800,"station_id":"ce4bhn12rcd13ifvqgpg","pricing_plan_id":"cebpf4jnsgd1na2vs0mg"},{"bike_id":"533e4bdd-a04c-4e4a-8222-83b357db9c26","system_id":"levelo_inurba_marseille","lat":43.30279,"lon":5.37697,"is_reserved":false,"is_disabled":false,"rental_uris":{"android":"levelo://app?vid=533e4bdd-a04c-4e4a-8222-83b357db9c26","ios":"levelo://app?vid=533e4bdd-a04c-4e4a-8222-83b357db9c26"},"vehicle_type_id":"4","last_reported":1733638388,"current_range_meters":27600,"station_id":"ce4bguh2rcd13ifvqcj0","pricing_plan_id":"cebpf4jnsgd1na2vs0mg"},{"bike_id":"91783b60-77e0-4efe-872b-2f1ffeb11c74","system_id":"levelo_inurba_marseille","lat":43.28948,"lon":5.36635,"is_reserved":false,"is_disabled":false,"rental_uris":{"android":"levelo://app?vid=91783b60-77e0-4efe-872b-2f1ffeb11c74","ios":"levelo://app?vid=91783b60-77e0-4efe-872b-2f1ffeb11c74"},"vehicle_type_id":"4","last_reported":1733638388,"current_range_meters":36400,"station_id":"ce4bhap2rcd13ifvqek0","pricing_plan_id":"cebpf4jnsgd1na2vs0mg"},{"bike_id":"9d519bb5-921f-4226-bc2d-b710c52af635","system_id":"levelo_inurba_marseille","lat":43.30655,"lon":5.4007,"is_reserved":false,"is_disabled":false,"rental_uris":{"android":"levelo://app?vid=9d519bb5-921f-4226-bc2d-b710c52af635","ios":"levelo://app?vid=9d519bb5-921f-4226-bc2d-b710c52af635"},"vehicle_type_id":"4","last_reported":1733638388,"current_range_meters":31200,"station_id":"ce4bh112rcd13ifvqda0","pricing_plan_id":"cebpf4jnsgd1na2vs0mg"},{"bike_id":"2a022814-f741-4adf-a235-83d4941bf5e2","system_id":"levelo_inurba_marseille","lat":43.28428,"lon":5.34994,"is_reserved":false,"is_disabled":false,"rental_uris":{"android":"levelo://app?vid=2a022814-f741-4adf-a235-83d4941bf5e2","ios":"levelo://app?vid=2a022814-f741-4adf-a235-83d4941bf5e2"},"vehicle_type_id":"4","last_reported":1733638388,"current_range_meters":14000,"station_id":"ce4bhbh2rcd13ifvqepg","pricing_plan_id":"cebpf4jnsgd1na2vs0mg"},{"bike_id":"67378829-8746-46f4-aa10-ed9b35d85ab5","system_id":"levelo_inurba_marseille","lat":43.28949,"lon":5.36634,"is_reserved":false,"is_disabled":true,"rental_uris":{"android":"levelo://app?vid=67378829-8746-46f4-aa10-ed9b35d85ab5","ios":"levelo://app?vid=67378829-8746-46f4-aa10-ed9b35d85ab5"},"vehicle_type_id":"4","last_reported":1733638388,"current_range_meters":8800,"station_id":"ce4bhap2rcd13ifvqek0","pricing_plan_id":"cebpf4jnsgd1na2vs0mg"},{"bike_id":"1285562f-cb61-40cc-b4ee-02ccfbedc631","system_id":"levelo_inurba_marseille","lat":43.291953,"lon":5.393269,"is_reserved":false,"is_disabled":false,"rental_uris":{"android":"levelo://app?vid=1285562f-cb61-40cc-b4ee-02ccfbedc631","ios":"levelo://app?vid=1285562f-cb61-40cc-b4ee-02ccfbedc631"},"vehicle_type_id":"4","last_reported":1733638388,"current_range_meters":38800,"station_id":"ce4bh192rcd13ifvqdd0","pricing_plan_id":"cebpf4jnsgd1na2vs0mg"},{"bike_id":"b3285ab7-0499-4edc-8f20-0bba4478b7b4","system_id":"levelo_inurba_marseille","lat":43.27048,"lon":5.4026,"is_reserved":false,"is_disabled":false,"rental_uris":{"android":"levelo://app?vid=b3285ab7-0499-4edc-8f20-0bba4478b7b4","ios":"levelo://app?vid=b3285ab7-0499-4edc-8f20-0bba4478b7b4"},"vehicle_type_id":"4","last_reported":1733638388,"current_range_meters":25200,"station_id":"ce4bhk92rcd13ifvqgc0","pricing_plan_id":"cebpf4jnsgd1na2vs0mg"},{"bike_id":"43d7eecc-95c9-476c-817a-455c2aff05c6","system_id":"levelo_inurba_marseille","lat":43.23186,"lon":5.39981,"is_reserved":false,"is_disabled":false,"rental_uris":{"android":"levelo://app?vid=43d7eecc-95c9-476c-817a-455c2aff05c6","ios":"levelo://app?vid=43d7eecc-95c9-476c-817a-455c2aff05c6"},"vehicle_type_id":"4","last_reported":1733638388,"current_range_meters":38400,"station_id":"ce4bhn12rcd13ifvqgqg","pricing_plan_id":"cebpf4jnsgd1na2vs0mg"},{"bike_id":"ba86bf55-e99a-4878-94b6-b4e5420b242e","system_id":"levelo_inurba_marseille","lat":43.29028,"lon":5.39975,"is_reserved":false,"is_disabled":false,"rental_uris":{"android":"levelo://app?vid=ba86bf55-e99a-4878-94b6-b4e5420b242e","ios":"levelo://app?vid=ba86bf55-e99a-4878-94b6-b4e5420b242e"},"vehicle_type_id":"4","last_reported":1733638388,"current_range_meters":6000,"station_id":"ce4bh392rcd13ifvqdm0","pricing_plan_id":"cebpf4jnsgd1na2vs0mg"},{"bike_id":"f942e722-5039-4601-9971-0207b150598d","system_id":"levelo_inurba_marseille","lat":43.29854,"lon":5.36283,"is_reserved":false,"is_disabled":false,"rental_uris":{"android":"levelo://app?vid=f942e722-5039-4601-9971-0207b150598d","ios":"levelo://app?vid=f942e722-5039-4601-9971-0207b150598d"},"vehicle_type_id":"4","last_reported":1733638388,"current_range_meters":34000,"station_id":"ce4bgpp2rcd13ifvqc3g","pricing_plan_id":"cebpf4jnsgd1na2vs0mg"},{"bike_id":"987a5ab4-d60c-480c-94b6-7cab38975402","system_id":"levelo_inurba_marseille","lat":43.29748,"lon":5.37971,"is_reserved":false,"is_disabled":true,"rental_uris":{"android":"levelo://app?vid=987a5ab4-d60c-480c-94b6-7cab38975402","ios":"levelo://app?vid=987a5ab4-d60c-480c-94b6-7cab38975402"},"vehicle_type_id":"4","last_reported":1733638388,"current_range_meters":0,"station_id":"","pricing_plan_id":"cebpf4jnsgd1na2vs0mg"},{"bike_id":"9cd79aab-6f4c-4919-b570-803a9e8b35c5","system_id":"levelo_inurba_marseille","lat":43.30638,"lon":5.36588,"is_reserved":false,"is_disabled":true,"rental_uris":{"android":"levelo://app?vid=9cd79aab-6f4c-4919-b570-803a9e8b35c5","ios":"levelo://app?vid=9cd79aab-6f4c-4919-b570-803a9e8b35c5"},"vehicle_type_id":"4","last_reported":1733638388,"current_range_meters":36000,"station_id":"","pricing_plan_id":"cebpf4jnsgd1na2vs0mg"},{"bike_id":"2d9feecb-4255-4a9d-93fa-4a085eb9cdda","system_id":"levelo_inurba_marseille","lat":43.28704,"lon":5.37393,"is_reserved":false,"is_disabled":false,"rental_uris":{"android":"levelo://app?vid=2d9feecb-4255-4a9d-93fa-4a085eb9cdda","ios":"levelo://app?vid=2d9feecb-4255-4a9d-93fa-4a085eb9cdda"},"vehicle_type_id":"4","last_reported":1733638388,"current_range_meters":36400,"station_id":"ce4bh3p2rcd13ifvqdq0","pricing_plan_id":"cebpf4jnsgd1na2vs0mg"},{"bike_id":"845d22aa-08cd-48bb-a523-2254f54a3708","system_id":"levelo_inurba_marseille","lat":43.2695,"lon":5.38638,"is_reserved":false,"is_disabled":false,"rental_uris":{"android":"levelo://app?vid=845d22aa-08cd-48bb-a523-2254f54a3708","ios":"levelo://app?vid=845d22aa-08cd-48bb-a523-2254f54a3708"},"vehicle_type_id":"4","last_reported":1733638388,"current_range_meters":28000,"station_id":"ce4bhh92rcd13ifvqfh0","pricing_plan_id":"cebpf4jnsgd1na2vs0mg"},{"bike_id":"165d3311-a977-4745-b689-5e6993d37f26","system_id":"levelo_inurba_marseille","lat":43.32476,"lon":5.36597,"is_reserved":false,"is_disabled":true,"rental_uris":{"android":"levelo://app?vid=165d3311-a977-4745-b689-5e6993d37f26","ios":"levelo://app?vid=165d3311-a977-4745-b689-5e6993d37f26"},"vehicle_type_id":"4","last_reported":1733638388,"current_range_meters":33200,"station_id":"ce4bhs12rcd13ifvqhvg","pricing_plan_id":"cebpf4jnsgd1na2vs0mg"},{"bike_id":"b6da6692-7e69-4e98-8ae5-84a8533f251e","system_id":"levelo_inurba_marseille","lat":43.30553,"lon":5.36534,"is_reserved":false,"is_disabled":true,"rental_uris":{"android":"levelo://app?vid=b6da6692-7e69-4e98-8ae5-84a8533f251e","ios":"levelo://app?vid=b6da6692-7e69-4e98-8ae5-84a8533f251e"},"vehicle_type_id":"4","last_reported":1733638388,"current_range_meters":7200,"station_id":"ce4bgs12rcd13ifvqcag","pricing_plan_id":"cebpf4jnsgd1na2vs0mg"},{"bike_id":"05f50a29-9b9d-41ae-8b43-3d69a9a4fb88","system_id":"levelo_inurba_marseille","lat":43.25582,"lon":5.3824,"is_reserved":false,"is_disabled":false,"rental_uris":{"android":"levelo://app?vid=05f50a29-9b9d-41ae-8b43-3d69a9a4fb88","ios":"levelo://app?vid=05f50a29-9b9d-41ae-8b43-3d69a9a4fb88"},"vehicle_type_id":"4","last_reported":1733638388,"current_range_meters":38800,"station_id":"ce4bhih2rcd13ifvqfs0","pricing_plan_id":"cebpf4jnsgd1na2vs0mg"},{"bike_id":"11e86528-eb6b-4391-86a5-9b1822d069a4","system_id":"levelo_inurba_marseille","lat":43.278805,"lon":5.388003,"is_reserved":false,"is_disabled":true,"rental_uris":{"android":"levelo://app?vid=11e86528-eb6b-4391-86a5-9b1822d069a4","ios":"levelo://app?vid=11e86528-eb6b-4391-86a5-9b1822d069a4"},"vehicle_type_id":"4","last_reported":1733638388,"current_range_meters":0,"station_id":"","pricing_plan_id":"cebpf4jnsgd1na2vs0mg"},{"bike_id":"6cc6805f-c0ca-4585-bdf1-b5a0339762b0","system_id":"levelo_inurba_marseille","lat":43.29027,"lon":5.42744,"is_reserved":false,"is_disabled":true,"rental_uris":{"android":"levelo://app?vid=6cc6805f-c0ca-4585-bdf1-b5a0339762b0","ios":"levelo://app?vid=6cc6805f-c0ca-4585-bdf1-b5a0339762b0"},"vehicle_type_id":"4","last_reported":1733638388,"current_range_meters":0,"station_id":"","pricing_plan_id":"cebpf4jnsgd1na2vs0mg"},{"bike_id":"fbab0e01-40cc-4eff-939a-d9a8fdd7ac42","system_id":"levelo_inurba_marseille","lat":43.257286,"lon":5.411057,"is_reserved":false,"is_disabled":false,"rental_uris":{"android":"levelo://app?vid=fbab0e01-40cc-4eff-939a-d9a8fdd7ac42","ios":"levelo://app?vid=fbab0e01-40cc-4eff-939a-d9a8fdd7ac42"},"vehicle_type_id":"4","last_reported":1733638388,"current_range_meters":21600,"station_id":"ce4bhkp2rcd13ifvqgd0","pricing_plan_id":"cebpf4jnsgd1na2vs0mg"},{"bike_id":"7fe86e8b-f1b3-47fd-84b6-643366f68e78","system_id":"levelo_inurba_marseille","lat":43.35564,"lon":5.36187,"is_reserved":false,"is_disabled":false,"rental_uris":{"android":"levelo://app?vid=7fe86e8b-f1b3-47fd-84b6-643366f68e78","ios":"levelo://app?vid=7fe86e8b-f1b3-47fd-84b6-643366f68e78"},"vehicle_type_id":"4","last_reported":1733638388,"current_range_meters":9600,"station_id":"","pricing_plan_id":"cebpf4jnsgd1na2vs0mg"},{"bike_id":"0618e41c-8092-45a3-9464-a3eb184aee25","system_id":"levelo_inurba_marseille","lat":43.26557,"lon":5.37282,"is_reserved":false,"is_disabled":false,"rental_uris":{"android":"levelo://app?vid=0618e41c-8092-45a3-9464-a3eb184aee25","ios":"levelo://app?vid=0618e41c-8092-45a3-9464-a3eb184aee25"},"vehicle_type_id":"4","last_reported":1733638388,"current_range_meters":17200,"station_id":"ce4bhg12rcd13ifvqf70","pricing_plan_id":"cebpf4jnsgd1na2vs0mg"},{"bike_id":"5164a5cb-b5f9-4cde-b04b-59b7f9f61922","system_id":"levelo_inurba_marseille","lat":43.3108,"lon":5.42434,"is_reserved":false,"is_disabled":false,"rental_uris":{"android":"levelo://app?vid=5164a5cb-b5f9-4cde-b04b-59b7f9f61922","ios":"levelo://app?vid=5164a5cb-b5f9-4cde-b04b-59b7f9f61922"},"vehicle_type_id":"4","last_reported":1733638388,"current_range_meters":38000,"station_id":"ce4bhp92rcd13ifvqhag","pricing_plan_id":"cebpf4jnsgd1na2vs0mg"},{"bike_id":"c930db70-43dd-4312-95ff-977a1b5b5dd8","system_id":"levelo_inurba_marseille","lat":43.28154,"lon":5.42642,"is_reserved":false,"is_disabled":false,"rental_uris":{"android":"levelo://app?vid=c930db70-43dd-4312-95ff-977a1b5b5dd8","ios":"levelo://app?vid=c930db70-43dd-4312-95ff-977a1b5b5dd8"},"vehicle_type_id":"4","last_reported":1733638388,"current_range_meters":19200,"station_id":"ce4bhnh2rcd13ifvqgug","pricing_plan_id":"cebpf4jnsgd1na2vs0mg"},{"bike_id":"ea9504d9-aff2-4542-b984-f952cc4ceb4b","system_id":"levelo_inurba_marseille","lat":43.25013,"lon":5.38909,"is_reserved":false,"is_disabled":false,"rental_uris":{"android":"levelo://app?vid=ea9504d9-aff2-4542-b984-f952cc4ceb4b","ios":"levelo://app?vid=ea9504d9-aff2-4542-b984-f952cc4ceb4b"},"vehicle_type_id":"4","last_reported":1733638388,"current_range_meters":12000,"station_id":"ce4bhgp2rcd13ifvqfd0","pricing_plan_id":"cebpf4jnsgd1na2vs0mg"},{"bike_id":"5c802ff0-0334-4016-a3b3-69c7bf82c399","system_id":"levelo_inurba_marseille","lat":43.29577,"lon":5.39973,"is_reserved":false,"is_disabled":false,"rental_uris":{"android":"levelo://app?vid=5c802ff0-0334-4016-a3b3-69c7bf82c399","ios":"levelo://app?vid=5c802ff0-0334-4016-a3b3-69c7bf82c399"},"vehicle_type_id":"4","last_reported":1733638388,"current_range_meters":38000,"station_id":"ce4bh312rcd13ifvqdj0","pricing_plan_id":"cebpf4jnsgd1na2vs0mg"},{"bike_id":"419212a2-021f-4ce3-b77e-517f77b09479","system_id":"levelo_inurba_marseille","lat":43.26558,"lon":5.37283,"is_reserved":false,"is_disabled":false,"rental_uris":{"android":"levelo://app?vid=419212a2-021f-4ce3-b77e-517f77b09479","ios":"levelo://app?vid=419212a2-021f-4ce3-b77e-517f77b09479"},"vehicle_type_id":"4","last_reported":1733638388,"current_range_meters":24400,"station_id":"ce4bhg12rcd13ifvqf70","pricing_plan_id":"cebpf4jnsgd1na2vs0mg"},{"bike_id":"968a09cf-4a23-4936-af82-5c1ca631252a","system_id":"levelo_inurba_marseille","lat":43.336035,"lon":5.410204,"is_reserved":false,"is_disabled":false,"rental_uris":{"android":"levelo://app?vid=968a09cf-4a23-4936-af82-5c1ca631252a","ios":"levelo://app?vid=968a09cf-4a23-4936-af82-5c1ca631252a"},"vehicle_type_id":"4","last_reported":1733638388,"current_range_meters":36400,"station_id":"ce4bhqh2rcd13ifvqhmg","pricing_plan_id":"cebpf4jnsgd1na2vs0mg"},{"bike_id":"b04b4f64-4677-4acc-9cf8-88c63ef2a0e8","system_id":"levelo_inurba_marseille","lat":43.23147,"lon":5.4371,"is_reserved":false,"is_disabled":false,"rental_uris":{"android":"levelo://app?vid=b04b4f64-4677-4acc-9cf8-88c63ef2a0e8","ios":"levelo://app?vid=b04b4f64-4677-4acc-9cf8-88c63ef2a0e8"},"vehicle_type_id":"4","last_reported":1733638388,"current_range_meters":38000,"station_id":"ce4bhmp2rcd13ifvqgog","pricing_plan_id":"cebpf4jnsgd1na2vs0mg"},{"bike_id":"3a1cabfd-7ea0-40e5-ba2a-bc16f7acb1fa","system_id":"levelo_inurba_marseille","lat":43.343378,"lon":5.358114,"is_reserved":false,"is_disabled":true,"rental_uris":{"android":"levelo://app?vid=3a1cabfd-7ea0-40e5-ba2a-bc16f7acb1fa","ios":"levelo://app?vid=3a1cabfd-7ea0-40e5-ba2a-bc16f7acb1fa"},"vehicle_type_id":"4","last_reported":1733638388,"current_range_meters":3200,"station_id":"","pricing_plan_id":"cebpf4jnsgd1na2vs0mg"},{"bike_id":"5363ff62-efb4-4016-aaa0-446a3d22fb30","system_id":"levelo_inurba_marseille","lat":43.28857,"lon":5.35858,"is_reserved":false,"is_disabled":false,"rental_uris":{"android":"levelo://app?vid=5363ff62-efb4-4016-aaa0-446a3d22fb30","ios":"levelo://app?vid=5363ff62-efb4-4016-aaa0-446a3d22fb30"},"vehicle_type_id":"4","last_reported":1733638388,"current_range_meters":28000,"station_id":"ce4bhb12rcd13ifvqem0","pricing_plan_id":"cebpf4jnsgd1na2vs0mg"},{"bike_id":"14726b6f-5ec7-4a0f-85ef-530d09932e2f","system_id":"levelo_inurba_marseille","lat":43.25718,"lon":5.41113,"is_reserved":false,"is_disabled":false,"rental_uris":{"android":"levelo://app?vid=14726b6f-5ec7-4a0f-85ef-530d09932e2f","ios":"levelo://app?vid=14726b6f-5ec7-4a0f-85ef-530d09932e2f"},"vehicle_type_id":"4","last_reported":1733638388,"current_range_meters":13600,"station_id":"ce4bhkp2rcd13ifvqgd0","pricing_plan_id":"cebpf4jnsgd1na2vs0mg"},{"bike_id":"29929e6e-7d6e-43ab-ba76-27897d24f75c","system_id":"levelo_inurba_marseille","lat":43.306411,"lon":5.400706,"is_reserved":false,"is_disabled":false,"rental_uris":{"android":"levelo://app?vid=29929e6e-7d6e-43ab-ba76-27897d24f75c","ios":"levelo://app?vid=29929e6e-7d6e-43ab-ba76-27897d24f75c"},"vehicle_type_id":"4","last_reported":1733638388,"current_range_meters":28000,"station_id":"ce4bh112rcd13ifvqda0","pricing_plan_id":"cebpf4jnsgd1na2vs0mg"},{"bike_id":"6975187f-29b4-4e6e-ab5f-82b6b91b9eff","system_id":"levelo_inurba_marseille","lat":43.25118,"lon":5.40324,"is_reserved":false,"is_disabled":false,"rental_uris":{"android":"levelo://app?vid=6975187f-29b4-4e6e-ab5f-82b6b91b9eff","ios":"levelo://app?vid=6975187f-29b4-4e6e-ab5f-82b6b91b9eff"},"vehicle_type_id":"4","last_reported":1733638388,"current_range_meters":38800,"station_id":"ce4bhlh2rcd13ifvqgig","pricing_plan_id":"cebpf4jnsgd1na2vs0mg"},{"bike_id":"95b68163-8c31-4ce4-989b-0d594a1f53e9","system_id":"levelo_inurba_marseille","lat":43.2968,"lon":5.37257,"is_reserved":false,"is_disabled":false,"rental_uris":{"android":"levelo://app?vid=95b68163-8c31-4ce4-989b-0d594a1f53e9","ios":"levelo://app?vid=95b68163-8c31-4ce4-989b-0d594a1f53e9"},"vehicle_type_id":"4","last_reported":1733638388,"current_range_meters":33600,"station_id":"ce4bgk12rcd13ifvqbj0","pricing_plan_id":"cebpf4jnsgd1na2vs0mg"},{"bike_id":"0d08de15-f48c-47e6-94e0-78793ca4449e","system_id":"levelo_inurba_marseille","lat":43.30312,"lon":5.36905,"is_reserved":false,"is_disabled":false,"rental_uris":{"android":"levelo://app?vid=0d08de15-f48c-47e6-94e0-78793ca4449e","ios":"levelo://app?vid=0d08de15-f48c-47e6-94e0-78793ca4449e"},"vehicle_type_id":"4","last_reported":1733638388,"current_range_meters":24400,"station_id":"ce4bgqh2rcd13ifvqc5g","pricing_plan_id":"cebpf4jnsgd1na2vs0mg"},{"bike_id":"4f2a7311-6ddc-4ab5-b42c-5ec2aa5cc183","system_id":"levelo_inurba_marseille","lat":43.31529,"lon":5.38028,"is_reserved":false,"is_disabled":false,"rental_uris":{"android":"levelo://app?vid=4f2a7311-6ddc-4ab5-b42c-5ec2aa5cc183","ios":"levelo://app?vid=4f2a7311-6ddc-4ab5-b42c-5ec2aa5cc183"},"vehicle_type_id":"4","last_reported":1733638388,"current_range_meters":36800,"station_id":"ce4bhsp2rcd13ifvqi50","pricing_plan_id":"cebpf4jnsgd1na2vs0mg"},{"bike_id":"fc7ea287-6e78-4210-9698-a31ef4d0431c","system_id":"levelo_inurba_marseille","lat":43.27062,"lon":5.42279,"is_reserved":false,"is_disabled":false,"rental_uris":{"android":"levelo://app?vid=fc7ea287-6e78-4210-9698-a31ef4d0431c","ios":"levelo://app?vid=fc7ea287-6e78-4210-9698-a31ef4d0431c"},"vehicle_type_id":"4","last_reported":1733638388,"current_range_meters":38400,"station_id":"ce4bhk92rcd13ifvqgb0","pricing_plan_id":"cebpf4jnsgd1na2vs0mg"},{"bike_id":"90180111-4adc-44a4-b3b2-23febea5d380","system_id":"levelo_inurba_marseille","lat":43.33021,"lon":5.39041,"is_reserved":false,"is_disabled":false,"rental_uris":{"android":"levelo://app?vid=90180111-4adc-44a4-b3b2-23febea5d380","ios":"levelo://app?vid=90180111-4adc-44a4-b3b2-23febea5d380"},"vehicle_type_id":"4","last_reported":1733638388,"current_range_meters":28400,"station_id":"ce4bhr92rcd13ifvqhrg","pricing_plan_id":"cebpf4jnsgd1na2vs0mg"},{"bike_id":"e505588b-2390-4a5a-aa8e-e97e870d1c73","system_id":"levelo_inurba_marseille","lat":43.31275,"lon":5.40173,"is_reserved":false,"is_disabled":false,"rental_uris":{"android":"levelo://app?vid=e505588b-2390-4a5a-aa8e-e97e870d1c73","ios":"levelo://app?vid=e505588b-2390-4a5a-aa8e-e97e870d1c73"},"vehicle_type_id":"4","last_reported":1733638388,"current_range_meters":27600,"station_id":"ce4bh092rcd13ifvqd30","pricing_plan_id":"cebpf4jnsgd1na2vs0mg"},{"bike_id":"1f610b82-9128-4e03-9855-53ffeab37d2c","system_id":"levelo_inurba_marseille","lat":43.25089,"lon":5.39525,"is_reserved":false,"is_disabled":false,"rental_uris":{"android":"levelo://app?vid=1f610b82-9128-4e03-9855-53ffeab37d2c","ios":"levelo://app?vid=1f610b82-9128-4e03-9855-53ffeab37d2c"},"vehicle_type_id":"4","last_reported":1733638388,"current_range_meters":36800,"station_id":"ce4bhm12rcd13ifvqgkg","pricing_plan_id":"cebpf4jnsgd1na2vs0mg"},{"bike_id":"344526a9-8d0b-479c-9bd3-d552a4e510d2","system_id":"levelo_inurba_marseille","lat":43.32655,"lon":5.40993,"is_reserved":false,"is_disabled":false,"rental_uris":{"android":"levelo://app?vid=344526a9-8d0b-479c-9bd3-d552a4e510d2","ios":"levelo://app?vid=344526a9-8d0b-479c-9bd3-d552a4e510d2"},"vehicle_type_id":"4","last_reported":1733638388,"current_range_meters":37600,"station_id":"ce4bhpp2rcd13ifvqhgg","pricing_plan_id":"cebpf4jnsgd1na2vs0mg"},{"bike_id":"7de2c9be-1b34-48ad-9b28-023101f3316f","system_id":"levelo_inurba_marseille","lat":43.33021,"lon":5.39039,"is_reserved":false,"is_disabled":false,"rental_uris":{"android":"levelo://app?vid=7de2c9be-1b34-48ad-9b28-023101f3316f","ios":"levelo://app?vid=7de2c9be-1b34-48ad-9b28-023101f3316f"},"vehicle_type_id":"4","last_reported":1733638388,"current_range_meters":38000,"station_id":"ce4bhr92rcd13ifvqhrg","pricing_plan_id":"cebpf4jnsgd1na2vs0mg"},{"bike_id":"067d4f8e-eded-4040-9b89-eb14aebc4852","system_id":"levelo_inurba_marseille","lat":43.298926,"lon":5.436726,"is_reserved":false,"is_disabled":false,"rental_uris":{"android":"levelo://app?vid=067d4f8e-eded-4040-9b89-eb14aebc4852","ios":"levelo://app?vid=067d4f8e-eded-4040-9b89-eb14aebc4852"},"vehicle_type_id":"4","last_reported":1733638388,"current_range_meters":8400,"station_id":"ce4bhpp2rcd13ifvqhfg","pricing_plan_id":"cebpf4jnsgd1na2vs0mg"},{"bike_id":"6bf80c88-32e3-43e6-b288-d7cb82882e64","system_id":"levelo_inurba_marseille","lat":43.31489,"lon":5.3731,"is_reserved":false,"is_disabled":false,"rental_uris":{"android":"levelo://app?vid=6bf80c88-32e3-43e6-b288-d7cb82882e64","ios":"levelo://app?vid=6bf80c88-32e3-43e6-b288-d7cb82882e64"},"vehicle_type_id":"4","last_reported":1733638388,"current_range_meters":22400,"station_id":"ce4bgt12rcd13ifvqcd0","pricing_plan_id":"cebpf4jnsgd1na2vs0mg"},{"bike_id":"e5517603-fe5d-4f05-b971-e020b1a7a445","system_id":"levelo_inurba_marseille","lat":43.27999,"lon":5.40013,"is_reserved":false,"is_disabled":false,"rental_uris":{"android":"levelo://app?vid=e5517603-fe5d-4f05-b971-e020b1a7a445","ios":"levelo://app?vid=e5517603-fe5d-4f05-b971-e020b1a7a445"},"vehicle_type_id":"4","last_reported":1733638388,"current_range_meters":32000,"station_id":"ce4bho92rcd13ifvqh4g","pricing_plan_id":"cebpf4jnsgd1na2vs0mg"},{"bike_id":"83985555-c848-4b28-808f-8a7e7cf8519e","system_id":"levelo_inurba_marseille","lat":43.28115,"lon":5.43955,"is_reserved":false,"is_disabled":true,"rental_uris":{"android":"levelo://app?vid=83985555-c848-4b28-808f-8a7e7cf8519e","ios":"levelo://app?vid=83985555-c848-4b28-808f-8a7e7cf8519e"},"vehicle_type_id":"4","last_reported":1733638388,"current_range_meters":0,"station_id":"","pricing_plan_id":"cebpf4jnsgd1na2vs0mg"},{"bike_id":"2d83ce8c-6e16-4716-9edf-d0ffdd6fa8a5","system_id":"levelo_inurba_marseille","lat":43.30151,"lon":5.39878,"is_reserved":false,"is_disabled":false,"rental_uris":{"android":"levelo://app?vid=2d83ce8c-6e16-4716-9edf-d0ffdd6fa8a5","ios":"levelo://app?vid=2d83ce8c-6e16-4716-9edf-d0ffdd6fa8a5"},"vehicle_type_id":"4","last_reported":1733638388,"current_range_meters":33200,"station_id":"ce4bh0h2rcd13ifvqd40","pricing_plan_id":"cebpf4jnsgd1na2vs0mg"},{"bike_id":"84eddd35-4076-462c-b0e4-9c17c748aeff","system_id":"levelo_inurba_marseille","lat":43.33771,"lon":5.37491,"is_reserved":false,"is_disabled":false,"rental_uris":{"android":"levelo://app?vid=84eddd35-4076-462c-b0e4-9c17c748aeff","ios":"levelo://app?vid=84eddd35-4076-462c-b0e4-9c17c748aeff"},"vehicle_type_id":"4","last_reported":1733638388,"current_range_meters":15200,"station_id":"","pricing_plan_id":"cebpf4jnsgd1na2vs0mg"},{"bike_id":"66d0f71e-5d76-4274-a432-4dd216931dd0","system_id":"levelo_inurba_marseille","lat":43.28429,"lon":5.34996,"is_reserved":false,"is_disabled":false,"rental_uris":{"android":"levelo://app?vid=66d0f71e-5d76-4274-a432-4dd216931dd0","ios":"levelo://app?vid=66d0f71e-5d76-4274-a432-4dd216931dd0"},"vehicle_type_id":"4","last_reported":1733638388,"current_range_meters":38400,"station_id":"ce4bhbh2rcd13ifvqepg","pricing_plan_id":"cebpf4jnsgd1na2vs0mg"},{"bike_id":"84132ef4-f2ab-4ec8-868b-255cacfe6f83","system_id":"levelo_inurba_marseille","lat":43.28276,"lon":5.35066,"is_reserved":false,"is_disabled":false,"rental_uris":{"android":"levelo://app?vid=84132ef4-f2ab-4ec8-868b-255cacfe6f83","ios":"levelo://app?vid=84132ef4-f2ab-4ec8-868b-255cacfe6f83"},"vehicle_type_id":"4","last_reported":1733638388,"current_range_meters":35600,"station_id":"ce4bhbp2rcd13ifvqerg","pricing_plan_id":"cebpf4jnsgd1na2vs0mg"},{"bike_id":"acb4a6e1-2183-49c3-8b5c-b59533f1aaad","system_id":"levelo_inurba_marseille","lat":43.32656,"lon":5.40983,"is_reserved":false,"is_disabled":false,"rental_uris":{"android":"levelo://app?vid=acb4a6e1-2183-49c3-8b5c-b59533f1aaad","ios":"levelo://app?vid=acb4a6e1-2183-49c3-8b5c-b59533f1aaad"},"vehicle_type_id":"4","last_reported":1733638388,"current_range_meters":24800,"station_id":"ce4bhpp2rcd13ifvqhgg","pricing_plan_id":"cebpf4jnsgd1na2vs0mg"},{"bike_id":"efe04de7-f6e9-408c-acde-ee606ac1c287","system_id":"levelo_inurba_marseille","lat":43.31359,"lon":5.38507,"is_reserved":false,"is_disabled":false,"rental_uris":{"android":"levelo://app?vid=efe04de7-f6e9-408c-acde-ee606ac1c287","ios":"levelo://app?vid=efe04de7-f6e9-408c-acde-ee606ac1c287"},"vehicle_type_id":"4","last_reported":1733638388,"current_range_meters":8800,"station_id":"ce4bgt92rcd13ifvqcf0","pricing_plan_id":"cebpf4jnsgd1na2vs0mg"},{"bike_id":"752a0652-7074-4f07-8575-c18d25cb48b5","system_id":"levelo_inurba_marseille","lat":43.31276,"lon":5.40166,"is_reserved":false,"is_disabled":false,"rental_uris":{"android":"levelo://app?vid=752a0652-7074-4f07-8575-c18d25cb48b5","ios":"levelo://app?vid=752a0652-7074-4f07-8575-c18d25cb48b5"},"vehicle_type_id":"4","last_reported":1733638388,"current_range_meters":14400,"station_id":"ce4bh092rcd13ifvqd30","pricing_plan_id":"cebpf4jnsgd1na2vs0mg"},{"bike_id":"59ec8469-de73-4900-aee6-d1b157890d0d","system_id":"levelo_inurba_marseille","lat":43.24675,"lon":5.38164,"is_reserved":false,"is_disabled":false,"rental_uris":{"android":"levelo://app?vid=59ec8469-de73-4900-aee6-d1b157890d0d","ios":"levelo://app?vid=59ec8469-de73-4900-aee6-d1b157890d0d"},"vehicle_type_id":"4","last_reported":1733638388,"current_range_meters":39200,"station_id":"ce4bhih2rcd13ifvqfr0","pricing_plan_id":"cebpf4jnsgd1na2vs0mg"},{"bike_id":"34cd3179-a984-4984-ba39-77f55cba8dc9","system_id":"levelo_inurba_marseille","lat":43.32653,"lon":5.409927,"is_reserved":false,"is_disabled":true,"rental_uris":{"android":"levelo://app?vid=34cd3179-a984-4984-ba39-77f55cba8dc9","ios":"levelo://app?vid=34cd3179-a984-4984-ba39-77f55cba8dc9"},"vehicle_type_id":"4","last_reported":1733638388,"current_range_meters":32800,"station_id":"ce4bhpp2rcd13ifvqhgg","pricing_plan_id":"cebpf4jnsgd1na2vs0mg"},{"bike_id":"5687e068-69cc-4397-b6fb-a40653dbd395","system_id":"levelo_inurba_marseille","lat":43.31796,"lon":5.38973,"is_reserved":false,"is_disabled":false,"rental_uris":{"android":"levelo://app?vid=5687e068-69cc-4397-b6fb-a40653dbd395","ios":"levelo://app?vid=5687e068-69cc-4397-b6fb-a40653dbd395"},"vehicle_type_id":"4","last_reported":1733638388,"current_range_meters":38400,"station_id":"","pricing_plan_id":"cebpf4jnsgd1na2vs0mg"},{"bike_id":"5edf82fa-e9d0-4d1f-98f1-37c98092771a","system_id":"levelo_inurba_marseille","lat":43.231934,"lon":5.355432,"is_reserved":false,"is_disabled":false,"rental_uris":{"android":"levelo://app?vid=5edf82fa-e9d0-4d1f-98f1-37c98092771a","ios":"levelo://app?vid=5edf82fa-e9d0-4d1f-98f1-37c98092771a"},"vehicle_type_id":"4","last_reported":1733638388,"current_range_meters":38800,"station_id":"ce4bhu92rcd13ifvqi70","pricing_plan_id":"cebpf4jnsgd1na2vs0mg"},{"bike_id":"06a5d2d4-e650-4668-bf27-a38fd2142bff","system_id":"levelo_inurba_marseille","lat":43.245473,"lon":5.39521,"is_reserved":false,"is_disabled":false,"rental_uris":{"android":"levelo://app?vid=06a5d2d4-e650-4668-bf27-a38fd2142bff","ios":"levelo://app?vid=06a5d2d4-e650-4668-bf27-a38fd2142bff"},"vehicle_type_id":"4","last_reported":1733638388,"current_range_meters":38000,"station_id":"ce4bhlp2rcd13ifvqgjg","pricing_plan_id":"cebpf4jnsgd1na2vs0mg"},{"bike_id":"95b0d93b-0328-4906-baeb-62a5d877404c","system_id":"levelo_inurba_marseille","lat":43.27056,"lon":5.40261,"is_reserved":false,"is_disabled":false,"rental_uris":{"android":"levelo://app?vid=95b0d93b-0328-4906-baeb-62a5d877404c","ios":"levelo://app?vid=95b0d93b-0328-4906-baeb-62a5d877404c"},"vehicle_type_id":"4","last_reported":1733638388,"current_range_meters":29600,"station_id":"ce4bhk92rcd13ifvqgc0","pricing_plan_id":"cebpf4jnsgd1na2vs0mg"},{"bike_id":"3afcb54a-b8a5-40bb-8ae8-ddf1f47b8268","system_id":"levelo_inurba_marseille","lat":43.30535,"lon":5.3843,"is_reserved":false,"is_disabled":true,"rental_uris":{"android":"levelo://app?vid=3afcb54a-b8a5-40bb-8ae8-ddf1f47b8268","ios":"levelo://app?vid=3afcb54a-b8a5-40bb-8ae8-ddf1f47b8268"},"vehicle_type_id":"4","last_reported":1733638388,"current_range_meters":32400,"station_id":"ce4bgg92rcd13ifvqb30","pricing_plan_id":"cebpf4jnsgd1na2vs0mg"},{"bike_id":"fdcaecac-af89-4899-89a9-e9fa376db2d4","system_id":"levelo_inurba_marseille","lat":43.31996,"lon":5.38147,"is_reserved":false,"is_disabled":false,"rental_uris":{"android":"levelo://app?vid=fdcaecac-af89-4899-89a9-e9fa376db2d4","ios":"levelo://app?vid=fdcaecac-af89-4899-89a9-e9fa376db2d4"},"vehicle_type_id":"4","last_reported":1733638388,"current_range_meters":14400,"station_id":"ce4bhr12rcd13ifvqhpg","pricing_plan_id":"cebpf4jnsgd1na2vs0mg"},{"bike_id":"a76f0499-0af6-402b-8f9f-ddd78320a7b4","system_id":"levelo_inurba_marseille","lat":43.30463,"lon":5.37895,"is_reserved":false,"is_disabled":true,"rental_uris":{"android":"levelo://app?vid=a76f0499-0af6-402b-8f9f-ddd78320a7b4","ios":"levelo://app?vid=a76f0499-0af6-402b-8f9f-ddd78320a7b4"},"vehicle_type_id":"4","last_reported":1733638388,"current_range_meters":38800,"station_id":"ce4bgup2rcd13ifvqcn0","pricing_plan_id":"cebpf4jnsgd1na2vs0mg"},{"bike_id":"83319820-ad4f-4208-bf65-c9fc431b1a4c","system_id":"levelo_inurba_marseille","lat":43.25828,"lon":5.39437,"is_reserved":false,"is_disabled":false,"rental_uris":{"android":"levelo://app?vid=83319820-ad4f-4208-bf65-c9fc431b1a4c","ios":"levelo://app?vid=83319820-ad4f-4208-bf65-c9fc431b1a4c"},"vehicle_type_id":"4","last_reported":1733638388,"current_range_meters":30000,"station_id":"ce4bhip2rcd13ifvqft0","pricing_plan_id":"cebpf4jnsgd1na2vs0mg"},{"bike_id":"209024fa-1289-499c-a8fd-f67770daf517","system_id":"levelo_inurba_marseille","lat":43.26948,"lon":5.38621,"is_reserved":false,"is_disabled":false,"rental_uris":{"android":"levelo://app?vid=209024fa-1289-499c-a8fd-f67770daf517","ios":"levelo://app?vid=209024fa-1289-499c-a8fd-f67770daf517"},"vehicle_type_id":"4","last_reported":1733638388,"current_range_meters":8000,"station_id":"ce4bhh92rcd13ifvqfh0","pricing_plan_id":"cebpf4jnsgd1na2vs0mg"},{"bike_id":"9c2d089d-e580-464c-a254-a84d0c5baff8","system_id":"levelo_inurba_marseille","lat":43.25868,"lon":5.39899,"is_reserved":false,"is_disabled":false,"rental_uris":{"android":"levelo://app?vid=9c2d089d-e580-464c-a254-a84d0c5baff8","ios":"levelo://app?vid=9c2d089d-e580-464c-a254-a84d0c5baff8"},"vehicle_type_id":"4","last_reported":1733638388,"current_range_meters":38400,"station_id":"ce4bhl92rcd13ifvqghg","pricing_plan_id":"cebpf4jnsgd1na2vs0mg"},{"bike_id":"0694b84b-212e-4e3c-9092-6e213a66ec49","system_id":"levelo_inurba_marseille","lat":43.23067,"lon":5.35492,"is_reserved":false,"is_disabled":false,"rental_uris":{"android":"levelo://app?vid=0694b84b-212e-4e3c-9092-6e213a66ec49","ios":"levelo://app?vid=0694b84b-212e-4e3c-9092-6e213a66ec49"},"vehicle_type_id":"4","last_reported":1733638388,"current_range_meters":8000,"station_id":"cpo3342slgdg3j2ifvpg","pricing_plan_id":"cebpf4jnsgd1na2vs0mg"},{"bike_id":"b497ad4d-1643-419c-aba6-8e8a5474d77a","system_id":"levelo_inurba_marseille","lat":43.29895,"lon":5.43666,"is_reserved":false,"is_disabled":false,"rental_uris":{"android":"levelo://app?vid=b497ad4d-1643-419c-aba6-8e8a5474d77a","ios":"levelo://app?vid=b497ad4d-1643-419c-aba6-8e8a5474d77a"},"vehicle_type_id":"4","last_reported":1733638388,"current_range_meters":15200,"station_id":"ce4bhpp2rcd13ifvqhfg","pricing_plan_id":"cebpf4jnsgd1na2vs0mg"},{"bike_id":"5489479e-97a6-44c9-b36b-e65b1b7b0ae6","system_id":"levelo_inurba_marseille","lat":43.29523,"lon":5.39035,"is_reserved":false,"is_disabled":false,"rental_uris":{"android":"levelo://app?vid=5489479e-97a6-44c9-b36b-e65b1b7b0ae6","ios":"levelo://app?vid=5489479e-97a6-44c9-b36b-e65b1b7b0ae6"},"vehicle_type_id":"4","last_reported":1733638388,"current_range_meters":32800,"station_id":"ce4bh3p2rcd13ifvqdp0","pricing_plan_id":"cebpf4jnsgd1na2vs0mg"},{"bike_id":"1b0cf7b0-f1f1-420d-b39e-8993110a2cf3","system_id":"levelo_inurba_marseille","lat":43.29481,"lon":5.43821,"is_reserved":false,"is_disabled":false,"rental_uris":{"android":"levelo://app?vid=1b0cf7b0-f1f1-420d-b39e-8993110a2cf3","ios":"levelo://app?vid=1b0cf7b0-f1f1-420d-b39e-8993110a2cf3"},"vehicle_type_id":"4","last_reported":1733638388,"current_range_meters":22000,"station_id":"","pricing_plan_id":"cebpf4jnsgd1na2vs0mg"},{"bike_id":"872baac7-a790-472e-a4d5-8894eb9605e5","system_id":"levelo_inurba_marseille","lat":43.28781,"lon":5.36259,"is_reserved":false,"is_disabled":false,"rental_uris":{"android":"levelo://app?vid=872baac7-a790-472e-a4d5-8894eb9605e5","ios":"levelo://app?vid=872baac7-a790-472e-a4d5-8894eb9605e5"},"vehicle_type_id":"4","last_reported":1733638388,"current_range_meters":16400,"station_id":"","pricing_plan_id":"cebpf4jnsgd1na2vs0mg"},{"bike_id":"15e21ff4-debb-4d61-969a-5518cc99a71c","system_id":"levelo_inurba_marseille","lat":43.2758,"lon":5.38432,"is_reserved":false,"is_disabled":false,"rental_uris":{"android":"levelo://app?vid=15e21ff4-debb-4d61-969a-5518cc99a71c","ios":"levelo://app?vid=15e21ff4-debb-4d61-969a-5518cc99a71c"},"vehicle_type_id":"4","last_reported":1733638388,"current_range_meters":38800,"station_id":"ce4bhh92rcd13ifvqfi0","pricing_plan_id":"cebpf4jnsgd1na2vs0mg"},{"bike_id":"0deb7b46-3bee-4382-87b1-3984fb62457f","system_id":"levelo_inurba_marseille","lat":43.28742,"lon":5.38912,"is_reserved":false,"is_disabled":true,"rental_uris":{"android":"levelo://app?vid=0deb7b46-3bee-4382-87b1-3984fb62457f","ios":"levelo://app?vid=0deb7b46-3bee-4382-87b1-3984fb62457f"},"vehicle_type_id":"4","last_reported":1733638388,"current_range_meters":24000,"station_id":"","pricing_plan_id":"cebpf4jnsgd1na2vs0mg"},{"bike_id":"0f3690fa-03f3-415f-9e6e-6a613b98d23b","system_id":"levelo_inurba_marseille","lat":43.26938,"lon":5.40261,"is_reserved":false,"is_disabled":false,"rental_uris":{"android":"levelo://app?vid=0f3690fa-03f3-415f-9e6e-6a613b98d23b","ios":"levelo://app?vid=0f3690fa-03f3-415f-9e6e-6a613b98d23b"},"vehicle_type_id":"4","last_reported":1733638388,"current_range_meters":39200,"station_id":"cjm6bp8fraef2m0cb0m0","pricing_plan_id":"cebpf4jnsgd1na2vs0mg"},{"bike_id":"0b2d9ccf-2279-41d0-bd68-27fbe32c181d","system_id":"levelo_inurba_marseille","lat":43.31331,"lon":5.39694,"is_reserved":false,"is_disabled":false,"rental_uris":{"android":"levelo://app?vid=0b2d9ccf-2279-41d0-bd68-27fbe32c181d","ios":"levelo://app?vid=0b2d9ccf-2279-41d0-bd68-27fbe32c181d"},"vehicle_type_id":"4","last_reported":1733638388,"current_range_meters":33600,"station_id":"ce4bgvp2rcd13ifvqcu0","pricing_plan_id":"cebpf4jnsgd1na2vs0mg"},{"bike_id":"5460e245-8621-4d83-bd98-c21b0b296c70","system_id":"levelo_inurba_marseille","lat":43.2439,"lon":5.37053,"is_reserved":false,"is_disabled":false,"rental_uris":{"android":"levelo://app?vid=5460e245-8621-4d83-bd98-c21b0b296c70","ios":"levelo://app?vid=5460e245-8621-4d83-bd98-c21b0b296c70"},"vehicle_type_id":"4","last_reported":1733638388,"current_range_meters":33600,"station_id":"ce4bhhh2rcd13ifvqfk0","pricing_plan_id":"cebpf4jnsgd1na2vs0mg"},{"bike_id":"7cdad35d-df5e-4eec-9265-9be894b31c91","system_id":"levelo_inurba_marseille","lat":43.23182,"lon":5.39988,"is_reserved":false,"is_disabled":false,"rental_uris":{"android":"levelo://app?vid=7cdad35d-df5e-4eec-9265-9be894b31c91","ios":"levelo://app?vid=7cdad35d-df5e-4eec-9265-9be894b31c91"},"vehicle_type_id":"4","last_reported":1733638388,"current_range_meters":11200,"station_id":"ce4bhn12rcd13ifvqgqg","pricing_plan_id":"cebpf4jnsgd1na2vs0mg"},{"bike_id":"07b8c281-3be1-46fd-bf35-bd455797c16c","system_id":"levelo_inurba_marseille","lat":43.23206,"lon":5.35552,"is_reserved":false,"is_disabled":false,"rental_uris":{"android":"levelo://app?vid=07b8c281-3be1-46fd-bf35-bd455797c16c","ios":"levelo://app?vid=07b8c281-3be1-46fd-bf35-bd455797c16c"},"vehicle_type_id":"4","last_reported":1733638388,"current_range_meters":27600,"station_id":"ce4bhu92rcd13ifvqi70","pricing_plan_id":"cebpf4jnsgd1na2vs0mg"},{"bike_id":"748d251c-8c4a-45da-8cf9-eb70836ad075","system_id":"levelo_inurba_marseille","lat":43.27057,"lon":5.40259,"is_reserved":false,"is_disabled":false,"rental_uris":{"android":"levelo://app?vid=748d251c-8c4a-45da-8cf9-eb70836ad075","ios":"levelo://app?vid=748d251c-8c4a-45da-8cf9-eb70836ad075"},"vehicle_type_id":"4","last_reported":1733638388,"current_range_meters":27600,"station_id":"ce4bhk92rcd13ifvqgc0","pricing_plan_id":"cebpf4jnsgd1na2vs0mg"},{"bike_id":"74c8a776-b5ed-4227-8bf4-27eab0fb121a","system_id":"levelo_inurba_marseille","lat":43.26676,"lon":5.38264,"is_reserved":false,"is_disabled":false,"rental_uris":{"android":"levelo://app?vid=74c8a776-b5ed-4227-8bf4-27eab0fb121a","ios":"levelo://app?vid=74c8a776-b5ed-4227-8bf4-27eab0fb121a"},"vehicle_type_id":"4","last_reported":1733638388,"current_range_meters":39200,"station_id":"ce4bhg92rcd13ifvqf90","pricing_plan_id":"cebpf4jnsgd1na2vs0mg"},{"bike_id":"1f31a30a-e0ef-4d21-bbb8-239dabcf7620","system_id":"levelo_inurba_marseille","lat":43.31332,"lon":5.39689,"is_reserved":false,"is_disabled":false,"rental_uris":{"android":"levelo://app?vid=1f31a30a-e0ef-4d21-bbb8-239dabcf7620","ios":"levelo://app?vid=1f31a30a-e0ef-4d21-bbb8-239dabcf7620"},"vehicle_type_id":"4","last_reported":1733638388,"current_range_meters":32400,"station_id":"ce4bgvp2rcd13ifvqcu0","pricing_plan_id":"cebpf4jnsgd1na2vs0mg"},{"bike_id":"7a0a2714-105e-4622-8b3e-a7dd62dc6941","system_id":"levelo_inurba_marseille","lat":43.29266,"lon":5.384189,"is_reserved":false,"is_disabled":true,"rental_uris":{"android":"levelo://app?vid=7a0a2714-105e-4622-8b3e-a7dd62dc6941","ios":"levelo://app?vid=7a0a2714-105e-4622-8b3e-a7dd62dc6941"},"vehicle_type_id":"4","last_reported":1733638388,"current_range_meters":0,"station_id":"","pricing_plan_id":"cebpf4jnsgd1na2vs0mg"},{"bike_id":"9f53acdf-b2be-4b69-b01b-87cbf7343be4","system_id":"levelo_inurba_marseille","lat":43.26489,"lon":5.39537,"is_reserved":false,"is_disabled":true,"rental_uris":{"android":"levelo://app?vid=9f53acdf-b2be-4b69-b01b-87cbf7343be4","ios":"levelo://app?vid=9f53acdf-b2be-4b69-b01b-87cbf7343be4"},"vehicle_type_id":"4","last_reported":1733638388,"current_range_meters":32400,"station_id":"ce4bhi12rcd13ifvqfq0","pricing_plan_id":"cebpf4jnsgd1na2vs0mg"},{"bike_id":"9de191f7-e172-4890-a49e-7028b3b0d294","system_id":"levelo_inurba_marseille","lat":43.28443,"lon":5.39185,"is_reserved":false,"is_disabled":true,"rental_uris":{"android":"levelo://app?vid=9de191f7-e172-4890-a49e-7028b3b0d294","ios":"levelo://app?vid=9de191f7-e172-4890-a49e-7028b3b0d294"},"vehicle_type_id":"4","last_reported":1733638388,"current_range_meters":15200,"station_id":"ce4bhoh2rcd13ifvqh5g","pricing_plan_id":"cebpf4jnsgd1na2vs0mg"},{"bike_id":"a5f05a06-bff4-4f39-af01-91b3d19736b8","system_id":"levelo_inurba_marseille","lat":43.23203,"lon":5.35549,"is_reserved":false,"is_disabled":false,"rental_uris":{"android":"levelo://app?vid=a5f05a06-bff4-4f39-af01-91b3d19736b8","ios":"levelo://app?vid=a5f05a06-bff4-4f39-af01-91b3d19736b8"},"vehicle_type_id":"4","last_reported":1733638388,"current_range_meters":27200,"station_id":"ce4bhu92rcd13ifvqi70","pricing_plan_id":"cebpf4jnsgd1na2vs0mg"},{"bike_id":"07f2722e-e33c-4b7b-80d1-15c7bee7f220","system_id":"levelo_inurba_marseille","lat":43.28725,"lon":5.36094,"is_reserved":false,"is_disabled":false,"rental_uris":{"android":"levelo://app?vid=07f2722e-e33c-4b7b-80d1-15c7bee7f220","ios":"levelo://app?vid=07f2722e-e33c-4b7b-80d1-15c7bee7f220"},"vehicle_type_id":"4","last_reported":1733638388,"current_range_meters":28800,"station_id":"cki0cbj6b192h4jlfktg","pricing_plan_id":"cebpf4jnsgd1na2vs0mg"},{"bike_id":"33f1a526-a5a3-4261-b1e0-d90c46ff918d","system_id":"levelo_inurba_marseille","lat":43.28152,"lon":5.42637,"is_reserved":false,"is_disabled":true,"rental_uris":{"android":"levelo://app?vid=33f1a526-a5a3-4261-b1e0-d90c46ff918d","ios":"levelo://app?vid=33f1a526-a5a3-4261-b1e0-d90c46ff918d"},"vehicle_type_id":"4","last_reported":1733638388,"current_range_meters":28000,"station_id":"ce4bhnh2rcd13ifvqgug","pricing_plan_id":"cebpf4jnsgd1na2vs0mg"},{"bike_id":"7d60acff-cb6c-4a92-aca6-d0de3845edf6","system_id":"levelo_inurba_marseille","lat":43.29536,"lon":5.38562,"is_reserved":false,"is_disabled":true,"rental_uris":{"android":"levelo://app?vid=7d60acff-cb6c-4a92-aca6-d0de3845edf6","ios":"levelo://app?vid=7d60acff-cb6c-4a92-aca6-d0de3845edf6"},"vehicle_type_id":"4","last_reported":1733638388,"current_range_meters":22800,"station_id":"ce4bgih2rcd13ifvqba0","pricing_plan_id":"cebpf4jnsgd1na2vs0mg"},{"bike_id":"987a1e27-c7ac-4001-a268-c7e2ad73c734","system_id":"levelo_inurba_marseille","lat":43.25724,"lon":5.41106,"is_reserved":false,"is_disabled":false,"rental_uris":{"android":"levelo://app?vid=987a1e27-c7ac-4001-a268-c7e2ad73c734","ios":"levelo://app?vid=987a1e27-c7ac-4001-a268-c7e2ad73c734"},"vehicle_type_id":"4","last_reported":1733638388,"current_range_meters":38400,"station_id":"ce4bhkp2rcd13ifvqgd0","pricing_plan_id":"cebpf4jnsgd1na2vs0mg"},{"bike_id":"315bd4f4-f720-4e17-a178-f9274a9e6361","system_id":"levelo_inurba_marseille","lat":43.308814,"lon":5.396326,"is_reserved":false,"is_disabled":false,"rental_uris":{"android":"levelo://app?vid=315bd4f4-f720-4e17-a178-f9274a9e6361","ios":"levelo://app?vid=315bd4f4-f720-4e17-a178-f9274a9e6361"},"vehicle_type_id":"4","last_reported":1733638388,"current_range_meters":38000,"station_id":"ce4bh012rcd13ifvqcv0","pricing_plan_id":"cebpf4jnsgd1na2vs0mg"},{"bike_id":"00fea40c-3f30-4c2b-96e2-43b5ab400ffa","system_id":"levelo_inurba_marseille","lat":43.22929,"lon":5.35381,"is_reserved":false,"is_disabled":false,"rental_uris":{"android":"levelo://app?vid=00fea40c-3f30-4c2b-96e2-43b5ab400ffa","ios":"levelo://app?vid=00fea40c-3f30-4c2b-96e2-43b5ab400ffa"},"vehicle_type_id":"4","last_reported":1733638388,"current_range_meters":37600,"station_id":"cpo3532slgdg3j2ikp40","pricing_plan_id":"cebpf4jnsgd1na2vs0mg"},{"bike_id":"c22a1e66-6bfb-4f66-a4b6-aeacefb5be51","system_id":"levelo_inurba_marseille","lat":43.30888,"lon":5.39651,"is_reserved":false,"is_disabled":false,"rental_uris":{"android":"levelo://app?vid=c22a1e66-6bfb-4f66-a4b6-aeacefb5be51","ios":"levelo://app?vid=c22a1e66-6bfb-4f66-a4b6-aeacefb5be51"},"vehicle_type_id":"4","last_reported":1733638388,"current_range_meters":18000,"station_id":"ce4bh012rcd13ifvqcv0","pricing_plan_id":"cebpf4jnsgd1na2vs0mg"},{"bike_id":"ed2c0264-9d42-4ceb-b7a4-e31eb870b25a","system_id":"levelo_inurba_marseille","lat":43.28457,"lon":5.35884,"is_reserved":false,"is_disabled":false,"rental_uris":{"android":"levelo://app?vid=ed2c0264-9d42-4ceb-b7a4-e31eb870b25a","ios":"levelo://app?vid=ed2c0264-9d42-4ceb-b7a4-e31eb870b25a"},"vehicle_type_id":"4","last_reported":1733638388,"current_range_meters":33200,"station_id":"ce4bhah2rcd13ifvqei0","pricing_plan_id":"cebpf4jnsgd1na2vs0mg"},{"bike_id":"54048e8f-6d11-4769-8f46-c79c18bfa3e5","system_id":"levelo_inurba_marseille","lat":43.24808,"lon":5.37453,"is_reserved":false,"is_disabled":false,"rental_uris":{"android":"levelo://app?vid=54048e8f-6d11-4769-8f46-c79c18bfa3e5","ios":"levelo://app?vid=54048e8f-6d11-4769-8f46-c79c18bfa3e5"},"vehicle_type_id":"4","last_reported":1733638388,"current_range_meters":38800,"station_id":"ce4bhgh2rcd13ifvqfb0","pricing_plan_id":"cebpf4jnsgd1na2vs0mg"},{"bike_id":"aeb5b9ef-cf83-4f2b-8e3d-091258186d3c","system_id":"levelo_inurba_marseille","lat":43.25099,"lon":5.39501,"is_reserved":false,"is_disabled":false,"rental_uris":{"android":"levelo://app?vid=aeb5b9ef-cf83-4f2b-8e3d-091258186d3c","ios":"levelo://app?vid=aeb5b9ef-cf83-4f2b-8e3d-091258186d3c"},"vehicle_type_id":"4","last_reported":1733638388,"current_range_meters":36800,"station_id":"ce4bhm12rcd13ifvqgkg","pricing_plan_id":"cebpf4jnsgd1na2vs0mg"},{"bike_id":"0d568c8e-0ea0-4287-9438-5b27ec8267ed","system_id":"levelo_inurba_marseille","lat":43.28945,"lon":5.39641,"is_reserved":false,"is_disabled":false,"rental_uris":{"android":"levelo://app?vid=0d568c8e-0ea0-4287-9438-5b27ec8267ed","ios":"levelo://app?vid=0d568c8e-0ea0-4287-9438-5b27ec8267ed"},"vehicle_type_id":"4","last_reported":1733638388,"current_range_meters":27200,"station_id":"ce4bh3h2rcd13ifvqdn0","pricing_plan_id":"cebpf4jnsgd1na2vs0mg"},{"bike_id":"e5cd953e-74d7-484f-8a63-e33623359cc0","system_id":"levelo_inurba_marseille","lat":43.29625,"lon":5.40595,"is_reserved":false,"is_disabled":false,"rental_uris":{"android":"levelo://app?vid=e5cd953e-74d7-484f-8a63-e33623359cc0","ios":"levelo://app?vid=e5cd953e-74d7-484f-8a63-e33623359cc0"},"vehicle_type_id":"4","last_reported":1733638388,"current_range_meters":38800,"station_id":"ce4bh0h2rcd13ifvqd60","pricing_plan_id":"cebpf4jnsgd1na2vs0mg"},{"bike_id":"5c884da4-841f-4b0a-9224-f533cad9f8d9","system_id":"levelo_inurba_marseille","lat":43.260279,"lon":5.375488,"is_reserved":false,"is_disabled":false,"rental_uris":{"android":"levelo://app?vid=5c884da4-841f-4b0a-9224-f533cad9f8d9","ios":"levelo://app?vid=5c884da4-841f-4b0a-9224-f533cad9f8d9"},"vehicle_type_id":"4","last_reported":1733638388,"current_range_meters":9200,"station_id":"ce4bhgh2rcd13ifvqfa0","pricing_plan_id":"cebpf4jnsgd1na2vs0mg"},{"bike_id":"a3dd1984-4193-477f-b9a6-7f14c8f93b26","system_id":"levelo_inurba_marseille","lat":43.30093,"lon":5.39089,"is_reserved":false,"is_disabled":true,"rental_uris":{"android":"levelo://app?vid=a3dd1984-4193-477f-b9a6-7f14c8f93b26","ios":"levelo://app?vid=a3dd1984-4193-477f-b9a6-7f14c8f93b26"},"vehicle_type_id":"4","last_reported":1733638388,"current_range_meters":36000,"station_id":"ce4bh192rcd13ifvqdb0","pricing_plan_id":"cebpf4jnsgd1na2vs0mg"},{"bike_id":"43fe90c6-b703-4fdf-8681-338eb5248a12","system_id":"levelo_inurba_marseille","lat":43.31491,"lon":5.37306,"is_reserved":false,"is_disabled":false,"rental_uris":{"android":"levelo://app?vid=43fe90c6-b703-4fdf-8681-338eb5248a12","ios":"levelo://app?vid=43fe90c6-b703-4fdf-8681-338eb5248a12"},"vehicle_type_id":"4","last_reported":1733638388,"current_range_meters":25600,"station_id":"ce4bgt12rcd13ifvqcd0","pricing_plan_id":"cebpf4jnsgd1na2vs0mg"},{"bike_id":"4c729a4a-b6dc-4fd1-a3b4-fe3921c7572c","system_id":"levelo_inurba_marseille","lat":43.29847,"lon":5.36273,"is_reserved":false,"is_disabled":false,"rental_uris":{"android":"levelo://app?vid=4c729a4a-b6dc-4fd1-a3b4-fe3921c7572c","ios":"levelo://app?vid=4c729a4a-b6dc-4fd1-a3b4-fe3921c7572c"},"vehicle_type_id":"4","last_reported":1733638388,"current_range_meters":22000,"station_id":"ce4bgpp2rcd13ifvqc3g","pricing_plan_id":"cebpf4jnsgd1na2vs0mg"},{"bike_id":"6ad8fff5-6505-40fc-8922-2acdd3c82e7b","system_id":"levelo_inurba_marseille","lat":43.29805,"lon":5.38113,"is_reserved":false,"is_disabled":true,"rental_uris":{"android":"levelo://app?vid=6ad8fff5-6505-40fc-8922-2acdd3c82e7b","ios":"levelo://app?vid=6ad8fff5-6505-40fc-8922-2acdd3c82e7b"},"vehicle_type_id":"4","last_reported":1733638388,"current_range_meters":12400,"station_id":"ce4bgip2rcd13ifvqbb0","pricing_plan_id":"cebpf4jnsgd1na2vs0mg"},{"bike_id":"d3d2209a-a4e0-4ebd-ab3d-555850038a00","system_id":"levelo_inurba_marseille","lat":43.24808,"lon":5.37461,"is_reserved":false,"is_disabled":false,"rental_uris":{"android":"levelo://app?vid=d3d2209a-a4e0-4ebd-ab3d-555850038a00","ios":"levelo://app?vid=d3d2209a-a4e0-4ebd-ab3d-555850038a00"},"vehicle_type_id":"4","last_reported":1733638388,"current_range_meters":38800,"station_id":"ce4bhgh2rcd13ifvqfb0","pricing_plan_id":"cebpf4jnsgd1na2vs0mg"},{"bike_id":"19d2e1f6-9b9c-4f55-a3cf-411ab350cff8","system_id":"levelo_inurba_marseille","lat":43.25085,"lon":5.39516,"is_reserved":false,"is_disabled":false,"rental_uris":{"android":"levelo://app?vid=19d2e1f6-9b9c-4f55-a3cf-411ab350cff8","ios":"levelo://app?vid=19d2e1f6-9b9c-4f55-a3cf-411ab350cff8"},"vehicle_type_id":"4","last_reported":1733638388,"current_range_meters":12400,"station_id":"ce4bhm12rcd13ifvqgkg","pricing_plan_id":"cebpf4jnsgd1na2vs0mg"},{"bike_id":"876b7213-145e-431e-a516-92adf95b96aa","system_id":"levelo_inurba_marseille","lat":43.27381,"lon":5.36259,"is_reserved":false,"is_disabled":false,"rental_uris":{"android":"levelo://app?vid=876b7213-145e-431e-a516-92adf95b96aa","ios":"levelo://app?vid=876b7213-145e-431e-a516-92adf95b96aa"},"vehicle_type_id":"4","last_reported":1733638388,"current_range_meters":8400,"station_id":"ce4bhbh2rcd13ifvqeo0","pricing_plan_id":"cebpf4jnsgd1na2vs0mg"},{"bike_id":"bd3d93d0-c84a-462e-b36b-4ae426a49f78","system_id":"levelo_inurba_marseille","lat":43.2815,"lon":5.4265,"is_reserved":false,"is_disabled":false,"rental_uris":{"android":"levelo://app?vid=bd3d93d0-c84a-462e-b36b-4ae426a49f78","ios":"levelo://app?vid=bd3d93d0-c84a-462e-b36b-4ae426a49f78"},"vehicle_type_id":"4","last_reported":1733638388,"current_range_meters":38800,"station_id":"ce4bhnh2rcd13ifvqgug","pricing_plan_id":"cebpf4jnsgd1na2vs0mg"},{"bike_id":"5d27b4e4-050c-47ed-9b7f-507ee3117764","system_id":"levelo_inurba_marseille","lat":43.288467,"lon":5.393282,"is_reserved":false,"is_disabled":false,"rental_uris":{"android":"levelo://app?vid=5d27b4e4-050c-47ed-9b7f-507ee3117764","ios":"levelo://app?vid=5d27b4e4-050c-47ed-9b7f-507ee3117764"},"vehicle_type_id":"4","last_reported":1733638388,"current_range_meters":38800,"station_id":"ce4bh2p2rcd13ifvqdi0","pricing_plan_id":"cebpf4jnsgd1na2vs0mg"},{"bike_id":"40b97d38-bc1b-4b2a-a606-9ec1ddfe5675","system_id":"levelo_inurba_marseille","lat":43.2846,"lon":5.35899,"is_reserved":false,"is_disabled":false,"rental_uris":{"android":"levelo://app?vid=40b97d38-bc1b-4b2a-a606-9ec1ddfe5675","ios":"levelo://app?vid=40b97d38-bc1b-4b2a-a606-9ec1ddfe5675"},"vehicle_type_id":"4","last_reported":1733638388,"current_range_meters":38800,"station_id":"ce4bhah2rcd13ifvqei0","pricing_plan_id":"cebpf4jnsgd1na2vs0mg"},{"bike_id":"4527669e-b7bf-4bfd-ace2-19b92402cb9c","system_id":"levelo_inurba_marseille","lat":43.28101,"lon":5.37844,"is_reserved":false,"is_disabled":false,"rental_uris":{"android":"levelo://app?vid=4527669e-b7bf-4bfd-ace2-19b92402cb9c","ios":"levelo://app?vid=4527669e-b7bf-4bfd-ace2-19b92402cb9c"},"vehicle_type_id":"4","last_reported":1733638388,"current_range_meters":38800,"station_id":"ce4bha12rcd13ifvqee0","pricing_plan_id":"cebpf4jnsgd1na2vs0mg"},{"bike_id":"003a0423-dbbb-4892-9836-52426f6bb5a1","system_id":"levelo_inurba_marseille","lat":43.31489,"lon":5.37297,"is_reserved":false,"is_disabled":false,"rental_uris":{"android":"levelo://app?vid=003a0423-dbbb-4892-9836-52426f6bb5a1","ios":"levelo://app?vid=003a0423-dbbb-4892-9836-52426f6bb5a1"},"vehicle_type_id":"4","last_reported":1733638388,"current_range_meters":38400,"station_id":"ce4bgt12rcd13ifvqcd0","pricing_plan_id":"cebpf4jnsgd1na2vs0mg"},{"bike_id":"eb4e32cd-a02d-4e92-a013-1fdc0dd71ccb","system_id":"levelo_inurba_marseille","lat":43.324799,"lon":5.365716,"is_reserved":false,"is_disabled":true,"rental_uris":{"android":"levelo://app?vid=eb4e32cd-a02d-4e92-a013-1fdc0dd71ccb","ios":"levelo://app?vid=eb4e32cd-a02d-4e92-a013-1fdc0dd71ccb"},"vehicle_type_id":"4","last_reported":1733638388,"current_range_meters":2000,"station_id":"","pricing_plan_id":"cebpf4jnsgd1na2vs0mg"},{"bike_id":"db2fe59d-b5d1-4ec5-ba11-24efec8a7012","system_id":"levelo_inurba_marseille","lat":43.25486,"lon":5.37651,"is_reserved":false,"is_disabled":false,"rental_uris":{"android":"levelo://app?vid=db2fe59d-b5d1-4ec5-ba11-24efec8a7012","ios":"levelo://app?vid=db2fe59d-b5d1-4ec5-ba11-24efec8a7012"},"vehicle_type_id":"4","last_reported":1733638388,"current_range_meters":29600,"station_id":"ce4bhh12rcd13ifvqff0","pricing_plan_id":"cebpf4jnsgd1na2vs0mg"},{"bike_id":"7e0373f0-85f3-4ccf-b084-e5358e7224cd","system_id":"levelo_inurba_marseille","lat":43.24661,"lon":5.38174,"is_reserved":false,"is_disabled":false,"rental_uris":{"android":"levelo://app?vid=7e0373f0-85f3-4ccf-b084-e5358e7224cd","ios":"levelo://app?vid=7e0373f0-85f3-4ccf-b084-e5358e7224cd"},"vehicle_type_id":"4","last_reported":1733638388,"current_range_meters":38000,"station_id":"ce4bhih2rcd13ifvqfr0","pricing_plan_id":"cebpf4jnsgd1na2vs0mg"},{"bike_id":"f36c5319-50d4-4d4a-bad1-8160e7590414","system_id":"levelo_inurba_marseille","lat":43.31116,"lon":5.37774,"is_reserved":false,"is_disabled":false,"rental_uris":{"android":"levelo://app?vid=f36c5319-50d4-4d4a-bad1-8160e7590414","ios":"levelo://app?vid=f36c5319-50d4-4d4a-bad1-8160e7590414"},"vehicle_type_id":"4","last_reported":1733638388,"current_range_meters":36000,"station_id":"ce4bgt92rcd13ifvqcg0","pricing_plan_id":"cebpf4jnsgd1na2vs0mg"},{"bike_id":"bbf2a15a-7c34-4cdd-8f7d-611582aea846","system_id":"levelo_inurba_marseille","lat":43.27322,"lon":5.39076,"is_reserved":false,"is_disabled":false,"rental_uris":{"android":"levelo://app?vid=bbf2a15a-7c34-4cdd-8f7d-611582aea846","ios":"levelo://app?vid=bbf2a15a-7c34-4cdd-8f7d-611582aea846"},"vehicle_type_id":"4","last_reported":1733638388,"current_range_meters":14000,"station_id":"ce4bhgp2rcd13ifvqfe0","pricing_plan_id":"cebpf4jnsgd1na2vs0mg"},{"bike_id":"5189ae3f-c807-455c-b5a1-b437b3840d9d","system_id":"levelo_inurba_marseille","lat":43.2985,"lon":5.36274,"is_reserved":false,"is_disabled":false,"rental_uris":{"android":"levelo://app?vid=5189ae3f-c807-455c-b5a1-b437b3840d9d","ios":"levelo://app?vid=5189ae3f-c807-455c-b5a1-b437b3840d9d"},"vehicle_type_id":"4","last_reported":1733638388,"current_range_meters":38800,"station_id":"ce4bgpp2rcd13ifvqc3g","pricing_plan_id":"cebpf4jnsgd1na2vs0mg"},{"bike_id":"fd98eaa9-4d55-4e7b-aa90-0d14707466d9","system_id":"levelo_inurba_marseille","lat":43.337444,"lon":5.374475,"is_reserved":false,"is_disabled":true,"rental_uris":{"android":"levelo://app?vid=fd98eaa9-4d55-4e7b-aa90-0d14707466d9","ios":"levelo://app?vid=fd98eaa9-4d55-4e7b-aa90-0d14707466d9"},"vehicle_type_id":"4","last_reported":1733638388,"current_range_meters":0,"station_id":"","pricing_plan_id":"cebpf4jnsgd1na2vs0mg"},{"bike_id":"06f294bd-d283-4b87-866b-9173a9d88558","system_id":"levelo_inurba_marseille","lat":43.25859,"lon":5.39902,"is_reserved":false,"is_disabled":false,"rental_uris":{"android":"levelo://app?vid=06f294bd-d283-4b87-866b-9173a9d88558","ios":"levelo://app?vid=06f294bd-d283-4b87-866b-9173a9d88558"},"vehicle_type_id":"4","last_reported":1733638388,"current_range_meters":38400,"station_id":"ce4bhl92rcd13ifvqghg","pricing_plan_id":"cebpf4jnsgd1na2vs0mg"},{"bike_id":"2fade752-01f7-49b4-9ecd-3dee21fe39bc","system_id":"levelo_inurba_marseille","lat":43.27812,"lon":5.407089,"is_reserved":false,"is_disabled":false,"rental_uris":{"android":"levelo://app?vid=2fade752-01f7-49b4-9ecd-3dee21fe39bc","ios":"levelo://app?vid=2fade752-01f7-49b4-9ecd-3dee21fe39bc"},"vehicle_type_id":"4","last_reported":1733638388,"current_range_meters":38800,"station_id":"ce4bhnh2rcd13ifvqgtg","pricing_plan_id":"cebpf4jnsgd1na2vs0mg"},{"bike_id":"984b2373-76df-4711-8c00-77838c35d5f1","system_id":"levelo_inurba_marseille","lat":43.31114,"lon":5.37763,"is_reserved":false,"is_disabled":false,"rental_uris":{"android":"levelo://app?vid=984b2373-76df-4711-8c00-77838c35d5f1","ios":"levelo://app?vid=984b2373-76df-4711-8c00-77838c35d5f1"},"vehicle_type_id":"4","last_reported":1733638388,"current_range_meters":19600,"station_id":"ce4bgt92rcd13ifvqcg0","pricing_plan_id":"cebpf4jnsgd1na2vs0mg"},{"bike_id":"412dc3ce-4d0a-4f4c-8d48-ca273ad01cb4","system_id":"levelo_inurba_marseille","lat":43.29802,"lon":5.40412,"is_reserved":false,"is_disabled":false,"rental_uris":{"android":"levelo://app?vid=412dc3ce-4d0a-4f4c-8d48-ca273ad01cb4","ios":"levelo://app?vid=412dc3ce-4d0a-4f4c-8d48-ca273ad01cb4"},"vehicle_type_id":"4","last_reported":1733638388,"current_range_meters":39200,"station_id":"ce4bh112rcd13ifvqd90","pricing_plan_id":"cebpf4jnsgd1na2vs0mg"},{"bike_id":"a4cd63fb-eed3-468f-beb7-c6e5140a377f","system_id":"levelo_inurba_marseille","lat":43.28153,"lon":5.42647,"is_reserved":false,"is_disabled":false,"rental_uris":{"android":"levelo://app?vid=a4cd63fb-eed3-468f-beb7-c6e5140a377f","ios":"levelo://app?vid=a4cd63fb-eed3-468f-beb7-c6e5140a377f"},"vehicle_type_id":"4","last_reported":1733638388,"current_range_meters":3600,"station_id":"ce4bhnh2rcd13ifvqgug","pricing_plan_id":"cebpf4jnsgd1na2vs0mg"},{"bike_id":"4da1f21a-a94b-4e40-8119-4f95d0593822","system_id":"levelo_inurba_marseille","lat":43.32653,"lon":5.40997,"is_reserved":false,"is_disabled":false,"rental_uris":{"android":"levelo://app?vid=4da1f21a-a94b-4e40-8119-4f95d0593822","ios":"levelo://app?vid=4da1f21a-a94b-4e40-8119-4f95d0593822"},"vehicle_type_id":"4","last_reported":1733638388,"current_range_meters":37600,"station_id":"ce4bhpp2rcd13ifvqhgg","pricing_plan_id":"cebpf4jnsgd1na2vs0mg"},{"bike_id":"55d2c77c-81c9-4328-9c14-17e79d31388e","system_id":"levelo_inurba_marseille","lat":43.33031,"lon":5.39077,"is_reserved":false,"is_disabled":false,"rental_uris":{"android":"levelo://app?vid=55d2c77c-81c9-4328-9c14-17e79d31388e","ios":"levelo://app?vid=55d2c77c-81c9-4328-9c14-17e79d31388e"},"vehicle_type_id":"4","last_reported":1733638388,"current_range_meters":24800,"station_id":"ce4bhr92rcd13ifvqhrg","pricing_plan_id":"cebpf4jnsgd1na2vs0mg"},{"bike_id":"c2d8a1c2-d166-4a36-b32f-beec95c93bd5","system_id":"levelo_inurba_marseille","lat":43.33756,"lon":5.37459,"is_reserved":false,"is_disabled":true,"rental_uris":{"android":"levelo://app?vid=c2d8a1c2-d166-4a36-b32f-beec95c93bd5","ios":"levelo://app?vid=c2d8a1c2-d166-4a36-b32f-beec95c93bd5"},"vehicle_type_id":"4","last_reported":1733638388,"current_range_meters":0,"station_id":"","pricing_plan_id":"cebpf4jnsgd1na2vs0mg"},{"bike_id":"4fcb167d-7b16-4966-8290-6ed99df9c71b","system_id":"levelo_inurba_marseille","lat":43.31157,"lon":5.38713,"is_reserved":false,"is_disabled":false,"rental_uris":{"android":"levelo://app?vid=4fcb167d-7b16-4966-8290-6ed99df9c71b","ios":"levelo://app?vid=4fcb167d-7b16-4966-8290-6ed99df9c71b"},"vehicle_type_id":"4","last_reported":1733638388,"current_range_meters":38000,"station_id":"ce4bgv12rcd13ifvqcp0","pricing_plan_id":"cebpf4jnsgd1na2vs0mg"},{"bike_id":"0e3451bb-7a71-49a1-b69e-200c6dd6b013","system_id":"levelo_inurba_marseille","lat":43.2905,"lon":5.399509,"is_reserved":false,"is_disabled":true,"rental_uris":{"android":"levelo://app?vid=0e3451bb-7a71-49a1-b69e-200c6dd6b013","ios":"levelo://app?vid=0e3451bb-7a71-49a1-b69e-200c6dd6b013"},"vehicle_type_id":"4","last_reported":1733638388,"current_range_meters":37600,"station_id":"ce4bh392rcd13ifvqdm0","pricing_plan_id":"cebpf4jnsgd1na2vs0mg"},{"bike_id":"3fb99739-8910-4c99-b8f7-d46e7d8f2b86","system_id":"levelo_inurba_marseille","lat":43.30168,"lon":5.38072,"is_reserved":false,"is_disabled":false,"rental_uris":{"android":"levelo://app?vid=3fb99739-8910-4c99-b8f7-d46e7d8f2b86","ios":"levelo://app?vid=3fb99739-8910-4c99-b8f7-d46e7d8f2b86"},"vehicle_type_id":"4","last_reported":1733638388,"current_range_meters":26800,"station_id":"ce4bgjp2rcd13ifvqbh0","pricing_plan_id":"cebpf4jnsgd1na2vs0mg"},{"bike_id":"f21672a4-d5cc-436d-adf3-570a4af5d61c","system_id":"levelo_inurba_marseille","lat":43.28312,"lon":5.40502,"is_reserved":false,"is_disabled":false,"rental_uris":{"android":"levelo://app?vid=f21672a4-d5cc-436d-adf3-570a4af5d61c","ios":"levelo://app?vid=f21672a4-d5cc-436d-adf3-570a4af5d61c"},"vehicle_type_id":"4","last_reported":1733638388,"current_range_meters":9600,"station_id":"","pricing_plan_id":"cebpf4jnsgd1na2vs0mg"},{"bike_id":"f37a82f0-00f5-47e4-a9b7-faa7c4437935","system_id":"levelo_inurba_marseille","lat":43.310813,"lon":5.383517,"is_reserved":false,"is_disabled":false,"rental_uris":{"android":"levelo://app?vid=f37a82f0-00f5-47e4-a9b7-faa7c4437935","ios":"levelo://app?vid=f37a82f0-00f5-47e4-a9b7-faa7c4437935"},"vehicle_type_id":"4","last_reported":1733638388,"current_range_meters":28800,"station_id":"ce4bgv92rcd13ifvqcr0","pricing_plan_id":"cebpf4jnsgd1na2vs0mg"},{"bike_id":"de1124f6-1eb6-48b4-bc00-5245dc0d6699","system_id":"levelo_inurba_marseille","lat":43.28455,"lon":5.3588,"is_reserved":false,"is_disabled":false,"rental_uris":{"android":"levelo://app?vid=de1124f6-1eb6-48b4-bc00-5245dc0d6699","ios":"levelo://app?vid=de1124f6-1eb6-48b4-bc00-5245dc0d6699"},"vehicle_type_id":"4","last_reported":1733638388,"current_range_meters":9600,"station_id":"ce4bhah2rcd13ifvqei0","pricing_plan_id":"cebpf4jnsgd1na2vs0mg"},{"bike_id":"1c116fee-2365-407f-b033-8ab53c14818b","system_id":"levelo_inurba_marseille","lat":43.337444,"lon":5.374475,"is_reserved":false,"is_disabled":false,"rental_uris":{"android":"levelo://app?vid=1c116fee-2365-407f-b033-8ab53c14818b","ios":"levelo://app?vid=1c116fee-2365-407f-b033-8ab53c14818b"},"vehicle_type_id":"4","last_reported":1733638388,"current_range_meters":25600,"station_id":"","pricing_plan_id":"cebpf4jnsgd1na2vs0mg"},{"bike_id":"fd0c1dfe-9645-4b8f-9665-2197bdf6130f","system_id":"levelo_inurba_marseille","lat":43.24176,"lon":5.39713,"is_reserved":false,"is_disabled":false,"rental_uris":{"android":"levelo://app?vid=fd0c1dfe-9645-4b8f-9665-2197bdf6130f","ios":"levelo://app?vid=fd0c1dfe-9645-4b8f-9665-2197bdf6130f"},"vehicle_type_id":"4","last_reported":1733638388,"current_range_meters":17200,"station_id":"ce4bhn12rcd13ifvqgpg","pricing_plan_id":"cebpf4jnsgd1na2vs0mg"},{"bike_id":"1f7490b8-d609-4915-a25f-efaf09b46d3f","system_id":"levelo_inurba_marseille","lat":43.29004,"lon":5.35606,"is_reserved":false,"is_disabled":false,"rental_uris":{"android":"levelo://app?vid=1f7490b8-d609-4915-a25f-efaf09b46d3f","ios":"levelo://app?vid=1f7490b8-d609-4915-a25f-efaf09b46d3f"},"vehicle_type_id":"4","last_reported":1733638388,"current_range_meters":38000,"station_id":"ce4bhb92rcd13ifvqen0","pricing_plan_id":"cebpf4jnsgd1na2vs0mg"},{"bike_id":"0c14075f-5dc8-4aa9-ad30-e61cbc3cc0a1","system_id":"levelo_inurba_marseille","lat":43.25114,"lon":5.4032,"is_reserved":false,"is_disabled":false,"rental_uris":{"android":"levelo://app?vid=0c14075f-5dc8-4aa9-ad30-e61cbc3cc0a1","ios":"levelo://app?vid=0c14075f-5dc8-4aa9-ad30-e61cbc3cc0a1"},"vehicle_type_id":"4","last_reported":1733638388,"current_range_meters":38800,"station_id":"ce4bhlh2rcd13ifvqgig","pricing_plan_id":"cebpf4jnsgd1na2vs0mg"},{"bike_id":"c786e0e8-707d-4f4c-830e-bfba95f7380a","system_id":"levelo_inurba_marseille","lat":43.32659,"lon":5.40986,"is_reserved":false,"is_disabled":false,"rental_uris":{"android":"levelo://app?vid=c786e0e8-707d-4f4c-830e-bfba95f7380a","ios":"levelo://app?vid=c786e0e8-707d-4f4c-830e-bfba95f7380a"},"vehicle_type_id":"4","last_reported":1733638388,"current_range_meters":35200,"station_id":"ce4bhpp2rcd13ifvqhgg","pricing_plan_id":"cebpf4jnsgd1na2vs0mg"},{"bike_id":"f5561434-0740-4a3c-abc2-013f37687b8d","system_id":"levelo_inurba_marseille","lat":43.248085,"lon":5.374569,"is_reserved":false,"is_disabled":true,"rental_uris":{"android":"levelo://app?vid=f5561434-0740-4a3c-abc2-013f37687b8d","ios":"levelo://app?vid=f5561434-0740-4a3c-abc2-013f37687b8d"},"vehicle_type_id":"4","last_reported":1733638388,"current_range_meters":33600,"station_id":"ce4bhgh2rcd13ifvqfb0","pricing_plan_id":"cebpf4jnsgd1na2vs0mg"},{"bike_id":"8f904a17-2e9c-403c-adb2-9c945fb31c57","system_id":"levelo_inurba_marseille","lat":43.29005,"lon":5.35611,"is_reserved":false,"is_disabled":false,"rental_uris":{"android":"levelo://app?vid=8f904a17-2e9c-403c-adb2-9c945fb31c57","ios":"levelo://app?vid=8f904a17-2e9c-403c-adb2-9c945fb31c57"},"vehicle_type_id":"4","last_reported":1733638388,"current_range_meters":38000,"station_id":"ce4bhb92rcd13ifvqen0","pricing_plan_id":"cebpf4jnsgd1na2vs0mg"},{"bike_id":"b7e97006-7b12-44c5-bc2a-deaefb6653d4","system_id":"levelo_inurba_marseille","lat":43.32343,"lon":5.40621,"is_reserved":false,"is_disabled":false,"rental_uris":{"android":"levelo://app?vid=b7e97006-7b12-44c5-bc2a-deaefb6653d4","ios":"levelo://app?vid=b7e97006-7b12-44c5-bc2a-deaefb6653d4"},"vehicle_type_id":"4","last_reported":1733638388,"current_range_meters":4400,"station_id":"ce4bhq92rcd13ifvqhjg","pricing_plan_id":"cebpf4jnsgd1na2vs0mg"},{"bike_id":"0cc120f3-0353-45a2-8b5d-2fa342268f91","system_id":"levelo_inurba_marseille","lat":43.30889,"lon":5.39647,"is_reserved":false,"is_disabled":false,"rental_uris":{"android":"levelo://app?vid=0cc120f3-0353-45a2-8b5d-2fa342268f91","ios":"levelo://app?vid=0cc120f3-0353-45a2-8b5d-2fa342268f91"},"vehicle_type_id":"4","last_reported":1733638388,"current_range_meters":38800,"station_id":"ce4bh012rcd13ifvqcv0","pricing_plan_id":"cebpf4jnsgd1na2vs0mg"},{"bike_id":"8799b682-a45f-48e9-8cf8-5ea712bbefd3","system_id":"levelo_inurba_marseille","lat":43.284688,"lon":5.358995,"is_reserved":false,"is_disabled":false,"rental_uris":{"android":"levelo://app?vid=8799b682-a45f-48e9-8cf8-5ea712bbefd3","ios":"levelo://app?vid=8799b682-a45f-48e9-8cf8-5ea712bbefd3"},"vehicle_type_id":"4","last_reported":1733638388,"current_range_meters":39200,"station_id":"ce4bhah2rcd13ifvqei0","pricing_plan_id":"cebpf4jnsgd1na2vs0mg"},{"bike_id":"fe35f2a3-b37c-495a-ad9e-49a7c2f899b0","system_id":"levelo_inurba_marseille","lat":43.30142,"lon":5.39867,"is_reserved":false,"is_disabled":false,"rental_uris":{"android":"levelo://app?vid=fe35f2a3-b37c-495a-ad9e-49a7c2f899b0","ios":"levelo://app?vid=fe35f2a3-b37c-495a-ad9e-49a7c2f899b0"},"vehicle_type_id":"4","last_reported":1733638388,"current_range_meters":28400,"station_id":"ce4bh0h2rcd13ifvqd40","pricing_plan_id":"cebpf4jnsgd1na2vs0mg"},{"bike_id":"3d4f4e16-da3f-45dc-a494-1b36088b6319","system_id":"levelo_inurba_marseille","lat":43.28466,"lon":5.35888,"is_reserved":false,"is_disabled":false,"rental_uris":{"android":"levelo://app?vid=3d4f4e16-da3f-45dc-a494-1b36088b6319","ios":"levelo://app?vid=3d4f4e16-da3f-45dc-a494-1b36088b6319"},"vehicle_type_id":"4","last_reported":1733638388,"current_range_meters":39200,"station_id":"ce4bhah2rcd13ifvqei0","pricing_plan_id":"cebpf4jnsgd1na2vs0mg"},{"bike_id":"6c660714-bd36-4e1d-858f-095636bba76e","system_id":"levelo_inurba_marseille","lat":43.25939,"lon":5.40906,"is_reserved":false,"is_disabled":false,"rental_uris":{"android":"levelo://app?vid=6c660714-bd36-4e1d-858f-095636bba76e","ios":"levelo://app?vid=6c660714-bd36-4e1d-858f-095636bba76e"},