{"last_updated":1711573577,"ttl":30,"version":"2.2","data":{"bikes":[{"bike_id":"33ac63a2-b86d-4fa6-8a16-5950a4d0e770","system_id":"levelo_inurba_marseille","lat":43.31348,"lon":5.36734,"is_reserved":false,"is_disabled":false,"rental_uris":{"android":"levelo://app?vid=33ac63a2-b86d-4fa6-8a16-5950a4d0e770","ios":"levelo://app?vid=33ac63a2-b86d-4fa6-8a16-5950a4d0e770"},"vehicle_type_id":"4","last_reported":1711573577,"current_range_meters":16000,"station_id":"ce4bgr92rcd13ifvqc6g","pricing_plan_id":"cebpf4jnsgd1na2vs0mg"},{"bike_id":"59daf20f-ef78-4e34-86bc-8f3be0ca7c48","system_id":"levelo_inurba_marseille","lat":43.31211,"lon":5.36849,"is_reserved":false,"is_disabled":false,"rental_uris":{"android":"levelo://app?vid=59daf20f-ef78-4e34-86bc-8f3be0ca7c48","ios":"levelo://app?vid=59daf20f-ef78-4e34-86bc-8f3be0ca7c48"},"vehicle_type_id":"4","last_reported":1711573577,"current_range_meters":0,"station_id":"ce4bgl92rcd13ifvqbq0","pricing_plan_id":"cebpf4jnsgd1na2vs0mg"},{"bike_id":"ff918604-bee3-45bd-bfa3-d77ea4342b81","system_id":"levelo_inurba_marseille","lat":43.314811,"lon":5.373103,"is_reserved":false,"is_disabled":false,"rental_uris":{"android":"levelo://app?vid=ff918604-bee3-45bd-bfa3-d77ea4342b81","ios":"levelo://app?vid=ff918604-bee3-45bd-bfa3-d77ea4342b81"},"vehicle_type_id":"4","last_reported":1711573577,"current_range_meters":0,"station_id":"ce4bgt12rcd13ifvqcd0","pricing_plan_id":"cebpf4jnsgd1na2vs0mg"},{"bike_id":"bde36c27-8795-4bdb-bcbc-56226e445fba","system_id":"levelo_inurba_marseille","lat":43.314811,"lon":5.373103,"is_reserved":false,"is_disabled":false,"rental_uris":{"android":"levelo://app?vid=bde36c27-8795-4bdb-bcbc-56226e445fba","ios":"levelo://app?vid=bde36c27-8795-4bdb-bcbc-56226e445fba"},"vehicle_type_id":"4","last_reported":1711573577,"current_range_meters":4000,"station_id":"ce4bgt12rcd13ifvqcd0","pricing_plan_id":"cebpf4jnsgd1na2vs0mg"},{"bike_id":"fe19aeb3-5a1e-4a6f-92c0-e2cd0f0cdc7f","system_id":"levelo_inurba_marseille","lat":43.314811,"lon":5.373103,"is_reserved":false,"is_disabled":false,"rental_uris":{"android":"levelo://app?vid=fe19aeb3-5a1e-4a6f-92c0-e2cd0f0cdc7f","ios":"levelo://app?vid=fe19aeb3-5a1e-4a6f-92c0-e2cd0f0cdc7f"},"vehicle_type_id":"4","last_reported":1711573577,"current_range_meters":3200,"station_id":"ce4bgt12rcd13ifvqcd0","pricing_plan_id":"cebpf4jnsgd1na2vs0mg"},{"bike_id":"e7339d5a-1cc5-441a-a2fe-9931913089d9","system_id":"levelo_inurba_marseille","lat":43.314811,"lon":5.373103,"is_reserved":false,"is_disabled":false,"rental_uris":{"android":"levelo://app?vid=e7339d5a-1cc5-441a-a2fe-9931913089d9","ios":"levelo://app?vid=e7339d5a-1cc5-441a-a2fe-9931913089d9"},"vehicle_type_id":"4","last_reported":1711573577,"current_range_meters":6000,"station_id":"ce4bgt12rcd13ifvqcd0","pricing_plan_id":"cebpf4jnsgd1na2vs0mg"},{"bike_id":"cad9aecc-bea6-4f6a-9bf2-94dac6d43bec","system_id":"levelo_inurba_marseille","lat":43.314811,"lon":5.373103,"is_reserved":false,"is_disabled":false,"rental_uris":{"android":"levelo://app?vid=cad9aecc-bea6-4f6a-9bf2-94dac6d43bec","ios":"levelo://app?vid=cad9aecc-bea6-4f6a-9bf2-94dac6d43bec"},"vehicle_type_id":"4","last_reported":1711573577,"current_range_meters":18800,"station_id":"ce4bgt12rcd13ifvqcd0","pricing_plan_id":"cebpf4jnsgd1na2vs0mg"},{"bike_id":"506a961c-4f52-490f-bf02-a8766b55e75f","system_id":"levelo_inurba_marseille","lat":43.310804,"lon":5.38359,"is_reserved":false,"is_disabled":false,"rental_uris":{"android":"levelo://app?vid=506a961c-4f52-490f-bf02-a8766b55e75f","ios":"levelo://app?vid=506a961c-4f52-490f-bf02-a8766b55e75f"},"vehicle_type_id":"4","last_reported":1711573577,"current_range_meters":2400,"station_id":"ce4bgv92rcd13ifvqcr0","pricing_plan_id":"cebpf4jnsgd1na2vs0mg"},{"bike_id":"2f59cb52-2c45-4d5a-bdf4-dc115ec86477","system_id":"levelo_inurba_marseille","lat":43.309034,"lon":5.371783,"is_reserved":false,"is_disabled":false,"rental_uris":{"android":"levelo://app?vid=2f59cb52-2c45-4d5a-bdf4-dc115ec86477","ios":"levelo://app?vid=2f59cb52-2c45-4d5a-bdf4-dc115ec86477"},"vehicle_type_id":"4","last_reported":1711573577,"current_range_meters":17600,"station_id":"ce4bguh2rcd13ifvqckg","pricing_plan_id":"cebpf4jnsgd1na2vs0mg"},{"bike_id":"3e55eae1-f7f6-4bca-aebf-94b1a73b6459","system_id":"levelo_inurba_marseille","lat":43.3174,"lon":5.37162,"is_reserved":false,"is_disabled":false,"rental_uris":{"android":"levelo://app?vid=3e55eae1-f7f6-4bca-aebf-94b1a73b6459","ios":"levelo://app?vid=3e55eae1-f7f6-4bca-aebf-94b1a73b6459"},"vehicle_type_id":"4","last_reported":1711573577,"current_range_meters":7600,"station_id":"","pricing_plan_id":"cebpf4jnsgd1na2vs0mg"},{"bike_id":"4cad55b6-ef03-4c3c-bbf6-75d8edabd678","system_id":"levelo_inurba_marseille","lat":43.30541,"lon":5.36532,"is_reserved":false,"is_disabled":false,"rental_uris":{"android":"levelo://app?vid=4cad55b6-ef03-4c3c-bbf6-75d8edabd678","ios":"levelo://app?vid=4cad55b6-ef03-4c3c-bbf6-75d8edabd678"},"vehicle_type_id":"4","last_reported":1711573577,"current_range_meters":0,"station_id":"ce4bgs12rcd13ifvqcag","pricing_plan_id":"cebpf4jnsgd1na2vs0mg"},{"bike_id":"fed0b460-580c-4874-a1ab-81624950e741","system_id":"levelo_inurba_marseille","lat":43.311125,"lon":5.377624,"is_reserved":false,"is_disabled":false,"rental_uris":{"android":"levelo://app?vid=fed0b460-580c-4874-a1ab-81624950e741","ios":"levelo://app?vid=fed0b460-580c-4874-a1ab-81624950e741"},"vehicle_type_id":"4","last_reported":1711573577,"current_range_meters":0,"station_id":"ce4bgt92rcd13ifvqcg0","pricing_plan_id":"cebpf4jnsgd1na2vs0mg"},{"bike_id":"9a4ef424-d647-4d28-ae12-8a0460892e19","system_id":"levelo_inurba_marseille","lat":43.311131,"lon":5.377651,"is_reserved":false,"is_disabled":false,"rental_uris":{"android":"levelo://app?vid=9a4ef424-d647-4d28-ae12-8a0460892e19","ios":"levelo://app?vid=9a4ef424-d647-4d28-ae12-8a0460892e19"},"vehicle_type_id":"4","last_reported":1711573577,"current_range_meters":2800,"station_id":"ce4bgt92rcd13ifvqcg0","pricing_plan_id":"cebpf4jnsgd1na2vs0mg"},{"bike_id":"feda60de-78ae-4e6a-8fc8-ffd1ef69e4b2","system_id":"levelo_inurba_marseille","lat":43.3111,"lon":5.37766,"is_reserved":false,"is_disabled":false,"rental_uris":{"android":"levelo://app?vid=feda60de-78ae-4e6a-8fc8-ffd1ef69e4b2","ios":"levelo://app?vid=feda60de-78ae-4e6a-8fc8-ffd1ef69e4b2"},"vehicle_type_id":"4","last_reported":1711573577,"current_range_meters":0,"station_id":"ce4bgt92rcd13ifvqcg0","pricing_plan_id":"cebpf4jnsgd1na2vs0mg"},{"bike_id":"ecfdef40-ef3a-45c9-a473-d34efd10241e","system_id":"levelo_inurba_marseille","lat":43.311125,"lon":5.377624,"is_reserved":false,"is_disabled":false,"rental_uris":{"android":"levelo://app?vid=ecfdef40-ef3a-45c9-a473-d34efd10241e","ios":"levelo://app?vid=ecfdef40-ef3a-45c9-a473-d34efd10241e"},"vehicle_type_id":"4","last_reported":1711573577,"current_range_meters":18400,"station_id":"ce4bgt92rcd13ifvqcg0","pricing_plan_id":"cebpf4jnsgd1na2vs0mg"},{"bike_id":"a312d3fa-9db2-499a-ab45-9f1e5485d44a","system_id":"levelo_inurba_marseille","lat":43.311125,"lon":5.377624,"is_reserved":false,"is_disabled":false,"rental_uris":{"android":"levelo://app?vid=a312d3fa-9db2-499a-ab45-9f1e5485d44a","ios":"levelo://app?vid=a312d3fa-9db2-499a-ab45-9f1e5485d44a"},"vehicle_type_id":"4","last_reported":1711573577,"current_range_meters":1200,"station_id":"ce4bgt92rcd13ifvqcg0","pricing_plan_id":"cebpf4jnsgd1na2vs0mg"},{"bike_id":"5d681ba1-760a-4800-9010-6cc00d53fb71","system_id":"levelo_inurba_marseille","lat":43.311131,"lon":5.377651,"is_reserved":false,"is_disabled":false,"rental_uris":{"android":"levelo://app?vid=5d681ba1-760a-4800-9010-6cc00d53fb71","ios":"levelo://app?vid=5d681ba1-760a-4800-9010-6cc00d53fb71"},"vehicle_type_id":"4","last_reported":1711573577,"current_range_meters":3200,"station_id":"ce4bgt92rcd13ifvqcg0","pricing_plan_id":"cebpf4jnsgd1na2vs0mg"},{"bike_id":"13e3819c-66ac-457d-bf88-19562ef6ce13","system_id":"levelo_inurba_marseille","lat":43.311131,"lon":5.377651,"is_reserved":false,"is_disabled":false,"rental_uris":{"android":"levelo://app?vid=13e3819c-66ac-457d-bf88-19562ef6ce13","ios":"levelo://app?vid=13e3819c-66ac-457d-bf88-19562ef6ce13"},"vehicle_type_id":"4","last_reported":1711573577,"current_range_meters":7600,"station_id":"ce4bgt92rcd13ifvqcg0","pricing_plan_id":"cebpf4jnsgd1na2vs0mg"},{"bike_id":"2be6fd44-cd21-4f91-a991-2c3d525e7ae9","system_id":"levelo_inurba_marseille","lat":43.30784,"lon":5.37651,"is_reserved":false,"is_disabled":false,"rental_uris":{"android":"levelo://app?vid=2be6fd44-cd21-4f91-a991-2c3d525e7ae9","ios":"levelo://app?vid=2be6fd44-cd21-4f91-a991-2c3d525e7ae9"},"vehicle_type_id":"4","last_reported":1711573577,"current_range_meters":0,"station_id":"","pricing_plan_id":"cebpf4jnsgd1na2vs0mg"},{"bike_id":"6f2260f7-ea82-4048-9a92-60791050a995","system_id":"levelo_inurba_marseille","lat":43.30782,"lon":5.37657,"is_reserved":false,"is_disabled":false,"rental_uris":{"android":"levelo://app?vid=6f2260f7-ea82-4048-9a92-60791050a995","ios":"levelo://app?vid=6f2260f7-ea82-4048-9a92-60791050a995"},"vehicle_type_id":"4","last_reported":1711573577,"current_range_meters":0,"station_id":"ce4bgv92rcd13ifvqcq0","pricing_plan_id":"cebpf4jnsgd1na2vs0mg"},{"bike_id":"7465660a-3428-47bf-bc42-6c242b261e3c","system_id":"levelo_inurba_marseille","lat":43.304274,"lon":5.388873,"is_reserved":false,"is_disabled":false,"rental_uris":{"android":"levelo://app?vid=7465660a-3428-47bf-bc42-6c242b261e3c","ios":"levelo://app?vid=7465660a-3428-47bf-bc42-6c242b261e3c"},"vehicle_type_id":"4","last_reported":1711573577,"current_range_meters":3200,"station_id":"ce4bgk12rcd13ifvqbi0","pricing_plan_id":"cebpf4jnsgd1na2vs0mg"},{"bike_id":"e241e3c6-e1fa-4f5b-be7d-529c70c17924","system_id":"levelo_inurba_marseille","lat":43.290336,"lon":5.386425,"is_reserved":false,"is_disabled":false,"rental_uris":{"android":"levelo://app?vid=e241e3c6-e1fa-4f5b-be7d-529c70c17924","ios":"levelo://app?vid=e241e3c6-e1fa-4f5b-be7d-529c70c17924"},"vehicle_type_id":"4","last_reported":1711573577,"current_range_meters":14000,"station_id":"ce4bh4p2rcd13ifvqe0g","pricing_plan_id":"cebpf4jnsgd1na2vs0mg"},{"bike_id":"bbfed310-f5ca-41c8-bf3a-f83cd6959697","system_id":"levelo_inurba_marseille","lat":43.313289,"lon":5.378865,"is_reserved":false,"is_disabled":false,"rental_uris":{"android":"levelo://app?vid=bbfed310-f5ca-41c8-bf3a-f83cd6959697","ios":"levelo://app?vid=bbfed310-f5ca-41c8-bf3a-f83cd6959697"},"vehicle_type_id":"4","last_reported":1711573577,"current_range_meters":28800,"station_id":"","pricing_plan_id":"cebpf4jnsgd1na2vs0mg"},{"bike_id":"9492314d-2667-483b-b6b5-1f4695aa4b3e","system_id":"levelo_inurba_marseille","lat":43.31701,"lon":5.37742,"is_reserved":false,"is_disabled":false,"rental_uris":{"android":"levelo://app?vid=9492314d-2667-483b-b6b5-1f4695aa4b3e","ios":"levelo://app?vid=9492314d-2667-483b-b6b5-1f4695aa4b3e"},"vehicle_type_id":"4","last_reported":1711573577,"current_range_meters":0,"station_id":"ce4bgth2rcd13ifvqch0","pricing_plan_id":"cebpf4jnsgd1na2vs0mg"},{"bike_id":"c7d2be2c-fae4-431d-8b10-6a39c6c58be4","system_id":"levelo_inurba_marseille","lat":43.317075,"lon":5.377367,"is_reserved":false,"is_disabled":false,"rental_uris":{"android":"levelo://app?vid=c7d2be2c-fae4-431d-8b10-6a39c6c58be4","ios":"levelo://app?vid=c7d2be2c-fae4-431d-8b10-6a39c6c58be4"},"vehicle_type_id":"4","last_reported":1711573577,"current_range_meters":26800,"station_id":"ce4bgth2rcd13ifvqch0","pricing_plan_id":"cebpf4jnsgd1na2vs0mg"},{"bike_id":"3b236733-52a1-4cd5-815a-e4506736734a","system_id":"levelo_inurba_marseille","lat":43.303046,"lon":5.368981,"is_reserved":false,"is_disabled":false,"rental_uris":{"android":"levelo://app?vid=3b236733-52a1-4cd5-815a-e4506736734a","ios":"levelo://app?vid=3b236733-52a1-4cd5-815a-e4506736734a"},"vehicle_type_id":"4","last_reported":1711573577,"current_range_meters":0,"station_id":"ce4bgqh2rcd13ifvqc5g","pricing_plan_id":"cebpf4jnsgd1na2vs0mg"},{"bike_id":"874ed888-8ff9-4ac0-b33d-717390c5b412","system_id":"levelo_inurba_marseille","lat":43.317075,"lon":5.377367,"is_reserved":false,"is_disabled":false,"rental_uris":{"android":"levelo://app?vid=874ed888-8ff9-4ac0-b33d-717390c5b412","ios":"levelo://app?vid=874ed888-8ff9-4ac0-b33d-717390c5b412"},"vehicle_type_id":"4","last_reported":1711573577,"current_range_meters":19600,"station_id":"ce4bgth2rcd13ifvqch0","pricing_plan_id":"cebpf4jnsgd1na2vs0mg"},{"bike_id":"29cda53b-6ec1-4a83-b2c6-7081c9ce636a","system_id":"levelo_inurba_marseille","lat":43.317075,"lon":5.377367,"is_reserved":false,"is_disabled":false,"rental_uris":{"android":"levelo://app?vid=29cda53b-6ec1-4a83-b2c6-7081c9ce636a","ios":"levelo://app?vid=29cda53b-6ec1-4a83-b2c6-7081c9ce636a"},"vehicle_type_id":"4","last_reported":1711573577,"current_range_meters":28000,"station_id":"ce4bgth2rcd13ifvqch0","pricing_plan_id":"cebpf4jnsgd1na2vs0mg"},{"bike_id":"a89dc2e8-75c1-4d7f-aaf6-f04463847ae5","system_id":"levelo_inurba_marseille","lat":43.30912,"lon":5.37876,"is_reserved":false,"is_disabled":false,"rental_uris":{"android":"levelo://app?vid=a89dc2e8-75c1-4d7f-aaf6-f04463847ae5","ios":"levelo://app?vid=a89dc2e8-75c1-4d7f-aaf6-f04463847ae5"},"vehicle_type_id":"4","last_reported":1711573577,"current_range_meters":0,"station_id":"","pricing_plan_id":"cebpf4jnsgd1na2vs0mg"},{"bike_id":"63cdd9fb-0de9-4cd9-81ab-4980ca02f6e4","system_id":"levelo_inurba_marseille","lat":43.30941,"lon":5.37919,"is_reserved":false,"is_disabled":false,"rental_uris":{"android":"levelo://app?vid=63cdd9fb-0de9-4cd9-81ab-4980ca02f6e4","ios":"levelo://app?vid=63cdd9fb-0de9-4cd9-81ab-4980ca02f6e4"},"vehicle_type_id":"4","last_reported":1711573577,"current_range_meters":5600,"station_id":"","pricing_plan_id":"cebpf4jnsgd1na2vs0mg"},{"bike_id":"656d0251-d127-4e3f-9a93-208e07e6c8cd","system_id":"levelo_inurba_marseille","lat":43.30315,"lon":5.368935,"is_reserved":false,"is_disabled":false,"rental_uris":{"android":"levelo://app?vid=656d0251-d127-4e3f-9a93-208e07e6c8cd","ios":"levelo://app?vid=656d0251-d127-4e3f-9a93-208e07e6c8cd"},"vehicle_type_id":"4","last_reported":1711573577,"current_range_meters":0,"station_id":"ce4bgqh2rcd13ifvqc5g","pricing_plan_id":"cebpf4jnsgd1na2vs0mg"},{"bike_id":"48c69d20-1941-40bc-af28-f64709d7fe80","system_id":"levelo_inurba_marseille","lat":43.30307,"lon":5.36887,"is_reserved":false,"is_disabled":false,"rental_uris":{"android":"levelo://app?vid=48c69d20-1941-40bc-af28-f64709d7fe80","ios":"levelo://app?vid=48c69d20-1941-40bc-af28-f64709d7fe80"},"vehicle_type_id":"4","last_reported":1711573577,"current_range_meters":8400,"station_id":"ce4bgqh2rcd13ifvqc5g","pricing_plan_id":"cebpf4jnsgd1na2vs0mg"},{"bike_id":"a0c12f87-0427-4423-a306-06707464462e","system_id":"levelo_inurba_marseille","lat":43.290319,"lon":5.375732,"is_reserved":false,"is_disabled":false,"rental_uris":{"android":"levelo://app?vid=a0c12f87-0427-4423-a306-06707464462e","ios":"levelo://app?vid=a0c12f87-0427-4423-a306-06707464462e"},"vehicle_type_id":"4","last_reported":1711573577,"current_range_meters":10000,"station_id":"ce4bh692rcd13ifvqe90","pricing_plan_id":"cebpf4jnsgd1na2vs0mg"},{"bike_id":"5019234d-1f76-46a5-9db0-ad54cdf183f3","system_id":"levelo_inurba_marseille","lat":43.315293,"lon":5.380349,"is_reserved":false,"is_disabled":false,"rental_uris":{"android":"levelo://app?vid=5019234d-1f76-46a5-9db0-ad54cdf183f3","ios":"levelo://app?vid=5019234d-1f76-46a5-9db0-ad54cdf183f3"},"vehicle_type_id":"4","last_reported":1711573577,"current_range_meters":28400,"station_id":"ce4bhsp2rcd13ifvqi50","pricing_plan_id":"cebpf4jnsgd1na2vs0mg"},{"bike_id":"ea0b6bb9-6a58-45ed-a7a3-ca1de5b87f2a","system_id":"levelo_inurba_marseille","lat":43.315289,"lon":5.380349,"is_reserved":false,"is_disabled":false,"rental_uris":{"android":"levelo://app?vid=ea0b6bb9-6a58-45ed-a7a3-ca1de5b87f2a","ios":"levelo://app?vid=ea0b6bb9-6a58-45ed-a7a3-ca1de5b87f2a"},"vehicle_type_id":"4","last_reported":1711573577,"current_range_meters":23600,"station_id":"ce4bhsp2rcd13ifvqi50","pricing_plan_id":"cebpf4jnsgd1na2vs0mg"},{"bike_id":"2074a8e9-f2a6-4b80-b2c6-1ba3ac7a639a","system_id":"levelo_inurba_marseille","lat":43.315289,"lon":5.380349,"is_reserved":false,"is_disabled":false,"rental_uris":{"android":"levelo://app?vid=2074a8e9-f2a6-4b80-b2c6-1ba3ac7a639a","ios":"levelo://app?vid=2074a8e9-f2a6-4b80-b2c6-1ba3ac7a639a"},"vehicle_type_id":"4","last_reported":1711573577,"current_range_meters":6400,"station_id":"ce4bhsp2rcd13ifvqi50","pricing_plan_id":"cebpf4jnsgd1na2vs0mg"},{"bike_id":"09694037-579c-44d8-bb98-368b9dac1f4a","system_id":"levelo_inurba_marseille","lat":43.315293,"lon":5.380349,"is_reserved":false,"is_disabled":false,"rental_uris":{"android":"levelo://app?vid=09694037-579c-44d8-bb98-368b9dac1f4a","ios":"levelo://app?vid=09694037-579c-44d8-bb98-368b9dac1f4a"},"vehicle_type_id":"4","last_reported":1711573577,"current_range_meters":3200,"station_id":"ce4bhsp2rcd13ifvqi50","pricing_plan_id":"cebpf4jnsgd1na2vs0mg"},{"bike_id":"23fb319a-a365-43cd-93fd-c6bd10c7e5dd","system_id":"levelo_inurba_marseille","lat":43.315289,"lon":5.380349,"is_reserved":false,"is_disabled":false,"rental_uris":{"android":"levelo://app?vid=23fb319a-a365-43cd-93fd-c6bd10c7e5dd","ios":"levelo://app?vid=23fb319a-a365-43cd-93fd-c6bd10c7e5dd"},"vehicle_type_id":"4","last_reported":1711573577,"current_range_meters":19600,"station_id":"ce4bhsp2rcd13ifvqi50","pricing_plan_id":"cebpf4jnsgd1na2vs0mg"},{"bike_id":"6bf89f74-2628-48dc-8515-554e97c9dc2a","system_id":"levelo_inurba_marseille","lat":43.301939,"lon":5.366286,"is_reserved":false,"is_disabled":false,"rental_uris":{"android":"levelo://app?vid=6bf89f74-2628-48dc-8515-554e97c9dc2a","ios":"levelo://app?vid=6bf89f74-2628-48dc-8515-554e97c9dc2a"},"vehicle_type_id":"4","last_reported":1711573577,"current_range_meters":24800,"station_id":"ce4bgrh2rcd13ifvqc8g","pricing_plan_id":"cebpf4jnsgd1na2vs0mg"},{"bike_id":"e4179d94-8aba-4f53-b1a5-8d4f75e9d3cd","system_id":"levelo_inurba_marseille","lat":43.30191,"lon":5.36606,"is_reserved":false,"is_disabled":false,"rental_uris":{"android":"levelo://app?vid=e4179d94-8aba-4f53-b1a5-8d4f75e9d3cd","ios":"levelo://app?vid=e4179d94-8aba-4f53-b1a5-8d4f75e9d3cd"},"vehicle_type_id":"4","last_reported":1711573577,"current_range_meters":0,"station_id":"ce4bgrh2rcd13ifvqc8g","pricing_plan_id":"cebpf4jnsgd1na2vs0mg"},{"bike_id":"1167c42e-61db-4dec-9c93-1939365ac44b","system_id":"levelo_inurba_marseille","lat":43.301939,"lon":5.366286,"is_reserved":false,"is_disabled":false,"rental_uris":{"android":"levelo://app?vid=1167c42e-61db-4dec-9c93-1939365ac44b","ios":"levelo://app?vid=1167c42e-61db-4dec-9c93-1939365ac44b"},"vehicle_type_id":"4","last_reported":1711573577,"current_range_meters":23600,"station_id":"ce4bgrh2rcd13ifvqc8g","pricing_plan_id":"cebpf4jnsgd1na2vs0mg"},{"bike_id":"f5a0c673-8444-4b26-8814-b86a807f128b","system_id":"levelo_inurba_marseille","lat":43.301939,"lon":5.366286,"is_reserved":false,"is_disabled":false,"rental_uris":{"android":"levelo://app?vid=f5a0c673-8444-4b26-8814-b86a807f128b","ios":"levelo://app?vid=f5a0c673-8444-4b26-8814-b86a807f128b"},"vehicle_type_id":"4","last_reported":1711573577,"current_range_meters":24400,"station_id":"ce4bgrh2rcd13ifvqc8g","pricing_plan_id":"cebpf4jnsgd1na2vs0mg"},{"bike_id":"48a8b71a-44a3-4839-8d5c-e3cdfd7be554","system_id":"levelo_inurba_marseille","lat":43.30182,"lon":5.366142,"is_reserved":false,"is_disabled":false,"rental_uris":{"android":"levelo://app?vid=48a8b71a-44a3-4839-8d5c-e3cdfd7be554","ios":"levelo://app?vid=48a8b71a-44a3-4839-8d5c-e3cdfd7be554"},"vehicle_type_id":"4","last_reported":1711573577,"current_range_meters":0,"station_id":"ce4bgrh2rcd13ifvqc8g","pricing_plan_id":"cebpf4jnsgd1na2vs0mg"},{"bike_id":"5c8c5539-d1cf-4113-9c34-459c509a6726","system_id":"levelo_inurba_marseille","lat":43.301939,"lon":5.366286,"is_reserved":false,"is_disabled":false,"rental_uris":{"android":"levelo://app?vid=5c8c5539-d1cf-4113-9c34-459c509a6726","ios":"levelo://app?vid=5c8c5539-d1cf-4113-9c34-459c509a6726"},"vehicle_type_id":"4","last_reported":1711573577,"current_range_meters":3200,"station_id":"ce4bgrh2rcd13ifvqc8g","pricing_plan_id":"cebpf4jnsgd1na2vs0mg"},{"bike_id":"5bbaf6c9-a710-40a7-9f88-cda74e867b33","system_id":"levelo_inurba_marseille","lat":43.307993,"lon":5.38153,"is_reserved":false,"is_disabled":false,"rental_uris":{"android":"levelo://app?vid=5bbaf6c9-a710-40a7-9f88-cda74e867b33","ios":"levelo://app?vid=5bbaf6c9-a710-40a7-9f88-cda74e867b33"},"vehicle_type_id":"4","last_reported":1711573577,"current_range_meters":19600,"station_id":"ce4bgt12rcd13ifvqce0","pricing_plan_id":"cebpf4jnsgd1na2vs0mg"},{"bike_id":"c0550b49-47fb-4b6f-85a0-ad996797aebd","system_id":"levelo_inurba_marseille","lat":43.308012,"lon":5.381511,"is_reserved":false,"is_disabled":false,"rental_uris":{"android":"levelo://app?vid=c0550b49-47fb-4b6f-85a0-ad996797aebd","ios":"levelo://app?vid=c0550b49-47fb-4b6f-85a0-ad996797aebd"},"vehicle_type_id":"4","last_reported":1711573577,"current_range_meters":0,"station_id":"ce4bgt12rcd13ifvqce0","pricing_plan_id":"cebpf4jnsgd1na2vs0mg"},{"bike_id":"adc0e2d7-ceab-4c70-b31d-8b11bb20cf69","system_id":"levelo_inurba_marseille","lat":43.308012,"lon":5.381511,"is_reserved":false,"is_disabled":false,"rental_uris":{"android":"levelo://app?vid=adc0e2d7-ceab-4c70-b31d-8b11bb20cf69","ios":"levelo://app?vid=adc0e2d7-ceab-4c70-b31d-8b11bb20cf69"},"vehicle_type_id":"4","last_reported":1711573577,"current_range_meters":18000,"station_id":"ce4bgt12rcd13ifvqce0","pricing_plan_id":"cebpf4jnsgd1na2vs0mg"},{"bike_id":"ed72fa50-df3e-48f1-bf1b-8e2af8d705fb","system_id":"levelo_inurba_marseille","lat":43.304606,"lon":5.379026,"is_reserved":false,"is_disabled":false,"rental_uris":{"android":"levelo://app?vid=ed72fa50-df3e-48f1-bf1b-8e2af8d705fb","ios":"levelo://app?vid=ed72fa50-df3e-48f1-bf1b-8e2af8d705fb"},"vehicle_type_id":"4","last_reported":1711573577,"current_range_meters":28000,"station_id":"ce4bgup2rcd13ifvqcn0","pricing_plan_id":"cebpf4jnsgd1na2vs0mg"},{"bike_id":"29a4e32b-439d-4514-9c61-67f6d3eb429c","system_id":"levelo_inurba_marseille","lat":43.30457,"lon":5.378977,"is_reserved":false,"is_disabled":false,"rental_uris":{"android":"levelo://app?vid=29a4e32b-439d-4514-9c61-67f6d3eb429c","ios":"levelo://app?vid=29a4e32b-439d-4514-9c61-67f6d3eb429c"},"vehicle_type_id":"4","last_reported":1711573577,"current_range_meters":0,"station_id":"ce4bgup2rcd13ifvqcn0","pricing_plan_id":"cebpf4jnsgd1na2vs0mg"},{"bike_id":"f02eca96-0b95-4eec-a2a2-38c7ff095415","system_id":"levelo_inurba_marseille","lat":43.30459,"lon":5.37903,"is_reserved":false,"is_disabled":false,"rental_uris":{"android":"levelo://app?vid=f02eca96-0b95-4eec-a2a2-38c7ff095415","ios":"levelo://app?vid=f02eca96-0b95-4eec-a2a2-38c7ff095415"},"vehicle_type_id":"4","last_reported":1711573577,"current_range_meters":3200,"station_id":"ce4bgup2rcd13ifvqcn0","pricing_plan_id":"cebpf4jnsgd1na2vs0mg"},{"bike_id":"46f0fac6-92f5-45f4-8291-c2f80c7abb82","system_id":"levelo_inurba_marseille","lat":43.304606,"lon":5.379026,"is_reserved":false,"is_disabled":false,"rental_uris":{"android":"levelo://app?vid=46f0fac6-92f5-45f4-8291-c2f80c7abb82","ios":"levelo://app?vid=46f0fac6-92f5-45f4-8291-c2f80c7abb82"},"vehicle_type_id":"4","last_reported":1711573577,"current_range_meters":0,"station_id":"ce4bgup2rcd13ifvqcn0","pricing_plan_id":"cebpf4jnsgd1na2vs0mg"},{"bike_id":"4640f0db-12b7-484e-8e5b-dff160411136","system_id":"levelo_inurba_marseille","lat":43.324771,"lon":5.36557,"is_reserved":false,"is_disabled":false,"rental_uris":{"android":"levelo://app?vid=4640f0db-12b7-484e-8e5b-dff160411136","ios":"levelo://app?vid=4640f0db-12b7-484e-8e5b-dff160411136"},"vehicle_type_id":"4","last_reported":1711573577,"current_range_meters":0,"station_id":"ce4bhs12rcd13ifvqhvg","pricing_plan_id":"cebpf4jnsgd1na2vs0mg"},{"bike_id":"02709469-0833-45b3-ae80-b69191f8c000","system_id":"levelo_inurba_marseille","lat":43.324771,"lon":5.36557,"is_reserved":false,"is_disabled":false,"rental_uris":{"android":"levelo://app?vid=02709469-0833-45b3-ae80-b69191f8c000","ios":"levelo://app?vid=02709469-0833-45b3-ae80-b69191f8c000"},"vehicle_type_id":"4","last_reported":1711573577,"current_range_meters":17200,"station_id":"ce4bhs12rcd13ifvqhvg","pricing_plan_id":"cebpf4jnsgd1na2vs0mg"},{"bike_id":"cb7a2f8a-2aef-4135-bdbe-c58bf76c4aeb","system_id":"levelo_inurba_marseille","lat":43.324771,"lon":5.36557,"is_reserved":false,"is_disabled":false,"rental_uris":{"android":"levelo://app?vid=cb7a2f8a-2aef-4135-bdbe-c58bf76c4aeb","ios":"levelo://app?vid=cb7a2f8a-2aef-4135-bdbe-c58bf76c4aeb"},"vehicle_type_id":"4","last_reported":1711573577,"current_range_meters":14400,"station_id":"ce4bhs12rcd13ifvqhvg","pricing_plan_id":"cebpf4jnsgd1na2vs0mg"},{"bike_id":"43b4b1de-e643-4315-b184-0fee78a69416","system_id":"levelo_inurba_marseille","lat":43.324771,"lon":5.36557,"is_reserved":false,"is_disabled":false,"rental_uris":{"android":"levelo://app?vid=43b4b1de-e643-4315-b184-0fee78a69416","ios":"levelo://app?vid=43b4b1de-e643-4315-b184-0fee78a69416"},"vehicle_type_id":"4","last_reported":1711573577,"current_range_meters":23600,"station_id":"ce4bhs12rcd13ifvqhvg","pricing_plan_id":"cebpf4jnsgd1na2vs0mg"},{"bike_id":"6f49ced9-6677-432d-9a15-8fee52752f96","system_id":"levelo_inurba_marseille","lat":43.324771,"lon":5.36557,"is_reserved":false,"is_disabled":false,"rental_uris":{"android":"levelo://app?vid=6f49ced9-6677-432d-9a15-8fee52752f96","ios":"levelo://app?vid=6f49ced9-6677-432d-9a15-8fee52752f96"},"vehicle_type_id":"4","last_reported":1711573577,"current_range_meters":6800,"station_id":"ce4bhs12rcd13ifvqhvg","pricing_plan_id":"cebpf4jnsgd1na2vs0mg"},{"bike_id":"05b3efda-ab6d-40af-a03c-9e2faaece752","system_id":"levelo_inurba_marseille","lat":43.324771,"lon":5.36557,"is_reserved":false,"is_disabled":false,"rental_uris":{"android":"levelo://app?vid=05b3efda-ab6d-40af-a03c-9e2faaece752","ios":"levelo://app?vid=05b3efda-ab6d-40af-a03c-9e2faaece752"},"vehicle_type_id":"4","last_reported":1711573577,"current_range_meters":7600,"station_id":"ce4bhs12rcd13ifvqhvg","pricing_plan_id":"cebpf4jnsgd1na2vs0mg"},{"bike_id":"d7e593ae-0e04-4801-88d6-585d610f28a0","system_id":"levelo_inurba_marseille","lat":43.324771,"lon":5.36557,"is_reserved":false,"is_disabled":false,"rental_uris":{"android":"levelo://app?vid=d7e593ae-0e04-4801-88d6-585d610f28a0","ios":"levelo://app?vid=d7e593ae-0e04-4801-88d6-585d610f28a0"},"vehicle_type_id":"4","last_reported":1711573577,"current_range_meters":13600,"station_id":"ce4bhs12rcd13ifvqhvg","pricing_plan_id":"cebpf4jnsgd1na2vs0mg"},{"bike_id":"bccbaded-54c1-4f70-a194-8a427ac690dc","system_id":"levelo_inurba_marseille","lat":43.324771,"lon":5.36557,"is_reserved":false,"is_disabled":false,"rental_uris":{"android":"levelo://app?vid=bccbaded-54c1-4f70-a194-8a427ac690dc","ios":"levelo://app?vid=bccbaded-54c1-4f70-a194-8a427ac690dc"},"vehicle_type_id":"4","last_reported":1711573577,"current_range_meters":16400,"station_id":"ce4bhs12rcd13ifvqhvg","pricing_plan_id":"cebpf4jnsgd1na2vs0mg"},{"bike_id":"9afccbb4-05a5-4ea7-af33-8ecf42e8eb65","system_id":"levelo_inurba_marseille","lat":43.31069,"lon":5.383446,"is_reserved":false,"is_disabled":false,"rental_uris":{"android":"levelo://app?vid=9afccbb4-05a5-4ea7-af33-8ecf42e8eb65","ios":"levelo://app?vid=9afccbb4-05a5-4ea7-af33-8ecf42e8eb65"},"vehicle_type_id":"4","last_reported":1711573577,"current_range_meters":12800,"station_id":"ce4bgv92rcd13ifvqcr0","pricing_plan_id":"cebpf4jnsgd1na2vs0mg"},{"bike_id":"b7303be2-24b0-465d-9a7c-3ab2fa9f5c79","system_id":"levelo_inurba_marseille","lat":43.310722,"lon":5.383502,"is_reserved":false,"is_disabled":false,"rental_uris":{"android":"levelo://app?vid=b7303be2-24b0-465d-9a7c-3ab2fa9f5c79","ios":"levelo://app?vid=b7303be2-24b0-465d-9a7c-3ab2fa9f5c79"},"vehicle_type_id":"4","last_reported":1711573577,"current_range_meters":4400,"station_id":"ce4bgv92rcd13ifvqcr0","pricing_plan_id":"cebpf4jnsgd1na2vs0mg"},{"bike_id":"95b9c71f-00b3-434d-8fdb-d6962e7e169b","system_id":"levelo_inurba_marseille","lat":43.3107,"lon":5.38356,"is_reserved":false,"is_disabled":false,"rental_uris":{"android":"levelo://app?vid=95b9c71f-00b3-434d-8fdb-d6962e7e169b","ios":"levelo://app?vid=95b9c71f-00b3-434d-8fdb-d6962e7e169b"},"vehicle_type_id":"4","last_reported":1711573577,"current_range_meters":400,"station_id":"ce4bgv92rcd13ifvqcr0","pricing_plan_id":"cebpf4jnsgd1na2vs0mg"},{"bike_id":"dc3051ec-64e8-44c5-9445-358a729ef0c3","system_id":"levelo_inurba_marseille","lat":43.31065,"lon":5.383567,"is_reserved":false,"is_disabled":false,"rental_uris":{"android":"levelo://app?vid=dc3051ec-64e8-44c5-9445-358a729ef0c3","ios":"levelo://app?vid=dc3051ec-64e8-44c5-9445-358a729ef0c3"},"vehicle_type_id":"4","last_reported":1711573577,"current_range_meters":0,"station_id":"ce4bgv92rcd13ifvqcr0","pricing_plan_id":"cebpf4jnsgd1na2vs0mg"},{"bike_id":"2d802428-0894-4d07-b739-c46a4869375e","system_id":"levelo_inurba_marseille","lat":43.304274,"lon":5.397513,"is_reserved":false,"is_disabled":false,"rental_uris":{"android":"levelo://app?vid=2d802428-0894-4d07-b739-c46a4869375e","ios":"levelo://app?vid=2d802428-0894-4d07-b739-c46a4869375e"},"vehicle_type_id":"4","last_reported":1711573577,"current_range_meters":10000,"station_id":"ce4bh092rcd13ifvqd20","pricing_plan_id":"cebpf4jnsgd1na2vs0mg"},{"bike_id":"5fc3afbf-e6cf-4d00-8eeb-4b57acf8225b","system_id":"levelo_inurba_marseille","lat":43.302784,"lon":5.377158,"is_reserved":false,"is_disabled":false,"rental_uris":{"android":"levelo://app?vid=5fc3afbf-e6cf-4d00-8eeb-4b57acf8225b","ios":"levelo://app?vid=5fc3afbf-e6cf-4d00-8eeb-4b57acf8225b"},"vehicle_type_id":"4","last_reported":1711573577,"current_range_meters":24800,"station_id":"ce4bguh2rcd13ifvqcj0","pricing_plan_id":"cebpf4jnsgd1na2vs0mg"},{"bike_id":"6eaa2746-c200-47a7-9deb-0d426d59c6c8","system_id":"levelo_inurba_marseille","lat":43.302784,"lon":5.377158,"is_reserved":false,"is_disabled":false,"rental_uris":{"android":"levelo://app?vid=6eaa2746-c200-47a7-9deb-0d426d59c6c8","ios":"levelo://app?vid=6eaa2746-c200-47a7-9deb-0d426d59c6c8"},"vehicle_type_id":"4","last_reported":1711573577,"current_range_meters":8800,"station_id":"ce4bguh2rcd13ifvqcj0","pricing_plan_id":"cebpf4jnsgd1na2vs0mg"},{"bike_id":"1f8c09bd-5e45-4f4c-bb1e-7d4b2ad5ffc7","system_id":"levelo_inurba_marseille","lat":43.319935,"lon":5.381699,"is_reserved":false,"is_disabled":false,"rental_uris":{"android":"levelo://app?vid=1f8c09bd-5e45-4f4c-bb1e-7d4b2ad5ffc7","ios":"levelo://app?vid=1f8c09bd-5e45-4f4c-bb1e-7d4b2ad5ffc7"},"vehicle_type_id":"4","last_reported":1711573577,"current_range_meters":5200,"station_id":"ce4bhr12rcd13ifvqhpg","pricing_plan_id":"cebpf4jnsgd1na2vs0mg"},{"bike_id":"cf8006ab-14c2-4490-af57-2432dde13f10","system_id":"levelo_inurba_marseille","lat":43.319987,"lon":5.381453,"is_reserved":false,"is_disabled":false,"rental_uris":{"android":"levelo://app?vid=cf8006ab-14c2-4490-af57-2432dde13f10","ios":"levelo://app?vid=cf8006ab-14c2-4490-af57-2432dde13f10"},"vehicle_type_id":"4","last_reported":1711573577,"current_range_meters":4000,"station_id":"ce4bhr12rcd13ifvqhpg","pricing_plan_id":"cebpf4jnsgd1na2vs0mg"},{"bike_id":"bd231c0a-2e9a-4753-9143-34a921226e99","system_id":"levelo_inurba_marseille","lat":43.31991,"lon":5.3816,"is_reserved":false,"is_disabled":false,"rental_uris":{"android":"levelo://app?vid=bd231c0a-2e9a-4753-9143-34a921226e99","ios":"levelo://app?vid=bd231c0a-2e9a-4753-9143-34a921226e99"},"vehicle_type_id":"4","last_reported":1711573577,"current_range_meters":31200,"station_id":"","pricing_plan_id":"cebpf4jnsgd1na2vs0mg"},{"bike_id":"9cdc391f-1614-41ef-8b8f-d740e73dedfa","system_id":"levelo_inurba_marseille","lat":43.304296,"lon":5.397513,"is_reserved":false,"is_disabled":false,"rental_uris":{"android":"levelo://app?vid=9cdc391f-1614-41ef-8b8f-d740e73dedfa","ios":"levelo://app?vid=9cdc391f-1614-41ef-8b8f-d740e73dedfa"},"vehicle_type_id":"4","last_reported":1711573577,"current_range_meters":12400,"station_id":"ce4bh092rcd13ifvqd20","pricing_plan_id":"cebpf4jnsgd1na2vs0mg"},{"bike_id":"4a20a15f-3f5d-4b4e-a0ba-1ae022451332","system_id":"levelo_inurba_marseille","lat":43.29981,"lon":5.37187,"is_reserved":false,"is_disabled":false,"rental_uris":{"android":"levelo://app?vid=4a20a15f-3f5d-4b4e-a0ba-1ae022451332","ios":"levelo://app?vid=4a20a15f-3f5d-4b4e-a0ba-1ae022451332"},"vehicle_type_id":"4","last_reported":1711573577,"current_range_meters":2000,"station_id":"ce4bgr92rcd13ifvqc7g","pricing_plan_id":"cebpf4jnsgd1na2vs0mg"},{"bike_id":"68bd446e-68fe-4494-977e-a35cc7b6fe0b","system_id":"levelo_inurba_marseille","lat":43.299222,"lon":5.365554,"is_reserved":false,"is_disabled":false,"rental_uris":{"android":"levelo://app?vid=68bd446e-68fe-4494-977e-a35cc7b6fe0b","ios":"levelo://app?vid=68bd446e-68fe-4494-977e-a35cc7b6fe0b"},"vehicle_type_id":"4","last_reported":1711573577,"current_range_meters":6400,"station_id":"ce4bgm92rcd13ifvqbr0","pricing_plan_id":"cebpf4jnsgd1na2vs0mg"},{"bike_id":"cca55cb3-2d98-4498-a6f9-49c7326d64c7","system_id":"levelo_inurba_marseille","lat":43.299222,"lon":5.365554,"is_reserved":false,"is_disabled":false,"rental_uris":{"android":"levelo://app?vid=cca55cb3-2d98-4498-a6f9-49c7326d64c7","ios":"levelo://app?vid=cca55cb3-2d98-4498-a6f9-49c7326d64c7"},"vehicle_type_id":"4","last_reported":1711573577,"current_range_meters":27600,"station_id":"ce4bgm92rcd13ifvqbr0","pricing_plan_id":"cebpf4jnsgd1na2vs0mg"},{"bike_id":"6e72c1b6-c4e5-4115-af04-a2a0214293d4","system_id":"levelo_inurba_marseille","lat":43.299724,"lon":5.371829,"is_reserved":false,"is_disabled":false,"rental_uris":{"android":"levelo://app?vid=6e72c1b6-c4e5-4115-af04-a2a0214293d4","ios":"levelo://app?vid=6e72c1b6-c4e5-4115-af04-a2a0214293d4"},"vehicle_type_id":"4","last_reported":1711573577,"current_range_meters":29200,"station_id":"ce4bgr92rcd13ifvqc7g","pricing_plan_id":"cebpf4jnsgd1na2vs0mg"},{"bike_id":"9560c1d7-3244-473f-a03c-18ad96e9bc2d","system_id":"levelo_inurba_marseille","lat":43.299222,"lon":5.365554,"is_reserved":false,"is_disabled":false,"rental_uris":{"android":"levelo://app?vid=9560c1d7-3244-473f-a03c-18ad96e9bc2d","ios":"levelo://app?vid=9560c1d7-3244-473f-a03c-18ad96e9bc2d"},"vehicle_type_id":"4","last_reported":1711573577,"current_range_meters":0,"station_id":"ce4bgm92rcd13ifvqbr0","pricing_plan_id":"cebpf4jnsgd1na2vs0mg"},{"bike_id":"b29baaac-e82d-43a7-b73d-dde5f4111d58","system_id":"levelo_inurba_marseille","lat":43.311722,"lon":5.387247,"is_reserved":false,"is_disabled":false,"rental_uris":{"android":"levelo://app?vid=b29baaac-e82d-43a7-b73d-dde5f4111d58","ios":"levelo://app?vid=b29baaac-e82d-43a7-b73d-dde5f4111d58"},"vehicle_type_id":"4","last_reported":1711573577,"current_range_meters":16800,"station_id":"ce4bgv12rcd13ifvqcp0","pricing_plan_id":"cebpf4jnsgd1na2vs0mg"},{"bike_id":"1180c205-ef78-433e-ba07-b5187afbb13c","system_id":"levelo_inurba_marseille","lat":43.298433,"lon":5.362774,"is_reserved":false,"is_disabled":false,"rental_uris":{"android":"levelo://app?vid=1180c205-ef78-433e-ba07-b5187afbb13c","ios":"levelo://app?vid=1180c205-ef78-433e-ba07-b5187afbb13c"},"vehicle_type_id":"4","last_reported":1711573577,"current_range_meters":25200,"station_id":"ce4bgpp2rcd13ifvqc3g","pricing_plan_id":"cebpf4jnsgd1na2vs0mg"},{"bike_id":"02177fa4-9507-4b18-9d61-bfbacb0c0a17","system_id":"levelo_inurba_marseille","lat":43.305305,"lon":5.38426,"is_reserved":false,"is_disabled":false,"rental_uris":{"android":"levelo://app?vid=02177fa4-9507-4b18-9d61-bfbacb0c0a17","ios":"levelo://app?vid=02177fa4-9507-4b18-9d61-bfbacb0c0a17"},"vehicle_type_id":"4","last_reported":1711573577,"current_range_meters":26400,"station_id":"ce4bgg92rcd13ifvqb30","pricing_plan_id":"cebpf4jnsgd1na2vs0mg"},{"bike_id":"09611d4a-fbd0-43f9-8086-71aab452e763","system_id":"levelo_inurba_marseille","lat":43.298433,"lon":5.362774,"is_reserved":false,"is_disabled":false,"rental_uris":{"android":"levelo://app?vid=09611d4a-fbd0-43f9-8086-71aab452e763","ios":"levelo://app?vid=09611d4a-fbd0-43f9-8086-71aab452e763"},"vehicle_type_id":"4","last_reported":1711573577,"current_range_meters":25600,"station_id":"ce4bgpp2rcd13ifvqc3g","pricing_plan_id":"cebpf4jnsgd1na2vs0mg"},{"bike_id":"fdcb0323-c619-4d54-bb31-35ba90c8a430","system_id":"levelo_inurba_marseille","lat":43.31164,"lon":5.38707,"is_reserved":false,"is_disabled":false,"rental_uris":{"android":"levelo://app?vid=fdcb0323-c619-4d54-bb31-35ba90c8a430","ios":"levelo://app?vid=fdcb0323-c619-4d54-bb31-35ba90c8a430"},"vehicle_type_id":"4","last_reported":1711573577,"current_range_meters":2000,"station_id":"ce4bgv12rcd13ifvqcp0","pricing_plan_id":"cebpf4jnsgd1na2vs0mg"},{"bike_id":"a127671e-1d79-435f-ba9b-b9bb8a8de35c","system_id":"levelo_inurba_marseille","lat":43.311722,"lon":5.387247,"is_reserved":false,"is_disabled":false,"rental_uris":{"android":"levelo://app?vid=a127671e-1d79-435f-ba9b-b9bb8a8de35c","ios":"levelo://app?vid=a127671e-1d79-435f-ba9b-b9bb8a8de35c"},"vehicle_type_id":"4","last_reported":1711573577,"current_range_meters":8800,"station_id":"ce4bgv12rcd13ifvqcp0","pricing_plan_id":"cebpf4jnsgd1na2vs0mg"},{"bike_id":"5806e12b-0bfa-46c7-b4f3-aabdd26c9a40","system_id":"levelo_inurba_marseille","lat":43.311722,"lon":5.387247,"is_reserved":false,"is_disabled":false,"rental_uris":{"android":"levelo://app?vid=5806e12b-0bfa-46c7-b4f3-aabdd26c9a40","ios":"levelo://app?vid=5806e12b-0bfa-46c7-b4f3-aabdd26c9a40"},"vehicle_type_id":"4","last_reported":1711573577,"current_range_meters":14000,"station_id":"ce4bgv12rcd13ifvqcp0","pricing_plan_id":"cebpf4jnsgd1na2vs0mg"},{"bike_id":"338c0ef5-5809-40cd-b50a-b25bbae4ce71","system_id":"levelo_inurba_marseille","lat":43.311722,"lon":5.387247,"is_reserved":false,"is_disabled":false,"rental_uris":{"android":"levelo://app?vid=338c0ef5-5809-40cd-b50a-b25bbae4ce71","ios":"levelo://app?vid=338c0ef5-5809-40cd-b50a-b25bbae4ce71"},"vehicle_type_id":"4","last_reported":1711573577,"current_range_meters":4000,"station_id":"ce4bgv12rcd13ifvqcp0","pricing_plan_id":"cebpf4jnsgd1na2vs0mg"},{"bike_id":"c3737a01-40d1-4678-8c52-32dc38cb64e0","system_id":"levelo_inurba_marseille","lat":43.299243,"lon":5.37481,"is_reserved":false,"is_disabled":false,"rental_uris":{"android":"levelo://app?vid=c3737a01-40d1-4678-8c52-32dc38cb64e0","ios":"levelo://app?vid=c3737a01-40d1-4678-8c52-32dc38cb64e0"},"vehicle_type_id":"4","last_reported":1711573577,"current_range_meters":31200,"station_id":"ce4bgjh2rcd13ifvqbg0","pricing_plan_id":"cebpf4jnsgd1na2vs0mg"},{"bike_id":"b95f843e-f3af-46f4-8650-a67a8e9d1fdc","system_id":"levelo_inurba_marseille","lat":43.311722,"lon":5.387247,"is_reserved":false,"is_disabled":false,"rental_uris":{"android":"levelo://app?vid=b95f843e-f3af-46f4-8650-a67a8e9d1fdc","ios":"levelo://app?vid=b95f843e-f3af-46f4-8650-a67a8e9d1fdc"},"vehicle_type_id":"4","last_reported":1711573577,"current_range_meters":15600,"station_id":"ce4bgv12rcd13ifvqcp0","pricing_plan_id":"cebpf4jnsgd1na2vs0mg"},{"bike_id":"95c0e4ce-0f21-49eb-bab7-90e1b28c8345","system_id":"levelo_inurba_marseille","lat":43.299243,"lon":5.374807,"is_reserved":false,"is_disabled":false,"rental_uris":{"android":"levelo://app?vid=95c0e4ce-0f21-49eb-bab7-90e1b28c8345","ios":"levelo://app?vid=95c0e4ce-0f21-49eb-bab7-90e1b28c8345"},"vehicle_type_id":"4","last_reported":1711573577,"current_range_meters":15200,"station_id":"ce4bgjh2rcd13ifvqbg0","pricing_plan_id":"cebpf4jnsgd1na2vs0mg"},{"bike_id":"eb3d3d7c-87cd-4530-b4d6-e88a0950814a","system_id":"levelo_inurba_marseille","lat":43.311722,"lon":5.387247,"is_reserved":false,"is_disabled":false,"rental_uris":{"android":"levelo://app?vid=eb3d3d7c-87cd-4530-b4d6-e88a0950814a","ios":"levelo://app?vid=eb3d3d7c-87cd-4530-b4d6-e88a0950814a"},"vehicle_type_id":"4","last_reported":1711573577,"current_range_meters":29200,"station_id":"ce4bgv12rcd13ifvqcp0","pricing_plan_id":"cebpf4jnsgd1na2vs0mg"},{"bike_id":"156f71d5-f1a2-4d16-9443-b53ab1e12685","system_id":"levelo_inurba_marseille","lat":43.311722,"lon":5.387247,"is_reserved":false,"is_disabled":false,"rental_uris":{"android":"levelo://app?vid=156f71d5-f1a2-4d16-9443-b53ab1e12685","ios":"levelo://app?vid=156f71d5-f1a2-4d16-9443-b53ab1e12685"},"vehicle_type_id":"4","last_reported":1711573577,"current_range_meters":7200,"station_id":"ce4bgv12rcd13ifvqcp0","pricing_plan_id":"cebpf4jnsgd1na2vs0mg"},{"bike_id":"b101360e-1f59-4345-8ffc-fc2106227e98","system_id":"levelo_inurba_marseille","lat":43.299243,"lon":5.374807,"is_reserved":false,"is_disabled":false,"rental_uris":{"android":"levelo://app?vid=b101360e-1f59-4345-8ffc-fc2106227e98","ios":"levelo://app?vid=b101360e-1f59-4345-8ffc-fc2106227e98"},"vehicle_type_id":"4","last_reported":1711573577,"current_range_meters":11200,"station_id":"ce4bgjh2rcd13ifvqbg0","pricing_plan_id":"cebpf4jnsgd1na2vs0mg"},{"bike_id":"79fd07ca-174d-4e56-8152-8fb130233822","system_id":"levelo_inurba_marseille","lat":43.31168,"lon":5.38716,"is_reserved":false,"is_disabled":false,"rental_uris":{"android":"levelo://app?vid=79fd07ca-174d-4e56-8152-8fb130233822","ios":"levelo://app?vid=79fd07ca-174d-4e56-8152-8fb130233822"},"vehicle_type_id":"4","last_reported":1711573577,"current_range_meters":0,"station_id":"ce4bgv12rcd13ifvqcp0","pricing_plan_id":"cebpf4jnsgd1na2vs0mg"},{"bike_id":"9bba21a7-e9db-4be2-bfd4-d840d8e78fb5","system_id":"levelo_inurba_marseille","lat":43.299243,"lon":5.37481,"is_reserved":false,"is_disabled":false,"rental_uris":{"android":"levelo://app?vid=9bba21a7-e9db-4be2-bfd4-d840d8e78fb5","ios":"levelo://app?vid=9bba21a7-e9db-4be2-bfd4-d840d8e78fb5"},"vehicle_type_id":"4","last_reported":1711573577,"current_range_meters":13200,"station_id":"ce4bgjh2rcd13ifvqbg0","pricing_plan_id":"cebpf4jnsgd1na2vs0mg"},{"bike_id":"60709a07-8fd0-4f63-bf33-ddee1ebe108a","system_id":"levelo_inurba_marseille","lat":43.311722,"lon":5.387247,"is_reserved":false,"is_disabled":false,"rental_uris":{"android":"levelo://app?vid=60709a07-8fd0-4f63-bf33-ddee1ebe108a","ios":"levelo://app?vid=60709a07-8fd0-4f63-bf33-ddee1ebe108a"},"vehicle_type_id":"4","last_reported":1711573577,"current_range_meters":0,"station_id":"ce4bgv12rcd13ifvqcp0","pricing_plan_id":"cebpf4jnsgd1na2vs0mg"},{"bike_id":"a19b909b-0a6b-48b0-8386-4311765eff25","system_id":"levelo_inurba_marseille","lat":43.299243,"lon":5.374807,"is_reserved":false,"is_disabled":false,"rental_uris":{"android":"levelo://app?vid=a19b909b-0a6b-48b0-8386-4311765eff25","ios":"levelo://app?vid=a19b909b-0a6b-48b0-8386-4311765eff25"},"vehicle_type_id":"4","last_reported":1711573577,"current_range_meters":3600,"station_id":"ce4bgjh2rcd13ifvqbg0","pricing_plan_id":"cebpf4jnsgd1na2vs0mg"},{"bike_id":"52013ce1-db36-4648-bb2d-1461fc9febda","system_id":"levelo_inurba_marseille","lat":43.297794,"lon":5.370888,"is_reserved":false,"is_disabled":false,"rental_uris":{"android":"levelo://app?vid=52013ce1-db36-4648-bb2d-1461fc9febda","ios":"levelo://app?vid=52013ce1-db36-4648-bb2d-1461fc9febda"},"vehicle_type_id":"4","last_reported":1711573577,"current_range_meters":0,"station_id":"ce4bgop2rcd13ifvqc1g","pricing_plan_id":"cebpf4jnsgd1na2vs0mg"},{"bike_id":"efcb0ad2-c2ff-46cb-a68d-95d9782c437a","system_id":"levelo_inurba_marseille","lat":43.322872,"lon":5.382756,"is_reserved":false,"is_disabled":false,"rental_uris":{"android":"levelo://app?vid=efcb0ad2-c2ff-46cb-a68d-95d9782c437a","ios":"levelo://app?vid=efcb0ad2-c2ff-46cb-a68d-95d9782c437a"},"vehicle_type_id":"4","last_reported":1711573577,"current_range_meters":18400,"station_id":"ce4bhr12rcd13ifvqhqg","pricing_plan_id":"cebpf4jnsgd1na2vs0mg"},{"bike_id":"b6c42cd8-1860-4743-a6ce-587fe5097cbf","system_id":"levelo_inurba_marseille","lat":43.322872,"lon":5.382756,"is_reserved":false,"is_disabled":false,"rental_uris":{"android":"levelo://app?vid=b6c42cd8-1860-4743-a6ce-587fe5097cbf","ios":"levelo://app?vid=b6c42cd8-1860-4743-a6ce-587fe5097cbf"},"vehicle_type_id":"4","last_reported":1711573577,"current_range_meters":18800,"station_id":"ce4bhr12rcd13ifvqhqg","pricing_plan_id":"cebpf4jnsgd1na2vs0mg"},{"bike_id":"6041fffd-eb34-41a6-b15e-df0a78ebfc20","system_id":"levelo_inurba_marseille","lat":43.297794,"lon":5.370888,"is_reserved":false,"is_disabled":false,"rental_uris":{"android":"levelo://app?vid=6041fffd-eb34-41a6-b15e-df0a78ebfc20","ios":"levelo://app?vid=6041fffd-eb34-41a6-b15e-df0a78ebfc20"},"vehicle_type_id":"4","last_reported":1711573577,"current_range_meters":14400,"station_id":"ce4bgop2rcd13ifvqc1g","pricing_plan_id":"cebpf4jnsgd1na2vs0mg"},{"bike_id":"4d5fc554-058e-46fa-88e3-2adeb8e841f2","system_id":"levelo_inurba_marseille","lat":43.322872,"lon":5.382756,"is_reserved":false,"is_disabled":false,"rental_uris":{"android":"levelo://app?vid=4d5fc554-058e-46fa-88e3-2adeb8e841f2","ios":"levelo://app?vid=4d5fc554-058e-46fa-88e3-2adeb8e841f2"},"vehicle_type_id":"4","last_reported":1711573577,"current_range_meters":23600,"station_id":"ce4bhr12rcd13ifvqhqg","pricing_plan_id":"cebpf4jnsgd1na2vs0mg"},{"bike_id":"52e79442-b547-4772-8646-64aa3d5d19cd","system_id":"levelo_inurba_marseille","lat":43.297774,"lon":5.370875,"is_reserved":false,"is_disabled":false,"rental_uris":{"android":"levelo://app?vid=52e79442-b547-4772-8646-64aa3d5d19cd","ios":"levelo://app?vid=52e79442-b547-4772-8646-64aa3d5d19cd"},"vehicle_type_id":"4","last_reported":1711573577,"current_range_meters":9200,"station_id":"ce4bgop2rcd13ifvqc1g","pricing_plan_id":"cebpf4jnsgd1na2vs0mg"},{"bike_id":"246125ce-ec9f-4bd3-b0ba-33905e792edf","system_id":"levelo_inurba_marseille","lat":43.297163,"lon":5.365866,"is_reserved":false,"is_disabled":false,"rental_uris":{"android":"levelo://app?vid=246125ce-ec9f-4bd3-b0ba-33905e792edf","ios":"levelo://app?vid=246125ce-ec9f-4bd3-b0ba-33905e792edf"},"vehicle_type_id":"4","last_reported":1711573577,"current_range_meters":21600,"station_id":"ce4bgn12rcd13ifvqbt0","pricing_plan_id":"cebpf4jnsgd1na2vs0mg"},{"bike_id":"96512db1-6583-4300-9da7-02bf86aaff5c","system_id":"levelo_inurba_marseille","lat":43.297163,"lon":5.365866,"is_reserved":false,"is_disabled":false,"rental_uris":{"android":"levelo://app?vid=96512db1-6583-4300-9da7-02bf86aaff5c","ios":"levelo://app?vid=96512db1-6583-4300-9da7-02bf86aaff5c"},"vehicle_type_id":"4","last_reported":1711573577,"current_range_meters":4000,"station_id":"ce4bgn12rcd13ifvqbt0","pricing_plan_id":"cebpf4jnsgd1na2vs0mg"},{"bike_id":"0c126592-7025-4739-a0be-b6a83e3b13bb","system_id":"levelo_inurba_marseille","lat":43.297059,"lon":5.365997,"is_reserved":false,"is_disabled":false,"rental_uris":{"android":"levelo://app?vid=0c126592-7025-4739-a0be-b6a83e3b13bb","ios":"levelo://app?vid=0c126592-7025-4739-a0be-b6a83e3b13bb"},"vehicle_type_id":"4","last_reported":1711573577,"current_range_meters":19600,"station_id":"ce4bgn12rcd13ifvqbt0","pricing_plan_id":"cebpf4jnsgd1na2vs0mg"},{"bike_id":"88644c33-e5d8-40ff-8d1f-f68194bc3b3d","system_id":"levelo_inurba_marseille","lat":43.297163,"lon":5.365866,"is_reserved":false,"is_disabled":false,"rental_uris":{"android":"levelo://app?vid=88644c33-e5d8-40ff-8d1f-f68194bc3b3d","ios":"levelo://app?vid=88644c33-e5d8-40ff-8d1f-f68194bc3b3d"},"vehicle_type_id":"4","last_reported":1711573577,"current_range_meters":31600,"station_id":"ce4bgn12rcd13ifvqbt0","pricing_plan_id":"cebpf4jnsgd1na2vs0mg"},{"bike_id":"2ffd6512-1b2f-4631-bf90-97c03c3d644e","system_id":"levelo_inurba_marseille","lat":43.297163,"lon":5.365866,"is_reserved":false,"is_disabled":false,"rental_uris":{"android":"levelo://app?vid=2ffd6512-1b2f-4631-bf90-97c03c3d644e","ios":"levelo://app?vid=2ffd6512-1b2f-4631-bf90-97c03c3d644e"},"vehicle_type_id":"4","last_reported":1711573577,"current_range_meters":26400,"station_id":"ce4bgn12rcd13ifvqbt0","pricing_plan_id":"cebpf4jnsgd1na2vs0mg"},{"bike_id":"41efdf63-3dba-4675-831f-ea8c6391d1b4","system_id":"levelo_inurba_marseille","lat":43.297163,"lon":5.365866,"is_reserved":false,"is_disabled":false,"rental_uris":{"android":"levelo://app?vid=41efdf63-3dba-4675-831f-ea8c6391d1b4","ios":"levelo://app?vid=41efdf63-3dba-4675-831f-ea8c6391d1b4"},"vehicle_type_id":"4","last_reported":1711573577,"current_range_meters":2400,"station_id":"ce4bgn12rcd13ifvqbt0","pricing_plan_id":"cebpf4jnsgd1na2vs0mg"},{"bike_id":"a11b7d06-b7e7-4346-9568-f650c7647da2","system_id":"levelo_inurba_marseille","lat":43.29701,"lon":5.36605,"is_reserved":false,"is_disabled":false,"rental_uris":{"android":"levelo://app?vid=a11b7d06-b7e7-4346-9568-f650c7647da2","ios":"levelo://app?vid=a11b7d06-b7e7-4346-9568-f650c7647da2"},"vehicle_type_id":"4","last_reported":1711573577,"current_range_meters":11200,"station_id":"ce4bgn12rcd13ifvqbt0","pricing_plan_id":"cebpf4jnsgd1na2vs0mg"},{"bike_id":"7629e447-ed2f-4898-958f-dcf2f3b68555","system_id":"levelo_inurba_marseille","lat":43.297163,"lon":5.365866,"is_reserved":false,"is_disabled":false,"rental_uris":{"android":"levelo://app?vid=7629e447-ed2f-4898-958f-dcf2f3b68555","ios":"levelo://app?vid=7629e447-ed2f-4898-958f-dcf2f3b68555"},"vehicle_type_id":"4","last_reported":1711573577,"current_range_meters":23600,"station_id":"ce4bgn12rcd13ifvqbt0","pricing_plan_id":"cebpf4jnsgd1na2vs0mg"},{"bike_id":"d59b6f83-b0c4-4234-a087-d5120326cda5","system_id":"levelo_inurba_marseille","lat":43.296987,"lon":5.365997,"is_reserved":false,"is_disabled":false,"rental_uris":{"android":"levelo://app?vid=d59b6f83-b0c4-4234-a087-d5120326cda5","ios":"levelo://app?vid=d59b6f83-b0c4-4234-a087-d5120326cda5"},"vehicle_type_id":"4","last_reported":1711573577,"current_range_meters":5600,"station_id":"ce4bgn12rcd13ifvqbt0","pricing_plan_id":"cebpf4jnsgd1na2vs0mg"},{"bike_id":"1a7a7322-5fb8-45e3-8900-9566fbb947da","system_id":"levelo_inurba_marseille","lat":43.297163,"lon":5.365866,"is_reserved":false,"is_disabled":false,"rental_uris":{"android":"levelo://app?vid=1a7a7322-5fb8-45e3-8900-9566fbb947da","ios":"levelo://app?vid=1a7a7322-5fb8-45e3-8900-9566fbb947da"},"vehicle_type_id":"4","last_reported":1711573577,"current_range_meters":0,"station_id":"ce4bgn12rcd13ifvqbt0","pricing_plan_id":"cebpf4jnsgd1na2vs0mg"},{"bike_id":"95cf25a0-0a88-4e95-9061-7bc96ba751e5","system_id":"levelo_inurba_marseille","lat":43.296969,"lon":5.366131,"is_reserved":false,"is_disabled":false,"rental_uris":{"android":"levelo://app?vid=95cf25a0-0a88-4e95-9061-7bc96ba751e5","ios":"levelo://app?vid=95cf25a0-0a88-4e95-9061-7bc96ba751e5"},"vehicle_type_id":"4","last_reported":1711573577,"current_range_meters":800,"station_id":"ce4bgn12rcd13ifvqbt0","pricing_plan_id":"cebpf4jnsgd1na2vs0mg"},{"bike_id":"99efa121-b6c1-4368-8fd9-d91b4d1aeff1","system_id":"levelo_inurba_marseille","lat":43.29695,"lon":5.36606,"is_reserved":false,"is_disabled":false,"rental_uris":{"android":"levelo://app?vid=99efa121-b6c1-4368-8fd9-d91b4d1aeff1","ios":"levelo://app?vid=99efa121-b6c1-4368-8fd9-d91b4d1aeff1"},"vehicle_type_id":"4","last_reported":1711573577,"current_range_meters":31200,"station_id":"ce4bgn12rcd13ifvqbt0","pricing_plan_id":"cebpf4jnsgd1na2vs0mg"},{"bike_id":"df1e6ea2-2d2a-4468-bf41-ca2da1e31172","system_id":"levelo_inurba_marseille","lat":43.31556,"lon":5.38842,"is_reserved":false,"is_disabled":false,"rental_uris":{"android":"levelo://app?vid=df1e6ea2-2d2a-4468-bf41-ca2da1e31172","ios":"levelo://app?vid=df1e6ea2-2d2a-4468-bf41-ca2da1e31172"},"vehicle_type_id":"4","last_reported":1711573577,"current_range_meters":2400,"station_id":"","pricing_plan_id":"cebpf4jnsgd1na2vs0mg"},{"bike_id":"dabe3db4-2799-4509-8127-743c9266ea50","system_id":"levelo_inurba_marseille","lat":43.297156,"lon":5.362509,"is_reserved":false,"is_disabled":false,"rental_uris":{"android":"levelo://app?vid=dabe3db4-2799-4509-8127-743c9266ea50","ios":"levelo://app?vid=dabe3db4-2799-4509-8127-743c9266ea50"},"vehicle_type_id":"4","last_reported":1711573577,"current_range_meters":8000,"station_id":"","pricing_plan_id":"cebpf4jnsgd1na2vs0mg"},{"bike_id":"872353d1-d9ed-4235-a176-4e55770587e2","system_id":"levelo_inurba_marseille","lat":43.32792,"lon":5.37491,"is_reserved":false,"is_disabled":false,"rental_uris":{"android":"levelo://app?vid=872353d1-d9ed-4235-a176-4e55770587e2","ios":"levelo://app?vid=872353d1-d9ed-4235-a176-4e55770587e2"},"vehicle_type_id":"4","last_reported":1711573577,"current_range_meters":21200,"station_id":"","pricing_plan_id":"cebpf4jnsgd1na2vs0mg"},{"bike_id":"ecb95aab-cbfd-4570-a3ca-5b72ae36a4ce","system_id":"levelo_inurba_marseille","lat":43.315078,"lon":5.389136,"is_reserved":false,"is_disabled":false,"rental_uris":{"android":"levelo://app?vid=ecb95aab-cbfd-4570-a3ca-5b72ae36a4ce","ios":"levelo://app?vid=ecb95aab-cbfd-4570-a3ca-5b72ae36a4ce"},"vehicle_type_id":"4","last_reported":1711573577,"current_range_meters":6800,"station_id":"","pricing_plan_id":"cebpf4jnsgd1na2vs0mg"},{"bike_id":"72508760-1e51-4f45-a00b-2075d12ef347","system_id":"levelo_inurba_marseille","lat":43.30243,"lon":5.38454,"is_reserved":false,"is_disabled":false,"rental_uris":{"android":"levelo://app?vid=72508760-1e51-4f45-a00b-2075d12ef347","ios":"levelo://app?vid=72508760-1e51-4f45-a00b-2075d12ef347"},"vehicle_type_id":"4","last_reported":1711573577,"current_range_meters":30000,"station_id":"","pricing_plan_id":"cebpf4jnsgd1na2vs0mg"},{"bike_id":"387c5871-9c8c-4011-abf2-6bc4589c7bfb","system_id":"levelo_inurba_marseille","lat":43.2968,"lon":5.37291,"is_reserved":false,"is_disabled":false,"rental_uris":{"android":"levelo://app?vid=387c5871-9c8c-4011-abf2-6bc4589c7bfb","ios":"levelo://app?vid=387c5871-9c8c-4011-abf2-6bc4589c7bfb"},"vehicle_type_id":"4","last_reported":1711573577,"current_range_meters":14400,"station_id":"ce4bgk12rcd13ifvqbj0","pricing_plan_id":"cebpf4jnsgd1na2vs0mg"},{"bike_id":"13b3ca9a-6a94-4024-b612-48e8896fcb44","system_id":"levelo_inurba_marseille","lat":43.2968,"lon":5.37291,"is_reserved":false,"is_disabled":false,"rental_uris":{"android":"levelo://app?vid=13b3ca9a-6a94-4024-b612-48e8896fcb44","ios":"levelo://app?vid=13b3ca9a-6a94-4024-b612-48e8896fcb44"},"vehicle_type_id":"4","last_reported":1711573577,"current_range_meters":8000,"station_id":"ce4bgk12rcd13ifvqbj0","pricing_plan_id":"cebpf4jnsgd1na2vs0mg"},{"bike_id":"275e0f70-72e2-4f20-a68e-76dab6db8134","system_id":"levelo_inurba_marseille","lat":43.29679,"lon":5.37286,"is_reserved":false,"is_disabled":false,"rental_uris":{"android":"levelo://app?vid=275e0f70-72e2-4f20-a68e-76dab6db8134","ios":"levelo://app?vid=275e0f70-72e2-4f20-a68e-76dab6db8134"},"vehicle_type_id":"4","last_reported":1711573577,"current_range_meters":2400,"station_id":"ce4bgk12rcd13ifvqbj0","pricing_plan_id":"cebpf4jnsgd1na2vs0mg"},{"bike_id":"d50375be-6c37-4122-be42-9307023e4160","system_id":"levelo_inurba_marseille","lat":43.296015,"lon":5.367908,"is_reserved":false,"is_disabled":false,"rental_uris":{"android":"levelo://app?vid=d50375be-6c37-4122-be42-9307023e4160","ios":"levelo://app?vid=d50375be-6c37-4122-be42-9307023e4160"},"vehicle_type_id":"4","last_reported":1711573577,"current_range_meters":18800,"station_id":"","pricing_plan_id":"cebpf4jnsgd1na2vs0mg"},{"bike_id":"3c256e79-dce2-4d4a-9711-6ad1407046ec","system_id":"levelo_inurba_marseille","lat":43.295815,"lon":5.36736,"is_reserved":false,"is_disabled":false,"rental_uris":{"android":"levelo://app?vid=3c256e79-dce2-4d4a-9711-6ad1407046ec","ios":"levelo://app?vid=3c256e79-dce2-4d4a-9711-6ad1407046ec"},"vehicle_type_id":"4","last_reported":1711573577,"current_range_meters":2000,"station_id":"ce4bgph2rcd13ifvqc2g","pricing_plan_id":"cebpf4jnsgd1na2vs0mg"},{"bike_id":"75b7fde5-b4b4-41eb-a754-0485b0be4917","system_id":"levelo_inurba_marseille","lat":43.29573,"lon":5.367355,"is_reserved":false,"is_disabled":false,"rental_uris":{"android":"levelo://app?vid=75b7fde5-b4b4-41eb-a754-0485b0be4917","ios":"levelo://app?vid=75b7fde5-b4b4-41eb-a754-0485b0be4917"},"vehicle_type_id":"4","last_reported":1711573577,"current_range_meters":0,"station_id":"ce4bgph2rcd13ifvqc2g","pricing_plan_id":"cebpf4jnsgd1na2vs0mg"},{"bike_id":"be27343c-a8ac-429a-afad-f19848af0732","system_id":"levelo_inurba_marseille","lat":43.296921,"lon":5.376579,"is_reserved":false,"is_disabled":false,"rental_uris":{"android":"levelo://app?vid=be27343c-a8ac-429a-afad-f19848af0732","ios":"levelo://app?vid=be27343c-a8ac-429a-afad-f19848af0732"},"vehicle_type_id":"4","last_reported":1711573577,"current_range_meters":21600,"station_id":"ce4bgkh2rcd13ifvqbl0","pricing_plan_id":"cebpf4jnsgd1na2vs0mg"},{"bike_id":"63c17e93-3d2d-40f5-a98d-3e2fc681b218","system_id":"levelo_inurba_marseille","lat":43.30944,"lon":5.390207,"is_reserved":false,"is_disabled":false,"rental_uris":{"android":"levelo://app?vid=63c17e93-3d2d-40f5-a98d-3e2fc681b218","ios":"levelo://app?vid=63c17e93-3d2d-40f5-a98d-3e2fc681b218"},"vehicle_type_id":"4","last_reported":1711573577,"current_range_meters":10000,"station_id":"ce4bgup2rcd13ifvqco0","pricing_plan_id":"cebpf4jnsgd1na2vs0mg"},{"bike_id":"ed79cd8e-f247-4611-9cb6-57627a1c8a55","system_id":"levelo_inurba_marseille","lat":43.30944,"lon":5.39025,"is_reserved":false,"is_disabled":false,"rental_uris":{"android":"levelo://app?vid=ed79cd8e-f247-4611-9cb6-57627a1c8a55","ios":"levelo://app?vid=ed79cd8e-f247-4611-9cb6-57627a1c8a55"},"vehicle_type_id":"4","last_reported":1711573577,"current_range_meters":24000,"station_id":"ce4bgup2rcd13ifvqco0","pricing_plan_id":"cebpf4jnsgd1na2vs0mg"},{"bike_id":"5b009d79-77d2-46b7-9af1-2f7f19b2ebdf","system_id":"levelo_inurba_marseille","lat":43.299028,"lon":5.381509,"is_reserved":false,"is_disabled":false,"rental_uris":{"android":"levelo://app?vid=5b009d79-77d2-46b7-9af1-2f7f19b2ebdf","ios":"levelo://app?vid=5b009d79-77d2-46b7-9af1-2f7f19b2ebdf"},"vehicle_type_id":"4","last_reported":1711573577,"current_range_meters":9200,"station_id":"ce4bgj12rcd13ifvqbc0","pricing_plan_id":"cebpf4jnsgd1na2vs0mg"},{"bike_id":"9ed64f3c-e070-4df7-a4ed-a2487c8c6c03","system_id":"levelo_inurba_marseille","lat":43.299028,"lon":5.381509,"is_reserved":false,"is_disabled":false,"rental_uris":{"android":"levelo://app?vid=9ed64f3c-e070-4df7-a4ed-a2487c8c6c03","ios":"levelo://app?vid=9ed64f3c-e070-4df7-a4ed-a2487c8c6c03"},"vehicle_type_id":"4","last_reported":1711573577,"current_range_meters":7200,"station_id":"ce4bgj12rcd13ifvqbc0","pricing_plan_id":"cebpf4jnsgd1na2vs0mg"},{"bike_id":"f00b96bd-a28a-4dbf-92fc-ab5e9e38d55d","system_id":"levelo_inurba_marseille","lat":43.309589,"lon":5.390258,"is_reserved":false,"is_disabled":false,"rental_uris":{"android":"levelo://app?vid=f00b96bd-a28a-4dbf-92fc-ab5e9e38d55d","ios":"levelo://app?vid=f00b96bd-a28a-4dbf-92fc-ab5e9e38d55d"},"vehicle_type_id":"4","last_reported":1711573577,"current_range_meters":5600,"station_id":"ce4bgup2rcd13ifvqco0","pricing_plan_id":"cebpf4jnsgd1na2vs0mg"},{"bike_id":"a78d148f-fe79-4812-befb-b12b4c922298","system_id":"levelo_inurba_marseille","lat":43.29696,"lon":5.37708,"is_reserved":false,"is_disabled":false,"rental_uris":{"android":"levelo://app?vid=a78d148f-fe79-4812-befb-b12b4c922298","ios":"levelo://app?vid=a78d148f-fe79-4812-befb-b12b4c922298"},"vehicle_type_id":"4","last_reported":1711573577,"current_range_meters":0,"station_id":"ce4bgkh2rcd13ifvqbl0","pricing_plan_id":"cebpf4jnsgd1na2vs0mg"},{"bike_id":"a268b69d-7432-426e-8b66-1b0383022a05","system_id":"levelo_inurba_marseille","lat":43.317557,"lon":5.390173,"is_reserved":false,"is_disabled":false,"rental_uris":{"android":"levelo://app?vid=a268b69d-7432-426e-8b66-1b0383022a05","ios":"levelo://app?vid=a268b69d-7432-426e-8b66-1b0383022a05"},"vehicle_type_id":"4","last_reported":1711573577,"current_range_meters":20800,"station_id":"ce4bhqp2rcd13ifvqhng","pricing_plan_id":"cebpf4jnsgd1na2vs0mg"},{"bike_id":"a5b3fcbf-da88-4697-89d2-87e6ec805704","system_id":"levelo_inurba_marseille","lat":43.317557,"lon":5.390173,"is_reserved":false,"is_disabled":false,"rental_uris":{"android":"levelo://app?vid=a5b3fcbf-da88-4697-89d2-87e6ec805704","ios":"levelo://app?vid=a5b3fcbf-da88-4697-89d2-87e6ec805704"},"vehicle_type_id":"4","last_reported":1711573577,"current_range_meters":31600,"station_id":"ce4bhqp2rcd13ifvqhng","pricing_plan_id":"cebpf4jnsgd1na2vs0mg"},{"bike_id":"fc8c4556-a4a6-4cfb-baf1-ec1cc0a39a67","system_id":"levelo_inurba_marseille","lat":43.31753,"lon":5.39016,"is_reserved":false,"is_disabled":false,"rental_uris":{"android":"levelo://app?vid=fc8c4556-a4a6-4cfb-baf1-ec1cc0a39a67","ios":"levelo://app?vid=fc8c4556-a4a6-4cfb-baf1-ec1cc0a39a67"},"vehicle_type_id":"4","last_reported":1711573577,"current_range_meters":11200,"station_id":"ce4bhqp2rcd13ifvqhng","pricing_plan_id":"cebpf4jnsgd1na2vs0mg"},{"bike_id":"57a69b6a-3a2a-4c13-a8f6-ce9641278384","system_id":"levelo_inurba_marseille","lat":43.317531,"lon":5.39016,"is_reserved":false,"is_disabled":false,"rental_uris":{"android":"levelo://app?vid=57a69b6a-3a2a-4c13-a8f6-ce9641278384","ios":"levelo://app?vid=57a69b6a-3a2a-4c13-a8f6-ce9641278384"},"vehicle_type_id":"4","last_reported":1711573577,"current_range_meters":3200,"station_id":"ce4bhqp2rcd13ifvqhng","pricing_plan_id":"cebpf4jnsgd1na2vs0mg"},{"bike_id":"77022948-689f-4855-a1f4-6aee6b072702","system_id":"levelo_inurba_marseille","lat":43.31754,"lon":5.39016,"is_reserved":false,"is_disabled":false,"rental_uris":{"android":"levelo://app?vid=77022948-689f-4855-a1f4-6aee6b072702","ios":"levelo://app?vid=77022948-689f-4855-a1f4-6aee6b072702"},"vehicle_type_id":"4","last_reported":1711573577,"current_range_meters":1200,"station_id":"ce4bhqp2rcd13ifvqhng","pricing_plan_id":"cebpf4jnsgd1na2vs0mg"},{"bike_id":"f05cd000-f530-4933-b585-d3d2f814caab","system_id":"levelo_inurba_marseille","lat":43.317557,"lon":5.390173,"is_reserved":false,"is_disabled":false,"rental_uris":{"android":"levelo://app?vid=f05cd000-f530-4933-b585-d3d2f814caab","ios":"levelo://app?vid=f05cd000-f530-4933-b585-d3d2f814caab"},"vehicle_type_id":"4","last_reported":1711573577,"current_range_meters":13600,"station_id":"ce4bhqp2rcd13ifvqhng","pricing_plan_id":"cebpf4jnsgd1na2vs0mg"},{"bike_id":"cba36c81-2b7b-4926-80d5-93bcfeaf0f84","system_id":"levelo_inurba_marseille","lat":43.317557,"lon":5.390173,"is_reserved":false,"is_disabled":false,"rental_uris":{"android":"levelo://app?vid=cba36c81-2b7b-4926-80d5-93bcfeaf0f84","ios":"levelo://app?vid=cba36c81-2b7b-4926-80d5-93bcfeaf0f84"},"vehicle_type_id":"4","last_reported":1711573577,"current_range_meters":20800,"station_id":"ce4bhqp2rcd13ifvqhng","pricing_plan_id":"cebpf4jnsgd1na2vs0mg"},{"bike_id":"8dc10017-74e6-47e7-a7fa-0cf05d29e6ba","system_id":"levelo_inurba_marseille","lat":43.31756,"lon":5.390177,"is_reserved":false,"is_disabled":false,"rental_uris":{"android":"levelo://app?vid=8dc10017-74e6-47e7-a7fa-0cf05d29e6ba","ios":"levelo://app?vid=8dc10017-74e6-47e7-a7fa-0cf05d29e6ba"},"vehicle_type_id":"4","last_reported":1711573577,"current_range_meters":2800,"station_id":"ce4bhqp2rcd13ifvqhng","pricing_plan_id":"cebpf4jnsgd1na2vs0mg"},{"bike_id":"5476f617-6acd-4623-a373-b5da9e3b2d22","system_id":"levelo_inurba_marseille","lat":43.31758,"lon":5.39017,"is_reserved":false,"is_disabled":false,"rental_uris":{"android":"levelo://app?vid=5476f617-6acd-4623-a373-b5da9e3b2d22","ios":"levelo://app?vid=5476f617-6acd-4623-a373-b5da9e3b2d22"},"vehicle_type_id":"4","last_reported":1711573577,"current_range_meters":2800,"station_id":"ce4bhqp2rcd13ifvqhng","pricing_plan_id":"cebpf4jnsgd1na2vs0mg"},{"bike_id":"f5b79fae-5fce-4bcf-8da1-2fba5e49b71a","system_id":"levelo_inurba_marseille","lat":43.31758,"lon":5.39017,"is_reserved":false,"is_disabled":false,"rental_uris":{"android":"levelo://app?vid=f5b79fae-5fce-4bcf-8da1-2fba5e49b71a","ios":"levelo://app?vid=f5b79fae-5fce-4bcf-8da1-2fba5e49b71a"},"vehicle_type_id":"4","last_reported":1711573577,"current_range_meters":22400,"station_id":"ce4bhqp2rcd13ifvqhng","pricing_plan_id":"cebpf4jnsgd1na2vs0mg"},{"bike_id":"addc8db2-f25c-401f-8fe0-bb8c896edaeb","system_id":"levelo_inurba_marseille","lat":43.31753,"lon":5.39019,"is_reserved":false,"is_disabled":false,"rental_uris":{"android":"levelo://app?vid=addc8db2-f25c-401f-8fe0-bb8c896edaeb","ios":"levelo://app?vid=addc8db2-f25c-401f-8fe0-bb8c896edaeb"},"vehicle_type_id":"4","last_reported":1711573577,"current_range_meters":17600,"station_id":"ce4bhqp2rcd13ifvqhng","pricing_plan_id":"cebpf4jnsgd1na2vs0mg"},{"bike_id":"dd81e8f2-2d64-4caa-bc14-6a2a199dfaea","system_id":"levelo_inurba_marseille","lat":43.317557,"lon":5.390173,"is_reserved":false,"is_disabled":false,"rental_uris":{"android":"levelo://app?vid=dd81e8f2-2d64-4caa-bc14-6a2a199dfaea","ios":"levelo://app?vid=dd81e8f2-2d64-4caa-bc14-6a2a199dfaea"},"vehicle_type_id":"4","last_reported":1711573577,"current_range_meters":25600,"station_id":"ce4bhqp2rcd13ifvqhng","pricing_plan_id":"cebpf4jnsgd1na2vs0mg"},{"bike_id":"b2bc132d-80f6-42b1-8bd7-bc67f76456a6","system_id":"levelo_inurba_marseille","lat":43.31759,"lon":5.39019,"is_reserved":false,"is_disabled":false,"rental_uris":{"android":"levelo://app?vid=b2bc132d-80f6-42b1-8bd7-bc67f76456a6","ios":"levelo://app?vid=b2bc132d-80f6-42b1-8bd7-bc67f76456a6"},"vehicle_type_id":"4","last_reported":1711573577,"current_range_meters":27600,"station_id":"ce4bhqp2rcd13ifvqhng","pricing_plan_id":"cebpf4jnsgd1na2vs0mg"},{"bike_id":"fb0ccf83-7c90-4dc6-8e22-f8c4c6f1edb4","system_id":"levelo_inurba_marseille","lat":43.317573,"lon":5.390206,"is_reserved":false,"is_disabled":false,"rental_uris":{"android":"levelo://app?vid=fb0ccf83-7c90-4dc6-8e22-f8c4c6f1edb4","ios":"levelo://app?vid=fb0ccf83-7c90-4dc6-8e22-f8c4c6f1edb4"},"vehicle_type_id":"4","last_reported":1711573577,"current_range_meters":12000,"station_id":"ce4bhqp2rcd13ifvqhng","pricing_plan_id":"cebpf4jnsgd1na2vs0mg"},{"bike_id":"26ff9772-7999-47f8-b30d-e8a6c19e273d","system_id":"levelo_inurba_marseille","lat":43.317593,"lon":5.3902,"is_reserved":false,"is_disabled":false,"rental_uris":{"android":"levelo://app?vid=26ff9772-7999-47f8-b30d-e8a6c19e273d","ios":"levelo://app?vid=26ff9772-7999-47f8-b30d-e8a6c19e273d"},"vehicle_type_id":"4","last_reported":1711573577,"current_range_meters":22400,"station_id":"ce4bhqp2rcd13ifvqhng","pricing_plan_id":"cebpf4jnsgd1na2vs0mg"},{"bike_id":"63d7e23f-6216-414f-8d05-021df6249fa9","system_id":"levelo_inurba_marseille","lat":43.31759,"lon":5.39021,"is_reserved":false,"is_disabled":false,"rental_uris":{"android":"levelo://app?vid=63d7e23f-6216-414f-8d05-021df6249fa9","ios":"levelo://app?vid=63d7e23f-6216-414f-8d05-021df6249fa9"},"vehicle_type_id":"4","last_reported":1711573577,"current_range_meters":22400,"station_id":"ce4bhqp2rcd13ifvqhng","pricing_plan_id":"cebpf4jnsgd1na2vs0mg"},{"bike_id":"a1752a74-432a-497c-9170-fcea32d23589","system_id":"levelo_inurba_marseille","lat":43.29801,"lon":5.38084,"is_reserved":false,"is_disabled":false,"rental_uris":{"android":"levelo://app?vid=a1752a74-432a-497c-9170-fcea32d23589","ios":"levelo://app?vid=a1752a74-432a-497c-9170-fcea32d23589"},"vehicle_type_id":"4","last_reported":1711573577,"current_range_meters":14800,"station_id":"ce4bgip2rcd13ifvqbb0","pricing_plan_id":"cebpf4jnsgd1na2vs0mg"},{"bike_id":"27db8873-4e29-4ba1-ab45-d137fe8d8d62","system_id":"levelo_inurba_marseille","lat":43.29805,"lon":5.38092,"is_reserved":false,"is_disabled":false,"rental_uris":{"android":"levelo://app?vid=27db8873-4e29-4ba1-ab45-d137fe8d8d62","ios":"levelo://app?vid=27db8873-4e29-4ba1-ab45-d137fe8d8d62"},"vehicle_type_id":"4","last_reported":1711573577,"current_range_meters":800,"station_id":"ce4bgip2rcd13ifvqbb0","pricing_plan_id":"cebpf4jnsgd1na2vs0mg"},{"bike_id":"e7afb7c0-de14-4d04-9c51-f55192058e93","system_id":"levelo_inurba_marseille","lat":43.298037,"lon":5.381066,"is_reserved":false,"is_disabled":false,"rental_uris":{"android":"levelo://app?vid=e7afb7c0-de14-4d04-9c51-f55192058e93","ios":"levelo://app?vid=e7afb7c0-de14-4d04-9c51-f55192058e93"},"vehicle_type_id":"4","last_reported":1711573577,"current_range_meters":21200,"station_id":"ce4bgip2rcd13ifvqbb0","pricing_plan_id":"cebpf4jnsgd1na2vs0mg"},{"bike_id":"bd2e81ff-3056-477e-a96b-91602e5c84ef","system_id":"levelo_inurba_marseille","lat":43.29792,"lon":5.38082,"is_reserved":false,"is_disabled":false,"rental_uris":{"android":"levelo://app?vid=bd2e81ff-3056-477e-a96b-91602e5c84ef","ios":"levelo://app?vid=bd2e81ff-3056-477e-a96b-91602e5c84ef"},"vehicle_type_id":"4","last_reported":1711573577,"current_range_meters":0,"station_id":"ce4bgip2rcd13ifvqbb0","pricing_plan_id":"cebpf4jnsgd1na2vs0mg"},{"bike_id":"4822d18d-7e23-4f4d-840a-329d6d37e0c2","system_id":"levelo_inurba_marseille","lat":43.2979,"lon":5.38095,"is_reserved":false,"is_disabled":false,"rental_uris":{"android":"levelo://app?vid=4822d18d-7e23-4f4d-840a-329d6d37e0c2","ios":"levelo://app?vid=4822d18d-7e23-4f4d-840a-329d6d37e0c2"},"vehicle_type_id":"4","last_reported":1711573577,"current_range_meters":0,"station_id":"ce4bgip2rcd13ifvqbb0","pricing_plan_id":"cebpf4jnsgd1na2vs0mg"},{"bike_id":"da5ed266-2f17-4d8a-a80d-e3e5658bfe47","system_id":"levelo_inurba_marseille","lat":43.297896,"lon":5.381028,"is_reserved":false,"is_disabled":false,"rental_uris":{"android":"levelo://app?vid=da5ed266-2f17-4d8a-a80d-e3e5658bfe47","ios":"levelo://app?vid=da5ed266-2f17-4d8a-a80d-e3e5658bfe47"},"vehicle_type_id":"4","last_reported":1711573577,"current_range_meters":6000,"station_id":"ce4bgip2rcd13ifvqbb0","pricing_plan_id":"cebpf4jnsgd1na2vs0mg"},{"bike_id":"22dd8258-80af-4033-8268-ce042849a141","system_id":"levelo_inurba_marseille","lat":43.297933,"lon":5.38111,"is_reserved":false,"is_disabled":false,"rental_uris":{"android":"levelo://app?vid=22dd8258-80af-4033-8268-ce042849a141","ios":"levelo://app?vid=22dd8258-80af-4033-8268-ce042849a141"},"vehicle_type_id":"4","last_reported":1711573577,"current_range_meters":0,"station_id":"ce4bgip2rcd13ifvqbb0","pricing_plan_id":"cebpf4jnsgd1na2vs0mg"},{"bike_id":"4115daa5-a0a7-4bdb-a78c-dfe34ef75906","system_id":"levelo_inurba_marseille","lat":43.304278,"lon":5.388868,"is_reserved":false,"is_disabled":false,"rental_uris":{"android":"levelo://app?vid=4115daa5-a0a7-4bdb-a78c-dfe34ef75906","ios":"levelo://app?vid=4115daa5-a0a7-4bdb-a78c-dfe34ef75906"},"vehicle_type_id":"4","last_reported":1711573577,"current_range_meters":5200,"station_id":"ce4bgk12rcd13ifvqbi0","pricing_plan_id":"cebpf4jnsgd1na2vs0mg"},{"bike_id":"5049e4e1-9cb7-4608-abd0-f04df9d23057","system_id":"levelo_inurba_marseille","lat":43.29569,"lon":5.37519,"is_reserved":false,"is_disabled":false,"rental_uris":{"android":"levelo://app?vid=5049e4e1-9cb7-4608-abd0-f04df9d23057","ios":"levelo://app?vid=5049e4e1-9cb7-4608-abd0-f04df9d23057"},"vehicle_type_id":"4","last_reported":1711573577,"current_range_meters":0,"station_id":"ce4bgh92rcd13ifvqb50","pricing_plan_id":"cebpf4jnsgd1na2vs0mg"},{"bike_id":"0f0d45cf-6186-474d-a23e-37382b2af0f7","system_id":"levelo_inurba_marseille","lat":43.297883,"lon":5.38109,"is_reserved":false,"is_disabled":false,"rental_uris":{"android":"levelo://app?vid=0f0d45cf-6186-474d-a23e-37382b2af0f7","ios":"levelo://app?vid=0f0d45cf-6186-474d-a23e-37382b2af0f7"},"vehicle_type_id":"4","last_reported":1711573577,"current_range_meters":0,"station_id":"ce4bgip2rcd13ifvqbb0","pricing_plan_id":"cebpf4jnsgd1na2vs0mg"},{"bike_id":"cab64ebd-4c96-4fcb-ab0f-0b73fec44f47","system_id":"levelo_inurba_marseille","lat":43.304278,"lon":5.388868,"is_reserved":false,"is_disabled":false,"rental_uris":{"android":"levelo://app?vid=cab64ebd-4c96-4fcb-ab0f-0b73fec44f47","ios":"levelo://app?vid=cab64ebd-4c96-4fcb-ab0f-0b73fec44f47"},"vehicle_type_id":"4","last_reported":1711573577,"current_range_meters":0,"station_id":"ce4bgk12rcd13ifvqbi0","pricing_plan_id":"cebpf4jnsgd1na2vs0mg"},{"bike_id":"84b5cc5e-3cf3-41ae-a490-3f9b6ec96517","system_id":"levelo_inurba_marseille","lat":43.29786,"lon":5.381183,"is_reserved":false,"is_disabled":false,"rental_uris":{"android":"levelo://app?vid=84b5cc5e-3cf3-41ae-a490-3f9b6ec96517","ios":"levelo://app?vid=84b5cc5e-3cf3-41ae-a490-3f9b6ec96517"},"vehicle_type_id":"4","last_reported":1711573577,"current_range_meters":0,"station_id":"ce4bgip2rcd13ifvqbb0","pricing_plan_id":"cebpf4jnsgd1na2vs0mg"},{"bike_id":"75dd1bb0-c1ba-4b35-b6de-41358b29ce88","system_id":"levelo_inurba_marseille","lat":43.309039,"lon":5.371797,"is_reserved":false,"is_disabled":false,"rental_uris":{"android":"levelo://app?vid=75dd1bb0-c1ba-4b35-b6de-41358b29ce88","ios":"levelo://app?vid=75dd1bb0-c1ba-4b35-b6de-41358b29ce88"},"vehicle_type_id":"4","last_reported":1711573577,"current_range_meters":10400,"station_id":"ce4bguh2rcd13ifvqckg","pricing_plan_id":"cebpf4jnsgd1na2vs0mg"},{"bike_id":"711e7b22-cf24-43d5-abcd-880587c15216","system_id":"levelo_inurba_marseille","lat":43.304278,"lon":5.388868,"is_reserved":false,"is_disabled":false,"rental_uris":{"android":"levelo://app?vid=711e7b22-cf24-43d5-abcd-880587c15216","ios":"levelo://app?vid=711e7b22-cf24-43d5-abcd-880587c15216"},"vehicle_type_id":"4","last_reported":1711573577,"current_range_meters":0,"station_id":"ce4bgk12rcd13ifvqbi0","pricing_plan_id":"cebpf4jnsgd1na2vs0mg"},{"bike_id":"6deb9ec1-40b3-4dfe-bffc-b68388a46f6c","system_id":"levelo_inurba_marseille","lat":43.2962,"lon":5.377295,"is_reserved":false,"is_disabled":false,"rental_uris":{"android":"levelo://app?vid=6deb9ec1-40b3-4dfe-bffc-b68388a46f6c","ios":"levelo://app?vid=6deb9ec1-40b3-4dfe-bffc-b68388a46f6c"},"vehicle_type_id":"4","last_reported":1711573577,"current_range_meters":0,"station_id":"ce4bgi92rcd13ifvqb90","pricing_plan_id":"cebpf4jnsgd1na2vs0mg"},{"bike_id":"872da5f1-4d56-43ba-8ff5-063286001d8a","system_id":"levelo_inurba_marseille","lat":43.296263,"lon":5.377094,"is_reserved":false,"is_disabled":false,"rental_uris":{"android":"levelo://app?vid=872da5f1-4d56-43ba-8ff5-063286001d8a","ios":"levelo://app?vid=872da5f1-4d56-43ba-8ff5-063286001d8a"},"vehicle_type_id":"4","last_reported":1711573577,"current_range_meters":11600,"station_id":"ce4bgi92rcd13ifvqb90","pricing_plan_id":"cebpf4jnsgd1na2vs0mg"},{"bike_id":"50aa7c8a-34ee-421e-aab6-516b1f8c0e4c","system_id":"levelo_inurba_marseille","lat":43.298037,"lon":5.381066,"is_reserved":false,"is_disabled":false,"rental_uris":{"android":"levelo://app?vid=50aa7c8a-34ee-421e-aab6-516b1f8c0e4c","ios":"levelo://app?vid=50aa7c8a-34ee-421e-aab6-516b1f8c0e4c"},"vehicle_type_id":"4","last_reported":1711573577,"current_range_meters":2000,"station_id":"ce4bgip2rcd13ifvqbb0","pricing_plan_id":"cebpf4jnsgd1na2vs0mg"},{"bike_id":"29417a5f-1fe4-4d2c-bd84-f22ffa2f0957","system_id":"levelo_inurba_marseille","lat":43.295279,"lon":5.375048,"is_reserved":false,"is_disabled":false,"rental_uris":{"android":"levelo://app?vid=29417a5f-1fe4-4d2c-bd84-f22ffa2f0957","ios":"levelo://app?vid=29417a5f-1fe4-4d2c-bd84-f22ffa2f0957"},"vehicle_type_id":"4","last_reported":1711573577,"current_range_meters":0,"station_id":"ce4bgkp2rcd13ifvqbmg","pricing_plan_id":"cebpf4jnsgd1na2vs0mg"},{"bike_id":"7e402244-c872-4d21-be04-1d394c537a11","system_id":"levelo_inurba_marseille","lat":43.299707,"lon":5.384859,"is_reserved":false,"is_disabled":false,"rental_uris":{"android":"levelo://app?vid=7e402244-c872-4d21-be04-1d394c537a11","ios":"levelo://app?vid=7e402244-c872-4d21-be04-1d394c537a11"},"vehicle_type_id":"4","last_reported":1711573577,"current_range_meters":13600,"station_id":"ce4bgj92rcd13ifvqbd0","pricing_plan_id":"cebpf4jnsgd1na2vs0mg"},{"bike_id":"ebce8e70-8cd5-4273-b125-c92e44b4b034","system_id":"levelo_inurba_marseille","lat":43.299707,"lon":5.384859,"is_reserved":false,"is_disabled":false,"rental_uris":{"android":"levelo://app?vid=ebce8e70-8cd5-4273-b125-c92e44b4b034","ios":"levelo://app?vid=ebce8e70-8cd5-4273-b125-c92e44b4b034"},"vehicle_type_id":"4","last_reported":1711573577,"current_range_meters":30000,"station_id":"ce4bgj92rcd13ifvqbd0","pricing_plan_id":"cebpf4jnsgd1na2vs0mg"},{"bike_id":"0259c3d5-2485-449e-b868-f9b5ca62e9b0","system_id":"levelo_inurba_marseille","lat":43.299707,"lon":5.384859,"is_reserved":false,"is_disabled":false,"rental_uris":{"android":"levelo://app?vid=0259c3d5-2485-449e-b868-f9b5ca62e9b0","ios":"levelo://app?vid=0259c3d5-2485-449e-b868-f9b5ca62e9b0"},"vehicle_type_id":"4","last_reported":1711573577,"current_range_meters":400,"station_id":"ce4bgj92rcd13ifvqbd0","pricing_plan_id":"cebpf4jnsgd1na2vs0mg"},{"bike_id":"7f25946a-5c83-4956-90d9-64df70738619","system_id":"levelo_inurba_marseille","lat":43.299707,"lon":5.384859,"is_reserved":false,"is_disabled":false,"rental_uris":{"android":"levelo://app?vid=7f25946a-5c83-4956-90d9-64df70738619","ios":"levelo://app?vid=7f25946a-5c83-4956-90d9-64df70738619"},"vehicle_type_id":"4","last_reported":1711573577,"current_range_meters":30000,"station_id":"ce4bgj92rcd13ifvqbd0","pricing_plan_id":"cebpf4jnsgd1na2vs0mg"},{"bike_id":"e43ee669-3f19-40f0-8cd5-cf847821de25","system_id":"levelo_inurba_marseille","lat":43.299717,"lon":5.384845,"is_reserved":false,"is_disabled":false,"rental_uris":{"android":"levelo://app?vid=e43ee669-3f19-40f0-8cd5-cf847821de25","ios":"levelo://app?vid=e43ee669-3f19-40f0-8cd5-cf847821de25"},"vehicle_type_id":"4","last_reported":1711573577,"current_range_meters":31200,"station_id":"ce4bgj92rcd13ifvqbd0","pricing_plan_id":"cebpf4jnsgd1na2vs0mg"},{"bike_id":"6f299700-523a-439c-b738-481d3131aac6","system_id":"levelo_inurba_marseille","lat":43.299707,"lon":5.384859,"is_reserved":false,"is_disabled":false,"rental_uris":{"android":"levelo://app?vid=6f299700-523a-439c-b738-481d3131aac6","ios":"levelo://app?vid=6f299700-523a-439c-b738-481d3131aac6"},"vehicle_type_id":"4","last_reported":1711573577,"current_range_meters":28400,"station_id":"ce4bgj92rcd13ifvqbd0","pricing_plan_id":"cebpf4jnsgd1na2vs0mg"},{"bike_id":"0ef3c78d-8fdd-4f1f-905e-96c74bd4f9c4","system_id":"levelo_inurba_marseille","lat":43.299717,"lon":5.384845,"is_reserved":false,"is_disabled":false,"rental_uris":{"android":"levelo://app?vid=0ef3c78d-8fdd-4f1f-905e-96c74bd4f9c4","ios":"levelo://app?vid=0ef3c78d-8fdd-4f1f-905e-96c74bd4f9c4"},"vehicle_type_id":"4","last_reported":1711573577,"current_range_meters":29200,"station_id":"ce4bgj92rcd13ifvqbd0","pricing_plan_id":"cebpf4jnsgd1na2vs0mg"},{"bike_id":"327824e3-71dd-46ee-95a8-8e130258abb5","system_id":"levelo_inurba_marseille","lat":43.295279,"lon":5.375048,"is_reserved":false,"is_disabled":false,"rental_uris":{"android":"levelo://app?vid=327824e3-71dd-46ee-95a8-8e130258abb5","ios":"levelo://app?vid=327824e3-71dd-46ee-95a8-8e130258abb5"},"vehicle_type_id":"4","last_reported":1711573577,"current_range_meters":4400,"station_id":"ce4bgkp2rcd13ifvqbmg","pricing_plan_id":"cebpf4jnsgd1na2vs0mg"},{"bike_id":"d4800751-b3a2-479a-88ad-a07c3c2d4a3b","system_id":"levelo_inurba_marseille","lat":43.299717,"lon":5.384845,"is_reserved":false,"is_disabled":false,"rental_uris":{"android":"levelo://app?vid=d4800751-b3a2-479a-88ad-a07c3c2d4a3b","ios":"levelo://app?vid=d4800751-b3a2-479a-88ad-a07c3c2d4a3b"},"vehicle_type_id":"4","last_reported":1711573577,"current_range_meters":26000,"station_id":"ce4bgj92rcd13ifvqbd0","pricing_plan_id":"cebpf4jnsgd1na2vs0mg"},{"bike_id":"4b74e776-7777-4f78-b4ae-f8abf8dfd103","system_id":"levelo_inurba_marseille","lat":43.299707,"lon":5.384859,"is_reserved":false,"is_disabled":false,"rental_uris":{"android":"levelo://app?vid=4b74e776-7777-4f78-b4ae-f8abf8dfd103","ios":"levelo://app?vid=4b74e776-7777-4f78-b4ae-f8abf8dfd103"},"vehicle_type_id":"4","last_reported":1711573577,"current_range_meters":17600,"station_id":"ce4bgj92rcd13ifvqbd0","pricing_plan_id":"cebpf4jnsgd1na2vs0mg"},{"bike_id":"7abf7e70-9760-4589-a3ec-ff70657e515d","system_id":"levelo_inurba_marseille","lat":43.299717,"lon":5.384845,"is_reserved":false,"is_disabled":false,"rental_uris":{"android":"levelo://app?vid=7abf7e70-9760-4589-a3ec-ff70657e515d","ios":"levelo://app?vid=7abf7e70-9760-4589-a3ec-ff70657e515d"},"vehicle_type_id":"4","last_reported":1711573577,"current_range_meters":29600,"station_id":"ce4bgj92rcd13ifvqbd0","pricing_plan_id":"cebpf4jnsgd1na2vs0mg"},{"bike_id":"89863865-4c70-49d3-9f8d-6fcc7249059e","system_id":"levelo_inurba_marseille","lat":43.299724,"lon":5.384848,"is_reserved":false,"is_disabled":false,"rental_uris":{"android":"levelo://app?vid=89863865-4c70-49d3-9f8d-6fcc7249059e","ios":"levelo://app?vid=89863865-4c70-49d3-9f8d-6fcc7249059e"},"vehicle_type_id":"4","last_reported":1711573577,"current_range_meters":25600,"station_id":"ce4bgj92rcd13ifvqbd0","pricing_plan_id":"cebpf4jnsgd1na2vs0mg"},{"bike_id":"6d1dc2c6-f206-4bf4-b67d-8d8a770132eb","system_id":"levelo_inurba_marseille","lat":43.299724,"lon":5.384848,"is_reserved":false,"is_disabled":false,"rental_uris":{"android":"levelo://app?vid=6d1dc2c6-f206-4bf4-b67d-8d8a770132eb","ios":"levelo://app?vid=6d1dc2c6-f206-4bf4-b67d-8d8a770132eb"},"vehicle_type_id":"4","last_reported":1711573577,"current_range_meters":9200,"station_id":"ce4bgj92rcd13ifvqbd0","pricing_plan_id":"cebpf4jnsgd1na2vs0mg"},{"bike_id":"3ef6fbdf-cbb0-483e-a3f1-e67b6e853636","system_id":"levelo_inurba_marseille","lat":43.29499,"lon":5.37584,"is_reserved":false,"is_disabled":false,"rental_uris":{"android":"levelo://app?vid=3ef6fbdf-cbb0-483e-a3f1-e67b6e853636","ios":"levelo://app?vid=3ef6fbdf-cbb0-483e-a3f1-e67b6e853636"},"vehicle_type_id":"4","last_reported":1711573577,"current_range_meters":0,"station_id":"","pricing_plan_id":"cebpf4jnsgd1na2vs0mg"},{"bike_id":"307e4f70-2805-452f-aead-baf332bb4498","system_id":"levelo_inurba_marseille","lat":43.290327,"lon":5.375711,"is_reserved":false,"is_disabled":false,"rental_uris":{"android":"levelo://app?vid=307e4f70-2805-452f-aead-baf332bb4498","ios":"levelo://app?vid=307e4f70-2805-452f-aead-baf332bb4498"},"vehicle_type_id":"4","last_reported":1711573577,"current_range_meters":3200,"station_id":"ce4bh692rcd13ifvqe90","pricing_plan_id":"cebpf4jnsgd1na2vs0mg"},{"bike_id":"ca627fba-ab51-4aa8-aca4-e3db3fe5da27","system_id":"levelo_inurba_marseille","lat":43.32367,"lon":5.388836,"is_reserved":false,"is_disabled":false,"rental_uris":{"android":"levelo://app?vid=ca627fba-ab51-4aa8-aca4-e3db3fe5da27","ios":"levelo://app?vid=ca627fba-ab51-4aa8-aca4-e3db3fe5da27"},"vehicle_type_id":"4","last_reported":1711573577,"current_range_meters":4400,"station_id":"ce4bhqp2rcd13ifvqhog","pricing_plan_id":"cebpf4jnsgd1na2vs0mg"},{"bike_id":"93a225b3-01b2-46ff-8e47-431c441ad29c","system_id":"levelo_inurba_marseille","lat":43.32367,"lon":5.388836,"is_reserved":false,"is_disabled":false,"rental_uris":{"android":"levelo://app?vid=93a225b3-01b2-46ff-8e47-431c441ad29c","ios":"levelo://app?vid=93a225b3-01b2-46ff-8e47-431c441ad29c"},"vehicle_type_id":"4","last_reported":1711573577,"current_range_meters":14000,"station_id":"ce4bhqp2rcd13ifvqhog","pricing_plan_id":"cebpf4jnsgd1na2vs0mg"},{"bike_id":"690a426c-f215-4841-82e4-6157f33d7704","system_id":"levelo_inurba_marseille","lat":43.29602,"lon":5.381084,"is_reserved":false,"is_disabled":false,"rental_uris":{"android":"levelo://app?vid=690a426c-f215-4841-82e4-6157f33d7704","ios":"levelo://app?vid=690a426c-f215-4841-82e4-6157f33d7704"},"vehicle_type_id":"4","last_reported":1711573577,"current_range_meters":6000,"station_id":"ce4bgl12rcd13ifvqbo0","pricing_plan_id":"cebpf4jnsgd1na2vs0mg"},{"bike_id":"3ed2df49-b2a5-4776-92e1-a1aa558dfb80","system_id":"levelo_inurba_marseille","lat":43.323684,"lon":5.389251,"is_reserved":false,"is_disabled":false,"rental_uris":{"android":"levelo://app?vid=3ed2df49-b2a5-4776-92e1-a1aa558dfb80","ios":"levelo://app?vid=3ed2df49-b2a5-4776-92e1-a1aa558dfb80"},"vehicle_type_id":"4","last_reported":1711573577,"current_range_meters":4000,"station_id":"ce4bhqp2rcd13ifvqhog","pricing_plan_id":"cebpf4jnsgd1na2vs0mg"},{"bike_id":"afeb3508-1802-4257-9e12-6037101da721","system_id":"levelo_inurba_marseille","lat":43.29602,"lon":5.381084,"is_reserved":false,"is_disabled":false,"rental_uris":{"android":"levelo://app?vid=afeb3508-1802-4257-9e12-6037101da721","ios":"levelo://app?vid=afeb3508-1802-4257-9e12-6037101da721"},"vehicle_type_id":"4","last_reported":1711573577,"current_range_meters":0,"station_id":"ce4bgl12rcd13ifvqbo0","pricing_plan_id":"cebpf4jnsgd1na2vs0mg"},{"bike_id":"50fda7f6-2171-4f03-a405-6263fc80a273","system_id":"levelo_inurba_marseille","lat":43.29602,"lon":5.38101,"is_reserved":false,"is_disabled":false,"rental_uris":{"android":"levelo://app?vid=50fda7f6-2171-4f03-a405-6263fc80a273","ios":"levelo://app?vid=50fda7f6-2171-4f03-a405-6263fc80a273"},"vehicle_type_id":"4","last_reported":1711573577,"current_range_meters":4000,"station_id":"ce4bgl12rcd13ifvqbo0","pricing_plan_id":"cebpf4jnsgd1na2vs0mg"},{"bike_id":"ef597b70-0662-466a-95e1-1c7d128110d0","system_id":"levelo_inurba_marseille","lat":43.296044,"lon":5.381074,"is_reserved":false,"is_disabled":false,"rental_uris":{"android":"levelo://app?vid=ef597b70-0662-466a-95e1-1c7d128110d0","ios":"levelo://app?vid=ef597b70-0662-466a-95e1-1c7d128110d0"},"vehicle_type_id":"4","last_reported":1711573577,"current_range_meters":0,"station_id":"ce4bgl12rcd13ifvqbo0","pricing_plan_id":"cebpf4jnsgd1na2vs0mg"},{"bike_id":"6e46690b-cdb5-494d-b785-531ccfeace6e","system_id":"levelo_inurba_marseille","lat":43.295974,"lon":5.380964,"is_reserved":false,"is_disabled":false,"rental_uris":{"android":"levelo://app?vid=6e46690b-cdb5-494d-b785-531ccfeace6e","ios":"levelo://app?vid=6e46690b-cdb5-494d-b785-531ccfeace6e"},"vehicle_type_id":"4","last_reported":1711573577,"current_range_meters":0,"station_id":"ce4bgl12rcd13ifvqbo0","pricing_plan_id":"cebpf4jnsgd1na2vs0mg"},{"bike_id":"d72164f0-3393-4e35-b26b-766e3fbce57a","system_id":"levelo_inurba_marseille","lat":43.32375,"lon":5.38927,"is_reserved":false,"is_disabled":false,"rental_uris":{"android":"levelo://app?vid=d72164f0-3393-4e35-b26b-766e3fbce57a","ios":"levelo://app?vid=d72164f0-3393-4e35-b26b-766e3fbce57a"},"vehicle_type_id":"4","last_reported":1711573577,"current_range_meters":5200,"station_id":"ce4bhqp2rcd13ifvqhog","pricing_plan_id":"cebpf4jnsgd1na2vs0mg"},{"bike_id":"d5e3f637-c5d7-4ae4-ab2d-9df2fe3bb921","system_id":"levelo_inurba_marseille","lat":43.32367,"lon":5.388836,"is_reserved":false,"is_disabled":false,"rental_uris":{"android":"levelo://app?vid=d5e3f637-c5d7-4ae4-ab2d-9df2fe3bb921","ios":"levelo://app?vid=d5e3f637-c5d7-4ae4-ab2d-9df2fe3bb921"},"vehicle_type_id":"4","last_reported":1711573577,"current_range_meters":20000,"station_id":"ce4bhqp2rcd13ifvqhog","pricing_plan_id":"cebpf4jnsgd1na2vs0mg"},{"bike_id":"c3357c7a-2a5a-486d-87a2-ee34856a38fe","system_id":"levelo_inurba_marseille","lat":43.29602,"lon":5.381084,"is_reserved":false,"is_disabled":false,"rental_uris":{"android":"levelo://app?vid=c3357c7a-2a5a-486d-87a2-ee34856a38fe","ios":"levelo://app?vid=c3357c7a-2a5a-486d-87a2-ee34856a38fe"},"vehicle_type_id":"4","last_reported":1711573577,"current_range_meters":14800,"station_id":"ce4bgl12rcd13ifvqbo0","pricing_plan_id":"cebpf4jnsgd1na2vs0mg"},{"bike_id":"fe32ef76-d925-457d-b9a4-1b271a03feaf","system_id":"levelo_inurba_marseille","lat":43.29602,"lon":5.381084,"is_reserved":false,"is_disabled":false,"rental_uris":{"android":"levelo://app?vid=fe32ef76-d925-457d-b9a4-1b271a03feaf","ios":"levelo://app?vid=fe32ef76-d925-457d-b9a4-1b271a03feaf"},"vehicle_type_id":"4","last_reported":1711573577,"current_range_meters":10000,"station_id":"ce4bgl12rcd13ifvqbo0","pricing_plan_id":"cebpf4jnsgd1na2vs0mg"},{"bike_id":"6ad960f0-db0b-495e-ad09-f657638baab0","system_id":"levelo_inurba_marseille","lat":43.29602,"lon":5.381084,"is_reserved":false,"is_disabled":false,"rental_uris":{"android":"levelo://app?vid=6ad960f0-db0b-495e-ad09-f657638baab0","ios":"levelo://app?vid=6ad960f0-db0b-495e-ad09-f657638baab0"},"vehicle_type_id":"4","last_reported":1711573577,"current_range_meters":19200,"station_id":"ce4bgl12rcd13ifvqbo0","pricing_plan_id":"cebpf4jnsgd1na2vs0mg"},{"bike_id":"6c4690d5-cd0f-49a7-b4e1-f718225def11","system_id":"levelo_inurba_marseille","lat":43.29602,"lon":5.381084,"is_reserved":false,"is_disabled":false,"rental_uris":{"android":"levelo://app?vid=6c4690d5-cd0f-49a7-b4e1-f718225def11","ios":"levelo://app?vid=6c4690d5-cd0f-49a7-b4e1-f718225def11"},"vehicle_type_id":"4","last_reported":1711573577,"current_range_meters":0,"station_id":"ce4bgl12rcd13ifvqbo0","pricing_plan_id":"cebpf4jnsgd1na2vs0mg"},{"bike_id":"b714a95e-5eeb-4b6f-b5c4-dd53b3dffc8e","system_id":"levelo_inurba_marseille","lat":43.293259,"lon":5.371586,"is_reserved":false,"is_disabled":false,"rental_uris":{"android":"levelo://app?vid=b714a95e-5eeb-4b6f-b5c4-dd53b3dffc8e","ios":"levelo://app?vid=b714a95e-5eeb-4b6f-b5c4-dd53b3dffc8e"},"vehicle_type_id":"4","last_reported":1711573577,"current_range_meters":9200,"station_id":"ce4bgh92rcd13ifvqb40","pricing_plan_id":"cebpf4jnsgd1na2vs0mg"},{"bike_id":"897f6ca3-7d00-4d00-8cf8-687f5fc94d0a","system_id":"levelo_inurba_marseille","lat":43.293259,"lon":5.371586,"is_reserved":false,"is_disabled":false,"rental_uris":{"android":"levelo://app?vid=897f6ca3-7d00-4d00-8cf8-687f5fc94d0a","ios":"levelo://app?vid=897f6ca3-7d00-4d00-8cf8-687f5fc94d0a"},"vehicle_type_id":"4","last_reported":1711573577,"current_range_meters":4800,"station_id":"ce4bgh92rcd13ifvqb40","pricing_plan_id":"cebpf4jnsgd1na2vs0mg"},{"bike_id":"c578b163-5b01-4b2e-aad5-1a6e6d61fcb8","system_id":"levelo_inurba_marseille","lat":43.293259,"lon":5.371586,"is_reserved":false,"is_disabled":false,"rental_uris":{"android":"levelo://app?vid=c578b163-5b01-4b2e-aad5-1a6e6d61fcb8","ios":"levelo://app?vid=c578b163-5b01-4b2e-aad5-1a6e6d61fcb8"},"vehicle_type_id":"4","last_reported":1711573577,"current_range_meters":1600,"station_id":"ce4bgh92rcd13ifvqb40","pricing_plan_id":"cebpf4jnsgd1na2vs0mg"},{"bike_id":"7dbeb971-a8a0-4664-8a88-e582b113cc4d","system_id":"levelo_inurba_marseille","lat":43.293259,"lon":5.371586,"is_reserved":false,"is_disabled":false,"rental_uris":{"android":"levelo://app?vid=7dbeb971-a8a0-4664-8a88-e582b113cc4d","ios":"levelo://app?vid=7dbeb971-a8a0-4664-8a88-e582b113cc4d"},"vehicle_type_id":"4","last_reported":1711573577,"current_range_meters":5200,"station_id":"ce4bgh92rcd13ifvqb40","pricing_plan_id":"cebpf4jnsgd1na2vs0mg"},{"bike_id":"a55502f8-0fb6-4f62-b367-75c8d6372ec9","system_id":"levelo_inurba_marseille","lat":43.292749,"lon":5.368402,"is_reserved":false,"is_disabled":false,"rental_uris":{"android":"levelo://app?vid=a55502f8-0fb6-4f62-b367-75c8d6372ec9","ios":"levelo://app?vid=a55502f8-0fb6-4f62-b367-75c8d6372ec9"},"vehicle_type_id":"4","last_reported":1711573577,"current_range_meters":4400,"station_id":"ce4bhbp2rcd13ifvqesg","pricing_plan_id":"cebpf4jnsgd1na2vs0mg"},{"bike_id":"0e70a747-a9cc-41d2-9b40-63a66899a7a0","system_id":"levelo_inurba_marseille","lat":43.293259,"lon":5.371586,"is_reserved":false,"is_disabled":false,"rental_uris":{"android":"levelo://app?vid=0e70a747-a9cc-41d2-9b40-63a66899a7a0","ios":"levelo://app?vid=0e70a747-a9cc-41d2-9b40-63a66899a7a0"},"vehicle_type_id":"4","last_reported":1711573577,"current_range_meters":17600,"station_id":"ce4bgh92rcd13ifvqb40","pricing_plan_id":"cebpf4jnsgd1na2vs0mg"},{"bike_id":"5053e9e7-dc0f-40d2-9944-a9677e7f845d","system_id":"levelo_inurba_marseille","lat":43.29602,"lon":5.381084,"is_reserved":false,"is_disabled":false,"rental_uris":{"android":"levelo://app?vid=5053e9e7-dc0f-40d2-9944-a9677e7f845d","ios":"levelo://app?vid=5053e9e7-dc0f-40d2-9944-a9677e7f845d"},"vehicle_type_id":"4","last_reported":1711573577,"current_range_meters":25200,"station_id":"ce4bgl12rcd13ifvqbo0","pricing_plan_id":"cebpf4jnsgd1na2vs0mg"},{"bike_id":"17b74c2b-2fc1-443e-b5c0-7831b64701f7","system_id":"levelo_inurba_marseille","lat":43.29267,"lon":5.3685,"is_reserved":false,"is_disabled":false,"rental_uris":{"android":"levelo://app?vid=17b74c2b-2fc1-443e-b5c0-7831b64701f7","ios":"levelo://app?vid=17b74c2b-2fc1-443e-b5c0-7831b64701f7"},"vehicle_type_id":"4","last_reported":1711573577,"current_range_meters":0,"station_id":"ce4bhbp2rcd13ifvqesg","pricing_plan_id":"cebpf4jnsgd1na2vs0mg"},{"bike_id":"473b49aa-c607-476a-b102-cc5de6702521","system_id":"levelo_inurba_marseille","lat":43.29266,"lon":5.36841,"is_reserved":false,"is_disabled":false,"rental_uris":{"android":"levelo://app?vid=473b49aa-c607-476a-b102-cc5de6702521","ios":"levelo://app?vid=473b49aa-c607-476a-b102-cc5de6702521"},"vehicle_type_id":"4","last_reported":1711573577,"current_range_meters":9200,"station_id":"ce4bhbp2rcd13ifvqesg","pricing_plan_id":"cebpf4jnsgd1na2vs0mg"},{"bike_id":"45d28e7e-42d0-4844-9145-57373fa0938b","system_id":"levelo_inurba_marseille","lat":43.292749,"lon":5.368402,"is_reserved":false,"is_disabled":false,"rental_uris":{"android":"levelo://app?vid=45d28e7e-42d0-4844-9145-57373fa0938b","ios":"levelo://app?vid=45d28e7e-42d0-4844-9145-57373fa0938b"},"vehicle_type_id":"4","last_reported":1711573577,"current_range_meters":3200,"station_id":"ce4bhbp2rcd13ifvqesg","pricing_plan_id":"cebpf4jnsgd1na2vs0mg"},{"bike_id":"1c58f5d4-f200-421a-ad7a-dfcf539852e0","system_id":"levelo_inurba_marseille","lat":43.293009,"lon":5.374584,"is_reserved":false,"is_disabled":false,"rental_uris":{"android":"levelo://app?vid=1c58f5d4-f200-421a-ad7a-dfcf539852e0","ios":"levelo://app?vid=1c58f5d4-f200-421a-ad7a-dfcf539852e0"},"vehicle_type_id":"4","last_reported":1711573577,"current_range_meters":23600,"station_id":"ce4bgi12rcd13ifvqb70","pricing_plan_id":"cebpf4jnsgd1na2vs0mg"},{"bike_id":"687262ea-2973-4124-928e-eac4360fe5d1","system_id":"levelo_inurba_marseille","lat":43.305994,"lon":5.393687,"is_reserved":false,"is_disabled":false,"rental_uris":{"android":"levelo://app?vid=687262ea-2973-4124-928e-eac4360fe5d1","ios":"levelo://app?vid=687262ea-2973-4124-928e-eac4360fe5d1"},"vehicle_type_id":"4","last_reported":1711573577,"current_range_meters":24800,"station_id":"ce4bh0p2rcd13ifvqd80","pricing_plan_id":"cebpf4jnsgd1na2vs0mg"},{"bike_id":"f35e9ca7-88a5-4c80-90e4-6a41987c4149","system_id":"levelo_inurba_marseille","lat":43.305986,"lon":5.393602,"is_reserved":false,"is_disabled":false,"rental_uris":{"android":"levelo://app?vid=f35e9ca7-88a5-4c80-90e4-6a41987c4149","ios":"levelo://app?vid=f35e9ca7-88a5-4c80-90e4-6a41987c4149"},"vehicle_type_id":"4","last_reported":1711573577,"current_range_meters":0,"station_id":"ce4bh0p2rcd13ifvqd80","pricing_plan_id":"cebpf4jnsgd1na2vs0mg"},{"bike_id":"daa77cc7-e8b6-4fa3-a1cf-5ed65303491c","system_id":"levelo_inurba_marseille","lat":43.305994,"lon":5.393687,"is_reserved":false,"is_disabled":false,"rental_uris":{"android":"levelo://app?vid=daa77cc7-e8b6-4fa3-a1cf-5ed65303491c","ios":"levelo://app?vid=daa77cc7-e8b6-4fa3-a1cf-5ed65303491c"},"vehicle_type_id":"4","last_reported":1711573577,"current_range_meters":22800,"station_id":"ce4bh0p2rcd13ifvqd80","pricing_plan_id":"cebpf4jnsgd1na2vs0mg"},{"bike_id":"da4a39c2-2123-4be4-8685-9aec1250c491","system_id":"levelo_inurba_marseille","lat":43.292906,"lon":5.374543,"is_reserved":false,"is_disabled":false,"rental_uris":{"android":"levelo://app?vid=da4a39c2-2123-4be4-8685-9aec1250c491","ios":"levelo://app?vid=da4a39c2-2123-4be4-8685-9aec1250c491"},"vehicle_type_id":"4","last_reported":1711573577,"current_range_meters":0,"station_id":"ce4bgi12rcd13ifvqb70","pricing_plan_id":"cebpf4jnsgd1na2vs0mg"},{"bike_id":"9035c3e5-b5d4-40b0-87bc-469cd804d30f","system_id":"levelo_inurba_marseille","lat":43.305994,"lon":5.393687,"is_reserved":false,"is_disabled":false,"rental_uris":{"android":"levelo://app?vid=9035c3e5-b5d4-40b0-87bc-469cd804d30f","ios":"levelo://app?vid=9035c3e5-b5d4-40b0-87bc-469cd804d30f"},"vehicle_type_id":"4","last_reported":1711573577,"current_range_meters":2800,"station_id":"ce4bh0p2rcd13ifvqd80","pricing_plan_id":"cebpf4jnsgd1na2vs0mg"},{"bike_id":"e67d8b24-0ba0-4bf5-a1bf-786962199416","system_id":"levelo_inurba_marseille","lat":43.293009,"lon":5.374584,"is_reserved":false,"is_disabled":false,"rental_uris":{"android":"levelo://app?vid=e67d8b24-0ba0-4bf5-a1bf-786962199416","ios":"levelo://app?vid=e67d8b24-0ba0-4bf5-a1bf-786962199416"},"vehicle_type_id":"4","last_reported":1711573577,"current_range_meters":0,"station_id":"ce4bgi12rcd13ifvqb70","pricing_plan_id":"cebpf4jnsgd1na2vs0mg"},{"bike_id":"accd97ff-32c9-42f5-b708-7e06c828c46b","system_id":"levelo_inurba_marseille","lat":43.302992,"lon":5.392136,"is_reserved":false,"is_disabled":false,"rental_uris":{"android":"levelo://app?vid=accd97ff-32c9-42f5-b708-7e06c828c46b","ios":"levelo://app?vid=accd97ff-32c9-42f5-b708-7e06c828c46b"},"vehicle_type_id":"4","last_reported":1711573577,"current_range_meters":0,"station_id":"ce4bgkh2rcd13ifvqbk0","pricing_plan_id":"cebpf4jnsgd1na2vs0mg"},{"bike_id":"4bccf6e8-7e77-409f-97c4-247a86f13f9f","system_id":"levelo_inurba_marseille","lat":43.302992,"lon":5.392136,"is_reserved":false,"is_disabled":false,"rental_uris":{"android":"levelo://app?vid=4bccf6e8-7e77-409f-97c4-247a86f13f9f","ios":"levelo://app?vid=4bccf6e8-7e77-409f-97c4-247a86f13f9f"},"vehicle_type_id":"4","last_reported":1711573577,"current_range_meters":0,"station_id":"ce4bgkh2rcd13ifvqbk0","pricing_plan_id":"cebpf4jnsgd1na2vs0mg"},{"bike_id":"cb9d9cf2-21c9-4c99-9bfb-d31488bdc97d","system_id":"levelo_inurba_marseille","lat":43.302992,"lon":5.392136,"is_reserved":false,"is_disabled":false,"rental_uris":{"android":"levelo://app?vid=cb9d9cf2-21c9-4c99-9bfb-d31488bdc97d","ios":"levelo://app?vid=cb9d9cf2-21c9-4c99-9bfb-d31488bdc97d"},"vehicle_type_id":"4","last_reported":1711573577,"current_range_meters":28800,"station_id":"ce4bgkh2rcd13ifvqbk0","pricing_plan_id":"cebpf4jnsgd1na2vs0mg"},{"bike_id":"0b08bef9-9b90-4a8a-854d-cb7573fe0512","system_id":"levelo_inurba_marseille","lat":43.293713,"lon":5.378589,"is_reserved":false,"is_disabled":false,"rental_uris":{"android":"levelo://app?vid=0b08bef9-9b90-4a8a-854d-cb7573fe0512","ios":"levelo://app?vid=0b08bef9-9b90-4a8a-854d-cb7573fe0512"},"vehicle_type_id":"4","last_reported":1711573577,"current_range_meters":0,"station_id":"ce4bgjh2rcd13ifvqbf0","pricing_plan_id":"cebpf4jnsgd1na2vs0mg"},{"bike_id":"f6d018f9-b8d9-4323-adfc-0c1928b0ae29","system_id":"levelo_inurba_marseille","lat":43.2936,"lon":5.37835,"is_reserved":false,"is_disabled":false,"rental_uris":{"android":"levelo://app?vid=f6d018f9-b8d9-4323-adfc-0c1928b0ae29","ios":"levelo://app?vid=f6d018f9-b8d9-4323-adfc-0c1928b0ae29"},"vehicle_type_id":"4","last_reported":1711573577,"current_range_meters":9200,"station_id":"ce4bgjh2rcd13ifvqbf0","pricing_plan_id":"cebpf4jnsgd1na2vs0mg"},{"bike_id":"2631ffde-d917-461e-b3ac-9f103d4c37aa","system_id":"levelo_inurba_marseille","lat":43.292311,"lon":5.360731,"is_reserved":false,"is_disabled":false,"rental_uris":{"android":"levelo://app?vid=2631ffde-d917-461e-b3ac-9f103d4c37aa","ios":"levelo://app?vid=2631ffde-d917-461e-b3ac-9f103d4c37aa"},"vehicle_type_id":"4","last_reported":1711573577,"current_range_meters":8000,"station_id":"ce4bhbh2rcd13ifvqeqg","pricing_plan_id":"cebpf4jnsgd1na2vs0mg"},{"bike_id":"6fff559e-7bbc-4d4c-a88c-3d4acec6e280","system_id":"levelo_inurba_marseille","lat":43.300852,"lon":5.390859,"is_reserved":false,"is_disabled":false,"rental_uris":{"android":"levelo://app?vid=6fff559e-7bbc-4d4c-a88c-3d4acec6e280","ios":"levelo://app?vid=6fff559e-7bbc-4d4c-a88c-3d4acec6e280"},"vehicle_type_id":"4","last_reported":1711573577,"current_range_meters":26800,"station_id":"ce4bh192rcd13ifvqdb0","pricing_plan_id":"cebpf4jnsgd1na2vs0mg"},{"bike_id":"c8398d68-7b2c-4dfd-85ee-55e444a50c7a","system_id":"levelo_inurba_marseille","lat":43.292217,"lon":5.360499,"is_reserved":false,"is_disabled":false,"rental_uris":{"android":"levelo://app?vid=c8398d68-7b2c-4dfd-85ee-55e444a50c7a","ios":"levelo://app?vid=c8398d68-7b2c-4dfd-85ee-55e444a50c7a"},"vehicle_type_id":"4","last_reported":1711573577,"current_range_meters":0,"station_id":"ce4bhbh2rcd13ifvqeqg","pricing_plan_id":"cebpf4jnsgd1na2vs0mg"},{"bike_id":"594333b5-a29b-4df5-8723-a3f14c5d10e3","system_id":"levelo_inurba_marseille","lat":43.29214,"lon":5.3606,"is_reserved":false,"is_disabled":false,"rental_uris":{"android":"levelo://app?vid=594333b5-a29b-4df5-8723-a3f14c5d10e3","ios":"levelo://app?vid=594333b5-a29b-4df5-8723-a3f14c5d10e3"},"vehicle_type_id":"4","last_reported":1711573577,"current_range_meters":0,"station_id":"ce4bhbh2rcd13ifvqeqg","pricing_plan_id":"cebpf4jnsgd1na2vs0mg"},{"bike_id":"7edbd932-e0c6-4c17-bfb1-f1fdc7e17745","system_id":"levelo_inurba_marseille","lat":43.298764,"lon":5.388973,"is_reserved":false,"is_disabled":false,"rental_uris":{"android":"levelo://app?vid=7edbd932-e0c6-4c17-bfb1-f1fdc7e17745","ios":"levelo://app?vid=7edbd932-e0c6-4c17-bfb1-f1fdc7e17745"},"vehicle_type_id":"4","last_reported":1711573577,"current_range_meters":8800,"station_id":"ce4bh392rcd13ifvqdl0","pricing_plan_id":"cebpf4jnsgd1na2vs0mg"},