{"last_updated":1752099032,"ttl":60,"version":"2.2","data":{"bikes":[{"bike_id":"cd20cfea-2f2f-444d-a882-a49b6cf370eb","system_id":"levelo_inurba_marseille","lat":43.337444,"lon":5.374475,"is_reserved":false,"is_disabled":true,"rental_uris":{"android":"levelo://app?vid=cd20cfea-2f2f-444d-a882-a49b6cf370eb","ios":"levelo://app?vid=cd20cfea-2f2f-444d-a882-a49b6cf370eb"},"vehicle_type_id":"4","last_reported":1752099033,"current_range_meters":0,"station_id":"","pricing_plan_id":"cebpf4jnsgd1na2vs0mg"},{"bike_id":"3da29fb8-fc97-44c6-b9ac-31dd456b2fd4","system_id":"levelo_inurba_marseille","lat":43.33771,"lon":5.37424,"is_reserved":false,"is_disabled":true,"rental_uris":{"android":"levelo://app?vid=3da29fb8-fc97-44c6-b9ac-31dd456b2fd4","ios":"levelo://app?vid=3da29fb8-fc97-44c6-b9ac-31dd456b2fd4"},"vehicle_type_id":"4","last_reported":1752099033,"current_range_meters":0,"station_id":"","pricing_plan_id":"cebpf4jnsgd1na2vs0mg"},{"bike_id":"01861ad8-a8d7-4be6-816e-651927c87584","system_id":"levelo_inurba_marseille","lat":43.33751,"lon":5.37456,"is_reserved":false,"is_disabled":true,"rental_uris":{"android":"levelo://app?vid=01861ad8-a8d7-4be6-816e-651927c87584","ios":"levelo://app?vid=01861ad8-a8d7-4be6-816e-651927c87584"},"vehicle_type_id":"4","last_reported":1752099033,"current_range_meters":0,"station_id":"","pricing_plan_id":"cebpf4jnsgd1na2vs0mg"},{"bike_id":"53b1a31e-8ada-40c0-8d64-113a81233c84","system_id":"levelo_inurba_marseille","lat":43.364028,"lon":5.319414,"is_reserved":false,"is_disabled":true,"rental_uris":{"android":"levelo://app?vid=53b1a31e-8ada-40c0-8d64-113a81233c84","ios":"levelo://app?vid=53b1a31e-8ada-40c0-8d64-113a81233c84"},"vehicle_type_id":"4","last_reported":1752099033,"current_range_meters":0,"station_id":"","pricing_plan_id":"cebpf4jnsgd1na2vs0mg"},{"bike_id":"5f48da57-8286-42b0-920d-27c192f63e9b","system_id":"levelo_inurba_marseille","lat":43.28001,"lon":5.40025,"is_reserved":false,"is_disabled":true,"rental_uris":{"android":"levelo://app?vid=5f48da57-8286-42b0-920d-27c192f63e9b","ios":"levelo://app?vid=5f48da57-8286-42b0-920d-27c192f63e9b"},"vehicle_type_id":"4","last_reported":1752099033,"current_range_meters":0,"station_id":"ce4bho92rcd13ifvqh4g","pricing_plan_id":"cebpf4jnsgd1na2vs0mg"},{"bike_id":"955f4e41-ddae-4a4d-8a18-744acb26c613","system_id":"levelo_inurba_marseille","lat":43.317184,"lon":5.423957,"is_reserved":false,"is_disabled":true,"rental_uris":{"android":"levelo://app?vid=955f4e41-ddae-4a4d-8a18-744acb26c613","ios":"levelo://app?vid=955f4e41-ddae-4a4d-8a18-744acb26c613"},"vehicle_type_id":"4","last_reported":1752099033,"current_range_meters":0,"station_id":"ce4bhp92rcd13ifvqhbg","pricing_plan_id":"cebpf4jnsgd1na2vs0mg"},{"bike_id":"ae97968a-7d56-4813-b735-613047f4810e","system_id":"levelo_inurba_marseille","lat":43.31888,"lon":5.40745,"is_reserved":false,"is_disabled":true,"rental_uris":{"android":"levelo://app?vid=ae97968a-7d56-4813-b735-613047f4810e","ios":"levelo://app?vid=ae97968a-7d56-4813-b735-613047f4810e"},"vehicle_type_id":"4","last_reported":1752099033,"current_range_meters":0,"station_id":"ce4bhq12rcd13ifvqhig","pricing_plan_id":"cebpf4jnsgd1na2vs0mg"},{"bike_id":"e562ad4e-a577-4b7b-a74e-7e00b9c0f52f","system_id":"levelo_inurba_marseille","lat":43.225027,"lon":5.347812,"is_reserved":false,"is_disabled":true,"rental_uris":{"android":"levelo://app?vid=e562ad4e-a577-4b7b-a74e-7e00b9c0f52f","ios":"levelo://app?vid=e562ad4e-a577-4b7b-a74e-7e00b9c0f52f"},"vehicle_type_id":"4","last_reported":1752099033,"current_range_meters":0,"station_id":"st_cvj5dfep6f1abm77gieg","pricing_plan_id":"cebpf4jnsgd1na2vs0mg"},{"bike_id":"9dbe87cc-21c9-4b6c-952c-c09e35887f80","system_id":"levelo_inurba_marseille","lat":43.217379,"lon":5.346202,"is_reserved":false,"is_disabled":true,"rental_uris":{"android":"levelo://app?vid=9dbe87cc-21c9-4b6c-952c-c09e35887f80","ios":"levelo://app?vid=9dbe87cc-21c9-4b6c-952c-c09e35887f80"},"vehicle_type_id":"4","last_reported":1752099033,"current_range_meters":0,"station_id":"st_cvj6r9ubvosntc0bgbag","pricing_plan_id":"cebpf4jnsgd1na2vs0mg"},{"bike_id":"336eaf6b-6955-4ef9-8dfa-abf06b057d2c","system_id":"levelo_inurba_marseille","lat":43.21187,"lon":5.35089,"is_reserved":false,"is_disabled":true,"rental_uris":{"android":"levelo://app?vid=336eaf6b-6955-4ef9-8dfa-abf06b057d2c","ios":"levelo://app?vid=336eaf6b-6955-4ef9-8dfa-abf06b057d2c"},"vehicle_type_id":"4","last_reported":1752099033,"current_range_meters":0,"station_id":"st_cvj6sg6p6f1abm77japg","pricing_plan_id":"cebpf4jnsgd1na2vs0mg"},{"bike_id":"6661cbd2-6ba2-4b46-b15e-1188df0f29d7","system_id":"levelo_inurba_marseille","lat":43.2115,"lon":5.3509,"is_reserved":false,"is_disabled":true,"rental_uris":{"android":"levelo://app?vid=6661cbd2-6ba2-4b46-b15e-1188df0f29d7","ios":"levelo://app?vid=6661cbd2-6ba2-4b46-b15e-1188df0f29d7"},"vehicle_type_id":"4","last_reported":1752099033,"current_range_meters":0,"station_id":"st_cvj6sg6p6f1abm77japg","pricing_plan_id":"cebpf4jnsgd1na2vs0mg"},{"bike_id":"5745f131-cd4a-4ac9-bdc2-7385b3c3e0a5","system_id":"levelo_inurba_marseille","lat":43.21761,"lon":5.34579,"is_reserved":false,"is_disabled":true,"rental_uris":{"android":"levelo://app?vid=5745f131-cd4a-4ac9-bdc2-7385b3c3e0a5","ios":"levelo://app?vid=5745f131-cd4a-4ac9-bdc2-7385b3c3e0a5"},"vehicle_type_id":"4","last_reported":1752099033,"current_range_meters":400,"station_id":"st_cvj6r9ubvosntc0bgbag","pricing_plan_id":"cebpf4jnsgd1na2vs0mg"},{"bike_id":"2581b7c5-1b42-4417-a9e6-cbdbedb7a2dd","system_id":"levelo_inurba_marseille","lat":43.21746,"lon":5.34623,"is_reserved":false,"is_disabled":true,"rental_uris":{"android":"levelo://app?vid=2581b7c5-1b42-4417-a9e6-cbdbedb7a2dd","ios":"levelo://app?vid=2581b7c5-1b42-4417-a9e6-cbdbedb7a2dd"},"vehicle_type_id":"4","last_reported":1752099033,"current_range_meters":400,"station_id":"st_cvj6r9ubvosntc0bgbag","pricing_plan_id":"cebpf4jnsgd1na2vs0mg"},{"bike_id":"b8fcd1b8-e383-4c4c-a466-f8393a965939","system_id":"levelo_inurba_marseille","lat":43.21746,"lon":5.3463,"is_reserved":false,"is_disabled":true,"rental_uris":{"android":"levelo://app?vid=b8fcd1b8-e383-4c4c-a466-f8393a965939","ios":"levelo://app?vid=b8fcd1b8-e383-4c4c-a466-f8393a965939"},"vehicle_type_id":"4","last_reported":1752099033,"current_range_meters":800,"station_id":"","pricing_plan_id":"cebpf4jnsgd1na2vs0mg"},{"bike_id":"1ea0c8b2-dd75-4652-93f9-17477178d458","system_id":"levelo_inurba_marseille","lat":43.25498,"lon":5.37652,"is_reserved":false,"is_disabled":true,"rental_uris":{"android":"levelo://app?vid=1ea0c8b2-dd75-4652-93f9-17477178d458","ios":"levelo://app?vid=1ea0c8b2-dd75-4652-93f9-17477178d458"},"vehicle_type_id":"4","last_reported":1752099033,"current_range_meters":800,"station_id":"ce4bhh12rcd13ifvqff0","pricing_plan_id":"cebpf4jnsgd1na2vs0mg"},{"bike_id":"37f2becd-23f9-4f13-a711-38b8024eeec7","system_id":"levelo_inurba_marseille","lat":43.33768,"lon":5.37516,"is_reserved":false,"is_disabled":true,"rental_uris":{"android":"levelo://app?vid=37f2becd-23f9-4f13-a711-38b8024eeec7","ios":"levelo://app?vid=37f2becd-23f9-4f13-a711-38b8024eeec7"},"vehicle_type_id":"4","last_reported":1752099033,"current_range_meters":1600,"station_id":"","pricing_plan_id":"cebpf4jnsgd1na2vs0mg"},{"bike_id":"5d01362d-7a99-4066-b2ed-0750b8e9df16","system_id":"levelo_inurba_marseille","lat":43.31316,"lon":5.39713,"is_reserved":false,"is_disabled":true,"rental_uris":{"android":"levelo://app?vid=5d01362d-7a99-4066-b2ed-0750b8e9df16","ios":"levelo://app?vid=5d01362d-7a99-4066-b2ed-0750b8e9df16"},"vehicle_type_id":"4","last_reported":1752099033,"current_range_meters":1600,"station_id":"ce4bgvp2rcd13ifvqcu0","pricing_plan_id":"cebpf4jnsgd1na2vs0mg"},{"bike_id":"54408f64-e950-4ce4-8031-e7a03ba94495","system_id":"levelo_inurba_marseille","lat":43.29421,"lon":5.38614,"is_reserved":false,"is_disabled":true,"rental_uris":{"android":"levelo://app?vid=54408f64-e950-4ce4-8031-e7a03ba94495","ios":"levelo://app?vid=54408f64-e950-4ce4-8031-e7a03ba94495"},"vehicle_type_id":"4","last_reported":1752099033,"current_range_meters":1600,"station_id":"ce4bh2h2rcd13ifvqdh0","pricing_plan_id":"cebpf4jnsgd1na2vs0mg"},{"bike_id":"1ea07c30-7637-4836-8280-b70950b610b5","system_id":"levelo_inurba_marseille","lat":43.22515,"lon":5.34792,"is_reserved":false,"is_disabled":true,"rental_uris":{"android":"levelo://app?vid=1ea07c30-7637-4836-8280-b70950b610b5","ios":"levelo://app?vid=1ea07c30-7637-4836-8280-b70950b610b5"},"vehicle_type_id":"4","last_reported":1752099033,"current_range_meters":2000,"station_id":"st_cvj5dfep6f1abm77gieg","pricing_plan_id":"cebpf4jnsgd1na2vs0mg"},{"bike_id":"500e6ab4-4940-4dd8-a902-723e4b18734f","system_id":"levelo_inurba_marseille","lat":43.31329,"lon":5.39689,"is_reserved":false,"is_disabled":false,"rental_uris":{"android":"levelo://app?vid=500e6ab4-4940-4dd8-a902-723e4b18734f","ios":"levelo://app?vid=500e6ab4-4940-4dd8-a902-723e4b18734f"},"vehicle_type_id":"4","last_reported":1752099033,"current_range_meters":3200,"station_id":"ce4bgvp2rcd13ifvqcu0","pricing_plan_id":"cebpf4jnsgd1na2vs0mg"},{"bike_id":"97c02774-7e27-43cc-bf25-06f07cb3ddcd","system_id":"levelo_inurba_marseille","lat":43.29548,"lon":5.42287,"is_reserved":false,"is_disabled":false,"rental_uris":{"android":"levelo://app?vid=97c02774-7e27-43cc-bf25-06f07cb3ddcd","ios":"levelo://app?vid=97c02774-7e27-43cc-bf25-06f07cb3ddcd"},"vehicle_type_id":"4","last_reported":1752099033,"current_range_meters":3600,"station_id":"ce4bhph2rcd13ifvqhdg","pricing_plan_id":"cebpf4jnsgd1na2vs0mg"},{"bike_id":"db841109-9b56-4777-86e2-06fbf4ef1649","system_id":"levelo_inurba_marseille","lat":43.31106,"lon":5.39753,"is_reserved":false,"is_disabled":false,"rental_uris":{"android":"levelo://app?vid=db841109-9b56-4777-86e2-06fbf4ef1649","ios":"levelo://app?vid=db841109-9b56-4777-86e2-06fbf4ef1649"},"vehicle_type_id":"4","last_reported":1752099033,"current_range_meters":4000,"station_id":"","pricing_plan_id":"cebpf4jnsgd1na2vs0mg"},{"bike_id":"0c8f92f0-34dd-4528-ac9a-218976babbcb","system_id":"levelo_inurba_marseille","lat":43.297057,"lon":5.376893,"is_reserved":false,"is_disabled":false,"rental_uris":{"android":"levelo://app?vid=0c8f92f0-34dd-4528-ac9a-218976babbcb","ios":"levelo://app?vid=0c8f92f0-34dd-4528-ac9a-218976babbcb"},"vehicle_type_id":"4","last_reported":1752099033,"current_range_meters":4000,"station_id":"ce4bgkh2rcd13ifvqbl0","pricing_plan_id":"cebpf4jnsgd1na2vs0mg"},{"bike_id":"bd152d2c-a711-4a45-a3d8-8a1c4de2dcf0","system_id":"levelo_inurba_marseille","lat":43.31485,"lon":5.37304,"is_reserved":false,"is_disabled":false,"rental_uris":{"android":"levelo://app?vid=bd152d2c-a711-4a45-a3d8-8a1c4de2dcf0","ios":"levelo://app?vid=bd152d2c-a711-4a45-a3d8-8a1c4de2dcf0"},"vehicle_type_id":"4","last_reported":1752099033,"current_range_meters":4400,"station_id":"ce4bgt12rcd13ifvqcd0","pricing_plan_id":"cebpf4jnsgd1na2vs0mg"},{"bike_id":"2e8daa4f-6ca1-4994-9d22-48a334924e2d","system_id":"levelo_inurba_marseille","lat":43.30646,"lon":5.40096,"is_reserved":false,"is_disabled":false,"rental_uris":{"android":"levelo://app?vid=2e8daa4f-6ca1-4994-9d22-48a334924e2d","ios":"levelo://app?vid=2e8daa4f-6ca1-4994-9d22-48a334924e2d"},"vehicle_type_id":"4","last_reported":1752099033,"current_range_meters":4400,"station_id":"ce4bh112rcd13ifvqda0","pricing_plan_id":"cebpf4jnsgd1na2vs0mg"},{"bike_id":"d7de8b1b-962f-4650-91b3-9bbf23eae451","system_id":"levelo_inurba_marseille","lat":43.32352,"lon":5.36758,"is_reserved":false,"is_disabled":false,"rental_uris":{"android":"levelo://app?vid=d7de8b1b-962f-4650-91b3-9bbf23eae451","ios":"levelo://app?vid=d7de8b1b-962f-4650-91b3-9bbf23eae451"},"vehicle_type_id":"4","last_reported":1752099033,"current_range_meters":4400,"station_id":"ce4bhsh2rcd13ifvqi2g","pricing_plan_id":"cebpf4jnsgd1na2vs0mg"},{"bike_id":"2ccf6206-878b-438e-af2a-d67c01f5ae5e","system_id":"levelo_inurba_marseille","lat":43.303,"lon":5.36884,"is_reserved":false,"is_disabled":false,"rental_uris":{"android":"levelo://app?vid=2ccf6206-878b-438e-af2a-d67c01f5ae5e","ios":"levelo://app?vid=2ccf6206-878b-438e-af2a-d67c01f5ae5e"},"vehicle_type_id":"4","last_reported":1752099033,"current_range_meters":4800,"station_id":"ce4bgqh2rcd13ifvqc5g","pricing_plan_id":"cebpf4jnsgd1na2vs0mg"},{"bike_id":"cb41bcbd-117a-457f-a762-2fbc4fbfa1d7","system_id":"levelo_inurba_marseille","lat":43.30651,"lon":5.40098,"is_reserved":false,"is_disabled":false,"rental_uris":{"android":"levelo://app?vid=cb41bcbd-117a-457f-a762-2fbc4fbfa1d7","ios":"levelo://app?vid=cb41bcbd-117a-457f-a762-2fbc4fbfa1d7"},"vehicle_type_id":"4","last_reported":1752099033,"current_range_meters":5600,"station_id":"ce4bh112rcd13ifvqda0","pricing_plan_id":"cebpf4jnsgd1na2vs0mg"},{"bike_id":"888522e3-39b6-4ff3-ad74-ff6c6f771157","system_id":"levelo_inurba_marseille","lat":43.29531,"lon":5.40016,"is_reserved":false,"is_disabled":false,"rental_uris":{"android":"levelo://app?vid=888522e3-39b6-4ff3-ad74-ff6c6f771157","ios":"levelo://app?vid=888522e3-39b6-4ff3-ad74-ff6c6f771157"},"vehicle_type_id":"4","last_reported":1752099033,"current_range_meters":6000,"station_id":"","pricing_plan_id":"cebpf4jnsgd1na2vs0mg"},{"bike_id":"f82b0dd2-f447-4fe0-8577-929bf3ee53b7","system_id":"levelo_inurba_marseille","lat":43.31141,"lon":5.38736,"is_reserved":false,"is_disabled":false,"rental_uris":{"android":"levelo://app?vid=f82b0dd2-f447-4fe0-8577-929bf3ee53b7","ios":"levelo://app?vid=f82b0dd2-f447-4fe0-8577-929bf3ee53b7"},"vehicle_type_id":"4","last_reported":1752099033,"current_range_meters":6000,"station_id":"ce4bgv12rcd13ifvqcp0","pricing_plan_id":"cebpf4jnsgd1na2vs0mg"},{"bike_id":"15ef0f03-6c7f-485c-881a-7f09ec197509","system_id":"levelo_inurba_marseille","lat":43.31698,"lon":5.4047,"is_reserved":false,"is_disabled":false,"rental_uris":{"android":"levelo://app?vid=15ef0f03-6c7f-485c-881a-7f09ec197509","ios":"levelo://app?vid=15ef0f03-6c7f-485c-881a-7f09ec197509"},"vehicle_type_id":"4","last_reported":1752099033,"current_range_meters":6400,"station_id":"ce4bh012rcd13ifvqd00","pricing_plan_id":"cebpf4jnsgd1na2vs0mg"},{"bike_id":"40ef21ea-4009-463f-86c4-58761ca826fe","system_id":"levelo_inurba_marseille","lat":43.2942,"lon":5.38626,"is_reserved":false,"is_disabled":false,"rental_uris":{"android":"levelo://app?vid=40ef21ea-4009-463f-86c4-58761ca826fe","ios":"levelo://app?vid=40ef21ea-4009-463f-86c4-58761ca826fe"},"vehicle_type_id":"4","last_reported":1752099033,"current_range_meters":6400,"station_id":"ce4bh2h2rcd13ifvqdh0","pricing_plan_id":"cebpf4jnsgd1na2vs0mg"},{"bike_id":"bc4a1a28-16f8-41a1-b322-37f6bb95006a","system_id":"levelo_inurba_marseille","lat":43.31064,"lon":5.38376,"is_reserved":false,"is_disabled":false,"rental_uris":{"android":"levelo://app?vid=bc4a1a28-16f8-41a1-b322-37f6bb95006a","ios":"levelo://app?vid=bc4a1a28-16f8-41a1-b322-37f6bb95006a"},"vehicle_type_id":"4","last_reported":1752099033,"current_range_meters":6800,"station_id":"ce4bgv92rcd13ifvqcr0","pricing_plan_id":"cebpf4jnsgd1na2vs0mg"},{"bike_id":"d5c127c7-56e8-491b-9df4-855cdc363f88","system_id":"levelo_inurba_marseille","lat":43.32657,"lon":5.40997,"is_reserved":false,"is_disabled":false,"rental_uris":{"android":"levelo://app?vid=d5c127c7-56e8-491b-9df4-855cdc363f88","ios":"levelo://app?vid=d5c127c7-56e8-491b-9df4-855cdc363f88"},"vehicle_type_id":"4","last_reported":1752099033,"current_range_meters":6800,"station_id":"ce4bhpp2rcd13ifvqhgg","pricing_plan_id":"cebpf4jnsgd1na2vs0mg"},{"bike_id":"97b636d4-ce76-4469-91f2-cb71a35c75e9","system_id":"levelo_inurba_marseille","lat":43.29507,"lon":5.3869,"is_reserved":false,"is_disabled":false,"rental_uris":{"android":"levelo://app?vid=97b636d4-ce76-4469-91f2-cb71a35c75e9","ios":"levelo://app?vid=97b636d4-ce76-4469-91f2-cb71a35c75e9"},"vehicle_type_id":"4","last_reported":1752099033,"current_range_meters":7200,"station_id":"","pricing_plan_id":"cebpf4jnsgd1na2vs0mg"},{"bike_id":"ff5f9f7a-75a6-4e88-897e-e513fb985b05","system_id":"levelo_inurba_marseille","lat":43.26786,"lon":5.39447,"is_reserved":false,"is_disabled":false,"rental_uris":{"android":"levelo://app?vid=ff5f9f7a-75a6-4e88-897e-e513fb985b05","ios":"levelo://app?vid=ff5f9f7a-75a6-4e88-897e-e513fb985b05"},"vehicle_type_id":"4","last_reported":1752099033,"current_range_meters":8000,"station_id":"ce4bhh12rcd13ifvqfg0","pricing_plan_id":"cebpf4jnsgd1na2vs0mg"},{"bike_id":"67c1e312-d82c-4b86-bf70-1a69f25f26a3","system_id":"levelo_inurba_marseille","lat":43.30386,"lon":5.4249,"is_reserved":false,"is_disabled":false,"rental_uris":{"android":"levelo://app?vid=67c1e312-d82c-4b86-bf70-1a69f25f26a3","ios":"levelo://app?vid=67c1e312-d82c-4b86-bf70-1a69f25f26a3"},"vehicle_type_id":"4","last_reported":1752099033,"current_range_meters":8000,"station_id":"ce4bhoh2rcd13ifvqh6g","pricing_plan_id":"cebpf4jnsgd1na2vs0mg"},{"bike_id":"2ccdaa78-c52d-4687-b45c-ed3bf06423b9","system_id":"levelo_inurba_marseille","lat":43.30635,"lon":5.40074,"is_reserved":false,"is_disabled":false,"rental_uris":{"android":"levelo://app?vid=2ccdaa78-c52d-4687-b45c-ed3bf06423b9","ios":"levelo://app?vid=2ccdaa78-c52d-4687-b45c-ed3bf06423b9"},"vehicle_type_id":"4","last_reported":1752099033,"current_range_meters":8400,"station_id":"ce4bh112rcd13ifvqda0","pricing_plan_id":"cebpf4jnsgd1na2vs0mg"},{"bike_id":"c72566a1-e75c-4105-9060-5e2c1457ba3b","system_id":"levelo_inurba_marseille","lat":43.2904,"lon":5.39968,"is_reserved":false,"is_disabled":false,"rental_uris":{"android":"levelo://app?vid=c72566a1-e75c-4105-9060-5e2c1457ba3b","ios":"levelo://app?vid=c72566a1-e75c-4105-9060-5e2c1457ba3b"},"vehicle_type_id":"4","last_reported":1752099033,"current_range_meters":8400,"station_id":"ce4bh392rcd13ifvqdm0","pricing_plan_id":"cebpf4jnsgd1na2vs0mg"},{"bike_id":"ab564da9-da3b-4a59-ae05-12f9dc5208d3","system_id":"levelo_inurba_marseille","lat":43.25725,"lon":5.41109,"is_reserved":false,"is_disabled":false,"rental_uris":{"android":"levelo://app?vid=ab564da9-da3b-4a59-ae05-12f9dc5208d3","ios":"levelo://app?vid=ab564da9-da3b-4a59-ae05-12f9dc5208d3"},"vehicle_type_id":"4","last_reported":1752099033,"current_range_meters":8400,"station_id":"ce4bhkp2rcd13ifvqgd0","pricing_plan_id":"cebpf4jnsgd1na2vs0mg"},{"bike_id":"5be1d985-cb95-4d3b-a698-4dea864d907b","system_id":"levelo_inurba_marseille","lat":43.28443,"lon":5.39197,"is_reserved":false,"is_disabled":false,"rental_uris":{"android":"levelo://app?vid=5be1d985-cb95-4d3b-a698-4dea864d907b","ios":"levelo://app?vid=5be1d985-cb95-4d3b-a698-4dea864d907b"},"vehicle_type_id":"4","last_reported":1752099033,"current_range_meters":8400,"station_id":"ce4bhoh2rcd13ifvqh5g","pricing_plan_id":"cebpf4jnsgd1na2vs0mg"},{"bike_id":"d0fcc970-f5e0-4c77-ba00-ae48a4de2a41","system_id":"levelo_inurba_marseille","lat":43.33605,"lon":5.41032,"is_reserved":false,"is_disabled":false,"rental_uris":{"android":"levelo://app?vid=d0fcc970-f5e0-4c77-ba00-ae48a4de2a41","ios":"levelo://app?vid=d0fcc970-f5e0-4c77-ba00-ae48a4de2a41"},"vehicle_type_id":"4","last_reported":1752099033,"current_range_meters":8400,"station_id":"ce4bhqh2rcd13ifvqhmg","pricing_plan_id":"cebpf4jnsgd1na2vs0mg"},{"bike_id":"3030cb07-c041-4d87-a253-8c849c24aa85","system_id":"levelo_inurba_marseille","lat":43.32639,"lon":5.36232,"is_reserved":false,"is_disabled":false,"rental_uris":{"android":"levelo://app?vid=3030cb07-c041-4d87-a253-8c849c24aa85","ios":"levelo://app?vid=3030cb07-c041-4d87-a253-8c849c24aa85"},"vehicle_type_id":"4","last_reported":1752099033,"current_range_meters":8800,"station_id":"","pricing_plan_id":"cebpf4jnsgd1na2vs0mg"},{"bike_id":"06acf662-becf-44e2-91b3-b61377f256b5","system_id":"levelo_inurba_marseille","lat":43.28098,"lon":5.37832,"is_reserved":false,"is_disabled":false,"rental_uris":{"android":"levelo://app?vid=06acf662-becf-44e2-91b3-b61377f256b5","ios":"levelo://app?vid=06acf662-becf-44e2-91b3-b61377f256b5"},"vehicle_type_id":"4","last_reported":1752099033,"current_range_meters":8800,"station_id":"ce4bha12rcd13ifvqee0","pricing_plan_id":"cebpf4jnsgd1na2vs0mg"},{"bike_id":"c9b23174-457b-48fb-a40a-34149460eb36","system_id":"levelo_inurba_marseille","lat":43.29203,"lon":5.39316,"is_reserved":false,"is_disabled":false,"rental_uris":{"android":"levelo://app?vid=c9b23174-457b-48fb-a40a-34149460eb36","ios":"levelo://app?vid=c9b23174-457b-48fb-a40a-34149460eb36"},"vehicle_type_id":"4","last_reported":1752099033,"current_range_meters":9200,"station_id":"ce4bh192rcd13ifvqdd0","pricing_plan_id":"cebpf4jnsgd1na2vs0mg"},{"bike_id":"254ffb8b-7453-4e4d-9e56-bd9e673c1bde","system_id":"levelo_inurba_marseille","lat":43.29894,"lon":5.43659,"is_reserved":false,"is_disabled":false,"rental_uris":{"android":"levelo://app?vid=254ffb8b-7453-4e4d-9e56-bd9e673c1bde","ios":"levelo://app?vid=254ffb8b-7453-4e4d-9e56-bd9e673c1bde"},"vehicle_type_id":"4","last_reported":1752099033,"current_range_meters":9200,"station_id":"ce4bhpp2rcd13ifvqhfg","pricing_plan_id":"cebpf4jnsgd1na2vs0mg"},{"bike_id":"3cbbc190-3583-4355-a080-0eab3f48c80e","system_id":"levelo_inurba_marseille","lat":43.29892,"lon":5.38867,"is_reserved":false,"is_disabled":false,"rental_uris":{"android":"levelo://app?vid=3cbbc190-3583-4355-a080-0eab3f48c80e","ios":"levelo://app?vid=3cbbc190-3583-4355-a080-0eab3f48c80e"},"vehicle_type_id":"4","last_reported":1752099033,"current_range_meters":9600,"station_id":"ce4bh392rcd13ifvqdl0","pricing_plan_id":"cebpf4jnsgd1na2vs0mg"},{"bike_id":"6a1897e3-8a2b-46cf-92ff-7ca0963dc64a","system_id":"levelo_inurba_marseille","lat":43.29444,"lon":5.39744,"is_reserved":false,"is_disabled":false,"rental_uris":{"android":"levelo://app?vid=6a1897e3-8a2b-46cf-92ff-7ca0963dc64a","ios":"levelo://app?vid=6a1897e3-8a2b-46cf-92ff-7ca0963dc64a"},"vehicle_type_id":"4","last_reported":1752099033,"current_range_meters":9600,"station_id":"ce4bh3h2rcd13ifvqdo0","pricing_plan_id":"cebpf4jnsgd1na2vs0mg"},{"bike_id":"5b8a8907-541d-40c2-976e-ff54be341cc3","system_id":"levelo_inurba_marseille","lat":43.27973,"lon":5.38746,"is_reserved":false,"is_disabled":false,"rental_uris":{"android":"levelo://app?vid=5b8a8907-541d-40c2-976e-ff54be341cc3","ios":"levelo://app?vid=5b8a8907-541d-40c2-976e-ff54be341cc3"},"vehicle_type_id":"4","last_reported":1752099033,"current_range_meters":9600,"station_id":"ce4bhg12rcd13ifvqf80","pricing_plan_id":"cebpf4jnsgd1na2vs0mg"},{"bike_id":"39401827-cc73-4723-8498-620199973750","system_id":"levelo_inurba_marseille","lat":43.27212,"lon":5.39172,"is_reserved":false,"is_disabled":false,"rental_uris":{"android":"levelo://app?vid=39401827-cc73-4723-8498-620199973750","ios":"levelo://app?vid=39401827-cc73-4723-8498-620199973750"},"vehicle_type_id":"4","last_reported":1752099033,"current_range_meters":9600,"station_id":"ce4bhhp2rcd13ifvqfm0","pricing_plan_id":"cebpf4jnsgd1na2vs0mg"},{"bike_id":"8818467c-74ab-4a70-b92b-5f5b8e985b44","system_id":"levelo_inurba_marseille","lat":43.31119,"lon":5.37748,"is_reserved":false,"is_disabled":false,"rental_uris":{"android":"levelo://app?vid=8818467c-74ab-4a70-b92b-5f5b8e985b44","ios":"levelo://app?vid=8818467c-74ab-4a70-b92b-5f5b8e985b44"},"vehicle_type_id":"4","last_reported":1752099033,"current_range_meters":10800,"station_id":"ce4bgt92rcd13ifvqcg0","pricing_plan_id":"cebpf4jnsgd1na2vs0mg"},{"bike_id":"82022731-d69c-4ade-89ee-97887f75b07f","system_id":"levelo_inurba_marseille","lat":43.27662,"lon":5.38904,"is_reserved":false,"is_disabled":false,"rental_uris":{"android":"levelo://app?vid=82022731-d69c-4ade-89ee-97887f75b07f","ios":"levelo://app?vid=82022731-d69c-4ade-89ee-97887f75b07f"},"vehicle_type_id":"4","last_reported":1752099033,"current_range_meters":10800,"station_id":"ce4bhi12rcd13ifvqfo0","pricing_plan_id":"cebpf4jnsgd1na2vs0mg"},{"bike_id":"84e7e709-4e4f-4764-818c-af719435bfca","system_id":"levelo_inurba_marseille","lat":43.31957,"lon":5.37311,"is_reserved":false,"is_disabled":false,"rental_uris":{"android":"levelo://app?vid=84e7e709-4e4f-4764-818c-af719435bfca","ios":"levelo://app?vid=84e7e709-4e4f-4764-818c-af719435bfca"},"vehicle_type_id":"4","last_reported":1752099033,"current_range_meters":11200,"station_id":"","pricing_plan_id":"cebpf4jnsgd1na2vs0mg"},{"bike_id":"f573a8fb-f1f8-47c4-901e-ddf2739a5cca","system_id":"levelo_inurba_marseille","lat":43.35991,"lon":5.32484,"is_reserved":false,"is_disabled":false,"rental_uris":{"android":"levelo://app?vid=f573a8fb-f1f8-47c4-901e-ddf2739a5cca","ios":"levelo://app?vid=f573a8fb-f1f8-47c4-901e-ddf2739a5cca"},"vehicle_type_id":"4","last_reported":1752099033,"current_range_meters":11200,"station_id":"","pricing_plan_id":"cebpf4jnsgd1na2vs0mg"},{"bike_id":"5deb816c-6470-43d4-aa6b-99cdac20120d","system_id":"levelo_inurba_marseille","lat":43.30644,"lon":5.40106,"is_reserved":false,"is_disabled":false,"rental_uris":{"android":"levelo://app?vid=5deb816c-6470-43d4-aa6b-99cdac20120d","ios":"levelo://app?vid=5deb816c-6470-43d4-aa6b-99cdac20120d"},"vehicle_type_id":"4","last_reported":1752099033,"current_range_meters":11200,"station_id":"ce4bh112rcd13ifvqda0","pricing_plan_id":"cebpf4jnsgd1na2vs0mg"},{"bike_id":"b03698a4-2414-4a6a-8a8e-7a3066d44e1c","system_id":"levelo_inurba_marseille","lat":43.2603,"lon":5.41727,"is_reserved":false,"is_disabled":false,"rental_uris":{"android":"levelo://app?vid=b03698a4-2414-4a6a-8a8e-7a3066d44e1c","ios":"levelo://app?vid=b03698a4-2414-4a6a-8a8e-7a3066d44e1c"},"vehicle_type_id":"4","last_reported":1752099033,"current_range_meters":11600,"station_id":"","pricing_plan_id":"cebpf4jnsgd1na2vs0mg"},{"bike_id":"815cba28-9814-4899-8c53-dc3cb75515dc","system_id":"levelo_inurba_marseille","lat":43.28135,"lon":5.44566,"is_reserved":false,"is_disabled":false,"rental_uris":{"android":"levelo://app?vid=815cba28-9814-4899-8c53-dc3cb75515dc","ios":"levelo://app?vid=815cba28-9814-4899-8c53-dc3cb75515dc"},"vehicle_type_id":"4","last_reported":1752099033,"current_range_meters":11600,"station_id":"","pricing_plan_id":"cebpf4jnsgd1na2vs0mg"},{"bike_id":"c2b72fe0-bae6-4c7b-ad48-9e771b203dc8","system_id":"levelo_inurba_marseille","lat":43.31358,"lon":5.38472,"is_reserved":false,"is_disabled":false,"rental_uris":{"android":"levelo://app?vid=c2b72fe0-bae6-4c7b-ad48-9e771b203dc8","ios":"levelo://app?vid=c2b72fe0-bae6-4c7b-ad48-9e771b203dc8"},"vehicle_type_id":"4","last_reported":1752099033,"current_range_meters":11600,"station_id":"ce4bgt92rcd13ifvqcf0","pricing_plan_id":"cebpf4jnsgd1na2vs0mg"},{"bike_id":"46f9c43a-046c-41a2-817b-814e5c61e11e","system_id":"levelo_inurba_marseille","lat":43.29276,"lon":5.40115,"is_reserved":false,"is_disabled":false,"rental_uris":{"android":"levelo://app?vid=46f9c43a-046c-41a2-817b-814e5c61e11e","ios":"levelo://app?vid=46f9c43a-046c-41a2-817b-814e5c61e11e"},"vehicle_type_id":"4","last_reported":1752099033,"current_range_meters":11600,"station_id":"ce4bh312rcd13ifvqdk0","pricing_plan_id":"cebpf4jnsgd1na2vs0mg"},{"bike_id":"53919a90-267a-4543-85c6-768e0b2f13d8","system_id":"levelo_inurba_marseille","lat":43.24175,"lon":5.36405,"is_reserved":false,"is_disabled":false,"rental_uris":{"android":"levelo://app?vid=53919a90-267a-4543-85c6-768e0b2f13d8","ios":"levelo://app?vid=53919a90-267a-4543-85c6-768e0b2f13d8"},"vehicle_type_id":"4","last_reported":1752099033,"current_range_meters":11600,"station_id":"cpo36qri1sfpv3e86is0","pricing_plan_id":"cebpf4jnsgd1na2vs0mg"},{"bike_id":"326bc014-ed5c-4170-8f5f-7a935fa9a6d5","system_id":"levelo_inurba_marseille","lat":43.30258,"lon":5.4008,"is_reserved":false,"is_disabled":false,"rental_uris":{"android":"levelo://app?vid=326bc014-ed5c-4170-8f5f-7a935fa9a6d5","ios":"levelo://app?vid=326bc014-ed5c-4170-8f5f-7a935fa9a6d5"},"vehicle_type_id":"4","last_reported":1752099033,"current_range_meters":12000,"station_id":"ce4bgvh2rcd13ifvqcs0","pricing_plan_id":"cebpf4jnsgd1na2vs0mg"},{"bike_id":"939f8cdd-c84f-46e9-acd7-67951d63f843","system_id":"levelo_inurba_marseille","lat":43.3026,"lon":5.40078,"is_reserved":false,"is_disabled":false,"rental_uris":{"android":"levelo://app?vid=939f8cdd-c84f-46e9-acd7-67951d63f843","ios":"levelo://app?vid=939f8cdd-c84f-46e9-acd7-67951d63f843"},"vehicle_type_id":"4","last_reported":1752099033,"current_range_meters":12000,"station_id":"ce4bgvh2rcd13ifvqcs0","pricing_plan_id":"cebpf4jnsgd1na2vs0mg"},{"bike_id":"0877d112-bd69-4474-afe8-a571c1bae836","system_id":"levelo_inurba_marseille","lat":43.28841,"lon":5.39306,"is_reserved":false,"is_disabled":false,"rental_uris":{"android":"levelo://app?vid=0877d112-bd69-4474-afe8-a571c1bae836","ios":"levelo://app?vid=0877d112-bd69-4474-afe8-a571c1bae836"},"vehicle_type_id":"4","last_reported":1752099033,"current_range_meters":12000,"station_id":"ce4bh2p2rcd13ifvqdi0","pricing_plan_id":"cebpf4jnsgd1na2vs0mg"},{"bike_id":"a1d4fe77-0a5b-4e3e-8329-a89f98a8bc59","system_id":"levelo_inurba_marseille","lat":43.29028,"lon":5.38642,"is_reserved":false,"is_disabled":false,"rental_uris":{"android":"levelo://app?vid=a1d4fe77-0a5b-4e3e-8329-a89f98a8bc59","ios":"levelo://app?vid=a1d4fe77-0a5b-4e3e-8329-a89f98a8bc59"},"vehicle_type_id":"4","last_reported":1752099033,"current_range_meters":12000,"station_id":"ce4bh4p2rcd13ifvqe0g","pricing_plan_id":"cebpf4jnsgd1na2vs0mg"},{"bike_id":"02f2e955-a796-44cd-aec5-81e81d910632","system_id":"levelo_inurba_marseille","lat":43.26955,"lon":5.38632,"is_reserved":false,"is_disabled":false,"rental_uris":{"android":"levelo://app?vid=02f2e955-a796-44cd-aec5-81e81d910632","ios":"levelo://app?vid=02f2e955-a796-44cd-aec5-81e81d910632"},"vehicle_type_id":"4","last_reported":1752099033,"current_range_meters":12000,"station_id":"ce4bhh92rcd13ifvqfh0","pricing_plan_id":"cebpf4jnsgd1na2vs0mg"},{"bike_id":"4975b22d-8c48-452f-bd19-7a9d3ed7c378","system_id":"levelo_inurba_marseille","lat":43.29676,"lon":5.37424,"is_reserved":false,"is_disabled":false,"rental_uris":{"android":"levelo://app?vid=4975b22d-8c48-452f-bd19-7a9d3ed7c378","ios":"levelo://app?vid=4975b22d-8c48-452f-bd19-7a9d3ed7c378"},"vehicle_type_id":"4","last_reported":1752099033,"current_range_meters":12400,"station_id":"","pricing_plan_id":"cebpf4jnsgd1na2vs0mg"},{"bike_id":"32a537f7-f21f-41df-85eb-c8329cdb1097","system_id":"levelo_inurba_marseille","lat":43.2957,"lon":5.3999,"is_reserved":false,"is_disabled":false,"rental_uris":{"android":"levelo://app?vid=32a537f7-f21f-41df-85eb-c8329cdb1097","ios":"levelo://app?vid=32a537f7-f21f-41df-85eb-c8329cdb1097"},"vehicle_type_id":"4","last_reported":1752099033,"current_range_meters":12400,"station_id":"ce4bh312rcd13ifvqdj0","pricing_plan_id":"cebpf4jnsgd1na2vs0mg"},{"bike_id":"e996fdb4-90a1-44a8-8414-f794d445d088","system_id":"levelo_inurba_marseille","lat":43.29021,"lon":5.3863,"is_reserved":false,"is_disabled":false,"rental_uris":{"android":"levelo://app?vid=e996fdb4-90a1-44a8-8414-f794d445d088","ios":"levelo://app?vid=e996fdb4-90a1-44a8-8414-f794d445d088"},"vehicle_type_id":"4","last_reported":1752099033,"current_range_meters":12400,"station_id":"ce4bh4p2rcd13ifvqe0g","pricing_plan_id":"cebpf4jnsgd1na2vs0mg"},{"bike_id":"b4f7d12a-5d26-4628-85ee-2cd757d5bf30","system_id":"levelo_inurba_marseille","lat":43.2668,"lon":5.38274,"is_reserved":false,"is_disabled":false,"rental_uris":{"android":"levelo://app?vid=b4f7d12a-5d26-4628-85ee-2cd757d5bf30","ios":"levelo://app?vid=b4f7d12a-5d26-4628-85ee-2cd757d5bf30"},"vehicle_type_id":"4","last_reported":1752099033,"current_range_meters":12400,"station_id":"ce4bhg92rcd13ifvqf90","pricing_plan_id":"cebpf4jnsgd1na2vs0mg"},{"bike_id":"42f66b16-890d-4390-8e90-e9fefa5e7871","system_id":"levelo_inurba_marseille","lat":43.2756,"lon":5.38436,"is_reserved":false,"is_disabled":false,"rental_uris":{"android":"levelo://app?vid=42f66b16-890d-4390-8e90-e9fefa5e7871","ios":"levelo://app?vid=42f66b16-890d-4390-8e90-e9fefa5e7871"},"vehicle_type_id":"4","last_reported":1752099033,"current_range_meters":12400,"station_id":"ce4bhh92rcd13ifvqfi0","pricing_plan_id":"cebpf4jnsgd1na2vs0mg"},{"bike_id":"c514ad25-b83c-4d10-a595-57ae5a32aef4","system_id":"levelo_inurba_marseille","lat":43.22949,"lon":5.35395,"is_reserved":false,"is_disabled":false,"rental_uris":{"android":"levelo://app?vid=c514ad25-b83c-4d10-a595-57ae5a32aef4","ios":"levelo://app?vid=c514ad25-b83c-4d10-a595-57ae5a32aef4"},"vehicle_type_id":"4","last_reported":1752099033,"current_range_meters":12400,"station_id":"cpo3532slgdg3j2ikp40","pricing_plan_id":"cebpf4jnsgd1na2vs0mg"},{"bike_id":"cd933a3e-a323-4434-aac5-d3f28f8e7239","system_id":"levelo_inurba_marseille","lat":43.30439,"lon":5.38878,"is_reserved":false,"is_disabled":false,"rental_uris":{"android":"levelo://app?vid=cd933a3e-a323-4434-aac5-d3f28f8e7239","ios":"levelo://app?vid=cd933a3e-a323-4434-aac5-d3f28f8e7239"},"vehicle_type_id":"4","last_reported":1752099033,"current_range_meters":12800,"station_id":"ce4bgk12rcd13ifvqbi0","pricing_plan_id":"cebpf4jnsgd1na2vs0mg"},{"bike_id":"01a11dcc-2a5c-4939-bbe3-a035b0f8e4e4","system_id":"levelo_inurba_marseille","lat":43.28927,"lon":5.38399,"is_reserved":false,"is_disabled":false,"rental_uris":{"android":"levelo://app?vid=01a11dcc-2a5c-4939-bbe3-a035b0f8e4e4","ios":"levelo://app?vid=01a11dcc-2a5c-4939-bbe3-a035b0f8e4e4"},"vehicle_type_id":"4","last_reported":1752099033,"current_range_meters":12800,"station_id":"ce4bh612rcd13ifvqe6g","pricing_plan_id":"cebpf4jnsgd1na2vs0mg"},{"bike_id":"9a73e1ff-7a25-49ef-8449-7d11ebfdf119","system_id":"levelo_inurba_marseille","lat":43.33022,"lon":5.39046,"is_reserved":false,"is_disabled":false,"rental_uris":{"android":"levelo://app?vid=9a73e1ff-7a25-49ef-8449-7d11ebfdf119","ios":"levelo://app?vid=9a73e1ff-7a25-49ef-8449-7d11ebfdf119"},"vehicle_type_id":"4","last_reported":1752099033,"current_range_meters":12800,"station_id":"ce4bhr92rcd13ifvqhrg","pricing_plan_id":"cebpf4jnsgd1na2vs0mg"},{"bike_id":"f5c16f07-bc6f-4121-91a7-5ad90eec4f34","system_id":"levelo_inurba_marseille","lat":43.31214,"lon":5.37334,"is_reserved":false,"is_disabled":false,"rental_uris":{"android":"levelo://app?vid=f5c16f07-bc6f-4121-91a7-5ad90eec4f34","ios":"levelo://app?vid=f5c16f07-bc6f-4121-91a7-5ad90eec4f34"},"vehicle_type_id":"4","last_reported":1752099033,"current_range_meters":13600,"station_id":"","pricing_plan_id":"cebpf4jnsgd1na2vs0mg"},{"bike_id":"6de3f85a-faa1-421d-937c-fa06f6f1506b","system_id":"levelo_inurba_marseille","lat":43.29255,"lon":5.40911,"is_reserved":false,"is_disabled":false,"rental_uris":{"android":"levelo://app?vid=6de3f85a-faa1-421d-937c-fa06f6f1506b","ios":"levelo://app?vid=6de3f85a-faa1-421d-937c-fa06f6f1506b"},"vehicle_type_id":"4","last_reported":1752099033,"current_range_meters":13600,"station_id":"ce4bh192rcd13ifvqdc0","pricing_plan_id":"cebpf4jnsgd1na2vs0mg"},{"bike_id":"cd346a8d-ee6e-45dd-b65d-cfbc49a3959c","system_id":"levelo_inurba_marseille","lat":43.29042,"lon":5.39953,"is_reserved":false,"is_disabled":false,"rental_uris":{"android":"levelo://app?vid=cd346a8d-ee6e-45dd-b65d-cfbc49a3959c","ios":"levelo://app?vid=cd346a8d-ee6e-45dd-b65d-cfbc49a3959c"},"vehicle_type_id":"4","last_reported":1752099033,"current_range_meters":13600,"station_id":"ce4bh392rcd13ifvqdm0","pricing_plan_id":"cebpf4jnsgd1na2vs0mg"},{"bike_id":"72f85fcf-4277-4217-8baf-d64dcf543321","system_id":"levelo_inurba_marseille","lat":43.28944,"lon":5.39598,"is_reserved":false,"is_disabled":false,"rental_uris":{"android":"levelo://app?vid=72f85fcf-4277-4217-8baf-d64dcf543321","ios":"levelo://app?vid=72f85fcf-4277-4217-8baf-d64dcf543321"},"vehicle_type_id":"4","last_reported":1752099033,"current_range_meters":13600,"station_id":"ce4bh3h2rcd13ifvqdn0","pricing_plan_id":"cebpf4jnsgd1na2vs0mg"},{"bike_id":"449ed129-2f06-47da-936f-6e63a3609258","system_id":"levelo_inurba_marseille","lat":43.231997,"lon":5.355438,"is_reserved":false,"is_disabled":false,"rental_uris":{"android":"levelo://app?vid=449ed129-2f06-47da-936f-6e63a3609258","ios":"levelo://app?vid=449ed129-2f06-47da-936f-6e63a3609258"},"vehicle_type_id":"4","last_reported":1752099033,"current_range_meters":13600,"station_id":"ce4bhu92rcd13ifvqi70","pricing_plan_id":"cebpf4jnsgd1na2vs0mg"},{"bike_id":"b6d9b946-f66a-4c6f-96e5-5d23e176360c","system_id":"levelo_inurba_marseille","lat":43.31315,"lon":5.38172,"is_reserved":false,"is_disabled":false,"rental_uris":{"android":"levelo://app?vid=b6d9b946-f66a-4c6f-96e5-5d23e176360c","ios":"levelo://app?vid=b6d9b946-f66a-4c6f-96e5-5d23e176360c"},"vehicle_type_id":"4","last_reported":1752099033,"current_range_meters":14000,"station_id":"","pricing_plan_id":"cebpf4jnsgd1na2vs0mg"},{"bike_id":"b2caa530-bb19-4cc6-a6bd-61e3e1d7432e","system_id":"levelo_inurba_marseille","lat":43.33763,"lon":5.37461,"is_reserved":false,"is_disabled":false,"rental_uris":{"android":"levelo://app?vid=b2caa530-bb19-4cc6-a6bd-61e3e1d7432e","ios":"levelo://app?vid=b2caa530-bb19-4cc6-a6bd-61e3e1d7432e"},"vehicle_type_id":"4","last_reported":1752099033,"current_range_meters":14000,"station_id":"","pricing_plan_id":"cebpf4jnsgd1na2vs0mg"},{"bike_id":"b757ffbb-2b71-4330-9f60-5f8a9d46d16e","system_id":"levelo_inurba_marseille","lat":43.2965,"lon":5.37135,"is_reserved":false,"is_disabled":false,"rental_uris":{"android":"levelo://app?vid=b757ffbb-2b71-4330-9f60-5f8a9d46d16e","ios":"levelo://app?vid=b757ffbb-2b71-4330-9f60-5f8a9d46d16e"},"vehicle_type_id":"4","last_reported":1752099033,"current_range_meters":14000,"station_id":"ce4bgnh2rcd13ifvqc0g","pricing_plan_id":"cebpf4jnsgd1na2vs0mg"},{"bike_id":"1c88eeae-7e42-4152-8740-535b3b5091d3","system_id":"levelo_inurba_marseille","lat":43.28941,"lon":5.39636,"is_reserved":false,"is_disabled":false,"rental_uris":{"android":"levelo://app?vid=1c88eeae-7e42-4152-8740-535b3b5091d3","ios":"levelo://app?vid=1c88eeae-7e42-4152-8740-535b3b5091d3"},"vehicle_type_id":"4","last_reported":1752099033,"current_range_meters":14000,"station_id":"ce4bh3h2rcd13ifvqdn0","pricing_plan_id":"cebpf4jnsgd1na2vs0mg"},{"bike_id":"66164e95-a44b-4a59-9659-8b86bc2d5c59","system_id":"levelo_inurba_marseille","lat":43.30377,"lon":5.42487,"is_reserved":false,"is_disabled":false,"rental_uris":{"android":"levelo://app?vid=66164e95-a44b-4a59-9659-8b86bc2d5c59","ios":"levelo://app?vid=66164e95-a44b-4a59-9659-8b86bc2d5c59"},"vehicle_type_id":"4","last_reported":1752099033,"current_range_meters":14000,"station_id":"ce4bhoh2rcd13ifvqh6g","pricing_plan_id":"cebpf4jnsgd1na2vs0mg"},{"bike_id":"6e5c2657-ccb8-4153-8b94-2143bc427a03","system_id":"levelo_inurba_marseille","lat":43.22499,"lon":5.348,"is_reserved":false,"is_disabled":false,"rental_uris":{"android":"levelo://app?vid=6e5c2657-ccb8-4153-8b94-2143bc427a03","ios":"levelo://app?vid=6e5c2657-ccb8-4153-8b94-2143bc427a03"},"vehicle_type_id":"4","last_reported":1752099033,"current_range_meters":14000,"station_id":"st_cvj5dfep6f1abm77gieg","pricing_plan_id":"cebpf4jnsgd1na2vs0mg"},{"bike_id":"4666faf7-e2f1-4562-afa6-b996024b02c8","system_id":"levelo_inurba_marseille","lat":43.30876,"lon":5.39651,"is_reserved":false,"is_disabled":false,"rental_uris":{"android":"levelo://app?vid=4666faf7-e2f1-4562-afa6-b996024b02c8","ios":"levelo://app?vid=4666faf7-e2f1-4562-afa6-b996024b02c8"},"vehicle_type_id":"4","last_reported":1752099033,"current_range_meters":14400,"station_id":"ce4bh012rcd13ifvqcv0","pricing_plan_id":"cebpf4jnsgd1na2vs0mg"},{"bike_id":"4faa2083-1720-4eca-925b-ab81eeb5cb8e","system_id":"levelo_inurba_marseille","lat":43.28355,"lon":5.38108,"is_reserved":false,"is_disabled":false,"rental_uris":{"android":"levelo://app?vid=4faa2083-1720-4eca-925b-ab81eeb5cb8e","ios":"levelo://app?vid=4faa2083-1720-4eca-925b-ab81eeb5cb8e"},"vehicle_type_id":"4","last_reported":1752099033,"current_range_meters":14400,"station_id":"ce4bh412rcd13ifvqdr0","pricing_plan_id":"cebpf4jnsgd1na2vs0mg"},{"bike_id":"f58dd5a0-78dd-488e-8ffe-f3e57940d6ee","system_id":"levelo_inurba_marseille","lat":43.28934,"lon":5.36398,"is_reserved":false,"is_disabled":false,"rental_uris":{"android":"levelo://app?vid=f58dd5a0-78dd-488e-8ffe-f3e57940d6ee","ios":"levelo://app?vid=f58dd5a0-78dd-488e-8ffe-f3e57940d6ee"},"vehicle_type_id":"4","last_reported":1752099033,"current_range_meters":14400,"station_id":"ce4bhc92rcd13ifvqetg","pricing_plan_id":"cebpf4jnsgd1na2vs0mg"},{"bike_id":"1be39311-cfa5-4cbb-b93d-fb0870d6e611","system_id":"levelo_inurba_marseille","lat":43.211992,"lon":5.350656,"is_reserved":false,"is_disabled":false,"rental_uris":{"android":"levelo://app?vid=1be39311-cfa5-4cbb-b93d-fb0870d6e611","ios":"levelo://app?vid=1be39311-cfa5-4cbb-b93d-fb0870d6e611"},"vehicle_type_id":"4","last_reported":1752099033,"current_range_meters":14400,"station_id":"st_cvj6sg6p6f1abm77japg","pricing_plan_id":"cebpf4jnsgd1na2vs0mg"},{"bike_id":"caa590fd-ca10-4eb7-bd3a-0f3f89a04031","system_id":"levelo_inurba_marseille","lat":43.31057,"lon":5.38347,"is_reserved":false,"is_disabled":false,"rental_uris":{"android":"levelo://app?vid=caa590fd-ca10-4eb7-bd3a-0f3f89a04031","ios":"levelo://app?vid=caa590fd-ca10-4eb7-bd3a-0f3f89a04031"},"vehicle_type_id":"4","last_reported":1752099033,"current_range_meters":14800,"station_id":"ce4bgv92rcd13ifvqcr0","pricing_plan_id":"cebpf4jnsgd1na2vs0mg"},{"bike_id":"ae8df473-8611-4bf9-a770-1ba66f8d9b41","system_id":"levelo_inurba_marseille","lat":43.28962,"lon":5.36366,"is_reserved":false,"is_disabled":false,"rental_uris":{"android":"levelo://app?vid=ae8df473-8611-4bf9-a770-1ba66f8d9b41","ios":"levelo://app?vid=ae8df473-8611-4bf9-a770-1ba66f8d9b41"},"vehicle_type_id":"4","last_reported":1752099033,"current_range_meters":14800,"station_id":"ce4bhc92rcd13ifvqetg","pricing_plan_id":"cebpf4jnsgd1na2vs0mg"},{"bike_id":"7a1af6d2-7ada-4be8-a2b8-3528427e2e7c","system_id":"levelo_inurba_marseille","lat":43.297827,"lon":5.39339,"is_reserved":false,"is_disabled":false,"rental_uris":{"android":"levelo://app?vid=7a1af6d2-7ada-4be8-a2b8-3528427e2e7c","ios":"levelo://app?vid=7a1af6d2-7ada-4be8-a2b8-3528427e2e7c"},"vehicle_type_id":"4","last_reported":1752099033,"current_range_meters":14800,"station_id":"chh1huq6cuj3fo74tm60","pricing_plan_id":"cebpf4jnsgd1na2vs0mg"},{"bike_id":"320f2a33-deaa-4e0a-a3d5-c39ce8ad680a","system_id":"levelo_inurba_marseille","lat":43.31568,"lon":5.37443,"is_reserved":false,"is_disabled":false,"rental_uris":{"android":"levelo://app?vid=320f2a33-deaa-4e0a-a3d5-c39ce8ad680a","ios":"levelo://app?vid=320f2a33-deaa-4e0a-a3d5-c39ce8ad680a"},"vehicle_type_id":"4","last_reported":1752099033,"current_range_meters":15200,"station_id":"","pricing_plan_id":"cebpf4jnsgd1na2vs0mg"},{"bike_id":"d1572639-fb0d-4c96-8b86-62e40647d717","system_id":"levelo_inurba_marseille","lat":43.293269,"lon":5.370898,"is_reserved":false,"is_disabled":false,"rental_uris":{"android":"levelo://app?vid=d1572639-fb0d-4c96-8b86-62e40647d717","ios":"levelo://app?vid=d1572639-fb0d-4c96-8b86-62e40647d717"},"vehicle_type_id":"4","last_reported":1752099033,"current_range_meters":15200,"station_id":"","pricing_plan_id":"cebpf4jnsgd1na2vs0mg"},{"bike_id":"562edc89-c371-446d-98f0-f70e9088b58f","system_id":"levelo_inurba_marseille","lat":43.30257,"lon":5.40074,"is_reserved":false,"is_disabled":false,"rental_uris":{"android":"levelo://app?vid=562edc89-c371-446d-98f0-f70e9088b58f","ios":"levelo://app?vid=562edc89-c371-446d-98f0-f70e9088b58f"},"vehicle_type_id":"4","last_reported":1752099033,"current_range_meters":15200,"station_id":"ce4bgvh2rcd13ifvqcs0","pricing_plan_id":"cebpf4jnsgd1na2vs0mg"},{"bike_id":"4a69cd1c-a9bd-4bb6-b294-335eb9c2ac5d","system_id":"levelo_inurba_marseille","lat":43.2667,"lon":5.38212,"is_reserved":false,"is_disabled":false,"rental_uris":{"android":"levelo://app?vid=4a69cd1c-a9bd-4bb6-b294-335eb9c2ac5d","ios":"levelo://app?vid=4a69cd1c-a9bd-4bb6-b294-335eb9c2ac5d"},"vehicle_type_id":"4","last_reported":1752099033,"current_range_meters":15200,"station_id":"ce4bhg92rcd13ifvqf90","pricing_plan_id":"cebpf4jnsgd1na2vs0mg"},{"bike_id":"10d5cc29-467f-4206-94de-2da190036cbd","system_id":"levelo_inurba_marseille","lat":43.270721,"lon":5.42282,"is_reserved":false,"is_disabled":false,"rental_uris":{"android":"levelo://app?vid=10d5cc29-467f-4206-94de-2da190036cbd","ios":"levelo://app?vid=10d5cc29-467f-4206-94de-2da190036cbd"},"vehicle_type_id":"4","last_reported":1752099033,"current_range_meters":15200,"station_id":"ce4bhk92rcd13ifvqgb0","pricing_plan_id":"cebpf4jnsgd1na2vs0mg"},{"bike_id":"c08137ce-76f7-42ad-b7d8-aa3b0d62e7d3","system_id":"levelo_inurba_marseille","lat":43.27052,"lon":5.40263,"is_reserved":false,"is_disabled":false,"rental_uris":{"android":"levelo://app?vid=c08137ce-76f7-42ad-b7d8-aa3b0d62e7d3","ios":"levelo://app?vid=c08137ce-76f7-42ad-b7d8-aa3b0d62e7d3"},"vehicle_type_id":"4","last_reported":1752099033,"current_range_meters":15200,"station_id":"ce4bhk92rcd13ifvqgc0","pricing_plan_id":"cebpf4jnsgd1na2vs0mg"},{"bike_id":"5b6f185c-ade6-43e1-905b-4a1c4272c7c6","system_id":"levelo_inurba_marseille","lat":43.31883,"lon":5.40735,"is_reserved":false,"is_disabled":false,"rental_uris":{"android":"levelo://app?vid=5b6f185c-ade6-43e1-905b-4a1c4272c7c6","ios":"levelo://app?vid=5b6f185c-ade6-43e1-905b-4a1c4272c7c6"},"vehicle_type_id":"4","last_reported":1752099033,"current_range_meters":15200,"station_id":"ce4bhq12rcd13ifvqhig","pricing_plan_id":"cebpf4jnsgd1na2vs0mg"},{"bike_id":"48593559-b0ee-4e17-8373-ea727288205f","system_id":"levelo_inurba_marseille","lat":43.2979,"lon":5.39337,"is_reserved":false,"is_disabled":false,"rental_uris":{"android":"levelo://app?vid=48593559-b0ee-4e17-8373-ea727288205f","ios":"levelo://app?vid=48593559-b0ee-4e17-8373-ea727288205f"},"vehicle_type_id":"4","last_reported":1752099033,"current_range_meters":15200,"station_id":"chh1huq6cuj3fo74tm60","pricing_plan_id":"cebpf4jnsgd1na2vs0mg"},{"bike_id":"3217543c-7fda-4655-84ac-4912430ca273","system_id":"levelo_inurba_marseille","lat":43.30519,"lon":5.38434,"is_reserved":false,"is_disabled":false,"rental_uris":{"android":"levelo://app?vid=3217543c-7fda-4655-84ac-4912430ca273","ios":"levelo://app?vid=3217543c-7fda-4655-84ac-4912430ca273"},"vehicle_type_id":"4","last_reported":1752099033,"current_range_meters":16000,"station_id":"ce4bgg92rcd13ifvqb30","pricing_plan_id":"cebpf4jnsgd1na2vs0mg"},{"bike_id":"4d89cb80-cfcb-415e-b37c-fb3a172a814c","system_id":"levelo_inurba_marseille","lat":43.26554,"lon":5.39033,"is_reserved":false,"is_disabled":false,"rental_uris":{"android":"levelo://app?vid=4d89cb80-cfcb-415e-b37c-fb3a172a814c","ios":"levelo://app?vid=4d89cb80-cfcb-415e-b37c-fb3a172a814c"},"vehicle_type_id":"4","last_reported":1752099033,"current_range_meters":16000,"station_id":"ce4bhe12rcd13ifvqf30","pricing_plan_id":"cebpf4jnsgd1na2vs0mg"},{"bike_id":"2a2c2ba3-f4e7-4476-b21e-559d75857b71","system_id":"levelo_inurba_marseille","lat":43.27073,"lon":5.42273,"is_reserved":false,"is_disabled":false,"rental_uris":{"android":"levelo://app?vid=2a2c2ba3-f4e7-4476-b21e-559d75857b71","ios":"levelo://app?vid=2a2c2ba3-f4e7-4476-b21e-559d75857b71"},"vehicle_type_id":"4","last_reported":1752099033,"current_range_meters":16000,"station_id":"ce4bhk92rcd13ifvqgb0","pricing_plan_id":"cebpf4jnsgd1na2vs0mg"},{"bike_id":"bf9e85a4-d185-43c1-ad21-f42cf123275c","system_id":"levelo_inurba_marseille","lat":43.24076,"lon":5.37755,"is_reserved":false,"is_disabled":false,"rental_uris":{"android":"levelo://app?vid=bf9e85a4-d185-43c1-ad21-f42cf123275c","ios":"levelo://app?vid=bf9e85a4-d185-43c1-ad21-f42cf123275c"},"vehicle_type_id":"4","last_reported":1752099033,"current_range_meters":16000,"station_id":"ce4bhnp2rcd13ifvqgvg","pricing_plan_id":"cebpf4jnsgd1na2vs0mg"},{"bike_id":"a696b331-f3a2-4032-979b-06b35fb7e9b9","system_id":"levelo_inurba_marseille","lat":43.27998,"lon":5.41652,"is_reserved":false,"is_disabled":false,"rental_uris":{"android":"levelo://app?vid=a696b331-f3a2-4032-979b-06b35fb7e9b9","ios":"levelo://app?vid=a696b331-f3a2-4032-979b-06b35fb7e9b9"},"vehicle_type_id":"4","last_reported":1752099033,"current_range_meters":16000,"station_id":"ce4bho12rcd13ifvqh1g","pricing_plan_id":"cebpf4jnsgd1na2vs0mg"},{"bike_id":"7dd4258d-8fe1-466b-bba8-036a896c4262","system_id":"levelo_inurba_marseille","lat":43.231962,"lon":5.355482,"is_reserved":false,"is_disabled":false,"rental_uris":{"android":"levelo://app?vid=7dd4258d-8fe1-466b-bba8-036a896c4262","ios":"levelo://app?vid=7dd4258d-8fe1-466b-bba8-036a896c4262"},"vehicle_type_id":"4","last_reported":1752099033,"current_range_meters":16000,"station_id":"ce4bhu92rcd13ifvqi70","pricing_plan_id":"cebpf4jnsgd1na2vs0mg"},{"bike_id":"41f5023c-0d4e-4c53-9b57-35ebda9f71f9","system_id":"levelo_inurba_marseille","lat":43.30296,"lon":5.39212,"is_reserved":false,"is_disabled":false,"rental_uris":{"android":"levelo://app?vid=41f5023c-0d4e-4c53-9b57-35ebda9f71f9","ios":"levelo://app?vid=41f5023c-0d4e-4c53-9b57-35ebda9f71f9"},"vehicle_type_id":"4","last_reported":1752099033,"current_range_meters":16400,"station_id":"ce4bgkh2rcd13ifvqbk0","pricing_plan_id":"cebpf4jnsgd1na2vs0mg"},{"bike_id":"50ab44e3-d828-4352-9904-0b65a7ba1354","system_id":"levelo_inurba_marseille","lat":43.29972,"lon":5.37166,"is_reserved":false,"is_disabled":false,"rental_uris":{"android":"levelo://app?vid=50ab44e3-d828-4352-9904-0b65a7ba1354","ios":"levelo://app?vid=50ab44e3-d828-4352-9904-0b65a7ba1354"},"vehicle_type_id":"4","last_reported":1752099033,"current_range_meters":16400,"station_id":"ce4bgr92rcd13ifvqc7g","pricing_plan_id":"cebpf4jnsgd1na2vs0mg"},{"bike_id":"03304114-c91d-4b5e-8d43-80021d8bd3d6","system_id":"levelo_inurba_marseille","lat":43.3081,"lon":5.38156,"is_reserved":false,"is_disabled":false,"rental_uris":{"android":"levelo://app?vid=03304114-c91d-4b5e-8d43-80021d8bd3d6","ios":"levelo://app?vid=03304114-c91d-4b5e-8d43-80021d8bd3d6"},"vehicle_type_id":"4","last_reported":1752099033,"current_range_meters":16400,"station_id":"ce4bgt12rcd13ifvqce0","pricing_plan_id":"cebpf4jnsgd1na2vs0mg"},{"bike_id":"cbb8508c-9215-48eb-b46d-3e6863fb3ca8","system_id":"levelo_inurba_marseille","lat":43.30928,"lon":5.40162,"is_reserved":false,"is_disabled":false,"rental_uris":{"android":"levelo://app?vid=cbb8508c-9215-48eb-b46d-3e6863fb3ca8","ios":"levelo://app?vid=cbb8508c-9215-48eb-b46d-3e6863fb3ca8"},"vehicle_type_id":"4","last_reported":1752099033,"current_range_meters":16400,"station_id":"ce4bgvp2rcd13ifvqct0","pricing_plan_id":"cebpf4jnsgd1na2vs0mg"},{"bike_id":"a4bf3d00-31c5-4d56-a19c-29d2ae870442","system_id":"levelo_inurba_marseille","lat":43.30426,"lon":5.39748,"is_reserved":false,"is_disabled":false,"rental_uris":{"android":"levelo://app?vid=a4bf3d00-31c5-4d56-a19c-29d2ae870442","ios":"levelo://app?vid=a4bf3d00-31c5-4d56-a19c-29d2ae870442"},"vehicle_type_id":"4","last_reported":1752099033,"current_range_meters":16400,"station_id":"ce4bh092rcd13ifvqd20","pricing_plan_id":"cebpf4jnsgd1na2vs0mg"},{"bike_id":"bd17d683-0860-4a83-8fbc-7616b06e828f","system_id":"levelo_inurba_marseille","lat":43.28845,"lon":5.39296,"is_reserved":false,"is_disabled":false,"rental_uris":{"android":"levelo://app?vid=bd17d683-0860-4a83-8fbc-7616b06e828f","ios":"levelo://app?vid=bd17d683-0860-4a83-8fbc-7616b06e828f"},"vehicle_type_id":"4","last_reported":1752099033,"current_range_meters":16400,"station_id":"ce4bh2p2rcd13ifvqdi0","pricing_plan_id":"cebpf4jnsgd1na2vs0mg"},{"bike_id":"38162375-8ecb-4f64-b7d3-e78375b9b2ea","system_id":"levelo_inurba_marseille","lat":43.29439,"lon":5.39763,"is_reserved":false,"is_disabled":false,"rental_uris":{"android":"levelo://app?vid=38162375-8ecb-4f64-b7d3-e78375b9b2ea","ios":"levelo://app?vid=38162375-8ecb-4f64-b7d3-e78375b9b2ea"},"vehicle_type_id":"4","last_reported":1752099033,"current_range_meters":16400,"station_id":"ce4bh3h2rcd13ifvqdo0","pricing_plan_id":"cebpf4jnsgd1na2vs0mg"},{"bike_id":"e9a7beeb-da80-400c-a4c4-eb292672042c","system_id":"levelo_inurba_marseille","lat":43.28061,"lon":5.39632,"is_reserved":false,"is_disabled":false,"rental_uris":{"android":"levelo://app?vid=e9a7beeb-da80-400c-a4c4-eb292672042c","ios":"levelo://app?vid=e9a7beeb-da80-400c-a4c4-eb292672042c"},"vehicle_type_id":"4","last_reported":1752099033,"current_range_meters":16400,"station_id":"ce4bho12rcd13ifvqh2g","pricing_plan_id":"cebpf4jnsgd1na2vs0mg"},{"bike_id":"73fe94e8-74f9-41f0-85e9-7d8c52adf2fc","system_id":"levelo_inurba_marseille","lat":43.21242,"lon":5.35298,"is_reserved":false,"is_disabled":false,"rental_uris":{"android":"levelo://app?vid=73fe94e8-74f9-41f0-85e9-7d8c52adf2fc","ios":"levelo://app?vid=73fe94e8-74f9-41f0-85e9-7d8c52adf2fc"},"vehicle_type_id":"4","last_reported":1752099033,"current_range_meters":16800,"station_id":"","pricing_plan_id":"cebpf4jnsgd1na2vs0mg"},{"bike_id":"36c387ea-be50-4028-8ecc-21605fe3e879","system_id":"levelo_inurba_marseille","lat":43.29346,"lon":5.42831,"is_reserved":false,"is_disabled":false,"rental_uris":{"android":"levelo://app?vid=36c387ea-be50-4028-8ecc-21605fe3e879","ios":"levelo://app?vid=36c387ea-be50-4028-8ecc-21605fe3e879"},"vehicle_type_id":"4","last_reported":1752099033,"current_range_meters":16800,"station_id":"","pricing_plan_id":"cebpf4jnsgd1na2vs0mg"},{"bike_id":"6ef5f3ea-45a5-4129-a8bc-9005968550f8","system_id":"levelo_inurba_marseille","lat":43.30966,"lon":5.37506,"is_reserved":false,"is_disabled":false,"rental_uris":{"android":"levelo://app?vid=6ef5f3ea-45a5-4129-a8bc-9005968550f8","ios":"levelo://app?vid=6ef5f3ea-45a5-4129-a8bc-9005968550f8"},"vehicle_type_id":"4","last_reported":1752099033,"current_range_meters":16800,"station_id":"","pricing_plan_id":"cebpf4jnsgd1na2vs0mg"},{"bike_id":"30b87e05-0a21-421b-b7f9-298cc2b8e55e","system_id":"levelo_inurba_marseille","lat":43.29186,"lon":5.39334,"is_reserved":false,"is_disabled":false,"rental_uris":{"android":"levelo://app?vid=30b87e05-0a21-421b-b7f9-298cc2b8e55e","ios":"levelo://app?vid=30b87e05-0a21-421b-b7f9-298cc2b8e55e"},"vehicle_type_id":"4","last_reported":1752099033,"current_range_meters":16800,"station_id":"ce4bh192rcd13ifvqdd0","pricing_plan_id":"cebpf4jnsgd1na2vs0mg"},{"bike_id":"91cc66f4-3018-47ec-99f4-80d9e25099d3","system_id":"levelo_inurba_marseille","lat":43.336,"lon":5.4099,"is_reserved":false,"is_disabled":false,"rental_uris":{"android":"levelo://app?vid=91cc66f4-3018-47ec-99f4-80d9e25099d3","ios":"levelo://app?vid=91cc66f4-3018-47ec-99f4-80d9e25099d3"},"vehicle_type_id":"4","last_reported":1752099033,"current_range_meters":16800,"station_id":"ce4bhqh2rcd13ifvqhmg","pricing_plan_id":"cebpf4jnsgd1na2vs0mg"},{"bike_id":"cade331f-a6e3-4d01-8bc4-dd218718d65a","system_id":"levelo_inurba_marseille","lat":43.33771,"lon":5.37474,"is_reserved":false,"is_disabled":false,"rental_uris":{"android":"levelo://app?vid=cade331f-a6e3-4d01-8bc4-dd218718d65a","ios":"levelo://app?vid=cade331f-a6e3-4d01-8bc4-dd218718d65a"},"vehicle_type_id":"4","last_reported":1752099033,"current_range_meters":17200,"station_id":"","pricing_plan_id":"cebpf4jnsgd1na2vs0mg"},{"bike_id":"87d13c3c-9453-4492-8a8f-f2b4c8e828c6","system_id":"levelo_inurba_marseille","lat":43.26177,"lon":5.37049,"is_reserved":false,"is_disabled":false,"rental_uris":{"android":"levelo://app?vid=87d13c3c-9453-4492-8a8f-f2b4c8e828c6","ios":"levelo://app?vid=87d13c3c-9453-4492-8a8f-f2b4c8e828c6"},"vehicle_type_id":"4","last_reported":1752099033,"current_range_meters":17200,"station_id":"","pricing_plan_id":"cebpf4jnsgd1na2vs0mg"},{"bike_id":"feaa7e3a-cbe4-4489-be11-8a12d7eec173","system_id":"levelo_inurba_marseille","lat":43.25187,"lon":5.42482,"is_reserved":false,"is_disabled":false,"rental_uris":{"android":"levelo://app?vid=feaa7e3a-cbe4-4489-be11-8a12d7eec173","ios":"levelo://app?vid=feaa7e3a-cbe4-4489-be11-8a12d7eec173"},"vehicle_type_id":"4","last_reported":1752099033,"current_range_meters":17200,"station_id":"","pricing_plan_id":"cebpf4jnsgd1na2vs0mg"},{"bike_id":"dce32298-a04a-46ad-950c-b3638c836df0","system_id":"levelo_inurba_marseille","lat":43.280429,"lon":5.369079,"is_reserved":false,"is_disabled":false,"rental_uris":{"android":"levelo://app?vid=dce32298-a04a-46ad-950c-b3638c836df0","ios":"levelo://app?vid=dce32298-a04a-46ad-950c-b3638c836df0"},"vehicle_type_id":"4","last_reported":1752099033,"current_range_meters":17200,"station_id":"ce4bha12rcd13ifvqef0","pricing_plan_id":"cebpf4jnsgd1na2vs0mg"},{"bike_id":"3c2be974-f10a-47a0-ae30-b9e120db49ce","system_id":"levelo_inurba_marseille","lat":43.25461,"lon":5.3766,"is_reserved":false,"is_disabled":false,"rental_uris":{"android":"levelo://app?vid=3c2be974-f10a-47a0-ae30-b9e120db49ce","ios":"levelo://app?vid=3c2be974-f10a-47a0-ae30-b9e120db49ce"},"vehicle_type_id":"4","last_reported":1752099033,"current_range_meters":17200,"station_id":"ce4bhh12rcd13ifvqff0","pricing_plan_id":"cebpf4jnsgd1na2vs0mg"},{"bike_id":"82f46cba-e34c-43ef-9013-fb2392bd7d60","system_id":"levelo_inurba_marseille","lat":43.26948,"lon":5.38654,"is_reserved":false,"is_disabled":false,"rental_uris":{"android":"levelo://app?vid=82f46cba-e34c-43ef-9013-fb2392bd7d60","ios":"levelo://app?vid=82f46cba-e34c-43ef-9013-fb2392bd7d60"},"vehicle_type_id":"4","last_reported":1752099033,"current_range_meters":17200,"station_id":"ce4bhh92rcd13ifvqfh0","pricing_plan_id":"cebpf4jnsgd1na2vs0mg"},{"bike_id":"adad6312-4f28-48c6-88d0-b8656e8d6da6","system_id":"levelo_inurba_marseille","lat":43.27995,"lon":5.40017,"is_reserved":false,"is_disabled":false,"rental_uris":{"android":"levelo://app?vid=adad6312-4f28-48c6-88d0-b8656e8d6da6","ios":"levelo://app?vid=adad6312-4f28-48c6-88d0-b8656e8d6da6"},"vehicle_type_id":"4","last_reported":1752099033,"current_range_meters":17200,"station_id":"ce4bho92rcd13ifvqh4g","pricing_plan_id":"cebpf4jnsgd1na2vs0mg"},{"bike_id":"96764fb6-3d76-47a5-8684-de3a6e818fbf","system_id":"levelo_inurba_marseille","lat":43.31223,"lon":5.36862,"is_reserved":false,"is_disabled":false,"rental_uris":{"android":"levelo://app?vid=96764fb6-3d76-47a5-8684-de3a6e818fbf","ios":"levelo://app?vid=96764fb6-3d76-47a5-8684-de3a6e818fbf"},"vehicle_type_id":"4","last_reported":1752099033,"current_range_meters":17600,"station_id":"ce4bgl92rcd13ifvqbq0","pricing_plan_id":"cebpf4jnsgd1na2vs0mg"},{"bike_id":"0339a0ed-276a-442c-bace-d643bf81c4f4","system_id":"levelo_inurba_marseille","lat":43.250752,"lon":5.403203,"is_reserved":false,"is_disabled":false,"rental_uris":{"android":"levelo://app?vid=0339a0ed-276a-442c-bace-d643bf81c4f4","ios":"levelo://app?vid=0339a0ed-276a-442c-bace-d643bf81c4f4"},"vehicle_type_id":"4","last_reported":1752099033,"current_range_meters":17600,"station_id":"ce4bhlh2rcd13ifvqgig","pricing_plan_id":"cebpf4jnsgd1na2vs0mg"},{"bike_id":"f373e4a8-33e3-4f72-ae8e-e7ab386910f4","system_id":"levelo_inurba_marseille","lat":43.22473,"lon":5.34792,"is_reserved":false,"is_disabled":false,"rental_uris":{"android":"levelo://app?vid=f373e4a8-33e3-4f72-ae8e-e7ab386910f4","ios":"levelo://app?vid=f373e4a8-33e3-4f72-ae8e-e7ab386910f4"},"vehicle_type_id":"4","last_reported":1752099033,"current_range_meters":17600,"station_id":"st_cvj5dfep6f1abm77gieg","pricing_plan_id":"cebpf4jnsgd1na2vs0mg"},{"bike_id":"069759f3-8488-4973-b337-5e447fc27e24","system_id":"levelo_inurba_marseille","lat":43.21195,"lon":5.35092,"is_reserved":false,"is_disabled":false,"rental_uris":{"android":"levelo://app?vid=069759f3-8488-4973-b337-5e447fc27e24","ios":"levelo://app?vid=069759f3-8488-4973-b337-5e447fc27e24"},"vehicle_type_id":"4","last_reported":1752099033,"current_range_meters":17600,"station_id":"st_cvj6sg6p6f1abm77japg","pricing_plan_id":"cebpf4jnsgd1na2vs0mg"},{"bike_id":"cc63da02-fffb-4f4c-8416-18cf7673613b","system_id":"levelo_inurba_marseille","lat":43.31393,"lon":5.404,"is_reserved":false,"is_disabled":false,"rental_uris":{"android":"levelo://app?vid=cc63da02-fffb-4f4c-8416-18cf7673613b","ios":"levelo://app?vid=cc63da02-fffb-4f4c-8416-18cf7673613b"},"vehicle_type_id":"4","last_reported":1752099033,"current_range_meters":18000,"station_id":"","pricing_plan_id":"cebpf4jnsgd1na2vs0mg"},{"bike_id":"9f5e74ce-2459-4c6f-a171-f6d1e8a1ed83","system_id":"levelo_inurba_marseille","lat":43.31851,"lon":5.37553,"is_reserved":false,"is_disabled":false,"rental_uris":{"android":"levelo://app?vid=9f5e74ce-2459-4c6f-a171-f6d1e8a1ed83","ios":"levelo://app?vid=9f5e74ce-2459-4c6f-a171-f6d1e8a1ed83"},"vehicle_type_id":"4","last_reported":1752099033,"current_range_meters":18000,"station_id":"","pricing_plan_id":"cebpf4jnsgd1na2vs0mg"},{"bike_id":"fde530d0-eeed-4692-bb9c-2c65ba0cdd9f","system_id":"levelo_inurba_marseille","lat":43.30857,"lon":5.42584,"is_reserved":false,"is_disabled":false,"rental_uris":{"android":"levelo://app?vid=fde530d0-eeed-4692-bb9c-2c65ba0cdd9f","ios":"levelo://app?vid=fde530d0-eeed-4692-bb9c-2c65ba0cdd9f"},"vehicle_type_id":"4","last_reported":1752099033,"current_range_meters":18000,"station_id":"","pricing_plan_id":"cebpf4jnsgd1na2vs0mg"},{"bike_id":"67728b74-dea6-4280-b7d7-1c3ec873034a","system_id":"levelo_inurba_marseille","lat":43.30529,"lon":5.38432,"is_reserved":false,"is_disabled":false,"rental_uris":{"android":"levelo://app?vid=67728b74-dea6-4280-b7d7-1c3ec873034a","ios":"levelo://app?vid=67728b74-dea6-4280-b7d7-1c3ec873034a"},"vehicle_type_id":"4","last_reported":1752099033,"current_range_meters":18000,"station_id":"ce4bgg92rcd13ifvqb30","pricing_plan_id":"cebpf4jnsgd1na2vs0mg"},{"bike_id":"ada7e5c9-fde1-4d26-9faf-a40efeb8a10b","system_id":"levelo_inurba_marseille","lat":43.29935,"lon":5.36549,"is_reserved":false,"is_disabled":false,"rental_uris":{"android":"levelo://app?vid=ada7e5c9-fde1-4d26-9faf-a40efeb8a10b","ios":"levelo://app?vid=ada7e5c9-fde1-4d26-9faf-a40efeb8a10b"},"vehicle_type_id":"4","last_reported":1752099033,"current_range_meters":18000,"station_id":"ce4bgm92rcd13ifvqbr0","pricing_plan_id":"cebpf4jnsgd1na2vs0mg"},{"bike_id":"13ff7ef9-0e83-45d5-89d5-b21b9e0d21bc","system_id":"levelo_inurba_marseille","lat":43.30928,"lon":5.4014,"is_reserved":false,"is_disabled":false,"rental_uris":{"android":"levelo://app?vid=13ff7ef9-0e83-45d5-89d5-b21b9e0d21bc","ios":"levelo://app?vid=13ff7ef9-0e83-45d5-89d5-b21b9e0d21bc"},"vehicle_type_id":"4","last_reported":1752099033,"current_range_meters":18000,"station_id":"ce4bgvp2rcd13ifvqct0","pricing_plan_id":"cebpf4jnsgd1na2vs0mg"},{"bike_id":"4a961b2e-dda7-402f-979a-e01427f73a97","system_id":"levelo_inurba_marseille","lat":43.29414,"lon":5.38626,"is_reserved":false,"is_disabled":false,"rental_uris":{"android":"levelo://app?vid=4a961b2e-dda7-402f-979a-e01427f73a97","ios":"levelo://app?vid=4a961b2e-dda7-402f-979a-e01427f73a97"},"vehicle_type_id":"4","last_reported":1752099033,"current_range_meters":18000,"station_id":"ce4bh2h2rcd13ifvqdh0","pricing_plan_id":"cebpf4jnsgd1na2vs0mg"},{"bike_id":"ef4c9700-70eb-4f01-9f10-d337fb439455","system_id":"levelo_inurba_marseille","lat":43.28098,"lon":5.37826,"is_reserved":false,"is_disabled":false,"rental_uris":{"android":"levelo://app?vid=ef4c9700-70eb-4f01-9f10-d337fb439455","ios":"levelo://app?vid=ef4c9700-70eb-4f01-9f10-d337fb439455"},"vehicle_type_id":"4","last_reported":1752099033,"current_range_meters":18000,"station_id":"ce4bha12rcd13ifvqee0","pricing_plan_id":"cebpf4jnsgd1na2vs0mg"},{"bike_id":"28fdd2ae-ade8-4d65-9e0b-594b018cecc2","system_id":"levelo_inurba_marseille","lat":43.25501,"lon":5.37655,"is_reserved":false,"is_disabled":false,"rental_uris":{"android":"levelo://app?vid=28fdd2ae-ade8-4d65-9e0b-594b018cecc2","ios":"levelo://app?vid=28fdd2ae-ade8-4d65-9e0b-594b018cecc2"},"vehicle_type_id":"4","last_reported":1752099033,"current_range_meters":18000,"station_id":"ce4bhh12rcd13ifvqff0","pricing_plan_id":"cebpf4jnsgd1na2vs0mg"},{"bike_id":"fa3e63a3-6689-4068-b0ba-45113e4ad025","system_id":"levelo_inurba_marseille","lat":43.26932,"lon":5.38915,"is_reserved":false,"is_disabled":false,"rental_uris":{"android":"levelo://app?vid=fa3e63a3-6689-4068-b0ba-45113e4ad025","ios":"levelo://app?vid=fa3e63a3-6689-4068-b0ba-45113e4ad025"},"vehicle_type_id":"4","last_reported":1752099033,"current_range_meters":18000,"station_id":"ce4bhhh2rcd13ifvqfl0","pricing_plan_id":"cebpf4jnsgd1na2vs0mg"},{"bike_id":"6dc8381f-388b-4539-8e59-6e1973fff9f4","system_id":"levelo_inurba_marseille","lat":43.28847,"lon":5.39306,"is_reserved":false,"is_disabled":false,"rental_uris":{"android":"levelo://app?vid=6dc8381f-388b-4539-8e59-6e1973fff9f4","ios":"levelo://app?vid=6dc8381f-388b-4539-8e59-6e1973fff9f4"},"vehicle_type_id":"4","last_reported":1752099033,"current_range_meters":18800,"station_id":"ce4bh2p2rcd13ifvqdi0","pricing_plan_id":"cebpf4jnsgd1na2vs0mg"},{"bike_id":"75af99b8-2e5f-428a-b3ea-21854f5f369d","system_id":"levelo_inurba_marseille","lat":43.30419,"lon":5.41286,"is_reserved":false,"is_disabled":false,"rental_uris":{"android":"levelo://app?vid=75af99b8-2e5f-428a-b3ea-21854f5f369d","ios":"levelo://app?vid=75af99b8-2e5f-428a-b3ea-21854f5f369d"},"vehicle_type_id":"4","last_reported":1752099033,"current_range_meters":18800,"station_id":"ce4bhop2rcd13ifvqh8g","pricing_plan_id":"cebpf4jnsgd1na2vs0mg"},{"bike_id":"185afeba-d808-4e02-a0a9-f1c6681a8cc4","system_id":"levelo_inurba_marseille","lat":43.31756,"lon":5.38996,"is_reserved":false,"is_disabled":false,"rental_uris":{"android":"levelo://app?vid=185afeba-d808-4e02-a0a9-f1c6681a8cc4","ios":"levelo://app?vid=185afeba-d808-4e02-a0a9-f1c6681a8cc4"},"vehicle_type_id":"4","last_reported":1752099033,"current_range_meters":18800,"station_id":"ce4bhqp2rcd13ifvqhng","pricing_plan_id":"cebpf4jnsgd1na2vs0mg"},{"bike_id":"744de9c5-5760-4c22-96e4-d65a1e22d14f","system_id":"levelo_inurba_marseille","lat":43.32061,"lon":5.40917,"is_reserved":false,"is_disabled":false,"rental_uris":{"android":"levelo://app?vid=744de9c5-5760-4c22-96e4-d65a1e22d14f","ios":"levelo://app?vid=744de9c5-5760-4c22-96e4-d65a1e22d14f"},"vehicle_type_id":"4","last_reported":1752099033,"current_range_meters":19200,"station_id":"","pricing_plan_id":"cebpf4jnsgd1na2vs0mg"},{"bike_id":"bd5228ab-002e-4f81-bbd3-2baf5452f591","system_id":"levelo_inurba_marseille","lat":43.27828,"lon":5.41462,"is_reserved":false,"is_disabled":false,"rental_uris":{"android":"levelo://app?vid=bd5228ab-002e-4f81-bbd3-2baf5452f591","ios":"levelo://app?vid=bd5228ab-002e-4f81-bbd3-2baf5452f591"},"vehicle_type_id":"4","last_reported":1752099033,"current_range_meters":19200,"station_id":"","pricing_plan_id":"cebpf4jnsgd1na2vs0mg"},{"bike_id":"fa87fcb5-aacb-41a1-a789-0296bbd02085","system_id":"levelo_inurba_marseille","lat":43.2458,"lon":5.37376,"is_reserved":false,"is_disabled":false,"rental_uris":{"android":"levelo://app?vid=fa87fcb5-aacb-41a1-a789-0296bbd02085","ios":"levelo://app?vid=fa87fcb5-aacb-41a1-a789-0296bbd02085"},"vehicle_type_id":"4","last_reported":1752099033,"current_range_meters":19200,"station_id":"","pricing_plan_id":"cebpf4jnsgd1na2vs0mg"},{"bike_id":"4e209b0c-855f-4b51-8120-2faef8673853","system_id":"levelo_inurba_marseille","lat":43.30621,"lon":5.36923,"is_reserved":false,"is_disabled":false,"rental_uris":{"android":"levelo://app?vid=4e209b0c-855f-4b51-8120-2faef8673853","ios":"levelo://app?vid=4e209b0c-855f-4b51-8120-2faef8673853"},"vehicle_type_id":"4","last_reported":1752099033,"current_range_meters":19200,"station_id":"","pricing_plan_id":"cebpf4jnsgd1na2vs0mg"},{"bike_id":"41ac9758-dab1-4592-8114-d6f2b7d7d0cd","system_id":"levelo_inurba_marseille","lat":43.30257,"lon":5.40082,"is_reserved":false,"is_disabled":false,"rental_uris":{"android":"levelo://app?vid=41ac9758-dab1-4592-8114-d6f2b7d7d0cd","ios":"levelo://app?vid=41ac9758-dab1-4592-8114-d6f2b7d7d0cd"},"vehicle_type_id":"4","last_reported":1752099033,"current_range_meters":19200,"station_id":"ce4bgvh2rcd13ifvqcs0","pricing_plan_id":"cebpf4jnsgd1na2vs0mg"},{"bike_id":"385b1039-4f4f-40af-bf18-3268dd09afcd","system_id":"levelo_inurba_marseille","lat":43.29525,"lon":5.39406,"is_reserved":false,"is_disabled":false,"rental_uris":{"android":"levelo://app?vid=385b1039-4f4f-40af-bf18-3268dd09afcd","ios":"levelo://app?vid=385b1039-4f4f-40af-bf18-3268dd09afcd"},"vehicle_type_id":"4","last_reported":1752099033,"current_range_meters":19200,"station_id":"ce4bh292rcd13ifvqdf0","pricing_plan_id":"cebpf4jnsgd1na2vs0mg"},{"bike_id":"e666ba64-3775-4e7e-be5b-e8a246437c8c","system_id":"levelo_inurba_marseille","lat":43.28931,"lon":5.36641,"is_reserved":false,"is_disabled":false,"rental_uris":{"android":"levelo://app?vid=e666ba64-3775-4e7e-be5b-e8a246437c8c","ios":"levelo://app?vid=e666ba64-3775-4e7e-be5b-e8a246437c8c"},"vehicle_type_id":"4","last_reported":1752099033,"current_range_meters":19200,"station_id":"ce4bhap2rcd13ifvqek0","pricing_plan_id":"cebpf4jnsgd1na2vs0mg"},{"bike_id":"0dbd02fc-8280-4da5-a731-37213cc48af4","system_id":"levelo_inurba_marseille","lat":43.27912,"lon":5.39577,"is_reserved":false,"is_disabled":false,"rental_uris":{"android":"levelo://app?vid=0dbd02fc-8280-4da5-a731-37213cc48af4","ios":"levelo://app?vid=0dbd02fc-8280-4da5-a731-37213cc48af4"},"vehicle_type_id":"4","last_reported":1752099033,"current_range_meters":19200,"station_id":"ce4bhf92rcd13ifvqf40","pricing_plan_id":"cebpf4jnsgd1na2vs0mg"},{"bike_id":"bb0709bd-fa83-4a12-98cb-47d507dcaf42","system_id":"levelo_inurba_marseille","lat":43.27835,"lon":5.39201,"is_reserved":false,"is_disabled":false,"rental_uris":{"android":"levelo://app?vid=bb0709bd-fa83-4a12-98cb-47d507dcaf42","ios":"levelo://app?vid=bb0709bd-fa83-4a12-98cb-47d507dcaf42"},"vehicle_type_id":"4","last_reported":1752099033,"current_range_meters":19200,"station_id":"ce4bhjp2rcd13ifvqga0","pricing_plan_id":"cebpf4jnsgd1na2vs0mg"},{"bike_id":"d84fcb78-434e-4857-a59b-bf1ff23ff44a","system_id":"levelo_inurba_marseille","lat":43.2815,"lon":5.42669,"is_reserved":false,"is_disabled":false,"rental_uris":{"android":"levelo://app?vid=d84fcb78-434e-4857-a59b-bf1ff23ff44a","ios":"levelo://app?vid=d84fcb78-434e-4857-a59b-bf1ff23ff44a"},"vehicle_type_id":"4","last_reported":1752099033,"current_range_meters":19200,"station_id":"ce4bhnh2rcd13ifvqgug","pricing_plan_id":"cebpf4jnsgd1na2vs0mg"},{"bike_id":"24b17f7b-dff1-4936-b27a-7c2c6813a894","system_id":"levelo_inurba_marseille","lat":43.24582,"lon":5.373751,"is_reserved":false,"is_disabled":false,"rental_uris":{"android":"levelo://app?vid=24b17f7b-dff1-4936-b27a-7c2c6813a894","ios":"levelo://app?vid=24b17f7b-dff1-4936-b27a-7c2c6813a894"},"vehicle_type_id":"4","last_reported":1752099033,"current_range_meters":19600,"station_id":"","pricing_plan_id":"cebpf4jnsgd1na2vs0mg"},{"bike_id":"d6e55079-9576-483d-a3e4-52b8094047a3","system_id":"levelo_inurba_marseille","lat":43.30948,"lon":5.39038,"is_reserved":false,"is_disabled":false,"rental_uris":{"android":"levelo://app?vid=d6e55079-9576-483d-a3e4-52b8094047a3","ios":"levelo://app?vid=d6e55079-9576-483d-a3e4-52b8094047a3"},"vehicle_type_id":"4","last_reported":1752099033,"current_range_meters":19600,"station_id":"ce4bgup2rcd13ifvqco0","pricing_plan_id":"cebpf4jnsgd1na2vs0mg"},{"bike_id":"55eb3ee3-207d-45c9-a356-7e275a6ee08e","system_id":"levelo_inurba_marseille","lat":43.322208,"lon":5.407363,"is_reserved":false,"is_disabled":false,"rental_uris":{"android":"levelo://app?vid=55eb3ee3-207d-45c9-a356-7e275a6ee08e","ios":"levelo://app?vid=55eb3ee3-207d-45c9-a356-7e275a6ee08e"},"vehicle_type_id":"4","last_reported":1752099033,"current_range_meters":19600,"station_id":"ce4bh092rcd13ifvqd30","pricing_plan_id":"cebpf4jnsgd1na2vs0mg"},{"bike_id":"0ef0e87c-f72d-4be6-8f69-e8637df5ea0b","system_id":"levelo_inurba_marseille","lat":43.289924,"lon":5.398613,"is_reserved":false,"is_disabled":false,"rental_uris":{"android":"levelo://app?vid=0ef0e87c-f72d-4be6-8f69-e8637df5ea0b","ios":"levelo://app?vid=0ef0e87c-f72d-4be6-8f69-e8637df5ea0b"},"vehicle_type_id":"4","last_reported":1752099033,"current_range_meters":19600,"station_id":"ce4bh292rcd13ifvqdg0","pricing_plan_id":"cebpf4jnsgd1na2vs0mg"},{"bike_id":"3656e3f8-7d02-4175-a894-8c1fcf478489","system_id":"levelo_inurba_marseille","lat":43.28846,"lon":5.39311,"is_reserved":false,"is_disabled":false,"rental_uris":{"android":"levelo://app?vid=3656e3f8-7d02-4175-a894-8c1fcf478489","ios":"levelo://app?vid=3656e3f8-7d02-4175-a894-8c1fcf478489"},"vehicle_type_id":"4","last_reported":1752099033,"current_range_meters":19600,"station_id":"ce4bh2p2rcd13ifvqdi0","pricing_plan_id":"cebpf4jnsgd1na2vs0mg"},{"bike_id":"e08991a4-0108-43e9-91a3-ab1dd62bce53","system_id":"levelo_inurba_marseille","lat":43.2873,"lon":5.36088,"is_reserved":false,"is_disabled":false,"rental_uris":{"android":"levelo://app?vid=e08991a4-0108-43e9-91a3-ab1dd62bce53","ios":"levelo://app?vid=e08991a4-0108-43e9-91a3-ab1dd62bce53"},"vehicle_type_id":"4","last_reported":1752099033,"current_range_meters":19600,"station_id":"cki0cbj6b192h4jlfktg","pricing_plan_id":"cebpf4jnsgd1na2vs0mg"},{"bike_id":"ee1ac907-8623-4d00-ac01-d41dd90be9fe","system_id":"levelo_inurba_marseille","lat":43.21197,"lon":5.35069,"is_reserved":false,"is_disabled":false,"rental_uris":{"android":"levelo://app?vid=ee1ac907-8623-4d00-ac01-d41dd90be9fe","ios":"levelo://app?vid=ee1ac907-8623-4d00-ac01-d41dd90be9fe"},"vehicle_type_id":"4","last_reported":1752099033,"current_range_meters":19600,"station_id":"st_cvj6sg6p6f1abm77japg","pricing_plan_id":"cebpf4jnsgd1na2vs0mg"},{"bike_id":"417fef00-4e1b-429c-9c83-e733bff530be","system_id":"levelo_inurba_marseille","lat":43.29295,"lon":5.37444,"is_reserved":false,"is_disabled":false,"rental_uris":{"android":"levelo://app?vid=417fef00-4e1b-429c-9c83-e733bff530be","ios":"levelo://app?vid=417fef00-4e1b-429c-9c83-e733bff530be"},"vehicle_type_id":"4","last_reported":1752099033,"current_range_meters":20000,"station_id":"ce4bgi12rcd13ifvqb70","pricing_plan_id":"cebpf4jnsgd1na2vs0mg"},{"bike_id":"6f7da264-b18f-43aa-92fc-be26a29fb30e","system_id":"levelo_inurba_marseille","lat":43.31175,"lon":5.3871,"is_reserved":false,"is_disabled":false,"rental_uris":{"android":"levelo://app?vid=6f7da264-b18f-43aa-92fc-be26a29fb30e","ios":"levelo://app?vid=6f7da264-b18f-43aa-92fc-be26a29fb30e"},"vehicle_type_id":"4","last_reported":1752099033,"current_range_meters":20000,"station_id":"ce4bgv12rcd13ifvqcp0","pricing_plan_id":"cebpf4jnsgd1na2vs0mg"},{"bike_id":"89c88601-23fc-46eb-8f34-723cccb1bf9d","system_id":"levelo_inurba_marseille","lat":43.27501,"lon":5.42459,"is_reserved":false,"is_disabled":false,"rental_uris":{"android":"levelo://app?vid=89c88601-23fc-46eb-8f34-723cccb1bf9d","ios":"levelo://app?vid=89c88601-23fc-46eb-8f34-723cccb1bf9d"},"vehicle_type_id":"4","last_reported":1752099033,"current_range_meters":20000,"station_id":"ce4bhn92rcd13ifvqgrg","pricing_plan_id":"cebpf4jnsgd1na2vs0mg"},{"bike_id":"785a6026-326b-499a-ab69-1df710785377","system_id":"levelo_inurba_marseille","lat":43.24056,"lon":5.37758,"is_reserved":false,"is_disabled":false,"rental_uris":{"android":"levelo://app?vid=785a6026-326b-499a-ab69-1df710785377","ios":"levelo://app?vid=785a6026-326b-499a-ab69-1df710785377"},"vehicle_type_id":"4","last_reported":1752099033,"current_range_meters":20000,"station_id":"ce4bhnp2rcd13ifvqgvg","pricing_plan_id":"cebpf4jnsgd1na2vs0mg"},{"bike_id":"aec3b76a-8323-4ffd-8422-3c50c887634c","system_id":"levelo_inurba_marseille","lat":43.32645,"lon":5.40995,"is_reserved":false,"is_disabled":false,"rental_uris":{"android":"levelo://app?vid=aec3b76a-8323-4ffd-8422-3c50c887634c","ios":"levelo://app?vid=aec3b76a-8323-4ffd-8422-3c50c887634c"},"vehicle_type_id":"4","last_reported":1752099033,"current_range_meters":20000,"station_id":"ce4bhpp2rcd13ifvqhgg","pricing_plan_id":"cebpf4jnsgd1na2vs0mg"},{"bike_id":"8f89e4f3-495a-4317-bd6d-37a19186d65b","system_id":"levelo_inurba_marseille","lat":43.33727,"lon":5.39186,"is_reserved":false,"is_disabled":false,"rental_uris":{"android":"levelo://app?vid=8f89e4f3-495a-4317-bd6d-37a19186d65b","ios":"levelo://app?vid=8f89e4f3-495a-4317-bd6d-37a19186d65b"},"vehicle_type_id":"4","last_reported":1752099033,"current_range_meters":20000,"station_id":"ce4bhr92rcd13ifvqhsg","pricing_plan_id":"cebpf4jnsgd1na2vs0mg"},{"bike_id":"b10bc859-a654-4408-896a-0bccdef2d357","system_id":"levelo_inurba_marseille","lat":43.30429,"lon":5.38886,"is_reserved":false,"is_disabled":false,"rental_uris":{"android":"levelo://app?vid=b10bc859-a654-4408-896a-0bccdef2d357","ios":"levelo://app?vid=b10bc859-a654-4408-896a-0bccdef2d357"},"vehicle_type_id":"4","last_reported":1752099033,"current_range_meters":20400,"station_id":"ce4bgk12rcd13ifvqbi0","pricing_plan_id":"cebpf4jnsgd1na2vs0mg"},{"bike_id":"bc694ff3-85db-4017-9f7a-0608e7c61c82","system_id":"levelo_inurba_marseille","lat":43.31074,"lon":5.38347,"is_reserved":false,"is_disabled":false,"rental_uris":{"android":"levelo://app?vid=bc694ff3-85db-4017-9f7a-0608e7c61c82","ios":"levelo://app?vid=bc694ff3-85db-4017-9f7a-0608e7c61c82"},"vehicle_type_id":"4","last_reported":1752099033,"current_range_meters":20400,"station_id":"ce4bgv92rcd13ifvqcr0","pricing_plan_id":"cebpf4jnsgd1na2vs0mg"},{"bike_id":"a1435ce7-9329-4343-816e-5becc7b942de","system_id":"levelo_inurba_marseille","lat":43.30208,"lon":5.39463,"is_reserved":false,"is_disabled":false,"rental_uris":{"android":"levelo://app?vid=a1435ce7-9329-4343-816e-5becc7b942de","ios":"levelo://app?vid=a1435ce7-9329-4343-816e-5becc7b942de"},"vehicle_type_id":"4","last_reported":1752099033,"current_range_meters":20400,"station_id":"ce4bh0p2rcd13ifvqd70","pricing_plan_id":"cebpf4jnsgd1na2vs0mg"},{"bike_id":"46bc8a9d-d8ad-4bba-848f-dc6c46de8d52","system_id":"levelo_inurba_marseille","lat":43.24802,"lon":5.37453,"is_reserved":false,"is_disabled":false,"rental_uris":{"android":"levelo://app?vid=46bc8a9d-d8ad-4bba-848f-dc6c46de8d52","ios":"levelo://app?vid=46bc8a9d-d8ad-4bba-848f-dc6c46de8d52"},"vehicle_type_id":"4","last_reported":1752099033,"current_range_meters":20400,"station_id":"ce4bhgh2rcd13ifvqfb0","pricing_plan_id":"cebpf4jnsgd1na2vs0mg"},{"bike_id":"cc91f022-5f4f-478d-8287-995a3efb66d1","system_id":"levelo_inurba_marseille","lat":43.26213,"lon":5.40456,"is_reserved":false,"is_disabled":false,"rental_uris":{"android":"levelo://app?vid=cc91f022-5f4f-478d-8287-995a3efb66d1","ios":"levelo://app?vid=cc91f022-5f4f-478d-8287-995a3efb66d1"},"vehicle_type_id":"4","last_reported":1752099033,"current_range_meters":20400,"station_id":"ce4bhmh2rcd13ifvqgmg","pricing_plan_id":"cebpf4jnsgd1na2vs0mg"},{"bike_id":"d62848fe-8774-425c-8d81-4ceb5a5e21f7","system_id":"levelo_inurba_marseille","lat":43.29555,"lon":5.42294,"is_reserved":false,"is_disabled":false,"rental_uris":{"android":"levelo://app?vid=d62848fe-8774-425c-8d81-4ceb5a5e21f7","ios":"levelo://app?vid=d62848fe-8774-425c-8d81-4ceb5a5e21f7"},"vehicle_type_id":"4","last_reported":1752099033,"current_range_meters":20400,"station_id":"ce4bhph2rcd13ifvqhdg","pricing_plan_id":"cebpf4jnsgd1na2vs0mg"},{"bike_id":"d6183b14-14ca-44c7-b355-9bc124d67e93","system_id":"levelo_inurba_marseille","lat":43.31489,"lon":5.38014,"is_reserved":false,"is_disabled":false,"rental_uris":{"android":"levelo://app?vid=d6183b14-14ca-44c7-b355-9bc124d67e93","ios":"levelo://app?vid=d6183b14-14ca-44c7-b355-9bc124d67e93"},"vehicle_type_id":"4","last_reported":1752099033,"current_range_meters":20400,"station_id":"ce4bhsp2rcd13ifvqi50","pricing_plan_id":"cebpf4jnsgd1na2vs0mg"},{"bike_id":"e55186fb-d934-4f81-8e99-e4ed23d7b2cf","system_id":"levelo_inurba_marseille","lat":43.29781,"lon":5.39347,"is_reserved":false,"is_disabled":false,"rental_uris":{"android":"levelo://app?vid=e55186fb-d934-4f81-8e99-e4ed23d7b2cf","ios":"levelo://app?vid=e55186fb-d934-4f81-8e99-e4ed23d7b2cf"},"vehicle_type_id":"4","last_reported":1752099033,"current_range_meters":20400,"station_id":"chh1huq6cuj3fo74tm60","pricing_plan_id":"cebpf4jnsgd1na2vs0mg"},{"bike_id":"d6b8471f-b557-4127-b0b2-fd91f114cb50","system_id":"levelo_inurba_marseille","lat":43.3128,"lon":5.40169,"is_reserved":false,"is_disabled":false,"rental_uris":{"android":"levelo://app?vid=d6b8471f-b557-4127-b0b2-fd91f114cb50","ios":"levelo://app?vid=d6b8471f-b557-4127-b0b2-fd91f114cb50"},"vehicle_type_id":"4","last_reported":1752099033,"current_range_meters":20800,"station_id":"ce4bh092rcd13ifvqd30","pricing_plan_id":"cebpf4jnsgd1na2vs0mg"},{"bike_id":"a37c81c5-d096-4e6d-b1b3-5bbb8251fbd0","system_id":"levelo_inurba_marseille","lat":43.24407,"lon":5.37094,"is_reserved":false,"is_disabled":false,"rental_uris":{"android":"levelo://app?vid=a37c81c5-d096-4e6d-b1b3-5bbb8251fbd0","ios":"levelo://app?vid=a37c81c5-d096-4e6d-b1b3-5bbb8251fbd0"},"vehicle_type_id":"4","last_reported":1752099033,"current_range_meters":20800,"station_id":"ce4bhhh2rcd13ifvqfk0","pricing_plan_id":"cebpf4jnsgd1na2vs0mg"},{"bike_id":"a5a6c2c1-2d48-4581-8647-6eab6c0bbb54","system_id":"levelo_inurba_marseille","lat":43.26899,"lon":5.36907,"is_reserved":false,"is_disabled":false,"rental_uris":{"android":"levelo://app?vid=a5a6c2c1-2d48-4581-8647-6eab6c0bbb54","ios":"levelo://app?vid=a5a6c2c1-2d48-4581-8647-6eab6c0bbb54"},"vehicle_type_id":"4","last_reported":1752099033,"current_range_meters":21600,"station_id":"","pricing_plan_id":"cebpf4jnsgd1na2vs0mg"},{"bike_id":"9dc4db6b-652b-473a-b96a-0f9f93ec7904","system_id":"levelo_inurba_marseille","lat":43.29233,"lon":5.4416,"is_reserved":false,"is_disabled":false,"rental_uris":{"android":"levelo://app?vid=9dc4db6b-652b-473a-b96a-0f9f93ec7904","ios":"levelo://app?vid=9dc4db6b-652b-473a-b96a-0f9f93ec7904"},"vehicle_type_id":"4","last_reported":1752099033,"current_range_meters":21600,"station_id":"","pricing_plan_id":"cebpf4jnsgd1na2vs0mg"},{"bike_id":"ab521df9-ab36-4a3d-a446-31ee393c87dd","system_id":"levelo_inurba_marseille","lat":43.30869,"lon":5.40387,"is_reserved":false,"is_disabled":false,"rental_uris":{"android":"levelo://app?vid=ab521df9-ab36-4a3d-a446-31ee393c87dd","ios":"levelo://app?vid=ab521df9-ab36-4a3d-a446-31ee393c87dd"},"vehicle_type_id":"4","last_reported":1752099033,"current_range_meters":21600,"station_id":"","pricing_plan_id":"cebpf4jnsgd1na2vs0mg"},{"bike_id":"ca82af78-77e6-4092-9d8e-80a6b4175624","system_id":"levelo_inurba_marseille","lat":43.29754,"lon":5.46,"is_reserved":false,"is_disabled":false,"rental_uris":{"android":"levelo://app?vid=ca82af78-77e6-4092-9d8e-80a6b4175624","ios":"levelo://app?vid=ca82af78-77e6-4092-9d8e-80a6b4175624"},"vehicle_type_id":"4","last_reported":1752099033,"current_range_meters":21600,"station_id":"","pricing_plan_id":"cebpf4jnsgd1na2vs0mg"},{"bike_id":"6d9f18fb-1929-4b60-afd0-ccffa04708fe","system_id":"levelo_inurba_marseille","lat":43.30545,"lon":5.38446,"is_reserved":false,"is_disabled":false,"rental_uris":{"android":"levelo://app?vid=6d9f18fb-1929-4b60-afd0-ccffa04708fe","ios":"levelo://app?vid=6d9f18fb-1929-4b60-afd0-ccffa04708fe"},"vehicle_type_id":"4","last_reported":1752099033,"current_range_meters":21600,"station_id":"ce4bgg92rcd13ifvqb30","pricing_plan_id":"cebpf4jnsgd1na2vs0mg"},{"bike_id":"dcf54dfb-1fba-41b7-82bd-01546757be34","system_id":"levelo_inurba_marseille","lat":43.31059,"lon":5.38381,"is_reserved":false,"is_disabled":false,"rental_uris":{"android":"levelo://app?vid=dcf54dfb-1fba-41b7-82bd-01546757be34","ios":"levelo://app?vid=dcf54dfb-1fba-41b7-82bd-01546757be34"},"vehicle_type_id":"4","last_reported":1752099033,"current_range_meters":21600,"station_id":"ce4bgv92rcd13ifvqcr0","pricing_plan_id":"cebpf4jnsgd1na2vs0mg"},{"bike_id":"0cd11708-b8c5-49cc-88c1-d9132b468e98","system_id":"levelo_inurba_marseille","lat":43.24669,"lon":5.38157,"is_reserved":false,"is_disabled":false,"rental_uris":{"android":"levelo://app?vid=0cd11708-b8c5-49cc-88c1-d9132b468e98","ios":"levelo://app?vid=0cd11708-b8c5-49cc-88c1-d9132b468e98"},"vehicle_type_id":"4","last_reported":1752099033,"current_range_meters":21600,"station_id":"ce4bhih2rcd13ifvqfr0","pricing_plan_id":"cebpf4jnsgd1na2vs0mg"},{"bike_id":"3227ae84-4a81-4104-bad3-d93ac4c56537","system_id":"levelo_inurba_marseille","lat":43.246521,"lon":5.381643,"is_reserved":false,"is_disabled":false,"rental_uris":{"android":"levelo://app?vid=3227ae84-4a81-4104-bad3-d93ac4c56537","ios":"levelo://app?vid=3227ae84-4a81-4104-bad3-d93ac4c56537"},"vehicle_type_id":"4","last_reported":1752099033,"current_range_meters":21600,"station_id":"ce4bhih2rcd13ifvqfr0","pricing_plan_id":"cebpf4jnsgd1na2vs0mg"},{"bike_id":"0c7219c5-64df-4c9a-8c92-e59b7b7815f0","system_id":"levelo_inurba_marseille","lat":43.27937,"lon":5.4105,"is_reserved":false,"is_disabled":false,"rental_uris":{"android":"levelo://app?vid=0c7219c5-64df-4c9a-8c92-e59b7b7815f0","ios":"levelo://app?vid=0c7219c5-64df-4c9a-8c92-e59b7b7815f0"},"vehicle_type_id":"4","last_reported":1752099033,"current_range_meters":21600,"station_id":"ce4bhnp2rcd13ifvqh0g","pricing_plan_id":"cebpf4jnsgd1na2vs0mg"},{"bike_id":"29a0a180-d29f-4a4e-a71b-d1d9d42cb217","system_id":"levelo_inurba_marseille","lat":43.211894,"lon":5.350688,"is_reserved":false,"is_disabled":false,"rental_uris":{"android":"levelo://app?vid=29a0a180-d29f-4a4e-a71b-d1d9d42cb217","ios":"levelo://app?vid=29a0a180-d29f-4a4e-a71b-d1d9d42cb217"},"vehicle_type_id":"4","last_reported":1752099033,"current_range_meters":21600,"station_id":"st_cvj6sg6p6f1abm77japg","pricing_plan_id":"cebpf4jnsgd1na2vs0mg"},{"bike_id":"b6fb2675-0ca7-45e4-908d-f0555c41f437","system_id":"levelo_inurba_marseille","lat":43.29194,"lon":5.3933,"is_reserved":false,"is_disabled":false,"rental_uris":{"android":"levelo://app?vid=b6fb2675-0ca7-45e4-908d-f0555c41f437","ios":"levelo://app?vid=b6fb2675-0ca7-45e4-908d-f0555c41f437"},"vehicle_type_id":"4","last_reported":1752099033,"current_range_meters":22000,"station_id":"ce4bh192rcd13ifvqdd0","pricing_plan_id":"cebpf4jnsgd1na2vs0mg"},{"bike_id":"431e6479-e198-4a91-8a93-5ed9abfb5dd3","system_id":"levelo_inurba_marseille","lat":43.2953,"lon":5.39041,"is_reserved":false,"is_disabled":false,"rental_uris":{"android":"levelo://app?vid=431e6479-e198-4a91-8a93-5ed9abfb5dd3","ios":"levelo://app?vid=431e6479-e198-4a91-8a93-5ed9abfb5dd3"},"vehicle_type_id":"4","last_reported":1752099033,"current_range_meters":22000,"station_id":"ce4bh3p2rcd13ifvqdp0","pricing_plan_id":"cebpf4jnsgd1na2vs0mg"},{"bike_id":"e3a75ee9-c614-467b-8cc2-f813bcef2ab1","system_id":"levelo_inurba_marseille","lat":43.33743,"lon":5.3919,"is_reserved":false,"is_disabled":false,"rental_uris":{"android":"levelo://app?vid=e3a75ee9-c614-467b-8cc2-f813bcef2ab1","ios":"levelo://app?vid=e3a75ee9-c614-467b-8cc2-f813bcef2ab1"},"vehicle_type_id":"4","last_reported":1752099033,"current_range_meters":22000,"station_id":"ce4bhr92rcd13ifvqhsg","pricing_plan_id":"cebpf4jnsgd1na2vs0mg"},{"bike_id":"2a459f96-6b53-43f7-b70c-1135b0d88aea","system_id":"levelo_inurba_marseille","lat":43.23201,"lon":5.35561,"is_reserved":false,"is_disabled":false,"rental_uris":{"android":"levelo://app?vid=2a459f96-6b53-43f7-b70c-1135b0d88aea","ios":"levelo://app?vid=2a459f96-6b53-43f7-b70c-1135b0d88aea"},"vehicle_type_id":"4","last_reported":1752099033,"current_range_meters":22000,"station_id":"ce4bhu92rcd13ifvqi70","pricing_plan_id":"cebpf4jnsgd1na2vs0mg"},{"bike_id":"a3d06fdd-d90f-4da8-9200-8f61c005f0a2","system_id":"levelo_inurba_marseille","lat":43.225028,"lon":5.347768,"is_reserved":false,"is_disabled":false,"rental_uris":{"android":"levelo://app?vid=a3d06fdd-d90f-4da8-9200-8f61c005f0a2","ios":"levelo://app?vid=a3d06fdd-d90f-4da8-9200-8f61c005f0a2"},"vehicle_type_id":"4","last_reported":1752099033,"current_range_meters":22000,"station_id":"st_cvj5dfep6f1abm77gieg","pricing_plan_id":"cebpf4jnsgd1na2vs0mg"},{"bike_id":"668d365a-9b0a-4baf-a3b6-b559ba53e84f","system_id":"levelo_inurba_marseille","lat":43.2951,"lon":5.39406,"is_reserved":false,"is_disabled":false,"rental_uris":{"android":"levelo://app?vid=668d365a-9b0a-4baf-a3b6-b559ba53e84f","ios":"levelo://app?vid=668d365a-9b0a-4baf-a3b6-b559ba53e84f"},"vehicle_type_id":"4","last_reported":1752099033,"current_range_meters":22400,"station_id":"ce4bh292rcd13ifvqdf0","pricing_plan_id":"cebpf4jnsgd1na2vs0mg"},{"bike_id":"82201c9a-59c8-4691-b60a-828bec2da703","system_id":"levelo_inurba_marseille","lat":43.26161,"lon":5.37468,"is_reserved":false,"is_disabled":false,"rental_uris":{"android":"levelo://app?vid=82201c9a-59c8-4691-b60a-828bec2da703","ios":"levelo://app?vid=82201c9a-59c8-4691-b60a-828bec2da703"},"vehicle_type_id":"4","last_reported":1752099033,"current_range_meters":22800,"station_id":"","pricing_plan_id":"cebpf4jnsgd1na2vs0mg"},{"bike_id":"595e9351-a7ce-45de-8995-771f7d9fe86e","system_id":"levelo_inurba_marseille","lat":43.309243,"lon":5.378088,"is_reserved":false,"is_disabled":false,"rental_uris":{"android":"levelo://app?vid=595e9351-a7ce-45de-8995-771f7d9fe86e","ios":"levelo://app?vid=595e9351-a7ce-45de-8995-771f7d9fe86e"},"vehicle_type_id":"4","last_reported":1752099033,"current_range_meters":22800,"station_id":"","pricing_plan_id":"cebpf4jnsgd1na2vs0mg"},{"bike_id":"da9ef275-394c-49bd-b7f3-2567c2dafcc7","system_id":"levelo_inurba_marseille","lat":43.28893,"lon":5.37159,"is_reserved":false,"is_disabled":false,"rental_uris":{"android":"levelo://app?vid=da9ef275-394c-49bd-b7f3-2567c2dafcc7","ios":"levelo://app?vid=da9ef275-394c-49bd-b7f3-2567c2dafcc7"},"vehicle_type_id":"4","last_reported":1752099033,"current_range_meters":22800,"station_id":"","pricing_plan_id":"cebpf4jnsgd1na2vs0mg"},{"bike_id":"3c639bcb-ba9f-4284-81d2-89a6ff475b5f","system_id":"levelo_inurba_marseille","lat":43.30802,"lon":5.38159,"is_reserved":false,"is_disabled":false,"rental_uris":{"android":"levelo://app?vid=3c639bcb-ba9f-4284-81d2-89a6ff475b5f","ios":"levelo://app?vid=3c639bcb-ba9f-4284-81d2-89a6ff475b5f"},"vehicle_type_id":"4","last_reported":1752099033,"current_range_meters":22800,"station_id":"ce4bgt12rcd13ifvqce0","pricing_plan_id":"cebpf4jnsgd1na2vs0mg"},{"bike_id":"0a4f7701-b1a0-4489-b257-d1d702492d71","system_id":"levelo_inurba_marseille","lat":43.31323,"lon":5.39713,"is_reserved":false,"is_disabled":false,"rental_uris":{"android":"levelo://app?vid=0a4f7701-b1a0-4489-b257-d1d702492d71","ios":"levelo://app?vid=0a4f7701-b1a0-4489-b257-d1d702492d71"},"vehicle_type_id":"4","last_reported":1752099033,"current_range_meters":22800,"station_id":"ce4bgvp2rcd13ifvqcu0","pricing_plan_id":"cebpf4jnsgd1na2vs0mg"},{"bike_id":"31a3c2bd-c153-409d-b720-559480b796db","system_id":"levelo_inurba_marseille","lat":43.28925,"lon":5.36375,"is_reserved":false,"is_disabled":false,"rental_uris":{"android":"levelo://app?vid=31a3c2bd-c153-409d-b720-559480b796db","ios":"levelo://app?vid=31a3c2bd-c153-409d-b720-559480b796db"},"vehicle_type_id":"4","last_reported":1752099033,"current_range_meters":22800,"station_id":"ce4bhc92rcd13ifvqetg","pricing_plan_id":"cebpf4jnsgd1na2vs0mg"},{"bike_id":"baded31f-14f6-420b-848e-602cf108c48b","system_id":"levelo_inurba_marseille","lat":43.27955,"lon":5.38715,"is_reserved":false,"is_disabled":false,"rental_uris":{"android":"levelo://app?vid=baded31f-14f6-420b-848e-602cf108c48b","ios":"levelo://app?vid=baded31f-14f6-420b-848e-602cf108c48b"},"vehicle_type_id":"4","last_reported":1752099033,"current_range_meters":22800,"station_id":"ce4bhg12rcd13ifvqf80","pricing_plan_id":"cebpf4jnsgd1na2vs0mg"},{"bike_id":"bed9de1b-46ff-45fb-80b1-ff7e81706698","system_id":"levelo_inurba_marseille","lat":43.21746,"lon":5.34607,"is_reserved":false,"is_disabled":false,"rental_uris":{"android":"levelo://app?vid=bed9de1b-46ff-45fb-80b1-ff7e81706698","ios":"levelo://app?vid=bed9de1b-46ff-45fb-80b1-ff7e81706698"},"vehicle_type_id":"4","last_reported":1752099033,"current_range_meters":22800,"station_id":"st_cvj6r9ubvosntc0bgbag","pricing_plan_id":"cebpf4jnsgd1na2vs0mg"},{"bike_id":"0fdbfa71-2a8e-49c7-9f88-38b5ed6ae89d","system_id":"levelo_inurba_marseille","lat":43.28133,"lon":5.38913,"is_reserved":false,"is_disabled":false,"rental_uris":{"android":"levelo://app?vid=0fdbfa71-2a8e-49c7-9f88-38b5ed6ae89d","ios":"levelo://app?vid=0fdbfa71-2a8e-49c7-9f88-38b5ed6ae89d"},"vehicle_type_id":"4","last_reported":1752099033,"current_range_meters":23200,"station_id":"","pricing_plan_id":"cebpf4jnsgd1na2vs0mg"},{"bike_id":"0079a633-54bb-43be-9d15-11dbf795fdd7","system_id":"levelo_inurba_marseille","lat":43.29904,"lon":5.38144,"is_reserved":false,"is_disabled":false,"rental_uris":{"android":"levelo://app?vid=0079a633-54bb-43be-9d15-11dbf795fdd7","ios":"levelo://app?vid=0079a633-54bb-43be-9d15-11dbf795fdd7"},"vehicle_type_id":"4","last_reported":1752099033,"current_range_meters":23200,"station_id":"ce4bgj12rcd13ifvqbc0","pricing_plan_id":"cebpf4jnsgd1na2vs0mg"},{"bike_id":"b739cdb8-ea48-47d8-9dd3-bafdee9b78b5","system_id":"levelo_inurba_marseille","lat":43.290253,"lon":5.381325,"is_reserved":false,"is_disabled":false,"rental_uris":{"android":"levelo://app?vid=b739cdb8-ea48-47d8-9dd3-bafdee9b78b5","ios":"levelo://app?vid=b739cdb8-ea48-47d8-9dd3-bafdee9b78b5"},"vehicle_type_id":"4","last_reported":1752099033,"current_range_meters":23200,"station_id":"ce4bh4p2rcd13ifvqe1g","pricing_plan_id":"cebpf4jnsgd1na2vs0mg"},{"bike_id":"68e67a68-7577-4705-b9a5-f365f9ce4d99","system_id":"levelo_inurba_marseille","lat":43.30425,"lon":5.41308,"is_reserved":false,"is_disabled":false,"rental_uris":{"android":"levelo://app?vid=68e67a68-7577-4705-b9a5-f365f9ce4d99","ios":"levelo://app?vid=68e67a68-7577-4705-b9a5-f365f9ce4d99"},"vehicle_type_id":"4","last_reported":1752099033,"current_range_meters":23200,"station_id":"ce4bhop2rcd13ifvqh8g","pricing_plan_id":"cebpf4jnsgd1na2vs0mg"},{"bike_id":"37b84a38-055a-4a6e-a56a-8ff3d0c1b2ec","system_id":"levelo_inurba_marseille","lat":43.21186,"lon":5.35073,"is_reserved":false,"is_disabled":false,"rental_uris":{"android":"levelo://app?vid=37b84a38-055a-4a6e-a56a-8ff3d0c1b2ec","ios":"levelo://app?vid=37b84a38-055a-4a6e-a56a-8ff3d0c1b2ec"},"vehicle_type_id":"4","last_reported":1752099033,"current_range_meters":23200,"station_id":"st_cvj6sg6p6f1abm77japg","pricing_plan_id":"cebpf4jnsgd1na2vs0mg"},{"bike_id":"70fd11f3-1b74-4083-bba6-bffc5a5fc990","system_id":"levelo_inurba_marseille","lat":43.308,"lon":5.3816,"is_reserved":false,"is_disabled":false,"rental_uris":{"android":"levelo://app?vid=70fd11f3-1b74-4083-bba6-bffc5a5fc990","ios":"levelo://app?vid=70fd11f3-1b74-4083-bba6-bffc5a5fc990"},"vehicle_type_id":"4","last_reported":1752099033,"current_range_meters":24000,"station_id":"ce4bgt12rcd13ifvqce0","pricing_plan_id":"cebpf4jnsgd1na2vs0mg"},{"bike_id":"e6524890-4be2-4988-bb9a-5849aa5f08f0","system_id":"levelo_inurba_marseille","lat":43.30925,"lon":5.40188,"is_reserved":false,"is_disabled":false,"rental_uris":{"android":"levelo://app?vid=e6524890-4be2-4988-bb9a-5849aa5f08f0","ios":"levelo://app?vid=e6524890-4be2-4988-bb9a-5849aa5f08f0"},"vehicle_type_id":"4","last_reported":1752099033,"current_range_meters":24000,"station_id":"ce4bgvp2rcd13ifvqct0","pricing_plan_id":"cebpf4jnsgd1na2vs0mg"},{"bike_id":"c09a48f0-943b-4509-bfca-d0bda5650d95","system_id":"levelo_inurba_marseille","lat":43.3021,"lon":5.39467,"is_reserved":false,"is_disabled":false,"rental_uris":{"android":"levelo://app?vid=c09a48f0-943b-4509-bfca-d0bda5650d95","ios":"levelo://app?vid=c09a48f0-943b-4509-bfca-d0bda5650d95"},"vehicle_type_id":"4","last_reported":1752099033,"current_range_meters":24000,"station_id":"ce4bh0p2rcd13ifvqd70","pricing_plan_id":"cebpf4jnsgd1na2vs0mg"},{"bike_id":"b633bc42-1548-4e7e-9763-3669fdde0a44","system_id":"levelo_inurba_marseille","lat":43.292577,"lon":5.409093,"is_reserved":false,"is_disabled":false,"rental_uris":{"android":"levelo://app?vid=b633bc42-1548-4e7e-9763-3669fdde0a44","ios":"levelo://app?vid=b633bc42-1548-4e7e-9763-3669fdde0a44"},"vehicle_type_id":"4","last_reported":1752099033,"current_range_meters":24000,"station_id":"ce4bh192rcd13ifvqdc0","pricing_plan_id":"cebpf4jnsgd1na2vs0mg"},{"bike_id":"22a167bc-04b4-485e-ac6a-888c4508af9c","system_id":"levelo_inurba_marseille","lat":43.29202,"lon":5.39325,"is_reserved":false,"is_disabled":false,"rental_uris":{"android":"levelo://app?vid=22a167bc-04b4-485e-ac6a-888c4508af9c","ios":"levelo://app?vid=22a167bc-04b4-485e-ac6a-888c4508af9c"},"vehicle_type_id":"4","last_reported":1752099033,"current_range_meters":24000,"station_id":"ce4bh192rcd13ifvqdd0","pricing_plan_id":"cebpf4jnsgd1na2vs0mg"},{"bike_id":"e8ea2949-9262-419f-b831-830c9d3a1980","system_id":"levelo_inurba_marseille","lat":43.28576,"lon":5.39495,"is_reserved":false,"is_disabled":false,"rental_uris":{"android":"levelo://app?vid=e8ea2949-9262-419f-b831-830c9d3a1980","ios":"levelo://app?vid=e8ea2949-9262-419f-b831-830c9d3a1980"},"vehicle_type_id":"4","last_reported":1752099033,"current_range_meters":24000,"station_id":"ce4bh292rcd13ifvqdg0","pricing_plan_id":"cebpf4jnsgd1na2vs0mg"},{"bike_id":"33354313-9ee9-4c41-a8ae-2c2896dce149","system_id":"levelo_inurba_marseille","lat":43.29277,"lon":5.40146,"is_reserved":false,"is_disabled":false,"rental_uris":{"android":"levelo://app?vid=33354313-9ee9-4c41-a8ae-2c2896dce149","ios":"levelo://app?vid=33354313-9ee9-4c41-a8ae-2c2896dce149"},"vehicle_type_id":"4","last_reported":1752099033,"current_range_meters":24000,"station_id":"ce4bh312rcd13ifvqdk0","pricing_plan_id":"cebpf4jnsgd1na2vs0mg"},{"bike_id":"e568ebe1-7319-45a3-ad8a-5882cc85c638","system_id":"levelo_inurba_marseille","lat":43.28343,"lon":5.38105,"is_reserved":false,"is_disabled":false,"rental_uris":{"android":"levelo://app?vid=e568ebe1-7319-45a3-ad8a-5882cc85c638","ios":"levelo://app?vid=e568ebe1-7319-45a3-ad8a-5882cc85c638"},"vehicle_type_id":"4","last_reported":1752099033,"current_range_meters":24000,"station_id":"ce4bh412rcd13ifvqdr0","pricing_plan_id":"cebpf4jnsgd1na2vs0mg"},{"bike_id":"783e9ff2-1b1b-4423-87cb-282d48c24bd6","system_id":"levelo_inurba_marseille","lat":43.28416,"lon":5.37521,"is_reserved":false,"is_disabled":false,"rental_uris":{"android":"levelo://app?vid=783e9ff2-1b1b-4423-87cb-282d48c24bd6","ios":"levelo://app?vid=783e9ff2-1b1b-4423-87cb-282d48c24bd6"},"vehicle_type_id":"4","last_reported":1752099033,"current_range_meters":24000,"station_id":"ce4bh412rcd13ifvqds0","pricing_plan_id":"cebpf4jnsgd1na2vs0mg"},{"bike_id":"65c6d2d7-a7dc-45ec-9f2f-fb7430e6281d","system_id":"levelo_inurba_marseille","lat":43.32342,"lon":5.36755,"is_reserved":false,"is_disabled":false,"rental_uris":{"android":"levelo://app?vid=65c6d2d7-a7dc-45ec-9f2f-fb7430e6281d","ios":"levelo://app?vid=65c6d2d7-a7dc-45ec-9f2f-fb7430e6281d"},"vehicle_type_id":"4","last_reported":1752099033,"current_range_meters":24000,"station_id":"ce4bhsh2rcd13ifvqi2g","pricing_plan_id":"cebpf4jnsgd1na2vs0mg"},{"bike_id":"dafa5a87-b26d-4379-9a6b-1f02133b78a6","system_id":"levelo_inurba_marseille","lat":43.21194,"lon":5.35066,"is_reserved":false,"is_disabled":false,"rental_uris":{"android":"levelo://app?vid=dafa5a87-b26d-4379-9a6b-1f02133b78a6","ios":"levelo://app?vid=dafa5a87-b26d-4379-9a6b-1f02133b78a6"},"vehicle_type_id":"4","last_reported":1752099033,"current_range_meters":24000,"station_id":"st_cvj6sg6p6f1abm77japg","pricing_plan_id":"cebpf4jnsgd1na2vs0mg"},{"bike_id":"e48a2661-2ee0-47a4-bde7-db7ae624a1b0","system_id":"levelo_inurba_marseille","lat":43.30433,"lon":5.38901,"is_reserved":false,"is_disabled":false,"rental_uris":{"android":"levelo://app?vid=e48a2661-2ee0-47a4-bde7-db7ae624a1b0","ios":"levelo://app?vid=e48a2661-2ee0-47a4-bde7-db7ae624a1b0"},"vehicle_type_id":"4","last_reported":1752099033,"current_range_meters":24400,"station_id":"","pricing_plan_id":"cebpf4jnsgd1na2vs0mg"},{"bike_id":"e34cdfcb-af54-4b43-bd94-42c0ee3982e7","system_id":"levelo_inurba_marseille","lat":43.31228,"lon":5.36866,"is_reserved":false,"is_disabled":false,"rental_uris":{"android":"levelo://app?vid=e34cdfcb-af54-4b43-bd94-42c0ee3982e7","ios":"levelo://app?vid=e34cdfcb-af54-4b43-bd94-42c0ee3982e7"},"vehicle_type_id":"4","last_reported":1752099033,"current_range_meters":24400,"station_id":"ce4bgl92rcd13ifvqbq0","pricing_plan_id":"cebpf4jnsgd1na2vs0mg"},{"bike_id":"c87ed408-2639-4f6c-a046-12b93d44397f","system_id":"levelo_inurba_marseille","lat":43.30901,"lon":5.36846,"is_reserved":false,"is_disabled":false,"rental_uris":{"android":"levelo://app?vid=c87ed408-2639-4f6c-a046-12b93d44397f","ios":"levelo://app?vid=c87ed408-2639-4f6c-a046-12b93d44397f"},"vehicle_type_id":"4","last_reported":1752099033,"current_range_meters":24400,"station_id":"ce4bgn92rcd13ifvqbvg","pricing_plan_id":"cebpf4jnsgd1na2vs0mg"},{"bike_id":"e657506e-bac2-499f-8f97-51c6ddac6dad","system_id":"levelo_inurba_marseille","lat":43.30643,"lon":5.40092,"is_reserved":false,"is_disabled":false,"rental_uris":{"android":"levelo://app?vid=e657506e-bac2-499f-8f97-51c6ddac6dad","ios":"levelo://app?vid=e657506e-bac2-499f-8f97-51c6ddac6dad"},"vehicle_type_id":"4","last_reported":1752099033,"current_range_meters":24400,"station_id":"ce4bh112rcd13ifvqda0","pricing_plan_id":"cebpf4jnsgd1na2vs0mg"},{"bike_id":"38195d54-ea5b-4aca-b32f-4172dae1b0cf","system_id":"levelo_inurba_marseille","lat":43.28355,"lon":5.38106,"is_reserved":false,"is_disabled":false,"rental_uris":{"android":"levelo://app?vid=38195d54-ea5b-4aca-b32f-4172dae1b0cf","ios":"levelo://app?vid=38195d54-ea5b-4aca-b32f-4172dae1b0cf"},