{"last_updated":1719241747,"ttl":30,"version":"2.2","data":{"bikes":[{"bike_id":"bc6a33f2-8b1a-4531-bd85-beef392ed7b0","system_id":"levelo_inurba_marseille","lat":43.31086,"lon":5.36883,"is_reserved":false,"is_disabled":false,"rental_uris":{"android":"levelo://app?vid=bc6a33f2-8b1a-4531-bd85-beef392ed7b0","ios":"levelo://app?vid=bc6a33f2-8b1a-4531-bd85-beef392ed7b0"},"vehicle_type_id":"4","last_reported":1719241747,"current_range_meters":20400,"station_id":"","pricing_plan_id":"cebpf4jnsgd1na2vs0mg"},{"bike_id":"2abb804d-923e-4b6f-9a0c-1635e572c72c","system_id":"levelo_inurba_marseille","lat":43.309076,"lon":5.368465,"is_reserved":false,"is_disabled":false,"rental_uris":{"android":"levelo://app?vid=2abb804d-923e-4b6f-9a0c-1635e572c72c","ios":"levelo://app?vid=2abb804d-923e-4b6f-9a0c-1635e572c72c"},"vehicle_type_id":"4","last_reported":1719241747,"current_range_meters":9600,"station_id":"ce4bgn92rcd13ifvqbvg","pricing_plan_id":"cebpf4jnsgd1na2vs0mg"},{"bike_id":"3e6229a9-daa1-4e8e-b7ec-60b28f97252f","system_id":"levelo_inurba_marseille","lat":43.31452,"lon":5.373706,"is_reserved":false,"is_disabled":false,"rental_uris":{"android":"levelo://app?vid=3e6229a9-daa1-4e8e-b7ec-60b28f97252f","ios":"levelo://app?vid=3e6229a9-daa1-4e8e-b7ec-60b28f97252f"},"vehicle_type_id":"4","last_reported":1719241747,"current_range_meters":2800,"station_id":"ce4bgt12rcd13ifvqcd0","pricing_plan_id":"cebpf4jnsgd1na2vs0mg"},{"bike_id":"77460ccb-960a-4153-8783-e0a172f31a95","system_id":"levelo_inurba_marseille","lat":43.314513,"lon":5.373723,"is_reserved":false,"is_disabled":false,"rental_uris":{"android":"levelo://app?vid=77460ccb-960a-4153-8783-e0a172f31a95","ios":"levelo://app?vid=77460ccb-960a-4153-8783-e0a172f31a95"},"vehicle_type_id":"4","last_reported":1719241747,"current_range_meters":6000,"station_id":"","pricing_plan_id":"cebpf4jnsgd1na2vs0mg"},{"bike_id":"883883ea-038a-4c6e-b447-0d8f91fcf99a","system_id":"levelo_inurba_marseille","lat":43.309034,"lon":5.371783,"is_reserved":false,"is_disabled":false,"rental_uris":{"android":"levelo://app?vid=883883ea-038a-4c6e-b447-0d8f91fcf99a","ios":"levelo://app?vid=883883ea-038a-4c6e-b447-0d8f91fcf99a"},"vehicle_type_id":"4","last_reported":1719241747,"current_range_meters":8400,"station_id":"ce4bguh2rcd13ifvqckg","pricing_plan_id":"cebpf4jnsgd1na2vs0mg"},{"bike_id":"8c31ea00-3c59-469d-aa7c-01b56d024c6a","system_id":"levelo_inurba_marseille","lat":43.305712,"lon":5.365641,"is_reserved":false,"is_disabled":false,"rental_uris":{"android":"levelo://app?vid=8c31ea00-3c59-469d-aa7c-01b56d024c6a","ios":"levelo://app?vid=8c31ea00-3c59-469d-aa7c-01b56d024c6a"},"vehicle_type_id":"4","last_reported":1719241747,"current_range_meters":8400,"station_id":"ce4bgs12rcd13ifvqcag","pricing_plan_id":"cebpf4jnsgd1na2vs0mg"},{"bike_id":"f1934c5f-70fe-4e4b-97e6-a076f762ff39","system_id":"levelo_inurba_marseille","lat":43.30605,"lon":5.37236,"is_reserved":false,"is_disabled":false,"rental_uris":{"android":"levelo://app?vid=f1934c5f-70fe-4e4b-97e6-a076f762ff39","ios":"levelo://app?vid=f1934c5f-70fe-4e4b-97e6-a076f762ff39"},"vehicle_type_id":"4","last_reported":1719241747,"current_range_meters":0,"station_id":"ce4bgqh2rcd13ifvqc4g","pricing_plan_id":"cebpf4jnsgd1na2vs0mg"},{"bike_id":"86987bfe-eb79-4a30-9e33-9bb33a2fe220","system_id":"levelo_inurba_marseille","lat":43.31121,"lon":5.37761,"is_reserved":false,"is_disabled":false,"rental_uris":{"android":"levelo://app?vid=86987bfe-eb79-4a30-9e33-9bb33a2fe220","ios":"levelo://app?vid=86987bfe-eb79-4a30-9e33-9bb33a2fe220"},"vehicle_type_id":"4","last_reported":1719241747,"current_range_meters":28400,"station_id":"ce4bgt92rcd13ifvqcg0","pricing_plan_id":"cebpf4jnsgd1na2vs0mg"},{"bike_id":"bbc2cb80-00f0-4683-9c26-120aef23fe0c","system_id":"levelo_inurba_marseille","lat":43.303046,"lon":5.368981,"is_reserved":false,"is_disabled":false,"rental_uris":{"android":"levelo://app?vid=bbc2cb80-00f0-4683-9c26-120aef23fe0c","ios":"levelo://app?vid=bbc2cb80-00f0-4683-9c26-120aef23fe0c"},"vehicle_type_id":"4","last_reported":1719241747,"current_range_meters":22000,"station_id":"ce4bgqh2rcd13ifvqc5g","pricing_plan_id":"cebpf4jnsgd1na2vs0mg"},{"bike_id":"e0b91891-aa33-4f92-9570-a4a335ce3e2f","system_id":"levelo_inurba_marseille","lat":43.30202,"lon":5.3668,"is_reserved":false,"is_disabled":false,"rental_uris":{"android":"levelo://app?vid=e0b91891-aa33-4f92-9570-a4a335ce3e2f","ios":"levelo://app?vid=e0b91891-aa33-4f92-9570-a4a335ce3e2f"},"vehicle_type_id":"4","last_reported":1719241747,"current_range_meters":20400,"station_id":"ce4bgrh2rcd13ifvqc8g","pricing_plan_id":"cebpf4jnsgd1na2vs0mg"},{"bike_id":"f557e115-1798-4a77-8474-b1bcbe8ab2e5","system_id":"levelo_inurba_marseille","lat":43.308012,"lon":5.381511,"is_reserved":false,"is_disabled":false,"rental_uris":{"android":"levelo://app?vid=f557e115-1798-4a77-8474-b1bcbe8ab2e5","ios":"levelo://app?vid=f557e115-1798-4a77-8474-b1bcbe8ab2e5"},"vehicle_type_id":"4","last_reported":1719241747,"current_range_meters":20000,"station_id":"ce4bgt12rcd13ifvqce0","pricing_plan_id":"cebpf4jnsgd1na2vs0mg"},{"bike_id":"94ed4267-5e32-4874-ad5b-ca9e69ee1022","system_id":"levelo_inurba_marseille","lat":43.304606,"lon":5.379026,"is_reserved":false,"is_disabled":false,"rental_uris":{"android":"levelo://app?vid=94ed4267-5e32-4874-ad5b-ca9e69ee1022","ios":"levelo://app?vid=94ed4267-5e32-4874-ad5b-ca9e69ee1022"},"vehicle_type_id":"4","last_reported":1719241747,"current_range_meters":18400,"station_id":"ce4bgup2rcd13ifvqcn0","pricing_plan_id":"cebpf4jnsgd1na2vs0mg"},{"bike_id":"42b6e8f0-2288-42ab-b83e-b35eff42641f","system_id":"levelo_inurba_marseille","lat":43.304606,"lon":5.379026,"is_reserved":false,"is_disabled":false,"rental_uris":{"android":"levelo://app?vid=42b6e8f0-2288-42ab-b83e-b35eff42641f","ios":"levelo://app?vid=42b6e8f0-2288-42ab-b83e-b35eff42641f"},"vehicle_type_id":"4","last_reported":1719241747,"current_range_meters":15600,"station_id":"ce4bgup2rcd13ifvqcn0","pricing_plan_id":"cebpf4jnsgd1na2vs0mg"},{"bike_id":"5f78c5f1-ccd3-4296-8d0a-af59061989cc","system_id":"levelo_inurba_marseille","lat":43.304606,"lon":5.379026,"is_reserved":false,"is_disabled":false,"rental_uris":{"android":"levelo://app?vid=5f78c5f1-ccd3-4296-8d0a-af59061989cc","ios":"levelo://app?vid=5f78c5f1-ccd3-4296-8d0a-af59061989cc"},"vehicle_type_id":"4","last_reported":1719241747,"current_range_meters":13200,"station_id":"ce4bgup2rcd13ifvqcn0","pricing_plan_id":"cebpf4jnsgd1na2vs0mg"},{"bike_id":"053b6a9d-5ebd-44c9-b202-21fec01fb779","system_id":"levelo_inurba_marseille","lat":43.304606,"lon":5.379026,"is_reserved":false,"is_disabled":false,"rental_uris":{"android":"levelo://app?vid=053b6a9d-5ebd-44c9-b202-21fec01fb779","ios":"levelo://app?vid=053b6a9d-5ebd-44c9-b202-21fec01fb779"},"vehicle_type_id":"4","last_reported":1719241747,"current_range_meters":16800,"station_id":"ce4bgup2rcd13ifvqcn0","pricing_plan_id":"cebpf4jnsgd1na2vs0mg"},{"bike_id":"d474632e-3fe7-4a63-a75c-964eecbb4df5","system_id":"levelo_inurba_marseille","lat":43.304606,"lon":5.379026,"is_reserved":false,"is_disabled":false,"rental_uris":{"android":"levelo://app?vid=d474632e-3fe7-4a63-a75c-964eecbb4df5","ios":"levelo://app?vid=d474632e-3fe7-4a63-a75c-964eecbb4df5"},"vehicle_type_id":"4","last_reported":1719241747,"current_range_meters":25200,"station_id":"ce4bgup2rcd13ifvqcn0","pricing_plan_id":"cebpf4jnsgd1na2vs0mg"},{"bike_id":"4df0ccaf-f36b-4b5c-8a51-178c514b3678","system_id":"levelo_inurba_marseille","lat":43.304606,"lon":5.379026,"is_reserved":false,"is_disabled":false,"rental_uris":{"android":"levelo://app?vid=4df0ccaf-f36b-4b5c-8a51-178c514b3678","ios":"levelo://app?vid=4df0ccaf-f36b-4b5c-8a51-178c514b3678"},"vehicle_type_id":"4","last_reported":1719241747,"current_range_meters":24800,"station_id":"ce4bgup2rcd13ifvqcn0","pricing_plan_id":"cebpf4jnsgd1na2vs0mg"},{"bike_id":"7abdbe9e-1c09-44cd-934a-8d35e276cc09","system_id":"levelo_inurba_marseille","lat":43.324771,"lon":5.36557,"is_reserved":false,"is_disabled":false,"rental_uris":{"android":"levelo://app?vid=7abdbe9e-1c09-44cd-934a-8d35e276cc09","ios":"levelo://app?vid=7abdbe9e-1c09-44cd-934a-8d35e276cc09"},"vehicle_type_id":"4","last_reported":1719241747,"current_range_meters":10000,"station_id":"ce4bhs12rcd13ifvqhvg","pricing_plan_id":"cebpf4jnsgd1na2vs0mg"},{"bike_id":"373b1521-29c9-474c-bfd4-274a49584962","system_id":"levelo_inurba_marseille","lat":43.324771,"lon":5.36557,"is_reserved":false,"is_disabled":false,"rental_uris":{"android":"levelo://app?vid=373b1521-29c9-474c-bfd4-274a49584962","ios":"levelo://app?vid=373b1521-29c9-474c-bfd4-274a49584962"},"vehicle_type_id":"4","last_reported":1719241747,"current_range_meters":10000,"station_id":"ce4bhs12rcd13ifvqhvg","pricing_plan_id":"cebpf4jnsgd1na2vs0mg"},{"bike_id":"91243181-9773-47d7-a3ff-e24e0ed93767","system_id":"levelo_inurba_marseille","lat":43.324771,"lon":5.36557,"is_reserved":false,"is_disabled":false,"rental_uris":{"android":"levelo://app?vid=91243181-9773-47d7-a3ff-e24e0ed93767","ios":"levelo://app?vid=91243181-9773-47d7-a3ff-e24e0ed93767"},"vehicle_type_id":"4","last_reported":1719241747,"current_range_meters":22000,"station_id":"ce4bhs12rcd13ifvqhvg","pricing_plan_id":"cebpf4jnsgd1na2vs0mg"},{"bike_id":"93afeaa8-0ffd-4853-b8dd-68068eeea4e1","system_id":"levelo_inurba_marseille","lat":43.324771,"lon":5.36557,"is_reserved":false,"is_disabled":false,"rental_uris":{"android":"levelo://app?vid=93afeaa8-0ffd-4853-b8dd-68068eeea4e1","ios":"levelo://app?vid=93afeaa8-0ffd-4853-b8dd-68068eeea4e1"},"vehicle_type_id":"4","last_reported":1719241747,"current_range_meters":14400,"station_id":"ce4bhs12rcd13ifvqhvg","pricing_plan_id":"cebpf4jnsgd1na2vs0mg"},{"bike_id":"14c9c5f1-4f95-49d2-b1a2-dbfc7b5731c5","system_id":"levelo_inurba_marseille","lat":43.324771,"lon":5.36557,"is_reserved":false,"is_disabled":false,"rental_uris":{"android":"levelo://app?vid=14c9c5f1-4f95-49d2-b1a2-dbfc7b5731c5","ios":"levelo://app?vid=14c9c5f1-4f95-49d2-b1a2-dbfc7b5731c5"},"vehicle_type_id":"4","last_reported":1719241747,"current_range_meters":7200,"station_id":"ce4bhs12rcd13ifvqhvg","pricing_plan_id":"cebpf4jnsgd1na2vs0mg"},{"bike_id":"f55ee702-4712-47a2-9d7a-4d7fc8adffe8","system_id":"levelo_inurba_marseille","lat":43.324771,"lon":5.36557,"is_reserved":false,"is_disabled":false,"rental_uris":{"android":"levelo://app?vid=f55ee702-4712-47a2-9d7a-4d7fc8adffe8","ios":"levelo://app?vid=f55ee702-4712-47a2-9d7a-4d7fc8adffe8"},"vehicle_type_id":"4","last_reported":1719241747,"current_range_meters":3600,"station_id":"ce4bhs12rcd13ifvqhvg","pricing_plan_id":"cebpf4jnsgd1na2vs0mg"},{"bike_id":"ba700ed7-8eb5-4fc3-b54b-a0cb85af15f7","system_id":"levelo_inurba_marseille","lat":43.302784,"lon":5.377158,"is_reserved":false,"is_disabled":false,"rental_uris":{"android":"levelo://app?vid=ba700ed7-8eb5-4fc3-b54b-a0cb85af15f7","ios":"levelo://app?vid=ba700ed7-8eb5-4fc3-b54b-a0cb85af15f7"},"vehicle_type_id":"4","last_reported":1719241747,"current_range_meters":21600,"station_id":"ce4bguh2rcd13ifvqcj0","pricing_plan_id":"cebpf4jnsgd1na2vs0mg"},{"bike_id":"3f816a1f-0780-4107-95f3-df674c88ce14","system_id":"levelo_inurba_marseille","lat":43.310804,"lon":5.38359,"is_reserved":false,"is_disabled":false,"rental_uris":{"android":"levelo://app?vid=3f816a1f-0780-4107-95f3-df674c88ce14","ios":"levelo://app?vid=3f816a1f-0780-4107-95f3-df674c88ce14"},"vehicle_type_id":"4","last_reported":1719241747,"current_range_meters":30800,"station_id":"ce4bgv92rcd13ifvqcr0","pricing_plan_id":"cebpf4jnsgd1na2vs0mg"},{"bike_id":"25852df5-851c-4ddc-8abe-66c4bc84dfb8","system_id":"levelo_inurba_marseille","lat":43.30143,"lon":5.37413,"is_reserved":false,"is_disabled":false,"rental_uris":{"android":"levelo://app?vid=25852df5-851c-4ddc-8abe-66c4bc84dfb8","ios":"levelo://app?vid=25852df5-851c-4ddc-8abe-66c4bc84dfb8"},"vehicle_type_id":"4","last_reported":1719241747,"current_range_meters":14000,"station_id":"ce4bgs92rcd13ifvqcc0","pricing_plan_id":"cebpf4jnsgd1na2vs0mg"},{"bike_id":"ce56d1e4-9a66-454e-9b18-16064b2177f1","system_id":"levelo_inurba_marseille","lat":43.30143,"lon":5.37413,"is_reserved":false,"is_disabled":false,"rental_uris":{"android":"levelo://app?vid=ce56d1e4-9a66-454e-9b18-16064b2177f1","ios":"levelo://app?vid=ce56d1e4-9a66-454e-9b18-16064b2177f1"},"vehicle_type_id":"4","last_reported":1719241747,"current_range_meters":29600,"station_id":"ce4bgs92rcd13ifvqcc0","pricing_plan_id":"cebpf4jnsgd1na2vs0mg"},{"bike_id":"b0c624f0-22f9-4822-b905-b7a1eb9f5fcf","system_id":"levelo_inurba_marseille","lat":43.30143,"lon":5.37413,"is_reserved":false,"is_disabled":false,"rental_uris":{"android":"levelo://app?vid=b0c624f0-22f9-4822-b905-b7a1eb9f5fcf","ios":"levelo://app?vid=b0c624f0-22f9-4822-b905-b7a1eb9f5fcf"},"vehicle_type_id":"4","last_reported":1719241747,"current_range_meters":0,"station_id":"ce4bgs92rcd13ifvqcc0","pricing_plan_id":"cebpf4jnsgd1na2vs0mg"},{"bike_id":"88e6edfc-aeab-4ca2-9efa-30cdb0413201","system_id":"levelo_inurba_marseille","lat":43.30143,"lon":5.37413,"is_reserved":false,"is_disabled":false,"rental_uris":{"android":"levelo://app?vid=88e6edfc-aeab-4ca2-9efa-30cdb0413201","ios":"levelo://app?vid=88e6edfc-aeab-4ca2-9efa-30cdb0413201"},"vehicle_type_id":"4","last_reported":1719241747,"current_range_meters":20000,"station_id":"ce4bgs92rcd13ifvqcc0","pricing_plan_id":"cebpf4jnsgd1na2vs0mg"},{"bike_id":"a96bf11b-f6fc-47ad-9535-46bed2f5d499","system_id":"levelo_inurba_marseille","lat":43.30143,"lon":5.37413,"is_reserved":false,"is_disabled":false,"rental_uris":{"android":"levelo://app?vid=a96bf11b-f6fc-47ad-9535-46bed2f5d499","ios":"levelo://app?vid=a96bf11b-f6fc-47ad-9535-46bed2f5d499"},"vehicle_type_id":"4","last_reported":1719241747,"current_range_meters":15200,"station_id":"ce4bgs92rcd13ifvqcc0","pricing_plan_id":"cebpf4jnsgd1na2vs0mg"},{"bike_id":"cbff3412-e782-46f3-902f-b36de1fa8d92","system_id":"levelo_inurba_marseille","lat":43.319935,"lon":5.381699,"is_reserved":false,"is_disabled":false,"rental_uris":{"android":"levelo://app?vid=cbff3412-e782-46f3-902f-b36de1fa8d92","ios":"levelo://app?vid=cbff3412-e782-46f3-902f-b36de1fa8d92"},"vehicle_type_id":"4","last_reported":1719241747,"current_range_meters":24000,"station_id":"ce4bhr12rcd13ifvqhpg","pricing_plan_id":"cebpf4jnsgd1na2vs0mg"},{"bike_id":"020f47db-b42c-4089-bd83-9e04d5229eb7","system_id":"levelo_inurba_marseille","lat":43.30511,"lon":5.38115,"is_reserved":false,"is_disabled":false,"rental_uris":{"android":"levelo://app?vid=020f47db-b42c-4089-bd83-9e04d5229eb7","ios":"levelo://app?vid=020f47db-b42c-4089-bd83-9e04d5229eb7"},"vehicle_type_id":"4","last_reported":1719241747,"current_range_meters":21200,"station_id":"","pricing_plan_id":"cebpf4jnsgd1na2vs0mg"},{"bike_id":"2d5d0224-33d1-4202-bf24-294e8a50b4e1","system_id":"levelo_inurba_marseille","lat":43.319935,"lon":5.381699,"is_reserved":false,"is_disabled":false,"rental_uris":{"android":"levelo://app?vid=2d5d0224-33d1-4202-bf24-294e8a50b4e1","ios":"levelo://app?vid=2d5d0224-33d1-4202-bf24-294e8a50b4e1"},"vehicle_type_id":"4","last_reported":1719241747,"current_range_meters":28400,"station_id":"ce4bhr12rcd13ifvqhpg","pricing_plan_id":"cebpf4jnsgd1na2vs0mg"},{"bike_id":"c28a89c6-0629-406a-ada9-9bfbd22c5109","system_id":"levelo_inurba_marseille","lat":43.319935,"lon":5.381699,"is_reserved":false,"is_disabled":false,"rental_uris":{"android":"levelo://app?vid=c28a89c6-0629-406a-ada9-9bfbd22c5109","ios":"levelo://app?vid=c28a89c6-0629-406a-ada9-9bfbd22c5109"},"vehicle_type_id":"4","last_reported":1719241747,"current_range_meters":28000,"station_id":"ce4bhr12rcd13ifvqhpg","pricing_plan_id":"cebpf4jnsgd1na2vs0mg"},{"bike_id":"ac152717-2aff-4bdf-a6a4-079ae42ec216","system_id":"levelo_inurba_marseille","lat":43.319935,"lon":5.381699,"is_reserved":false,"is_disabled":false,"rental_uris":{"android":"levelo://app?vid=ac152717-2aff-4bdf-a6a4-079ae42ec216","ios":"levelo://app?vid=ac152717-2aff-4bdf-a6a4-079ae42ec216"},"vehicle_type_id":"4","last_reported":1719241747,"current_range_meters":7200,"station_id":"ce4bhr12rcd13ifvqhpg","pricing_plan_id":"cebpf4jnsgd1na2vs0mg"},{"bike_id":"e0a5ff2f-aab8-4e27-a834-47a37c00ff6c","system_id":"levelo_inurba_marseille","lat":43.313571,"lon":5.384829,"is_reserved":false,"is_disabled":false,"rental_uris":{"android":"levelo://app?vid=e0a5ff2f-aab8-4e27-a834-47a37c00ff6c","ios":"levelo://app?vid=e0a5ff2f-aab8-4e27-a834-47a37c00ff6c"},"vehicle_type_id":"4","last_reported":1719241747,"current_range_meters":9200,"station_id":"ce4bgt92rcd13ifvqcf0","pricing_plan_id":"cebpf4jnsgd1na2vs0mg"},{"bike_id":"b2b03fc9-f946-4a99-b44d-5fc5d3e57efa","system_id":"levelo_inurba_marseille","lat":43.313571,"lon":5.384829,"is_reserved":false,"is_disabled":false,"rental_uris":{"android":"levelo://app?vid=b2b03fc9-f946-4a99-b44d-5fc5d3e57efa","ios":"levelo://app?vid=b2b03fc9-f946-4a99-b44d-5fc5d3e57efa"},"vehicle_type_id":"4","last_reported":1719241747,"current_range_meters":1200,"station_id":"ce4bgt92rcd13ifvqcf0","pricing_plan_id":"cebpf4jnsgd1na2vs0mg"},{"bike_id":"f90af15a-f833-42e3-82fc-62143df7bde5","system_id":"levelo_inurba_marseille","lat":43.299724,"lon":5.371829,"is_reserved":false,"is_disabled":false,"rental_uris":{"android":"levelo://app?vid=f90af15a-f833-42e3-82fc-62143df7bde5","ios":"levelo://app?vid=f90af15a-f833-42e3-82fc-62143df7bde5"},"vehicle_type_id":"4","last_reported":1719241747,"current_range_meters":20800,"station_id":"ce4bgr92rcd13ifvqc7g","pricing_plan_id":"cebpf4jnsgd1na2vs0mg"},{"bike_id":"87c1a9b6-7c91-4661-bee6-0fcb509f8584","system_id":"levelo_inurba_marseille","lat":43.30477,"lon":5.38234,"is_reserved":false,"is_disabled":false,"rental_uris":{"android":"levelo://app?vid=87c1a9b6-7c91-4661-bee6-0fcb509f8584","ios":"levelo://app?vid=87c1a9b6-7c91-4661-bee6-0fcb509f8584"},"vehicle_type_id":"4","last_reported":1719241747,"current_range_meters":15200,"station_id":"","pricing_plan_id":"cebpf4jnsgd1na2vs0mg"},{"bike_id":"40c61b71-877a-4ff8-bb39-cd8cbad60bb4","system_id":"levelo_inurba_marseille","lat":43.30935,"lon":5.38627,"is_reserved":false,"is_disabled":false,"rental_uris":{"android":"levelo://app?vid=40c61b71-877a-4ff8-bb39-cd8cbad60bb4","ios":"levelo://app?vid=40c61b71-877a-4ff8-bb39-cd8cbad60bb4"},"vehicle_type_id":"4","last_reported":1719241747,"current_range_meters":27200,"station_id":"","pricing_plan_id":"cebpf4jnsgd1na2vs0mg"},{"bike_id":"d0b2c5b8-47b5-40bd-8ca6-073ead5270ac","system_id":"levelo_inurba_marseille","lat":43.298433,"lon":5.362774,"is_reserved":false,"is_disabled":false,"rental_uris":{"android":"levelo://app?vid=d0b2c5b8-47b5-40bd-8ca6-073ead5270ac","ios":"levelo://app?vid=d0b2c5b8-47b5-40bd-8ca6-073ead5270ac"},"vehicle_type_id":"4","last_reported":1719241747,"current_range_meters":12400,"station_id":"ce4bgpp2rcd13ifvqc3g","pricing_plan_id":"cebpf4jnsgd1na2vs0mg"},{"bike_id":"b88e64d7-8979-4f11-8af2-7efaeea42291","system_id":"levelo_inurba_marseille","lat":43.305364,"lon":5.384119,"is_reserved":false,"is_disabled":false,"rental_uris":{"android":"levelo://app?vid=b88e64d7-8979-4f11-8af2-7efaeea42291","ios":"levelo://app?vid=b88e64d7-8979-4f11-8af2-7efaeea42291"},"vehicle_type_id":"4","last_reported":1719241747,"current_range_meters":0,"station_id":"ce4bgg92rcd13ifvqb30","pricing_plan_id":"cebpf4jnsgd1na2vs0mg"},{"bike_id":"92e2d1cd-b5a6-4f4b-9b27-324eceb639ac","system_id":"levelo_inurba_marseille","lat":43.305364,"lon":5.384119,"is_reserved":false,"is_disabled":false,"rental_uris":{"android":"levelo://app?vid=92e2d1cd-b5a6-4f4b-9b27-324eceb639ac","ios":"levelo://app?vid=92e2d1cd-b5a6-4f4b-9b27-324eceb639ac"},"vehicle_type_id":"4","last_reported":1719241747,"current_range_meters":0,"station_id":"ce4bgg92rcd13ifvqb30","pricing_plan_id":"cebpf4jnsgd1na2vs0mg"},{"bike_id":"7e07c1a2-a22e-4641-ab0c-147d02f812ad","system_id":"levelo_inurba_marseille","lat":43.305364,"lon":5.384119,"is_reserved":false,"is_disabled":false,"rental_uris":{"android":"levelo://app?vid=7e07c1a2-a22e-4641-ab0c-147d02f812ad","ios":"levelo://app?vid=7e07c1a2-a22e-4641-ab0c-147d02f812ad"},"vehicle_type_id":"4","last_reported":1719241747,"current_range_meters":10400,"station_id":"ce4bgg92rcd13ifvqb30","pricing_plan_id":"cebpf4jnsgd1na2vs0mg"},{"bike_id":"78edcb8d-9307-4719-acc5-d4ebf4d282c4","system_id":"levelo_inurba_marseille","lat":43.298433,"lon":5.362774,"is_reserved":false,"is_disabled":false,"rental_uris":{"android":"levelo://app?vid=78edcb8d-9307-4719-acc5-d4ebf4d282c4","ios":"levelo://app?vid=78edcb8d-9307-4719-acc5-d4ebf4d282c4"},"vehicle_type_id":"4","last_reported":1719241747,"current_range_meters":23600,"station_id":"ce4bgpp2rcd13ifvqc3g","pricing_plan_id":"cebpf4jnsgd1na2vs0mg"},{"bike_id":"9b6200e9-9923-4103-8300-68b165f06810","system_id":"levelo_inurba_marseille","lat":43.298433,"lon":5.362774,"is_reserved":false,"is_disabled":false,"rental_uris":{"android":"levelo://app?vid=9b6200e9-9923-4103-8300-68b165f06810","ios":"levelo://app?vid=9b6200e9-9923-4103-8300-68b165f06810"},"vehicle_type_id":"4","last_reported":1719241747,"current_range_meters":15600,"station_id":"ce4bgpp2rcd13ifvqc3g","pricing_plan_id":"cebpf4jnsgd1na2vs0mg"},{"bike_id":"67cb7c1e-67aa-49f9-97fd-24afedf7199d","system_id":"levelo_inurba_marseille","lat":43.298433,"lon":5.362774,"is_reserved":false,"is_disabled":false,"rental_uris":{"android":"levelo://app?vid=67cb7c1e-67aa-49f9-97fd-24afedf7199d","ios":"levelo://app?vid=67cb7c1e-67aa-49f9-97fd-24afedf7199d"},"vehicle_type_id":"4","last_reported":1719241747,"current_range_meters":13600,"station_id":"ce4bgpp2rcd13ifvqc3g","pricing_plan_id":"cebpf4jnsgd1na2vs0mg"},{"bike_id":"30abfe32-9189-483e-9b7a-0a5eb276e473","system_id":"levelo_inurba_marseille","lat":43.299243,"lon":5.374807,"is_reserved":false,"is_disabled":false,"rental_uris":{"android":"levelo://app?vid=30abfe32-9189-483e-9b7a-0a5eb276e473","ios":"levelo://app?vid=30abfe32-9189-483e-9b7a-0a5eb276e473"},"vehicle_type_id":"4","last_reported":1719241747,"current_range_meters":18000,"station_id":"ce4bgjh2rcd13ifvqbg0","pricing_plan_id":"cebpf4jnsgd1na2vs0mg"},{"bike_id":"5203f761-10bf-4a49-bb4b-4472947c01f7","system_id":"levelo_inurba_marseille","lat":43.298433,"lon":5.362774,"is_reserved":false,"is_disabled":false,"rental_uris":{"android":"levelo://app?vid=5203f761-10bf-4a49-bb4b-4472947c01f7","ios":"levelo://app?vid=5203f761-10bf-4a49-bb4b-4472947c01f7"},"vehicle_type_id":"4","last_reported":1719241747,"current_range_meters":13600,"station_id":"ce4bgpp2rcd13ifvqc3g","pricing_plan_id":"cebpf4jnsgd1na2vs0mg"},{"bike_id":"795221f4-8777-439e-bba8-c9ed53c06378","system_id":"levelo_inurba_marseille","lat":43.311722,"lon":5.387247,"is_reserved":false,"is_disabled":false,"rental_uris":{"android":"levelo://app?vid=795221f4-8777-439e-bba8-c9ed53c06378","ios":"levelo://app?vid=795221f4-8777-439e-bba8-c9ed53c06378"},"vehicle_type_id":"4","last_reported":1719241747,"current_range_meters":0,"station_id":"ce4bgv12rcd13ifvqcp0","pricing_plan_id":"cebpf4jnsgd1na2vs0mg"},{"bike_id":"f49b0f98-8648-4e21-9709-f9ade21917e1","system_id":"levelo_inurba_marseille","lat":43.322872,"lon":5.382756,"is_reserved":false,"is_disabled":false,"rental_uris":{"android":"levelo://app?vid=f49b0f98-8648-4e21-9709-f9ade21917e1","ios":"levelo://app?vid=f49b0f98-8648-4e21-9709-f9ade21917e1"},"vehicle_type_id":"4","last_reported":1719241747,"current_range_meters":13600,"station_id":"ce4bhr12rcd13ifvqhqg","pricing_plan_id":"cebpf4jnsgd1na2vs0mg"},{"bike_id":"81cf3955-7d40-4702-9d6d-1e7c1fec60f7","system_id":"levelo_inurba_marseille","lat":43.297774,"lon":5.370875,"is_reserved":false,"is_disabled":false,"rental_uris":{"android":"levelo://app?vid=81cf3955-7d40-4702-9d6d-1e7c1fec60f7","ios":"levelo://app?vid=81cf3955-7d40-4702-9d6d-1e7c1fec60f7"},"vehicle_type_id":"4","last_reported":1719241747,"current_range_meters":12400,"station_id":"ce4bgop2rcd13ifvqc1g","pricing_plan_id":"cebpf4jnsgd1na2vs0mg"},{"bike_id":"de15eb35-9a72-4513-b9b1-9d70e26e4f8e","system_id":"levelo_inurba_marseille","lat":43.322872,"lon":5.382756,"is_reserved":false,"is_disabled":false,"rental_uris":{"android":"levelo://app?vid=de15eb35-9a72-4513-b9b1-9d70e26e4f8e","ios":"levelo://app?vid=de15eb35-9a72-4513-b9b1-9d70e26e4f8e"},"vehicle_type_id":"4","last_reported":1719241747,"current_range_meters":28000,"station_id":"ce4bhr12rcd13ifvqhqg","pricing_plan_id":"cebpf4jnsgd1na2vs0mg"},{"bike_id":"cdd80cad-798d-4d47-a526-7ae149bfe247","system_id":"levelo_inurba_marseille","lat":43.322872,"lon":5.382756,"is_reserved":false,"is_disabled":false,"rental_uris":{"android":"levelo://app?vid=cdd80cad-798d-4d47-a526-7ae149bfe247","ios":"levelo://app?vid=cdd80cad-798d-4d47-a526-7ae149bfe247"},"vehicle_type_id":"4","last_reported":1719241747,"current_range_meters":1200,"station_id":"ce4bhr12rcd13ifvqhqg","pricing_plan_id":"cebpf4jnsgd1na2vs0mg"},{"bike_id":"64d60840-4908-433c-847a-d4de69373199","system_id":"levelo_inurba_marseille","lat":43.297163,"lon":5.365866,"is_reserved":false,"is_disabled":false,"rental_uris":{"android":"levelo://app?vid=64d60840-4908-433c-847a-d4de69373199","ios":"levelo://app?vid=64d60840-4908-433c-847a-d4de69373199"},"vehicle_type_id":"4","last_reported":1719241747,"current_range_meters":0,"station_id":"ce4bgn12rcd13ifvqbt0","pricing_plan_id":"cebpf4jnsgd1na2vs0mg"},{"bike_id":"9f749f80-4a8d-496c-8c45-9ae96bcd48da","system_id":"levelo_inurba_marseille","lat":43.305364,"lon":5.384119,"is_reserved":false,"is_disabled":false,"rental_uris":{"android":"levelo://app?vid=9f749f80-4a8d-496c-8c45-9ae96bcd48da","ios":"levelo://app?vid=9f749f80-4a8d-496c-8c45-9ae96bcd48da"},"vehicle_type_id":"4","last_reported":1719241747,"current_range_meters":17200,"station_id":"ce4bgg92rcd13ifvqb30","pricing_plan_id":"cebpf4jnsgd1na2vs0mg"},{"bike_id":"31b29aec-5415-4a64-9eca-c3e39439761b","system_id":"levelo_inurba_marseille","lat":43.297163,"lon":5.365866,"is_reserved":false,"is_disabled":false,"rental_uris":{"android":"levelo://app?vid=31b29aec-5415-4a64-9eca-c3e39439761b","ios":"levelo://app?vid=31b29aec-5415-4a64-9eca-c3e39439761b"},"vehicle_type_id":"4","last_reported":1719241747,"current_range_meters":28000,"station_id":"ce4bgn12rcd13ifvqbt0","pricing_plan_id":"cebpf4jnsgd1na2vs0mg"},{"bike_id":"ff865ffb-9ebc-43a4-a938-cae052955fe1","system_id":"levelo_inurba_marseille","lat":43.29573,"lon":5.367355,"is_reserved":false,"is_disabled":false,"rental_uris":{"android":"levelo://app?vid=ff865ffb-9ebc-43a4-a938-cae052955fe1","ios":"levelo://app?vid=ff865ffb-9ebc-43a4-a938-cae052955fe1"},"vehicle_type_id":"4","last_reported":1719241747,"current_range_meters":11200,"station_id":"ce4bgph2rcd13ifvqc2g","pricing_plan_id":"cebpf4jnsgd1na2vs0mg"},{"bike_id":"fc2dffec-4a8f-4230-a896-d0ea672a3aca","system_id":"levelo_inurba_marseille","lat":43.29573,"lon":5.367355,"is_reserved":false,"is_disabled":false,"rental_uris":{"android":"levelo://app?vid=fc2dffec-4a8f-4230-a896-d0ea672a3aca","ios":"levelo://app?vid=fc2dffec-4a8f-4230-a896-d0ea672a3aca"},"vehicle_type_id":"4","last_reported":1719241747,"current_range_meters":23200,"station_id":"ce4bgph2rcd13ifvqc2g","pricing_plan_id":"cebpf4jnsgd1na2vs0mg"},{"bike_id":"4f4e5d87-3471-4284-94d7-ccb2cb8520ce","system_id":"levelo_inurba_marseille","lat":43.29596,"lon":5.36388,"is_reserved":false,"is_disabled":false,"rental_uris":{"android":"levelo://app?vid=4f4e5d87-3471-4284-94d7-ccb2cb8520ce","ios":"levelo://app?vid=4f4e5d87-3471-4284-94d7-ccb2cb8520ce"},"vehicle_type_id":"4","last_reported":1719241747,"current_range_meters":19200,"station_id":"","pricing_plan_id":"cebpf4jnsgd1na2vs0mg"},{"bike_id":"7ac3f623-ec4c-4408-a3f8-f70fca14ed70","system_id":"levelo_inurba_marseille","lat":43.299028,"lon":5.381509,"is_reserved":false,"is_disabled":false,"rental_uris":{"android":"levelo://app?vid=7ac3f623-ec4c-4408-a3f8-f70fca14ed70","ios":"levelo://app?vid=7ac3f623-ec4c-4408-a3f8-f70fca14ed70"},"vehicle_type_id":"4","last_reported":1719241747,"current_range_meters":22800,"station_id":"ce4bgj12rcd13ifvqbc0","pricing_plan_id":"cebpf4jnsgd1na2vs0mg"},{"bike_id":"6a2f9c88-9189-4b89-98c2-f69caf9183bb","system_id":"levelo_inurba_marseille","lat":43.296921,"lon":5.376579,"is_reserved":false,"is_disabled":false,"rental_uris":{"android":"levelo://app?vid=6a2f9c88-9189-4b89-98c2-f69caf9183bb","ios":"levelo://app?vid=6a2f9c88-9189-4b89-98c2-f69caf9183bb"},"vehicle_type_id":"4","last_reported":1719241747,"current_range_meters":800,"station_id":"ce4bgkh2rcd13ifvqbl0","pricing_plan_id":"cebpf4jnsgd1na2vs0mg"},{"bike_id":"d00c8ab3-c612-4eac-adfe-64a722aa0b9e","system_id":"levelo_inurba_marseille","lat":43.299028,"lon":5.381509,"is_reserved":false,"is_disabled":false,"rental_uris":{"android":"levelo://app?vid=d00c8ab3-c612-4eac-adfe-64a722aa0b9e","ios":"levelo://app?vid=d00c8ab3-c612-4eac-adfe-64a722aa0b9e"},"vehicle_type_id":"4","last_reported":1719241747,"current_range_meters":20400,"station_id":"ce4bgj12rcd13ifvqbc0","pricing_plan_id":"cebpf4jnsgd1na2vs0mg"},{"bike_id":"91ee82d0-ef09-4e80-a06c-5c9ecde7254c","system_id":"levelo_inurba_marseille","lat":43.296921,"lon":5.376579,"is_reserved":false,"is_disabled":false,"rental_uris":{"android":"levelo://app?vid=91ee82d0-ef09-4e80-a06c-5c9ecde7254c","ios":"levelo://app?vid=91ee82d0-ef09-4e80-a06c-5c9ecde7254c"},"vehicle_type_id":"4","last_reported":1719241747,"current_range_meters":21200,"station_id":"ce4bgkh2rcd13ifvqbl0","pricing_plan_id":"cebpf4jnsgd1na2vs0mg"},{"bike_id":"d297cba4-e14d-44d0-9b20-887e6d4df984","system_id":"levelo_inurba_marseille","lat":43.297496,"lon":5.379273,"is_reserved":false,"is_disabled":false,"rental_uris":{"android":"levelo://app?vid=d297cba4-e14d-44d0-9b20-887e6d4df984","ios":"levelo://app?vid=d297cba4-e14d-44d0-9b20-887e6d4df984"},"vehicle_type_id":"4","last_reported":1719241747,"current_range_meters":9200,"station_id":"","pricing_plan_id":"cebpf4jnsgd1na2vs0mg"},{"bike_id":"6b31116a-541c-455e-89e0-67f8b324ee15","system_id":"levelo_inurba_marseille","lat":43.304278,"lon":5.388868,"is_reserved":false,"is_disabled":false,"rental_uris":{"android":"levelo://app?vid=6b31116a-541c-455e-89e0-67f8b324ee15","ios":"levelo://app?vid=6b31116a-541c-455e-89e0-67f8b324ee15"},"vehicle_type_id":"4","last_reported":1719241747,"current_range_meters":22800,"station_id":"ce4bgk12rcd13ifvqbi0","pricing_plan_id":"cebpf4jnsgd1na2vs0mg"},{"bike_id":"3ef1f044-0029-41c8-8633-9fa80080c23d","system_id":"levelo_inurba_marseille","lat":43.30425,"lon":5.38893,"is_reserved":false,"is_disabled":false,"rental_uris":{"android":"levelo://app?vid=3ef1f044-0029-41c8-8633-9fa80080c23d","ios":"levelo://app?vid=3ef1f044-0029-41c8-8633-9fa80080c23d"},"vehicle_type_id":"4","last_reported":1719241747,"current_range_meters":2000,"station_id":"ce4bgk12rcd13ifvqbi0","pricing_plan_id":"cebpf4jnsgd1na2vs0mg"},{"bike_id":"3377cb70-2acc-4c4c-a2dd-3ca37931fa1d","system_id":"levelo_inurba_marseille","lat":43.299707,"lon":5.384859,"is_reserved":false,"is_disabled":false,"rental_uris":{"android":"levelo://app?vid=3377cb70-2acc-4c4c-a2dd-3ca37931fa1d","ios":"levelo://app?vid=3377cb70-2acc-4c4c-a2dd-3ca37931fa1d"},"vehicle_type_id":"4","last_reported":1719241747,"current_range_meters":0,"station_id":"ce4bgj92rcd13ifvqbd0","pricing_plan_id":"cebpf4jnsgd1na2vs0mg"},{"bike_id":"a1774d27-30de-446f-8d04-0d6f2820bcf7","system_id":"levelo_inurba_marseille","lat":43.295279,"lon":5.375048,"is_reserved":false,"is_disabled":false,"rental_uris":{"android":"levelo://app?vid=a1774d27-30de-446f-8d04-0d6f2820bcf7","ios":"levelo://app?vid=a1774d27-30de-446f-8d04-0d6f2820bcf7"},"vehicle_type_id":"4","last_reported":1719241747,"current_range_meters":31600,"station_id":"ce4bgkp2rcd13ifvqbmg","pricing_plan_id":"cebpf4jnsgd1na2vs0mg"},{"bike_id":"694e17fc-67f3-4305-86de-e6e415a3612e","system_id":"levelo_inurba_marseille","lat":43.295279,"lon":5.375048,"is_reserved":false,"is_disabled":false,"rental_uris":{"android":"levelo://app?vid=694e17fc-67f3-4305-86de-e6e415a3612e","ios":"levelo://app?vid=694e17fc-67f3-4305-86de-e6e415a3612e"},"vehicle_type_id":"4","last_reported":1719241747,"current_range_meters":4800,"station_id":"ce4bgkp2rcd13ifvqbmg","pricing_plan_id":"cebpf4jnsgd1na2vs0mg"},{"bike_id":"d3c48866-c112-4ba5-b558-17b9b210209d","system_id":"levelo_inurba_marseille","lat":43.286593,"lon":5.363346,"is_reserved":false,"is_disabled":false,"rental_uris":{"android":"levelo://app?vid=d3c48866-c112-4ba5-b558-17b9b210209d","ios":"levelo://app?vid=d3c48866-c112-4ba5-b558-17b9b210209d"},"vehicle_type_id":"4","last_reported":1719241747,"current_range_meters":13600,"station_id":"ce4bhah2rcd13ifvqej0","pricing_plan_id":"cebpf4jnsgd1na2vs0mg"},{"bike_id":"a43ec2ef-7a45-4289-94c1-276dcbd7a159","system_id":"levelo_inurba_marseille","lat":43.299724,"lon":5.384848,"is_reserved":false,"is_disabled":false,"rental_uris":{"android":"levelo://app?vid=a43ec2ef-7a45-4289-94c1-276dcbd7a159","ios":"levelo://app?vid=a43ec2ef-7a45-4289-94c1-276dcbd7a159"},"vehicle_type_id":"4","last_reported":1719241747,"current_range_meters":20000,"station_id":"ce4bgj92rcd13ifvqbd0","pricing_plan_id":"cebpf4jnsgd1na2vs0mg"},{"bike_id":"468d9679-f790-4d6c-80e3-06e5b4e2f4b8","system_id":"levelo_inurba_marseille","lat":43.293259,"lon":5.371586,"is_reserved":false,"is_disabled":false,"rental_uris":{"android":"levelo://app?vid=468d9679-f790-4d6c-80e3-06e5b4e2f4b8","ios":"levelo://app?vid=468d9679-f790-4d6c-80e3-06e5b4e2f4b8"},"vehicle_type_id":"4","last_reported":1719241747,"current_range_meters":14800,"station_id":"ce4bgh92rcd13ifvqb40","pricing_plan_id":"cebpf4jnsgd1na2vs0mg"},{"bike_id":"56a681f2-d606-470b-b47c-a0e9ec467319","system_id":"levelo_inurba_marseille","lat":43.292749,"lon":5.368402,"is_reserved":false,"is_disabled":false,"rental_uris":{"android":"levelo://app?vid=56a681f2-d606-470b-b47c-a0e9ec467319","ios":"levelo://app?vid=56a681f2-d606-470b-b47c-a0e9ec467319"},"vehicle_type_id":"4","last_reported":1719241747,"current_range_meters":25600,"station_id":"ce4bhbp2rcd13ifvqesg","pricing_plan_id":"cebpf4jnsgd1na2vs0mg"},{"bike_id":"bff6ed9c-1390-4f04-b463-dfc174694883","system_id":"levelo_inurba_marseille","lat":43.305994,"lon":5.393687,"is_reserved":false,"is_disabled":false,"rental_uris":{"android":"levelo://app?vid=bff6ed9c-1390-4f04-b463-dfc174694883","ios":"levelo://app?vid=bff6ed9c-1390-4f04-b463-dfc174694883"},"vehicle_type_id":"4","last_reported":1719241747,"current_range_meters":21200,"station_id":"ce4bh0p2rcd13ifvqd80","pricing_plan_id":"cebpf4jnsgd1na2vs0mg"},{"bike_id":"c6397b7e-136b-46ce-894e-680ae70f3906","system_id":"levelo_inurba_marseille","lat":43.293009,"lon":5.374584,"is_reserved":false,"is_disabled":false,"rental_uris":{"android":"levelo://app?vid=c6397b7e-136b-46ce-894e-680ae70f3906","ios":"levelo://app?vid=c6397b7e-136b-46ce-894e-680ae70f3906"},"vehicle_type_id":"4","last_reported":1719241747,"current_range_meters":0,"station_id":"ce4bgi12rcd13ifvqb70","pricing_plan_id":"cebpf4jnsgd1na2vs0mg"},{"bike_id":"2d403e45-dd0f-4a35-bc36-748d9080a5c4","system_id":"levelo_inurba_marseille","lat":43.293009,"lon":5.374584,"is_reserved":false,"is_disabled":false,"rental_uris":{"android":"levelo://app?vid=2d403e45-dd0f-4a35-bc36-748d9080a5c4","ios":"levelo://app?vid=2d403e45-dd0f-4a35-bc36-748d9080a5c4"},"vehicle_type_id":"4","last_reported":1719241747,"current_range_meters":29200,"station_id":"ce4bgi12rcd13ifvqb70","pricing_plan_id":"cebpf4jnsgd1na2vs0mg"},{"bike_id":"b03d3c80-c0e8-460e-87b2-3cbb99648dd5","system_id":"levelo_inurba_marseille","lat":43.305994,"lon":5.393687,"is_reserved":false,"is_disabled":false,"rental_uris":{"android":"levelo://app?vid=b03d3c80-c0e8-460e-87b2-3cbb99648dd5","ios":"levelo://app?vid=b03d3c80-c0e8-460e-87b2-3cbb99648dd5"},"vehicle_type_id":"4","last_reported":1719241747,"current_range_meters":0,"station_id":"ce4bh0p2rcd13ifvqd80","pricing_plan_id":"cebpf4jnsgd1na2vs0mg"},{"bike_id":"7ca71f49-ef8e-44f0-8ff0-d11333743da0","system_id":"levelo_inurba_marseille","lat":43.2936,"lon":5.37835,"is_reserved":false,"is_disabled":false,"rental_uris":{"android":"levelo://app?vid=7ca71f49-ef8e-44f0-8ff0-d11333743da0","ios":"levelo://app?vid=7ca71f49-ef8e-44f0-8ff0-d11333743da0"},"vehicle_type_id":"4","last_reported":1719241747,"current_range_meters":11200,"station_id":"ce4bgjh2rcd13ifvqbf0","pricing_plan_id":"cebpf4jnsgd1na2vs0mg"},{"bike_id":"5cd908dc-316f-4c2e-848a-15bc679c3876","system_id":"levelo_inurba_marseille","lat":43.30085,"lon":5.390856,"is_reserved":false,"is_disabled":false,"rental_uris":{"android":"levelo://app?vid=5cd908dc-316f-4c2e-848a-15bc679c3876","ios":"levelo://app?vid=5cd908dc-316f-4c2e-848a-15bc679c3876"},"vehicle_type_id":"4","last_reported":1719241747,"current_range_meters":27600,"station_id":"ce4bh192rcd13ifvqdb0","pricing_plan_id":"cebpf4jnsgd1na2vs0mg"},{"bike_id":"4e48b304-c3b9-400d-9a10-bb7b6b138ae7","system_id":"levelo_inurba_marseille","lat":43.30085,"lon":5.390856,"is_reserved":false,"is_disabled":false,"rental_uris":{"android":"levelo://app?vid=4e48b304-c3b9-400d-9a10-bb7b6b138ae7","ios":"levelo://app?vid=4e48b304-c3b9-400d-9a10-bb7b6b138ae7"},"vehicle_type_id":"4","last_reported":1719241747,"current_range_meters":4800,"station_id":"ce4bh192rcd13ifvqdb0","pricing_plan_id":"cebpf4jnsgd1na2vs0mg"},{"bike_id":"4bccb02a-5d5c-4c5a-94fa-49018c5ae2fb","system_id":"levelo_inurba_marseille","lat":43.30085,"lon":5.390856,"is_reserved":false,"is_disabled":false,"rental_uris":{"android":"levelo://app?vid=4bccb02a-5d5c-4c5a-94fa-49018c5ae2fb","ios":"levelo://app?vid=4bccb02a-5d5c-4c5a-94fa-49018c5ae2fb"},"vehicle_type_id":"4","last_reported":1719241747,"current_range_meters":17600,"station_id":"ce4bh192rcd13ifvqdb0","pricing_plan_id":"cebpf4jnsgd1na2vs0mg"},{"bike_id":"ea668cd3-5060-484a-a3cf-d874efe80df9","system_id":"levelo_inurba_marseille","lat":43.30085,"lon":5.390856,"is_reserved":false,"is_disabled":false,"rental_uris":{"android":"levelo://app?vid=ea668cd3-5060-484a-a3cf-d874efe80df9","ios":"levelo://app?vid=ea668cd3-5060-484a-a3cf-d874efe80df9"},"vehicle_type_id":"4","last_reported":1719241747,"current_range_meters":6400,"station_id":"ce4bh192rcd13ifvqdb0","pricing_plan_id":"cebpf4jnsgd1na2vs0mg"},{"bike_id":"d8ba45ca-b418-447b-ba96-104eb5116e99","system_id":"levelo_inurba_marseille","lat":43.291671,"lon":5.371575,"is_reserved":false,"is_disabled":false,"rental_uris":{"android":"levelo://app?vid=d8ba45ca-b418-447b-ba96-104eb5116e99","ios":"levelo://app?vid=d8ba45ca-b418-447b-ba96-104eb5116e99"},"vehicle_type_id":"4","last_reported":1719241747,"current_range_meters":6400,"station_id":"ce4bha92rcd13ifvqeh0","pricing_plan_id":"cebpf4jnsgd1na2vs0mg"},{"bike_id":"57400177-c128-4fd8-a32b-23d276e35248","system_id":"levelo_inurba_marseille","lat":43.29887,"lon":5.38896,"is_reserved":false,"is_disabled":false,"rental_uris":{"android":"levelo://app?vid=57400177-c128-4fd8-a32b-23d276e35248","ios":"levelo://app?vid=57400177-c128-4fd8-a32b-23d276e35248"},"vehicle_type_id":"4","last_reported":1719241747,"current_range_meters":22000,"station_id":"ce4bh392rcd13ifvqdl0","pricing_plan_id":"cebpf4jnsgd1na2vs0mg"},{"bike_id":"bad1353a-3540-4e16-8f81-c4064c20f1d6","system_id":"levelo_inurba_marseille","lat":43.2926,"lon":5.3762,"is_reserved":false,"is_disabled":false,"rental_uris":{"android":"levelo://app?vid=bad1353a-3540-4e16-8f81-c4064c20f1d6","ios":"levelo://app?vid=bad1353a-3540-4e16-8f81-c4064c20f1d6"},"vehicle_type_id":"4","last_reported":1719241747,"current_range_meters":0,"station_id":"","pricing_plan_id":"cebpf4jnsgd1na2vs0mg"},{"bike_id":"21ab5af7-abfa-4970-b743-ac0d3e1cc4f0","system_id":"levelo_inurba_marseille","lat":43.291675,"lon":5.371583,"is_reserved":false,"is_disabled":false,"rental_uris":{"android":"levelo://app?vid=21ab5af7-abfa-4970-b743-ac0d3e1cc4f0","ios":"levelo://app?vid=21ab5af7-abfa-4970-b743-ac0d3e1cc4f0"},"vehicle_type_id":"4","last_reported":1719241747,"current_range_meters":16800,"station_id":"ce4bha92rcd13ifvqeh0","pricing_plan_id":"cebpf4jnsgd1na2vs0mg"},{"bike_id":"d48ffd24-684a-412c-a770-5421307d22f9","system_id":"levelo_inurba_marseille","lat":43.291671,"lon":5.371575,"is_reserved":false,"is_disabled":false,"rental_uris":{"android":"levelo://app?vid=d48ffd24-684a-412c-a770-5421307d22f9","ios":"levelo://app?vid=d48ffd24-684a-412c-a770-5421307d22f9"},"vehicle_type_id":"4","last_reported":1719241747,"current_range_meters":7200,"station_id":"ce4bha92rcd13ifvqeh0","pricing_plan_id":"cebpf4jnsgd1na2vs0mg"},{"bike_id":"6f2ed4ae-4072-43e5-949d-990ffb47bf90","system_id":"levelo_inurba_marseille","lat":43.298764,"lon":5.388973,"is_reserved":false,"is_disabled":false,"rental_uris":{"android":"levelo://app?vid=6f2ed4ae-4072-43e5-949d-990ffb47bf90","ios":"levelo://app?vid=6f2ed4ae-4072-43e5-949d-990ffb47bf90"},"vehicle_type_id":"4","last_reported":1719241747,"current_range_meters":21600,"station_id":"ce4bh392rcd13ifvqdl0","pricing_plan_id":"cebpf4jnsgd1na2vs0mg"},{"bike_id":"1857dd1e-12b6-42b5-bb38-318460d62008","system_id":"levelo_inurba_marseille","lat":43.291675,"lon":5.371583,"is_reserved":false,"is_disabled":false,"rental_uris":{"android":"levelo://app?vid=1857dd1e-12b6-42b5-bb38-318460d62008","ios":"levelo://app?vid=1857dd1e-12b6-42b5-bb38-318460d62008"},"vehicle_type_id":"4","last_reported":1719241747,"current_range_meters":4000,"station_id":"ce4bha92rcd13ifvqeh0","pricing_plan_id":"cebpf4jnsgd1na2vs0mg"},{"bike_id":"800a674c-d216-48d5-b182-939cd6c685d2","system_id":"levelo_inurba_marseille","lat":43.291675,"lon":5.371583,"is_reserved":false,"is_disabled":false,"rental_uris":{"android":"levelo://app?vid=800a674c-d216-48d5-b182-939cd6c685d2","ios":"levelo://app?vid=800a674c-d216-48d5-b182-939cd6c685d2"},"vehicle_type_id":"4","last_reported":1719241747,"current_range_meters":2400,"station_id":"ce4bha92rcd13ifvqeh0","pricing_plan_id":"cebpf4jnsgd1na2vs0mg"},{"bike_id":"68cf5bf9-0deb-470b-aa78-ff2f707b6e15","system_id":"levelo_inurba_marseille","lat":43.291675,"lon":5.371583,"is_reserved":false,"is_disabled":false,"rental_uris":{"android":"levelo://app?vid=68cf5bf9-0deb-470b-aa78-ff2f707b6e15","ios":"levelo://app?vid=68cf5bf9-0deb-470b-aa78-ff2f707b6e15"},"vehicle_type_id":"4","last_reported":1719241747,"current_range_meters":22800,"station_id":"ce4bha92rcd13ifvqeh0","pricing_plan_id":"cebpf4jnsgd1na2vs0mg"},{"bike_id":"4578bce2-0d05-415f-9cb2-7cf487622a47","system_id":"levelo_inurba_marseille","lat":43.313291,"lon":5.396838,"is_reserved":false,"is_disabled":false,"rental_uris":{"android":"levelo://app?vid=4578bce2-0d05-415f-9cb2-7cf487622a47","ios":"levelo://app?vid=4578bce2-0d05-415f-9cb2-7cf487622a47"},"vehicle_type_id":"4","last_reported":1719241747,"current_range_meters":26000,"station_id":"ce4bgvp2rcd13ifvqcu0","pricing_plan_id":"cebpf4jnsgd1na2vs0mg"},{"bike_id":"8ecdb498-04b1-4118-aaf8-e101e246964a","system_id":"levelo_inurba_marseille","lat":43.33211,"lon":5.38093,"is_reserved":false,"is_disabled":false,"rental_uris":{"android":"levelo://app?vid=8ecdb498-04b1-4118-aaf8-e101e246964a","ios":"levelo://app?vid=8ecdb498-04b1-4118-aaf8-e101e246964a"},"vehicle_type_id":"4","last_reported":1719241747,"current_range_meters":0,"station_id":"","pricing_plan_id":"cebpf4jnsgd1na2vs0mg"},{"bike_id":"786f4981-4711-49c5-9985-f5ac1e641b16","system_id":"levelo_inurba_marseille","lat":43.3089,"lon":5.39657,"is_reserved":false,"is_disabled":false,"rental_uris":{"android":"levelo://app?vid=786f4981-4711-49c5-9985-f5ac1e641b16","ios":"levelo://app?vid=786f4981-4711-49c5-9985-f5ac1e641b16"},"vehicle_type_id":"4","last_reported":1719241747,"current_range_meters":20400,"station_id":"ce4bh012rcd13ifvqcv0","pricing_plan_id":"cebpf4jnsgd1na2vs0mg"},{"bike_id":"e1eab364-2b44-4dbd-a91e-5abc612144f0","system_id":"levelo_inurba_marseille","lat":43.29529,"lon":5.385581,"is_reserved":false,"is_disabled":false,"rental_uris":{"android":"levelo://app?vid=e1eab364-2b44-4dbd-a91e-5abc612144f0","ios":"levelo://app?vid=e1eab364-2b44-4dbd-a91e-5abc612144f0"},"vehicle_type_id":"4","last_reported":1719241747,"current_range_meters":4000,"station_id":"ce4bgih2rcd13ifvqba0","pricing_plan_id":"cebpf4jnsgd1na2vs0mg"},{"bike_id":"9fe4da84-d255-416d-beb8-5a9b123e6bbf","system_id":"levelo_inurba_marseille","lat":43.29529,"lon":5.385581,"is_reserved":false,"is_disabled":false,"rental_uris":{"android":"levelo://app?vid=9fe4da84-d255-416d-beb8-5a9b123e6bbf","ios":"levelo://app?vid=9fe4da84-d255-416d-beb8-5a9b123e6bbf"},"vehicle_type_id":"4","last_reported":1719241747,"current_range_meters":20800,"station_id":"ce4bgih2rcd13ifvqba0","pricing_plan_id":"cebpf4jnsgd1na2vs0mg"},{"bike_id":"2e8209d0-c90c-4107-9151-3da222d5a63e","system_id":"levelo_inurba_marseille","lat":43.302008,"lon":5.394694,"is_reserved":false,"is_disabled":false,"rental_uris":{"android":"levelo://app?vid=2e8209d0-c90c-4107-9151-3da222d5a63e","ios":"levelo://app?vid=2e8209d0-c90c-4107-9151-3da222d5a63e"},"vehicle_type_id":"4","last_reported":1719241747,"current_range_meters":26400,"station_id":"ce4bh0p2rcd13ifvqd70","pricing_plan_id":"cebpf4jnsgd1na2vs0mg"},{"bike_id":"581ebb22-073b-42f5-8116-d43a49a7e90a","system_id":"levelo_inurba_marseille","lat":43.3021,"lon":5.39476,"is_reserved":false,"is_disabled":false,"rental_uris":{"android":"levelo://app?vid=581ebb22-073b-42f5-8116-d43a49a7e90a","ios":"levelo://app?vid=581ebb22-073b-42f5-8116-d43a49a7e90a"},"vehicle_type_id":"4","last_reported":1719241747,"current_range_meters":8400,"station_id":"ce4bh0p2rcd13ifvqd70","pricing_plan_id":"cebpf4jnsgd1na2vs0mg"},{"bike_id":"662c353a-417c-4593-93c3-b65ccabeda34","system_id":"levelo_inurba_marseille","lat":43.29032,"lon":5.35916,"is_reserved":false,"is_disabled":false,"rental_uris":{"android":"levelo://app?vid=662c353a-417c-4593-93c3-b65ccabeda34","ios":"levelo://app?vid=662c353a-417c-4593-93c3-b65ccabeda34"},"vehicle_type_id":"4","last_reported":1719241747,"current_range_meters":0,"station_id":"ce4bha92rcd13ifvqeg0","pricing_plan_id":"cebpf4jnsgd1na2vs0mg"},{"bike_id":"5e57888c-53ca-4c66-b487-19d9afb03252","system_id":"levelo_inurba_marseille","lat":43.294153,"lon":5.386305,"is_reserved":false,"is_disabled":false,"rental_uris":{"android":"levelo://app?vid=5e57888c-53ca-4c66-b487-19d9afb03252","ios":"levelo://app?vid=5e57888c-53ca-4c66-b487-19d9afb03252"},"vehicle_type_id":"4","last_reported":1719241747,"current_range_meters":14400,"station_id":"ce4bh2h2rcd13ifvqdh0","pricing_plan_id":"cebpf4jnsgd1na2vs0mg"},{"bike_id":"3acc111e-0b69-45ab-b38f-284347b19621","system_id":"levelo_inurba_marseille","lat":43.294153,"lon":5.386305,"is_reserved":false,"is_disabled":false,"rental_uris":{"android":"levelo://app?vid=3acc111e-0b69-45ab-b38f-284347b19621","ios":"levelo://app?vid=3acc111e-0b69-45ab-b38f-284347b19621"},"vehicle_type_id":"4","last_reported":1719241747,"current_range_meters":17600,"station_id":"ce4bh2h2rcd13ifvqdh0","pricing_plan_id":"cebpf4jnsgd1na2vs0mg"},{"bike_id":"00cb2aa0-05c2-46ab-879a-8233436c63d3","system_id":"levelo_inurba_marseille","lat":43.290319,"lon":5.375732,"is_reserved":false,"is_disabled":false,"rental_uris":{"android":"levelo://app?vid=00cb2aa0-05c2-46ab-879a-8233436c63d3","ios":"levelo://app?vid=00cb2aa0-05c2-46ab-879a-8233436c63d3"},"vehicle_type_id":"4","last_reported":1719241747,"current_range_meters":10800,"station_id":"ce4bh692rcd13ifvqe90","pricing_plan_id":"cebpf4jnsgd1na2vs0mg"},{"bike_id":"47a8eeda-0df0-4b17-b2ad-2d4212b65c71","system_id":"levelo_inurba_marseille","lat":43.294162,"lon":5.386292,"is_reserved":false,"is_disabled":false,"rental_uris":{"android":"levelo://app?vid=47a8eeda-0df0-4b17-b2ad-2d4212b65c71","ios":"levelo://app?vid=47a8eeda-0df0-4b17-b2ad-2d4212b65c71"},"vehicle_type_id":"4","last_reported":1719241747,"current_range_meters":0,"station_id":"ce4bh2h2rcd13ifvqdh0","pricing_plan_id":"cebpf4jnsgd1na2vs0mg"},{"bike_id":"9c63f118-5c38-4bd6-9a6d-bfc8fd82f029","system_id":"levelo_inurba_marseille","lat":43.290319,"lon":5.375732,"is_reserved":false,"is_disabled":false,"rental_uris":{"android":"levelo://app?vid=9c63f118-5c38-4bd6-9a6d-bfc8fd82f029","ios":"levelo://app?vid=9c63f118-5c38-4bd6-9a6d-bfc8fd82f029"},"vehicle_type_id":"4","last_reported":1719241747,"current_range_meters":14000,"station_id":"ce4bh692rcd13ifvqe90","pricing_plan_id":"cebpf4jnsgd1na2vs0mg"},{"bike_id":"2d05640c-00d0-42c8-bb31-78308947a506","system_id":"levelo_inurba_marseille","lat":43.294153,"lon":5.386305,"is_reserved":false,"is_disabled":false,"rental_uris":{"android":"levelo://app?vid=2d05640c-00d0-42c8-bb31-78308947a506","ios":"levelo://app?vid=2d05640c-00d0-42c8-bb31-78308947a506"},"vehicle_type_id":"4","last_reported":1719241747,"current_range_meters":11600,"station_id":"ce4bh2h2rcd13ifvqdh0","pricing_plan_id":"cebpf4jnsgd1na2vs0mg"},{"bike_id":"3572445d-2a3b-4f3d-b93f-87316e5ce485","system_id":"levelo_inurba_marseille","lat":43.289184,"lon":5.366408,"is_reserved":false,"is_disabled":false,"rental_uris":{"android":"levelo://app?vid=3572445d-2a3b-4f3d-b93f-87316e5ce485","ios":"levelo://app?vid=3572445d-2a3b-4f3d-b93f-87316e5ce485"},"vehicle_type_id":"4","last_reported":1719241747,"current_range_meters":400,"station_id":"ce4bhap2rcd13ifvqek0","pricing_plan_id":"cebpf4jnsgd1na2vs0mg"},{"bike_id":"afd93f34-8ef2-4408-b56b-3a258eb19d2d","system_id":"levelo_inurba_marseille","lat":43.304274,"lon":5.397513,"is_reserved":false,"is_disabled":false,"rental_uris":{"android":"levelo://app?vid=afd93f34-8ef2-4408-b56b-3a258eb19d2d","ios":"levelo://app?vid=afd93f34-8ef2-4408-b56b-3a258eb19d2d"},"vehicle_type_id":"4","last_reported":1719241747,"current_range_meters":31200,"station_id":"ce4bh092rcd13ifvqd20","pricing_plan_id":"cebpf4jnsgd1na2vs0mg"},{"bike_id":"f77e0625-6464-45bf-84df-ea1f8129076d","system_id":"levelo_inurba_marseille","lat":43.304274,"lon":5.397513,"is_reserved":false,"is_disabled":false,"rental_uris":{"android":"levelo://app?vid=f77e0625-6464-45bf-84df-ea1f8129076d","ios":"levelo://app?vid=f77e0625-6464-45bf-84df-ea1f8129076d"},"vehicle_type_id":"4","last_reported":1719241747,"current_range_meters":8400,"station_id":"ce4bh092rcd13ifvqd20","pricing_plan_id":"cebpf4jnsgd1na2vs0mg"},{"bike_id":"12d7af24-92ec-4725-9c9d-b3466bf353a9","system_id":"levelo_inurba_marseille","lat":43.290104,"lon":5.356111,"is_reserved":false,"is_disabled":false,"rental_uris":{"android":"levelo://app?vid=12d7af24-92ec-4725-9c9d-b3466bf353a9","ios":"levelo://app?vid=12d7af24-92ec-4725-9c9d-b3466bf353a9"},"vehicle_type_id":"4","last_reported":1719241747,"current_range_meters":800,"station_id":"ce4bhb92rcd13ifvqen0","pricing_plan_id":"cebpf4jnsgd1na2vs0mg"},{"bike_id":"be975e94-a5ce-415f-a711-a15680f3055d","system_id":"levelo_inurba_marseille","lat":43.290103,"lon":5.356114,"is_reserved":false,"is_disabled":false,"rental_uris":{"android":"levelo://app?vid=be975e94-a5ce-415f-a711-a15680f3055d","ios":"levelo://app?vid=be975e94-a5ce-415f-a711-a15680f3055d"},"vehicle_type_id":"4","last_reported":1719241747,"current_range_meters":1600,"station_id":"ce4bhb92rcd13ifvqen0","pricing_plan_id":"cebpf4jnsgd1na2vs0mg"},{"bike_id":"bfbbc581-87eb-4b10-bf0a-f380873384c6","system_id":"levelo_inurba_marseille","lat":43.290103,"lon":5.356114,"is_reserved":false,"is_disabled":false,"rental_uris":{"android":"levelo://app?vid=bfbbc581-87eb-4b10-bf0a-f380873384c6","ios":"levelo://app?vid=bfbbc581-87eb-4b10-bf0a-f380873384c6"},"vehicle_type_id":"4","last_reported":1719241747,"current_range_meters":1200,"station_id":"ce4bhb92rcd13ifvqen0","pricing_plan_id":"cebpf4jnsgd1na2vs0mg"},{"bike_id":"9491164b-1c73-4788-b015-38f73733cdc3","system_id":"levelo_inurba_marseille","lat":43.290104,"lon":5.356111,"is_reserved":false,"is_disabled":false,"rental_uris":{"android":"levelo://app?vid=9491164b-1c73-4788-b015-38f73733cdc3","ios":"levelo://app?vid=9491164b-1c73-4788-b015-38f73733cdc3"},"vehicle_type_id":"4","last_reported":1719241747,"current_range_meters":800,"station_id":"ce4bhb92rcd13ifvqen0","pricing_plan_id":"cebpf4jnsgd1na2vs0mg"},{"bike_id":"affd3279-d001-49f4-9d3a-6d141868b00f","system_id":"levelo_inurba_marseille","lat":43.290995,"lon":5.381361,"is_reserved":false,"is_disabled":false,"rental_uris":{"android":"levelo://app?vid=affd3279-d001-49f4-9d3a-6d141868b00f","ios":"levelo://app?vid=affd3279-d001-49f4-9d3a-6d141868b00f"},"vehicle_type_id":"4","last_reported":1719241747,"current_range_meters":18000,"station_id":"ce4bh512rcd13ifvqe2g","pricing_plan_id":"cebpf4jnsgd1na2vs0mg"},{"bike_id":"421b7a3e-1f5f-4ba1-b0e8-67dbfa418047","system_id":"levelo_inurba_marseille","lat":43.297815,"lon":5.393548,"is_reserved":false,"is_disabled":false,"rental_uris":{"android":"levelo://app?vid=421b7a3e-1f5f-4ba1-b0e8-67dbfa418047","ios":"levelo://app?vid=421b7a3e-1f5f-4ba1-b0e8-67dbfa418047"},"vehicle_type_id":"4","last_reported":1719241747,"current_range_meters":15600,"station_id":"chh1huq6cuj3fo74tm60","pricing_plan_id":"cebpf4jnsgd1na2vs0mg"},{"bike_id":"69cffaa5-caa9-4462-9ac9-2d54d5e125e4","system_id":"levelo_inurba_marseille","lat":43.295169,"lon":5.390426,"is_reserved":false,"is_disabled":false,"rental_uris":{"android":"levelo://app?vid=69cffaa5-caa9-4462-9ac9-2d54d5e125e4","ios":"levelo://app?vid=69cffaa5-caa9-4462-9ac9-2d54d5e125e4"},"vehicle_type_id":"4","last_reported":1719241747,"current_range_meters":28400,"station_id":"ce4bh3p2rcd13ifvqdp0","pricing_plan_id":"cebpf4jnsgd1na2vs0mg"},{"bike_id":"4af6d97d-c787-407d-ac36-0fa115ad6173","system_id":"levelo_inurba_marseille","lat":43.33024,"lon":5.39039,"is_reserved":false,"is_disabled":false,"rental_uris":{"android":"levelo://app?vid=4af6d97d-c787-407d-ac36-0fa115ad6173","ios":"levelo://app?vid=4af6d97d-c787-407d-ac36-0fa115ad6173"},"vehicle_type_id":"4","last_reported":1719241747,"current_range_meters":0,"station_id":"ce4bhr92rcd13ifvqhrg","pricing_plan_id":"cebpf4jnsgd1na2vs0mg"},{"bike_id":"ce8c545b-cf3e-4220-80fd-e2c8b3361185","system_id":"levelo_inurba_marseille","lat":43.28979,"lon":5.3785,"is_reserved":false,"is_disabled":false,"rental_uris":{"android":"levelo://app?vid=ce8c545b-cf3e-4220-80fd-e2c8b3361185","ios":"levelo://app?vid=ce8c545b-cf3e-4220-80fd-e2c8b3361185"},"vehicle_type_id":"4","last_reported":1719241747,"current_range_meters":0,"station_id":"ce4bh9p2rcd13ifvqed0","pricing_plan_id":"cebpf4jnsgd1na2vs0mg"},{"bike_id":"c126ea80-d78c-4b47-bc0e-30ab05ad08a9","system_id":"levelo_inurba_marseille","lat":43.33023,"lon":5.39041,"is_reserved":false,"is_disabled":false,"rental_uris":{"android":"levelo://app?vid=c126ea80-d78c-4b47-bc0e-30ab05ad08a9","ios":"levelo://app?vid=c126ea80-d78c-4b47-bc0e-30ab05ad08a9"},"vehicle_type_id":"4","last_reported":1719241747,"current_range_meters":8800,"station_id":"ce4bhr92rcd13ifvqhrg","pricing_plan_id":"cebpf4jnsgd1na2vs0mg"},{"bike_id":"601f4bfb-c55d-4087-a77d-441daa6b7d8c","system_id":"levelo_inurba_marseille","lat":43.33025,"lon":5.39039,"is_reserved":false,"is_disabled":false,"rental_uris":{"android":"levelo://app?vid=601f4bfb-c55d-4087-a77d-441daa6b7d8c","ios":"levelo://app?vid=601f4bfb-c55d-4087-a77d-441daa6b7d8c"},"vehicle_type_id":"4","last_reported":1719241747,"current_range_meters":0,"station_id":"ce4bhr92rcd13ifvqhrg","pricing_plan_id":"cebpf4jnsgd1na2vs0mg"},{"bike_id":"2726f4d5-bf2b-4a65-81b5-b886dc155937","system_id":"levelo_inurba_marseille","lat":43.330442,"lon":5.389148,"is_reserved":false,"is_disabled":false,"rental_uris":{"android":"levelo://app?vid=2726f4d5-bf2b-4a65-81b5-b886dc155937","ios":"levelo://app?vid=2726f4d5-bf2b-4a65-81b5-b886dc155937"},"vehicle_type_id":"4","last_reported":1719241747,"current_range_meters":8400,"station_id":"ce4bhr92rcd13ifvqhrg","pricing_plan_id":"cebpf4jnsgd1na2vs0mg"},{"bike_id":"3535682d-d3d8-498c-94a4-eb1e2e4bbbcc","system_id":"levelo_inurba_marseille","lat":43.330442,"lon":5.389148,"is_reserved":false,"is_disabled":false,"rental_uris":{"android":"levelo://app?vid=3535682d-d3d8-498c-94a4-eb1e2e4bbbcc","ios":"levelo://app?vid=3535682d-d3d8-498c-94a4-eb1e2e4bbbcc"},"vehicle_type_id":"4","last_reported":1719241747,"current_range_meters":14800,"station_id":"ce4bhr92rcd13ifvqhrg","pricing_plan_id":"cebpf4jnsgd1na2vs0mg"},{"bike_id":"684df19d-9bf4-4ca2-91ec-fb710a7e2e1a","system_id":"levelo_inurba_marseille","lat":43.289741,"lon":5.378306,"is_reserved":false,"is_disabled":false,"rental_uris":{"android":"levelo://app?vid=684df19d-9bf4-4ca2-91ec-fb710a7e2e1a","ios":"levelo://app?vid=684df19d-9bf4-4ca2-91ec-fb710a7e2e1a"},"vehicle_type_id":"4","last_reported":1719241747,"current_range_meters":20400,"station_id":"ce4bh9p2rcd13ifvqed0","pricing_plan_id":"cebpf4jnsgd1na2vs0mg"},{"bike_id":"822ef505-90c6-409d-b390-55bd00c0e683","system_id":"levelo_inurba_marseille","lat":43.33026,"lon":5.39043,"is_reserved":false,"is_disabled":false,"rental_uris":{"android":"levelo://app?vid=822ef505-90c6-409d-b390-55bd00c0e683","ios":"levelo://app?vid=822ef505-90c6-409d-b390-55bd00c0e683"},"vehicle_type_id":"4","last_reported":1719241747,"current_range_meters":30800,"station_id":"ce4bhr92rcd13ifvqhrg","pricing_plan_id":"cebpf4jnsgd1na2vs0mg"},{"bike_id":"4f3f6528-4d24-4780-94d4-3ecf1abf1e07","system_id":"levelo_inurba_marseille","lat":43.295169,"lon":5.390426,"is_reserved":false,"is_disabled":false,"rental_uris":{"android":"levelo://app?vid=4f3f6528-4d24-4780-94d4-3ecf1abf1e07","ios":"levelo://app?vid=4f3f6528-4d24-4780-94d4-3ecf1abf1e07"},"vehicle_type_id":"4","last_reported":1719241747,"current_range_meters":2400,"station_id":"ce4bh3p2rcd13ifvqdp0","pricing_plan_id":"cebpf4jnsgd1na2vs0mg"},{"bike_id":"1c34ff91-2032-402c-b6a7-d1aa6a8807be","system_id":"levelo_inurba_marseille","lat":43.2901,"lon":5.381269,"is_reserved":false,"is_disabled":false,"rental_uris":{"android":"levelo://app?vid=1c34ff91-2032-402c-b6a7-d1aa6a8807be","ios":"levelo://app?vid=1c34ff91-2032-402c-b6a7-d1aa6a8807be"},"vehicle_type_id":"4","last_reported":1719241747,"current_range_meters":0,"station_id":"ce4bh4p2rcd13ifvqe1g","pricing_plan_id":"cebpf4jnsgd1na2vs0mg"},{"bike_id":"42fee125-e548-4238-ba57-8f4951825f08","system_id":"levelo_inurba_marseille","lat":43.28856,"lon":5.358371,"is_reserved":false,"is_disabled":false,"rental_uris":{"android":"levelo://app?vid=42fee125-e548-4238-ba57-8f4951825f08","ios":"levelo://app?vid=42fee125-e548-4238-ba57-8f4951825f08"},"vehicle_type_id":"4","last_reported":1719241747,"current_range_meters":7200,"station_id":"ce4bhb12rcd13ifvqem0","pricing_plan_id":"cebpf4jnsgd1na2vs0mg"},{"bike_id":"bd9a6c26-2db3-4e30-92c7-c85ae97147aa","system_id":"levelo_inurba_marseille","lat":43.33739,"lon":5.37469,"is_reserved":false,"is_disabled":false,"rental_uris":{"android":"levelo://app?vid=bd9a6c26-2db3-4e30-92c7-c85ae97147aa","ios":"levelo://app?vid=bd9a6c26-2db3-4e30-92c7-c85ae97147aa"},"vehicle_type_id":"0","last_reported":1719241747,"current_range_meters":30000,"station_id":"","pricing_plan_id":"cebpf4jnsgd1na2vs0mg"},{"bike_id":"9b81675f-44cd-4cbe-9733-2d36a516d8f7","system_id":"levelo_inurba_marseille","lat":43.33741,"lon":5.3746,"is_reserved":false,"is_disabled":false,"rental_uris":{"android":"levelo://app?vid=9b81675f-44cd-4cbe-9733-2d36a516d8f7","ios":"levelo://app?vid=9b81675f-44cd-4cbe-9733-2d36a516d8f7"},"vehicle_type_id":"0","last_reported":1719241747,"current_range_meters":28000,"station_id":"","pricing_plan_id":"cebpf4jnsgd1na2vs0mg"},{"bike_id":"11da98ef-d0c3-43c2-a7e4-890f2c23ccbc","system_id":"levelo_inurba_marseille","lat":43.33741,"lon":5.374632,"is_reserved":false,"is_disabled":false,"rental_uris":{"android":"levelo://app?vid=11da98ef-d0c3-43c2-a7e4-890f2c23ccbc","ios":"levelo://app?vid=11da98ef-d0c3-43c2-a7e4-890f2c23ccbc"},"vehicle_type_id":"0","last_reported":1719241747,"current_range_meters":21600,"station_id":"","pricing_plan_id":"cebpf4jnsgd1na2vs0mg"},{"bike_id":"2a0fb516-a307-4861-b129-104556c40f00","system_id":"levelo_inurba_marseille","lat":43.337408,"lon":5.374702,"is_reserved":false,"is_disabled":false,"rental_uris":{"android":"levelo://app?vid=2a0fb516-a307-4861-b129-104556c40f00","ios":"levelo://app?vid=2a0fb516-a307-4861-b129-104556c40f00"},"vehicle_type_id":"0","last_reported":1719241747,"current_range_meters":19200,"station_id":"","pricing_plan_id":"cebpf4jnsgd1na2vs0mg"},{"bike_id":"bb65fb70-df82-47d8-b27f-438620895501","system_id":"levelo_inurba_marseille","lat":43.337426,"lon":5.374712,"is_reserved":false,"is_disabled":false,"rental_uris":{"android":"levelo://app?vid=bb65fb70-df82-47d8-b27f-438620895501","ios":"levelo://app?vid=bb65fb70-df82-47d8-b27f-438620895501"},"vehicle_type_id":"0","last_reported":1719241747,"current_range_meters":22800,"station_id":"","pricing_plan_id":"cebpf4jnsgd1na2vs0mg"},{"bike_id":"aa527c2c-31a5-479b-bfbe-daae0d9bb514","system_id":"levelo_inurba_marseille","lat":43.337433,"lon":5.374701,"is_reserved":false,"is_disabled":false,"rental_uris":{"android":"levelo://app?vid=aa527c2c-31a5-479b-bfbe-daae0d9bb514","ios":"levelo://app?vid=aa527c2c-31a5-479b-bfbe-daae0d9bb514"},"vehicle_type_id":"0","last_reported":1719241747,"current_range_meters":18400,"station_id":"","pricing_plan_id":"cebpf4jnsgd1na2vs0mg"},{"bike_id":"cbff8e2e-87ad-4d9e-a09d-9b1fba1c0aeb","system_id":"levelo_inurba_marseille","lat":43.337428,"lon":5.374736,"is_reserved":false,"is_disabled":false,"rental_uris":{"android":"levelo://app?vid=cbff8e2e-87ad-4d9e-a09d-9b1fba1c0aeb","ios":"levelo://app?vid=cbff8e2e-87ad-4d9e-a09d-9b1fba1c0aeb"},"vehicle_type_id":"0","last_reported":1719241747,"current_range_meters":28000,"station_id":"","pricing_plan_id":"cebpf4jnsgd1na2vs0mg"},{"bike_id":"bf709b1a-1e81-4c69-a36a-dfef45d67fee","system_id":"levelo_inurba_marseille","lat":43.337444,"lon":5.374644,"is_reserved":false,"is_disabled":false,"rental_uris":{"android":"levelo://app?vid=bf709b1a-1e81-4c69-a36a-dfef45d67fee","ios":"levelo://app?vid=bf709b1a-1e81-4c69-a36a-dfef45d67fee"},"vehicle_type_id":"0","last_reported":1719241747,"current_range_meters":27600,"station_id":"","pricing_plan_id":"cebpf4jnsgd1na2vs0mg"},{"bike_id":"c3ddbe4a-157d-4893-acf1-f1f626a65d21","system_id":"levelo_inurba_marseille","lat":43.33743,"lon":5.37475,"is_reserved":false,"is_disabled":false,"rental_uris":{"android":"levelo://app?vid=c3ddbe4a-157d-4893-acf1-f1f626a65d21","ios":"levelo://app?vid=c3ddbe4a-157d-4893-acf1-f1f626a65d21"},"vehicle_type_id":"0","last_reported":1719241747,"current_range_meters":15600,"station_id":"","pricing_plan_id":"cebpf4jnsgd1na2vs0mg"},{"bike_id":"985eda3a-8205-4c72-8b0d-a44593dd15b5","system_id":"levelo_inurba_marseille","lat":43.337435,"lon":5.37475,"is_reserved":false,"is_disabled":false,"rental_uris":{"android":"levelo://app?vid=985eda3a-8205-4c72-8b0d-a44593dd15b5","ios":"levelo://app?vid=985eda3a-8205-4c72-8b0d-a44593dd15b5"},"vehicle_type_id":"0","last_reported":1719241747,"current_range_meters":21600,"station_id":"","pricing_plan_id":"cebpf4jnsgd1na2vs0mg"},{"bike_id":"8043cc8a-f702-4e45-9523-d56dfd7ee432","system_id":"levelo_inurba_marseille","lat":43.337455,"lon":5.37471,"is_reserved":false,"is_disabled":false,"rental_uris":{"android":"levelo://app?vid=8043cc8a-f702-4e45-9523-d56dfd7ee432","ios":"levelo://app?vid=8043cc8a-f702-4e45-9523-d56dfd7ee432"},"vehicle_type_id":"0","last_reported":1719241747,"current_range_meters":27600,"station_id":"","pricing_plan_id":"cebpf4jnsgd1na2vs0mg"},{"bike_id":"99f6b6d3-5b5b-452e-8444-b07efaf66c47","system_id":"levelo_inurba_marseille","lat":43.312609,"lon":5.401662,"is_reserved":false,"is_disabled":false,"rental_uris":{"android":"levelo://app?vid=99f6b6d3-5b5b-452e-8444-b07efaf66c47","ios":"levelo://app?vid=99f6b6d3-5b5b-452e-8444-b07efaf66c47"},"vehicle_type_id":"4","last_reported":1719241747,"current_range_meters":2000,"station_id":"ce4bh092rcd13ifvqd30","pricing_plan_id":"cebpf4jnsgd1na2vs0mg"},{"bike_id":"c25a3696-e1cc-43ba-8656-23d4a118ee2e","system_id":"levelo_inurba_marseille","lat":43.337488,"lon":5.374694,"is_reserved":false,"is_disabled":false,"rental_uris":{"android":"levelo://app?vid=c25a3696-e1cc-43ba-8656-23d4a118ee2e","ios":"levelo://app?vid=c25a3696-e1cc-43ba-8656-23d4a118ee2e"},"vehicle_type_id":"0","last_reported":1719241747,"current_range_meters":28400,"station_id":"","pricing_plan_id":"cebpf4jnsgd1na2vs0mg"},{"bike_id":"f867320b-b3ee-4d44-8ef3-37d72db21942","system_id":"levelo_inurba_marseille","lat":43.33754,"lon":5.37456,"is_reserved":false,"is_disabled":false,"rental_uris":{"android":"levelo://app?vid=f867320b-b3ee-4d44-8ef3-37d72db21942","ios":"levelo://app?vid=f867320b-b3ee-4d44-8ef3-37d72db21942"},"vehicle_type_id":"4","last_reported":1719241747,"current_range_meters":30000,"station_id":"","pricing_plan_id":"cebpf4jnsgd1na2vs0mg"},{"bike_id":"3d099325-172e-4633-9fc0-43c89a834f37","system_id":"levelo_inurba_marseille","lat":43.33768,"lon":5.37431,"is_reserved":false,"is_disabled":false,"rental_uris":{"android":"levelo://app?vid=3d099325-172e-4633-9fc0-43c89a834f37","ios":"levelo://app?vid=3d099325-172e-4633-9fc0-43c89a834f37"},"vehicle_type_id":"4","last_reported":1719241747,"current_range_meters":25600,"station_id":"","pricing_plan_id":"cebpf4jnsgd1na2vs0mg"},{"bike_id":"c0b9e518-a0e0-41a9-90c2-866e74a9aedf","system_id":"levelo_inurba_marseille","lat":43.30642,"lon":5.401031,"is_reserved":false,"is_disabled":false,"rental_uris":{"android":"levelo://app?vid=c0b9e518-a0e0-41a9-90c2-866e74a9aedf","ios":"levelo://app?vid=c0b9e518-a0e0-41a9-90c2-866e74a9aedf"},"vehicle_type_id":"4","last_reported":1719241747,"current_range_meters":16800,"station_id":"ce4bh112rcd13ifvqda0","pricing_plan_id":"cebpf4jnsgd1na2vs0mg"},{"bike_id":"4c62b6aa-cb9a-450c-af88-9b1707fae9fe","system_id":"levelo_inurba_marseille","lat":43.28727,"lon":5.36078,"is_reserved":false,"is_disabled":false,"rental_uris":{"android":"levelo://app?vid=4c62b6aa-cb9a-450c-af88-9b1707fae9fe","ios":"levelo://app?vid=4c62b6aa-cb9a-450c-af88-9b1707fae9fe"},"vehicle_type_id":"4","last_reported":1719241747,"current_range_meters":30000,"station_id":"cki0cbj6b192h4jlfktg","pricing_plan_id":"cebpf4jnsgd1na2vs0mg"},{"bike_id":"a14282be-f672-4489-ba87-36c2233e4dd2","system_id":"levelo_inurba_marseille","lat":43.33804,"lon":5.37433,"is_reserved":false,"is_disabled":false,"rental_uris":{"android":"levelo://app?vid=a14282be-f672-4489-ba87-36c2233e4dd2","ios":"levelo://app?vid=a14282be-f672-4489-ba87-36c2233e4dd2"},"vehicle_type_id":"4","last_reported":1719241747,"current_range_meters":29600,"station_id":"","pricing_plan_id":"cebpf4jnsgd1na2vs0mg"},{"bike_id":"f0818268-746a-47d4-860c-2f0a6330658d","system_id":"levelo_inurba_marseille","lat":43.29874,"lon":5.39729,"is_reserved":false,"is_disabled":false,"rental_uris":{"android":"levelo://app?vid=f0818268-746a-47d4-860c-2f0a6330658d","ios":"levelo://app?vid=f0818268-746a-47d4-860c-2f0a6330658d"},"vehicle_type_id":"4","last_reported":1719241747,"current_range_meters":800,"station_id":"ce4bh0h2rcd13ifvqd50","pricing_plan_id":"cebpf4jnsgd1na2vs0mg"},{"bike_id":"6a6e5160-80c2-45f4-8cfe-e7a7f7a88653","system_id":"levelo_inurba_marseille","lat":43.286961,"lon":5.373785,"is_reserved":false,"is_disabled":false,"rental_uris":{"android":"levelo://app?vid=6a6e5160-80c2-45f4-8cfe-e7a7f7a88653","ios":"levelo://app?vid=6a6e5160-80c2-45f4-8cfe-e7a7f7a88653"},"vehicle_type_id":"4","last_reported":1719241747,"current_range_meters":18000,"station_id":"ce4bh3p2rcd13ifvqdq0","pricing_plan_id":"cebpf4jnsgd1na2vs0mg"},{"bike_id":"fef96365-e178-4a13-aec5-3f874bd1b265","system_id":"levelo_inurba_marseille","lat":43.298681,"lon":5.397225,"is_reserved":false,"is_disabled":false,"rental_uris":{"android":"levelo://app?vid=fef96365-e178-4a13-aec5-3f874bd1b265","ios":"levelo://app?vid=fef96365-e178-4a13-aec5-3f874bd1b265"},"vehicle_type_id":"4","last_reported":1719241747,"current_range_meters":9200,"station_id":"ce4bh0h2rcd13ifvqd50","pricing_plan_id":"cebpf4jnsgd1na2vs0mg"},{"bike_id":"3e2e627f-57fb-47c4-b135-cf5e1a8a4149","system_id":"levelo_inurba_marseille","lat":43.298681,"lon":5.397225,"is_reserved":false,"is_disabled":false,"rental_uris":{"android":"levelo://app?vid=3e2e627f-57fb-47c4-b135-cf5e1a8a4149","ios":"levelo://app?vid=3e2e627f-57fb-47c4-b135-cf5e1a8a4149"},"vehicle_type_id":"4","last_reported":1719241747,"current_range_meters":1600,"station_id":"ce4bh0h2rcd13ifvqd50","pricing_plan_id":"cebpf4jnsgd1na2vs0mg"},{"bike_id":"7f0e2140-63a3-4a94-accc-9a5d0d57b22c","system_id":"levelo_inurba_marseille","lat":43.286593,"lon":5.363346,"is_reserved":false,"is_disabled":false,"rental_uris":{"android":"levelo://app?vid=7f0e2140-63a3-4a94-accc-9a5d0d57b22c","ios":"levelo://app?vid=7f0e2140-63a3-4a94-accc-9a5d0d57b22c"},"vehicle_type_id":"4","last_reported":1719241747,"current_range_meters":13200,"station_id":"ce4bhah2rcd13ifvqej0","pricing_plan_id":"cebpf4jnsgd1na2vs0mg"},{"bike_id":"b4c1a458-a8e2-4b96-95bb-b1ed82e3a13e","system_id":"levelo_inurba_marseille","lat":43.286591,"lon":5.363346,"is_reserved":false,"is_disabled":false,"rental_uris":{"android":"levelo://app?vid=b4c1a458-a8e2-4b96-95bb-b1ed82e3a13e","ios":"levelo://app?vid=b4c1a458-a8e2-4b96-95bb-b1ed82e3a13e"},"vehicle_type_id":"4","last_reported":1719241747,"current_range_meters":12400,"station_id":"ce4bhah2rcd13ifvqej0","pricing_plan_id":"cebpf4jnsgd1na2vs0mg"},{"bike_id":"9d352e9a-9e0b-4d54-89e2-f4ead6e4c814","system_id":"levelo_inurba_marseille","lat":43.286593,"lon":5.363346,"is_reserved":false,"is_disabled":false,"rental_uris":{"android":"levelo://app?vid=9d352e9a-9e0b-4d54-89e2-f4ead6e4c814","ios":"levelo://app?vid=9d352e9a-9e0b-4d54-89e2-f4ead6e4c814"},"vehicle_type_id":"4","last_reported":1719241747,"current_range_meters":4800,"station_id":"ce4bhah2rcd13ifvqej0","pricing_plan_id":"cebpf4jnsgd1na2vs0mg"},{"bike_id":"16d0e6a6-b844-48ad-8ea6-1feaf63b2172","system_id":"levelo_inurba_marseille","lat":43.286593,"lon":5.363346,"is_reserved":false,"is_disabled":false,"rental_uris":{"android":"levelo://app?vid=16d0e6a6-b844-48ad-8ea6-1feaf63b2172","ios":"levelo://app?vid=16d0e6a6-b844-48ad-8ea6-1feaf63b2172"},"vehicle_type_id":"4","last_reported":1719241747,"current_range_meters":20800,"station_id":"ce4bhah2rcd13ifvqej0","pricing_plan_id":"cebpf4jnsgd1na2vs0mg"},{"bike_id":"86096791-4762-4d29-92e2-4f142386eaa4","system_id":"levelo_inurba_marseille","lat":43.286591,"lon":5.363346,"is_reserved":false,"is_disabled":false,"rental_uris":{"android":"levelo://app?vid=86096791-4762-4d29-92e2-4f142386eaa4","ios":"levelo://app?vid=86096791-4762-4d29-92e2-4f142386eaa4"},"vehicle_type_id":"4","last_reported":1719241747,"current_range_meters":21200,"station_id":"ce4bhah2rcd13ifvqej0","pricing_plan_id":"cebpf4jnsgd1na2vs0mg"},{"bike_id":"e17949b9-7eec-4451-81fd-be12aa461495","system_id":"levelo_inurba_marseille","lat":43.295194,"lon":5.39397,"is_reserved":false,"is_disabled":false,"rental_uris":{"android":"levelo://app?vid=e17949b9-7eec-4451-81fd-be12aa461495","ios":"levelo://app?vid=e17949b9-7eec-4451-81fd-be12aa461495"},"vehicle_type_id":"4","last_reported":1719241747,"current_range_meters":26400,"station_id":"ce4bh292rcd13ifvqdf0","pricing_plan_id":"cebpf4jnsgd1na2vs0mg"},{"bike_id":"d6a39812-0884-47d3-b014-5b982b4ce8f6","system_id":"levelo_inurba_marseille","lat":43.289307,"lon":5.38406,"is_reserved":false,"is_disabled":false,"rental_uris":{"android":"levelo://app?vid=d6a39812-0884-47d3-b014-5b982b4ce8f6","ios":"levelo://app?vid=d6a39812-0884-47d3-b014-5b982b4ce8f6"},"vehicle_type_id":"4","last_reported":1719241747,"current_range_meters":24800,"station_id":"ce4bh612rcd13ifvqe6g","pricing_plan_id":"cebpf4jnsgd1na2vs0mg"},{"bike_id":"b4fd1a56-e2c3-4060-bb00-97b23a7c1938","system_id":"levelo_inurba_marseille","lat":43.295194,"lon":5.39397,"is_reserved":false,"is_disabled":false,"rental_uris":{"android":"levelo://app?vid=b4fd1a56-e2c3-4060-bb00-97b23a7c1938","ios":"levelo://app?vid=b4fd1a56-e2c3-4060-bb00-97b23a7c1938"},"vehicle_type_id":"4","last_reported":1719241747,"current_range_meters":4000,"station_id":"ce4bh292rcd13ifvqdf0","pricing_plan_id":"cebpf4jnsgd1na2vs0mg"},{"bike_id":"b189229e-e978-4448-8ce8-98c98badb4fd","system_id":"levelo_inurba_marseille","lat":43.295194,"lon":5.39397,"is_reserved":false,"is_disabled":false,"rental_uris":{"android":"levelo://app?vid=b189229e-e978-4448-8ce8-98c98badb4fd","ios":"levelo://app?vid=b189229e-e978-4448-8ce8-98c98badb4fd"},"vehicle_type_id":"4","last_reported":1719241747,"current_range_meters":6000,"station_id":"ce4bh292rcd13ifvqdf0","pricing_plan_id":"cebpf4jnsgd1na2vs0mg"},{"bike_id":"3b9607cf-e1fa-4ea7-b487-b463ffd79cca","system_id":"levelo_inurba_marseille","lat":43.295194,"lon":5.39397,"is_reserved":false,"is_disabled":false,"rental_uris":{"android":"levelo://app?vid=3b9607cf-e1fa-4ea7-b487-b463ffd79cca","ios":"levelo://app?vid=3b9607cf-e1fa-4ea7-b487-b463ffd79cca"},"vehicle_type_id":"4","last_reported":1719241747,"current_range_meters":0,"station_id":"ce4bh292rcd13ifvqdf0","pricing_plan_id":"cebpf4jnsgd1na2vs0mg"},{"bike_id":"f1d9c4f9-0066-4082-9a3e-1ef5b97094f7","system_id":"levelo_inurba_marseille","lat":43.302759,"lon":5.400793,"is_reserved":false,"is_disabled":false,"rental_uris":{"android":"levelo://app?vid=f1d9c4f9-0066-4082-9a3e-1ef5b97094f7","ios":"levelo://app?vid=f1d9c4f9-0066-4082-9a3e-1ef5b97094f7"},"vehicle_type_id":"4","last_reported":1719241747,"current_range_meters":5600,"station_id":"ce4bgvh2rcd13ifvqcs0","pricing_plan_id":"cebpf4jnsgd1na2vs0mg"},{"bike_id":"2f443d54-6b20-4764-a55e-afb4fe2745b1","system_id":"levelo_inurba_marseille","lat":43.290345,"lon":5.38646,"is_reserved":false,"is_disabled":false,"rental_uris":{"android":"levelo://app?vid=2f443d54-6b20-4764-a55e-afb4fe2745b1","ios":"levelo://app?vid=2f443d54-6b20-4764-a55e-afb4fe2745b1"},"vehicle_type_id":"4","last_reported":1719241747,"current_range_meters":6000,"station_id":"ce4bh4p2rcd13ifvqe0g","pricing_plan_id":"cebpf4jnsgd1na2vs0mg"},{"bike_id":"e6f680f6-c958-46ef-a3fd-735d7364fb3f","system_id":"levelo_inurba_marseille","lat":43.290336,"lon":5.386425,"is_reserved":false,"is_disabled":false,"rental_uris":{"android":"levelo://app?vid=e6f680f6-c958-46ef-a3fd-735d7364fb3f","ios":"levelo://app?vid=e6f680f6-c958-46ef-a3fd-735d7364fb3f"},"vehicle_type_id":"4","last_reported":1719241747,"current_range_meters":10400,"station_id":"ce4bh4p2rcd13ifvqe0g","pricing_plan_id":"cebpf4jnsgd1na2vs0mg"},{"bike_id":"038f193b-c941-4eda-881b-536dd5b804a2","system_id":"levelo_inurba_marseille","lat":43.290336,"lon":5.386425,"is_reserved":false,"is_disabled":false,"rental_uris":{"android":"levelo://app?vid=038f193b-c941-4eda-881b-536dd5b804a2","ios":"levelo://app?vid=038f193b-c941-4eda-881b-536dd5b804a2"},"vehicle_type_id":"4","last_reported":1719241747,"current_range_meters":11600,"station_id":"ce4bh4p2rcd13ifvqe0g","pricing_plan_id":"cebpf4jnsgd1na2vs0mg"},{"bike_id":"309c2458-50d0-4c8f-86ba-13a54b494502","system_id":"levelo_inurba_marseille","lat":43.290336,"lon":5.386425,"is_reserved":false,"is_disabled":false,"rental_uris":{"android":"levelo://app?vid=309c2458-50d0-4c8f-86ba-13a54b494502","ios":"levelo://app?vid=309c2458-50d0-4c8f-86ba-13a54b494502"},"vehicle_type_id":"4","last_reported":1719241747,"current_range_meters":9600,"station_id":"ce4bh4p2rcd13ifvqe0g","pricing_plan_id":"cebpf4jnsgd1na2vs0mg"},{"bike_id":"018ed2ab-5f0e-4784-85d0-6da3026366cd","system_id":"levelo_inurba_marseille","lat":43.286039,"lon":5.370679,"is_reserved":false,"is_disabled":false,"rental_uris":{"android":"levelo://app?vid=018ed2ab-5f0e-4784-85d0-6da3026366cd","ios":"levelo://app?vid=018ed2ab-5f0e-4784-85d0-6da3026366cd"},"vehicle_type_id":"4","last_reported":1719241747,"current_range_meters":6800,"station_id":"ce4bht12rcd13ifvqi60","pricing_plan_id":"cebpf4jnsgd1na2vs0mg"},{"bike_id":"36b0ea7b-51e7-482f-b6ff-a883312c9cb9","system_id":"levelo_inurba_marseille","lat":43.286039,"lon":5.370681,"is_reserved":false,"is_disabled":false,"rental_uris":{"android":"levelo://app?vid=36b0ea7b-51e7-482f-b6ff-a883312c9cb9","ios":"levelo://app?vid=36b0ea7b-51e7-482f-b6ff-a883312c9cb9"},"vehicle_type_id":"4","last_reported":1719241747,"current_range_meters":5200,"station_id":"ce4bht12rcd13ifvqi60","pricing_plan_id":"cebpf4jnsgd1na2vs0mg"},{"bike_id":"474d4741-52e9-40d1-b96b-3c11bae30ff7","system_id":"levelo_inurba_marseille","lat":43.316828,"lon":5.404723,"is_reserved":false,"is_disabled":false,"rental_uris":{"android":"levelo://app?vid=474d4741-52e9-40d1-b96b-3c11bae30ff7","ios":"levelo://app?vid=474d4741-52e9-40d1-b96b-3c11bae30ff7"},"vehicle_type_id":"4","last_reported":1719241747,"current_range_meters":23600,"station_id":"ce4bh012rcd13ifvqd00","pricing_plan_id":"cebpf4jnsgd1na2vs0mg"},{"bike_id":"df709ae4-0043-4ca2-ad27-64ae934873f1","system_id":"levelo_inurba_marseille","lat":43.291994,"lon":5.392907,"is_reserved":false,"is_disabled":false,"rental_uris":{"android":"levelo://app?vid=df709ae4-0043-4ca2-ad27-64ae934873f1","ios":"levelo://app?vid=df709ae4-0043-4ca2-ad27-64ae934873f1"},"vehicle_type_id":"4","last_reported":1719241747,"current_range_meters":14000,"station_id":"ce4bh192rcd13ifvqdd0","pricing_plan_id":"cebpf4jnsgd1na2vs0mg"},{"bike_id":"d7413083-eba9-4998-a901-81da2a1d469b","system_id":"levelo_inurba_marseille","lat":43.291994,"lon":5.392907,"is_reserved":false,"is_disabled":false,"rental_uris":{"android":"levelo://app?vid=d7413083-eba9-4998-a901-81da2a1d469b","ios":"levelo://app?vid=d7413083-eba9-4998-a901-81da2a1d469b"},"vehicle_type_id":"4","last_reported":1719241747,"current_range_meters":10400,"station_id":"ce4bh192rcd13ifvqdd0","pricing_plan_id":"cebpf4jnsgd1na2vs0mg"},{"bike_id":"72f922d5-6814-4e2e-89e1-d9db00a7944d","system_id":"levelo_inurba_marseille","lat":43.291994,"lon":5.392907,"is_reserved":false,"is_disabled":false,"rental_uris":{"android":"levelo://app?vid=72f922d5-6814-4e2e-89e1-d9db00a7944d","ios":"levelo://app?vid=72f922d5-6814-4e2e-89e1-d9db00a7944d"},"vehicle_type_id":"4","last_reported":1719241747,"current_range_meters":14000,"station_id":"ce4bh192rcd13ifvqdd0","pricing_plan_id":"cebpf4jnsgd1na2vs0mg"},{"bike_id":"03075772-7845-4c6e-9a45-c2bcf3fea7c6","system_id":"levelo_inurba_marseille","lat":43.294314,"lon":5.397498,"is_reserved":false,"is_disabled":false,"rental_uris":{"android":"levelo://app?vid=03075772-7845-4c6e-9a45-c2bcf3fea7c6","ios":"levelo://app?vid=03075772-7845-4c6e-9a45-c2bcf3fea7c6"},"vehicle_type_id":"4","last_reported":1719241747,"current_range_meters":13200,"station_id":"ce4bh3h2rcd13ifvqdo0","pricing_plan_id":"cebpf4jnsgd1na2vs0mg"},{"bike_id":"160fd116-65cd-4855-80c2-9aa40a0b89f1","system_id":"levelo_inurba_marseille","lat":43.284534,"lon":5.358662,"is_reserved":false,"is_disabled":false,"rental_uris":{"android":"levelo://app?vid=160fd116-65cd-4855-80c2-9aa40a0b89f1","ios":"levelo://app?vid=160fd116-65cd-4855-80c2-9aa40a0b89f1"},"vehicle_type_id":"4","last_reported":1719241747,"current_range_meters":20000,"station_id":"ce4bhah2rcd13ifvqei0","pricing_plan_id":"cebpf4jnsgd1na2vs0mg"},{"bike_id":"a205c51b-7d61-400e-bc08-9e7141ca72b9","system_id":"levelo_inurba_marseille","lat":43.284534,"lon":5.358662,"is_reserved":false,"is_disabled":false,"rental_uris":{"android":"levelo://app?vid=a205c51b-7d61-400e-bc08-9e7141ca72b9","ios":"levelo://app?vid=a205c51b-7d61-400e-bc08-9e7141ca72b9"},"vehicle_type_id":"4","last_reported":1719241747,"current_range_meters":21200,"station_id":"ce4bhah2rcd13ifvqei0","pricing_plan_id":"cebpf4jnsgd1na2vs0mg"},{"bike_id":"69bc04cc-15c9-4da2-bebe-063f386d348f","system_id":"levelo_inurba_marseille","lat":43.284538,"lon":5.358657,"is_reserved":false,"is_disabled":false,"rental_uris":{"android":"levelo://app?vid=69bc04cc-15c9-4da2-bebe-063f386d348f","ios":"levelo://app?vid=69bc04cc-15c9-4da2-bebe-063f386d348f"},"vehicle_type_id":"4","last_reported":1719241747,"current_range_meters":3600,"station_id":"ce4bhah2rcd13ifvqei0","pricing_plan_id":"cebpf4jnsgd1na2vs0mg"},{"bike_id":"2f2649df-6106-4bb0-9035-02224055b1da","system_id":"levelo_inurba_marseille","lat":43.294314,"lon":5.397498,"is_reserved":false,"is_disabled":false,"rental_uris":{"android":"levelo://app?vid=2f2649df-6106-4bb0-9035-02224055b1da","ios":"levelo://app?vid=2f2649df-6106-4bb0-9035-02224055b1da"},"vehicle_type_id":"4","last_reported":1719241747,"current_range_meters":14800,"station_id":"ce4bh3h2rcd13ifvqdo0","pricing_plan_id":"cebpf4jnsgd1na2vs0mg"},{"bike_id":"16748947-eb72-47d5-a2aa-031a3b962cc7","system_id":"levelo_inurba_marseille","lat":43.285848,"lon":5.350787,"is_reserved":false,"is_disabled":false,"rental_uris":{"android":"levelo://app?vid=16748947-eb72-47d5-a2aa-031a3b962cc7","ios":"levelo://app?vid=16748947-eb72-47d5-a2aa-031a3b962cc7"},"vehicle_type_id":"4","last_reported":1719241747,"current_range_meters":7600,"station_id":"ce4bhch2rcd13ifvqeug","pricing_plan_id":"cebpf4jnsgd1na2vs0mg"},{"bike_id":"5633dbc7-2d40-4558-aa8b-6c0a95acc659","system_id":"levelo_inurba_marseille","lat":43.28621,"lon":5.35106,"is_reserved":false,"is_disabled":false,"rental_uris":{"android":"levelo://app?vid=5633dbc7-2d40-4558-aa8b-6c0a95acc659","ios":"levelo://app?vid=5633dbc7-2d40-4558-aa8b-6c0a95acc659"},"vehicle_type_id":"4","last_reported":1719241747,"current_range_meters":20000,"station_id":"ce4bhch2rcd13ifvqeug","pricing_plan_id":"cebpf4jnsgd1na2vs0mg"},{"bike_id":"2915ea90-4497-483a-9c14-eb98ee844099","system_id":"levelo_inurba_marseille","lat":43.285848,"lon":5.350787,"is_reserved":false,"is_disabled":false,"rental_uris":{"android":"levelo://app?vid=2915ea90-4497-483a-9c14-eb98ee844099","ios":"levelo://app?vid=2915ea90-4497-483a-9c14-eb98ee844099"},"vehicle_type_id":"4","last_reported":1719241747,"current_range_meters":14800,"station_id":"ce4bhch2rcd13ifvqeug","pricing_plan_id":"cebpf4jnsgd1na2vs0mg"},{"bike_id":"34f2075c-3a97-4ec2-a39c-6a8effd88b7e","system_id":"levelo_inurba_marseille","lat":43.28621,"lon":5.35096,"is_reserved":false,"is_disabled":false,"rental_uris":{"android":"levelo://app?vid=34f2075c-3a97-4ec2-a39c-6a8effd88b7e","ios":"levelo://app?vid=34f2075c-3a97-4ec2-a39c-6a8effd88b7e"},"vehicle_type_id":"4","last_reported":1719241747,"current_range_meters":20800,"station_id":"ce4bhch2rcd13ifvqeug","pricing_plan_id":"cebpf4jnsgd1na2vs0mg"},{"bike_id":"d1f097b6-5b9b-4ddc-a10b-8df36f875906","system_id":"levelo_inurba_marseille","lat":43.28617,"lon":5.35104,"is_reserved":false,"is_disabled":false,"rental_uris":{"android":"levelo://app?vid=d1f097b6-5b9b-4ddc-a10b-8df36f875906","ios":"levelo://app?vid=d1f097b6-5b9b-4ddc-a10b-8df36f875906"},"vehicle_type_id":"4","last_reported":1719241747,"current_range_meters":24400,"station_id":"ce4bhch2rcd13ifvqeug","pricing_plan_id":"cebpf4jnsgd1na2vs0mg"},{"bike_id":"2bee6d0c-221c-40f1-9ff6-16e3df609f3c","system_id":"levelo_inurba_marseille","lat":43.28615,"lon":5.35106,"is_reserved":false,"is_disabled":false,"rental_uris":{"android":"levelo://app?vid=2bee6d0c-221c-40f1-9ff6-16e3df609f3c","ios":"levelo://app?vid=2bee6d0c-221c-40f1-9ff6-16e3df609f3c"},"vehicle_type_id":"4","last_reported":1719241747,"current_range_meters":17200,"station_id":"ce4bhch2rcd13ifvqeug","pricing_plan_id":"cebpf4jnsgd1na2vs0mg"},{"bike_id":"638ba26e-2c1a-400c-869d-9bbd18fef354","system_id":"levelo_inurba_marseille","lat":43.285856,"lon":5.350771,"is_reserved":false,"is_disabled":false,"rental_uris":{"android":"levelo://app?vid=638ba26e-2c1a-400c-869d-9bbd18fef354","ios":"levelo://app?vid=638ba26e-2c1a-400c-869d-9bbd18fef354"},"vehicle_type_id":"4","last_reported":1719241747,"current_range_meters":30000,"station_id":"ce4bhch2rcd13ifvqeug","pricing_plan_id":"cebpf4jnsgd1na2vs0mg"},{"bike_id":"ee6439a9-0550-4557-b2ef-ce1d2a8e8c73","system_id":"levelo_inurba_marseille","lat":43.283998,"lon":5.375062,"is_reserved":false,"is_disabled":false,"rental_uris":{"android":"levelo://app?vid=ee6439a9-0550-4557-b2ef-ce1d2a8e8c73","ios":"levelo://app?vid=ee6439a9-0550-4557-b2ef-ce1d2a8e8c73"},"vehicle_type_id":"4","last_reported":1719241747,"current_range_meters":29600,"station_id":"ce4bh412rcd13ifvqds0","pricing_plan_id":"cebpf4jnsgd1na2vs0mg"},{"bike_id":"e41837bc-1abb-43e0-bc3e-32ed5e25fd90","system_id":"levelo_inurba_marseille","lat":43.286595,"lon":5.386795,"is_reserved":false,"is_disabled":false,"rental_uris":{"android":"levelo://app?vid=e41837bc-1abb-43e0-bc3e-32ed5e25fd90","ios":"levelo://app?vid=e41837bc-1abb-43e0-bc3e-32ed5e25fd90"},"vehicle_type_id":"4","last_reported":1719241747,"current_range_meters":5200,"station_id":"ce4bh492rcd13ifvqdug","pricing_plan_id":"cebpf4jnsgd1na2vs0mg"},{"bike_id":"aac834dd-a180-463f-9d45-c64c580a1373","system_id":"levelo_inurba_marseille","lat":43.286595,"lon":5.386795,"is_reserved":false,"is_disabled":false,"rental_uris":{"android":"levelo://app?vid=aac834dd-a180-463f-9d45-c64c580a1373","ios":"levelo://app?vid=aac834dd-a180-463f-9d45-c64c580a1373"},"vehicle_type_id":"4","last_reported":1719241747,"current_range_meters":0,"station_id":"ce4bh492rcd13ifvqdug","pricing_plan_id":"cebpf4jnsgd1na2vs0mg"},{"bike_id":"f0970717-6189-41e5-916c-dde46ad8b577","system_id":"levelo_inurba_marseille","lat":43.323464,"lon":5.406297,"is_reserved":false,"is_disabled":false,"rental_uris":{"android":"levelo://app?vid=f0970717-6189-41e5-916c-dde46ad8b577","ios":"levelo://app?vid=f0970717-6189-41e5-916c-dde46ad8b577"},"vehicle_type_id":"4","last_reported":1719241747,"current_range_meters":21600,"station_id":"ce4bhq92rcd13ifvqhjg","pricing_plan_id":"cebpf4jnsgd1na2vs0mg"},{"bike_id":"8d27e9a4-19cb-44d2-91f7-772d674195ac","system_id":"levelo_inurba_marseille","lat":43.323464,"lon":5.406297,"is_reserved":false,"is_disabled":false,"rental_uris":{"android":"levelo://app?vid=8d27e9a4-19cb-44d2-91f7-772d674195ac","ios":"levelo://app?vid=8d27e9a4-19cb-44d2-91f7-772d674195ac"},"vehicle_type_id":"4","last_reported":1719241747,"current_range_meters":5200,"station_id":"ce4bhq92rcd13ifvqhjg","pricing_plan_id":"cebpf4jnsgd1na2vs0mg"},{"bike_id":"c131bd2d-65ac-491c-83c8-1f3af0a2a548","system_id":"levelo_inurba_marseille","lat":43.337168,"lon":5.391825,"is_reserved":false,"is_disabled":false,"rental_uris":{"android":"levelo://app?vid=c131bd2d-65ac-491c-83c8-1f3af0a2a548","ios":"levelo://app?vid=c131bd2d-65ac-491c-83c8-1f3af0a2a548"},"vehicle_type_id":"4","last_reported":1719241747,"current_range_meters":31200,"station_id":"ce4bhr92rcd13ifvqhsg","pricing_plan_id":"cebpf4jnsgd1na2vs0mg"},{"bike_id":"7c0f55ce-ee4c-4b22-9683-67463d17e144","system_id":"levelo_inurba_marseille","lat":43.3234,"lon":5.406267,"is_reserved":false,"is_disabled":false,"rental_uris":{"android":"levelo://app?vid=7c0f55ce-ee4c-4b22-9683-67463d17e144","ios":"levelo://app?vid=7c0f55ce-ee4c-4b22-9683-67463d17e144"},"vehicle_type_id":"4","last_reported":1719241747,"current_range_meters":26000,"station_id":"ce4bhq92rcd13ifvqhjg","pricing_plan_id":"cebpf4jnsgd1na2vs0mg"},{"bike_id":"cb8a7309-7e20-4c1c-8bc0-1d7ccc0ad3ef","system_id":"levelo_inurba_marseille","lat":43.33717,"lon":5.391857,"is_reserved":false,"is_disabled":false,"rental_uris":{"android":"levelo://app?vid=cb8a7309-7e20-4c1c-8bc0-1d7ccc0ad3ef","ios":"levelo://app?vid=cb8a7309-7e20-4c1c-8bc0-1d7ccc0ad3ef"},"vehicle_type_id":"4","last_reported":1719241747,"current_range_meters":31200,"station_id":"ce4bhr92rcd13ifvqhsg","pricing_plan_id":"cebpf4jnsgd1na2vs0mg"},{"bike_id":"bb8f7db8-c7c5-4970-8503-d9bdb13def44","system_id":"levelo_inurba_marseille","lat":43.284787,"lon":5.384116,"is_reserved":false,"is_disabled":false,"rental_uris":{"android":"levelo://app?vid=bb8f7db8-c7c5-4970-8503-d9bdb13def44","ios":"levelo://app?vid=bb8f7db8-c7c5-4970-8503-d9bdb13def44"},"vehicle_type_id":"4","last_reported":1719241747,"current_range_meters":4000,"station_id":"ce4bh512rcd13ifvqe3g","pricing_plan_id":"cebpf4jnsgd1na2vs0mg"},{"bike_id":"a48e1a1c-22a2-4fbb-887a-86c0d6bfed94","system_id":"levelo_inurba_marseille","lat":43.284787,"lon":5.384116,"is_reserved":false,"is_disabled":false,"rental_uris":{"android":"levelo://app?vid=a48e1a1c-22a2-4fbb-887a-86c0d6bfed94","ios":"levelo://app?vid=a48e1a1c-22a2-4fbb-887a-86c0d6bfed94"},"vehicle_type_id":"4","last_reported":1719241747,"current_range_meters":26400,"station_id":"ce4bh512rcd13ifvqe3g","pricing_plan_id":"cebpf4jnsgd1na2vs0mg"},{"bike_id":"5c37a139-20e0-40b1-a1c8-34ebf2f51e5c","system_id":"levelo_inurba_marseille","lat":43.29795,"lon":5.404086,"is_reserved":false,"is_disabled":false,"rental_uris":{"android":"levelo://app?vid=5c37a139-20e0-40b1-a1c8-34ebf2f51e5c","ios":"levelo://app?vid=5c37a139-20e0-40b1-a1c8-34ebf2f51e5c"},"vehicle_type_id":"4","last_reported":1719241747,"current_range_meters":5600,"station_id":"ce4bh112rcd13ifvqd90","pricing_plan_id":"cebpf4jnsgd1na2vs0mg"},{"bike_id":"66a261c0-b444-466b-97a6-68c0a2b5f306","system_id":"levelo_inurba_marseille","lat":43.283494,"lon":5.380945,"is_reserved":false,"is_disabled":false,"rental_uris":{"android":"levelo://app?vid=66a261c0-b444-466b-97a6-68c0a2b5f306","ios":"levelo://app?vid=66a261c0-b444-466b-97a6-68c0a2b5f306"},"vehicle_type_id":"4","last_reported":1719241747,"current_range_meters":18000,"station_id":"ce4bh412rcd13ifvqdr0","pricing_plan_id":"cebpf4jnsgd1na2vs0mg"},{"bike_id":"12db147c-7145-447e-8928-b0f72d91ff2e","system_id":"levelo_inurba_marseille","lat":43.284776,"lon":5.385603,"is_reserved":false,"is_disabled":false,"rental_uris":{"android":"levelo://app?vid=12db147c-7145-447e-8928-b0f72d91ff2e","ios":"levelo://app?vid=12db147c-7145-447e-8928-b0f72d91ff2e"},"vehicle_type_id":"4","last_reported":1719241747,"current_range_meters":0,"station_id":"ce4bh8p2rcd13ifvqeb0","pricing_plan_id":"cebpf4jnsgd1na2vs0mg"},{"bike_id":"6261df30-65b2-497d-a7ca-66e0fe10ac35","system_id":"levelo_inurba_marseille","lat":43.28434,"lon":5.34999,"is_reserved":false,"is_disabled":false,"rental_uris":{"android":"levelo://app?vid=6261df30-65b2-497d-a7ca-66e0fe10ac35","ios":"levelo://app?vid=6261df30-65b2-497d-a7ca-66e0fe10ac35"},"vehicle_type_id":"4","last_reported":1719241747,"current_range_meters":30800,"station_id":"ce4bhbh2rcd13ifvqepg","pricing_plan_id":"cebpf4jnsgd1na2vs0mg"},{"bike_id":"7a6b78f6-869f-4fa9-8df8-618df650e390","system_id":"levelo_inurba_marseille","lat":43.284214,"lon":5.349706,"is_reserved":false,"is_disabled":false,"rental_uris":{"android":"levelo://app?vid=7a6b78f6-869f-4fa9-8df8-618df650e390","ios":"levelo://app?vid=7a6b78f6-869f-4fa9-8df8-618df650e390"},"vehicle_type_id":"4","last_reported":1719241747,"current_range_meters":18800,"station_id":"ce4bhbh2rcd13ifvqepg","pricing_plan_id":"cebpf4jnsgd1na2vs0mg"},{"bike_id":"dcf4929a-558c-46f0-a60b-e5870dcc5761","system_id":"levelo_inurba_marseille","lat":43.284776,"lon":5.385603,"is_reserved":false,"is_disabled":false,"rental_uris":{"android":"levelo://app?vid=dcf4929a-558c-46f0-a60b-e5870dcc5761","ios":"levelo://app?vid=dcf4929a-558c-46f0-a60b-e5870dcc5761"},"vehicle_type_id":"4","last_reported":1719241747,"current_range_meters":10000,"station_id":"ce4bh8p2rcd13ifvqeb0","pricing_plan_id":"cebpf4jnsgd1na2vs0mg"},{"bike_id":"b08987e2-312b-4608-9896-cfbfdb9f741a","system_id":"levelo_inurba_marseille","lat":43.284306,"lon":5.349976,"is_reserved":false,"is_disabled":false,"rental_uris":{"android":"levelo://app?vid=b08987e2-312b-4608-9896-cfbfdb9f741a","ios":"levelo://app?vid=b08987e2-312b-4608-9896-cfbfdb9f741a"},"vehicle_type_id":"4","last_reported":1719241747,"current_range_meters":6800,"station_id":"ce4bhbh2rcd13ifvqepg","pricing_plan_id":"cebpf4jnsgd1na2vs0mg"},{"bike_id":"613bd3ac-3ba2-4a49-a8ef-ff26683755f3","system_id":"levelo_inurba_marseille","lat":43.284855,"lon":5.385523,"is_reserved":false,"is_disabled":false,"rental_uris":{"android":"levelo://app?vid=613bd3ac-3ba2-4a49-a8ef-ff26683755f3","ios":"levelo://app?vid=613bd3ac-3ba2-4a49-a8ef-ff26683755f3"},"vehicle_type_id":"4","last_reported":1719241747,"current_range_meters":26400,"station_id":"ce4bh8p2rcd13ifvqeb0","pricing_plan_id":"cebpf4jnsgd1na2vs0mg"},{"bike_id":"1978bcaa-f9f8-4c08-9d1e-f94e5c44cd23","system_id":"levelo_inurba_marseille","lat":43.283494,"lon":5.380945,"is_reserved":false,"is_disabled":false,"rental_uris":{"android":"levelo://app?vid=1978bcaa-f9f8-4c08-9d1e-f94e5c44cd23","ios":"levelo://app?vid=1978bcaa-f9f8-4c08-9d1e-f94e5c44cd23"},"vehicle_type_id":"4","last_reported":1719241747,"current_range_meters":17200,"station_id":"ce4bh412rcd13ifvqdr0","pricing_plan_id":"cebpf4jnsgd1na2vs0mg"},{"bike_id":"82b8fab5-4b10-4ce7-9846-08cb2e45da0d","system_id":"levelo_inurba_marseille","lat":43.284217,"lon":5.349697,"is_reserved":false,"is_disabled":false,"rental_uris":{"android":"levelo://app?vid=82b8fab5-4b10-4ce7-9846-08cb2e45da0d","ios":"levelo://app?vid=82b8fab5-4b10-4ce7-9846-08cb2e45da0d"},"vehicle_type_id":"4","last_reported":1719241747,"current_range_meters":28800,"station_id":"ce4bhbh2rcd13ifvqepg","pricing_plan_id":"cebpf4jnsgd1na2vs0mg"},{"bike_id":"6e5a389f-79b2-41c7-8fee-5917103c94a5","system_id":"levelo_inurba_marseille","lat":43.284293,"lon":5.349944,"is_reserved":false,"is_disabled":false,"rental_uris":{"android":"levelo://app?vid=6e5a389f-79b2-41c7-8fee-5917103c94a5","ios":"levelo://app?vid=6e5a389f-79b2-41c7-8fee-5917103c94a5"},"vehicle_type_id":"4","last_reported":1719241747,"current_range_meters":31200,"station_id":"ce4bhbh2rcd13ifvqepg","pricing_plan_id":"cebpf4jnsgd1na2vs0mg"},{"bike_id":"92e6bd99-503f-4781-9162-5307fedf76ca","system_id":"levelo_inurba_marseille","lat":43.284214,"lon":5.349706,"is_reserved":false,"is_disabled":false,"rental_uris":{"android":"levelo://app?vid=92e6bd99-503f-4781-9162-5307fedf76ca","ios":"levelo://app?vid=92e6bd99-503f-4781-9162-5307fedf76ca"},"vehicle_type_id":"4","last_reported":1719241747,"current_range_meters":12800,"station_id":"ce4bhbh2rcd13ifvqepg","pricing_plan_id":"cebpf4jnsgd1na2vs0mg"},{"bike_id":"717fae56-a0d1-4d49-8310-1b0eb2cc5dd6","system_id":"levelo_inurba_marseille","lat":43.284217,"lon":5.349697,"is_reserved":false,"is_disabled":false,"rental_uris":{"android":"levelo://app?vid=717fae56-a0d1-4d49-8310-1b0eb2cc5dd6","ios":"levelo://app?vid=717fae56-a0d1-4d49-8310-1b0eb2cc5dd6"},"vehicle_type_id":"4","last_reported":1719241747,"current_range_meters":23200,"station_id":"ce4bhbh2rcd13ifvqepg","pricing_plan_id":"cebpf4jnsgd1na2vs0mg"},{"bike_id":"28761dc2-c3e2-4105-ad39-2b45f9cf9ec1","system_id":"levelo_inurba_marseille","lat":43.28428,"lon":5.34994,"is_reserved":false,"is_disabled":false,"rental_uris":{"android":"levelo://app?vid=28761dc2-c3e2-4105-ad39-2b45f9cf9ec1","ios":"levelo://app?vid=28761dc2-c3e2-4105-ad39-2b45f9cf9ec1"},"vehicle_type_id":"4","last_reported":1719241747,"current_range_meters":24400,"station_id":"ce4bhbh2rcd13ifvqepg","pricing_plan_id":"cebpf4jnsgd1na2vs0mg"},{"bike_id":"7ed7d00d-4d0a-468b-bc36-edc1227f5fd3","system_id":"levelo_inurba_marseille","lat":43.284256,"lon":5.350003,"is_reserved":false,"is_disabled":false,"rental_uris":{"android":"levelo://app?vid=7ed7d00d-4d0a-468b-bc36-edc1227f5fd3","ios":"levelo://app?vid=7ed7d00d-4d0a-468b-bc36-edc1227f5fd3"},"vehicle_type_id":"4","last_reported":1719241747,"current_range_meters":30400,"station_id":"ce4bhbh2rcd13ifvqepg","pricing_plan_id":"cebpf4jnsgd1na2vs0mg"},{"bike_id":"407fcde9-2b2e-475a-bf14-e5f1f0dd46b7","system_id":"levelo_inurba_marseille","lat":43.284219,"lon":5.3497,"is_reserved":false,"is_disabled":false,"rental_uris":{"android":"levelo://app?vid=407fcde9-2b2e-475a-bf14-e5f1f0dd46b7","ios":"levelo://app?vid=407fcde9-2b2e-475a-bf14-e5f1f0dd46b7"},"vehicle_type_id":"4","last_reported":1719241747,"current_range_meters":21200,"station_id":"ce4bhbh2rcd13ifvqepg","pricing_plan_id":"cebpf4jnsgd1na2vs0mg"},{"bike_id":"ca9ef44e-247c-41fc-9628-b2ffe84ca91d","system_id":"levelo_inurba_marseille","lat":43.28425,"lon":5.34999,"is_reserved":false,"is_disabled":false,"rental_uris":{"android":"levelo://app?vid=ca9ef44e-247c-41fc-9628-b2ffe84ca91d","ios":"levelo://app?vid=ca9ef44e-247c-41fc-9628-b2ffe84ca91d"},"vehicle_type_id":"4","last_reported":1719241747,"current_range_meters":31200,"station_id":"ce4bhbh2rcd13ifvqepg","pricing_plan_id":"cebpf4jnsgd1na2vs0mg"},{"bike_id":"2f41134a-50c6-47ee-b163-9054ce605318","system_id":"levelo_inurba_marseille","lat":43.28426,"lon":5.349945,"is_reserved":false,"is_disabled":false,"rental_uris":{"android":"levelo://app?vid=2f41134a-50c6-47ee-b163-9054ce605318","ios":"levelo://app?vid=2f41134a-50c6-47ee-b163-9054ce605318"},"vehicle_type_id":"4","last_reported":1719241747,"current_range_meters":11200,"station_id":"ce4bhbh2rcd13ifvqepg","pricing_plan_id":"cebpf4jnsgd1na2vs0mg"},{"bike_id":"d8343602-5fce-48d2-be32-6f1db3e5570b","system_id":"levelo_inurba_marseille","lat":43.284267,"lon":5.349923,"is_reserved":false,"is_disabled":false,"rental_uris":{"android":"levelo://app?vid=d8343602-5fce-48d2-be32-6f1db3e5570b","ios":"levelo://app?vid=d8343602-5fce-48d2-be32-6f1db3e5570b"},"vehicle_type_id":"4","last_reported":1719241747,"current_range_meters":11200,"station_id":"ce4bhbh2rcd13ifvqepg","pricing_plan_id":"cebpf4jnsgd1na2vs0mg"},{"bike_id":"d07d05cf-ec90-4948-a9ff-18483b88170c","system_id":"levelo_inurba_marseille","lat":43.284776,"lon":5.385603,"is_reserved":false,"is_disabled":false,"rental_uris":{"android":"levelo://app?vid=d07d05cf-ec90-4948-a9ff-18483b88170c","ios":"levelo://app?vid=d07d05cf-ec90-4948-a9ff-18483b88170c"},"vehicle_type_id":"4","last_reported":1719241747,"current_range_meters":11200,"station_id":"ce4bh8p2rcd13ifvqeb0","pricing_plan_id":"cebpf4jnsgd1na2vs0mg"},{"bike_id":"3bfefc30-0173-4904-9229-95c8d2e60a20","system_id":"levelo_inurba_marseille","lat":43.284249,"lon":5.349954,"is_reserved":false,"is_disabled":false,"rental_uris":{"android":"levelo://app?vid=3bfefc30-0173-4904-9229-95c8d2e60a20","ios":"levelo://app?vid=3bfefc30-0173-4904-9229-95c8d2e60a20"},"vehicle_type_id":"4","last_reported":1719241747,"current_range_meters":10000,"station_id":"ce4bhbh2rcd13ifvqepg","pricing_plan_id":"cebpf4jnsgd1na2vs0mg"},{"bike_id":"28529686-90a7-43a0-b855-db47425338ba","system_id":"levelo_inurba_marseille","lat":43.28422,"lon":5.34997,"is_reserved":false,"is_disabled":false,"rental_uris":{"android":"levelo://app?vid=28529686-90a7-43a0-b855-db47425338ba","ios":"levelo://app?vid=28529686-90a7-43a0-b855-db47425338ba"},"vehicle_type_id":"4","last_reported":1719241747,"current_range_meters":17600,"station_id":"ce4bhbh2rcd13ifvqepg","pricing_plan_id":"cebpf4jnsgd1na2vs0mg"},{"bike_id":"c14dad49-36c9-473a-a157-edde3f3876e3","system_id":"levelo_inurba_marseille","lat":43.284237,"lon":5.349907,"is_reserved":false,"is_disabled":false,"rental_uris":{"android":"levelo://app?vid=c14dad49-36c9-473a-a157-edde3f3876e3","ios":"levelo://app?vid=c14dad49-36c9-473a-a157-edde3f3876e3"},"vehicle_type_id":"4","last_reported":1719241747,"current_range_meters":22800,"station_id":"ce4bhbh2rcd13ifvqepg","pricing_plan_id":"cebpf4jnsgd1na2vs0mg"},{"bike_id":"1d028968-6409-4134-bdfd-228bad3a98bf","system_id":"levelo_inurba_marseille","lat":43.284214,"lon":5.349706,"is_reserved":false,"is_disabled":false,"rental_uris":{"android":"levelo://app?vid=1d028968-6409-4134-bdfd-228bad3a98bf","ios":"levelo://app?vid=1d028968-6409-4134-bdfd-228bad3a98bf"},"vehicle_type_id":"4","last_reported":1719241747,"current_range_meters":28400,"station_id":"ce4bhbh2rcd13ifvqepg","pricing_plan_id":"cebpf4jnsgd1na2vs0mg"},{"bike_id":"ad5aa5b2-ef87-4065-a97c-d6865fa5f96c","system_id":"levelo_inurba_marseille","lat":43.284214,"lon":5.349706,"is_reserved":false,"is_disabled":false,"rental_uris":{"android":"levelo://app?vid=ad5aa5b2-ef87-4065-a97c-d6865fa5f96c","ios":"levelo://app?vid=ad5aa5b2-ef87-4065-a97c-d6865fa5f96c"},"vehicle_type_id":"4","last_reported":1719241747,"current_range_meters":30400,"station_id":"ce4bhbh2rcd13ifvqepg","pricing_plan_id":"cebpf4jnsgd1na2vs0mg"},{"bike_id":"babb1678-48d4-4560-9d85-c1d858d4aee3","system_id":"levelo_inurba_marseille","lat":43.28419,"lon":5.35,"is_reserved":false,"is_disabled":false,"rental_uris":{"android":"levelo://app?vid=babb1678-48d4-4560-9d85-c1d858d4aee3","ios":"levelo://app?vid=babb1678-48d4-4560-9d85-c1d858d4aee3"},"vehicle_type_id":"4","last_reported":1719241747,"current_range_meters":23600,"station_id":"ce4bhbh2rcd13ifvqepg","pricing_plan_id":"cebpf4jnsgd1na2vs0mg"},{"bike_id":"e37859c9-a92c-48ab-a4cf-e748edb07589","system_id":"levelo_inurba_marseille","lat":43.28419,"lon":5.349991,"is_reserved":false,"is_disabled":false,"rental_uris":{"android":"levelo://app?vid=e37859c9-a92c-48ab-a4cf-e748edb07589","ios":"levelo://app?vid=e37859c9-a92c-48ab-a4cf-e748edb07589"},"vehicle_type_id":"4","last_reported":1719241747,"current_range_meters":9200,"station_id":"ce4bhbh2rcd13ifvqepg","pricing_plan_id":"cebpf4jnsgd1na2vs0mg"},