{"last_updated":1745302525,"ttl":60,"version":"2.2","data":{"bikes":[{"bike_id":"39fa0447-b915-4d32-b1c5-df324dda8a4b","system_id":"levelo_inurba_marseille","lat":43.27497,"lon":5.42458,"is_reserved":false,"is_disabled":false,"rental_uris":{"android":"levelo://app?vid=39fa0447-b915-4d32-b1c5-df324dda8a4b","ios":"levelo://app?vid=39fa0447-b915-4d32-b1c5-df324dda8a4b"},"vehicle_type_id":"4","last_reported":1745302525,"current_range_meters":2800,"station_id":"ce4bhn92rcd13ifvqgrg","pricing_plan_id":"cebpf4jnsgd1na2vs0mg"},{"bike_id":"c2730e36-0be5-425d-9403-f13106d30610","system_id":"levelo_inurba_marseille","lat":43.27967,"lon":5.38737,"is_reserved":false,"is_disabled":true,"rental_uris":{"android":"levelo://app?vid=c2730e36-0be5-425d-9403-f13106d30610","ios":"levelo://app?vid=c2730e36-0be5-425d-9403-f13106d30610"},"vehicle_type_id":"4","last_reported":1745302525,"current_range_meters":2800,"station_id":"ce4bhg12rcd13ifvqf80","pricing_plan_id":"cebpf4jnsgd1na2vs0mg"},{"bike_id":"44e23657-b7a4-4c36-978a-3e8fcc42c823","system_id":"levelo_inurba_marseille","lat":43.30264,"lon":5.37729,"is_reserved":false,"is_disabled":false,"rental_uris":{"android":"levelo://app?vid=44e23657-b7a4-4c36-978a-3e8fcc42c823","ios":"levelo://app?vid=44e23657-b7a4-4c36-978a-3e8fcc42c823"},"vehicle_type_id":"4","last_reported":1745302525,"current_range_meters":3200,"station_id":"ce4bguh2rcd13ifvqcj0","pricing_plan_id":"cebpf4jnsgd1na2vs0mg"},{"bike_id":"13dcc10c-4cac-4cf2-9318-07e242720dc9","system_id":"levelo_inurba_marseille","lat":43.312,"lon":5.37715,"is_reserved":false,"is_disabled":true,"rental_uris":{"android":"levelo://app?vid=13dcc10c-4cac-4cf2-9318-07e242720dc9","ios":"levelo://app?vid=13dcc10c-4cac-4cf2-9318-07e242720dc9"},"vehicle_type_id":"4","last_reported":1745302525,"current_range_meters":3200,"station_id":"","pricing_plan_id":"cebpf4jnsgd1na2vs0mg"},{"bike_id":"2031d550-812e-4e8e-8156-be4393a96dd3","system_id":"levelo_inurba_marseille","lat":43.28483,"lon":5.38588,"is_reserved":false,"is_disabled":false,"rental_uris":{"android":"levelo://app?vid=2031d550-812e-4e8e-8156-be4393a96dd3","ios":"levelo://app?vid=2031d550-812e-4e8e-8156-be4393a96dd3"},"vehicle_type_id":"4","last_reported":1745302525,"current_range_meters":2800,"station_id":"ce4bh8p2rcd13ifvqeb0","pricing_plan_id":"cebpf4jnsgd1na2vs0mg"},{"bike_id":"ba688fa3-020d-49aa-be99-774baa1304a2","system_id":"levelo_inurba_marseille","lat":43.33739,"lon":5.39199,"is_reserved":false,"is_disabled":false,"rental_uris":{"android":"levelo://app?vid=ba688fa3-020d-49aa-be99-774baa1304a2","ios":"levelo://app?vid=ba688fa3-020d-49aa-be99-774baa1304a2"},"vehicle_type_id":"4","last_reported":1745302525,"current_range_meters":3600,"station_id":"ce4bhr92rcd13ifvqhsg","pricing_plan_id":"cebpf4jnsgd1na2vs0mg"},{"bike_id":"2bdde4a3-7509-460a-b2c7-d172c5297380","system_id":"levelo_inurba_marseille","lat":43.21195,"lon":5.35067,"is_reserved":false,"is_disabled":true,"rental_uris":{"android":"levelo://app?vid=2bdde4a3-7509-460a-b2c7-d172c5297380","ios":"levelo://app?vid=2bdde4a3-7509-460a-b2c7-d172c5297380"},"vehicle_type_id":"4","last_reported":1745302525,"current_range_meters":3600,"station_id":"st_cvj6sg6p6f1abm77japg","pricing_plan_id":"cebpf4jnsgd1na2vs0mg"},{"bike_id":"8c38093d-a4ea-4da5-9157-c39cea92fabb","system_id":"levelo_inurba_marseille","lat":43.301465,"lon":5.380949,"is_reserved":false,"is_disabled":false,"rental_uris":{"android":"levelo://app?vid=8c38093d-a4ea-4da5-9157-c39cea92fabb","ios":"levelo://app?vid=8c38093d-a4ea-4da5-9157-c39cea92fabb"},"vehicle_type_id":"4","last_reported":1745302525,"current_range_meters":3600,"station_id":"ce4bgjp2rcd13ifvqbh0","pricing_plan_id":"cebpf4jnsgd1na2vs0mg"},{"bike_id":"bfefb57c-154e-4cbc-90d7-24ac4b95745f","system_id":"levelo_inurba_marseille","lat":43.31008,"lon":5.37129,"is_reserved":false,"is_disabled":false,"rental_uris":{"android":"levelo://app?vid=bfefb57c-154e-4cbc-90d7-24ac4b95745f","ios":"levelo://app?vid=bfefb57c-154e-4cbc-90d7-24ac4b95745f"},"vehicle_type_id":"4","last_reported":1745302525,"current_range_meters":3600,"station_id":"","pricing_plan_id":"cebpf4jnsgd1na2vs0mg"},{"bike_id":"818f3bf1-adad-4c73-9ba3-841774cf42ee","system_id":"levelo_inurba_marseille","lat":43.30588,"lon":5.39369,"is_reserved":false,"is_disabled":false,"rental_uris":{"android":"levelo://app?vid=818f3bf1-adad-4c73-9ba3-841774cf42ee","ios":"levelo://app?vid=818f3bf1-adad-4c73-9ba3-841774cf42ee"},"vehicle_type_id":"4","last_reported":1745302525,"current_range_meters":4000,"station_id":"ce4bh0p2rcd13ifvqd80","pricing_plan_id":"cebpf4jnsgd1na2vs0mg"},{"bike_id":"d3faec01-3223-4a4a-8518-bef381ec2d2e","system_id":"levelo_inurba_marseille","lat":43.30147,"lon":5.38099,"is_reserved":false,"is_disabled":false,"rental_uris":{"android":"levelo://app?vid=d3faec01-3223-4a4a-8518-bef381ec2d2e","ios":"levelo://app?vid=d3faec01-3223-4a4a-8518-bef381ec2d2e"},"vehicle_type_id":"4","last_reported":1745302525,"current_range_meters":4000,"station_id":"ce4bgjp2rcd13ifvqbh0","pricing_plan_id":"cebpf4jnsgd1na2vs0mg"},{"bike_id":"49225d49-9260-47b2-a782-7d3d21b08c48","system_id":"levelo_inurba_marseille","lat":43.295342,"lon":5.378851,"is_reserved":false,"is_disabled":false,"rental_uris":{"android":"levelo://app?vid=49225d49-9260-47b2-a782-7d3d21b08c48","ios":"levelo://app?vid=49225d49-9260-47b2-a782-7d3d21b08c48"},"vehicle_type_id":"4","last_reported":1745302525,"current_range_meters":4000,"station_id":"","pricing_plan_id":"cebpf4jnsgd1na2vs0mg"},{"bike_id":"a373f1b2-c1f8-4d57-bca1-4c97514ea92c","system_id":"levelo_inurba_marseille","lat":43.31221,"lon":5.36844,"is_reserved":false,"is_disabled":true,"rental_uris":{"android":"levelo://app?vid=a373f1b2-c1f8-4d57-bca1-4c97514ea92c","ios":"levelo://app?vid=a373f1b2-c1f8-4d57-bca1-4c97514ea92c"},"vehicle_type_id":"4","last_reported":1745302525,"current_range_meters":4000,"station_id":"ce4bgl92rcd13ifvqbq0","pricing_plan_id":"cebpf4jnsgd1na2vs0mg"},{"bike_id":"08ecb5c2-f0e5-402b-8b65-7f6142e3813a","system_id":"levelo_inurba_marseille","lat":43.287198,"lon":5.379359,"is_reserved":false,"is_disabled":false,"rental_uris":{"android":"levelo://app?vid=08ecb5c2-f0e5-402b-8b65-7f6142e3813a","ios":"levelo://app?vid=08ecb5c2-f0e5-402b-8b65-7f6142e3813a"},"vehicle_type_id":"4","last_reported":1745302525,"current_range_meters":2800,"station_id":"ce4bh9p2rcd13ifvqec0","pricing_plan_id":"cebpf4jnsgd1na2vs0mg"},{"bike_id":"901518be-3c90-4e14-ada4-9071cd926d8b","system_id":"levelo_inurba_marseille","lat":43.27483,"lon":5.42461,"is_reserved":false,"is_disabled":true,"rental_uris":{"android":"levelo://app?vid=901518be-3c90-4e14-ada4-9071cd926d8b","ios":"levelo://app?vid=901518be-3c90-4e14-ada4-9071cd926d8b"},"vehicle_type_id":"4","last_reported":1745302525,"current_range_meters":4000,"station_id":"ce4bhn92rcd13ifvqgrg","pricing_plan_id":"cebpf4jnsgd1na2vs0mg"},{"bike_id":"b2dc2f49-8935-4ceb-ad4e-e7a9350ef6ed","system_id":"levelo_inurba_marseille","lat":43.3046,"lon":5.37906,"is_reserved":false,"is_disabled":false,"rental_uris":{"android":"levelo://app?vid=b2dc2f49-8935-4ceb-ad4e-e7a9350ef6ed","ios":"levelo://app?vid=b2dc2f49-8935-4ceb-ad4e-e7a9350ef6ed"},"vehicle_type_id":"4","last_reported":1745302525,"current_range_meters":4000,"station_id":"ce4bgup2rcd13ifvqcn0","pricing_plan_id":"cebpf4jnsgd1na2vs0mg"},{"bike_id":"14fb8d15-31eb-4b60-b10d-13c55cfa03a2","system_id":"levelo_inurba_marseille","lat":43.30594,"lon":5.39362,"is_reserved":false,"is_disabled":false,"rental_uris":{"android":"levelo://app?vid=14fb8d15-31eb-4b60-b10d-13c55cfa03a2","ios":"levelo://app?vid=14fb8d15-31eb-4b60-b10d-13c55cfa03a2"},"vehicle_type_id":"4","last_reported":1745302525,"current_range_meters":4400,"station_id":"ce4bh0p2rcd13ifvqd80","pricing_plan_id":"cebpf4jnsgd1na2vs0mg"},{"bike_id":"b8ad2038-82c2-4b4b-8eaf-d574dc55d755","system_id":"levelo_inurba_marseille","lat":43.31758,"lon":5.39016,"is_reserved":false,"is_disabled":false,"rental_uris":{"android":"levelo://app?vid=b8ad2038-82c2-4b4b-8eaf-d574dc55d755","ios":"levelo://app?vid=b8ad2038-82c2-4b4b-8eaf-d574dc55d755"},"vehicle_type_id":"4","last_reported":1745302525,"current_range_meters":4000,"station_id":"ce4bhqp2rcd13ifvqhng","pricing_plan_id":"cebpf4jnsgd1na2vs0mg"},{"bike_id":"6d0b1e09-0778-4875-a9ec-ebd4ab3c5c71","system_id":"levelo_inurba_marseille","lat":43.21192,"lon":5.35045,"is_reserved":false,"is_disabled":true,"rental_uris":{"android":"levelo://app?vid=6d0b1e09-0778-4875-a9ec-ebd4ab3c5c71","ios":"levelo://app?vid=6d0b1e09-0778-4875-a9ec-ebd4ab3c5c71"},"vehicle_type_id":"4","last_reported":1745302525,"current_range_meters":4400,"station_id":"st_cvj6sg6p6f1abm77japg","pricing_plan_id":"cebpf4jnsgd1na2vs0mg"},{"bike_id":"0bbb1424-41af-4c9d-8fce-6d5d6666dd73","system_id":"levelo_inurba_marseille","lat":43.298486,"lon":5.362822,"is_reserved":false,"is_disabled":false,"rental_uris":{"android":"levelo://app?vid=0bbb1424-41af-4c9d-8fce-6d5d6666dd73","ios":"levelo://app?vid=0bbb1424-41af-4c9d-8fce-6d5d6666dd73"},"vehicle_type_id":"4","last_reported":1745302525,"current_range_meters":4400,"station_id":"","pricing_plan_id":"cebpf4jnsgd1na2vs0mg"},{"bike_id":"46c7040a-90d9-471e-9741-4cd0b5916360","system_id":"levelo_inurba_marseille","lat":43.33606,"lon":5.41034,"is_reserved":false,"is_disabled":false,"rental_uris":{"android":"levelo://app?vid=46c7040a-90d9-471e-9741-4cd0b5916360","ios":"levelo://app?vid=46c7040a-90d9-471e-9741-4cd0b5916360"},"vehicle_type_id":"4","last_reported":1745302525,"current_range_meters":4800,"station_id":"ce4bhqh2rcd13ifvqhmg","pricing_plan_id":"cebpf4jnsgd1na2vs0mg"},{"bike_id":"b9eabe22-14e8-4096-b7f7-dc24c3e65d3d","system_id":"levelo_inurba_marseille","lat":43.269344,"lon":5.402599,"is_reserved":false,"is_disabled":false,"rental_uris":{"android":"levelo://app?vid=b9eabe22-14e8-4096-b7f7-dc24c3e65d3d","ios":"levelo://app?vid=b9eabe22-14e8-4096-b7f7-dc24c3e65d3d"},"vehicle_type_id":"4","last_reported":1745302525,"current_range_meters":4800,"station_id":"cjm6bp8fraef2m0cb0m0","pricing_plan_id":"cebpf4jnsgd1na2vs0mg"},{"bike_id":"e651d1f7-1142-4d25-843c-6faaf6e52ee6","system_id":"levelo_inurba_marseille","lat":43.30263,"lon":5.37729,"is_reserved":false,"is_disabled":false,"rental_uris":{"android":"levelo://app?vid=e651d1f7-1142-4d25-843c-6faaf6e52ee6","ios":"levelo://app?vid=e651d1f7-1142-4d25-843c-6faaf6e52ee6"},"vehicle_type_id":"4","last_reported":1745302525,"current_range_meters":400,"station_id":"ce4bguh2rcd13ifvqcj0","pricing_plan_id":"cebpf4jnsgd1na2vs0mg"},{"bike_id":"6084a8f2-143e-4ad6-8ac6-f7b1a7ca3522","system_id":"levelo_inurba_marseille","lat":43.28402,"lon":5.37514,"is_reserved":false,"is_disabled":false,"rental_uris":{"android":"levelo://app?vid=6084a8f2-143e-4ad6-8ac6-f7b1a7ca3522","ios":"levelo://app?vid=6084a8f2-143e-4ad6-8ac6-f7b1a7ca3522"},"vehicle_type_id":"4","last_reported":1745302525,"current_range_meters":4400,"station_id":"ce4bh412rcd13ifvqds0","pricing_plan_id":"cebpf4jnsgd1na2vs0mg"},{"bike_id":"f984d1c9-94d7-48d1-9f06-f702edb8335d","system_id":"levelo_inurba_marseille","lat":43.2414,"lon":5.36431,"is_reserved":false,"is_disabled":true,"rental_uris":{"android":"levelo://app?vid=f984d1c9-94d7-48d1-9f06-f702edb8335d","ios":"levelo://app?vid=f984d1c9-94d7-48d1-9f06-f702edb8335d"},"vehicle_type_id":"4","last_reported":1745302525,"current_range_meters":4800,"station_id":"cpo36qri1sfpv3e86is0","pricing_plan_id":"cebpf4jnsgd1na2vs0mg"},{"bike_id":"bbad6c3c-65a2-4c92-a867-7af549d75c64","system_id":"levelo_inurba_marseille","lat":43.26195,"lon":5.37934,"is_reserved":false,"is_disabled":false,"rental_uris":{"android":"levelo://app?vid=bbad6c3c-65a2-4c92-a867-7af549d75c64","ios":"levelo://app?vid=bbad6c3c-65a2-4c92-a867-7af549d75c64"},"vehicle_type_id":"4","last_reported":1745302525,"current_range_meters":5600,"station_id":"ce4bhjp2rcd13ifvqg90","pricing_plan_id":"cebpf4jnsgd1na2vs0mg"},{"bike_id":"07f158ca-6d43-4a88-a950-743efe677590","system_id":"levelo_inurba_marseille","lat":43.31699,"lon":5.40443,"is_reserved":false,"is_disabled":false,"rental_uris":{"android":"levelo://app?vid=07f158ca-6d43-4a88-a950-743efe677590","ios":"levelo://app?vid=07f158ca-6d43-4a88-a950-743efe677590"},"vehicle_type_id":"4","last_reported":1745302525,"current_range_meters":5600,"station_id":"ce4bh012rcd13ifvqd00","pricing_plan_id":"cebpf4jnsgd1na2vs0mg"},{"bike_id":"0026f0ef-e122-468b-8b2d-9fe49debda96","system_id":"levelo_inurba_marseille","lat":43.29027,"lon":5.39992,"is_reserved":false,"is_disabled":false,"rental_uris":{"android":"levelo://app?vid=0026f0ef-e122-468b-8b2d-9fe49debda96","ios":"levelo://app?vid=0026f0ef-e122-468b-8b2d-9fe49debda96"},"vehicle_type_id":"4","last_reported":1745302525,"current_range_meters":6000,"station_id":"ce4bh392rcd13ifvqdm0","pricing_plan_id":"cebpf4jnsgd1na2vs0mg"},{"bike_id":"3abc6f89-03ac-4495-a4f3-98421156fd12","system_id":"levelo_inurba_marseille","lat":43.27897,"lon":5.41132,"is_reserved":false,"is_disabled":false,"rental_uris":{"android":"levelo://app?vid=3abc6f89-03ac-4495-a4f3-98421156fd12","ios":"levelo://app?vid=3abc6f89-03ac-4495-a4f3-98421156fd12"},"vehicle_type_id":"4","last_reported":1745302525,"current_range_meters":6000,"station_id":"","pricing_plan_id":"cebpf4jnsgd1na2vs0mg"},{"bike_id":"bf7a132c-9a16-485e-97b0-c5d89039dfaa","system_id":"levelo_inurba_marseille","lat":43.24075,"lon":5.37759,"is_reserved":false,"is_disabled":false,"rental_uris":{"android":"levelo://app?vid=bf7a132c-9a16-485e-97b0-c5d89039dfaa","ios":"levelo://app?vid=bf7a132c-9a16-485e-97b0-c5d89039dfaa"},"vehicle_type_id":"4","last_reported":1745302525,"current_range_meters":6400,"station_id":"ce4bhnp2rcd13ifvqgvg","pricing_plan_id":"cebpf4jnsgd1na2vs0mg"},{"bike_id":"1b7e8d83-31a5-4db3-a573-ae365113200f","system_id":"levelo_inurba_marseille","lat":43.30463,"lon":5.37899,"is_reserved":false,"is_disabled":false,"rental_uris":{"android":"levelo://app?vid=1b7e8d83-31a5-4db3-a573-ae365113200f","ios":"levelo://app?vid=1b7e8d83-31a5-4db3-a573-ae365113200f"},"vehicle_type_id":"4","last_reported":1745302525,"current_range_meters":6400,"station_id":"ce4bgup2rcd13ifvqcn0","pricing_plan_id":"cebpf4jnsgd1na2vs0mg"},{"bike_id":"38adb2eb-fac3-4615-a940-10c7aab9149f","system_id":"levelo_inurba_marseille","lat":43.29034,"lon":5.39981,"is_reserved":false,"is_disabled":false,"rental_uris":{"android":"levelo://app?vid=38adb2eb-fac3-4615-a940-10c7aab9149f","ios":"levelo://app?vid=38adb2eb-fac3-4615-a940-10c7aab9149f"},"vehicle_type_id":"4","last_reported":1745302525,"current_range_meters":6400,"station_id":"ce4bh392rcd13ifvqdm0","pricing_plan_id":"cebpf4jnsgd1na2vs0mg"},{"bike_id":"dacb9310-ef47-42d4-82c3-6f67b29ded17","system_id":"levelo_inurba_marseille","lat":43.31983,"lon":5.38145,"is_reserved":false,"is_disabled":true,"rental_uris":{"android":"levelo://app?vid=dacb9310-ef47-42d4-82c3-6f67b29ded17","ios":"levelo://app?vid=dacb9310-ef47-42d4-82c3-6f67b29ded17"},"vehicle_type_id":"4","last_reported":1745302525,"current_range_meters":6800,"station_id":"ce4bhr12rcd13ifvqhpg","pricing_plan_id":"cebpf4jnsgd1na2vs0mg"},{"bike_id":"2eae6397-3f35-48cb-91a4-97f36e4dda21","system_id":"levelo_inurba_marseille","lat":43.2178,"lon":5.34611,"is_reserved":false,"is_disabled":true,"rental_uris":{"android":"levelo://app?vid=2eae6397-3f35-48cb-91a4-97f36e4dda21","ios":"levelo://app?vid=2eae6397-3f35-48cb-91a4-97f36e4dda21"},"vehicle_type_id":"4","last_reported":1745302525,"current_range_meters":6800,"station_id":"","pricing_plan_id":"cebpf4jnsgd1na2vs0mg"},{"bike_id":"f84aeb92-bc88-468c-8e91-798d331a8e11","system_id":"levelo_inurba_marseille","lat":43.3249,"lon":5.36576,"is_reserved":false,"is_disabled":false,"rental_uris":{"android":"levelo://app?vid=f84aeb92-bc88-468c-8e91-798d331a8e11","ios":"levelo://app?vid=f84aeb92-bc88-468c-8e91-798d331a8e11"},"vehicle_type_id":"4","last_reported":1745302525,"current_range_meters":6800,"station_id":"ce4bhs12rcd13ifvqhvg","pricing_plan_id":"cebpf4jnsgd1na2vs0mg"},{"bike_id":"08adba7b-eac3-4cfc-9923-2ccf0cc4ffef","system_id":"levelo_inurba_marseille","lat":43.24555,"lon":5.4131,"is_reserved":false,"is_disabled":false,"rental_uris":{"android":"levelo://app?vid=08adba7b-eac3-4cfc-9923-2ccf0cc4ffef","ios":"levelo://app?vid=08adba7b-eac3-4cfc-9923-2ccf0cc4ffef"},"vehicle_type_id":"4","last_reported":1745302525,"current_range_meters":6800,"station_id":"","pricing_plan_id":"cebpf4jnsgd1na2vs0mg"},{"bike_id":"1eefdb70-f50e-4ba8-a3c9-f275b947e40e","system_id":"levelo_inurba_marseille","lat":43.27492,"lon":5.42457,"is_reserved":false,"is_disabled":false,"rental_uris":{"android":"levelo://app?vid=1eefdb70-f50e-4ba8-a3c9-f275b947e40e","ios":"levelo://app?vid=1eefdb70-f50e-4ba8-a3c9-f275b947e40e"},"vehicle_type_id":"4","last_reported":1745302525,"current_range_meters":6800,"station_id":"ce4bhn92rcd13ifvqgrg","pricing_plan_id":"cebpf4jnsgd1na2vs0mg"},{"bike_id":"9bcafa8d-bec4-46c9-98da-bc1b63b46043","system_id":"levelo_inurba_marseille","lat":43.30458,"lon":5.37905,"is_reserved":false,"is_disabled":false,"rental_uris":{"android":"levelo://app?vid=9bcafa8d-bec4-46c9-98da-bc1b63b46043","ios":"levelo://app?vid=9bcafa8d-bec4-46c9-98da-bc1b63b46043"},"vehicle_type_id":"4","last_reported":1745302525,"current_range_meters":6800,"station_id":"ce4bgup2rcd13ifvqcn0","pricing_plan_id":"cebpf4jnsgd1na2vs0mg"},{"bike_id":"e8d5d107-35b9-418d-88a3-5114daa1d261","system_id":"levelo_inurba_marseille","lat":43.29039,"lon":5.39975,"is_reserved":false,"is_disabled":false,"rental_uris":{"android":"levelo://app?vid=e8d5d107-35b9-418d-88a3-5114daa1d261","ios":"levelo://app?vid=e8d5d107-35b9-418d-88a3-5114daa1d261"},"vehicle_type_id":"4","last_reported":1745302525,"current_range_meters":7200,"station_id":"ce4bh392rcd13ifvqdm0","pricing_plan_id":"cebpf4jnsgd1na2vs0mg"},{"bike_id":"1f84f51f-d2f4-4d4c-982d-d184ffe24a02","system_id":"levelo_inurba_marseille","lat":43.32361,"lon":5.389,"is_reserved":false,"is_disabled":true,"rental_uris":{"android":"levelo://app?vid=1f84f51f-d2f4-4d4c-982d-d184ffe24a02","ios":"levelo://app?vid=1f84f51f-d2f4-4d4c-982d-d184ffe24a02"},"vehicle_type_id":"4","last_reported":1745302525,"current_range_meters":7200,"station_id":"ce4bhqp2rcd13ifvqhog","pricing_plan_id":"cebpf4jnsgd1na2vs0mg"},{"bike_id":"9f9b448b-fe5c-49c5-a84b-91dacece1651","system_id":"levelo_inurba_marseille","lat":43.24075,"lon":5.37755,"is_reserved":false,"is_disabled":false,"rental_uris":{"android":"levelo://app?vid=9f9b448b-fe5c-49c5-a84b-91dacece1651","ios":"levelo://app?vid=9f9b448b-fe5c-49c5-a84b-91dacece1651"},"vehicle_type_id":"4","last_reported":1745302525,"current_range_meters":7200,"station_id":"ce4bhnp2rcd13ifvqgvg","pricing_plan_id":"cebpf4jnsgd1na2vs0mg"},{"bike_id":"6561090e-028c-4b52-b987-8f52eb6e59e2","system_id":"levelo_inurba_marseille","lat":43.28921,"lon":5.38391,"is_reserved":false,"is_disabled":false,"rental_uris":{"android":"levelo://app?vid=6561090e-028c-4b52-b987-8f52eb6e59e2","ios":"levelo://app?vid=6561090e-028c-4b52-b987-8f52eb6e59e2"},"vehicle_type_id":"4","last_reported":1745302525,"current_range_meters":7200,"station_id":"ce4bh612rcd13ifvqe6g","pricing_plan_id":"cebpf4jnsgd1na2vs0mg"},{"bike_id":"7d296e16-4a4b-4c28-8971-eefd52417d99","system_id":"levelo_inurba_marseille","lat":43.27207,"lon":5.39189,"is_reserved":false,"is_disabled":false,"rental_uris":{"android":"levelo://app?vid=7d296e16-4a4b-4c28-8971-eefd52417d99","ios":"levelo://app?vid=7d296e16-4a4b-4c28-8971-eefd52417d99"},"vehicle_type_id":"4","last_reported":1745302525,"current_range_meters":6800,"station_id":"ce4bhhp2rcd13ifvqfm0","pricing_plan_id":"cebpf4jnsgd1na2vs0mg"},{"bike_id":"6fd03af9-7c6e-4b0a-b29f-3c73b47dd294","system_id":"levelo_inurba_marseille","lat":43.287143,"lon":5.399968,"is_reserved":false,"is_disabled":false,"rental_uris":{"android":"levelo://app?vid=6fd03af9-7c6e-4b0a-b29f-3c73b47dd294","ios":"levelo://app?vid=6fd03af9-7c6e-4b0a-b29f-3c73b47dd294"},"vehicle_type_id":"4","last_reported":1745302525,"current_range_meters":8000,"station_id":"ce4bho92rcd13ifvqh3g","pricing_plan_id":"cebpf4jnsgd1na2vs0mg"},{"bike_id":"b9dca5bb-da7a-4595-b834-d5572efaa78c","system_id":"levelo_inurba_marseille","lat":43.27088,"lon":5.42307,"is_reserved":false,"is_disabled":false,"rental_uris":{"android":"levelo://app?vid=b9dca5bb-da7a-4595-b834-d5572efaa78c","ios":"levelo://app?vid=b9dca5bb-da7a-4595-b834-d5572efaa78c"},"vehicle_type_id":"4","last_reported":1745302525,"current_range_meters":8000,"station_id":"ce4bhk92rcd13ifvqgb0","pricing_plan_id":"cebpf4jnsgd1na2vs0mg"},{"bike_id":"57f7b582-4b24-4c71-b7c7-b6f27f52f117","system_id":"levelo_inurba_marseille","lat":43.27495,"lon":5.42449,"is_reserved":false,"is_disabled":false,"rental_uris":{"android":"levelo://app?vid=57f7b582-4b24-4c71-b7c7-b6f27f52f117","ios":"levelo://app?vid=57f7b582-4b24-4c71-b7c7-b6f27f52f117"},"vehicle_type_id":"4","last_reported":1745302525,"current_range_meters":8000,"station_id":"ce4bhn92rcd13ifvqgrg","pricing_plan_id":"cebpf4jnsgd1na2vs0mg"},{"bike_id":"26b96eb8-a0a7-472a-b2ea-45fb8a837953","system_id":"levelo_inurba_marseille","lat":43.30156,"lon":5.38072,"is_reserved":false,"is_disabled":false,"rental_uris":{"android":"levelo://app?vid=26b96eb8-a0a7-472a-b2ea-45fb8a837953","ios":"levelo://app?vid=26b96eb8-a0a7-472a-b2ea-45fb8a837953"},"vehicle_type_id":"4","last_reported":1745302525,"current_range_meters":8000,"station_id":"ce4bgjp2rcd13ifvqbh0","pricing_plan_id":"cebpf4jnsgd1na2vs0mg"},{"bike_id":"b09a0f3d-c48b-475b-8346-07998bdf0685","system_id":"levelo_inurba_marseille","lat":43.24076,"lon":5.37742,"is_reserved":false,"is_disabled":false,"rental_uris":{"android":"levelo://app?vid=b09a0f3d-c48b-475b-8346-07998bdf0685","ios":"levelo://app?vid=b09a0f3d-c48b-475b-8346-07998bdf0685"},"vehicle_type_id":"4","last_reported":1745302525,"current_range_meters":8000,"station_id":"ce4bhnp2rcd13ifvqgvg","pricing_plan_id":"cebpf4jnsgd1na2vs0mg"},{"bike_id":"0e3f01e5-c3de-4476-9321-0ae8ce1ce1f2","system_id":"levelo_inurba_marseille","lat":43.28361,"lon":5.38633,"is_reserved":false,"is_disabled":false,"rental_uris":{"android":"levelo://app?vid=0e3f01e5-c3de-4476-9321-0ae8ce1ce1f2","ios":"levelo://app?vid=0e3f01e5-c3de-4476-9321-0ae8ce1ce1f2"},"vehicle_type_id":"4","last_reported":1745302525,"current_range_meters":8000,"station_id":"ce4bh492rcd13ifvqdvg","pricing_plan_id":"cebpf4jnsgd1na2vs0mg"},{"bike_id":"89cfd28b-0c7c-4079-955f-194e937acbb9","system_id":"levelo_inurba_marseille","lat":43.29965,"lon":5.36339,"is_reserved":false,"is_disabled":false,"rental_uris":{"android":"levelo://app?vid=89cfd28b-0c7c-4079-955f-194e937acbb9","ios":"levelo://app?vid=89cfd28b-0c7c-4079-955f-194e937acbb9"},"vehicle_type_id":"4","last_reported":1745302525,"current_range_meters":8000,"station_id":"","pricing_plan_id":"cebpf4jnsgd1na2vs0mg"},{"bike_id":"35f2a906-9ed9-4281-a569-57111b51db28","system_id":"levelo_inurba_marseille","lat":43.25005,"lon":5.3895,"is_reserved":false,"is_disabled":false,"rental_uris":{"android":"levelo://app?vid=35f2a906-9ed9-4281-a569-57111b51db28","ios":"levelo://app?vid=35f2a906-9ed9-4281-a569-57111b51db28"},"vehicle_type_id":"4","last_reported":1745302525,"current_range_meters":8400,"station_id":"ce4bhgp2rcd13ifvqfd0","pricing_plan_id":"cebpf4jnsgd1na2vs0mg"},{"bike_id":"34166cb2-24d1-48d4-88e5-65264e3a037d","system_id":"levelo_inurba_marseille","lat":43.31035,"lon":5.371,"is_reserved":false,"is_disabled":false,"rental_uris":{"android":"levelo://app?vid=34166cb2-24d1-48d4-88e5-65264e3a037d","ios":"levelo://app?vid=34166cb2-24d1-48d4-88e5-65264e3a037d"},"vehicle_type_id":"4","last_reported":1745302525,"current_range_meters":8400,"station_id":"","pricing_plan_id":"cebpf4jnsgd1na2vs0mg"},{"bike_id":"0cc7f4c1-0369-4594-8a37-765d15da624f","system_id":"levelo_inurba_marseille","lat":43.275,"lon":5.42463,"is_reserved":false,"is_disabled":false,"rental_uris":{"android":"levelo://app?vid=0cc7f4c1-0369-4594-8a37-765d15da624f","ios":"levelo://app?vid=0cc7f4c1-0369-4594-8a37-765d15da624f"},"vehicle_type_id":"4","last_reported":1745302525,"current_range_meters":8400,"station_id":"ce4bhn92rcd13ifvqgrg","pricing_plan_id":"cebpf4jnsgd1na2vs0mg"},{"bike_id":"62801924-329e-46ea-aa72-be8e28d87636","system_id":"levelo_inurba_marseille","lat":43.26659,"lon":5.39991,"is_reserved":false,"is_disabled":false,"rental_uris":{"android":"levelo://app?vid=62801924-329e-46ea-aa72-be8e28d87636","ios":"levelo://app?vid=62801924-329e-46ea-aa72-be8e28d87636"},"vehicle_type_id":"4","last_reported":1745302525,"current_range_meters":8400,"station_id":"","pricing_plan_id":"cebpf4jnsgd1na2vs0mg"},{"bike_id":"afedb4a2-2d4c-48b8-ab87-145e4a55df0f","system_id":"levelo_inurba_marseille","lat":43.27493,"lon":5.42457,"is_reserved":false,"is_disabled":false,"rental_uris":{"android":"levelo://app?vid=afedb4a2-2d4c-48b8-ab87-145e4a55df0f","ios":"levelo://app?vid=afedb4a2-2d4c-48b8-ab87-145e4a55df0f"},"vehicle_type_id":"4","last_reported":1745302525,"current_range_meters":8800,"station_id":"ce4bhn92rcd13ifvqgrg","pricing_plan_id":"cebpf4jnsgd1na2vs0mg"},{"bike_id":"9e93d069-e586-454d-9770-7c9768c73092","system_id":"levelo_inurba_marseille","lat":43.29035,"lon":5.39972,"is_reserved":false,"is_disabled":false,"rental_uris":{"android":"levelo://app?vid=9e93d069-e586-454d-9770-7c9768c73092","ios":"levelo://app?vid=9e93d069-e586-454d-9770-7c9768c73092"},"vehicle_type_id":"4","last_reported":1745302525,"current_range_meters":8800,"station_id":"ce4bh392rcd13ifvqdm0","pricing_plan_id":"cebpf4jnsgd1na2vs0mg"},{"bike_id":"fe8b594a-1525-4084-8e05-931f2d1c230a","system_id":"levelo_inurba_marseille","lat":43.28366,"lon":5.3866,"is_reserved":false,"is_disabled":false,"rental_uris":{"android":"levelo://app?vid=fe8b594a-1525-4084-8e05-931f2d1c230a","ios":"levelo://app?vid=fe8b594a-1525-4084-8e05-931f2d1c230a"},"vehicle_type_id":"4","last_reported":1745302525,"current_range_meters":8800,"station_id":"ce4bh492rcd13ifvqdvg","pricing_plan_id":"cebpf4jnsgd1na2vs0mg"},{"bike_id":"5acb53b8-b3f8-4852-bfa2-4f44eb10e65c","system_id":"levelo_inurba_marseille","lat":43.29039,"lon":5.39986,"is_reserved":false,"is_disabled":false,"rental_uris":{"android":"levelo://app?vid=5acb53b8-b3f8-4852-bfa2-4f44eb10e65c","ios":"levelo://app?vid=5acb53b8-b3f8-4852-bfa2-4f44eb10e65c"},"vehicle_type_id":"4","last_reported":1745302525,"current_range_meters":8800,"station_id":"ce4bh392rcd13ifvqdm0","pricing_plan_id":"cebpf4jnsgd1na2vs0mg"},{"bike_id":"1c755526-7610-4241-9257-348acde561d3","system_id":"levelo_inurba_marseille","lat":43.248543,"lon":5.382006,"is_reserved":false,"is_disabled":false,"rental_uris":{"android":"levelo://app?vid=1c755526-7610-4241-9257-348acde561d3","ios":"levelo://app?vid=1c755526-7610-4241-9257-348acde561d3"},"vehicle_type_id":"4","last_reported":1745302525,"current_range_meters":9200,"station_id":"","pricing_plan_id":"cebpf4jnsgd1na2vs0mg"},{"bike_id":"6efbea2d-5eb1-4a4a-8c84-47a375f78190","system_id":"levelo_inurba_marseille","lat":43.299,"lon":5.38889,"is_reserved":false,"is_disabled":true,"rental_uris":{"android":"levelo://app?vid=6efbea2d-5eb1-4a4a-8c84-47a375f78190","ios":"levelo://app?vid=6efbea2d-5eb1-4a4a-8c84-47a375f78190"},"vehicle_type_id":"4","last_reported":1745302525,"current_range_meters":9200,"station_id":"ce4bh392rcd13ifvqdl0","pricing_plan_id":"cebpf4jnsgd1na2vs0mg"},{"bike_id":"af062bcb-c0d8-4f82-b254-b3dfb315e067","system_id":"levelo_inurba_marseille","lat":43.33021,"lon":5.39037,"is_reserved":false,"is_disabled":false,"rental_uris":{"android":"levelo://app?vid=af062bcb-c0d8-4f82-b254-b3dfb315e067","ios":"levelo://app?vid=af062bcb-c0d8-4f82-b254-b3dfb315e067"},"vehicle_type_id":"4","last_reported":1745302525,"current_range_meters":9200,"station_id":"ce4bhr92rcd13ifvqhrg","pricing_plan_id":"cebpf4jnsgd1na2vs0mg"},{"bike_id":"dd54a095-94e9-4be9-8e29-27546a96fff7","system_id":"levelo_inurba_marseille","lat":43.29842,"lon":5.36275,"is_reserved":false,"is_disabled":false,"rental_uris":{"android":"levelo://app?vid=dd54a095-94e9-4be9-8e29-27546a96fff7","ios":"levelo://app?vid=dd54a095-94e9-4be9-8e29-27546a96fff7"},"vehicle_type_id":"4","last_reported":1745302525,"current_range_meters":8800,"station_id":"ce4bgpp2rcd13ifvqc3g","pricing_plan_id":"cebpf4jnsgd1na2vs0mg"},{"bike_id":"d0ef3768-bde7-4003-a7a7-c698e4e2b44f","system_id":"levelo_inurba_marseille","lat":43.30793,"lon":5.3765,"is_reserved":false,"is_disabled":false,"rental_uris":{"android":"levelo://app?vid=d0ef3768-bde7-4003-a7a7-c698e4e2b44f","ios":"levelo://app?vid=d0ef3768-bde7-4003-a7a7-c698e4e2b44f"},"vehicle_type_id":"4","last_reported":1745302525,"current_range_meters":9200,"station_id":"ce4bgv92rcd13ifvqcq0","pricing_plan_id":"cebpf4jnsgd1na2vs0mg"},{"bike_id":"38496ab1-dcd9-47e1-88de-12902fbdc1d3","system_id":"levelo_inurba_marseille","lat":43.290304,"lon":5.386561,"is_reserved":false,"is_disabled":false,"rental_uris":{"android":"levelo://app?vid=38496ab1-dcd9-47e1-88de-12902fbdc1d3","ios":"levelo://app?vid=38496ab1-dcd9-47e1-88de-12902fbdc1d3"},"vehicle_type_id":"4","last_reported":1745302525,"current_range_meters":9200,"station_id":"ce4bh4p2rcd13ifvqe0g","pricing_plan_id":"cebpf4jnsgd1na2vs0mg"},{"bike_id":"4bc82e1a-bca4-44ab-8223-aee3605c8d43","system_id":"levelo_inurba_marseille","lat":43.30527,"lon":5.38429,"is_reserved":false,"is_disabled":false,"rental_uris":{"android":"levelo://app?vid=4bc82e1a-bca4-44ab-8223-aee3605c8d43","ios":"levelo://app?vid=4bc82e1a-bca4-44ab-8223-aee3605c8d43"},"vehicle_type_id":"4","last_reported":1745302525,"current_range_meters":9600,"station_id":"ce4bgg92rcd13ifvqb30","pricing_plan_id":"cebpf4jnsgd1na2vs0mg"},{"bike_id":"32c8a006-d30d-4ed0-891c-f0dd9c101eb1","system_id":"levelo_inurba_marseille","lat":43.33023,"lon":5.39042,"is_reserved":false,"is_disabled":false,"rental_uris":{"android":"levelo://app?vid=32c8a006-d30d-4ed0-891c-f0dd9c101eb1","ios":"levelo://app?vid=32c8a006-d30d-4ed0-891c-f0dd9c101eb1"},"vehicle_type_id":"4","last_reported":1745302525,"current_range_meters":10000,"station_id":"ce4bhr92rcd13ifvqhrg","pricing_plan_id":"cebpf4jnsgd1na2vs0mg"},{"bike_id":"ea8dd40d-d1c9-495b-acb7-79fe81df74e2","system_id":"levelo_inurba_marseille","lat":43.28706,"lon":5.4004,"is_reserved":false,"is_disabled":false,"rental_uris":{"android":"levelo://app?vid=ea8dd40d-d1c9-495b-acb7-79fe81df74e2","ios":"levelo://app?vid=ea8dd40d-d1c9-495b-acb7-79fe81df74e2"},"vehicle_type_id":"4","last_reported":1745302525,"current_range_meters":10000,"station_id":"ce4bho92rcd13ifvqh3g","pricing_plan_id":"cebpf4jnsgd1na2vs0mg"},{"bike_id":"d7891f6f-dbf7-462a-8ba9-666022d45f1b","system_id":"levelo_inurba_marseille","lat":43.28705,"lon":5.40045,"is_reserved":false,"is_disabled":false,"rental_uris":{"android":"levelo://app?vid=d7891f6f-dbf7-462a-8ba9-666022d45f1b","ios":"levelo://app?vid=d7891f6f-dbf7-462a-8ba9-666022d45f1b"},"vehicle_type_id":"4","last_reported":1745302525,"current_range_meters":10000,"station_id":"ce4bho92rcd13ifvqh3g","pricing_plan_id":"cebpf4jnsgd1na2vs0mg"},{"bike_id":"12c9a293-1c06-492e-8f7f-33a75d3ebd35","system_id":"levelo_inurba_marseille","lat":43.284257,"lon":5.349809,"is_reserved":false,"is_disabled":false,"rental_uris":{"android":"levelo://app?vid=12c9a293-1c06-492e-8f7f-33a75d3ebd35","ios":"levelo://app?vid=12c9a293-1c06-492e-8f7f-33a75d3ebd35"},"vehicle_type_id":"4","last_reported":1745302525,"current_range_meters":9600,"station_id":"ce4bhh12rcd13ifvqfg0","pricing_plan_id":"cebpf4jnsgd1na2vs0mg"},{"bike_id":"2dc4e79a-33a8-48b0-bf03-f6328f1dc1f6","system_id":"levelo_inurba_marseille","lat":43.32359,"lon":5.38888,"is_reserved":false,"is_disabled":true,"rental_uris":{"android":"levelo://app?vid=2dc4e79a-33a8-48b0-bf03-f6328f1dc1f6","ios":"levelo://app?vid=2dc4e79a-33a8-48b0-bf03-f6328f1dc1f6"},"vehicle_type_id":"4","last_reported":1745302525,"current_range_meters":10800,"station_id":"ce4bhqp2rcd13ifvqhog","pricing_plan_id":"cebpf4jnsgd1na2vs0mg"},{"bike_id":"60233ea3-89a8-4189-a4a0-776d2e44aa03","system_id":"levelo_inurba_marseille","lat":43.27522,"lon":5.42482,"is_reserved":false,"is_disabled":false,"rental_uris":{"android":"levelo://app?vid=60233ea3-89a8-4189-a4a0-776d2e44aa03","ios":"levelo://app?vid=60233ea3-89a8-4189-a4a0-776d2e44aa03"},"vehicle_type_id":"4","last_reported":1745302525,"current_range_meters":10800,"station_id":"ce4bhn92rcd13ifvqgrg","pricing_plan_id":"cebpf4jnsgd1na2vs0mg"},{"bike_id":"fa6fb692-3c02-45e3-ae8b-7fd21c19ed5f","system_id":"levelo_inurba_marseille","lat":43.28627,"lon":5.38376,"is_reserved":false,"is_disabled":false,"rental_uris":{"android":"levelo://app?vid=fa6fb692-3c02-45e3-ae8b-7fd21c19ed5f","ios":"levelo://app?vid=fa6fb692-3c02-45e3-ae8b-7fd21c19ed5f"},"vehicle_type_id":"4","last_reported":1745302525,"current_range_meters":10800,"station_id":"","pricing_plan_id":"cebpf4jnsgd1na2vs0mg"},{"bike_id":"30d3ee99-430a-40fc-a9a7-46df94ad6379","system_id":"levelo_inurba_marseille","lat":43.29282,"lon":5.40126,"is_reserved":false,"is_disabled":false,"rental_uris":{"android":"levelo://app?vid=30d3ee99-430a-40fc-a9a7-46df94ad6379","ios":"levelo://app?vid=30d3ee99-430a-40fc-a9a7-46df94ad6379"},"vehicle_type_id":"4","last_reported":1745302525,"current_range_meters":10800,"station_id":"ce4bh312rcd13ifvqdk0","pricing_plan_id":"cebpf4jnsgd1na2vs0mg"},{"bike_id":"22ad8cd8-448d-4f6e-b2fe-740f8d592dd7","system_id":"levelo_inurba_marseille","lat":43.33768,"lon":5.37432,"is_reserved":false,"is_disabled":false,"rental_uris":{"android":"levelo://app?vid=22ad8cd8-448d-4f6e-b2fe-740f8d592dd7","ios":"levelo://app?vid=22ad8cd8-448d-4f6e-b2fe-740f8d592dd7"},"vehicle_type_id":"4","last_reported":1745302525,"current_range_meters":11200,"station_id":"","pricing_plan_id":"cebpf4jnsgd1na2vs0mg"},{"bike_id":"d0f5f4ea-6e40-4dca-a584-c67b9fc00d80","system_id":"levelo_inurba_marseille","lat":43.28347,"lon":5.38109,"is_reserved":false,"is_disabled":false,"rental_uris":{"android":"levelo://app?vid=d0f5f4ea-6e40-4dca-a584-c67b9fc00d80","ios":"levelo://app?vid=d0f5f4ea-6e40-4dca-a584-c67b9fc00d80"},"vehicle_type_id":"4","last_reported":1745302525,"current_range_meters":11200,"station_id":"ce4bh412rcd13ifvqdr0","pricing_plan_id":"cebpf4jnsgd1na2vs0mg"},{"bike_id":"e62bada1-eeb0-4089-9b96-3f186f2503cd","system_id":"levelo_inurba_marseille","lat":43.28151,"lon":5.42642,"is_reserved":false,"is_disabled":false,"rental_uris":{"android":"levelo://app?vid=e62bada1-eeb0-4089-9b96-3f186f2503cd","ios":"levelo://app?vid=e62bada1-eeb0-4089-9b96-3f186f2503cd"},"vehicle_type_id":"4","last_reported":1745302525,"current_range_meters":11200,"station_id":"ce4bhnh2rcd13ifvqgug","pricing_plan_id":"cebpf4jnsgd1na2vs0mg"},{"bike_id":"4eb3e58f-17bb-4007-b6f7-ead627ffb500","system_id":"levelo_inurba_marseille","lat":43.292603,"lon":5.384435,"is_reserved":false,"is_disabled":false,"rental_uris":{"android":"levelo://app?vid=4eb3e58f-17bb-4007-b6f7-ead627ffb500","ios":"levelo://app?vid=4eb3e58f-17bb-4007-b6f7-ead627ffb500"},"vehicle_type_id":"4","last_reported":1745302525,"current_range_meters":10800,"station_id":"ce4bh692rcd13ifvqea0","pricing_plan_id":"cebpf4jnsgd1na2vs0mg"},{"bike_id":"4d1e2557-77ee-49ff-a69f-a6bc879fa967","system_id":"levelo_inurba_marseille","lat":43.29028,"lon":5.39975,"is_reserved":false,"is_disabled":true,"rental_uris":{"android":"levelo://app?vid=4d1e2557-77ee-49ff-a69f-a6bc879fa967","ios":"levelo://app?vid=4d1e2557-77ee-49ff-a69f-a6bc879fa967"},"vehicle_type_id":"4","last_reported":1745302525,"current_range_meters":11200,"station_id":"ce4bh392rcd13ifvqdm0","pricing_plan_id":"cebpf4jnsgd1na2vs0mg"},{"bike_id":"820eef6d-ce66-4da8-8e7c-8ccf25140a68","system_id":"levelo_inurba_marseille","lat":43.26948,"lon":5.3864,"is_reserved":false,"is_disabled":false,"rental_uris":{"android":"levelo://app?vid=820eef6d-ce66-4da8-8e7c-8ccf25140a68","ios":"levelo://app?vid=820eef6d-ce66-4da8-8e7c-8ccf25140a68"},"vehicle_type_id":"4","last_reported":1745302525,"current_range_meters":11600,"station_id":"ce4bhh92rcd13ifvqfh0","pricing_plan_id":"cebpf4jnsgd1na2vs0mg"},{"bike_id":"b373a9fc-b19f-49e6-9414-e3e614041e34","system_id":"levelo_inurba_marseille","lat":43.27081,"lon":5.42294,"is_reserved":false,"is_disabled":true,"rental_uris":{"android":"levelo://app?vid=b373a9fc-b19f-49e6-9414-e3e614041e34","ios":"levelo://app?vid=b373a9fc-b19f-49e6-9414-e3e614041e34"},"vehicle_type_id":"4","last_reported":1745302525,"current_range_meters":11600,"station_id":"ce4bhk92rcd13ifvqgb0","pricing_plan_id":"cebpf4jnsgd1na2vs0mg"},{"bike_id":"31dad1ac-0f84-44f8-a969-f5f6007b9b50","system_id":"levelo_inurba_marseille","lat":43.25013,"lon":5.38929,"is_reserved":false,"is_disabled":true,"rental_uris":{"android":"levelo://app?vid=31dad1ac-0f84-44f8-a969-f5f6007b9b50","ios":"levelo://app?vid=31dad1ac-0f84-44f8-a969-f5f6007b9b50"},"vehicle_type_id":"4","last_reported":1745302525,"current_range_meters":12000,"station_id":"ce4bhgp2rcd13ifvqfd0","pricing_plan_id":"cebpf4jnsgd1na2vs0mg"},{"bike_id":"c13551b2-7e88-4716-9353-0d1cc3288edf","system_id":"levelo_inurba_marseille","lat":43.25868,"lon":5.39897,"is_reserved":false,"is_disabled":false,"rental_uris":{"android":"levelo://app?vid=c13551b2-7e88-4716-9353-0d1cc3288edf","ios":"levelo://app?vid=c13551b2-7e88-4716-9353-0d1cc3288edf"},"vehicle_type_id":"4","last_reported":1745302525,"current_range_meters":12000,"station_id":"ce4bhl92rcd13ifvqghg","pricing_plan_id":"cebpf4jnsgd1na2vs0mg"},{"bike_id":"0cc8691f-a082-4a9b-944f-91ae0092fb38","system_id":"levelo_inurba_marseille","lat":43.29316,"lon":5.40175,"is_reserved":false,"is_disabled":false,"rental_uris":{"android":"levelo://app?vid=0cc8691f-a082-4a9b-944f-91ae0092fb38","ios":"levelo://app?vid=0cc8691f-a082-4a9b-944f-91ae0092fb38"},"vehicle_type_id":"4","last_reported":1745302525,"current_range_meters":12000,"station_id":"","pricing_plan_id":"cebpf4jnsgd1na2vs0mg"},{"bike_id":"b9990b0b-23ad-461b-a2d8-df7e2af72eca","system_id":"levelo_inurba_marseille","lat":43.30712,"lon":5.38114,"is_reserved":false,"is_disabled":false,"rental_uris":{"android":"levelo://app?vid=b9990b0b-23ad-461b-a2d8-df7e2af72eca","ios":"levelo://app?vid=b9990b0b-23ad-461b-a2d8-df7e2af72eca"},"vehicle_type_id":"4","last_reported":1745302525,"current_range_meters":12000,"station_id":"","pricing_plan_id":"cebpf4jnsgd1na2vs0mg"},{"bike_id":"21917916-4faf-4a68-958e-ef1fcba4e701","system_id":"levelo_inurba_marseille","lat":43.3149,"lon":5.37319,"is_reserved":false,"is_disabled":false,"rental_uris":{"android":"levelo://app?vid=21917916-4faf-4a68-958e-ef1fcba4e701","ios":"levelo://app?vid=21917916-4faf-4a68-958e-ef1fcba4e701"},"vehicle_type_id":"4","last_reported":1745302525,"current_range_meters":12000,"station_id":"ce4bgt12rcd13ifvqcd0","pricing_plan_id":"cebpf4jnsgd1na2vs0mg"},{"bike_id":"afca05cb-9dea-4e13-bae3-b0bd83251e29","system_id":"levelo_inurba_marseille","lat":43.33805,"lon":5.37435,"is_reserved":false,"is_disabled":false,"rental_uris":{"android":"levelo://app?vid=afca05cb-9dea-4e13-bae3-b0bd83251e29","ios":"levelo://app?vid=afca05cb-9dea-4e13-bae3-b0bd83251e29"},"vehicle_type_id":"4","last_reported":1745302525,"current_range_meters":12400,"station_id":"","pricing_plan_id":"cebpf4jnsgd1na2vs0mg"},{"bike_id":"f6ea1852-adb4-42a9-8d67-57f448b0288c","system_id":"levelo_inurba_marseille","lat":43.30792,"lon":5.38158,"is_reserved":false,"is_disabled":false,"rental_uris":{"android":"levelo://app?vid=f6ea1852-adb4-42a9-8d67-57f448b0288c","ios":"levelo://app?vid=f6ea1852-adb4-42a9-8d67-57f448b0288c"},"vehicle_type_id":"4","last_reported":1745302525,"current_range_meters":12400,"station_id":"","pricing_plan_id":"cebpf4jnsgd1na2vs0mg"},{"bike_id":"85a4b1a0-8ac6-4193-a4bd-d5cdcf7c4a8f","system_id":"levelo_inurba_marseille","lat":43.28685,"lon":5.37929,"is_reserved":false,"is_disabled":false,"rental_uris":{"android":"levelo://app?vid=85a4b1a0-8ac6-4193-a4bd-d5cdcf7c4a8f","ios":"levelo://app?vid=85a4b1a0-8ac6-4193-a4bd-d5cdcf7c4a8f"},"vehicle_type_id":"4","last_reported":1745302525,"current_range_meters":12400,"station_id":"ce4bh9p2rcd13ifvqec0","pricing_plan_id":"cebpf4jnsgd1na2vs0mg"},{"bike_id":"50d46025-478d-4b3d-a603-e22bcdb21505","system_id":"levelo_inurba_marseille","lat":43.27496,"lon":5.42454,"is_reserved":false,"is_disabled":false,"rental_uris":{"android":"levelo://app?vid=50d46025-478d-4b3d-a603-e22bcdb21505","ios":"levelo://app?vid=50d46025-478d-4b3d-a603-e22bcdb21505"},"vehicle_type_id":"4","last_reported":1745302525,"current_range_meters":12000,"station_id":"ce4bhn92rcd13ifvqgrg","pricing_plan_id":"cebpf4jnsgd1na2vs0mg"},{"bike_id":"e7c416a1-d3d4-4a43-927c-145ae605d8a0","system_id":"levelo_inurba_marseille","lat":43.240758,"lon":5.377492,"is_reserved":false,"is_disabled":false,"rental_uris":{"android":"levelo://app?vid=e7c416a1-d3d4-4a43-927c-145ae605d8a0","ios":"levelo://app?vid=e7c416a1-d3d4-4a43-927c-145ae605d8a0"},"vehicle_type_id":"4","last_reported":1745302525,"current_range_meters":12400,"station_id":"ce4bhnp2rcd13ifvqgvg","pricing_plan_id":"cebpf4jnsgd1na2vs0mg"},{"bike_id":"a7aa4f0d-dbae-40db-a193-3ad158f70ff8","system_id":"levelo_inurba_marseille","lat":43.31027,"lon":5.37092,"is_reserved":false,"is_disabled":false,"rental_uris":{"android":"levelo://app?vid=a7aa4f0d-dbae-40db-a193-3ad158f70ff8","ios":"levelo://app?vid=a7aa4f0d-dbae-40db-a193-3ad158f70ff8"},"vehicle_type_id":"4","last_reported":1745302525,"current_range_meters":12800,"station_id":"","pricing_plan_id":"cebpf4jnsgd1na2vs0mg"},{"bike_id":"e3f2ff94-19f7-4b16-a506-885772f72f4c","system_id":"levelo_inurba_marseille","lat":43.24167,"lon":5.36402,"is_reserved":false,"is_disabled":true,"rental_uris":{"android":"levelo://app?vid=e3f2ff94-19f7-4b16-a506-885772f72f4c","ios":"levelo://app?vid=e3f2ff94-19f7-4b16-a506-885772f72f4c"},"vehicle_type_id":"4","last_reported":1745302525,"current_range_meters":12800,"station_id":"cpo36qri1sfpv3e86is0","pricing_plan_id":"cebpf4jnsgd1na2vs0mg"},{"bike_id":"aee02a5c-4c95-456b-99d3-72a3fd8ec2a1","system_id":"levelo_inurba_marseille","lat":43.30156,"lon":5.38094,"is_reserved":false,"is_disabled":false,"rental_uris":{"android":"levelo://app?vid=aee02a5c-4c95-456b-99d3-72a3fd8ec2a1","ios":"levelo://app?vid=aee02a5c-4c95-456b-99d3-72a3fd8ec2a1"},"vehicle_type_id":"4","last_reported":1745302525,"current_range_meters":13600,"station_id":"ce4bgjp2rcd13ifvqbh0","pricing_plan_id":"cebpf4jnsgd1na2vs0mg"},{"bike_id":"a5b6e271-13ad-4a80-b187-214f85f01c89","system_id":"levelo_inurba_marseille","lat":43.24182,"lon":5.39734,"is_reserved":false,"is_disabled":false,"rental_uris":{"android":"levelo://app?vid=a5b6e271-13ad-4a80-b187-214f85f01c89","ios":"levelo://app?vid=a5b6e271-13ad-4a80-b187-214f85f01c89"},"vehicle_type_id":"4","last_reported":1745302525,"current_range_meters":13600,"station_id":"ce4bhn12rcd13ifvqgpg","pricing_plan_id":"cebpf4jnsgd1na2vs0mg"},{"bike_id":"217bc09c-9054-444f-b0a6-1a91698bbf60","system_id":"levelo_inurba_marseille","lat":43.26193,"lon":5.37474,"is_reserved":false,"is_disabled":true,"rental_uris":{"android":"levelo://app?vid=217bc09c-9054-444f-b0a6-1a91698bbf60","ios":"levelo://app?vid=217bc09c-9054-444f-b0a6-1a91698bbf60"},"vehicle_type_id":"4","last_reported":1745302525,"current_range_meters":13600,"station_id":"ce4bhgp2rcd13ifvqfc0","pricing_plan_id":"cebpf4jnsgd1na2vs0mg"},{"bike_id":"4848d55d-2f0a-4ae6-b5c1-e3a75c895dc8","system_id":"levelo_inurba_marseille","lat":43.30518,"lon":5.36714,"is_reserved":false,"is_disabled":false,"rental_uris":{"android":"levelo://app?vid=4848d55d-2f0a-4ae6-b5c1-e3a75c895dc8","ios":"levelo://app?vid=4848d55d-2f0a-4ae6-b5c1-e3a75c895dc8"},"vehicle_type_id":"4","last_reported":1745302525,"current_range_meters":13600,"station_id":"ce4bgrp2rcd13ifvqc9g","pricing_plan_id":"cebpf4jnsgd1na2vs0mg"},{"bike_id":"6b4282bc-9432-4c95-847b-7452cf13e716","system_id":"levelo_inurba_marseille","lat":43.29318,"lon":5.37099,"is_reserved":false,"is_disabled":true,"rental_uris":{"android":"levelo://app?vid=6b4282bc-9432-4c95-847b-7452cf13e716","ios":"levelo://app?vid=6b4282bc-9432-4c95-847b-7452cf13e716"},"vehicle_type_id":"4","last_reported":1745302525,"current_range_meters":14000,"station_id":"","pricing_plan_id":"cebpf4jnsgd1na2vs0mg"},{"bike_id":"12505a0a-b14f-4f59-9be1-55ce43130db1","system_id":"levelo_inurba_marseille","lat":43.29576,"lon":5.38099,"is_reserved":false,"is_disabled":true,"rental_uris":{"android":"levelo://app?vid=12505a0a-b14f-4f59-9be1-55ce43130db1","ios":"levelo://app?vid=12505a0a-b14f-4f59-9be1-55ce43130db1"},"vehicle_type_id":"4","last_reported":1745302525,"current_range_meters":14000,"station_id":"ce4bgl12rcd13ifvqbo0","pricing_plan_id":"cebpf4jnsgd1na2vs0mg"},{"bike_id":"19bdf40e-ce17-4477-9c87-815068b2b0ca","system_id":"levelo_inurba_marseille","lat":43.28946,"lon":5.39626,"is_reserved":false,"is_disabled":false,"rental_uris":{"android":"levelo://app?vid=19bdf40e-ce17-4477-9c87-815068b2b0ca","ios":"levelo://app?vid=19bdf40e-ce17-4477-9c87-815068b2b0ca"},"vehicle_type_id":"4","last_reported":1745302525,"current_range_meters":14400,"station_id":"ce4bh3h2rcd13ifvqdn0","pricing_plan_id":"cebpf4jnsgd1na2vs0mg"},{"bike_id":"2a35ab10-f416-439f-a4fa-784873cd587f","system_id":"levelo_inurba_marseille","lat":43.26959,"lon":5.38663,"is_reserved":false,"is_disabled":true,"rental_uris":{"android":"levelo://app?vid=2a35ab10-f416-439f-a4fa-784873cd587f","ios":"levelo://app?vid=2a35ab10-f416-439f-a4fa-784873cd587f"},"vehicle_type_id":"4","last_reported":1745302525,"current_range_meters":14400,"station_id":"ce4bhh92rcd13ifvqfh0","pricing_plan_id":"cebpf4jnsgd1na2vs0mg"},{"bike_id":"fe915bbe-bc16-4704-a08e-2b2cd3cb4798","system_id":"levelo_inurba_marseille","lat":43.295893,"lon":5.380977,"is_reserved":false,"is_disabled":false,"rental_uris":{"android":"levelo://app?vid=fe915bbe-bc16-4704-a08e-2b2cd3cb4798","ios":"levelo://app?vid=fe915bbe-bc16-4704-a08e-2b2cd3cb4798"},"vehicle_type_id":"4","last_reported":1745302525,"current_range_meters":14400,"station_id":"ce4bgl12rcd13ifvqbo0","pricing_plan_id":"cebpf4jnsgd1na2vs0mg"},{"bike_id":"fa15de24-cca3-4579-a312-f78f5ae8f6e1","system_id":"levelo_inurba_marseille","lat":43.24063,"lon":5.37745,"is_reserved":false,"is_disabled":false,"rental_uris":{"android":"levelo://app?vid=fa15de24-cca3-4579-a312-f78f5ae8f6e1","ios":"levelo://app?vid=fa15de24-cca3-4579-a312-f78f5ae8f6e1"},"vehicle_type_id":"4","last_reported":1745302525,"current_range_meters":14400,"station_id":"ce4bhnp2rcd13ifvqgvg","pricing_plan_id":"cebpf4jnsgd1na2vs0mg"},{"bike_id":"9676c1f1-b0ed-4c27-a1ab-52198b9737ad","system_id":"levelo_inurba_marseille","lat":43.29035,"lon":5.39976,"is_reserved":false,"is_disabled":false,"rental_uris":{"android":"levelo://app?vid=9676c1f1-b0ed-4c27-a1ab-52198b9737ad","ios":"levelo://app?vid=9676c1f1-b0ed-4c27-a1ab-52198b9737ad"},"vehicle_type_id":"4","last_reported":1745302525,"current_range_meters":14400,"station_id":"ce4bh392rcd13ifvqdm0","pricing_plan_id":"cebpf4jnsgd1na2vs0mg"},{"bike_id":"f25d8672-7640-4033-8cc4-f80944c4dd44","system_id":"levelo_inurba_marseille","lat":43.27227,"lon":5.40118,"is_reserved":false,"is_disabled":false,"rental_uris":{"android":"levelo://app?vid=f25d8672-7640-4033-8cc4-f80944c4dd44","ios":"levelo://app?vid=f25d8672-7640-4033-8cc4-f80944c4dd44"},"vehicle_type_id":"4","last_reported":1745302525,"current_range_meters":14800,"station_id":"","pricing_plan_id":"cebpf4jnsgd1na2vs0mg"},{"bike_id":"a756bae3-49c1-4d6c-89e8-fcb7b0e7d2e2","system_id":"levelo_inurba_marseille","lat":43.29036,"lon":5.35944,"is_reserved":false,"is_disabled":true,"rental_uris":{"android":"levelo://app?vid=a756bae3-49c1-4d6c-89e8-fcb7b0e7d2e2","ios":"levelo://app?vid=a756bae3-49c1-4d6c-89e8-fcb7b0e7d2e2"},"vehicle_type_id":"4","last_reported":1745302525,"current_range_meters":14800,"station_id":"ce4bha92rcd13ifvqeg0","pricing_plan_id":"cebpf4jnsgd1na2vs0mg"},{"bike_id":"9b330d7b-2f0f-4040-a06c-e0fbcd144b66","system_id":"levelo_inurba_marseille","lat":43.28427,"lon":5.375,"is_reserved":false,"is_disabled":false,"rental_uris":{"android":"levelo://app?vid=9b330d7b-2f0f-4040-a06c-e0fbcd144b66","ios":"levelo://app?vid=9b330d7b-2f0f-4040-a06c-e0fbcd144b66"},"vehicle_type_id":"4","last_reported":1745302525,"current_range_meters":14800,"station_id":"ce4bh412rcd13ifvqds0","pricing_plan_id":"cebpf4jnsgd1na2vs0mg"},{"bike_id":"41cd4d50-3bdd-4fa7-b5d1-d715f5a540e6","system_id":"levelo_inurba_marseille","lat":43.32363,"lon":5.36786,"is_reserved":false,"is_disabled":false,"rental_uris":{"android":"levelo://app?vid=41cd4d50-3bdd-4fa7-b5d1-d715f5a540e6","ios":"levelo://app?vid=41cd4d50-3bdd-4fa7-b5d1-d715f5a540e6"},"vehicle_type_id":"4","last_reported":1745302525,"current_range_meters":14800,"station_id":"ce4bhsh2rcd13ifvqi2g","pricing_plan_id":"cebpf4jnsgd1na2vs0mg"},{"bike_id":"40fc575e-ce2d-4c82-84c5-1739b8ffe607","system_id":"levelo_inurba_marseille","lat":43.24081,"lon":5.37758,"is_reserved":false,"is_disabled":false,"rental_uris":{"android":"levelo://app?vid=40fc575e-ce2d-4c82-84c5-1739b8ffe607","ios":"levelo://app?vid=40fc575e-ce2d-4c82-84c5-1739b8ffe607"},"vehicle_type_id":"4","last_reported":1745302525,"current_range_meters":14800,"station_id":"ce4bhnp2rcd13ifvqgvg","pricing_plan_id":"cebpf4jnsgd1na2vs0mg"},{"bike_id":"013b0bba-3a8e-4176-aec5-9b030be1a006","system_id":"levelo_inurba_marseille","lat":43.31731,"lon":5.37776,"is_reserved":false,"is_disabled":false,"rental_uris":{"android":"levelo://app?vid=013b0bba-3a8e-4176-aec5-9b030be1a006","ios":"levelo://app?vid=013b0bba-3a8e-4176-aec5-9b030be1a006"},"vehicle_type_id":"4","last_reported":1745302525,"current_range_meters":15200,"station_id":"ce4bgth2rcd13ifvqch0","pricing_plan_id":"cebpf4jnsgd1na2vs0mg"},{"bike_id":"cd064d23-0437-42cd-82dd-e3505bb8536d","system_id":"levelo_inurba_marseille","lat":43.29298,"lon":5.38513,"is_reserved":false,"is_disabled":false,"rental_uris":{"android":"levelo://app?vid=cd064d23-0437-42cd-82dd-e3505bb8536d","ios":"levelo://app?vid=cd064d23-0437-42cd-82dd-e3505bb8536d"},"vehicle_type_id":"4","last_reported":1745302525,"current_range_meters":15200,"station_id":"","pricing_plan_id":"cebpf4jnsgd1na2vs0mg"},{"bike_id":"61e00411-27a3-494d-9890-6cc2b2ee608e","system_id":"levelo_inurba_marseille","lat":43.31889,"lon":5.4074,"is_reserved":false,"is_disabled":false,"rental_uris":{"android":"levelo://app?vid=61e00411-27a3-494d-9890-6cc2b2ee608e","ios":"levelo://app?vid=61e00411-27a3-494d-9890-6cc2b2ee608e"},"vehicle_type_id":"4","last_reported":1745302525,"current_range_meters":15200,"station_id":"ce4bhq12rcd13ifvqhig","pricing_plan_id":"cebpf4jnsgd1na2vs0mg"},{"bike_id":"38459f6a-034c-4bc7-9ad6-a5f483ad2390","system_id":"levelo_inurba_marseille","lat":43.24382,"lon":5.37064,"is_reserved":false,"is_disabled":false,"rental_uris":{"android":"levelo://app?vid=38459f6a-034c-4bc7-9ad6-a5f483ad2390","ios":"levelo://app?vid=38459f6a-034c-4bc7-9ad6-a5f483ad2390"},"vehicle_type_id":"4","last_reported":1745302525,"current_range_meters":15200,"station_id":"ce4bhhh2rcd13ifvqfk0","pricing_plan_id":"cebpf4jnsgd1na2vs0mg"},{"bike_id":"534fef47-f932-4dad-9463-ac390e6210ea","system_id":"levelo_inurba_marseille","lat":43.29031,"lon":5.38651,"is_reserved":false,"is_disabled":false,"rental_uris":{"android":"levelo://app?vid=534fef47-f932-4dad-9463-ac390e6210ea","ios":"levelo://app?vid=534fef47-f932-4dad-9463-ac390e6210ea"},"vehicle_type_id":"4","last_reported":1745302525,"current_range_meters":14800,"station_id":"ce4bh4p2rcd13ifvqe0g","pricing_plan_id":"cebpf4jnsgd1na2vs0mg"},{"bike_id":"d1a505ef-7473-49c5-bad8-0e2f929d6043","system_id":"levelo_inurba_marseille","lat":43.279883,"lon":5.416867,"is_reserved":false,"is_disabled":false,"rental_uris":{"android":"levelo://app?vid=d1a505ef-7473-49c5-bad8-0e2f929d6043","ios":"levelo://app?vid=d1a505ef-7473-49c5-bad8-0e2f929d6043"},"vehicle_type_id":"4","last_reported":1745302525,"current_range_meters":16000,"station_id":"ce4bho12rcd13ifvqh1g","pricing_plan_id":"cebpf4jnsgd1na2vs0mg"},{"bike_id":"475ee689-7a86-4371-8ca6-7046107dd992","system_id":"levelo_inurba_marseille","lat":43.30531,"lon":5.36535,"is_reserved":false,"is_disabled":false,"rental_uris":{"android":"levelo://app?vid=475ee689-7a86-4371-8ca6-7046107dd992","ios":"levelo://app?vid=475ee689-7a86-4371-8ca6-7046107dd992"},"vehicle_type_id":"4","last_reported":1745302525,"current_range_meters":15200,"station_id":"ce4bgs12rcd13ifvqcag","pricing_plan_id":"cebpf4jnsgd1na2vs0mg"},{"bike_id":"9b4ade48-b528-4889-b78f-9c837c6d8cd9","system_id":"levelo_inurba_marseille","lat":43.3046,"lon":5.37905,"is_reserved":false,"is_disabled":false,"rental_uris":{"android":"levelo://app?vid=9b4ade48-b528-4889-b78f-9c837c6d8cd9","ios":"levelo://app?vid=9b4ade48-b528-4889-b78f-9c837c6d8cd9"},"vehicle_type_id":"4","last_reported":1745302525,"current_range_meters":16000,"station_id":"ce4bgup2rcd13ifvqcn0","pricing_plan_id":"cebpf4jnsgd1na2vs0mg"},{"bike_id":"1f1f9885-6e62-4243-a5b0-45be9ddf4073","system_id":"levelo_inurba_marseille","lat":43.23966,"lon":5.36656,"is_reserved":false,"is_disabled":true,"rental_uris":{"android":"levelo://app?vid=1f1f9885-6e62-4243-a5b0-45be9ddf4073","ios":"levelo://app?vid=1f1f9885-6e62-4243-a5b0-45be9ddf4073"},"vehicle_type_id":"4","last_reported":1745302525,"current_range_meters":16000,"station_id":"ce4bhi12rcd13ifvqfp0","pricing_plan_id":"cebpf4jnsgd1na2vs0mg"},{"bike_id":"073666a2-3ea3-4eb3-a124-3b5c40d3d495","system_id":"levelo_inurba_marseille","lat":43.259331,"lon":5.409079,"is_reserved":false,"is_disabled":false,"rental_uris":{"android":"levelo://app?vid=073666a2-3ea3-4eb3-a124-3b5c40d3d495","ios":"levelo://app?vid=073666a2-3ea3-4eb3-a124-3b5c40d3d495"},"vehicle_type_id":"4","last_reported":1745302525,"current_range_meters":16400,"station_id":"ce4bhm92rcd13ifvqglg","pricing_plan_id":"cebpf4jnsgd1na2vs0mg"},{"bike_id":"0350c28c-2735-4d23-85e7-14aeaabc7982","system_id":"levelo_inurba_marseille","lat":43.24071,"lon":5.37756,"is_reserved":false,"is_disabled":false,"rental_uris":{"android":"levelo://app?vid=0350c28c-2735-4d23-85e7-14aeaabc7982","ios":"levelo://app?vid=0350c28c-2735-4d23-85e7-14aeaabc7982"},"vehicle_type_id":"4","last_reported":1745302525,"current_range_meters":16400,"station_id":"ce4bhnp2rcd13ifvqgvg","pricing_plan_id":"cebpf4jnsgd1na2vs0mg"},{"bike_id":"de9704f9-bc65-4f5a-9c6b-e4c83851fc93","system_id":"levelo_inurba_marseille","lat":43.217483,"lon":5.346011,"is_reserved":false,"is_disabled":true,"rental_uris":{"android":"levelo://app?vid=de9704f9-bc65-4f5a-9c6b-e4c83851fc93","ios":"levelo://app?vid=de9704f9-bc65-4f5a-9c6b-e4c83851fc93"},"vehicle_type_id":"4","last_reported":1745302525,"current_range_meters":16400,"station_id":"","pricing_plan_id":"cebpf4jnsgd1na2vs0mg"},{"bike_id":"2026f12f-7b00-44aa-8351-5eb6b0eb418c","system_id":"levelo_inurba_marseille","lat":43.30134,"lon":5.38102,"is_reserved":false,"is_disabled":false,"rental_uris":{"android":"levelo://app?vid=2026f12f-7b00-44aa-8351-5eb6b0eb418c","ios":"levelo://app?vid=2026f12f-7b00-44aa-8351-5eb6b0eb418c"},"vehicle_type_id":"4","last_reported":1745302525,"current_range_meters":16400,"station_id":"ce4bgjp2rcd13ifvqbh0","pricing_plan_id":"cebpf4jnsgd1na2vs0mg"},{"bike_id":"11c1487e-1e2b-4158-9da1-1b1d3a46e28b","system_id":"levelo_inurba_marseille","lat":43.30451,"lon":5.36739,"is_reserved":false,"is_disabled":false,"rental_uris":{"android":"levelo://app?vid=11c1487e-1e2b-4158-9da1-1b1d3a46e28b","ios":"levelo://app?vid=11c1487e-1e2b-4158-9da1-1b1d3a46e28b"},"vehicle_type_id":"4","last_reported":1745302525,"current_range_meters":16800,"station_id":"ce4bgs12rcd13ifvqcag","pricing_plan_id":"cebpf4jnsgd1na2vs0mg"},{"bike_id":"8a24f70c-ae05-4d58-b067-1c0737cd9e8f","system_id":"levelo_inurba_marseille","lat":43.27496,"lon":5.42454,"is_reserved":false,"is_disabled":false,"rental_uris":{"android":"levelo://app?vid=8a24f70c-ae05-4d58-b067-1c0737cd9e8f","ios":"levelo://app?vid=8a24f70c-ae05-4d58-b067-1c0737cd9e8f"},"vehicle_type_id":"4","last_reported":1745302525,"current_range_meters":17200,"station_id":"ce4bhn92rcd13ifvqgrg","pricing_plan_id":"cebpf4jnsgd1na2vs0mg"},{"bike_id":"155b198e-42dd-456f-af1e-eef54bfbb95e","system_id":"levelo_inurba_marseille","lat":43.27417,"lon":5.39408,"is_reserved":false,"is_disabled":false,"rental_uris":{"android":"levelo://app?vid=155b198e-42dd-456f-af1e-eef54bfbb95e","ios":"levelo://app?vid=155b198e-42dd-456f-af1e-eef54bfbb95e"},"vehicle_type_id":"4","last_reported":1745302525,"current_range_meters":17200,"station_id":"ce4bhdp2rcd13ifvqf20","pricing_plan_id":"cebpf4jnsgd1na2vs0mg"},{"bike_id":"7dd32a10-4498-4861-98f3-8110d29ef7ab","system_id":"levelo_inurba_marseille","lat":43.29969,"lon":5.37167,"is_reserved":false,"is_disabled":false,"rental_uris":{"android":"levelo://app?vid=7dd32a10-4498-4861-98f3-8110d29ef7ab","ios":"levelo://app?vid=7dd32a10-4498-4861-98f3-8110d29ef7ab"},"vehicle_type_id":"4","last_reported":1745302525,"current_range_meters":18000,"station_id":"ce4bgr92rcd13ifvqc7g","pricing_plan_id":"cebpf4jnsgd1na2vs0mg"},{"bike_id":"76fce4c6-e470-4d07-9f03-79ff46a797cd","system_id":"levelo_inurba_marseille","lat":43.30448,"lon":5.38878,"is_reserved":false,"is_disabled":false,"rental_uris":{"android":"levelo://app?vid=76fce4c6-e470-4d07-9f03-79ff46a797cd","ios":"levelo://app?vid=76fce4c6-e470-4d07-9f03-79ff46a797cd"},"vehicle_type_id":"4","last_reported":1745302525,"current_range_meters":17200,"station_id":"ce4bgk12rcd13ifvqbi0","pricing_plan_id":"cebpf4jnsgd1na2vs0mg"},{"bike_id":"584387b4-187d-4f80-b338-fcdc107989ef","system_id":"levelo_inurba_marseille","lat":43.247379,"lon":5.411555,"is_reserved":false,"is_disabled":false,"rental_uris":{"android":"levelo://app?vid=584387b4-187d-4f80-b338-fcdc107989ef","ios":"levelo://app?vid=584387b4-187d-4f80-b338-fcdc107989ef"},"vehicle_type_id":"4","last_reported":1745302525,"current_range_meters":17200,"station_id":"","pricing_plan_id":"cebpf4jnsgd1na2vs0mg"},{"bike_id":"7dddcc00-79c4-421e-b7c1-6ec18cf414a1","system_id":"levelo_inurba_marseille","lat":43.30597,"lon":5.39367,"is_reserved":false,"is_disabled":false,"rental_uris":{"android":"levelo://app?vid=7dddcc00-79c4-421e-b7c1-6ec18cf414a1","ios":"levelo://app?vid=7dddcc00-79c4-421e-b7c1-6ec18cf414a1"},"vehicle_type_id":"4","last_reported":1745302525,"current_range_meters":17600,"station_id":"ce4bh0p2rcd13ifvqd80","pricing_plan_id":"cebpf4jnsgd1na2vs0mg"},{"bike_id":"258b0b4c-5b99-4570-a859-adeda5b62274","system_id":"levelo_inurba_marseille","lat":43.29277,"lon":5.40139,"is_reserved":false,"is_disabled":false,"rental_uris":{"android":"levelo://app?vid=258b0b4c-5b99-4570-a859-adeda5b62274","ios":"levelo://app?vid=258b0b4c-5b99-4570-a859-adeda5b62274"},"vehicle_type_id":"4","last_reported":1745302525,"current_range_meters":17600,"station_id":"ce4bh312rcd13ifvqdk0","pricing_plan_id":"cebpf4jnsgd1na2vs0mg"},{"bike_id":"137d250a-2c7c-4f95-9bc6-42b57f26a2b9","system_id":"levelo_inurba_marseille","lat":43.23958,"lon":5.36663,"is_reserved":false,"is_disabled":true,"rental_uris":{"android":"levelo://app?vid=137d250a-2c7c-4f95-9bc6-42b57f26a2b9","ios":"levelo://app?vid=137d250a-2c7c-4f95-9bc6-42b57f26a2b9"},"vehicle_type_id":"4","last_reported":1745302525,"current_range_meters":17600,"station_id":"ce4bhi12rcd13ifvqfp0","pricing_plan_id":"cebpf4jnsgd1na2vs0mg"},{"bike_id":"04313f42-6027-40c2-ad10-63fc0b5db78c","system_id":"levelo_inurba_marseille","lat":43.288635,"lon":5.358387,"is_reserved":false,"is_disabled":false,"rental_uris":{"android":"levelo://app?vid=04313f42-6027-40c2-ad10-63fc0b5db78c","ios":"levelo://app?vid=04313f42-6027-40c2-ad10-63fc0b5db78c"},"vehicle_type_id":"4","last_reported":1745302525,"current_range_meters":18000,"station_id":"ce4bhb12rcd13ifvqem0","pricing_plan_id":"cebpf4jnsgd1na2vs0mg"},{"bike_id":"98c1a7d8-e077-4271-82f8-42e14f36d05c","system_id":"levelo_inurba_marseille","lat":43.2921,"lon":5.40119,"is_reserved":false,"is_disabled":false,"rental_uris":{"android":"levelo://app?vid=98c1a7d8-e077-4271-82f8-42e14f36d05c","ios":"levelo://app?vid=98c1a7d8-e077-4271-82f8-42e14f36d05c"},"vehicle_type_id":"4","last_reported":1745302525,"current_range_meters":18000,"station_id":"ce4bh312rcd13ifvqdk0","pricing_plan_id":"cebpf4jnsgd1na2vs0mg"},{"bike_id":"d01df6a6-b745-430f-aed3-8244c27e3204","system_id":"levelo_inurba_marseille","lat":43.28358,"lon":5.38116,"is_reserved":false,"is_disabled":false,"rental_uris":{"android":"levelo://app?vid=d01df6a6-b745-430f-aed3-8244c27e3204","ios":"levelo://app?vid=d01df6a6-b745-430f-aed3-8244c27e3204"},"vehicle_type_id":"4","last_reported":1745302525,"current_range_meters":18000,"station_id":"ce4bh412rcd13ifvqdr0","pricing_plan_id":"cebpf4jnsgd1na2vs0mg"},{"bike_id":"bfb6a197-fb29-40f0-a2e8-984f700e18b4","system_id":"levelo_inurba_marseille","lat":43.3414,"lon":5.40907,"is_reserved":false,"is_disabled":false,"rental_uris":{"android":"levelo://app?vid=bfb6a197-fb29-40f0-a2e8-984f700e18b4","ios":"levelo://app?vid=bfb6a197-fb29-40f0-a2e8-984f700e18b4"},"vehicle_type_id":"4","last_reported":1745302525,"current_range_meters":18800,"station_id":"ce4bhqh2rcd13ifvqhlg","pricing_plan_id":"cebpf4jnsgd1na2vs0mg"},{"bike_id":"3eeaa5ee-7282-4572-8d60-4d266c5d718f","system_id":"levelo_inurba_marseille","lat":43.21191,"lon":5.350714,"is_reserved":false,"is_disabled":true,"rental_uris":{"android":"levelo://app?vid=3eeaa5ee-7282-4572-8d60-4d266c5d718f","ios":"levelo://app?vid=3eeaa5ee-7282-4572-8d60-4d266c5d718f"},"vehicle_type_id":"4","last_reported":1745302525,"current_range_meters":18000,"station_id":"","pricing_plan_id":"cebpf4jnsgd1na2vs0mg"},{"bike_id":"27166011-9659-43f9-9d49-c158ddc3e57c","system_id":"levelo_inurba_marseille","lat":43.241709,"lon":5.397269,"is_reserved":false,"is_disabled":false,"rental_uris":{"android":"levelo://app?vid=27166011-9659-43f9-9d49-c158ddc3e57c","ios":"levelo://app?vid=27166011-9659-43f9-9d49-c158ddc3e57c"},"vehicle_type_id":"4","last_reported":1745302525,"current_range_meters":18000,"station_id":"ce4bhn12rcd13ifvqgpg","pricing_plan_id":"cebpf4jnsgd1na2vs0mg"},{"bike_id":"51c7250c-b46f-4406-bfd5-48ae2a6752e3","system_id":"levelo_inurba_marseille","lat":43.31487,"lon":5.37305,"is_reserved":false,"is_disabled":false,"rental_uris":{"android":"levelo://app?vid=51c7250c-b46f-4406-bfd5-48ae2a6752e3","ios":"levelo://app?vid=51c7250c-b46f-4406-bfd5-48ae2a6752e3"},"vehicle_type_id":"4","last_reported":1745302525,"current_range_meters":18800,"station_id":"ce4bgt12rcd13ifvqcd0","pricing_plan_id":"cebpf4jnsgd1na2vs0mg"},{"bike_id":"87820a20-2497-44ec-a9b3-af972a8d3953","system_id":"levelo_inurba_marseille","lat":43.2894,"lon":5.3664,"is_reserved":false,"is_disabled":false,"rental_uris":{"android":"levelo://app?vid=87820a20-2497-44ec-a9b3-af972a8d3953","ios":"levelo://app?vid=87820a20-2497-44ec-a9b3-af972a8d3953"},"vehicle_type_id":"4","last_reported":1745302525,"current_range_meters":18800,"station_id":"ce4bhap2rcd13ifvqek0","pricing_plan_id":"cebpf4jnsgd1na2vs0mg"},{"bike_id":"7b2dc864-a4e9-468c-9cee-f3075a20977d","system_id":"levelo_inurba_marseille","lat":43.31437,"lon":5.37385,"is_reserved":false,"is_disabled":false,"rental_uris":{"android":"levelo://app?vid=7b2dc864-a4e9-468c-9cee-f3075a20977d","ios":"levelo://app?vid=7b2dc864-a4e9-468c-9cee-f3075a20977d"},"vehicle_type_id":"4","last_reported":1745302525,"current_range_meters":18800,"station_id":"","pricing_plan_id":"cebpf4jnsgd1na2vs0mg"},{"bike_id":"1b903b38-38de-4714-9a2c-59836acfa168","system_id":"levelo_inurba_marseille","lat":43.3171,"lon":5.43704,"is_reserved":false,"is_disabled":true,"rental_uris":{"android":"levelo://app?vid=1b903b38-38de-4714-9a2c-59836acfa168","ios":"levelo://app?vid=1b903b38-38de-4714-9a2c-59836acfa168"},"vehicle_type_id":"4","last_reported":1745302525,"current_range_meters":18800,"station_id":"ce4bhp92rcd13ifvqhcg","pricing_plan_id":"cebpf4jnsgd1na2vs0mg"},{"bike_id":"67f01c70-85b7-41c8-a044-e22ed0c12017","system_id":"levelo_inurba_marseille","lat":43.24075,"lon":5.37758,"is_reserved":false,"is_disabled":false,"rental_uris":{"android":"levelo://app?vid=67f01c70-85b7-41c8-a044-e22ed0c12017","ios":"levelo://app?vid=67f01c70-85b7-41c8-a044-e22ed0c12017"},"vehicle_type_id":"4","last_reported":1745302525,"current_range_meters":19200,"station_id":"ce4bhnp2rcd13ifvqgvg","pricing_plan_id":"cebpf4jnsgd1na2vs0mg"},{"bike_id":"080497d0-a075-4355-8487-fd3a3c1df99b","system_id":"levelo_inurba_marseille","lat":43.337296,"lon":5.391889,"is_reserved":false,"is_disabled":false,"rental_uris":{"android":"levelo://app?vid=080497d0-a075-4355-8487-fd3a3c1df99b","ios":"levelo://app?vid=080497d0-a075-4355-8487-fd3a3c1df99b"},"vehicle_type_id":"4","last_reported":1745302525,"current_range_meters":19200,"station_id":"ce4bhr92rcd13ifvqhsg","pricing_plan_id":"cebpf4jnsgd1na2vs0mg"},{"bike_id":"5bde05e7-9c34-4bb8-b1b4-72876eb4fd51","system_id":"levelo_inurba_marseille","lat":43.27499,"lon":5.42458,"is_reserved":false,"is_disabled":false,"rental_uris":{"android":"levelo://app?vid=5bde05e7-9c34-4bb8-b1b4-72876eb4fd51","ios":"levelo://app?vid=5bde05e7-9c34-4bb8-b1b4-72876eb4fd51"},"vehicle_type_id":"4","last_reported":1745302525,"current_range_meters":19200,"station_id":"ce4bhn92rcd13ifvqgrg","pricing_plan_id":"cebpf4jnsgd1na2vs0mg"},{"bike_id":"17d94bf2-3173-4d6a-b6b6-abb922d18dbe","system_id":"levelo_inurba_marseille","lat":43.31729,"lon":5.39038,"is_reserved":false,"is_disabled":false,"rental_uris":{"android":"levelo://app?vid=17d94bf2-3173-4d6a-b6b6-abb922d18dbe","ios":"levelo://app?vid=17d94bf2-3173-4d6a-b6b6-abb922d18dbe"},"vehicle_type_id":"4","last_reported":1745302525,"current_range_meters":19200,"station_id":"ce4bhqp2rcd13ifvqhng","pricing_plan_id":"cebpf4jnsgd1na2vs0mg"},{"bike_id":"a88aa7fc-a35d-4d80-a12e-525174a7ded5","system_id":"levelo_inurba_marseille","lat":43.26204,"lon":5.37931,"is_reserved":false,"is_disabled":false,"rental_uris":{"android":"levelo://app?vid=a88aa7fc-a35d-4d80-a12e-525174a7ded5","ios":"levelo://app?vid=a88aa7fc-a35d-4d80-a12e-525174a7ded5"},"vehicle_type_id":"4","last_reported":1745302525,"current_range_meters":19600,"station_id":"ce4bhjp2rcd13ifvqg90","pricing_plan_id":"cebpf4jnsgd1na2vs0mg"},{"bike_id":"28f798a3-56f2-4fbf-b12d-c540c66dbab9","system_id":"levelo_inurba_marseille","lat":43.33762,"lon":5.37458,"is_reserved":false,"is_disabled":false,"rental_uris":{"android":"levelo://app?vid=28f798a3-56f2-4fbf-b12d-c540c66dbab9","ios":"levelo://app?vid=28f798a3-56f2-4fbf-b12d-c540c66dbab9"},"vehicle_type_id":"4","last_reported":1745302525,"current_range_meters":20000,"station_id":"","pricing_plan_id":"cebpf4jnsgd1na2vs0mg"},{"bike_id":"41256598-945a-4074-82f8-1ae4e9bcdf44","system_id":"levelo_inurba_marseille","lat":43.28567,"lon":5.39531,"is_reserved":false,"is_disabled":false,"rental_uris":{"android":"levelo://app?vid=41256598-945a-4074-82f8-1ae4e9bcdf44","ios":"levelo://app?vid=41256598-945a-4074-82f8-1ae4e9bcdf44"},"vehicle_type_id":"4","last_reported":1745302525,"current_range_meters":20000,"station_id":"ce4bh292rcd13ifvqdg0","pricing_plan_id":"cebpf4jnsgd1na2vs0mg"},{"bike_id":"2b59a03b-8bdf-4a5c-a1d2-9dea24219ead","system_id":"levelo_inurba_marseille","lat":43.25934,"lon":5.40916,"is_reserved":false,"is_disabled":false,"rental_uris":{"android":"levelo://app?vid=2b59a03b-8bdf-4a5c-a1d2-9dea24219ead","ios":"levelo://app?vid=2b59a03b-8bdf-4a5c-a1d2-9dea24219ead"},"vehicle_type_id":"4","last_reported":1745302525,"current_range_meters":20000,"station_id":"ce4bhm92rcd13ifvqglg","pricing_plan_id":"cebpf4jnsgd1na2vs0mg"},{"bike_id":"3b823fab-22a8-4c02-9ac2-9d77227daa1a","system_id":"levelo_inurba_marseille","lat":43.25945,"lon":5.40897,"is_reserved":false,"is_disabled":false,"rental_uris":{"android":"levelo://app?vid=3b823fab-22a8-4c02-9ac2-9d77227daa1a","ios":"levelo://app?vid=3b823fab-22a8-4c02-9ac2-9d77227daa1a"},"vehicle_type_id":"4","last_reported":1745302525,"current_range_meters":20000,"station_id":"ce4bhm92rcd13ifvqglg","pricing_plan_id":"cebpf4jnsgd1na2vs0mg"},{"bike_id":"6aa69d2b-4682-4815-ad60-72d3b8bb6a3a","system_id":"levelo_inurba_marseille","lat":43.33032,"lon":5.39035,"is_reserved":false,"is_disabled":false,"rental_uris":{"android":"levelo://app?vid=6aa69d2b-4682-4815-ad60-72d3b8bb6a3a","ios":"levelo://app?vid=6aa69d2b-4682-4815-ad60-72d3b8bb6a3a"},"vehicle_type_id":"4","last_reported":1745302525,"current_range_meters":19600,"station_id":"ce4bhr92rcd13ifvqhrg","pricing_plan_id":"cebpf4jnsgd1na2vs0mg"},{"bike_id":"1b7a8bfb-c292-4b8c-9b9a-6f723c7d2347","system_id":"levelo_inurba_marseille","lat":43.27497,"lon":5.42459,"is_reserved":false,"is_disabled":false,"rental_uris":{"android":"levelo://app?vid=1b7a8bfb-c292-4b8c-9b9a-6f723c7d2347","ios":"levelo://app?vid=1b7a8bfb-c292-4b8c-9b9a-6f723c7d2347"},"vehicle_type_id":"4","last_reported":1745302525,"current_range_meters":20400,"station_id":"ce4bhn92rcd13ifvqgrg","pricing_plan_id":"cebpf4jnsgd1na2vs0mg"},{"bike_id":"a5c9e118-7af8-45aa-a0d5-0d66706936a4","system_id":"levelo_inurba_marseille","lat":43.31333,"lon":5.36724,"is_reserved":false,"is_disabled":false,"rental_uris":{"android":"levelo://app?vid=a5c9e118-7af8-45aa-a0d5-0d66706936a4","ios":"levelo://app?vid=a5c9e118-7af8-45aa-a0d5-0d66706936a4"},"vehicle_type_id":"4","last_reported":1745302525,"current_range_meters":20400,"station_id":"ce4bgr92rcd13ifvqc6g","pricing_plan_id":"cebpf4jnsgd1na2vs0mg"},{"bike_id":"19bd6481-e42b-4f2f-8596-4963547c74ad","system_id":"levelo_inurba_marseille","lat":43.31493,"lon":5.37319,"is_reserved":false,"is_disabled":false,"rental_uris":{"android":"levelo://app?vid=19bd6481-e42b-4f2f-8596-4963547c74ad","ios":"levelo://app?vid=19bd6481-e42b-4f2f-8596-4963547c74ad"},"vehicle_type_id":"4","last_reported":1745302525,"current_range_meters":20400,"station_id":"ce4bgt12rcd13ifvqcd0","pricing_plan_id":"cebpf4jnsgd1na2vs0mg"},{"bike_id":"75400e05-e26d-4767-833b-29124dc8f1b8","system_id":"levelo_inurba_marseille","lat":43.27496,"lon":5.42452,"is_reserved":false,"is_disabled":false,"rental_uris":{"android":"levelo://app?vid=75400e05-e26d-4767-833b-29124dc8f1b8","ios":"levelo://app?vid=75400e05-e26d-4767-833b-29124dc8f1b8"},"vehicle_type_id":"4","last_reported":1745302525,"current_range_meters":20400,"station_id":"ce4bhn92rcd13ifvqgrg","pricing_plan_id":"cebpf4jnsgd1na2vs0mg"},{"bike_id":"49fef2f9-48cd-4050-8256-e647f4c04c8a","system_id":"levelo_inurba_marseille","lat":43.24175,"lon":5.39729,"is_reserved":false,"is_disabled":false,"rental_uris":{"android":"levelo://app?vid=49fef2f9-48cd-4050-8256-e647f4c04c8a","ios":"levelo://app?vid=49fef2f9-48cd-4050-8256-e647f4c04c8a"},"vehicle_type_id":"4","last_reported":1745302525,"current_range_meters":20400,"station_id":"ce4bhn12rcd13ifvqgpg","pricing_plan_id":"cebpf4jnsgd1na2vs0mg"},{"bike_id":"fc5fa76e-3be5-4df9-8c7d-269c9317919e","system_id":"levelo_inurba_marseille","lat":43.28736,"lon":5.40024,"is_reserved":false,"is_disabled":false,"rental_uris":{"android":"levelo://app?vid=fc5fa76e-3be5-4df9-8c7d-269c9317919e","ios":"levelo://app?vid=fc5fa76e-3be5-4df9-8c7d-269c9317919e"},"vehicle_type_id":"4","last_reported":1745302525,"current_range_meters":20400,"station_id":"ce4bho92rcd13ifvqh3g","pricing_plan_id":"cebpf4jnsgd1na2vs0mg"},{"bike_id":"a8bed639-bdba-43e1-a9d4-bb1ab8d31923","system_id":"levelo_inurba_marseille","lat":43.29603,"lon":5.38108,"is_reserved":false,"is_disabled":false,"rental_uris":{"android":"levelo://app?vid=a8bed639-bdba-43e1-a9d4-bb1ab8d31923","ios":"levelo://app?vid=a8bed639-bdba-43e1-a9d4-bb1ab8d31923"},"vehicle_type_id":"4","last_reported":1745302525,"current_range_meters":20400,"station_id":"ce4bgl12rcd13ifvqbo0","pricing_plan_id":"cebpf4jnsgd1na2vs0mg"},{"bike_id":"df6f975b-56dd-4cc9-9aa4-09571c9618d7","system_id":"levelo_inurba_marseille","lat":43.28429,"lon":5.39206,"is_reserved":false,"is_disabled":false,"rental_uris":{"android":"levelo://app?vid=df6f975b-56dd-4cc9-9aa4-09571c9618d7","ios":"levelo://app?vid=df6f975b-56dd-4cc9-9aa4-09571c9618d7"},"vehicle_type_id":"4","last_reported":1745302525,"current_range_meters":20000,"station_id":"ce4bhoh2rcd13ifvqh5g","pricing_plan_id":"cebpf4jnsgd1na2vs0mg"},{"bike_id":"76d40eb5-b35d-4ff8-ac59-9cd0ecbe22d3","system_id":"levelo_inurba_marseille","lat":43.2894,"lon":5.39631,"is_reserved":false,"is_disabled":false,"rental_uris":{"android":"levelo://app?vid=76d40eb5-b35d-4ff8-ac59-9cd0ecbe22d3","ios":"levelo://app?vid=76d40eb5-b35d-4ff8-ac59-9cd0ecbe22d3"},"vehicle_type_id":"4","last_reported":1745302525,"current_range_meters":20800,"station_id":"ce4bh3h2rcd13ifvqdn0","pricing_plan_id":"cebpf4jnsgd1na2vs0mg"},{"bike_id":"c7496bea-ea46-43bb-891f-81f57b78b3ec","system_id":"levelo_inurba_marseille","lat":43.2894,"lon":5.36642,"is_reserved":false,"is_disabled":false,"rental_uris":{"android":"levelo://app?vid=c7496bea-ea46-43bb-891f-81f57b78b3ec","ios":"levelo://app?vid=c7496bea-ea46-43bb-891f-81f57b78b3ec"},"vehicle_type_id":"4","last_reported":1745302525,"current_range_meters":20400,"station_id":"ce4bhap2rcd13ifvqek0","pricing_plan_id":"cebpf4jnsgd1na2vs0mg"},{"bike_id":"fa178b44-2b63-4063-8b21-2f4f37167119","system_id":"levelo_inurba_marseille","lat":43.29161,"lon":5.37167,"is_reserved":false,"is_disabled":false,"rental_uris":{"android":"levelo://app?vid=fa178b44-2b63-4063-8b21-2f4f37167119","ios":"levelo://app?vid=fa178b44-2b63-4063-8b21-2f4f37167119"},"vehicle_type_id":"4","last_reported":1745302525,"current_range_meters":20400,"station_id":"ce4bha92rcd13ifvqeh0","pricing_plan_id":"cebpf4jnsgd1na2vs0mg"},{"bike_id":"6ae7da77-57a6-44f1-8c23-663eb26e4106","system_id":"levelo_inurba_marseille","lat":43.28938,"lon":5.364,"is_reserved":false,"is_disabled":false,"rental_uris":{"android":"levelo://app?vid=6ae7da77-57a6-44f1-8c23-663eb26e4106","ios":"levelo://app?vid=6ae7da77-57a6-44f1-8c23-663eb26e4106"},"vehicle_type_id":"4","last_reported":1745302525,"current_range_meters":20800,"station_id":"ce4bhc92rcd13ifvqetg","pricing_plan_id":"cebpf4jnsgd1na2vs0mg"},{"bike_id":"3bec1111-b5a8-4171-8be6-35f6f563769d","system_id":"levelo_inurba_marseille","lat":43.28504,"lon":5.38538,"is_reserved":false,"is_disabled":false,"rental_uris":{"android":"levelo://app?vid=3bec1111-b5a8-4171-8be6-35f6f563769d","ios":"levelo://app?vid=3bec1111-b5a8-4171-8be6-35f6f563769d"},"vehicle_type_id":"4","last_reported":1745302525,"current_range_meters":20400,"station_id":"ce4bh8p2rcd13ifvqeb0","pricing_plan_id":"cebpf4jnsgd1na2vs0mg"},{"bike_id":"3929e8e0-9107-4996-b797-3fa91659b2ca","system_id":"levelo_inurba_marseille","lat":43.30471,"lon":5.37921,"is_reserved":false,"is_disabled":false,"rental_uris":{"android":"levelo://app?vid=3929e8e0-9107-4996-b797-3fa91659b2ca","ios":"levelo://app?vid=3929e8e0-9107-4996-b797-3fa91659b2ca"},"vehicle_type_id":"4","last_reported":1745302525,"current_range_meters":20400,"station_id":"ce4bgup2rcd13ifvqcn0","pricing_plan_id":"cebpf4jnsgd1na2vs0mg"},{"bike_id":"43f69d8d-df5e-425e-b41d-bcc37ca62603","system_id":"levelo_inurba_marseille","lat":43.27474,"lon":5.4247,"is_reserved":false,"is_disabled":true,"rental_uris":{"android":"levelo://app?vid=43f69d8d-df5e-425e-b41d-bcc37ca62603","ios":"levelo://app?vid=43f69d8d-df5e-425e-b41d-bcc37ca62603"},"vehicle_type_id":"4","last_reported":1745302525,"current_range_meters":20800,"station_id":"ce4bhn92rcd13ifvqgrg","pricing_plan_id":"cebpf4jnsgd1na2vs0mg"},{"bike_id":"cb96f92b-c3ad-4778-8436-49f574005f88","system_id":"levelo_inurba_marseille","lat":43.2749,"lon":5.42451,"is_reserved":false,"is_disabled":false,"rental_uris":{"android":"levelo://app?vid=cb96f92b-c3ad-4778-8436-49f574005f88","ios":"levelo://app?vid=cb96f92b-c3ad-4778-8436-49f574005f88"},"vehicle_type_id":"4","last_reported":1745302525,"current_range_meters":20400,"station_id":"ce4bhn92rcd13ifvqgrg","pricing_plan_id":"cebpf4jnsgd1na2vs0mg"},{"bike_id":"6382d094-23f2-4d1e-9fc5-0b03894a7c4d","system_id":"levelo_inurba_marseille","lat":43.30417,"lon":5.397404,"is_reserved":false,"is_disabled":true,"rental_uris":{"android":"levelo://app?vid=6382d094-23f2-4d1e-9fc5-0b03894a7c4d","ios":"levelo://app?vid=6382d094-23f2-4d1e-9fc5-0b03894a7c4d"},"vehicle_type_id":"4","last_reported":1745302525,"current_range_meters":20800,"station_id":"ce4bh092rcd13ifvqd20","pricing_plan_id":"cebpf4jnsgd1na2vs0mg"},{"bike_id":"a8ec3378-218a-4737-a67d-83b02d8536a3","system_id":"levelo_inurba_marseille","lat":43.301465,"lon":5.380303,"is_reserved":false,"is_disabled":false,"rental_uris":{"android":"levelo://app?vid=a8ec3378-218a-4737-a67d-83b02d8536a3","ios":"levelo://app?vid=a8ec3378-218a-4737-a67d-83b02d8536a3"},"vehicle_type_id":"4","last_reported":1745302525,"current_range_meters":20800,"station_id":"ce4bgup2rcd13ifvqcn0","pricing_plan_id":"cebpf4jnsgd1na2vs0mg"},{"bike_id":"74f8a141-9d34-4dce-9416-bcc73538203a","system_id":"levelo_inurba_marseille","lat":43.32476,"lon":5.3657,"is_reserved":false,"is_disabled":false,"rental_uris":{"android":"levelo://app?vid=74f8a141-9d34-4dce-9416-bcc73538203a","ios":"levelo://app?vid=74f8a141-9d34-4dce-9416-bcc73538203a"},"vehicle_type_id":"4","last_reported":1745302525,"current_range_meters":20800,"station_id":"ce4bhs12rcd13ifvqhvg","pricing_plan_id":"cebpf4jnsgd1na2vs0mg"},{"bike_id":"20ede925-27e6-407f-8bf5-4c244f8341b4","system_id":"levelo_inurba_marseille","lat":43.24164,"lon":5.36404,"is_reserved":false,"is_disabled":false,"rental_uris":{"android":"levelo://app?vid=20ede925-27e6-407f-8bf5-4c244f8341b4","ios":"levelo://app?vid=20ede925-27e6-407f-8bf5-4c244f8341b4"},"vehicle_type_id":"4","last_reported":1745302525,"current_range_meters":21600,"station_id":"cpo36qri1sfpv3e86is0","pricing_plan_id":"cebpf4jnsgd1na2vs0mg"},{"bike_id":"2e7cf516-47df-4afe-99c9-efd4b4bbc142","system_id":"levelo_inurba_marseille","lat":43.28039,"lon":5.36954,"is_reserved":false,"is_disabled":false,"rental_uris":{"android":"levelo://app?vid=2e7cf516-47df-4afe-99c9-efd4b4bbc142","ios":"levelo://app?vid=2e7cf516-47df-4afe-99c9-efd4b4bbc142"},"vehicle_type_id":"4","last_reported":1745302525,"current_range_meters":21600,"station_id":"ce4bha12rcd13ifvqef0","pricing_plan_id":"cebpf4jnsgd1na2vs0mg"},{"bike_id":"02585b75-d22d-4472-9e8a-fb880d2a35b6","system_id":"levelo_inurba_marseille","lat":43.26202,"lon":5.3794,"is_reserved":false,"is_disabled":false,"rental_uris":{"android":"levelo://app?vid=02585b75-d22d-4472-9e8a-fb880d2a35b6","ios":"levelo://app?vid=02585b75-d22d-4472-9e8a-fb880d2a35b6"},"vehicle_type_id":"4","last_reported":1745302525,"current_range_meters":21600,"station_id":"ce4bhjp2rcd13ifvqg90","pricing_plan_id":"cebpf4jnsgd1na2vs0mg"},{"bike_id":"54d81682-c140-4760-8ff0-12ada7f5faf1","system_id":"levelo_inurba_marseille","lat":43.31381,"lon":5.36742,"is_reserved":false,"is_disabled":false,"rental_uris":{"android":"levelo://app?vid=54d81682-c140-4760-8ff0-12ada7f5faf1","ios":"levelo://app?vid=54d81682-c140-4760-8ff0-12ada7f5faf1"},"vehicle_type_id":"4","last_reported":1745302525,"current_range_meters":21600,"station_id":"","pricing_plan_id":"cebpf4jnsgd1na2vs0mg"},{"bike_id":"6ff4c4d3-2b86-4bd3-b0bf-09708336fdf3","system_id":"levelo_inurba_marseille","lat":43.303982,"lon":5.386405,"is_reserved":false,"is_disabled":false,"rental_uris":{"android":"levelo://app?vid=6ff4c4d3-2b86-4bd3-b0bf-09708336fdf3","ios":"levelo://app?vid=6ff4c4d3-2b86-4bd3-b0bf-09708336fdf3"},"vehicle_type_id":"4","last_reported":1745302525,"current_range_meters":22000,"station_id":"ce4bh0p2rcd13ifvqd80","pricing_plan_id":"cebpf4jnsgd1na2vs0mg"},{"bike_id":"46374c49-3adc-4c5a-8966-e00f056c0d57","system_id":"levelo_inurba_marseille","lat":43.27846,"lon":5.35442,"is_reserved":false,"is_disabled":false,"rental_uris":{"android":"levelo://app?vid=46374c49-3adc-4c5a-8966-e00f056c0d57","ios":"levelo://app?vid=46374c49-3adc-4c5a-8966-e00f056c0d57"},"vehicle_type_id":"4","last_reported":1745302525,"current_range_meters":22000,"station_id":"","pricing_plan_id":"cebpf4jnsgd1na2vs0mg"},{"bike_id":"cf3e4d8d-be55-43a1-95cd-a2e1272dd0d6","system_id":"levelo_inurba_marseille","lat":43.25935,"lon":5.40913,"is_reserved":false,"is_disabled":false,"rental_uris":{"android":"levelo://app?vid=cf3e4d8d-be55-43a1-95cd-a2e1272dd0d6","ios":"levelo://app?vid=cf3e4d8d-be55-43a1-95cd-a2e1272dd0d6"},"vehicle_type_id":"4","last_reported":1745302525,"current_range_meters":22000,"station_id":"ce4bhm92rcd13ifvqglg","pricing_plan_id":"cebpf4jnsgd1na2vs0mg"},{"bike_id":"d885b95d-38fc-419a-951b-f131916836cd","system_id":"levelo_inurba_marseille","lat":43.290382,"lon":5.399507,"is_reserved":false,"is_disabled":false,"rental_uris":{"android":"levelo://app?vid=d885b95d-38fc-419a-951b-f131916836cd","ios":"levelo://app?vid=d885b95d-38fc-419a-951b-f131916836cd"},"vehicle_type_id":"4","last_reported":1745302525,"current_range_meters":22000,"station_id":"ce4bh392rcd13ifvqdm0","pricing_plan_id":"cebpf4jnsgd1na2vs0mg"},{"bike_id":"e7a535f8-ed78-40de-8cdc-f8a1d2d90b31","system_id":"levelo_inurba_marseille","lat":43.24818,"lon":5.37459,"is_reserved":false,"is_disabled":true,"rental_uris":{"android":"levelo://app?vid=e7a535f8-ed78-40de-8cdc-f8a1d2d90b31","ios":"levelo://app?vid=e7a535f8-ed78-40de-8cdc-f8a1d2d90b31"},"vehicle_type_id":"4","last_reported":1745302525,"current_range_meters":22000,"station_id":"ce4bhgh2rcd13ifvqfb0","pricing_plan_id":"cebpf4jnsgd1na2vs0mg"},{"bike_id":"5d6ce0cf-9f03-41a4-849f-504bf29dfe65","system_id":"levelo_inurba_marseille","lat":43.2175,"lon":5.34604,"is_reserved":false,"is_disabled":false,"rental_uris":{"android":"levelo://app?vid=5d6ce0cf-9f03-41a4-849f-504bf29dfe65","ios":"levelo://app?vid=5d6ce0cf-9f03-41a4-849f-504bf29dfe65"},"vehicle_type_id":"4","last_reported":1745302525,"current_range_meters":22000,"station_id":"st_cvj6r9ubvosntc0bgbag","pricing_plan_id":"cebpf4jnsgd1na2vs0mg"},{"bike_id":"20861964-1df6-4ede-aad5-13ac5882130b","system_id":"levelo_inurba_marseille","lat":43.28742,"lon":5.37939,"is_reserved":false,"is_disabled":false,"rental_uris":{"android":"levelo://app?vid=20861964-1df6-4ede-aad5-13ac5882130b","ios":"levelo://app?vid=20861964-1df6-4ede-aad5-13ac5882130b"},"vehicle_type_id":"4","last_reported":1745302525,"current_range_meters":22400,"station_id":"ce4bh9p2rcd13ifvqec0","pricing_plan_id":"cebpf4jnsgd1na2vs0mg"},{"bike_id":"b5d609bf-0c9b-49e3-9426-ce02cb8383b8","system_id":"levelo_inurba_marseille","lat":43.34142,"lon":5.40911,"is_reserved":false,"is_disabled":true,"rental_uris":{"android":"levelo://app?vid=b5d609bf-0c9b-49e3-9426-ce02cb8383b8","ios":"levelo://app?vid=b5d609bf-0c9b-49e3-9426-ce02cb8383b8"},"vehicle_type_id":"4","last_reported":1745302525,"current_range_meters":22400,"station_id":"ce4bhqh2rcd13ifvqhlg","pricing_plan_id":"cebpf4jnsgd1na2vs0mg"},{"bike_id":"34ff71ea-1bd4-4a6d-8222-f777a3ecb5a5","system_id":"levelo_inurba_marseille","lat":43.28146,"lon":5.42642,"is_reserved":false,"is_disabled":false,"rental_uris":{"android":"levelo://app?vid=34ff71ea-1bd4-4a6d-8222-f777a3ecb5a5","ios":"levelo://app?vid=34ff71ea-1bd4-4a6d-8222-f777a3ecb5a5"},"vehicle_type_id":"4","last_reported":1745302525,"current_range_meters":22400,"station_id":"ce4bhnh2rcd13ifvqgug","pricing_plan_id":"cebpf4jnsgd1na2vs0mg"},{"bike_id":"d9d975bc-1861-4214-b6db-271166d025a2","system_id":"levelo_inurba_marseille","lat":43.31497,"lon":5.37295,"is_reserved":false,"is_disabled":false,"rental_uris":{"android":"levelo://app?vid=d9d975bc-1861-4214-b6db-271166d025a2","ios":"levelo://app?vid=d9d975bc-1861-4214-b6db-271166d025a2"},"vehicle_type_id":"4","last_reported":1745302525,"current_range_meters":22400,"station_id":"ce4bgt12rcd13ifvqcd0","pricing_plan_id":"cebpf4jnsgd1na2vs0mg"},{"bike_id":"9181a354-49fa-45e3-b5c1-b7dca6746d38","system_id":"levelo_inurba_marseille","lat":43.2593,"lon":5.40904,"is_reserved":false,"is_disabled":false,"rental_uris":{"android":"levelo://app?vid=9181a354-49fa-45e3-b5c1-b7dca6746d38","ios":"levelo://app?vid=9181a354-49fa-45e3-b5c1-b7dca6746d38"},"vehicle_type_id":"4","last_reported":1745302525,"current_range_meters":22400,"station_id":"ce4bhm92rcd13ifvqglg","pricing_plan_id":"cebpf4jnsgd1na2vs0mg"},{"bike_id":"7828d2f7-2b69-46dc-b7e8-3fde48296772","system_id":"levelo_inurba_marseille","lat":43.24066,"lon":5.37779,"is_reserved":false,"is_disabled":false,"rental_uris":{"android":"levelo://app?vid=7828d2f7-2b69-46dc-b7e8-3fde48296772","ios":"levelo://app?vid=7828d2f7-2b69-46dc-b7e8-3fde48296772"},"vehicle_type_id":"4","last_reported":1745302525,"current_range_meters":22000,"station_id":"ce4bhnp2rcd13ifvqgvg","pricing_plan_id":"cebpf4jnsgd1na2vs0mg"},{"bike_id":"6013693d-c8c0-4b6b-94ab-31ea0c9d9a1f","system_id":"levelo_inurba_marseille","lat":43.27559,"lon":5.38449,"is_reserved":false,"is_disabled":false,"rental_uris":{"android":"levelo://app?vid=6013693d-c8c0-4b6b-94ab-31ea0c9d9a1f","ios":"levelo://app?vid=6013693d-c8c0-4b6b-94ab-31ea0c9d9a1f"},"vehicle_type_id":"4","last_reported":1745302525,"current_range_meters":22400,"station_id":"ce4bhh92rcd13ifvqfi0","pricing_plan_id":"cebpf4jnsgd1na2vs0mg"},{"bike_id":"7a371db2-d87b-41f8-bc0b-b102112cf643","system_id":"levelo_inurba_marseille","lat":43.30475,"lon":5.37922,"is_reserved":false,"is_disabled":false,"rental_uris":{"android":"levelo://app?vid=7a371db2-d87b-41f8-bc0b-b102112cf643","ios":"levelo://app?vid=7a371db2-d87b-41f8-bc0b-b102112cf643"},"vehicle_type_id":"4","last_reported":1745302525,"current_range_meters":22400,"station_id":"ce4bgup2rcd13ifvqcn0","pricing_plan_id":"cebpf4jnsgd1na2vs0mg"},{"bike_id":"be2d3eda-bd6d-49f5-8a21-f60b412449da","system_id":"levelo_inurba_marseille","lat":43.26245,"lon":5.38779,"is_reserved":false,"is_disabled":false,"rental_uris":{"android":"levelo://app?vid=be2d3eda-bd6d-49f5-8a21-f60b412449da","ios":"levelo://app?vid=be2d3eda-bd6d-49f5-8a21-f60b412449da"},"vehicle_type_id":"4","last_reported":1745302525,"current_range_meters":22400,"station_id":"","pricing_plan_id":"cebpf4jnsgd1na2vs0mg"},{"bike_id":"4627cbd2-03d5-4ba6-9ec6-cac05d2a9afa","system_id":"levelo_inurba_marseille","lat":43.274987,"lon":5.424623,"is_reserved":false,"is_disabled":false,"rental_uris":{"android":"levelo://app?vid=4627cbd2-03d5-4ba6-9ec6-cac05d2a9afa","ios":"levelo://app?vid=4627cbd2-03d5-4ba6-9ec6-cac05d2a9afa"},"vehicle_type_id":"4","last_reported":1745302525,"current_range_meters":22400,"station_id":"ce4bhn92rcd13ifvqgrg","pricing_plan_id":"cebpf4jnsgd1na2vs0mg"},{"bike_id":"6dae202a-2029-4a50-938e-41697b9a35c6","system_id":"levelo_inurba_marseille","lat":43.28716,"lon":5.40077,"is_reserved":false,"is_disabled":false,"rental_uris":{"android":"levelo://app?vid=6dae202a-2029-4a50-938e-41697b9a35c6","ios":"levelo://app?vid=6dae202a-2029-4a50-938e-41697b9a35c6"},"vehicle_type_id":"4","last_reported":1745302525,"current_range_meters":22400,"station_id":"","pricing_plan_id":"cebpf4jnsgd1na2vs0mg"},{"bike_id":"72230011-10be-4bc5-b812-e255d2e856f3","system_id":"levelo_inurba_marseille","lat":43.27369,"lon":5.36255,"is_reserved":false,"is_disabled":false,"rental_uris":{"android":"levelo://app?vid=72230011-10be-4bc5-b812-e255d2e856f3","ios":"levelo://app?vid=72230011-10be-4bc5-b812-e255d2e856f3"},"vehicle_type_id":"4","last_reported":1745302525,"current_range_meters":22800,"station_id":"","pricing_plan_id":"cebpf4jnsgd1na2vs0mg"},{"bike_id":"e8f37e9c-826e-49d9-8ec3-91ff15cfadf9","system_id":"levelo_inurba_marseille","lat":43.298362,"lon":5.36272,"is_reserved":false,"is_disabled":false,"rental_uris":{"android":"levelo://app?vid=e8f37e9c-826e-49d9-8ec3-91ff15cfadf9","ios":"levelo://app?vid=e8f37e9c-826e-49d9-8ec3-91ff15cfadf9"},"vehicle_type_id":"4","last_reported":1745302525,"current_range_meters":22800,"station_id":"","pricing_plan_id":"cebpf4jnsgd1na2vs0mg"},{"bike_id":"3c8f6f6c-3abf-4d3c-b8cd-dea2ca7e6134","system_id":"levelo_inurba_marseille","lat":43.31263,"lon":5.36858,"is_reserved":false,"is_disabled":true,"rental_uris":{"android":"levelo://app?vid=3c8f6f6c-3abf-4d3c-b8cd-dea2ca7e6134","ios":"levelo://app?vid=3c8f6f6c-3abf-4d3c-b8cd-dea2ca7e6134"},"vehicle_type_id":"4","last_reported":1745302525,"current_range_meters":22800,"station_id":"ce4bgl92rcd13ifvqbq0","pricing_plan_id":"cebpf4jnsgd1na2vs0mg"},{"bike_id":"9b2d17db-c765-4254-83fd-a875727a39ec","system_id":"levelo_inurba_marseille","lat":43.265478,"lon":5.373011,"is_reserved":false,"is_disabled":true,"rental_uris":{"android":"levelo://app?vid=9b2d17db-c765-4254-83fd-a875727a39ec","ios":"levelo://app?vid=9b2d17db-c765-4254-83fd-a875727a39ec"},"vehicle_type_id":"4","last_reported":1745302525,"current_range_meters":23200,"station_id":"ce4bhg12rcd13ifvqf70","pricing_plan_id":"cebpf4jnsgd1na2vs0mg"},{"bike_id":"1bf492b2-ee03-417f-9193-e022b984f566","system_id":"levelo_inurba_marseille","lat":43.2593,"lon":5.40912,"is_reserved":false,"is_disabled":false,"rental_uris":{"android":"levelo://app?vid=1bf492b2-ee03-417f-9193-e022b984f566","ios":"levelo://app?vid=1bf492b2-ee03-417f-9193-e022b984f566"},"vehicle_type_id":"4","last_reported":1745302525,"current_range_meters":23200,"station_id":"ce4bhm92rcd13ifvqglg","pricing_plan_id":"cebpf4jnsgd1na2vs0mg"},{"bike_id":"017460f9-a472-4509-9a04-109166f36ab2","system_id":"levelo_inurba_marseille","lat":43.31013,"lon":5.37539,"is_reserved":false,"is_disabled":false,"rental_uris":{"android":"levelo://app?vid=017460f9-a472-4509-9a04-109166f36ab2","ios":"levelo://app?vid=017460f9-a472-4509-9a04-109166f36ab2"},"vehicle_type_id":"4","last_reported":1745302525,"current_range_meters":23200,"station_id":"ce4bguh2rcd13ifvqckg","pricing_plan_id":"cebpf4jnsgd1na2vs0mg"},{"bike_id":"3f48969d-94cc-4202-b1f3-9d97f90b742b","system_id":"levelo_inurba_marseille","lat":43.27893,"lon":5.38777,"is_reserved":false,"is_disabled":false,"rental_uris":{"android":"levelo://app?vid=3f48969d-94cc-4202-b1f3-9d97f90b742b","ios":"levelo://app?vid=3f48969d-94cc-4202-b1f3-9d97f90b742b"},"vehicle_type_id":"4","last_reported":1745302525,"current_range_meters":23200,"station_id":"","pricing_plan_id":"cebpf4jnsgd1na2vs0mg"},{"bike_id":"2370333b-43b4-4edd-a24d-b8d3eac6d27f","system_id":"levelo_inurba_marseille","lat":43.25933,"lon":5.40908,"is_reserved":false,"is_disabled":false,"rental_uris":{"android":"levelo://app?vid=2370333b-43b4-4edd-a24d-b8d3eac6d27f","ios":"levelo://app?vid=2370333b-43b4-4edd-a24d-b8d3eac6d27f"},"vehicle_type_id":"4","last_reported":1745302525,"current_range_meters":23200,"station_id":"ce4bhm92rcd13ifvqglg","pricing_plan_id":"cebpf4jnsgd1na2vs0mg"},{"bike_id":"36c078e8-06ee-4b6f-a720-e2b8d5b2efaf","system_id":"levelo_inurba_marseille","lat":43.29281,"lon":5.36844,"is_reserved":false,"is_disabled":true,"rental_uris":{"android":"levelo://app?vid=36c078e8-06ee-4b6f-a720-e2b8d5b2efaf","ios":"levelo://app?vid=36c078e8-06ee-4b6f-a720-e2b8d5b2efaf"},"vehicle_type_id":"4","last_reported":1745302525,"current_range_meters":23200,"station_id":"ce4bhbp2rcd13ifvqesg","pricing_plan_id":"cebpf4jnsgd1na2vs0mg"},{"bike_id":"87b76a0f-9e13-49b7-9919-2a8ad54a406f","system_id":"levelo_inurba_marseille","lat":43.308813,"lon":5.396368,"is_reserved":false,"is_disabled":false,"rental_uris":{"android":"levelo://app?vid=87b76a0f-9e13-49b7-9919-2a8ad54a406f","ios":"levelo://app?vid=87b76a0f-9e13-49b7-9919-2a8ad54a406f"},"vehicle_type_id":"4","last_reported":1745302525,"current_range_meters":23200,"station_id":"ce4bh012rcd13ifvqcv0","pricing_plan_id":"cebpf4jnsgd1na2vs0mg"},{"bike_id":"a514e6c9-b671-4d52-bcd4-b475aedecdcf","system_id":"levelo_inurba_marseille","lat":43.27188,"lon":5.39225,"is_reserved":false,"is_disabled":true,"rental_uris":{"android":"levelo://app?vid=a514e6c9-b671-4d52-bcd4-b475aedecdcf","ios":"levelo://app?vid=a514e6c9-b671-4d52-bcd4-b475aedecdcf"},"vehicle_type_id":"4","last_reported":1745302525,"current_range_meters":24000,"station_id":"ce4bhhp2rcd13ifvqfm0","pricing_plan_id":"cebpf4jnsgd1na2vs0mg"},{"bike_id":"192d51cc-116a-4926-aa4a-e1515bcb8248","system_id":"levelo_inurba_marseille","lat":43.29968,"lon":5.38519,"is_reserved":false,"is_disabled":true,"rental_uris":{"android":"levelo://app?vid=192d51cc-116a-4926-aa4a-e1515bcb8248","ios":"levelo://app?vid=192d51cc-116a-4926-aa4a-e1515bcb8248"},"vehicle_type_id":"4","last_reported":1745302525,"current_range_meters":24000,"station_id":"ce4bgj92rcd13ifvqbd0","pricing_plan_id":"cebpf4jnsgd1na2vs0mg"},{"bike_id":"ba935142-23ad-4cc7-8d24-c85e802e1847","system_id":"levelo_inurba_marseille","lat":43.30596,"lon":5.3936,"is_reserved":false,"is_disabled":false,"rental_uris":{"android":"levelo://app?vid=ba935142-23ad-4cc7-8d24-c85e802e1847","ios":"levelo://app?vid=ba935142-23ad-4cc7-8d24-c85e802e1847"},"vehicle_type_id":"4","last_reported":1745302525,"current_range_meters":24000,"station_id":"ce4bh0p2rcd13ifvqd80","pricing_plan_id":"cebpf4jnsgd1na2vs0mg"},{"bike_id":"d7ce9eda-b8c1-4cfc-a14a-ea4b6b2fc45b","system_id":"levelo_inurba_marseille","lat":43.3053,"lon":5.36553,"is_reserved":false,"is_disabled":false,"rental_uris":{"android":"levelo://app?vid=d7ce9eda-b8c1-4cfc-a14a-ea4b6b2fc45b","ios":"levelo://app?vid=d7ce9eda-b8c1-4cfc-a14a-ea4b6b2fc45b"},"vehicle_type_id":"4","last_reported":1745302525,"current_range_meters":24000,"station_id":"ce4bgs12rcd13ifvqcag","pricing_plan_id":"cebpf4jnsgd1na2vs0mg"},{"bike_id":"3954905a-a959-4b43-9f49-7c7d34d28beb","system_id":"levelo_inurba_marseille","lat":43.30596,"lon":5.39352,"is_reserved":false,"is_disabled":false,"rental_uris":{"android":"levelo://app?vid=3954905a-a959-4b43-9f49-7c7d34d28beb","ios":"levelo://app?vid=3954905a-a959-4b43-9f49-7c7d34d28beb"},"vehicle_type_id":"4","last_reported":1745302525,"current_range_meters":24000,"station_id":"ce4bh0p2rcd13ifvqd80","pricing_plan_id":"cebpf4jnsgd1na2vs0mg"},{"bike_id":"0634d18a-fd7f-4582-ae9e-6eb315168adc","system_id":"levelo_inurba_marseille","lat":43.28961,"lon":5.39625,"is_reserved":false,"is_disabled":false,"rental_uris":{"android":"levelo://app?vid=0634d18a-fd7f-4582-ae9e-6eb315168adc","ios":"levelo://app?vid=0634d18a-fd7f-4582-ae9e-6eb315168adc"},"vehicle_type_id":"4","last_reported":1745302525,"current_range_meters":24000,"station_id":"ce4bh3h2rcd13ifvqdn0","pricing_plan_id":"cebpf4jnsgd1na2vs0mg"},{"bike_id":"68adc71e-0ef7-495e-90fc-3b95c56b2c4c","system_id":"levelo_inurba_marseille","lat":43.32533,"lon":5.41468,"is_reserved":false,"is_disabled":false,"rental_uris":{"android":"levelo://app?vid=68adc71e-0ef7-495e-90fc-3b95c56b2c4c","ios":"levelo://app?vid=68adc71e-0ef7-495e-90fc-3b95c56b2c4c"},"vehicle_type_id":"4","last_reported":1745302525,"current_range_meters":24400,"station_id":"ce4bhq12rcd13ifvqhhg","pricing_plan_id":"cebpf4jnsgd1na2vs0mg"},{"bike_id":"9253cb3c-df66-497f-9fe1-8c48d8d67e0a","system_id":"levelo_inurba_marseille","lat":43.29909,"lon":5.38143,"is_reserved":false,"is_disabled":false,"rental_uris":{"android":"levelo://app?vid=9253cb3c-df66-497f-9fe1-8c48d8d67e0a","ios":"levelo://app?vid=9253cb3c-df66-497f-9fe1-8c48d8d67e0a"},"vehicle_type_id":"4","last_reported":1745302525,"current_range_meters":24400,"station_id":"ce4bgj12rcd13ifvqbc0","pricing_plan_id":"cebpf4jnsgd1na2vs0mg"},{"bike_id":"f91a00f3-1185-4637-940f-c629d7417a0b","system_id":"levelo_inurba_marseille","lat":43.309412,"lon":5.401409,"is_reserved":false,"is_disabled":false,"rental_uris":{"android":"levelo://app?vid=f91a00f3-1185-4637-940f-c629d7417a0b","ios":"levelo://app?vid=f91a00f3-1185-4637-940f-c629d7417a0b"},"vehicle_type_id":"4","last_reported":1745302525,"current_range_meters":24400,"station_id":"ce4bgvp2rcd13ifvqct0","pricing_plan_id":"cebpf4jnsgd1na2vs0mg"},{"bike_id":"efac55b3-b697-4867-8617-ebda683e4eb6","system_id":"levelo_inurba_marseille","lat":43.25022,"lon":5.38914,"is_reserved":false,"is_disabled":true,"rental_uris":{"android":"levelo://app?vid=efac55b3-b697-4867-8617-ebda683e4eb6","ios":"levelo://app?vid=efac55b3-b697-4867-8617-ebda683e4eb6"},"vehicle_type_id":"4","last_reported":1745302525,"current_range_meters":24400,"station_id":"ce4bhgp2rcd13ifvqfd0","pricing_plan_id":"cebpf4jnsgd1na2vs0mg"},{"bike_id":"16f53837-1704-42b7-b90d-efd57d704d5b","system_id":"levelo_inurba_marseille","lat":43.24834,"lon":5.37479,"is_reserved":false,"is_disabled":false,"rental_uris":{"android":"levelo://app?vid=16f53837-1704-42b7-b90d-efd57d704d5b","ios":"levelo://app?vid=16f53837-1704-42b7-b90d-efd57d704d5b"},"vehicle_type_id":"4","last_reported":1745302525,"current_range_meters":24400,"station_id":"ce4bhgh2rcd13ifvqfb0","pricing_plan_id":"cebpf4jnsgd1na2vs0mg"},{"bike_id":"0d396ae2-f949-46a4-93a9-696d1784ec36","system_id":"levelo_inurba_marseille","lat":43.28348,"lon":5.38123,"is_reserved":false,"is_disabled":true,"rental_uris":{"android":"levelo://app?vid=0d396ae2-f949-46a4-93a9-696d1784ec36","ios":"levelo://app?vid=0d396ae2-f949-46a4-93a9-696d1784ec36"},"vehicle_type_id":"4","last_reported":1745302525,"current_range_meters":24400,"station_id":"ce4bh412rcd13ifvqdr0","pricing_plan_id":"cebpf4jnsgd1na2vs0mg"},{"bike_id":"b6d9830d-e810-440f-9fc3-e209ac1bb9f1","system_id":"levelo_inurba_marseille","lat":43.322914,"lon":5.382701,"is_reserved":false,"is_disabled":false,"rental_uris":{"android":"levelo://app?vid=b6d9830d-e810-440f-9fc3-e209ac1bb9f1","ios":"levelo://app?vid=b6d9830d-e810-440f-9fc3-e209ac1bb9f1"},"vehicle_type_id":"4","last_reported":1745302525,"current_range_meters":24400,"station_id":"ce4bhr12rcd13ifvqhqg","pricing_plan_id":"cebpf4jnsgd1na2vs0mg"},{"bike_id":"74984a4e-33cd-43e7-b2c8-25255c9f8b59","system_id":"levelo_inurba_marseille","lat":43.2738,"lon":5.36265,"is_reserved":false,"is_disabled":false,"rental_uris":{"android":"levelo://app?vid=74984a4e-33cd-43e7-b2c8-25255c9f8b59","ios":"levelo://app?vid=74984a4e-33cd-43e7-b2c8-25255c9f8b59"},"vehicle_type_id":"4","last_reported":1745302525,"current_range_meters":24400,"station_id":"ce4bhbh2rcd13ifvqeo0","pricing_plan_id":"cebpf4jnsgd1na2vs0mg"},{"bike_id":"b7cc8cf3-255e-421c-9425-972837a5f0d0","system_id":"levelo_inurba_marseille","lat":43.26927,"lon":5.4024,"is_reserved":false,"is_disabled":false,"rental_uris":{"android":"levelo://app?vid=b7cc8cf3-255e-421c-9425-972837a5f0d0","ios":"levelo://app?vid=b7cc8cf3-255e-421c-9425-972837a5f0d0"},"vehicle_type_id":"4","last_reported":1745302525,"current_range_meters":24400,"station_id":"cjm6bp8fraef2m0cb0m0","pricing_plan_id":"cebpf4jnsgd1na2vs0mg"},{"bike_id":"12f56377-104c-42f1-b5d3-8fb2fa5deb98","system_id":"levelo_inurba_marseille","lat":43.298439,"lon":5.362697,"is_reserved":false,"is_disabled":false,"rental_uris":{"android":"levelo://app?vid=12f56377-104c-42f1-b5d3-8fb2fa5deb98","ios":"levelo://app?vid=12f56377-104c-42f1-b5d3-8fb2fa5deb98"},"vehicle_type_id":"4","last_reported":1745302525,"current_range_meters":24800,"station_id":"ce4bgpp2rcd13ifvqc3g","pricing_plan_id":"cebpf4jnsgd1na2vs0mg"},{"bike_id":"ececce4a-73e3-4772-bedc-965725c3fb84","system_id":"levelo_inurba_marseille","lat":43.230532,"lon":5.354968,"is_reserved":false,"is_disabled":true,"rental_uris":{"android":"levelo://app?vid=ececce4a-73e3-4772-bedc-965725c3fb84","ios":"levelo://app?vid=ececce4a-73e3-4772-bedc-965725c3fb84"},"vehicle_type_id":"4","last_reported":1745302525,"current_range_meters":24800,"station_id":"cpo3342slgdg3j2ifvpg","pricing_plan_id":"cebpf4jnsgd1na2vs0mg"},{"bike_id":"4cedb539-3c43-4879-b379-1e3ba5673bbb","system_id":"levelo_inurba_marseille","lat":43.275007,"lon":5.424603,"is_reserved":false,"is_disabled":false,"rental_uris":{"android":"levelo://app?vid=4cedb539-3c43-4879-b379-1e3ba5673bbb","ios":"levelo://app?vid=4cedb539-3c43-4879-b379-1e3ba5673bbb"},"vehicle_type_id":"4","last_reported":1745302525,"current_range_meters":24800,"station_id":"ce4bhn92rcd13ifvqgrg","pricing_plan_id":"cebpf4jnsgd1na2vs0mg"},{"bike_id":"60033e56-96fc-4f30-94b3-ee7a030ee3be","system_id":"levelo_inurba_marseille","lat":43.27861,"lon":5.36309,"is_reserved":false,"is_disabled":false,"rental_uris":{"android":"levelo://app?vid=60033e56-96fc-4f30-94b3-ee7a030ee3be","ios":"levelo://app?vid=60033e56-96fc-4f30-94b3-ee7a030ee3be"},"vehicle_type_id":"4","last_reported":1745302525,"current_range_meters":24800,"station_id":"","pricing_plan_id":"cebpf4jnsgd1na2vs0mg"},{"bike_id":"71cd8cfd-bb7b-4bdf-890c-b99049d7bcb8","system_id":"levelo_inurba_marseille","lat":43.24373,"lon":5.37985,"is_reserved":false,"is_disabled":true,"rental_uris":{"android":"levelo://app?vid=71cd8cfd-bb7b-4bdf-890c-b99049d7bcb8","ios":"levelo://app?vid=71cd8cfd-bb7b-4bdf-890c-b99049d7bcb8"},"vehicle_type_id":"4","last_reported":1745302525,"current_range_meters":25200,"station_id":"","pricing_plan_id":"cebpf4jnsgd1na2vs0mg"},