{"last_updated":1721488017,"ttl":30,"version":"2.2","data":{"bikes":[{"bike_id":"d1d81e54-fed9-443c-944a-6820c8a62e66","system_id":"levelo_inurba_marseille","lat":43.31251,"lon":5.36793,"is_reserved":false,"is_disabled":false,"rental_uris":{"android":"levelo://app?vid=d1d81e54-fed9-443c-944a-6820c8a62e66","ios":"levelo://app?vid=d1d81e54-fed9-443c-944a-6820c8a62e66"},"vehicle_type_id":"4","last_reported":1721488017,"current_range_meters":0,"station_id":"","pricing_plan_id":"cebpf4jnsgd1na2vs0mg"},{"bike_id":"de845262-6eb7-4bed-8329-096aaa874777","system_id":"levelo_inurba_marseille","lat":43.312239,"lon":5.368562,"is_reserved":false,"is_disabled":false,"rental_uris":{"android":"levelo://app?vid=de845262-6eb7-4bed-8329-096aaa874777","ios":"levelo://app?vid=de845262-6eb7-4bed-8329-096aaa874777"},"vehicle_type_id":"4","last_reported":1721488017,"current_range_meters":2800,"station_id":"ce4bgl92rcd13ifvqbq0","pricing_plan_id":"cebpf4jnsgd1na2vs0mg"},{"bike_id":"e1ec02d0-c0e5-48c5-a8fe-a9ce2cb56f46","system_id":"levelo_inurba_marseille","lat":43.312239,"lon":5.368562,"is_reserved":false,"is_disabled":false,"rental_uris":{"android":"levelo://app?vid=e1ec02d0-c0e5-48c5-a8fe-a9ce2cb56f46","ios":"levelo://app?vid=e1ec02d0-c0e5-48c5-a8fe-a9ce2cb56f46"},"vehicle_type_id":"4","last_reported":1721488017,"current_range_meters":0,"station_id":"ce4bgl92rcd13ifvqbq0","pricing_plan_id":"cebpf4jnsgd1na2vs0mg"},{"bike_id":"f272320c-c4bf-46e8-ba9b-67353473c8e2","system_id":"levelo_inurba_marseille","lat":43.312239,"lon":5.368562,"is_reserved":false,"is_disabled":false,"rental_uris":{"android":"levelo://app?vid=f272320c-c4bf-46e8-ba9b-67353473c8e2","ios":"levelo://app?vid=f272320c-c4bf-46e8-ba9b-67353473c8e2"},"vehicle_type_id":"4","last_reported":1721488017,"current_range_meters":15600,"station_id":"ce4bgl92rcd13ifvqbq0","pricing_plan_id":"cebpf4jnsgd1na2vs0mg"},{"bike_id":"81891b97-7b11-44cc-a4e1-e45033fb6237","system_id":"levelo_inurba_marseille","lat":43.312239,"lon":5.368562,"is_reserved":false,"is_disabled":false,"rental_uris":{"android":"levelo://app?vid=81891b97-7b11-44cc-a4e1-e45033fb6237","ios":"levelo://app?vid=81891b97-7b11-44cc-a4e1-e45033fb6237"},"vehicle_type_id":"4","last_reported":1721488017,"current_range_meters":30400,"station_id":"ce4bgl92rcd13ifvqbq0","pricing_plan_id":"cebpf4jnsgd1na2vs0mg"},{"bike_id":"547ff367-265e-4d7e-9e64-dd608b518873","system_id":"levelo_inurba_marseille","lat":43.314921,"lon":5.373128,"is_reserved":false,"is_disabled":false,"rental_uris":{"android":"levelo://app?vid=547ff367-265e-4d7e-9e64-dd608b518873","ios":"levelo://app?vid=547ff367-265e-4d7e-9e64-dd608b518873"},"vehicle_type_id":"4","last_reported":1721488017,"current_range_meters":13200,"station_id":"ce4bgt12rcd13ifvqcd0","pricing_plan_id":"cebpf4jnsgd1na2vs0mg"},{"bike_id":"32bf86fb-39c7-4520-b12e-60e8f91c25e9","system_id":"levelo_inurba_marseille","lat":43.30643,"lon":5.36802,"is_reserved":false,"is_disabled":false,"rental_uris":{"android":"levelo://app?vid=32bf86fb-39c7-4520-b12e-60e8f91c25e9","ios":"levelo://app?vid=32bf86fb-39c7-4520-b12e-60e8f91c25e9"},"vehicle_type_id":"4","last_reported":1721488017,"current_range_meters":30400,"station_id":"","pricing_plan_id":"cebpf4jnsgd1na2vs0mg"},{"bike_id":"c1949070-2d70-4cb8-92e6-59aea0a47076","system_id":"levelo_inurba_marseille","lat":43.305712,"lon":5.365641,"is_reserved":false,"is_disabled":false,"rental_uris":{"android":"levelo://app?vid=c1949070-2d70-4cb8-92e6-59aea0a47076","ios":"levelo://app?vid=c1949070-2d70-4cb8-92e6-59aea0a47076"},"vehicle_type_id":"4","last_reported":1721488017,"current_range_meters":31200,"station_id":"ce4bgs12rcd13ifvqcag","pricing_plan_id":"cebpf4jnsgd1na2vs0mg"},{"bike_id":"d2deda9a-bf1e-4274-829e-4cd0f887bb34","system_id":"levelo_inurba_marseille","lat":43.305714,"lon":5.365633,"is_reserved":false,"is_disabled":false,"rental_uris":{"android":"levelo://app?vid=d2deda9a-bf1e-4274-829e-4cd0f887bb34","ios":"levelo://app?vid=d2deda9a-bf1e-4274-829e-4cd0f887bb34"},"vehicle_type_id":"4","last_reported":1721488017,"current_range_meters":4000,"station_id":"ce4bgs12rcd13ifvqcag","pricing_plan_id":"cebpf4jnsgd1na2vs0mg"},{"bike_id":"64f0d61f-d926-47a7-9e14-0cc608cf2e5e","system_id":"levelo_inurba_marseille","lat":43.31124,"lon":5.37756,"is_reserved":false,"is_disabled":false,"rental_uris":{"android":"levelo://app?vid=64f0d61f-d926-47a7-9e14-0cc608cf2e5e","ios":"levelo://app?vid=64f0d61f-d926-47a7-9e14-0cc608cf2e5e"},"vehicle_type_id":"4","last_reported":1721488017,"current_range_meters":0,"station_id":"ce4bgt92rcd13ifvqcg0","pricing_plan_id":"cebpf4jnsgd1na2vs0mg"},{"bike_id":"91d695b6-c609-422e-bf4a-89f369701a67","system_id":"levelo_inurba_marseille","lat":43.305989,"lon":5.37225,"is_reserved":false,"is_disabled":false,"rental_uris":{"android":"levelo://app?vid=91d695b6-c609-422e-bf4a-89f369701a67","ios":"levelo://app?vid=91d695b6-c609-422e-bf4a-89f369701a67"},"vehicle_type_id":"4","last_reported":1721488017,"current_range_meters":17200,"station_id":"ce4bgqh2rcd13ifvqc4g","pricing_plan_id":"cebpf4jnsgd1na2vs0mg"},{"bike_id":"f2e466f4-4aba-48c2-95aa-4b0aefecd383","system_id":"levelo_inurba_marseille","lat":43.311125,"lon":5.377624,"is_reserved":false,"is_disabled":false,"rental_uris":{"android":"levelo://app?vid=f2e466f4-4aba-48c2-95aa-4b0aefecd383","ios":"levelo://app?vid=f2e466f4-4aba-48c2-95aa-4b0aefecd383"},"vehicle_type_id":"4","last_reported":1721488017,"current_range_meters":26800,"station_id":"ce4bgt92rcd13ifvqcg0","pricing_plan_id":"cebpf4jnsgd1na2vs0mg"},{"bike_id":"6d3c6b98-1612-4630-8195-84de49fbddfc","system_id":"levelo_inurba_marseille","lat":43.305563,"lon":5.3726,"is_reserved":false,"is_disabled":false,"rental_uris":{"android":"levelo://app?vid=6d3c6b98-1612-4630-8195-84de49fbddfc","ios":"levelo://app?vid=6d3c6b98-1612-4630-8195-84de49fbddfc"},"vehicle_type_id":"4","last_reported":1721488017,"current_range_meters":0,"station_id":"","pricing_plan_id":"cebpf4jnsgd1na2vs0mg"},{"bike_id":"03aa95f9-5e11-483f-942f-77e68a83c221","system_id":"levelo_inurba_marseille","lat":43.307945,"lon":5.376487,"is_reserved":false,"is_disabled":false,"rental_uris":{"android":"levelo://app?vid=03aa95f9-5e11-483f-942f-77e68a83c221","ios":"levelo://app?vid=03aa95f9-5e11-483f-942f-77e68a83c221"},"vehicle_type_id":"4","last_reported":1721488017,"current_range_meters":9200,"station_id":"ce4bgv92rcd13ifvqcq0","pricing_plan_id":"cebpf4jnsgd1na2vs0mg"},{"bike_id":"14570bd6-77c6-4682-b7c8-cc3a9f64cd64","system_id":"levelo_inurba_marseille","lat":43.307945,"lon":5.376487,"is_reserved":false,"is_disabled":false,"rental_uris":{"android":"levelo://app?vid=14570bd6-77c6-4682-b7c8-cc3a9f64cd64","ios":"levelo://app?vid=14570bd6-77c6-4682-b7c8-cc3a9f64cd64"},"vehicle_type_id":"4","last_reported":1721488017,"current_range_meters":26000,"station_id":"ce4bgv92rcd13ifvqcq0","pricing_plan_id":"cebpf4jnsgd1na2vs0mg"},{"bike_id":"2c3d2dad-e4f6-4825-89fc-0048f72053cc","system_id":"levelo_inurba_marseille","lat":43.304606,"lon":5.379026,"is_reserved":false,"is_disabled":false,"rental_uris":{"android":"levelo://app?vid=2c3d2dad-e4f6-4825-89fc-0048f72053cc","ios":"levelo://app?vid=2c3d2dad-e4f6-4825-89fc-0048f72053cc"},"vehicle_type_id":"4","last_reported":1721488017,"current_range_meters":13600,"station_id":"ce4bgup2rcd13ifvqcn0","pricing_plan_id":"cebpf4jnsgd1na2vs0mg"},{"bike_id":"da305b50-b468-4c5f-9a2f-d493538e0f6d","system_id":"levelo_inurba_marseille","lat":43.324771,"lon":5.36557,"is_reserved":false,"is_disabled":false,"rental_uris":{"android":"levelo://app?vid=da305b50-b468-4c5f-9a2f-d493538e0f6d","ios":"levelo://app?vid=da305b50-b468-4c5f-9a2f-d493538e0f6d"},"vehicle_type_id":"4","last_reported":1721488017,"current_range_meters":4800,"station_id":"ce4bhs12rcd13ifvqhvg","pricing_plan_id":"cebpf4jnsgd1na2vs0mg"},{"bike_id":"9c2f48f8-ca82-40be-ba11-b3454c0689a7","system_id":"levelo_inurba_marseille","lat":43.304606,"lon":5.379026,"is_reserved":false,"is_disabled":false,"rental_uris":{"android":"levelo://app?vid=9c2f48f8-ca82-40be-ba11-b3454c0689a7","ios":"levelo://app?vid=9c2f48f8-ca82-40be-ba11-b3454c0689a7"},"vehicle_type_id":"4","last_reported":1721488017,"current_range_meters":22000,"station_id":"ce4bgup2rcd13ifvqcn0","pricing_plan_id":"cebpf4jnsgd1na2vs0mg"},{"bike_id":"3d091401-a528-4266-8641-386b24f9f872","system_id":"levelo_inurba_marseille","lat":43.324771,"lon":5.36557,"is_reserved":false,"is_disabled":false,"rental_uris":{"android":"levelo://app?vid=3d091401-a528-4266-8641-386b24f9f872","ios":"levelo://app?vid=3d091401-a528-4266-8641-386b24f9f872"},"vehicle_type_id":"4","last_reported":1721488017,"current_range_meters":6400,"station_id":"ce4bhs12rcd13ifvqhvg","pricing_plan_id":"cebpf4jnsgd1na2vs0mg"},{"bike_id":"49c9174c-e04b-4e00-9848-b6d035396dd2","system_id":"levelo_inurba_marseille","lat":43.324787,"lon":5.365874,"is_reserved":false,"is_disabled":false,"rental_uris":{"android":"levelo://app?vid=49c9174c-e04b-4e00-9848-b6d035396dd2","ios":"levelo://app?vid=49c9174c-e04b-4e00-9848-b6d035396dd2"},"vehicle_type_id":"4","last_reported":1721488017,"current_range_meters":18000,"station_id":"ce4bhs12rcd13ifvqhvg","pricing_plan_id":"cebpf4jnsgd1na2vs0mg"},{"bike_id":"e5254798-6f19-4671-8f13-966dbb8e7968","system_id":"levelo_inurba_marseille","lat":43.324771,"lon":5.36557,"is_reserved":false,"is_disabled":false,"rental_uris":{"android":"levelo://app?vid=e5254798-6f19-4671-8f13-966dbb8e7968","ios":"levelo://app?vid=e5254798-6f19-4671-8f13-966dbb8e7968"},"vehicle_type_id":"4","last_reported":1721488017,"current_range_meters":32000,"station_id":"ce4bhs12rcd13ifvqhvg","pricing_plan_id":"cebpf4jnsgd1na2vs0mg"},{"bike_id":"2d81d620-1af8-42ab-b48f-4efcd125a6d0","system_id":"levelo_inurba_marseille","lat":43.324771,"lon":5.36557,"is_reserved":false,"is_disabled":false,"rental_uris":{"android":"levelo://app?vid=2d81d620-1af8-42ab-b48f-4efcd125a6d0","ios":"levelo://app?vid=2d81d620-1af8-42ab-b48f-4efcd125a6d0"},"vehicle_type_id":"4","last_reported":1721488017,"current_range_meters":32000,"station_id":"ce4bhs12rcd13ifvqhvg","pricing_plan_id":"cebpf4jnsgd1na2vs0mg"},{"bike_id":"83ed33c1-20a8-4446-87a0-42d1d31f47c9","system_id":"levelo_inurba_marseille","lat":43.324824,"lon":5.365766,"is_reserved":false,"is_disabled":false,"rental_uris":{"android":"levelo://app?vid=83ed33c1-20a8-4446-87a0-42d1d31f47c9","ios":"levelo://app?vid=83ed33c1-20a8-4446-87a0-42d1d31f47c9"},"vehicle_type_id":"4","last_reported":1721488017,"current_range_meters":13200,"station_id":"ce4bhs12rcd13ifvqhvg","pricing_plan_id":"cebpf4jnsgd1na2vs0mg"},{"bike_id":"4a01e05f-13ab-412d-bcea-9be4120a8770","system_id":"levelo_inurba_marseille","lat":43.324771,"lon":5.36557,"is_reserved":false,"is_disabled":false,"rental_uris":{"android":"levelo://app?vid=4a01e05f-13ab-412d-bcea-9be4120a8770","ios":"levelo://app?vid=4a01e05f-13ab-412d-bcea-9be4120a8770"},"vehicle_type_id":"4","last_reported":1721488017,"current_range_meters":22000,"station_id":"ce4bhs12rcd13ifvqhvg","pricing_plan_id":"cebpf4jnsgd1na2vs0mg"},{"bike_id":"748566fa-8ca2-49fe-ad78-0356bbb18297","system_id":"levelo_inurba_marseille","lat":43.324771,"lon":5.36557,"is_reserved":false,"is_disabled":false,"rental_uris":{"android":"levelo://app?vid=748566fa-8ca2-49fe-ad78-0356bbb18297","ios":"levelo://app?vid=748566fa-8ca2-49fe-ad78-0356bbb18297"},"vehicle_type_id":"4","last_reported":1721488017,"current_range_meters":32000,"station_id":"ce4bhs12rcd13ifvqhvg","pricing_plan_id":"cebpf4jnsgd1na2vs0mg"},{"bike_id":"bb57fd1e-5c22-4a46-983d-4097d95f4007","system_id":"levelo_inurba_marseille","lat":43.32484,"lon":5.36566,"is_reserved":false,"is_disabled":false,"rental_uris":{"android":"levelo://app?vid=bb57fd1e-5c22-4a46-983d-4097d95f4007","ios":"levelo://app?vid=bb57fd1e-5c22-4a46-983d-4097d95f4007"},"vehicle_type_id":"4","last_reported":1721488017,"current_range_meters":5200,"station_id":"ce4bhs12rcd13ifvqhvg","pricing_plan_id":"cebpf4jnsgd1na2vs0mg"},{"bike_id":"2baca4ef-0d69-4564-91f0-6aa88a9ace5b","system_id":"levelo_inurba_marseille","lat":43.324852,"lon":5.365748,"is_reserved":false,"is_disabled":false,"rental_uris":{"android":"levelo://app?vid=2baca4ef-0d69-4564-91f0-6aa88a9ace5b","ios":"levelo://app?vid=2baca4ef-0d69-4564-91f0-6aa88a9ace5b"},"vehicle_type_id":"4","last_reported":1721488017,"current_range_meters":11600,"station_id":"ce4bhs12rcd13ifvqhvg","pricing_plan_id":"cebpf4jnsgd1na2vs0mg"},{"bike_id":"20fb027e-5099-48f9-a3f6-36a2d2393283","system_id":"levelo_inurba_marseille","lat":43.324771,"lon":5.36557,"is_reserved":false,"is_disabled":false,"rental_uris":{"android":"levelo://app?vid=20fb027e-5099-48f9-a3f6-36a2d2393283","ios":"levelo://app?vid=20fb027e-5099-48f9-a3f6-36a2d2393283"},"vehicle_type_id":"4","last_reported":1721488017,"current_range_meters":9600,"station_id":"ce4bhs12rcd13ifvqhvg","pricing_plan_id":"cebpf4jnsgd1na2vs0mg"},{"bike_id":"bb93594a-3740-48df-b567-6b2b3ad6277f","system_id":"levelo_inurba_marseille","lat":43.324771,"lon":5.36557,"is_reserved":false,"is_disabled":false,"rental_uris":{"android":"levelo://app?vid=bb93594a-3740-48df-b567-6b2b3ad6277f","ios":"levelo://app?vid=bb93594a-3740-48df-b567-6b2b3ad6277f"},"vehicle_type_id":"4","last_reported":1721488017,"current_range_meters":0,"station_id":"ce4bhs12rcd13ifvqhvg","pricing_plan_id":"cebpf4jnsgd1na2vs0mg"},{"bike_id":"58c2518d-7bfb-4ae4-a6b8-a96830f1b9da","system_id":"levelo_inurba_marseille","lat":43.324771,"lon":5.36557,"is_reserved":false,"is_disabled":false,"rental_uris":{"android":"levelo://app?vid=58c2518d-7bfb-4ae4-a6b8-a96830f1b9da","ios":"levelo://app?vid=58c2518d-7bfb-4ae4-a6b8-a96830f1b9da"},"vehicle_type_id":"4","last_reported":1721488017,"current_range_meters":32000,"station_id":"ce4bhs12rcd13ifvqhvg","pricing_plan_id":"cebpf4jnsgd1na2vs0mg"},{"bike_id":"951bc901-c238-42d4-aac0-3c805623be77","system_id":"levelo_inurba_marseille","lat":43.324886,"lon":5.365554,"is_reserved":false,"is_disabled":false,"rental_uris":{"android":"levelo://app?vid=951bc901-c238-42d4-aac0-3c805623be77","ios":"levelo://app?vid=951bc901-c238-42d4-aac0-3c805623be77"},"vehicle_type_id":"4","last_reported":1721488017,"current_range_meters":28800,"station_id":"ce4bhs12rcd13ifvqhvg","pricing_plan_id":"cebpf4jnsgd1na2vs0mg"},{"bike_id":"2fe8b0be-fcbe-413e-81a7-a229cc692f79","system_id":"levelo_inurba_marseille","lat":43.3107,"lon":5.38373,"is_reserved":false,"is_disabled":false,"rental_uris":{"android":"levelo://app?vid=2fe8b0be-fcbe-413e-81a7-a229cc692f79","ios":"levelo://app?vid=2fe8b0be-fcbe-413e-81a7-a229cc692f79"},"vehicle_type_id":"4","last_reported":1721488017,"current_range_meters":6000,"station_id":"ce4bgv92rcd13ifvqcr0","pricing_plan_id":"cebpf4jnsgd1na2vs0mg"},{"bike_id":"b3e3c66a-abc7-4671-b8d7-7c4a83aabb3b","system_id":"levelo_inurba_marseille","lat":43.30059,"lon":5.37062,"is_reserved":false,"is_disabled":false,"rental_uris":{"android":"levelo://app?vid=b3e3c66a-abc7-4671-b8d7-7c4a83aabb3b","ios":"levelo://app?vid=b3e3c66a-abc7-4671-b8d7-7c4a83aabb3b"},"vehicle_type_id":"4","last_reported":1721488017,"current_range_meters":11200,"station_id":"","pricing_plan_id":"cebpf4jnsgd1na2vs0mg"},{"bike_id":"6fef83fc-088e-458e-a851-17d6e9f4cbbc","system_id":"levelo_inurba_marseille","lat":43.301429,"lon":5.37413,"is_reserved":false,"is_disabled":false,"rental_uris":{"android":"levelo://app?vid=6fef83fc-088e-458e-a851-17d6e9f4cbbc","ios":"levelo://app?vid=6fef83fc-088e-458e-a851-17d6e9f4cbbc"},"vehicle_type_id":"4","last_reported":1721488017,"current_range_meters":8000,"station_id":"ce4bgs92rcd13ifvqcc0","pricing_plan_id":"cebpf4jnsgd1na2vs0mg"},{"bike_id":"9bac99cc-3781-4931-a8f1-76d069975594","system_id":"levelo_inurba_marseille","lat":43.302784,"lon":5.377158,"is_reserved":false,"is_disabled":false,"rental_uris":{"android":"levelo://app?vid=9bac99cc-3781-4931-a8f1-76d069975594","ios":"levelo://app?vid=9bac99cc-3781-4931-a8f1-76d069975594"},"vehicle_type_id":"4","last_reported":1721488017,"current_range_meters":3600,"station_id":"ce4bguh2rcd13ifvqcj0","pricing_plan_id":"cebpf4jnsgd1na2vs0mg"},{"bike_id":"56547dd2-46c4-41d9-bd98-5e21b835629e","system_id":"levelo_inurba_marseille","lat":43.305573,"lon":5.384287,"is_reserved":false,"is_disabled":false,"rental_uris":{"android":"levelo://app?vid=56547dd2-46c4-41d9-bd98-5e21b835629e","ios":"levelo://app?vid=56547dd2-46c4-41d9-bd98-5e21b835629e"},"vehicle_type_id":"4","last_reported":1721488017,"current_range_meters":9200,"station_id":"ce4bgg92rcd13ifvqb30","pricing_plan_id":"cebpf4jnsgd1na2vs0mg"},{"bike_id":"d03d7162-a1b2-4485-bb99-eef47d455755","system_id":"levelo_inurba_marseille","lat":43.305364,"lon":5.384119,"is_reserved":false,"is_disabled":false,"rental_uris":{"android":"levelo://app?vid=d03d7162-a1b2-4485-bb99-eef47d455755","ios":"levelo://app?vid=d03d7162-a1b2-4485-bb99-eef47d455755"},"vehicle_type_id":"4","last_reported":1721488017,"current_range_meters":12000,"station_id":"ce4bgg92rcd13ifvqb30","pricing_plan_id":"cebpf4jnsgd1na2vs0mg"},{"bike_id":"349409be-6698-424f-afaa-70684925abdf","system_id":"levelo_inurba_marseille","lat":43.30164,"lon":5.38021,"is_reserved":false,"is_disabled":false,"rental_uris":{"android":"levelo://app?vid=349409be-6698-424f-afaa-70684925abdf","ios":"levelo://app?vid=349409be-6698-424f-afaa-70684925abdf"},"vehicle_type_id":"4","last_reported":1721488017,"current_range_meters":800,"station_id":"","pricing_plan_id":"cebpf4jnsgd1na2vs0mg"},{"bike_id":"cac24234-91b2-4796-98c9-e46f6e00344c","system_id":"levelo_inurba_marseille","lat":43.299243,"lon":5.37481,"is_reserved":false,"is_disabled":false,"rental_uris":{"android":"levelo://app?vid=cac24234-91b2-4796-98c9-e46f6e00344c","ios":"levelo://app?vid=cac24234-91b2-4796-98c9-e46f6e00344c"},"vehicle_type_id":"4","last_reported":1721488017,"current_range_meters":2400,"station_id":"ce4bgjh2rcd13ifvqbg0","pricing_plan_id":"cebpf4jnsgd1na2vs0mg"},{"bike_id":"ef08a3d0-425a-48a2-8660-079a046a149b","system_id":"levelo_inurba_marseille","lat":43.322872,"lon":5.382756,"is_reserved":false,"is_disabled":false,"rental_uris":{"android":"levelo://app?vid=ef08a3d0-425a-48a2-8660-079a046a149b","ios":"levelo://app?vid=ef08a3d0-425a-48a2-8660-079a046a149b"},"vehicle_type_id":"4","last_reported":1721488017,"current_range_meters":13600,"station_id":"ce4bhr12rcd13ifvqhqg","pricing_plan_id":"cebpf4jnsgd1na2vs0mg"},{"bike_id":"25ae4955-ed53-4e94-93f9-47f58f364bd7","system_id":"levelo_inurba_marseille","lat":43.297794,"lon":5.370888,"is_reserved":false,"is_disabled":false,"rental_uris":{"android":"levelo://app?vid=25ae4955-ed53-4e94-93f9-47f58f364bd7","ios":"levelo://app?vid=25ae4955-ed53-4e94-93f9-47f58f364bd7"},"vehicle_type_id":"4","last_reported":1721488017,"current_range_meters":400,"station_id":"ce4bgop2rcd13ifvqc1g","pricing_plan_id":"cebpf4jnsgd1na2vs0mg"},{"bike_id":"90854bd2-f685-4d65-be67-779a039b829e","system_id":"levelo_inurba_marseille","lat":43.297163,"lon":5.365866,"is_reserved":false,"is_disabled":false,"rental_uris":{"android":"levelo://app?vid=90854bd2-f685-4d65-be67-779a039b829e","ios":"levelo://app?vid=90854bd2-f685-4d65-be67-779a039b829e"},"vehicle_type_id":"4","last_reported":1721488017,"current_range_meters":1200,"station_id":"ce4bgn12rcd13ifvqbt0","pricing_plan_id":"cebpf4jnsgd1na2vs0mg"},{"bike_id":"05bdae84-1067-465f-ae1f-1f8e13b8e143","system_id":"levelo_inurba_marseille","lat":43.32905,"lon":5.36705,"is_reserved":false,"is_disabled":false,"rental_uris":{"android":"levelo://app?vid=05bdae84-1067-465f-ae1f-1f8e13b8e143","ios":"levelo://app?vid=05bdae84-1067-465f-ae1f-1f8e13b8e143"},"vehicle_type_id":"4","last_reported":1721488017,"current_range_meters":3200,"station_id":"","pricing_plan_id":"cebpf4jnsgd1na2vs0mg"},{"bike_id":"948224f2-5b42-4afd-8902-ee7dfe6a9843","system_id":"levelo_inurba_marseille","lat":43.298433,"lon":5.362774,"is_reserved":false,"is_disabled":false,"rental_uris":{"android":"levelo://app?vid=948224f2-5b42-4afd-8902-ee7dfe6a9843","ios":"levelo://app?vid=948224f2-5b42-4afd-8902-ee7dfe6a9843"},"vehicle_type_id":"4","last_reported":1721488017,"current_range_meters":0,"station_id":"ce4bgpp2rcd13ifvqc3g","pricing_plan_id":"cebpf4jnsgd1na2vs0mg"},{"bike_id":"940adea6-845d-4549-b256-0f06347b82c0","system_id":"levelo_inurba_marseille","lat":43.30964,"lon":5.39024,"is_reserved":false,"is_disabled":false,"rental_uris":{"android":"levelo://app?vid=940adea6-845d-4549-b256-0f06347b82c0","ios":"levelo://app?vid=940adea6-845d-4549-b256-0f06347b82c0"},"vehicle_type_id":"4","last_reported":1721488017,"current_range_meters":2400,"station_id":"ce4bgup2rcd13ifvqco0","pricing_plan_id":"cebpf4jnsgd1na2vs0mg"},{"bike_id":"dd34c0d3-dc38-4d65-a006-a614c389f444","system_id":"levelo_inurba_marseille","lat":43.309589,"lon":5.390258,"is_reserved":false,"is_disabled":false,"rental_uris":{"android":"levelo://app?vid=dd34c0d3-dc38-4d65-a006-a614c389f444","ios":"levelo://app?vid=dd34c0d3-dc38-4d65-a006-a614c389f444"},"vehicle_type_id":"4","last_reported":1721488017,"current_range_meters":0,"station_id":"ce4bgup2rcd13ifvqco0","pricing_plan_id":"cebpf4jnsgd1na2vs0mg"},{"bike_id":"fe8ea9a4-383e-4489-86a5-7d1658301fc4","system_id":"levelo_inurba_marseille","lat":43.309589,"lon":5.390258,"is_reserved":false,"is_disabled":false,"rental_uris":{"android":"levelo://app?vid=fe8ea9a4-383e-4489-86a5-7d1658301fc4","ios":"levelo://app?vid=fe8ea9a4-383e-4489-86a5-7d1658301fc4"},"vehicle_type_id":"4","last_reported":1721488017,"current_range_meters":4800,"station_id":"ce4bgup2rcd13ifvqco0","pricing_plan_id":"cebpf4jnsgd1na2vs0mg"},{"bike_id":"b82de125-1bff-4ecb-bf6d-743fcf881bd6","system_id":"levelo_inurba_marseille","lat":43.3095,"lon":5.3903,"is_reserved":false,"is_disabled":false,"rental_uris":{"android":"levelo://app?vid=b82de125-1bff-4ecb-bf6d-743fcf881bd6","ios":"levelo://app?vid=b82de125-1bff-4ecb-bf6d-743fcf881bd6"},"vehicle_type_id":"4","last_reported":1721488017,"current_range_meters":28800,"station_id":"ce4bgup2rcd13ifvqco0","pricing_plan_id":"cebpf4jnsgd1na2vs0mg"},{"bike_id":"5a0bfde8-a5d2-4796-a461-a4e298fc786d","system_id":"levelo_inurba_marseille","lat":43.295748,"lon":5.37522,"is_reserved":false,"is_disabled":false,"rental_uris":{"android":"levelo://app?vid=5a0bfde8-a5d2-4796-a461-a4e298fc786d","ios":"levelo://app?vid=5a0bfde8-a5d2-4796-a461-a4e298fc786d"},"vehicle_type_id":"4","last_reported":1721488017,"current_range_meters":0,"station_id":"ce4bgh92rcd13ifvqb50","pricing_plan_id":"cebpf4jnsgd1na2vs0mg"},{"bike_id":"1be2f453-ffee-4bdb-91a9-713d0b41ad61","system_id":"levelo_inurba_marseille","lat":43.299707,"lon":5.384859,"is_reserved":false,"is_disabled":false,"rental_uris":{"android":"levelo://app?vid=1be2f453-ffee-4bdb-91a9-713d0b41ad61","ios":"levelo://app?vid=1be2f453-ffee-4bdb-91a9-713d0b41ad61"},"vehicle_type_id":"4","last_reported":1721488017,"current_range_meters":0,"station_id":"ce4bgj92rcd13ifvqbd0","pricing_plan_id":"cebpf4jnsgd1na2vs0mg"},{"bike_id":"18491e9b-089a-423d-92a6-2224fb4ac1cb","system_id":"levelo_inurba_marseille","lat":43.30473,"lon":5.39011,"is_reserved":false,"is_disabled":false,"rental_uris":{"android":"levelo://app?vid=18491e9b-089a-423d-92a6-2224fb4ac1cb","ios":"levelo://app?vid=18491e9b-089a-423d-92a6-2224fb4ac1cb"},"vehicle_type_id":"4","last_reported":1721488017,"current_range_meters":3200,"station_id":"","pricing_plan_id":"cebpf4jnsgd1na2vs0mg"},{"bike_id":"1f783074-f2f8-4bea-b8a4-1b17d1555df1","system_id":"levelo_inurba_marseille","lat":43.32367,"lon":5.388836,"is_reserved":false,"is_disabled":false,"rental_uris":{"android":"levelo://app?vid=1f783074-f2f8-4bea-b8a4-1b17d1555df1","ios":"levelo://app?vid=1f783074-f2f8-4bea-b8a4-1b17d1555df1"},"vehicle_type_id":"4","last_reported":1721488017,"current_range_meters":23200,"station_id":"ce4bhqp2rcd13ifvqhog","pricing_plan_id":"cebpf4jnsgd1na2vs0mg"},{"bike_id":"78ccd430-f948-442d-9b8c-b7626bb92045","system_id":"levelo_inurba_marseille","lat":43.292749,"lon":5.368398,"is_reserved":false,"is_disabled":false,"rental_uris":{"android":"levelo://app?vid=78ccd430-f948-442d-9b8c-b7626bb92045","ios":"levelo://app?vid=78ccd430-f948-442d-9b8c-b7626bb92045"},"vehicle_type_id":"4","last_reported":1721488017,"current_range_meters":29600,"station_id":"ce4bhbp2rcd13ifvqesg","pricing_plan_id":"cebpf4jnsgd1na2vs0mg"},{"bike_id":"76c010a2-68f7-4f78-b471-17df373a2723","system_id":"levelo_inurba_marseille","lat":43.293259,"lon":5.371586,"is_reserved":false,"is_disabled":false,"rental_uris":{"android":"levelo://app?vid=76c010a2-68f7-4f78-b471-17df373a2723","ios":"levelo://app?vid=76c010a2-68f7-4f78-b471-17df373a2723"},"vehicle_type_id":"4","last_reported":1721488017,"current_range_meters":0,"station_id":"ce4bgh92rcd13ifvqb40","pricing_plan_id":"cebpf4jnsgd1na2vs0mg"},{"bike_id":"2bb6f90a-bf1e-486b-8751-7df49e5f89de","system_id":"levelo_inurba_marseille","lat":43.332774,"lon":5.362558,"is_reserved":false,"is_disabled":false,"rental_uris":{"android":"levelo://app?vid=2bb6f90a-bf1e-486b-8751-7df49e5f89de","ios":"levelo://app?vid=2bb6f90a-bf1e-486b-8751-7df49e5f89de"},"vehicle_type_id":"4","last_reported":1721488017,"current_range_meters":8000,"station_id":"","pricing_plan_id":"cebpf4jnsgd1na2vs0mg"},{"bike_id":"7bbebf3b-8bcf-4439-8faf-aa6d571db35a","system_id":"levelo_inurba_marseille","lat":43.303002,"lon":5.392142,"is_reserved":false,"is_disabled":false,"rental_uris":{"android":"levelo://app?vid=7bbebf3b-8bcf-4439-8faf-aa6d571db35a","ios":"levelo://app?vid=7bbebf3b-8bcf-4439-8faf-aa6d571db35a"},"vehicle_type_id":"4","last_reported":1721488017,"current_range_meters":7200,"station_id":"ce4bgkh2rcd13ifvqbk0","pricing_plan_id":"cebpf4jnsgd1na2vs0mg"},{"bike_id":"35c5c79f-6897-418c-aad2-1465b554be7a","system_id":"levelo_inurba_marseille","lat":43.292311,"lon":5.360731,"is_reserved":false,"is_disabled":false,"rental_uris":{"android":"levelo://app?vid=35c5c79f-6897-418c-aad2-1465b554be7a","ios":"levelo://app?vid=35c5c79f-6897-418c-aad2-1465b554be7a"},"vehicle_type_id":"4","last_reported":1721488017,"current_range_meters":0,"station_id":"ce4bhbh2rcd13ifvqeqg","pricing_plan_id":"cebpf4jnsgd1na2vs0mg"},{"bike_id":"2bc818d4-a341-4f7a-8b16-9a3b0d8c5afe","system_id":"levelo_inurba_marseille","lat":43.298764,"lon":5.388973,"is_reserved":false,"is_disabled":false,"rental_uris":{"android":"levelo://app?vid=2bc818d4-a341-4f7a-8b16-9a3b0d8c5afe","ios":"levelo://app?vid=2bc818d4-a341-4f7a-8b16-9a3b0d8c5afe"},"vehicle_type_id":"4","last_reported":1721488017,"current_range_meters":8000,"station_id":"ce4bh392rcd13ifvqdl0","pricing_plan_id":"cebpf4jnsgd1na2vs0mg"},{"bike_id":"2442f040-e1ca-40f7-9c87-54028d3f42cb","system_id":"levelo_inurba_marseille","lat":43.291756,"lon":5.371987,"is_reserved":false,"is_disabled":false,"rental_uris":{"android":"levelo://app?vid=2442f040-e1ca-40f7-9c87-54028d3f42cb","ios":"levelo://app?vid=2442f040-e1ca-40f7-9c87-54028d3f42cb"},"vehicle_type_id":"4","last_reported":1721488017,"current_range_meters":12000,"station_id":"ce4bha92rcd13ifvqeh0","pricing_plan_id":"cebpf4jnsgd1na2vs0mg"},{"bike_id":"ddf37f6f-5825-4321-a779-c57cf815c838","system_id":"levelo_inurba_marseille","lat":43.29197,"lon":5.35799,"is_reserved":false,"is_disabled":false,"rental_uris":{"android":"levelo://app?vid=ddf37f6f-5825-4321-a779-c57cf815c838","ios":"levelo://app?vid=ddf37f6f-5825-4321-a779-c57cf815c838"},"vehicle_type_id":"4","last_reported":1721488017,"current_range_meters":31200,"station_id":"ce4bhb12rcd13ifvqel0","pricing_plan_id":"cebpf4jnsgd1na2vs0mg"},{"bike_id":"a3f7593d-4662-4460-8241-ede3385ba920","system_id":"levelo_inurba_marseille","lat":43.313291,"lon":5.396838,"is_reserved":false,"is_disabled":false,"rental_uris":{"android":"levelo://app?vid=a3f7593d-4662-4460-8241-ede3385ba920","ios":"levelo://app?vid=a3f7593d-4662-4460-8241-ede3385ba920"},"vehicle_type_id":"4","last_reported":1721488017,"current_range_meters":23600,"station_id":"ce4bgvp2rcd13ifvqcu0","pricing_plan_id":"cebpf4jnsgd1na2vs0mg"},{"bike_id":"b9ed60c6-f89e-40b3-97cb-f1e465179e80","system_id":"levelo_inurba_marseille","lat":43.313291,"lon":5.396838,"is_reserved":false,"is_disabled":false,"rental_uris":{"android":"levelo://app?vid=b9ed60c6-f89e-40b3-97cb-f1e465179e80","ios":"levelo://app?vid=b9ed60c6-f89e-40b3-97cb-f1e465179e80"},"vehicle_type_id":"4","last_reported":1721488017,"current_range_meters":2400,"station_id":"ce4bgvp2rcd13ifvqcu0","pricing_plan_id":"cebpf4jnsgd1na2vs0mg"},{"bike_id":"363e0fbb-479c-4b38-90f4-eaa43cfe6392","system_id":"levelo_inurba_marseille","lat":43.29184,"lon":5.35791,"is_reserved":false,"is_disabled":false,"rental_uris":{"android":"levelo://app?vid=363e0fbb-479c-4b38-90f4-eaa43cfe6392","ios":"levelo://app?vid=363e0fbb-479c-4b38-90f4-eaa43cfe6392"},"vehicle_type_id":"4","last_reported":1721488017,"current_range_meters":18800,"station_id":"ce4bhb12rcd13ifvqel0","pricing_plan_id":"cebpf4jnsgd1na2vs0mg"},{"bike_id":"2dc4a9b0-8864-4b18-8ee9-0490c6247e1b","system_id":"levelo_inurba_marseille","lat":43.29963,"lon":5.391123,"is_reserved":false,"is_disabled":false,"rental_uris":{"android":"levelo://app?vid=2dc4a9b0-8864-4b18-8ee9-0490c6247e1b","ios":"levelo://app?vid=2dc4a9b0-8864-4b18-8ee9-0490c6247e1b"},"vehicle_type_id":"4","last_reported":1721488017,"current_range_meters":17600,"station_id":"","pricing_plan_id":"cebpf4jnsgd1na2vs0mg"},{"bike_id":"dbce3027-f1b1-46a4-a3d3-fd7e93c1d4ba","system_id":"levelo_inurba_marseille","lat":43.332406,"lon":5.380534,"is_reserved":false,"is_disabled":false,"rental_uris":{"android":"levelo://app?vid=dbce3027-f1b1-46a4-a3d3-fd7e93c1d4ba","ios":"levelo://app?vid=dbce3027-f1b1-46a4-a3d3-fd7e93c1d4ba"},"vehicle_type_id":"4","last_reported":1721488017,"current_range_meters":0,"station_id":"","pricing_plan_id":"cebpf4jnsgd1na2vs0mg"},{"bike_id":"75d833e0-a364-4cad-b1b9-4156b1c7160a","system_id":"levelo_inurba_marseille","lat":43.289184,"lon":5.366408,"is_reserved":false,"is_disabled":false,"rental_uris":{"android":"levelo://app?vid=75d833e0-a364-4cad-b1b9-4156b1c7160a","ios":"levelo://app?vid=75d833e0-a364-4cad-b1b9-4156b1c7160a"},"vehicle_type_id":"4","last_reported":1721488017,"current_range_meters":400,"station_id":"ce4bhap2rcd13ifvqek0","pricing_plan_id":"cebpf4jnsgd1na2vs0mg"},{"bike_id":"2625bcb9-38c6-4cef-832a-18b2db802bc7","system_id":"levelo_inurba_marseille","lat":43.304296,"lon":5.397513,"is_reserved":false,"is_disabled":false,"rental_uris":{"android":"levelo://app?vid=2625bcb9-38c6-4cef-832a-18b2db802bc7","ios":"levelo://app?vid=2625bcb9-38c6-4cef-832a-18b2db802bc7"},"vehicle_type_id":"4","last_reported":1721488017,"current_range_meters":1200,"station_id":"ce4bh092rcd13ifvqd20","pricing_plan_id":"cebpf4jnsgd1na2vs0mg"},{"bike_id":"9eb86fdb-b29e-4a82-ae74-a94a1805269d","system_id":"levelo_inurba_marseille","lat":43.291994,"lon":5.392907,"is_reserved":false,"is_disabled":false,"rental_uris":{"android":"levelo://app?vid=9eb86fdb-b29e-4a82-ae74-a94a1805269d","ios":"levelo://app?vid=9eb86fdb-b29e-4a82-ae74-a94a1805269d"},"vehicle_type_id":"4","last_reported":1721488017,"current_range_meters":0,"station_id":"ce4bh192rcd13ifvqdd0","pricing_plan_id":"cebpf4jnsgd1na2vs0mg"},{"bike_id":"b8c9ea2e-0247-486d-96c5-08bc58fbde90","system_id":"levelo_inurba_marseille","lat":43.29259,"lon":5.38446,"is_reserved":false,"is_disabled":false,"rental_uris":{"android":"levelo://app?vid=b8c9ea2e-0247-486d-96c5-08bc58fbde90","ios":"levelo://app?vid=b8c9ea2e-0247-486d-96c5-08bc58fbde90"},"vehicle_type_id":"4","last_reported":1721488017,"current_range_meters":0,"station_id":"ce4bh692rcd13ifvqea0","pricing_plan_id":"cebpf4jnsgd1na2vs0mg"},{"bike_id":"686ce966-1c7e-4463-8e6b-27a61a3fe350","system_id":"levelo_inurba_marseille","lat":43.290104,"lon":5.356111,"is_reserved":false,"is_disabled":false,"rental_uris":{"android":"levelo://app?vid=686ce966-1c7e-4463-8e6b-27a61a3fe350","ios":"levelo://app?vid=686ce966-1c7e-4463-8e6b-27a61a3fe350"},"vehicle_type_id":"4","last_reported":1721488017,"current_range_meters":4400,"station_id":"ce4bhb92rcd13ifvqen0","pricing_plan_id":"cebpf4jnsgd1na2vs0mg"},{"bike_id":"f326ce79-62c5-4aae-a919-f4a906baa6b8","system_id":"levelo_inurba_marseille","lat":43.290104,"lon":5.356111,"is_reserved":false,"is_disabled":false,"rental_uris":{"android":"levelo://app?vid=f326ce79-62c5-4aae-a919-f4a906baa6b8","ios":"levelo://app?vid=f326ce79-62c5-4aae-a919-f4a906baa6b8"},"vehicle_type_id":"4","last_reported":1721488017,"current_range_meters":30400,"station_id":"ce4bhb92rcd13ifvqen0","pricing_plan_id":"cebpf4jnsgd1na2vs0mg"},{"bike_id":"5b92baa6-3713-4e94-8cc0-11b43575348a","system_id":"levelo_inurba_marseille","lat":43.290104,"lon":5.356111,"is_reserved":false,"is_disabled":false,"rental_uris":{"android":"levelo://app?vid=5b92baa6-3713-4e94-8cc0-11b43575348a","ios":"levelo://app?vid=5b92baa6-3713-4e94-8cc0-11b43575348a"},"vehicle_type_id":"4","last_reported":1721488017,"current_range_meters":26800,"station_id":"ce4bhb92rcd13ifvqen0","pricing_plan_id":"cebpf4jnsgd1na2vs0mg"},{"bike_id":"4d8eac3c-8a13-457e-bb05-912549e26d95","system_id":"levelo_inurba_marseille","lat":43.290962,"lon":5.381312,"is_reserved":false,"is_disabled":false,"rental_uris":{"android":"levelo://app?vid=4d8eac3c-8a13-457e-bb05-912549e26d95","ios":"levelo://app?vid=4d8eac3c-8a13-457e-bb05-912549e26d95"},"vehicle_type_id":"4","last_reported":1721488017,"current_range_meters":6400,"station_id":"ce4bh512rcd13ifvqe2g","pricing_plan_id":"cebpf4jnsgd1na2vs0mg"},{"bike_id":"55d9ece8-e8df-42c2-9d45-eb9e8df5f9c3","system_id":"levelo_inurba_marseille","lat":43.330442,"lon":5.389148,"is_reserved":false,"is_disabled":false,"rental_uris":{"android":"levelo://app?vid=55d9ece8-e8df-42c2-9d45-eb9e8df5f9c3","ios":"levelo://app?vid=55d9ece8-e8df-42c2-9d45-eb9e8df5f9c3"},"vehicle_type_id":"4","last_reported":1721488017,"current_range_meters":0,"station_id":"ce4bhr92rcd13ifvqhrg","pricing_plan_id":"cebpf4jnsgd1na2vs0mg"},{"bike_id":"bc50f112-641c-43b3-bdb4-4a2e7d778451","system_id":"levelo_inurba_marseille","lat":43.28856,"lon":5.358371,"is_reserved":false,"is_disabled":false,"rental_uris":{"android":"levelo://app?vid=bc50f112-641c-43b3-bdb4-4a2e7d778451","ios":"levelo://app?vid=bc50f112-641c-43b3-bdb4-4a2e7d778451"},"vehicle_type_id":"4","last_reported":1721488017,"current_range_meters":19200,"station_id":"ce4bhb12rcd13ifvqem0","pricing_plan_id":"cebpf4jnsgd1na2vs0mg"},{"bike_id":"c1af56de-be73-4e36-97b2-97d715f9f6e1","system_id":"levelo_inurba_marseille","lat":43.28727,"lon":5.36078,"is_reserved":false,"is_disabled":false,"rental_uris":{"android":"levelo://app?vid=c1af56de-be73-4e36-97b2-97d715f9f6e1","ios":"levelo://app?vid=c1af56de-be73-4e36-97b2-97d715f9f6e1"},"vehicle_type_id":"4","last_reported":1721488017,"current_range_meters":0,"station_id":"cki0cbj6b192h4jlfktg","pricing_plan_id":"cebpf4jnsgd1na2vs0mg"},{"bike_id":"f638708b-de49-40f9-9200-9b0c85951a45","system_id":"levelo_inurba_marseille","lat":43.28856,"lon":5.358371,"is_reserved":false,"is_disabled":false,"rental_uris":{"android":"levelo://app?vid=f638708b-de49-40f9-9200-9b0c85951a45","ios":"levelo://app?vid=f638708b-de49-40f9-9200-9b0c85951a45"},"vehicle_type_id":"4","last_reported":1721488017,"current_range_meters":8800,"station_id":"ce4bhb12rcd13ifvqem0","pricing_plan_id":"cebpf4jnsgd1na2vs0mg"},{"bike_id":"ed1f7847-8614-44b3-9878-796899946ab9","system_id":"levelo_inurba_marseille","lat":43.309371,"lon":5.401449,"is_reserved":false,"is_disabled":false,"rental_uris":{"android":"levelo://app?vid=ed1f7847-8614-44b3-9878-796899946ab9","ios":"levelo://app?vid=ed1f7847-8614-44b3-9878-796899946ab9"},"vehicle_type_id":"4","last_reported":1721488017,"current_range_meters":1200,"station_id":"ce4bgvp2rcd13ifvqct0","pricing_plan_id":"cebpf4jnsgd1na2vs0mg"},{"bike_id":"97582c36-b473-4ae4-bd73-2b4ab967ead9","system_id":"levelo_inurba_marseille","lat":43.30642,"lon":5.401031,"is_reserved":false,"is_disabled":false,"rental_uris":{"android":"levelo://app?vid=97582c36-b473-4ae4-bd73-2b4ab967ead9","ios":"levelo://app?vid=97582c36-b473-4ae4-bd73-2b4ab967ead9"},"vehicle_type_id":"4","last_reported":1721488017,"current_range_meters":4000,"station_id":"ce4bh112rcd13ifvqda0","pricing_plan_id":"cebpf4jnsgd1na2vs0mg"},{"bike_id":"3ef082f7-d79b-499a-a9a3-3bd935d4af2c","system_id":"levelo_inurba_marseille","lat":43.30935,"lon":5.40141,"is_reserved":false,"is_disabled":false,"rental_uris":{"android":"levelo://app?vid=3ef082f7-d79b-499a-a9a3-3bd935d4af2c","ios":"levelo://app?vid=3ef082f7-d79b-499a-a9a3-3bd935d4af2c"},"vehicle_type_id":"4","last_reported":1721488017,"current_range_meters":0,"station_id":"ce4bgvp2rcd13ifvqct0","pricing_plan_id":"cebpf4jnsgd1na2vs0mg"},{"bike_id":"da1ef795-4411-4787-a704-e9710fe27f7e","system_id":"levelo_inurba_marseille","lat":43.337472,"lon":5.374599,"is_reserved":false,"is_disabled":false,"rental_uris":{"android":"levelo://app?vid=da1ef795-4411-4787-a704-e9710fe27f7e","ios":"levelo://app?vid=da1ef795-4411-4787-a704-e9710fe27f7e"},"vehicle_type_id":"4","last_reported":1721488017,"current_range_meters":22400,"station_id":"","pricing_plan_id":"cebpf4jnsgd1na2vs0mg"},{"bike_id":"4e05b3eb-e034-4c93-86fb-ef66d74f6656","system_id":"levelo_inurba_marseille","lat":43.3375,"lon":5.37453,"is_reserved":false,"is_disabled":false,"rental_uris":{"android":"levelo://app?vid=4e05b3eb-e034-4c93-86fb-ef66d74f6656","ios":"levelo://app?vid=4e05b3eb-e034-4c93-86fb-ef66d74f6656"},"vehicle_type_id":"4","last_reported":1721488017,"current_range_meters":22000,"station_id":"","pricing_plan_id":"cebpf4jnsgd1na2vs0mg"},{"bike_id":"0ad3db73-21e8-41b5-aad3-7f410c37748d","system_id":"levelo_inurba_marseille","lat":43.33754,"lon":5.37454,"is_reserved":false,"is_disabled":false,"rental_uris":{"android":"levelo://app?vid=0ad3db73-21e8-41b5-aad3-7f410c37748d","ios":"levelo://app?vid=0ad3db73-21e8-41b5-aad3-7f410c37748d"},"vehicle_type_id":"4","last_reported":1721488017,"current_range_meters":14000,"station_id":"","pricing_plan_id":"cebpf4jnsgd1na2vs0mg"},{"bike_id":"c75a183a-c55b-4c2e-b036-7c333011dd13","system_id":"levelo_inurba_marseille","lat":43.33755,"lon":5.37451,"is_reserved":false,"is_disabled":false,"rental_uris":{"android":"levelo://app?vid=c75a183a-c55b-4c2e-b036-7c333011dd13","ios":"levelo://app?vid=c75a183a-c55b-4c2e-b036-7c333011dd13"},"vehicle_type_id":"4","last_reported":1721488017,"current_range_meters":25200,"station_id":"","pricing_plan_id":"cebpf4jnsgd1na2vs0mg"},{"bike_id":"2d33db2a-d2ef-42af-b929-3720156d09ad","system_id":"levelo_inurba_marseille","lat":43.33756,"lon":5.37453,"is_reserved":false,"is_disabled":false,"rental_uris":{"android":"levelo://app?vid=2d33db2a-d2ef-42af-b929-3720156d09ad","ios":"levelo://app?vid=2d33db2a-d2ef-42af-b929-3720156d09ad"},"vehicle_type_id":"4","last_reported":1721488017,"current_range_meters":11600,"station_id":"","pricing_plan_id":"cebpf4jnsgd1na2vs0mg"},{"bike_id":"9fd23b8b-c7c3-4b5a-b11d-8284b8e4dfa2","system_id":"levelo_inurba_marseille","lat":43.337578,"lon":5.374428,"is_reserved":false,"is_disabled":false,"rental_uris":{"android":"levelo://app?vid=9fd23b8b-c7c3-4b5a-b11d-8284b8e4dfa2","ios":"levelo://app?vid=9fd23b8b-c7c3-4b5a-b11d-8284b8e4dfa2"},"vehicle_type_id":"4","last_reported":1721488017,"current_range_meters":26000,"station_id":"","pricing_plan_id":"cebpf4jnsgd1na2vs0mg"},{"bike_id":"5cb6a697-9c4d-40ef-89b5-3ac012e961fa","system_id":"levelo_inurba_marseille","lat":43.337563,"lon":5.374561,"is_reserved":false,"is_disabled":false,"rental_uris":{"android":"levelo://app?vid=5cb6a697-9c4d-40ef-89b5-3ac012e961fa","ios":"levelo://app?vid=5cb6a697-9c4d-40ef-89b5-3ac012e961fa"},"vehicle_type_id":"4","last_reported":1721488017,"current_range_meters":17200,"station_id":"","pricing_plan_id":"cebpf4jnsgd1na2vs0mg"},{"bike_id":"6f20e223-4c2f-4bd3-b8c1-fa34ed231357","system_id":"levelo_inurba_marseille","lat":43.310785,"lon":5.424305,"is_reserved":false,"is_disabled":false,"rental_uris":{"android":"levelo://app?vid=6f20e223-4c2f-4bd3-b8c1-fa34ed231357","ios":"levelo://app?vid=6f20e223-4c2f-4bd3-b8c1-fa34ed231357"},"vehicle_type_id":"4","last_reported":1721488017,"current_range_meters":16800,"station_id":"ce4bhp92rcd13ifvqhag","pricing_plan_id":"cebpf4jnsgd1na2vs0mg"},{"bike_id":"9458a255-a47a-41f1-849e-755dc4612ffe","system_id":"levelo_inurba_marseille","lat":43.33762,"lon":5.37451,"is_reserved":false,"is_disabled":false,"rental_uris":{"android":"levelo://app?vid=9458a255-a47a-41f1-849e-755dc4612ffe","ios":"levelo://app?vid=9458a255-a47a-41f1-849e-755dc4612ffe"},"vehicle_type_id":"4","last_reported":1721488017,"current_range_meters":14800,"station_id":"","pricing_plan_id":"cebpf4jnsgd1na2vs0mg"},{"bike_id":"ac377a63-6a02-42fa-8a70-d5bb9b7546c9","system_id":"levelo_inurba_marseille","lat":43.337662,"lon":5.374262,"is_reserved":false,"is_disabled":false,"rental_uris":{"android":"levelo://app?vid=ac377a63-6a02-42fa-8a70-d5bb9b7546c9","ios":"levelo://app?vid=ac377a63-6a02-42fa-8a70-d5bb9b7546c9"},"vehicle_type_id":"4","last_reported":1721488017,"current_range_meters":20400,"station_id":"","pricing_plan_id":"cebpf4jnsgd1na2vs0mg"},{"bike_id":"b4b24872-b47d-455d-b874-30be54945800","system_id":"levelo_inurba_marseille","lat":43.33756,"lon":5.37491,"is_reserved":false,"is_disabled":false,"rental_uris":{"android":"levelo://app?vid=b4b24872-b47d-455d-b874-30be54945800","ios":"levelo://app?vid=b4b24872-b47d-455d-b874-30be54945800"},"vehicle_type_id":"4","last_reported":1721488017,"current_range_meters":1600,"station_id":"","pricing_plan_id":"cebpf4jnsgd1na2vs0mg"},{"bike_id":"d0723523-f35a-472e-b198-a5153fc33bb6","system_id":"levelo_inurba_marseille","lat":43.3376,"lon":5.37479,"is_reserved":false,"is_disabled":false,"rental_uris":{"android":"levelo://app?vid=d0723523-f35a-472e-b198-a5153fc33bb6","ios":"levelo://app?vid=d0723523-f35a-472e-b198-a5153fc33bb6"},"vehicle_type_id":"4","last_reported":1721488017,"current_range_meters":21600,"station_id":"","pricing_plan_id":"cebpf4jnsgd1na2vs0mg"},{"bike_id":"1bd2edfa-3105-45b7-9b57-e83caf22087e","system_id":"levelo_inurba_marseille","lat":43.33766,"lon":5.37455,"is_reserved":false,"is_disabled":false,"rental_uris":{"android":"levelo://app?vid=1bd2edfa-3105-45b7-9b57-e83caf22087e","ios":"levelo://app?vid=1bd2edfa-3105-45b7-9b57-e83caf22087e"},"vehicle_type_id":"4","last_reported":1721488017,"current_range_meters":15600,"station_id":"","pricing_plan_id":"cebpf4jnsgd1na2vs0mg"},{"bike_id":"070592c7-3885-432c-8241-bd6a3e1ad67c","system_id":"levelo_inurba_marseille","lat":43.306412,"lon":5.401035,"is_reserved":false,"is_disabled":false,"rental_uris":{"android":"levelo://app?vid=070592c7-3885-432c-8241-bd6a3e1ad67c","ios":"levelo://app?vid=070592c7-3885-432c-8241-bd6a3e1ad67c"},"vehicle_type_id":"4","last_reported":1721488017,"current_range_meters":5200,"station_id":"ce4bh112rcd13ifvqda0","pricing_plan_id":"cebpf4jnsgd1na2vs0mg"},{"bike_id":"ea786295-7db2-4a1d-955b-1fe58f947d6d","system_id":"levelo_inurba_marseille","lat":43.302759,"lon":5.400793,"is_reserved":false,"is_disabled":false,"rental_uris":{"android":"levelo://app?vid=ea786295-7db2-4a1d-955b-1fe58f947d6d","ios":"levelo://app?vid=ea786295-7db2-4a1d-955b-1fe58f947d6d"},"vehicle_type_id":"4","last_reported":1721488017,"current_range_meters":25600,"station_id":"ce4bgvh2rcd13ifvqcs0","pricing_plan_id":"cebpf4jnsgd1na2vs0mg"},{"bike_id":"a8cb3bc8-804e-4f72-8d96-3c83c46cb078","system_id":"levelo_inurba_marseille","lat":43.32622,"lon":5.39837,"is_reserved":false,"is_disabled":false,"rental_uris":{"android":"levelo://app?vid=a8cb3bc8-804e-4f72-8d96-3c83c46cb078","ios":"levelo://app?vid=a8cb3bc8-804e-4f72-8d96-3c83c46cb078"},"vehicle_type_id":"4","last_reported":1721488017,"current_range_meters":29200,"station_id":"","pricing_plan_id":"cebpf4jnsgd1na2vs0mg"},{"bike_id":"37ae4d0f-d120-494b-8fad-7cca27beaa47","system_id":"levelo_inurba_marseille","lat":43.302759,"lon":5.400793,"is_reserved":false,"is_disabled":false,"rental_uris":{"android":"levelo://app?vid=37ae4d0f-d120-494b-8fad-7cca27beaa47","ios":"levelo://app?vid=37ae4d0f-d120-494b-8fad-7cca27beaa47"},"vehicle_type_id":"4","last_reported":1721488017,"current_range_meters":21200,"station_id":"ce4bgvh2rcd13ifvqcs0","pricing_plan_id":"cebpf4jnsgd1na2vs0mg"},{"bike_id":"a32df70b-45b8-4e96-93e4-3c33d53c8fed","system_id":"levelo_inurba_marseille","lat":43.302759,"lon":5.400793,"is_reserved":false,"is_disabled":false,"rental_uris":{"android":"levelo://app?vid=a32df70b-45b8-4e96-93e4-3c33d53c8fed","ios":"levelo://app?vid=a32df70b-45b8-4e96-93e4-3c33d53c8fed"},"vehicle_type_id":"4","last_reported":1721488017,"current_range_meters":17200,"station_id":"ce4bgvh2rcd13ifvqcs0","pricing_plan_id":"cebpf4jnsgd1na2vs0mg"},{"bike_id":"2b61614a-22d5-4d7c-853b-280237addbb6","system_id":"levelo_inurba_marseille","lat":43.286039,"lon":5.370679,"is_reserved":false,"is_disabled":false,"rental_uris":{"android":"levelo://app?vid=2b61614a-22d5-4d7c-853b-280237addbb6","ios":"levelo://app?vid=2b61614a-22d5-4d7c-853b-280237addbb6"},"vehicle_type_id":"4","last_reported":1721488017,"current_range_meters":4400,"station_id":"ce4bht12rcd13ifvqi60","pricing_plan_id":"cebpf4jnsgd1na2vs0mg"},{"bike_id":"7a13d318-0c51-4756-9147-9ad69d5d3f2c","system_id":"levelo_inurba_marseille","lat":43.286039,"lon":5.370679,"is_reserved":false,"is_disabled":false,"rental_uris":{"android":"levelo://app?vid=7a13d318-0c51-4756-9147-9ad69d5d3f2c","ios":"levelo://app?vid=7a13d318-0c51-4756-9147-9ad69d5d3f2c"},"vehicle_type_id":"4","last_reported":1721488017,"current_range_meters":6400,"station_id":"ce4bht12rcd13ifvqi60","pricing_plan_id":"cebpf4jnsgd1na2vs0mg"},{"bike_id":"4086e963-11fe-4064-b5db-d29d9a77c4d4","system_id":"levelo_inurba_marseille","lat":43.286039,"lon":5.370679,"is_reserved":false,"is_disabled":false,"rental_uris":{"android":"levelo://app?vid=4086e963-11fe-4064-b5db-d29d9a77c4d4","ios":"levelo://app?vid=4086e963-11fe-4064-b5db-d29d9a77c4d4"},"vehicle_type_id":"4","last_reported":1721488017,"current_range_meters":0,"station_id":"ce4bht12rcd13ifvqi60","pricing_plan_id":"cebpf4jnsgd1na2vs0mg"},{"bike_id":"61392830-fdda-493b-8e57-569bf7a1f277","system_id":"levelo_inurba_marseille","lat":43.312609,"lon":5.401662,"is_reserved":false,"is_disabled":false,"rental_uris":{"android":"levelo://app?vid=61392830-fdda-493b-8e57-569bf7a1f277","ios":"levelo://app?vid=61392830-fdda-493b-8e57-569bf7a1f277"},"vehicle_type_id":"4","last_reported":1721488017,"current_range_meters":24000,"station_id":"ce4bh092rcd13ifvqd30","pricing_plan_id":"cebpf4jnsgd1na2vs0mg"},{"bike_id":"7de542f4-781e-4fe9-bd0b-c2f2dfc89fdf","system_id":"levelo_inurba_marseille","lat":43.316828,"lon":5.404723,"is_reserved":false,"is_disabled":false,"rental_uris":{"android":"levelo://app?vid=7de542f4-781e-4fe9-bd0b-c2f2dfc89fdf","ios":"levelo://app?vid=7de542f4-781e-4fe9-bd0b-c2f2dfc89fdf"},"vehicle_type_id":"4","last_reported":1721488017,"current_range_meters":9600,"station_id":"ce4bh012rcd13ifvqd00","pricing_plan_id":"cebpf4jnsgd1na2vs0mg"},{"bike_id":"0354f062-d128-4b06-9e27-38e3dcc2ae78","system_id":"levelo_inurba_marseille","lat":43.291994,"lon":5.392907,"is_reserved":false,"is_disabled":false,"rental_uris":{"android":"levelo://app?vid=0354f062-d128-4b06-9e27-38e3dcc2ae78","ios":"levelo://app?vid=0354f062-d128-4b06-9e27-38e3dcc2ae78"},"vehicle_type_id":"4","last_reported":1721488017,"current_range_meters":5600,"station_id":"ce4bh192rcd13ifvqdd0","pricing_plan_id":"cebpf4jnsgd1na2vs0mg"},{"bike_id":"127ac410-7aa5-4e7c-8de4-f9af8cbeabe4","system_id":"levelo_inurba_marseille","lat":43.286333,"lon":5.351276,"is_reserved":false,"is_disabled":false,"rental_uris":{"android":"levelo://app?vid=127ac410-7aa5-4e7c-8de4-f9af8cbeabe4","ios":"levelo://app?vid=127ac410-7aa5-4e7c-8de4-f9af8cbeabe4"},"vehicle_type_id":"4","last_reported":1721488017,"current_range_meters":20000,"station_id":"","pricing_plan_id":"cebpf4jnsgd1na2vs0mg"},{"bike_id":"a767f090-767a-450d-b2f0-bfcbc6c6923e","system_id":"levelo_inurba_marseille","lat":43.28623,"lon":5.35104,"is_reserved":false,"is_disabled":false,"rental_uris":{"android":"levelo://app?vid=a767f090-767a-450d-b2f0-bfcbc6c6923e","ios":"levelo://app?vid=a767f090-767a-450d-b2f0-bfcbc6c6923e"},"vehicle_type_id":"4","last_reported":1721488017,"current_range_meters":24800,"station_id":"ce4bhch2rcd13ifvqeug","pricing_plan_id":"cebpf4jnsgd1na2vs0mg"},{"bike_id":"694ca4b5-5503-4dd2-9ff1-a57966e9032e","system_id":"levelo_inurba_marseille","lat":43.28622,"lon":5.35098,"is_reserved":false,"is_disabled":false,"rental_uris":{"android":"levelo://app?vid=694ca4b5-5503-4dd2-9ff1-a57966e9032e","ios":"levelo://app?vid=694ca4b5-5503-4dd2-9ff1-a57966e9032e"},"vehicle_type_id":"4","last_reported":1721488017,"current_range_meters":18400,"station_id":"ce4bhch2rcd13ifvqeug","pricing_plan_id":"cebpf4jnsgd1na2vs0mg"},{"bike_id":"ca5d2495-ec45-47b8-ac81-3baf290b32c6","system_id":"levelo_inurba_marseille","lat":43.2862,"lon":5.35101,"is_reserved":false,"is_disabled":false,"rental_uris":{"android":"levelo://app?vid=ca5d2495-ec45-47b8-ac81-3baf290b32c6","ios":"levelo://app?vid=ca5d2495-ec45-47b8-ac81-3baf290b32c6"},"vehicle_type_id":"4","last_reported":1721488017,"current_range_meters":13600,"station_id":"ce4bhch2rcd13ifvqeug","pricing_plan_id":"cebpf4jnsgd1na2vs0mg"},{"bike_id":"9ed5498a-9d0d-4d41-bddc-9b5163d4a917","system_id":"levelo_inurba_marseille","lat":43.28618,"lon":5.35107,"is_reserved":false,"is_disabled":false,"rental_uris":{"android":"levelo://app?vid=9ed5498a-9d0d-4d41-bddc-9b5163d4a917","ios":"levelo://app?vid=9ed5498a-9d0d-4d41-bddc-9b5163d4a917"},"vehicle_type_id":"4","last_reported":1721488017,"current_range_meters":20800,"station_id":"ce4bhch2rcd13ifvqeug","pricing_plan_id":"cebpf4jnsgd1na2vs0mg"},{"bike_id":"2e639f99-80b6-4e64-a104-765385884daf","system_id":"levelo_inurba_marseille","lat":43.28619,"lon":5.35103,"is_reserved":false,"is_disabled":false,"rental_uris":{"android":"levelo://app?vid=2e639f99-80b6-4e64-a104-765385884daf","ios":"levelo://app?vid=2e639f99-80b6-4e64-a104-765385884daf"},"vehicle_type_id":"4","last_reported":1721488017,"current_range_meters":800,"station_id":"ce4bhch2rcd13ifvqeug","pricing_plan_id":"cebpf4jnsgd1na2vs0mg"},{"bike_id":"ec29922e-3e51-483e-8939-df2c0e0e4a6e","system_id":"levelo_inurba_marseille","lat":43.28618,"lon":5.35105,"is_reserved":false,"is_disabled":false,"rental_uris":{"android":"levelo://app?vid=ec29922e-3e51-483e-8939-df2c0e0e4a6e","ios":"levelo://app?vid=ec29922e-3e51-483e-8939-df2c0e0e4a6e"},"vehicle_type_id":"4","last_reported":1721488017,"current_range_meters":21200,"station_id":"ce4bhch2rcd13ifvqeug","pricing_plan_id":"cebpf4jnsgd1na2vs0mg"},{"bike_id":"9dcbb243-d33d-42a6-be6a-b56f2cb69e85","system_id":"levelo_inurba_marseille","lat":43.286167,"lon":5.35108,"is_reserved":false,"is_disabled":false,"rental_uris":{"android":"levelo://app?vid=9dcbb243-d33d-42a6-be6a-b56f2cb69e85","ios":"levelo://app?vid=9dcbb243-d33d-42a6-be6a-b56f2cb69e85"},"vehicle_type_id":"4","last_reported":1721488017,"current_range_meters":5200,"station_id":"ce4bhch2rcd13ifvqeug","pricing_plan_id":"cebpf4jnsgd1na2vs0mg"},{"bike_id":"61f66c76-2269-4f4b-ae3c-e6569bb48c8d","system_id":"levelo_inurba_marseille","lat":43.28618,"lon":5.35103,"is_reserved":false,"is_disabled":false,"rental_uris":{"android":"levelo://app?vid=61f66c76-2269-4f4b-ae3c-e6569bb48c8d","ios":"levelo://app?vid=61f66c76-2269-4f4b-ae3c-e6569bb48c8d"},"vehicle_type_id":"4","last_reported":1721488017,"current_range_meters":12000,"station_id":"ce4bhch2rcd13ifvqeug","pricing_plan_id":"cebpf4jnsgd1na2vs0mg"},{"bike_id":"d74c72da-2a83-4945-ba97-74978238d48e","system_id":"levelo_inurba_marseille","lat":43.285856,"lon":5.350771,"is_reserved":false,"is_disabled":false,"rental_uris":{"android":"levelo://app?vid=d74c72da-2a83-4945-ba97-74978238d48e","ios":"levelo://app?vid=d74c72da-2a83-4945-ba97-74978238d48e"},"vehicle_type_id":"4","last_reported":1721488017,"current_range_meters":30400,"station_id":"ce4bhch2rcd13ifvqeug","pricing_plan_id":"cebpf4jnsgd1na2vs0mg"},{"bike_id":"8d40fcde-5f6a-4225-9b1d-346dae3ce05f","system_id":"levelo_inurba_marseille","lat":43.28618,"lon":5.35102,"is_reserved":false,"is_disabled":false,"rental_uris":{"android":"levelo://app?vid=8d40fcde-5f6a-4225-9b1d-346dae3ce05f","ios":"levelo://app?vid=8d40fcde-5f6a-4225-9b1d-346dae3ce05f"},"vehicle_type_id":"4","last_reported":1721488017,"current_range_meters":23600,"station_id":"ce4bhch2rcd13ifvqeug","pricing_plan_id":"cebpf4jnsgd1na2vs0mg"},{"bike_id":"244c06e6-b40a-4606-9f00-74276befab60","system_id":"levelo_inurba_marseille","lat":43.28617,"lon":5.35105,"is_reserved":false,"is_disabled":false,"rental_uris":{"android":"levelo://app?vid=244c06e6-b40a-4606-9f00-74276befab60","ios":"levelo://app?vid=244c06e6-b40a-4606-9f00-74276befab60"},"vehicle_type_id":"4","last_reported":1721488017,"current_range_meters":0,"station_id":"ce4bhch2rcd13ifvqeug","pricing_plan_id":"cebpf4jnsgd1na2vs0mg"},{"bike_id":"7ca2d8bb-becb-40b3-8d52-72259a6612ef","system_id":"levelo_inurba_marseille","lat":43.28765,"lon":5.38684,"is_reserved":false,"is_disabled":false,"rental_uris":{"android":"levelo://app?vid=7ca2d8bb-becb-40b3-8d52-72259a6612ef","ios":"levelo://app?vid=7ca2d8bb-becb-40b3-8d52-72259a6612ef"},"vehicle_type_id":"4","last_reported":1721488017,"current_range_meters":14000,"station_id":"","pricing_plan_id":"cebpf4jnsgd1na2vs0mg"},{"bike_id":"d9caee1c-b639-4a44-8c90-51ac94553506","system_id":"levelo_inurba_marseille","lat":43.28616,"lon":5.35104,"is_reserved":false,"is_disabled":false,"rental_uris":{"android":"levelo://app?vid=d9caee1c-b639-4a44-8c90-51ac94553506","ios":"levelo://app?vid=d9caee1c-b639-4a44-8c90-51ac94553506"},"vehicle_type_id":"4","last_reported":1721488017,"current_range_meters":2800,"station_id":"ce4bhch2rcd13ifvqeug","pricing_plan_id":"cebpf4jnsgd1na2vs0mg"},{"bike_id":"18f265c1-fb41-4d18-9883-33d301c1b12e","system_id":"levelo_inurba_marseille","lat":43.28616,"lon":5.35103,"is_reserved":false,"is_disabled":false,"rental_uris":{"android":"levelo://app?vid=18f265c1-fb41-4d18-9883-33d301c1b12e","ios":"levelo://app?vid=18f265c1-fb41-4d18-9883-33d301c1b12e"},"vehicle_type_id":"4","last_reported":1721488017,"current_range_meters":29200,"station_id":"ce4bhch2rcd13ifvqeug","pricing_plan_id":"cebpf4jnsgd1na2vs0mg"},{"bike_id":"5721266b-a1b6-4d49-ba2c-1cc3cccb5569","system_id":"levelo_inurba_marseille","lat":43.28615,"lon":5.35106,"is_reserved":false,"is_disabled":false,"rental_uris":{"android":"levelo://app?vid=5721266b-a1b6-4d49-ba2c-1cc3cccb5569","ios":"levelo://app?vid=5721266b-a1b6-4d49-ba2c-1cc3cccb5569"},"vehicle_type_id":"4","last_reported":1721488017,"current_range_meters":24400,"station_id":"ce4bhch2rcd13ifvqeug","pricing_plan_id":"cebpf4jnsgd1na2vs0mg"},{"bike_id":"17fbad96-7af5-470a-90e0-e7550d06a653","system_id":"levelo_inurba_marseille","lat":43.28615,"lon":5.35106,"is_reserved":false,"is_disabled":false,"rental_uris":{"android":"levelo://app?vid=17fbad96-7af5-470a-90e0-e7550d06a653","ios":"levelo://app?vid=17fbad96-7af5-470a-90e0-e7550d06a653"},"vehicle_type_id":"4","last_reported":1721488017,"current_range_meters":0,"station_id":"ce4bhch2rcd13ifvqeug","pricing_plan_id":"cebpf4jnsgd1na2vs0mg"},{"bike_id":"5096c4c4-0a36-462d-a94f-abc192695629","system_id":"levelo_inurba_marseille","lat":43.28615,"lon":5.35106,"is_reserved":false,"is_disabled":false,"rental_uris":{"android":"levelo://app?vid=5096c4c4-0a36-462d-a94f-abc192695629","ios":"levelo://app?vid=5096c4c4-0a36-462d-a94f-abc192695629"},"vehicle_type_id":"4","last_reported":1721488017,"current_range_meters":4000,"station_id":"ce4bhch2rcd13ifvqeug","pricing_plan_id":"cebpf4jnsgd1na2vs0mg"},{"bike_id":"8fd87a87-6918-447d-9d47-0d636a11f0a2","system_id":"levelo_inurba_marseille","lat":43.28614,"lon":5.35109,"is_reserved":false,"is_disabled":false,"rental_uris":{"android":"levelo://app?vid=8fd87a87-6918-447d-9d47-0d636a11f0a2","ios":"levelo://app?vid=8fd87a87-6918-447d-9d47-0d636a11f0a2"},"vehicle_type_id":"4","last_reported":1721488017,"current_range_meters":18000,"station_id":"ce4bhch2rcd13ifvqeug","pricing_plan_id":"cebpf4jnsgd1na2vs0mg"},{"bike_id":"b3421722-99ef-489f-9c6f-5d5124ff893c","system_id":"levelo_inurba_marseille","lat":43.28616,"lon":5.35101,"is_reserved":false,"is_disabled":false,"rental_uris":{"android":"levelo://app?vid=b3421722-99ef-489f-9c6f-5d5124ff893c","ios":"levelo://app?vid=b3421722-99ef-489f-9c6f-5d5124ff893c"},"vehicle_type_id":"4","last_reported":1721488017,"current_range_meters":8400,"station_id":"ce4bhch2rcd13ifvqeug","pricing_plan_id":"cebpf4jnsgd1na2vs0mg"},{"bike_id":"c77e8e62-a17b-4834-ad58-4f627499ef98","system_id":"levelo_inurba_marseille","lat":43.294314,"lon":5.397498,"is_reserved":false,"is_disabled":false,"rental_uris":{"android":"levelo://app?vid=c77e8e62-a17b-4834-ad58-4f627499ef98","ios":"levelo://app?vid=c77e8e62-a17b-4834-ad58-4f627499ef98"},"vehicle_type_id":"4","last_reported":1721488017,"current_range_meters":12000,"station_id":"ce4bh3h2rcd13ifvqdo0","pricing_plan_id":"cebpf4jnsgd1na2vs0mg"},{"bike_id":"b4c62eaf-def6-402e-9f8a-86923720787b","system_id":"levelo_inurba_marseille","lat":43.28615,"lon":5.35101,"is_reserved":false,"is_disabled":false,"rental_uris":{"android":"levelo://app?vid=b4c62eaf-def6-402e-9f8a-86923720787b","ios":"levelo://app?vid=b4c62eaf-def6-402e-9f8a-86923720787b"},"vehicle_type_id":"4","last_reported":1721488017,"current_range_meters":27200,"station_id":"ce4bhch2rcd13ifvqeug","pricing_plan_id":"cebpf4jnsgd1na2vs0mg"},{"bike_id":"d20223e7-ecab-439a-af56-0220759ab9b4","system_id":"levelo_inurba_marseille","lat":43.28614,"lon":5.35101,"is_reserved":false,"is_disabled":false,"rental_uris":{"android":"levelo://app?vid=d20223e7-ecab-439a-af56-0220759ab9b4","ios":"levelo://app?vid=d20223e7-ecab-439a-af56-0220759ab9b4"},"vehicle_type_id":"4","last_reported":1721488017,"current_range_meters":16400,"station_id":"ce4bhch2rcd13ifvqeug","pricing_plan_id":"cebpf4jnsgd1na2vs0mg"},{"bike_id":"5fb16610-5eb9-420a-8a95-9d6a976e6d89","system_id":"levelo_inurba_marseille","lat":43.28614,"lon":5.35099,"is_reserved":false,"is_disabled":false,"rental_uris":{"android":"levelo://app?vid=5fb16610-5eb9-420a-8a95-9d6a976e6d89","ios":"levelo://app?vid=5fb16610-5eb9-420a-8a95-9d6a976e6d89"},"vehicle_type_id":"4","last_reported":1721488017,"current_range_meters":20000,"station_id":"ce4bhch2rcd13ifvqeug","pricing_plan_id":"cebpf4jnsgd1na2vs0mg"},{"bike_id":"7c851051-eec2-4672-a705-43b7d45c1f02","system_id":"levelo_inurba_marseille","lat":43.28611,"lon":5.35108,"is_reserved":false,"is_disabled":false,"rental_uris":{"android":"levelo://app?vid=7c851051-eec2-4672-a705-43b7d45c1f02","ios":"levelo://app?vid=7c851051-eec2-4672-a705-43b7d45c1f02"},"vehicle_type_id":"4","last_reported":1721488017,"current_range_meters":30400,"station_id":"ce4bhch2rcd13ifvqeug","pricing_plan_id":"cebpf4jnsgd1na2vs0mg"},{"bike_id":"32a04c03-d4be-4e78-a393-945e526659bf","system_id":"levelo_inurba_marseille","lat":43.28612,"lon":5.35103,"is_reserved":false,"is_disabled":false,"rental_uris":{"android":"levelo://app?vid=32a04c03-d4be-4e78-a393-945e526659bf","ios":"levelo://app?vid=32a04c03-d4be-4e78-a393-945e526659bf"},"vehicle_type_id":"4","last_reported":1721488017,"current_range_meters":23600,"station_id":"ce4bhch2rcd13ifvqeug","pricing_plan_id":"cebpf4jnsgd1na2vs0mg"},{"bike_id":"3f58dbc9-73c4-4f59-b52b-a63398ec244e","system_id":"levelo_inurba_marseille","lat":43.28614,"lon":5.35096,"is_reserved":false,"is_disabled":false,"rental_uris":{"android":"levelo://app?vid=3f58dbc9-73c4-4f59-b52b-a63398ec244e","ios":"levelo://app?vid=3f58dbc9-73c4-4f59-b52b-a63398ec244e"},"vehicle_type_id":"4","last_reported":1721488017,"current_range_meters":12000,"station_id":"ce4bhch2rcd13ifvqeug","pricing_plan_id":"cebpf4jnsgd1na2vs0mg"},{"bike_id":"7898cf88-af53-4bf1-a9d9-3f259e5f11c5","system_id":"levelo_inurba_marseille","lat":43.28611,"lon":5.35102,"is_reserved":false,"is_disabled":false,"rental_uris":{"android":"levelo://app?vid=7898cf88-af53-4bf1-a9d9-3f259e5f11c5","ios":"levelo://app?vid=7898cf88-af53-4bf1-a9d9-3f259e5f11c5"},"vehicle_type_id":"4","last_reported":1721488017,"current_range_meters":21600,"station_id":"ce4bhch2rcd13ifvqeug","pricing_plan_id":"cebpf4jnsgd1na2vs0mg"},{"bike_id":"dcb7f7d4-5cc4-45e3-81cf-4fc49d5c2adb","system_id":"levelo_inurba_marseille","lat":43.28611,"lon":5.35099,"is_reserved":false,"is_disabled":false,"rental_uris":{"android":"levelo://app?vid=dcb7f7d4-5cc4-45e3-81cf-4fc49d5c2adb","ios":"levelo://app?vid=dcb7f7d4-5cc4-45e3-81cf-4fc49d5c2adb"},"vehicle_type_id":"4","last_reported":1721488017,"current_range_meters":18400,"station_id":"ce4bhch2rcd13ifvqeug","pricing_plan_id":"cebpf4jnsgd1na2vs0mg"},{"bike_id":"9cf94f1d-5c8f-488d-86f2-19277e6f8fe0","system_id":"levelo_inurba_marseille","lat":43.2861,"lon":5.35099,"is_reserved":false,"is_disabled":false,"rental_uris":{"android":"levelo://app?vid=9cf94f1d-5c8f-488d-86f2-19277e6f8fe0","ios":"levelo://app?vid=9cf94f1d-5c8f-488d-86f2-19277e6f8fe0"},"vehicle_type_id":"4","last_reported":1721488017,"current_range_meters":12800,"station_id":"ce4bhch2rcd13ifvqeug","pricing_plan_id":"cebpf4jnsgd1na2vs0mg"},{"bike_id":"c12e89fd-00d6-46ab-a031-0a4aee9e92a9","system_id":"levelo_inurba_marseille","lat":43.28611,"lon":5.35095,"is_reserved":false,"is_disabled":false,"rental_uris":{"android":"levelo://app?vid=c12e89fd-00d6-46ab-a031-0a4aee9e92a9","ios":"levelo://app?vid=c12e89fd-00d6-46ab-a031-0a4aee9e92a9"},"vehicle_type_id":"4","last_reported":1721488017,"current_range_meters":22400,"station_id":"ce4bhch2rcd13ifvqeug","pricing_plan_id":"cebpf4jnsgd1na2vs0mg"},{"bike_id":"05437a3c-ad95-43e3-b1ae-8334d0c79ef4","system_id":"levelo_inurba_marseille","lat":43.28609,"lon":5.35101,"is_reserved":false,"is_disabled":false,"rental_uris":{"android":"levelo://app?vid=05437a3c-ad95-43e3-b1ae-8334d0c79ef4","ios":"levelo://app?vid=05437a3c-ad95-43e3-b1ae-8334d0c79ef4"},"vehicle_type_id":"4","last_reported":1721488017,"current_range_meters":15200,"station_id":"ce4bhch2rcd13ifvqeug","pricing_plan_id":"cebpf4jnsgd1na2vs0mg"},{"bike_id":"e4d6229d-ba6f-4870-9e19-a05183cf18a9","system_id":"levelo_inurba_marseille","lat":43.283998,"lon":5.375062,"is_reserved":false,"is_disabled":false,"rental_uris":{"android":"levelo://app?vid=e4d6229d-ba6f-4870-9e19-a05183cf18a9","ios":"levelo://app?vid=e4d6229d-ba6f-4870-9e19-a05183cf18a9"},"vehicle_type_id":"4","last_reported":1721488017,"current_range_meters":0,"station_id":"ce4bh412rcd13ifvqds0","pricing_plan_id":"cebpf4jnsgd1na2vs0mg"},{"bike_id":"14dd9579-60b4-4541-bb6a-b3def134107f","system_id":"levelo_inurba_marseille","lat":43.283998,"lon":5.375062,"is_reserved":false,"is_disabled":false,"rental_uris":{"android":"levelo://app?vid=14dd9579-60b4-4541-bb6a-b3def134107f","ios":"levelo://app?vid=14dd9579-60b4-4541-bb6a-b3def134107f"},"vehicle_type_id":"4","last_reported":1721488017,"current_range_meters":2400,"station_id":"ce4bh412rcd13ifvqds0","pricing_plan_id":"cebpf4jnsgd1na2vs0mg"},{"bike_id":"cc7d2b28-94c8-436f-8add-889dfca0402e","system_id":"levelo_inurba_marseille","lat":43.283998,"lon":5.375062,"is_reserved":false,"is_disabled":false,"rental_uris":{"android":"levelo://app?vid=cc7d2b28-94c8-436f-8add-889dfca0402e","ios":"levelo://app?vid=cc7d2b28-94c8-436f-8add-889dfca0402e"},"vehicle_type_id":"4","last_reported":1721488017,"current_range_meters":3600,"station_id":"ce4bh412rcd13ifvqds0","pricing_plan_id":"cebpf4jnsgd1na2vs0mg"},{"bike_id":"8625b595-9575-4a01-91f7-f737f0a93042","system_id":"levelo_inurba_marseille","lat":43.319179,"lon":5.407725,"is_reserved":false,"is_disabled":false,"rental_uris":{"android":"levelo://app?vid=8625b595-9575-4a01-91f7-f737f0a93042","ios":"levelo://app?vid=8625b595-9575-4a01-91f7-f737f0a93042"},"vehicle_type_id":"4","last_reported":1721488017,"current_range_meters":16800,"station_id":"ce4bhq12rcd13ifvqhig","pricing_plan_id":"cebpf4jnsgd1na2vs0mg"},{"bike_id":"7885d1e8-9128-47c8-8def-3d134df375b0","system_id":"levelo_inurba_marseille","lat":43.33717,"lon":5.391857,"is_reserved":false,"is_disabled":false,"rental_uris":{"android":"levelo://app?vid=7885d1e8-9128-47c8-8def-3d134df375b0","ios":"levelo://app?vid=7885d1e8-9128-47c8-8def-3d134df375b0"},"vehicle_type_id":"4","last_reported":1721488017,"current_range_meters":7200,"station_id":"ce4bhr92rcd13ifvqhsg","pricing_plan_id":"cebpf4jnsgd1na2vs0mg"},{"bike_id":"7631156e-9ddc-4ff3-b9f0-f64301bedbcb","system_id":"levelo_inurba_marseille","lat":43.323464,"lon":5.406297,"is_reserved":false,"is_disabled":false,"rental_uris":{"android":"levelo://app?vid=7631156e-9ddc-4ff3-b9f0-f64301bedbcb","ios":"levelo://app?vid=7631156e-9ddc-4ff3-b9f0-f64301bedbcb"},"vehicle_type_id":"4","last_reported":1721488017,"current_range_meters":22400,"station_id":"ce4bhq92rcd13ifvqhjg","pricing_plan_id":"cebpf4jnsgd1na2vs0mg"},{"bike_id":"76006932-d00b-4ba2-a8b4-0b7d48df8470","system_id":"levelo_inurba_marseille","lat":43.284793,"lon":5.384113,"is_reserved":false,"is_disabled":false,"rental_uris":{"android":"levelo://app?vid=76006932-d00b-4ba2-a8b4-0b7d48df8470","ios":"levelo://app?vid=76006932-d00b-4ba2-a8b4-0b7d48df8470"},"vehicle_type_id":"4","last_reported":1721488017,"current_range_meters":0,"station_id":"ce4bh512rcd13ifvqe3g","pricing_plan_id":"cebpf4jnsgd1na2vs0mg"},{"bike_id":"37641561-a84e-4866-9479-4f9f855190fc","system_id":"levelo_inurba_marseille","lat":43.284217,"lon":5.349697,"is_reserved":false,"is_disabled":false,"rental_uris":{"android":"levelo://app?vid=37641561-a84e-4866-9479-4f9f855190fc","ios":"levelo://app?vid=37641561-a84e-4866-9479-4f9f855190fc"},"vehicle_type_id":"4","last_reported":1721488017,"current_range_meters":7200,"station_id":"ce4bhbh2rcd13ifvqepg","pricing_plan_id":"cebpf4jnsgd1na2vs0mg"},{"bike_id":"0de7b82d-9c46-47ae-9339-90284cd4b3ff","system_id":"levelo_inurba_marseille","lat":43.28428,"lon":5.34986,"is_reserved":false,"is_disabled":false,"rental_uris":{"android":"levelo://app?vid=0de7b82d-9c46-47ae-9339-90284cd4b3ff","ios":"levelo://app?vid=0de7b82d-9c46-47ae-9339-90284cd4b3ff"},"vehicle_type_id":"4","last_reported":1721488017,"current_range_meters":24800,"station_id":"ce4bhbh2rcd13ifvqepg","pricing_plan_id":"cebpf4jnsgd1na2vs0mg"},{"bike_id":"71086ea9-c016-4ae1-88af-cda758842a85","system_id":"levelo_inurba_marseille","lat":43.284251,"lon":5.349869,"is_reserved":false,"is_disabled":false,"rental_uris":{"android":"levelo://app?vid=71086ea9-c016-4ae1-88af-cda758842a85","ios":"levelo://app?vid=71086ea9-c016-4ae1-88af-cda758842a85"},"vehicle_type_id":"4","last_reported":1721488017,"current_range_meters":18800,"station_id":"ce4bhbh2rcd13ifvqepg","pricing_plan_id":"cebpf4jnsgd1na2vs0mg"},{"bike_id":"83bb6226-89df-4b81-b21b-2563a3dd0fd5","system_id":"levelo_inurba_marseille","lat":43.2842,"lon":5.34999,"is_reserved":false,"is_disabled":false,"rental_uris":{"android":"levelo://app?vid=83bb6226-89df-4b81-b21b-2563a3dd0fd5","ios":"levelo://app?vid=83bb6226-89df-4b81-b21b-2563a3dd0fd5"},"vehicle_type_id":"4","last_reported":1721488017,"current_range_meters":6400,"station_id":"ce4bhbh2rcd13ifvqepg","pricing_plan_id":"cebpf4jnsgd1na2vs0mg"},{"bike_id":"17e8be9c-d2af-4e32-823e-de37e6a9b4e3","system_id":"levelo_inurba_marseille","lat":43.28423,"lon":5.34989,"is_reserved":false,"is_disabled":false,"rental_uris":{"android":"levelo://app?vid=17e8be9c-d2af-4e32-823e-de37e6a9b4e3","ios":"levelo://app?vid=17e8be9c-d2af-4e32-823e-de37e6a9b4e3"},"vehicle_type_id":"4","last_reported":1721488017,"current_range_meters":18800,"station_id":"ce4bhbh2rcd13ifvqepg","pricing_plan_id":"cebpf4jnsgd1na2vs0mg"},{"bike_id":"1c5f6d69-995b-4f5e-8226-a000b82dbf5b","system_id":"levelo_inurba_marseille","lat":43.28418,"lon":5.35,"is_reserved":false,"is_disabled":false,"rental_uris":{"android":"levelo://app?vid=1c5f6d69-995b-4f5e-8226-a000b82dbf5b","ios":"levelo://app?vid=1c5f6d69-995b-4f5e-8226-a000b82dbf5b"},"vehicle_type_id":"4","last_reported":1721488017,"current_range_meters":30800,"station_id":"ce4bhbh2rcd13ifvqepg","pricing_plan_id":"cebpf4jnsgd1na2vs0mg"},{"bike_id":"88be8769-29ed-4d63-9b1f-49c87e59743c","system_id":"levelo_inurba_marseille","lat":43.284213,"lon":5.349896,"is_reserved":false,"is_disabled":false,"rental_uris":{"android":"levelo://app?vid=88be8769-29ed-4d63-9b1f-49c87e59743c","ios":"levelo://app?vid=88be8769-29ed-4d63-9b1f-49c87e59743c"},"vehicle_type_id":"4","last_reported":1721488017,"current_range_meters":7200,"station_id":"","pricing_plan_id":"cebpf4jnsgd1na2vs0mg"},{"bike_id":"b138d920-6f71-4a6e-8950-50fd5f8650e9","system_id":"levelo_inurba_marseille","lat":43.28421,"lon":5.3499,"is_reserved":false,"is_disabled":false,"rental_uris":{"android":"levelo://app?vid=b138d920-6f71-4a6e-8950-50fd5f8650e9","ios":"levelo://app?vid=b138d920-6f71-4a6e-8950-50fd5f8650e9"},"vehicle_type_id":"4","last_reported":1721488017,"current_range_meters":13600,"station_id":"ce4bhbh2rcd13ifvqepg","pricing_plan_id":"cebpf4jnsgd1na2vs0mg"},{"bike_id":"6f2e1312-dc44-42cc-a8cd-e3b8281589e4","system_id":"levelo_inurba_marseille","lat":43.284217,"lon":5.349857,"is_reserved":false,"is_disabled":false,"rental_uris":{"android":"levelo://app?vid=6f2e1312-dc44-42cc-a8cd-e3b8281589e4","ios":"levelo://app?vid=6f2e1312-dc44-42cc-a8cd-e3b8281589e4"},"vehicle_type_id":"4","last_reported":1721488017,"current_range_meters":22400,"station_id":"ce4bhbh2rcd13ifvqepg","pricing_plan_id":"cebpf4jnsgd1na2vs0mg"},{"bike_id":"c23cc35c-6b8f-4081-9516-123e55d83826","system_id":"levelo_inurba_marseille","lat":43.284219,"lon":5.3497,"is_reserved":false,"is_disabled":false,"rental_uris":{"android":"levelo://app?vid=c23cc35c-6b8f-4081-9516-123e55d83826","ios":"levelo://app?vid=c23cc35c-6b8f-4081-9516-123e55d83826"},"vehicle_type_id":"4","last_reported":1721488017,"current_range_meters":29200,"station_id":"ce4bhbh2rcd13ifvqepg","pricing_plan_id":"cebpf4jnsgd1na2vs0mg"},{"bike_id":"71ebfac9-3027-41c2-98fb-1a513de8d09d","system_id":"levelo_inurba_marseille","lat":43.284217,"lon":5.349697,"is_reserved":false,"is_disabled":false,"rental_uris":{"android":"levelo://app?vid=71ebfac9-3027-41c2-98fb-1a513de8d09d","ios":"levelo://app?vid=71ebfac9-3027-41c2-98fb-1a513de8d09d"},"vehicle_type_id":"4","last_reported":1721488017,"current_range_meters":31200,"station_id":"ce4bhbh2rcd13ifvqepg","pricing_plan_id":"cebpf4jnsgd1na2vs0mg"},{"bike_id":"148ea8df-d6cd-4f3f-b508-161eee04e0af","system_id":"levelo_inurba_marseille","lat":43.28422,"lon":5.34984,"is_reserved":false,"is_disabled":false,"rental_uris":{"android":"levelo://app?vid=148ea8df-d6cd-4f3f-b508-161eee04e0af","ios":"levelo://app?vid=148ea8df-d6cd-4f3f-b508-161eee04e0af"},"vehicle_type_id":"4","last_reported":1721488017,"current_range_meters":8800,"station_id":"ce4bhbh2rcd13ifvqepg","pricing_plan_id":"cebpf4jnsgd1na2vs0mg"},{"bike_id":"1628be2e-d293-4041-bc0b-628862c08c94","system_id":"levelo_inurba_marseille","lat":43.28421,"lon":5.34986,"is_reserved":false,"is_disabled":false,"rental_uris":{"android":"levelo://app?vid=1628be2e-d293-4041-bc0b-628862c08c94","ios":"levelo://app?vid=1628be2e-d293-4041-bc0b-628862c08c94"},"vehicle_type_id":"4","last_reported":1721488017,"current_range_meters":13600,"station_id":"ce4bhbh2rcd13ifvqepg","pricing_plan_id":"cebpf4jnsgd1na2vs0mg"},{"bike_id":"f809560b-fb65-4015-9e10-8591b87b95b2","system_id":"levelo_inurba_marseille","lat":43.284219,"lon":5.3497,"is_reserved":false,"is_disabled":false,"rental_uris":{"android":"levelo://app?vid=f809560b-fb65-4015-9e10-8591b87b95b2","ios":"levelo://app?vid=f809560b-fb65-4015-9e10-8591b87b95b2"},"vehicle_type_id":"4","last_reported":1721488017,"current_range_meters":27600,"station_id":"ce4bhbh2rcd13ifvqepg","pricing_plan_id":"cebpf4jnsgd1na2vs0mg"},{"bike_id":"5e2a1a32-be3d-4886-8e52-7ffe1048ad9d","system_id":"levelo_inurba_marseille","lat":43.284203,"lon":5.34986,"is_reserved":false,"is_disabled":false,"rental_uris":{"android":"levelo://app?vid=5e2a1a32-be3d-4886-8e52-7ffe1048ad9d","ios":"levelo://app?vid=5e2a1a32-be3d-4886-8e52-7ffe1048ad9d"},"vehicle_type_id":"4","last_reported":1721488017,"current_range_meters":21600,"station_id":"ce4bhbh2rcd13ifvqepg","pricing_plan_id":"cebpf4jnsgd1na2vs0mg"},{"bike_id":"d6a286de-a7c3-4960-abd7-4524eeba0f15","system_id":"levelo_inurba_marseille","lat":43.28421,"lon":5.34983,"is_reserved":false,"is_disabled":false,"rental_uris":{"android":"levelo://app?vid=d6a286de-a7c3-4960-abd7-4524eeba0f15","ios":"levelo://app?vid=d6a286de-a7c3-4960-abd7-4524eeba0f15"},"vehicle_type_id":"4","last_reported":1721488017,"current_range_meters":0,"station_id":"ce4bhbh2rcd13ifvqepg","pricing_plan_id":"cebpf4jnsgd1na2vs0mg"},{"bike_id":"cdad0f62-b121-4342-baba-fe5a2f2a76a2","system_id":"levelo_inurba_marseille","lat":43.28423,"lon":5.34976,"is_reserved":false,"is_disabled":false,"rental_uris":{"android":"levelo://app?vid=cdad0f62-b121-4342-baba-fe5a2f2a76a2","ios":"levelo://app?vid=cdad0f62-b121-4342-baba-fe5a2f2a76a2"},"vehicle_type_id":"4","last_reported":1721488017,"current_range_meters":7600,"station_id":"ce4bhbh2rcd13ifvqepg","pricing_plan_id":"cebpf4jnsgd1na2vs0mg"},{"bike_id":"2376b671-913f-458c-b95a-66205e2ccad3","system_id":"levelo_inurba_marseille","lat":43.284219,"lon":5.3497,"is_reserved":false,"is_disabled":false,"rental_uris":{"android":"levelo://app?vid=2376b671-913f-458c-b95a-66205e2ccad3","ios":"levelo://app?vid=2376b671-913f-458c-b95a-66205e2ccad3"},"vehicle_type_id":"4","last_reported":1721488017,"current_range_meters":27200,"station_id":"ce4bhbh2rcd13ifvqepg","pricing_plan_id":"cebpf4jnsgd1na2vs0mg"},{"bike_id":"18032a8a-b403-4f50-aa54-f2e81556fa14","system_id":"levelo_inurba_marseille","lat":43.28422,"lon":5.34978,"is_reserved":false,"is_disabled":false,"rental_uris":{"android":"levelo://app?vid=18032a8a-b403-4f50-aa54-f2e81556fa14","ios":"levelo://app?vid=18032a8a-b403-4f50-aa54-f2e81556fa14"},"vehicle_type_id":"4","last_reported":1721488017,"current_range_meters":18800,"station_id":"ce4bhbh2rcd13ifvqepg","pricing_plan_id":"cebpf4jnsgd1na2vs0mg"},{"bike_id":"0d66567f-80cc-48b6-885e-0d891682d7e8","system_id":"levelo_inurba_marseille","lat":43.2842,"lon":5.34984,"is_reserved":false,"is_disabled":false,"rental_uris":{"android":"levelo://app?vid=0d66567f-80cc-48b6-885e-0d891682d7e8","ios":"levelo://app?vid=0d66567f-80cc-48b6-885e-0d891682d7e8"},"vehicle_type_id":"4","last_reported":1721488017,"current_range_meters":1200,"station_id":"ce4bhbh2rcd13ifvqepg","pricing_plan_id":"cebpf4jnsgd1na2vs0mg"},{"bike_id":"d107088a-f13b-42d4-a79a-bbdb5eb15dca","system_id":"levelo_inurba_marseille","lat":43.28418,"lon":5.3499,"is_reserved":false,"is_disabled":false,"rental_uris":{"android":"levelo://app?vid=d107088a-f13b-42d4-a79a-bbdb5eb15dca","ios":"levelo://app?vid=d107088a-f13b-42d4-a79a-bbdb5eb15dca"},"vehicle_type_id":"4","last_reported":1721488017,"current_range_meters":4400,"station_id":"ce4bhbh2rcd13ifvqepg","pricing_plan_id":"cebpf4jnsgd1na2vs0mg"},{"bike_id":"96cef790-44b6-442f-9183-20b4541da7ef","system_id":"levelo_inurba_marseille","lat":43.284205,"lon":5.349811,"is_reserved":false,"is_disabled":false,"rental_uris":{"android":"levelo://app?vid=96cef790-44b6-442f-9183-20b4541da7ef","ios":"levelo://app?vid=96cef790-44b6-442f-9183-20b4541da7ef"},"vehicle_type_id":"4","last_reported":1721488017,"current_range_meters":0,"station_id":"ce4bhbh2rcd13ifvqepg","pricing_plan_id":"cebpf4jnsgd1na2vs0mg"},{"bike_id":"104ff711-cb90-46fe-96e3-4b5693a0405c","system_id":"levelo_inurba_marseille","lat":43.28422,"lon":5.34976,"is_reserved":false,"is_disabled":false,"rental_uris":{"android":"levelo://app?vid=104ff711-cb90-46fe-96e3-4b5693a0405c","ios":"levelo://app?vid=104ff711-cb90-46fe-96e3-4b5693a0405c"},"vehicle_type_id":"4","last_reported":1721488017,"current_range_meters":4400,"station_id":"ce4bhbh2rcd13ifvqepg","pricing_plan_id":"cebpf4jnsgd1na2vs0mg"},{"bike_id":"9b196894-914e-48aa-ab1a-b1d08918fc7a","system_id":"levelo_inurba_marseille","lat":43.28422,"lon":5.34976,"is_reserved":false,"is_disabled":false,"rental_uris":{"android":"levelo://app?vid=9b196894-914e-48aa-ab1a-b1d08918fc7a","ios":"levelo://app?vid=9b196894-914e-48aa-ab1a-b1d08918fc7a"},"vehicle_type_id":"4","last_reported":1721488017,"current_range_meters":19200,"station_id":"ce4bhbh2rcd13ifvqepg","pricing_plan_id":"cebpf4jnsgd1na2vs0mg"},{"bike_id":"b1087de5-b140-4c08-88cd-beabdd84f9a9","system_id":"levelo_inurba_marseille","lat":43.2842,"lon":5.34982,"is_reserved":false,"is_disabled":false,"rental_uris":{"android":"levelo://app?vid=b1087de5-b140-4c08-88cd-beabdd84f9a9","ios":"levelo://app?vid=b1087de5-b140-4c08-88cd-beabdd84f9a9"},"vehicle_type_id":"4","last_reported":1721488017,"current_range_meters":16800,"station_id":"ce4bhbh2rcd13ifvqepg","pricing_plan_id":"cebpf4jnsgd1na2vs0mg"},{"bike_id":"b1bc7fdc-38f7-421e-8b18-dd9ae84be69b","system_id":"levelo_inurba_marseille","lat":43.284156,"lon":5.349952,"is_reserved":false,"is_disabled":false,"rental_uris":{"android":"levelo://app?vid=b1bc7fdc-38f7-421e-8b18-dd9ae84be69b","ios":"levelo://app?vid=b1bc7fdc-38f7-421e-8b18-dd9ae84be69b"},"vehicle_type_id":"4","last_reported":1721488017,"current_range_meters":28800,"station_id":"ce4bhbh2rcd13ifvqepg","pricing_plan_id":"cebpf4jnsgd1na2vs0mg"},{"bike_id":"d4c7898b-5a53-4244-a15b-ce838f0e8c77","system_id":"levelo_inurba_marseille","lat":43.284192,"lon":5.34983,"is_reserved":false,"is_disabled":false,"rental_uris":{"android":"levelo://app?vid=d4c7898b-5a53-4244-a15b-ce838f0e8c77","ios":"levelo://app?vid=d4c7898b-5a53-4244-a15b-ce838f0e8c77"},"vehicle_type_id":"4","last_reported":1721488017,"current_range_meters":9600,"station_id":"ce4bhbh2rcd13ifvqepg","pricing_plan_id":"cebpf4jnsgd1na2vs0mg"},{"bike_id":"4f2a371a-6e82-45be-ba21-1560d7445f75","system_id":"levelo_inurba_marseille","lat":43.284217,"lon":5.349697,"is_reserved":false,"is_disabled":false,"rental_uris":{"android":"levelo://app?vid=4f2a371a-6e82-45be-ba21-1560d7445f75","ios":"levelo://app?vid=4f2a371a-6e82-45be-ba21-1560d7445f75"},"vehicle_type_id":"4","last_reported":1721488017,"current_range_meters":29200,"station_id":"ce4bhbh2rcd13ifvqepg","pricing_plan_id":"cebpf4jnsgd1na2vs0mg"},{"bike_id":"b7f43319-bf92-4411-abb2-db02b396b321","system_id":"levelo_inurba_marseille","lat":43.28416,"lon":5.34992,"is_reserved":false,"is_disabled":false,"rental_uris":{"android":"levelo://app?vid=b7f43319-bf92-4411-abb2-db02b396b321","ios":"levelo://app?vid=b7f43319-bf92-4411-abb2-db02b396b321"},"vehicle_type_id":"4","last_reported":1721488017,"current_range_meters":17200,"station_id":"ce4bhbh2rcd13ifvqepg","pricing_plan_id":"cebpf4jnsgd1na2vs0mg"},{"bike_id":"376fe7fd-eccb-41f8-928d-c28e2f7edfc7","system_id":"levelo_inurba_marseille","lat":43.28414,"lon":5.34997,"is_reserved":false,"is_disabled":false,"rental_uris":{"android":"levelo://app?vid=376fe7fd-eccb-41f8-928d-c28e2f7edfc7","ios":"levelo://app?vid=376fe7fd-eccb-41f8-928d-c28e2f7edfc7"},"vehicle_type_id":"4","last_reported":1721488017,"current_range_meters":14400,"station_id":"ce4bhbh2rcd13ifvqepg","pricing_plan_id":"cebpf4jnsgd1na2vs0mg"},{"bike_id":"f3ebdc09-698a-49d1-a0a2-3a16410ee69a","system_id":"levelo_inurba_marseille","lat":43.28417,"lon":5.34987,"is_reserved":false,"is_disabled":false,"rental_uris":{"android":"levelo://app?vid=f3ebdc09-698a-49d1-a0a2-3a16410ee69a","ios":"levelo://app?vid=f3ebdc09-698a-49d1-a0a2-3a16410ee69a"},"vehicle_type_id":"4","last_reported":1721488017,"current_range_meters":11200,"station_id":"ce4bhbh2rcd13ifvqepg","pricing_plan_id":"cebpf4jnsgd1na2vs0mg"},{"bike_id":"8529164b-6164-4dcb-935a-e682dbf458bf","system_id":"levelo_inurba_marseille","lat":43.28416,"lon":5.3499,"is_reserved":false,"is_disabled":false,"rental_uris":{"android":"levelo://app?vid=8529164b-6164-4dcb-935a-e682dbf458bf","ios":"levelo://app?vid=8529164b-6164-4dcb-935a-e682dbf458bf"},"vehicle_type_id":"4","last_reported":1721488017,"current_range_meters":11200,"station_id":"ce4bhbh2rcd13ifvqepg","pricing_plan_id":"cebpf4jnsgd1na2vs0mg"},{"bike_id":"e2ac0a54-973b-4802-9a8b-672c4f8eee49","system_id":"levelo_inurba_marseille","lat":43.284182,"lon":5.349824,"is_reserved":false,"is_disabled":false,"rental_uris":{"android":"levelo://app?vid=e2ac0a54-973b-4802-9a8b-672c4f8eee49","ios":"levelo://app?vid=e2ac0a54-973b-4802-9a8b-672c4f8eee49"},"vehicle_type_id":"4","last_reported":1721488017,"current_range_meters":16000,"station_id":"ce4bhbh2rcd13ifvqepg","pricing_plan_id":"cebpf4jnsgd1na2vs0mg"},{"bike_id":"9dc9c6f5-7fec-45a0-a783-b7f117fde958","system_id":"levelo_inurba_marseille","lat":43.284185,"lon":5.349811,"is_reserved":false,"is_disabled":false,"rental_uris":{"android":"levelo://app?vid=9dc9c6f5-7fec-45a0-a783-b7f117fde958","ios":"levelo://app?vid=9dc9c6f5-7fec-45a0-a783-b7f117fde958"},"vehicle_type_id":"4","last_reported":1721488017,"current_range_meters":22800,"station_id":"ce4bhbh2rcd13ifvqepg","pricing_plan_id":"cebpf4jnsgd1na2vs0mg"},{"bike_id":"bb31b62a-421d-4a1f-b546-4cfda7f9490c","system_id":"levelo_inurba_marseille","lat":43.284217,"lon":5.349697,"is_reserved":false,"is_disabled":false,"rental_uris":{"android":"levelo://app?vid=bb31b62a-421d-4a1f-b546-4cfda7f9490c","ios":"levelo://app?vid=bb31b62a-421d-4a1f-b546-4cfda7f9490c"},"vehicle_type_id":"4","last_reported":1721488017,"current_range_meters":21600,"station_id":"ce4bhbh2rcd13ifvqepg","pricing_plan_id":"cebpf4jnsgd1na2vs0mg"},{"bike_id":"a71366e8-be96-41dc-8983-7b59301203ec","system_id":"levelo_inurba_marseille","lat":43.28418,"lon":5.34982,"is_reserved":false,"is_disabled":false,"rental_uris":{"android":"levelo://app?vid=a71366e8-be96-41dc-8983-7b59301203ec","ios":"levelo://app?vid=a71366e8-be96-41dc-8983-7b59301203ec"},"vehicle_type_id":"4","last_reported":1721488017,"current_range_meters":0,"station_id":"ce4bhbh2rcd13ifvqepg","pricing_plan_id":"cebpf4jnsgd1na2vs0mg"},{"bike_id":"30022924-d539-46bc-9007-e6c2d21e813a","system_id":"levelo_inurba_marseille","lat":43.28416,"lon":5.34988,"is_reserved":false,"is_disabled":false,"rental_uris":{"android":"levelo://app?vid=30022924-d539-46bc-9007-e6c2d21e813a","ios":"levelo://app?vid=30022924-d539-46bc-9007-e6c2d21e813a"},"vehicle_type_id":"4","last_reported":1721488017,"current_range_meters":19200,"station_id":"ce4bhbh2rcd13ifvqepg","pricing_plan_id":"cebpf4jnsgd1na2vs0mg"},{"bike_id":"cd5c6a30-6408-422f-9bd7-331c5ca0ad45","system_id":"levelo_inurba_marseille","lat":43.284214,"lon":5.349706,"is_reserved":false,"is_disabled":false,"rental_uris":{"android":"levelo://app?vid=cd5c6a30-6408-422f-9bd7-331c5ca0ad45","ios":"levelo://app?vid=cd5c6a30-6408-422f-9bd7-331c5ca0ad45"},"vehicle_type_id":"4","last_reported":1721488017,"current_range_meters":12000,"station_id":"ce4bhbh2rcd13ifvqepg","pricing_plan_id":"cebpf4jnsgd1na2vs0mg"},{"bike_id":"30e5cb23-9760-4bfd-88fd-35e005a835e4","system_id":"levelo_inurba_marseille","lat":43.28418,"lon":5.34981,"is_reserved":false,"is_disabled":false,"rental_uris":{"android":"levelo://app?vid=30e5cb23-9760-4bfd-88fd-35e005a835e4","ios":"levelo://app?vid=30e5cb23-9760-4bfd-88fd-35e005a835e4"},"vehicle_type_id":"4","last_reported":1721488017,"current_range_meters":8400,"station_id":"ce4bhbh2rcd13ifvqepg","pricing_plan_id":"cebpf4jnsgd1na2vs0mg"},{"bike_id":"e9b8a29c-958e-43e0-ab5d-bfe2fccd9471","system_id":"levelo_inurba_marseille","lat":43.284217,"lon":5.349697,"is_reserved":false,"is_disabled":false,"rental_uris":{"android":"levelo://app?vid=e9b8a29c-958e-43e0-ab5d-bfe2fccd9471","ios":"levelo://app?vid=e9b8a29c-958e-43e0-ab5d-bfe2fccd9471"},"vehicle_type_id":"4","last_reported":1721488017,"current_range_meters":31200,"station_id":"ce4bhbh2rcd13ifvqepg","pricing_plan_id":"cebpf4jnsgd1na2vs0mg"},{"bike_id":"5f02eccc-2a4b-4724-8f27-f28747f333a1","system_id":"levelo_inurba_marseille","lat":43.28415,"lon":5.34988,"is_reserved":false,"is_disabled":false,"rental_uris":{"android":"levelo://app?vid=5f02eccc-2a4b-4724-8f27-f28747f333a1","ios":"levelo://app?vid=5f02eccc-2a4b-4724-8f27-f28747f333a1"},"vehicle_type_id":"4","last_reported":1721488017,"current_range_meters":9200,"station_id":"ce4bhbh2rcd13ifvqepg","pricing_plan_id":"cebpf4jnsgd1na2vs0mg"},{"bike_id":"45a0d879-46b1-4d99-b200-bfdb067e502e","system_id":"levelo_inurba_marseille","lat":43.284163,"lon":5.349826,"is_reserved":false,"is_disabled":false,"rental_uris":{"android":"levelo://app?vid=45a0d879-46b1-4d99-b200-bfdb067e502e","ios":"levelo://app?vid=45a0d879-46b1-4d99-b200-bfdb067e502e"},"vehicle_type_id":"4","last_reported":1721488017,"current_range_meters":0,"station_id":"ce4bhbh2rcd13ifvqepg","pricing_plan_id":"cebpf4jnsgd1na2vs0mg"},{"bike_id":"77023030-aac8-46dd-931f-6ad2e1446f6c","system_id":"levelo_inurba_marseille","lat":43.284147,"lon":5.34987,"is_reserved":false,"is_disabled":false,"rental_uris":{"android":"levelo://app?vid=77023030-aac8-46dd-931f-6ad2e1446f6c","ios":"levelo://app?vid=77023030-aac8-46dd-931f-6ad2e1446f6c"},"vehicle_type_id":"4","last_reported":1721488017,"current_range_meters":14800,"station_id":"ce4bhbh2rcd13ifvqepg","pricing_plan_id":"cebpf4jnsgd1na2vs0mg"},{"bike_id":"2703c03b-f8eb-40ad-b3f1-f643fdd4ec67","system_id":"levelo_inurba_marseille","lat":43.284149,"lon":5.349861,"is_reserved":false,"is_disabled":false,"rental_uris":{"android":"levelo://app?vid=2703c03b-f8eb-40ad-b3f1-f643fdd4ec67","ios":"levelo://app?vid=2703c03b-f8eb-40ad-b3f1-f643fdd4ec67"},"vehicle_type_id":"4","last_reported":1721488017,"current_range_meters":30800,"station_id":"ce4bhbh2rcd13ifvqepg","pricing_plan_id":"cebpf4jnsgd1na2vs0mg"},{"bike_id":"6379f4b3-6e36-427e-8b0a-9cf7f8538ad5","system_id":"levelo_inurba_marseille","lat":43.284217,"lon":5.349697,"is_reserved":false,"is_disabled":false,"rental_uris":{"android":"levelo://app?vid=6379f4b3-6e36-427e-8b0a-9cf7f8538ad5","ios":"levelo://app?vid=6379f4b3-6e36-427e-8b0a-9cf7f8538ad5"},"vehicle_type_id":"4","last_reported":1721488017,"current_range_meters":31200,"station_id":"ce4bhbh2rcd13ifvqepg","pricing_plan_id":"cebpf4jnsgd1na2vs0mg"},{"bike_id":"a7c06dc6-2ea3-4106-94f3-59f369dd7488","system_id":"levelo_inurba_marseille","lat":43.284217,"lon":5.349697,"is_reserved":false,"is_disabled":false,"rental_uris":{"android":"levelo://app?vid=a7c06dc6-2ea3-4106-94f3-59f369dd7488","ios":"levelo://app?vid=a7c06dc6-2ea3-4106-94f3-59f369dd7488"},"vehicle_type_id":"4","last_reported":1721488017,"current_range_meters":7600,"station_id":"ce4bhbh2rcd13ifvqepg","pricing_plan_id":"cebpf4jnsgd1na2vs0mg"},{"bike_id":"68227a07-a454-4c11-b102-de55354c8095","system_id":"levelo_inurba_marseille","lat":43.28413,"lon":5.34991,"is_reserved":false,"is_disabled":false,"rental_uris":{"android":"levelo://app?vid=68227a07-a454-4c11-b102-de55354c8095","ios":"levelo://app?vid=68227a07-a454-4c11-b102-de55354c8095"},"vehicle_type_id":"4","last_reported":1721488017,"current_range_meters":12000,"station_id":"ce4bhbh2rcd13ifvqepg","pricing_plan_id":"cebpf4jnsgd1na2vs0mg"},{"bike_id":"04f1affe-9e1b-4736-a803-245c814da694","system_id":"levelo_inurba_marseille","lat":43.284119,"lon":5.349936,"is_reserved":false,"is_disabled":false,"rental_uris":{"android":"levelo://app?vid=04f1affe-9e1b-4736-a803-245c814da694","ios":"levelo://app?vid=04f1affe-9e1b-4736-a803-245c814da694"},"vehicle_type_id":"4","last_reported":1721488017,"current_range_meters":15200,"station_id":"ce4bhbh2rcd13ifvqepg","pricing_plan_id":"cebpf4jnsgd1na2vs0mg"},{"bike_id":"7533bdd9-7303-432c-bc3f-e195757b951d","system_id":"levelo_inurba_marseille","lat":43.28416,"lon":5.34978,"is_reserved":false,"is_disabled":false,"rental_uris":{"android":"levelo://app?vid=7533bdd9-7303-432c-bc3f-e195757b951d","ios":"levelo://app?vid=7533bdd9-7303-432c-bc3f-e195757b951d"},"vehicle_type_id":"4","last_reported":1721488017,"current_range_meters":7200,"station_id":"ce4bhbh2rcd13ifvqepg","pricing_plan_id":"cebpf4jnsgd1na2vs0mg"},{"bike_id":"1c07e0de-1732-4e72-abb4-20b9a609e379","system_id":"levelo_inurba_marseille","lat":43.28414,"lon":5.34984,"is_reserved":false,"is_disabled":false,"rental_uris":{"android":"levelo://app?vid=1c07e0de-1732-4e72-abb4-20b9a609e379","ios":"levelo://app?vid=1c07e0de-1732-4e72-abb4-20b9a609e379"},"vehicle_type_id":"4","last_reported":1721488017,"current_range_meters":16000,"station_id":"ce4bhbh2rcd13ifvqepg","pricing_plan_id":"cebpf4jnsgd1na2vs0mg"},{"bike_id":"05a3db44-636e-4f3a-91f4-4fa17ac26b0a","system_id":"levelo_inurba_marseille","lat":43.28413,"lon":5.34987,"is_reserved":false,"is_disabled":false,"rental_uris":{"android":"levelo://app?vid=05a3db44-636e-4f3a-91f4-4fa17ac26b0a","ios":"levelo://app?vid=05a3db44-636e-4f3a-91f4-4fa17ac26b0a"},"vehicle_type_id":"4","last_reported":1721488017,"current_range_meters":4000,"station_id":"ce4bhbh2rcd13ifvqepg","pricing_plan_id":"cebpf4jnsgd1na2vs0mg"},{"bike_id":"534aaf7a-c344-47cf-a933-9bd72de9adc1","system_id":"levelo_inurba_marseille","lat":43.28411,"lon":5.34993,"is_reserved":false,"is_disabled":false,"rental_uris":{"android":"levelo://app?vid=534aaf7a-c344-47cf-a933-9bd72de9adc1","ios":"levelo://app?vid=534aaf7a-c344-47cf-a933-9bd72de9adc1"},"vehicle_type_id":"4","last_reported":1721488017,"current_range_meters":10400,"station_id":"ce4bhbh2rcd13ifvqepg","pricing_plan_id":"cebpf4jnsgd1na2vs0mg"},{"bike_id":"b009a377-06b3-4915-8ff1-55ef41fe86b9","system_id":"levelo_inurba_marseille","lat":43.284214,"lon":5.349706,"is_reserved":false,"is_disabled":false,"rental_uris":{"android":"levelo://app?vid=b009a377-06b3-4915-8ff1-55ef41fe86b9","ios":"levelo://app?vid=b009a377-06b3-4915-8ff1-55ef41fe86b9"},"vehicle_type_id":"4","last_reported":1721488017,"current_range_meters":32000,"station_id":"ce4bhbh2rcd13ifvqepg","pricing_plan_id":"cebpf4jnsgd1na2vs0mg"},{"bike_id":"18114a27-01ef-4ec9-bc74-aa236687e817","system_id":"levelo_inurba_marseille","lat":43.28414,"lon":5.34982,"is_reserved":false,"is_disabled":false,"rental_uris":{"android":"levelo://app?vid=18114a27-01ef-4ec9-bc74-aa236687e817","ios":"levelo://app?vid=18114a27-01ef-4ec9-bc74-aa236687e817"},"vehicle_type_id":"4","last_reported":1721488017,"current_range_meters":18000,"station_id":"ce4bhbh2rcd13ifvqepg","pricing_plan_id":"cebpf4jnsgd1na2vs0mg"},{"bike_id":"28aff4b5-2e4d-4249-97bb-545d224d010c","system_id":"levelo_inurba_marseille","lat":43.284214,"lon":5.349706,"is_reserved":false,"is_disabled":false,"rental_uris":{"android":"levelo://app?vid=28aff4b5-2e4d-4249-97bb-545d224d010c","ios":"levelo://app?vid=28aff4b5-2e4d-4249-97bb-545d224d010c"},"vehicle_type_id":"4","last_reported":1721488017,"current_range_meters":2000,"station_id":"ce4bhbh2rcd13ifvqepg","pricing_plan_id":"cebpf4jnsgd1na2vs0mg"},{"bike_id":"f28d2d68-a380-44c4-a92c-272e4ea74e56","system_id":"levelo_inurba_marseille","lat":43.284214,"lon":5.349706,"is_reserved":false,"is_disabled":false,"rental_uris":{"android":"levelo://app?vid=f28d2d68-a380-44c4-a92c-272e4ea74e56","ios":"levelo://app?vid=f28d2d68-a380-44c4-a92c-272e4ea74e56"},"vehicle_type_id":"4","last_reported":1721488017,"current_range_meters":21600,"station_id":"ce4bhbh2rcd13ifvqepg","pricing_plan_id":"cebpf4jnsgd1na2vs0mg"},{"bike_id":"3f7c24f1-c1cd-4206-9b32-d383e0d3162d","system_id":"levelo_inurba_marseille","lat":43.284103,"lon":5.349887,"is_reserved":false,"is_disabled":false,"rental_uris":{"android":"levelo://app?vid=3f7c24f1-c1cd-4206-9b32-d383e0d3162d","ios":"levelo://app?vid=3f7c24f1-c1cd-4206-9b32-d383e0d3162d"},"vehicle_type_id":"4","last_reported":1721488017,"current_range_meters":14000,"station_id":"ce4bhbh2rcd13ifvqepg","pricing_plan_id":"cebpf4jnsgd1na2vs0mg"},{"bike_id":"4b3d0945-3b6e-4a42-a4a6-79ec9911eba3","system_id":"levelo_inurba_marseille","lat":43.28412,"lon":5.34979,"is_reserved":false,"is_disabled":false,"rental_uris":{"android":"levelo://app?vid=4b3d0945-3b6e-4a42-a4a6-79ec9911eba3","ios":"levelo://app?vid=4b3d0945-3b6e-4a42-a4a6-79ec9911eba3"},"vehicle_type_id":"4","last_reported":1721488017,"current_range_meters":1200,"station_id":"ce4bhbh2rcd13ifvqepg","pricing_plan_id":"cebpf4jnsgd1na2vs0mg"},{"bike_id":"182e6d51-db53-434e-918e-73e74694298d","system_id":"levelo_inurba_marseille","lat":43.28407,"lon":5.34986,"is_reserved":false,"is_disabled":false,"rental_uris":{"android":"levelo://app?vid=182e6d51-db53-434e-918e-73e74694298d","ios":"levelo://app?vid=182e6d51-db53-434e-918e-73e74694298d"},"vehicle_type_id":"4","last_reported":1721488017,"current_range_meters":1600,"station_id":"ce4bhbh2rcd13ifvqepg","pricing_plan_id":"cebpf4jnsgd1na2vs0mg"},{"bike_id":"ffa34baa-7746-491c-8d23-e71a05d1f5da","system_id":"levelo_inurba_marseille","lat":43.284214,"lon":5.349706,"is_reserved":false,"is_disabled":false,"rental_uris":{"android":"levelo://app?vid=ffa34baa-7746-491c-8d23-e71a05d1f5da","ios":"levelo://app?vid=ffa34baa-7746-491c-8d23-e71a05d1f5da"},"vehicle_type_id":"4","last_reported":1721488017,"current_range_meters":15600,"station_id":"ce4bhbh2rcd13ifvqepg","pricing_plan_id":"cebpf4jnsgd1na2vs0mg"},{"bike_id":"50336615-cb40-4c20-90f6-0784dd991843","system_id":"levelo_inurba_marseille","lat":43.284214,"lon":5.349706,"is_reserved":false,"is_disabled":false,"rental_uris":{"android":"levelo://app?vid=50336615-cb40-4c20-90f6-0784dd991843","ios":"levelo://app?vid=50336615-cb40-4c20-90f6-0784dd991843"},"vehicle_type_id":"4","last_reported":1721488017,"current_range_meters":19200,"station_id":"ce4bhbh2rcd13ifvqepg","pricing_plan_id":"cebpf4jnsgd1na2vs0mg"},{"bike_id":"de0a09f1-09d6-463e-a900-2a0dd8f4e299","system_id":"levelo_inurba_marseille","lat":43.284214,"lon":5.349706,"is_reserved":false,"is_disabled":false,"rental_uris":{"android":"levelo://app?vid=de0a09f1-09d6-463e-a900-2a0dd8f4e299","ios":"levelo://app?vid=de0a09f1-09d6-463e-a900-2a0dd8f4e299"},"vehicle_type_id":"4","last_reported":1721488017,"current_range_meters":24000,"station_id":"ce4bhbh2rcd13ifvqepg","pricing_plan_id":"cebpf4jnsgd1na2vs0mg"},{"bike_id":"6b1a9741-e438-4d4e-b574-438d4c35aed0","system_id":"levelo_inurba_marseille","lat":43.292644,"lon":5.384257,"is_reserved":false,"is_disabled":false,"rental_uris":{"android":"levelo://app?vid=6b1a9741-e438-4d4e-b574-438d4c35aed0","ios":"levelo://app?vid=6b1a9741-e438-4d4e-b574-438d4c35aed0"},"vehicle_type_id":"4","last_reported":1721488017,"current_range_meters":22400,"station_id":"ce4bh692rcd13ifvqea0","pricing_plan_id":"cebpf4jnsgd1na2vs0mg"},{"bike_id":"c39fb312-076b-4509-8568-dc77fb0c3337","system_id":"levelo_inurba_marseille","lat":43.292724,"lon":5.401131,"is_reserved":false,"is_disabled":false,"rental_uris":{"android":"levelo://app?vid=c39fb312-076b-4509-8568-dc77fb0c3337","ios":"levelo://app?vid=c39fb312-076b-4509-8568-dc77fb0c3337"},"vehicle_type_id":"4","last_reported":1721488017,"current_range_meters":11200,"station_id":"ce4bh312rcd13ifvqdk0","pricing_plan_id":"cebpf4jnsgd1na2vs0mg"},{"bike_id":"0faa3ac2-acbc-4a5a-82c0-cc7ab4adb870","system_id":"levelo_inurba_marseille","lat":43.292724,"lon":5.401131,"is_reserved":false,"is_disabled":false,"rental_uris":{"android":"levelo://app?vid=0faa3ac2-acbc-4a5a-82c0-cc7ab4adb870","ios":"levelo://app?vid=0faa3ac2-acbc-4a5a-82c0-cc7ab4adb870"},"vehicle_type_id":"4","last_reported":1721488017,"current_range_meters":0,"station_id":"ce4bh312rcd13ifvqdk0","pricing_plan_id":"cebpf4jnsgd1na2vs0mg"},{"bike_id":"914a85f7-1b3e-4add-8c85-b8dc627f5c8c","system_id":"levelo_inurba_marseille","lat":43.28282,"lon":5.35064,"is_reserved":false,"is_disabled":false,"rental_uris":{"android":"levelo://app?vid=914a85f7-1b3e-4add-8c85-b8dc627f5c8c","ios":"levelo://app?vid=914a85f7-1b3e-4add-8c85-b8dc627f5c8c"},"vehicle_type_id":"4","last_reported":1721488017,"current_range_meters":0,"station_id":"ce4bhbp2rcd13ifvqerg","pricing_plan_id":"cebpf4jnsgd1na2vs0mg"},{"bike_id":"3c4498d7-64d6-4c83-b3d2-0d195b8157f5","system_id":"levelo_inurba_marseille","lat":43.282761,"lon":5.350797,"is_reserved":false,"is_disabled":false,"rental_uris":{"android":"levelo://app?vid=3c4498d7-64d6-4c83-b3d2-0d195b8157f5","ios":"levelo://app?vid=3c4498d7-64d6-4c83-b3d2-0d195b8157f5"},"vehicle_type_id":"4","last_reported":1721488017,"current_range_meters":19200,"station_id":"ce4bhbp2rcd13ifvqerg","pricing_plan_id":"cebpf4jnsgd1na2vs0mg"},{"bike_id":"c77933d5-37a5-4c79-b6fc-762cf111c4e9","system_id":"levelo_inurba_marseille","lat":43.282752,"lon":5.350769,"is_reserved":false,"is_disabled":false,"rental_uris":{"android":"levelo://app?vid=c77933d5-37a5-4c79-b6fc-762cf111c4e9","ios":"levelo://app?vid=c77933d5-37a5-4c79-b6fc-762cf111c4e9"},"vehicle_type_id":"4","last_reported":1721488017,"current_range_meters":22800,"station_id":"ce4bhbp2rcd13ifvqerg","pricing_plan_id":"cebpf4jnsgd1na2vs0mg"},{"bike_id":"1b605120-f65c-4aa3-9192-d040e0248e57","system_id":"levelo_inurba_marseille","lat":43.282772,"lon":5.350635,"is_reserved":false,"is_disabled":false,"rental_uris":{"android":"levelo://app?vid=1b605120-f65c-4aa3-9192-d040e0248e57","ios":"levelo://app?vid=1b605120-f65c-4aa3-9192-d040e0248e57"},"vehicle_type_id":"4","last_reported":1721488017,"current_range_meters":21200,"station_id":"ce4bhbp2rcd13ifvqerg","pricing_plan_id":"cebpf4jnsgd1na2vs0mg"},{"bike_id":"9c8bd2a5-a2c5-491b-b96c-315c5255d17b","system_id":"levelo_inurba_marseille","lat":43.28275,"lon":5.35068,"is_reserved":false,"is_disabled":false,"rental_uris":{"android":"levelo://app?vid=9c8bd2a5-a2c5-491b-b96c-315c5255d17b","ios":"levelo://app?vid=9c8bd2a5-a2c5-491b-b96c-315c5255d17b"},"vehicle_type_id":"4","last_reported":1721488017,"current_range_meters":2800,"station_id":"ce4bhbp2rcd13ifvqerg","pricing_plan_id":"cebpf4jnsgd1na2vs0mg"},{"bike_id":"a7ca81c2-d44f-4884-af3f-28a7145c251e","system_id":"levelo_inurba_marseille","lat":43.28275,"lon":5.35067,"is_reserved":false,"is_disabled":false,"rental_uris":{"android":"levelo://app?vid=a7ca81c2-d44f-4884-af3f-28a7145c251e","ios":"levelo://app?vid=a7ca81c2-d44f-4884-af3f-28a7145c251e"},"vehicle_type_id":"4","last_reported":1721488017,"current_range_meters":17600,"station_id":"ce4bhbp2rcd13ifvqerg","pricing_plan_id":"cebpf4jnsgd1na2vs0mg"},{"bike_id":"dd49179f-c264-4310-afe6-b9367a011f58","system_id":"levelo_inurba_marseille","lat":43.28276,"lon":5.35061,"is_reserved":false,"is_disabled":false,"rental_uris":{"android":"levelo://app?vid=dd49179f-c264-4310-afe6-b9367a011f58","ios":"levelo://app?vid=dd49179f-c264-4310-afe6-b9367a011f58"},"vehicle_type_id":"4","last_reported":1721488017,"current_range_meters":13200,"station_id":"ce4bhbp2rcd13ifvqerg","pricing_plan_id":"cebpf4jnsgd1na2vs0mg"},{"bike_id":"bc14565c-0a66-438b-a7f5-8983286db2c9","system_id":"levelo_inurba_marseille","lat":43.282753,"lon":5.350632,"is_reserved":false,"is_disabled":false,"rental_uris":{"android":"levelo://app?vid=bc14565c-0a66-438b-a7f5-8983286db2c9","ios":"levelo://app?vid=bc14565c-0a66-438b-a7f5-8983286db2c9"},"vehicle_type_id":"4","last_reported":1721488017,"current_range_meters":0,"station_id":"ce4bhbp2rcd13ifvqerg","pricing_plan_id":"cebpf4jnsgd1na2vs0mg"},{"bike_id":"33385900-cde3-4784-a7cc-2448ef48774c","system_id":"levelo_inurba_marseille","lat":43.28273,"lon":5.35071,"is_reserved":false,"is_disabled":false,"rental_uris":{"android":"levelo://app?vid=33385900-cde3-4784-a7cc-2448ef48774c","ios":"levelo://app?vid=33385900-cde3-4784-a7cc-2448ef48774c"},"vehicle_type_id":"4","last_reported":1721488017,"current_range_meters":6000,"station_id":"ce4bhbp2rcd13ifvqerg","pricing_plan_id":"cebpf4jnsgd1na2vs0mg"},{"bike_id":"551b91fe-96af-4139-a741-7476c96d490d","system_id":"levelo_inurba_marseille","lat":43.282718,"lon":5.35071,"is_reserved":false,"is_disabled":false,"rental_uris":{"android":"levelo://app?vid=551b91fe-96af-4139-a741-7476c96d490d","ios":"levelo://app?vid=551b91fe-96af-4139-a741-7476c96d490d"},"vehicle_type_id":"4","last_reported":1721488017,"current_range_meters":31200,"station_id":"ce4bhbp2rcd13ifvqerg","pricing_plan_id":"cebpf4jnsgd1na2vs0mg"},{"bike_id":"e0215425-d0b2-4f97-a2d8-b70d86099e69","system_id":"levelo_inurba_marseille","lat":43.28271,"lon":5.35071,"is_reserved":false,"is_disabled":false,"rental_uris":{"android":"levelo://app?vid=e0215425-d0b2-4f97-a2d8-b70d86099e69","ios":"levelo://app?vid=e0215425-d0b2-4f97-a2d8-b70d86099e69"},"vehicle_type_id":"4","last_reported":1721488017,"current_range_meters":7200,"station_id":"ce4bhbp2rcd13ifvqerg","pricing_plan_id":"cebpf4jnsgd1na2vs0mg"},{"bike_id":"d0ada120-e4eb-4e9a-90a7-3508c32083e7","system_id":"levelo_inurba_marseille","lat":43.28271,"lon":5.3507,"is_reserved":false,"is_disabled":false,"rental_uris":{"android":"levelo://app?vid=d0ada120-e4eb-4e9a-90a7-3508c32083e7","ios":"levelo://app?vid=d0ada120-e4eb-4e9a-90a7-3508c32083e7"},