{"last_updated":1712938096,"ttl":30,"version":"2.2","data":{"bikes":[{"bike_id":"64c50fa7-fb40-477e-b1ca-25665dcb3942","system_id":"levelo_inurba_marseille","lat":43.31233,"lon":5.36863,"is_reserved":false,"is_disabled":false,"rental_uris":{"android":"levelo://app?vid=64c50fa7-fb40-477e-b1ca-25665dcb3942","ios":"levelo://app?vid=64c50fa7-fb40-477e-b1ca-25665dcb3942"},"vehicle_type_id":"4","last_reported":1712938096,"current_range_meters":0,"station_id":"ce4bgl92rcd13ifvqbq0","pricing_plan_id":"cebpf4jnsgd1na2vs0mg"},{"bike_id":"adbda96a-fa8d-4142-ac3d-a4288228d8f8","system_id":"levelo_inurba_marseille","lat":43.309039,"lon":5.371797,"is_reserved":false,"is_disabled":false,"rental_uris":{"android":"levelo://app?vid=adbda96a-fa8d-4142-ac3d-a4288228d8f8","ios":"levelo://app?vid=adbda96a-fa8d-4142-ac3d-a4288228d8f8"},"vehicle_type_id":"4","last_reported":1712938096,"current_range_meters":31200,"station_id":"ce4bguh2rcd13ifvqckg","pricing_plan_id":"cebpf4jnsgd1na2vs0mg"},{"bike_id":"c172110a-7e59-4ecb-bbd2-38452df36402","system_id":"levelo_inurba_marseille","lat":43.31495,"lon":5.37309,"is_reserved":false,"is_disabled":false,"rental_uris":{"android":"levelo://app?vid=c172110a-7e59-4ecb-bbd2-38452df36402","ios":"levelo://app?vid=c172110a-7e59-4ecb-bbd2-38452df36402"},"vehicle_type_id":"4","last_reported":1712938096,"current_range_meters":0,"station_id":"ce4bgt12rcd13ifvqcd0","pricing_plan_id":"cebpf4jnsgd1na2vs0mg"},{"bike_id":"157f4029-1288-4ba2-ad9b-353879c310d1","system_id":"levelo_inurba_marseille","lat":43.309039,"lon":5.371797,"is_reserved":false,"is_disabled":false,"rental_uris":{"android":"levelo://app?vid=157f4029-1288-4ba2-ad9b-353879c310d1","ios":"levelo://app?vid=157f4029-1288-4ba2-ad9b-353879c310d1"},"vehicle_type_id":"4","last_reported":1712938096,"current_range_meters":0,"station_id":"ce4bguh2rcd13ifvqckg","pricing_plan_id":"cebpf4jnsgd1na2vs0mg"},{"bike_id":"a55d72ba-34c0-4409-9619-47a1b86e6afe","system_id":"levelo_inurba_marseille","lat":43.30897,"lon":5.37189,"is_reserved":false,"is_disabled":false,"rental_uris":{"android":"levelo://app?vid=a55d72ba-34c0-4409-9619-47a1b86e6afe","ios":"levelo://app?vid=a55d72ba-34c0-4409-9619-47a1b86e6afe"},"vehicle_type_id":"4","last_reported":1712938096,"current_range_meters":12800,"station_id":"ce4bguh2rcd13ifvqckg","pricing_plan_id":"cebpf4jnsgd1na2vs0mg"},{"bike_id":"39568359-f089-402b-9d4b-e2aa1da879bc","system_id":"levelo_inurba_marseille","lat":43.30891,"lon":5.37186,"is_reserved":false,"is_disabled":false,"rental_uris":{"android":"levelo://app?vid=39568359-f089-402b-9d4b-e2aa1da879bc","ios":"levelo://app?vid=39568359-f089-402b-9d4b-e2aa1da879bc"},"vehicle_type_id":"4","last_reported":1712938096,"current_range_meters":16000,"station_id":"ce4bguh2rcd13ifvqckg","pricing_plan_id":"cebpf4jnsgd1na2vs0mg"},{"bike_id":"63978dfd-6860-48b6-8757-82e21e23707a","system_id":"levelo_inurba_marseille","lat":43.308938,"lon":5.371926,"is_reserved":false,"is_disabled":false,"rental_uris":{"android":"levelo://app?vid=63978dfd-6860-48b6-8757-82e21e23707a","ios":"levelo://app?vid=63978dfd-6860-48b6-8757-82e21e23707a"},"vehicle_type_id":"4","last_reported":1712938096,"current_range_meters":7600,"station_id":"ce4bguh2rcd13ifvqckg","pricing_plan_id":"cebpf4jnsgd1na2vs0mg"},{"bike_id":"23d41ccd-aa5a-48cb-921f-34ae49dd2a55","system_id":"levelo_inurba_marseille","lat":43.30885,"lon":5.37194,"is_reserved":false,"is_disabled":false,"rental_uris":{"android":"levelo://app?vid=23d41ccd-aa5a-48cb-921f-34ae49dd2a55","ios":"levelo://app?vid=23d41ccd-aa5a-48cb-921f-34ae49dd2a55"},"vehicle_type_id":"4","last_reported":1712938096,"current_range_meters":14400,"station_id":"ce4bguh2rcd13ifvqckg","pricing_plan_id":"cebpf4jnsgd1na2vs0mg"},{"bike_id":"76f3901d-f4c5-40e6-8f39-d8686fd469b1","system_id":"levelo_inurba_marseille","lat":43.309039,"lon":5.371797,"is_reserved":false,"is_disabled":false,"rental_uris":{"android":"levelo://app?vid=76f3901d-f4c5-40e6-8f39-d8686fd469b1","ios":"levelo://app?vid=76f3901d-f4c5-40e6-8f39-d8686fd469b1"},"vehicle_type_id":"4","last_reported":1712938096,"current_range_meters":8800,"station_id":"ce4bguh2rcd13ifvqckg","pricing_plan_id":"cebpf4jnsgd1na2vs0mg"},{"bike_id":"6846d0eb-6cac-43da-974f-a43dd1bb6296","system_id":"levelo_inurba_marseille","lat":43.30537,"lon":5.367345,"is_reserved":false,"is_disabled":false,"rental_uris":{"android":"levelo://app?vid=6846d0eb-6cac-43da-974f-a43dd1bb6296","ios":"levelo://app?vid=6846d0eb-6cac-43da-974f-a43dd1bb6296"},"vehicle_type_id":"4","last_reported":1712938096,"current_range_meters":0,"station_id":"ce4bgrp2rcd13ifvqc9g","pricing_plan_id":"cebpf4jnsgd1na2vs0mg"},{"bike_id":"78d7bd22-6ae8-4566-9891-1f41c4d038e6","system_id":"levelo_inurba_marseille","lat":43.30549,"lon":5.36543,"is_reserved":false,"is_disabled":false,"rental_uris":{"android":"levelo://app?vid=78d7bd22-6ae8-4566-9891-1f41c4d038e6","ios":"levelo://app?vid=78d7bd22-6ae8-4566-9891-1f41c4d038e6"},"vehicle_type_id":"4","last_reported":1712938096,"current_range_meters":0,"station_id":"ce4bgs12rcd13ifvqcag","pricing_plan_id":"cebpf4jnsgd1na2vs0mg"},{"bike_id":"fd2ad0e6-0342-445f-8733-6083c0105bf3","system_id":"levelo_inurba_marseille","lat":43.30549,"lon":5.36541,"is_reserved":false,"is_disabled":false,"rental_uris":{"android":"levelo://app?vid=fd2ad0e6-0342-445f-8733-6083c0105bf3","ios":"levelo://app?vid=fd2ad0e6-0342-445f-8733-6083c0105bf3"},"vehicle_type_id":"4","last_reported":1712938096,"current_range_meters":0,"station_id":"ce4bgs12rcd13ifvqcag","pricing_plan_id":"cebpf4jnsgd1na2vs0mg"},{"bike_id":"2c5eeada-6ba8-49f4-96c1-89339cde5567","system_id":"levelo_inurba_marseille","lat":43.305714,"lon":5.365633,"is_reserved":false,"is_disabled":false,"rental_uris":{"android":"levelo://app?vid=2c5eeada-6ba8-49f4-96c1-89339cde5567","ios":"levelo://app?vid=2c5eeada-6ba8-49f4-96c1-89339cde5567"},"vehicle_type_id":"4","last_reported":1712938096,"current_range_meters":0,"station_id":"ce4bgs12rcd13ifvqcag","pricing_plan_id":"cebpf4jnsgd1na2vs0mg"},{"bike_id":"cbe4b0ee-a1d6-4028-8a0a-33d443ab1ec6","system_id":"levelo_inurba_marseille","lat":43.305706,"lon":5.365654,"is_reserved":false,"is_disabled":false,"rental_uris":{"android":"levelo://app?vid=cbe4b0ee-a1d6-4028-8a0a-33d443ab1ec6","ios":"levelo://app?vid=cbe4b0ee-a1d6-4028-8a0a-33d443ab1ec6"},"vehicle_type_id":"4","last_reported":1712938096,"current_range_meters":21600,"station_id":"ce4bgs12rcd13ifvqcag","pricing_plan_id":"cebpf4jnsgd1na2vs0mg"},{"bike_id":"26e9fb99-0e85-404a-8ca1-73dffa7f95f2","system_id":"levelo_inurba_marseille","lat":43.305989,"lon":5.37225,"is_reserved":false,"is_disabled":false,"rental_uris":{"android":"levelo://app?vid=26e9fb99-0e85-404a-8ca1-73dffa7f95f2","ios":"levelo://app?vid=26e9fb99-0e85-404a-8ca1-73dffa7f95f2"},"vehicle_type_id":"4","last_reported":1712938096,"current_range_meters":8400,"station_id":"ce4bgqh2rcd13ifvqc4g","pricing_plan_id":"cebpf4jnsgd1na2vs0mg"},{"bike_id":"88919d39-25d1-4c10-8c44-eaefc9e29a93","system_id":"levelo_inurba_marseille","lat":43.306013,"lon":5.372234,"is_reserved":false,"is_disabled":false,"rental_uris":{"android":"levelo://app?vid=88919d39-25d1-4c10-8c44-eaefc9e29a93","ios":"levelo://app?vid=88919d39-25d1-4c10-8c44-eaefc9e29a93"},"vehicle_type_id":"4","last_reported":1712938096,"current_range_meters":16800,"station_id":"ce4bgqh2rcd13ifvqc4g","pricing_plan_id":"cebpf4jnsgd1na2vs0mg"},{"bike_id":"795301f5-6284-483c-9f6a-c9d7a0e97d69","system_id":"levelo_inurba_marseille","lat":43.305989,"lon":5.37225,"is_reserved":false,"is_disabled":false,"rental_uris":{"android":"levelo://app?vid=795301f5-6284-483c-9f6a-c9d7a0e97d69","ios":"levelo://app?vid=795301f5-6284-483c-9f6a-c9d7a0e97d69"},"vehicle_type_id":"4","last_reported":1712938096,"current_range_meters":2800,"station_id":"ce4bgqh2rcd13ifvqc4g","pricing_plan_id":"cebpf4jnsgd1na2vs0mg"},{"bike_id":"b7428d29-daae-4a0d-a1c8-68a17afba381","system_id":"levelo_inurba_marseille","lat":43.311125,"lon":5.377624,"is_reserved":false,"is_disabled":false,"rental_uris":{"android":"levelo://app?vid=b7428d29-daae-4a0d-a1c8-68a17afba381","ios":"levelo://app?vid=b7428d29-daae-4a0d-a1c8-68a17afba381"},"vehicle_type_id":"4","last_reported":1712938096,"current_range_meters":4800,"station_id":"ce4bgt92rcd13ifvqcg0","pricing_plan_id":"cebpf4jnsgd1na2vs0mg"},{"bike_id":"1fca430f-41e8-4735-8b80-58b21dfb2c15","system_id":"levelo_inurba_marseille","lat":43.311125,"lon":5.377624,"is_reserved":false,"is_disabled":false,"rental_uris":{"android":"levelo://app?vid=1fca430f-41e8-4735-8b80-58b21dfb2c15","ios":"levelo://app?vid=1fca430f-41e8-4735-8b80-58b21dfb2c15"},"vehicle_type_id":"4","last_reported":1712938096,"current_range_meters":31200,"station_id":"ce4bgt92rcd13ifvqcg0","pricing_plan_id":"cebpf4jnsgd1na2vs0mg"},{"bike_id":"a28fa4c4-61f6-4c88-ae1a-10819f34532f","system_id":"levelo_inurba_marseille","lat":43.307945,"lon":5.376487,"is_reserved":false,"is_disabled":false,"rental_uris":{"android":"levelo://app?vid=a28fa4c4-61f6-4c88-ae1a-10819f34532f","ios":"levelo://app?vid=a28fa4c4-61f6-4c88-ae1a-10819f34532f"},"vehicle_type_id":"4","last_reported":1712938096,"current_range_meters":16800,"station_id":"ce4bgv92rcd13ifvqcq0","pricing_plan_id":"cebpf4jnsgd1na2vs0mg"},{"bike_id":"fb8b3873-0129-4ef3-98e9-bba136be3f03","system_id":"levelo_inurba_marseille","lat":43.307945,"lon":5.376487,"is_reserved":false,"is_disabled":false,"rental_uris":{"android":"levelo://app?vid=fb8b3873-0129-4ef3-98e9-bba136be3f03","ios":"levelo://app?vid=fb8b3873-0129-4ef3-98e9-bba136be3f03"},"vehicle_type_id":"4","last_reported":1712938096,"current_range_meters":7600,"station_id":"ce4bgv92rcd13ifvqcq0","pricing_plan_id":"cebpf4jnsgd1na2vs0mg"},{"bike_id":"aeda716d-e3d7-4c46-affe-c0feeb20e8a7","system_id":"levelo_inurba_marseille","lat":43.317064,"lon":5.377074,"is_reserved":false,"is_disabled":false,"rental_uris":{"android":"levelo://app?vid=aeda716d-e3d7-4c46-affe-c0feeb20e8a7","ios":"levelo://app?vid=aeda716d-e3d7-4c46-affe-c0feeb20e8a7"},"vehicle_type_id":"4","last_reported":1712938096,"current_range_meters":0,"station_id":"ce4bgth2rcd13ifvqch0","pricing_plan_id":"cebpf4jnsgd1na2vs0mg"},{"bike_id":"182a637a-2e78-47a9-85ea-3c833e9f9509","system_id":"levelo_inurba_marseille","lat":43.317075,"lon":5.377367,"is_reserved":false,"is_disabled":false,"rental_uris":{"android":"levelo://app?vid=182a637a-2e78-47a9-85ea-3c833e9f9509","ios":"levelo://app?vid=182a637a-2e78-47a9-85ea-3c833e9f9509"},"vehicle_type_id":"4","last_reported":1712938096,"current_range_meters":22000,"station_id":"ce4bgth2rcd13ifvqch0","pricing_plan_id":"cebpf4jnsgd1na2vs0mg"},{"bike_id":"c5b8501e-2761-458e-98d3-12903e2a370d","system_id":"levelo_inurba_marseille","lat":43.317075,"lon":5.377367,"is_reserved":false,"is_disabled":false,"rental_uris":{"android":"levelo://app?vid=c5b8501e-2761-458e-98d3-12903e2a370d","ios":"levelo://app?vid=c5b8501e-2761-458e-98d3-12903e2a370d"},"vehicle_type_id":"4","last_reported":1712938096,"current_range_meters":29600,"station_id":"ce4bgth2rcd13ifvqch0","pricing_plan_id":"cebpf4jnsgd1na2vs0mg"},{"bike_id":"37493ad0-20dd-4941-8828-fdd672f44ae5","system_id":"levelo_inurba_marseille","lat":43.303027,"lon":5.369027,"is_reserved":false,"is_disabled":false,"rental_uris":{"android":"levelo://app?vid=37493ad0-20dd-4941-8828-fdd672f44ae5","ios":"levelo://app?vid=37493ad0-20dd-4941-8828-fdd672f44ae5"},"vehicle_type_id":"4","last_reported":1712938096,"current_range_meters":0,"station_id":"ce4bgqh2rcd13ifvqc5g","pricing_plan_id":"cebpf4jnsgd1na2vs0mg"},{"bike_id":"bc81d5b4-8ffa-462e-bbca-8953ddfab956","system_id":"levelo_inurba_marseille","lat":43.303002,"lon":5.392142,"is_reserved":false,"is_disabled":false,"rental_uris":{"android":"levelo://app?vid=bc81d5b4-8ffa-462e-bbca-8953ddfab956","ios":"levelo://app?vid=bc81d5b4-8ffa-462e-bbca-8953ddfab956"},"vehicle_type_id":"4","last_reported":1712938096,"current_range_meters":400,"station_id":"ce4bgkh2rcd13ifvqbk0","pricing_plan_id":"cebpf4jnsgd1na2vs0mg"},{"bike_id":"dae46956-0e22-41ab-b202-4c2d67d1ff80","system_id":"levelo_inurba_marseille","lat":43.303046,"lon":5.368981,"is_reserved":false,"is_disabled":false,"rental_uris":{"android":"levelo://app?vid=dae46956-0e22-41ab-b202-4c2d67d1ff80","ios":"levelo://app?vid=dae46956-0e22-41ab-b202-4c2d67d1ff80"},"vehicle_type_id":"4","last_reported":1712938096,"current_range_meters":19200,"station_id":"ce4bgqh2rcd13ifvqc5g","pricing_plan_id":"cebpf4jnsgd1na2vs0mg"},{"bike_id":"920effa0-f77f-4fae-a2a8-ec72e0b78ba9","system_id":"levelo_inurba_marseille","lat":43.315293,"lon":5.380349,"is_reserved":false,"is_disabled":false,"rental_uris":{"android":"levelo://app?vid=920effa0-f77f-4fae-a2a8-ec72e0b78ba9","ios":"levelo://app?vid=920effa0-f77f-4fae-a2a8-ec72e0b78ba9"},"vehicle_type_id":"4","last_reported":1712938096,"current_range_meters":4000,"station_id":"ce4bhsp2rcd13ifvqi50","pricing_plan_id":"cebpf4jnsgd1na2vs0mg"},{"bike_id":"85f31640-38ac-4213-8a07-e3c9747fbb43","system_id":"levelo_inurba_marseille","lat":43.315289,"lon":5.380349,"is_reserved":false,"is_disabled":false,"rental_uris":{"android":"levelo://app?vid=85f31640-38ac-4213-8a07-e3c9747fbb43","ios":"levelo://app?vid=85f31640-38ac-4213-8a07-e3c9747fbb43"},"vehicle_type_id":"4","last_reported":1712938096,"current_range_meters":24800,"station_id":"ce4bhsp2rcd13ifvqi50","pricing_plan_id":"cebpf4jnsgd1na2vs0mg"},{"bike_id":"1ab2f589-a18a-4165-a057-7e4ef72271df","system_id":"levelo_inurba_marseille","lat":43.315289,"lon":5.380349,"is_reserved":false,"is_disabled":false,"rental_uris":{"android":"levelo://app?vid=1ab2f589-a18a-4165-a057-7e4ef72271df","ios":"levelo://app?vid=1ab2f589-a18a-4165-a057-7e4ef72271df"},"vehicle_type_id":"4","last_reported":1712938096,"current_range_meters":13600,"station_id":"ce4bhsp2rcd13ifvqi50","pricing_plan_id":"cebpf4jnsgd1na2vs0mg"},{"bike_id":"c973c696-6cf3-4ef6-9922-20142626237f","system_id":"levelo_inurba_marseille","lat":43.30282,"lon":5.37259,"is_reserved":false,"is_disabled":false,"rental_uris":{"android":"levelo://app?vid=c973c696-6cf3-4ef6-9922-20142626237f","ios":"levelo://app?vid=c973c696-6cf3-4ef6-9922-20142626237f"},"vehicle_type_id":"4","last_reported":1712938096,"current_range_meters":18400,"station_id":"","pricing_plan_id":"cebpf4jnsgd1na2vs0mg"},{"bike_id":"412c70c6-adc7-4809-bbc0-ece397da80d4","system_id":"levelo_inurba_marseille","lat":43.301939,"lon":5.366286,"is_reserved":false,"is_disabled":false,"rental_uris":{"android":"levelo://app?vid=412c70c6-adc7-4809-bbc0-ece397da80d4","ios":"levelo://app?vid=412c70c6-adc7-4809-bbc0-ece397da80d4"},"vehicle_type_id":"4","last_reported":1712938096,"current_range_meters":3200,"station_id":"ce4bgrh2rcd13ifvqc8g","pricing_plan_id":"cebpf4jnsgd1na2vs0mg"},{"bike_id":"55d280b3-3edf-424d-a072-33a765b43467","system_id":"levelo_inurba_marseille","lat":43.3019,"lon":5.36613,"is_reserved":false,"is_disabled":false,"rental_uris":{"android":"levelo://app?vid=55d280b3-3edf-424d-a072-33a765b43467","ios":"levelo://app?vid=55d280b3-3edf-424d-a072-33a765b43467"},"vehicle_type_id":"4","last_reported":1712938096,"current_range_meters":0,"station_id":"ce4bgrh2rcd13ifvqc8g","pricing_plan_id":"cebpf4jnsgd1na2vs0mg"},{"bike_id":"92c42faf-f3c0-4e18-9a5c-95a96378b32d","system_id":"levelo_inurba_marseille","lat":43.301939,"lon":5.366286,"is_reserved":false,"is_disabled":false,"rental_uris":{"android":"levelo://app?vid=92c42faf-f3c0-4e18-9a5c-95a96378b32d","ios":"levelo://app?vid=92c42faf-f3c0-4e18-9a5c-95a96378b32d"},"vehicle_type_id":"4","last_reported":1712938096,"current_range_meters":15600,"station_id":"ce4bgrh2rcd13ifvqc8g","pricing_plan_id":"cebpf4jnsgd1na2vs0mg"},{"bike_id":"0eadaa70-5189-46ab-a27d-13db00a524f9","system_id":"levelo_inurba_marseille","lat":43.301939,"lon":5.366286,"is_reserved":false,"is_disabled":false,"rental_uris":{"android":"levelo://app?vid=0eadaa70-5189-46ab-a27d-13db00a524f9","ios":"levelo://app?vid=0eadaa70-5189-46ab-a27d-13db00a524f9"},"vehicle_type_id":"4","last_reported":1712938096,"current_range_meters":3600,"station_id":"ce4bgrh2rcd13ifvqc8g","pricing_plan_id":"cebpf4jnsgd1na2vs0mg"},{"bike_id":"f7106449-a582-4a1f-ba38-a27d3df852d4","system_id":"levelo_inurba_marseille","lat":43.304827,"lon":5.378976,"is_reserved":false,"is_disabled":false,"rental_uris":{"android":"levelo://app?vid=f7106449-a582-4a1f-ba38-a27d3df852d4","ios":"levelo://app?vid=f7106449-a582-4a1f-ba38-a27d3df852d4"},"vehicle_type_id":"4","last_reported":1712938096,"current_range_meters":0,"station_id":"ce4bgup2rcd13ifvqcn0","pricing_plan_id":"cebpf4jnsgd1na2vs0mg"},{"bike_id":"d24e0b16-8c0e-4246-9630-a8a63f0a0dd6","system_id":"levelo_inurba_marseille","lat":43.30472,"lon":5.37896,"is_reserved":false,"is_disabled":false,"rental_uris":{"android":"levelo://app?vid=d24e0b16-8c0e-4246-9630-a8a63f0a0dd6","ios":"levelo://app?vid=d24e0b16-8c0e-4246-9630-a8a63f0a0dd6"},"vehicle_type_id":"4","last_reported":1712938096,"current_range_meters":0,"station_id":"ce4bgup2rcd13ifvqcn0","pricing_plan_id":"cebpf4jnsgd1na2vs0mg"},{"bike_id":"148b5be5-b300-4704-87f2-e0cbe033b481","system_id":"levelo_inurba_marseille","lat":43.302759,"lon":5.400793,"is_reserved":false,"is_disabled":false,"rental_uris":{"android":"levelo://app?vid=148b5be5-b300-4704-87f2-e0cbe033b481","ios":"levelo://app?vid=148b5be5-b300-4704-87f2-e0cbe033b481"},"vehicle_type_id":"4","last_reported":1712938096,"current_range_meters":2000,"station_id":"ce4bgvh2rcd13ifvqcs0","pricing_plan_id":"cebpf4jnsgd1na2vs0mg"},{"bike_id":"d98a2216-5836-48f4-8d33-715ec299fc50","system_id":"levelo_inurba_marseille","lat":43.278401,"lon":5.392152,"is_reserved":false,"is_disabled":false,"rental_uris":{"android":"levelo://app?vid=d98a2216-5836-48f4-8d33-715ec299fc50","ios":"levelo://app?vid=d98a2216-5836-48f4-8d33-715ec299fc50"},"vehicle_type_id":"4","last_reported":1712938096,"current_range_meters":3600,"station_id":"ce4bhjp2rcd13ifvqga0","pricing_plan_id":"cebpf4jnsgd1na2vs0mg"},{"bike_id":"059dcd77-b156-4846-a2f6-dcc7ed292848","system_id":"levelo_inurba_marseille","lat":43.30465,"lon":5.37914,"is_reserved":false,"is_disabled":false,"rental_uris":{"android":"levelo://app?vid=059dcd77-b156-4846-a2f6-dcc7ed292848","ios":"levelo://app?vid=059dcd77-b156-4846-a2f6-dcc7ed292848"},"vehicle_type_id":"4","last_reported":1712938096,"current_range_meters":0,"station_id":"ce4bgup2rcd13ifvqcn0","pricing_plan_id":"cebpf4jnsgd1na2vs0mg"},{"bike_id":"433e4bd9-7017-4cd6-850f-171d6cde65c5","system_id":"levelo_inurba_marseille","lat":43.324771,"lon":5.36557,"is_reserved":false,"is_disabled":false,"rental_uris":{"android":"levelo://app?vid=433e4bd9-7017-4cd6-850f-171d6cde65c5","ios":"levelo://app?vid=433e4bd9-7017-4cd6-850f-171d6cde65c5"},"vehicle_type_id":"4","last_reported":1712938096,"current_range_meters":11600,"station_id":"ce4bhs12rcd13ifvqhvg","pricing_plan_id":"cebpf4jnsgd1na2vs0mg"},{"bike_id":"cee460b5-6e81-45ef-ba60-a4ad69d96257","system_id":"levelo_inurba_marseille","lat":43.32479,"lon":5.36564,"is_reserved":false,"is_disabled":false,"rental_uris":{"android":"levelo://app?vid=cee460b5-6e81-45ef-ba60-a4ad69d96257","ios":"levelo://app?vid=cee460b5-6e81-45ef-ba60-a4ad69d96257"},"vehicle_type_id":"4","last_reported":1712938096,"current_range_meters":400,"station_id":"ce4bhs12rcd13ifvqhvg","pricing_plan_id":"cebpf4jnsgd1na2vs0mg"},{"bike_id":"e368bbc8-c024-4a66-bbda-67532c1af4e2","system_id":"levelo_inurba_marseille","lat":43.324771,"lon":5.36557,"is_reserved":false,"is_disabled":false,"rental_uris":{"android":"levelo://app?vid=e368bbc8-c024-4a66-bbda-67532c1af4e2","ios":"levelo://app?vid=e368bbc8-c024-4a66-bbda-67532c1af4e2"},"vehicle_type_id":"4","last_reported":1712938096,"current_range_meters":14800,"station_id":"ce4bhs12rcd13ifvqhvg","pricing_plan_id":"cebpf4jnsgd1na2vs0mg"},{"bike_id":"c3ca3dc8-f762-4c94-8221-497e1c1be993","system_id":"levelo_inurba_marseille","lat":43.32485,"lon":5.36563,"is_reserved":false,"is_disabled":false,"rental_uris":{"android":"levelo://app?vid=c3ca3dc8-f762-4c94-8221-497e1c1be993","ios":"levelo://app?vid=c3ca3dc8-f762-4c94-8221-497e1c1be993"},"vehicle_type_id":"4","last_reported":1712938096,"current_range_meters":3200,"station_id":"ce4bhs12rcd13ifvqhvg","pricing_plan_id":"cebpf4jnsgd1na2vs0mg"},{"bike_id":"5cfd7907-43f1-4bfe-9d68-f50a49745152","system_id":"levelo_inurba_marseille","lat":43.324877,"lon":5.365616,"is_reserved":false,"is_disabled":false,"rental_uris":{"android":"levelo://app?vid=5cfd7907-43f1-4bfe-9d68-f50a49745152","ios":"levelo://app?vid=5cfd7907-43f1-4bfe-9d68-f50a49745152"},"vehicle_type_id":"4","last_reported":1712938096,"current_range_meters":16400,"station_id":"ce4bhs12rcd13ifvqhvg","pricing_plan_id":"cebpf4jnsgd1na2vs0mg"},{"bike_id":"4b8786b8-ed00-4e32-86c3-c65fbb3e0584","system_id":"levelo_inurba_marseille","lat":43.310816,"lon":5.383488,"is_reserved":false,"is_disabled":false,"rental_uris":{"android":"levelo://app?vid=4b8786b8-ed00-4e32-86c3-c65fbb3e0584","ios":"levelo://app?vid=4b8786b8-ed00-4e32-86c3-c65fbb3e0584"},"vehicle_type_id":"4","last_reported":1712938096,"current_range_meters":25200,"station_id":"ce4bgv92rcd13ifvqcr0","pricing_plan_id":"cebpf4jnsgd1na2vs0mg"},{"bike_id":"b90c4c93-d193-4d5f-8711-a4ae3d74ed76","system_id":"levelo_inurba_marseille","lat":43.324918,"lon":5.365584,"is_reserved":false,"is_disabled":false,"rental_uris":{"android":"levelo://app?vid=b90c4c93-d193-4d5f-8711-a4ae3d74ed76","ios":"levelo://app?vid=b90c4c93-d193-4d5f-8711-a4ae3d74ed76"},"vehicle_type_id":"4","last_reported":1712938096,"current_range_meters":4000,"station_id":"ce4bhs12rcd13ifvqhvg","pricing_plan_id":"cebpf4jnsgd1na2vs0mg"},{"bike_id":"e075a2dd-7a4f-453a-aef1-37cb20a3f2d6","system_id":"levelo_inurba_marseille","lat":43.310804,"lon":5.38359,"is_reserved":false,"is_disabled":false,"rental_uris":{"android":"levelo://app?vid=e075a2dd-7a4f-453a-aef1-37cb20a3f2d6","ios":"levelo://app?vid=e075a2dd-7a4f-453a-aef1-37cb20a3f2d6"},"vehicle_type_id":"4","last_reported":1712938096,"current_range_meters":3200,"station_id":"ce4bgv92rcd13ifvqcr0","pricing_plan_id":"cebpf4jnsgd1na2vs0mg"},{"bike_id":"09e292e8-cd9f-455c-a486-b9dc8e381e3e","system_id":"levelo_inurba_marseille","lat":43.310804,"lon":5.38359,"is_reserved":false,"is_disabled":false,"rental_uris":{"android":"levelo://app?vid=09e292e8-cd9f-455c-a486-b9dc8e381e3e","ios":"levelo://app?vid=09e292e8-cd9f-455c-a486-b9dc8e381e3e"},"vehicle_type_id":"4","last_reported":1712938096,"current_range_meters":17600,"station_id":"ce4bgv92rcd13ifvqcr0","pricing_plan_id":"cebpf4jnsgd1na2vs0mg"},{"bike_id":"3da179fd-ba6d-4ac5-8ae9-a73ee0c6d3ee","system_id":"levelo_inurba_marseille","lat":43.31071,"lon":5.38354,"is_reserved":false,"is_disabled":false,"rental_uris":{"android":"levelo://app?vid=3da179fd-ba6d-4ac5-8ae9-a73ee0c6d3ee","ios":"levelo://app?vid=3da179fd-ba6d-4ac5-8ae9-a73ee0c6d3ee"},"vehicle_type_id":"4","last_reported":1712938096,"current_range_meters":0,"station_id":"ce4bgv92rcd13ifvqcr0","pricing_plan_id":"cebpf4jnsgd1na2vs0mg"},{"bike_id":"a840c384-2872-46a7-88cb-3ea589d73a75","system_id":"levelo_inurba_marseille","lat":43.31089,"lon":5.3836,"is_reserved":false,"is_disabled":false,"rental_uris":{"android":"levelo://app?vid=a840c384-2872-46a7-88cb-3ea589d73a75","ios":"levelo://app?vid=a840c384-2872-46a7-88cb-3ea589d73a75"},"vehicle_type_id":"4","last_reported":1712938096,"current_range_meters":15200,"station_id":"ce4bgv92rcd13ifvqcr0","pricing_plan_id":"cebpf4jnsgd1na2vs0mg"},{"bike_id":"1cbb4d82-444b-4536-9748-e31e1f7c62fc","system_id":"levelo_inurba_marseille","lat":43.31076,"lon":5.38362,"is_reserved":false,"is_disabled":false,"rental_uris":{"android":"levelo://app?vid=1cbb4d82-444b-4536-9748-e31e1f7c62fc","ios":"levelo://app?vid=1cbb4d82-444b-4536-9748-e31e1f7c62fc"},"vehicle_type_id":"4","last_reported":1712938096,"current_range_meters":0,"station_id":"ce4bgv92rcd13ifvqcr0","pricing_plan_id":"cebpf4jnsgd1na2vs0mg"},{"bike_id":"f635bf7b-a0dc-4091-89d6-e236f15adaf6","system_id":"levelo_inurba_marseille","lat":43.31076,"lon":5.38362,"is_reserved":false,"is_disabled":false,"rental_uris":{"android":"levelo://app?vid=f635bf7b-a0dc-4091-89d6-e236f15adaf6","ios":"levelo://app?vid=f635bf7b-a0dc-4091-89d6-e236f15adaf6"},"vehicle_type_id":"4","last_reported":1712938096,"current_range_meters":19200,"station_id":"ce4bgv92rcd13ifvqcr0","pricing_plan_id":"cebpf4jnsgd1na2vs0mg"},{"bike_id":"369b3151-352b-4f36-bed9-f01c4d09f39c","system_id":"levelo_inurba_marseille","lat":43.310724,"lon":5.383616,"is_reserved":false,"is_disabled":false,"rental_uris":{"android":"levelo://app?vid=369b3151-352b-4f36-bed9-f01c4d09f39c","ios":"levelo://app?vid=369b3151-352b-4f36-bed9-f01c4d09f39c"},"vehicle_type_id":"4","last_reported":1712938096,"current_range_meters":0,"station_id":"ce4bgv92rcd13ifvqcr0","pricing_plan_id":"cebpf4jnsgd1na2vs0mg"},{"bike_id":"0c76f7d6-f9d0-45e1-838e-2483fc46f83c","system_id":"levelo_inurba_marseille","lat":43.301429,"lon":5.37413,"is_reserved":false,"is_disabled":false,"rental_uris":{"android":"levelo://app?vid=0c76f7d6-f9d0-45e1-838e-2483fc46f83c","ios":"levelo://app?vid=0c76f7d6-f9d0-45e1-838e-2483fc46f83c"},"vehicle_type_id":"4","last_reported":1712938096,"current_range_meters":0,"station_id":"ce4bgs92rcd13ifvqcc0","pricing_plan_id":"cebpf4jnsgd1na2vs0mg"},{"bike_id":"48beb130-ced9-402f-939b-7fa0a052d4f7","system_id":"levelo_inurba_marseille","lat":43.319935,"lon":5.381699,"is_reserved":false,"is_disabled":false,"rental_uris":{"android":"levelo://app?vid=48beb130-ced9-402f-939b-7fa0a052d4f7","ios":"levelo://app?vid=48beb130-ced9-402f-939b-7fa0a052d4f7"},"vehicle_type_id":"4","last_reported":1712938096,"current_range_meters":800,"station_id":"ce4bhr12rcd13ifvqhpg","pricing_plan_id":"cebpf4jnsgd1na2vs0mg"},{"bike_id":"804e52fa-53fe-4695-9b10-0796b1e3442d","system_id":"levelo_inurba_marseille","lat":43.313571,"lon":5.384829,"is_reserved":false,"is_disabled":false,"rental_uris":{"android":"levelo://app?vid=804e52fa-53fe-4695-9b10-0796b1e3442d","ios":"levelo://app?vid=804e52fa-53fe-4695-9b10-0796b1e3442d"},"vehicle_type_id":"4","last_reported":1712938096,"current_range_meters":8000,"station_id":"ce4bgt92rcd13ifvqcf0","pricing_plan_id":"cebpf4jnsgd1na2vs0mg"},{"bike_id":"b5f7d08c-a1b7-4eb8-8514-a2fc64cc16d4","system_id":"levelo_inurba_marseille","lat":43.299724,"lon":5.371829,"is_reserved":false,"is_disabled":false,"rental_uris":{"android":"levelo://app?vid=b5f7d08c-a1b7-4eb8-8514-a2fc64cc16d4","ios":"levelo://app?vid=b5f7d08c-a1b7-4eb8-8514-a2fc64cc16d4"},"vehicle_type_id":"4","last_reported":1712938096,"current_range_meters":20400,"station_id":"ce4bgr92rcd13ifvqc7g","pricing_plan_id":"cebpf4jnsgd1na2vs0mg"},{"bike_id":"a72504db-257e-468d-aa60-08fc607d6dae","system_id":"levelo_inurba_marseille","lat":43.310804,"lon":5.38359,"is_reserved":false,"is_disabled":false,"rental_uris":{"android":"levelo://app?vid=a72504db-257e-468d-aa60-08fc607d6dae","ios":"levelo://app?vid=a72504db-257e-468d-aa60-08fc607d6dae"},"vehicle_type_id":"4","last_reported":1712938096,"current_range_meters":7200,"station_id":"ce4bgv92rcd13ifvqcr0","pricing_plan_id":"cebpf4jnsgd1na2vs0mg"},{"bike_id":"2d09c7a3-fef4-4b68-adb0-b62fa1138a72","system_id":"levelo_inurba_marseille","lat":43.315293,"lon":5.380349,"is_reserved":false,"is_disabled":false,"rental_uris":{"android":"levelo://app?vid=2d09c7a3-fef4-4b68-adb0-b62fa1138a72","ios":"levelo://app?vid=2d09c7a3-fef4-4b68-adb0-b62fa1138a72"},"vehicle_type_id":"4","last_reported":1712938096,"current_range_meters":6800,"station_id":"ce4bhsp2rcd13ifvqi50","pricing_plan_id":"cebpf4jnsgd1na2vs0mg"},{"bike_id":"57cfe4ff-86ea-4f2a-9941-707c7433ac29","system_id":"levelo_inurba_marseille","lat":43.298433,"lon":5.362774,"is_reserved":false,"is_disabled":false,"rental_uris":{"android":"levelo://app?vid=57cfe4ff-86ea-4f2a-9941-707c7433ac29","ios":"levelo://app?vid=57cfe4ff-86ea-4f2a-9941-707c7433ac29"},"vehicle_type_id":"4","last_reported":1712938096,"current_range_meters":0,"station_id":"ce4bgpp2rcd13ifvqc3g","pricing_plan_id":"cebpf4jnsgd1na2vs0mg"},{"bike_id":"277f7f91-e60e-4fb4-b8cb-e1002debc60c","system_id":"levelo_inurba_marseille","lat":43.299243,"lon":5.37481,"is_reserved":false,"is_disabled":false,"rental_uris":{"android":"levelo://app?vid=277f7f91-e60e-4fb4-b8cb-e1002debc60c","ios":"levelo://app?vid=277f7f91-e60e-4fb4-b8cb-e1002debc60c"},"vehicle_type_id":"4","last_reported":1712938096,"current_range_meters":24800,"station_id":"ce4bgjh2rcd13ifvqbg0","pricing_plan_id":"cebpf4jnsgd1na2vs0mg"},{"bike_id":"6c91aeb1-c1ac-4b0b-927a-209ee6aedd6d","system_id":"levelo_inurba_marseille","lat":43.31176,"lon":5.38715,"is_reserved":false,"is_disabled":false,"rental_uris":{"android":"levelo://app?vid=6c91aeb1-c1ac-4b0b-927a-209ee6aedd6d","ios":"levelo://app?vid=6c91aeb1-c1ac-4b0b-927a-209ee6aedd6d"},"vehicle_type_id":"4","last_reported":1712938096,"current_range_meters":0,"station_id":"ce4bgv12rcd13ifvqcp0","pricing_plan_id":"cebpf4jnsgd1na2vs0mg"},{"bike_id":"33f9ec6c-35e4-4b80-9ccb-f932f44e8847","system_id":"levelo_inurba_marseille","lat":43.322872,"lon":5.382756,"is_reserved":false,"is_disabled":false,"rental_uris":{"android":"levelo://app?vid=33f9ec6c-35e4-4b80-9ccb-f932f44e8847","ios":"levelo://app?vid=33f9ec6c-35e4-4b80-9ccb-f932f44e8847"},"vehicle_type_id":"4","last_reported":1712938096,"current_range_meters":8800,"station_id":"ce4bhr12rcd13ifvqhqg","pricing_plan_id":"cebpf4jnsgd1na2vs0mg"},{"bike_id":"62f70c15-673b-4b5f-8664-4716e8ac8804","system_id":"levelo_inurba_marseille","lat":43.322872,"lon":5.382756,"is_reserved":false,"is_disabled":false,"rental_uris":{"android":"levelo://app?vid=62f70c15-673b-4b5f-8664-4716e8ac8804","ios":"levelo://app?vid=62f70c15-673b-4b5f-8664-4716e8ac8804"},"vehicle_type_id":"4","last_reported":1712938096,"current_range_meters":3600,"station_id":"ce4bhr12rcd13ifvqhqg","pricing_plan_id":"cebpf4jnsgd1na2vs0mg"},{"bike_id":"b290c218-df0f-46d2-980e-abd9a76de169","system_id":"levelo_inurba_marseille","lat":43.322872,"lon":5.382756,"is_reserved":false,"is_disabled":false,"rental_uris":{"android":"levelo://app?vid=b290c218-df0f-46d2-980e-abd9a76de169","ios":"levelo://app?vid=b290c218-df0f-46d2-980e-abd9a76de169"},"vehicle_type_id":"4","last_reported":1712938096,"current_range_meters":9600,"station_id":"ce4bhr12rcd13ifvqhqg","pricing_plan_id":"cebpf4jnsgd1na2vs0mg"},{"bike_id":"59e100ed-da50-4a3e-9006-d56c9ad9155e","system_id":"levelo_inurba_marseille","lat":43.322872,"lon":5.382756,"is_reserved":false,"is_disabled":false,"rental_uris":{"android":"levelo://app?vid=59e100ed-da50-4a3e-9006-d56c9ad9155e","ios":"levelo://app?vid=59e100ed-da50-4a3e-9006-d56c9ad9155e"},"vehicle_type_id":"4","last_reported":1712938096,"current_range_meters":2000,"station_id":"ce4bhr12rcd13ifvqhqg","pricing_plan_id":"cebpf4jnsgd1na2vs0mg"},{"bike_id":"7202b349-cdb2-4fd2-b3f3-0ba946f2e8f8","system_id":"levelo_inurba_marseille","lat":43.297065,"lon":5.366112,"is_reserved":false,"is_disabled":false,"rental_uris":{"android":"levelo://app?vid=7202b349-cdb2-4fd2-b3f3-0ba946f2e8f8","ios":"levelo://app?vid=7202b349-cdb2-4fd2-b3f3-0ba946f2e8f8"},"vehicle_type_id":"4","last_reported":1712938096,"current_range_meters":0,"station_id":"ce4bgn12rcd13ifvqbt0","pricing_plan_id":"cebpf4jnsgd1na2vs0mg"},{"bike_id":"01c3422d-8d5c-41eb-a8b1-2c81fafcb1e7","system_id":"levelo_inurba_marseille","lat":43.29703,"lon":5.36598,"is_reserved":false,"is_disabled":false,"rental_uris":{"android":"levelo://app?vid=01c3422d-8d5c-41eb-a8b1-2c81fafcb1e7","ios":"levelo://app?vid=01c3422d-8d5c-41eb-a8b1-2c81fafcb1e7"},"vehicle_type_id":"4","last_reported":1712938096,"current_range_meters":17600,"station_id":"","pricing_plan_id":"cebpf4jnsgd1na2vs0mg"},{"bike_id":"f0bbf413-c8a1-4cd6-95c9-88afd23eebe3","system_id":"levelo_inurba_marseille","lat":43.296129,"lon":5.370777,"is_reserved":false,"is_disabled":false,"rental_uris":{"android":"levelo://app?vid=f0bbf413-c8a1-4cd6-95c9-88afd23eebe3","ios":"levelo://app?vid=f0bbf413-c8a1-4cd6-95c9-88afd23eebe3"},"vehicle_type_id":"4","last_reported":1712938096,"current_range_meters":800,"station_id":"ce4bgnh2rcd13ifvqc0g","pricing_plan_id":"cebpf4jnsgd1na2vs0mg"},{"bike_id":"8db23a51-c831-4c11-a753-5c16e9330335","system_id":"levelo_inurba_marseille","lat":43.29582,"lon":5.36739,"is_reserved":false,"is_disabled":false,"rental_uris":{"android":"levelo://app?vid=8db23a51-c831-4c11-a753-5c16e9330335","ios":"levelo://app?vid=8db23a51-c831-4c11-a753-5c16e9330335"},"vehicle_type_id":"4","last_reported":1712938096,"current_range_meters":7600,"station_id":"","pricing_plan_id":"cebpf4jnsgd1na2vs0mg"},{"bike_id":"d320ee4f-e3be-4642-94c6-daa16be4afcd","system_id":"levelo_inurba_marseille","lat":43.296935,"lon":5.376544,"is_reserved":false,"is_disabled":false,"rental_uris":{"android":"levelo://app?vid=d320ee4f-e3be-4642-94c6-daa16be4afcd","ios":"levelo://app?vid=d320ee4f-e3be-4642-94c6-daa16be4afcd"},"vehicle_type_id":"4","last_reported":1712938096,"current_range_meters":22400,"station_id":"ce4bgkh2rcd13ifvqbl0","pricing_plan_id":"cebpf4jnsgd1na2vs0mg"},{"bike_id":"39453987-6096-4a0a-8fc2-9b64f606edad","system_id":"levelo_inurba_marseille","lat":43.29811,"lon":5.38103,"is_reserved":false,"is_disabled":false,"rental_uris":{"android":"levelo://app?vid=39453987-6096-4a0a-8fc2-9b64f606edad","ios":"levelo://app?vid=39453987-6096-4a0a-8fc2-9b64f606edad"},"vehicle_type_id":"4","last_reported":1712938096,"current_range_meters":0,"station_id":"ce4bgip2rcd13ifvqbb0","pricing_plan_id":"cebpf4jnsgd1na2vs0mg"},{"bike_id":"37a0cbad-64a4-4fbf-96fc-0d62cd9e072b","system_id":"levelo_inurba_marseille","lat":43.29582,"lon":5.37501,"is_reserved":false,"is_disabled":false,"rental_uris":{"android":"levelo://app?vid=37a0cbad-64a4-4fbf-96fc-0d62cd9e072b","ios":"levelo://app?vid=37a0cbad-64a4-4fbf-96fc-0d62cd9e072b"},"vehicle_type_id":"4","last_reported":1712938096,"current_range_meters":0,"station_id":"ce4bgh92rcd13ifvqb50","pricing_plan_id":"cebpf4jnsgd1na2vs0mg"},{"bike_id":"42e9ad8a-87ce-4f96-94f3-0dd09feed033","system_id":"levelo_inurba_marseille","lat":43.29577,"lon":5.37496,"is_reserved":false,"is_disabled":false,"rental_uris":{"android":"levelo://app?vid=42e9ad8a-87ce-4f96-94f3-0dd09feed033","ios":"levelo://app?vid=42e9ad8a-87ce-4f96-94f3-0dd09feed033"},"vehicle_type_id":"4","last_reported":1712938096,"current_range_meters":0,"station_id":"ce4bgh92rcd13ifvqb50","pricing_plan_id":"cebpf4jnsgd1na2vs0mg"},{"bike_id":"01318a98-2ffe-4073-a15b-33c3beadb8e1","system_id":"levelo_inurba_marseille","lat":43.304274,"lon":5.388873,"is_reserved":false,"is_disabled":false,"rental_uris":{"android":"levelo://app?vid=01318a98-2ffe-4073-a15b-33c3beadb8e1","ios":"levelo://app?vid=01318a98-2ffe-4073-a15b-33c3beadb8e1"},"vehicle_type_id":"4","last_reported":1712938096,"current_range_meters":3200,"station_id":"ce4bgk12rcd13ifvqbi0","pricing_plan_id":"cebpf4jnsgd1na2vs0mg"},{"bike_id":"f52676cd-4834-46d2-8867-7fff98a86b2a","system_id":"levelo_inurba_marseille","lat":43.296263,"lon":5.377094,"is_reserved":false,"is_disabled":false,"rental_uris":{"android":"levelo://app?vid=f52676cd-4834-46d2-8867-7fff98a86b2a","ios":"levelo://app?vid=f52676cd-4834-46d2-8867-7fff98a86b2a"},"vehicle_type_id":"4","last_reported":1712938096,"current_range_meters":0,"station_id":"ce4bgi92rcd13ifvqb90","pricing_plan_id":"cebpf4jnsgd1na2vs0mg"},{"bike_id":"ffe02d82-65dc-4802-9b42-d7e2d3cba48e","system_id":"levelo_inurba_marseille","lat":43.29528,"lon":5.3745,"is_reserved":false,"is_disabled":false,"rental_uris":{"android":"levelo://app?vid=ffe02d82-65dc-4802-9b42-d7e2d3cba48e","ios":"levelo://app?vid=ffe02d82-65dc-4802-9b42-d7e2d3cba48e"},"vehicle_type_id":"4","last_reported":1712938096,"current_range_meters":0,"station_id":"ce4bgkp2rcd13ifvqbmg","pricing_plan_id":"cebpf4jnsgd1na2vs0mg"},{"bike_id":"ed102660-22d3-41d8-9198-3e2c1b28ec83","system_id":"levelo_inurba_marseille","lat":43.296263,"lon":5.377094,"is_reserved":false,"is_disabled":false,"rental_uris":{"android":"levelo://app?vid=ed102660-22d3-41d8-9198-3e2c1b28ec83","ios":"levelo://app?vid=ed102660-22d3-41d8-9198-3e2c1b28ec83"},"vehicle_type_id":"4","last_reported":1712938096,"current_range_meters":9600,"station_id":"ce4bgi92rcd13ifvqb90","pricing_plan_id":"cebpf4jnsgd1na2vs0mg"},{"bike_id":"dc9ca275-3f14-4238-a0a9-6600bdb1d6c4","system_id":"levelo_inurba_marseille","lat":43.313571,"lon":5.384829,"is_reserved":false,"is_disabled":false,"rental_uris":{"android":"levelo://app?vid=dc9ca275-3f14-4238-a0a9-6600bdb1d6c4","ios":"levelo://app?vid=dc9ca275-3f14-4238-a0a9-6600bdb1d6c4"},"vehicle_type_id":"4","last_reported":1712938096,"current_range_meters":0,"station_id":"ce4bgt92rcd13ifvqcf0","pricing_plan_id":"cebpf4jnsgd1na2vs0mg"},{"bike_id":"d0c26763-4cc1-43fe-9eb9-bcfd0b090fde","system_id":"levelo_inurba_marseille","lat":43.257079,"lon":5.411051,"is_reserved":false,"is_disabled":false,"rental_uris":{"android":"levelo://app?vid=d0c26763-4cc1-43fe-9eb9-bcfd0b090fde","ios":"levelo://app?vid=d0c26763-4cc1-43fe-9eb9-bcfd0b090fde"},"vehicle_type_id":"4","last_reported":1712938096,"current_range_meters":5600,"station_id":"ce4bhkp2rcd13ifvqgd0","pricing_plan_id":"cebpf4jnsgd1na2vs0mg"},{"bike_id":"21c3eaf6-f83a-4a74-9e04-3c16911e9594","system_id":"levelo_inurba_marseille","lat":43.28727,"lon":5.36078,"is_reserved":false,"is_disabled":false,"rental_uris":{"android":"levelo://app?vid=21c3eaf6-f83a-4a74-9e04-3c16911e9594","ios":"levelo://app?vid=21c3eaf6-f83a-4a74-9e04-3c16911e9594"},"vehicle_type_id":"4","last_reported":1712938096,"current_range_meters":24400,"station_id":"cki0cbj6b192h4jlfktg","pricing_plan_id":"cebpf4jnsgd1na2vs0mg"},{"bike_id":"951cacfc-541d-4290-8c5d-d983432f8c69","system_id":"levelo_inurba_marseille","lat":43.29976,"lon":5.38493,"is_reserved":false,"is_disabled":false,"rental_uris":{"android":"levelo://app?vid=951cacfc-541d-4290-8c5d-d983432f8c69","ios":"levelo://app?vid=951cacfc-541d-4290-8c5d-d983432f8c69"},"vehicle_type_id":"4","last_reported":1712938096,"current_range_meters":0,"station_id":"ce4bgj92rcd13ifvqbd0","pricing_plan_id":"cebpf4jnsgd1na2vs0mg"},{"bike_id":"2f0aaa57-d870-471e-b535-c1138f766aac","system_id":"levelo_inurba_marseille","lat":43.299707,"lon":5.384859,"is_reserved":false,"is_disabled":false,"rental_uris":{"android":"levelo://app?vid=2f0aaa57-d870-471e-b535-c1138f766aac","ios":"levelo://app?vid=2f0aaa57-d870-471e-b535-c1138f766aac"},"vehicle_type_id":"4","last_reported":1712938096,"current_range_meters":0,"station_id":"ce4bgj92rcd13ifvqbd0","pricing_plan_id":"cebpf4jnsgd1na2vs0mg"},{"bike_id":"45b04122-1b29-428e-85a4-8ac74c3b8bde","system_id":"levelo_inurba_marseille","lat":43.299724,"lon":5.384848,"is_reserved":false,"is_disabled":false,"rental_uris":{"android":"levelo://app?vid=45b04122-1b29-428e-85a4-8ac74c3b8bde","ios":"levelo://app?vid=45b04122-1b29-428e-85a4-8ac74c3b8bde"},"vehicle_type_id":"4","last_reported":1712938096,"current_range_meters":12800,"station_id":"ce4bgj92rcd13ifvqbd0","pricing_plan_id":"cebpf4jnsgd1na2vs0mg"},{"bike_id":"de8b432e-ae8c-4cfe-86c4-b5bb0f36ca53","system_id":"levelo_inurba_marseille","lat":43.29602,"lon":5.381084,"is_reserved":false,"is_disabled":false,"rental_uris":{"android":"levelo://app?vid=de8b432e-ae8c-4cfe-86c4-b5bb0f36ca53","ios":"levelo://app?vid=de8b432e-ae8c-4cfe-86c4-b5bb0f36ca53"},"vehicle_type_id":"4","last_reported":1712938096,"current_range_meters":0,"station_id":"ce4bgl12rcd13ifvqbo0","pricing_plan_id":"cebpf4jnsgd1na2vs0mg"},{"bike_id":"8c724ef0-9201-4ddc-9327-b96004b89030","system_id":"levelo_inurba_marseille","lat":43.32367,"lon":5.388836,"is_reserved":false,"is_disabled":false,"rental_uris":{"android":"levelo://app?vid=8c724ef0-9201-4ddc-9327-b96004b89030","ios":"levelo://app?vid=8c724ef0-9201-4ddc-9327-b96004b89030"},"vehicle_type_id":"4","last_reported":1712938096,"current_range_meters":0,"station_id":"ce4bhqp2rcd13ifvqhog","pricing_plan_id":"cebpf4jnsgd1na2vs0mg"},{"bike_id":"94f3242e-102c-4b39-a031-822648f348e0","system_id":"levelo_inurba_marseille","lat":43.292005,"lon":5.357875,"is_reserved":false,"is_disabled":false,"rental_uris":{"android":"levelo://app?vid=94f3242e-102c-4b39-a031-822648f348e0","ios":"levelo://app?vid=94f3242e-102c-4b39-a031-822648f348e0"},"vehicle_type_id":"4","last_reported":1712938096,"current_range_meters":11200,"station_id":"ce4bhb12rcd13ifvqel0","pricing_plan_id":"cebpf4jnsgd1na2vs0mg"},{"bike_id":"b74dff10-619c-469b-b1ce-51ba89d043ef","system_id":"levelo_inurba_marseille","lat":43.28727,"lon":5.36078,"is_reserved":false,"is_disabled":false,"rental_uris":{"android":"levelo://app?vid=b74dff10-619c-469b-b1ce-51ba89d043ef","ios":"levelo://app?vid=b74dff10-619c-469b-b1ce-51ba89d043ef"},"vehicle_type_id":"4","last_reported":1712938096,"current_range_meters":14000,"station_id":"cki0cbj6b192h4jlfktg","pricing_plan_id":"cebpf4jnsgd1na2vs0mg"},{"bike_id":"e5c36c35-8e08-47a2-925b-3630b2fb386d","system_id":"levelo_inurba_marseille","lat":43.292749,"lon":5.368402,"is_reserved":false,"is_disabled":false,"rental_uris":{"android":"levelo://app?vid=e5c36c35-8e08-47a2-925b-3630b2fb386d","ios":"levelo://app?vid=e5c36c35-8e08-47a2-925b-3630b2fb386d"},"vehicle_type_id":"4","last_reported":1712938096,"current_range_meters":0,"station_id":"ce4bhbp2rcd13ifvqesg","pricing_plan_id":"cebpf4jnsgd1na2vs0mg"},{"bike_id":"273267cf-b8dc-463a-aaa3-4fd65d7e73a1","system_id":"levelo_inurba_marseille","lat":43.292749,"lon":5.368402,"is_reserved":false,"is_disabled":false,"rental_uris":{"android":"levelo://app?vid=273267cf-b8dc-463a-aaa3-4fd65d7e73a1","ios":"levelo://app?vid=273267cf-b8dc-463a-aaa3-4fd65d7e73a1"},"vehicle_type_id":"4","last_reported":1712938096,"current_range_meters":0,"station_id":"ce4bhbp2rcd13ifvqesg","pricing_plan_id":"cebpf4jnsgd1na2vs0mg"},{"bike_id":"a93ee372-3d9f-4527-bff7-3e8ed5bb3902","system_id":"levelo_inurba_marseille","lat":43.282754,"lon":5.350519,"is_reserved":false,"is_disabled":false,"rental_uris":{"android":"levelo://app?vid=a93ee372-3d9f-4527-bff7-3e8ed5bb3902","ios":"levelo://app?vid=a93ee372-3d9f-4527-bff7-3e8ed5bb3902"},"vehicle_type_id":"4","last_reported":1712938096,"current_range_meters":2800,"station_id":"ce4bhbp2rcd13ifvqerg","pricing_plan_id":"cebpf4jnsgd1na2vs0mg"},{"bike_id":"c1bce550-8673-4381-9137-7e895d922e05","system_id":"levelo_inurba_marseille","lat":43.303002,"lon":5.392142,"is_reserved":false,"is_disabled":false,"rental_uris":{"android":"levelo://app?vid=c1bce550-8673-4381-9137-7e895d922e05","ios":"levelo://app?vid=c1bce550-8673-4381-9137-7e895d922e05"},"vehicle_type_id":"4","last_reported":1712938096,"current_range_meters":0,"station_id":"ce4bgkh2rcd13ifvqbk0","pricing_plan_id":"cebpf4jnsgd1na2vs0mg"},{"bike_id":"c111ca36-aa79-45ff-a416-3574f4a953d1","system_id":"levelo_inurba_marseille","lat":43.305994,"lon":5.393687,"is_reserved":false,"is_disabled":false,"rental_uris":{"android":"levelo://app?vid=c111ca36-aa79-45ff-a416-3574f4a953d1","ios":"levelo://app?vid=c111ca36-aa79-45ff-a416-3574f4a953d1"},"vehicle_type_id":"4","last_reported":1712938096,"current_range_meters":800,"station_id":"ce4bh0p2rcd13ifvqd80","pricing_plan_id":"cebpf4jnsgd1na2vs0mg"},{"bike_id":"8e8d5017-fede-4cfd-a16b-b8abdfbdef95","system_id":"levelo_inurba_marseille","lat":43.292963,"lon":5.374643,"is_reserved":false,"is_disabled":false,"rental_uris":{"android":"levelo://app?vid=8e8d5017-fede-4cfd-a16b-b8abdfbdef95","ios":"levelo://app?vid=8e8d5017-fede-4cfd-a16b-b8abdfbdef95"},"vehicle_type_id":"4","last_reported":1712938096,"current_range_meters":0,"station_id":"ce4bgi12rcd13ifvqb70","pricing_plan_id":"cebpf4jnsgd1na2vs0mg"},{"bike_id":"4b8324ad-91e3-410e-a0fd-5335ecc226ba","system_id":"levelo_inurba_marseille","lat":43.302992,"lon":5.392136,"is_reserved":false,"is_disabled":false,"rental_uris":{"android":"levelo://app?vid=4b8324ad-91e3-410e-a0fd-5335ecc226ba","ios":"levelo://app?vid=4b8324ad-91e3-410e-a0fd-5335ecc226ba"},"vehicle_type_id":"4","last_reported":1712938096,"current_range_meters":0,"station_id":"ce4bgkh2rcd13ifvqbk0","pricing_plan_id":"cebpf4jnsgd1na2vs0mg"},{"bike_id":"471f6dc1-72d2-49b3-a8bb-13ca96ae22c1","system_id":"levelo_inurba_marseille","lat":43.322872,"lon":5.382756,"is_reserved":false,"is_disabled":false,"rental_uris":{"android":"levelo://app?vid=471f6dc1-72d2-49b3-a8bb-13ca96ae22c1","ios":"levelo://app?vid=471f6dc1-72d2-49b3-a8bb-13ca96ae22c1"},"vehicle_type_id":"4","last_reported":1712938096,"current_range_meters":6000,"station_id":"ce4bhr12rcd13ifvqhqg","pricing_plan_id":"cebpf4jnsgd1na2vs0mg"},{"bike_id":"909f6476-2763-4a21-ad66-a90b2da37b41","system_id":"levelo_inurba_marseille","lat":43.29232,"lon":5.37199,"is_reserved":false,"is_disabled":false,"rental_uris":{"android":"levelo://app?vid=909f6476-2763-4a21-ad66-a90b2da37b41","ios":"levelo://app?vid=909f6476-2763-4a21-ad66-a90b2da37b41"},"vehicle_type_id":"4","last_reported":1712938096,"current_range_meters":0,"station_id":"ce4bgh92rcd13ifvqb40","pricing_plan_id":"cebpf4jnsgd1na2vs0mg"},{"bike_id":"f636df52-29a4-4dfa-a352-c8b9085964ec","system_id":"levelo_inurba_marseille","lat":43.29229,"lon":5.360616,"is_reserved":false,"is_disabled":false,"rental_uris":{"android":"levelo://app?vid=f636df52-29a4-4dfa-a352-c8b9085964ec","ios":"levelo://app?vid=f636df52-29a4-4dfa-a352-c8b9085964ec"},"vehicle_type_id":"4","last_reported":1712938096,"current_range_meters":4400,"station_id":"ce4bhbh2rcd13ifvqeqg","pricing_plan_id":"cebpf4jnsgd1na2vs0mg"},{"bike_id":"9355c2dd-f6b8-44b4-885a-46c5005a2de7","system_id":"levelo_inurba_marseille","lat":43.292005,"lon":5.357875,"is_reserved":false,"is_disabled":false,"rental_uris":{"android":"levelo://app?vid=9355c2dd-f6b8-44b4-885a-46c5005a2de7","ios":"levelo://app?vid=9355c2dd-f6b8-44b4-885a-46c5005a2de7"},"vehicle_type_id":"4","last_reported":1712938096,"current_range_meters":10400,"station_id":"ce4bhb12rcd13ifvqel0","pricing_plan_id":"cebpf4jnsgd1na2vs0mg"},{"bike_id":"657fa07e-ff84-4734-9cb6-4718612a1692","system_id":"levelo_inurba_marseille","lat":43.298764,"lon":5.388973,"is_reserved":false,"is_disabled":false,"rental_uris":{"android":"levelo://app?vid=657fa07e-ff84-4734-9cb6-4718612a1692","ios":"levelo://app?vid=657fa07e-ff84-4734-9cb6-4718612a1692"},"vehicle_type_id":"4","last_reported":1712938096,"current_range_meters":7600,"station_id":"ce4bh392rcd13ifvqdl0","pricing_plan_id":"cebpf4jnsgd1na2vs0mg"},{"bike_id":"891eb94a-c16e-4e1a-b238-6a9712c51cf9","system_id":"levelo_inurba_marseille","lat":43.291675,"lon":5.371583,"is_reserved":false,"is_disabled":false,"rental_uris":{"android":"levelo://app?vid=891eb94a-c16e-4e1a-b238-6a9712c51cf9","ios":"levelo://app?vid=891eb94a-c16e-4e1a-b238-6a9712c51cf9"},"vehicle_type_id":"4","last_reported":1712938096,"current_range_meters":6400,"station_id":"ce4bha92rcd13ifvqeh0","pricing_plan_id":"cebpf4jnsgd1na2vs0mg"},{"bike_id":"a7b92199-ed51-40e1-9d72-fee81db33bf8","system_id":"levelo_inurba_marseille","lat":43.291671,"lon":5.371575,"is_reserved":false,"is_disabled":false,"rental_uris":{"android":"levelo://app?vid=a7b92199-ed51-40e1-9d72-fee81db33bf8","ios":"levelo://app?vid=a7b92199-ed51-40e1-9d72-fee81db33bf8"},"vehicle_type_id":"4","last_reported":1712938096,"current_range_meters":14800,"station_id":"ce4bha92rcd13ifvqeh0","pricing_plan_id":"cebpf4jnsgd1na2vs0mg"},{"bike_id":"b3afa7ad-ec3c-47b8-a275-c8a6cd354115","system_id":"levelo_inurba_marseille","lat":43.291994,"lon":5.357886,"is_reserved":false,"is_disabled":false,"rental_uris":{"android":"levelo://app?vid=b3afa7ad-ec3c-47b8-a275-c8a6cd354115","ios":"levelo://app?vid=b3afa7ad-ec3c-47b8-a275-c8a6cd354115"},"vehicle_type_id":"4","last_reported":1712938096,"current_range_meters":0,"station_id":"ce4bhb12rcd13ifvqel0","pricing_plan_id":"cebpf4jnsgd1na2vs0mg"},{"bike_id":"7f402975-971e-40d6-9e59-f7356c5ffd7b","system_id":"levelo_inurba_marseille","lat":43.298681,"lon":5.397225,"is_reserved":false,"is_disabled":false,"rental_uris":{"android":"levelo://app?vid=7f402975-971e-40d6-9e59-f7356c5ffd7b","ios":"levelo://app?vid=7f402975-971e-40d6-9e59-f7356c5ffd7b"},"vehicle_type_id":"4","last_reported":1712938096,"current_range_meters":6400,"station_id":"ce4bh0h2rcd13ifvqd50","pricing_plan_id":"cebpf4jnsgd1na2vs0mg"},{"bike_id":"52d25fd0-c1fc-4f77-a770-ae744d9104d9","system_id":"levelo_inurba_marseille","lat":43.292005,"lon":5.357875,"is_reserved":false,"is_disabled":false,"rental_uris":{"android":"levelo://app?vid=52d25fd0-c1fc-4f77-a770-ae744d9104d9","ios":"levelo://app?vid=52d25fd0-c1fc-4f77-a770-ae744d9104d9"},"vehicle_type_id":"4","last_reported":1712938096,"current_range_meters":28800,"station_id":"ce4bhb12rcd13ifvqel0","pricing_plan_id":"cebpf4jnsgd1na2vs0mg"},{"bike_id":"ecd4134b-8b48-4b17-a684-f8034c668a60","system_id":"levelo_inurba_marseille","lat":43.291994,"lon":5.357886,"is_reserved":false,"is_disabled":false,"rental_uris":{"android":"levelo://app?vid=ecd4134b-8b48-4b17-a684-f8034c668a60","ios":"levelo://app?vid=ecd4134b-8b48-4b17-a684-f8034c668a60"},"vehicle_type_id":"4","last_reported":1712938096,"current_range_meters":0,"station_id":"ce4bhb12rcd13ifvqel0","pricing_plan_id":"cebpf4jnsgd1na2vs0mg"},{"bike_id":"df9b2173-dd64-4d0e-915e-c51fc9c17636","system_id":"levelo_inurba_marseille","lat":43.309047,"lon":5.396551,"is_reserved":false,"is_disabled":false,"rental_uris":{"android":"levelo://app?vid=df9b2173-dd64-4d0e-915e-c51fc9c17636","ios":"levelo://app?vid=df9b2173-dd64-4d0e-915e-c51fc9c17636"},"vehicle_type_id":"4","last_reported":1712938096,"current_range_meters":1200,"station_id":"ce4bh012rcd13ifvqcv0","pricing_plan_id":"cebpf4jnsgd1na2vs0mg"},{"bike_id":"1e9c4ff7-7c93-42d4-85d7-34368ef0aa43","system_id":"levelo_inurba_marseille","lat":43.29529,"lon":5.385581,"is_reserved":false,"is_disabled":false,"rental_uris":{"android":"levelo://app?vid=1e9c4ff7-7c93-42d4-85d7-34368ef0aa43","ios":"levelo://app?vid=1e9c4ff7-7c93-42d4-85d7-34368ef0aa43"},"vehicle_type_id":"4","last_reported":1712938096,"current_range_meters":0,"station_id":"ce4bgih2rcd13ifvqba0","pricing_plan_id":"cebpf4jnsgd1na2vs0mg"},{"bike_id":"3b2a6c79-9324-49e8-af50-1cc94ba85a40","system_id":"levelo_inurba_marseille","lat":43.290779,"lon":5.371482,"is_reserved":false,"is_disabled":false,"rental_uris":{"android":"levelo://app?vid=3b2a6c79-9324-49e8-af50-1cc94ba85a40","ios":"levelo://app?vid=3b2a6c79-9324-49e8-af50-1cc94ba85a40"},"vehicle_type_id":"4","last_reported":1712938096,"current_range_meters":0,"station_id":"ce4bh5p2rcd13ifvqe4g","pricing_plan_id":"cebpf4jnsgd1na2vs0mg"},{"bike_id":"432a27d1-bfac-40f5-87b2-8735acea639f","system_id":"levelo_inurba_marseille","lat":43.290594,"lon":5.372412,"is_reserved":false,"is_disabled":false,"rental_uris":{"android":"levelo://app?vid=432a27d1-bfac-40f5-87b2-8735acea639f","ios":"levelo://app?vid=432a27d1-bfac-40f5-87b2-8735acea639f"},"vehicle_type_id":"4","last_reported":1712938096,"current_range_meters":14000,"station_id":"ce4bh5p2rcd13ifvqe4g","pricing_plan_id":"cebpf4jnsgd1na2vs0mg"},{"bike_id":"81cfba5e-b6d9-4fac-8fc9-c8e7094de355","system_id":"levelo_inurba_marseille","lat":43.30221,"lon":5.3946,"is_reserved":false,"is_disabled":false,"rental_uris":{"android":"levelo://app?vid=81cfba5e-b6d9-4fac-8fc9-c8e7094de355","ios":"levelo://app?vid=81cfba5e-b6d9-4fac-8fc9-c8e7094de355"},"vehicle_type_id":"4","last_reported":1712938096,"current_range_meters":0,"station_id":"ce4bh0p2rcd13ifvqd70","pricing_plan_id":"cebpf4jnsgd1na2vs0mg"},{"bike_id":"12a78dcc-0391-4b52-b62a-0be8f631ae02","system_id":"levelo_inurba_marseille","lat":43.302008,"lon":5.394694,"is_reserved":false,"is_disabled":false,"rental_uris":{"android":"levelo://app?vid=12a78dcc-0391-4b52-b62a-0be8f631ae02","ios":"levelo://app?vid=12a78dcc-0391-4b52-b62a-0be8f631ae02"},"vehicle_type_id":"4","last_reported":1712938096,"current_range_meters":800,"station_id":"ce4bh0p2rcd13ifvqd70","pricing_plan_id":"cebpf4jnsgd1na2vs0mg"},{"bike_id":"f8cc068d-f1e8-4741-8165-83c529358e0c","system_id":"levelo_inurba_marseille","lat":43.290631,"lon":5.359244,"is_reserved":false,"is_disabled":false,"rental_uris":{"android":"levelo://app?vid=f8cc068d-f1e8-4741-8165-83c529358e0c","ios":"levelo://app?vid=f8cc068d-f1e8-4741-8165-83c529358e0c"},"vehicle_type_id":"4","last_reported":1712938096,"current_range_meters":14000,"station_id":"ce4bha92rcd13ifvqeg0","pricing_plan_id":"cebpf4jnsgd1na2vs0mg"},{"bike_id":"68cbcc1d-8cdf-40cd-8e25-8a171675f72e","system_id":"levelo_inurba_marseille","lat":43.294153,"lon":5.386305,"is_reserved":false,"is_disabled":false,"rental_uris":{"android":"levelo://app?vid=68cbcc1d-8cdf-40cd-8e25-8a171675f72e","ios":"levelo://app?vid=68cbcc1d-8cdf-40cd-8e25-8a171675f72e"},"vehicle_type_id":"4","last_reported":1712938096,"current_range_meters":0,"station_id":"ce4bh2h2rcd13ifvqdh0","pricing_plan_id":"cebpf4jnsgd1na2vs0mg"},{"bike_id":"07cbe056-1ca4-488b-b5c5-67c2bb11169d","system_id":"levelo_inurba_marseille","lat":43.294162,"lon":5.386292,"is_reserved":false,"is_disabled":false,"rental_uris":{"android":"levelo://app?vid=07cbe056-1ca4-488b-b5c5-67c2bb11169d","ios":"levelo://app?vid=07cbe056-1ca4-488b-b5c5-67c2bb11169d"},"vehicle_type_id":"4","last_reported":1712938096,"current_range_meters":0,"station_id":"ce4bh2h2rcd13ifvqdh0","pricing_plan_id":"cebpf4jnsgd1na2vs0mg"},{"bike_id":"2dbda73f-a35f-48f1-bf97-ad88badc8299","system_id":"levelo_inurba_marseille","lat":43.282744,"lon":5.350533,"is_reserved":false,"is_disabled":false,"rental_uris":{"android":"levelo://app?vid=2dbda73f-a35f-48f1-bf97-ad88badc8299","ios":"levelo://app?vid=2dbda73f-a35f-48f1-bf97-ad88badc8299"},"vehicle_type_id":"4","last_reported":1712938096,"current_range_meters":8800,"station_id":"ce4bhbp2rcd13ifvqerg","pricing_plan_id":"cebpf4jnsgd1na2vs0mg"},{"bike_id":"69619649-ad8a-4aa0-bbdd-bcd28bb71e59","system_id":"levelo_inurba_marseille","lat":43.290327,"lon":5.375711,"is_reserved":false,"is_disabled":false,"rental_uris":{"android":"levelo://app?vid=69619649-ad8a-4aa0-bbdd-bcd28bb71e59","ios":"levelo://app?vid=69619649-ad8a-4aa0-bbdd-bcd28bb71e59"},"vehicle_type_id":"4","last_reported":1712938096,"current_range_meters":26800,"station_id":"ce4bh692rcd13ifvqe90","pricing_plan_id":"cebpf4jnsgd1na2vs0mg"},{"bike_id":"c7d532f5-8f84-45df-b916-a00a4f494fcf","system_id":"levelo_inurba_marseille","lat":43.307945,"lon":5.376487,"is_reserved":false,"is_disabled":false,"rental_uris":{"android":"levelo://app?vid=c7d532f5-8f84-45df-b916-a00a4f494fcf","ios":"levelo://app?vid=c7d532f5-8f84-45df-b916-a00a4f494fcf"},"vehicle_type_id":"4","last_reported":1712938096,"current_range_meters":6400,"station_id":"ce4bgv92rcd13ifvqcq0","pricing_plan_id":"cebpf4jnsgd1na2vs0mg"},{"bike_id":"18a3443a-16fe-4404-bef9-b6d18f90b9a5","system_id":"levelo_inurba_marseille","lat":43.294153,"lon":5.386305,"is_reserved":false,"is_disabled":false,"rental_uris":{"android":"levelo://app?vid=18a3443a-16fe-4404-bef9-b6d18f90b9a5","ios":"levelo://app?vid=18a3443a-16fe-4404-bef9-b6d18f90b9a5"},"vehicle_type_id":"4","last_reported":1712938096,"current_range_meters":13200,"station_id":"ce4bh2h2rcd13ifvqdh0","pricing_plan_id":"cebpf4jnsgd1na2vs0mg"},{"bike_id":"9d854299-0d1f-419f-a377-8f54a1e9627e","system_id":"levelo_inurba_marseille","lat":43.294153,"lon":5.386305,"is_reserved":false,"is_disabled":false,"rental_uris":{"android":"levelo://app?vid=9d854299-0d1f-419f-a377-8f54a1e9627e","ios":"levelo://app?vid=9d854299-0d1f-419f-a377-8f54a1e9627e"},"vehicle_type_id":"4","last_reported":1712938096,"current_range_meters":8000,"station_id":"ce4bh2h2rcd13ifvqdh0","pricing_plan_id":"cebpf4jnsgd1na2vs0mg"},{"bike_id":"d2156459-8daa-4004-815c-84e15559e925","system_id":"levelo_inurba_marseille","lat":43.294162,"lon":5.386292,"is_reserved":false,"is_disabled":false,"rental_uris":{"android":"levelo://app?vid=d2156459-8daa-4004-815c-84e15559e925","ios":"levelo://app?vid=d2156459-8daa-4004-815c-84e15559e925"},"vehicle_type_id":"4","last_reported":1712938096,"current_range_meters":15200,"station_id":"ce4bh2h2rcd13ifvqdh0","pricing_plan_id":"cebpf4jnsgd1na2vs0mg"},{"bike_id":"d7c73bf8-7d57-4624-8368-8ff1beb9c7f7","system_id":"levelo_inurba_marseille","lat":43.294162,"lon":5.386292,"is_reserved":false,"is_disabled":false,"rental_uris":{"android":"levelo://app?vid=d7c73bf8-7d57-4624-8368-8ff1beb9c7f7","ios":"levelo://app?vid=d7c73bf8-7d57-4624-8368-8ff1beb9c7f7"},"vehicle_type_id":"4","last_reported":1712938096,"current_range_meters":0,"station_id":"ce4bh2h2rcd13ifvqdh0","pricing_plan_id":"cebpf4jnsgd1na2vs0mg"},{"bike_id":"a24762e4-9edd-46c3-ad68-a3cfd35e548f","system_id":"levelo_inurba_marseille","lat":43.289184,"lon":5.366408,"is_reserved":false,"is_disabled":false,"rental_uris":{"android":"levelo://app?vid=a24762e4-9edd-46c3-ad68-a3cfd35e548f","ios":"levelo://app?vid=a24762e4-9edd-46c3-ad68-a3cfd35e548f"},"vehicle_type_id":"4","last_reported":1712938096,"current_range_meters":400,"station_id":"ce4bhap2rcd13ifvqek0","pricing_plan_id":"cebpf4jnsgd1na2vs0mg"},{"bike_id":"6b646a64-10de-4696-a8de-a25e070e1488","system_id":"levelo_inurba_marseille","lat":43.289184,"lon":5.366408,"is_reserved":false,"is_disabled":false,"rental_uris":{"android":"levelo://app?vid=6b646a64-10de-4696-a8de-a25e070e1488","ios":"levelo://app?vid=6b646a64-10de-4696-a8de-a25e070e1488"},"vehicle_type_id":"4","last_reported":1712938096,"current_range_meters":2400,"station_id":"ce4bhap2rcd13ifvqek0","pricing_plan_id":"cebpf4jnsgd1na2vs0mg"},{"bike_id":"2624606d-863b-4fe4-960a-83c5f95b906d","system_id":"levelo_inurba_marseille","lat":43.29278,"lon":5.38439,"is_reserved":false,"is_disabled":false,"rental_uris":{"android":"levelo://app?vid=2624606d-863b-4fe4-960a-83c5f95b906d","ios":"levelo://app?vid=2624606d-863b-4fe4-960a-83c5f95b906d"},"vehicle_type_id":"4","last_reported":1712938096,"current_range_meters":0,"station_id":"ce4bh692rcd13ifvqea0","pricing_plan_id":"cebpf4jnsgd1na2vs0mg"},{"bike_id":"47bfb7ce-073c-44c7-8816-6f9ec0b86d5a","system_id":"levelo_inurba_marseille","lat":43.290995,"lon":5.381361,"is_reserved":false,"is_disabled":false,"rental_uris":{"android":"levelo://app?vid=47bfb7ce-073c-44c7-8816-6f9ec0b86d5a","ios":"levelo://app?vid=47bfb7ce-073c-44c7-8816-6f9ec0b86d5a"},"vehicle_type_id":"4","last_reported":1712938096,"current_range_meters":17600,"station_id":"ce4bh512rcd13ifvqe2g","pricing_plan_id":"cebpf4jnsgd1na2vs0mg"},{"bike_id":"0f946c70-65dd-48a9-80b8-3a016743596c","system_id":"levelo_inurba_marseille","lat":43.273125,"lon":5.390731,"is_reserved":false,"is_disabled":false,"rental_uris":{"android":"levelo://app?vid=0f946c70-65dd-48a9-80b8-3a016743596c","ios":"levelo://app?vid=0f946c70-65dd-48a9-80b8-3a016743596c"},"vehicle_type_id":"4","last_reported":1712938096,"current_range_meters":4000,"station_id":"ce4bhgp2rcd13ifvqfe0","pricing_plan_id":"cebpf4jnsgd1na2vs0mg"},{"bike_id":"7937d745-7b7a-4051-ba8d-a5fb782c40de","system_id":"levelo_inurba_marseille","lat":43.295169,"lon":5.390426,"is_reserved":false,"is_disabled":false,"rental_uris":{"android":"levelo://app?vid=7937d745-7b7a-4051-ba8d-a5fb782c40de","ios":"levelo://app?vid=7937d745-7b7a-4051-ba8d-a5fb782c40de"},"vehicle_type_id":"4","last_reported":1712938096,"current_range_meters":13200,"station_id":"ce4bh3p2rcd13ifvqdp0","pricing_plan_id":"cebpf4jnsgd1na2vs0mg"},{"bike_id":"a675528b-8ce7-48b6-bc6c-d41ccd861875","system_id":"levelo_inurba_marseille","lat":43.29273,"lon":5.38447,"is_reserved":false,"is_disabled":false,"rental_uris":{"android":"levelo://app?vid=a675528b-8ce7-48b6-bc6c-d41ccd861875","ios":"levelo://app?vid=a675528b-8ce7-48b6-bc6c-d41ccd861875"},"vehicle_type_id":"4","last_reported":1712938096,"current_range_meters":0,"station_id":"ce4bh692rcd13ifvqea0","pricing_plan_id":"cebpf4jnsgd1na2vs0mg"},{"bike_id":"60fac2d5-25dd-4dca-a7aa-c78337881317","system_id":"levelo_inurba_marseille","lat":43.292681,"lon":5.384429,"is_reserved":false,"is_disabled":false,"rental_uris":{"android":"levelo://app?vid=60fac2d5-25dd-4dca-a7aa-c78337881317","ios":"levelo://app?vid=60fac2d5-25dd-4dca-a7aa-c78337881317"},"vehicle_type_id":"4","last_reported":1712938096,"current_range_meters":400,"station_id":"ce4bhah2rcd13ifvqej0","pricing_plan_id":"cebpf4jnsgd1na2vs0mg"},{"bike_id":"1813e6e5-5a18-45d0-9e42-c34b28aba6c6","system_id":"levelo_inurba_marseille","lat":43.292642,"lon":5.384254,"is_reserved":false,"is_disabled":false,"rental_uris":{"android":"levelo://app?vid=1813e6e5-5a18-45d0-9e42-c34b28aba6c6","ios":"levelo://app?vid=1813e6e5-5a18-45d0-9e42-c34b28aba6c6"},"vehicle_type_id":"4","last_reported":1712938096,"current_range_meters":8400,"station_id":"ce4bh692rcd13ifvqea0","pricing_plan_id":"cebpf4jnsgd1na2vs0mg"},{"bike_id":"9a6dc3ed-ad1f-412d-bda0-84c25ce9fa28","system_id":"levelo_inurba_marseille","lat":43.292642,"lon":5.384254,"is_reserved":false,"is_disabled":false,"rental_uris":{"android":"levelo://app?vid=9a6dc3ed-ad1f-412d-bda0-84c25ce9fa28","ios":"levelo://app?vid=9a6dc3ed-ad1f-412d-bda0-84c25ce9fa28"},"vehicle_type_id":"4","last_reported":1712938096,"current_range_meters":0,"station_id":"ce4bh692rcd13ifvqea0","pricing_plan_id":"cebpf4jnsgd1na2vs0mg"},{"bike_id":"c2ab5fd8-1100-4051-855c-848e7e013b03","system_id":"levelo_inurba_marseille","lat":43.298048,"lon":5.392731,"is_reserved":false,"is_disabled":false,"rental_uris":{"android":"levelo://app?vid=c2ab5fd8-1100-4051-855c-848e7e013b03","ios":"levelo://app?vid=c2ab5fd8-1100-4051-855c-848e7e013b03"},"vehicle_type_id":"4","last_reported":1712938096,"current_range_meters":0,"station_id":"chh1huq6cuj3fo74tm60","pricing_plan_id":"cebpf4jnsgd1na2vs0mg"},{"bike_id":"97111e87-cd9a-4c08-ba70-46ad37d56c95","system_id":"levelo_inurba_marseille","lat":43.299707,"lon":5.384859,"is_reserved":false,"is_disabled":false,"rental_uris":{"android":"levelo://app?vid=97111e87-cd9a-4c08-ba70-46ad37d56c95","ios":"levelo://app?vid=97111e87-cd9a-4c08-ba70-46ad37d56c95"},"vehicle_type_id":"4","last_reported":1712938096,"current_range_meters":8400,"station_id":"ce4bgj92rcd13ifvqbd0","pricing_plan_id":"cebpf4jnsgd1na2vs0mg"},{"bike_id":"b9b085d3-5fa1-4eb7-b057-68e79cf46d18","system_id":"levelo_inurba_marseille","lat":43.290104,"lon":5.356111,"is_reserved":false,"is_disabled":false,"rental_uris":{"android":"levelo://app?vid=b9b085d3-5fa1-4eb7-b057-68e79cf46d18","ios":"levelo://app?vid=b9b085d3-5fa1-4eb7-b057-68e79cf46d18"},"vehicle_type_id":"4","last_reported":1712938096,"current_range_meters":0,"station_id":"ce4bhb92rcd13ifvqen0","pricing_plan_id":"cebpf4jnsgd1na2vs0mg"},{"bike_id":"b1c82a1e-daf7-43ec-ba59-2b5bcf4ca258","system_id":"levelo_inurba_marseille","lat":43.2911,"lon":5.38122,"is_reserved":false,"is_disabled":false,"rental_uris":{"android":"levelo://app?vid=b1c82a1e-daf7-43ec-ba59-2b5bcf4ca258","ios":"levelo://app?vid=b1c82a1e-daf7-43ec-ba59-2b5bcf4ca258"},"vehicle_type_id":"4","last_reported":1712938096,"current_range_meters":0,"station_id":"","pricing_plan_id":"cebpf4jnsgd1na2vs0mg"},{"bike_id":"f24b9fa1-a36e-4b7f-acd7-7d9492d4d3d7","system_id":"levelo_inurba_marseille","lat":43.290103,"lon":5.356114,"is_reserved":false,"is_disabled":false,"rental_uris":{"android":"levelo://app?vid=f24b9fa1-a36e-4b7f-acd7-7d9492d4d3d7","ios":"levelo://app?vid=f24b9fa1-a36e-4b7f-acd7-7d9492d4d3d7"},"vehicle_type_id":"4","last_reported":1712938096,"current_range_meters":0,"station_id":"ce4bhb92rcd13ifvqen0","pricing_plan_id":"cebpf4jnsgd1na2vs0mg"},{"bike_id":"954863d1-c471-46e6-9132-dfca06107886","system_id":"levelo_inurba_marseille","lat":43.29,"lon":5.35613,"is_reserved":false,"is_disabled":false,"rental_uris":{"android":"levelo://app?vid=954863d1-c471-46e6-9132-dfca06107886","ios":"levelo://app?vid=954863d1-c471-46e6-9132-dfca06107886"},"vehicle_type_id":"4","last_reported":1712938096,"current_range_meters":0,"station_id":"ce4bhb92rcd13ifvqen0","pricing_plan_id":"cebpf4jnsgd1na2vs0mg"},{"bike_id":"1d77126c-3f20-47ef-95ee-62a6ce622cf4","system_id":"levelo_inurba_marseille","lat":43.282744,"lon":5.350533,"is_reserved":false,"is_disabled":false,"rental_uris":{"android":"levelo://app?vid=1d77126c-3f20-47ef-95ee-62a6ce622cf4","ios":"levelo://app?vid=1d77126c-3f20-47ef-95ee-62a6ce622cf4"},"vehicle_type_id":"4","last_reported":1712938096,"current_range_meters":0,"station_id":"ce4bhbp2rcd13ifvqerg","pricing_plan_id":"cebpf4jnsgd1na2vs0mg"},{"bike_id":"c69ca7de-9927-4911-96d2-2d6bdf6b5d3f","system_id":"levelo_inurba_marseille","lat":43.295169,"lon":5.390426,"is_reserved":false,"is_disabled":false,"rental_uris":{"android":"levelo://app?vid=c69ca7de-9927-4911-96d2-2d6bdf6b5d3f","ios":"levelo://app?vid=c69ca7de-9927-4911-96d2-2d6bdf6b5d3f"},"vehicle_type_id":"4","last_reported":1712938096,"current_range_meters":8000,"station_id":"ce4bh3p2rcd13ifvqdp0","pricing_plan_id":"cebpf4jnsgd1na2vs0mg"},{"bike_id":"5dae9644-dd0f-410d-abb5-524a29880aec","system_id":"levelo_inurba_marseille","lat":43.297814,"lon":5.393513,"is_reserved":false,"is_disabled":false,"rental_uris":{"android":"levelo://app?vid=5dae9644-dd0f-410d-abb5-524a29880aec","ios":"levelo://app?vid=5dae9644-dd0f-410d-abb5-524a29880aec"},"vehicle_type_id":"4","last_reported":1712938096,"current_range_meters":0,"station_id":"chh1huq6cuj3fo74tm60","pricing_plan_id":"cebpf4jnsgd1na2vs0mg"},{"bike_id":"4da7fa7b-0d38-4c54-9a2a-68f5051c3756","system_id":"levelo_inurba_marseille","lat":43.295169,"lon":5.390426,"is_reserved":false,"is_disabled":false,"rental_uris":{"android":"levelo://app?vid=4da7fa7b-0d38-4c54-9a2a-68f5051c3756","ios":"levelo://app?vid=4da7fa7b-0d38-4c54-9a2a-68f5051c3756"},"vehicle_type_id":"4","last_reported":1712938096,"current_range_meters":400,"station_id":"ce4bh3p2rcd13ifvqdp0","pricing_plan_id":"cebpf4jnsgd1na2vs0mg"},{"bike_id":"612633c9-ecf5-4594-bca6-fd24631d4102","system_id":"levelo_inurba_marseille","lat":43.330442,"lon":5.389148,"is_reserved":false,"is_disabled":false,"rental_uris":{"android":"levelo://app?vid=612633c9-ecf5-4594-bca6-fd24631d4102","ios":"levelo://app?vid=612633c9-ecf5-4594-bca6-fd24631d4102"},"vehicle_type_id":"4","last_reported":1712938096,"current_range_meters":10800,"station_id":"ce4bhr92rcd13ifvqhrg","pricing_plan_id":"cebpf4jnsgd1na2vs0mg"},{"bike_id":"998e53b0-c8b4-4e20-b0fe-c3da51333478","system_id":"levelo_inurba_marseille","lat":43.330442,"lon":5.389148,"is_reserved":false,"is_disabled":false,"rental_uris":{"android":"levelo://app?vid=998e53b0-c8b4-4e20-b0fe-c3da51333478","ios":"levelo://app?vid=998e53b0-c8b4-4e20-b0fe-c3da51333478"},"vehicle_type_id":"4","last_reported":1712938096,"current_range_meters":17600,"station_id":"ce4bhr92rcd13ifvqhrg","pricing_plan_id":"cebpf4jnsgd1na2vs0mg"},{"bike_id":"e170eef0-764c-46b5-98b1-2c2a7033f501","system_id":"levelo_inurba_marseille","lat":43.295169,"lon":5.390426,"is_reserved":false,"is_disabled":false,"rental_uris":{"android":"levelo://app?vid=e170eef0-764c-46b5-98b1-2c2a7033f501","ios":"levelo://app?vid=e170eef0-764c-46b5-98b1-2c2a7033f501"},"vehicle_type_id":"4","last_reported":1712938096,"current_range_meters":12800,"station_id":"ce4bh3p2rcd13ifvqdp0","pricing_plan_id":"cebpf4jnsgd1na2vs0mg"},{"bike_id":"2dd964ad-8e40-4a13-b19b-927a2c4b4784","system_id":"levelo_inurba_marseille","lat":43.28892,"lon":5.35833,"is_reserved":false,"is_disabled":false,"rental_uris":{"android":"levelo://app?vid=2dd964ad-8e40-4a13-b19b-927a2c4b4784","ios":"levelo://app?vid=2dd964ad-8e40-4a13-b19b-927a2c4b4784"},"vehicle_type_id":"4","last_reported":1712938096,"current_range_meters":0,"station_id":"ce4bhbh2rcd13ifvqepg","pricing_plan_id":"cebpf4jnsgd1na2vs0mg"},{"bike_id":"2acc8d0e-9d99-4d9c-a283-b7dbdfc4e8e7","system_id":"levelo_inurba_marseille","lat":43.297774,"lon":5.370875,"is_reserved":false,"is_disabled":false,"rental_uris":{"android":"levelo://app?vid=2acc8d0e-9d99-4d9c-a283-b7dbdfc4e8e7","ios":"levelo://app?vid=2acc8d0e-9d99-4d9c-a283-b7dbdfc4e8e7"},"vehicle_type_id":"4","last_reported":1712938096,"current_range_meters":20400,"station_id":"ce4bgop2rcd13ifvqc1g","pricing_plan_id":"cebpf4jnsgd1na2vs0mg"},{"bike_id":"7fe0623a-1019-4ba6-8d8a-92c15a2543ba","system_id":"levelo_inurba_marseille","lat":43.28856,"lon":5.358371,"is_reserved":false,"is_disabled":false,"rental_uris":{"android":"levelo://app?vid=7fe0623a-1019-4ba6-8d8a-92c15a2543ba","ios":"levelo://app?vid=7fe0623a-1019-4ba6-8d8a-92c15a2543ba"},"vehicle_type_id":"4","last_reported":1712938096,"current_range_meters":0,"station_id":"ce4bhb12rcd13ifvqem0","pricing_plan_id":"cebpf4jnsgd1na2vs0mg"},{"bike_id":"4a959216-761b-42a8-bfde-5ff2e1e4f005","system_id":"levelo_inurba_marseille","lat":43.28856,"lon":5.358371,"is_reserved":false,"is_disabled":false,"rental_uris":{"android":"levelo://app?vid=4a959216-761b-42a8-bfde-5ff2e1e4f005","ios":"levelo://app?vid=4a959216-761b-42a8-bfde-5ff2e1e4f005"},"vehicle_type_id":"4","last_reported":1712938096,"current_range_meters":8800,"station_id":"ce4bhb12rcd13ifvqem0","pricing_plan_id":"cebpf4jnsgd1na2vs0mg"},{"bike_id":"566f6609-24e5-4ac2-9257-2c9281f9a384","system_id":"levelo_inurba_marseille","lat":43.29021,"lon":5.38139,"is_reserved":false,"is_disabled":false,"rental_uris":{"android":"levelo://app?vid=566f6609-24e5-4ac2-9257-2c9281f9a384","ios":"levelo://app?vid=566f6609-24e5-4ac2-9257-2c9281f9a384"},"vehicle_type_id":"4","last_reported":1712938096,"current_range_meters":12400,"station_id":"ce4bhch2rcd13ifvqeug","pricing_plan_id":"cebpf4jnsgd1na2vs0mg"},{"bike_id":"c1355942-0771-4728-8c8e-ddc4ac0cf264","system_id":"levelo_inurba_marseille","lat":43.288562,"lon":5.358585,"is_reserved":false,"is_disabled":false,"rental_uris":{"android":"levelo://app?vid=c1355942-0771-4728-8c8e-ddc4ac0cf264","ios":"levelo://app?vid=c1355942-0771-4728-8c8e-ddc4ac0cf264"},"vehicle_type_id":"4","last_reported":1712938096,"current_range_meters":3600,"station_id":"ce4bhb12rcd13ifvqem0","pricing_plan_id":"cebpf4jnsgd1na2vs0mg"},{"bike_id":"d8e253ad-6f92-48af-b758-6c1f8aa52ea1","system_id":"levelo_inurba_marseille","lat":43.31282,"lon":5.40169,"is_reserved":false,"is_disabled":false,"rental_uris":{"android":"levelo://app?vid=d8e253ad-6f92-48af-b758-6c1f8aa52ea1","ios":"levelo://app?vid=d8e253ad-6f92-48af-b758-6c1f8aa52ea1"},"vehicle_type_id":"4","last_reported":1712938096,"current_range_meters":6800,"station_id":"ce4bh092rcd13ifvqd30","pricing_plan_id":"cebpf4jnsgd1na2vs0mg"},{"bike_id":"ee2731c6-49bf-46d7-923e-c458e648306f","system_id":"levelo_inurba_marseille","lat":43.312609,"lon":5.401662,"is_reserved":false,"is_disabled":false,"rental_uris":{"android":"levelo://app?vid=ee2731c6-49bf-46d7-923e-c458e648306f","ios":"levelo://app?vid=ee2731c6-49bf-46d7-923e-c458e648306f"},"vehicle_type_id":"4","last_reported":1712938096,"current_range_meters":800,"station_id":"ce4bh092rcd13ifvqd30","pricing_plan_id":"cebpf4jnsgd1na2vs0mg"},{"bike_id":"97551275-dfbe-403e-aacb-4be4223f6313","system_id":"levelo_inurba_marseille","lat":43.309349,"lon":5.4014,"is_reserved":false,"is_disabled":false,"rental_uris":{"android":"levelo://app?vid=97551275-dfbe-403e-aacb-4be4223f6313","ios":"levelo://app?vid=97551275-dfbe-403e-aacb-4be4223f6313"},"vehicle_type_id":"4","last_reported":1712938096,"current_range_meters":0,"station_id":"","pricing_plan_id":"cebpf4jnsgd1na2vs0mg"},{"bike_id":"0c4667ee-99e5-435b-a28a-f1b7dfcd6b6f","system_id":"levelo_inurba_marseille","lat":43.290723,"lon":5.384091,"is_reserved":false,"is_disabled":false,"rental_uris":{"android":"levelo://app?vid=0c4667ee-99e5-435b-a28a-f1b7dfcd6b6f","ios":"levelo://app?vid=0c4667ee-99e5-435b-a28a-f1b7dfcd6b6f"},"vehicle_type_id":"4","last_reported":1712938096,"current_range_meters":4000,"station_id":"","pricing_plan_id":"cebpf4jnsgd1na2vs0mg"},{"bike_id":"6276b9a0-0d16-405e-89f1-f13b01208b34","system_id":"levelo_inurba_marseille","lat":43.309371,"lon":5.401449,"is_reserved":false,"is_disabled":false,"rental_uris":{"android":"levelo://app?vid=6276b9a0-0d16-405e-89f1-f13b01208b34","ios":"levelo://app?vid=6276b9a0-0d16-405e-89f1-f13b01208b34"},"vehicle_type_id":"4","last_reported":1712938096,"current_range_meters":0,"station_id":"ce4bgvp2rcd13ifvqct0","pricing_plan_id":"cebpf4jnsgd1na2vs0mg"},{"bike_id":"a337a3f1-764e-4ead-a8b7-9779c5acdb28","system_id":"levelo_inurba_marseille","lat":43.33753,"lon":5.3745,"is_reserved":false,"is_disabled":false,"rental_uris":{"android":"levelo://app?vid=a337a3f1-764e-4ead-a8b7-9779c5acdb28","ios":"levelo://app?vid=a337a3f1-764e-4ead-a8b7-9779c5acdb28"},"vehicle_type_id":"4","last_reported":1712938096,"current_range_meters":27200,"station_id":"","pricing_plan_id":"cebpf4jnsgd1na2vs0mg"},{"bike_id":"d3ea26f4-7d4d-45b7-8172-0133ecd9329b","system_id":"levelo_inurba_marseille","lat":43.337566,"lon":5.37464,"is_reserved":false,"is_disabled":false,"rental_uris":{"android":"levelo://app?vid=d3ea26f4-7d4d-45b7-8172-0133ecd9329b","ios":"levelo://app?vid=d3ea26f4-7d4d-45b7-8172-0133ecd9329b"},"vehicle_type_id":"4","last_reported":1712938096,"current_range_meters":28000,"station_id":"","pricing_plan_id":"cebpf4jnsgd1na2vs0mg"},{"bike_id":"774f6500-6424-427c-8133-e4987961144c","system_id":"levelo_inurba_marseille","lat":43.33754,"lon":5.374806,"is_reserved":false,"is_disabled":false,"rental_uris":{"android":"levelo://app?vid=774f6500-6424-427c-8133-e4987961144c","ios":"levelo://app?vid=774f6500-6424-427c-8133-e4987961144c"},"vehicle_type_id":"4","last_reported":1712938096,"current_range_meters":2000,"station_id":"","pricing_plan_id":"cebpf4jnsgd1na2vs0mg"},{"bike_id":"f8eeeccf-34e7-4a7a-a317-ee642a1a09ff","system_id":"levelo_inurba_marseille","lat":43.306412,"lon":5.401035,"is_reserved":false,"is_disabled":false,"rental_uris":{"android":"levelo://app?vid=f8eeeccf-34e7-4a7a-a317-ee642a1a09ff","ios":"levelo://app?vid=f8eeeccf-34e7-4a7a-a317-ee642a1a09ff"},"vehicle_type_id":"4","last_reported":1712938096,"current_range_meters":6800,"station_id":"ce4bh112rcd13ifvqda0","pricing_plan_id":"cebpf4jnsgd1na2vs0mg"},{"bike_id":"7d32ed32-43c8-4689-b2f3-18410c9bf0ce","system_id":"levelo_inurba_marseille","lat":43.30654,"lon":5.40096,"is_reserved":false,"is_disabled":false,"rental_uris":{"android":"levelo://app?vid=7d32ed32-43c8-4689-b2f3-18410c9bf0ce","ios":"levelo://app?vid=7d32ed32-43c8-4689-b2f3-18410c9bf0ce"},"vehicle_type_id":"4","last_reported":1712938096,"current_range_meters":6000,"station_id":"","pricing_plan_id":"cebpf4jnsgd1na2vs0mg"},{"bike_id":"cfc8cbca-1088-4048-935a-bfbc32598428","system_id":"levelo_inurba_marseille","lat":43.306412,"lon":5.401035,"is_reserved":false,"is_disabled":false,"rental_uris":{"android":"levelo://app?vid=cfc8cbca-1088-4048-935a-bfbc32598428","ios":"levelo://app?vid=cfc8cbca-1088-4048-935a-bfbc32598428"},"vehicle_type_id":"4","last_reported":1712938096,"current_range_meters":0,"station_id":"ce4bh112rcd13ifvqda0","pricing_plan_id":"cebpf4jnsgd1na2vs0mg"},{"bike_id":"6fa9e470-d840-4406-a045-9971801e0f44","system_id":"levelo_inurba_marseille","lat":43.301191,"lon":5.398475,"is_reserved":false,"is_disabled":false,"rental_uris":{"android":"levelo://app?vid=6fa9e470-d840-4406-a045-9971801e0f44","ios":"levelo://app?vid=6fa9e470-d840-4406-a045-9971801e0f44"},"vehicle_type_id":"4","last_reported":1712938096,"current_range_meters":0,"station_id":"ce4bh0h2rcd13ifvqd40","pricing_plan_id":"cebpf4jnsgd1na2vs0mg"},{"bike_id":"f85e80bb-63d9-4c0b-bba3-7da4b6228115","system_id":"levelo_inurba_marseille","lat":43.292642,"lon":5.384254,"is_reserved":false,"is_disabled":false,"rental_uris":{"android":"levelo://app?vid=f85e80bb-63d9-4c0b-bba3-7da4b6228115","ios":"levelo://app?vid=f85e80bb-63d9-4c0b-bba3-7da4b6228115"},"vehicle_type_id":"4","last_reported":1712938096,"current_range_meters":3600,"station_id":"ce4bh692rcd13ifvqea0","pricing_plan_id":"cebpf4jnsgd1na2vs0mg"},{"bike_id":"bd684981-ebcd-434e-8c1a-b95aea6749f9","system_id":"levelo_inurba_marseille","lat":43.28727,"lon":5.36078,"is_reserved":false,"is_disabled":false,"rental_uris":{"android":"levelo://app?vid=bd684981-ebcd-434e-8c1a-b95aea6749f9","ios":"levelo://app?vid=bd684981-ebcd-434e-8c1a-b95aea6749f9"},"vehicle_type_id":"4","last_reported":1712938096,"current_range_meters":0,"station_id":"cki0cbj6b192h4jlfktg","pricing_plan_id":"cebpf4jnsgd1na2vs0mg"},{"bike_id":"4045e85f-3160-4265-bdf0-4689ee7cc641","system_id":"levelo_inurba_marseille","lat":43.298681,"lon":5.397225,"is_reserved":false,"is_disabled":false,"rental_uris":{"android":"levelo://app?vid=4045e85f-3160-4265-bdf0-4689ee7cc641","ios":"levelo://app?vid=4045e85f-3160-4265-bdf0-4689ee7cc641"},"vehicle_type_id":"4","last_reported":1712938096,"current_range_meters":0,"station_id":"ce4bh0h2rcd13ifvqd50","pricing_plan_id":"cebpf4jnsgd1na2vs0mg"},{"bike_id":"b2d805d7-595a-4177-897a-10594fe974bc","system_id":"levelo_inurba_marseille","lat":43.298681,"lon":5.397225,"is_reserved":false,"is_disabled":false,"rental_uris":{"android":"levelo://app?vid=b2d805d7-595a-4177-897a-10594fe974bc","ios":"levelo://app?vid=b2d805d7-595a-4177-897a-10594fe974bc"},"vehicle_type_id":"4","last_reported":1712938096,"current_range_meters":11200,"station_id":"ce4bh0h2rcd13ifvqd50","pricing_plan_id":"cebpf4jnsgd1na2vs0mg"},{"bike_id":"126a5048-100c-45f2-bcd1-16377fcaad7c","system_id":"levelo_inurba_marseille","lat":43.298681,"lon":5.397225,"is_reserved":false,"is_disabled":false,"rental_uris":{"android":"levelo://app?vid=126a5048-100c-45f2-bcd1-16377fcaad7c","ios":"levelo://app?vid=126a5048-100c-45f2-bcd1-16377fcaad7c"},"vehicle_type_id":"4","last_reported":1712938096,"current_range_meters":5200,"station_id":"ce4bh0h2rcd13ifvqd50","pricing_plan_id":"cebpf4jnsgd1na2vs0mg"},{"bike_id":"c80bd58c-0147-4368-aa4c-4ebbd05aa034","system_id":"levelo_inurba_marseille","lat":43.289307,"lon":5.38406,"is_reserved":false,"is_disabled":false,"rental_uris":{"android":"levelo://app?vid=c80bd58c-0147-4368-aa4c-4ebbd05aa034","ios":"levelo://app?vid=c80bd58c-0147-4368-aa4c-4ebbd05aa034"},"vehicle_type_id":"4","last_reported":1712938096,"current_range_meters":0,"station_id":"ce4bh612rcd13ifvqe6g","pricing_plan_id":"cebpf4jnsgd1na2vs0mg"},{"bike_id":"997e3e14-82b0-408c-ab97-52ee1eee7640","system_id":"levelo_inurba_marseille","lat":43.295194,"lon":5.39397,"is_reserved":false,"is_disabled":false,"rental_uris":{"android":"levelo://app?vid=997e3e14-82b0-408c-ab97-52ee1eee7640","ios":"levelo://app?vid=997e3e14-82b0-408c-ab97-52ee1eee7640"},"vehicle_type_id":"4","last_reported":1712938096,"current_range_meters":5600,"station_id":"ce4bh292rcd13ifvqdf0","pricing_plan_id":"cebpf4jnsgd1na2vs0mg"},{"bike_id":"6c06281f-1698-4bef-b9b8-bed2c1ddfede","system_id":"levelo_inurba_marseille","lat":43.295196,"lon":5.39397,"is_reserved":false,"is_disabled":false,"rental_uris":{"android":"levelo://app?vid=6c06281f-1698-4bef-b9b8-bed2c1ddfede","ios":"levelo://app?vid=6c06281f-1698-4bef-b9b8-bed2c1ddfede"},"vehicle_type_id":"4","last_reported":1712938096,"current_range_meters":26000,"station_id":"ce4bh292rcd13ifvqdf0","pricing_plan_id":"cebpf4jnsgd1na2vs0mg"},{"bike_id":"c3b395ea-a7fd-452f-98b5-8b17498fcc01","system_id":"levelo_inurba_marseille","lat":43.286591,"lon":5.363346,"is_reserved":false,"is_disabled":false,"rental_uris":{"android":"levelo://app?vid=c3b395ea-a7fd-452f-98b5-8b17498fcc01","ios":"levelo://app?vid=c3b395ea-a7fd-452f-98b5-8b17498fcc01"},"vehicle_type_id":"4","last_reported":1712938096,"current_range_meters":29200,"station_id":"ce4bhah2rcd13ifvqej0","pricing_plan_id":"cebpf4jnsgd1na2vs0mg"},{"bike_id":"f9b9387d-e1f2-4f41-8571-9a55c46e3186","system_id":"levelo_inurba_marseille","lat":43.298681,"lon":5.397225,"is_reserved":false,"is_disabled":false,"rental_uris":{"android":"levelo://app?vid=f9b9387d-e1f2-4f41-8571-9a55c46e3186","ios":"levelo://app?vid=f9b9387d-e1f2-4f41-8571-9a55c46e3186"},"vehicle_type_id":"4","last_reported":1712938096,"current_range_meters":0,"station_id":"ce4bh0h2rcd13ifvqd50","pricing_plan_id":"cebpf4jnsgd1na2vs0mg"},{"bike_id":"5c55b71c-b8f0-424d-908f-b2d1baf1b1b0","system_id":"levelo_inurba_marseille","lat":43.289307,"lon":5.38406,"is_reserved":false,"is_disabled":false,"rental_uris":{"android":"levelo://app?vid=5c55b71c-b8f0-424d-908f-b2d1baf1b1b0","ios":"levelo://app?vid=5c55b71c-b8f0-424d-908f-b2d1baf1b1b0"},"vehicle_type_id":"4","last_reported":1712938096,"current_range_meters":0,"station_id":"ce4bh612rcd13ifvqe6g","pricing_plan_id":"cebpf4jnsgd1na2vs0mg"},{"bike_id":"89ae6afe-e976-4505-baaf-f7c944547c59","system_id":"levelo_inurba_marseille","lat":43.302759,"lon":5.400793,"is_reserved":false,"is_disabled":false,"rental_uris":{"android":"levelo://app?vid=89ae6afe-e976-4505-baaf-f7c944547c59","ios":"levelo://app?vid=89ae6afe-e976-4505-baaf-f7c944547c59"},"vehicle_type_id":"4","last_reported":1712938096,"current_range_meters":4400,"station_id":"ce4bgvh2rcd13ifvqcs0","pricing_plan_id":"cebpf4jnsgd1na2vs0mg"},{"bike_id":"8620be87-d97a-4ff6-a0a7-309924b66447","system_id":"levelo_inurba_marseille","lat":43.30241,"lon":5.40073,"is_reserved":false,"is_disabled":false,"rental_uris":{"android":"levelo://app?vid=8620be87-d97a-4ff6-a0a7-309924b66447","ios":"levelo://app?vid=8620be87-d97a-4ff6-a0a7-309924b66447"},"vehicle_type_id":"4","last_reported":1712938096,"current_range_meters":0,"station_id":"ce4bgvh2rcd13ifvqcs0","pricing_plan_id":"cebpf4jnsgd1na2vs0mg"},{"bike_id":"882cc729-1273-433b-bc70-409fe035168e","system_id":"levelo_inurba_marseille","lat":43.287184,"lon":5.37937,"is_reserved":false,"is_disabled":false,"rental_uris":{"android":"levelo://app?vid=882cc729-1273-433b-bc70-409fe035168e","ios":"levelo://app?vid=882cc729-1273-433b-bc70-409fe035168e"},"vehicle_type_id":"4","last_reported":1712938096,"current_range_meters":0,"station_id":"ce4bh9p2rcd13ifvqec0","pricing_plan_id":"cebpf4jnsgd1na2vs0mg"},{"bike_id":"a3b0755d-dab9-4c3b-a9e2-848cde4338d9","system_id":"levelo_inurba_marseille","lat":43.286039,"lon":5.370679,"is_reserved":false,"is_disabled":false,"rental_uris":{"android":"levelo://app?vid=a3b0755d-dab9-4c3b-a9e2-848cde4338d9","ios":"levelo://app?vid=a3b0755d-dab9-4c3b-a9e2-848cde4338d9"},"vehicle_type_id":"4","last_reported":1712938096,"current_range_meters":6400,"station_id":"ce4bht12rcd13ifvqi60","pricing_plan_id":"cebpf4jnsgd1na2vs0mg"},{"bike_id":"e138f6bb-4d97-4bc8-8e84-d126bc4319ae","system_id":"levelo_inurba_marseille","lat":43.316821,"lon":5.404737,"is_reserved":false,"is_disabled":false,"rental_uris":{"android":"levelo://app?vid=e138f6bb-4d97-4bc8-8e84-d126bc4319ae","ios":"levelo://app?vid=e138f6bb-4d97-4bc8-8e84-d126bc4319ae"},"vehicle_type_id":"4","last_reported":1712938096,"current_range_meters":7600,"station_id":"ce4bh012rcd13ifvqd00","pricing_plan_id":"cebpf4jnsgd1na2vs0mg"},{"bike_id":"433f23aa-e954-43ca-8463-7928d16eaaaf","system_id":"levelo_inurba_marseille","lat":43.29586,"lon":5.39763,"is_reserved":false,"is_disabled":false,"rental_uris":{"android":"levelo://app?vid=433f23aa-e954-43ca-8463-7928d16eaaaf","ios":"levelo://app?vid=433f23aa-e954-43ca-8463-7928d16eaaaf"},"vehicle_type_id":"4","last_reported":1712938096,"current_range_meters":0,"station_id":"","pricing_plan_id":"cebpf4jnsgd1na2vs0mg"},{"bike_id":"08fd1846-09f3-47bf-bfa8-21e0c970f426","system_id":"levelo_inurba_marseille","lat":43.29198,"lon":5.39318,"is_reserved":false,"is_disabled":false,"rental_uris":{"android":"levelo://app?vid=08fd1846-09f3-47bf-bfa8-21e0c970f426","ios":"levelo://app?vid=08fd1846-09f3-47bf-bfa8-21e0c970f426"},"vehicle_type_id":"4","last_reported":1712938096,"current_range_meters":0,"station_id":"ce4bh192rcd13ifvqdd0","pricing_plan_id":"cebpf4jnsgd1na2vs0mg"},{"bike_id":"613191ea-ab96-4931-9686-238de5751c63","system_id":"levelo_inurba_marseille","lat":43.29474,"lon":5.39745,"is_reserved":false,"is_disabled":false,"rental_uris":{"android":"levelo://app?vid=613191ea-ab96-4931-9686-238de5751c63","ios":"levelo://app?vid=613191ea-ab96-4931-9686-238de5751c63"},"vehicle_type_id":"4","last_reported":1712938096,"current_range_meters":14000,"station_id":"","pricing_plan_id":"cebpf4jnsgd1na2vs0mg"},{"bike_id":"62622727-0676-4645-8ed5-2575147d211d","system_id":"levelo_inurba_marseille","lat":43.284538,"lon":5.358657,"is_reserved":false,"is_disabled":false,"rental_uris":{"android":"levelo://app?vid=62622727-0676-4645-8ed5-2575147d211d","ios":"levelo://app?vid=62622727-0676-4645-8ed5-2575147d211d"},"vehicle_type_id":"4","last_reported":1712938096,"current_range_meters":17200,"station_id":"ce4bhah2rcd13ifvqei0","pricing_plan_id":"cebpf4jnsgd1na2vs0mg"},{"bike_id":"deea19e7-a986-45f8-b3ca-7d4d5ee5e5fe","system_id":"levelo_inurba_marseille","lat":43.254945,"lon":5.376454,"is_reserved":false,"is_disabled":false,"rental_uris":{"android":"levelo://app?vid=deea19e7-a986-45f8-b3ca-7d4d5ee5e5fe","ios":"levelo://app?vid=deea19e7-a986-45f8-b3ca-7d4d5ee5e5fe"},"vehicle_type_id":"4","last_reported":1712938096,"current_range_meters":8800,"station_id":"ce4bhh12rcd13ifvqff0","pricing_plan_id":"cebpf4jnsgd1na2vs0mg"},{"bike_id":"a47d5add-38cd-4e27-baf2-77312c48961d","system_id":"levelo_inurba_marseille","lat":43.284538,"lon":5.358657,"is_reserved":false,"is_disabled":false,"rental_uris":{"android":"levelo://app?vid=a47d5add-38cd-4e27-baf2-77312c48961d","ios":"levelo://app?vid=a47d5add-38cd-4e27-baf2-77312c48961d"},"vehicle_type_id":"4","last_reported":1712938096,"current_range_meters":800,"station_id":"ce4bhah2rcd13ifvqei0","pricing_plan_id":"cebpf4jnsgd1na2vs0mg"},{"bike_id":"ed4cdd50-4ff6-4766-8bd6-d6da1b4698bb","system_id":"levelo_inurba_marseille","lat":43.294314,"lon":5.397498,"is_reserved":false,"is_disabled":false,"rental_uris":{"android":"levelo://app?vid=ed4cdd50-4ff6-4766-8bd6-d6da1b4698bb","ios":"levelo://app?vid=ed4cdd50-4ff6-4766-8bd6-d6da1b4698bb"},"vehicle_type_id":"4","last_reported":1712938096,"current_range_meters":4400,"station_id":"ce4bh3h2rcd13ifvqdo0","pricing_plan_id":"cebpf4jnsgd1na2vs0mg"},{"bike_id":"e05d724a-67db-44c3-b3de-d77c1ad2ec39","system_id":"levelo_inurba_marseille","lat":43.28623,"lon":5.3511,"is_reserved":false,"is_disabled":false,"rental_uris":{"android":"levelo://app?vid=e05d724a-67db-44c3-b3de-d77c1ad2ec39","ios":"levelo://app?vid=e05d724a-67db-44c3-b3de-d77c1ad2ec39"},"vehicle_type_id":"4","last_reported":1712938096,"current_range_meters":11600,"station_id":"ce4bhch2rcd13ifvqeug","pricing_plan_id":"cebpf4jnsgd1na2vs0mg"},{"bike_id":"03dbe1b5-76cd-4409-9b13-c68c7da61291","system_id":"levelo_inurba_marseille","lat":43.28621,"lon":5.35112,"is_reserved":false,"is_disabled":false,"rental_uris":{"android":"levelo://app?vid=03dbe1b5-76cd-4409-9b13-c68c7da61291","ios":"levelo://app?vid=03dbe1b5-76cd-4409-9b13-c68c7da61291"},"vehicle_type_id":"4","last_reported":1712938096,"current_range_meters":10400,"station_id":"ce4bhch2rcd13ifvqeug","pricing_plan_id":"cebpf4jnsgd1na2vs0mg"},{"bike_id":"92aea17a-7929-4ee4-8f2e-01f85dcd1ce9","system_id":"levelo_inurba_marseille","lat":43.28622,"lon":5.35107,"is_reserved":false,"is_disabled":false,"rental_uris":{"android":"levelo://app?vid=92aea17a-7929-4ee4-8f2e-01f85dcd1ce9","ios":"levelo://app?vid=92aea17a-7929-4ee4-8f2e-01f85dcd1ce9"},"vehicle_type_id":"4","last_reported":1712938096,"current_range_meters":28400,"station_id":"ce4bhch2rcd13ifvqeug","pricing_plan_id":"cebpf4jnsgd1na2vs0mg"},{"bike_id":"451ffd6c-d946-4d00-9dde-3fa8664a7bfa","system_id":"levelo_inurba_marseille","lat":43.28621,"lon":5.35104,"is_reserved":false,"is_disabled":false,"rental_uris":{"android":"levelo://app?vid=451ffd6c-d946-4d00-9dde-3fa8664a7bfa","ios":"levelo://app?vid=451ffd6c-d946-4d00-9dde-3fa8664a7bfa"},"vehicle_type_id":"4","last_reported":1712938096,"current_range_meters":7200,"station_id":"ce4bhch2rcd13ifvqeug","pricing_plan_id":"cebpf4jnsgd1na2vs0mg"},{"bike_id":"a6f3fa6e-56fb-4fc4-b244-39f6a89cf4b4","system_id":"levelo_inurba_marseille","lat":43.2862,"lon":5.35106,"is_reserved":false,"is_disabled":false,"rental_uris":{"android":"levelo://app?vid=a6f3fa6e-56fb-4fc4-b244-39f6a89cf4b4","ios":"levelo://app?vid=a6f3fa6e-56fb-4fc4-b244-39f6a89cf4b4"},"vehicle_type_id":"4","last_reported":1712938096,"current_range_meters":14400,"station_id":"ce4bhch2rcd13ifvqeug","pricing_plan_id":"cebpf4jnsgd1na2vs0mg"},{"bike_id":"c3a1ea70-659f-4228-bc01-f303701cf9be","system_id":"levelo_inurba_marseille","lat":43.2862,"lon":5.35103,"is_reserved":false,"is_disabled":false,"rental_uris":{"android":"levelo://app?vid=c3a1ea70-659f-4228-bc01-f303701cf9be","ios":"levelo://app?vid=c3a1ea70-659f-4228-bc01-f303701cf9be"},"vehicle_type_id":"4","last_reported":1712938096,"current_range_meters":10000,"station_id":"","pricing_plan_id":"cebpf4jnsgd1na2vs0mg"},{"bike_id":"6bedf795-13ea-46f0-97bf-442b4be7d64f","system_id":"levelo_inurba_marseille","lat":43.28618,"lon":5.35109,"is_reserved":false,"is_disabled":false,"rental_uris":{"android":"levelo://app?vid=6bedf795-13ea-46f0-97bf-442b4be7d64f","ios":"levelo://app?vid=6bedf795-13ea-46f0-97bf-442b4be7d64f"},"vehicle_type_id":"4","last_reported":1712938096,"current_range_meters":0,"station_id":"ce4bhch2rcd13ifvqeug","pricing_plan_id":"cebpf4jnsgd1na2vs0mg"},{"bike_id":"25525f5b-0d08-4b79-8d2b-466d379abd8a","system_id":"levelo_inurba_marseille","lat":43.28619,"lon":5.35104,"is_reserved":false,"is_disabled":false,"rental_uris":{"android":"levelo://app?vid=25525f5b-0d08-4b79-8d2b-466d379abd8a","ios":"levelo://app?vid=25525f5b-0d08-4b79-8d2b-466d379abd8a"},"vehicle_type_id":"4","last_reported":1712938096,"current_range_meters":17200,"station_id":"ce4bhch2rcd13ifvqeug","pricing_plan_id":"cebpf4jnsgd1na2vs0mg"},{"bike_id":"7c2e4537-29c0-4c64-ac58-f0385b2a2fd4","system_id":"levelo_inurba_marseille","lat":43.28619,"lon":5.35104,"is_reserved":false,"is_disabled":false,"rental_uris":{"android":"levelo://app?vid=7c2e4537-29c0-4c64-ac58-f0385b2a2fd4","ios":"levelo://app?vid=7c2e4537-29c0-4c64-ac58-f0385b2a2fd4"},"vehicle_type_id":"4","last_reported":1712938096,"current_range_meters":800,"station_id":"ce4bhch2rcd13ifvqeug","pricing_plan_id":"cebpf4jnsgd1na2vs0mg"},{"bike_id":"d28c1308-e584-4482-b827-a28e8580ebec","system_id":"levelo_inurba_marseille","lat":43.28617,"lon":5.35108,"is_reserved":false,"is_disabled":false,"rental_uris":{"android":"levelo://app?vid=d28c1308-e584-4482-b827-a28e8580ebec","ios":"levelo://app?vid=d28c1308-e584-4482-b827-a28e8580ebec"},"vehicle_type_id":"4","last_reported":1712938096,"current_range_meters":31200,"station_id":"ce4bhch2rcd13ifvqeug","pricing_plan_id":"cebpf4jnsgd1na2vs0mg"},{"bike_id":"b5453fe5-8ca2-42ae-82a1-de26ba1ee129","system_id":"levelo_inurba_marseille","lat":43.286178,"lon":5.35105,"is_reserved":false,"is_disabled":false,"rental_uris":{"android":"levelo://app?vid=b5453fe5-8ca2-42ae-82a1-de26ba1ee129","ios":"levelo://app?vid=b5453fe5-8ca2-42ae-82a1-de26ba1ee129"},"vehicle_type_id":"4","last_reported":1712938096,"current_range_meters":1200,"station_id":"ce4bhch2rcd13ifvqeug","pricing_plan_id":"cebpf4jnsgd1na2vs0mg"},{"bike_id":"b06f486a-e036-4a2e-8fb6-71f76cc2995a","system_id":"levelo_inurba_marseille","lat":43.28618,"lon":5.35104,"is_reserved":false,"is_disabled":false,"rental_uris":{"android":"levelo://app?vid=b06f486a-e036-4a2e-8fb6-71f76cc2995a","ios":"levelo://app?vid=b06f486a-e036-4a2e-8fb6-71f76cc2995a"},"vehicle_type_id":"4","last_reported":1712938096,"current_range_meters":16000,"station_id":"ce4bhch2rcd13ifvqeug","pricing_plan_id":"cebpf4jnsgd1na2vs0mg"},{"bike_id":"87cca2f7-958b-41ea-989b-2ffec133006a","system_id":"levelo_inurba_marseille","lat":43.28618,"lon":5.35104,"is_reserved":false,"is_disabled":false,"rental_uris":{"android":"levelo://app?vid=87cca2f7-958b-41ea-989b-2ffec133006a","ios":"levelo://app?vid=87cca2f7-958b-41ea-989b-2ffec133006a"},"vehicle_type_id":"4","last_reported":1712938096,"current_range_meters":12800,"station_id":"ce4bhch2rcd13ifvqeug","pricing_plan_id":"cebpf4jnsgd1na2vs0mg"},{"bike_id":"23c34701-71d3-48d6-b183-e352882ff870","system_id":"levelo_inurba_marseille","lat":43.28617,"lon":5.35107,"is_reserved":false,"is_disabled":false,"rental_uris":{"android":"levelo://app?vid=23c34701-71d3-48d6-b183-e352882ff870","ios":"levelo://app?vid=23c34701-71d3-48d6-b183-e352882ff870"},"vehicle_type_id":"4","last_reported":1712938096,"current_range_meters":21200,"station_id":"ce4bhch2rcd13ifvqeug","pricing_plan_id":"cebpf4jnsgd1na2vs0mg"},{"bike_id":"2498f09c-ab9e-4fe2-83f9-3262b31b490f","system_id":"levelo_inurba_marseille","lat":43.28616,"lon":5.35109,"is_reserved":false,"is_disabled":false,"rental_uris":{"android":"levelo://app?vid=2498f09c-ab9e-4fe2-83f9-3262b31b490f","ios":"levelo://app?vid=2498f09c-ab9e-4fe2-83f9-3262b31b490f"},"vehicle_type_id":"4","last_reported":1712938096,"current_range_meters":20800,"station_id":"ce4bhch2rcd13ifvqeug","pricing_plan_id":"cebpf4jnsgd1na2vs0mg"},{"bike_id":"ed79b812-a38a-49eb-bf0b-28f555d441c0","system_id":"levelo_inurba_marseille","lat":43.28617,"lon":5.35105,"is_reserved":false,"is_disabled":false,"rental_uris":{"android":"levelo://app?vid=ed79b812-a38a-49eb-bf0b-28f555d441c0","ios":"levelo://app?vid=ed79b812-a38a-49eb-bf0b-28f555d441c0"},"vehicle_type_id":"4","last_reported":1712938096,"current_range_meters":23600,"station_id":"ce4bhch2rcd13ifvqeug","pricing_plan_id":"cebpf4jnsgd1na2vs0mg"},{"bike_id":"62fd7881-5329-4231-82d6-e6473a3cd845","system_id":"levelo_inurba_marseille","lat":43.28615,"lon":5.35109,"is_reserved":false,"is_disabled":false,"rental_uris":{"android":"levelo://app?vid=62fd7881-5329-4231-82d6-e6473a3cd845","ios":"levelo://app?vid=62fd7881-5329-4231-82d6-e6473a3cd845"},"vehicle_type_id":"4","last_reported":1712938096,"current_range_meters":4400,"station_id":"ce4bhch2rcd13ifvqeug","pricing_plan_id":"cebpf4jnsgd1na2vs0mg"},{"bike_id":"6eaa851c-f63f-43eb-8f99-dbd7bd3df560","system_id":"levelo_inurba_marseille","lat":43.28616,"lon":5.35105,"is_reserved":false,"is_disabled":false,"rental_uris":{"android":"levelo://app?vid=6eaa851c-f63f-43eb-8f99-dbd7bd3df560","ios":"levelo://app?vid=6eaa851c-f63f-43eb-8f99-dbd7bd3df560"},"vehicle_type_id":"4","last_reported":1712938096,"current_range_meters":31200,"station_id":"ce4bhch2rcd13ifvqeug","pricing_plan_id":"cebpf4jnsgd1na2vs0mg"},{"bike_id":"4429b22d-b5bb-4ea4-99ce-d41b2dba4170","system_id":"levelo_inurba_marseille","lat":43.28616,"lon":5.35105,"is_reserved":false,"is_disabled":false,"rental_uris":{"android":"levelo://app?vid=4429b22d-b5bb-4ea4-99ce-d41b2dba4170","ios":"levelo://app?vid=4429b22d-b5bb-4ea4-99ce-d41b2dba4170"},"vehicle_type_id":"4","last_reported":1712938096,"current_range_meters":9600,"station_id":"ce4bhch2rcd13ifvqeug","pricing_plan_id":"cebpf4jnsgd1na2vs0mg"},{"bike_id":"5616a614-c750-4791-a313-6775e61e1e43","system_id":"levelo_inurba_marseille","lat":43.28616,"lon":5.35102,"is_reserved":false,"is_disabled":false,"rental_uris":{"android":"levelo://app?vid=5616a614-c750-4791-a313-6775e61e1e43","ios":"levelo://app?vid=5616a614-c750-4791-a313-6775e61e1e43"},"vehicle_type_id":"4","last_reported":1712938096,"current_range_meters":25200,"station_id":"ce4bhch2rcd13ifvqeug","pricing_plan_id":"cebpf4jnsgd1na2vs0mg"},{"bike_id":"68120b1c-12a8-411a-b526-bb844f19f656","system_id":"levelo_inurba_marseille","lat":43.28615,"lon":5.35105,"is_reserved":false,"is_disabled":false,"rental_uris":{"android":"levelo://app?vid=68120b1c-12a8-411a-b526-bb844f19f656","ios":"levelo://app?vid=68120b1c-12a8-411a-b526-bb844f19f656"},"vehicle_type_id":"4","last_reported":1712938096,"current_range_meters":25200,"station_id":"ce4bhch2rcd13ifvqeug","pricing_plan_id":"cebpf4jnsgd1na2vs0mg"},{"bike_id":"e2a1ecaf-39f0-47af-93e2-8c5f27cf9d3d","system_id":"levelo_inurba_marseille","lat":43.28614,"lon":5.35099,"is_reserved":false,"is_disabled":false,"rental_uris":{"android":"levelo://app?vid=e2a1ecaf-39f0-47af-93e2-8c5f27cf9d3d","ios":"levelo://app?vid=e2a1ecaf-39f0-47af-93e2-8c5f27cf9d3d"},"vehicle_type_id":"4","last_reported":1712938096,"current_range_meters":16800,"station_id":"ce4bhch2rcd13ifvqeug","pricing_plan_id":"cebpf4jnsgd1na2vs0mg"},{"bike_id":"6e8a8c60-d1b3-4dbd-b236-5f9667612dc7","system_id":"levelo_inurba_marseille","lat":43.28612,"lon":5.35105,"is_reserved":false,"is_disabled":false,"rental_uris":{"android":"levelo://app?vid=6e8a8c60-d1b3-4dbd-b236-5f9667612dc7","ios":"levelo://app?vid=6e8a8c60-d1b3-4dbd-b236-5f9667612dc7"},"vehicle_type_id":"4","last_reported":1712938096,"current_range_meters":24000,"station_id":"ce4bhch2rcd13ifvqeug","pricing_plan_id":"cebpf4jnsgd1na2vs0mg"},{"bike_id":"e5a75a09-68b8-4887-9d8f-c1bf116d1092","system_id":"levelo_inurba_marseille","lat":43.28614,"lon":5.35098,"is_reserved":false,"is_disabled":false,"rental_uris":{"android":"levelo://app?vid=e5a75a09-68b8-4887-9d8f-c1bf116d1092","ios":"levelo://app?vid=e5a75a09-68b8-4887-9d8f-c1bf116d1092"},"vehicle_type_id":"4","last_reported":1712938096,"current_range_meters":26800,"station_id":"ce4bhch2rcd13ifvqeug","pricing_plan_id":"cebpf4jnsgd1na2vs0mg"},{"bike_id":"5c6a563e-d48d-4172-ad30-be103da5ad02","system_id":"levelo_inurba_marseille","lat":43.283998,"lon":5.375062,"is_reserved":false,"is_disabled":false,"rental_uris":{"android":"levelo://app?vid=5c6a563e-d48d-4172-ad30-be103da5ad02","ios":"levelo://app?vid=5c6a563e-d48d-4172-ad30-be103da5ad02"},"vehicle_type_id":"4","last_reported":1712938096,"current_range_meters":0,"station_id":"ce4bh412rcd13ifvqds0","pricing_plan_id":"cebpf4jnsgd1na2vs0mg"},{"bike_id":"35dcc9e9-b94d-4ec1-9b4a-d88953f6bb83","system_id":"levelo_inurba_marseille","lat":43.286593,"lon":5.363346,"is_reserved":false,"is_disabled":false,"rental_uris":{"android":"levelo://app?vid=35dcc9e9-b94d-4ec1-9b4a-d88953f6bb83","ios":"levelo://app?vid=35dcc9e9-b94d-4ec1-9b4a-d88953f6bb83"},"vehicle_type_id":"4","last_reported":1712938096,"current_range_meters":8800,"station_id":"ce4bhah2rcd13ifvqej0","pricing_plan_id":"cebpf4jnsgd1na2vs0mg"},{"bike_id":"1e049efc-e50a-4531-8f13-3195741ae1fb","system_id":"levelo_inurba_marseille","lat":43.286595,"lon":5.386795,"is_reserved":false,"is_disabled":false,"rental_uris":{"android":"levelo://app?vid=1e049efc-e50a-4531-8f13-3195741ae1fb","ios":"levelo://app?vid=1e049efc-e50a-4531-8f13-3195741ae1fb"},"vehicle_type_id":"4","last_reported":1712938096,"current_range_meters":0,"station_id":"ce4bh492rcd13ifvqdug","pricing_plan_id":"cebpf4jnsgd1na2vs0mg"},{"bike_id":"262d0325-2f35-4118-9e88-a2d97a80c709","system_id":"levelo_inurba_marseille","lat":43.28669,"lon":5.38659,"is_reserved":false,"is_disabled":false,"rental_uris":{"android":"levelo://app?vid=262d0325-2f35-4118-9e88-a2d97a80c709","ios":"levelo://app?vid=262d0325-2f35-4118-9e88-a2d97a80c709"},"vehicle_type_id":"4","last_reported":1712938096,"current_range_meters":0,"station_id":"ce4bh492rcd13ifvqdug","pricing_plan_id":"cebpf4jnsgd1na2vs0mg"},{"bike_id":"f28de109-36c1-4b4a-bba3-40ee2efdbdf8","system_id":"levelo_inurba_marseille","lat":43.286595,"lon":5.386795,"is_reserved":false,"is_disabled":false,"rental_uris":{"android":"levelo://app?vid=f28de109-36c1-4b4a-bba3-40ee2efdbdf8","ios":"levelo://app?vid=f28de109-36c1-4b4a-bba3-40ee2efdbdf8"},"vehicle_type_id":"4","last_reported":1712938096,"current_range_meters":0,"station_id":"ce4bh492rcd13ifvqdug","pricing_plan_id":"cebpf4jnsgd1na2vs0mg"},{"bike_id":"5ff9c081-5ce3-4b73-a561-fc37bee356b3","system_id":"levelo_inurba_marseille","lat":43.33726,"lon":5.39179,"is_reserved":false,"is_disabled":false,"rental_uris":{"android":"levelo://app?vid=5ff9c081-5ce3-4b73-a561-fc37bee356b3","ios":"levelo://app?vid=5ff9c081-5ce3-4b73-a561-fc37bee356b3"},"vehicle_type_id":"4","last_reported":1712938096,"current_range_meters":24800,"station_id":"ce4bhr92rcd13ifvqhsg","pricing_plan_id":"cebpf4jnsgd1na2vs0mg"},{"bike_id":"21f73696-4c4f-40fe-b8e8-7048394cb6a2","system_id":"levelo_inurba_marseille","lat":43.33727,"lon":5.39182,"is_reserved":false,"is_disabled":false,"rental_uris":{"android":"levelo://app?vid=21f73696-4c4f-40fe-b8e8-7048394cb6a2","ios":"levelo://app?vid=21f73696-4c4f-40fe-b8e8-7048394cb6a2"},"vehicle_type_id":"4","last_reported":1712938096,"current_range_meters":15600,"station_id":"ce4bhr92rcd13ifvqhsg","pricing_plan_id":"cebpf4jnsgd1na2vs0mg"},{"bike_id":"48768494-ea7e-4fd0-a730-d33b81b8d18f","system_id":"levelo_inurba_marseille","lat":43.33717,"lon":5.391857,"is_reserved":false,"is_disabled":false,"rental_uris":{"android":"levelo://app?vid=48768494-ea7e-4fd0-a730-d33b81b8d18f","ios":"levelo://app?vid=48768494-ea7e-4fd0-a730-d33b81b8d18f"},"vehicle_type_id":"4","last_reported":1712938096,"current_range_meters":0,"station_id":"ce4bhr92rcd13ifvqhsg","pricing_plan_id":"cebpf4jnsgd1na2vs0mg"},