{"last_updated":1736010439,"ttl":60,"version":"2.2","data":{"bikes":[{"bike_id":"ee9b6427-33bd-498f-aebd-257d0a457426","system_id":"levelo_inurba_marseille","lat":43.31684,"lon":5.40476,"is_reserved":false,"is_disabled":false,"rental_uris":{"android":"levelo://app?vid=ee9b6427-33bd-498f-aebd-257d0a457426","ios":"levelo://app?vid=ee9b6427-33bd-498f-aebd-257d0a457426"},"vehicle_type_id":"4","last_reported":1736010439,"current_range_meters":15200,"station_id":"ce4bh012rcd13ifvqd00","pricing_plan_id":"cebpf4jnsgd1na2vs0mg"},{"bike_id":"b0373c5e-66a9-45a5-85a9-c1f62adb650e","system_id":"levelo_inurba_marseille","lat":43.29622,"lon":5.37714,"is_reserved":false,"is_disabled":false,"rental_uris":{"android":"levelo://app?vid=b0373c5e-66a9-45a5-85a9-c1f62adb650e","ios":"levelo://app?vid=b0373c5e-66a9-45a5-85a9-c1f62adb650e"},"vehicle_type_id":"4","last_reported":1736010439,"current_range_meters":6800,"station_id":"ce4bgi92rcd13ifvqb90","pricing_plan_id":"cebpf4jnsgd1na2vs0mg"},{"bike_id":"4517f105-c6cd-42b4-a2b8-453f0a872c81","system_id":"levelo_inurba_marseille","lat":43.24661,"lon":5.38161,"is_reserved":false,"is_disabled":false,"rental_uris":{"android":"levelo://app?vid=4517f105-c6cd-42b4-a2b8-453f0a872c81","ios":"levelo://app?vid=4517f105-c6cd-42b4-a2b8-453f0a872c81"},"vehicle_type_id":"4","last_reported":1736010439,"current_range_meters":22800,"station_id":"ce4bhih2rcd13ifvqfr0","pricing_plan_id":"cebpf4jnsgd1na2vs0mg"},{"bike_id":"f6e2be4b-fa77-4b38-bd45-618bcfa7f100","system_id":"levelo_inurba_marseille","lat":43.30315,"lon":5.36921,"is_reserved":false,"is_disabled":false,"rental_uris":{"android":"levelo://app?vid=f6e2be4b-fa77-4b38-bd45-618bcfa7f100","ios":"levelo://app?vid=f6e2be4b-fa77-4b38-bd45-618bcfa7f100"},"vehicle_type_id":"4","last_reported":1736010439,"current_range_meters":38800,"station_id":"ce4bgqh2rcd13ifvqc5g","pricing_plan_id":"cebpf4jnsgd1na2vs0mg"},{"bike_id":"25bc056f-6168-4a4c-8539-4f5b06414dad","system_id":"levelo_inurba_marseille","lat":43.26727,"lon":5.39492,"is_reserved":false,"is_disabled":false,"rental_uris":{"android":"levelo://app?vid=25bc056f-6168-4a4c-8539-4f5b06414dad","ios":"levelo://app?vid=25bc056f-6168-4a4c-8539-4f5b06414dad"},"vehicle_type_id":"4","last_reported":1736010439,"current_range_meters":26800,"station_id":"ce4bhh12rcd13ifvqfg0","pricing_plan_id":"cebpf4jnsgd1na2vs0mg"},{"bike_id":"d4d926a5-e9c7-49fd-93fb-7af1b15bb902","system_id":"levelo_inurba_marseille","lat":43.3248,"lon":5.3653,"is_reserved":false,"is_disabled":false,"rental_uris":{"android":"levelo://app?vid=d4d926a5-e9c7-49fd-93fb-7af1b15bb902","ios":"levelo://app?vid=d4d926a5-e9c7-49fd-93fb-7af1b15bb902"},"vehicle_type_id":"4","last_reported":1736010439,"current_range_meters":38800,"station_id":"ce4bhs12rcd13ifvqhvg","pricing_plan_id":"cebpf4jnsgd1na2vs0mg"},{"bike_id":"bc0d6048-27c0-4ff9-97d0-92485c13da66","system_id":"levelo_inurba_marseille","lat":43.30319,"lon":5.36901,"is_reserved":false,"is_disabled":false,"rental_uris":{"android":"levelo://app?vid=bc0d6048-27c0-4ff9-97d0-92485c13da66","ios":"levelo://app?vid=bc0d6048-27c0-4ff9-97d0-92485c13da66"},"vehicle_type_id":"4","last_reported":1736010439,"current_range_meters":35200,"station_id":"ce4bgqh2rcd13ifvqc5g","pricing_plan_id":"cebpf4jnsgd1na2vs0mg"},{"bike_id":"91037f15-fe17-4186-85a2-9e0438c13c3d","system_id":"levelo_inurba_marseille","lat":43.27209,"lon":5.39289,"is_reserved":false,"is_disabled":false,"rental_uris":{"android":"levelo://app?vid=91037f15-fe17-4186-85a2-9e0438c13c3d","ios":"levelo://app?vid=91037f15-fe17-4186-85a2-9e0438c13c3d"},"vehicle_type_id":"4","last_reported":1736010439,"current_range_meters":6000,"station_id":"ce4bhhp2rcd13ifvqfm0","pricing_plan_id":"cebpf4jnsgd1na2vs0mg"},{"bike_id":"ac060c07-7cec-4494-9467-409aca079f0f","system_id":"levelo_inurba_marseille","lat":43.28403,"lon":5.37531,"is_reserved":false,"is_disabled":false,"rental_uris":{"android":"levelo://app?vid=ac060c07-7cec-4494-9467-409aca079f0f","ios":"levelo://app?vid=ac060c07-7cec-4494-9467-409aca079f0f"},"vehicle_type_id":"4","last_reported":1736010439,"current_range_meters":37600,"station_id":"ce4bh412rcd13ifvqds0","pricing_plan_id":"cebpf4jnsgd1na2vs0mg"},{"bike_id":"664481bc-6fb4-4b22-9f5f-b6adce38ff36","system_id":"levelo_inurba_marseille","lat":43.32545,"lon":5.41461,"is_reserved":false,"is_disabled":false,"rental_uris":{"android":"levelo://app?vid=664481bc-6fb4-4b22-9f5f-b6adce38ff36","ios":"levelo://app?vid=664481bc-6fb4-4b22-9f5f-b6adce38ff36"},"vehicle_type_id":"4","last_reported":1736010439,"current_range_meters":28400,"station_id":"ce4bhq12rcd13ifvqhhg","pricing_plan_id":"cebpf4jnsgd1na2vs0mg"},{"bike_id":"36d0910b-d540-4d75-b065-f044cb5b6555","system_id":"levelo_inurba_marseille","lat":43.29577,"lon":5.36715,"is_reserved":false,"is_disabled":false,"rental_uris":{"android":"levelo://app?vid=36d0910b-d540-4d75-b065-f044cb5b6555","ios":"levelo://app?vid=36d0910b-d540-4d75-b065-f044cb5b6555"},"vehicle_type_id":"4","last_reported":1736010439,"current_range_meters":38800,"station_id":"ce4bgph2rcd13ifvqc2g","pricing_plan_id":"cebpf4jnsgd1na2vs0mg"},{"bike_id":"5677b5d2-4401-4dba-9d3a-ed20daf59691","system_id":"levelo_inurba_marseille","lat":43.2903,"lon":5.38635,"is_reserved":false,"is_disabled":false,"rental_uris":{"android":"levelo://app?vid=5677b5d2-4401-4dba-9d3a-ed20daf59691","ios":"levelo://app?vid=5677b5d2-4401-4dba-9d3a-ed20daf59691"},"vehicle_type_id":"4","last_reported":1736010439,"current_range_meters":20400,"station_id":"ce4bh4p2rcd13ifvqe0g","pricing_plan_id":"cebpf4jnsgd1na2vs0mg"},{"bike_id":"fe3aafb8-a6b4-4a18-a86a-13b013e22a76","system_id":"levelo_inurba_marseille","lat":43.31477,"lon":5.37309,"is_reserved":false,"is_disabled":false,"rental_uris":{"android":"levelo://app?vid=fe3aafb8-a6b4-4a18-a86a-13b013e22a76","ios":"levelo://app?vid=fe3aafb8-a6b4-4a18-a86a-13b013e22a76"},"vehicle_type_id":"4","last_reported":1736010439,"current_range_meters":35600,"station_id":"ce4bgt12rcd13ifvqcd0","pricing_plan_id":"cebpf4jnsgd1na2vs0mg"},{"bike_id":"116f92ae-65b4-4f7c-a23b-1117c0a69b33","system_id":"levelo_inurba_marseille","lat":43.2862,"lon":5.35108,"is_reserved":false,"is_disabled":false,"rental_uris":{"android":"levelo://app?vid=116f92ae-65b4-4f7c-a23b-1117c0a69b33","ios":"levelo://app?vid=116f92ae-65b4-4f7c-a23b-1117c0a69b33"},"vehicle_type_id":"4","last_reported":1736010439,"current_range_meters":22800,"station_id":"ce4bhch2rcd13ifvqeug","pricing_plan_id":"cebpf4jnsgd1na2vs0mg"},{"bike_id":"efe82dc4-c15f-4046-9226-91dca361e6bd","system_id":"levelo_inurba_marseille","lat":43.25576,"lon":5.38234,"is_reserved":false,"is_disabled":false,"rental_uris":{"android":"levelo://app?vid=efe82dc4-c15f-4046-9226-91dca361e6bd","ios":"levelo://app?vid=efe82dc4-c15f-4046-9226-91dca361e6bd"},"vehicle_type_id":"4","last_reported":1736010439,"current_range_meters":38800,"station_id":"ce4bhih2rcd13ifvqfs0","pricing_plan_id":"cebpf4jnsgd1na2vs0mg"},{"bike_id":"63e6bb50-ce1f-4541-be03-12125c98f18d","system_id":"levelo_inurba_marseille","lat":43.28412,"lon":5.37507,"is_reserved":false,"is_disabled":false,"rental_uris":{"android":"levelo://app?vid=63e6bb50-ce1f-4541-be03-12125c98f18d","ios":"levelo://app?vid=63e6bb50-ce1f-4541-be03-12125c98f18d"},"vehicle_type_id":"4","last_reported":1736010439,"current_range_meters":14000,"station_id":"ce4bh412rcd13ifvqds0","pricing_plan_id":"cebpf4jnsgd1na2vs0mg"},{"bike_id":"3e582b8f-fb98-42b0-b1eb-11dfc60f58eb","system_id":"levelo_inurba_marseille","lat":43.27436,"lon":5.39425,"is_reserved":false,"is_disabled":false,"rental_uris":{"android":"levelo://app?vid=3e582b8f-fb98-42b0-b1eb-11dfc60f58eb","ios":"levelo://app?vid=3e582b8f-fb98-42b0-b1eb-11dfc60f58eb"},"vehicle_type_id":"4","last_reported":1736010439,"current_range_meters":24400,"station_id":"ce4bhdp2rcd13ifvqf20","pricing_plan_id":"cebpf4jnsgd1na2vs0mg"},{"bike_id":"76d392c8-6dd4-4fbf-b626-27c2990c047b","system_id":"levelo_inurba_marseille","lat":43.28161,"lon":5.42787,"is_reserved":false,"is_disabled":false,"rental_uris":{"android":"levelo://app?vid=76d392c8-6dd4-4fbf-b626-27c2990c047b","ios":"levelo://app?vid=76d392c8-6dd4-4fbf-b626-27c2990c047b"},"vehicle_type_id":"4","last_reported":1736010439,"current_range_meters":10000,"station_id":"","pricing_plan_id":"cebpf4jnsgd1na2vs0mg"},{"bike_id":"f18f8327-b78e-417b-a113-93735f200515","system_id":"levelo_inurba_marseille","lat":43.29028,"lon":5.38636,"is_reserved":false,"is_disabled":false,"rental_uris":{"android":"levelo://app?vid=f18f8327-b78e-417b-a113-93735f200515","ios":"levelo://app?vid=f18f8327-b78e-417b-a113-93735f200515"},"vehicle_type_id":"4","last_reported":1736010439,"current_range_meters":39200,"station_id":"ce4bh4p2rcd13ifvqe0g","pricing_plan_id":"cebpf4jnsgd1na2vs0mg"},{"bike_id":"8d3c0f78-e962-4e13-b73d-d1069bc6cb91","system_id":"levelo_inurba_marseille","lat":43.27328,"lon":5.39109,"is_reserved":false,"is_disabled":true,"rental_uris":{"android":"levelo://app?vid=8d3c0f78-e962-4e13-b73d-d1069bc6cb91","ios":"levelo://app?vid=8d3c0f78-e962-4e13-b73d-d1069bc6cb91"},"vehicle_type_id":"4","last_reported":1736010439,"current_range_meters":0,"station_id":"ce4bhgp2rcd13ifvqfe0","pricing_plan_id":"cebpf4jnsgd1na2vs0mg"},{"bike_id":"510a1798-ea4b-4d69-ba14-a387a737d87f","system_id":"levelo_inurba_marseille","lat":43.31218,"lon":5.36886,"is_reserved":false,"is_disabled":false,"rental_uris":{"android":"levelo://app?vid=510a1798-ea4b-4d69-ba14-a387a737d87f","ios":"levelo://app?vid=510a1798-ea4b-4d69-ba14-a387a737d87f"},"vehicle_type_id":"4","last_reported":1736010439,"current_range_meters":39200,"station_id":"ce4bgl92rcd13ifvqbq0","pricing_plan_id":"cebpf4jnsgd1na2vs0mg"},{"bike_id":"593d8424-f565-422e-8480-e0f50e2c043e","system_id":"levelo_inurba_marseille","lat":43.27929,"lon":5.38696,"is_reserved":false,"is_disabled":true,"rental_uris":{"android":"levelo://app?vid=593d8424-f565-422e-8480-e0f50e2c043e","ios":"levelo://app?vid=593d8424-f565-422e-8480-e0f50e2c043e"},"vehicle_type_id":"4","last_reported":1736010439,"current_range_meters":36800,"station_id":"","pricing_plan_id":"cebpf4jnsgd1na2vs0mg"},{"bike_id":"a944f865-f260-4d6e-8bfb-34b22d4c0ecd","system_id":"levelo_inurba_marseille","lat":43.30183,"lon":5.36624,"is_reserved":false,"is_disabled":true,"rental_uris":{"android":"levelo://app?vid=a944f865-f260-4d6e-8bfb-34b22d4c0ecd","ios":"levelo://app?vid=a944f865-f260-4d6e-8bfb-34b22d4c0ecd"},"vehicle_type_id":"4","last_reported":1736010439,"current_range_meters":32000,"station_id":"ce4bgrh2rcd13ifvqc8g","pricing_plan_id":"cebpf4jnsgd1na2vs0mg"},{"bike_id":"f482d653-7dbc-4e22-8ab6-8ade9e6e0e20","system_id":"levelo_inurba_marseille","lat":43.32652,"lon":5.41005,"is_reserved":false,"is_disabled":false,"rental_uris":{"android":"levelo://app?vid=f482d653-7dbc-4e22-8ab6-8ade9e6e0e20","ios":"levelo://app?vid=f482d653-7dbc-4e22-8ab6-8ade9e6e0e20"},"vehicle_type_id":"4","last_reported":1736010439,"current_range_meters":38400,"station_id":"ce4bhpp2rcd13ifvqhgg","pricing_plan_id":"cebpf4jnsgd1na2vs0mg"},{"bike_id":"ce5ccab0-bdee-474e-8992-dcab704b97ec","system_id":"levelo_inurba_marseille","lat":43.29841,"lon":5.36268,"is_reserved":false,"is_disabled":false,"rental_uris":{"android":"levelo://app?vid=ce5ccab0-bdee-474e-8992-dcab704b97ec","ios":"levelo://app?vid=ce5ccab0-bdee-474e-8992-dcab704b97ec"},"vehicle_type_id":"4","last_reported":1736010439,"current_range_meters":33600,"station_id":"ce4bgpp2rcd13ifvqc3g","pricing_plan_id":"cebpf4jnsgd1na2vs0mg"},{"bike_id":"fbc4c7b0-2e57-417f-870c-cffeec482316","system_id":"levelo_inurba_marseille","lat":43.27675,"lon":5.38937,"is_reserved":false,"is_disabled":false,"rental_uris":{"android":"levelo://app?vid=fbc4c7b0-2e57-417f-870c-cffeec482316","ios":"levelo://app?vid=fbc4c7b0-2e57-417f-870c-cffeec482316"},"vehicle_type_id":"4","last_reported":1736010439,"current_range_meters":38000,"station_id":"ce4bhi12rcd13ifvqfo0","pricing_plan_id":"cebpf4jnsgd1na2vs0mg"},{"bike_id":"11bab6b1-8f19-4376-9cab-a89cad5be186","system_id":"levelo_inurba_marseille","lat":43.324809,"lon":5.365927,"is_reserved":false,"is_disabled":false,"rental_uris":{"android":"levelo://app?vid=11bab6b1-8f19-4376-9cab-a89cad5be186","ios":"levelo://app?vid=11bab6b1-8f19-4376-9cab-a89cad5be186"},"vehicle_type_id":"4","last_reported":1736010439,"current_range_meters":37600,"station_id":"ce4bhs12rcd13ifvqhvg","pricing_plan_id":"cebpf4jnsgd1na2vs0mg"},{"bike_id":"9bd04c4d-bba3-44a3-88b7-e0bf363fe6b8","system_id":"levelo_inurba_marseille","lat":43.24663,"lon":5.38153,"is_reserved":false,"is_disabled":false,"rental_uris":{"android":"levelo://app?vid=9bd04c4d-bba3-44a3-88b7-e0bf363fe6b8","ios":"levelo://app?vid=9bd04c4d-bba3-44a3-88b7-e0bf363fe6b8"},"vehicle_type_id":"4","last_reported":1736010439,"current_range_meters":33600,"station_id":"ce4bhih2rcd13ifvqfr0","pricing_plan_id":"cebpf4jnsgd1na2vs0mg"},{"bike_id":"3ab397ad-af93-42fa-8f60-d785cdeee133","system_id":"levelo_inurba_marseille","lat":43.28355,"lon":5.381,"is_reserved":false,"is_disabled":false,"rental_uris":{"android":"levelo://app?vid=3ab397ad-af93-42fa-8f60-d785cdeee133","ios":"levelo://app?vid=3ab397ad-af93-42fa-8f60-d785cdeee133"},"vehicle_type_id":"4","last_reported":1736010439,"current_range_meters":24000,"station_id":"ce4bh412rcd13ifvqdr0","pricing_plan_id":"cebpf4jnsgd1na2vs0mg"},{"bike_id":"4608dad6-0378-4f07-a39f-dd205981ef2d","system_id":"levelo_inurba_marseille","lat":43.272033,"lon":5.391917,"is_reserved":false,"is_disabled":false,"rental_uris":{"android":"levelo://app?vid=4608dad6-0378-4f07-a39f-dd205981ef2d","ios":"levelo://app?vid=4608dad6-0378-4f07-a39f-dd205981ef2d"},"vehicle_type_id":"4","last_reported":1736010439,"current_range_meters":38800,"station_id":"ce4bhhp2rcd13ifvqfm0","pricing_plan_id":"cebpf4jnsgd1na2vs0mg"},{"bike_id":"ad036647-e9f4-4246-953d-37ee6601db50","system_id":"levelo_inurba_marseille","lat":43.2465,"lon":5.38184,"is_reserved":false,"is_disabled":false,"rental_uris":{"android":"levelo://app?vid=ad036647-e9f4-4246-953d-37ee6601db50","ios":"levelo://app?vid=ad036647-e9f4-4246-953d-37ee6601db50"},"vehicle_type_id":"4","last_reported":1736010439,"current_range_meters":29600,"station_id":"ce4bhih2rcd13ifvqfr0","pricing_plan_id":"cebpf4jnsgd1na2vs0mg"},{"bike_id":"232f6b08-e616-45cc-8fdb-470763d26a70","system_id":"levelo_inurba_marseille","lat":43.25821,"lon":5.39433,"is_reserved":false,"is_disabled":false,"rental_uris":{"android":"levelo://app?vid=232f6b08-e616-45cc-8fdb-470763d26a70","ios":"levelo://app?vid=232f6b08-e616-45cc-8fdb-470763d26a70"},"vehicle_type_id":"4","last_reported":1736010439,"current_range_meters":37600,"station_id":"ce4bhip2rcd13ifvqft0","pricing_plan_id":"cebpf4jnsgd1na2vs0mg"},{"bike_id":"7f19a19c-d1b3-49ca-8538-1dc8022ef981","system_id":"levelo_inurba_marseille","lat":43.32123,"lon":5.36778,"is_reserved":false,"is_disabled":false,"rental_uris":{"android":"levelo://app?vid=7f19a19c-d1b3-49ca-8538-1dc8022ef981","ios":"levelo://app?vid=7f19a19c-d1b3-49ca-8538-1dc8022ef981"},"vehicle_type_id":"4","last_reported":1736010439,"current_range_meters":38800,"station_id":"ce4bhrh2rcd13ifvqhug","pricing_plan_id":"cebpf4jnsgd1na2vs0mg"},{"bike_id":"7f287551-82f1-424d-bf88-03580401d4f1","system_id":"levelo_inurba_marseille","lat":43.24071,"lon":5.37763,"is_reserved":false,"is_disabled":false,"rental_uris":{"android":"levelo://app?vid=7f287551-82f1-424d-bf88-03580401d4f1","ios":"levelo://app?vid=7f287551-82f1-424d-bf88-03580401d4f1"},"vehicle_type_id":"4","last_reported":1736010439,"current_range_meters":39200,"station_id":"ce4bhnp2rcd13ifvqgvg","pricing_plan_id":"cebpf4jnsgd1na2vs0mg"},{"bike_id":"9e9129d5-4635-4c6e-ab05-a1022fbc7b4e","system_id":"levelo_inurba_marseille","lat":43.28937,"lon":5.39638,"is_reserved":false,"is_disabled":false,"rental_uris":{"android":"levelo://app?vid=9e9129d5-4635-4c6e-ab05-a1022fbc7b4e","ios":"levelo://app?vid=9e9129d5-4635-4c6e-ab05-a1022fbc7b4e"},"vehicle_type_id":"4","last_reported":1736010439,"current_range_meters":31200,"station_id":"ce4bh3h2rcd13ifvqdn0","pricing_plan_id":"cebpf4jnsgd1na2vs0mg"},{"bike_id":"9146bc89-35db-42b3-a4ed-b23523ab24f7","system_id":"levelo_inurba_marseille","lat":43.27208,"lon":5.39186,"is_reserved":false,"is_disabled":true,"rental_uris":{"android":"levelo://app?vid=9146bc89-35db-42b3-a4ed-b23523ab24f7","ios":"levelo://app?vid=9146bc89-35db-42b3-a4ed-b23523ab24f7"},"vehicle_type_id":"4","last_reported":1736010439,"current_range_meters":0,"station_id":"ce4bhhp2rcd13ifvqfm0","pricing_plan_id":"cebpf4jnsgd1na2vs0mg"},{"bike_id":"bea4d6a5-1369-4eb0-8222-2bdf6b18f986","system_id":"levelo_inurba_marseille","lat":43.26684,"lon":5.38269,"is_reserved":false,"is_disabled":false,"rental_uris":{"android":"levelo://app?vid=bea4d6a5-1369-4eb0-8222-2bdf6b18f986","ios":"levelo://app?vid=bea4d6a5-1369-4eb0-8222-2bdf6b18f986"},"vehicle_type_id":"4","last_reported":1736010439,"current_range_meters":38800,"station_id":"ce4bhg92rcd13ifvqf90","pricing_plan_id":"cebpf4jnsgd1na2vs0mg"},{"bike_id":"f0ead5dd-c086-40ba-b637-5a58405b88b0","system_id":"levelo_inurba_marseille","lat":43.25084,"lon":5.40333,"is_reserved":false,"is_disabled":false,"rental_uris":{"android":"levelo://app?vid=f0ead5dd-c086-40ba-b637-5a58405b88b0","ios":"levelo://app?vid=f0ead5dd-c086-40ba-b637-5a58405b88b0"},"vehicle_type_id":"4","last_reported":1736010439,"current_range_meters":38800,"station_id":"ce4bhlh2rcd13ifvqgig","pricing_plan_id":"cebpf4jnsgd1na2vs0mg"},{"bike_id":"e96822d1-b63e-44cb-bd86-0f52601185c2","system_id":"levelo_inurba_marseille","lat":43.29593,"lon":5.3673,"is_reserved":false,"is_disabled":false,"rental_uris":{"android":"levelo://app?vid=e96822d1-b63e-44cb-bd86-0f52601185c2","ios":"levelo://app?vid=e96822d1-b63e-44cb-bd86-0f52601185c2"},"vehicle_type_id":"4","last_reported":1736010439,"current_range_meters":38400,"station_id":"ce4bgph2rcd13ifvqc2g","pricing_plan_id":"cebpf4jnsgd1na2vs0mg"},{"bike_id":"e701aeeb-d4e0-4470-aad9-be342ce267f0","system_id":"levelo_inurba_marseille","lat":43.32294,"lon":5.38276,"is_reserved":false,"is_disabled":false,"rental_uris":{"android":"levelo://app?vid=e701aeeb-d4e0-4470-aad9-be342ce267f0","ios":"levelo://app?vid=e701aeeb-d4e0-4470-aad9-be342ce267f0"},"vehicle_type_id":"4","last_reported":1736010439,"current_range_meters":36400,"station_id":"ce4bhr12rcd13ifvqhqg","pricing_plan_id":"cebpf4jnsgd1na2vs0mg"},{"bike_id":"ea7050ff-7aa9-43ba-b203-b876f0962480","system_id":"levelo_inurba_marseille","lat":43.28012,"lon":5.40027,"is_reserved":false,"is_disabled":true,"rental_uris":{"android":"levelo://app?vid=ea7050ff-7aa9-43ba-b203-b876f0962480","ios":"levelo://app?vid=ea7050ff-7aa9-43ba-b203-b876f0962480"},"vehicle_type_id":"4","last_reported":1736010439,"current_range_meters":0,"station_id":"ce4bho92rcd13ifvqh4g","pricing_plan_id":"cebpf4jnsgd1na2vs0mg"},{"bike_id":"65254d5a-97e2-46f3-9461-41f10d0b57be","system_id":"levelo_inurba_marseille","lat":43.309156,"lon":5.378567,"is_reserved":false,"is_disabled":false,"rental_uris":{"android":"levelo://app?vid=65254d5a-97e2-46f3-9461-41f10d0b57be","ios":"levelo://app?vid=65254d5a-97e2-46f3-9461-41f10d0b57be"},"vehicle_type_id":"4","last_reported":1736010439,"current_range_meters":14400,"station_id":"ce4bgt12rcd13ifvqce0","pricing_plan_id":"cebpf4jnsgd1na2vs0mg"},{"bike_id":"3f6ea272-ddd2-4d64-a9ce-b5fb73e268e4","system_id":"levelo_inurba_marseille","lat":43.2894,"lon":5.39635,"is_reserved":false,"is_disabled":false,"rental_uris":{"android":"levelo://app?vid=3f6ea272-ddd2-4d64-a9ce-b5fb73e268e4","ios":"levelo://app?vid=3f6ea272-ddd2-4d64-a9ce-b5fb73e268e4"},"vehicle_type_id":"4","last_reported":1736010439,"current_range_meters":24800,"station_id":"ce4bh3h2rcd13ifvqdn0","pricing_plan_id":"cebpf4jnsgd1na2vs0mg"},{"bike_id":"2332862a-3884-4317-af82-ee9793e9b62c","system_id":"levelo_inurba_marseille","lat":43.24023,"lon":5.37746,"is_reserved":false,"is_disabled":false,"rental_uris":{"android":"levelo://app?vid=2332862a-3884-4317-af82-ee9793e9b62c","ios":"levelo://app?vid=2332862a-3884-4317-af82-ee9793e9b62c"},"vehicle_type_id":"4","last_reported":1736010439,"current_range_meters":16000,"station_id":"ce4bhnp2rcd13ifvqgvg","pricing_plan_id":"cebpf4jnsgd1na2vs0mg"},{"bike_id":"5473664c-92a1-4743-b966-f53d8825e14c","system_id":"levelo_inurba_marseille","lat":43.24809,"lon":5.37461,"is_reserved":false,"is_disabled":false,"rental_uris":{"android":"levelo://app?vid=5473664c-92a1-4743-b966-f53d8825e14c","ios":"levelo://app?vid=5473664c-92a1-4743-b966-f53d8825e14c"},"vehicle_type_id":"4","last_reported":1736010439,"current_range_meters":8400,"station_id":"ce4bhgh2rcd13ifvqfb0","pricing_plan_id":"cebpf4jnsgd1na2vs0mg"},{"bike_id":"065e15fa-7fcf-47e7-bf49-de94cdc8d7c4","system_id":"levelo_inurba_marseille","lat":43.28409,"lon":5.37521,"is_reserved":false,"is_disabled":false,"rental_uris":{"android":"levelo://app?vid=065e15fa-7fcf-47e7-bf49-de94cdc8d7c4","ios":"levelo://app?vid=065e15fa-7fcf-47e7-bf49-de94cdc8d7c4"},"vehicle_type_id":"4","last_reported":1736010439,"current_range_meters":12400,"station_id":"ce4bh412rcd13ifvqds0","pricing_plan_id":"cebpf4jnsgd1na2vs0mg"},{"bike_id":"988e5514-5dae-459d-a3c0-310e7eb2e911","system_id":"levelo_inurba_marseille","lat":43.26502,"lon":5.39575,"is_reserved":false,"is_disabled":false,"rental_uris":{"android":"levelo://app?vid=988e5514-5dae-459d-a3c0-310e7eb2e911","ios":"levelo://app?vid=988e5514-5dae-459d-a3c0-310e7eb2e911"},"vehicle_type_id":"4","last_reported":1736010439,"current_range_meters":35600,"station_id":"ce4bhi12rcd13ifvqfq0","pricing_plan_id":"cebpf4jnsgd1na2vs0mg"},{"bike_id":"6c52a516-adb0-4c59-8f34-117e54a82c6d","system_id":"levelo_inurba_marseille","lat":43.28266,"lon":5.35068,"is_reserved":false,"is_disabled":false,"rental_uris":{"android":"levelo://app?vid=6c52a516-adb0-4c59-8f34-117e54a82c6d","ios":"levelo://app?vid=6c52a516-adb0-4c59-8f34-117e54a82c6d"},"vehicle_type_id":"4","last_reported":1736010439,"current_range_meters":8000,"station_id":"ce4bhbp2rcd13ifvqerg","pricing_plan_id":"cebpf4jnsgd1na2vs0mg"},{"bike_id":"4a9ae638-3a1c-4c74-88bc-52947c053a13","system_id":"levelo_inurba_marseille","lat":43.26499,"lon":5.3954,"is_reserved":false,"is_disabled":false,"rental_uris":{"android":"levelo://app?vid=4a9ae638-3a1c-4c74-88bc-52947c053a13","ios":"levelo://app?vid=4a9ae638-3a1c-4c74-88bc-52947c053a13"},"vehicle_type_id":"4","last_reported":1736010439,"current_range_meters":10000,"station_id":"ce4bhi12rcd13ifvqfq0","pricing_plan_id":"cebpf4jnsgd1na2vs0mg"},{"bike_id":"c8529c5f-726c-44b9-8f81-1b72db6f4e53","system_id":"levelo_inurba_marseille","lat":43.32351,"lon":5.38893,"is_reserved":false,"is_disabled":false,"rental_uris":{"android":"levelo://app?vid=c8529c5f-726c-44b9-8f81-1b72db6f4e53","ios":"levelo://app?vid=c8529c5f-726c-44b9-8f81-1b72db6f4e53"},"vehicle_type_id":"4","last_reported":1736010439,"current_range_meters":22800,"station_id":"ce4bhqp2rcd13ifvqhog","pricing_plan_id":"cebpf4jnsgd1na2vs0mg"},{"bike_id":"b1608f0f-a7c6-43f4-adf3-5959da879be8","system_id":"levelo_inurba_marseille","lat":43.29372,"lon":5.37836,"is_reserved":false,"is_disabled":false,"rental_uris":{"android":"levelo://app?vid=b1608f0f-a7c6-43f4-adf3-5959da879be8","ios":"levelo://app?vid=b1608f0f-a7c6-43f4-adf3-5959da879be8"},"vehicle_type_id":"4","last_reported":1736010439,"current_range_meters":6400,"station_id":"ce4bgjh2rcd13ifvqbf0","pricing_plan_id":"cebpf4jnsgd1na2vs0mg"},{"bike_id":"9a483109-5bce-4e89-a527-a3ced035742c","system_id":"levelo_inurba_marseille","lat":43.26942,"lon":5.38633,"is_reserved":false,"is_disabled":false,"rental_uris":{"android":"levelo://app?vid=9a483109-5bce-4e89-a527-a3ced035742c","ios":"levelo://app?vid=9a483109-5bce-4e89-a527-a3ced035742c"},"vehicle_type_id":"4","last_reported":1736010439,"current_range_meters":16000,"station_id":"ce4bhh92rcd13ifvqfh0","pricing_plan_id":"cebpf4jnsgd1na2vs0mg"},{"bike_id":"2a34ee1e-28ab-4490-ae4e-217725bcac11","system_id":"levelo_inurba_marseille","lat":43.29782,"lon":5.39364,"is_reserved":false,"is_disabled":false,"rental_uris":{"android":"levelo://app?vid=2a34ee1e-28ab-4490-ae4e-217725bcac11","ios":"levelo://app?vid=2a34ee1e-28ab-4490-ae4e-217725bcac11"},"vehicle_type_id":"4","last_reported":1736010439,"current_range_meters":35200,"station_id":"chh1huq6cuj3fo74tm60","pricing_plan_id":"cebpf4jnsgd1na2vs0mg"},{"bike_id":"f4300c28-af3e-407a-b00f-975f89e7fa58","system_id":"levelo_inurba_marseille","lat":43.29173,"lon":5.37158,"is_reserved":false,"is_disabled":false,"rental_uris":{"android":"levelo://app?vid=f4300c28-af3e-407a-b00f-975f89e7fa58","ios":"levelo://app?vid=f4300c28-af3e-407a-b00f-975f89e7fa58"},"vehicle_type_id":"4","last_reported":1736010439,"current_range_meters":38800,"station_id":"ce4bha92rcd13ifvqeh0","pricing_plan_id":"cebpf4jnsgd1na2vs0mg"},{"bike_id":"7f1ce4ed-0cd0-4d23-b89e-099e0df8c108","system_id":"levelo_inurba_marseille","lat":43.25726,"lon":5.41108,"is_reserved":false,"is_disabled":false,"rental_uris":{"android":"levelo://app?vid=7f1ce4ed-0cd0-4d23-b89e-099e0df8c108","ios":"levelo://app?vid=7f1ce4ed-0cd0-4d23-b89e-099e0df8c108"},"vehicle_type_id":"4","last_reported":1736010439,"current_range_meters":38400,"station_id":"ce4bhkp2rcd13ifvqgd0","pricing_plan_id":"cebpf4jnsgd1na2vs0mg"},{"bike_id":"9a83d30f-34ef-4a1a-b9ac-38cf51f691aa","system_id":"levelo_inurba_marseille","lat":43.27999,"lon":5.40012,"is_reserved":false,"is_disabled":false,"rental_uris":{"android":"levelo://app?vid=9a83d30f-34ef-4a1a-b9ac-38cf51f691aa","ios":"levelo://app?vid=9a83d30f-34ef-4a1a-b9ac-38cf51f691aa"},"vehicle_type_id":"4","last_reported":1736010439,"current_range_meters":32400,"station_id":"ce4bho92rcd13ifvqh4g","pricing_plan_id":"cebpf4jnsgd1na2vs0mg"},{"bike_id":"969c8a84-cf60-4395-8c81-a1d2e7dc81af","system_id":"levelo_inurba_marseille","lat":43.25861,"lon":5.39892,"is_reserved":false,"is_disabled":false,"rental_uris":{"android":"levelo://app?vid=969c8a84-cf60-4395-8c81-a1d2e7dc81af","ios":"levelo://app?vid=969c8a84-cf60-4395-8c81-a1d2e7dc81af"},"vehicle_type_id":"4","last_reported":1736010439,"current_range_meters":20000,"station_id":"ce4bhl92rcd13ifvqghg","pricing_plan_id":"cebpf4jnsgd1na2vs0mg"},{"bike_id":"23a482e8-5497-43a1-a2d0-a2a8b472d4ec","system_id":"levelo_inurba_marseille","lat":43.29291,"lon":5.37395,"is_reserved":false,"is_disabled":false,"rental_uris":{"android":"levelo://app?vid=23a482e8-5497-43a1-a2d0-a2a8b472d4ec","ios":"levelo://app?vid=23a482e8-5497-43a1-a2d0-a2a8b472d4ec"},"vehicle_type_id":"4","last_reported":1736010439,"current_range_meters":34800,"station_id":"","pricing_plan_id":"cebpf4jnsgd1na2vs0mg"},{"bike_id":"9d2065c5-e801-47c6-a32c-5834d37e9dab","system_id":"levelo_inurba_marseille","lat":43.32351,"lon":5.38886,"is_reserved":false,"is_disabled":false,"rental_uris":{"android":"levelo://app?vid=9d2065c5-e801-47c6-a32c-5834d37e9dab","ios":"levelo://app?vid=9d2065c5-e801-47c6-a32c-5834d37e9dab"},"vehicle_type_id":"4","last_reported":1736010439,"current_range_meters":38000,"station_id":"ce4bhqp2rcd13ifvqhog","pricing_plan_id":"cebpf4jnsgd1na2vs0mg"},{"bike_id":"8452ac70-b36f-4236-9954-dfaf1a87fa71","system_id":"levelo_inurba_marseille","lat":43.26797,"lon":5.40267,"is_reserved":false,"is_disabled":false,"rental_uris":{"android":"levelo://app?vid=8452ac70-b36f-4236-9954-dfaf1a87fa71","ios":"levelo://app?vid=8452ac70-b36f-4236-9954-dfaf1a87fa71"},"vehicle_type_id":"4","last_reported":1736010439,"current_range_meters":38800,"station_id":"ce501612rcd8frsf0b60","pricing_plan_id":"cebpf4jnsgd1na2vs0mg"},{"bike_id":"458cdb3a-d8a5-41c2-b556-a79078785430","system_id":"levelo_inurba_marseille","lat":43.31065,"lon":5.38346,"is_reserved":false,"is_disabled":false,"rental_uris":{"android":"levelo://app?vid=458cdb3a-d8a5-41c2-b556-a79078785430","ios":"levelo://app?vid=458cdb3a-d8a5-41c2-b556-a79078785430"},"vehicle_type_id":"4","last_reported":1736010439,"current_range_meters":38800,"station_id":"ce4bgv92rcd13ifvqcr0","pricing_plan_id":"cebpf4jnsgd1na2vs0mg"},{"bike_id":"f3d41f41-839d-41a5-aa6d-f2ba87ff18f0","system_id":"levelo_inurba_marseille","lat":43.24077,"lon":5.37711,"is_reserved":false,"is_disabled":true,"rental_uris":{"android":"levelo://app?vid=f3d41f41-839d-41a5-aa6d-f2ba87ff18f0","ios":"levelo://app?vid=f3d41f41-839d-41a5-aa6d-f2ba87ff18f0"},"vehicle_type_id":"4","last_reported":1736010439,"current_range_meters":0,"station_id":"ce4bhnp2rcd13ifvqgvg","pricing_plan_id":"cebpf4jnsgd1na2vs0mg"},{"bike_id":"6d14468d-d4fe-4fb2-b1d6-ebb52c384fb6","system_id":"levelo_inurba_marseille","lat":43.32004,"lon":5.38143,"is_reserved":false,"is_disabled":false,"rental_uris":{"android":"levelo://app?vid=6d14468d-d4fe-4fb2-b1d6-ebb52c384fb6","ios":"levelo://app?vid=6d14468d-d4fe-4fb2-b1d6-ebb52c384fb6"},"vehicle_type_id":"4","last_reported":1736010439,"current_range_meters":39200,"station_id":"ce4bhr12rcd13ifvqhpg","pricing_plan_id":"cebpf4jnsgd1na2vs0mg"},{"bike_id":"2f857458-45ae-4306-9ffb-5d94252d59a5","system_id":"levelo_inurba_marseille","lat":43.24651,"lon":5.38901,"is_reserved":false,"is_disabled":false,"rental_uris":{"android":"levelo://app?vid=2f857458-45ae-4306-9ffb-5d94252d59a5","ios":"levelo://app?vid=2f857458-45ae-4306-9ffb-5d94252d59a5"},"vehicle_type_id":"4","last_reported":1736010439,"current_range_meters":38000,"station_id":"ce4bhg12rcd13ifvqf60","pricing_plan_id":"cebpf4jnsgd1na2vs0mg"},{"bike_id":"7b78d5e2-5142-402d-a4f8-0f3037a6c533","system_id":"levelo_inurba_marseille","lat":43.26944,"lon":5.38635,"is_reserved":false,"is_disabled":true,"rental_uris":{"android":"levelo://app?vid=7b78d5e2-5142-402d-a4f8-0f3037a6c533","ios":"levelo://app?vid=7b78d5e2-5142-402d-a4f8-0f3037a6c533"},"vehicle_type_id":"4","last_reported":1736010439,"current_range_meters":11600,"station_id":"ce4bhh92rcd13ifvqfh0","pricing_plan_id":"cebpf4jnsgd1na2vs0mg"},{"bike_id":"a5427f41-9e99-4a1d-b40f-d6b3a65dcb1e","system_id":"levelo_inurba_marseille","lat":43.29187,"lon":5.39325,"is_reserved":false,"is_disabled":false,"rental_uris":{"android":"levelo://app?vid=a5427f41-9e99-4a1d-b40f-d6b3a65dcb1e","ios":"levelo://app?vid=a5427f41-9e99-4a1d-b40f-d6b3a65dcb1e"},"vehicle_type_id":"4","last_reported":1736010439,"current_range_meters":30800,"station_id":"ce4bh192rcd13ifvqdd0","pricing_plan_id":"cebpf4jnsgd1na2vs0mg"},{"bike_id":"00b0c897-4e8f-453d-8e9d-6135317dff3d","system_id":"levelo_inurba_marseille","lat":43.2959,"lon":5.42247,"is_reserved":false,"is_disabled":false,"rental_uris":{"android":"levelo://app?vid=00b0c897-4e8f-453d-8e9d-6135317dff3d","ios":"levelo://app?vid=00b0c897-4e8f-453d-8e9d-6135317dff3d"},"vehicle_type_id":"4","last_reported":1736010439,"current_range_meters":37600,"station_id":"","pricing_plan_id":"cebpf4jnsgd1na2vs0mg"},{"bike_id":"d0d21930-fe1d-478b-8251-bcf89564599d","system_id":"levelo_inurba_marseille","lat":43.29551,"lon":5.42274,"is_reserved":false,"is_disabled":false,"rental_uris":{"android":"levelo://app?vid=d0d21930-fe1d-478b-8251-bcf89564599d","ios":"levelo://app?vid=d0d21930-fe1d-478b-8251-bcf89564599d"},"vehicle_type_id":"4","last_reported":1736010439,"current_range_meters":28800,"station_id":"ce4bhph2rcd13ifvqhdg","pricing_plan_id":"cebpf4jnsgd1na2vs0mg"},{"bike_id":"0bd56123-f8b9-4d53-b166-447025313db1","system_id":"levelo_inurba_marseille","lat":43.25573,"lon":5.38229,"is_reserved":false,"is_disabled":false,"rental_uris":{"android":"levelo://app?vid=0bd56123-f8b9-4d53-b166-447025313db1","ios":"levelo://app?vid=0bd56123-f8b9-4d53-b166-447025313db1"},"vehicle_type_id":"4","last_reported":1736010439,"current_range_meters":24000,"station_id":"ce4bhih2rcd13ifvqfs0","pricing_plan_id":"cebpf4jnsgd1na2vs0mg"},{"bike_id":"0b1c4ff6-69b5-49b8-abff-eadae3b124e5","system_id":"levelo_inurba_marseille","lat":43.29871,"lon":5.38912,"is_reserved":false,"is_disabled":false,"rental_uris":{"android":"levelo://app?vid=0b1c4ff6-69b5-49b8-abff-eadae3b124e5","ios":"levelo://app?vid=0b1c4ff6-69b5-49b8-abff-eadae3b124e5"},"vehicle_type_id":"4","last_reported":1736010439,"current_range_meters":27200,"station_id":"ce4bh392rcd13ifvqdl0","pricing_plan_id":"cebpf4jnsgd1na2vs0mg"},{"bike_id":"ca097f70-8976-4699-b173-05723d0647b2","system_id":"levelo_inurba_marseille","lat":43.28149,"lon":5.42652,"is_reserved":false,"is_disabled":false,"rental_uris":{"android":"levelo://app?vid=ca097f70-8976-4699-b173-05723d0647b2","ios":"levelo://app?vid=ca097f70-8976-4699-b173-05723d0647b2"},"vehicle_type_id":"4","last_reported":1736010439,"current_range_meters":16000,"station_id":"ce4bhnh2rcd13ifvqgug","pricing_plan_id":"cebpf4jnsgd1na2vs0mg"},{"bike_id":"858926da-3826-4316-b905-83021bfb4c7c","system_id":"levelo_inurba_marseille","lat":43.30149,"lon":5.38087,"is_reserved":false,"is_disabled":false,"rental_uris":{"android":"levelo://app?vid=858926da-3826-4316-b905-83021bfb4c7c","ios":"levelo://app?vid=858926da-3826-4316-b905-83021bfb4c7c"},"vehicle_type_id":"4","last_reported":1736010439,"current_range_meters":28000,"station_id":"ce4bgjp2rcd13ifvqbh0","pricing_plan_id":"cebpf4jnsgd1na2vs0mg"},{"bike_id":"162adab7-5069-472a-a42d-a9261527f841","system_id":"levelo_inurba_marseille","lat":43.29376,"lon":5.37863,"is_reserved":false,"is_disabled":false,"rental_uris":{"android":"levelo://app?vid=162adab7-5069-472a-a42d-a9261527f841","ios":"levelo://app?vid=162adab7-5069-472a-a42d-a9261527f841"},"vehicle_type_id":"4","last_reported":1736010439,"current_range_meters":38800,"station_id":"ce4bgjh2rcd13ifvqbf0","pricing_plan_id":"cebpf4jnsgd1na2vs0mg"},{"bike_id":"7df8c69e-c289-49ec-81f3-cb98eff027f4","system_id":"levelo_inurba_marseille","lat":43.29543,"lon":5.37502,"is_reserved":false,"is_disabled":false,"rental_uris":{"android":"levelo://app?vid=7df8c69e-c289-49ec-81f3-cb98eff027f4","ios":"levelo://app?vid=7df8c69e-c289-49ec-81f3-cb98eff027f4"},"vehicle_type_id":"4","last_reported":1736010439,"current_range_meters":23200,"station_id":"ce4bgkp2rcd13ifvqbmg","pricing_plan_id":"cebpf4jnsgd1na2vs0mg"},{"bike_id":"f01ef33a-dc2d-45c3-a75c-7a57df6a930d","system_id":"levelo_inurba_marseille","lat":43.26227,"lon":5.37435,"is_reserved":false,"is_disabled":false,"rental_uris":{"android":"levelo://app?vid=f01ef33a-dc2d-45c3-a75c-7a57df6a930d","ios":"levelo://app?vid=f01ef33a-dc2d-45c3-a75c-7a57df6a930d"},"vehicle_type_id":"4","last_reported":1736010439,"current_range_meters":6800,"station_id":"ce4bhgp2rcd13ifvqfc0","pricing_plan_id":"cebpf4jnsgd1na2vs0mg"},{"bike_id":"67310104-2c30-4e8f-a59a-16e937832da5","system_id":"levelo_inurba_marseille","lat":43.267873,"lon":5.394335,"is_reserved":false,"is_disabled":false,"rental_uris":{"android":"levelo://app?vid=67310104-2c30-4e8f-a59a-16e937832da5","ios":"levelo://app?vid=67310104-2c30-4e8f-a59a-16e937832da5"},"vehicle_type_id":"4","last_reported":1736010439,"current_range_meters":25200,"station_id":"ce4bhh12rcd13ifvqfg0","pricing_plan_id":"cebpf4jnsgd1na2vs0mg"},{"bike_id":"6f8328fa-66eb-48bb-98f0-6c77e8a3a6dc","system_id":"levelo_inurba_marseille","lat":43.29874,"lon":5.38905,"is_reserved":false,"is_disabled":false,"rental_uris":{"android":"levelo://app?vid=6f8328fa-66eb-48bb-98f0-6c77e8a3a6dc","ios":"levelo://app?vid=6f8328fa-66eb-48bb-98f0-6c77e8a3a6dc"},"vehicle_type_id":"4","last_reported":1736010439,"current_range_meters":28000,"station_id":"ce4bh392rcd13ifvqdl0","pricing_plan_id":"cebpf4jnsgd1na2vs0mg"},{"bike_id":"a6f828f1-5f97-4da7-bf33-7d48a155db3e","system_id":"levelo_inurba_marseille","lat":43.27848,"lon":5.39188,"is_reserved":false,"is_disabled":false,"rental_uris":{"android":"levelo://app?vid=a6f828f1-5f97-4da7-bf33-7d48a155db3e","ios":"levelo://app?vid=a6f828f1-5f97-4da7-bf33-7d48a155db3e"},"vehicle_type_id":"4","last_reported":1736010439,"current_range_meters":26000,"station_id":"ce4bhjp2rcd13ifvqga0","pricing_plan_id":"cebpf4jnsgd1na2vs0mg"},{"bike_id":"62fc5b0f-3840-4dd7-980d-1f963f211f25","system_id":"levelo_inurba_marseille","lat":43.26193,"lon":5.37448,"is_reserved":false,"is_disabled":false,"rental_uris":{"android":"levelo://app?vid=62fc5b0f-3840-4dd7-980d-1f963f211f25","ios":"levelo://app?vid=62fc5b0f-3840-4dd7-980d-1f963f211f25"},"vehicle_type_id":"4","last_reported":1736010439,"current_range_meters":6400,"station_id":"ce4bhgp2rcd13ifvqfc0","pricing_plan_id":"cebpf4jnsgd1na2vs0mg"},{"bike_id":"a522c7f8-85db-4294-bcdd-44c45cbf4d5e","system_id":"levelo_inurba_marseille","lat":43.23186,"lon":5.39986,"is_reserved":false,"is_disabled":false,"rental_uris":{"android":"levelo://app?vid=a522c7f8-85db-4294-bcdd-44c45cbf4d5e","ios":"levelo://app?vid=a522c7f8-85db-4294-bcdd-44c45cbf4d5e"},"vehicle_type_id":"4","last_reported":1736010439,"current_range_meters":38800,"station_id":"ce4bhn12rcd13ifvqgqg","pricing_plan_id":"cebpf4jnsgd1na2vs0mg"},{"bike_id":"944a735e-0a07-4191-b086-aa84c37e8c74","system_id":"levelo_inurba_marseille","lat":43.2695,"lon":5.38904,"is_reserved":false,"is_disabled":false,"rental_uris":{"android":"levelo://app?vid=944a735e-0a07-4191-b086-aa84c37e8c74","ios":"levelo://app?vid=944a735e-0a07-4191-b086-aa84c37e8c74"},"vehicle_type_id":"4","last_reported":1736010439,"current_range_meters":24000,"station_id":"ce4bhhh2rcd13ifvqfl0","pricing_plan_id":"cebpf4jnsgd1na2vs0mg"},{"bike_id":"5473f8cb-7255-4e3c-9251-675bd5dbbb60","system_id":"levelo_inurba_marseille","lat":43.2903,"lon":5.3997,"is_reserved":false,"is_disabled":false,"rental_uris":{"android":"levelo://app?vid=5473f8cb-7255-4e3c-9251-675bd5dbbb60","ios":"levelo://app?vid=5473f8cb-7255-4e3c-9251-675bd5dbbb60"},"vehicle_type_id":"4","last_reported":1736010439,"current_range_meters":38000,"station_id":"ce4bh392rcd13ifvqdm0","pricing_plan_id":"cebpf4jnsgd1na2vs0mg"},{"bike_id":"2bb365b9-b0ab-4842-8b8c-e8de6374870a","system_id":"levelo_inurba_marseille","lat":43.24647,"lon":5.38894,"is_reserved":false,"is_disabled":false,"rental_uris":{"android":"levelo://app?vid=2bb365b9-b0ab-4842-8b8c-e8de6374870a","ios":"levelo://app?vid=2bb365b9-b0ab-4842-8b8c-e8de6374870a"},"vehicle_type_id":"4","last_reported":1736010439,"current_range_meters":12400,"station_id":"ce4bhg12rcd13ifvqf60","pricing_plan_id":"cebpf4jnsgd1na2vs0mg"},{"bike_id":"e5f8844c-bba9-4bc5-88cc-1530a501cd5e","system_id":"levelo_inurba_marseille","lat":43.31172,"lon":5.38713,"is_reserved":false,"is_disabled":false,"rental_uris":{"android":"levelo://app?vid=e5f8844c-bba9-4bc5-88cc-1530a501cd5e","ios":"levelo://app?vid=e5f8844c-bba9-4bc5-88cc-1530a501cd5e"},"vehicle_type_id":"4","last_reported":1736010439,"current_range_meters":37600,"station_id":"ce4bgv12rcd13ifvqcp0","pricing_plan_id":"cebpf4jnsgd1na2vs0mg"},{"bike_id":"1a5862f9-6cf6-4e7e-bc02-c34c78d2aa45","system_id":"levelo_inurba_marseille","lat":43.28722,"lon":5.36082,"is_reserved":false,"is_disabled":false,"rental_uris":{"android":"levelo://app?vid=1a5862f9-6cf6-4e7e-bc02-c34c78d2aa45","ios":"levelo://app?vid=1a5862f9-6cf6-4e7e-bc02-c34c78d2aa45"},"vehicle_type_id":"4","last_reported":1736010439,"current_range_meters":22400,"station_id":"cki0cbj6b192h4jlfktg","pricing_plan_id":"cebpf4jnsgd1na2vs0mg"},{"bike_id":"6c0950ff-ad32-4545-a3b0-d009b8de7beb","system_id":"levelo_inurba_marseille","lat":43.26481,"lon":5.39552,"is_reserved":false,"is_disabled":false,"rental_uris":{"android":"levelo://app?vid=6c0950ff-ad32-4545-a3b0-d009b8de7beb","ios":"levelo://app?vid=6c0950ff-ad32-4545-a3b0-d009b8de7beb"},"vehicle_type_id":"4","last_reported":1736010439,"current_range_meters":38800,"station_id":"ce4bhi12rcd13ifvqfq0","pricing_plan_id":"cebpf4jnsgd1na2vs0mg"},{"bike_id":"641d8acc-50b2-4173-ab23-c70f2a11d28e","system_id":"levelo_inurba_marseille","lat":43.28122,"lon":5.42646,"is_reserved":false,"is_disabled":true,"rental_uris":{"android":"levelo://app?vid=641d8acc-50b2-4173-ab23-c70f2a11d28e","ios":"levelo://app?vid=641d8acc-50b2-4173-ab23-c70f2a11d28e"},"vehicle_type_id":"4","last_reported":1736010439,"current_range_meters":36400,"station_id":"ce4bhnh2rcd13ifvqgug","pricing_plan_id":"cebpf4jnsgd1na2vs0mg"},{"bike_id":"dd47ece4-9948-42c0-abda-95cbb612c218","system_id":"levelo_inurba_marseille","lat":43.308932,"lon":5.396611,"is_reserved":false,"is_disabled":false,"rental_uris":{"android":"levelo://app?vid=dd47ece4-9948-42c0-abda-95cbb612c218","ios":"levelo://app?vid=dd47ece4-9948-42c0-abda-95cbb612c218"},"vehicle_type_id":"4","last_reported":1736010439,"current_range_meters":39200,"station_id":"ce4bh012rcd13ifvqcv0","pricing_plan_id":"cebpf4jnsgd1na2vs0mg"},{"bike_id":"15e503f5-1d52-42d6-a98f-33a61fd8b554","system_id":"levelo_inurba_marseille","lat":43.28457,"lon":5.359,"is_reserved":false,"is_disabled":true,"rental_uris":{"android":"levelo://app?vid=15e503f5-1d52-42d6-a98f-33a61fd8b554","ios":"levelo://app?vid=15e503f5-1d52-42d6-a98f-33a61fd8b554"},"vehicle_type_id":"4","last_reported":1736010439,"current_range_meters":29600,"station_id":"ce4bhah2rcd13ifvqei0","pricing_plan_id":"cebpf4jnsgd1na2vs0mg"},{"bike_id":"3f029f98-4958-4086-9eb0-d28f72bd0643","system_id":"levelo_inurba_marseille","lat":43.32116,"lon":5.36774,"is_reserved":false,"is_disabled":false,"rental_uris":{"android":"levelo://app?vid=3f029f98-4958-4086-9eb0-d28f72bd0643","ios":"levelo://app?vid=3f029f98-4958-4086-9eb0-d28f72bd0643"},"vehicle_type_id":"4","last_reported":1736010439,"current_range_meters":38800,"station_id":"ce4bhrh2rcd13ifvqhug","pricing_plan_id":"cebpf4jnsgd1na2vs0mg"},{"bike_id":"976319d0-0dd9-4671-8856-6b603e830f8f","system_id":"levelo_inurba_marseille","lat":43.29267,"lon":5.36842,"is_reserved":false,"is_disabled":false,"rental_uris":{"android":"levelo://app?vid=976319d0-0dd9-4671-8856-6b603e830f8f","ios":"levelo://app?vid=976319d0-0dd9-4671-8856-6b603e830f8f"},"vehicle_type_id":"4","last_reported":1736010439,"current_range_meters":12400,"station_id":"ce4bhbp2rcd13ifvqesg","pricing_plan_id":"cebpf4jnsgd1na2vs0mg"},{"bike_id":"939d444f-90af-4242-b314-80106977b85f","system_id":"levelo_inurba_marseille","lat":43.28155,"lon":5.4264,"is_reserved":false,"is_disabled":false,"rental_uris":{"android":"levelo://app?vid=939d444f-90af-4242-b314-80106977b85f","ios":"levelo://app?vid=939d444f-90af-4242-b314-80106977b85f"},"vehicle_type_id":"4","last_reported":1736010439,"current_range_meters":36400,"station_id":"ce4bhnh2rcd13ifvqgug","pricing_plan_id":"cebpf4jnsgd1na2vs0mg"},{"bike_id":"bd609247-c05b-4bfd-8224-3974e4956916","system_id":"levelo_inurba_marseille","lat":43.309084,"lon":5.368474,"is_reserved":false,"is_disabled":true,"rental_uris":{"android":"levelo://app?vid=bd609247-c05b-4bfd-8224-3974e4956916","ios":"levelo://app?vid=bd609247-c05b-4bfd-8224-3974e4956916"},"vehicle_type_id":"4","last_reported":1736010439,"current_range_meters":36000,"station_id":"ce4bgn92rcd13ifvqbvg","pricing_plan_id":"cebpf4jnsgd1na2vs0mg"},{"bike_id":"54f6c29e-1f89-491c-9684-ffafebbba118","system_id":"levelo_inurba_marseille","lat":43.28999,"lon":5.35608,"is_reserved":false,"is_disabled":false,"rental_uris":{"android":"levelo://app?vid=54f6c29e-1f89-491c-9684-ffafebbba118","ios":"levelo://app?vid=54f6c29e-1f89-491c-9684-ffafebbba118"},"vehicle_type_id":"4","last_reported":1736010439,"current_range_meters":38400,"station_id":"ce4bhb92rcd13ifvqen0","pricing_plan_id":"cebpf4jnsgd1na2vs0mg"},{"bike_id":"cc08e1b1-f11a-4188-9f9e-5bf9b806f73d","system_id":"levelo_inurba_marseille","lat":43.30461,"lon":5.37908,"is_reserved":false,"is_disabled":false,"rental_uris":{"android":"levelo://app?vid=cc08e1b1-f11a-4188-9f9e-5bf9b806f73d","ios":"levelo://app?vid=cc08e1b1-f11a-4188-9f9e-5bf9b806f73d"},"vehicle_type_id":"4","last_reported":1736010439,"current_range_meters":36800,"station_id":"ce4bgup2rcd13ifvqcn0","pricing_plan_id":"cebpf4jnsgd1na2vs0mg"},{"bike_id":"b50c1e04-9c20-4daa-ad06-7d854e9beedd","system_id":"levelo_inurba_marseille","lat":43.26198,"lon":5.37456,"is_reserved":false,"is_disabled":false,"rental_uris":{"android":"levelo://app?vid=b50c1e04-9c20-4daa-ad06-7d854e9beedd","ios":"levelo://app?vid=b50c1e04-9c20-4daa-ad06-7d854e9beedd"},"vehicle_type_id":"4","last_reported":1736010439,"current_range_meters":32400,"station_id":"ce4bhgp2rcd13ifvqfc0","pricing_plan_id":"cebpf4jnsgd1na2vs0mg"},{"bike_id":"6072a47d-013b-4750-94cc-06b5f4e2ad66","system_id":"levelo_inurba_marseille","lat":43.29561,"lon":5.42271,"is_reserved":false,"is_disabled":false,"rental_uris":{"android":"levelo://app?vid=6072a47d-013b-4750-94cc-06b5f4e2ad66","ios":"levelo://app?vid=6072a47d-013b-4750-94cc-06b5f4e2ad66"},"vehicle_type_id":"4","last_reported":1736010439,"current_range_meters":38800,"station_id":"ce4bhph2rcd13ifvqhdg","pricing_plan_id":"cebpf4jnsgd1na2vs0mg"},{"bike_id":"8d4566f5-07fe-47f4-85a6-9546b8b4eddd","system_id":"levelo_inurba_marseille","lat":43.25106,"lon":5.40321,"is_reserved":false,"is_disabled":false,"rental_uris":{"android":"levelo://app?vid=8d4566f5-07fe-47f4-85a6-9546b8b4eddd","ios":"levelo://app?vid=8d4566f5-07fe-47f4-85a6-9546b8b4eddd"},"vehicle_type_id":"4","last_reported":1736010439,"current_range_meters":10000,"station_id":"ce4bhlh2rcd13ifvqgig","pricing_plan_id":"cebpf4jnsgd1na2vs0mg"},{"bike_id":"3fbcc12d-7cf7-41eb-a3b6-64c9268b731a","system_id":"levelo_inurba_marseille","lat":43.2962,"lon":5.37718,"is_reserved":false,"is_disabled":false,"rental_uris":{"android":"levelo://app?vid=3fbcc12d-7cf7-41eb-a3b6-64c9268b731a","ios":"levelo://app?vid=3fbcc12d-7cf7-41eb-a3b6-64c9268b731a"},"vehicle_type_id":"4","last_reported":1736010439,"current_range_meters":27200,"station_id":"ce4bgi92rcd13ifvqb90","pricing_plan_id":"cebpf4jnsgd1na2vs0mg"},{"bike_id":"1d0ee6fa-7e84-4bad-a513-32569bfb99a6","system_id":"levelo_inurba_marseille","lat":43.27423,"lon":5.39408,"is_reserved":false,"is_disabled":false,"rental_uris":{"android":"levelo://app?vid=1d0ee6fa-7e84-4bad-a513-32569bfb99a6","ios":"levelo://app?vid=1d0ee6fa-7e84-4bad-a513-32569bfb99a6"},"vehicle_type_id":"4","last_reported":1736010439,"current_range_meters":38800,"station_id":"ce4bhdp2rcd13ifvqf20","pricing_plan_id":"cebpf4jnsgd1na2vs0mg"},{"bike_id":"5a54700b-0a1a-485d-8900-cc71b27414b7","system_id":"levelo_inurba_marseille","lat":43.28355,"lon":5.38103,"is_reserved":false,"is_disabled":false,"rental_uris":{"android":"levelo://app?vid=5a54700b-0a1a-485d-8900-cc71b27414b7","ios":"levelo://app?vid=5a54700b-0a1a-485d-8900-cc71b27414b7"},"vehicle_type_id":"4","last_reported":1736010439,"current_range_meters":37600,"station_id":"ce4bh412rcd13ifvqdr0","pricing_plan_id":"cebpf4jnsgd1na2vs0mg"},{"bike_id":"983a939f-0c90-4b41-8e07-1ba37a328643","system_id":"levelo_inurba_marseille","lat":43.24169,"lon":5.364,"is_reserved":false,"is_disabled":false,"rental_uris":{"android":"levelo://app?vid=983a939f-0c90-4b41-8e07-1ba37a328643","ios":"levelo://app?vid=983a939f-0c90-4b41-8e07-1ba37a328643"},"vehicle_type_id":"4","last_reported":1736010439,"current_range_meters":24800,"station_id":"cpo36qri1sfpv3e86is0","pricing_plan_id":"cebpf4jnsgd1na2vs0mg"},{"bike_id":"cfd72c2f-528a-4e71-a74c-356dcb547453","system_id":"levelo_inurba_marseille","lat":43.2408,"lon":5.3775,"is_reserved":false,"is_disabled":false,"rental_uris":{"android":"levelo://app?vid=cfd72c2f-528a-4e71-a74c-356dcb547453","ios":"levelo://app?vid=cfd72c2f-528a-4e71-a74c-356dcb547453"},"vehicle_type_id":"4","last_reported":1736010439,"current_range_meters":9600,"station_id":"ce4bhnp2rcd13ifvqgvg","pricing_plan_id":"cebpf4jnsgd1na2vs0mg"},{"bike_id":"1f95228b-2707-4808-8d35-1365263ec69f","system_id":"levelo_inurba_marseille","lat":43.29932,"lon":5.36519,"is_reserved":false,"is_disabled":false,"rental_uris":{"android":"levelo://app?vid=1f95228b-2707-4808-8d35-1365263ec69f","ios":"levelo://app?vid=1f95228b-2707-4808-8d35-1365263ec69f"},"vehicle_type_id":"4","last_reported":1736010439,"current_range_meters":25200,"station_id":"ce4bgm92rcd13ifvqbr0","pricing_plan_id":"cebpf4jnsgd1na2vs0mg"},{"bike_id":"32fac1ac-160b-43ec-a560-a05ca5d5e872","system_id":"levelo_inurba_marseille","lat":43.31891,"lon":5.40726,"is_reserved":false,"is_disabled":false,"rental_uris":{"android":"levelo://app?vid=32fac1ac-160b-43ec-a560-a05ca5d5e872","ios":"levelo://app?vid=32fac1ac-160b-43ec-a560-a05ca5d5e872"},"vehicle_type_id":"4","last_reported":1736010439,"current_range_meters":39200,"station_id":"ce4bhq12rcd13ifvqhig","pricing_plan_id":"cebpf4jnsgd1na2vs0mg"},{"bike_id":"09a9cb86-d81c-4618-82f7-eabb09c6ac81","system_id":"levelo_inurba_marseille","lat":43.29977,"lon":5.37185,"is_reserved":false,"is_disabled":false,"rental_uris":{"android":"levelo://app?vid=09a9cb86-d81c-4618-82f7-eabb09c6ac81","ios":"levelo://app?vid=09a9cb86-d81c-4618-82f7-eabb09c6ac81"},"vehicle_type_id":"4","last_reported":1736010439,"current_range_meters":38800,"station_id":"ce4bgr92rcd13ifvqc7g","pricing_plan_id":"cebpf4jnsgd1na2vs0mg"},{"bike_id":"c820bd62-18cb-4bc2-b5bb-e4d0b7276320","system_id":"levelo_inurba_marseille","lat":43.3014,"lon":5.37414,"is_reserved":false,"is_disabled":false,"rental_uris":{"android":"levelo://app?vid=c820bd62-18cb-4bc2-b5bb-e4d0b7276320","ios":"levelo://app?vid=c820bd62-18cb-4bc2-b5bb-e4d0b7276320"},"vehicle_type_id":"4","last_reported":1736010439,"current_range_meters":35600,"station_id":"ce4bgs92rcd13ifvqcc0","pricing_plan_id":"cebpf4jnsgd1na2vs0mg"},{"bike_id":"65ac3048-33e1-41aa-81f5-a58ffe909868","system_id":"levelo_inurba_marseille","lat":43.28005,"lon":5.4001,"is_reserved":false,"is_disabled":false,"rental_uris":{"android":"levelo://app?vid=65ac3048-33e1-41aa-81f5-a58ffe909868","ios":"levelo://app?vid=65ac3048-33e1-41aa-81f5-a58ffe909868"},"vehicle_type_id":"4","last_reported":1736010439,"current_range_meters":38800,"station_id":"ce4bho92rcd13ifvqh4g","pricing_plan_id":"cebpf4jnsgd1na2vs0mg"},{"bike_id":"a5857756-0478-41f2-bfa4-405eeda359bc","system_id":"levelo_inurba_marseille","lat":43.26684,"lon":5.382615,"is_reserved":false,"is_disabled":false,"rental_uris":{"android":"levelo://app?vid=a5857756-0478-41f2-bfa4-405eeda359bc","ios":"levelo://app?vid=a5857756-0478-41f2-bfa4-405eeda359bc"},"vehicle_type_id":"4","last_reported":1736010439,"current_range_meters":38800,"station_id":"ce4bhg92rcd13ifvqf90","pricing_plan_id":"cebpf4jnsgd1na2vs0mg"},{"bike_id":"9e3933c5-f145-4227-841e-244ec335f181","system_id":"levelo_inurba_marseille","lat":43.29796,"lon":5.40391,"is_reserved":false,"is_disabled":false,"rental_uris":{"android":"levelo://app?vid=9e3933c5-f145-4227-841e-244ec335f181","ios":"levelo://app?vid=9e3933c5-f145-4227-841e-244ec335f181"},"vehicle_type_id":"4","last_reported":1736010439,"current_range_meters":28400,"station_id":"ce4bh112rcd13ifvqd90","pricing_plan_id":"cebpf4jnsgd1na2vs0mg"},{"bike_id":"4c5ae1d5-da3c-4b0f-b78d-0c1af5974662","system_id":"levelo_inurba_marseille","lat":43.29604,"lon":5.37721,"is_reserved":false,"is_disabled":false,"rental_uris":{"android":"levelo://app?vid=4c5ae1d5-da3c-4b0f-b78d-0c1af5974662","ios":"levelo://app?vid=4c5ae1d5-da3c-4b0f-b78d-0c1af5974662"},"vehicle_type_id":"4","last_reported":1736010439,"current_range_meters":38800,"station_id":"ce4bgi92rcd13ifvqb90","pricing_plan_id":"cebpf4jnsgd1na2vs0mg"},{"bike_id":"cee52b7b-994c-4dad-b1d6-59ae04f4814c","system_id":"levelo_inurba_marseille","lat":43.24549,"lon":5.39521,"is_reserved":false,"is_disabled":false,"rental_uris":{"android":"levelo://app?vid=cee52b7b-994c-4dad-b1d6-59ae04f4814c","ios":"levelo://app?vid=cee52b7b-994c-4dad-b1d6-59ae04f4814c"},"vehicle_type_id":"4","last_reported":1736010439,"current_range_meters":9200,"station_id":"ce4bhlp2rcd13ifvqgjg","pricing_plan_id":"cebpf4jnsgd1na2vs0mg"},{"bike_id":"60933a7a-3180-47b4-8262-df7ac4196761","system_id":"levelo_inurba_marseille","lat":43.26781,"lon":5.39409,"is_reserved":false,"is_disabled":false,"rental_uris":{"android":"levelo://app?vid=60933a7a-3180-47b4-8262-df7ac4196761","ios":"levelo://app?vid=60933a7a-3180-47b4-8262-df7ac4196761"},"vehicle_type_id":"4","last_reported":1736010439,"current_range_meters":24400,"station_id":"ce4bhh12rcd13ifvqfg0","pricing_plan_id":"cebpf4jnsgd1na2vs0mg"},{"bike_id":"e848f4c6-9023-41ef-8ed5-0d3d018bfc61","system_id":"levelo_inurba_marseille","lat":43.27685,"lon":5.38901,"is_reserved":false,"is_disabled":false,"rental_uris":{"android":"levelo://app?vid=e848f4c6-9023-41ef-8ed5-0d3d018bfc61","ios":"levelo://app?vid=e848f4c6-9023-41ef-8ed5-0d3d018bfc61"},"vehicle_type_id":"4","last_reported":1736010439,"current_range_meters":39200,"station_id":"ce4bhi12rcd13ifvqfo0","pricing_plan_id":"cebpf4jnsgd1na2vs0mg"},{"bike_id":"d8b76d84-2dfc-400f-9630-9e7b0787e9cc","system_id":"levelo_inurba_marseille","lat":43.27502,"lon":5.42449,"is_reserved":false,"is_disabled":true,"rental_uris":{"android":"levelo://app?vid=d8b76d84-2dfc-400f-9630-9e7b0787e9cc","ios":"levelo://app?vid=d8b76d84-2dfc-400f-9630-9e7b0787e9cc"},"vehicle_type_id":"4","last_reported":1736010439,"current_range_meters":8400,"station_id":"ce4bhn92rcd13ifvqgrg","pricing_plan_id":"cebpf4jnsgd1na2vs0mg"},{"bike_id":"80015150-ed7a-4567-92b6-885b195b502e","system_id":"levelo_inurba_marseille","lat":43.3014,"lon":5.38083,"is_reserved":false,"is_disabled":false,"rental_uris":{"android":"levelo://app?vid=80015150-ed7a-4567-92b6-885b195b502e","ios":"levelo://app?vid=80015150-ed7a-4567-92b6-885b195b502e"},"vehicle_type_id":"4","last_reported":1736010439,"current_range_meters":38800,"station_id":"ce4bgjp2rcd13ifvqbh0","pricing_plan_id":"cebpf4jnsgd1na2vs0mg"},{"bike_id":"eaecfcca-aa89-4e9a-8d17-c5be1539665b","system_id":"levelo_inurba_marseille","lat":43.28276,"lon":5.35073,"is_reserved":false,"is_disabled":true,"rental_uris":{"android":"levelo://app?vid=eaecfcca-aa89-4e9a-8d17-c5be1539665b","ios":"levelo://app?vid=eaecfcca-aa89-4e9a-8d17-c5be1539665b"},"vehicle_type_id":"4","last_reported":1736010439,"current_range_meters":6400,"station_id":"ce4bhbp2rcd13ifvqerg","pricing_plan_id":"cebpf4jnsgd1na2vs0mg"},{"bike_id":"896797d5-e48c-435a-a4ff-c7d0b4682116","system_id":"levelo_inurba_marseille","lat":43.27804,"lon":5.40708,"is_reserved":false,"is_disabled":false,"rental_uris":{"android":"levelo://app?vid=896797d5-e48c-435a-a4ff-c7d0b4682116","ios":"levelo://app?vid=896797d5-e48c-435a-a4ff-c7d0b4682116"},"vehicle_type_id":"4","last_reported":1736010439,"current_range_meters":26800,"station_id":"ce4bhnh2rcd13ifvqgtg","pricing_plan_id":"cebpf4jnsgd1na2vs0mg"},{"bike_id":"86013074-2387-4bc1-b5b1-a7e20b573fd1","system_id":"levelo_inurba_marseille","lat":43.297796,"lon":5.393334,"is_reserved":false,"is_disabled":false,"rental_uris":{"android":"levelo://app?vid=86013074-2387-4bc1-b5b1-a7e20b573fd1","ios":"levelo://app?vid=86013074-2387-4bc1-b5b1-a7e20b573fd1"},"vehicle_type_id":"4","last_reported":1736010439,"current_range_meters":28800,"station_id":"chh1huq6cuj3fo74tm60","pricing_plan_id":"cebpf4jnsgd1na2vs0mg"},{"bike_id":"5854388b-92e2-4b37-9e8b-a841df570ddd","system_id":"levelo_inurba_marseille","lat":43.24072,"lon":5.37764,"is_reserved":false,"is_disabled":false,"rental_uris":{"android":"levelo://app?vid=5854388b-92e2-4b37-9e8b-a841df570ddd","ios":"levelo://app?vid=5854388b-92e2-4b37-9e8b-a841df570ddd"},"vehicle_type_id":"4","last_reported":1736010439,"current_range_meters":5600,"station_id":"ce4bhnp2rcd13ifvqgvg","pricing_plan_id":"cebpf4jnsgd1na2vs0mg"},{"bike_id":"5faa1411-1571-435c-ae3e-6c958b670f59","system_id":"levelo_inurba_marseille","lat":43.29707,"lon":5.37701,"is_reserved":false,"is_disabled":false,"rental_uris":{"android":"levelo://app?vid=5faa1411-1571-435c-ae3e-6c958b670f59","ios":"levelo://app?vid=5faa1411-1571-435c-ae3e-6c958b670f59"},"vehicle_type_id":"4","last_reported":1736010439,"current_range_meters":10000,"station_id":"ce4bgkh2rcd13ifvqbl0","pricing_plan_id":"cebpf4jnsgd1na2vs0mg"},{"bike_id":"0d707ffc-f707-4ef1-b382-12ca6e4a0156","system_id":"levelo_inurba_marseille","lat":43.26797,"lon":5.39405,"is_reserved":false,"is_disabled":false,"rental_uris":{"android":"levelo://app?vid=0d707ffc-f707-4ef1-b382-12ca6e4a0156","ios":"levelo://app?vid=0d707ffc-f707-4ef1-b382-12ca6e4a0156"},"vehicle_type_id":"4","last_reported":1736010439,"current_range_meters":36800,"station_id":"ce4bhh12rcd13ifvqfg0","pricing_plan_id":"cebpf4jnsgd1na2vs0mg"},{"bike_id":"ef284344-4ec0-4a76-9b86-a2c96abcc89a","system_id":"levelo_inurba_marseille","lat":43.29726,"lon":5.36636,"is_reserved":false,"is_disabled":false,"rental_uris":{"android":"levelo://app?vid=ef284344-4ec0-4a76-9b86-a2c96abcc89a","ios":"levelo://app?vid=ef284344-4ec0-4a76-9b86-a2c96abcc89a"},"vehicle_type_id":"4","last_reported":1736010439,"current_range_meters":2800,"station_id":"ce4bgn12rcd13ifvqbt0","pricing_plan_id":"cebpf4jnsgd1na2vs0mg"},{"bike_id":"7b7b303a-a0b7-4a31-b23c-f8fd5396854f","system_id":"levelo_inurba_marseille","lat":43.27674,"lon":5.38865,"is_reserved":false,"is_disabled":false,"rental_uris":{"android":"levelo://app?vid=7b7b303a-a0b7-4a31-b23c-f8fd5396854f","ios":"levelo://app?vid=7b7b303a-a0b7-4a31-b23c-f8fd5396854f"},"vehicle_type_id":"4","last_reported":1736010439,"current_range_meters":36000,"station_id":"ce4bhi12rcd13ifvqfo0","pricing_plan_id":"cebpf4jnsgd1na2vs0mg"},{"bike_id":"ee5c5745-5c60-4b9a-9315-2db5baa534ee","system_id":"levelo_inurba_marseille","lat":43.28445,"lon":5.39205,"is_reserved":false,"is_disabled":false,"rental_uris":{"android":"levelo://app?vid=ee5c5745-5c60-4b9a-9315-2db5baa534ee","ios":"levelo://app?vid=ee5c5745-5c60-4b9a-9315-2db5baa534ee"},"vehicle_type_id":"4","last_reported":1736010439,"current_range_meters":12400,"station_id":"ce4bhoh2rcd13ifvqh5g","pricing_plan_id":"cebpf4jnsgd1na2vs0mg"},{"bike_id":"d6ffb7e5-f3ee-45fd-86b7-d7642d09152c","system_id":"levelo_inurba_marseille","lat":43.25004,"lon":5.389338,"is_reserved":false,"is_disabled":false,"rental_uris":{"android":"levelo://app?vid=d6ffb7e5-f3ee-45fd-86b7-d7642d09152c","ios":"levelo://app?vid=d6ffb7e5-f3ee-45fd-86b7-d7642d09152c"},"vehicle_type_id":"4","last_reported":1736010439,"current_range_meters":27200,"station_id":"ce4bhgp2rcd13ifvqfd0","pricing_plan_id":"cebpf4jnsgd1na2vs0mg"},{"bike_id":"5e12b1e9-3414-4512-9178-c92357c60ae0","system_id":"levelo_inurba_marseille","lat":43.26028,"lon":5.3755,"is_reserved":false,"is_disabled":false,"rental_uris":{"android":"levelo://app?vid=5e12b1e9-3414-4512-9178-c92357c60ae0","ios":"levelo://app?vid=5e12b1e9-3414-4512-9178-c92357c60ae0"},"vehicle_type_id":"4","last_reported":1736010439,"current_range_meters":38800,"station_id":"ce4bhgh2rcd13ifvqfa0","pricing_plan_id":"cebpf4jnsgd1na2vs0mg"},{"bike_id":"182069f5-9311-441d-b62a-092147390eed","system_id":"levelo_inurba_marseille","lat":43.23192,"lon":5.39987,"is_reserved":false,"is_disabled":false,"rental_uris":{"android":"levelo://app?vid=182069f5-9311-441d-b62a-092147390eed","ios":"levelo://app?vid=182069f5-9311-441d-b62a-092147390eed"},"vehicle_type_id":"4","last_reported":1736010439,"current_range_meters":39200,"station_id":"ce4bhn12rcd13ifvqgqg","pricing_plan_id":"cebpf4jnsgd1na2vs0mg"},{"bike_id":"0036dbf7-54ca-4d69-9c93-fd81fed460ce","system_id":"levelo_inurba_marseille","lat":43.26933,"lon":5.4025,"is_reserved":false,"is_disabled":false,"rental_uris":{"android":"levelo://app?vid=0036dbf7-54ca-4d69-9c93-fd81fed460ce","ios":"levelo://app?vid=0036dbf7-54ca-4d69-9c93-fd81fed460ce"},"vehicle_type_id":"4","last_reported":1736010439,"current_range_meters":18800,"station_id":"cjm6bp8fraef2m0cb0m0","pricing_plan_id":"cebpf4jnsgd1na2vs0mg"},{"bike_id":"266b391b-9978-4801-ac47-0bd5ed16b604","system_id":"levelo_inurba_marseille","lat":43.30198,"lon":5.37426,"is_reserved":false,"is_disabled":false,"rental_uris":{"android":"levelo://app?vid=266b391b-9978-4801-ac47-0bd5ed16b604","ios":"levelo://app?vid=266b391b-9978-4801-ac47-0bd5ed16b604"},"vehicle_type_id":"4","last_reported":1736010439,"current_range_meters":38800,"station_id":"","pricing_plan_id":"cebpf4jnsgd1na2vs0mg"},{"bike_id":"348163fb-c95b-4ab9-9db1-32e9ef31cab2","system_id":"levelo_inurba_marseille","lat":43.28481,"lon":5.38421,"is_reserved":false,"is_disabled":false,"rental_uris":{"android":"levelo://app?vid=348163fb-c95b-4ab9-9db1-32e9ef31cab2","ios":"levelo://app?vid=348163fb-c95b-4ab9-9db1-32e9ef31cab2"},"vehicle_type_id":"4","last_reported":1736010439,"current_range_meters":14400,"station_id":"ce4bh512rcd13ifvqe3g","pricing_plan_id":"cebpf4jnsgd1na2vs0mg"},{"bike_id":"270f72ca-6ff0-4006-b955-8701cfe72efd","system_id":"levelo_inurba_marseille","lat":43.29276,"lon":5.40113,"is_reserved":false,"is_disabled":true,"rental_uris":{"android":"levelo://app?vid=270f72ca-6ff0-4006-b955-8701cfe72efd","ios":"levelo://app?vid=270f72ca-6ff0-4006-b955-8701cfe72efd"},"vehicle_type_id":"4","last_reported":1736010439,"current_range_meters":6400,"station_id":"ce4bh312rcd13ifvqdk0","pricing_plan_id":"cebpf4jnsgd1na2vs0mg"},{"bike_id":"bba64d99-1930-49c3-96f9-3fa6cf50980b","system_id":"levelo_inurba_marseille","lat":43.28148,"lon":5.42636,"is_reserved":false,"is_disabled":false,"rental_uris":{"android":"levelo://app?vid=bba64d99-1930-49c3-96f9-3fa6cf50980b","ios":"levelo://app?vid=bba64d99-1930-49c3-96f9-3fa6cf50980b"},"vehicle_type_id":"4","last_reported":1736010439,"current_range_meters":20000,"station_id":"ce4bhnh2rcd13ifvqgug","pricing_plan_id":"cebpf4jnsgd1na2vs0mg"},{"bike_id":"8618ca32-47aa-4623-af76-cb3c8c228318","system_id":"levelo_inurba_marseille","lat":43.317569,"lon":5.390149,"is_reserved":false,"is_disabled":false,"rental_uris":{"android":"levelo://app?vid=8618ca32-47aa-4623-af76-cb3c8c228318","ios":"levelo://app?vid=8618ca32-47aa-4623-af76-cb3c8c228318"},"vehicle_type_id":"4","last_reported":1736010439,"current_range_meters":38800,"station_id":"ce4bhqp2rcd13ifvqhng","pricing_plan_id":"cebpf4jnsgd1na2vs0mg"},{"bike_id":"49581eaa-2636-4468-8f78-6e7f0ced75e4","system_id":"levelo_inurba_marseille","lat":43.29286,"lon":5.37436,"is_reserved":false,"is_disabled":false,"rental_uris":{"android":"levelo://app?vid=49581eaa-2636-4468-8f78-6e7f0ced75e4","ios":"levelo://app?vid=49581eaa-2636-4468-8f78-6e7f0ced75e4"},"vehicle_type_id":"4","last_reported":1736010439,"current_range_meters":30000,"station_id":"ce4bgi12rcd13ifvqb70","pricing_plan_id":"cebpf4jnsgd1na2vs0mg"},{"bike_id":"b5de95e0-8f34-41aa-a5fc-c4e76e03a994","system_id":"levelo_inurba_marseille","lat":43.28081,"lon":5.39662,"is_reserved":false,"is_disabled":true,"rental_uris":{"android":"levelo://app?vid=b5de95e0-8f34-41aa-a5fc-c4e76e03a994","ios":"levelo://app?vid=b5de95e0-8f34-41aa-a5fc-c4e76e03a994"},"vehicle_type_id":"4","last_reported":1736010439,"current_range_meters":35600,"station_id":"ce4bho12rcd13ifvqh2g","pricing_plan_id":"cebpf4jnsgd1na2vs0mg"},{"bike_id":"aa33a53e-f806-43a8-ad7e-8e2bd9644426","system_id":"levelo_inurba_marseille","lat":43.323484,"lon":5.406159,"is_reserved":false,"is_disabled":true,"rental_uris":{"android":"levelo://app?vid=aa33a53e-f806-43a8-ad7e-8e2bd9644426","ios":"levelo://app?vid=aa33a53e-f806-43a8-ad7e-8e2bd9644426"},"vehicle_type_id":"4","last_reported":1736010439,"current_range_meters":0,"station_id":"ce4bhq92rcd13ifvqhjg","pricing_plan_id":"cebpf4jnsgd1na2vs0mg"},{"bike_id":"b9dc4ae5-8ee5-4a0e-8a96-a2e835ae7769","system_id":"levelo_inurba_marseille","lat":43.24391,"lon":5.37051,"is_reserved":false,"is_disabled":false,"rental_uris":{"android":"levelo://app?vid=b9dc4ae5-8ee5-4a0e-8a96-a2e835ae7769","ios":"levelo://app?vid=b9dc4ae5-8ee5-4a0e-8a96-a2e835ae7769"},"vehicle_type_id":"4","last_reported":1736010439,"current_range_meters":16800,"station_id":"ce4bhhh2rcd13ifvqfk0","pricing_plan_id":"cebpf4jnsgd1na2vs0mg"},{"bike_id":"65e2e759-7ac7-4a72-aaca-6d524310907d","system_id":"levelo_inurba_marseille","lat":43.27974,"lon":5.3873,"is_reserved":false,"is_disabled":false,"rental_uris":{"android":"levelo://app?vid=65e2e759-7ac7-4a72-aaca-6d524310907d","ios":"levelo://app?vid=65e2e759-7ac7-4a72-aaca-6d524310907d"},"vehicle_type_id":"4","last_reported":1736010439,"current_range_meters":35600,"station_id":"ce4bhg12rcd13ifvqf80","pricing_plan_id":"cebpf4jnsgd1na2vs0mg"},{"bike_id":"4a04db2f-15e0-49e0-a85a-73f7dea7b177","system_id":"levelo_inurba_marseille","lat":43.29902,"lon":5.38138,"is_reserved":false,"is_disabled":false,"rental_uris":{"android":"levelo://app?vid=4a04db2f-15e0-49e0-a85a-73f7dea7b177","ios":"levelo://app?vid=4a04db2f-15e0-49e0-a85a-73f7dea7b177"},"vehicle_type_id":"4","last_reported":1736010439,"current_range_meters":37600,"station_id":"ce4bgj12rcd13ifvqbc0","pricing_plan_id":"cebpf4jnsgd1na2vs0mg"},{"bike_id":"f295f39f-aab7-4a75-a13f-e1d28095ad35","system_id":"levelo_inurba_marseille","lat":43.31061,"lon":5.38343,"is_reserved":false,"is_disabled":false,"rental_uris":{"android":"levelo://app?vid=f295f39f-aab7-4a75-a13f-e1d28095ad35","ios":"levelo://app?vid=f295f39f-aab7-4a75-a13f-e1d28095ad35"},"vehicle_type_id":"4","last_reported":1736010439,"current_range_meters":33200,"station_id":"ce4bgv92rcd13ifvqcr0","pricing_plan_id":"cebpf4jnsgd1na2vs0mg"},{"bike_id":"45744d07-eb73-453c-b6ee-d9a256b9901b","system_id":"levelo_inurba_marseille","lat":43.30956,"lon":5.39027,"is_reserved":false,"is_disabled":true,"rental_uris":{"android":"levelo://app?vid=45744d07-eb73-453c-b6ee-d9a256b9901b","ios":"levelo://app?vid=45744d07-eb73-453c-b6ee-d9a256b9901b"},"vehicle_type_id":"4","last_reported":1736010439,"current_range_meters":18000,"station_id":"ce4bgup2rcd13ifvqco0","pricing_plan_id":"cebpf4jnsgd1na2vs0mg"},{"bike_id":"336b1a63-3ea7-4e1c-8fe5-6b13ba610617","system_id":"levelo_inurba_marseille","lat":43.28612,"lon":5.37059,"is_reserved":false,"is_disabled":false,"rental_uris":{"android":"levelo://app?vid=336b1a63-3ea7-4e1c-8fe5-6b13ba610617","ios":"levelo://app?vid=336b1a63-3ea7-4e1c-8fe5-6b13ba610617"},"vehicle_type_id":"4","last_reported":1736010439,"current_range_meters":16400,"station_id":"ce4bht12rcd13ifvqi60","pricing_plan_id":"cebpf4jnsgd1na2vs0mg"},{"bike_id":"f1c0699b-9c25-45d7-b12c-1965c0ccae33","system_id":"levelo_inurba_marseille","lat":43.31072,"lon":5.38358,"is_reserved":false,"is_disabled":false,"rental_uris":{"android":"levelo://app?vid=f1c0699b-9c25-45d7-b12c-1965c0ccae33","ios":"levelo://app?vid=f1c0699b-9c25-45d7-b12c-1965c0ccae33"},"vehicle_type_id":"4","last_reported":1736010439,"current_range_meters":8400,"station_id":"ce4bgv92rcd13ifvqcr0","pricing_plan_id":"cebpf4jnsgd1na2vs0mg"},{"bike_id":"e14fc727-e110-4847-a3c5-e82ea6a6fcb8","system_id":"levelo_inurba_marseille","lat":43.28992,"lon":5.3961,"is_reserved":false,"is_disabled":true,"rental_uris":{"android":"levelo://app?vid=e14fc727-e110-4847-a3c5-e82ea6a6fcb8","ios":"levelo://app?vid=e14fc727-e110-4847-a3c5-e82ea6a6fcb8"},"vehicle_type_id":"4","last_reported":1736010439,"current_range_meters":38800,"station_id":"","pricing_plan_id":"cebpf4jnsgd1na2vs0mg"},{"bike_id":"2c7ec160-acf2-4097-9156-093b60d018e5","system_id":"levelo_inurba_marseille","lat":43.26198,"lon":5.37939,"is_reserved":false,"is_disabled":false,"rental_uris":{"android":"levelo://app?vid=2c7ec160-acf2-4097-9156-093b60d018e5","ios":"levelo://app?vid=2c7ec160-acf2-4097-9156-093b60d018e5"},"vehicle_type_id":"4","last_reported":1736010439,"current_range_meters":17200,"station_id":"ce4bhjp2rcd13ifvqg90","pricing_plan_id":"cebpf4jnsgd1na2vs0mg"},{"bike_id":"77a724e3-9d35-4f2e-ae10-9c4d5ba47869","system_id":"levelo_inurba_marseille","lat":43.31997,"lon":5.38169,"is_reserved":false,"is_disabled":false,"rental_uris":{"android":"levelo://app?vid=77a724e3-9d35-4f2e-ae10-9c4d5ba47869","ios":"levelo://app?vid=77a724e3-9d35-4f2e-ae10-9c4d5ba47869"},"vehicle_type_id":"4","last_reported":1736010439,"current_range_meters":30000,"station_id":"ce4bhr12rcd13ifvqhpg","pricing_plan_id":"cebpf4jnsgd1na2vs0mg"},{"bike_id":"91016cf4-48a8-467f-8234-0da1a4fe68d9","system_id":"levelo_inurba_marseille","lat":43.2981,"lon":5.38096,"is_reserved":false,"is_disabled":false,"rental_uris":{"android":"levelo://app?vid=91016cf4-48a8-467f-8234-0da1a4fe68d9","ios":"levelo://app?vid=91016cf4-48a8-467f-8234-0da1a4fe68d9"},"vehicle_type_id":"4","last_reported":1736010439,"current_range_meters":38800,"station_id":"ce4bgip2rcd13ifvqbb0","pricing_plan_id":"cebpf4jnsgd1na2vs0mg"},{"bike_id":"b6743d2f-2ba1-49a8-b794-760bb57edb10","system_id":"levelo_inurba_marseille","lat":43.26194,"lon":5.37446,"is_reserved":false,"is_disabled":true,"rental_uris":{"android":"levelo://app?vid=b6743d2f-2ba1-49a8-b794-760bb57edb10","ios":"levelo://app?vid=b6743d2f-2ba1-49a8-b794-760bb57edb10"},"vehicle_type_id":"4","last_reported":1736010439,"current_range_meters":0,"station_id":"ce4bhgp2rcd13ifvqfc0","pricing_plan_id":"cebpf4jnsgd1na2vs0mg"},{"bike_id":"223a4990-4e05-4395-8830-aea2c89ecd7a","system_id":"levelo_inurba_marseille","lat":43.2902,"lon":5.38634,"is_reserved":false,"is_disabled":true,"rental_uris":{"android":"levelo://app?vid=223a4990-4e05-4395-8830-aea2c89ecd7a","ios":"levelo://app?vid=223a4990-4e05-4395-8830-aea2c89ecd7a"},"vehicle_type_id":"4","last_reported":1736010439,"current_range_meters":32800,"station_id":"ce4bh4p2rcd13ifvqe0g","pricing_plan_id":"cebpf4jnsgd1na2vs0mg"},{"bike_id":"1a5fff32-ce7c-4bce-b86e-8507d81f5361","system_id":"levelo_inurba_marseille","lat":43.24801,"lon":5.37455,"is_reserved":false,"is_disabled":false,"rental_uris":{"android":"levelo://app?vid=1a5fff32-ce7c-4bce-b86e-8507d81f5361","ios":"levelo://app?vid=1a5fff32-ce7c-4bce-b86e-8507d81f5361"},"vehicle_type_id":"4","last_reported":1736010439,"current_range_meters":18000,"station_id":"ce4bhgh2rcd13ifvqfb0","pricing_plan_id":"cebpf4jnsgd1na2vs0mg"},{"bike_id":"867da080-de95-418f-b50b-c322ecd6ceb1","system_id":"levelo_inurba_marseille","lat":43.28615,"lon":5.35102,"is_reserved":false,"is_disabled":false,"rental_uris":{"android":"levelo://app?vid=867da080-de95-418f-b50b-c322ecd6ceb1","ios":"levelo://app?vid=867da080-de95-418f-b50b-c322ecd6ceb1"},"vehicle_type_id":"4","last_reported":1736010439,"current_range_meters":30000,"station_id":"ce4bhch2rcd13ifvqeug","pricing_plan_id":"cebpf4jnsgd1na2vs0mg"},{"bike_id":"72a67f4a-d0b8-4c07-9928-81aee66d9839","system_id":"levelo_inurba_marseille","lat":43.27948,"lon":5.38719,"is_reserved":false,"is_disabled":false,"rental_uris":{"android":"levelo://app?vid=72a67f4a-d0b8-4c07-9928-81aee66d9839","ios":"levelo://app?vid=72a67f4a-d0b8-4c07-9928-81aee66d9839"},"vehicle_type_id":"4","last_reported":1736010439,"current_range_meters":38400,"station_id":"ce4bhg12rcd13ifvqf80","pricing_plan_id":"cebpf4jnsgd1na2vs0mg"},{"bike_id":"bbf998ea-d252-4590-8711-16d78ff4b07c","system_id":"levelo_inurba_marseille","lat":43.24645,"lon":5.38898,"is_reserved":false,"is_disabled":false,"rental_uris":{"android":"levelo://app?vid=bbf998ea-d252-4590-8711-16d78ff4b07c","ios":"levelo://app?vid=bbf998ea-d252-4590-8711-16d78ff4b07c"},"vehicle_type_id":"4","last_reported":1736010439,"current_range_meters":37600,"station_id":"ce4bhg12rcd13ifvqf60","pricing_plan_id":"cebpf4jnsgd1na2vs0mg"},{"bike_id":"8a4eb83d-ccac-4c56-adc4-38b6be0f613d","system_id":"levelo_inurba_marseille","lat":43.24389,"lon":5.37059,"is_reserved":false,"is_disabled":false,"rental_uris":{"android":"levelo://app?vid=8a4eb83d-ccac-4c56-adc4-38b6be0f613d","ios":"levelo://app?vid=8a4eb83d-ccac-4c56-adc4-38b6be0f613d"},"vehicle_type_id":"4","last_reported":1736010439,"current_range_meters":31200,"station_id":"ce4bhhh2rcd13ifvqfk0","pricing_plan_id":"cebpf4jnsgd1na2vs0mg"},{"bike_id":"af68d2e6-d7e3-4eb8-9cf5-37ac1985b5a3","system_id":"levelo_inurba_marseille","lat":43.23074,"lon":5.35488,"is_reserved":false,"is_disabled":false,"rental_uris":{"android":"levelo://app?vid=af68d2e6-d7e3-4eb8-9cf5-37ac1985b5a3","ios":"levelo://app?vid=af68d2e6-d7e3-4eb8-9cf5-37ac1985b5a3"},"vehicle_type_id":"4","last_reported":1736010439,"current_range_meters":22000,"station_id":"cpo3342slgdg3j2ifvpg","pricing_plan_id":"cebpf4jnsgd1na2vs0mg"},{"bike_id":"c76f010e-8b23-4840-a7a5-a9a5d3648fa3","system_id":"levelo_inurba_marseille","lat":43.30876,"lon":5.37171,"is_reserved":false,"is_disabled":true,"rental_uris":{"android":"levelo://app?vid=c76f010e-8b23-4840-a7a5-a9a5d3648fa3","ios":"levelo://app?vid=c76f010e-8b23-4840-a7a5-a9a5d3648fa3"},"vehicle_type_id":"4","last_reported":1736010439,"current_range_meters":7200,"station_id":"ce4bguh2rcd13ifvqckg","pricing_plan_id":"cebpf4jnsgd1na2vs0mg"},{"bike_id":"6f21fba1-6f8e-47c4-a476-286cca5f9cc6","system_id":"levelo_inurba_marseille","lat":43.2827,"lon":5.35069,"is_reserved":false,"is_disabled":true,"rental_uris":{"android":"levelo://app?vid=6f21fba1-6f8e-47c4-a476-286cca5f9cc6","ios":"levelo://app?vid=6f21fba1-6f8e-47c4-a476-286cca5f9cc6"},"vehicle_type_id":"4","last_reported":1736010439,"current_range_meters":2000,"station_id":"ce4bhbp2rcd13ifvqerg","pricing_plan_id":"cebpf4jnsgd1na2vs0mg"},{"bike_id":"39912bd3-f772-4302-962c-68e8fd73e9be","system_id":"levelo_inurba_marseille","lat":43.30311,"lon":5.36913,"is_reserved":false,"is_disabled":false,"rental_uris":{"android":"levelo://app?vid=39912bd3-f772-4302-962c-68e8fd73e9be","ios":"levelo://app?vid=39912bd3-f772-4302-962c-68e8fd73e9be"},"vehicle_type_id":"4","last_reported":1736010439,"current_range_meters":39200,"station_id":"ce4bgqh2rcd13ifvqc5g","pricing_plan_id":"cebpf4jnsgd1na2vs0mg"},{"bike_id":"f3356163-56c6-487e-89f2-4d886d4cd36f","system_id":"levelo_inurba_marseille","lat":43.29527,"lon":5.375,"is_reserved":false,"is_disabled":false,"rental_uris":{"android":"levelo://app?vid=f3356163-56c6-487e-89f2-4d886d4cd36f","ios":"levelo://app?vid=f3356163-56c6-487e-89f2-4d886d4cd36f"},"vehicle_type_id":"4","last_reported":1736010439,"current_range_meters":32800,"station_id":"ce4bgkp2rcd13ifvqbmg","pricing_plan_id":"cebpf4jnsgd1na2vs0mg"},{"bike_id":"8a2871f5-9447-484d-9926-098aa750c257","system_id":"levelo_inurba_marseille","lat":43.28437,"lon":5.37516,"is_reserved":false,"is_disabled":false,"rental_uris":{"android":"levelo://app?vid=8a2871f5-9447-484d-9926-098aa750c257","ios":"levelo://app?vid=8a2871f5-9447-484d-9926-098aa750c257"},"vehicle_type_id":"4","last_reported":1736010439,"current_range_meters":19600,"station_id":"ce4bh412rcd13ifvqds0","pricing_plan_id":"cebpf4jnsgd1na2vs0mg"},{"bike_id":"1cc2c131-0d9b-40a7-b56a-fc80d429f186","system_id":"levelo_inurba_marseille","lat":43.29974,"lon":5.37174,"is_reserved":false,"is_disabled":false,"rental_uris":{"android":"levelo://app?vid=1cc2c131-0d9b-40a7-b56a-fc80d429f186","ios":"levelo://app?vid=1cc2c131-0d9b-40a7-b56a-fc80d429f186"},"vehicle_type_id":"4","last_reported":1736010439,"current_range_meters":39200,"station_id":"ce4bgr92rcd13ifvqc7g","pricing_plan_id":"cebpf4jnsgd1na2vs0mg"},{"bike_id":"bcafe075-cdbf-417b-b39d-ec452b432ff8","system_id":"levelo_inurba_marseille","lat":43.3022,"lon":5.39482,"is_reserved":false,"is_disabled":false,"rental_uris":{"android":"levelo://app?vid=bcafe075-cdbf-417b-b39d-ec452b432ff8","ios":"levelo://app?vid=bcafe075-cdbf-417b-b39d-ec452b432ff8"},"vehicle_type_id":"4","last_reported":1736010439,"current_range_meters":38000,"station_id":"ce4bh0p2rcd13ifvqd70","pricing_plan_id":"cebpf4jnsgd1na2vs0mg"},{"bike_id":"d30b1091-2e5d-4e8f-bcf0-ff60bbd34c3b","system_id":"levelo_inurba_marseille","lat":43.26506,"lon":5.39531,"is_reserved":false,"is_disabled":false,"rental_uris":{"android":"levelo://app?vid=d30b1091-2e5d-4e8f-bcf0-ff60bbd34c3b","ios":"levelo://app?vid=d30b1091-2e5d-4e8f-bcf0-ff60bbd34c3b"},"vehicle_type_id":"4","last_reported":1736010439,"current_range_meters":25600,"station_id":"ce4bhi12rcd13ifvqfq0","pricing_plan_id":"cebpf4jnsgd1na2vs0mg"},{"bike_id":"e6464149-b68b-48d7-9417-ac28b0f59970","system_id":"levelo_inurba_marseille","lat":43.30157,"lon":5.37408,"is_reserved":false,"is_disabled":false,"rental_uris":{"android":"levelo://app?vid=e6464149-b68b-48d7-9417-ac28b0f59970","ios":"levelo://app?vid=e6464149-b68b-48d7-9417-ac28b0f59970"},"vehicle_type_id":"4","last_reported":1736010439,"current_range_meters":17600,"station_id":"ce4bgs92rcd13ifvqcc0","pricing_plan_id":"cebpf4jnsgd1na2vs0mg"},{"bike_id":"622010f3-f2d4-4d1d-9c35-a93082d38040","system_id":"levelo_inurba_marseille","lat":43.29577,"lon":5.37508,"is_reserved":false,"is_disabled":false,"rental_uris":{"android":"levelo://app?vid=622010f3-f2d4-4d1d-9c35-a93082d38040","ios":"levelo://app?vid=622010f3-f2d4-4d1d-9c35-a93082d38040"},"vehicle_type_id":"4","last_reported":1736010439,"current_range_meters":38800,"station_id":"ce4bgh92rcd13ifvqb50","pricing_plan_id":"cebpf4jnsgd1na2vs0mg"},{"bike_id":"85cba0a3-d6ec-4723-83bf-95316674cece","system_id":"levelo_inurba_marseille","lat":43.275604,"lon":5.384259,"is_reserved":false,"is_disabled":true,"rental_uris":{"android":"levelo://app?vid=85cba0a3-d6ec-4723-83bf-95316674cece","ios":"levelo://app?vid=85cba0a3-d6ec-4723-83bf-95316674cece"},"vehicle_type_id":"4","last_reported":1736010439,"current_range_meters":6000,"station_id":"ce4bhh92rcd13ifvqfi0","pricing_plan_id":"cebpf4jnsgd1na2vs0mg"},{"bike_id":"d5355d3d-6620-4d8e-801e-d620f116c682","system_id":"levelo_inurba_marseille","lat":43.23059,"lon":5.35509,"is_reserved":false,"is_disabled":false,"rental_uris":{"android":"levelo://app?vid=d5355d3d-6620-4d8e-801e-d620f116c682","ios":"levelo://app?vid=d5355d3d-6620-4d8e-801e-d620f116c682"},"vehicle_type_id":"4","last_reported":1736010439,"current_range_meters":18800,"station_id":"cpo3342slgdg3j2ifvpg","pricing_plan_id":"cebpf4jnsgd1na2vs0mg"},{"bike_id":"ad35291b-d7c6-4ad4-b02c-5969e2327226","system_id":"levelo_inurba_marseille","lat":43.2306,"lon":5.35489,"is_reserved":false,"is_disabled":false,"rental_uris":{"android":"levelo://app?vid=ad35291b-d7c6-4ad4-b02c-5969e2327226","ios":"levelo://app?vid=ad35291b-d7c6-4ad4-b02c-5969e2327226"},"vehicle_type_id":"4","last_reported":1736010439,"current_range_meters":22400,"station_id":"cpo3342slgdg3j2ifvpg","pricing_plan_id":"cebpf4jnsgd1na2vs0mg"},{"bike_id":"266d97a0-8b6a-4815-8e1e-a29e516886ab","system_id":"levelo_inurba_marseille","lat":43.32359,"lon":5.36763,"is_reserved":false,"is_disabled":false,"rental_uris":{"android":"levelo://app?vid=266d97a0-8b6a-4815-8e1e-a29e516886ab","ios":"levelo://app?vid=266d97a0-8b6a-4815-8e1e-a29e516886ab"},"vehicle_type_id":"4","last_reported":1736010439,"current_range_meters":36400,"station_id":"ce4bhsh2rcd13ifvqi2g","pricing_plan_id":"cebpf4jnsgd1na2vs0mg"},{"bike_id":"a7224998-3cd1-44ad-8892-e18e0ad97675","system_id":"levelo_inurba_marseille","lat":43.24668,"lon":5.3816,"is_reserved":false,"is_disabled":false,"rental_uris":{"android":"levelo://app?vid=a7224998-3cd1-44ad-8892-e18e0ad97675","ios":"levelo://app?vid=a7224998-3cd1-44ad-8892-e18e0ad97675"},"vehicle_type_id":"4","last_reported":1736010439,"current_range_meters":39200,"station_id":"ce4bhih2rcd13ifvqfr0","pricing_plan_id":"cebpf4jnsgd1na2vs0mg"},{"bike_id":"7f2745f3-aae5-4feb-ad77-9594c77fa26f","system_id":"levelo_inurba_marseille","lat":43.25821,"lon":5.39433,"is_reserved":false,"is_disabled":false,"rental_uris":{"android":"levelo://app?vid=7f2745f3-aae5-4feb-ad77-9594c77fa26f","ios":"levelo://app?vid=7f2745f3-aae5-4feb-ad77-9594c77fa26f"},"vehicle_type_id":"4","last_reported":1736010439,"current_range_meters":24400,"station_id":"ce4bhip2rcd13ifvqft0","pricing_plan_id":"cebpf4jnsgd1na2vs0mg"},{"bike_id":"e6466d1a-0abc-41b0-a12e-6251490f4c51","system_id":"levelo_inurba_marseille","lat":43.29336,"lon":5.37516,"is_reserved":false,"is_disabled":false,"rental_uris":{"android":"levelo://app?vid=e6466d1a-0abc-41b0-a12e-6251490f4c51","ios":"levelo://app?vid=e6466d1a-0abc-41b0-a12e-6251490f4c51"},"vehicle_type_id":"4","last_reported":1736010439,"current_range_meters":19200,"station_id":"","pricing_plan_id":"cebpf4jnsgd1na2vs0mg"},{"bike_id":"379af85d-277e-4e2e-abdb-654a08bac7c6","system_id":"levelo_inurba_marseille","lat":43.26212,"lon":5.37437,"is_reserved":false,"is_disabled":false,"rental_uris":{"android":"levelo://app?vid=379af85d-277e-4e2e-abdb-654a08bac7c6","ios":"levelo://app?vid=379af85d-277e-4e2e-abdb-654a08bac7c6"},"vehicle_type_id":"4","last_reported":1736010439,"current_range_meters":13600,"station_id":"ce4bhgp2rcd13ifvqfc0","pricing_plan_id":"cebpf4jnsgd1na2vs0mg"},{"bike_id":"c5d20e4a-fe1b-4624-a558-6c904cbf43ea","system_id":"levelo_inurba_marseille","lat":43.29283,"lon":5.37428,"is_reserved":false,"is_disabled":false,"rental_uris":{"android":"levelo://app?vid=c5d20e4a-fe1b-4624-a558-6c904cbf43ea","ios":"levelo://app?vid=c5d20e4a-fe1b-4624-a558-6c904cbf43ea"},"vehicle_type_id":"4","last_reported":1736010439,"current_range_meters":27200,"station_id":"ce4bgi12rcd13ifvqb70","pricing_plan_id":"cebpf4jnsgd1na2vs0mg"},{"bike_id":"ebd980d5-1c46-4437-8d53-e77aaca60142","system_id":"levelo_inurba_marseille","lat":43.27867,"lon":5.40686,"is_reserved":false,"is_disabled":false,"rental_uris":{"android":"levelo://app?vid=ebd980d5-1c46-4437-8d53-e77aaca60142","ios":"levelo://app?vid=ebd980d5-1c46-4437-8d53-e77aaca60142"},"vehicle_type_id":"4","last_reported":1736010439,"current_range_meters":3200,"station_id":"","pricing_plan_id":"cebpf4jnsgd1na2vs0mg"},{"bike_id":"45117697-ef7d-4f9d-a878-6ba7cb6a434e","system_id":"levelo_inurba_marseille","lat":43.29517,"lon":5.39409,"is_reserved":false,"is_disabled":false,"rental_uris":{"android":"levelo://app?vid=45117697-ef7d-4f9d-a878-6ba7cb6a434e","ios":"levelo://app?vid=45117697-ef7d-4f9d-a878-6ba7cb6a434e"},"vehicle_type_id":"4","last_reported":1736010439,"current_range_meters":25600,"station_id":"ce4bh292rcd13ifvqdf0","pricing_plan_id":"cebpf4jnsgd1na2vs0mg"},{"bike_id":"f3de9f01-0329-4e8f-9301-885f78d99f9b","system_id":"levelo_inurba_marseille","lat":43.27995,"lon":5.40011,"is_reserved":false,"is_disabled":true,"rental_uris":{"android":"levelo://app?vid=f3de9f01-0329-4e8f-9301-885f78d99f9b","ios":"levelo://app?vid=f3de9f01-0329-4e8f-9301-885f78d99f9b"},"vehicle_type_id":"4","last_reported":1736010439,"current_range_meters":28400,"station_id":"ce4bho92rcd13ifvqh4g","pricing_plan_id":"cebpf4jnsgd1na2vs0mg"},{"bike_id":"c419512d-089a-4e3a-8724-1b15f68ece37","system_id":"levelo_inurba_marseille","lat":43.29789,"lon":5.37099,"is_reserved":false,"is_disabled":false,"rental_uris":{"android":"levelo://app?vid=c419512d-089a-4e3a-8724-1b15f68ece37","ios":"levelo://app?vid=c419512d-089a-4e3a-8724-1b15f68ece37"},"vehicle_type_id":"4","last_reported":1736010439,"current_range_meters":39200,"station_id":"ce4bgop2rcd13ifvqc1g","pricing_plan_id":"cebpf4jnsgd1na2vs0mg"},{"bike_id":"d014f699-d84d-436b-b3bf-8c059d18ea89","system_id":"levelo_inurba_marseille","lat":43.22928,"lon":5.35371,"is_reserved":false,"is_disabled":false,"rental_uris":{"android":"levelo://app?vid=d014f699-d84d-436b-b3bf-8c059d18ea89","ios":"levelo://app?vid=d014f699-d84d-436b-b3bf-8c059d18ea89"},"vehicle_type_id":"4","last_reported":1736010439,"current_range_meters":21600,"station_id":"cpo3532slgdg3j2ikp40","pricing_plan_id":"cebpf4jnsgd1na2vs0mg"},{"bike_id":"ed220ff8-6336-4701-9cea-83bb43e779f8","system_id":"levelo_inurba_marseille","lat":43.3011,"lon":5.37431,"is_reserved":false,"is_disabled":false,"rental_uris":{"android":"levelo://app?vid=ed220ff8-6336-4701-9cea-83bb43e779f8","ios":"levelo://app?vid=ed220ff8-6336-4701-9cea-83bb43e779f8"},"vehicle_type_id":"4","last_reported":1736010439,"current_range_meters":38800,"station_id":"ce4bgs92rcd13ifvqcc0","pricing_plan_id":"cebpf4jnsgd1na2vs0mg"},{"bike_id":"20a4021d-5b72-4948-a634-9d9301f7c24a","system_id":"levelo_inurba_marseille","lat":43.24996,"lon":5.38931,"is_reserved":false,"is_disabled":false,"rental_uris":{"android":"levelo://app?vid=20a4021d-5b72-4948-a634-9d9301f7c24a","ios":"levelo://app?vid=20a4021d-5b72-4948-a634-9d9301f7c24a"},"vehicle_type_id":"4","last_reported":1736010439,"current_range_meters":19200,"station_id":"ce4bhgp2rcd13ifvqfd0","pricing_plan_id":"cebpf4jnsgd1na2vs0mg"},{"bike_id":"19466711-5f5d-4ff4-b5a4-fe3cc59f2a19","system_id":"levelo_inurba_marseille","lat":43.30187,"lon":5.36618,"is_reserved":false,"is_disabled":false,"rental_uris":{"android":"levelo://app?vid=19466711-5f5d-4ff4-b5a4-fe3cc59f2a19","ios":"levelo://app?vid=19466711-5f5d-4ff4-b5a4-fe3cc59f2a19"},"vehicle_type_id":"4","last_reported":1736010439,"current_range_meters":35200,"station_id":"ce4bgrh2rcd13ifvqc8g","pricing_plan_id":"cebpf4jnsgd1na2vs0mg"},{"bike_id":"c420422e-e5ff-46aa-9ade-56c25e82f06d","system_id":"levelo_inurba_marseille","lat":43.23203,"lon":5.35556,"is_reserved":false,"is_disabled":false,"rental_uris":{"android":"levelo://app?vid=c420422e-e5ff-46aa-9ade-56c25e82f06d","ios":"levelo://app?vid=c420422e-e5ff-46aa-9ade-56c25e82f06d"},"vehicle_type_id":"4","last_reported":1736010439,"current_range_meters":38800,"station_id":"ce4bhu92rcd13ifvqi70","pricing_plan_id":"cebpf4jnsgd1na2vs0mg"},{"bike_id":"ef72cdb4-465d-4178-b952-49906f159c48","system_id":"levelo_inurba_marseille","lat":43.28141,"lon":5.42639,"is_reserved":false,"is_disabled":false,"rental_uris":{"android":"levelo://app?vid=ef72cdb4-465d-4178-b952-49906f159c48","ios":"levelo://app?vid=ef72cdb4-465d-4178-b952-49906f159c48"},"vehicle_type_id":"4","last_reported":1736010439,"current_range_meters":15200,"station_id":"ce4bhnh2rcd13ifvqgug","pricing_plan_id":"cebpf4jnsgd1na2vs0mg"},{"bike_id":"f70a713e-a517-421c-b6d4-5dc3b3efbdf3","system_id":"levelo_inurba_marseille","lat":43.29538,"lon":5.37502,"is_reserved":false,"is_disabled":false,"rental_uris":{"android":"levelo://app?vid=f70a713e-a517-421c-b6d4-5dc3b3efbdf3","ios":"levelo://app?vid=f70a713e-a517-421c-b6d4-5dc3b3efbdf3"},"vehicle_type_id":"4","last_reported":1736010439,"current_range_meters":38400,"station_id":"ce4bgkp2rcd13ifvqbmg","pricing_plan_id":"cebpf4jnsgd1na2vs0mg"},{"bike_id":"da803be5-3611-4787-bb16-398fe5f92faa","system_id":"levelo_inurba_marseille","lat":43.29001,"lon":5.35622,"is_reserved":false,"is_disabled":false,"rental_uris":{"android":"levelo://app?vid=da803be5-3611-4787-bb16-398fe5f92faa","ios":"levelo://app?vid=da803be5-3611-4787-bb16-398fe5f92faa"},"vehicle_type_id":"4","last_reported":1736010439,"current_range_meters":30000,"station_id":"ce4bhb92rcd13ifvqen0","pricing_plan_id":"cebpf4jnsgd1na2vs0mg"},{"bike_id":"a2fd8310-05b2-4353-a822-b449cc0178c4","system_id":"levelo_inurba_marseille","lat":43.25487,"lon":5.37653,"is_reserved":false,"is_disabled":false,"rental_uris":{"android":"levelo://app?vid=a2fd8310-05b2-4353-a822-b449cc0178c4","ios":"levelo://app?vid=a2fd8310-05b2-4353-a822-b449cc0178c4"},"vehicle_type_id":"4","last_reported":1736010439,"current_range_meters":6800,"station_id":"ce4bhh12rcd13ifvqff0","pricing_plan_id":"cebpf4jnsgd1na2vs0mg"},{"bike_id":"d3463c7e-4a5b-4f21-a819-8df57e2ee354","system_id":"levelo_inurba_marseille","lat":43.30132,"lon":5.37419,"is_reserved":false,"is_disabled":false,"rental_uris":{"android":"levelo://app?vid=d3463c7e-4a5b-4f21-a819-8df57e2ee354","ios":"levelo://app?vid=d3463c7e-4a5b-4f21-a819-8df57e2ee354"},"vehicle_type_id":"4","last_reported":1736010439,"current_range_meters":37600,"station_id":"ce4bgs92rcd13ifvqcc0","pricing_plan_id":"cebpf4jnsgd1na2vs0mg"},{"bike_id":"7bbed7be-28f4-4cc7-81bb-977c0d79552f","system_id":"levelo_inurba_marseille","lat":43.2306,"lon":5.35491,"is_reserved":false,"is_disabled":false,"rental_uris":{"android":"levelo://app?vid=7bbed7be-28f4-4cc7-81bb-977c0d79552f","ios":"levelo://app?vid=7bbed7be-28f4-4cc7-81bb-977c0d79552f"},"vehicle_type_id":"4","last_reported":1736010439,"current_range_meters":17200,"station_id":"cpo3342slgdg3j2ifvpg","pricing_plan_id":"cebpf4jnsgd1na2vs0mg"},{"bike_id":"e39cba66-ad35-4a7c-a35b-5df1ef100218","system_id":"levelo_inurba_marseille","lat":43.28002,"lon":5.40018,"is_reserved":false,"is_disabled":false,"rental_uris":{"android":"levelo://app?vid=e39cba66-ad35-4a7c-a35b-5df1ef100218","ios":"levelo://app?vid=e39cba66-ad35-4a7c-a35b-5df1ef100218"},"vehicle_type_id":"4","last_reported":1736010439,"current_range_meters":36000,"station_id":"ce4bho92rcd13ifvqh4g","pricing_plan_id":"cebpf4jnsgd1na2vs0mg"},{"bike_id":"78e5852e-eb6c-4077-a653-d1c1899f54bd","system_id":"levelo_inurba_marseille","lat":43.27967,"lon":5.3873,"is_reserved":false,"is_disabled":false,"rental_uris":{"android":"levelo://app?vid=78e5852e-eb6c-4077-a653-d1c1899f54bd","ios":"levelo://app?vid=78e5852e-eb6c-4077-a653-d1c1899f54bd"},"vehicle_type_id":"4","last_reported":1736010439,"current_range_meters":38800,"station_id":"ce4bhg12rcd13ifvqf80","pricing_plan_id":"cebpf4jnsgd1na2vs0mg"},{"bike_id":"e9c200db-965f-4b2c-bd5a-0dc123dcc0e0","system_id":"levelo_inurba_marseille","lat":43.24661,"lon":5.38172,"is_reserved":false,"is_disabled":false,"rental_uris":{"android":"levelo://app?vid=e9c200db-965f-4b2c-bd5a-0dc123dcc0e0","ios":"levelo://app?vid=e9c200db-965f-4b2c-bd5a-0dc123dcc0e0"},"vehicle_type_id":"4","last_reported":1736010439,"current_range_meters":22400,"station_id":"ce4bhih2rcd13ifvqfr0","pricing_plan_id":"cebpf4jnsgd1na2vs0mg"},{"bike_id":"229983ac-b344-42fd-b92e-726e602b23a3","system_id":"levelo_inurba_marseille","lat":43.24995,"lon":5.38934,"is_reserved":false,"is_disabled":false,"rental_uris":{"android":"levelo://app?vid=229983ac-b344-42fd-b92e-726e602b23a3","ios":"levelo://app?vid=229983ac-b344-42fd-b92e-726e602b23a3"},"vehicle_type_id":"4","last_reported":1736010439,"current_range_meters":9600,"station_id":"ce4bhgp2rcd13ifvqfd0","pricing_plan_id":"cebpf4jnsgd1na2vs0mg"},{"bike_id":"b910d036-4f36-43f2-97ee-b97d117e01b7","system_id":"levelo_inurba_marseille","lat":43.29933,"lon":5.36547,"is_reserved":false,"is_disabled":false,"rental_uris":{"android":"levelo://app?vid=b910d036-4f36-43f2-97ee-b97d117e01b7","ios":"levelo://app?vid=b910d036-4f36-43f2-97ee-b97d117e01b7"},"vehicle_type_id":"4","last_reported":1736010439,"current_range_meters":28400,"station_id":"ce4bgm92rcd13ifvqbr0","pricing_plan_id":"cebpf4jnsgd1na2vs0mg"},{"bike_id":"f1d87bf5-3985-43c2-9fde-b818f1e41c2b","system_id":"levelo_inurba_marseille","lat":43.26032,"lon":5.37556,"is_reserved":false,"is_disabled":false,"rental_uris":{"android":"levelo://app?vid=f1d87bf5-3985-43c2-9fde-b818f1e41c2b","ios":"levelo://app?vid=f1d87bf5-3985-43c2-9fde-b818f1e41c2b"},"vehicle_type_id":"4","last_reported":1736010439,"current_range_meters":38800,"station_id":"ce4bhgh2rcd13ifvqfa0","pricing_plan_id":"cebpf4jnsgd1na2vs0mg"},{"bike_id":"3edf5264-7a64-4f48-a6a1-8b86d058a235","system_id":"levelo_inurba_marseille","lat":43.28479,"lon":5.38553,"is_reserved":false,"is_disabled":false,"rental_uris":{"android":"levelo://app?vid=3edf5264-7a64-4f48-a6a1-8b86d058a235","ios":"levelo://app?vid=3edf5264-7a64-4f48-a6a1-8b86d058a235"},"vehicle_type_id":"4","last_reported":1736010439,"current_range_meters":30800,"station_id":"ce4bh8p2rcd13ifvqeb0","pricing_plan_id":"cebpf4jnsgd1na2vs0mg"},{"bike_id":"42acd9e1-1d27-497e-8cf1-9282af48a108","system_id":"levelo_inurba_marseille","lat":43.25968,"lon":5.40882,"is_reserved":false,"is_disabled":false,"rental_uris":{"android":"levelo://app?vid=42acd9e1-1d27-497e-8cf1-9282af48a108","ios":"levelo://app?vid=42acd9e1-1d27-497e-8cf1-9282af48a108"},"vehicle_type_id":"4","last_reported":1736010439,"current_range_meters":6000,"station_id":"ce4bhm92rcd13ifvqglg","pricing_plan_id":"cebpf4jnsgd1na2vs0mg"},{"bike_id":"4a9c2567-1080-45bb-b02d-360fa06da28a","system_id":"levelo_inurba_marseille","lat":43.28947,"lon":5.36606,"is_reserved":false,"is_disabled":true,"rental_uris":{"android":"levelo://app?vid=4a9c2567-1080-45bb-b02d-360fa06da28a","ios":"levelo://app?vid=4a9c2567-1080-45bb-b02d-360fa06da28a"},"vehicle_type_id":"4","last_reported":1736010439,"current_range_meters":800,"station_id":"ce4bhap2rcd13ifvqek0","pricing_plan_id":"cebpf4jnsgd1na2vs0mg"},{"bike_id":"e272d909-0800-459a-80eb-f0091198278b","system_id":"levelo_inurba_marseille","lat":43.29031,"lon":5.38636,"is_reserved":false,"is_disabled":false,"rental_uris":{"android":"levelo://app?vid=e272d909-0800-459a-80eb-f0091198278b","ios":"levelo://app?vid=e272d909-0800-459a-80eb-f0091198278b"},"vehicle_type_id":"4","last_reported":1736010439,"current_range_meters":24000,"station_id":"ce4bh4p2rcd13ifvqe0g","pricing_plan_id":"cebpf4jnsgd1na2vs0mg"},{"bike_id":"3ad4b63d-3050-40c2-8de7-90d7069746cd","system_id":"levelo_inurba_marseille","lat":43.28629,"lon":5.3509,"is_reserved":false,"is_disabled":false,"rental_uris":{"android":"levelo://app?vid=3ad4b63d-3050-40c2-8de7-90d7069746cd","ios":"levelo://app?vid=3ad4b63d-3050-40c2-8de7-90d7069746cd"},"vehicle_type_id":"4","last_reported":1736010439,"current_range_meters":32800,"station_id":"ce4bhch2rcd13ifvqeug","pricing_plan_id":"cebpf4jnsgd1na2vs0mg"},{"bike_id":"0da846be-cff0-45fd-927a-35db178c95b2","system_id":"levelo_inurba_marseille","lat":43.32072,"lon":5.41539,"is_reserved":false,"is_disabled":false,"rental_uris":{"android":"levelo://app?vid=0da846be-cff0-45fd-927a-35db178c95b2","ios":"levelo://app?vid=0da846be-cff0-45fd-927a-35db178c95b2"},"vehicle_type_id":"4","last_reported":1736010439,"current_range_meters":35200,"station_id":"ce4bhq92rcd13ifvqhkg","pricing_plan_id":"cebpf4jnsgd1na2vs0mg"},{"bike_id":"9b28f469-b706-4139-b170-048fdcc5c7bc","system_id":"levelo_inurba_marseille","lat":43.29491,"lon":5.3776,"is_reserved":false,"is_disabled":false,"rental_uris":{"android":"levelo://app?vid=9b28f469-b706-4139-b170-048fdcc5c7bc","ios":"levelo://app?vid=9b28f469-b706-4139-b170-048fdcc5c7bc"},"vehicle_type_id":"4","last_reported":1736010439,"current_range_meters":10800,"station_id":"","pricing_plan_id":"cebpf4jnsgd1na2vs0mg"},{"bike_id":"e42263b6-42a9-4805-8472-1e43a7facac9","system_id":"levelo_inurba_marseille","lat":43.29277,"lon":5.37432,"is_reserved":false,"is_disabled":false,"rental_uris":{"android":"levelo://app?vid=e42263b6-42a9-4805-8472-1e43a7facac9","ios":"levelo://app?vid=e42263b6-42a9-4805-8472-1e43a7facac9"},"vehicle_type_id":"4","last_reported":1736010439,"current_range_meters":24400,"station_id":"ce4bgi12rcd13ifvqb70","pricing_plan_id":"cebpf4jnsgd1na2vs0mg"},{"bike_id":"49c493eb-c9d6-49ea-b92b-a41a96143f3b","system_id":"levelo_inurba_marseille","lat":43.30182,"lon":5.39383,"is_reserved":false,"is_disabled":false,"rental_uris":{"android":"levelo://app?vid=49c493eb-c9d6-49ea-b92b-a41a96143f3b","ios":"levelo://app?vid=49c493eb-c9d6-49ea-b92b-a41a96143f3b"},"vehicle_type_id":"4","last_reported":1736010439,"current_range_meters":36400,"station_id":"ce4bgh92rcd13ifvqb50","pricing_plan_id":"cebpf4jnsgd1na2vs0mg"},{"bike_id":"a3568aab-1d34-4bdf-8c0c-ec81886f6177","system_id":"levelo_inurba_marseille","lat":43.33752,"lon":5.37413,"is_reserved":false,"is_disabled":true,"rental_uris":{"android":"levelo://app?vid=a3568aab-1d34-4bdf-8c0c-ec81886f6177","ios":"levelo://app?vid=a3568aab-1d34-4bdf-8c0c-ec81886f6177"},"vehicle_type_id":"4","last_reported":1736010439,"current_range_meters":14000,"station_id":"","pricing_plan_id":"cebpf4jnsgd1na2vs0mg"},{"bike_id":"43fbd222-40bf-4dc7-92cc-e58450d3158f","system_id":"levelo_inurba_marseille","lat":43.28868,"lon":5.37227,"is_reserved":false,"is_disabled":false,"rental_uris":{"android":"levelo://app?vid=43fbd222-40bf-4dc7-92cc-e58450d3158f","ios":"levelo://app?vid=43fbd222-40bf-4dc7-92cc-e58450d3158f"},"vehicle_type_id":"4","last_reported":1736010439,"current_range_meters":19600,"station_id":"","pricing_plan_id":"cebpf4jnsgd1na2vs0mg"},{"bike_id":"ca578319-6d04-48db-a829-6894b8c6a311","system_id":"levelo_inurba_marseille","lat":43.24086,"lon":5.37714,"is_reserved":false,"is_disabled":false,"rental_uris":{"android":"levelo://app?vid=ca578319-6d04-48db-a829-6894b8c6a311","ios":"levelo://app?vid=ca578319-6d04-48db-a829-6894b8c6a311"},"vehicle_type_id":"4","last_reported":1736010439,"current_range_meters":18000,"station_id":"ce4bhnp2rcd13ifvqgvg","pricing_plan_id":"cebpf4jnsgd1na2vs0mg"},{"bike_id":"32e5156a-5826-4ab4-83b1-e6619161b1c8","system_id":"levelo_inurba_marseille","lat":43.337444,"lon":5.374475,"is_reserved":false,"is_disabled":true,"rental_uris":{"android":"levelo://app?vid=32e5156a-5826-4ab4-83b1-e6619161b1c8","ios":"levelo://app?vid=32e5156a-5826-4ab4-83b1-e6619161b1c8"},"vehicle_type_id":"4","last_reported":1736010439,"current_range_meters":24000,"station_id":"","pricing_plan_id":"cebpf4jnsgd1na2vs0mg"},{"bike_id":"50b60940-a55d-4cae-bfac-e7f36b786c97","system_id":"levelo_inurba_marseille","lat":43.30133,"lon":5.39866,"is_reserved":false,"is_disabled":false,"rental_uris":{"android":"levelo://app?vid=50b60940-a55d-4cae-bfac-e7f36b786c97","ios":"levelo://app?vid=50b60940-a55d-4cae-bfac-e7f36b786c97"},"vehicle_type_id":"4","last_reported":1736010439,"current_range_meters":24000,"station_id":"ce4bh0h2rcd13ifvqd40","pricing_plan_id":"cebpf4jnsgd1na2vs0mg"},{"bike_id":"3ac1ea92-2c4e-40f3-b354-f23792fe4126","system_id":"levelo_inurba_marseille","lat":43.25821,"lon":5.3944,"is_reserved":false,"is_disabled":false,"rental_uris":{"android":"levelo://app?vid=3ac1ea92-2c4e-40f3-b354-f23792fe4126","ios":"levelo://app?vid=3ac1ea92-2c4e-40f3-b354-f23792fe4126"},"vehicle_type_id":"4","last_reported":1736010439,"current_range_meters":38800,"station_id":"ce4bhip2rcd13ifvqft0","pricing_plan_id":"cebpf4jnsgd1na2vs0mg"},{"bike_id":"4c1c8084-57e3-460b-8d0f-b1db32e7e33e","system_id":"levelo_inurba_marseille","lat":43.26493,"lon":5.39537,"is_reserved":false,"is_disabled":false,"rental_uris":{"android":"levelo://app?vid=4c1c8084-57e3-460b-8d0f-b1db32e7e33e","ios":"levelo://app?vid=4c1c8084-57e3-460b-8d0f-b1db32e7e33e"},"vehicle_type_id":"4","last_reported":1736010439,"current_range_meters":22800,"station_id":"ce4bhi12rcd13ifvqfq0","pricing_plan_id":"cebpf4jnsgd1na2vs0mg"},{"bike_id":"f0be5562-2fd4-4b72-8dd8-0a6f6015d351","system_id":"levelo_inurba_marseille","lat":43.26783,"lon":5.39415,"is_reserved":false,"is_disabled":false,"rental_uris":{"android":"levelo://app?vid=f0be5562-2fd4-4b72-8dd8-0a6f6015d351","ios":"levelo://app?vid=f0be5562-2fd4-4b72-8dd8-0a6f6015d351"},"vehicle_type_id":"4","last_reported":1736010439,"current_range_meters":22000,"station_id":"ce4bhh12rcd13ifvqfg0","pricing_plan_id":"cebpf4jnsgd1na2vs0mg"},{"bike_id":"b076777c-c7d4-4d57-a362-f7c06db05aa2","system_id":"levelo_inurba_marseille","lat":43.23156,"lon":5.43704,"is_reserved":false,"is_disabled":false,"rental_uris":{"android":"levelo://app?vid=b076777c-c7d4-4d57-a362-f7c06db05aa2","ios":"levelo://app?vid=b076777c-c7d4-4d57-a362-f7c06db05aa2"},"vehicle_type_id":"4","last_reported":1736010439,"current_range_meters":38800,"station_id":"ce4bhmp2rcd13ifvqgog","pricing_plan_id":"cebpf4jnsgd1na2vs0mg"},{"bike_id":"56608a39-b75f-49d1-8cc5-d5148f591fb7","system_id":"levelo_inurba_marseille","lat":43.27416,"lon":5.39386,"is_reserved":false,"is_disabled":false,"rental_uris":{"android":"levelo://app?vid=56608a39-b75f-49d1-8cc5-d5148f591fb7","ios":"levelo://app?vid=56608a39-b75f-49d1-8cc5-d5148f591fb7"},"vehicle_type_id":"4","last_reported":1736010439,"current_range_meters":30400,"station_id":"ce4bhdp2rcd13ifvqf20","pricing_plan_id":"cebpf4jnsgd1na2vs0mg"},{"bike_id":"9be012a2-bef2-4371-8d99-2fafeb1d6f33","system_id":"levelo_inurba_marseille","lat":43.2894,"lon":5.36645,"is_reserved":false,"is_disabled":false,"rental_uris":{"android":"levelo://app?vid=9be012a2-bef2-4371-8d99-2fafeb1d6f33","ios":"levelo://app?vid=9be012a2-bef2-4371-8d99-2fafeb1d6f33"},"vehicle_type_id":"4","last_reported":1736010439,"current_range_meters":30400,"station_id":"ce4bhap2rcd13ifvqek0","pricing_plan_id":"cebpf4jnsgd1na2vs0mg"},{"bike_id":"72543ff8-b96d-4820-9e71-33c33af8f94e","system_id":"levelo_inurba_marseille","lat":43.31399,"lon":5.39126,"is_reserved":false,"is_disabled":false,"rental_uris":{"android":"levelo://app?vid=72543ff8-b96d-4820-9e71-33c33af8f94e","ios":"levelo://app?vid=72543ff8-b96d-4820-9e71-33c33af8f94e"},"vehicle_type_id":"4","last_reported":1736010439,"current_range_meters":32800,"station_id":"","pricing_plan_id":"cebpf4jnsgd1na2vs0mg"},{"bike_id":"581ff443-4a37-489a-b2cc-cfa7c08e8f34","system_id":"levelo_inurba_marseille","lat":43.23192,"lon":5.35556,"is_reserved":false,"is_disabled":false,"rental_uris":{"android":"levelo://app?vid=581ff443-4a37-489a-b2cc-cfa7c08e8f34","ios":"levelo://app?vid=581ff443-4a37-489a-b2cc-cfa7c08e8f34"},"vehicle_type_id":"4","last_reported":1736010439,"current_range_meters":39200,"station_id":"ce4bhu92rcd13ifvqi70","pricing_plan_id":"cebpf4jnsgd1na2vs0mg"},{"bike_id":"36daf9d8-41e8-4572-94d5-da1f984ac07b","system_id":"levelo_inurba_marseille","lat":43.25087,"lon":5.39525,"is_reserved":false,"is_disabled":false,"rental_uris":{"android":"levelo://app?vid=36daf9d8-41e8-4572-94d5-da1f984ac07b","ios":"levelo://app?vid=36daf9d8-41e8-4572-94d5-da1f984ac07b"},"vehicle_type_id":"4","last_reported":1736010439,"current_range_meters":39200,"station_id":"ce4bhm12rcd13ifvqgkg","pricing_plan_id":"cebpf4jnsgd1na2vs0mg"},