{"last_updated":1730329744,"ttl":60,"version":"2.2","data":{"bikes":[{"bike_id":"cff4c6c9-6f1d-42eb-aa93-5e57000071a7","system_id":"levelo_inurba_marseille","lat":43.3078,"lon":5.37649,"is_reserved":false,"is_disabled":false,"rental_uris":{"android":"levelo://app?vid=cff4c6c9-6f1d-42eb-aa93-5e57000071a7","ios":"levelo://app?vid=cff4c6c9-6f1d-42eb-aa93-5e57000071a7"},"vehicle_type_id":"4","last_reported":1730329744,"current_range_meters":39200,"station_id":"ce4bgv92rcd13ifvqcq0","pricing_plan_id":"cebpf4jnsgd1na2vs0mg"},{"bike_id":"c8b8337e-cc59-4f9e-9d27-28afc48d018a","system_id":"levelo_inurba_marseille","lat":43.30601,"lon":5.3936,"is_reserved":false,"is_disabled":false,"rental_uris":{"android":"levelo://app?vid=c8b8337e-cc59-4f9e-9d27-28afc48d018a","ios":"levelo://app?vid=c8b8337e-cc59-4f9e-9d27-28afc48d018a"},"vehicle_type_id":"4","last_reported":1730329744,"current_range_meters":19600,"station_id":"ce4bh0p2rcd13ifvqd80","pricing_plan_id":"cebpf4jnsgd1na2vs0mg"},{"bike_id":"3da51d05-81b9-4ba2-ad89-ac0f7239fef8","system_id":"levelo_inurba_marseille","lat":43.29028,"lon":5.38647,"is_reserved":false,"is_disabled":false,"rental_uris":{"android":"levelo://app?vid=3da51d05-81b9-4ba2-ad89-ac0f7239fef8","ios":"levelo://app?vid=3da51d05-81b9-4ba2-ad89-ac0f7239fef8"},"vehicle_type_id":"4","last_reported":1730329744,"current_range_meters":38800,"station_id":"ce4bh4p2rcd13ifvqe0g","pricing_plan_id":"cebpf4jnsgd1na2vs0mg"},{"bike_id":"415a9bae-8493-4e58-98ac-8aa882bd399c","system_id":"levelo_inurba_marseille","lat":43.25581,"lon":5.38237,"is_reserved":false,"is_disabled":false,"rental_uris":{"android":"levelo://app?vid=415a9bae-8493-4e58-98ac-8aa882bd399c","ios":"levelo://app?vid=415a9bae-8493-4e58-98ac-8aa882bd399c"},"vehicle_type_id":"4","last_reported":1730329744,"current_range_meters":38800,"station_id":"ce4bhih2rcd13ifvqfs0","pricing_plan_id":"cebpf4jnsgd1na2vs0mg"},{"bike_id":"6321ad43-6c5f-4d2a-957d-c625af59dc64","system_id":"levelo_inurba_marseille","lat":43.3064,"lon":5.4007,"is_reserved":false,"is_disabled":false,"rental_uris":{"android":"levelo://app?vid=6321ad43-6c5f-4d2a-957d-c625af59dc64","ios":"levelo://app?vid=6321ad43-6c5f-4d2a-957d-c625af59dc64"},"vehicle_type_id":"4","last_reported":1730329744,"current_range_meters":30400,"station_id":"ce4bh112rcd13ifvqda0","pricing_plan_id":"cebpf4jnsgd1na2vs0mg"},{"bike_id":"69239782-b957-46b4-9e61-23550152aef1","system_id":"levelo_inurba_marseille","lat":43.2798,"lon":5.38751,"is_reserved":false,"is_disabled":false,"rental_uris":{"android":"levelo://app?vid=69239782-b957-46b4-9e61-23550152aef1","ios":"levelo://app?vid=69239782-b957-46b4-9e61-23550152aef1"},"vehicle_type_id":"4","last_reported":1730329744,"current_range_meters":8400,"station_id":"ce4bhg12rcd13ifvqf80","pricing_plan_id":"cebpf4jnsgd1na2vs0mg"},{"bike_id":"f64c1e7d-3ae9-4dfc-8ec2-0a90d036364f","system_id":"levelo_inurba_marseille","lat":43.32109,"lon":5.36774,"is_reserved":false,"is_disabled":false,"rental_uris":{"android":"levelo://app?vid=f64c1e7d-3ae9-4dfc-8ec2-0a90d036364f","ios":"levelo://app?vid=f64c1e7d-3ae9-4dfc-8ec2-0a90d036364f"},"vehicle_type_id":"4","last_reported":1730329744,"current_range_meters":23200,"station_id":"ce4bhrh2rcd13ifvqhug","pricing_plan_id":"cebpf4jnsgd1na2vs0mg"},{"bike_id":"5372a642-d5b3-44d2-bd95-093c5716325a","system_id":"levelo_inurba_marseille","lat":43.29569,"lon":5.39956,"is_reserved":false,"is_disabled":false,"rental_uris":{"android":"levelo://app?vid=5372a642-d5b3-44d2-bd95-093c5716325a","ios":"levelo://app?vid=5372a642-d5b3-44d2-bd95-093c5716325a"},"vehicle_type_id":"4","last_reported":1730329744,"current_range_meters":38800,"station_id":"ce4bh312rcd13ifvqdj0","pricing_plan_id":"cebpf4jnsgd1na2vs0mg"},{"bike_id":"1db2611d-8f57-4e59-8492-987ac472e3f4","system_id":"levelo_inurba_marseille","lat":43.24176,"lon":5.39716,"is_reserved":false,"is_disabled":false,"rental_uris":{"android":"levelo://app?vid=1db2611d-8f57-4e59-8492-987ac472e3f4","ios":"levelo://app?vid=1db2611d-8f57-4e59-8492-987ac472e3f4"},"vehicle_type_id":"4","last_reported":1730329744,"current_range_meters":31200,"station_id":"ce4bhn12rcd13ifvqgqg","pricing_plan_id":"cebpf4jnsgd1na2vs0mg"},{"bike_id":"76df5736-1cda-47e0-8ba6-93fe53968956","system_id":"levelo_inurba_marseille","lat":43.29028,"lon":5.38137,"is_reserved":false,"is_disabled":false,"rental_uris":{"android":"levelo://app?vid=76df5736-1cda-47e0-8ba6-93fe53968956","ios":"levelo://app?vid=76df5736-1cda-47e0-8ba6-93fe53968956"},"vehicle_type_id":"4","last_reported":1730329744,"current_range_meters":38800,"station_id":"ce4bh4p2rcd13ifvqe1g","pricing_plan_id":"cebpf4jnsgd1na2vs0mg"},{"bike_id":"37b55752-b22c-42c3-a42b-a42e27cbd0ca","system_id":"levelo_inurba_marseille","lat":43.30243,"lon":5.40045,"is_reserved":false,"is_disabled":false,"rental_uris":{"android":"levelo://app?vid=37b55752-b22c-42c3-a42b-a42e27cbd0ca","ios":"levelo://app?vid=37b55752-b22c-42c3-a42b-a42e27cbd0ca"},"vehicle_type_id":"4","last_reported":1730329744,"current_range_meters":27600,"station_id":"ce4bgvh2rcd13ifvqcs0","pricing_plan_id":"cebpf4jnsgd1na2vs0mg"},{"bike_id":"01e3c5ad-776d-47de-a481-7424c6a551a1","system_id":"levelo_inurba_marseille","lat":43.30329,"lon":5.40438,"is_reserved":false,"is_disabled":false,"rental_uris":{"android":"levelo://app?vid=01e3c5ad-776d-47de-a481-7424c6a551a1","ios":"levelo://app?vid=01e3c5ad-776d-47de-a481-7424c6a551a1"},"vehicle_type_id":"4","last_reported":1730329744,"current_range_meters":38800,"station_id":"ce4bh012rcd13ifvqd10","pricing_plan_id":"cebpf4jnsgd1na2vs0mg"},{"bike_id":"ddf9b3ae-2d28-4b9a-aa4e-ff6ba36b5432","system_id":"levelo_inurba_marseille","lat":43.30651,"lon":5.40098,"is_reserved":false,"is_disabled":false,"rental_uris":{"android":"levelo://app?vid=ddf9b3ae-2d28-4b9a-aa4e-ff6ba36b5432","ios":"levelo://app?vid=ddf9b3ae-2d28-4b9a-aa4e-ff6ba36b5432"},"vehicle_type_id":"4","last_reported":1730329744,"current_range_meters":38800,"station_id":"ce4bh112rcd13ifvqda0","pricing_plan_id":"cebpf4jnsgd1na2vs0mg"},{"bike_id":"1496c3ce-cca7-45b3-8716-c0119d2540e8","system_id":"levelo_inurba_marseille","lat":43.30808,"lon":5.38157,"is_reserved":false,"is_disabled":false,"rental_uris":{"android":"levelo://app?vid=1496c3ce-cca7-45b3-8716-c0119d2540e8","ios":"levelo://app?vid=1496c3ce-cca7-45b3-8716-c0119d2540e8"},"vehicle_type_id":"4","last_reported":1730329744,"current_range_meters":38800,"station_id":"ce4bgt12rcd13ifvqce0","pricing_plan_id":"cebpf4jnsgd1na2vs0mg"},{"bike_id":"aab306d7-157f-4168-8b9d-63846703cc70","system_id":"levelo_inurba_marseille","lat":43.31994,"lon":5.38143,"is_reserved":false,"is_disabled":false,"rental_uris":{"android":"levelo://app?vid=aab306d7-157f-4168-8b9d-63846703cc70","ios":"levelo://app?vid=aab306d7-157f-4168-8b9d-63846703cc70"},"vehicle_type_id":"4","last_reported":1730329744,"current_range_meters":8400,"station_id":"ce4bhr12rcd13ifvqhpg","pricing_plan_id":"cebpf4jnsgd1na2vs0mg"},{"bike_id":"7a5b30e6-bcdd-46db-9d3e-ec2105890f98","system_id":"levelo_inurba_marseille","lat":43.31168,"lon":5.38713,"is_reserved":false,"is_disabled":false,"rental_uris":{"android":"levelo://app?vid=7a5b30e6-bcdd-46db-9d3e-ec2105890f98","ios":"levelo://app?vid=7a5b30e6-bcdd-46db-9d3e-ec2105890f98"},"vehicle_type_id":"4","last_reported":1730329744,"current_range_meters":38400,"station_id":"ce4bgv12rcd13ifvqcp0","pricing_plan_id":"cebpf4jnsgd1na2vs0mg"},{"bike_id":"bbf8f708-5e9b-41bf-bc19-afef39d244c3","system_id":"levelo_inurba_marseille","lat":43.27499,"lon":5.42448,"is_reserved":false,"is_disabled":false,"rental_uris":{"android":"levelo://app?vid=bbf8f708-5e9b-41bf-bc19-afef39d244c3","ios":"levelo://app?vid=bbf8f708-5e9b-41bf-bc19-afef39d244c3"},"vehicle_type_id":"4","last_reported":1730329744,"current_range_meters":32400,"station_id":"ce4bhn92rcd13ifvqgrg","pricing_plan_id":"cebpf4jnsgd1na2vs0mg"},{"bike_id":"89810788-72ba-46d2-b51d-73cde185c62b","system_id":"levelo_inurba_marseille","lat":43.30442,"lon":5.38889,"is_reserved":false,"is_disabled":false,"rental_uris":{"android":"levelo://app?vid=89810788-72ba-46d2-b51d-73cde185c62b","ios":"levelo://app?vid=89810788-72ba-46d2-b51d-73cde185c62b"},"vehicle_type_id":"4","last_reported":1730329744,"current_range_meters":15200,"station_id":"ce4bgk12rcd13ifvqbi0","pricing_plan_id":"cebpf4jnsgd1na2vs0mg"},{"bike_id":"91f75106-8073-486e-8037-1d5f2fa10c75","system_id":"levelo_inurba_marseille","lat":43.31994,"lon":5.38144,"is_reserved":false,"is_disabled":false,"rental_uris":{"android":"levelo://app?vid=91f75106-8073-486e-8037-1d5f2fa10c75","ios":"levelo://app?vid=91f75106-8073-486e-8037-1d5f2fa10c75"},"vehicle_type_id":"4","last_reported":1730329744,"current_range_meters":25200,"station_id":"ce4bhr12rcd13ifvqhpg","pricing_plan_id":"cebpf4jnsgd1na2vs0mg"},{"bike_id":"4075e605-7e2d-4335-883e-4292dc011012","system_id":"levelo_inurba_marseille","lat":43.23961,"lon":5.36629,"is_reserved":false,"is_disabled":false,"rental_uris":{"android":"levelo://app?vid=4075e605-7e2d-4335-883e-4292dc011012","ios":"levelo://app?vid=4075e605-7e2d-4335-883e-4292dc011012"},"vehicle_type_id":"4","last_reported":1730329744,"current_range_meters":8000,"station_id":"ce4bhi12rcd13ifvqfp0","pricing_plan_id":"cebpf4jnsgd1na2vs0mg"},{"bike_id":"0e358097-8d3a-4a90-ac84-f856946475f6","system_id":"levelo_inurba_marseille","lat":43.2511,"lon":5.4032,"is_reserved":false,"is_disabled":false,"rental_uris":{"android":"levelo://app?vid=0e358097-8d3a-4a90-ac84-f856946475f6","ios":"levelo://app?vid=0e358097-8d3a-4a90-ac84-f856946475f6"},"vehicle_type_id":"4","last_reported":1730329744,"current_range_meters":25600,"station_id":"ce4bhlh2rcd13ifvqgig","pricing_plan_id":"cebpf4jnsgd1na2vs0mg"},{"bike_id":"458a4d60-adda-457c-9eaf-a3ca8d938606","system_id":"levelo_inurba_marseille","lat":43.30805,"lon":5.38157,"is_reserved":false,"is_disabled":false,"rental_uris":{"android":"levelo://app?vid=458a4d60-adda-457c-9eaf-a3ca8d938606","ios":"levelo://app?vid=458a4d60-adda-457c-9eaf-a3ca8d938606"},"vehicle_type_id":"4","last_reported":1730329744,"current_range_meters":28000,"station_id":"ce4bgt12rcd13ifvqce0","pricing_plan_id":"cebpf4jnsgd1na2vs0mg"},{"bike_id":"88b41abc-7a6a-4d0c-8b4c-c5a28531c90c","system_id":"levelo_inurba_marseille","lat":43.3169,"lon":5.40464,"is_reserved":false,"is_disabled":false,"rental_uris":{"android":"levelo://app?vid=88b41abc-7a6a-4d0c-8b4c-c5a28531c90c","ios":"levelo://app?vid=88b41abc-7a6a-4d0c-8b4c-c5a28531c90c"},"vehicle_type_id":"4","last_reported":1730329744,"current_range_meters":30400,"station_id":"ce4bh012rcd13ifvqd00","pricing_plan_id":"cebpf4jnsgd1na2vs0mg"},{"bike_id":"4610e647-0972-4d5a-947a-311aa4e9bc1f","system_id":"levelo_inurba_marseille","lat":43.31181,"lon":5.38717,"is_reserved":false,"is_disabled":false,"rental_uris":{"android":"levelo://app?vid=4610e647-0972-4d5a-947a-311aa4e9bc1f","ios":"levelo://app?vid=4610e647-0972-4d5a-947a-311aa4e9bc1f"},"vehicle_type_id":"4","last_reported":1730329744,"current_range_meters":27200,"station_id":"ce4bgv12rcd13ifvqcp0","pricing_plan_id":"cebpf4jnsgd1na2vs0mg"},{"bike_id":"b92652ba-07ca-42f1-857b-4debf2d5d04e","system_id":"levelo_inurba_marseille","lat":43.30781,"lon":5.37647,"is_reserved":false,"is_disabled":false,"rental_uris":{"android":"levelo://app?vid=b92652ba-07ca-42f1-857b-4debf2d5d04e","ios":"levelo://app?vid=b92652ba-07ca-42f1-857b-4debf2d5d04e"},"vehicle_type_id":"4","last_reported":1730329744,"current_range_meters":9200,"station_id":"ce4bgv92rcd13ifvqcq0","pricing_plan_id":"cebpf4jnsgd1na2vs0mg"},{"bike_id":"50637344-4a20-4d06-ada1-2bdfc12f146e","system_id":"levelo_inurba_marseille","lat":43.31266,"lon":5.40168,"is_reserved":false,"is_disabled":false,"rental_uris":{"android":"levelo://app?vid=50637344-4a20-4d06-ada1-2bdfc12f146e","ios":"levelo://app?vid=50637344-4a20-4d06-ada1-2bdfc12f146e"},"vehicle_type_id":"4","last_reported":1730329744,"current_range_meters":40000,"station_id":"ce4bh092rcd13ifvqd30","pricing_plan_id":"cebpf4jnsgd1na2vs0mg"},{"bike_id":"2beca9ac-4452-4a32-b8d5-e4fa502e27d1","system_id":"levelo_inurba_marseille","lat":43.31481,"lon":5.37308,"is_reserved":false,"is_disabled":false,"rental_uris":{"android":"levelo://app?vid=2beca9ac-4452-4a32-b8d5-e4fa502e27d1","ios":"levelo://app?vid=2beca9ac-4452-4a32-b8d5-e4fa502e27d1"},"vehicle_type_id":"4","last_reported":1730329744,"current_range_meters":23200,"station_id":"ce4bgt12rcd13ifvqcd0","pricing_plan_id":"cebpf4jnsgd1na2vs0mg"},{"bike_id":"5d84df87-3ce6-4abc-bce1-e060438e724a","system_id":"levelo_inurba_marseille","lat":43.29036,"lon":5.39956,"is_reserved":false,"is_disabled":false,"rental_uris":{"android":"levelo://app?vid=5d84df87-3ce6-4abc-bce1-e060438e724a","ios":"levelo://app?vid=5d84df87-3ce6-4abc-bce1-e060438e724a"},"vehicle_type_id":"4","last_reported":1730329744,"current_range_meters":13600,"station_id":"ce4bh392rcd13ifvqdm0","pricing_plan_id":"cebpf4jnsgd1na2vs0mg"},{"bike_id":"2244af51-a388-4165-8942-d8b087bbd5c2","system_id":"levelo_inurba_marseille","lat":43.289403,"lon":5.36394,"is_reserved":false,"is_disabled":false,"rental_uris":{"android":"levelo://app?vid=2244af51-a388-4165-8942-d8b087bbd5c2","ios":"levelo://app?vid=2244af51-a388-4165-8942-d8b087bbd5c2"},"vehicle_type_id":"4","last_reported":1730329744,"current_range_meters":12000,"station_id":"ce4bhc92rcd13ifvqetg","pricing_plan_id":"cebpf4jnsgd1na2vs0mg"},{"bike_id":"d33164b6-8c2c-4df3-9de4-7f110f14fc1c","system_id":"levelo_inurba_marseille","lat":43.30806,"lon":5.38151,"is_reserved":false,"is_disabled":false,"rental_uris":{"android":"levelo://app?vid=d33164b6-8c2c-4df3-9de4-7f110f14fc1c","ios":"levelo://app?vid=d33164b6-8c2c-4df3-9de4-7f110f14fc1c"},"vehicle_type_id":"4","last_reported":1730329744,"current_range_meters":36800,"station_id":"ce4bgt12rcd13ifvqce0","pricing_plan_id":"cebpf4jnsgd1na2vs0mg"},{"bike_id":"0a52d1c1-8f6f-4b50-aac6-8604eb20db08","system_id":"levelo_inurba_marseille","lat":43.29196,"lon":5.3932,"is_reserved":false,"is_disabled":false,"rental_uris":{"android":"levelo://app?vid=0a52d1c1-8f6f-4b50-aac6-8604eb20db08","ios":"levelo://app?vid=0a52d1c1-8f6f-4b50-aac6-8604eb20db08"},"vehicle_type_id":"4","last_reported":1730329744,"current_range_meters":40000,"station_id":"ce4bh192rcd13ifvqdd0","pricing_plan_id":"cebpf4jnsgd1na2vs0mg"},{"bike_id":"faac5a64-8892-43f8-9f41-647a17d49b27","system_id":"levelo_inurba_marseille","lat":43.3127,"lon":5.40173,"is_reserved":false,"is_disabled":false,"rental_uris":{"android":"levelo://app?vid=faac5a64-8892-43f8-9f41-647a17d49b27","ios":"levelo://app?vid=faac5a64-8892-43f8-9f41-647a17d49b27"},"vehicle_type_id":"4","last_reported":1730329744,"current_range_meters":36000,"station_id":"ce4bh092rcd13ifvqd30","pricing_plan_id":"cebpf4jnsgd1na2vs0mg"},{"bike_id":"2d65310e-a7ab-47d2-aed2-2ce5aa88e32d","system_id":"levelo_inurba_marseille","lat":43.25082,"lon":5.39516,"is_reserved":false,"is_disabled":false,"rental_uris":{"android":"levelo://app?vid=2d65310e-a7ab-47d2-aed2-2ce5aa88e32d","ios":"levelo://app?vid=2d65310e-a7ab-47d2-aed2-2ce5aa88e32d"},"vehicle_type_id":"4","last_reported":1730329744,"current_range_meters":9200,"station_id":"ce4bhm12rcd13ifvqgkg","pricing_plan_id":"cebpf4jnsgd1na2vs0mg"},{"bike_id":"acd4be18-09d6-480d-b11b-520844b93da4","system_id":"levelo_inurba_marseille","lat":43.28454,"lon":5.35878,"is_reserved":false,"is_disabled":false,"rental_uris":{"android":"levelo://app?vid=acd4be18-09d6-480d-b11b-520844b93da4","ios":"levelo://app?vid=acd4be18-09d6-480d-b11b-520844b93da4"},"vehicle_type_id":"4","last_reported":1730329744,"current_range_meters":27200,"station_id":"ce4bhah2rcd13ifvqei0","pricing_plan_id":"cebpf4jnsgd1na2vs0mg"},{"bike_id":"e4135fb1-128c-4498-8011-011092115ff6","system_id":"levelo_inurba_marseille","lat":43.29278,"lon":5.40111,"is_reserved":false,"is_disabled":false,"rental_uris":{"android":"levelo://app?vid=e4135fb1-128c-4498-8011-011092115ff6","ios":"levelo://app?vid=e4135fb1-128c-4498-8011-011092115ff6"},"vehicle_type_id":"4","last_reported":1730329744,"current_range_meters":6400,"station_id":"ce4bh312rcd13ifvqdk0","pricing_plan_id":"cebpf4jnsgd1na2vs0mg"},{"bike_id":"e5711905-f885-4bbc-a3df-9ebdb9912423","system_id":"levelo_inurba_marseille","lat":43.3118,"lon":5.3872,"is_reserved":false,"is_disabled":false,"rental_uris":{"android":"levelo://app?vid=e5711905-f885-4bbc-a3df-9ebdb9912423","ios":"levelo://app?vid=e5711905-f885-4bbc-a3df-9ebdb9912423"},"vehicle_type_id":"4","last_reported":1730329744,"current_range_meters":38800,"station_id":"ce4bgv12rcd13ifvqcp0","pricing_plan_id":"cebpf4jnsgd1na2vs0mg"},{"bike_id":"e38d264f-70d8-41c0-bca8-3c8f38ec51cb","system_id":"levelo_inurba_marseille","lat":43.31082,"lon":5.38359,"is_reserved":false,"is_disabled":false,"rental_uris":{"android":"levelo://app?vid=e38d264f-70d8-41c0-bca8-3c8f38ec51cb","ios":"levelo://app?vid=e38d264f-70d8-41c0-bca8-3c8f38ec51cb"},"vehicle_type_id":"4","last_reported":1730329744,"current_range_meters":38800,"station_id":"ce4bgv92rcd13ifvqcr0","pricing_plan_id":"cebpf4jnsgd1na2vs0mg"},{"bike_id":"ca42fafc-ec68-46ec-b376-f0ffa70f6fe6","system_id":"levelo_inurba_marseille","lat":43.32657,"lon":5.40984,"is_reserved":false,"is_disabled":false,"rental_uris":{"android":"levelo://app?vid=ca42fafc-ec68-46ec-b376-f0ffa70f6fe6","ios":"levelo://app?vid=ca42fafc-ec68-46ec-b376-f0ffa70f6fe6"},"vehicle_type_id":"4","last_reported":1730329744,"current_range_meters":28000,"station_id":"ce4bhpp2rcd13ifvqhgg","pricing_plan_id":"cebpf4jnsgd1na2vs0mg"},{"bike_id":"42e61598-64ce-4f84-97eb-90c09ebd9abe","system_id":"levelo_inurba_marseille","lat":43.2319,"lon":5.39994,"is_reserved":false,"is_disabled":false,"rental_uris":{"android":"levelo://app?vid=42e61598-64ce-4f84-97eb-90c09ebd9abe","ios":"levelo://app?vid=42e61598-64ce-4f84-97eb-90c09ebd9abe"},"vehicle_type_id":"4","last_reported":1730329744,"current_range_meters":12800,"station_id":"ce4bhn12rcd13ifvqgqg","pricing_plan_id":"cebpf4jnsgd1na2vs0mg"},{"bike_id":"2893db70-50c6-464a-a8bb-84a28e62c464","system_id":"levelo_inurba_marseille","lat":43.25582,"lon":5.3823,"is_reserved":false,"is_disabled":false,"rental_uris":{"android":"levelo://app?vid=2893db70-50c6-464a-a8bb-84a28e62c464","ios":"levelo://app?vid=2893db70-50c6-464a-a8bb-84a28e62c464"},"vehicle_type_id":"4","last_reported":1730329744,"current_range_meters":35600,"station_id":"ce4bhih2rcd13ifvqfs0","pricing_plan_id":"cebpf4jnsgd1na2vs0mg"},{"bike_id":"bd1d597a-6cd5-4f41-9039-86c74516aebb","system_id":"levelo_inurba_marseille","lat":43.299736,"lon":5.371786,"is_reserved":false,"is_disabled":false,"rental_uris":{"android":"levelo://app?vid=bd1d597a-6cd5-4f41-9039-86c74516aebb","ios":"levelo://app?vid=bd1d597a-6cd5-4f41-9039-86c74516aebb"},"vehicle_type_id":"4","last_reported":1730329744,"current_range_meters":33200,"station_id":"ce4bgr92rcd13ifvqc7g","pricing_plan_id":"cebpf4jnsgd1na2vs0mg"},{"bike_id":"790de6f6-7e88-45fe-82ab-67779ea11511","system_id":"levelo_inurba_marseille","lat":43.29261,"lon":5.40915,"is_reserved":false,"is_disabled":false,"rental_uris":{"android":"levelo://app?vid=790de6f6-7e88-45fe-82ab-67779ea11511","ios":"levelo://app?vid=790de6f6-7e88-45fe-82ab-67779ea11511"},"vehicle_type_id":"4","last_reported":1730329744,"current_range_meters":35200,"station_id":"ce4bh192rcd13ifvqdc0","pricing_plan_id":"cebpf4jnsgd1na2vs0mg"},{"bike_id":"c573c73f-75e4-475a-bcd6-666ce297695e","system_id":"levelo_inurba_marseille","lat":43.23179,"lon":5.39981,"is_reserved":false,"is_disabled":false,"rental_uris":{"android":"levelo://app?vid=c573c73f-75e4-475a-bcd6-666ce297695e","ios":"levelo://app?vid=c573c73f-75e4-475a-bcd6-666ce297695e"},"vehicle_type_id":"4","last_reported":1730329744,"current_range_meters":28800,"station_id":"ce4bhn12rcd13ifvqgqg","pricing_plan_id":"cebpf4jnsgd1na2vs0mg"},{"bike_id":"57165c0e-8c5a-48eb-9287-7bdfa90e6371","system_id":"levelo_inurba_marseille","lat":43.31228,"lon":5.36857,"is_reserved":false,"is_disabled":false,"rental_uris":{"android":"levelo://app?vid=57165c0e-8c5a-48eb-9287-7bdfa90e6371","ios":"levelo://app?vid=57165c0e-8c5a-48eb-9287-7bdfa90e6371"},"vehicle_type_id":"4","last_reported":1730329744,"current_range_meters":39200,"station_id":"ce4bgl92rcd13ifvqbq0","pricing_plan_id":"cebpf4jnsgd1na2vs0mg"},{"bike_id":"a65b7600-bc14-4cb1-bd98-91e0257743b9","system_id":"levelo_inurba_marseille","lat":43.24071,"lon":5.37754,"is_reserved":false,"is_disabled":false,"rental_uris":{"android":"levelo://app?vid=a65b7600-bc14-4cb1-bd98-91e0257743b9","ios":"levelo://app?vid=a65b7600-bc14-4cb1-bd98-91e0257743b9"},"vehicle_type_id":"4","last_reported":1730329744,"current_range_meters":8400,"station_id":"ce4bhnp2rcd13ifvqgvg","pricing_plan_id":"cebpf4jnsgd1na2vs0mg"},{"bike_id":"0a06ec05-8481-4798-969d-ec482d3be7df","system_id":"levelo_inurba_marseille","lat":43.28706,"lon":5.39987,"is_reserved":false,"is_disabled":false,"rental_uris":{"android":"levelo://app?vid=0a06ec05-8481-4798-969d-ec482d3be7df","ios":"levelo://app?vid=0a06ec05-8481-4798-969d-ec482d3be7df"},"vehicle_type_id":"4","last_reported":1730329744,"current_range_meters":38800,"station_id":"ce4bho92rcd13ifvqh3g","pricing_plan_id":"cebpf4jnsgd1na2vs0mg"},{"bike_id":"70bb78fe-4bef-4d56-a833-affc0bdfc9f3","system_id":"levelo_inurba_marseille","lat":43.23192,"lon":5.35555,"is_reserved":false,"is_disabled":false,"rental_uris":{"android":"levelo://app?vid=70bb78fe-4bef-4d56-a833-affc0bdfc9f3","ios":"levelo://app?vid=70bb78fe-4bef-4d56-a833-affc0bdfc9f3"},"vehicle_type_id":"4","last_reported":1730329744,"current_range_meters":40000,"station_id":"ce4bhu92rcd13ifvqi70","pricing_plan_id":"cebpf4jnsgd1na2vs0mg"},{"bike_id":"5d625bc2-68ce-4557-aa47-6454b48c46f9","system_id":"levelo_inurba_marseille","lat":43.292004,"lon":5.393278,"is_reserved":false,"is_disabled":false,"rental_uris":{"android":"levelo://app?vid=5d625bc2-68ce-4557-aa47-6454b48c46f9","ios":"levelo://app?vid=5d625bc2-68ce-4557-aa47-6454b48c46f9"},"vehicle_type_id":"4","last_reported":1730329744,"current_range_meters":38000,"station_id":"ce4bh192rcd13ifvqdd0","pricing_plan_id":"cebpf4jnsgd1na2vs0mg"},{"bike_id":"41d96ebe-6a5f-4dd8-8e4e-ad3534ba8994","system_id":"levelo_inurba_marseille","lat":43.288605,"lon":5.382474,"is_reserved":false,"is_disabled":false,"rental_uris":{"android":"levelo://app?vid=41d96ebe-6a5f-4dd8-8e4e-ad3534ba8994","ios":"levelo://app?vid=41d96ebe-6a5f-4dd8-8e4e-ad3534ba8994"},"vehicle_type_id":"4","last_reported":1730329744,"current_range_meters":29600,"station_id":"","pricing_plan_id":"cebpf4jnsgd1na2vs0mg"},{"bike_id":"7402b7e8-b1f4-4735-bca8-18b131717534","system_id":"levelo_inurba_marseille","lat":43.24386,"lon":5.37054,"is_reserved":false,"is_disabled":false,"rental_uris":{"android":"levelo://app?vid=7402b7e8-b1f4-4735-bca8-18b131717534","ios":"levelo://app?vid=7402b7e8-b1f4-4735-bca8-18b131717534"},"vehicle_type_id":"4","last_reported":1730329744,"current_range_meters":39200,"station_id":"ce4bhhh2rcd13ifvqfk0","pricing_plan_id":"cebpf4jnsgd1na2vs0mg"},{"bike_id":"6028cec3-5a3a-4c77-be09-d14a33401125","system_id":"levelo_inurba_marseille","lat":43.2955,"lon":5.39371,"is_reserved":false,"is_disabled":false,"rental_uris":{"android":"levelo://app?vid=6028cec3-5a3a-4c77-be09-d14a33401125","ios":"levelo://app?vid=6028cec3-5a3a-4c77-be09-d14a33401125"},"vehicle_type_id":"4","last_reported":1730329744,"current_range_meters":24400,"station_id":"ce4bh292rcd13ifvqdf0","pricing_plan_id":"cebpf4jnsgd1na2vs0mg"},{"bike_id":"5c244c3d-8fd7-4c95-b825-2f7fe2f15994","system_id":"levelo_inurba_marseille","lat":43.23191,"lon":5.35546,"is_reserved":false,"is_disabled":false,"rental_uris":{"android":"levelo://app?vid=5c244c3d-8fd7-4c95-b825-2f7fe2f15994","ios":"levelo://app?vid=5c244c3d-8fd7-4c95-b825-2f7fe2f15994"},"vehicle_type_id":"4","last_reported":1730329744,"current_range_meters":40000,"station_id":"ce4bhu92rcd13ifvqi70","pricing_plan_id":"cebpf4jnsgd1na2vs0mg"},{"bike_id":"7d1fe817-f784-45b3-a7f6-2e79abcfa29c","system_id":"levelo_inurba_marseille","lat":43.337444,"lon":5.374475,"is_reserved":false,"is_disabled":false,"rental_uris":{"android":"levelo://app?vid=7d1fe817-f784-45b3-a7f6-2e79abcfa29c","ios":"levelo://app?vid=7d1fe817-f784-45b3-a7f6-2e79abcfa29c"},"vehicle_type_id":"4","last_reported":1730329744,"current_range_meters":37600,"station_id":"","pricing_plan_id":"cebpf4jnsgd1na2vs0mg"},{"bike_id":"6d0fcc22-7d64-4b98-aeca-72a0fd533d73","system_id":"levelo_inurba_marseille","lat":43.281123,"lon":5.406059,"is_reserved":false,"is_disabled":false,"rental_uris":{"android":"levelo://app?vid=6d0fcc22-7d64-4b98-aeca-72a0fd533d73","ios":"levelo://app?vid=6d0fcc22-7d64-4b98-aeca-72a0fd533d73"},"vehicle_type_id":"4","last_reported":1730329744,"current_range_meters":25200,"station_id":"ce4bhnh2rcd13ifvqgug","pricing_plan_id":"cebpf4jnsgd1na2vs0mg"},{"bike_id":"b36e4830-2996-4a48-af1a-0e271204aae5","system_id":"levelo_inurba_marseille","lat":43.29226,"lon":5.36057,"is_reserved":false,"is_disabled":false,"rental_uris":{"android":"levelo://app?vid=b36e4830-2996-4a48-af1a-0e271204aae5","ios":"levelo://app?vid=b36e4830-2996-4a48-af1a-0e271204aae5"},"vehicle_type_id":"4","last_reported":1730329744,"current_range_meters":38800,"station_id":"ce4bhbh2rcd13ifvqeqg","pricing_plan_id":"cebpf4jnsgd1na2vs0mg"},{"bike_id":"b6656321-07a2-484f-8363-e5a5ede34c21","system_id":"levelo_inurba_marseille","lat":43.26802,"lon":5.40268,"is_reserved":false,"is_disabled":false,"rental_uris":{"android":"levelo://app?vid=b6656321-07a2-484f-8363-e5a5ede34c21","ios":"levelo://app?vid=b6656321-07a2-484f-8363-e5a5ede34c21"},"vehicle_type_id":"4","last_reported":1730329744,"current_range_meters":35200,"station_id":"ce501612rcd8frsf0b60","pricing_plan_id":"cebpf4jnsgd1na2vs0mg"},{"bike_id":"335f1a08-5da0-4ae7-a584-7d7da59362a5","system_id":"levelo_inurba_marseille","lat":43.2847,"lon":5.35884,"is_reserved":false,"is_disabled":false,"rental_uris":{"android":"levelo://app?vid=335f1a08-5da0-4ae7-a584-7d7da59362a5","ios":"levelo://app?vid=335f1a08-5da0-4ae7-a584-7d7da59362a5"},"vehicle_type_id":"4","last_reported":1730329744,"current_range_meters":29600,"station_id":"ce4bhah2rcd13ifvqei0","pricing_plan_id":"cebpf4jnsgd1na2vs0mg"},{"bike_id":"d9756f3c-8cb0-46d7-bc3b-462c65789eef","system_id":"levelo_inurba_marseille","lat":43.30887,"lon":5.39645,"is_reserved":false,"is_disabled":false,"rental_uris":{"android":"levelo://app?vid=d9756f3c-8cb0-46d7-bc3b-462c65789eef","ios":"levelo://app?vid=d9756f3c-8cb0-46d7-bc3b-462c65789eef"},"vehicle_type_id":"4","last_reported":1730329744,"current_range_meters":40000,"station_id":"ce4bh012rcd13ifvqcv0","pricing_plan_id":"cebpf4jnsgd1na2vs0mg"},{"bike_id":"37b08927-785c-42a3-8528-bd7a11bfcaf6","system_id":"levelo_inurba_marseille","lat":43.28669,"lon":5.36352,"is_reserved":false,"is_disabled":false,"rental_uris":{"android":"levelo://app?vid=37b08927-785c-42a3-8528-bd7a11bfcaf6","ios":"levelo://app?vid=37b08927-785c-42a3-8528-bd7a11bfcaf6"},"vehicle_type_id":"4","last_reported":1730329744,"current_range_meters":22800,"station_id":"ce4bhah2rcd13ifvqej0","pricing_plan_id":"cebpf4jnsgd1na2vs0mg"},{"bike_id":"d4c75cb5-db79-44b2-ae3d-0051411fdd9b","system_id":"levelo_inurba_marseille","lat":43.28104,"lon":5.37836,"is_reserved":false,"is_disabled":false,"rental_uris":{"android":"levelo://app?vid=d4c75cb5-db79-44b2-ae3d-0051411fdd9b","ios":"levelo://app?vid=d4c75cb5-db79-44b2-ae3d-0051411fdd9b"},"vehicle_type_id":"4","last_reported":1730329744,"current_range_meters":4800,"station_id":"ce4bha12rcd13ifvqee0","pricing_plan_id":"cebpf4jnsgd1na2vs0mg"},{"bike_id":"dad5eff0-e5ee-404f-82d1-98d2cd892fef","system_id":"levelo_inurba_marseille","lat":43.30439,"lon":5.38886,"is_reserved":false,"is_disabled":false,"rental_uris":{"android":"levelo://app?vid=dad5eff0-e5ee-404f-82d1-98d2cd892fef","ios":"levelo://app?vid=dad5eff0-e5ee-404f-82d1-98d2cd892fef"},"vehicle_type_id":"4","last_reported":1730329744,"current_range_meters":10000,"station_id":"ce4bgk12rcd13ifvqbi0","pricing_plan_id":"cebpf4jnsgd1na2vs0mg"},{"bike_id":"92adf987-4779-4b78-ad9c-8e29ab9175f3","system_id":"levelo_inurba_marseille","lat":43.23194,"lon":5.35555,"is_reserved":false,"is_disabled":false,"rental_uris":{"android":"levelo://app?vid=92adf987-4779-4b78-ad9c-8e29ab9175f3","ios":"levelo://app?vid=92adf987-4779-4b78-ad9c-8e29ab9175f3"},"vehicle_type_id":"4","last_reported":1730329744,"current_range_meters":10000,"station_id":"ce4bhu92rcd13ifvqi70","pricing_plan_id":"cebpf4jnsgd1na2vs0mg"},{"bike_id":"06630fe4-a7b5-41d7-b8e1-ac7f712e30fe","system_id":"levelo_inurba_marseille","lat":43.29716,"lon":5.36615,"is_reserved":false,"is_disabled":false,"rental_uris":{"android":"levelo://app?vid=06630fe4-a7b5-41d7-b8e1-ac7f712e30fe","ios":"levelo://app?vid=06630fe4-a7b5-41d7-b8e1-ac7f712e30fe"},"vehicle_type_id":"4","last_reported":1730329744,"current_range_meters":11600,"station_id":"ce4bgn12rcd13ifvqbt0","pricing_plan_id":"cebpf4jnsgd1na2vs0mg"},{"bike_id":"0d9e2dc0-7e48-44a4-9d02-16fb20798af5","system_id":"levelo_inurba_marseille","lat":43.23185,"lon":5.39979,"is_reserved":false,"is_disabled":false,"rental_uris":{"android":"levelo://app?vid=0d9e2dc0-7e48-44a4-9d02-16fb20798af5","ios":"levelo://app?vid=0d9e2dc0-7e48-44a4-9d02-16fb20798af5"},"vehicle_type_id":"4","last_reported":1730329744,"current_range_meters":39200,"station_id":"ce4bhn12rcd13ifvqgqg","pricing_plan_id":"cebpf4jnsgd1na2vs0mg"},{"bike_id":"ce2310f1-0848-4180-8bb1-c79c12d253ca","system_id":"levelo_inurba_marseille","lat":43.3376,"lon":5.37451,"is_reserved":false,"is_disabled":false,"rental_uris":{"android":"levelo://app?vid=ce2310f1-0848-4180-8bb1-c79c12d253ca","ios":"levelo://app?vid=ce2310f1-0848-4180-8bb1-c79c12d253ca"},"vehicle_type_id":"4","last_reported":1730329744,"current_range_meters":33600,"station_id":"","pricing_plan_id":"cebpf4jnsgd1na2vs0mg"},{"bike_id":"d112c7cc-3721-4d9b-8e02-c42fae8da055","system_id":"levelo_inurba_marseille","lat":43.30199,"lon":5.36607,"is_reserved":false,"is_disabled":false,"rental_uris":{"android":"levelo://app?vid=d112c7cc-3721-4d9b-8e02-c42fae8da055","ios":"levelo://app?vid=d112c7cc-3721-4d9b-8e02-c42fae8da055"},"vehicle_type_id":"4","last_reported":1730329744,"current_range_meters":37600,"station_id":"ce4bgrh2rcd13ifvqc8g","pricing_plan_id":"cebpf4jnsgd1na2vs0mg"},{"bike_id":"070c162b-8711-4689-82f8-ef565587512e","system_id":"levelo_inurba_marseille","lat":43.24659,"lon":5.38147,"is_reserved":false,"is_disabled":false,"rental_uris":{"android":"levelo://app?vid=070c162b-8711-4689-82f8-ef565587512e","ios":"levelo://app?vid=070c162b-8711-4689-82f8-ef565587512e"},"vehicle_type_id":"4","last_reported":1730329744,"current_range_meters":38800,"station_id":"ce4bhih2rcd13ifvqfr0","pricing_plan_id":"cebpf4jnsgd1na2vs0mg"},{"bike_id":"3c1dc315-b91b-4d5d-ae12-2dd417d4bfa2","system_id":"levelo_inurba_marseille","lat":43.28936,"lon":5.36638,"is_reserved":false,"is_disabled":false,"rental_uris":{"android":"levelo://app?vid=3c1dc315-b91b-4d5d-ae12-2dd417d4bfa2","ios":"levelo://app?vid=3c1dc315-b91b-4d5d-ae12-2dd417d4bfa2"},"vehicle_type_id":"4","last_reported":1730329744,"current_range_meters":32800,"station_id":"ce4bhap2rcd13ifvqek0","pricing_plan_id":"cebpf4jnsgd1na2vs0mg"},{"bike_id":"89d7a448-5242-450b-a665-a4a379dd08ad","system_id":"levelo_inurba_marseille","lat":43.29883,"lon":5.39727,"is_reserved":false,"is_disabled":false,"rental_uris":{"android":"levelo://app?vid=89d7a448-5242-450b-a665-a4a379dd08ad","ios":"levelo://app?vid=89d7a448-5242-450b-a665-a4a379dd08ad"},"vehicle_type_id":"4","last_reported":1730329744,"current_range_meters":20000,"station_id":"ce4bh0h2rcd13ifvqd50","pricing_plan_id":"cebpf4jnsgd1na2vs0mg"},{"bike_id":"7dfaf496-2e50-463a-a103-b8570a0c6a9a","system_id":"levelo_inurba_marseille","lat":43.24391,"lon":5.37057,"is_reserved":false,"is_disabled":false,"rental_uris":{"android":"levelo://app?vid=7dfaf496-2e50-463a-a103-b8570a0c6a9a","ios":"levelo://app?vid=7dfaf496-2e50-463a-a103-b8570a0c6a9a"},"vehicle_type_id":"4","last_reported":1730329744,"current_range_meters":38000,"station_id":"ce4bhhh2rcd13ifvqfk0","pricing_plan_id":"cebpf4jnsgd1na2vs0mg"},{"bike_id":"e83ac6a4-7655-46ed-a468-81e408e3717a","system_id":"levelo_inurba_marseille","lat":43.30221,"lon":5.40041,"is_reserved":false,"is_disabled":false,"rental_uris":{"android":"levelo://app?vid=e83ac6a4-7655-46ed-a468-81e408e3717a","ios":"levelo://app?vid=e83ac6a4-7655-46ed-a468-81e408e3717a"},"vehicle_type_id":"4","last_reported":1730329744,"current_range_meters":33200,"station_id":"","pricing_plan_id":"cebpf4jnsgd1na2vs0mg"},{"bike_id":"e1981257-13d9-4ca8-88d5-098a3facc54d","system_id":"levelo_inurba_marseille","lat":43.22924,"lon":5.3538,"is_reserved":false,"is_disabled":false,"rental_uris":{"android":"levelo://app?vid=e1981257-13d9-4ca8-88d5-098a3facc54d","ios":"levelo://app?vid=e1981257-13d9-4ca8-88d5-098a3facc54d"},"vehicle_type_id":"4","last_reported":1730329744,"current_range_meters":30000,"station_id":"cpo3532slgdg3j2ikp40","pricing_plan_id":"cebpf4jnsgd1na2vs0mg"},{"bike_id":"ec6bf2c6-81ba-4965-828b-92e734ee6e46","system_id":"levelo_inurba_marseille","lat":43.23195,"lon":5.355455,"is_reserved":false,"is_disabled":false,"rental_uris":{"android":"levelo://app?vid=ec6bf2c6-81ba-4965-828b-92e734ee6e46","ios":"levelo://app?vid=ec6bf2c6-81ba-4965-828b-92e734ee6e46"},"vehicle_type_id":"4","last_reported":1730329744,"current_range_meters":27200,"station_id":"ce4bhu92rcd13ifvqi70","pricing_plan_id":"cebpf4jnsgd1na2vs0mg"},{"bike_id":"a118e4bd-6d09-413e-b002-db50f03b54e7","system_id":"levelo_inurba_marseille","lat":43.28704,"lon":5.39985,"is_reserved":false,"is_disabled":false,"rental_uris":{"android":"levelo://app?vid=a118e4bd-6d09-413e-b002-db50f03b54e7","ios":"levelo://app?vid=a118e4bd-6d09-413e-b002-db50f03b54e7"},"vehicle_type_id":"4","last_reported":1730329744,"current_range_meters":32800,"station_id":"ce4bho92rcd13ifvqh3g","pricing_plan_id":"cebpf4jnsgd1na2vs0mg"},{"bike_id":"9a96b639-733d-4d8f-9aee-322111390d03","system_id":"levelo_inurba_marseille","lat":43.30416,"lon":5.41287,"is_reserved":false,"is_disabled":false,"rental_uris":{"android":"levelo://app?vid=9a96b639-733d-4d8f-9aee-322111390d03","ios":"levelo://app?vid=9a96b639-733d-4d8f-9aee-322111390d03"},"vehicle_type_id":"4","last_reported":1730329744,"current_range_meters":32000,"station_id":"ce4bhop2rcd13ifvqh8g","pricing_plan_id":"cebpf4jnsgd1na2vs0mg"},{"bike_id":"dfc15097-286b-4a19-888e-24b66d859567","system_id":"levelo_inurba_marseille","lat":43.26833,"lon":5.41119,"is_reserved":false,"is_disabled":false,"rental_uris":{"android":"levelo://app?vid=dfc15097-286b-4a19-888e-24b66d859567","ios":"levelo://app?vid=dfc15097-286b-4a19-888e-24b66d859567"},"vehicle_type_id":"4","last_reported":1730329744,"current_range_meters":12400,"station_id":"","pricing_plan_id":"cebpf4jnsgd1na2vs0mg"},{"bike_id":"de965c17-0fea-46be-9be4-3593657f97c6","system_id":"levelo_inurba_marseille","lat":43.26063,"lon":5.39399,"is_reserved":false,"is_disabled":false,"rental_uris":{"android":"levelo://app?vid=de965c17-0fea-46be-9be4-3593657f97c6","ios":"levelo://app?vid=de965c17-0fea-46be-9be4-3593657f97c6"},"vehicle_type_id":"4","last_reported":1730329744,"current_range_meters":27600,"station_id":"ce4bhh92rcd13ifvqfj0","pricing_plan_id":"cebpf4jnsgd1na2vs0mg"},{"bike_id":"62874f0c-2696-4712-9a95-c582d9bfbbaa","system_id":"levelo_inurba_marseille","lat":43.27847,"lon":5.41211,"is_reserved":false,"is_disabled":false,"rental_uris":{"android":"levelo://app?vid=62874f0c-2696-4712-9a95-c582d9bfbbaa","ios":"levelo://app?vid=62874f0c-2696-4712-9a95-c582d9bfbbaa"},"vehicle_type_id":"4","last_reported":1730329744,"current_range_meters":16400,"station_id":"","pricing_plan_id":"cebpf4jnsgd1na2vs0mg"},{"bike_id":"b6b3da43-2210-45b5-8770-19b237e0b45d","system_id":"levelo_inurba_marseille","lat":43.28418,"lon":5.37519,"is_reserved":false,"is_disabled":false,"rental_uris":{"android":"levelo://app?vid=b6b3da43-2210-45b5-8770-19b237e0b45d","ios":"levelo://app?vid=b6b3da43-2210-45b5-8770-19b237e0b45d"},"vehicle_type_id":"4","last_reported":1730329744,"current_range_meters":12400,"station_id":"ce4bh412rcd13ifvqds0","pricing_plan_id":"cebpf4jnsgd1na2vs0mg"},{"bike_id":"f4275078-d247-4e72-ac15-c499ff15c1b1","system_id":"levelo_inurba_marseille","lat":43.31075,"lon":5.38357,"is_reserved":false,"is_disabled":false,"rental_uris":{"android":"levelo://app?vid=f4275078-d247-4e72-ac15-c499ff15c1b1","ios":"levelo://app?vid=f4275078-d247-4e72-ac15-c499ff15c1b1"},"vehicle_type_id":"4","last_reported":1730329744,"current_range_meters":26800,"station_id":"ce4bgv92rcd13ifvqcr0","pricing_plan_id":"cebpf4jnsgd1na2vs0mg"},{"bike_id":"3a8b00c4-db59-480f-8b02-c61ef2e023b3","system_id":"levelo_inurba_marseille","lat":43.30334,"lon":5.4044,"is_reserved":false,"is_disabled":false,"rental_uris":{"android":"levelo://app?vid=3a8b00c4-db59-480f-8b02-c61ef2e023b3","ios":"levelo://app?vid=3a8b00c4-db59-480f-8b02-c61ef2e023b3"},"vehicle_type_id":"4","last_reported":1730329744,"current_range_meters":22800,"station_id":"ce4bh012rcd13ifvqd10","pricing_plan_id":"cebpf4jnsgd1na2vs0mg"},{"bike_id":"877394f0-712a-434e-bc97-39fecd7a7db1","system_id":"levelo_inurba_marseille","lat":43.28952,"lon":5.36405,"is_reserved":false,"is_disabled":false,"rental_uris":{"android":"levelo://app?vid=877394f0-712a-434e-bc97-39fecd7a7db1","ios":"levelo://app?vid=877394f0-712a-434e-bc97-39fecd7a7db1"},"vehicle_type_id":"4","last_reported":1730329744,"current_range_meters":36800,"station_id":"ce4bhc92rcd13ifvqetg","pricing_plan_id":"cebpf4jnsgd1na2vs0mg"},{"bike_id":"436a6a69-d3b4-4bdf-8c98-78260ced3e10","system_id":"levelo_inurba_marseille","lat":43.28701,"lon":5.37391,"is_reserved":false,"is_disabled":false,"rental_uris":{"android":"levelo://app?vid=436a6a69-d3b4-4bdf-8c98-78260ced3e10","ios":"levelo://app?vid=436a6a69-d3b4-4bdf-8c98-78260ced3e10"},"vehicle_type_id":"4","last_reported":1730329744,"current_range_meters":8000,"station_id":"ce4bh3p2rcd13ifvqdq0","pricing_plan_id":"cebpf4jnsgd1na2vs0mg"},{"bike_id":"6a6508a8-9f6b-4810-96a4-0ad7e19de049","system_id":"levelo_inurba_marseille","lat":43.30138,"lon":5.38784,"is_reserved":false,"is_disabled":false,"rental_uris":{"android":"levelo://app?vid=6a6508a8-9f6b-4810-96a4-0ad7e19de049","ios":"levelo://app?vid=6a6508a8-9f6b-4810-96a4-0ad7e19de049"},"vehicle_type_id":"4","last_reported":1730329744,"current_range_meters":38800,"station_id":"ce4bghh2rcd13ifvqb60","pricing_plan_id":"cebpf4jnsgd1na2vs0mg"},{"bike_id":"fb7c17c1-24fe-4bf6-98e4-2d7b75a8d8a8","system_id":"levelo_inurba_marseille","lat":43.30813,"lon":5.38161,"is_reserved":false,"is_disabled":false,"rental_uris":{"android":"levelo://app?vid=fb7c17c1-24fe-4bf6-98e4-2d7b75a8d8a8","ios":"levelo://app?vid=fb7c17c1-24fe-4bf6-98e4-2d7b75a8d8a8"},"vehicle_type_id":"4","last_reported":1730329744,"current_range_meters":39200,"station_id":"ce4bgt12rcd13ifvqce0","pricing_plan_id":"cebpf4jnsgd1na2vs0mg"},{"bike_id":"014a60cd-d725-46c2-9076-759dd505e218","system_id":"levelo_inurba_marseille","lat":43.28936,"lon":5.39627,"is_reserved":false,"is_disabled":false,"rental_uris":{"android":"levelo://app?vid=014a60cd-d725-46c2-9076-759dd505e218","ios":"levelo://app?vid=014a60cd-d725-46c2-9076-759dd505e218"},"vehicle_type_id":"4","last_reported":1730329744,"current_range_meters":28000,"station_id":"ce4bh3h2rcd13ifvqdn0","pricing_plan_id":"cebpf4jnsgd1na2vs0mg"},{"bike_id":"c99f5146-7e89-4821-b397-323b7508f974","system_id":"levelo_inurba_marseille","lat":43.29533,"lon":5.38552,"is_reserved":false,"is_disabled":false,"rental_uris":{"android":"levelo://app?vid=c99f5146-7e89-4821-b397-323b7508f974","ios":"levelo://app?vid=c99f5146-7e89-4821-b397-323b7508f974"},"vehicle_type_id":"4","last_reported":1730329744,"current_range_meters":28400,"station_id":"ce4bgih2rcd13ifvqba0","pricing_plan_id":"cebpf4jnsgd1na2vs0mg"},{"bike_id":"2370a04e-d358-4a29-b67a-890bf50b34fd","system_id":"levelo_inurba_marseille","lat":43.24168,"lon":5.36405,"is_reserved":false,"is_disabled":false,"rental_uris":{"android":"levelo://app?vid=2370a04e-d358-4a29-b67a-890bf50b34fd","ios":"levelo://app?vid=2370a04e-d358-4a29-b67a-890bf50b34fd"},"vehicle_type_id":"4","last_reported":1730329744,"current_range_meters":38800,"station_id":"cpo36qri1sfpv3e86is0","pricing_plan_id":"cebpf4jnsgd1na2vs0mg"},{"bike_id":"2d09b255-c383-4598-b26d-af21dea65632","system_id":"levelo_inurba_marseille","lat":43.28403,"lon":5.37508,"is_reserved":false,"is_disabled":false,"rental_uris":{"android":"levelo://app?vid=2d09b255-c383-4598-b26d-af21dea65632","ios":"levelo://app?vid=2d09b255-c383-4598-b26d-af21dea65632"},"vehicle_type_id":"4","last_reported":1730329744,"current_range_meters":32000,"station_id":"ce4bh412rcd13ifvqds0","pricing_plan_id":"cebpf4jnsgd1na2vs0mg"},{"bike_id":"b3842801-0c7b-461b-aa8d-97adac92c8b5","system_id":"levelo_inurba_marseille","lat":43.28846,"lon":5.39314,"is_reserved":false,"is_disabled":false,"rental_uris":{"android":"levelo://app?vid=b3842801-0c7b-461b-aa8d-97adac92c8b5","ios":"levelo://app?vid=b3842801-0c7b-461b-aa8d-97adac92c8b5"},"vehicle_type_id":"4","last_reported":1730329744,"current_range_meters":38800,"station_id":"ce4bh2p2rcd13ifvqdi0","pricing_plan_id":"cebpf4jnsgd1na2vs0mg"},{"bike_id":"04a7e763-166e-4987-9ffa-b71b1d2f0cae","system_id":"levelo_inurba_marseille","lat":43.29275,"lon":5.40115,"is_reserved":false,"is_disabled":false,"rental_uris":{"android":"levelo://app?vid=04a7e763-166e-4987-9ffa-b71b1d2f0cae","ios":"levelo://app?vid=04a7e763-166e-4987-9ffa-b71b1d2f0cae"},"vehicle_type_id":"4","last_reported":1730329744,"current_range_meters":35200,"station_id":"ce4bh312rcd13ifvqdk0","pricing_plan_id":"cebpf4jnsgd1na2vs0mg"},{"bike_id":"7b380d38-1fae-43eb-8638-0dd8786e0b2e","system_id":"levelo_inurba_marseille","lat":43.29532,"lon":5.38549,"is_reserved":false,"is_disabled":false,"rental_uris":{"android":"levelo://app?vid=7b380d38-1fae-43eb-8638-0dd8786e0b2e","ios":"levelo://app?vid=7b380d38-1fae-43eb-8638-0dd8786e0b2e"},"vehicle_type_id":"4","last_reported":1730329744,"current_range_meters":16400,"station_id":"","pricing_plan_id":"cebpf4jnsgd1na2vs0mg"},{"bike_id":"b7a10446-7656-4284-9038-722f15f4368f","system_id":"levelo_inurba_marseille","lat":43.2894,"lon":5.3962,"is_reserved":false,"is_disabled":false,"rental_uris":{"android":"levelo://app?vid=b7a10446-7656-4284-9038-722f15f4368f","ios":"levelo://app?vid=b7a10446-7656-4284-9038-722f15f4368f"},"vehicle_type_id":"4","last_reported":1730329744,"current_range_meters":38400,"station_id":"ce4bh3h2rcd13ifvqdn0","pricing_plan_id":"cebpf4jnsgd1na2vs0mg"},{"bike_id":"c9efc378-7d62-41af-a4a0-24b6121bafd9","system_id":"levelo_inurba_marseille","lat":43.27837,"lon":5.39212,"is_reserved":false,"is_disabled":false,"rental_uris":{"android":"levelo://app?vid=c9efc378-7d62-41af-a4a0-24b6121bafd9","ios":"levelo://app?vid=c9efc378-7d62-41af-a4a0-24b6121bafd9"},"vehicle_type_id":"4","last_reported":1730329744,"current_range_meters":39200,"station_id":"ce4bhjp2rcd13ifvqga0","pricing_plan_id":"cebpf4jnsgd1na2vs0mg"},{"bike_id":"03e26363-1adc-494c-8098-91070571fba5","system_id":"levelo_inurba_marseille","lat":43.2319,"lon":5.3554,"is_reserved":false,"is_disabled":false,"rental_uris":{"android":"levelo://app?vid=03e26363-1adc-494c-8098-91070571fba5","ios":"levelo://app?vid=03e26363-1adc-494c-8098-91070571fba5"},"vehicle_type_id":"4","last_reported":1730329744,"current_range_meters":28400,"station_id":"ce4bhu92rcd13ifvqi70","pricing_plan_id":"cebpf4jnsgd1na2vs0mg"},{"bike_id":"a7511b99-21ba-492e-bef9-ae849b9e118f","system_id":"levelo_inurba_marseille","lat":43.31274,"lon":5.40168,"is_reserved":false,"is_disabled":false,"rental_uris":{"android":"levelo://app?vid=a7511b99-21ba-492e-bef9-ae849b9e118f","ios":"levelo://app?vid=a7511b99-21ba-492e-bef9-ae849b9e118f"},"vehicle_type_id":"4","last_reported":1730329744,"current_range_meters":28400,"station_id":"ce4bh092rcd13ifvqd30","pricing_plan_id":"cebpf4jnsgd1na2vs0mg"},{"bike_id":"546f9ccb-7511-4248-967e-654c019ef883","system_id":"levelo_inurba_marseille","lat":43.31169,"lon":5.38712,"is_reserved":false,"is_disabled":false,"rental_uris":{"android":"levelo://app?vid=546f9ccb-7511-4248-967e-654c019ef883","ios":"levelo://app?vid=546f9ccb-7511-4248-967e-654c019ef883"},"vehicle_type_id":"4","last_reported":1730329744,"current_range_meters":4800,"station_id":"ce4bgv12rcd13ifvqcp0","pricing_plan_id":"cebpf4jnsgd1na2vs0mg"},{"bike_id":"dc190658-8553-4551-b8cb-354443b662cd","system_id":"levelo_inurba_marseille","lat":43.23194,"lon":5.35555,"is_reserved":false,"is_disabled":false,"rental_uris":{"android":"levelo://app?vid=dc190658-8553-4551-b8cb-354443b662cd","ios":"levelo://app?vid=dc190658-8553-4551-b8cb-354443b662cd"},"vehicle_type_id":"4","last_reported":1730329744,"current_range_meters":10000,"station_id":"ce4bhu92rcd13ifvqi70","pricing_plan_id":"cebpf4jnsgd1na2vs0mg"},{"bike_id":"5b1e8b43-6989-4e19-a402-fe523bcddb3b","system_id":"levelo_inurba_marseille","lat":43.28863,"lon":5.3931,"is_reserved":false,"is_disabled":false,"rental_uris":{"android":"levelo://app?vid=5b1e8b43-6989-4e19-a402-fe523bcddb3b","ios":"levelo://app?vid=5b1e8b43-6989-4e19-a402-fe523bcddb3b"},"vehicle_type_id":"4","last_reported":1730329744,"current_range_meters":36000,"station_id":"ce4bh2p2rcd13ifvqdi0","pricing_plan_id":"cebpf4jnsgd1na2vs0mg"},{"bike_id":"6c51b835-f26e-4b14-93d8-158123285309","system_id":"levelo_inurba_marseille","lat":43.2842,"lon":5.3752,"is_reserved":false,"is_disabled":false,"rental_uris":{"android":"levelo://app?vid=6c51b835-f26e-4b14-93d8-158123285309","ios":"levelo://app?vid=6c51b835-f26e-4b14-93d8-158123285309"},"vehicle_type_id":"4","last_reported":1730329744,"current_range_meters":38800,"station_id":"ce4bh412rcd13ifvqds0","pricing_plan_id":"cebpf4jnsgd1na2vs0mg"},{"bike_id":"7f270bf6-247e-4179-9a7e-a15659822bc2","system_id":"levelo_inurba_marseille","lat":43.29288,"lon":5.36804,"is_reserved":false,"is_disabled":false,"rental_uris":{"android":"levelo://app?vid=7f270bf6-247e-4179-9a7e-a15659822bc2","ios":"levelo://app?vid=7f270bf6-247e-4179-9a7e-a15659822bc2"},"vehicle_type_id":"4","last_reported":1730329744,"current_range_meters":36800,"station_id":"","pricing_plan_id":"cebpf4jnsgd1na2vs0mg"},{"bike_id":"c0221c21-a114-43ce-9a63-14f14308cefc","system_id":"levelo_inurba_marseille","lat":43.31372,"lon":5.39642,"is_reserved":false,"is_disabled":false,"rental_uris":{"android":"levelo://app?vid=c0221c21-a114-43ce-9a63-14f14308cefc","ios":"levelo://app?vid=c0221c21-a114-43ce-9a63-14f14308cefc"},"vehicle_type_id":"4","last_reported":1730329744,"current_range_meters":27200,"station_id":"","pricing_plan_id":"cebpf4jnsgd1na2vs0mg"},{"bike_id":"b598b506-bfb7-46e1-8127-efc9d45965c7","system_id":"levelo_inurba_marseille","lat":43.30353,"lon":5.4187,"is_reserved":false,"is_disabled":false,"rental_uris":{"android":"levelo://app?vid=b598b506-bfb7-46e1-8127-efc9d45965c7","ios":"levelo://app?vid=b598b506-bfb7-46e1-8127-efc9d45965c7"},"vehicle_type_id":"4","last_reported":1730329744,"current_range_meters":16400,"station_id":"ce4bhop2rcd13ifvqh7g","pricing_plan_id":"cebpf4jnsgd1na2vs0mg"},{"bike_id":"599f087a-0d72-4a42-a196-c89c14e1947a","system_id":"levelo_inurba_marseille","lat":43.31174,"lon":5.38718,"is_reserved":false,"is_disabled":false,"rental_uris":{"android":"levelo://app?vid=599f087a-0d72-4a42-a196-c89c14e1947a","ios":"levelo://app?vid=599f087a-0d72-4a42-a196-c89c14e1947a"},"vehicle_type_id":"4","last_reported":1730329744,"current_range_meters":40000,"station_id":"ce4bgv12rcd13ifvqcp0","pricing_plan_id":"cebpf4jnsgd1na2vs0mg"},{"bike_id":"03c0fd92-d684-4e7a-91a9-32bdca149bd4","system_id":"levelo_inurba_marseille","lat":43.28714,"lon":5.39974,"is_reserved":false,"is_disabled":false,"rental_uris":{"android":"levelo://app?vid=03c0fd92-d684-4e7a-91a9-32bdca149bd4","ios":"levelo://app?vid=03c0fd92-d684-4e7a-91a9-32bdca149bd4"},"vehicle_type_id":"4","last_reported":1730329744,"current_range_meters":31200,"station_id":"ce4bho92rcd13ifvqh3g","pricing_plan_id":"cebpf4jnsgd1na2vs0mg"},{"bike_id":"7e8c9aae-6e99-4e12-870a-c8665e5dc26c","system_id":"levelo_inurba_marseille","lat":43.3189,"lon":5.40721,"is_reserved":false,"is_disabled":false,"rental_uris":{"android":"levelo://app?vid=7e8c9aae-6e99-4e12-870a-c8665e5dc26c","ios":"levelo://app?vid=7e8c9aae-6e99-4e12-870a-c8665e5dc26c"},"vehicle_type_id":"4","last_reported":1730329744,"current_range_meters":38000,"station_id":"ce4bhq12rcd13ifvqhig","pricing_plan_id":"cebpf4jnsgd1na2vs0mg"},{"bike_id":"5266335c-fb51-4166-a0ab-8099a4c09e4b","system_id":"levelo_inurba_marseille","lat":43.32287,"lon":5.38277,"is_reserved":false,"is_disabled":false,"rental_uris":{"android":"levelo://app?vid=5266335c-fb51-4166-a0ab-8099a4c09e4b","ios":"levelo://app?vid=5266335c-fb51-4166-a0ab-8099a4c09e4b"},"vehicle_type_id":"4","last_reported":1730329744,"current_range_meters":38800,"station_id":"ce4bhr12rcd13ifvqhqg","pricing_plan_id":"cebpf4jnsgd1na2vs0mg"},{"bike_id":"9d3de218-82a9-40c0-95a9-e5e5d318bf6f","system_id":"levelo_inurba_marseille","lat":43.32335,"lon":5.40616,"is_reserved":false,"is_disabled":false,"rental_uris":{"android":"levelo://app?vid=9d3de218-82a9-40c0-95a9-e5e5d318bf6f","ios":"levelo://app?vid=9d3de218-82a9-40c0-95a9-e5e5d318bf6f"},"vehicle_type_id":"4","last_reported":1730329744,"current_range_meters":16800,"station_id":"ce4bhq92rcd13ifvqhjg","pricing_plan_id":"cebpf4jnsgd1na2vs0mg"},{"bike_id":"203cdc68-feff-483d-ac1a-996e1a200a5a","system_id":"levelo_inurba_marseille","lat":43.27918,"lon":5.39583,"is_reserved":false,"is_disabled":false,"rental_uris":{"android":"levelo://app?vid=203cdc68-feff-483d-ac1a-996e1a200a5a","ios":"levelo://app?vid=203cdc68-feff-483d-ac1a-996e1a200a5a"},"vehicle_type_id":"4","last_reported":1730329744,"current_range_meters":30000,"station_id":"ce4bhf92rcd13ifvqf40","pricing_plan_id":"cebpf4jnsgd1na2vs0mg"},{"bike_id":"3b06a1ab-afd6-4913-a500-290b0e2bcfed","system_id":"levelo_inurba_marseille","lat":43.24669,"lon":5.38159,"is_reserved":false,"is_disabled":false,"rental_uris":{"android":"levelo://app?vid=3b06a1ab-afd6-4913-a500-290b0e2bcfed","ios":"levelo://app?vid=3b06a1ab-afd6-4913-a500-290b0e2bcfed"},"vehicle_type_id":"4","last_reported":1730329744,"current_range_meters":36800,"station_id":"ce4bhih2rcd13ifvqfr0","pricing_plan_id":"cebpf4jnsgd1na2vs0mg"},{"bike_id":"5b702019-0a05-40ca-aff1-e906f5dd2558","system_id":"levelo_inurba_marseille","lat":43.28706,"lon":5.39981,"is_reserved":false,"is_disabled":false,"rental_uris":{"android":"levelo://app?vid=5b702019-0a05-40ca-aff1-e906f5dd2558","ios":"levelo://app?vid=5b702019-0a05-40ca-aff1-e906f5dd2558"},"vehicle_type_id":"4","last_reported":1730329744,"current_range_meters":6800,"station_id":"ce4bho92rcd13ifvqh3g","pricing_plan_id":"cebpf4jnsgd1na2vs0mg"},{"bike_id":"58b3746b-90ae-4d2c-9398-44c5c08b7bd9","system_id":"levelo_inurba_marseille","lat":43.31086,"lon":5.3836,"is_reserved":false,"is_disabled":false,"rental_uris":{"android":"levelo://app?vid=58b3746b-90ae-4d2c-9398-44c5c08b7bd9","ios":"levelo://app?vid=58b3746b-90ae-4d2c-9398-44c5c08b7bd9"},"vehicle_type_id":"4","last_reported":1730329744,"current_range_meters":38000,"station_id":"ce4bgv92rcd13ifvqcr0","pricing_plan_id":"cebpf4jnsgd1na2vs0mg"},{"bike_id":"38fe1595-b3ad-41cf-97a3-4830b7eb1cd5","system_id":"levelo_inurba_marseille","lat":43.29022,"lon":5.37529,"is_reserved":false,"is_disabled":false,"rental_uris":{"android":"levelo://app?vid=38fe1595-b3ad-41cf-97a3-4830b7eb1cd5","ios":"levelo://app?vid=38fe1595-b3ad-41cf-97a3-4830b7eb1cd5"},"vehicle_type_id":"4","last_reported":1730329744,"current_range_meters":38800,"station_id":"ce4bh692rcd13ifvqe90","pricing_plan_id":"cebpf4jnsgd1na2vs0mg"},{"bike_id":"69fccc5b-0a71-4491-b5c4-55091d0f4d42","system_id":"levelo_inurba_marseille","lat":43.30328,"lon":5.40443,"is_reserved":false,"is_disabled":false,"rental_uris":{"android":"levelo://app?vid=69fccc5b-0a71-4491-b5c4-55091d0f4d42","ios":"levelo://app?vid=69fccc5b-0a71-4491-b5c4-55091d0f4d42"},"vehicle_type_id":"4","last_reported":1730329744,"current_range_meters":19200,"station_id":"ce4bh012rcd13ifvqd10","pricing_plan_id":"cebpf4jnsgd1na2vs0mg"},{"bike_id":"d6424ceb-175c-4841-8b69-22034b31130e","system_id":"levelo_inurba_marseille","lat":43.29711,"lon":5.36614,"is_reserved":false,"is_disabled":false,"rental_uris":{"android":"levelo://app?vid=d6424ceb-175c-4841-8b69-22034b31130e","ios":"levelo://app?vid=d6424ceb-175c-4841-8b69-22034b31130e"},"vehicle_type_id":"4","last_reported":1730329744,"current_range_meters":38000,"station_id":"ce4bgn12rcd13ifvqbt0","pricing_plan_id":"cebpf4jnsgd1na2vs0mg"},{"bike_id":"53facf4a-a53f-4009-81d5-6390ac637137","system_id":"levelo_inurba_marseille","lat":43.32492,"lon":5.36563,"is_reserved":false,"is_disabled":false,"rental_uris":{"android":"levelo://app?vid=53facf4a-a53f-4009-81d5-6390ac637137","ios":"levelo://app?vid=53facf4a-a53f-4009-81d5-6390ac637137"},"vehicle_type_id":"4","last_reported":1730329744,"current_range_meters":6000,"station_id":"ce4bhs12rcd13ifvqhvg","pricing_plan_id":"cebpf4jnsgd1na2vs0mg"},{"bike_id":"930c0fd2-fbf8-4b1a-b0eb-6efbbfd0c973","system_id":"levelo_inurba_marseille","lat":43.30424,"lon":5.3976,"is_reserved":false,"is_disabled":false,"rental_uris":{"android":"levelo://app?vid=930c0fd2-fbf8-4b1a-b0eb-6efbbfd0c973","ios":"levelo://app?vid=930c0fd2-fbf8-4b1a-b0eb-6efbbfd0c973"},"vehicle_type_id":"4","last_reported":1730329744,"current_range_meters":38800,"station_id":"ce4bh092rcd13ifvqd20","pricing_plan_id":"cebpf4jnsgd1na2vs0mg"},{"bike_id":"2f986fee-bfda-40ad-85c3-d385265561cf","system_id":"levelo_inurba_marseille","lat":43.24175,"lon":5.39725,"is_reserved":false,"is_disabled":false,"rental_uris":{"android":"levelo://app?vid=2f986fee-bfda-40ad-85c3-d385265561cf","ios":"levelo://app?vid=2f986fee-bfda-40ad-85c3-d385265561cf"},"vehicle_type_id":"4","last_reported":1730329744,"current_range_meters":12800,"station_id":"ce4bhn12rcd13ifvqgpg","pricing_plan_id":"cebpf4jnsgd1na2vs0mg"},{"bike_id":"4d30ee15-c750-4b59-8c67-b3223b5622fa","system_id":"levelo_inurba_marseille","lat":43.27616,"lon":5.361,"is_reserved":false,"is_disabled":false,"rental_uris":{"android":"levelo://app?vid=4d30ee15-c750-4b59-8c67-b3223b5622fa","ios":"levelo://app?vid=4d30ee15-c750-4b59-8c67-b3223b5622fa"},"vehicle_type_id":"4","last_reported":1730329744,"current_range_meters":30800,"station_id":"ce4bgj92rcd13ifvqbe0","pricing_plan_id":"cebpf4jnsgd1na2vs0mg"},{"bike_id":"b24d43e6-50f8-409f-a211-1db46b7b8855","system_id":"levelo_inurba_marseille","lat":43.2841,"lon":5.37513,"is_reserved":false,"is_disabled":false,"rental_uris":{"android":"levelo://app?vid=b24d43e6-50f8-409f-a211-1db46b7b8855","ios":"levelo://app?vid=b24d43e6-50f8-409f-a211-1db46b7b8855"},"vehicle_type_id":"4","last_reported":1730329744,"current_range_meters":38800,"station_id":"ce4bh412rcd13ifvqds0","pricing_plan_id":"cebpf4jnsgd1na2vs0mg"},{"bike_id":"eb9e4322-aa4e-4cfa-827f-8a5eb09fed2d","system_id":"levelo_inurba_marseille","lat":43.30884,"lon":5.39636,"is_reserved":false,"is_disabled":false,"rental_uris":{"android":"levelo://app?vid=eb9e4322-aa4e-4cfa-827f-8a5eb09fed2d","ios":"levelo://app?vid=eb9e4322-aa4e-4cfa-827f-8a5eb09fed2d"},"vehicle_type_id":"4","last_reported":1730329744,"current_range_meters":38800,"station_id":"ce4bh012rcd13ifvqcv0","pricing_plan_id":"cebpf4jnsgd1na2vs0mg"},{"bike_id":"ecf118ca-4185-452f-9020-81d1f189f592","system_id":"levelo_inurba_marseille","lat":43.3079,"lon":5.37659,"is_reserved":false,"is_disabled":false,"rental_uris":{"android":"levelo://app?vid=ecf118ca-4185-452f-9020-81d1f189f592","ios":"levelo://app?vid=ecf118ca-4185-452f-9020-81d1f189f592"},"vehicle_type_id":"4","last_reported":1730329744,"current_range_meters":27200,"station_id":"ce4bgv92rcd13ifvqcq0","pricing_plan_id":"cebpf4jnsgd1na2vs0mg"},{"bike_id":"4fecaade-b9af-448c-bc8e-376cb5d2b86c","system_id":"levelo_inurba_marseille","lat":43.28612,"lon":5.37063,"is_reserved":false,"is_disabled":false,"rental_uris":{"android":"levelo://app?vid=4fecaade-b9af-448c-bc8e-376cb5d2b86c","ios":"levelo://app?vid=4fecaade-b9af-448c-bc8e-376cb5d2b86c"},"vehicle_type_id":"4","last_reported":1730329744,"current_range_meters":22400,"station_id":"ce4bht12rcd13ifvqi60","pricing_plan_id":"cebpf4jnsgd1na2vs0mg"},{"bike_id":"1644cea3-8151-499a-a401-13d145426c09","system_id":"levelo_inurba_marseille","lat":43.28081,"lon":5.39653,"is_reserved":false,"is_disabled":false,"rental_uris":{"android":"levelo://app?vid=1644cea3-8151-499a-a401-13d145426c09","ios":"levelo://app?vid=1644cea3-8151-499a-a401-13d145426c09"},"vehicle_type_id":"4","last_reported":1730329744,"current_range_meters":37600,"station_id":"ce4bho12rcd13ifvqh2g","pricing_plan_id":"cebpf4jnsgd1na2vs0mg"},{"bike_id":"2f95536c-fa73-4e5e-b17a-53dc7681765c","system_id":"levelo_inurba_marseille","lat":43.30808,"lon":5.38159,"is_reserved":false,"is_disabled":false,"rental_uris":{"android":"levelo://app?vid=2f95536c-fa73-4e5e-b17a-53dc7681765c","ios":"levelo://app?vid=2f95536c-fa73-4e5e-b17a-53dc7681765c"},"vehicle_type_id":"4","last_reported":1730329744,"current_range_meters":25600,"station_id":"ce4bgt12rcd13ifvqce0","pricing_plan_id":"cebpf4jnsgd1na2vs0mg"},{"bike_id":"302f655a-a9f9-421d-9b82-ff1a656089f7","system_id":"levelo_inurba_marseille","lat":43.30305,"lon":5.39215,"is_reserved":false,"is_disabled":false,"rental_uris":{"android":"levelo://app?vid=302f655a-a9f9-421d-9b82-ff1a656089f7","ios":"levelo://app?vid=302f655a-a9f9-421d-9b82-ff1a656089f7"},"vehicle_type_id":"4","last_reported":1730329744,"current_range_meters":36400,"station_id":"ce4bgkh2rcd13ifvqbk0","pricing_plan_id":"cebpf4jnsgd1na2vs0mg"},{"bike_id":"724127e6-f34d-4f69-9814-da3cf4e64fd0","system_id":"levelo_inurba_marseille","lat":43.26057,"lon":5.39395,"is_reserved":false,"is_disabled":false,"rental_uris":{"android":"levelo://app?vid=724127e6-f34d-4f69-9814-da3cf4e64fd0","ios":"levelo://app?vid=724127e6-f34d-4f69-9814-da3cf4e64fd0"},"vehicle_type_id":"4","last_reported":1730329744,"current_range_meters":34000,"station_id":"ce4bhh92rcd13ifvqfj0","pricing_plan_id":"cebpf4jnsgd1na2vs0mg"},{"bike_id":"58588f98-d979-4a89-a14d-d0d4a329cc8e","system_id":"levelo_inurba_marseille","lat":43.26804,"lon":5.40262,"is_reserved":false,"is_disabled":false,"rental_uris":{"android":"levelo://app?vid=58588f98-d979-4a89-a14d-d0d4a329cc8e","ios":"levelo://app?vid=58588f98-d979-4a89-a14d-d0d4a329cc8e"},"vehicle_type_id":"4","last_reported":1730329744,"current_range_meters":27600,"station_id":"ce501612rcd8frsf0b60","pricing_plan_id":"cebpf4jnsgd1na2vs0mg"},{"bike_id":"d5945fc4-b317-4b9b-ad9e-2fa475205998","system_id":"levelo_inurba_marseille","lat":43.30156,"lon":5.38085,"is_reserved":false,"is_disabled":false,"rental_uris":{"android":"levelo://app?vid=d5945fc4-b317-4b9b-ad9e-2fa475205998","ios":"levelo://app?vid=d5945fc4-b317-4b9b-ad9e-2fa475205998"},"vehicle_type_id":"4","last_reported":1730329744,"current_range_meters":21600,"station_id":"ce4bgjp2rcd13ifvqbh0","pricing_plan_id":"cebpf4jnsgd1na2vs0mg"},{"bike_id":"69299274-583a-44de-a374-590a0224eed1","system_id":"levelo_inurba_marseille","lat":43.29261,"lon":5.40914,"is_reserved":false,"is_disabled":false,"rental_uris":{"android":"levelo://app?vid=69299274-583a-44de-a374-590a0224eed1","ios":"levelo://app?vid=69299274-583a-44de-a374-590a0224eed1"},"vehicle_type_id":"4","last_reported":1730329744,"current_range_meters":27600,"station_id":"ce4bh192rcd13ifvqdc0","pricing_plan_id":"cebpf4jnsgd1na2vs0mg"},{"bike_id":"317deb22-0138-43d7-a8fc-79593c5ac6fc","system_id":"levelo_inurba_marseille","lat":43.28736,"lon":5.3608,"is_reserved":false,"is_disabled":false,"rental_uris":{"android":"levelo://app?vid=317deb22-0138-43d7-a8fc-79593c5ac6fc","ios":"levelo://app?vid=317deb22-0138-43d7-a8fc-79593c5ac6fc"},"vehicle_type_id":"4","last_reported":1730329744,"current_range_meters":38800,"station_id":"cki0cbj6b192h4jlfktg","pricing_plan_id":"cebpf4jnsgd1na2vs0mg"},{"bike_id":"5ff74640-5d39-40f8-808a-e5695df59fd4","system_id":"levelo_inurba_marseille","lat":43.27194,"lon":5.41019,"is_reserved":false,"is_disabled":false,"rental_uris":{"android":"levelo://app?vid=5ff74640-5d39-40f8-808a-e5695df59fd4","ios":"levelo://app?vid=5ff74640-5d39-40f8-808a-e5695df59fd4"},"vehicle_type_id":"4","last_reported":1730329744,"current_range_meters":11600,"station_id":"ce4bhl12rcd13ifvqgf0","pricing_plan_id":"cebpf4jnsgd1na2vs0mg"},{"bike_id":"d220646d-f0f3-4c25-8329-1756840482b2","system_id":"levelo_inurba_marseille","lat":43.30237,"lon":5.40059,"is_reserved":false,"is_disabled":false,"rental_uris":{"android":"levelo://app?vid=d220646d-f0f3-4c25-8329-1756840482b2","ios":"levelo://app?vid=d220646d-f0f3-4c25-8329-1756840482b2"},"vehicle_type_id":"4","last_reported":1730329744,"current_range_meters":18000,"station_id":"ce4bgvh2rcd13ifvqcs0","pricing_plan_id":"cebpf4jnsgd1na2vs0mg"},{"bike_id":"d4829a7e-16fe-4e76-9a47-d409e1283694","system_id":"levelo_inurba_marseille","lat":43.25718,"lon":5.4111,"is_reserved":false,"is_disabled":false,"rental_uris":{"android":"levelo://app?vid=d4829a7e-16fe-4e76-9a47-d409e1283694","ios":"levelo://app?vid=d4829a7e-16fe-4e76-9a47-d409e1283694"},"vehicle_type_id":"4","last_reported":1730329744,"current_range_meters":23200,"station_id":"ce4bhkp2rcd13ifvqgd0","pricing_plan_id":"cebpf4jnsgd1na2vs0mg"},{"bike_id":"b9ef87cb-7521-4035-8177-31a394342a45","system_id":"levelo_inurba_marseille","lat":43.29133,"lon":5.3669,"is_reserved":false,"is_disabled":false,"rental_uris":{"android":"levelo://app?vid=b9ef87cb-7521-4035-8177-31a394342a45","ios":"levelo://app?vid=b9ef87cb-7521-4035-8177-31a394342a45"},"vehicle_type_id":"4","last_reported":1730329744,"current_range_meters":28400,"station_id":"","pricing_plan_id":"cebpf4jnsgd1na2vs0mg"},{"bike_id":"fd54f319-ba11-4beb-af32-4ac88b813a76","system_id":"levelo_inurba_marseille","lat":43.28082,"lon":5.39657,"is_reserved":false,"is_disabled":false,"rental_uris":{"android":"levelo://app?vid=fd54f319-ba11-4beb-af32-4ac88b813a76","ios":"levelo://app?vid=fd54f319-ba11-4beb-af32-4ac88b813a76"},"vehicle_type_id":"4","last_reported":1730329744,"current_range_meters":22800,"station_id":"ce4bho12rcd13ifvqh2g","pricing_plan_id":"cebpf4jnsgd1na2vs0mg"},{"bike_id":"9f94faff-1ab4-4f0a-8d8f-112d138482f1","system_id":"levelo_inurba_marseille","lat":43.25113,"lon":5.40313,"is_reserved":false,"is_disabled":false,"rental_uris":{"android":"levelo://app?vid=9f94faff-1ab4-4f0a-8d8f-112d138482f1","ios":"levelo://app?vid=9f94faff-1ab4-4f0a-8d8f-112d138482f1"},"vehicle_type_id":"4","last_reported":1730329744,"current_range_meters":30800,"station_id":"ce4bhlh2rcd13ifvqgig","pricing_plan_id":"cebpf4jnsgd1na2vs0mg"},{"bike_id":"83f99a12-7cf6-452b-9de2-694a5fd9526b","system_id":"levelo_inurba_marseille","lat":43.33724,"lon":5.39184,"is_reserved":false,"is_disabled":false,"rental_uris":{"android":"levelo://app?vid=83f99a12-7cf6-452b-9de2-694a5fd9526b","ios":"levelo://app?vid=83f99a12-7cf6-452b-9de2-694a5fd9526b"},"vehicle_type_id":"4","last_reported":1730329744,"current_range_meters":39200,"station_id":"ce4bhr92rcd13ifvqhsg","pricing_plan_id":"cebpf4jnsgd1na2vs0mg"},{"bike_id":"21db50c4-db0a-4db9-9d44-cdcd4bedb78f","system_id":"levelo_inurba_marseille","lat":43.3064,"lon":5.40072,"is_reserved":false,"is_disabled":false,"rental_uris":{"android":"levelo://app?vid=21db50c4-db0a-4db9-9d44-cdcd4bedb78f","ios":"levelo://app?vid=21db50c4-db0a-4db9-9d44-cdcd4bedb78f"},"vehicle_type_id":"4","last_reported":1730329744,"current_range_meters":10800,"station_id":"ce4bh112rcd13ifvqda0","pricing_plan_id":"cebpf4jnsgd1na2vs0mg"},{"bike_id":"5d4afe98-f4cf-408e-8687-32da8aea52c4","system_id":"levelo_inurba_marseille","lat":43.28582,"lon":5.39487,"is_reserved":false,"is_disabled":false,"rental_uris":{"android":"levelo://app?vid=5d4afe98-f4cf-408e-8687-32da8aea52c4","ios":"levelo://app?vid=5d4afe98-f4cf-408e-8687-32da8aea52c4"},"vehicle_type_id":"4","last_reported":1730329744,"current_range_meters":22000,"station_id":"ce4bh292rcd13ifvqdg0","pricing_plan_id":"cebpf4jnsgd1na2vs0mg"},{"bike_id":"62e9561e-ad05-4f0e-b75e-5d2e36048b40","system_id":"levelo_inurba_marseille","lat":43.31708,"lon":5.437,"is_reserved":false,"is_disabled":false,"rental_uris":{"android":"levelo://app?vid=62e9561e-ad05-4f0e-b75e-5d2e36048b40","ios":"levelo://app?vid=62e9561e-ad05-4f0e-b75e-5d2e36048b40"},"vehicle_type_id":"4","last_reported":1730329744,"current_range_meters":39200,"station_id":"ce4bhp92rcd13ifvqhcg","pricing_plan_id":"cebpf4jnsgd1na2vs0mg"},{"bike_id":"a89c13b3-7367-4140-bb29-c6016f983bab","system_id":"levelo_inurba_marseille","lat":43.24657,"lon":5.38895,"is_reserved":false,"is_disabled":false,"rental_uris":{"android":"levelo://app?vid=a89c13b3-7367-4140-bb29-c6016f983bab","ios":"levelo://app?vid=a89c13b3-7367-4140-bb29-c6016f983bab"},"vehicle_type_id":"4","last_reported":1730329744,"current_range_meters":8000,"station_id":"ce4bhg12rcd13ifvqf60","pricing_plan_id":"cebpf4jnsgd1na2vs0mg"},{"bike_id":"cc770172-5530-45f9-a386-9e6a2a5d9c32","system_id":"levelo_inurba_marseille","lat":43.26502,"lon":5.39532,"is_reserved":false,"is_disabled":false,"rental_uris":{"android":"levelo://app?vid=cc770172-5530-45f9-a386-9e6a2a5d9c32","ios":"levelo://app?vid=cc770172-5530-45f9-a386-9e6a2a5d9c32"},"vehicle_type_id":"4","last_reported":1730329744,"current_range_meters":39200,"station_id":"ce4bhi12rcd13ifvqfq0","pricing_plan_id":"cebpf4jnsgd1na2vs0mg"},{"bike_id":"c25c2169-3dc8-41aa-aaad-528d911ae769","system_id":"levelo_inurba_marseille","lat":43.28692,"lon":5.37407,"is_reserved":false,"is_disabled":false,"rental_uris":{"android":"levelo://app?vid=c25c2169-3dc8-41aa-aaad-528d911ae769","ios":"levelo://app?vid=c25c2169-3dc8-41aa-aaad-528d911ae769"},"vehicle_type_id":"4","last_reported":1730329744,"current_range_meters":27200,"station_id":"ce4bh3p2rcd13ifvqdq0","pricing_plan_id":"cebpf4jnsgd1na2vs0mg"},{"bike_id":"bdae131c-c50c-49b5-b827-ac67624d49a1","system_id":"levelo_inurba_marseille","lat":43.273112,"lon":5.390722,"is_reserved":false,"is_disabled":false,"rental_uris":{"android":"levelo://app?vid=bdae131c-c50c-49b5-b827-ac67624d49a1","ios":"levelo://app?vid=bdae131c-c50c-49b5-b827-ac67624d49a1"},"vehicle_type_id":"4","last_reported":1730329744,"current_range_meters":39200,"station_id":"ce4bhgp2rcd13ifvqfe0","pricing_plan_id":"cebpf4jnsgd1na2vs0mg"},{"bike_id":"5e3e5e15-a26a-4370-a4d7-22b0461d60e4","system_id":"levelo_inurba_marseille","lat":43.31996,"lon":5.38148,"is_reserved":false,"is_disabled":false,"rental_uris":{"android":"levelo://app?vid=5e3e5e15-a26a-4370-a4d7-22b0461d60e4","ios":"levelo://app?vid=5e3e5e15-a26a-4370-a4d7-22b0461d60e4"},"vehicle_type_id":"4","last_reported":1730329744,"current_range_meters":19200,"station_id":"ce4bhr12rcd13ifvqhpg","pricing_plan_id":"cebpf4jnsgd1na2vs0mg"},{"bike_id":"d2e1d59f-a8a5-4e79-a74d-9d69f2a380aa","system_id":"levelo_inurba_marseille","lat":43.25585,"lon":5.38238,"is_reserved":false,"is_disabled":false,"rental_uris":{"android":"levelo://app?vid=d2e1d59f-a8a5-4e79-a74d-9d69f2a380aa","ios":"levelo://app?vid=d2e1d59f-a8a5-4e79-a74d-9d69f2a380aa"},"vehicle_type_id":"4","last_reported":1730329744,"current_range_meters":39200,"station_id":"ce4bhih2rcd13ifvqfs0","pricing_plan_id":"cebpf4jnsgd1na2vs0mg"},{"bike_id":"3271d7f6-0f65-475f-8b65-c5efde785335","system_id":"levelo_inurba_marseille","lat":43.23193,"lon":5.35555,"is_reserved":false,"is_disabled":false,"rental_uris":{"android":"levelo://app?vid=3271d7f6-0f65-475f-8b65-c5efde785335","ios":"levelo://app?vid=3271d7f6-0f65-475f-8b65-c5efde785335"},"vehicle_type_id":"4","last_reported":1730329744,"current_range_meters":37600,"station_id":"ce4bhu92rcd13ifvqi70","pricing_plan_id":"cebpf4jnsgd1na2vs0mg"},{"bike_id":"477bd4a0-15ea-4fb7-8fa3-544983b9d7ca","system_id":"levelo_inurba_marseille","lat":43.32331,"lon":5.40619,"is_reserved":false,"is_disabled":false,"rental_uris":{"android":"levelo://app?vid=477bd4a0-15ea-4fb7-8fa3-544983b9d7ca","ios":"levelo://app?vid=477bd4a0-15ea-4fb7-8fa3-544983b9d7ca"},"vehicle_type_id":"4","last_reported":1730329744,"current_range_meters":30400,"station_id":"ce4bhq92rcd13ifvqhjg","pricing_plan_id":"cebpf4jnsgd1na2vs0mg"},{"bike_id":"653c425c-e6c0-4b47-bce6-7f81508e12ee","system_id":"levelo_inurba_marseille","lat":43.23963,"lon":5.36624,"is_reserved":false,"is_disabled":false,"rental_uris":{"android":"levelo://app?vid=653c425c-e6c0-4b47-bce6-7f81508e12ee","ios":"levelo://app?vid=653c425c-e6c0-4b47-bce6-7f81508e12ee"},"vehicle_type_id":"4","last_reported":1730329744,"current_range_meters":24000,"station_id":"ce4bhi12rcd13ifvqfp0","pricing_plan_id":"cebpf4jnsgd1na2vs0mg"},{"bike_id":"f64e5199-79c8-4f92-ab38-6a4790a63bf9","system_id":"levelo_inurba_marseille","lat":43.25495,"lon":5.37657,"is_reserved":false,"is_disabled":false,"rental_uris":{"android":"levelo://app?vid=f64e5199-79c8-4f92-ab38-6a4790a63bf9","ios":"levelo://app?vid=f64e5199-79c8-4f92-ab38-6a4790a63bf9"},"vehicle_type_id":"4","last_reported":1730329744,"current_range_meters":30400,"station_id":"ce4bhm12rcd13ifvqgkg","pricing_plan_id":"cebpf4jnsgd1na2vs0mg"},{"bike_id":"f99547b6-e0b7-4a86-b4bb-f600f8ca5cb2","system_id":"levelo_inurba_marseille","lat":43.24171,"lon":5.36399,"is_reserved":false,"is_disabled":false,"rental_uris":{"android":"levelo://app?vid=f99547b6-e0b7-4a86-b4bb-f600f8ca5cb2","ios":"levelo://app?vid=f99547b6-e0b7-4a86-b4bb-f600f8ca5cb2"},"vehicle_type_id":"4","last_reported":1730329744,"current_range_meters":20800,"station_id":"cpo36qri1sfpv3e86is0","pricing_plan_id":"cebpf4jnsgd1na2vs0mg"},{"bike_id":"e102b7c5-a4ed-4645-b11f-4d05e39a0ce4","system_id":"levelo_inurba_marseille","lat":43.32367,"lon":5.38884,"is_reserved":false,"is_disabled":false,"rental_uris":{"android":"levelo://app?vid=e102b7c5-a4ed-4645-b11f-4d05e39a0ce4","ios":"levelo://app?vid=e102b7c5-a4ed-4645-b11f-4d05e39a0ce4"},"vehicle_type_id":"4","last_reported":1730329744,"current_range_meters":30000,"station_id":"ce4bhqp2rcd13ifvqhog","pricing_plan_id":"cebpf4jnsgd1na2vs0mg"},{"bike_id":"06ee1b7b-81ff-4080-9458-ff5f60f44371","system_id":"levelo_inurba_marseille","lat":43.30777,"lon":5.37652,"is_reserved":false,"is_disabled":false,"rental_uris":{"android":"levelo://app?vid=06ee1b7b-81ff-4080-9458-ff5f60f44371","ios":"levelo://app?vid=06ee1b7b-81ff-4080-9458-ff5f60f44371"},"vehicle_type_id":"4","last_reported":1730329744,"current_range_meters":22800,"station_id":"ce4bgv92rcd13ifvqcq0","pricing_plan_id":"cebpf4jnsgd1na2vs0mg"},{"bike_id":"b947a9c5-a2e1-41d2-bf12-0fd6d6d37b0b","system_id":"levelo_inurba_marseille","lat":43.24179,"lon":5.3972,"is_reserved":false,"is_disabled":false,"rental_uris":{"android":"levelo://app?vid=b947a9c5-a2e1-41d2-bf12-0fd6d6d37b0b","ios":"levelo://app?vid=b947a9c5-a2e1-41d2-bf12-0fd6d6d37b0b"},"vehicle_type_id":"4","last_reported":1730329744,"current_range_meters":9600,"station_id":"ce4bhn12rcd13ifvqgpg","pricing_plan_id":"cebpf4jnsgd1na2vs0mg"},{"bike_id":"16fbc739-344e-44c8-a2dd-1303bdf6f153","system_id":"levelo_inurba_marseille","lat":43.28617,"lon":5.35543,"is_reserved":false,"is_disabled":false,"rental_uris":{"android":"levelo://app?vid=16fbc739-344e-44c8-a2dd-1303bdf6f153","ios":"levelo://app?vid=16fbc739-344e-44c8-a2dd-1303bdf6f153"},"vehicle_type_id":"4","last_reported":1730329744,"current_range_meters":15200,"station_id":"","pricing_plan_id":"cebpf4jnsgd1na2vs0mg"},{"bike_id":"9184f106-990f-439b-ab9f-d6ad1438786c","system_id":"levelo_inurba_marseille","lat":43.25082,"lon":5.39516,"is_reserved":false,"is_disabled":false,"rental_uris":{"android":"levelo://app?vid=9184f106-990f-439b-ab9f-d6ad1438786c","ios":"levelo://app?vid=9184f106-990f-439b-ab9f-d6ad1438786c"},"vehicle_type_id":"4","last_reported":1730329744,"current_range_meters":30000,"station_id":"ce4bhm12rcd13ifvqgkg","pricing_plan_id":"cebpf4jnsgd1na2vs0mg"},{"bike_id":"afc8a59e-718c-432c-b226-d6be0903e5fb","system_id":"levelo_inurba_marseille","lat":43.24385,"lon":5.37064,"is_reserved":false,"is_disabled":false,"rental_uris":{"android":"levelo://app?vid=afc8a59e-718c-432c-b226-d6be0903e5fb","ios":"levelo://app?vid=afc8a59e-718c-432c-b226-d6be0903e5fb"},"vehicle_type_id":"4","last_reported":1730329744,"current_range_meters":30400,"station_id":"ce4bhhh2rcd13ifvqfk0","pricing_plan_id":"cebpf4jnsgd1na2vs0mg"},{"bike_id":"7d17fd15-22e3-4d92-a512-a8f0e728950d","system_id":"levelo_inurba_marseille","lat":43.27944,"lon":5.41048,"is_reserved":false,"is_disabled":false,"rental_uris":{"android":"levelo://app?vid=7d17fd15-22e3-4d92-a512-a8f0e728950d","ios":"levelo://app?vid=7d17fd15-22e3-4d92-a512-a8f0e728950d"},"vehicle_type_id":"4","last_reported":1730329744,"current_range_meters":24800,"station_id":"ce4bhnp2rcd13ifvqh0g","pricing_plan_id":"cebpf4jnsgd1na2vs0mg"},{"bike_id":"72e37474-1bc8-4568-aec8-ce5464e6b828","system_id":"levelo_inurba_marseille","lat":43.23194,"lon":5.35552,"is_reserved":false,"is_disabled":false,"rental_uris":{"android":"levelo://app?vid=72e37474-1bc8-4568-aec8-ce5464e6b828","ios":"levelo://app?vid=72e37474-1bc8-4568-aec8-ce5464e6b828"},"vehicle_type_id":"4","last_reported":1730329744,"current_range_meters":27200,"station_id":"ce4bhu92rcd13ifvqi70","pricing_plan_id":"cebpf4jnsgd1na2vs0mg"},{"bike_id":"32372824-4298-4cd1-a081-9142d756c592","system_id":"levelo_inurba_marseille","lat":43.30808,"lon":5.37658,"is_reserved":false,"is_disabled":false,"rental_uris":{"android":"levelo://app?vid=32372824-4298-4cd1-a081-9142d756c592","ios":"levelo://app?vid=32372824-4298-4cd1-a081-9142d756c592"},"vehicle_type_id":"4","last_reported":1730329744,"current_range_meters":32800,"station_id":"ce4bgv92rcd13ifvqcq0","pricing_plan_id":"cebpf4jnsgd1na2vs0mg"},{"bike_id":"de1d4380-d1ce-4cfc-a68e-1c9a3c15150f","system_id":"levelo_inurba_marseille","lat":43.27922,"lon":5.39581,"is_reserved":false,"is_disabled":false,"rental_uris":{"android":"levelo://app?vid=de1d4380-d1ce-4cfc-a68e-1c9a3c15150f","ios":"levelo://app?vid=de1d4380-d1ce-4cfc-a68e-1c9a3c15150f"},"vehicle_type_id":"4","last_reported":1730329744,"current_range_meters":37600,"station_id":"ce4bhf92rcd13ifvqf40","pricing_plan_id":"cebpf4jnsgd1na2vs0mg"},{"bike_id":"af436a42-9c58-4d3f-ad05-4b1a6c010963","system_id":"levelo_inurba_marseille","lat":43.27174,"lon":5.40993,"is_reserved":false,"is_disabled":false,"rental_uris":{"android":"levelo://app?vid=af436a42-9c58-4d3f-ad05-4b1a6c010963","ios":"levelo://app?vid=af436a42-9c58-4d3f-ad05-4b1a6c010963"},"vehicle_type_id":"4","last_reported":1730329744,"current_range_meters":4000,"station_id":"ce4bhl12rcd13ifvqgf0","pricing_plan_id":"cebpf4jnsgd1na2vs0mg"},{"bike_id":"52b6613e-af40-4869-97a3-63f1477fb874","system_id":"levelo_inurba_marseille","lat":43.29791,"lon":5.3934,"is_reserved":false,"is_disabled":false,"rental_uris":{"android":"levelo://app?vid=52b6613e-af40-4869-97a3-63f1477fb874","ios":"levelo://app?vid=52b6613e-af40-4869-97a3-63f1477fb874"},"vehicle_type_id":"4","last_reported":1730329744,"current_range_meters":28000,"station_id":"chh1huq6cuj3fo74tm60","pricing_plan_id":"cebpf4jnsgd1na2vs0mg"},{"bike_id":"53673a6c-f64a-44cf-8b78-e0d150ca28de","system_id":"levelo_inurba_marseille","lat":43.29715,"lon":5.36615,"is_reserved":false,"is_disabled":false,"rental_uris":{"android":"levelo://app?vid=53673a6c-f64a-44cf-8b78-e0d150ca28de","ios":"levelo://app?vid=53673a6c-f64a-44cf-8b78-e0d150ca28de"},"vehicle_type_id":"4","last_reported":1730329744,"current_range_meters":36400,"station_id":"ce4bgn12rcd13ifvqbt0","pricing_plan_id":"cebpf4jnsgd1na2vs0mg"},{"bike_id":"052c3e60-3ce1-4a7d-bfa5-c47181b928f3","system_id":"levelo_inurba_marseille","lat":43.30931,"lon":5.40144,"is_reserved":false,"is_disabled":false,"rental_uris":{"android":"levelo://app?vid=052c3e60-3ce1-4a7d-bfa5-c47181b928f3","ios":"levelo://app?vid=052c3e60-3ce1-4a7d-bfa5-c47181b928f3"},"vehicle_type_id":"4","last_reported":1730329744,"current_range_meters":38800,"station_id":"ce4bgvp2rcd13ifvqct0","pricing_plan_id":"cebpf4jnsgd1na2vs0mg"},{"bike_id":"88dc58c8-a632-450d-98e1-c0f672ee9cc5","system_id":"levelo_inurba_marseille","lat":43.24387,"lon":5.37053,"is_reserved":false,"is_disabled":false,"rental_uris":{"android":"levelo://app?vid=88dc58c8-a632-450d-98e1-c0f672ee9cc5","ios":"levelo://app?vid=88dc58c8-a632-450d-98e1-c0f672ee9cc5"},"vehicle_type_id":"4","last_reported":1730329744,"current_range_meters":30000,"station_id":"ce4bhhh2rcd13ifvqfk0","pricing_plan_id":"cebpf4jnsgd1na2vs0mg"},{"bike_id":"54d2e7c1-0997-4e85-b497-01eca9eb4f00","system_id":"levelo_inurba_marseille","lat":43.23195,"lon":5.35551,"is_reserved":false,"is_disabled":false,"rental_uris":{"android":"levelo://app?vid=54d2e7c1-0997-4e85-b497-01eca9eb4f00","ios":"levelo://app?vid=54d2e7c1-0997-4e85-b497-01eca9eb4f00"},"vehicle_type_id":"4","last_reported":1730329744,"current_range_meters":12400,"station_id":"ce4bhu92rcd13ifvqi70","pricing_plan_id":"cebpf4jnsgd1na2vs0mg"},{"bike_id":"03a568f6-414d-4d28-9207-f96676ac1d4f","system_id":"levelo_inurba_marseille","lat":43.24181,"lon":5.39726,"is_reserved":false,"is_disabled":false,"rental_uris":{"android":"levelo://app?vid=03a568f6-414d-4d28-9207-f96676ac1d4f","ios":"levelo://app?vid=03a568f6-414d-4d28-9207-f96676ac1d4f"},"vehicle_type_id":"4","last_reported":1730329744,"current_range_meters":38800,"station_id":"ce4bhn12rcd13ifvqgpg","pricing_plan_id":"cebpf4jnsgd1na2vs0mg"},{"bike_id":"55fc5511-69f4-42fb-8124-dad70ce6f573","system_id":"levelo_inurba_marseille","lat":43.28433,"lon":5.39188,"is_reserved":false,"is_disabled":false,"rental_uris":{"android":"levelo://app?vid=55fc5511-69f4-42fb-8124-dad70ce6f573","ios":"levelo://app?vid=55fc5511-69f4-42fb-8124-dad70ce6f573"},"vehicle_type_id":"4","last_reported":1730329744,"current_range_meters":34000,"station_id":"ce4bhoh2rcd13ifvqh5g","pricing_plan_id":"cebpf4jnsgd1na2vs0mg"},{"bike_id":"c843d4b3-e307-4a3f-9b6d-4ef36e881079","system_id":"levelo_inurba_marseille","lat":43.24069,"lon":5.37762,"is_reserved":false,"is_disabled":false,"rental_uris":{"android":"levelo://app?vid=c843d4b3-e307-4a3f-9b6d-4ef36e881079","ios":"levelo://app?vid=c843d4b3-e307-4a3f-9b6d-4ef36e881079"},"vehicle_type_id":"4","last_reported":1730329744,"current_range_meters":30000,"station_id":"ce4bhnp2rcd13ifvqgvg","pricing_plan_id":"cebpf4jnsgd1na2vs0mg"},{"bike_id":"43c4e39f-d5c3-47bd-8a62-b644789f4d09","system_id":"levelo_inurba_marseille","lat":43.288849,"lon":5.384348,"is_reserved":false,"is_disabled":false,"rental_uris":{"android":"levelo://app?vid=43c4e39f-d5c3-47bd-8a62-b644789f4d09","ios":"levelo://app?vid=43c4e39f-d5c3-47bd-8a62-b644789f4d09"},"vehicle_type_id":"4","last_reported":1730329744,"current_range_meters":19200,"station_id":"ce4bho12rcd13ifvqh2g","pricing_plan_id":"cebpf4jnsgd1na2vs0mg"},{"bike_id":"ea9d42a3-8d88-4632-a9d2-19ca043c436c","system_id":"levelo_inurba_marseille","lat":43.31356,"lon":5.36702,"is_reserved":false,"is_disabled":false,"rental_uris":{"android":"levelo://app?vid=ea9d42a3-8d88-4632-a9d2-19ca043c436c","ios":"levelo://app?vid=ea9d42a3-8d88-4632-a9d2-19ca043c436c"},"vehicle_type_id":"4","last_reported":1730329744,"current_range_meters":38000,"station_id":"ce4bgr92rcd13ifvqc6g","pricing_plan_id":"cebpf4jnsgd1na2vs0mg"},{"bike_id":"a8cc5a5c-836a-4f36-be3f-d4baa7215256","system_id":"levelo_inurba_marseille","lat":43.30774,"lon":5.37654,"is_reserved":false,"is_disabled":false,"rental_uris":{"android":"levelo://app?vid=a8cc5a5c-836a-4f36-be3f-d4baa7215256","ios":"levelo://app?vid=a8cc5a5c-836a-4f36-be3f-d4baa7215256"},"vehicle_type_id":"4","last_reported":1730329744,"current_range_meters":32000,"station_id":"ce4bgv92rcd13ifvqcq0","pricing_plan_id":"cebpf4jnsgd1na2vs0mg"},{"bike_id":"6c74ffca-b3e0-4284-b36a-ebb6730d7fdf","system_id":"levelo_inurba_marseille","lat":43.29277,"lon":5.40112,"is_reserved":false,"is_disabled":false,"rental_uris":{"android":"levelo://app?vid=6c74ffca-b3e0-4284-b36a-ebb6730d7fdf","ios":"levelo://app?vid=6c74ffca-b3e0-4284-b36a-ebb6730d7fdf"},"vehicle_type_id":"4","last_reported":1730329744,"current_range_meters":31200,"station_id":"ce4bh312rcd13ifvqdk0","pricing_plan_id":"cebpf4jnsgd1na2vs0mg"},{"bike_id":"1208fe1b-0283-480b-997d-831d364739d0","system_id":"levelo_inurba_marseille","lat":43.28947,"lon":5.3664,"is_reserved":false,"is_disabled":false,"rental_uris":{"android":"levelo://app?vid=1208fe1b-0283-480b-997d-831d364739d0","ios":"levelo://app?vid=1208fe1b-0283-480b-997d-831d364739d0"},"vehicle_type_id":"4","last_reported":1730329744,"current_range_meters":37600,"station_id":"ce4bhap2rcd13ifvqek0","pricing_plan_id":"cebpf4jnsgd1na2vs0mg"},{"bike_id":"e0e57105-09ad-4dd2-86c5-5ffeccc2879b","system_id":"levelo_inurba_marseille","lat":43.28698,"lon":5.39985,"is_reserved":false,"is_disabled":false,"rental_uris":{"android":"levelo://app?vid=e0e57105-09ad-4dd2-86c5-5ffeccc2879b","ios":"levelo://app?vid=e0e57105-09ad-4dd2-86c5-5ffeccc2879b"},"vehicle_type_id":"4","last_reported":1730329744,"current_range_meters":13600,"station_id":"ce4bho92rcd13ifvqh3g","pricing_plan_id":"cebpf4jnsgd1na2vs0mg"},{"bike_id":"3e6f568d-3705-4594-9ae2-fbb4cde34b41","system_id":"levelo_inurba_marseille","lat":43.281097,"lon":5.378199,"is_reserved":false,"is_disabled":false,"rental_uris":{"android":"levelo://app?vid=3e6f568d-3705-4594-9ae2-fbb4cde34b41","ios":"levelo://app?vid=3e6f568d-3705-4594-9ae2-fbb4cde34b41"},"vehicle_type_id":"4","last_reported":1730329744,"current_range_meters":30000,"station_id":"ce4bha12rcd13ifvqee0","pricing_plan_id":"cebpf4jnsgd1na2vs0mg"},{"bike_id":"6a82fa07-8188-4814-8932-59b917fb1e21","system_id":"levelo_inurba_marseille","lat":43.29206,"lon":5.39329,"is_reserved":false,"is_disabled":false,"rental_uris":{"android":"levelo://app?vid=6a82fa07-8188-4814-8932-59b917fb1e21","ios":"levelo://app?vid=6a82fa07-8188-4814-8932-59b917fb1e21"},"vehicle_type_id":"4","last_reported":1730329744,"current_range_meters":40000,"station_id":"ce4bh192rcd13ifvqdd0","pricing_plan_id":"cebpf4jnsgd1na2vs0mg"},{"bike_id":"50ddc3b9-0445-4606-8f39-393c248368e8","system_id":"levelo_inurba_marseille","lat":43.31179,"lon":5.38713,"is_reserved":false,"is_disabled":false,"rental_uris":{"android":"levelo://app?vid=50ddc3b9-0445-4606-8f39-393c248368e8","ios":"levelo://app?vid=50ddc3b9-0445-4606-8f39-393c248368e8"},"vehicle_type_id":"4","last_reported":1730329744,"current_range_meters":36400,"station_id":"ce4bgv12rcd13ifvqcp0","pricing_plan_id":"cebpf4jnsgd1na2vs0mg"},{"bike_id":"cbd6e71b-da90-49a9-852e-9e6ceb2a79ce","system_id":"levelo_inurba_marseille","lat":43.23185,"lon":5.39973,"is_reserved":false,"is_disabled":false,"rental_uris":{"android":"levelo://app?vid=cbd6e71b-da90-49a9-852e-9e6ceb2a79ce","ios":"levelo://app?vid=cbd6e71b-da90-49a9-852e-9e6ceb2a79ce"},"vehicle_type_id":"4","last_reported":1730329744,"current_range_meters":40000,"station_id":"ce4bhn12rcd13ifvqgqg","pricing_plan_id":"cebpf4jnsgd1na2vs0mg"},{"bike_id":"3004047f-f32d-4c87-9f16-9ecb49a728d2","system_id":"levelo_inurba_marseille","lat":43.29056,"lon":5.35902,"is_reserved":false,"is_disabled":false,"rental_uris":{"android":"levelo://app?vid=3004047f-f32d-4c87-9f16-9ecb49a728d2","ios":"levelo://app?vid=3004047f-f32d-4c87-9f16-9ecb49a728d2"},"vehicle_type_id":"4","last_reported":1730329744,"current_range_meters":22000,"station_id":"ce4bha92rcd13ifvqeg0","pricing_plan_id":"cebpf4jnsgd1na2vs0mg"},{"bike_id":"ae841406-1745-4de3-a9aa-1edc6e17dad6","system_id":"levelo_inurba_marseille","lat":43.29534,"lon":5.3855,"is_reserved":false,"is_disabled":false,"rental_uris":{"android":"levelo://app?vid=ae841406-1745-4de3-a9aa-1edc6e17dad6","ios":"levelo://app?vid=ae841406-1745-4de3-a9aa-1edc6e17dad6"},"vehicle_type_id":"4","last_reported":1730329744,"current_range_meters":38800,"station_id":"ce4bgih2rcd13ifvqba0","pricing_plan_id":"cebpf4jnsgd1na2vs0mg"},{"bike_id":"539c89c3-c1de-4054-8dd5-f4d18716fb0e","system_id":"levelo_inurba_marseille","lat":43.30098,"lon":5.39078,"is_reserved":false,"is_disabled":false,"rental_uris":{"android":"levelo://app?vid=539c89c3-c1de-4054-8dd5-f4d18716fb0e","ios":"levelo://app?vid=539c89c3-c1de-4054-8dd5-f4d18716fb0e"},"vehicle_type_id":"4","last_reported":1730329744,"current_range_meters":23200,"station_id":"ce4bh192rcd13ifvqdb0","pricing_plan_id":"cebpf4jnsgd1na2vs0mg"},{"bike_id":"ef84f4b6-01b2-4a53-bdf2-0d57923d3ba7","system_id":"levelo_inurba_marseille","lat":43.28154,"lon":5.42642,"is_reserved":false,"is_disabled":false,"rental_uris":{"android":"levelo://app?vid=ef84f4b6-01b2-4a53-bdf2-0d57923d3ba7","ios":"levelo://app?vid=ef84f4b6-01b2-4a53-bdf2-0d57923d3ba7"},"vehicle_type_id":"4","last_reported":1730329744,"current_range_meters":24000,"station_id":"ce4bhnh2rcd13ifvqgug","pricing_plan_id":"cebpf4jnsgd1na2vs0mg"},{"bike_id":"1995d42f-9bb2-423e-a419-1706f5fab24e","system_id":"levelo_inurba_marseille","lat":43.27075,"lon":5.42278,"is_reserved":false,"is_disabled":false,"rental_uris":{"android":"levelo://app?vid=1995d42f-9bb2-423e-a419-1706f5fab24e","ios":"levelo://app?vid=1995d42f-9bb2-423e-a419-1706f5fab24e"},"vehicle_type_id":"4","last_reported":1730329744,"current_range_meters":31200,"station_id":"ce4bhk92rcd13ifvqgb0","pricing_plan_id":"cebpf4jnsgd1na2vs0mg"},{"bike_id":"d75a5f39-6d7e-41fe-bdc2-13c4c09528e6","system_id":"levelo_inurba_marseille","lat":43.23189,"lon":5.39985,"is_reserved":false,"is_disabled":false,"rental_uris":{"android":"levelo://app?vid=d75a5f39-6d7e-41fe-bdc2-13c4c09528e6","ios":"levelo://app?vid=d75a5f39-6d7e-41fe-bdc2-13c4c09528e6"},"vehicle_type_id":"4","last_reported":1730329744,"current_range_meters":39200,"station_id":"ce4bhn12rcd13ifvqgqg","pricing_plan_id":"cebpf4jnsgd1na2vs0mg"},{"bike_id":"be4cec61-2fbe-4c41-bc8f-6cef6f495468","system_id":"levelo_inurba_marseille","lat":43.31331,"lon":5.39698,"is_reserved":false,"is_disabled":false,"rental_uris":{"android":"levelo://app?vid=be4cec61-2fbe-4c41-bc8f-6cef6f495468","ios":"levelo://app?vid=be4cec61-2fbe-4c41-bc8f-6cef6f495468"},"vehicle_type_id":"4","last_reported":1730329744,"current_range_meters":38800,"station_id":"ce4bgvp2rcd13ifvqcu0","pricing_plan_id":"cebpf4jnsgd1na2vs0mg"},{"bike_id":"43f2a08e-1c4c-4949-a02f-6557846d7016","system_id":"levelo_inurba_marseille","lat":43.29041,"lon":5.39954,"is_reserved":false,"is_disabled":false,"rental_uris":{"android":"levelo://app?vid=43f2a08e-1c4c-4949-a02f-6557846d7016","ios":"levelo://app?vid=43f2a08e-1c4c-4949-a02f-6557846d7016"},"vehicle_type_id":"4","last_reported":1730329744,"current_range_meters":38800,"station_id":"ce4bh392rcd13ifvqdm0","pricing_plan_id":"cebpf4jnsgd1na2vs0mg"},{"bike_id":"8162e4a8-23c1-4020-bbef-be4a2e70aefe","system_id":"levelo_inurba_marseille","lat":43.23195,"lon":5.35552,"is_reserved":false,"is_disabled":false,"rental_uris":{"android":"levelo://app?vid=8162e4a8-23c1-4020-bbef-be4a2e70aefe","ios":"levelo://app?vid=8162e4a8-23c1-4020-bbef-be4a2e70aefe"},"vehicle_type_id":"4","last_reported":1730329744,"current_range_meters":8000,"station_id":"ce4bhu92rcd13ifvqi70","pricing_plan_id":"cebpf4jnsgd1na2vs0mg"},{"bike_id":"c26bb6f5-2c68-4c3f-ae19-c7ed99652366","system_id":"levelo_inurba_marseille","lat":43.31539,"lon":5.3803,"is_reserved":false,"is_disabled":false,"rental_uris":{"android":"levelo://app?vid=c26bb6f5-2c68-4c3f-ae19-c7ed99652366","ios":"levelo://app?vid=c26bb6f5-2c68-4c3f-ae19-c7ed99652366"},"vehicle_type_id":"4","last_reported":1730329744,"current_range_meters":10800,"station_id":"ce4bhsp2rcd13ifvqi50","pricing_plan_id":"cebpf4jnsgd1na2vs0mg"},{"bike_id":"3404184c-b4dd-4158-81d3-b380ad6360a5","system_id":"levelo_inurba_marseille","lat":43.30938,"lon":5.40148,"is_reserved":false,"is_disabled":false,"rental_uris":{"android":"levelo://app?vid=3404184c-b4dd-4158-81d3-b380ad6360a5","ios":"levelo://app?vid=3404184c-b4dd-4158-81d3-b380ad6360a5"},"vehicle_type_id":"4","last_reported":1730329744,"current_range_meters":38400,"station_id":"ce4bgvp2rcd13ifvqct0","pricing_plan_id":"cebpf4jnsgd1na2vs0mg"},{"bike_id":"3b6225f3-12ca-44ef-b254-ae96449adae6","system_id":"levelo_inurba_marseille","lat":43.29539,"lon":5.3905,"is_reserved":false,"is_disabled":false,"rental_uris":{"android":"levelo://app?vid=3b6225f3-12ca-44ef-b254-ae96449adae6","ios":"levelo://app?vid=3b6225f3-12ca-44ef-b254-ae96449adae6"},"vehicle_type_id":"4","last_reported":1730329744,"current_range_meters":21600,"station_id":"ce4bh3p2rcd13ifvqdp0","pricing_plan_id":"cebpf4jnsgd1na2vs0mg"},{"bike_id":"4c9d1e06-f3f0-41b4-9b77-1e0a54f146d2","system_id":"levelo_inurba_marseille","lat":43.3189,"lon":5.40717,"is_reserved":false,"is_disabled":false,"rental_uris":{"android":"levelo://app?vid=4c9d1e06-f3f0-41b4-9b77-1e0a54f146d2","ios":"levelo://app?vid=4c9d1e06-f3f0-41b4-9b77-1e0a54f146d2"},"vehicle_type_id":"4","last_reported":1730329744,"current_range_meters":38400,"station_id":"ce4bhq12rcd13ifvqhig","pricing_plan_id":"cebpf4jnsgd1na2vs0mg"},{"bike_id":"db0a3d52-5b2a-4d7e-a066-fdfecb103258","system_id":"levelo_inurba_marseille","lat":43.2893,"lon":5.38407,"is_reserved":false,"is_disabled":false,"rental_uris":{"android":"levelo://app?vid=db0a3d52-5b2a-4d7e-a066-fdfecb103258","ios":"levelo://app?vid=db0a3d52-5b2a-4d7e-a066-fdfecb103258"},"vehicle_type_id":"4","last_reported":1730329744,"current_range_meters":26800,"station_id":"ce4bh612rcd13ifvqe6g","pricing_plan_id":"cebpf4jnsgd1na2vs0mg"},{"bike_id":"8579512b-c8fc-422b-851d-f69c74dda96d","system_id":"levelo_inurba_marseille","lat":43.24074,"lon":5.37755,"is_reserved":false,"is_disabled":false,"rental_uris":{"android":"levelo://app?vid=8579512b-c8fc-422b-851d-f69c74dda96d","ios":"levelo://app?vid=8579512b-c8fc-422b-851d-f69c74dda96d"},"vehicle_type_id":"4","last_reported":1730329744,"current_range_meters":6400,"station_id":"ce4bhnp2rcd13ifvqgvg","pricing_plan_id":"cebpf4jnsgd1na2vs0mg"},{"bike_id":"01873621-66c2-43af-8810-09f11e46034b","system_id":"levelo_inurba_marseille","lat":43.28406,"lon":5.37509,"is_reserved":false,"is_disabled":false,"rental_uris":{"android":"levelo://app?vid=01873621-66c2-43af-8810-09f11e46034b","ios":"levelo://app?vid=01873621-66c2-43af-8810-09f11e46034b"},"vehicle_type_id":"4","last_reported":1730329744,"current_range_meters":9200,"station_id":"ce4bh412rcd13ifvqds0","pricing_plan_id":"cebpf4jnsgd1na2vs0mg"},{"bike_id":"1ace14c5-1992-46b1-87cf-4a1d3c62f592","system_id":"levelo_inurba_marseille","lat":43.28153,"lon":5.42631,"is_reserved":false,"is_disabled":false,"rental_uris":{"android":"levelo://app?vid=1ace14c5-1992-46b1-87cf-4a1d3c62f592","ios":"levelo://app?vid=1ace14c5-1992-46b1-87cf-4a1d3c62f592"},"vehicle_type_id":"4","last_reported":1730329744,"current_range_meters":19200,"station_id":"ce4bhnh2rcd13ifvqgug","pricing_plan_id":"cebpf4jnsgd1na2vs0mg"},{"bike_id":"0d1d919a-0ac6-4b40-add0-6ce675499ae9","system_id":"levelo_inurba_marseille","lat":43.2407,"lon":5.37767,"is_reserved":false,"is_disabled":false,"rental_uris":{"android":"levelo://app?vid=0d1d919a-0ac6-4b40-add0-6ce675499ae9","ios":"levelo://app?vid=0d1d919a-0ac6-4b40-add0-6ce675499ae9"},"vehicle_type_id":"4","last_reported":1730329744,"current_range_meters":13600,"station_id":"ce4bhnp2rcd13ifvqgvg","pricing_plan_id":"cebpf4jnsgd1na2vs0mg"},{"bike_id":"8785c527-ebc9-4d4b-a104-dc84f78b82df","system_id":"levelo_inurba_marseille","lat":43.24076,"lon":5.37723,"is_reserved":false,"is_disabled":false,"rental_uris":{"android":"levelo://app?vid=8785c527-ebc9-4d4b-a104-dc84f78b82df","ios":"levelo://app?vid=8785c527-ebc9-4d4b-a104-dc84f78b82df"},"vehicle_type_id":"4","last_reported":1730329744,"current_range_meters":6000,"station_id":"ce4bhnp2rcd13ifvqgvg","pricing_plan_id":"cebpf4jnsgd1na2vs0mg"},{"bike_id":"56f7924b-5733-4d53-8f87-e3e17da4a66e","system_id":"levelo_inurba_marseille","lat":43.31691,"lon":5.40476,"is_reserved":false,"is_disabled":false,"rental_uris":{"android":"levelo://app?vid=56f7924b-5733-4d53-8f87-e3e17da4a66e","ios":"levelo://app?vid=56f7924b-5733-4d53-8f87-e3e17da4a66e"},"vehicle_type_id":"4","last_reported":1730329744,"current_range_meters":19200,"station_id":"ce4bh012rcd13ifvqd00","pricing_plan_id":"cebpf4jnsgd1na2vs0mg"},{"bike_id":"58742011-85ba-4925-b3a3-22646e0a7020","system_id":"levelo_inurba_marseille","lat":43.2955,"lon":5.42283,"is_reserved":false,"is_disabled":false,"rental_uris":{"android":"levelo://app?vid=58742011-85ba-4925-b3a3-22646e0a7020","ios":"levelo://app?vid=58742011-85ba-4925-b3a3-22646e0a7020"},"vehicle_type_id":"4","last_reported":1730329744,"current_range_meters":33200,"station_id":"ce4bhph2rcd13ifvqhdg","pricing_plan_id":"cebpf4jnsgd1na2vs0mg"},{"bike_id":"379d974e-51a1-4b04-b633-c4150016c54e","system_id":"levelo_inurba_marseille","lat":43.28409,"lon":5.37521,"is_reserved":false,"is_disabled":false,"rental_uris":{"android":"levelo://app?vid=379d974e-51a1-4b04-b633-c4150016c54e","ios":"levelo://app?vid=379d974e-51a1-4b04-b633-c4150016c54e"},"vehicle_type_id":"4","last_reported":1730329744,"current_range_meters":36800,"station_id":"ce4bh412rcd13ifvqds0","pricing_plan_id":"cebpf4jnsgd1na2vs0mg"},{"bike_id":"73b91a5c-462b-445d-ac2c-3b2ae6e44141","system_id":"levelo_inurba_marseille","lat":43.28658,"lon":5.36335,"is_reserved":false,"is_disabled":false,"rental_uris":{"android":"levelo://app?vid=73b91a5c-462b-445d-ac2c-3b2ae6e44141","ios":"levelo://app?vid=73b91a5c-462b-445d-ac2c-3b2ae6e44141"},"vehicle_type_id":"4","last_reported":1730329744,"current_range_meters":33600,"station_id":"ce4bhah2rcd13ifvqej0","pricing_plan_id":"cebpf4jnsgd1na2vs0mg"},{"bike_id":"ddd2b1e9-334f-4882-9f41-cc127a3a9d93","system_id":"levelo_inurba_marseille","lat":43.29277,"lon":5.40117,"is_reserved":false,"is_disabled":false,"rental_uris":{"android":"levelo://app?vid=ddd2b1e9-334f-4882-9f41-cc127a3a9d93","ios":"levelo://app?vid=ddd2b1e9-334f-4882-9f41-cc127a3a9d93"},"vehicle_type_id":"4","last_reported":1730329744,"current_range_meters":36400,"station_id":"ce4bh312rcd13ifvqdk0","pricing_plan_id":"cebpf4jnsgd1na2vs0mg"},{"bike_id":"e2cab8bf-b1bb-433b-8bc5-b7f0976702d3","system_id":"levelo_inurba_marseille","lat":43.28408,"lon":5.37521,"is_reserved":false,"is_disabled":false,"rental_uris":{"android":"levelo://app?vid=e2cab8bf-b1bb-433b-8bc5-b7f0976702d3","ios":"levelo://app?vid=e2cab8bf-b1bb-433b-8bc5-b7f0976702d3"},"vehicle_type_id":"4","last_reported":1730329744,"current_range_meters":17600,"station_id":"ce4bh412rcd13ifvqds0","pricing_plan_id":"cebpf4jnsgd1na2vs0mg"},{"bike_id":"33d7239f-73a3-4ee6-886d-d4f39be7304a","system_id":"levelo_inurba_marseille","lat":43.31828,"lon":5.37419,"is_reserved":false,"is_disabled":false,"rental_uris":{"android":"levelo://app?vid=33d7239f-73a3-4ee6-886d-d4f39be7304a","ios":"levelo://app?vid=33d7239f-73a3-4ee6-886d-d4f39be7304a"},"vehicle_type_id":"4","last_reported":1730329744,"current_range_meters":18000,"station_id":"","pricing_plan_id":"cebpf4jnsgd1na2vs0mg"},{"bike_id":"c30c20a3-a003-4e47-981b-d4a01d18b8ed","system_id":"levelo_inurba_marseille","lat":43.24172,"lon":5.364,"is_reserved":false,"is_disabled":false,"rental_uris":{"android":"levelo://app?vid=c30c20a3-a003-4e47-981b-d4a01d18b8ed","ios":"levelo://app?vid=c30c20a3-a003-4e47-981b-d4a01d18b8ed"},"vehicle_type_id":"4","last_reported":1730329744,"current_range_meters":38000,"station_id":"cpo36qri1sfpv3e86is0","pricing_plan_id":"cebpf4jnsgd1na2vs0mg"},{"bike_id":"7b20da2c-5c36-4b4a-ba23-dec3b8354435","system_id":"levelo_inurba_marseille","lat":43.317046,"lon":5.377362,"is_reserved":false,"is_disabled":false,"rental_uris":{"android":"levelo://app?vid=7b20da2c-5c36-4b4a-ba23-dec3b8354435","ios":"levelo://app?vid=7b20da2c-5c36-4b4a-ba23-dec3b8354435"},"vehicle_type_id":"4","last_reported":1730329744,"current_range_meters":24800,"station_id":"ce4bgth2rcd13ifvqch0","pricing_plan_id":"cebpf4jnsgd1na2vs0mg"},{"bike_id":"d2e0efbb-61ff-424a-9cde-183324d21273","system_id":"levelo_inurba_marseille","lat":43.23969,"lon":5.36622,"is_reserved":false,"is_disabled":false,"rental_uris":{"android":"levelo://app?vid=d2e0efbb-61ff-424a-9cde-183324d21273","ios":"levelo://app?vid=d2e0efbb-61ff-424a-9cde-183324d21273"},"vehicle_type_id":"4","last_reported":1730329744,"current_range_meters":35600,"station_id":"ce4bhi12rcd13ifvqfp0","pricing_plan_id":"cebpf4jnsgd1na2vs0mg"},{"bike_id":"19622c5f-41ea-4710-96e1-48eac9de8fbd","system_id":"levelo_inurba_marseille","lat":43.31886,"lon":5.40745,"is_reserved":false,"is_disabled":false,"rental_uris":{"android":"levelo://app?vid=19622c5f-41ea-4710-96e1-48eac9de8fbd","ios":"levelo://app?vid=19622c5f-41ea-4710-96e1-48eac9de8fbd"},"vehicle_type_id":"4","last_reported":1730329744,"current_range_meters":24400,"station_id":"","pricing_plan_id":"cebpf4jnsgd1na2vs0mg"},{"bike_id":"a7ce43d3-1f8f-454c-b2a7-e386262205fe","system_id":"levelo_inurba_marseille","lat":43.27493,"lon":5.42448,"is_reserved":false,"is_disabled":false,"rental_uris":{"android":"levelo://app?vid=a7ce43d3-1f8f-454c-b2a7-e386262205fe","ios":"levelo://app?vid=a7ce43d3-1f8f-454c-b2a7-e386262205fe"},"vehicle_type_id":"4","last_reported":1730329744,"current_range_meters":28800,"station_id":"ce4bhn92rcd13ifvqgrg","pricing_plan_id":"cebpf4jnsgd1na2vs0mg"},{"bike_id":"fca4501b-d633-4fe7-a644-ae2de245aafb","system_id":"levelo_inurba_marseille","lat":43.30889,"lon":5.39638,"is_reserved":false,"is_disabled":false,"rental_uris":{"android":"levelo://app?vid=fca4501b-d633-4fe7-a644-ae2de245aafb","ios":"levelo://app?vid=fca4501b-d633-4fe7-a644-ae2de245aafb"},"vehicle_type_id":"4","last_reported":1730329744,"current_range_meters":25200,"station_id":"ce4bh012rcd13ifvqcv0","pricing_plan_id":"cebpf4jnsgd1na2vs0mg"},{"bike_id":"2b6c68f3-ef95-416e-8a00-afd2715afd77","system_id":"levelo_inurba_marseille","lat":43.30643,"lon":5.40073,"is_reserved":false,"is_disabled":false,"rental_uris":{"android":"levelo://app?vid=2b6c68f3-ef95-416e-8a00-afd2715afd77","ios":"levelo://app?vid=2b6c68f3-ef95-416e-8a00-afd2715afd77"},"vehicle_type_id":"4","last_reported":1730329744,"current_range_meters":40000,"station_id":"ce4bh112rcd13ifvqda0","pricing_plan_id":"cebpf4jnsgd1na2vs0mg"},{"bike_id":"ddfcc088-55bb-432d-9e58-bfabae87f10a","system_id":"levelo_inurba_marseille","lat":43.24679,"lon":5.38162,"is_reserved":false,"is_disabled":false,"rental_uris":{"android":"levelo://app?vid=ddfcc088-55bb-432d-9e58-bfabae87f10a","ios":"levelo://app?vid=ddfcc088-55bb-432d-9e58-bfabae87f10a"},"vehicle_type_id":"4","last_reported":1730329744,"current_range_meters":28800,"station_id":"ce4bhih2rcd13ifvqfr0","pricing_plan_id":"cebpf4jnsgd1na2vs0mg"},{"bike_id":"cd0fb9b4-d0eb-45c5-aa0d-eb62260cb719","system_id":"levelo_inurba_marseille","lat":43.31366,"lon":5.38495,"is_reserved":false,"is_disabled":false,"rental_uris":{"android":"levelo://app?vid=cd0fb9b4-d0eb-45c5-aa0d-eb62260cb719","ios":"levelo://app?vid=cd0fb9b4-d0eb-45c5-aa0d-eb62260cb719"},"vehicle_type_id":"4","last_reported":1730329744,"current_range_meters":24800,"station_id":"ce4bgt92rcd13ifvqcf0","pricing_plan_id":"cebpf4jnsgd1na2vs0mg"},{"bike_id":"15917a3a-e307-4459-a0e9-7c5e049e9d5d","system_id":"levelo_inurba_marseille","lat":43.27615,"lon":5.36112,"is_reserved":false,"is_disabled":false,"rental_uris":{"android":"levelo://app?vid=15917a3a-e307-4459-a0e9-7c5e049e9d5d","ios":"levelo://app?vid=15917a3a-e307-4459-a0e9-7c5e049e9d5d"},"vehicle_type_id":"4","last_reported":1730329744,"current_range_meters":38800,"station_id":"ce4bgj92rcd13ifvqbe0","pricing_plan_id":"cebpf4jnsgd1na2vs0mg"},{"bike_id":"8fbee397-c726-4d42-ae6d-7e6a955a3eb5","system_id":"levelo_inurba_marseille","lat":43.2306,"lon":5.3549,"is_reserved":false,"is_disabled":false,"rental_uris":{"android":"levelo://app?vid=8fbee397-c726-4d42-ae6d-7e6a955a3eb5","ios":"levelo://app?vid=8fbee397-c726-4d42-ae6d-7e6a955a3eb5"},"vehicle_type_id":"4","last_reported":1730329744,"current_range_meters":38800,"station_id":"cpo3342slgdg3j2ifvpg","pricing_plan_id":"cebpf4jnsgd1na2vs0mg"},{"bike_id":"9831b38e-9348-449d-aa97-c91399bc9e80","system_id":"levelo_inurba_marseille","lat":43.31357,"lon":5.36698,"is_reserved":false,"is_disabled":false,"rental_uris":{"android":"levelo://app?vid=9831b38e-9348-449d-aa97-c91399bc9e80","ios":"levelo://app?vid=9831b38e-9348-449d-aa97-c91399bc9e80"},"vehicle_type_id":"4","last_reported":1730329744,"current_range_meters":38800,"station_id":"ce4bgr92rcd13ifvqc6g","pricing_plan_id":"cebpf4jnsgd1na2vs0mg"},