{"last_updated":1765955713,"ttl":60,"version":"2.2","data":{"bikes":[{"bike_id":"fd9665ae-4c09-4a0b-8f35-0e2ee18fdf4d","system_id":"levelo_inurba_marseille","lat":43.337666,"lon":5.374436,"is_reserved":false,"is_disabled":false,"rental_uris":{"android":"levelo://app?vid=fd9665ae-4c09-4a0b-8f35-0e2ee18fdf4d","ios":"levelo://app?vid=fd9665ae-4c09-4a0b-8f35-0e2ee18fdf4d"},"vehicle_type_id":"4","last_reported":1765955713,"current_range_meters":2800,"station_id":"","pricing_plan_id":"cebpf4jnsgd1na2vs0mg"},{"bike_id":"22965c76-2bef-47e0-aa88-652bbd323279","system_id":"levelo_inurba_marseille","lat":43.280204,"lon":5.421255,"is_reserved":false,"is_disabled":false,"rental_uris":{"android":"levelo://app?vid=22965c76-2bef-47e0-aa88-652bbd323279","ios":"levelo://app?vid=22965c76-2bef-47e0-aa88-652bbd323279"},"vehicle_type_id":"4","last_reported":1765955713,"current_range_meters":2800,"station_id":"","pricing_plan_id":"cebpf4jnsgd1na2vs0mg"},{"bike_id":"808bb12f-4c1a-4ea2-b1d0-b9540077b37f","system_id":"levelo_inurba_marseille","lat":43.27938,"lon":5.41033,"is_reserved":false,"is_disabled":false,"rental_uris":{"android":"levelo://app?vid=808bb12f-4c1a-4ea2-b1d0-b9540077b37f","ios":"levelo://app?vid=808bb12f-4c1a-4ea2-b1d0-b9540077b37f"},"vehicle_type_id":"4","last_reported":1765955713,"current_range_meters":2800,"station_id":"ce4bhnp2rcd13ifvqh0g","pricing_plan_id":"cebpf4jnsgd1na2vs0mg"},{"bike_id":"61d29984-d7d6-49fb-a1e5-ad705f43a181","system_id":"levelo_inurba_marseille","lat":43.25719,"lon":5.41113,"is_reserved":false,"is_disabled":false,"rental_uris":{"android":"levelo://app?vid=61d29984-d7d6-49fb-a1e5-ad705f43a181","ios":"levelo://app?vid=61d29984-d7d6-49fb-a1e5-ad705f43a181"},"vehicle_type_id":"4","last_reported":1765955713,"current_range_meters":2800,"station_id":"ce4bhkp2rcd13ifvqgd0","pricing_plan_id":"cebpf4jnsgd1na2vs0mg"},{"bike_id":"55ec9bde-e0a0-4371-b64c-8c43230fe0ef","system_id":"levelo_inurba_marseille","lat":43.30236,"lon":5.40045,"is_reserved":false,"is_disabled":false,"rental_uris":{"android":"levelo://app?vid=55ec9bde-e0a0-4371-b64c-8c43230fe0ef","ios":"levelo://app?vid=55ec9bde-e0a0-4371-b64c-8c43230fe0ef"},"vehicle_type_id":"4","last_reported":1765955713,"current_range_meters":2800,"station_id":"ce4bgvh2rcd13ifvqcs0","pricing_plan_id":"cebpf4jnsgd1na2vs0mg"},{"bike_id":"f59c9188-dfaf-4cfe-902c-94af1d594952","system_id":"levelo_inurba_marseille","lat":43.26503,"lon":5.39437,"is_reserved":false,"is_disabled":false,"rental_uris":{"android":"levelo://app?vid=f59c9188-dfaf-4cfe-902c-94af1d594952","ios":"levelo://app?vid=f59c9188-dfaf-4cfe-902c-94af1d594952"},"vehicle_type_id":"4","last_reported":1765955713,"current_range_meters":2800,"station_id":"","pricing_plan_id":"cebpf4jnsgd1na2vs0mg"},{"bike_id":"6c0eac70-747e-4f75-befd-f1bb10499c72","system_id":"levelo_inurba_marseille","lat":43.30935,"lon":5.4014,"is_reserved":false,"is_disabled":false,"rental_uris":{"android":"levelo://app?vid=6c0eac70-747e-4f75-befd-f1bb10499c72","ios":"levelo://app?vid=6c0eac70-747e-4f75-befd-f1bb10499c72"},"vehicle_type_id":"4","last_reported":1765955713,"current_range_meters":3200,"station_id":"ce4bgvp2rcd13ifvqct0","pricing_plan_id":"cebpf4jnsgd1na2vs0mg"},{"bike_id":"bee5f29c-17ec-4d6a-b731-2c856acb548f","system_id":"levelo_inurba_marseille","lat":43.337725,"lon":5.374316,"is_reserved":false,"is_disabled":false,"rental_uris":{"android":"levelo://app?vid=bee5f29c-17ec-4d6a-b731-2c856acb548f","ios":"levelo://app?vid=bee5f29c-17ec-4d6a-b731-2c856acb548f"},"vehicle_type_id":"4","last_reported":1765955713,"current_range_meters":3200,"station_id":"","pricing_plan_id":"cebpf4jnsgd1na2vs0mg"},{"bike_id":"44badf90-3cca-4808-b24a-4f0b358ea738","system_id":"levelo_inurba_marseille","lat":43.28663,"lon":5.36357,"is_reserved":false,"is_disabled":false,"rental_uris":{"android":"levelo://app?vid=44badf90-3cca-4808-b24a-4f0b358ea738","ios":"levelo://app?vid=44badf90-3cca-4808-b24a-4f0b358ea738"},"vehicle_type_id":"4","last_reported":1765955713,"current_range_meters":3200,"station_id":"ce4bhah2rcd13ifvqej0","pricing_plan_id":"cebpf4jnsgd1na2vs0mg"},{"bike_id":"74318dd8-1691-4b91-b1e4-1899d7815c78","system_id":"levelo_inurba_marseille","lat":43.211908,"lon":5.35077,"is_reserved":false,"is_disabled":false,"rental_uris":{"android":"levelo://app?vid=74318dd8-1691-4b91-b1e4-1899d7815c78","ios":"levelo://app?vid=74318dd8-1691-4b91-b1e4-1899d7815c78"},"vehicle_type_id":"4","last_reported":1765955713,"current_range_meters":3600,"station_id":"st_cvj6sg6p6f1abm77japg","pricing_plan_id":"cebpf4jnsgd1na2vs0mg"},{"bike_id":"16a71e91-8d7d-43e4-b507-15b1735613fd","system_id":"levelo_inurba_marseille","lat":43.27491,"lon":5.42456,"is_reserved":false,"is_disabled":false,"rental_uris":{"android":"levelo://app?vid=16a71e91-8d7d-43e4-b507-15b1735613fd","ios":"levelo://app?vid=16a71e91-8d7d-43e4-b507-15b1735613fd"},"vehicle_type_id":"4","last_reported":1765955713,"current_range_meters":3600,"station_id":"ce4bhn92rcd13ifvqgrg","pricing_plan_id":"cebpf4jnsgd1na2vs0mg"},{"bike_id":"d3eb1a28-60f7-4eab-a9be-915a03b25c99","system_id":"levelo_inurba_marseille","lat":43.337444,"lon":5.374475,"is_reserved":false,"is_disabled":false,"rental_uris":{"android":"levelo://app?vid=d3eb1a28-60f7-4eab-a9be-915a03b25c99","ios":"levelo://app?vid=d3eb1a28-60f7-4eab-a9be-915a03b25c99"},"vehicle_type_id":"4","last_reported":1765955713,"current_range_meters":3600,"station_id":"","pricing_plan_id":"cebpf4jnsgd1na2vs0mg"},{"bike_id":"37cdc414-2921-4c63-b93b-7bad23c54cf8","system_id":"levelo_inurba_marseille","lat":43.26963,"lon":5.38626,"is_reserved":false,"is_disabled":false,"rental_uris":{"android":"levelo://app?vid=37cdc414-2921-4c63-b93b-7bad23c54cf8","ios":"levelo://app?vid=37cdc414-2921-4c63-b93b-7bad23c54cf8"},"vehicle_type_id":"4","last_reported":1765955713,"current_range_meters":4000,"station_id":"ce4bhh92rcd13ifvqfh0","pricing_plan_id":"cebpf4jnsgd1na2vs0mg"},{"bike_id":"9366b54d-3d5e-4e2f-a20d-49d0ce57f0ef","system_id":"levelo_inurba_marseille","lat":43.31079,"lon":5.42429,"is_reserved":false,"is_disabled":false,"rental_uris":{"android":"levelo://app?vid=9366b54d-3d5e-4e2f-a20d-49d0ce57f0ef","ios":"levelo://app?vid=9366b54d-3d5e-4e2f-a20d-49d0ce57f0ef"},"vehicle_type_id":"4","last_reported":1765955713,"current_range_meters":4000,"station_id":"ce4bhp92rcd13ifvqhag","pricing_plan_id":"cebpf4jnsgd1na2vs0mg"},{"bike_id":"0c6f5854-914b-4918-9b37-c9192f124601","system_id":"levelo_inurba_marseille","lat":43.27495,"lon":5.42449,"is_reserved":false,"is_disabled":false,"rental_uris":{"android":"levelo://app?vid=0c6f5854-914b-4918-9b37-c9192f124601","ios":"levelo://app?vid=0c6f5854-914b-4918-9b37-c9192f124601"},"vehicle_type_id":"4","last_reported":1765955713,"current_range_meters":4000,"station_id":"ce4bhn92rcd13ifvqgrg","pricing_plan_id":"cebpf4jnsgd1na2vs0mg"},{"bike_id":"58fe3c41-c31c-418f-8b03-ed2ed0f7c8fd","system_id":"levelo_inurba_marseille","lat":43.30102,"lon":5.36529,"is_reserved":false,"is_disabled":false,"rental_uris":{"android":"levelo://app?vid=58fe3c41-c31c-418f-8b03-ed2ed0f7c8fd","ios":"levelo://app?vid=58fe3c41-c31c-418f-8b03-ed2ed0f7c8fd"},"vehicle_type_id":"4","last_reported":1765955713,"current_range_meters":4000,"station_id":"","pricing_plan_id":"cebpf4jnsgd1na2vs0mg"},{"bike_id":"144a6e30-c774-4594-a93b-a21fccdc4d0e","system_id":"levelo_inurba_marseille","lat":43.301486,"lon":5.380894,"is_reserved":false,"is_disabled":false,"rental_uris":{"android":"levelo://app?vid=144a6e30-c774-4594-a93b-a21fccdc4d0e","ios":"levelo://app?vid=144a6e30-c774-4594-a93b-a21fccdc4d0e"},"vehicle_type_id":"4","last_reported":1765955713,"current_range_meters":4000,"station_id":"ce4bgjp2rcd13ifvqbh0","pricing_plan_id":"cebpf4jnsgd1na2vs0mg"},{"bike_id":"0d04367a-2738-41fb-8bc5-77b89893b507","system_id":"levelo_inurba_marseille","lat":43.21193,"lon":5.35075,"is_reserved":false,"is_disabled":false,"rental_uris":{"android":"levelo://app?vid=0d04367a-2738-41fb-8bc5-77b89893b507","ios":"levelo://app?vid=0d04367a-2738-41fb-8bc5-77b89893b507"},"vehicle_type_id":"4","last_reported":1765955713,"current_range_meters":4000,"station_id":"","pricing_plan_id":"cebpf4jnsgd1na2vs0mg"},{"bike_id":"e6d5f16d-c280-4811-b827-dfb5aa334746","system_id":"levelo_inurba_marseille","lat":43.32538,"lon":5.41426,"is_reserved":false,"is_disabled":false,"rental_uris":{"android":"levelo://app?vid=e6d5f16d-c280-4811-b827-dfb5aa334746","ios":"levelo://app?vid=e6d5f16d-c280-4811-b827-dfb5aa334746"},"vehicle_type_id":"4","last_reported":1765955713,"current_range_meters":4000,"station_id":"ce4bhq12rcd13ifvqhhg","pricing_plan_id":"cebpf4jnsgd1na2vs0mg"},{"bike_id":"4a881dfd-7fd4-4132-9746-381ea57db4ed","system_id":"levelo_inurba_marseille","lat":43.26567,"lon":5.39008,"is_reserved":false,"is_disabled":false,"rental_uris":{"android":"levelo://app?vid=4a881dfd-7fd4-4132-9746-381ea57db4ed","ios":"levelo://app?vid=4a881dfd-7fd4-4132-9746-381ea57db4ed"},"vehicle_type_id":"4","last_reported":1765955713,"current_range_meters":4000,"station_id":"ce4bhe12rcd13ifvqf30","pricing_plan_id":"cebpf4jnsgd1na2vs0mg"},{"bike_id":"f17e13c4-7f51-40f8-ab5b-5275c0a53f25","system_id":"levelo_inurba_marseille","lat":43.28689,"lon":5.38664,"is_reserved":false,"is_disabled":false,"rental_uris":{"android":"levelo://app?vid=f17e13c4-7f51-40f8-ab5b-5275c0a53f25","ios":"levelo://app?vid=f17e13c4-7f51-40f8-ab5b-5275c0a53f25"},"vehicle_type_id":"4","last_reported":1765955713,"current_range_meters":4400,"station_id":"ce4bh492rcd13ifvqdug","pricing_plan_id":"cebpf4jnsgd1na2vs0mg"},{"bike_id":"776e2e24-9fb1-4185-9b12-c4ef3069e51c","system_id":"levelo_inurba_marseille","lat":43.29036,"lon":5.37566,"is_reserved":false,"is_disabled":false,"rental_uris":{"android":"levelo://app?vid=776e2e24-9fb1-4185-9b12-c4ef3069e51c","ios":"levelo://app?vid=776e2e24-9fb1-4185-9b12-c4ef3069e51c"},"vehicle_type_id":"4","last_reported":1765955713,"current_range_meters":4400,"station_id":"ce4bh692rcd13ifvqe90","pricing_plan_id":"cebpf4jnsgd1na2vs0mg"},{"bike_id":"85299ce6-7d31-4779-8540-b094a53082ba","system_id":"levelo_inurba_marseille","lat":43.24811,"lon":5.37465,"is_reserved":false,"is_disabled":false,"rental_uris":{"android":"levelo://app?vid=85299ce6-7d31-4779-8540-b094a53082ba","ios":"levelo://app?vid=85299ce6-7d31-4779-8540-b094a53082ba"},"vehicle_type_id":"4","last_reported":1765955713,"current_range_meters":4800,"station_id":"ce4bhgh2rcd13ifvqfb0","pricing_plan_id":"cebpf4jnsgd1na2vs0mg"},{"bike_id":"6c4d514d-f969-4ac8-9933-42f04018cb6a","system_id":"levelo_inurba_marseille","lat":43.33801,"lon":5.3745,"is_reserved":false,"is_disabled":false,"rental_uris":{"android":"levelo://app?vid=6c4d514d-f969-4ac8-9933-42f04018cb6a","ios":"levelo://app?vid=6c4d514d-f969-4ac8-9933-42f04018cb6a"},"vehicle_type_id":"4","last_reported":1765955713,"current_range_meters":4800,"station_id":"","pricing_plan_id":"cebpf4jnsgd1na2vs0mg"},{"bike_id":"89405f4e-00b3-4495-970a-eabbcc7dd04a","system_id":"levelo_inurba_marseille","lat":43.33616,"lon":5.410421,"is_reserved":false,"is_disabled":false,"rental_uris":{"android":"levelo://app?vid=89405f4e-00b3-4495-970a-eabbcc7dd04a","ios":"levelo://app?vid=89405f4e-00b3-4495-970a-eabbcc7dd04a"},"vehicle_type_id":"4","last_reported":1765955713,"current_range_meters":4800,"station_id":"ce4bhqh2rcd13ifvqhmg","pricing_plan_id":"cebpf4jnsgd1na2vs0mg"},{"bike_id":"0c2c5140-af06-486a-a322-d624aecbcc21","system_id":"levelo_inurba_marseille","lat":43.24529,"lon":5.40005,"is_reserved":false,"is_disabled":false,"rental_uris":{"android":"levelo://app?vid=0c2c5140-af06-486a-a322-d624aecbcc21","ios":"levelo://app?vid=0c2c5140-af06-486a-a322-d624aecbcc21"},"vehicle_type_id":"4","last_reported":1765955713,"current_range_meters":4800,"station_id":"","pricing_plan_id":"cebpf4jnsgd1na2vs0mg"},{"bike_id":"3464140a-fa4d-4baa-a277-f0b733016dfb","system_id":"levelo_inurba_marseille","lat":43.316035,"lon":5.379218,"is_reserved":false,"is_disabled":false,"rental_uris":{"android":"levelo://app?vid=3464140a-fa4d-4baa-a277-f0b733016dfb","ios":"levelo://app?vid=3464140a-fa4d-4baa-a277-f0b733016dfb"},"vehicle_type_id":"4","last_reported":1765955713,"current_range_meters":4800,"station_id":"","pricing_plan_id":"cebpf4jnsgd1na2vs0mg"},{"bike_id":"ed16a30a-ba7d-44e1-982b-c67c3b0bd7b9","system_id":"levelo_inurba_marseille","lat":43.297084,"lon":5.366079,"is_reserved":false,"is_disabled":false,"rental_uris":{"android":"levelo://app?vid=ed16a30a-ba7d-44e1-982b-c67c3b0bd7b9","ios":"levelo://app?vid=ed16a30a-ba7d-44e1-982b-c67c3b0bd7b9"},"vehicle_type_id":"4","last_reported":1765955713,"current_range_meters":4800,"station_id":"ce4bgn12rcd13ifvqbt0","pricing_plan_id":"cebpf4jnsgd1na2vs0mg"},{"bike_id":"d6808b6f-5df2-4878-a1e8-910e03305a8b","system_id":"levelo_inurba_marseille","lat":43.29089,"lon":5.38121,"is_reserved":false,"is_disabled":false,"rental_uris":{"android":"levelo://app?vid=d6808b6f-5df2-4878-a1e8-910e03305a8b","ios":"levelo://app?vid=d6808b6f-5df2-4878-a1e8-910e03305a8b"},"vehicle_type_id":"4","last_reported":1765955713,"current_range_meters":5600,"station_id":"","pricing_plan_id":"cebpf4jnsgd1na2vs0mg"},{"bike_id":"204ab968-a2aa-4547-840f-b9561e96934d","system_id":"levelo_inurba_marseille","lat":43.28032,"lon":5.36935,"is_reserved":false,"is_disabled":false,"rental_uris":{"android":"levelo://app?vid=204ab968-a2aa-4547-840f-b9561e96934d","ios":"levelo://app?vid=204ab968-a2aa-4547-840f-b9561e96934d"},"vehicle_type_id":"4","last_reported":1765955713,"current_range_meters":5600,"station_id":"ce4bha12rcd13ifvqef0","pricing_plan_id":"cebpf4jnsgd1na2vs0mg"},{"bike_id":"c6cb5ba0-41b2-47e4-97f7-d5d277784dbf","system_id":"levelo_inurba_marseille","lat":43.30943,"lon":5.39031,"is_reserved":false,"is_disabled":false,"rental_uris":{"android":"levelo://app?vid=c6cb5ba0-41b2-47e4-97f7-d5d277784dbf","ios":"levelo://app?vid=c6cb5ba0-41b2-47e4-97f7-d5d277784dbf"},"vehicle_type_id":"4","last_reported":1765955713,"current_range_meters":5600,"station_id":"ce4bgup2rcd13ifvqco0","pricing_plan_id":"cebpf4jnsgd1na2vs0mg"},{"bike_id":"a08437da-c505-43ab-9dde-5f9e3edd3196","system_id":"levelo_inurba_marseille","lat":43.31493,"lon":5.37313,"is_reserved":false,"is_disabled":false,"rental_uris":{"android":"levelo://app?vid=a08437da-c505-43ab-9dde-5f9e3edd3196","ios":"levelo://app?vid=a08437da-c505-43ab-9dde-5f9e3edd3196"},"vehicle_type_id":"4","last_reported":1765955713,"current_range_meters":6000,"station_id":"ce4bgt12rcd13ifvqcd0","pricing_plan_id":"cebpf4jnsgd1na2vs0mg"},{"bike_id":"073a7a15-b275-4308-bcad-5695c10d63fa","system_id":"levelo_inurba_marseille","lat":43.28696,"lon":5.37418,"is_reserved":false,"is_disabled":false,"rental_uris":{"android":"levelo://app?vid=073a7a15-b275-4308-bcad-5695c10d63fa","ios":"levelo://app?vid=073a7a15-b275-4308-bcad-5695c10d63fa"},"vehicle_type_id":"4","last_reported":1765955713,"current_range_meters":6000,"station_id":"ce4bh3p2rcd13ifvqdq0","pricing_plan_id":"cebpf4jnsgd1na2vs0mg"},{"bike_id":"404fe945-0720-4c24-bab5-cbf684a02c70","system_id":"levelo_inurba_marseille","lat":43.29912,"lon":5.36519,"is_reserved":false,"is_disabled":false,"rental_uris":{"android":"levelo://app?vid=404fe945-0720-4c24-bab5-cbf684a02c70","ios":"levelo://app?vid=404fe945-0720-4c24-bab5-cbf684a02c70"},"vehicle_type_id":"4","last_reported":1765955713,"current_range_meters":6000,"station_id":"ce4bgm92rcd13ifvqbr0","pricing_plan_id":"cebpf4jnsgd1na2vs0mg"},{"bike_id":"3ca60de7-a1f7-4000-9cbe-4bf96a1cfcde","system_id":"levelo_inurba_marseille","lat":43.26213,"lon":5.3744,"is_reserved":false,"is_disabled":false,"rental_uris":{"android":"levelo://app?vid=3ca60de7-a1f7-4000-9cbe-4bf96a1cfcde","ios":"levelo://app?vid=3ca60de7-a1f7-4000-9cbe-4bf96a1cfcde"},"vehicle_type_id":"4","last_reported":1765955713,"current_range_meters":6000,"station_id":"ce4bhgp2rcd13ifvqfc0","pricing_plan_id":"cebpf4jnsgd1na2vs0mg"},{"bike_id":"e13dd81c-4ced-49db-830b-debdc50b5f4e","system_id":"levelo_inurba_marseille","lat":43.30465,"lon":5.37903,"is_reserved":false,"is_disabled":false,"rental_uris":{"android":"levelo://app?vid=e13dd81c-4ced-49db-830b-debdc50b5f4e","ios":"levelo://app?vid=e13dd81c-4ced-49db-830b-debdc50b5f4e"},"vehicle_type_id":"4","last_reported":1765955713,"current_range_meters":6000,"station_id":"ce4bgup2rcd13ifvqcn0","pricing_plan_id":"cebpf4jnsgd1na2vs0mg"},{"bike_id":"5c0fc8b2-84e8-4bce-8e57-bd09c8636e66","system_id":"levelo_inurba_marseille","lat":43.24176,"lon":5.39732,"is_reserved":false,"is_disabled":false,"rental_uris":{"android":"levelo://app?vid=5c0fc8b2-84e8-4bce-8e57-bd09c8636e66","ios":"levelo://app?vid=5c0fc8b2-84e8-4bce-8e57-bd09c8636e66"},"vehicle_type_id":"4","last_reported":1765955713,"current_range_meters":6000,"station_id":"ce4bhn12rcd13ifvqgpg","pricing_plan_id":"cebpf4jnsgd1na2vs0mg"},{"bike_id":"61075df3-58ef-42c0-8b6c-0208ab568d8d","system_id":"levelo_inurba_marseille","lat":43.30594,"lon":5.39356,"is_reserved":false,"is_disabled":false,"rental_uris":{"android":"levelo://app?vid=61075df3-58ef-42c0-8b6c-0208ab568d8d","ios":"levelo://app?vid=61075df3-58ef-42c0-8b6c-0208ab568d8d"},"vehicle_type_id":"4","last_reported":1765955713,"current_range_meters":6000,"station_id":"ce4bh0p2rcd13ifvqd80","pricing_plan_id":"cebpf4jnsgd1na2vs0mg"},{"bike_id":"8ede2e6c-05a9-4bf6-a255-56180f59386e","system_id":"levelo_inurba_marseille","lat":43.27493,"lon":5.42456,"is_reserved":false,"is_disabled":false,"rental_uris":{"android":"levelo://app?vid=8ede2e6c-05a9-4bf6-a255-56180f59386e","ios":"levelo://app?vid=8ede2e6c-05a9-4bf6-a255-56180f59386e"},"vehicle_type_id":"4","last_reported":1765955713,"current_range_meters":6400,"station_id":"ce4bhn92rcd13ifvqgrg","pricing_plan_id":"cebpf4jnsgd1na2vs0mg"},{"bike_id":"d060fba5-16a8-4741-bd84-0e8efde16f1e","system_id":"levelo_inurba_marseille","lat":43.30441,"lon":5.37904,"is_reserved":false,"is_disabled":false,"rental_uris":{"android":"levelo://app?vid=d060fba5-16a8-4741-bd84-0e8efde16f1e","ios":"levelo://app?vid=d060fba5-16a8-4741-bd84-0e8efde16f1e"},"vehicle_type_id":"4","last_reported":1765955713,"current_range_meters":6400,"station_id":"ce4bgup2rcd13ifvqcn0","pricing_plan_id":"cebpf4jnsgd1na2vs0mg"},{"bike_id":"f78d83b2-e46c-424a-b560-1f11ed327790","system_id":"levelo_inurba_marseille","lat":43.27371,"lon":5.36257,"is_reserved":false,"is_disabled":false,"rental_uris":{"android":"levelo://app?vid=f78d83b2-e46c-424a-b560-1f11ed327790","ios":"levelo://app?vid=f78d83b2-e46c-424a-b560-1f11ed327790"},"vehicle_type_id":"4","last_reported":1765955713,"current_range_meters":6800,"station_id":"ce4bhbh2rcd13ifvqeo0","pricing_plan_id":"cebpf4jnsgd1na2vs0mg"},{"bike_id":"877d5841-8460-49be-b62f-ee7003e82ea1","system_id":"levelo_inurba_marseille","lat":43.31054,"lon":5.37171,"is_reserved":false,"is_disabled":false,"rental_uris":{"android":"levelo://app?vid=877d5841-8460-49be-b62f-ee7003e82ea1","ios":"levelo://app?vid=877d5841-8460-49be-b62f-ee7003e82ea1"},"vehicle_type_id":"4","last_reported":1765955713,"current_range_meters":6800,"station_id":"st_d4kl2rp97mjs73e7tdfg","pricing_plan_id":"cebpf4jnsgd1na2vs0mg"},{"bike_id":"905732b3-bbb0-42bd-b922-4b439a3f5383","system_id":"levelo_inurba_marseille","lat":43.29073,"lon":5.37163,"is_reserved":false,"is_disabled":false,"rental_uris":{"android":"levelo://app?vid=905732b3-bbb0-42bd-b922-4b439a3f5383","ios":"levelo://app?vid=905732b3-bbb0-42bd-b922-4b439a3f5383"},"vehicle_type_id":"4","last_reported":1765955713,"current_range_meters":6800,"station_id":"ce4bh5p2rcd13ifvqe4g","pricing_plan_id":"cebpf4jnsgd1na2vs0mg"},{"bike_id":"1d3879da-21e4-498b-bccd-3d94b45e8429","system_id":"levelo_inurba_marseille","lat":43.2455,"lon":5.39528,"is_reserved":false,"is_disabled":true,"rental_uris":{"android":"levelo://app?vid=1d3879da-21e4-498b-bccd-3d94b45e8429","ios":"levelo://app?vid=1d3879da-21e4-498b-bccd-3d94b45e8429"},"vehicle_type_id":"4","last_reported":1765955713,"current_range_meters":6800,"station_id":"ce4bhlp2rcd13ifvqgjg","pricing_plan_id":"cebpf4jnsgd1na2vs0mg"},{"bike_id":"f9afe7a0-7065-4bea-825b-e0840ac6359f","system_id":"levelo_inurba_marseille","lat":43.31686,"lon":5.40471,"is_reserved":false,"is_disabled":false,"rental_uris":{"android":"levelo://app?vid=f9afe7a0-7065-4bea-825b-e0840ac6359f","ios":"levelo://app?vid=f9afe7a0-7065-4bea-825b-e0840ac6359f"},"vehicle_type_id":"4","last_reported":1765955713,"current_range_meters":6800,"station_id":"ce4bh012rcd13ifvqd00","pricing_plan_id":"cebpf4jnsgd1na2vs0mg"},{"bike_id":"1c32e396-9783-4255-a5cf-02097390c0bc","system_id":"levelo_inurba_marseille","lat":43.298095,"lon":5.381089,"is_reserved":false,"is_disabled":false,"rental_uris":{"android":"levelo://app?vid=1c32e396-9783-4255-a5cf-02097390c0bc","ios":"levelo://app?vid=1c32e396-9783-4255-a5cf-02097390c0bc"},"vehicle_type_id":"4","last_reported":1765955713,"current_range_meters":6800,"station_id":"ce4bgip2rcd13ifvqbb0","pricing_plan_id":"cebpf4jnsgd1na2vs0mg"},{"bike_id":"5f3eeacb-16c6-4cd4-ada8-23303acda159","system_id":"levelo_inurba_marseille","lat":43.3014,"lon":5.38057,"is_reserved":false,"is_disabled":false,"rental_uris":{"android":"levelo://app?vid=5f3eeacb-16c6-4cd4-ada8-23303acda159","ios":"levelo://app?vid=5f3eeacb-16c6-4cd4-ada8-23303acda159"},"vehicle_type_id":"4","last_reported":1765955713,"current_range_meters":6800,"station_id":"ce4bgjp2rcd13ifvqbh0","pricing_plan_id":"cebpf4jnsgd1na2vs0mg"},{"bike_id":"d9a4375d-e8e1-47ad-a7b7-7051bd525f12","system_id":"levelo_inurba_marseille","lat":43.29601,"lon":5.380996,"is_reserved":false,"is_disabled":false,"rental_uris":{"android":"levelo://app?vid=d9a4375d-e8e1-47ad-a7b7-7051bd525f12","ios":"levelo://app?vid=d9a4375d-e8e1-47ad-a7b7-7051bd525f12"},"vehicle_type_id":"4","last_reported":1765955713,"current_range_meters":6800,"station_id":"ce4bgl12rcd13ifvqbo0","pricing_plan_id":"cebpf4jnsgd1na2vs0mg"},{"bike_id":"88373178-fb5f-4a85-b912-55ad80fdf72d","system_id":"levelo_inurba_marseille","lat":43.29935,"lon":5.36555,"is_reserved":false,"is_disabled":false,"rental_uris":{"android":"levelo://app?vid=88373178-fb5f-4a85-b912-55ad80fdf72d","ios":"levelo://app?vid=88373178-fb5f-4a85-b912-55ad80fdf72d"},"vehicle_type_id":"4","last_reported":1765955713,"current_range_meters":7200,"station_id":"ce4bgm92rcd13ifvqbr0","pricing_plan_id":"cebpf4jnsgd1na2vs0mg"},{"bike_id":"43642bae-3ea3-40d5-b685-75639072eb17","system_id":"levelo_inurba_marseille","lat":43.30739,"lon":5.4243,"is_reserved":false,"is_disabled":false,"rental_uris":{"android":"levelo://app?vid=43642bae-3ea3-40d5-b685-75639072eb17","ios":"levelo://app?vid=43642bae-3ea3-40d5-b685-75639072eb17"},"vehicle_type_id":"4","last_reported":1765955713,"current_range_meters":7200,"station_id":"st_cvj6ca6bvosntc0bfgr0","pricing_plan_id":"cebpf4jnsgd1na2vs0mg"},{"bike_id":"343fe7d0-3d78-4db3-9459-a24be8980043","system_id":"levelo_inurba_marseille","lat":43.294197,"lon":5.383669,"is_reserved":false,"is_disabled":false,"rental_uris":{"android":"levelo://app?vid=343fe7d0-3d78-4db3-9459-a24be8980043","ios":"levelo://app?vid=343fe7d0-3d78-4db3-9459-a24be8980043"},"vehicle_type_id":"4","last_reported":1765955713,"current_range_meters":7200,"station_id":"","pricing_plan_id":"cebpf4jnsgd1na2vs0mg"},{"bike_id":"a68724f3-9079-4ac0-99d8-947a1eec74a3","system_id":"levelo_inurba_marseille","lat":43.30584,"lon":5.39352,"is_reserved":false,"is_disabled":false,"rental_uris":{"android":"levelo://app?vid=a68724f3-9079-4ac0-99d8-947a1eec74a3","ios":"levelo://app?vid=a68724f3-9079-4ac0-99d8-947a1eec74a3"},"vehicle_type_id":"4","last_reported":1765955713,"current_range_meters":7200,"station_id":"ce4bh0p2rcd13ifvqd80","pricing_plan_id":"cebpf4jnsgd1na2vs0mg"},{"bike_id":"62319f52-bb5a-47c6-bf63-d8b31ecb59b3","system_id":"levelo_inurba_marseille","lat":43.26457,"lon":5.37356,"is_reserved":false,"is_disabled":false,"rental_uris":{"android":"levelo://app?vid=62319f52-bb5a-47c6-bf63-d8b31ecb59b3","ios":"levelo://app?vid=62319f52-bb5a-47c6-bf63-d8b31ecb59b3"},"vehicle_type_id":"4","last_reported":1765955713,"current_range_meters":8000,"station_id":"","pricing_plan_id":"cebpf4jnsgd1na2vs0mg"},{"bike_id":"168944bc-143d-4235-a87c-58523f4f4dd7","system_id":"levelo_inurba_marseille","lat":43.296338,"lon":5.380842,"is_reserved":false,"is_disabled":true,"rental_uris":{"android":"levelo://app?vid=168944bc-143d-4235-a87c-58523f4f4dd7","ios":"levelo://app?vid=168944bc-143d-4235-a87c-58523f4f4dd7"},"vehicle_type_id":"4","last_reported":1765955713,"current_range_meters":8000,"station_id":"","pricing_plan_id":"cebpf4jnsgd1na2vs0mg"},{"bike_id":"77e0d0eb-6af8-474d-83a5-2b5e4ff0d935","system_id":"levelo_inurba_marseille","lat":43.24638,"lon":5.43142,"is_reserved":false,"is_disabled":true,"rental_uris":{"android":"levelo://app?vid=77e0d0eb-6af8-474d-83a5-2b5e4ff0d935","ios":"levelo://app?vid=77e0d0eb-6af8-474d-83a5-2b5e4ff0d935"},"vehicle_type_id":"4","last_reported":1765955713,"current_range_meters":8000,"station_id":"st_d2m6c4gdas8pm72e190g","pricing_plan_id":"cebpf4jnsgd1na2vs0mg"},{"bike_id":"9c80943f-081c-4554-ab13-23237f08e039","system_id":"levelo_inurba_marseille","lat":43.29057,"lon":5.397825,"is_reserved":false,"is_disabled":false,"rental_uris":{"android":"levelo://app?vid=9c80943f-081c-4554-ab13-23237f08e039","ios":"levelo://app?vid=9c80943f-081c-4554-ab13-23237f08e039"},"vehicle_type_id":"4","last_reported":1765955713,"current_range_meters":8000,"station_id":"ce4bh392rcd13ifvqdm0","pricing_plan_id":"cebpf4jnsgd1na2vs0mg"},{"bike_id":"d6e72738-4273-4ffc-a51f-6275f36eb1ea","system_id":"levelo_inurba_marseille","lat":43.30147,"lon":5.38081,"is_reserved":false,"is_disabled":false,"rental_uris":{"android":"levelo://app?vid=d6e72738-4273-4ffc-a51f-6275f36eb1ea","ios":"levelo://app?vid=d6e72738-4273-4ffc-a51f-6275f36eb1ea"},"vehicle_type_id":"4","last_reported":1765955713,"current_range_meters":8000,"station_id":"","pricing_plan_id":"cebpf4jnsgd1na2vs0mg"},{"bike_id":"b5de3dc8-191d-41f1-a993-dd1eca7db6fc","system_id":"levelo_inurba_marseille","lat":43.31015,"lon":5.39338,"is_reserved":false,"is_disabled":false,"rental_uris":{"android":"levelo://app?vid=b5de3dc8-191d-41f1-a993-dd1eca7db6fc","ios":"levelo://app?vid=b5de3dc8-191d-41f1-a993-dd1eca7db6fc"},"vehicle_type_id":"4","last_reported":1765955713,"current_range_meters":8000,"station_id":"","pricing_plan_id":"cebpf4jnsgd1na2vs0mg"},{"bike_id":"5d291646-319f-4fee-b92c-a29bbf34c415","system_id":"levelo_inurba_marseille","lat":43.30457,"lon":5.37907,"is_reserved":false,"is_disabled":false,"rental_uris":{"android":"levelo://app?vid=5d291646-319f-4fee-b92c-a29bbf34c415","ios":"levelo://app?vid=5d291646-319f-4fee-b92c-a29bbf34c415"},"vehicle_type_id":"4","last_reported":1765955713,"current_range_meters":8000,"station_id":"ce4bgup2rcd13ifvqcn0","pricing_plan_id":"cebpf4jnsgd1na2vs0mg"},{"bike_id":"a7cc7377-8cb2-4837-9a47-27c45eab233a","system_id":"levelo_inurba_marseille","lat":43.30566,"lon":5.39339,"is_reserved":false,"is_disabled":false,"rental_uris":{"android":"levelo://app?vid=a7cc7377-8cb2-4837-9a47-27c45eab233a","ios":"levelo://app?vid=a7cc7377-8cb2-4837-9a47-27c45eab233a"},"vehicle_type_id":"4","last_reported":1765955713,"current_range_meters":8400,"station_id":"ce4bh0p2rcd13ifvqd80","pricing_plan_id":"cebpf4jnsgd1na2vs0mg"},{"bike_id":"67be8c3b-4400-403c-b56e-31f2a51931e7","system_id":"levelo_inurba_marseille","lat":43.23192,"lon":5.35538,"is_reserved":false,"is_disabled":true,"rental_uris":{"android":"levelo://app?vid=67be8c3b-4400-403c-b56e-31f2a51931e7","ios":"levelo://app?vid=67be8c3b-4400-403c-b56e-31f2a51931e7"},"vehicle_type_id":"4","last_reported":1765955713,"current_range_meters":8400,"station_id":"ce4bhu92rcd13ifvqi70","pricing_plan_id":"cebpf4jnsgd1na2vs0mg"},{"bike_id":"bdfdd4a8-1daf-42c9-bd6e-fef1676d674d","system_id":"levelo_inurba_marseille","lat":43.286567,"lon":5.363506,"is_reserved":false,"is_disabled":false,"rental_uris":{"android":"levelo://app?vid=bdfdd4a8-1daf-42c9-bd6e-fef1676d674d","ios":"levelo://app?vid=bdfdd4a8-1daf-42c9-bd6e-fef1676d674d"},"vehicle_type_id":"4","last_reported":1765955713,"current_range_meters":8400,"station_id":"ce4bhah2rcd13ifvqej0","pricing_plan_id":"cebpf4jnsgd1na2vs0mg"},{"bike_id":"0fc26cb2-fc00-491d-95b7-3f6a852c11de","system_id":"levelo_inurba_marseille","lat":43.284561,"lon":5.358933,"is_reserved":false,"is_disabled":false,"rental_uris":{"android":"levelo://app?vid=0fc26cb2-fc00-491d-95b7-3f6a852c11de","ios":"levelo://app?vid=0fc26cb2-fc00-491d-95b7-3f6a852c11de"},"vehicle_type_id":"4","last_reported":1765955713,"current_range_meters":8400,"station_id":"ce4bhah2rcd13ifvqei0","pricing_plan_id":"cebpf4jnsgd1na2vs0mg"},{"bike_id":"860586bd-84d4-43ba-af58-7f526b0205ca","system_id":"levelo_inurba_marseille","lat":43.31441,"lon":5.37419,"is_reserved":false,"is_disabled":false,"rental_uris":{"android":"levelo://app?vid=860586bd-84d4-43ba-af58-7f526b0205ca","ios":"levelo://app?vid=860586bd-84d4-43ba-af58-7f526b0205ca"},"vehicle_type_id":"4","last_reported":1765955713,"current_range_meters":8400,"station_id":"","pricing_plan_id":"cebpf4jnsgd1na2vs0mg"},{"bike_id":"b296fdce-bc4e-4615-b7a9-989d9472d975","system_id":"levelo_inurba_marseille","lat":43.25584,"lon":5.38217,"is_reserved":false,"is_disabled":false,"rental_uris":{"android":"levelo://app?vid=b296fdce-bc4e-4615-b7a9-989d9472d975","ios":"levelo://app?vid=b296fdce-bc4e-4615-b7a9-989d9472d975"},"vehicle_type_id":"4","last_reported":1765955713,"current_range_meters":8400,"station_id":"ce4bhih2rcd13ifvqfs0","pricing_plan_id":"cebpf4jnsgd1na2vs0mg"},{"bike_id":"f9ba0bc8-1678-4550-8ab9-06ec3e215e8d","system_id":"levelo_inurba_marseille","lat":43.337444,"lon":5.374475,"is_reserved":false,"is_disabled":false,"rental_uris":{"android":"levelo://app?vid=f9ba0bc8-1678-4550-8ab9-06ec3e215e8d","ios":"levelo://app?vid=f9ba0bc8-1678-4550-8ab9-06ec3e215e8d"},"vehicle_type_id":"4","last_reported":1765955713,"current_range_meters":8400,"station_id":"","pricing_plan_id":"cebpf4jnsgd1na2vs0mg"},{"bike_id":"929cf538-0f17-44b1-998a-c48280fa525c","system_id":"levelo_inurba_marseille","lat":43.27484,"lon":5.42446,"is_reserved":false,"is_disabled":false,"rental_uris":{"android":"levelo://app?vid=929cf538-0f17-44b1-998a-c48280fa525c","ios":"levelo://app?vid=929cf538-0f17-44b1-998a-c48280fa525c"},"vehicle_type_id":"4","last_reported":1765955713,"current_range_meters":8400,"station_id":"ce4bhn92rcd13ifvqgrg","pricing_plan_id":"cebpf4jnsgd1na2vs0mg"},{"bike_id":"e70bca03-b790-4942-9e87-552f261a9e48","system_id":"levelo_inurba_marseille","lat":43.270575,"lon":5.383077,"is_reserved":false,"is_disabled":false,"rental_uris":{"android":"levelo://app?vid=e70bca03-b790-4942-9e87-552f261a9e48","ios":"levelo://app?vid=e70bca03-b790-4942-9e87-552f261a9e48"},"vehicle_type_id":"4","last_reported":1765955713,"current_range_meters":8400,"station_id":"st_d3n2fo6cfp8s73cte1j0","pricing_plan_id":"cebpf4jnsgd1na2vs0mg"},{"bike_id":"5f9115dc-47d2-4bdb-be36-56ac4d2294b3","system_id":"levelo_inurba_marseille","lat":43.30749,"lon":5.42434,"is_reserved":false,"is_disabled":false,"rental_uris":{"android":"levelo://app?vid=5f9115dc-47d2-4bdb-be36-56ac4d2294b3","ios":"levelo://app?vid=5f9115dc-47d2-4bdb-be36-56ac4d2294b3"},"vehicle_type_id":"4","last_reported":1765955713,"current_range_meters":8400,"station_id":"st_cvj6ca6bvosntc0bfgr0","pricing_plan_id":"cebpf4jnsgd1na2vs0mg"},{"bike_id":"8de55e16-a7ce-41f1-8065-ce677951c206","system_id":"levelo_inurba_marseille","lat":43.29517,"lon":5.39042,"is_reserved":false,"is_disabled":false,"rental_uris":{"android":"levelo://app?vid=8de55e16-a7ce-41f1-8065-ce677951c206","ios":"levelo://app?vid=8de55e16-a7ce-41f1-8065-ce677951c206"},"vehicle_type_id":"4","last_reported":1765955713,"current_range_meters":8400,"station_id":"ce4bh3p2rcd13ifvqdp0","pricing_plan_id":"cebpf4jnsgd1na2vs0mg"},{"bike_id":"100f7b7c-1e92-4651-aa96-952f638bad27","system_id":"levelo_inurba_marseille","lat":43.310803,"lon":5.424355,"is_reserved":false,"is_disabled":false,"rental_uris":{"android":"levelo://app?vid=100f7b7c-1e92-4651-aa96-952f638bad27","ios":"levelo://app?vid=100f7b7c-1e92-4651-aa96-952f638bad27"},"vehicle_type_id":"4","last_reported":1765955713,"current_range_meters":8400,"station_id":"ce4bhp92rcd13ifvqhag","pricing_plan_id":"cebpf4jnsgd1na2vs0mg"},{"bike_id":"5871354b-8a6e-4e60-b4a0-44fcf53fbcc6","system_id":"levelo_inurba_marseille","lat":43.29531,"lon":5.38544,"is_reserved":false,"is_disabled":false,"rental_uris":{"android":"levelo://app?vid=5871354b-8a6e-4e60-b4a0-44fcf53fbcc6","ios":"levelo://app?vid=5871354b-8a6e-4e60-b4a0-44fcf53fbcc6"},"vehicle_type_id":"4","last_reported":1765955713,"current_range_meters":8400,"station_id":"ce4bgih2rcd13ifvqba0","pricing_plan_id":"cebpf4jnsgd1na2vs0mg"},{"bike_id":"bfae7ad9-0be6-400c-9401-6605e8971a7e","system_id":"levelo_inurba_marseille","lat":43.28665,"lon":5.38014,"is_reserved":false,"is_disabled":false,"rental_uris":{"android":"levelo://app?vid=bfae7ad9-0be6-400c-9401-6605e8971a7e","ios":"levelo://app?vid=bfae7ad9-0be6-400c-9401-6605e8971a7e"},"vehicle_type_id":"4","last_reported":1765955713,"current_range_meters":8400,"station_id":"","pricing_plan_id":"cebpf4jnsgd1na2vs0mg"},{"bike_id":"90f357fd-4c0f-4c8b-96c8-9cf3e3651b28","system_id":"levelo_inurba_marseille","lat":43.2827,"lon":5.35066,"is_reserved":false,"is_disabled":false,"rental_uris":{"android":"levelo://app?vid=90f357fd-4c0f-4c8b-96c8-9cf3e3651b28","ios":"levelo://app?vid=90f357fd-4c0f-4c8b-96c8-9cf3e3651b28"},"vehicle_type_id":"4","last_reported":1765955713,"current_range_meters":8800,"station_id":"ce4bhbp2rcd13ifvqerg","pricing_plan_id":"cebpf4jnsgd1na2vs0mg"},{"bike_id":"572fd032-f62a-46e0-ab46-89098c0755dc","system_id":"levelo_inurba_marseille","lat":43.29784,"lon":5.38115,"is_reserved":false,"is_disabled":false,"rental_uris":{"android":"levelo://app?vid=572fd032-f62a-46e0-ab46-89098c0755dc","ios":"levelo://app?vid=572fd032-f62a-46e0-ab46-89098c0755dc"},"vehicle_type_id":"4","last_reported":1765955713,"current_range_meters":8800,"station_id":"ce4bgip2rcd13ifvqbb0","pricing_plan_id":"cebpf4jnsgd1na2vs0mg"},{"bike_id":"ab4ef196-e8fa-4fab-81e9-8ad3ad4973f7","system_id":"levelo_inurba_marseille","lat":43.27064,"lon":5.42262,"is_reserved":false,"is_disabled":true,"rental_uris":{"android":"levelo://app?vid=ab4ef196-e8fa-4fab-81e9-8ad3ad4973f7","ios":"levelo://app?vid=ab4ef196-e8fa-4fab-81e9-8ad3ad4973f7"},"vehicle_type_id":"4","last_reported":1765955713,"current_range_meters":8800,"station_id":"ce4bhk92rcd13ifvqgb0","pricing_plan_id":"cebpf4jnsgd1na2vs0mg"},{"bike_id":"7b9bd5de-20ee-492a-91cc-3964972326b2","system_id":"levelo_inurba_marseille","lat":43.29481,"lon":5.38296,"is_reserved":false,"is_disabled":false,"rental_uris":{"android":"levelo://app?vid=7b9bd5de-20ee-492a-91cc-3964972326b2","ios":"levelo://app?vid=7b9bd5de-20ee-492a-91cc-3964972326b2"},"vehicle_type_id":"4","last_reported":1765955713,"current_range_meters":8800,"station_id":"","pricing_plan_id":"cebpf4jnsgd1na2vs0mg"},{"bike_id":"7c64e78f-2a73-4e8f-8431-bb6751dbd5a5","system_id":"levelo_inurba_marseille","lat":43.31288,"lon":5.40173,"is_reserved":false,"is_disabled":false,"rental_uris":{"android":"levelo://app?vid=7c64e78f-2a73-4e8f-8431-bb6751dbd5a5","ios":"levelo://app?vid=7c64e78f-2a73-4e8f-8431-bb6751dbd5a5"},"vehicle_type_id":"4","last_reported":1765955713,"current_range_meters":9200,"station_id":"ce4bh092rcd13ifvqd30","pricing_plan_id":"cebpf4jnsgd1na2vs0mg"},{"bike_id":"b2d0bee3-8553-4527-a831-d1e903999f00","system_id":"levelo_inurba_marseille","lat":43.316791,"lon":5.375612,"is_reserved":false,"is_disabled":false,"rental_uris":{"android":"levelo://app?vid=b2d0bee3-8553-4527-a831-d1e903999f00","ios":"levelo://app?vid=b2d0bee3-8553-4527-a831-d1e903999f00"},"vehicle_type_id":"4","last_reported":1765955713,"current_range_meters":9200,"station_id":"","pricing_plan_id":"cebpf4jnsgd1na2vs0mg"},{"bike_id":"d0c81cd9-bcb1-46de-85cc-999523e8d872","system_id":"levelo_inurba_marseille","lat":43.30442,"lon":5.37089,"is_reserved":false,"is_disabled":false,"rental_uris":{"android":"levelo://app?vid=d0c81cd9-bcb1-46de-85cc-999523e8d872","ios":"levelo://app?vid=d0c81cd9-bcb1-46de-85cc-999523e8d872"},"vehicle_type_id":"4","last_reported":1765955713,"current_range_meters":9200,"station_id":"","pricing_plan_id":"cebpf4jnsgd1na2vs0mg"},{"bike_id":"21bcd810-1303-43db-a3fe-409b08319e8a","system_id":"levelo_inurba_marseille","lat":43.25328,"lon":5.42174,"is_reserved":false,"is_disabled":false,"rental_uris":{"android":"levelo://app?vid=21bcd810-1303-43db-a3fe-409b08319e8a","ios":"levelo://app?vid=21bcd810-1303-43db-a3fe-409b08319e8a"},"vehicle_type_id":"4","last_reported":1765955713,"current_range_meters":9200,"station_id":"st_d2m65c5bi1j21697t3ng","pricing_plan_id":"cebpf4jnsgd1na2vs0mg"},{"bike_id":"7eaed911-52ff-45ed-b3ff-cd17f37407d1","system_id":"levelo_inurba_marseille","lat":43.282334,"lon":5.349023,"is_reserved":false,"is_disabled":false,"rental_uris":{"android":"levelo://app?vid=7eaed911-52ff-45ed-b3ff-cd17f37407d1","ios":"levelo://app?vid=7eaed911-52ff-45ed-b3ff-cd17f37407d1"},"vehicle_type_id":"4","last_reported":1765955713,"current_range_meters":9200,"station_id":"","pricing_plan_id":"cebpf4jnsgd1na2vs0mg"},{"bike_id":"fae22fbf-f972-4375-a6a6-42de28a7662b","system_id":"levelo_inurba_marseille","lat":43.24627,"lon":5.43128,"is_reserved":false,"is_disabled":false,"rental_uris":{"android":"levelo://app?vid=fae22fbf-f972-4375-a6a6-42de28a7662b","ios":"levelo://app?vid=fae22fbf-f972-4375-a6a6-42de28a7662b"},"vehicle_type_id":"4","last_reported":1765955713,"current_range_meters":9200,"station_id":"st_d2m6c4gdas8pm72e190g","pricing_plan_id":"cebpf4jnsgd1na2vs0mg"},{"bike_id":"43f1e5b6-6733-49f3-afee-4b272067dec8","system_id":"levelo_inurba_marseille","lat":43.241677,"lon":5.363957,"is_reserved":false,"is_disabled":false,"rental_uris":{"android":"levelo://app?vid=43f1e5b6-6733-49f3-afee-4b272067dec8","ios":"levelo://app?vid=43f1e5b6-6733-49f3-afee-4b272067dec8"},"vehicle_type_id":"4","last_reported":1765955713,"current_range_meters":9200,"station_id":"cpo36qri1sfpv3e86is0","pricing_plan_id":"cebpf4jnsgd1na2vs0mg"},{"bike_id":"b325c2c2-d335-46e8-8873-e16fb8ab4685","system_id":"levelo_inurba_marseille","lat":43.33601,"lon":5.41023,"is_reserved":false,"is_disabled":false,"rental_uris":{"android":"levelo://app?vid=b325c2c2-d335-46e8-8873-e16fb8ab4685","ios":"levelo://app?vid=b325c2c2-d335-46e8-8873-e16fb8ab4685"},"vehicle_type_id":"4","last_reported":1765955713,"current_range_meters":9200,"station_id":"ce4bhqh2rcd13ifvqhmg","pricing_plan_id":"cebpf4jnsgd1na2vs0mg"},{"bike_id":"f5c06492-8ff7-4eb9-a21d-99dd280e7db4","system_id":"levelo_inurba_marseille","lat":43.29808,"lon":5.44052,"is_reserved":false,"is_disabled":false,"rental_uris":{"android":"levelo://app?vid=f5c06492-8ff7-4eb9-a21d-99dd280e7db4","ios":"levelo://app?vid=f5c06492-8ff7-4eb9-a21d-99dd280e7db4"},"vehicle_type_id":"4","last_reported":1765955713,"current_range_meters":9200,"station_id":"st_d3jp68qikq2c7381ktn0","pricing_plan_id":"cebpf4jnsgd1na2vs0mg"},{"bike_id":"15d813ba-27fd-4382-ad14-89afa4b8c8d7","system_id":"levelo_inurba_marseille","lat":43.259322,"lon":5.409057,"is_reserved":false,"is_disabled":false,"rental_uris":{"android":"levelo://app?vid=15d813ba-27fd-4382-ad14-89afa4b8c8d7","ios":"levelo://app?vid=15d813ba-27fd-4382-ad14-89afa4b8c8d7"},"vehicle_type_id":"4","last_reported":1765955713,"current_range_meters":9200,"station_id":"ce4bhm92rcd13ifvqglg","pricing_plan_id":"cebpf4jnsgd1na2vs0mg"},{"bike_id":"4c0adb54-e09e-48f3-baae-3a20f0af4e72","system_id":"levelo_inurba_marseille","lat":43.33613,"lon":5.40978,"is_reserved":false,"is_disabled":false,"rental_uris":{"android":"levelo://app?vid=4c0adb54-e09e-48f3-baae-3a20f0af4e72","ios":"levelo://app?vid=4c0adb54-e09e-48f3-baae-3a20f0af4e72"},"vehicle_type_id":"4","last_reported":1765955713,"current_range_meters":9200,"station_id":"ce4bhqh2rcd13ifvqhmg","pricing_plan_id":"cebpf4jnsgd1na2vs0mg"},{"bike_id":"a6f71e09-b962-42b4-a3c9-a9b81620c432","system_id":"levelo_inurba_marseille","lat":43.2797,"lon":5.38738,"is_reserved":false,"is_disabled":false,"rental_uris":{"android":"levelo://app?vid=a6f71e09-b962-42b4-a3c9-a9b81620c432","ios":"levelo://app?vid=a6f71e09-b962-42b4-a3c9-a9b81620c432"},"vehicle_type_id":"4","last_reported":1765955713,"current_range_meters":9200,"station_id":"ce4bhg12rcd13ifvqf80","pricing_plan_id":"cebpf4jnsgd1na2vs0mg"},{"bike_id":"c6f2c0bb-fb9d-4204-8022-654c2fce133f","system_id":"levelo_inurba_marseille","lat":43.29297,"lon":5.37458,"is_reserved":false,"is_disabled":false,"rental_uris":{"android":"levelo://app?vid=c6f2c0bb-fb9d-4204-8022-654c2fce133f","ios":"levelo://app?vid=c6f2c0bb-fb9d-4204-8022-654c2fce133f"},"vehicle_type_id":"4","last_reported":1765955713,"current_range_meters":9200,"station_id":"ce4bgi12rcd13ifvqb70","pricing_plan_id":"cebpf4jnsgd1na2vs0mg"},{"bike_id":"0b557579-9da4-41e2-a8a1-e4e1ffc512f2","system_id":"levelo_inurba_marseille","lat":43.28155,"lon":5.42644,"is_reserved":false,"is_disabled":false,"rental_uris":{"android":"levelo://app?vid=0b557579-9da4-41e2-a8a1-e4e1ffc512f2","ios":"levelo://app?vid=0b557579-9da4-41e2-a8a1-e4e1ffc512f2"},"vehicle_type_id":"4","last_reported":1765955713,"current_range_meters":9200,"station_id":"ce4bhnh2rcd13ifvqgug","pricing_plan_id":"cebpf4jnsgd1na2vs0mg"},{"bike_id":"71eb1a16-88e0-457c-a111-7bb97e3f4d31","system_id":"levelo_inurba_marseille","lat":43.28531,"lon":5.44095,"is_reserved":false,"is_disabled":false,"rental_uris":{"android":"levelo://app?vid=71eb1a16-88e0-457c-a111-7bb97e3f4d31","ios":"levelo://app?vid=71eb1a16-88e0-457c-a111-7bb97e3f4d31"},"vehicle_type_id":"4","last_reported":1765955713,"current_range_meters":9600,"station_id":"st_d3j3df2ikq2c7380ej80","pricing_plan_id":"cebpf4jnsgd1na2vs0mg"},{"bike_id":"b15e6942-c3bc-4e01-ad46-908264752494","system_id":"levelo_inurba_marseille","lat":43.25115,"lon":5.39483,"is_reserved":false,"is_disabled":false,"rental_uris":{"android":"levelo://app?vid=b15e6942-c3bc-4e01-ad46-908264752494","ios":"levelo://app?vid=b15e6942-c3bc-4e01-ad46-908264752494"},"vehicle_type_id":"4","last_reported":1765955713,"current_range_meters":9600,"station_id":"ce4bhm12rcd13ifvqgkg","pricing_plan_id":"cebpf4jnsgd1na2vs0mg"},{"bike_id":"0f9e6f74-c72d-458b-b50f-68130f3f5b68","system_id":"levelo_inurba_marseille","lat":43.2496,"lon":5.40488,"is_reserved":false,"is_disabled":false,"rental_uris":{"android":"levelo://app?vid=0f9e6f74-c72d-458b-b50f-68130f3f5b68","ios":"levelo://app?vid=0f9e6f74-c72d-458b-b50f-68130f3f5b68"},"vehicle_type_id":"4","last_reported":1765955713,"current_range_meters":9600,"station_id":"st_d2ngiaodas8pm72gd1h0","pricing_plan_id":"cebpf4jnsgd1na2vs0mg"},{"bike_id":"45bd7f4b-c601-4bac-9122-888e5d991110","system_id":"levelo_inurba_marseille","lat":43.30481,"lon":5.379,"is_reserved":false,"is_disabled":false,"rental_uris":{"android":"levelo://app?vid=45bd7f4b-c601-4bac-9122-888e5d991110","ios":"levelo://app?vid=45bd7f4b-c601-4bac-9122-888e5d991110"},"vehicle_type_id":"4","last_reported":1765955713,"current_range_meters":9600,"station_id":"ce4bgup2rcd13ifvqcn0","pricing_plan_id":"cebpf4jnsgd1na2vs0mg"},{"bike_id":"e1e61900-3bd6-4af2-8840-8b5a71560aec","system_id":"levelo_inurba_marseille","lat":43.29196,"lon":5.35799,"is_reserved":false,"is_disabled":false,"rental_uris":{"android":"levelo://app?vid=e1e61900-3bd6-4af2-8840-8b5a71560aec","ios":"levelo://app?vid=e1e61900-3bd6-4af2-8840-8b5a71560aec"},"vehicle_type_id":"4","last_reported":1765955713,"current_range_meters":9600,"station_id":"ce4bhb12rcd13ifvqel0","pricing_plan_id":"cebpf4jnsgd1na2vs0mg"},{"bike_id":"98341610-2a18-4802-be53-05b830c68b76","system_id":"levelo_inurba_marseille","lat":43.29793,"lon":5.38091,"is_reserved":false,"is_disabled":false,"rental_uris":{"android":"levelo://app?vid=98341610-2a18-4802-be53-05b830c68b76","ios":"levelo://app?vid=98341610-2a18-4802-be53-05b830c68b76"},"vehicle_type_id":"4","last_reported":1765955713,"current_range_meters":9600,"station_id":"ce4bgip2rcd13ifvqbb0","pricing_plan_id":"cebpf4jnsgd1na2vs0mg"},{"bike_id":"a1ea4967-b2ee-40d7-bbad-b544553f9b30","system_id":"levelo_inurba_marseille","lat":43.286643,"lon":5.363471,"is_reserved":false,"is_disabled":false,"rental_uris":{"android":"levelo://app?vid=a1ea4967-b2ee-40d7-bbad-b544553f9b30","ios":"levelo://app?vid=a1ea4967-b2ee-40d7-bbad-b544553f9b30"},"vehicle_type_id":"4","last_reported":1765955713,"current_range_meters":9600,"station_id":"ce4bhah2rcd13ifvqej0","pricing_plan_id":"cebpf4jnsgd1na2vs0mg"},{"bike_id":"c207d154-2a6e-4f87-9688-1e794e636894","system_id":"levelo_inurba_marseille","lat":43.229281,"lon":5.353794,"is_reserved":false,"is_disabled":false,"rental_uris":{"android":"levelo://app?vid=c207d154-2a6e-4f87-9688-1e794e636894","ios":"levelo://app?vid=c207d154-2a6e-4f87-9688-1e794e636894"},"vehicle_type_id":"4","last_reported":1765955713,"current_range_meters":9600,"station_id":"cpo3532slgdg3j2ikp40","pricing_plan_id":"cebpf4jnsgd1na2vs0mg"},{"bike_id":"c852963f-7559-4395-a425-4b863be5c957","system_id":"levelo_inurba_marseille","lat":43.28471,"lon":5.38565,"is_reserved":false,"is_disabled":false,"rental_uris":{"android":"levelo://app?vid=c852963f-7559-4395-a425-4b863be5c957","ios":"levelo://app?vid=c852963f-7559-4395-a425-4b863be5c957"},"vehicle_type_id":"4","last_reported":1765955713,"current_range_meters":9600,"station_id":"ce4bh8p2rcd13ifvqeb0","pricing_plan_id":"cebpf4jnsgd1na2vs0mg"},{"bike_id":"0e7ad18c-be28-45c2-af6b-2a66d29e6ce9","system_id":"levelo_inurba_marseille","lat":43.282866,"lon":5.350772,"is_reserved":false,"is_disabled":false,"rental_uris":{"android":"levelo://app?vid=0e7ad18c-be28-45c2-af6b-2a66d29e6ce9","ios":"levelo://app?vid=0e7ad18c-be28-45c2-af6b-2a66d29e6ce9"},"vehicle_type_id":"4","last_reported":1765955713,"current_range_meters":9600,"station_id":"ce4bhbp2rcd13ifvqerg","pricing_plan_id":"cebpf4jnsgd1na2vs0mg"},{"bike_id":"b83f4d2c-5349-4333-b9a9-95c155b2591e","system_id":"levelo_inurba_marseille","lat":43.2695,"lon":5.38636,"is_reserved":false,"is_disabled":false,"rental_uris":{"android":"levelo://app?vid=b83f4d2c-5349-4333-b9a9-95c155b2591e","ios":"levelo://app?vid=b83f4d2c-5349-4333-b9a9-95c155b2591e"},"vehicle_type_id":"4","last_reported":1765955713,"current_range_meters":9600,"station_id":"ce4bhh92rcd13ifvqfh0","pricing_plan_id":"cebpf4jnsgd1na2vs0mg"},{"bike_id":"ad5077e7-adfd-4460-ab6e-dc27206627c9","system_id":"levelo_inurba_marseille","lat":43.23785,"lon":5.36629,"is_reserved":false,"is_disabled":false,"rental_uris":{"android":"levelo://app?vid=ad5077e7-adfd-4460-ab6e-dc27206627c9","ios":"levelo://app?vid=ad5077e7-adfd-4460-ab6e-dc27206627c9"},"vehicle_type_id":"4","last_reported":1765955713,"current_range_meters":10000,"station_id":"st_d3nk18o9ro0c73en2l3g","pricing_plan_id":"cebpf4jnsgd1na2vs0mg"},{"bike_id":"54f8fe26-ad2a-40ba-8e6d-e7235d52405d","system_id":"levelo_inurba_marseille","lat":43.253428,"lon":5.421723,"is_reserved":false,"is_disabled":true,"rental_uris":{"android":"levelo://app?vid=54f8fe26-ad2a-40ba-8e6d-e7235d52405d","ios":"levelo://app?vid=54f8fe26-ad2a-40ba-8e6d-e7235d52405d"},"vehicle_type_id":"4","last_reported":1765955713,"current_range_meters":10000,"station_id":"st_d2m65c5bi1j21697t3ng","pricing_plan_id":"cebpf4jnsgd1na2vs0mg"},{"bike_id":"ed3c0315-4aac-475a-89d3-90326aeb5650","system_id":"levelo_inurba_marseille","lat":43.30667,"lon":5.40096,"is_reserved":false,"is_disabled":false,"rental_uris":{"android":"levelo://app?vid=ed3c0315-4aac-475a-89d3-90326aeb5650","ios":"levelo://app?vid=ed3c0315-4aac-475a-89d3-90326aeb5650"},"vehicle_type_id":"4","last_reported":1765955713,"current_range_meters":10000,"station_id":"ce4bh112rcd13ifvqda0","pricing_plan_id":"cebpf4jnsgd1na2vs0mg"},{"bike_id":"15c757bc-97dd-4fce-b499-42d9f825680b","system_id":"levelo_inurba_marseille","lat":43.30121,"lon":5.43113,"is_reserved":false,"is_disabled":false,"rental_uris":{"android":"levelo://app?vid=15c757bc-97dd-4fce-b499-42d9f825680b","ios":"levelo://app?vid=15c757bc-97dd-4fce-b499-42d9f825680b"},"vehicle_type_id":"4","last_reported":1765955713,"current_range_meters":10000,"station_id":"st_d3js3co5814s73ftftug","pricing_plan_id":"cebpf4jnsgd1na2vs0mg"},{"bike_id":"027ddd89-1c7c-4899-92a1-8c53dba3b80e","system_id":"levelo_inurba_marseille","lat":43.24073,"lon":5.37753,"is_reserved":false,"is_disabled":false,"rental_uris":{"android":"levelo://app?vid=027ddd89-1c7c-4899-92a1-8c53dba3b80e","ios":"levelo://app?vid=027ddd89-1c7c-4899-92a1-8c53dba3b80e"},"vehicle_type_id":"4","last_reported":1765955713,"current_range_meters":10000,"station_id":"ce4bhnp2rcd13ifvqgvg","pricing_plan_id":"cebpf4jnsgd1na2vs0mg"},{"bike_id":"871c2ca1-2c78-4b5f-8216-9718d6ccc587","system_id":"levelo_inurba_marseille","lat":43.28467,"lon":5.38414,"is_reserved":false,"is_disabled":false,"rental_uris":{"android":"levelo://app?vid=871c2ca1-2c78-4b5f-8216-9718d6ccc587","ios":"levelo://app?vid=871c2ca1-2c78-4b5f-8216-9718d6ccc587"},"vehicle_type_id":"4","last_reported":1765955713,"current_range_meters":10000,"station_id":"ce4bh512rcd13ifvqe3g","pricing_plan_id":"cebpf4jnsgd1na2vs0mg"},{"bike_id":"d41a21d4-827e-499c-91c6-deff6eb783e7","system_id":"levelo_inurba_marseille","lat":43.24624,"lon":5.43143,"is_reserved":false,"is_disabled":true,"rental_uris":{"android":"levelo://app?vid=d41a21d4-827e-499c-91c6-deff6eb783e7","ios":"levelo://app?vid=d41a21d4-827e-499c-91c6-deff6eb783e7"},"vehicle_type_id":"4","last_reported":1765955713,"current_range_meters":10800,"station_id":"st_d2m6c4gdas8pm72e190g","pricing_plan_id":"cebpf4jnsgd1na2vs0mg"},{"bike_id":"5cde72fc-6b41-4764-bcbf-9fc9dff4199e","system_id":"levelo_inurba_marseille","lat":43.337444,"lon":5.374475,"is_reserved":false,"is_disabled":false,"rental_uris":{"android":"levelo://app?vid=5cde72fc-6b41-4764-bcbf-9fc9dff4199e","ios":"levelo://app?vid=5cde72fc-6b41-4764-bcbf-9fc9dff4199e"},"vehicle_type_id":"4","last_reported":1765955713,"current_range_meters":10800,"station_id":"","pricing_plan_id":"cebpf4jnsgd1na2vs0mg"},{"bike_id":"cb5fb5c4-3bd8-4960-9377-b1a41b4ca74b","system_id":"levelo_inurba_marseille","lat":43.23149,"lon":5.43699,"is_reserved":false,"is_disabled":true,"rental_uris":{"android":"levelo://app?vid=cb5fb5c4-3bd8-4960-9377-b1a41b4ca74b","ios":"levelo://app?vid=cb5fb5c4-3bd8-4960-9377-b1a41b4ca74b"},"vehicle_type_id":"4","last_reported":1765955713,"current_range_meters":10800,"station_id":"ce4bhmp2rcd13ifvqgog","pricing_plan_id":"cebpf4jnsgd1na2vs0mg"},{"bike_id":"886c4777-c3a8-404d-8b7e-98f6e45dfc80","system_id":"levelo_inurba_marseille","lat":43.28934,"lon":5.36636,"is_reserved":false,"is_disabled":false,"rental_uris":{"android":"levelo://app?vid=886c4777-c3a8-404d-8b7e-98f6e45dfc80","ios":"levelo://app?vid=886c4777-c3a8-404d-8b7e-98f6e45dfc80"},"vehicle_type_id":"4","last_reported":1765955713,"current_range_meters":10800,"station_id":"ce4bhap2rcd13ifvqek0","pricing_plan_id":"cebpf4jnsgd1na2vs0mg"},{"bike_id":"0757412c-3a83-462e-90dd-86301f3f0506","system_id":"levelo_inurba_marseille","lat":43.3015,"lon":5.380674,"is_reserved":false,"is_disabled":false,"rental_uris":{"android":"levelo://app?vid=0757412c-3a83-462e-90dd-86301f3f0506","ios":"levelo://app?vid=0757412c-3a83-462e-90dd-86301f3f0506"},"vehicle_type_id":"4","last_reported":1765955713,"current_range_meters":10800,"station_id":"","pricing_plan_id":"cebpf4jnsgd1na2vs0mg"},{"bike_id":"69f89f72-387d-4fe9-8317-e1abd4e78e0f","system_id":"levelo_inurba_marseille","lat":43.24535,"lon":5.3952,"is_reserved":false,"is_disabled":false,"rental_uris":{"android":"levelo://app?vid=69f89f72-387d-4fe9-8317-e1abd4e78e0f","ios":"levelo://app?vid=69f89f72-387d-4fe9-8317-e1abd4e78e0f"},"vehicle_type_id":"4","last_reported":1765955713,"current_range_meters":10800,"station_id":"ce4bhlp2rcd13ifvqgjg","pricing_plan_id":"cebpf4jnsgd1na2vs0mg"},{"bike_id":"89f5a425-6334-463b-8fab-6805660c96eb","system_id":"levelo_inurba_marseille","lat":43.31285,"lon":5.36831,"is_reserved":false,"is_disabled":false,"rental_uris":{"android":"levelo://app?vid=89f5a425-6334-463b-8fab-6805660c96eb","ios":"levelo://app?vid=89f5a425-6334-463b-8fab-6805660c96eb"},"vehicle_type_id":"4","last_reported":1765955713,"current_range_meters":10800,"station_id":"","pricing_plan_id":"cebpf4jnsgd1na2vs0mg"},{"bike_id":"3dfde15d-6f25-4c46-b659-2a69d5c56f4c","system_id":"levelo_inurba_marseille","lat":43.304764,"lon":5.365323,"is_reserved":false,"is_disabled":false,"rental_uris":{"android":"levelo://app?vid=3dfde15d-6f25-4c46-b659-2a69d5c56f4c","ios":"levelo://app?vid=3dfde15d-6f25-4c46-b659-2a69d5c56f4c"},"vehicle_type_id":"4","last_reported":1765955713,"current_range_meters":10800,"station_id":"ce4bgn92rcd13ifvqbvg","pricing_plan_id":"cebpf4jnsgd1na2vs0mg"},{"bike_id":"833a3ce9-1bdb-4c78-a9b6-395db43909ec","system_id":"levelo_inurba_marseille","lat":43.3095,"lon":5.39029,"is_reserved":false,"is_disabled":false,"rental_uris":{"android":"levelo://app?vid=833a3ce9-1bdb-4c78-a9b6-395db43909ec","ios":"levelo://app?vid=833a3ce9-1bdb-4c78-a9b6-395db43909ec"},"vehicle_type_id":"4","last_reported":1765955713,"current_range_meters":10800,"station_id":"ce4bgup2rcd13ifvqco0","pricing_plan_id":"cebpf4jnsgd1na2vs0mg"},{"bike_id":"13881c88-f379-4b15-b25b-205b2232f714","system_id":"levelo_inurba_marseille","lat":43.26228,"lon":5.4045,"is_reserved":false,"is_disabled":false,"rental_uris":{"android":"levelo://app?vid=13881c88-f379-4b15-b25b-205b2232f714","ios":"levelo://app?vid=13881c88-f379-4b15-b25b-205b2232f714"},"vehicle_type_id":"4","last_reported":1765955713,"current_range_meters":10800,"station_id":"ce4bhmh2rcd13ifvqgmg","pricing_plan_id":"cebpf4jnsgd1na2vs0mg"},{"bike_id":"016962ff-4aad-4755-9093-ad2f08ab5d17","system_id":"levelo_inurba_marseille","lat":43.27056,"lon":5.40253,"is_reserved":false,"is_disabled":false,"rental_uris":{"android":"levelo://app?vid=016962ff-4aad-4755-9093-ad2f08ab5d17","ios":"levelo://app?vid=016962ff-4aad-4755-9093-ad2f08ab5d17"},"vehicle_type_id":"4","last_reported":1765955713,"current_range_meters":11200,"station_id":"ce4bhk92rcd13ifvqgc0","pricing_plan_id":"cebpf4jnsgd1na2vs0mg"},{"bike_id":"bdec3b25-1ef1-4f5b-bb7c-5dba5dbc125f","system_id":"levelo_inurba_marseille","lat":43.31941,"lon":5.37289,"is_reserved":false,"is_disabled":false,"rental_uris":{"android":"levelo://app?vid=bdec3b25-1ef1-4f5b-bb7c-5dba5dbc125f","ios":"levelo://app?vid=bdec3b25-1ef1-4f5b-bb7c-5dba5dbc125f"},"vehicle_type_id":"4","last_reported":1765955713,"current_range_meters":11200,"station_id":"","pricing_plan_id":"cebpf4jnsgd1na2vs0mg"},{"bike_id":"c8fcee6d-319c-4850-9f0f-d0131647d598","system_id":"levelo_inurba_marseille","lat":43.257027,"lon":5.41108,"is_reserved":false,"is_disabled":false,"rental_uris":{"android":"levelo://app?vid=c8fcee6d-319c-4850-9f0f-d0131647d598","ios":"levelo://app?vid=c8fcee6d-319c-4850-9f0f-d0131647d598"},"vehicle_type_id":"4","last_reported":1765955713,"current_range_meters":11200,"station_id":"ce4bhkp2rcd13ifvqgd0","pricing_plan_id":"cebpf4jnsgd1na2vs0mg"},{"bike_id":"0b397a54-ce36-4bbf-a3de-34fc8ce39672","system_id":"levelo_inurba_marseille","lat":43.30812,"lon":5.38154,"is_reserved":false,"is_disabled":false,"rental_uris":{"android":"levelo://app?vid=0b397a54-ce36-4bbf-a3de-34fc8ce39672","ios":"levelo://app?vid=0b397a54-ce36-4bbf-a3de-34fc8ce39672"},"vehicle_type_id":"4","last_reported":1765955713,"current_range_meters":11200,"station_id":"ce4bgt12rcd13ifvqce0","pricing_plan_id":"cebpf4jnsgd1na2vs0mg"},{"bike_id":"a871de1e-c565-4e25-8616-7e2406059526","system_id":"levelo_inurba_marseille","lat":43.28708,"lon":5.37426,"is_reserved":false,"is_disabled":true,"rental_uris":{"android":"levelo://app?vid=a871de1e-c565-4e25-8616-7e2406059526","ios":"levelo://app?vid=a871de1e-c565-4e25-8616-7e2406059526"},"vehicle_type_id":"4","last_reported":1765955713,"current_range_meters":11200,"station_id":"ce4bh3p2rcd13ifvqdq0","pricing_plan_id":"cebpf4jnsgd1na2vs0mg"},{"bike_id":"555d8e6c-7c35-42cc-940d-a39910d9b00a","system_id":"levelo_inurba_marseille","lat":43.2587,"lon":5.39895,"is_reserved":false,"is_disabled":false,"rental_uris":{"android":"levelo://app?vid=555d8e6c-7c35-42cc-940d-a39910d9b00a","ios":"levelo://app?vid=555d8e6c-7c35-42cc-940d-a39910d9b00a"},"vehicle_type_id":"4","last_reported":1765955713,"current_range_meters":11200,"station_id":"ce4bhl92rcd13ifvqghg","pricing_plan_id":"cebpf4jnsgd1na2vs0mg"},{"bike_id":"6a26ef33-8204-4bf8-bbbb-122b1a4410f3","system_id":"levelo_inurba_marseille","lat":43.27279,"lon":5.41083,"is_reserved":false,"is_disabled":false,"rental_uris":{"android":"levelo://app?vid=6a26ef33-8204-4bf8-bbbb-122b1a4410f3","ios":"levelo://app?vid=6a26ef33-8204-4bf8-bbbb-122b1a4410f3"},"vehicle_type_id":"4","last_reported":1765955713,"current_range_meters":11200,"station_id":"","pricing_plan_id":"cebpf4jnsgd1na2vs0mg"},{"bike_id":"bb30194d-85ce-4ca8-b46d-788238ef96a9","system_id":"levelo_inurba_marseille","lat":43.32362,"lon":5.38491,"is_reserved":false,"is_disabled":false,"rental_uris":{"android":"levelo://app?vid=bb30194d-85ce-4ca8-b46d-788238ef96a9","ios":"levelo://app?vid=bb30194d-85ce-4ca8-b46d-788238ef96a9"},"vehicle_type_id":"4","last_reported":1765955713,"current_range_meters":11200,"station_id":"st_d45171o9ee8s73djdqug","pricing_plan_id":"cebpf4jnsgd1na2vs0mg"},{"bike_id":"fcddb508-236d-428b-9038-c3ba4ac2e194","system_id":"levelo_inurba_marseille","lat":43.31749,"lon":5.37634,"is_reserved":false,"is_disabled":false,"rental_uris":{"android":"levelo://app?vid=fcddb508-236d-428b-9038-c3ba4ac2e194","ios":"levelo://app?vid=fcddb508-236d-428b-9038-c3ba4ac2e194"},"vehicle_type_id":"4","last_reported":1765955713,"current_range_meters":11600,"station_id":"","pricing_plan_id":"cebpf4jnsgd1na2vs0mg"},{"bike_id":"77d1a8df-3d42-4f59-acd8-37889e71944e","system_id":"levelo_inurba_marseille","lat":43.27927,"lon":5.39567,"is_reserved":false,"is_disabled":false,"rental_uris":{"android":"levelo://app?vid=77d1a8df-3d42-4f59-acd8-37889e71944e","ios":"levelo://app?vid=77d1a8df-3d42-4f59-acd8-37889e71944e"},"vehicle_type_id":"4","last_reported":1765955713,"current_range_meters":11600,"station_id":"ce4bhf92rcd13ifvqf40","pricing_plan_id":"cebpf4jnsgd1na2vs0mg"},{"bike_id":"8dc0f41d-9492-4bf7-82ec-ac2860636811","system_id":"levelo_inurba_marseille","lat":43.24153,"lon":5.3641,"is_reserved":false,"is_disabled":false,"rental_uris":{"android":"levelo://app?vid=8dc0f41d-9492-4bf7-82ec-ac2860636811","ios":"levelo://app?vid=8dc0f41d-9492-4bf7-82ec-ac2860636811"},"vehicle_type_id":"4","last_reported":1765955713,"current_range_meters":11600,"station_id":"cpo36qri1sfpv3e86is0","pricing_plan_id":"cebpf4jnsgd1na2vs0mg"},{"bike_id":"9b44a221-f6d7-4572-bedc-1c17e6b131d2","system_id":"levelo_inurba_marseille","lat":43.24647,"lon":5.38898,"is_reserved":false,"is_disabled":false,"rental_uris":{"android":"levelo://app?vid=9b44a221-f6d7-4572-bedc-1c17e6b131d2","ios":"levelo://app?vid=9b44a221-f6d7-4572-bedc-1c17e6b131d2"},"vehicle_type_id":"4","last_reported":1765955713,"current_range_meters":11600,"station_id":"ce4bhg12rcd13ifvqf60","pricing_plan_id":"cebpf4jnsgd1na2vs0mg"},{"bike_id":"5c770126-be0f-4320-9b77-8c906c744b81","system_id":"levelo_inurba_marseille","lat":43.26798,"lon":5.39401,"is_reserved":false,"is_disabled":false,"rental_uris":{"android":"levelo://app?vid=5c770126-be0f-4320-9b77-8c906c744b81","ios":"levelo://app?vid=5c770126-be0f-4320-9b77-8c906c744b81"},"vehicle_type_id":"4","last_reported":1765955713,"current_range_meters":11600,"station_id":"ce4bhh12rcd13ifvqfg0","pricing_plan_id":"cebpf4jnsgd1na2vs0mg"},{"bike_id":"819f1872-dcdb-49ac-a725-54d9a30d1d50","system_id":"levelo_inurba_marseille","lat":43.29855,"lon":5.3628,"is_reserved":false,"is_disabled":false,"rental_uris":{"android":"levelo://app?vid=819f1872-dcdb-49ac-a725-54d9a30d1d50","ios":"levelo://app?vid=819f1872-dcdb-49ac-a725-54d9a30d1d50"},"vehicle_type_id":"4","last_reported":1765955713,"current_range_meters":11600,"station_id":"ce4bgpp2rcd13ifvqc3g","pricing_plan_id":"cebpf4jnsgd1na2vs0mg"},{"bike_id":"c2840dd5-f5cb-4451-a5f9-5bb4de624b60","system_id":"levelo_inurba_marseille","lat":43.27058,"lon":5.38309,"is_reserved":false,"is_disabled":false,"rental_uris":{"android":"levelo://app?vid=c2840dd5-f5cb-4451-a5f9-5bb4de624b60","ios":"levelo://app?vid=c2840dd5-f5cb-4451-a5f9-5bb4de624b60"},"vehicle_type_id":"4","last_reported":1765955713,"current_range_meters":11600,"station_id":"st_d3n2fo6cfp8s73cte1j0","pricing_plan_id":"cebpf4jnsgd1na2vs0mg"},{"bike_id":"a6a2b2eb-9fac-4a15-8bbe-853cd503e49d","system_id":"levelo_inurba_marseille","lat":43.31709,"lon":5.43708,"is_reserved":false,"is_disabled":false,"rental_uris":{"android":"levelo://app?vid=a6a2b2eb-9fac-4a15-8bbe-853cd503e49d","ios":"levelo://app?vid=a6a2b2eb-9fac-4a15-8bbe-853cd503e49d"},"vehicle_type_id":"4","last_reported":1765955713,"current_range_meters":11600,"station_id":"ce4bhp92rcd13ifvqhcg","pricing_plan_id":"cebpf4jnsgd1na2vs0mg"},{"bike_id":"4dd7d3ca-649b-40b1-930b-8984a0cb2b2c","system_id":"levelo_inurba_marseille","lat":43.29198,"lon":5.3931,"is_reserved":false,"is_disabled":false,"rental_uris":{"android":"levelo://app?vid=4dd7d3ca-649b-40b1-930b-8984a0cb2b2c","ios":"levelo://app?vid=4dd7d3ca-649b-40b1-930b-8984a0cb2b2c"},"vehicle_type_id":"4","last_reported":1765955713,"current_range_meters":12000,"station_id":"ce4bh192rcd13ifvqdd0","pricing_plan_id":"cebpf4jnsgd1na2vs0mg"},{"bike_id":"83ae917c-7fe4-47bf-a2eb-2d59c3f51a7e","system_id":"levelo_inurba_marseille","lat":43.265576,"lon":5.372854,"is_reserved":false,"is_disabled":false,"rental_uris":{"android":"levelo://app?vid=83ae917c-7fe4-47bf-a2eb-2d59c3f51a7e","ios":"levelo://app?vid=83ae917c-7fe4-47bf-a2eb-2d59c3f51a7e"},"vehicle_type_id":"4","last_reported":1765955713,"current_range_meters":12000,"station_id":"ce4bhih2rcd13ifvqfr0","pricing_plan_id":"cebpf4jnsgd1na2vs0mg"},{"bike_id":"a2229eed-379b-4e0e-bc3b-d8298bd6951f","system_id":"levelo_inurba_marseille","lat":43.26505,"lon":5.39535,"is_reserved":false,"is_disabled":false,"rental_uris":{"android":"levelo://app?vid=a2229eed-379b-4e0e-bc3b-d8298bd6951f","ios":"levelo://app?vid=a2229eed-379b-4e0e-bc3b-d8298bd6951f"},"vehicle_type_id":"4","last_reported":1765955713,"current_range_meters":12000,"station_id":"ce4bhi12rcd13ifvqfq0","pricing_plan_id":"cebpf4jnsgd1na2vs0mg"},{"bike_id":"2767f57f-39fa-4688-8cd5-1803c9b01059","system_id":"levelo_inurba_marseille","lat":43.2816,"lon":5.42624,"is_reserved":false,"is_disabled":false,"rental_uris":{"android":"levelo://app?vid=2767f57f-39fa-4688-8cd5-1803c9b01059","ios":"levelo://app?vid=2767f57f-39fa-4688-8cd5-1803c9b01059"},"vehicle_type_id":"4","last_reported":1765955713,"current_range_meters":12000,"station_id":"ce4bhnh2rcd13ifvqgug","pricing_plan_id":"cebpf4jnsgd1na2vs0mg"},{"bike_id":"d410f1f1-41e1-4b22-890b-a504c7feb153","system_id":"levelo_inurba_marseille","lat":43.27812,"lon":5.40704,"is_reserved":false,"is_disabled":false,"rental_uris":{"android":"levelo://app?vid=d410f1f1-41e1-4b22-890b-a504c7feb153","ios":"levelo://app?vid=d410f1f1-41e1-4b22-890b-a504c7feb153"},"vehicle_type_id":"4","last_reported":1765955713,"current_range_meters":12000,"station_id":"ce4bhnh2rcd13ifvqgtg","pricing_plan_id":"cebpf4jnsgd1na2vs0mg"},{"bike_id":"3d317ca5-a272-4f93-9659-2870a09a79ff","system_id":"levelo_inurba_marseille","lat":43.3011,"lon":5.37457,"is_reserved":false,"is_disabled":false,"rental_uris":{"android":"levelo://app?vid=3d317ca5-a272-4f93-9659-2870a09a79ff","ios":"levelo://app?vid=3d317ca5-a272-4f93-9659-2870a09a79ff"},"vehicle_type_id":"4","last_reported":1765955713,"current_range_meters":12000,"station_id":"","pricing_plan_id":"cebpf4jnsgd1na2vs0mg"},{"bike_id":"ea92ee08-4c09-4185-8b04-f598b482cc4e","system_id":"levelo_inurba_marseille","lat":43.28937,"lon":5.36626,"is_reserved":false,"is_disabled":true,"rental_uris":{"android":"levelo://app?vid=ea92ee08-4c09-4185-8b04-f598b482cc4e","ios":"levelo://app?vid=ea92ee08-4c09-4185-8b04-f598b482cc4e"},"vehicle_type_id":"4","last_reported":1765955713,"current_range_meters":12000,"station_id":"ce4bhap2rcd13ifvqek0","pricing_plan_id":"cebpf4jnsgd1na2vs0mg"},{"bike_id":"89014143-3ff9-4cae-9af6-55b1a19dd5e6","system_id":"levelo_inurba_marseille","lat":43.29592,"lon":5.38106,"is_reserved":false,"is_disabled":false,"rental_uris":{"android":"levelo://app?vid=89014143-3ff9-4cae-9af6-55b1a19dd5e6","ios":"levelo://app?vid=89014143-3ff9-4cae-9af6-55b1a19dd5e6"},"vehicle_type_id":"4","last_reported":1765955713,"current_range_meters":12000,"station_id":"ce4bgl12rcd13ifvqbo0","pricing_plan_id":"cebpf4jnsgd1na2vs0mg"},{"bike_id":"ef1b7ebd-307f-4305-88c9-4f48fc52bf62","system_id":"levelo_inurba_marseille","lat":43.27941,"lon":5.41049,"is_reserved":false,"is_disabled":false,"rental_uris":{"android":"levelo://app?vid=ef1b7ebd-307f-4305-88c9-4f48fc52bf62","ios":"levelo://app?vid=ef1b7ebd-307f-4305-88c9-4f48fc52bf62"},"vehicle_type_id":"4","last_reported":1765955713,"current_range_meters":12000,"station_id":"ce4bhnp2rcd13ifvqh0g","pricing_plan_id":"cebpf4jnsgd1na2vs0mg"},{"bike_id":"dee35a69-2311-47c5-b736-05bf840d3a8b","system_id":"levelo_inurba_marseille","lat":43.28616,"lon":5.39854,"is_reserved":false,"is_disabled":false,"rental_uris":{"android":"levelo://app?vid=dee35a69-2311-47c5-b736-05bf840d3a8b","ios":"levelo://app?vid=dee35a69-2311-47c5-b736-05bf840d3a8b"},"vehicle_type_id":"4","last_reported":1765955713,"current_range_meters":12400,"station_id":"st_d4a7ka997mjs738ck50g","pricing_plan_id":"cebpf4jnsgd1na2vs0mg"},{"bike_id":"a7fb6309-2b67-48fd-a604-7555499decdb","system_id":"levelo_inurba_marseille","lat":43.241623,"lon":5.364009,"is_reserved":false,"is_disabled":false,"rental_uris":{"android":"levelo://app?vid=a7fb6309-2b67-48fd-a604-7555499decdb","ios":"levelo://app?vid=a7fb6309-2b67-48fd-a604-7555499decdb"},"vehicle_type_id":"4","last_reported":1765955713,"current_range_meters":12400,"station_id":"cpo36qri1sfpv3e86is0","pricing_plan_id":"cebpf4jnsgd1na2vs0mg"},{"bike_id":"998cd9fe-3721-44c5-a5a3-2b7b38823677","system_id":"levelo_inurba_marseille","lat":43.29037,"lon":5.39949,"is_reserved":false,"is_disabled":false,"rental_uris":{"android":"levelo://app?vid=998cd9fe-3721-44c5-a5a3-2b7b38823677","ios":"levelo://app?vid=998cd9fe-3721-44c5-a5a3-2b7b38823677"},"vehicle_type_id":"4","last_reported":1765955713,"current_range_meters":12400,"station_id":"ce4bh392rcd13ifvqdm0","pricing_plan_id":"cebpf4jnsgd1na2vs0mg"},{"bike_id":"0f28b80e-ee7f-47f3-9eea-fe09714ef2c4","system_id":"levelo_inurba_marseille","lat":43.337634,"lon":5.37441,"is_reserved":false,"is_disabled":false,"rental_uris":{"android":"levelo://app?vid=0f28b80e-ee7f-47f3-9eea-fe09714ef2c4","ios":"levelo://app?vid=0f28b80e-ee7f-47f3-9eea-fe09714ef2c4"},"vehicle_type_id":"4","last_reported":1765955713,"current_range_meters":12400,"station_id":"","pricing_plan_id":"cebpf4jnsgd1na2vs0mg"},{"bike_id":"f4a99808-7103-4483-9275-15fdac2819ac","system_id":"levelo_inurba_marseille","lat":43.286167,"lon":5.383517,"is_reserved":false,"is_disabled":false,"rental_uris":{"android":"levelo://app?vid=f4a99808-7103-4483-9275-15fdac2819ac","ios":"levelo://app?vid=f4a99808-7103-4483-9275-15fdac2819ac"},"vehicle_type_id":"4","last_reported":1765955713,"current_range_meters":12400,"station_id":"","pricing_plan_id":"cebpf4jnsgd1na2vs0mg"},{"bike_id":"9f2f990e-a17c-4f6c-a4a5-29e0700c6330","system_id":"levelo_inurba_marseille","lat":43.30531,"lon":5.36687,"is_reserved":false,"is_disabled":false,"rental_uris":{"android":"levelo://app?vid=9f2f990e-a17c-4f6c-a4a5-29e0700c6330","ios":"levelo://app?vid=9f2f990e-a17c-4f6c-a4a5-29e0700c6330"},"vehicle_type_id":"4","last_reported":1765955713,"current_range_meters":12400,"station_id":"ce4bgrp2rcd13ifvqc9g","pricing_plan_id":"cebpf4jnsgd1na2vs0mg"},{"bike_id":"1f825f20-8f06-4ed8-8eb4-0e4a8ab8b02f","system_id":"levelo_inurba_marseille","lat":43.30552,"lon":5.38423,"is_reserved":false,"is_disabled":true,"rental_uris":{"android":"levelo://app?vid=1f825f20-8f06-4ed8-8eb4-0e4a8ab8b02f","ios":"levelo://app?vid=1f825f20-8f06-4ed8-8eb4-0e4a8ab8b02f"},"vehicle_type_id":"4","last_reported":1765955713,"current_range_meters":12400,"station_id":"ce4bgg92rcd13ifvqb30","pricing_plan_id":"cebpf4jnsgd1na2vs0mg"},{"bike_id":"0a881eb8-b494-4070-a3a5-a6e9a031f554","system_id":"levelo_inurba_marseille","lat":43.29613,"lon":5.38087,"is_reserved":false,"is_disabled":false,"rental_uris":{"android":"levelo://app?vid=0a881eb8-b494-4070-a3a5-a6e9a031f554","ios":"levelo://app?vid=0a881eb8-b494-4070-a3a5-a6e9a031f554"},"vehicle_type_id":"4","last_reported":1765955713,"current_range_meters":12400,"station_id":"ce4bgl12rcd13ifvqbo0","pricing_plan_id":"cebpf4jnsgd1na2vs0mg"},{"bike_id":"ac4aa1be-0e24-4512-948c-492a003128ca","system_id":"levelo_inurba_marseille","lat":43.24423,"lon":5.36998,"is_reserved":false,"is_disabled":false,"rental_uris":{"android":"levelo://app?vid=ac4aa1be-0e24-4512-948c-492a003128ca","ios":"levelo://app?vid=ac4aa1be-0e24-4512-948c-492a003128ca"},"vehicle_type_id":"4","last_reported":1765955713,"current_range_meters":12800,"station_id":"ce4bhhh2rcd13ifvqfk0","pricing_plan_id":"cebpf4jnsgd1na2vs0mg"},{"bike_id":"4cb832b3-c7d7-4149-8ead-f376e30b04e2","system_id":"levelo_inurba_marseille","lat":43.271764,"lon":5.409977,"is_reserved":false,"is_disabled":false,"rental_uris":{"android":"levelo://app?vid=4cb832b3-c7d7-4149-8ead-f376e30b04e2","ios":"levelo://app?vid=4cb832b3-c7d7-4149-8ead-f376e30b04e2"},"vehicle_type_id":"4","last_reported":1765955713,"current_range_meters":12800,"station_id":"ce4bhl12rcd13ifvqgf0","pricing_plan_id":"cebpf4jnsgd1na2vs0mg"},{"bike_id":"7470f7ec-7c1d-489b-a8f1-7507a064b9c8","system_id":"levelo_inurba_marseille","lat":43.28472,"lon":5.48403,"is_reserved":false,"is_disabled":false,"rental_uris":{"android":"levelo://app?vid=7470f7ec-7c1d-489b-a8f1-7507a064b9c8","ios":"levelo://app?vid=7470f7ec-7c1d-489b-a8f1-7507a064b9c8"},"vehicle_type_id":"4","last_reported":1765955713,"current_range_meters":12800,"station_id":"st_d3svhcjqgbts73a3dn0g","pricing_plan_id":"cebpf4jnsgd1na2vs0mg"},{"bike_id":"6e071e61-9d6e-4a02-8914-eba8c7f9027d","system_id":"levelo_inurba_marseille","lat":43.28482,"lon":5.38426,"is_reserved":false,"is_disabled":false,"rental_uris":{"android":"levelo://app?vid=6e071e61-9d6e-4a02-8914-eba8c7f9027d","ios":"levelo://app?vid=6e071e61-9d6e-4a02-8914-eba8c7f9027d"},"vehicle_type_id":"4","last_reported":1765955713,"current_range_meters":12800,"station_id":"ce4bh512rcd13ifvqe3g","pricing_plan_id":"cebpf4jnsgd1na2vs0mg"},{"bike_id":"3f1ed9ab-bfd0-4809-9993-c87762b4c952","system_id":"levelo_inurba_marseille","lat":43.2839,"lon":5.37543,"is_reserved":false,"is_disabled":false,"rental_uris":{"android":"levelo://app?vid=3f1ed9ab-bfd0-4809-9993-c87762b4c952","ios":"levelo://app?vid=3f1ed9ab-bfd0-4809-9993-c87762b4c952"},"vehicle_type_id":"4","last_reported":1765955713,"current_range_meters":12800,"station_id":"ce4bh412rcd13ifvqds0","pricing_plan_id":"cebpf4jnsgd1na2vs0mg"},{"bike_id":"e52f4ad0-f100-40eb-810c-c2bfb55704c4","system_id":"levelo_inurba_marseille","lat":43.32109,"lon":5.36771,"is_reserved":false,"is_disabled":false,"rental_uris":{"android":"levelo://app?vid=e52f4ad0-f100-40eb-810c-c2bfb55704c4","ios":"levelo://app?vid=e52f4ad0-f100-40eb-810c-c2bfb55704c4"},"vehicle_type_id":"4","last_reported":1765955713,"current_range_meters":12800,"station_id":"ce4bhrh2rcd13ifvqhug","pricing_plan_id":"cebpf4jnsgd1na2vs0mg"},{"bike_id":"eed18767-05c9-4c1e-a884-f815f273a381","system_id":"levelo_inurba_marseille","lat":43.29216,"lon":5.3932,"is_reserved":false,"is_disabled":true,"rental_uris":{"android":"levelo://app?vid=eed18767-05c9-4c1e-a884-f815f273a381","ios":"levelo://app?vid=eed18767-05c9-4c1e-a884-f815f273a381"},"vehicle_type_id":"4","last_reported":1765955713,"current_range_meters":12800,"station_id":"ce4bh192rcd13ifvqdd0","pricing_plan_id":"cebpf4jnsgd1na2vs0mg"},{"bike_id":"d0238009-b059-4b6c-9bd4-cfe9c93af6f9","system_id":"levelo_inurba_marseille","lat":43.33164,"lon":5.37686,"is_reserved":false,"is_disabled":false,"rental_uris":{"android":"levelo://app?vid=d0238009-b059-4b6c-9bd4-cfe9c93af6f9","ios":"levelo://app?vid=d0238009-b059-4b6c-9bd4-cfe9c93af6f9"},"vehicle_type_id":"4","last_reported":1765955713,"current_range_meters":12800,"station_id":"st_d46cu089ee8s73dldbu0","pricing_plan_id":"cebpf4jnsgd1na2vs0mg"},{"bike_id":"0ee816cc-5a63-4743-a2f1-e1fc0e05e1f0","system_id":"levelo_inurba_marseille","lat":43.24805,"lon":5.37455,"is_reserved":false,"is_disabled":false,"rental_uris":{"android":"levelo://app?vid=0ee816cc-5a63-4743-a2f1-e1fc0e05e1f0","ios":"levelo://app?vid=0ee816cc-5a63-4743-a2f1-e1fc0e05e1f0"},"vehicle_type_id":"4","last_reported":1765955713,"current_range_meters":12800,"station_id":"ce4bhgh2rcd13ifvqfb0","pricing_plan_id":"cebpf4jnsgd1na2vs0mg"},{"bike_id":"c0fc9186-4d9f-4c9a-b003-06d72227a309","system_id":"levelo_inurba_marseille","lat":43.30209,"lon":5.39467,"is_reserved":false,"is_disabled":false,"rental_uris":{"android":"levelo://app?vid=c0fc9186-4d9f-4c9a-b003-06d72227a309","ios":"levelo://app?vid=c0fc9186-4d9f-4c9a-b003-06d72227a309"},"vehicle_type_id":"4","last_reported":1765955713,"current_range_meters":12800,"station_id":"ce4bh0p2rcd13ifvqd70","pricing_plan_id":"cebpf4jnsgd1na2vs0mg"},{"bike_id":"cfb79911-f081-40a7-b063-86fc9d2c3b27","system_id":"levelo_inurba_marseille","lat":43.27496,"lon":5.42448,"is_reserved":false,"is_disabled":false,"rental_uris":{"android":"levelo://app?vid=cfb79911-f081-40a7-b063-86fc9d2c3b27","ios":"levelo://app?vid=cfb79911-f081-40a7-b063-86fc9d2c3b27"},"vehicle_type_id":"4","last_reported":1765955713,"current_range_meters":12800,"station_id":"ce4bhn92rcd13ifvqgrg","pricing_plan_id":"cebpf4jnsgd1na2vs0mg"},{"bike_id":"6eaf6cc4-b10f-435b-a4c3-93e897f6c344","system_id":"levelo_inurba_marseille","lat":43.29819,"lon":5.44064,"is_reserved":false,"is_disabled":false,"rental_uris":{"android":"levelo://app?vid=6eaf6cc4-b10f-435b-a4c3-93e897f6c344","ios":"levelo://app?vid=6eaf6cc4-b10f-435b-a4c3-93e897f6c344"},"vehicle_type_id":"4","last_reported":1765955713,"current_range_meters":13600,"station_id":"st_d3jp68qikq2c7381ktn0","pricing_plan_id":"cebpf4jnsgd1na2vs0mg"},{"bike_id":"418be939-71be-454b-b89c-cdd1f6cb17fc","system_id":"levelo_inurba_marseille","lat":43.30146,"lon":5.38101,"is_reserved":false,"is_disabled":false,"rental_uris":{"android":"levelo://app?vid=418be939-71be-454b-b89c-cdd1f6cb17fc","ios":"levelo://app?vid=418be939-71be-454b-b89c-cdd1f6cb17fc"},"vehicle_type_id":"4","last_reported":1765955713,"current_range_meters":13600,"station_id":"","pricing_plan_id":"cebpf4jnsgd1na2vs0mg"},{"bike_id":"901b3a8b-f4b8-43e9-b2c3-ef7ef69f1ad6","system_id":"levelo_inurba_marseille","lat":43.241824,"lon":5.397301,"is_reserved":false,"is_disabled":false,"rental_uris":{"android":"levelo://app?vid=901b3a8b-f4b8-43e9-b2c3-ef7ef69f1ad6","ios":"levelo://app?vid=901b3a8b-f4b8-43e9-b2c3-ef7ef69f1ad6"},"vehicle_type_id":"4","last_reported":1765955713,"current_range_meters":13600,"station_id":"ce4bhn12rcd13ifvqgpg","pricing_plan_id":"cebpf4jnsgd1na2vs0mg"},{"bike_id":"7eb562a5-23c0-4113-83ac-de171b9648d5","system_id":"levelo_inurba_marseille","lat":43.25123,"lon":5.40326,"is_reserved":false,"is_disabled":false,"rental_uris":{"android":"levelo://app?vid=7eb562a5-23c0-4113-83ac-de171b9648d5","ios":"levelo://app?vid=7eb562a5-23c0-4113-83ac-de171b9648d5"},"vehicle_type_id":"4","last_reported":1765955713,"current_range_meters":13600,"station_id":"ce4bhlh2rcd13ifvqgig","pricing_plan_id":"cebpf4jnsgd1na2vs0mg"},{"bike_id":"0a2d81af-c789-4426-af29-b843e405024e","system_id":"levelo_inurba_marseille","lat":43.26954,"lon":5.38634,"is_reserved":false,"is_disabled":false,"rental_uris":{"android":"levelo://app?vid=0a2d81af-c789-4426-af29-b843e405024e","ios":"levelo://app?vid=0a2d81af-c789-4426-af29-b843e405024e"},"vehicle_type_id":"4","last_reported":1765955713,"current_range_meters":13600,"station_id":"ce4bhh92rcd13ifvqfh0","pricing_plan_id":"cebpf4jnsgd1na2vs0mg"},{"bike_id":"415df15e-36dc-4feb-be33-51b23a016e5a","system_id":"levelo_inurba_marseille","lat":43.24073,"lon":5.37763,"is_reserved":false,"is_disabled":false,"rental_uris":{"android":"levelo://app?vid=415df15e-36dc-4feb-be33-51b23a016e5a","ios":"levelo://app?vid=415df15e-36dc-4feb-be33-51b23a016e5a"},"vehicle_type_id":"4","last_reported":1765955713,"current_range_meters":13600,"station_id":"ce4bhnp2rcd13ifvqgvg","pricing_plan_id":"cebpf4jnsgd1na2vs0mg"},{"bike_id":"735a99a6-a93a-483e-b519-edcc002b5b3e","system_id":"levelo_inurba_marseille","lat":43.26561,"lon":5.37295,"is_reserved":false,"is_disabled":false,"rental_uris":{"android":"levelo://app?vid=735a99a6-a93a-483e-b519-edcc002b5b3e","ios":"levelo://app?vid=735a99a6-a93a-483e-b519-edcc002b5b3e"},"vehicle_type_id":"4","last_reported":1765955713,"current_range_meters":14000,"station_id":"ce4bhg12rcd13ifvqf70","pricing_plan_id":"cebpf4jnsgd1na2vs0mg"},{"bike_id":"c58295ce-4bdd-4fe7-8447-640493b542d5","system_id":"levelo_inurba_marseille","lat":43.24076,"lon":5.37749,"is_reserved":false,"is_disabled":false,"rental_uris":{"android":"levelo://app?vid=c58295ce-4bdd-4fe7-8447-640493b542d5","ios":"levelo://app?vid=c58295ce-4bdd-4fe7-8447-640493b542d5"},"vehicle_type_id":"4","last_reported":1765955713,"current_range_meters":14000,"station_id":"ce4bhnp2rcd13ifvqgvg","pricing_plan_id":"cebpf4jnsgd1na2vs0mg"},{"bike_id":"6da9a61d-76ee-4c58-a8cc-6b3f049c4dc0","system_id":"levelo_inurba_marseille","lat":43.23147,"lon":5.43719,"is_reserved":false,"is_disabled":false,"rental_uris":{"android":"levelo://app?vid=6da9a61d-76ee-4c58-a8cc-6b3f049c4dc0","ios":"levelo://app?vid=6da9a61d-76ee-4c58-a8cc-6b3f049c4dc0"},"vehicle_type_id":"4","last_reported":1765955713,"current_range_meters":14000,"station_id":"ce4bhmp2rcd13ifvqgog","pricing_plan_id":"cebpf4jnsgd1na2vs0mg"},{"bike_id":"8d7f17f8-aa1b-4f60-9990-98a1c3512d64","system_id":"levelo_inurba_marseille","lat":43.29586,"lon":5.38106,"is_reserved":false,"is_disabled":false,"rental_uris":{"android":"levelo://app?vid=8d7f17f8-aa1b-4f60-9990-98a1c3512d64","ios":"levelo://app?vid=8d7f17f8-aa1b-4f60-9990-98a1c3512d64"},"vehicle_type_id":"4","last_reported":1765955713,"current_range_meters":14000,"station_id":"ce4bgl12rcd13ifvqbo0","pricing_plan_id":"cebpf4jnsgd1na2vs0mg"},{"bike_id":"e67d079c-9430-453f-9045-27ab2ac41c6a","system_id":"levelo_inurba_marseille","lat":43.24065,"lon":5.37747,"is_reserved":false,"is_disabled":false,"rental_uris":{"android":"levelo://app?vid=e67d079c-9430-453f-9045-27ab2ac41c6a","ios":"levelo://app?vid=e67d079c-9430-453f-9045-27ab2ac41c6a"},"vehicle_type_id":"4","last_reported":1765955713,"current_range_meters":14000,"station_id":"ce4bhnp2rcd13ifvqgvg","pricing_plan_id":"cebpf4jnsgd1na2vs0mg"},{"bike_id":"2432f99d-27f2-42ef-b3e6-f7e71f39a4f6","system_id":"levelo_inurba_marseille","lat":43.30119,"lon":5.36862,"is_reserved":false,"is_disabled":false,"rental_uris":{"android":"levelo://app?vid=2432f99d-27f2-42ef-b3e6-f7e71f39a4f6","ios":"levelo://app?vid=2432f99d-27f2-42ef-b3e6-f7e71f39a4f6"},"vehicle_type_id":"4","last_reported":1765955713,"current_range_meters":14000,"station_id":"","pricing_plan_id":"cebpf4jnsgd1na2vs0mg"},{"bike_id":"5d2db87a-8397-4186-b1d7-2a1024fc09e5","system_id":"levelo_inurba_marseille","lat":43.29903,"lon":5.3747,"is_reserved":false,"is_disabled":false,"rental_uris":{"android":"levelo://app?vid=5d2db87a-8397-4186-b1d7-2a1024fc09e5","ios":"levelo://app?vid=5d2db87a-8397-4186-b1d7-2a1024fc09e5"},"vehicle_type_id":"4","last_reported":1765955713,"current_range_meters":14400,"station_id":"ce4bgjh2rcd13ifvqbg0","pricing_plan_id":"cebpf4jnsgd1na2vs0mg"},{"bike_id":"cae1478d-1268-4134-aa1e-c58d3eaf9d38","system_id":"levelo_inurba_marseille","lat":43.319237,"lon":5.400782,"is_reserved":false,"is_disabled":false,"rental_uris":{"android":"levelo://app?vid=cae1478d-1268-4134-aa1e-c58d3eaf9d38","ios":"levelo://app?vid=cae1478d-1268-4134-aa1e-c58d3eaf9d38"},"vehicle_type_id":"4","last_reported":1765955713,"current_range_meters":14400,"station_id":"","pricing_plan_id":"cebpf4jnsgd1na2vs0mg"},{"bike_id":"6435a727-603e-4bcc-8f44-f28d35641fea","system_id":"levelo_inurba_marseille","lat":43.29047,"lon":5.39958,"is_reserved":false,"is_disabled":false,"rental_uris":{"android":"levelo://app?vid=6435a727-603e-4bcc-8f44-f28d35641fea","ios":"levelo://app?vid=6435a727-603e-4bcc-8f44-f28d35641fea"},"vehicle_type_id":"4","last_reported":1765955713,"current_range_meters":14400,"station_id":"ce4bh392rcd13ifvqdm0","pricing_plan_id":"cebpf4jnsgd1na2vs0mg"},{"bike_id":"540065f4-b9cc-492a-8ee2-e6cfe606f95e","system_id":"levelo_inurba_marseille","lat":43.33723,"lon":5.3748,"is_reserved":false,"is_disabled":false,"rental_uris":{"android":"levelo://app?vid=540065f4-b9cc-492a-8ee2-e6cfe606f95e","ios":"levelo://app?vid=540065f4-b9cc-492a-8ee2-e6cfe606f95e"},"vehicle_type_id":"4","last_reported":1765955713,"current_range_meters":14400,"station_id":"","pricing_plan_id":"cebpf4jnsgd1na2vs0mg"},{"bike_id":"772355ec-a130-4cc9-b48a-b49e638af189","system_id":"levelo_inurba_marseille","lat":43.30151,"lon":5.38082,"is_reserved":false,"is_disabled":false,"rental_uris":{"android":"levelo://app?vid=772355ec-a130-4cc9-b48a-b49e638af189","ios":"levelo://app?vid=772355ec-a130-4cc9-b48a-b49e638af189"},"vehicle_type_id":"4","last_reported":1765955713,"current_range_meters":14400,"station_id":"ce4bgjp2rcd13ifvqbh0","pricing_plan_id":"cebpf4jnsgd1na2vs0mg"},{"bike_id":"f69cfced-845b-4ad6-aebd-4294e423e67f","system_id":"levelo_inurba_marseille","lat":43.26954,"lon":5.38622,"is_reserved":false,"is_disabled":false,"rental_uris":{"android":"levelo://app?vid=f69cfced-845b-4ad6-aebd-4294e423e67f","ios":"levelo://app?vid=f69cfced-845b-4ad6-aebd-4294e423e67f"},"vehicle_type_id":"4","last_reported":1765955713,"current_range_meters":14400,"station_id":"ce4bhh92rcd13ifvqfh0","pricing_plan_id":"cebpf4jnsgd1na2vs0mg"},{"bike_id":"82903da7-2cad-4a09-9e3b-db80a73433e1","system_id":"levelo_inurba_marseille","lat":43.284865,"lon":5.358913,"is_reserved":false,"is_disabled":true,"rental_uris":{"android":"levelo://app?vid=82903da7-2cad-4a09-9e3b-db80a73433e1","ios":"levelo://app?vid=82903da7-2cad-4a09-9e3b-db80a73433e1"},"vehicle_type_id":"4","last_reported":1765955713,"current_range_meters":14400,"station_id":"ce4bhah2rcd13ifvqei0","pricing_plan_id":"cebpf4jnsgd1na2vs0mg"},{"bike_id":"72393a95-42a5-49b8-b7d7-bab87b9932e6","system_id":"levelo_inurba_marseille","lat":43.31466,"lon":5.45374,"is_reserved":false,"is_disabled":false,"rental_uris":{"android":"levelo://app?vid=72393a95-42a5-49b8-b7d7-bab87b9932e6","ios":"levelo://app?vid=72393a95-42a5-49b8-b7d7-bab87b9932e6"},"vehicle_type_id":"4","last_reported":1765955713,"current_range_meters":14400,"station_id":"","pricing_plan_id":"cebpf4jnsgd1na2vs0mg"},{"bike_id":"dbb800ad-b6fa-40cb-833e-73c7d0805429","system_id":"levelo_inurba_marseille","lat":43.3133,"lon":5.39691,"is_reserved":false,"is_disabled":false,"rental_uris":{"android":"levelo://app?vid=dbb800ad-b6fa-40cb-833e-73c7d0805429","ios":"levelo://app?vid=dbb800ad-b6fa-40cb-833e-73c7d0805429"},"vehicle_type_id":"4","last_reported":1765955713,"current_range_meters":14800,"station_id":"ce4bgvp2rcd13ifvqcu0","pricing_plan_id":"cebpf4jnsgd1na2vs0mg"},{"bike_id":"e2484a05-a2dd-4e38-83cb-db28efe2a4cb","system_id":"levelo_inurba_marseille","lat":43.29853,"lon":5.37889,"is_reserved":false,"is_disabled":false,"rental_uris":{"android":"levelo://app?vid=e2484a05-a2dd-4e38-83cb-db28efe2a4cb","ios":"levelo://app?vid=e2484a05-a2dd-4e38-83cb-db28efe2a4cb"},"vehicle_type_id":"4","last_reported":1765955713,"current_range_meters":14800,"station_id":"","pricing_plan_id":"cebpf4jnsgd1na2vs0mg"},{"bike_id":"147a030a-a3ef-4cc1-8c9c-eba4bbe58a59","system_id":"levelo_inurba_marseille","lat":43.28854,"lon":5.393225,"is_reserved":false,"is_disabled":true,"rental_uris":{"android":"levelo://app?vid=147a030a-a3ef-4cc1-8c9c-eba4bbe58a59","ios":"levelo://app?vid=147a030a-a3ef-4cc1-8c9c-eba4bbe58a59"},"vehicle_type_id":"4","last_reported":1765955713,"current_range_meters":14800,"station_id":"ce4bh2p2rcd13ifvqdi0","pricing_plan_id":"cebpf4jnsgd1na2vs0mg"},{"bike_id":"cf33125b-8e55-4ccd-86fa-afe63ca4ce13","system_id":"levelo_inurba_marseille","lat":43.28929,"lon":5.36387,"is_reserved":false,"is_disabled":false,"rental_uris":{"android":"levelo://app?vid=cf33125b-8e55-4ccd-86fa-afe63ca4ce13","ios":"levelo://app?vid=cf33125b-8e55-4ccd-86fa-afe63ca4ce13"},"vehicle_type_id":"4","last_reported":1765955713,"current_range_meters":14800,"station_id":"ce4bhc92rcd13ifvqetg","pricing_plan_id":"cebpf4jnsgd1na2vs0mg"},{"bike_id":"c502cf50-8d9e-41ab-80d9-f09f0b489eb1","system_id":"levelo_inurba_marseille","lat":43.262082,"lon":5.374402,"is_reserved":false,"is_disabled":false,"rental_uris":{"android":"levelo://app?vid=c502cf50-8d9e-41ab-80d9-f09f0b489eb1","ios":"levelo://app?vid=c502cf50-8d9e-41ab-80d9-f09f0b489eb1"},"vehicle_type_id":"4","last_reported":1765955713,"current_range_meters":15200,"station_id":"","pricing_plan_id":"cebpf4jnsgd1na2vs0mg"},{"bike_id":"06479f1a-4795-4536-b2e0-ee1e0220aafe","system_id":"levelo_inurba_marseille","lat":43.30791,"lon":5.381395,"is_reserved":false,"is_disabled":false,"rental_uris":{"android":"levelo://app?vid=06479f1a-4795-4536-b2e0-ee1e0220aafe","ios":"levelo://app?vid=06479f1a-4795-4536-b2e0-ee1e0220aafe"},"vehicle_type_id":"4","last_reported":1765955713,"current_range_meters":15200,"station_id":"ce4bgt12rcd13ifvqce0","pricing_plan_id":"cebpf4jnsgd1na2vs0mg"},{"bike_id":"735ff95f-d860-4da9-832b-460f44ce9ef6","system_id":"levelo_inurba_marseille","lat":43.30596,"lon":5.39378,"is_reserved":false,"is_disabled":false,"rental_uris":{"android":"levelo://app?vid=735ff95f-d860-4da9-832b-460f44ce9ef6","ios":"levelo://app?vid=735ff95f-d860-4da9-832b-460f44ce9ef6"},"vehicle_type_id":"4","last_reported":1765955713,"current_range_meters":15200,"station_id":"ce4bh0p2rcd13ifvqd80","pricing_plan_id":"cebpf4jnsgd1na2vs0mg"},{"bike_id":"f71a1f1b-61c3-4937-b8ae-ba9d31ea3cd4","system_id":"levelo_inurba_marseille","lat":43.3121,"lon":5.36586,"is_reserved":false,"is_disabled":false,"rental_uris":{"android":"levelo://app?vid=f71a1f1b-61c3-4937-b8ae-ba9d31ea3cd4","ios":"levelo://app?vid=f71a1f1b-61c3-4937-b8ae-ba9d31ea3cd4"},"vehicle_type_id":"4","last_reported":1765955713,"current_range_meters":15200,"station_id":"","pricing_plan_id":"cebpf4jnsgd1na2vs0mg"},{"bike_id":"577e8dfa-855d-43ff-8683-4513a6d95873","system_id":"levelo_inurba_marseille","lat":43.240666,"lon":5.377296,"is_reserved":false,"is_disabled":false,"rental_uris":{"android":"levelo://app?vid=577e8dfa-855d-43ff-8683-4513a6d95873","ios":"levelo://app?vid=577e8dfa-855d-43ff-8683-4513a6d95873"},"vehicle_type_id":"4","last_reported":1765955713,"current_range_meters":15200,"station_id":"ce4bhnp2rcd13ifvqgvg","pricing_plan_id":"cebpf4jnsgd1na2vs0mg"},{"bike_id":"4c300c61-a5f9-486c-91f7-961c510b1148","system_id":"levelo_inurba_marseille","lat":43.29618,"lon":5.38079,"is_reserved":false,"is_disabled":false,"rental_uris":{"android":"levelo://app?vid=4c300c61-a5f9-486c-91f7-961c510b1148","ios":"levelo://app?vid=4c300c61-a5f9-486c-91f7-961c510b1148"},"vehicle_type_id":"4","last_reported":1765955713,"current_range_meters":15200,"station_id":"ce4bgl12rcd13ifvqbo0","pricing_plan_id":"cebpf4jnsgd1na2vs0mg"},{"bike_id":"c42cb838-06e1-489e-9fd0-0c3e226398cb","system_id":"levelo_inurba_marseille","lat":43.22571,"lon":5.4163,"is_reserved":false,"is_disabled":false,"rental_uris":{"android":"levelo://app?vid=c42cb838-06e1-489e-9fd0-0c3e226398cb","ios":"levelo://app?vid=c42cb838-06e1-489e-9fd0-0c3e226398cb"},"vehicle_type_id":"4","last_reported":1765955713,"current_range_meters":15200,"station_id":"st_d2o4gvlbi1j2169b742g","pricing_plan_id":"cebpf4jnsgd1na2vs0mg"},{"bike_id":"026e8651-2767-4fc0-b1c3-2f40b04d4561","system_id":"levelo_inurba_marseille","lat":43.284742,"lon":5.483938,"is_reserved":false,"is_disabled":false,"rental_uris":{"android":"levelo://app?vid=026e8651-2767-4fc0-b1c3-2f40b04d4561","ios":"levelo://app?vid=026e8651-2767-4fc0-b1c3-2f40b04d4561"},"vehicle_type_id":"4","last_reported":1765955713,"current_range_meters":16000,"station_id":"st_d3svhcjqgbts73a3dn0g","pricing_plan_id":"cebpf4jnsgd1na2vs0mg"},{"bike_id":"4651291d-dd37-44b8-91ca-f4fe7c9a4167","system_id":"levelo_inurba_marseille","lat":43.2886,"lon":5.42515,"is_reserved":false,"is_disabled":false,"rental_uris":{"android":"levelo://app?vid=4651291d-dd37-44b8-91ca-f4fe7c9a4167","ios":"levelo://app?vid=4651291d-dd37-44b8-91ca-f4fe7c9a4167"},"vehicle_type_id":"4","last_reported":1765955713,"current_range_meters":16000,"station_id":"st_d3b462108ojc7389ooeg","pricing_plan_id":"cebpf4jnsgd1na2vs0mg"},{"bike_id":"053ef116-e694-4c46-9e9f-8b237e9c1313","system_id":"levelo_inurba_marseille","lat":43.24071,"lon":5.37758,"is_reserved":false,"is_disabled":false,"rental_uris":{"android":"levelo://app?vid=053ef116-e694-4c46-9e9f-8b237e9c1313","ios":"levelo://app?vid=053ef116-e694-4c46-9e9f-8b237e9c1313"},"vehicle_type_id":"4","last_reported":1765955713,"current_range_meters":16000,"station_id":"ce4bhnp2rcd13ifvqgvg","pricing_plan_id":"cebpf4jnsgd1na2vs0mg"},{"bike_id":"0eaebf46-1bd1-4aaf-b805-fb25a3bcd61e","system_id":"levelo_inurba_marseille","lat":43.29813,"lon":5.44068,"is_reserved":false,"is_disabled":false,"rental_uris":{"android":"levelo://app?vid=0eaebf46-1bd1-4aaf-b805-fb25a3bcd61e","ios":"levelo://app?vid=0eaebf46-1bd1-4aaf-b805-fb25a3bcd61e"},"vehicle_type_id":"4","last_reported":1765955713,"current_range_meters":16000,"station_id":"st_d3jp68qikq2c7381ktn0","pricing_plan_id":"cebpf4jnsgd1na2vs0mg"},{"bike_id":"50d33456-bf1c-4376-ba8b-e3d3d2f0e44a","system_id":"levelo_inurba_marseille","lat":43.29009,"lon":5.39985,"is_reserved":false,"is_disabled":false,"rental_uris":{"android":"levelo://app?vid=50d33456-bf1c-4376-ba8b-e3d3d2f0e44a","ios":"levelo://app?vid=50d33456-bf1c-4376-ba8b-e3d3d2f0e44a"},"vehicle_type_id":"4","last_reported":1765955713,"current_range_meters":16000,"station_id":"ce4bh392rcd13ifvqdm0","pricing_plan_id":"cebpf4jnsgd1na2vs0mg"},{"bike_id":"babcbf2f-3149-4397-bed0-fc9fb158d7ef","system_id":"levelo_inurba_marseille","lat":43.27816,"lon":5.40725,"is_reserved":false,"is_disabled":false,"rental_uris":{"android":"levelo://app?vid=babcbf2f-3149-4397-bed0-fc9fb158d7ef","ios":"levelo://app?vid=babcbf2f-3149-4397-bed0-fc9fb158d7ef"},"vehicle_type_id":"4","last_reported":1765955713,"current_range_meters":16000,"station_id":"ce4bhnh2rcd13ifvqgtg","pricing_plan_id":"cebpf4jnsgd1na2vs0mg"},{"bike_id":"fedcd8c6-9dd1-49f7-a439-c3d118a3a7ba","system_id":"levelo_inurba_marseille","lat":43.32111,"lon":5.36776,"is_reserved":false,"is_disabled":false,"rental_uris":{"android":"levelo://app?vid=fedcd8c6-9dd1-49f7-a439-c3d118a3a7ba","ios":"levelo://app?vid=fedcd8c6-9dd1-49f7-a439-c3d118a3a7ba"},"vehicle_type_id":"4","last_reported":1765955713,"current_range_meters":16000,"station_id":"ce4bhrh2rcd13ifvqhug","pricing_plan_id":"cebpf4jnsgd1na2vs0mg"},{"bike_id":"57bf9f67-9522-40c4-82f0-435099d363f7","system_id":"levelo_inurba_marseille","lat":43.323638,"lon":5.367516,"is_reserved":false,"is_disabled":false,"rental_uris":{"android":"levelo://app?vid=57bf9f67-9522-40c4-82f0-435099d363f7","ios":"levelo://app?vid=57bf9f67-9522-40c4-82f0-435099d363f7"},"vehicle_type_id":"4","last_reported":1765955713,"current_range_meters":16000,"station_id":"ce4bhsh2rcd13ifvqi2g","pricing_plan_id":"cebpf4jnsgd1na2vs0mg"},{"bike_id":"1229dd0c-cd94-4b46-af8f-e1c364f379f7","system_id":"levelo_inurba_marseille","lat":43.23158,"lon":5.43694,"is_reserved":false,"is_disabled":true,"rental_uris":{"android":"levelo://app?vid=1229dd0c-cd94-4b46-af8f-e1c364f379f7","ios":"levelo://app?vid=1229dd0c-cd94-4b46-af8f-e1c364f379f7"},"vehicle_type_id":"4","last_reported":1765955713,"current_range_meters":16000,"station_id":"ce4bhmp2rcd13ifvqgog","pricing_plan_id":"cebpf4jnsgd1na2vs0mg"},{"bike_id":"3f85392e-7751-4fbe-9206-afff2b3033e2","system_id":"levelo_inurba_marseille","lat":43.30375,"lon":5.42475,"is_reserved":false,"is_disabled":false,"rental_uris":{"android":"levelo://app?vid=3f85392e-7751-4fbe-9206-afff2b3033e2","ios":"levelo://app?vid=3f85392e-7751-4fbe-9206-afff2b3033e2"},"vehicle_type_id":"4","last_reported":1765955713,"current_range_meters":16000,"station_id":"ce4bhoh2rcd13ifvqh6g","pricing_plan_id":"cebpf4jnsgd1na2vs0mg"},{"bike_id":"4f65f5d8-763d-47e2-a27b-ac0e31d9326f","system_id":"levelo_inurba_marseille","lat":43.280278,"lon":5.369453,"is_reserved":false,"is_disabled":false,"rental_uris":{"android":"levelo://app?vid=4f65f5d8-763d-47e2-a27b-ac0e31d9326f","ios":"levelo://app?vid=4f65f5d8-763d-47e2-a27b-ac0e31d9326f"},"vehicle_type_id":"4","last_reported":1765955713,"current_range_meters":16400,"station_id":"ce4bha12rcd13ifvqef0","pricing_plan_id":"cebpf4jnsgd1na2vs0mg"},{"bike_id":"1e3ef357-3d9b-4e4f-be7b-7c742fef268f","system_id":"levelo_inurba_marseille","lat":43.2656,"lon":5.37304,"is_reserved":false,"is_disabled":false,"rental_uris":{"android":"levelo://app?vid=1e3ef357-3d9b-4e4f-be7b-7c742fef268f","ios":"levelo://app?vid=1e3ef357-3d9b-4e4f-be7b-7c742fef268f"},"vehicle_type_id":"4","last_reported":1765955713,"current_range_meters":16400,"station_id":"ce4bhg12rcd13ifvqf70","pricing_plan_id":"cebpf4jnsgd1na2vs0mg"},{"bike_id":"2d7c5cef-99a7-45eb-824d-90e6a4ebc0ac","system_id":"levelo_inurba_marseille","lat":43.29032,"lon":5.39971,"is_reserved":false,"is_disabled":false,"rental_uris":{"android":"levelo://app?vid=2d7c5cef-99a7-45eb-824d-90e6a4ebc0ac","ios":"levelo://app?vid=2d7c5cef-99a7-45eb-824d-90e6a4ebc0ac"},"vehicle_type_id":"4","last_reported":1765955713,"current_range_meters":16400,"station_id":"ce4bh392rcd13ifvqdm0","pricing_plan_id":"cebpf4jnsgd1na2vs0mg"},{"bike_id":"cb0842d7-93bc-4351-8f3b-fffed7b4f15a","system_id":"levelo_inurba_marseille","lat":43.26946,"lon":5.3863,"is_reserved":false,"is_disabled":true,"rental_uris":{"android":"levelo://app?vid=cb0842d7-93bc-4351-8f3b-fffed7b4f15a","ios":"levelo://app?vid=cb0842d7-93bc-4351-8f3b-fffed7b4f15a"},"vehicle_type_id":"4","last_reported":1765955713,"current_range_meters":16400,"station_id":"ce4bhh92rcd13ifvqfh0","pricing_plan_id":"cebpf4jnsgd1na2vs0mg"},{"bike_id":"fa6f92d2-8437-4f8d-b03f-3c3f142f8390","system_id":"levelo_inurba_marseille","lat":43.284,"lon":5.38722,"is_reserved":false,"is_disabled":false,"rental_uris":{"android":"levelo://app?vid=fa6f92d2-8437-4f8d-b03f-3c3f142f8390","ios":"levelo://app?vid=fa6f92d2-8437-4f8d-b03f-3c3f142f8390"},"vehicle_type_id":"4","last_reported":1765955713,"current_range_meters":16400,"station_id":"","pricing_plan_id":"cebpf4jnsgd1na2vs0mg"},{"bike_id":"46300de1-2118-46f4-bf10-bd61a7328e2b","system_id":"levelo_inurba_marseille","lat":43.26676,"lon":5.39614,"is_reserved":false,"is_disabled":false,"rental_uris":{"android":"levelo://app?vid=46300de1-2118-46f4-bf10-bd61a7328e2b","ios":"levelo://app?vid=46300de1-2118-46f4-bf10-bd61a7328e2b"},"vehicle_type_id":"4","last_reported":1765955713,"current_range_meters":16400,"station_id":"","pricing_plan_id":"cebpf4jnsgd1na2vs0mg"},{"bike_id":"6b16acc7-a80b-4f96-ae73-b1410de5081b","system_id":"levelo_inurba_marseille","lat":43.28614,"lon":5.35089,"is_reserved":false,"is_disabled":true,"rental_uris":{"android":"levelo://app?vid=6b16acc7-a80b-4f96-ae73-b1410de5081b","ios":"levelo://app?vid=6b16acc7-a80b-4f96-ae73-b1410de5081b"},"vehicle_type_id":"4","last_reported":1765955713,"current_range_meters":16400,"station_id":"ce4bhch2rcd13ifvqeug","pricing_plan_id":"cebpf4jnsgd1na2vs0mg"},{"bike_id":"7ff51734-7635-4e26-ba98-c2660f473ff2","system_id":"levelo_inurba_marseille","lat":43.230541,"lon":5.354979,"is_reserved":false,"is_disabled":false,"rental_uris":{"android":"levelo://app?vid=7ff51734-7635-4e26-ba98-c2660f473ff2","ios":"levelo://app?vid=7ff51734-7635-4e26-ba98-c2660f473ff2"},"vehicle_type_id":"4","last_reported":1765955713,"current_range_meters":16400,"station_id":"cpo3342slgdg3j2ifvpg","pricing_plan_id":"cebpf4jnsgd1na2vs0mg"},{"bike_id":"38d66c43-4ebd-4d4a-9b0f-fcb1404bb6e8","system_id":"levelo_inurba_marseille","lat":43.25578,"lon":5.38208,"is_reserved":false,"is_disabled":false,"rental_uris":{"android":"levelo://app?vid=38d66c43-4ebd-4d4a-9b0f-fcb1404bb6e8","ios":"levelo://app?vid=38d66c43-4ebd-4d4a-9b0f-fcb1404bb6e8"},"vehicle_type_id":"4","last_reported":1765955713,"current_range_meters":16400,"station_id":"ce4bhih2rcd13ifvqfs0","pricing_plan_id":"cebpf4jnsgd1na2vs0mg"},{"bike_id":"489cf4a8-1313-46d5-8276-5bd88c9af5a5","system_id":"levelo_inurba_marseille","lat":43.31344,"lon":5.36717,"is_reserved":false,"is_disabled":false,"rental_uris":{"android":"levelo://app?vid=489cf4a8-1313-46d5-8276-5bd88c9af5a5","ios":"levelo://app?vid=489cf4a8-1313-46d5-8276-5bd88c9af5a5"},"vehicle_type_id":"4","last_reported":1765955713,"current_range_meters":16400,"station_id":"ce4bgr92rcd13ifvqc6g","pricing_plan_id":"cebpf4jnsgd1na2vs0mg"},{"bike_id":"8cb5e89d-63f7-48c3-ae2f-175518553026","system_id":"levelo_inurba_marseille","lat":43.24072,"lon":5.37758,"is_reserved":false,"is_disabled":false,"rental_uris":{"android":"levelo://app?vid=8cb5e89d-63f7-48c3-ae2f-175518553026","ios":"levelo://app?vid=8cb5e89d-63f7-48c3-ae2f-175518553026"},"vehicle_type_id":"4","last_reported":1765955713,"current_range_meters":16400,"station_id":"ce4bhnp2rcd13ifvqgvg","pricing_plan_id":"cebpf4jnsgd1na2vs0mg"},{"bike_id":"1c5dead3-188b-41b2-9359-9797d9a1af54","system_id":"levelo_inurba_marseille","lat":43.24393,"lon":5.37057,"is_reserved":false,"is_disabled":false,"rental_uris":{"android":"levelo://app?vid=1c5dead3-188b-41b2-9359-9797d9a1af54","ios":"levelo://app?vid=1c5dead3-188b-41b2-9359-9797d9a1af54"},"vehicle_type_id":"4","last_reported":1765955713,"current_range_meters":16400,"station_id":"ce4bhhh2rcd13ifvqfk0","pricing_plan_id":"cebpf4jnsgd1na2vs0mg"},{"bike_id":"0d47bea0-3105-4944-a0d3-d15b94fc8f70","system_id":"levelo_inurba_marseille","lat":43.24075,"lon":5.37756,"is_reserved":false,"is_disabled":false,"rental_uris":{"android":"levelo://app?vid=0d47bea0-3105-4944-a0d3-d15b94fc8f70","ios":"levelo://app?vid=0d47bea0-3105-4944-a0d3-d15b94fc8f70"},"vehicle_type_id":"4","last_reported":1765955713,"current_range_meters":16400,"station_id":"ce4bhnp2rcd13ifvqgvg","pricing_plan_id":"cebpf4jnsgd1na2vs0mg"},{"bike_id":"ad558faf-9861-432b-98a5-c0d2a8d4db94","system_id":"levelo_inurba_marseille","lat":43.24174,"lon":5.36407,"is_reserved":false,"is_disabled":false,"rental_uris":{"android":"levelo://app?vid=ad558faf-9861-432b-98a5-c0d2a8d4db94","ios":"levelo://app?vid=ad558faf-9861-432b-98a5-c0d2a8d4db94"},"vehicle_type_id":"4","last_reported":1765955713,"current_range_meters":16400,"station_id":"cpo36qri1sfpv3e86is0","pricing_plan_id":"cebpf4jnsgd1na2vs0mg"},{"bike_id":"e6e31c41-cf62-43b9-baa0-341bf5d37905","system_id":"levelo_inurba_marseille","lat":43.24178,"lon":5.39731,"is_reserved":false,"is_disabled":false,"rental_uris":{"android":"levelo://app?vid=e6e31c41-cf62-43b9-baa0-341bf5d37905","ios":"levelo://app?vid=e6e31c41-cf62-43b9-baa0-341bf5d37905"},"vehicle_type_id":"4","last_reported":1765955713,"current_range_meters":16400,"station_id":"ce4bhn12rcd13ifvqgpg","pricing_plan_id":"cebpf4jnsgd1na2vs0mg"},{"bike_id":"ddb979ed-b28e-434f-a173-cf8e45cf006a","system_id":"levelo_inurba_marseille","lat":43.29008,"lon":5.38126,"is_reserved":false,"is_disabled":true,"rental_uris":{"android":"levelo://app?vid=ddb979ed-b28e-434f-a173-cf8e45cf006a","ios":"levelo://app?vid=ddb979ed-b28e-434f-a173-cf8e45cf006a"},"vehicle_type_id":"4","last_reported":1765955713,"current_range_meters":16800,"station_id":"ce4bh4p2rcd13ifvqe1g","pricing_plan_id":"cebpf4jnsgd1na2vs0mg"},{"bike_id":"b08416a9-4fd4-4f0f-a9cd-cf796054033c","system_id":"levelo_inurba_marseille","lat":43.29567,"lon":5.38166,"is_reserved":false,"is_disabled":false,"rental_uris":{"android":"levelo://app?vid=b08416a9-4fd4-4f0f-a9cd-cf796054033c","ios":"levelo://app?vid=b08416a9-4fd4-4f0f-a9cd-cf796054033c"},"vehicle_type_id":"4","last_reported":1765955713,"current_range_meters":16800,"station_id":"","pricing_plan_id":"cebpf4jnsgd1na2vs0mg"},