{"last_updated":1770553593,"ttl":60,"version":"2.2","data":{"bikes":[{"bike_id":"cda67a55-cd0b-4996-80a6-9f94ffa5040f","system_id":"levelo_inurba_marseille","lat":43.26063,"lon":5.393965,"is_reserved":false,"is_disabled":false,"rental_uris":{"android":"levelo://app?vid=cda67a55-cd0b-4996-80a6-9f94ffa5040f","ios":"levelo://app?vid=cda67a55-cd0b-4996-80a6-9f94ffa5040f"},"vehicle_type_id":"4","last_reported":1770553594,"current_range_meters":2800,"station_id":"ce4bhh92rcd13ifvqfj0","pricing_plan_id":"cebpf4jnsgd1na2vs0mg"},{"bike_id":"73737e66-a6b3-4b40-a445-3b6074965848","system_id":"levelo_inurba_marseille","lat":43.2959,"lon":5.37522,"is_reserved":false,"is_disabled":false,"rental_uris":{"android":"levelo://app?vid=73737e66-a6b3-4b40-a445-3b6074965848","ios":"levelo://app?vid=73737e66-a6b3-4b40-a445-3b6074965848"},"vehicle_type_id":"4","last_reported":1770553594,"current_range_meters":2800,"station_id":"","pricing_plan_id":"cebpf4jnsgd1na2vs0mg"},{"bike_id":"8b196301-953d-4921-91c6-509e59f21ccb","system_id":"levelo_inurba_marseille","lat":43.29872,"lon":5.36877,"is_reserved":false,"is_disabled":false,"rental_uris":{"android":"levelo://app?vid=8b196301-953d-4921-91c6-509e59f21ccb","ios":"levelo://app?vid=8b196301-953d-4921-91c6-509e59f21ccb"},"vehicle_type_id":"4","last_reported":1770553594,"current_range_meters":3200,"station_id":"","pricing_plan_id":"cebpf4jnsgd1na2vs0mg"},{"bike_id":"3e1717ef-4340-461c-ac69-c93aa449a2cd","system_id":"levelo_inurba_marseille","lat":43.26922,"lon":5.40237,"is_reserved":false,"is_disabled":false,"rental_uris":{"android":"levelo://app?vid=3e1717ef-4340-461c-ac69-c93aa449a2cd","ios":"levelo://app?vid=3e1717ef-4340-461c-ac69-c93aa449a2cd"},"vehicle_type_id":"4","last_reported":1770553594,"current_range_meters":3200,"station_id":"cjm6bp8fraef2m0cb0m0","pricing_plan_id":"cebpf4jnsgd1na2vs0mg"},{"bike_id":"62801c7a-0680-4717-9eec-a2fc8f05e27c","system_id":"levelo_inurba_marseille","lat":43.27993,"lon":5.38732,"is_reserved":false,"is_disabled":false,"rental_uris":{"android":"levelo://app?vid=62801c7a-0680-4717-9eec-a2fc8f05e27c","ios":"levelo://app?vid=62801c7a-0680-4717-9eec-a2fc8f05e27c"},"vehicle_type_id":"4","last_reported":1770553594,"current_range_meters":3200,"station_id":"ce4bhg12rcd13ifvqf80","pricing_plan_id":"cebpf4jnsgd1na2vs0mg"},{"bike_id":"9dadd4c2-97fc-4ce7-a20f-b7c55300a138","system_id":"levelo_inurba_marseille","lat":43.29812,"lon":5.44069,"is_reserved":false,"is_disabled":false,"rental_uris":{"android":"levelo://app?vid=9dadd4c2-97fc-4ce7-a20f-b7c55300a138","ios":"levelo://app?vid=9dadd4c2-97fc-4ce7-a20f-b7c55300a138"},"vehicle_type_id":"4","last_reported":1770553594,"current_range_meters":3200,"station_id":"st_d3jp68qikq2c7381ktn0","pricing_plan_id":"cebpf4jnsgd1na2vs0mg"},{"bike_id":"c9d2bfb2-7471-46bf-97d6-14603771c306","system_id":"levelo_inurba_marseille","lat":43.24392,"lon":5.37055,"is_reserved":false,"is_disabled":false,"rental_uris":{"android":"levelo://app?vid=c9d2bfb2-7471-46bf-97d6-14603771c306","ios":"levelo://app?vid=c9d2bfb2-7471-46bf-97d6-14603771c306"},"vehicle_type_id":"4","last_reported":1770553594,"current_range_meters":3200,"station_id":"ce4bhhh2rcd13ifvqfk0","pricing_plan_id":"cebpf4jnsgd1na2vs0mg"},{"bike_id":"34a55f58-a955-4283-bcd6-91c6f2bdcd18","system_id":"levelo_inurba_marseille","lat":43.265621,"lon":5.393924,"is_reserved":false,"is_disabled":false,"rental_uris":{"android":"levelo://app?vid=34a55f58-a955-4283-bcd6-91c6f2bdcd18","ios":"levelo://app?vid=34a55f58-a955-4283-bcd6-91c6f2bdcd18"},"vehicle_type_id":"4","last_reported":1770553594,"current_range_meters":3200,"station_id":"","pricing_plan_id":"cebpf4jnsgd1na2vs0mg"},{"bike_id":"038559a3-6834-4387-a324-51c29d33fdef","system_id":"levelo_inurba_marseille","lat":43.24826,"lon":5.37448,"is_reserved":false,"is_disabled":false,"rental_uris":{"android":"levelo://app?vid=038559a3-6834-4387-a324-51c29d33fdef","ios":"levelo://app?vid=038559a3-6834-4387-a324-51c29d33fdef"},"vehicle_type_id":"4","last_reported":1770553594,"current_range_meters":3200,"station_id":"ce4bhgh2rcd13ifvqfb0","pricing_plan_id":"cebpf4jnsgd1na2vs0mg"},{"bike_id":"1780f274-efef-4868-ad51-2e25c5373fc0","system_id":"levelo_inurba_marseille","lat":43.270628,"lon":5.422753,"is_reserved":false,"is_disabled":false,"rental_uris":{"android":"levelo://app?vid=1780f274-efef-4868-ad51-2e25c5373fc0","ios":"levelo://app?vid=1780f274-efef-4868-ad51-2e25c5373fc0"},"vehicle_type_id":"4","last_reported":1770553594,"current_range_meters":3200,"station_id":"ce4bhk92rcd13ifvqgb0","pricing_plan_id":"cebpf4jnsgd1na2vs0mg"},{"bike_id":"14896356-208c-4be2-bc8a-135c84da0a0e","system_id":"levelo_inurba_marseille","lat":43.26566,"lon":5.39001,"is_reserved":false,"is_disabled":false,"rental_uris":{"android":"levelo://app?vid=14896356-208c-4be2-bc8a-135c84da0a0e","ios":"levelo://app?vid=14896356-208c-4be2-bc8a-135c84da0a0e"},"vehicle_type_id":"4","last_reported":1770553594,"current_range_meters":3200,"station_id":"ce4bhe12rcd13ifvqf30","pricing_plan_id":"cebpf4jnsgd1na2vs0mg"},{"bike_id":"b834e44c-7a6b-44e2-8b98-4864f68f72bc","system_id":"levelo_inurba_marseille","lat":43.25831,"lon":5.39395,"is_reserved":false,"is_disabled":false,"rental_uris":{"android":"levelo://app?vid=b834e44c-7a6b-44e2-8b98-4864f68f72bc","ios":"levelo://app?vid=b834e44c-7a6b-44e2-8b98-4864f68f72bc"},"vehicle_type_id":"4","last_reported":1770553594,"current_range_meters":3600,"station_id":"ce4bhip2rcd13ifvqft0","pricing_plan_id":"cebpf4jnsgd1na2vs0mg"},{"bike_id":"fb50550a-664f-432c-81a9-9b6ae7c31a3f","system_id":"levelo_inurba_marseille","lat":43.26957,"lon":5.38633,"is_reserved":false,"is_disabled":false,"rental_uris":{"android":"levelo://app?vid=fb50550a-664f-432c-81a9-9b6ae7c31a3f","ios":"levelo://app?vid=fb50550a-664f-432c-81a9-9b6ae7c31a3f"},"vehicle_type_id":"4","last_reported":1770553594,"current_range_meters":3600,"station_id":"ce4bhh92rcd13ifvqfh0","pricing_plan_id":"cebpf4jnsgd1na2vs0mg"},{"bike_id":"2ec81cb6-b242-4efc-9239-073e770de218","system_id":"levelo_inurba_marseille","lat":43.26045,"lon":5.37533,"is_reserved":false,"is_disabled":false,"rental_uris":{"android":"levelo://app?vid=2ec81cb6-b242-4efc-9239-073e770de218","ios":"levelo://app?vid=2ec81cb6-b242-4efc-9239-073e770de218"},"vehicle_type_id":"4","last_reported":1770553594,"current_range_meters":3600,"station_id":"ce4bhgh2rcd13ifvqfa0","pricing_plan_id":"cebpf4jnsgd1na2vs0mg"},{"bike_id":"95ddcd5a-bf89-4af0-8832-e9e870a74381","system_id":"levelo_inurba_marseille","lat":43.26229,"lon":5.38843,"is_reserved":false,"is_disabled":false,"rental_uris":{"android":"levelo://app?vid=95ddcd5a-bf89-4af0-8832-e9e870a74381","ios":"levelo://app?vid=95ddcd5a-bf89-4af0-8832-e9e870a74381"},"vehicle_type_id":"4","last_reported":1770553594,"current_range_meters":3600,"station_id":"","pricing_plan_id":"cebpf4jnsgd1na2vs0mg"},{"bike_id":"70ddbad5-60df-46e3-860c-17e515c61363","system_id":"levelo_inurba_marseille","lat":43.311137,"lon":5.377663,"is_reserved":false,"is_disabled":false,"rental_uris":{"android":"levelo://app?vid=70ddbad5-60df-46e3-860c-17e515c61363","ios":"levelo://app?vid=70ddbad5-60df-46e3-860c-17e515c61363"},"vehicle_type_id":"4","last_reported":1770553594,"current_range_meters":3600,"station_id":"ce4bgt92rcd13ifvqcg0","pricing_plan_id":"cebpf4jnsgd1na2vs0mg"},{"bike_id":"d7b7c118-575b-4f69-a01a-1a37afc992ca","system_id":"levelo_inurba_marseille","lat":43.32345,"lon":5.38871,"is_reserved":false,"is_disabled":false,"rental_uris":{"android":"levelo://app?vid=d7b7c118-575b-4f69-a01a-1a37afc992ca","ios":"levelo://app?vid=d7b7c118-575b-4f69-a01a-1a37afc992ca"},"vehicle_type_id":"4","last_reported":1770553594,"current_range_meters":3600,"station_id":"ce4bhqp2rcd13ifvqhog","pricing_plan_id":"cebpf4jnsgd1na2vs0mg"},{"bike_id":"f5b3c0bc-b0db-4532-8e2f-eae93141d573","system_id":"levelo_inurba_marseille","lat":43.3353,"lon":5.37455,"is_reserved":false,"is_disabled":false,"rental_uris":{"android":"levelo://app?vid=f5b3c0bc-b0db-4532-8e2f-eae93141d573","ios":"levelo://app?vid=f5b3c0bc-b0db-4532-8e2f-eae93141d573"},"vehicle_type_id":"4","last_reported":1770553594,"current_range_meters":3600,"station_id":"st_d46tts09ee8s73dlu43g","pricing_plan_id":"cebpf4jnsgd1na2vs0mg"},{"bike_id":"3b71a1ad-0888-4e5c-82a0-0dec693b29d4","system_id":"levelo_inurba_marseille","lat":43.31108,"lon":5.38136,"is_reserved":false,"is_disabled":false,"rental_uris":{"android":"levelo://app?vid=3b71a1ad-0888-4e5c-82a0-0dec693b29d4","ios":"levelo://app?vid=3b71a1ad-0888-4e5c-82a0-0dec693b29d4"},"vehicle_type_id":"4","last_reported":1770553594,"current_range_meters":3600,"station_id":"","pricing_plan_id":"cebpf4jnsgd1na2vs0mg"},{"bike_id":"37810020-311e-4142-81ed-743738c6fb89","system_id":"levelo_inurba_marseille","lat":43.30726,"lon":5.42442,"is_reserved":false,"is_disabled":false,"rental_uris":{"android":"levelo://app?vid=37810020-311e-4142-81ed-743738c6fb89","ios":"levelo://app?vid=37810020-311e-4142-81ed-743738c6fb89"},"vehicle_type_id":"4","last_reported":1770553594,"current_range_meters":3600,"station_id":"st_cvj6ca6bvosntc0bfgr0","pricing_plan_id":"cebpf4jnsgd1na2vs0mg"},{"bike_id":"695a138c-9117-4798-9030-e462ffee3fe5","system_id":"levelo_inurba_marseille","lat":43.24825,"lon":5.37422,"is_reserved":false,"is_disabled":false,"rental_uris":{"android":"levelo://app?vid=695a138c-9117-4798-9030-e462ffee3fe5","ios":"levelo://app?vid=695a138c-9117-4798-9030-e462ffee3fe5"},"vehicle_type_id":"4","last_reported":1770553594,"current_range_meters":3600,"station_id":"ce4bhgh2rcd13ifvqfb0","pricing_plan_id":"cebpf4jnsgd1na2vs0mg"},{"bike_id":"44df0d6d-61a2-46ab-9bf9-ae3cec90cb8f","system_id":"levelo_inurba_marseille","lat":43.25019,"lon":5.38923,"is_reserved":false,"is_disabled":true,"rental_uris":{"android":"levelo://app?vid=44df0d6d-61a2-46ab-9bf9-ae3cec90cb8f","ios":"levelo://app?vid=44df0d6d-61a2-46ab-9bf9-ae3cec90cb8f"},"vehicle_type_id":"4","last_reported":1770553594,"current_range_meters":3600,"station_id":"ce4bhgp2rcd13ifvqfd0","pricing_plan_id":"cebpf4jnsgd1na2vs0mg"},{"bike_id":"3424fe65-7365-4a3d-b40c-9b25ec3af19d","system_id":"levelo_inurba_marseille","lat":43.31334,"lon":5.38659,"is_reserved":false,"is_disabled":false,"rental_uris":{"android":"levelo://app?vid=3424fe65-7365-4a3d-b40c-9b25ec3af19d","ios":"levelo://app?vid=3424fe65-7365-4a3d-b40c-9b25ec3af19d"},"vehicle_type_id":"4","last_reported":1770553594,"current_range_meters":4000,"station_id":"","pricing_plan_id":"cebpf4jnsgd1na2vs0mg"},{"bike_id":"82f38651-b135-48cf-bb30-2efbdc34233b","system_id":"levelo_inurba_marseille","lat":43.29835,"lon":5.4407,"is_reserved":false,"is_disabled":false,"rental_uris":{"android":"levelo://app?vid=82f38651-b135-48cf-bb30-2efbdc34233b","ios":"levelo://app?vid=82f38651-b135-48cf-bb30-2efbdc34233b"},"vehicle_type_id":"4","last_reported":1770553594,"current_range_meters":4000,"station_id":"","pricing_plan_id":"cebpf4jnsgd1na2vs0mg"},{"bike_id":"b92cefea-b054-4668-8b8f-6f3d47fab6c0","system_id":"levelo_inurba_marseille","lat":43.32108,"lon":5.36753,"is_reserved":false,"is_disabled":false,"rental_uris":{"android":"levelo://app?vid=b92cefea-b054-4668-8b8f-6f3d47fab6c0","ios":"levelo://app?vid=b92cefea-b054-4668-8b8f-6f3d47fab6c0"},"vehicle_type_id":"4","last_reported":1770553594,"current_range_meters":4000,"station_id":"ce4bhrh2rcd13ifvqhug","pricing_plan_id":"cebpf4jnsgd1na2vs0mg"},{"bike_id":"c6ef2a4e-064e-4fb4-bee5-f8afdaa0da23","system_id":"levelo_inurba_marseille","lat":43.217522,"lon":5.346011,"is_reserved":false,"is_disabled":false,"rental_uris":{"android":"levelo://app?vid=c6ef2a4e-064e-4fb4-bee5-f8afdaa0da23","ios":"levelo://app?vid=c6ef2a4e-064e-4fb4-bee5-f8afdaa0da23"},"vehicle_type_id":"4","last_reported":1770553594,"current_range_meters":4000,"station_id":"st_cvj6r9ubvosntc0bgbag","pricing_plan_id":"cebpf4jnsgd1na2vs0mg"},{"bike_id":"95cefdd7-6275-45ce-be27-d9d01e4dc178","system_id":"levelo_inurba_marseille","lat":43.26953,"lon":5.38901,"is_reserved":false,"is_disabled":true,"rental_uris":{"android":"levelo://app?vid=95cefdd7-6275-45ce-be27-d9d01e4dc178","ios":"levelo://app?vid=95cefdd7-6275-45ce-be27-d9d01e4dc178"},"vehicle_type_id":"4","last_reported":1770553594,"current_range_meters":4000,"station_id":"ce4bhhh2rcd13ifvqfl0","pricing_plan_id":"cebpf4jnsgd1na2vs0mg"},{"bike_id":"386b4487-f2a2-455b-8ef5-022f78fae20f","system_id":"levelo_inurba_marseille","lat":43.24821,"lon":5.37449,"is_reserved":false,"is_disabled":false,"rental_uris":{"android":"levelo://app?vid=386b4487-f2a2-455b-8ef5-022f78fae20f","ios":"levelo://app?vid=386b4487-f2a2-455b-8ef5-022f78fae20f"},"vehicle_type_id":"4","last_reported":1770553594,"current_range_meters":4000,"station_id":"ce4bhgh2rcd13ifvqfb0","pricing_plan_id":"cebpf4jnsgd1na2vs0mg"},{"bike_id":"13a66910-aa65-4559-ba7a-e63b61e82f6f","system_id":"levelo_inurba_marseille","lat":43.295476,"lon":5.42286,"is_reserved":false,"is_disabled":false,"rental_uris":{"android":"levelo://app?vid=13a66910-aa65-4559-ba7a-e63b61e82f6f","ios":"levelo://app?vid=13a66910-aa65-4559-ba7a-e63b61e82f6f"},"vehicle_type_id":"4","last_reported":1770553594,"current_range_meters":4000,"station_id":"ce4bhph2rcd13ifvqhdg","pricing_plan_id":"cebpf4jnsgd1na2vs0mg"},{"bike_id":"4730dc41-5c85-4a22-864d-cf09224f33fd","system_id":"levelo_inurba_marseille","lat":43.28701,"lon":5.38661,"is_reserved":false,"is_disabled":false,"rental_uris":{"android":"levelo://app?vid=4730dc41-5c85-4a22-864d-cf09224f33fd","ios":"levelo://app?vid=4730dc41-5c85-4a22-864d-cf09224f33fd"},"vehicle_type_id":"4","last_reported":1770553594,"current_range_meters":4000,"station_id":"ce4bh492rcd13ifvqdug","pricing_plan_id":"cebpf4jnsgd1na2vs0mg"},{"bike_id":"56eb7c62-938b-4044-8448-c5e5eb275fa6","system_id":"levelo_inurba_marseille","lat":43.28729,"lon":5.37948,"is_reserved":false,"is_disabled":false,"rental_uris":{"android":"levelo://app?vid=56eb7c62-938b-4044-8448-c5e5eb275fa6","ios":"levelo://app?vid=56eb7c62-938b-4044-8448-c5e5eb275fa6"},"vehicle_type_id":"4","last_reported":1770553594,"current_range_meters":4000,"station_id":"ce4bh9p2rcd13ifvqec0","pricing_plan_id":"cebpf4jnsgd1na2vs0mg"},{"bike_id":"a85d500c-1b7e-4b3f-bba8-c0b38aec10c6","system_id":"levelo_inurba_marseille","lat":43.25946,"lon":5.40902,"is_reserved":false,"is_disabled":false,"rental_uris":{"android":"levelo://app?vid=a85d500c-1b7e-4b3f-bba8-c0b38aec10c6","ios":"levelo://app?vid=a85d500c-1b7e-4b3f-bba8-c0b38aec10c6"},"vehicle_type_id":"4","last_reported":1770553594,"current_range_meters":4000,"station_id":"ce4bhm92rcd13ifvqglg","pricing_plan_id":"cebpf4jnsgd1na2vs0mg"},{"bike_id":"4308129b-6751-4273-bbe8-20208f30cb65","system_id":"levelo_inurba_marseille","lat":43.22929,"lon":5.35374,"is_reserved":false,"is_disabled":false,"rental_uris":{"android":"levelo://app?vid=4308129b-6751-4273-bbe8-20208f30cb65","ios":"levelo://app?vid=4308129b-6751-4273-bbe8-20208f30cb65"},"vehicle_type_id":"4","last_reported":1770553594,"current_range_meters":4000,"station_id":"cpo3532slgdg3j2ikp40","pricing_plan_id":"cebpf4jnsgd1na2vs0mg"},{"bike_id":"e8b3f3bc-4896-4dbc-afc4-dfc343612c09","system_id":"levelo_inurba_marseille","lat":43.314387,"lon":5.366947,"is_reserved":false,"is_disabled":false,"rental_uris":{"android":"levelo://app?vid=e8b3f3bc-4896-4dbc-afc4-dfc343612c09","ios":"levelo://app?vid=e8b3f3bc-4896-4dbc-afc4-dfc343612c09"},"vehicle_type_id":"4","last_reported":1770553594,"current_range_meters":4400,"station_id":"","pricing_plan_id":"cebpf4jnsgd1na2vs0mg"},{"bike_id":"bb5cab08-186f-4af0-9cfa-2f009cafe5c6","system_id":"levelo_inurba_marseille","lat":43.22929,"lon":5.35406,"is_reserved":false,"is_disabled":false,"rental_uris":{"android":"levelo://app?vid=bb5cab08-186f-4af0-9cfa-2f009cafe5c6","ios":"levelo://app?vid=bb5cab08-186f-4af0-9cfa-2f009cafe5c6"},"vehicle_type_id":"4","last_reported":1770553594,"current_range_meters":4400,"station_id":"cpo3532slgdg3j2ikp40","pricing_plan_id":"cebpf4jnsgd1na2vs0mg"},{"bike_id":"a8166b5b-d24f-4bfd-bc3a-e719ac9d4b2e","system_id":"levelo_inurba_marseille","lat":43.280277,"lon":5.408904,"is_reserved":false,"is_disabled":false,"rental_uris":{"android":"levelo://app?vid=a8166b5b-d24f-4bfd-bc3a-e719ac9d4b2e","ios":"levelo://app?vid=a8166b5b-d24f-4bfd-bc3a-e719ac9d4b2e"},"vehicle_type_id":"4","last_reported":1770553594,"current_range_meters":4400,"station_id":"","pricing_plan_id":"cebpf4jnsgd1na2vs0mg"},{"bike_id":"55701a05-0afd-44f2-b5ec-65dd45bfe15c","system_id":"levelo_inurba_marseille","lat":43.239629,"lon":5.366154,"is_reserved":false,"is_disabled":false,"rental_uris":{"android":"levelo://app?vid=55701a05-0afd-44f2-b5ec-65dd45bfe15c","ios":"levelo://app?vid=55701a05-0afd-44f2-b5ec-65dd45bfe15c"},"vehicle_type_id":"4","last_reported":1770553594,"current_range_meters":4400,"station_id":"ce4bhi12rcd13ifvqfp0","pricing_plan_id":"cebpf4jnsgd1na2vs0mg"},{"bike_id":"4940192c-cd9e-43b0-a8dd-fd4c04e7805e","system_id":"levelo_inurba_marseille","lat":43.22549,"lon":5.41618,"is_reserved":false,"is_disabled":false,"rental_uris":{"android":"levelo://app?vid=4940192c-cd9e-43b0-a8dd-fd4c04e7805e","ios":"levelo://app?vid=4940192c-cd9e-43b0-a8dd-fd4c04e7805e"},"vehicle_type_id":"4","last_reported":1770553594,"current_range_meters":4400,"station_id":"st_d2o4gvlbi1j2169b742g","pricing_plan_id":"cebpf4jnsgd1na2vs0mg"},{"bike_id":"7e707e23-ddd5-4780-8ee7-af32e3a9fde6","system_id":"levelo_inurba_marseille","lat":43.323538,"lon":5.36744,"is_reserved":false,"is_disabled":false,"rental_uris":{"android":"levelo://app?vid=7e707e23-ddd5-4780-8ee7-af32e3a9fde6","ios":"levelo://app?vid=7e707e23-ddd5-4780-8ee7-af32e3a9fde6"},"vehicle_type_id":"4","last_reported":1770553594,"current_range_meters":4400,"station_id":"ce4bhsh2rcd13ifvqi2g","pricing_plan_id":"cebpf4jnsgd1na2vs0mg"},{"bike_id":"574a237c-726e-4c0f-b75b-afd451cb0719","system_id":"levelo_inurba_marseille","lat":43.24182,"lon":5.39732,"is_reserved":false,"is_disabled":false,"rental_uris":{"android":"levelo://app?vid=574a237c-726e-4c0f-b75b-afd451cb0719","ios":"levelo://app?vid=574a237c-726e-4c0f-b75b-afd451cb0719"},"vehicle_type_id":"4","last_reported":1770553594,"current_range_meters":4400,"station_id":"ce4bhn12rcd13ifvqgpg","pricing_plan_id":"cebpf4jnsgd1na2vs0mg"},{"bike_id":"6a33da45-77ca-4fe9-986d-2ca1e064b34b","system_id":"levelo_inurba_marseille","lat":43.24557,"lon":5.39504,"is_reserved":false,"is_disabled":false,"rental_uris":{"android":"levelo://app?vid=6a33da45-77ca-4fe9-986d-2ca1e064b34b","ios":"levelo://app?vid=6a33da45-77ca-4fe9-986d-2ca1e064b34b"},"vehicle_type_id":"4","last_reported":1770553594,"current_range_meters":4400,"station_id":"ce4bhlp2rcd13ifvqgjg","pricing_plan_id":"cebpf4jnsgd1na2vs0mg"},{"bike_id":"ff981718-737a-46d1-b7ba-67de65affffe","system_id":"levelo_inurba_marseille","lat":43.25872,"lon":5.39902,"is_reserved":false,"is_disabled":false,"rental_uris":{"android":"levelo://app?vid=ff981718-737a-46d1-b7ba-67de65affffe","ios":"levelo://app?vid=ff981718-737a-46d1-b7ba-67de65affffe"},"vehicle_type_id":"4","last_reported":1770553594,"current_range_meters":4400,"station_id":"ce4bhl92rcd13ifvqghg","pricing_plan_id":"cebpf4jnsgd1na2vs0mg"},{"bike_id":"83eab603-5a81-40a3-afcb-498eea091594","system_id":"levelo_inurba_marseille","lat":43.28663,"lon":5.3866,"is_reserved":false,"is_disabled":false,"rental_uris":{"android":"levelo://app?vid=83eab603-5a81-40a3-afcb-498eea091594","ios":"levelo://app?vid=83eab603-5a81-40a3-afcb-498eea091594"},"vehicle_type_id":"4","last_reported":1770553594,"current_range_meters":4400,"station_id":"ce4bh492rcd13ifvqdug","pricing_plan_id":"cebpf4jnsgd1na2vs0mg"},{"bike_id":"11616263-142c-4dd0-a9e9-585090690c40","system_id":"levelo_inurba_marseille","lat":43.2463,"lon":5.43127,"is_reserved":false,"is_disabled":false,"rental_uris":{"android":"levelo://app?vid=11616263-142c-4dd0-a9e9-585090690c40","ios":"levelo://app?vid=11616263-142c-4dd0-a9e9-585090690c40"},"vehicle_type_id":"4","last_reported":1770553594,"current_range_meters":4800,"station_id":"st_d2m6c4gdas8pm72e190g","pricing_plan_id":"cebpf4jnsgd1na2vs0mg"},{"bike_id":"03431b60-4c57-4b38-a44e-dd832c690cfa","system_id":"levelo_inurba_marseille","lat":43.284729,"lon":5.384325,"is_reserved":false,"is_disabled":false,"rental_uris":{"android":"levelo://app?vid=03431b60-4c57-4b38-a44e-dd832c690cfa","ios":"levelo://app?vid=03431b60-4c57-4b38-a44e-dd832c690cfa"},"vehicle_type_id":"4","last_reported":1770553594,"current_range_meters":4800,"station_id":"ce4bh512rcd13ifvqe3g","pricing_plan_id":"cebpf4jnsgd1na2vs0mg"},{"bike_id":"df18080c-6f7c-48c7-9d84-ed42524c15e3","system_id":"levelo_inurba_marseille","lat":43.28486,"lon":5.38417,"is_reserved":false,"is_disabled":false,"rental_uris":{"android":"levelo://app?vid=df18080c-6f7c-48c7-9d84-ed42524c15e3","ios":"levelo://app?vid=df18080c-6f7c-48c7-9d84-ed42524c15e3"},"vehicle_type_id":"4","last_reported":1770553594,"current_range_meters":4800,"station_id":"ce4bh512rcd13ifvqe3g","pricing_plan_id":"cebpf4jnsgd1na2vs0mg"},{"bike_id":"811ecfab-1e6f-4cd1-8960-403c2a502307","system_id":"levelo_inurba_marseille","lat":43.22939,"lon":5.3538,"is_reserved":false,"is_disabled":false,"rental_uris":{"android":"levelo://app?vid=811ecfab-1e6f-4cd1-8960-403c2a502307","ios":"levelo://app?vid=811ecfab-1e6f-4cd1-8960-403c2a502307"},"vehicle_type_id":"4","last_reported":1770553594,"current_range_meters":4800,"station_id":"cpo3532slgdg3j2ikp40","pricing_plan_id":"cebpf4jnsgd1na2vs0mg"},{"bike_id":"e1c8c758-193c-4580-bf6f-f0b27821b578","system_id":"levelo_inurba_marseille","lat":43.26495,"lon":5.3954,"is_reserved":false,"is_disabled":false,"rental_uris":{"android":"levelo://app?vid=e1c8c758-193c-4580-bf6f-f0b27821b578","ios":"levelo://app?vid=e1c8c758-193c-4580-bf6f-f0b27821b578"},"vehicle_type_id":"4","last_reported":1770553594,"current_range_meters":4800,"station_id":"ce4bhi12rcd13ifvqfq0","pricing_plan_id":"cebpf4jnsgd1na2vs0mg"},{"bike_id":"3aed5847-38a3-483f-a302-c0e755a4674d","system_id":"levelo_inurba_marseille","lat":43.26388,"lon":5.4107,"is_reserved":false,"is_disabled":false,"rental_uris":{"android":"levelo://app?vid=3aed5847-38a3-483f-a302-c0e755a4674d","ios":"levelo://app?vid=3aed5847-38a3-483f-a302-c0e755a4674d"},"vehicle_type_id":"4","last_reported":1770553594,"current_range_meters":4800,"station_id":"st_d4e5ca6na9uc73bfl5fg","pricing_plan_id":"cebpf4jnsgd1na2vs0mg"},{"bike_id":"90154499-7a4e-4deb-a403-154052f8c6cd","system_id":"levelo_inurba_marseille","lat":43.284628,"lon":5.358783,"is_reserved":false,"is_disabled":false,"rental_uris":{"android":"levelo://app?vid=90154499-7a4e-4deb-a403-154052f8c6cd","ios":"levelo://app?vid=90154499-7a4e-4deb-a403-154052f8c6cd"},"vehicle_type_id":"4","last_reported":1770553594,"current_range_meters":4800,"station_id":"ce4bhah2rcd13ifvqei0","pricing_plan_id":"cebpf4jnsgd1na2vs0mg"},{"bike_id":"b0331170-4722-484f-85fa-ff26f59380f0","system_id":"levelo_inurba_marseille","lat":43.29503,"lon":5.43312,"is_reserved":false,"is_disabled":false,"rental_uris":{"android":"levelo://app?vid=b0331170-4722-484f-85fa-ff26f59380f0","ios":"levelo://app?vid=b0331170-4722-484f-85fa-ff26f59380f0"},"vehicle_type_id":"4","last_reported":1770553594,"current_range_meters":4800,"station_id":"st_d3j5ugp08ojc73fj9d10","pricing_plan_id":"cebpf4jnsgd1na2vs0mg"},{"bike_id":"e4a0f913-c11d-44fe-9550-8902e8340c94","system_id":"levelo_inurba_marseille","lat":43.248004,"lon":5.374634,"is_reserved":false,"is_disabled":false,"rental_uris":{"android":"levelo://app?vid=e4a0f913-c11d-44fe-9550-8902e8340c94","ios":"levelo://app?vid=e4a0f913-c11d-44fe-9550-8902e8340c94"},"vehicle_type_id":"4","last_reported":1770553594,"current_range_meters":5600,"station_id":"","pricing_plan_id":"cebpf4jnsgd1na2vs0mg"},{"bike_id":"deb74d2f-8287-483e-a4e8-6f2536d6f6ad","system_id":"levelo_inurba_marseille","lat":43.28873,"lon":5.35853,"is_reserved":false,"is_disabled":false,"rental_uris":{"android":"levelo://app?vid=deb74d2f-8287-483e-a4e8-6f2536d6f6ad","ios":"levelo://app?vid=deb74d2f-8287-483e-a4e8-6f2536d6f6ad"},"vehicle_type_id":"4","last_reported":1770553594,"current_range_meters":5600,"station_id":"ce4bhb12rcd13ifvqem0","pricing_plan_id":"cebpf4jnsgd1na2vs0mg"},{"bike_id":"32641f13-9d93-4f9b-b623-ce0c373ebef8","system_id":"levelo_inurba_marseille","lat":43.28489,"lon":5.38391,"is_reserved":false,"is_disabled":false,"rental_uris":{"android":"levelo://app?vid=32641f13-9d93-4f9b-b623-ce0c373ebef8","ios":"levelo://app?vid=32641f13-9d93-4f9b-b623-ce0c373ebef8"},"vehicle_type_id":"4","last_reported":1770553594,"current_range_meters":5600,"station_id":"ce4bh512rcd13ifvqe3g","pricing_plan_id":"cebpf4jnsgd1na2vs0mg"},{"bike_id":"6d4d7125-f230-40ff-9866-8a80f2da0b0b","system_id":"levelo_inurba_marseille","lat":43.22942,"lon":5.35381,"is_reserved":false,"is_disabled":false,"rental_uris":{"android":"levelo://app?vid=6d4d7125-f230-40ff-9866-8a80f2da0b0b","ios":"levelo://app?vid=6d4d7125-f230-40ff-9866-8a80f2da0b0b"},"vehicle_type_id":"4","last_reported":1770553594,"current_range_meters":5600,"station_id":"cpo3532slgdg3j2ikp40","pricing_plan_id":"cebpf4jnsgd1na2vs0mg"},{"bike_id":"9c27da16-0b95-483f-acc9-aaafd261f73e","system_id":"levelo_inurba_marseille","lat":43.30911,"lon":5.36856,"is_reserved":false,"is_disabled":false,"rental_uris":{"android":"levelo://app?vid=9c27da16-0b95-483f-acc9-aaafd261f73e","ios":"levelo://app?vid=9c27da16-0b95-483f-acc9-aaafd261f73e"},"vehicle_type_id":"4","last_reported":1770553594,"current_range_meters":5600,"station_id":"ce4bgn92rcd13ifvqbvg","pricing_plan_id":"cebpf4jnsgd1na2vs0mg"},{"bike_id":"3b9a9b82-b164-4299-abaa-2409aa3deeda","system_id":"levelo_inurba_marseille","lat":43.22929,"lon":5.35376,"is_reserved":false,"is_disabled":false,"rental_uris":{"android":"levelo://app?vid=3b9a9b82-b164-4299-abaa-2409aa3deeda","ios":"levelo://app?vid=3b9a9b82-b164-4299-abaa-2409aa3deeda"},"vehicle_type_id":"4","last_reported":1770553594,"current_range_meters":5600,"station_id":"cpo3532slgdg3j2ikp40","pricing_plan_id":"cebpf4jnsgd1na2vs0mg"},{"bike_id":"09986119-327c-45bf-b6a8-e15c339167ea","system_id":"levelo_inurba_marseille","lat":43.28502,"lon":5.43983,"is_reserved":false,"is_disabled":false,"rental_uris":{"android":"levelo://app?vid=09986119-327c-45bf-b6a8-e15c339167ea","ios":"levelo://app?vid=09986119-327c-45bf-b6a8-e15c339167ea"},"vehicle_type_id":"4","last_reported":1770553594,"current_range_meters":5600,"station_id":"","pricing_plan_id":"cebpf4jnsgd1na2vs0mg"},{"bike_id":"3b73be09-b17e-40e7-bdb2-cdb4ecbabb43","system_id":"levelo_inurba_marseille","lat":43.297907,"lon":5.38083,"is_reserved":false,"is_disabled":false,"rental_uris":{"android":"levelo://app?vid=3b73be09-b17e-40e7-bdb2-cdb4ecbabb43","ios":"levelo://app?vid=3b73be09-b17e-40e7-bdb2-cdb4ecbabb43"},"vehicle_type_id":"4","last_reported":1770553594,"current_range_meters":5600,"station_id":"ce4bgip2rcd13ifvqbb0","pricing_plan_id":"cebpf4jnsgd1na2vs0mg"},{"bike_id":"d55e8f59-f61e-47e0-acd8-2c1927e67bc8","system_id":"levelo_inurba_marseille","lat":43.301494,"lon":5.380939,"is_reserved":false,"is_disabled":false,"rental_uris":{"android":"levelo://app?vid=d55e8f59-f61e-47e0-acd8-2c1927e67bc8","ios":"levelo://app?vid=d55e8f59-f61e-47e0-acd8-2c1927e67bc8"},"vehicle_type_id":"4","last_reported":1770553594,"current_range_meters":6000,"station_id":"ce4bgjp2rcd13ifvqbh0","pricing_plan_id":"cebpf4jnsgd1na2vs0mg"},{"bike_id":"5cdd27df-1aa5-4830-b5fc-91672ce179d3","system_id":"levelo_inurba_marseille","lat":43.27948,"lon":5.41025,"is_reserved":false,"is_disabled":true,"rental_uris":{"android":"levelo://app?vid=5cdd27df-1aa5-4830-b5fc-91672ce179d3","ios":"levelo://app?vid=5cdd27df-1aa5-4830-b5fc-91672ce179d3"},"vehicle_type_id":"4","last_reported":1770553594,"current_range_meters":6000,"station_id":"ce4bhnp2rcd13ifvqh0g","pricing_plan_id":"cebpf4jnsgd1na2vs0mg"},{"bike_id":"e6d03073-11a9-495e-8d13-201bb403d1fc","system_id":"levelo_inurba_marseille","lat":43.21192,"lon":5.35073,"is_reserved":false,"is_disabled":false,"rental_uris":{"android":"levelo://app?vid=e6d03073-11a9-495e-8d13-201bb403d1fc","ios":"levelo://app?vid=e6d03073-11a9-495e-8d13-201bb403d1fc"},"vehicle_type_id":"4","last_reported":1770553594,"current_range_meters":6000,"station_id":"st_cvj6sg6p6f1abm77japg","pricing_plan_id":"cebpf4jnsgd1na2vs0mg"},{"bike_id":"a73a15e0-62ef-44a0-9edc-ef7889b56e93","system_id":"levelo_inurba_marseille","lat":43.30158,"lon":5.38077,"is_reserved":false,"is_disabled":false,"rental_uris":{"android":"levelo://app?vid=a73a15e0-62ef-44a0-9edc-ef7889b56e93","ios":"levelo://app?vid=a73a15e0-62ef-44a0-9edc-ef7889b56e93"},"vehicle_type_id":"4","last_reported":1770553594,"current_range_meters":6000,"station_id":"ce4bgjp2rcd13ifvqbh0","pricing_plan_id":"cebpf4jnsgd1na2vs0mg"},{"bike_id":"62e4c22c-ba08-4e76-83ca-cbbe5a97d8d7","system_id":"levelo_inurba_marseille","lat":43.23191,"lon":5.35547,"is_reserved":false,"is_disabled":false,"rental_uris":{"android":"levelo://app?vid=62e4c22c-ba08-4e76-83ca-cbbe5a97d8d7","ios":"levelo://app?vid=62e4c22c-ba08-4e76-83ca-cbbe5a97d8d7"},"vehicle_type_id":"4","last_reported":1770553594,"current_range_meters":6000,"station_id":"ce4bhu92rcd13ifvqi70","pricing_plan_id":"cebpf4jnsgd1na2vs0mg"},{"bike_id":"7d133632-afa7-496a-89cf-31f9337d1c83","system_id":"levelo_inurba_marseille","lat":43.29045,"lon":5.37181,"is_reserved":false,"is_disabled":true,"rental_uris":{"android":"levelo://app?vid=7d133632-afa7-496a-89cf-31f9337d1c83","ios":"levelo://app?vid=7d133632-afa7-496a-89cf-31f9337d1c83"},"vehicle_type_id":"4","last_reported":1770553594,"current_range_meters":6000,"station_id":"ce4bh5p2rcd13ifvqe4g","pricing_plan_id":"cebpf4jnsgd1na2vs0mg"},{"bike_id":"f5da9401-db7e-426f-9a0f-2330a30b8658","system_id":"levelo_inurba_marseille","lat":43.24407,"lon":5.37053,"is_reserved":false,"is_disabled":true,"rental_uris":{"android":"levelo://app?vid=f5da9401-db7e-426f-9a0f-2330a30b8658","ios":"levelo://app?vid=f5da9401-db7e-426f-9a0f-2330a30b8658"},"vehicle_type_id":"4","last_reported":1770553594,"current_range_meters":6000,"station_id":"ce4bhhh2rcd13ifvqfk0","pricing_plan_id":"cebpf4jnsgd1na2vs0mg"},{"bike_id":"0c0f8a2f-9a4d-41d4-989d-0153bebb1c3c","system_id":"levelo_inurba_marseille","lat":43.2464,"lon":5.38905,"is_reserved":false,"is_disabled":false,"rental_uris":{"android":"levelo://app?vid=0c0f8a2f-9a4d-41d4-989d-0153bebb1c3c","ios":"levelo://app?vid=0c0f8a2f-9a4d-41d4-989d-0153bebb1c3c"},"vehicle_type_id":"4","last_reported":1770553594,"current_range_meters":6000,"station_id":"ce4bhg12rcd13ifvqf60","pricing_plan_id":"cebpf4jnsgd1na2vs0mg"},{"bike_id":"ea8c0580-dee3-43f3-bf01-1aa8969bd163","system_id":"levelo_inurba_marseille","lat":43.24176,"lon":5.36413,"is_reserved":false,"is_disabled":false,"rental_uris":{"android":"levelo://app?vid=ea8c0580-dee3-43f3-bf01-1aa8969bd163","ios":"levelo://app?vid=ea8c0580-dee3-43f3-bf01-1aa8969bd163"},"vehicle_type_id":"4","last_reported":1770553594,"current_range_meters":6000,"station_id":"cpo36qri1sfpv3e86is0","pricing_plan_id":"cebpf4jnsgd1na2vs0mg"},{"bike_id":"6216461a-536b-4362-ac08-815386365ad7","system_id":"levelo_inurba_marseille","lat":43.30133,"lon":5.4313,"is_reserved":false,"is_disabled":false,"rental_uris":{"android":"levelo://app?vid=6216461a-536b-4362-ac08-815386365ad7","ios":"levelo://app?vid=6216461a-536b-4362-ac08-815386365ad7"},"vehicle_type_id":"4","last_reported":1770553594,"current_range_meters":6000,"station_id":"st_d3js3co5814s73ftftug","pricing_plan_id":"cebpf4jnsgd1na2vs0mg"},{"bike_id":"6a144693-7691-4af0-a94f-86308d14d8c0","system_id":"levelo_inurba_marseille","lat":43.25934,"lon":5.40885,"is_reserved":false,"is_disabled":false,"rental_uris":{"android":"levelo://app?vid=6a144693-7691-4af0-a94f-86308d14d8c0","ios":"levelo://app?vid=6a144693-7691-4af0-a94f-86308d14d8c0"},"vehicle_type_id":"4","last_reported":1770553594,"current_range_meters":6000,"station_id":"ce4bhm92rcd13ifvqglg","pricing_plan_id":"cebpf4jnsgd1na2vs0mg"},{"bike_id":"d9d493c8-2229-4bda-a958-4c19d5464801","system_id":"levelo_inurba_marseille","lat":43.26158,"lon":5.39737,"is_reserved":false,"is_disabled":false,"rental_uris":{"android":"levelo://app?vid=d9d493c8-2229-4bda-a958-4c19d5464801","ios":"levelo://app?vid=d9d493c8-2229-4bda-a958-4c19d5464801"},"vehicle_type_id":"4","last_reported":1770553594,"current_range_meters":6000,"station_id":"ce4bhl92rcd13ifvqghg","pricing_plan_id":"cebpf4jnsgd1na2vs0mg"},{"bike_id":"fd3f6ee2-b573-44cd-b12f-ecb3ca6ae4d0","system_id":"levelo_inurba_marseille","lat":43.28028,"lon":5.41679,"is_reserved":false,"is_disabled":false,"rental_uris":{"android":"levelo://app?vid=fd3f6ee2-b573-44cd-b12f-ecb3ca6ae4d0","ios":"levelo://app?vid=fd3f6ee2-b573-44cd-b12f-ecb3ca6ae4d0"},"vehicle_type_id":"4","last_reported":1770553594,"current_range_meters":6000,"station_id":"ce4bho12rcd13ifvqh1g","pricing_plan_id":"cebpf4jnsgd1na2vs0mg"},{"bike_id":"2cb5a43b-e623-4a02-b02d-84a79ff3e02e","system_id":"levelo_inurba_marseille","lat":43.22556,"lon":5.41639,"is_reserved":false,"is_disabled":false,"rental_uris":{"android":"levelo://app?vid=2cb5a43b-e623-4a02-b02d-84a79ff3e02e","ios":"levelo://app?vid=2cb5a43b-e623-4a02-b02d-84a79ff3e02e"},"vehicle_type_id":"4","last_reported":1770553594,"current_range_meters":6400,"station_id":"st_d2o4gvlbi1j2169b742g","pricing_plan_id":"cebpf4jnsgd1na2vs0mg"},{"bike_id":"0f9398e4-1c51-403f-8553-7aa3b9b52ae1","system_id":"levelo_inurba_marseille","lat":43.2849,"lon":5.3842,"is_reserved":false,"is_disabled":false,"rental_uris":{"android":"levelo://app?vid=0f9398e4-1c51-403f-8553-7aa3b9b52ae1","ios":"levelo://app?vid=0f9398e4-1c51-403f-8553-7aa3b9b52ae1"},"vehicle_type_id":"4","last_reported":1770553594,"current_range_meters":6400,"station_id":"ce4bh512rcd13ifvqe3g","pricing_plan_id":"cebpf4jnsgd1na2vs0mg"},{"bike_id":"5e1c107b-6624-40f0-998c-ef84f3d71a9b","system_id":"levelo_inurba_marseille","lat":43.27329,"lon":5.39094,"is_reserved":false,"is_disabled":true,"rental_uris":{"android":"levelo://app?vid=5e1c107b-6624-40f0-998c-ef84f3d71a9b","ios":"levelo://app?vid=5e1c107b-6624-40f0-998c-ef84f3d71a9b"},"vehicle_type_id":"4","last_reported":1770553594,"current_range_meters":6400,"station_id":"ce4bhgp2rcd13ifvqfe0","pricing_plan_id":"cebpf4jnsgd1na2vs0mg"},{"bike_id":"508fb8b9-4cee-4799-8b3b-fa3d800ff13e","system_id":"levelo_inurba_marseille","lat":43.33551,"lon":5.37465,"is_reserved":false,"is_disabled":false,"rental_uris":{"android":"levelo://app?vid=508fb8b9-4cee-4799-8b3b-fa3d800ff13e","ios":"levelo://app?vid=508fb8b9-4cee-4799-8b3b-fa3d800ff13e"},"vehicle_type_id":"4","last_reported":1770553594,"current_range_meters":6400,"station_id":"st_d46tts09ee8s73dlu43g","pricing_plan_id":"cebpf4jnsgd1na2vs0mg"},{"bike_id":"ae12ad40-d776-4c8c-a1b5-593d194154e8","system_id":"levelo_inurba_marseille","lat":43.321071,"lon":5.367737,"is_reserved":false,"is_disabled":false,"rental_uris":{"android":"levelo://app?vid=ae12ad40-d776-4c8c-a1b5-593d194154e8","ios":"levelo://app?vid=ae12ad40-d776-4c8c-a1b5-593d194154e8"},"vehicle_type_id":"4","last_reported":1770553594,"current_range_meters":6400,"station_id":"ce4bhrh2rcd13ifvqhug","pricing_plan_id":"cebpf4jnsgd1na2vs0mg"},{"bike_id":"e55da058-5f2f-4502-8e5f-50303f92e92a","system_id":"levelo_inurba_marseille","lat":43.265611,"lon":5.37301,"is_reserved":false,"is_disabled":false,"rental_uris":{"android":"levelo://app?vid=e55da058-5f2f-4502-8e5f-50303f92e92a","ios":"levelo://app?vid=e55da058-5f2f-4502-8e5f-50303f92e92a"},"vehicle_type_id":"4","last_reported":1770553594,"current_range_meters":6400,"station_id":"ce4bhg12rcd13ifvqf70","pricing_plan_id":"cebpf4jnsgd1na2vs0mg"},{"bike_id":"4c1d817c-2311-4829-b074-c35d06d3a077","system_id":"levelo_inurba_marseille","lat":43.22935,"lon":5.35373,"is_reserved":false,"is_disabled":false,"rental_uris":{"android":"levelo://app?vid=4c1d817c-2311-4829-b074-c35d06d3a077","ios":"levelo://app?vid=4c1d817c-2311-4829-b074-c35d06d3a077"},"vehicle_type_id":"4","last_reported":1770553594,"current_range_meters":6400,"station_id":"cpo3532slgdg3j2ikp40","pricing_plan_id":"cebpf4jnsgd1na2vs0mg"},{"bike_id":"a15bbded-05ca-465f-844e-c505328d58c9","system_id":"levelo_inurba_marseille","lat":43.26558,"lon":5.37286,"is_reserved":false,"is_disabled":false,"rental_uris":{"android":"levelo://app?vid=a15bbded-05ca-465f-844e-c505328d58c9","ios":"levelo://app?vid=a15bbded-05ca-465f-844e-c505328d58c9"},"vehicle_type_id":"4","last_reported":1770553594,"current_range_meters":6800,"station_id":"ce4bhg12rcd13ifvqf70","pricing_plan_id":"cebpf4jnsgd1na2vs0mg"},{"bike_id":"beda68ef-f369-4f32-832a-0322245f271f","system_id":"levelo_inurba_marseille","lat":43.286224,"lon":5.351101,"is_reserved":false,"is_disabled":false,"rental_uris":{"android":"levelo://app?vid=beda68ef-f369-4f32-832a-0322245f271f","ios":"levelo://app?vid=beda68ef-f369-4f32-832a-0322245f271f"},"vehicle_type_id":"4","last_reported":1770553594,"current_range_meters":6800,"station_id":"ce4bhch2rcd13ifvqeug","pricing_plan_id":"cebpf4jnsgd1na2vs0mg"},{"bike_id":"6b6b3044-dd0e-4787-8945-aab93fdd08a2","system_id":"levelo_inurba_marseille","lat":43.29766,"lon":5.37378,"is_reserved":false,"is_disabled":false,"rental_uris":{"android":"levelo://app?vid=6b6b3044-dd0e-4787-8945-aab93fdd08a2","ios":"levelo://app?vid=6b6b3044-dd0e-4787-8945-aab93fdd08a2"},"vehicle_type_id":"4","last_reported":1770553594,"current_range_meters":6800,"station_id":"","pricing_plan_id":"cebpf4jnsgd1na2vs0mg"},{"bike_id":"8c1d327c-0aef-40f2-9c1e-c8f679c30716","system_id":"levelo_inurba_marseille","lat":43.303158,"lon":5.369074,"is_reserved":false,"is_disabled":false,"rental_uris":{"android":"levelo://app?vid=8c1d327c-0aef-40f2-9c1e-c8f679c30716","ios":"levelo://app?vid=8c1d327c-0aef-40f2-9c1e-c8f679c30716"},"vehicle_type_id":"4","last_reported":1770553594,"current_range_meters":6800,"station_id":"ce4bgqh2rcd13ifvqc5g","pricing_plan_id":"cebpf4jnsgd1na2vs0mg"},{"bike_id":"e8457bb3-f99d-40e0-aa19-6d3fdf1a5998","system_id":"levelo_inurba_marseille","lat":43.2811,"lon":5.42666,"is_reserved":false,"is_disabled":false,"rental_uris":{"android":"levelo://app?vid=e8457bb3-f99d-40e0-aa19-6d3fdf1a5998","ios":"levelo://app?vid=e8457bb3-f99d-40e0-aa19-6d3fdf1a5998"},"vehicle_type_id":"4","last_reported":1770553594,"current_range_meters":6800,"station_id":"","pricing_plan_id":"cebpf4jnsgd1na2vs0mg"},{"bike_id":"9c9db9d5-0e0c-47a3-a905-8fcf5962983e","system_id":"levelo_inurba_marseille","lat":43.23202,"lon":5.35555,"is_reserved":false,"is_disabled":false,"rental_uris":{"android":"levelo://app?vid=9c9db9d5-0e0c-47a3-a905-8fcf5962983e","ios":"levelo://app?vid=9c9db9d5-0e0c-47a3-a905-8fcf5962983e"},"vehicle_type_id":"4","last_reported":1770553594,"current_range_meters":6800,"station_id":"ce4bhu92rcd13ifvqi70","pricing_plan_id":"cebpf4jnsgd1na2vs0mg"},{"bike_id":"8138c7ab-272e-47d5-82e8-142e12d30a9b","system_id":"levelo_inurba_marseille","lat":43.32118,"lon":5.36765,"is_reserved":false,"is_disabled":false,"rental_uris":{"android":"levelo://app?vid=8138c7ab-272e-47d5-82e8-142e12d30a9b","ios":"levelo://app?vid=8138c7ab-272e-47d5-82e8-142e12d30a9b"},"vehicle_type_id":"4","last_reported":1770553594,"current_range_meters":6800,"station_id":"ce4bhrh2rcd13ifvqhug","pricing_plan_id":"cebpf4jnsgd1na2vs0mg"},{"bike_id":"968f210a-55fc-4510-bcd2-d3ede65fbe45","system_id":"levelo_inurba_marseille","lat":43.32485,"lon":5.36558,"is_reserved":false,"is_disabled":false,"rental_uris":{"android":"levelo://app?vid=968f210a-55fc-4510-bcd2-d3ede65fbe45","ios":"levelo://app?vid=968f210a-55fc-4510-bcd2-d3ede65fbe45"},"vehicle_type_id":"4","last_reported":1770553594,"current_range_meters":6800,"station_id":"ce4bhs12rcd13ifvqhvg","pricing_plan_id":"cebpf4jnsgd1na2vs0mg"},{"bike_id":"6b9ad2f0-0d88-40ff-a88f-7ddf87de7fb0","system_id":"levelo_inurba_marseille","lat":43.29892,"lon":5.43671,"is_reserved":false,"is_disabled":false,"rental_uris":{"android":"levelo://app?vid=6b9ad2f0-0d88-40ff-a88f-7ddf87de7fb0","ios":"levelo://app?vid=6b9ad2f0-0d88-40ff-a88f-7ddf87de7fb0"},"vehicle_type_id":"4","last_reported":1770553594,"current_range_meters":7200,"station_id":"ce4bhpp2rcd13ifvqhfg","pricing_plan_id":"cebpf4jnsgd1na2vs0mg"},{"bike_id":"13ce2358-2d78-4000-bbd2-230bee171af5","system_id":"levelo_inurba_marseille","lat":43.2863,"lon":5.39893,"is_reserved":false,"is_disabled":false,"rental_uris":{"android":"levelo://app?vid=13ce2358-2d78-4000-bbd2-230bee171af5","ios":"levelo://app?vid=13ce2358-2d78-4000-bbd2-230bee171af5"},"vehicle_type_id":"4","last_reported":1770553594,"current_range_meters":7200,"station_id":"st_d4a7ka997mjs738ck50g","pricing_plan_id":"cebpf4jnsgd1na2vs0mg"},{"bike_id":"fc7e4b88-1656-4ea3-ac70-db935a568e8d","system_id":"levelo_inurba_marseille","lat":43.33181,"lon":5.3771,"is_reserved":false,"is_disabled":false,"rental_uris":{"android":"levelo://app?vid=fc7e4b88-1656-4ea3-ac70-db935a568e8d","ios":"levelo://app?vid=fc7e4b88-1656-4ea3-ac70-db935a568e8d"},"vehicle_type_id":"4","last_reported":1770553594,"current_range_meters":7200,"station_id":"st_d46cu089ee8s73dldbu0","pricing_plan_id":"cebpf4jnsgd1na2vs0mg"},{"bike_id":"ec530521-2795-4ff9-af45-352d2124398c","system_id":"levelo_inurba_marseille","lat":43.313663,"lon":5.367084,"is_reserved":false,"is_disabled":true,"rental_uris":{"android":"levelo://app?vid=ec530521-2795-4ff9-af45-352d2124398c","ios":"levelo://app?vid=ec530521-2795-4ff9-af45-352d2124398c"},"vehicle_type_id":"4","last_reported":1770553594,"current_range_meters":7200,"station_id":"ce4bgr92rcd13ifvqc6g","pricing_plan_id":"cebpf4jnsgd1na2vs0mg"},{"bike_id":"b0e7feeb-1416-4406-b174-1e7f94d3553f","system_id":"levelo_inurba_marseille","lat":43.33542,"lon":5.37462,"is_reserved":false,"is_disabled":false,"rental_uris":{"android":"levelo://app?vid=b0e7feeb-1416-4406-b174-1e7f94d3553f","ios":"levelo://app?vid=b0e7feeb-1416-4406-b174-1e7f94d3553f"},"vehicle_type_id":"4","last_reported":1770553594,"current_range_meters":7200,"station_id":"","pricing_plan_id":"cebpf4jnsgd1na2vs0mg"},{"bike_id":"c7d4ca8f-b8f1-4b7b-9e36-e7d2725afa41","system_id":"levelo_inurba_marseille","lat":43.27982,"lon":5.38756,"is_reserved":false,"is_disabled":false,"rental_uris":{"android":"levelo://app?vid=c7d4ca8f-b8f1-4b7b-9e36-e7d2725afa41","ios":"levelo://app?vid=c7d4ca8f-b8f1-4b7b-9e36-e7d2725afa41"},"vehicle_type_id":"4","last_reported":1770553594,"current_range_meters":7200,"station_id":"ce4bhg12rcd13ifvqf80","pricing_plan_id":"cebpf4jnsgd1na2vs0mg"},{"bike_id":"a93a3f3a-fc89-4e32-a1fb-c7685626cbdd","system_id":"levelo_inurba_marseille","lat":43.311571,"lon":5.385727,"is_reserved":false,"is_disabled":false,"rental_uris":{"android":"levelo://app?vid=a93a3f3a-fc89-4e32-a1fb-c7685626cbdd","ios":"levelo://app?vid=a93a3f3a-fc89-4e32-a1fb-c7685626cbdd"},"vehicle_type_id":"4","last_reported":1770553594,"current_range_meters":7200,"station_id":"","pricing_plan_id":"cebpf4jnsgd1na2vs0mg"},{"bike_id":"31e52e49-2b8e-4bc3-9815-4a71a716ef19","system_id":"levelo_inurba_marseille","lat":43.2948,"lon":5.37596,"is_reserved":false,"is_disabled":false,"rental_uris":{"android":"levelo://app?vid=31e52e49-2b8e-4bc3-9815-4a71a716ef19","ios":"levelo://app?vid=31e52e49-2b8e-4bc3-9815-4a71a716ef19"},"vehicle_type_id":"4","last_reported":1770553594,"current_range_meters":7200,"station_id":"ce4bgi12rcd13ifvqb80","pricing_plan_id":"cebpf4jnsgd1na2vs0mg"},{"bike_id":"16f03897-0ac4-49b8-b747-1294b135603f","system_id":"levelo_inurba_marseille","lat":43.31885,"lon":5.40729,"is_reserved":false,"is_disabled":false,"rental_uris":{"android":"levelo://app?vid=16f03897-0ac4-49b8-b747-1294b135603f","ios":"levelo://app?vid=16f03897-0ac4-49b8-b747-1294b135603f"},"vehicle_type_id":"4","last_reported":1770553594,"current_range_meters":7200,"station_id":"ce4bhq12rcd13ifvqhig","pricing_plan_id":"cebpf4jnsgd1na2vs0mg"},{"bike_id":"9c7b49e3-2672-465f-9113-79b2777ffeb5","system_id":"levelo_inurba_marseille","lat":43.25096,"lon":5.39538,"is_reserved":false,"is_disabled":false,"rental_uris":{"android":"levelo://app?vid=9c7b49e3-2672-465f-9113-79b2777ffeb5","ios":"levelo://app?vid=9c7b49e3-2672-465f-9113-79b2777ffeb5"},"vehicle_type_id":"4","last_reported":1770553594,"current_range_meters":7200,"station_id":"ce4bhm12rcd13ifvqgkg","pricing_plan_id":"cebpf4jnsgd1na2vs0mg"},{"bike_id":"f957ccc7-2bd4-4806-8d87-912204afeaf8","system_id":"levelo_inurba_marseille","lat":43.27925,"lon":5.38251,"is_reserved":false,"is_disabled":false,"rental_uris":{"android":"levelo://app?vid=f957ccc7-2bd4-4806-8d87-912204afeaf8","ios":"levelo://app?vid=f957ccc7-2bd4-4806-8d87-912204afeaf8"},"vehicle_type_id":"4","last_reported":1770553594,"current_range_meters":7200,"station_id":"","pricing_plan_id":"cebpf4jnsgd1na2vs0mg"},{"bike_id":"66f61838-99ce-449f-9957-4eada4297346","system_id":"levelo_inurba_marseille","lat":43.28349,"lon":5.38089,"is_reserved":false,"is_disabled":true,"rental_uris":{"android":"levelo://app?vid=66f61838-99ce-449f-9957-4eada4297346","ios":"levelo://app?vid=66f61838-99ce-449f-9957-4eada4297346"},"vehicle_type_id":"4","last_reported":1770553594,"current_range_meters":7200,"station_id":"ce4bh412rcd13ifvqdr0","pricing_plan_id":"cebpf4jnsgd1na2vs0mg"},{"bike_id":"0225a449-4249-4004-84d1-5a647c90cc93","system_id":"levelo_inurba_marseille","lat":43.33609,"lon":5.41013,"is_reserved":false,"is_disabled":false,"rental_uris":{"android":"levelo://app?vid=0225a449-4249-4004-84d1-5a647c90cc93","ios":"levelo://app?vid=0225a449-4249-4004-84d1-5a647c90cc93"},"vehicle_type_id":"4","last_reported":1770553594,"current_range_meters":7200,"station_id":"ce4bhqh2rcd13ifvqhmg","pricing_plan_id":"cebpf4jnsgd1na2vs0mg"},{"bike_id":"bee1ac9f-3497-4ef5-9cd6-161f32c45edf","system_id":"levelo_inurba_marseille","lat":43.28501,"lon":5.38455,"is_reserved":false,"is_disabled":false,"rental_uris":{"android":"levelo://app?vid=bee1ac9f-3497-4ef5-9cd6-161f32c45edf","ios":"levelo://app?vid=bee1ac9f-3497-4ef5-9cd6-161f32c45edf"},"vehicle_type_id":"4","last_reported":1770553594,"current_range_meters":7200,"station_id":"ce4bh512rcd13ifvqe3g","pricing_plan_id":"cebpf4jnsgd1na2vs0mg"},{"bike_id":"3748cc8f-9de7-4c71-8615-5f25be89c94e","system_id":"levelo_inurba_marseille","lat":43.30322,"lon":5.36905,"is_reserved":false,"is_disabled":false,"rental_uris":{"android":"levelo://app?vid=3748cc8f-9de7-4c71-8615-5f25be89c94e","ios":"levelo://app?vid=3748cc8f-9de7-4c71-8615-5f25be89c94e"},"vehicle_type_id":"4","last_reported":1770553594,"current_range_meters":7200,"station_id":"ce4bgqh2rcd13ifvqc5g","pricing_plan_id":"cebpf4jnsgd1na2vs0mg"},{"bike_id":"a03713b9-bb1f-4cd8-9a75-37ef2a7948ba","system_id":"levelo_inurba_marseille","lat":43.26227,"lon":5.37909,"is_reserved":false,"is_disabled":false,"rental_uris":{"android":"levelo://app?vid=a03713b9-bb1f-4cd8-9a75-37ef2a7948ba","ios":"levelo://app?vid=a03713b9-bb1f-4cd8-9a75-37ef2a7948ba"},"vehicle_type_id":"4","last_reported":1770553594,"current_range_meters":7200,"station_id":"ce4bhjp2rcd13ifvqg90","pricing_plan_id":"cebpf4jnsgd1na2vs0mg"},{"bike_id":"7e432d56-4167-484a-a6d0-1b8a4f18fe1c","system_id":"levelo_inurba_marseille","lat":43.22955,"lon":5.35385,"is_reserved":false,"is_disabled":false,"rental_uris":{"android":"levelo://app?vid=7e432d56-4167-484a-a6d0-1b8a4f18fe1c","ios":"levelo://app?vid=7e432d56-4167-484a-a6d0-1b8a4f18fe1c"},"vehicle_type_id":"4","last_reported":1770553594,"current_range_meters":7200,"station_id":"cpo3532slgdg3j2ikp40","pricing_plan_id":"cebpf4jnsgd1na2vs0mg"},{"bike_id":"fbd8c4f9-3856-46a2-b291-e190e6907420","system_id":"levelo_inurba_marseille","lat":43.25003,"lon":5.38928,"is_reserved":false,"is_disabled":false,"rental_uris":{"android":"levelo://app?vid=fbd8c4f9-3856-46a2-b291-e190e6907420","ios":"levelo://app?vid=fbd8c4f9-3856-46a2-b291-e190e6907420"},"vehicle_type_id":"4","last_reported":1770553594,"current_range_meters":7200,"station_id":"ce4bhgp2rcd13ifvqfd0","pricing_plan_id":"cebpf4jnsgd1na2vs0mg"},{"bike_id":"1a1d969f-bada-4aaa-a461-ec3f4a01601c","system_id":"levelo_inurba_marseille","lat":43.33548,"lon":5.3747,"is_reserved":false,"is_disabled":false,"rental_uris":{"android":"levelo://app?vid=1a1d969f-bada-4aaa-a461-ec3f4a01601c","ios":"levelo://app?vid=1a1d969f-bada-4aaa-a461-ec3f4a01601c"},"vehicle_type_id":"4","last_reported":1770553594,"current_range_meters":7200,"station_id":"st_d46tts09ee8s73dlu43g","pricing_plan_id":"cebpf4jnsgd1na2vs0mg"},{"bike_id":"28ea6fbe-b592-43e0-b4f1-22356d5bc8f9","system_id":"levelo_inurba_marseille","lat":43.33542,"lon":5.37467,"is_reserved":false,"is_disabled":false,"rental_uris":{"android":"levelo://app?vid=28ea6fbe-b592-43e0-b4f1-22356d5bc8f9","ios":"levelo://app?vid=28ea6fbe-b592-43e0-b4f1-22356d5bc8f9"},"vehicle_type_id":"4","last_reported":1770553594,"current_range_meters":7200,"station_id":"st_d46tts09ee8s73dlu43g","pricing_plan_id":"cebpf4jnsgd1na2vs0mg"},{"bike_id":"182ca189-5318-472d-8e0d-b3bf43684c37","system_id":"levelo_inurba_marseille","lat":43.317253,"lon":5.423922,"is_reserved":false,"is_disabled":false,"rental_uris":{"android":"levelo://app?vid=182ca189-5318-472d-8e0d-b3bf43684c37","ios":"levelo://app?vid=182ca189-5318-472d-8e0d-b3bf43684c37"},"vehicle_type_id":"4","last_reported":1770553594,"current_range_meters":7200,"station_id":"ce4bhp92rcd13ifvqhbg","pricing_plan_id":"cebpf4jnsgd1na2vs0mg"},{"bike_id":"7a2c796a-2c27-403d-a799-411424496833","system_id":"levelo_inurba_marseille","lat":43.26578,"lon":5.40298,"is_reserved":false,"is_disabled":false,"rental_uris":{"android":"levelo://app?vid=7a2c796a-2c27-403d-a799-411424496833","ios":"levelo://app?vid=7a2c796a-2c27-403d-a799-411424496833"},"vehicle_type_id":"4","last_reported":1770553594,"current_range_meters":8000,"station_id":"ce4bhmp2rcd13ifvqgng","pricing_plan_id":"cebpf4jnsgd1na2vs0mg"},{"bike_id":"bc75ac16-8bb6-421e-94c2-94272fb557fb","system_id":"levelo_inurba_marseille","lat":43.30173,"lon":5.38087,"is_reserved":false,"is_disabled":false,"rental_uris":{"android":"levelo://app?vid=bc75ac16-8bb6-421e-94c2-94272fb557fb","ios":"levelo://app?vid=bc75ac16-8bb6-421e-94c2-94272fb557fb"},"vehicle_type_id":"4","last_reported":1770553594,"current_range_meters":8000,"station_id":"ce4bgjp2rcd13ifvqbh0","pricing_plan_id":"cebpf4jnsgd1na2vs0mg"},{"bike_id":"76921968-741d-4270-88e0-a01f3724f854","system_id":"levelo_inurba_marseille","lat":43.28694,"lon":5.38707,"is_reserved":false,"is_disabled":false,"rental_uris":{"android":"levelo://app?vid=76921968-741d-4270-88e0-a01f3724f854","ios":"levelo://app?vid=76921968-741d-4270-88e0-a01f3724f854"},"vehicle_type_id":"4","last_reported":1770553594,"current_range_meters":8000,"station_id":"ce4bh492rcd13ifvqdug","pricing_plan_id":"cebpf4jnsgd1na2vs0mg"},{"bike_id":"c1c15dd8-d5f4-419a-b7d9-76b9cd0f2968","system_id":"levelo_inurba_marseille","lat":43.28278,"lon":5.35084,"is_reserved":false,"is_disabled":false,"rental_uris":{"android":"levelo://app?vid=c1c15dd8-d5f4-419a-b7d9-76b9cd0f2968","ios":"levelo://app?vid=c1c15dd8-d5f4-419a-b7d9-76b9cd0f2968"},"vehicle_type_id":"4","last_reported":1770553594,"current_range_meters":8000,"station_id":"ce4bhbp2rcd13ifvqerg","pricing_plan_id":"cebpf4jnsgd1na2vs0mg"},{"bike_id":"2ec8dfc1-6364-4f8d-b3dd-d63bc7efaa91","system_id":"levelo_inurba_marseille","lat":43.32109,"lon":5.36766,"is_reserved":false,"is_disabled":false,"rental_uris":{"android":"levelo://app?vid=2ec8dfc1-6364-4f8d-b3dd-d63bc7efaa91","ios":"levelo://app?vid=2ec8dfc1-6364-4f8d-b3dd-d63bc7efaa91"},"vehicle_type_id":"4","last_reported":1770553594,"current_range_meters":8000,"station_id":"ce4bhrh2rcd13ifvqhug","pricing_plan_id":"cebpf4jnsgd1na2vs0mg"},{"bike_id":"40106db3-21d3-46c7-a226-276d5c0a6ebe","system_id":"levelo_inurba_marseille","lat":43.29037,"lon":5.38102,"is_reserved":false,"is_disabled":false,"rental_uris":{"android":"levelo://app?vid=40106db3-21d3-46c7-a226-276d5c0a6ebe","ios":"levelo://app?vid=40106db3-21d3-46c7-a226-276d5c0a6ebe"},"vehicle_type_id":"4","last_reported":1770553594,"current_range_meters":8000,"station_id":"ce4bh4p2rcd13ifvqe1g","pricing_plan_id":"cebpf4jnsgd1na2vs0mg"},{"bike_id":"cf7abb30-91b4-4fa2-abfb-7d7173b59b2c","system_id":"levelo_inurba_marseille","lat":43.25332,"lon":5.42147,"is_reserved":false,"is_disabled":false,"rental_uris":{"android":"levelo://app?vid=cf7abb30-91b4-4fa2-abfb-7d7173b59b2c","ios":"levelo://app?vid=cf7abb30-91b4-4fa2-abfb-7d7173b59b2c"},"vehicle_type_id":"4","last_reported":1770553594,"current_range_meters":8000,"station_id":"st_d2m65c5bi1j21697t3ng","pricing_plan_id":"cebpf4jnsgd1na2vs0mg"},{"bike_id":"5f9bd2ca-91e3-4fbe-a1bb-af05a97d2ea2","system_id":"levelo_inurba_marseille","lat":43.31461,"lon":5.45381,"is_reserved":false,"is_disabled":false,"rental_uris":{"android":"levelo://app?vid=5f9bd2ca-91e3-4fbe-a1bb-af05a97d2ea2","ios":"levelo://app?vid=5f9bd2ca-91e3-4fbe-a1bb-af05a97d2ea2"},"vehicle_type_id":"4","last_reported":1770553594,"current_range_meters":8000,"station_id":"","pricing_plan_id":"cebpf4jnsgd1na2vs0mg"},{"bike_id":"4414a71f-328e-433c-ae9b-b1fe012b70ff","system_id":"levelo_inurba_marseille","lat":43.30297,"lon":5.37722,"is_reserved":false,"is_disabled":false,"rental_uris":{"android":"levelo://app?vid=4414a71f-328e-433c-ae9b-b1fe012b70ff","ios":"levelo://app?vid=4414a71f-328e-433c-ae9b-b1fe012b70ff"},"vehicle_type_id":"4","last_reported":1770553594,"current_range_meters":8000,"station_id":"ce4bguh2rcd13ifvqcj0","pricing_plan_id":"cebpf4jnsgd1na2vs0mg"},{"bike_id":"cfb9f90a-8bba-4df6-b769-b6924ddbf8e2","system_id":"levelo_inurba_marseille","lat":43.26202,"lon":5.379264,"is_reserved":false,"is_disabled":false,"rental_uris":{"android":"levelo://app?vid=cfb9f90a-8bba-4df6-b769-b6924ddbf8e2","ios":"levelo://app?vid=cfb9f90a-8bba-4df6-b769-b6924ddbf8e2"},"vehicle_type_id":"4","last_reported":1770553594,"current_range_meters":8000,"station_id":"ce4bhjp2rcd13ifvqg90","pricing_plan_id":"cebpf4jnsgd1na2vs0mg"},{"bike_id":"dd24189e-0ca5-42b2-a25c-59b99b80cd71","system_id":"levelo_inurba_marseille","lat":43.24805,"lon":5.37429,"is_reserved":false,"is_disabled":false,"rental_uris":{"android":"levelo://app?vid=dd24189e-0ca5-42b2-a25c-59b99b80cd71","ios":"levelo://app?vid=dd24189e-0ca5-42b2-a25c-59b99b80cd71"},"vehicle_type_id":"4","last_reported":1770553594,"current_range_meters":8000,"station_id":"ce4bhgh2rcd13ifvqfb0","pricing_plan_id":"cebpf4jnsgd1na2vs0mg"},{"bike_id":"0a0ad101-734f-476a-a817-88bc4ca6e49c","system_id":"levelo_inurba_marseille","lat":43.307991,"lon":5.381521,"is_reserved":false,"is_disabled":false,"rental_uris":{"android":"levelo://app?vid=0a0ad101-734f-476a-a817-88bc4ca6e49c","ios":"levelo://app?vid=0a0ad101-734f-476a-a817-88bc4ca6e49c"},"vehicle_type_id":"4","last_reported":1770553594,"current_range_meters":8400,"station_id":"ce4bgt12rcd13ifvqce0","pricing_plan_id":"cebpf4jnsgd1na2vs0mg"},{"bike_id":"0b84e61d-62ba-4706-80f1-3a72823c8089","system_id":"levelo_inurba_marseille","lat":43.25919,"lon":5.40885,"is_reserved":false,"is_disabled":false,"rental_uris":{"android":"levelo://app?vid=0b84e61d-62ba-4706-80f1-3a72823c8089","ios":"levelo://app?vid=0b84e61d-62ba-4706-80f1-3a72823c8089"},"vehicle_type_id":"4","last_reported":1770553594,"current_range_meters":8400,"station_id":"ce4bhm92rcd13ifvqglg","pricing_plan_id":"cebpf4jnsgd1na2vs0mg"},{"bike_id":"867458d9-c09f-4165-b1af-e2013b3a197e","system_id":"levelo_inurba_marseille","lat":43.246426,"lon":5.388907,"is_reserved":false,"is_disabled":false,"rental_uris":{"android":"levelo://app?vid=867458d9-c09f-4165-b1af-e2013b3a197e","ios":"levelo://app?vid=867458d9-c09f-4165-b1af-e2013b3a197e"},"vehicle_type_id":"4","last_reported":1770553594,"current_range_meters":8400,"station_id":"ce4bhg12rcd13ifvqf60","pricing_plan_id":"cebpf4jnsgd1na2vs0mg"},{"bike_id":"92f96dc6-fb36-497e-b003-4cf97cad9044","system_id":"levelo_inurba_marseille","lat":43.32345,"lon":5.38511,"is_reserved":false,"is_disabled":false,"rental_uris":{"android":"levelo://app?vid=92f96dc6-fb36-497e-b003-4cf97cad9044","ios":"levelo://app?vid=92f96dc6-fb36-497e-b003-4cf97cad9044"},"vehicle_type_id":"4","last_reported":1770553594,"current_range_meters":8400,"station_id":"st_d45171o9ee8s73djdqug","pricing_plan_id":"cebpf4jnsgd1na2vs0mg"},{"bike_id":"150fa605-1342-42d0-b038-c87938e3cafd","system_id":"levelo_inurba_marseille","lat":43.26211,"lon":5.379282,"is_reserved":false,"is_disabled":false,"rental_uris":{"android":"levelo://app?vid=150fa605-1342-42d0-b038-c87938e3cafd","ios":"levelo://app?vid=150fa605-1342-42d0-b038-c87938e3cafd"},"vehicle_type_id":"4","last_reported":1770553594,"current_range_meters":8400,"station_id":"ce4bhjp2rcd13ifvqg90","pricing_plan_id":"cebpf4jnsgd1na2vs0mg"},{"bike_id":"4b9bbde0-30cc-4c3d-973e-6947c0246c0b","system_id":"levelo_inurba_marseille","lat":43.26565,"lon":5.37311,"is_reserved":false,"is_disabled":false,"rental_uris":{"android":"levelo://app?vid=4b9bbde0-30cc-4c3d-973e-6947c0246c0b","ios":"levelo://app?vid=4b9bbde0-30cc-4c3d-973e-6947c0246c0b"},"vehicle_type_id":"4","last_reported":1770553594,"current_range_meters":8400,"station_id":"ce4bhg12rcd13ifvqf70","pricing_plan_id":"cebpf4jnsgd1na2vs0mg"},{"bike_id":"f8354ddb-017a-4bf2-8668-a39598178e17","system_id":"levelo_inurba_marseille","lat":43.30739,"lon":5.42447,"is_reserved":false,"is_disabled":false,"rental_uris":{"android":"levelo://app?vid=f8354ddb-017a-4bf2-8668-a39598178e17","ios":"levelo://app?vid=f8354ddb-017a-4bf2-8668-a39598178e17"},"vehicle_type_id":"4","last_reported":1770553594,"current_range_meters":8400,"station_id":"st_cvj6ca6bvosntc0bfgr0","pricing_plan_id":"cebpf4jnsgd1na2vs0mg"},{"bike_id":"a5fe7b14-3ced-4d6c-aab3-f34baaf11509","system_id":"levelo_inurba_marseille","lat":43.29894,"lon":5.38891,"is_reserved":false,"is_disabled":true,"rental_uris":{"android":"levelo://app?vid=a5fe7b14-3ced-4d6c-aab3-f34baaf11509","ios":"levelo://app?vid=a5fe7b14-3ced-4d6c-aab3-f34baaf11509"},"vehicle_type_id":"4","last_reported":1770553594,"current_range_meters":8400,"station_id":"ce4bh392rcd13ifvqdl0","pricing_plan_id":"cebpf4jnsgd1na2vs0mg"},{"bike_id":"d71fd997-724b-4700-8f71-84b37168fbd9","system_id":"levelo_inurba_marseille","lat":43.25721,"lon":5.41112,"is_reserved":false,"is_disabled":false,"rental_uris":{"android":"levelo://app?vid=d71fd997-724b-4700-8f71-84b37168fbd9","ios":"levelo://app?vid=d71fd997-724b-4700-8f71-84b37168fbd9"},"vehicle_type_id":"4","last_reported":1770553594,"current_range_meters":8400,"station_id":"ce4bhkp2rcd13ifvqgd0","pricing_plan_id":"cebpf4jnsgd1na2vs0mg"},{"bike_id":"98e61b74-3ca5-466f-b460-5e4ff3753470","system_id":"levelo_inurba_marseille","lat":43.28855,"lon":5.358405,"is_reserved":false,"is_disabled":false,"rental_uris":{"android":"levelo://app?vid=98e61b74-3ca5-466f-b460-5e4ff3753470","ios":"levelo://app?vid=98e61b74-3ca5-466f-b460-5e4ff3753470"},"vehicle_type_id":"4","last_reported":1770553594,"current_range_meters":8400,"station_id":"ce4bhb12rcd13ifvqem0","pricing_plan_id":"cebpf4jnsgd1na2vs0mg"},{"bike_id":"155a788c-3210-4e6a-b211-01617931334a","system_id":"levelo_inurba_marseille","lat":43.337444,"lon":5.374475,"is_reserved":false,"is_disabled":false,"rental_uris":{"android":"levelo://app?vid=155a788c-3210-4e6a-b211-01617931334a","ios":"levelo://app?vid=155a788c-3210-4e6a-b211-01617931334a"},"vehicle_type_id":"4","last_reported":1770553594,"current_range_meters":8400,"station_id":"","pricing_plan_id":"cebpf4jnsgd1na2vs0mg"},{"bike_id":"f19525fa-23d1-4165-b649-24302d368a38","system_id":"levelo_inurba_marseille","lat":43.28895,"lon":5.38237,"is_reserved":false,"is_disabled":false,"rental_uris":{"android":"levelo://app?vid=f19525fa-23d1-4165-b649-24302d368a38","ios":"levelo://app?vid=f19525fa-23d1-4165-b649-24302d368a38"},"vehicle_type_id":"4","last_reported":1770553594,"current_range_meters":8400,"station_id":"","pricing_plan_id":"cebpf4jnsgd1na2vs0mg"},{"bike_id":"131c8bc6-588e-4f5d-851b-303b7978f745","system_id":"levelo_inurba_marseille","lat":43.25939,"lon":5.40901,"is_reserved":false,"is_disabled":false,"rental_uris":{"android":"levelo://app?vid=131c8bc6-588e-4f5d-851b-303b7978f745","ios":"levelo://app?vid=131c8bc6-588e-4f5d-851b-303b7978f745"},"vehicle_type_id":"4","last_reported":1770553594,"current_range_meters":8400,"station_id":"ce4bhm92rcd13ifvqglg","pricing_plan_id":"cebpf4jnsgd1na2vs0mg"},{"bike_id":"16ac9c64-e365-4645-8b05-04ee2f4337e9","system_id":"levelo_inurba_marseille","lat":43.23954,"lon":5.36652,"is_reserved":false,"is_disabled":false,"rental_uris":{"android":"levelo://app?vid=16ac9c64-e365-4645-8b05-04ee2f4337e9","ios":"levelo://app?vid=16ac9c64-e365-4645-8b05-04ee2f4337e9"},"vehicle_type_id":"4","last_reported":1770553594,"current_range_meters":8400,"station_id":"ce4bhi12rcd13ifvqfp0","pricing_plan_id":"cebpf4jnsgd1na2vs0mg"},{"bike_id":"edc9c679-e0d1-4084-a3db-3f6b1a28aa12","system_id":"levelo_inurba_marseille","lat":43.285241,"lon":5.44094,"is_reserved":false,"is_disabled":false,"rental_uris":{"android":"levelo://app?vid=edc9c679-e0d1-4084-a3db-3f6b1a28aa12","ios":"levelo://app?vid=edc9c679-e0d1-4084-a3db-3f6b1a28aa12"},"vehicle_type_id":"4","last_reported":1770553594,"current_range_meters":8400,"station_id":"st_d3j3df2ikq2c7380ej80","pricing_plan_id":"cebpf4jnsgd1na2vs0mg"},{"bike_id":"364ea28f-7e20-4ad8-9bf1-69b2e8dad65e","system_id":"levelo_inurba_marseille","lat":43.28621,"lon":5.4433,"is_reserved":false,"is_disabled":false,"rental_uris":{"android":"levelo://app?vid=364ea28f-7e20-4ad8-9bf1-69b2e8dad65e","ios":"levelo://app?vid=364ea28f-7e20-4ad8-9bf1-69b2e8dad65e"},"vehicle_type_id":"4","last_reported":1770553594,"current_range_meters":8400,"station_id":"","pricing_plan_id":"cebpf4jnsgd1na2vs0mg"},{"bike_id":"71e48960-d629-4480-9c55-f9402a802000","system_id":"levelo_inurba_marseille","lat":43.28678,"lon":5.38663,"is_reserved":false,"is_disabled":false,"rental_uris":{"android":"levelo://app?vid=71e48960-d629-4480-9c55-f9402a802000","ios":"levelo://app?vid=71e48960-d629-4480-9c55-f9402a802000"},"vehicle_type_id":"4","last_reported":1770553594,"current_range_meters":8400,"station_id":"ce4bh492rcd13ifvqdug","pricing_plan_id":"cebpf4jnsgd1na2vs0mg"},{"bike_id":"779ab762-12c7-4e4f-a5f9-1cd4487c21c9","system_id":"levelo_inurba_marseille","lat":43.32088,"lon":5.36762,"is_reserved":false,"is_disabled":false,"rental_uris":{"android":"levelo://app?vid=779ab762-12c7-4e4f-a5f9-1cd4487c21c9","ios":"levelo://app?vid=779ab762-12c7-4e4f-a5f9-1cd4487c21c9"},"vehicle_type_id":"4","last_reported":1770553594,"current_range_meters":8800,"station_id":"ce4bhrh2rcd13ifvqhug","pricing_plan_id":"cebpf4jnsgd1na2vs0mg"},{"bike_id":"947e6bde-76bb-4a1b-a45f-3d4e18b32da9","system_id":"levelo_inurba_marseille","lat":43.27691,"lon":5.38876,"is_reserved":false,"is_disabled":false,"rental_uris":{"android":"levelo://app?vid=947e6bde-76bb-4a1b-a45f-3d4e18b32da9","ios":"levelo://app?vid=947e6bde-76bb-4a1b-a45f-3d4e18b32da9"},"vehicle_type_id":"4","last_reported":1770553594,"current_range_meters":8800,"station_id":"ce4bhi12rcd13ifvqfo0","pricing_plan_id":"cebpf4jnsgd1na2vs0mg"},{"bike_id":"ad20c1d2-258b-4db8-b56a-9ab6132ecf48","system_id":"levelo_inurba_marseille","lat":43.24474,"lon":5.4254,"is_reserved":false,"is_disabled":false,"rental_uris":{"android":"levelo://app?vid=ad20c1d2-258b-4db8-b56a-9ab6132ecf48","ios":"levelo://app?vid=ad20c1d2-258b-4db8-b56a-9ab6132ecf48"},"vehicle_type_id":"4","last_reported":1770553594,"current_range_meters":8800,"station_id":"st_d4a3vfp97mjs738cd8kg","pricing_plan_id":"cebpf4jnsgd1na2vs0mg"},{"bike_id":"cc837a8c-1989-4283-89cf-0ff96c2621a1","system_id":"levelo_inurba_marseille","lat":43.30178,"lon":5.38084,"is_reserved":false,"is_disabled":false,"rental_uris":{"android":"levelo://app?vid=cc837a8c-1989-4283-89cf-0ff96c2621a1","ios":"levelo://app?vid=cc837a8c-1989-4283-89cf-0ff96c2621a1"},"vehicle_type_id":"4","last_reported":1770553594,"current_range_meters":8800,"station_id":"ce4bgjp2rcd13ifvqbh0","pricing_plan_id":"cebpf4jnsgd1na2vs0mg"},{"bike_id":"043ad4af-ef67-47b5-8a56-8e398eb4da8e","system_id":"levelo_inurba_marseille","lat":43.29812,"lon":5.38052,"is_reserved":false,"is_disabled":true,"rental_uris":{"android":"levelo://app?vid=043ad4af-ef67-47b5-8a56-8e398eb4da8e","ios":"levelo://app?vid=043ad4af-ef67-47b5-8a56-8e398eb4da8e"},"vehicle_type_id":"4","last_reported":1770553594,"current_range_meters":8800,"station_id":"ce4bgip2rcd13ifvqbb0","pricing_plan_id":"cebpf4jnsgd1na2vs0mg"},{"bike_id":"5458caae-ec74-44ec-a439-08a969898ef7","system_id":"levelo_inurba_marseille","lat":43.23214,"lon":5.43776,"is_reserved":false,"is_disabled":false,"rental_uris":{"android":"levelo://app?vid=5458caae-ec74-44ec-a439-08a969898ef7","ios":"levelo://app?vid=5458caae-ec74-44ec-a439-08a969898ef7"},"vehicle_type_id":"4","last_reported":1770553594,"current_range_meters":8800,"station_id":"ce4bhmp2rcd13ifvqgog","pricing_plan_id":"cebpf4jnsgd1na2vs0mg"},{"bike_id":"18193969-f4a0-4413-8fe1-fadaf0e35a4a","system_id":"levelo_inurba_marseille","lat":43.33533,"lon":5.37441,"is_reserved":false,"is_disabled":false,"rental_uris":{"android":"levelo://app?vid=18193969-f4a0-4413-8fe1-fadaf0e35a4a","ios":"levelo://app?vid=18193969-f4a0-4413-8fe1-fadaf0e35a4a"},"vehicle_type_id":"4","last_reported":1770553594,"current_range_meters":8800,"station_id":"st_d46tts09ee8s73dlu43g","pricing_plan_id":"cebpf4jnsgd1na2vs0mg"},{"bike_id":"0c2c272e-d223-43a8-9f2f-3e8aef87ad89","system_id":"levelo_inurba_marseille","lat":43.275629,"lon":5.384192,"is_reserved":false,"is_disabled":false,"rental_uris":{"android":"levelo://app?vid=0c2c272e-d223-43a8-9f2f-3e8aef87ad89","ios":"levelo://app?vid=0c2c272e-d223-43a8-9f2f-3e8aef87ad89"},"vehicle_type_id":"4","last_reported":1770553594,"current_range_meters":8800,"station_id":"ce4bh0h2rcd13ifvqd60","pricing_plan_id":"cebpf4jnsgd1na2vs0mg"},{"bike_id":"347347fb-43cf-4034-a598-0f76fe077d02","system_id":"levelo_inurba_marseille","lat":43.313503,"lon":5.367175,"is_reserved":false,"is_disabled":false,"rental_uris":{"android":"levelo://app?vid=347347fb-43cf-4034-a598-0f76fe077d02","ios":"levelo://app?vid=347347fb-43cf-4034-a598-0f76fe077d02"},"vehicle_type_id":"4","last_reported":1770553594,"current_range_meters":8800,"station_id":"","pricing_plan_id":"cebpf4jnsgd1na2vs0mg"},{"bike_id":"9cae2485-0afe-41f4-82ed-b4c440c27f3e","system_id":"levelo_inurba_marseille","lat":43.28571,"lon":5.39491,"is_reserved":false,"is_disabled":true,"rental_uris":{"android":"levelo://app?vid=9cae2485-0afe-41f4-82ed-b4c440c27f3e","ios":"levelo://app?vid=9cae2485-0afe-41f4-82ed-b4c440c27f3e"},"vehicle_type_id":"4","last_reported":1770553594,"current_range_meters":8800,"station_id":"ce4bh292rcd13ifvqdg0","pricing_plan_id":"cebpf4jnsgd1na2vs0mg"},{"bike_id":"d8ba07be-4909-4867-9013-61baab37ba2e","system_id":"levelo_inurba_marseille","lat":43.22563,"lon":5.41635,"is_reserved":false,"is_disabled":false,"rental_uris":{"android":"levelo://app?vid=d8ba07be-4909-4867-9013-61baab37ba2e","ios":"levelo://app?vid=d8ba07be-4909-4867-9013-61baab37ba2e"},"vehicle_type_id":"4","last_reported":1770553594,"current_range_meters":8800,"station_id":"st_d2o4gvlbi1j2169b742g","pricing_plan_id":"cebpf4jnsgd1na2vs0mg"},{"bike_id":"1ea60dc0-7a32-4323-9458-3ce0044e2a51","system_id":"levelo_inurba_marseille","lat":43.3354,"lon":5.37464,"is_reserved":false,"is_disabled":false,"rental_uris":{"android":"levelo://app?vid=1ea60dc0-7a32-4323-9458-3ce0044e2a51","ios":"levelo://app?vid=1ea60dc0-7a32-4323-9458-3ce0044e2a51"},"vehicle_type_id":"4","last_reported":1770553594,"current_range_meters":8800,"station_id":"st_d46tts09ee8s73dlu43g","pricing_plan_id":"cebpf4jnsgd1na2vs0mg"},{"bike_id":"d96fa321-cc43-4d28-a99e-b49794bf7b3a","system_id":"levelo_inurba_marseille","lat":43.25953,"lon":5.40909,"is_reserved":false,"is_disabled":false,"rental_uris":{"android":"levelo://app?vid=d96fa321-cc43-4d28-a99e-b49794bf7b3a","ios":"levelo://app?vid=d96fa321-cc43-4d28-a99e-b49794bf7b3a"},"vehicle_type_id":"4","last_reported":1770553594,"current_range_meters":8800,"station_id":"ce4bhm92rcd13ifvqglg","pricing_plan_id":"cebpf4jnsgd1na2vs0mg"},{"bike_id":"317dad32-e91b-4bc3-9480-60cfd5be8e82","system_id":"levelo_inurba_marseille","lat":43.246583,"lon":5.381562,"is_reserved":false,"is_disabled":false,"rental_uris":{"android":"levelo://app?vid=317dad32-e91b-4bc3-9480-60cfd5be8e82","ios":"levelo://app?vid=317dad32-e91b-4bc3-9480-60cfd5be8e82"},"vehicle_type_id":"4","last_reported":1770553594,"current_range_meters":8800,"station_id":"ce4bhih2rcd13ifvqfr0","pricing_plan_id":"cebpf4jnsgd1na2vs0mg"},{"bike_id":"e02d2b38-58ae-453d-9693-7a6a850a6521","system_id":"levelo_inurba_marseille","lat":43.2621,"lon":5.37452,"is_reserved":false,"is_disabled":false,"rental_uris":{"android":"levelo://app?vid=e02d2b38-58ae-453d-9693-7a6a850a6521","ios":"levelo://app?vid=e02d2b38-58ae-453d-9693-7a6a850a6521"},"vehicle_type_id":"4","last_reported":1770553594,"current_range_meters":9200,"station_id":"ce4bhgp2rcd13ifvqfc0","pricing_plan_id":"cebpf4jnsgd1na2vs0mg"},{"bike_id":"a69c6d46-0f4b-4ef5-9649-768f405cc714","system_id":"levelo_inurba_marseille","lat":43.27111,"lon":5.38329,"is_reserved":false,"is_disabled":false,"rental_uris":{"android":"levelo://app?vid=a69c6d46-0f4b-4ef5-9649-768f405cc714","ios":"levelo://app?vid=a69c6d46-0f4b-4ef5-9649-768f405cc714"},"vehicle_type_id":"4","last_reported":1770553594,"current_range_meters":9200,"station_id":"st_d3n2fo6cfp8s73cte1j0","pricing_plan_id":"cebpf4jnsgd1na2vs0mg"},{"bike_id":"93d2f206-3fcb-4c57-9f72-142295498e9f","system_id":"levelo_inurba_marseille","lat":43.309,"lon":5.37181,"is_reserved":false,"is_disabled":false,"rental_uris":{"android":"levelo://app?vid=93d2f206-3fcb-4c57-9f72-142295498e9f","ios":"levelo://app?vid=93d2f206-3fcb-4c57-9f72-142295498e9f"},"vehicle_type_id":"4","last_reported":1770553594,"current_range_meters":9200,"station_id":"ce4bguh2rcd13ifvqckg","pricing_plan_id":"cebpf4jnsgd1na2vs0mg"},{"bike_id":"5d1de9d4-2e99-430a-8dcb-f579bf7e4cec","system_id":"levelo_inurba_marseille","lat":43.335384,"lon":5.374676,"is_reserved":false,"is_disabled":false,"rental_uris":{"android":"levelo://app?vid=5d1de9d4-2e99-430a-8dcb-f579bf7e4cec","ios":"levelo://app?vid=5d1de9d4-2e99-430a-8dcb-f579bf7e4cec"},"vehicle_type_id":"4","last_reported":1770553594,"current_range_meters":9200,"station_id":"st_d46tts09ee8s73dlu43g","pricing_plan_id":"cebpf4jnsgd1na2vs0mg"},{"bike_id":"79271155-1aff-4de8-a753-6006b8197aa8","system_id":"levelo_inurba_marseille","lat":43.24078,"lon":5.37758,"is_reserved":false,"is_disabled":false,"rental_uris":{"android":"levelo://app?vid=79271155-1aff-4de8-a753-6006b8197aa8","ios":"levelo://app?vid=79271155-1aff-4de8-a753-6006b8197aa8"},"vehicle_type_id":"4","last_reported":1770553594,"current_range_meters":9200,"station_id":"ce4bhnp2rcd13ifvqgvg","pricing_plan_id":"cebpf4jnsgd1na2vs0mg"},{"bike_id":"be5ee9c8-83a0-47f1-aa70-8349319881b3","system_id":"levelo_inurba_marseille","lat":43.29813,"lon":5.44076,"is_reserved":false,"is_disabled":false,"rental_uris":{"android":"levelo://app?vid=be5ee9c8-83a0-47f1-aa70-8349319881b3","ios":"levelo://app?vid=be5ee9c8-83a0-47f1-aa70-8349319881b3"},"vehicle_type_id":"4","last_reported":1770553594,"current_range_meters":9200,"station_id":"st_d3jp68qikq2c7381ktn0","pricing_plan_id":"cebpf4jnsgd1na2vs0mg"},{"bike_id":"1494d073-a24e-432f-8548-47b75823e14d","system_id":"levelo_inurba_marseille","lat":43.24973,"lon":5.40513,"is_reserved":false,"is_disabled":false,"rental_uris":{"android":"levelo://app?vid=1494d073-a24e-432f-8548-47b75823e14d","ios":"levelo://app?vid=1494d073-a24e-432f-8548-47b75823e14d"},"vehicle_type_id":"4","last_reported":1770553594,"current_range_meters":9200,"station_id":"st_d2ngiaodas8pm72gd1h0","pricing_plan_id":"cebpf4jnsgd1na2vs0mg"},{"bike_id":"55afc012-7d9e-494f-8ec6-1fffacfb0da4","system_id":"levelo_inurba_marseille","lat":43.26573,"lon":5.40305,"is_reserved":false,"is_disabled":false,"rental_uris":{"android":"levelo://app?vid=55afc012-7d9e-494f-8ec6-1fffacfb0da4","ios":"levelo://app?vid=55afc012-7d9e-494f-8ec6-1fffacfb0da4"},"vehicle_type_id":"4","last_reported":1770553594,"current_range_meters":9200,"station_id":"ce4bhmp2rcd13ifvqgng","pricing_plan_id":"cebpf4jnsgd1na2vs0mg"},{"bike_id":"53ffd820-7dfe-4416-9f1c-41399f6d763d","system_id":"levelo_inurba_marseille","lat":43.26547,"lon":5.37299,"is_reserved":false,"is_disabled":false,"rental_uris":{"android":"levelo://app?vid=53ffd820-7dfe-4416-9f1c-41399f6d763d","ios":"levelo://app?vid=53ffd820-7dfe-4416-9f1c-41399f6d763d"},"vehicle_type_id":"4","last_reported":1770553594,"current_range_meters":9200,"station_id":"ce4bhg12rcd13ifvqf70","pricing_plan_id":"cebpf4jnsgd1na2vs0mg"},{"bike_id":"6c572dc3-59b5-4477-8364-014f92953c24","system_id":"levelo_inurba_marseille","lat":43.2496,"lon":5.40501,"is_reserved":false,"is_disabled":false,"rental_uris":{"android":"levelo://app?vid=6c572dc3-59b5-4477-8364-014f92953c24","ios":"levelo://app?vid=6c572dc3-59b5-4477-8364-014f92953c24"},"vehicle_type_id":"4","last_reported":1770553594,"current_range_meters":9200,"station_id":"st_d2ngiaodas8pm72gd1h0","pricing_plan_id":"cebpf4jnsgd1na2vs0mg"},{"bike_id":"76ba7678-8c31-43dd-8287-b301313b15e8","system_id":"levelo_inurba_marseille","lat":43.310795,"lon":5.383507,"is_reserved":false,"is_disabled":false,"rental_uris":{"android":"levelo://app?vid=76ba7678-8c31-43dd-8287-b301313b15e8","ios":"levelo://app?vid=76ba7678-8c31-43dd-8287-b301313b15e8"},"vehicle_type_id":"4","last_reported":1770553594,"current_range_meters":9200,"station_id":"ce4bgv92rcd13ifvqcr0","pricing_plan_id":"cebpf4jnsgd1na2vs0mg"},{"bike_id":"3045fa36-8af2-484c-8446-799c7e150898","system_id":"levelo_inurba_marseille","lat":43.21207,"lon":5.35056,"is_reserved":false,"is_disabled":false,"rental_uris":{"android":"levelo://app?vid=3045fa36-8af2-484c-8446-799c7e150898","ios":"levelo://app?vid=3045fa36-8af2-484c-8446-799c7e150898"},"vehicle_type_id":"4","last_reported":1770553594,"current_range_meters":9200,"station_id":"st_cvj6sg6p6f1abm77japg","pricing_plan_id":"cebpf4jnsgd1na2vs0mg"},{"bike_id":"f66f77ca-8e30-4250-91f1-d5277ae6b4a1","system_id":"levelo_inurba_marseille","lat":43.2465,"lon":5.38894,"is_reserved":false,"is_disabled":false,"rental_uris":{"android":"levelo://app?vid=f66f77ca-8e30-4250-91f1-d5277ae6b4a1","ios":"levelo://app?vid=f66f77ca-8e30-4250-91f1-d5277ae6b4a1"},"vehicle_type_id":"4","last_reported":1770553594,"current_range_meters":9200,"station_id":"ce4bhg12rcd13ifvqf60","pricing_plan_id":"cebpf4jnsgd1na2vs0mg"},{"bike_id":"21c74027-26d0-4521-8bcf-ad285a8653f3","system_id":"levelo_inurba_marseille","lat":43.29898,"lon":5.37672,"is_reserved":false,"is_disabled":false,"rental_uris":{"android":"levelo://app?vid=21c74027-26d0-4521-8bcf-ad285a8653f3","ios":"levelo://app?vid=21c74027-26d0-4521-8bcf-ad285a8653f3"},"vehicle_type_id":"4","last_reported":1770553594,"current_range_meters":9600,"station_id":"","pricing_plan_id":"cebpf4jnsgd1na2vs0mg"},{"bike_id":"d1bd6231-82a7-41df-aa86-7df66ec4525e","system_id":"levelo_inurba_marseille","lat":43.301455,"lon":5.381058,"is_reserved":false,"is_disabled":false,"rental_uris":{"android":"levelo://app?vid=d1bd6231-82a7-41df-aa86-7df66ec4525e","ios":"levelo://app?vid=d1bd6231-82a7-41df-aa86-7df66ec4525e"},"vehicle_type_id":"4","last_reported":1770553594,"current_range_meters":9600,"station_id":"ce4bgjp2rcd13ifvqbh0","pricing_plan_id":"cebpf4jnsgd1na2vs0mg"},{"bike_id":"76036551-57a1-4196-9f8a-82d63d2b7b28","system_id":"levelo_inurba_marseille","lat":43.279158,"lon":5.395755,"is_reserved":false,"is_disabled":false,"rental_uris":{"android":"levelo://app?vid=76036551-57a1-4196-9f8a-82d63d2b7b28","ios":"levelo://app?vid=76036551-57a1-4196-9f8a-82d63d2b7b28"},"vehicle_type_id":"4","last_reported":1770553594,"current_range_meters":9600,"station_id":"ce4bhf92rcd13ifvqf40","pricing_plan_id":"cebpf4jnsgd1na2vs0mg"},{"bike_id":"fcd7ffdf-e260-4375-9d23-653f14663ff7","system_id":"levelo_inurba_marseille","lat":43.291844,"lon":5.358076,"is_reserved":false,"is_disabled":false,"rental_uris":{"android":"levelo://app?vid=fcd7ffdf-e260-4375-9d23-653f14663ff7","ios":"levelo://app?vid=fcd7ffdf-e260-4375-9d23-653f14663ff7"},"vehicle_type_id":"4","last_reported":1770553594,"current_range_meters":9600,"station_id":"ce4bhb12rcd13ifvqel0","pricing_plan_id":"cebpf4jnsgd1na2vs0mg"},{"bike_id":"89a401c9-aac6-4f15-b6f7-f1e7fe1bc44c","system_id":"levelo_inurba_marseille","lat":43.301735,"lon":5.38075,"is_reserved":false,"is_disabled":false,"rental_uris":{"android":"levelo://app?vid=89a401c9-aac6-4f15-b6f7-f1e7fe1bc44c","ios":"levelo://app?vid=89a401c9-aac6-4f15-b6f7-f1e7fe1bc44c"},"vehicle_type_id":"4","last_reported":1770553594,"current_range_meters":9600,"station_id":"ce4bgjp2rcd13ifvqbh0","pricing_plan_id":"cebpf4jnsgd1na2vs0mg"},{"bike_id":"5ef6ce00-1da8-4f35-b102-c6f89b410d36","system_id":"levelo_inurba_marseille","lat":43.268031,"lon":5.402654,"is_reserved":false,"is_disabled":false,"rental_uris":{"android":"levelo://app?vid=5ef6ce00-1da8-4f35-b102-c6f89b410d36","ios":"levelo://app?vid=5ef6ce00-1da8-4f35-b102-c6f89b410d36"},"vehicle_type_id":"4","last_reported":1770553594,"current_range_meters":9600,"station_id":"ce501612rcd8frsf0b60","pricing_plan_id":"cebpf4jnsgd1na2vs0mg"},{"bike_id":"8132a45b-6e07-43bd-bcfa-94b9411ef35b","system_id":"levelo_inurba_marseille","lat":43.32359,"lon":5.36734,"is_reserved":false,"is_disabled":false,"rental_uris":{"android":"levelo://app?vid=8132a45b-6e07-43bd-bcfa-94b9411ef35b","ios":"levelo://app?vid=8132a45b-6e07-43bd-bcfa-94b9411ef35b"},"vehicle_type_id":"4","last_reported":1770553594,"current_range_meters":9600,"station_id":"ce4bhsh2rcd13ifvqi2g","pricing_plan_id":"cebpf4jnsgd1na2vs0mg"},{"bike_id":"e78275eb-3967-43e3-847b-4f8f52237aae","system_id":"levelo_inurba_marseille","lat":43.30443,"lon":5.38891,"is_reserved":false,"is_disabled":true,"rental_uris":{"android":"levelo://app?vid=e78275eb-3967-43e3-847b-4f8f52237aae","ios":"levelo://app?vid=e78275eb-3967-43e3-847b-4f8f52237aae"},"vehicle_type_id":"4","last_reported":1770553594,"current_range_meters":9600,"station_id":"ce4bgk12rcd13ifvqbi0","pricing_plan_id":"cebpf4jnsgd1na2vs0mg"},{"bike_id":"a69d3aee-77c1-410d-a5bd-9dbc56f9521b","system_id":"levelo_inurba_marseille","lat":43.32357,"lon":5.36727,"is_reserved":false,"is_disabled":false,"rental_uris":{"android":"levelo://app?vid=a69d3aee-77c1-410d-a5bd-9dbc56f9521b","ios":"levelo://app?vid=a69d3aee-77c1-410d-a5bd-9dbc56f9521b"},"vehicle_type_id":"4","last_reported":1770553594,"current_range_meters":9600,"station_id":"ce4bhsh2rcd13ifvqi2g","pricing_plan_id":"cebpf4jnsgd1na2vs0mg"},{"bike_id":"3bd966db-14f2-485b-9928-c90e194f0deb","system_id":"levelo_inurba_marseille","lat":43.290344,"lon":5.386427,"is_reserved":false,"is_disabled":false,"rental_uris":{"android":"levelo://app?vid=3bd966db-14f2-485b-9928-c90e194f0deb","ios":"levelo://app?vid=3bd966db-14f2-485b-9928-c90e194f0deb"},"vehicle_type_id":"4","last_reported":1770553594,"current_range_meters":9600,"station_id":"ce4bh4p2rcd13ifvqe0g","pricing_plan_id":"cebpf4jnsgd1na2vs0mg"},{"bike_id":"1a9850e1-5d2c-4438-9e2f-49d6634f0424","system_id":"levelo_inurba_marseille","lat":43.2658,"lon":5.40344,"is_reserved":false,"is_disabled":false,"rental_uris":{"android":"levelo://app?vid=1a9850e1-5d2c-4438-9e2f-49d6634f0424","ios":"levelo://app?vid=1a9850e1-5d2c-4438-9e2f-49d6634f0424"},"vehicle_type_id":"4","last_reported":1770553594,"current_range_meters":9600,"station_id":"ce4bhmp2rcd13ifvqgng","pricing_plan_id":"cebpf4jnsgd1na2vs0mg"},{"bike_id":"5152e4bb-a733-4da3-8922-84baad210459","system_id":"levelo_inurba_marseille","lat":43.284581,"lon":5.384296,"is_reserved":false,"is_disabled":false,"rental_uris":{"android":"levelo://app?vid=5152e4bb-a733-4da3-8922-84baad210459","ios":"levelo://app?vid=5152e4bb-a733-4da3-8922-84baad210459"},"vehicle_type_id":"4","last_reported":1770553594,"current_range_meters":9600,"station_id":"ce4bh512rcd13ifvqe3g","pricing_plan_id":"cebpf4jnsgd1na2vs0mg"},{"bike_id":"5f0b2116-3b49-4d83-b373-fa4282b8ba05","system_id":"levelo_inurba_marseille","lat":43.286192,"lon":5.35105,"is_reserved":false,"is_disabled":false,"rental_uris":{"android":"levelo://app?vid=5f0b2116-3b49-4d83-b373-fa4282b8ba05","ios":"levelo://app?vid=5f0b2116-3b49-4d83-b373-fa4282b8ba05"},"vehicle_type_id":"4","last_reported":1770553594,"current_range_meters":10000,"station_id":"ce4bhch2rcd13ifvqeug","pricing_plan_id":"cebpf4jnsgd1na2vs0mg"},{"bike_id":"5db8210b-fea5-4e7d-8212-139d2c0358d5","system_id":"levelo_inurba_marseille","lat":43.29834,"lon":5.36259,"is_reserved":false,"is_disabled":true,"rental_uris":{"android":"levelo://app?vid=5db8210b-fea5-4e7d-8212-139d2c0358d5","ios":"levelo://app?vid=5db8210b-fea5-4e7d-8212-139d2c0358d5"},"vehicle_type_id":"4","last_reported":1770553594,"current_range_meters":10000,"station_id":"ce4bgpp2rcd13ifvqc3g","pricing_plan_id":"cebpf4jnsgd1na2vs0mg"},{"bike_id":"e93479fa-5f4e-4ed6-bc3c-756d32d4ca7c","system_id":"levelo_inurba_marseille","lat":43.301533,"lon":5.380809,"is_reserved":false,"is_disabled":false,"rental_uris":{"android":"levelo://app?vid=e93479fa-5f4e-4ed6-bc3c-756d32d4ca7c","ios":"levelo://app?vid=e93479fa-5f4e-4ed6-bc3c-756d32d4ca7c"},"vehicle_type_id":"4","last_reported":1770553594,"current_range_meters":10000,"station_id":"ce4bgjp2rcd13ifvqbh0","pricing_plan_id":"cebpf4jnsgd1na2vs0mg"},{"bike_id":"996a510f-70dd-4518-939f-228af375066f","system_id":"levelo_inurba_marseille","lat":43.29852,"lon":5.4409,"is_reserved":false,"is_disabled":false,"rental_uris":{"android":"levelo://app?vid=996a510f-70dd-4518-939f-228af375066f","ios":"levelo://app?vid=996a510f-70dd-4518-939f-228af375066f"},"vehicle_type_id":"4","last_reported":1770553594,"current_range_meters":10000,"station_id":"","pricing_plan_id":"cebpf4jnsgd1na2vs0mg"},{"bike_id":"15d3ef54-e724-40dc-bb1e-d53e1a785c94","system_id":"levelo_inurba_marseille","lat":43.28598,"lon":5.39897,"is_reserved":false,"is_disabled":false,"rental_uris":{"android":"levelo://app?vid=15d3ef54-e724-40dc-bb1e-d53e1a785c94","ios":"levelo://app?vid=15d3ef54-e724-40dc-bb1e-d53e1a785c94"},"vehicle_type_id":"4","last_reported":1770553594,"current_range_meters":10000,"station_id":"st_d4a7ka997mjs738ck50g","pricing_plan_id":"cebpf4jnsgd1na2vs0mg"},{"bike_id":"d2010c61-f921-48a2-aa6f-3ea6273bb955","system_id":"levelo_inurba_marseille","lat":43.23196,"lon":5.35552,"is_reserved":false,"is_disabled":false,"rental_uris":{"android":"levelo://app?vid=d2010c61-f921-48a2-aa6f-3ea6273bb955","ios":"levelo://app?vid=d2010c61-f921-48a2-aa6f-3ea6273bb955"},"vehicle_type_id":"4","last_reported":1770553594,"current_range_meters":10000,"station_id":"ce4bhu92rcd13ifvqi70","pricing_plan_id":"cebpf4jnsgd1na2vs0mg"},{"bike_id":"bca86a1c-1fc3-45f1-8c70-0ae6c3920830","system_id":"levelo_inurba_marseille","lat":43.29893,"lon":5.43662,"is_reserved":false,"is_disabled":false,"rental_uris":{"android":"levelo://app?vid=bca86a1c-1fc3-45f1-8c70-0ae6c3920830","ios":"levelo://app?vid=bca86a1c-1fc3-45f1-8c70-0ae6c3920830"},"vehicle_type_id":"4","last_reported":1770553594,"current_range_meters":10000,"station_id":"ce4bhpp2rcd13ifvqhfg","pricing_plan_id":"cebpf4jnsgd1na2vs0mg"},{"bike_id":"a8e8aa90-66c9-4830-8a68-7bf50e940df7","system_id":"levelo_inurba_marseille","lat":43.23183,"lon":5.39992,"is_reserved":false,"is_disabled":false,"rental_uris":{"android":"levelo://app?vid=a8e8aa90-66c9-4830-8a68-7bf50e940df7","ios":"levelo://app?vid=a8e8aa90-66c9-4830-8a68-7bf50e940df7"},"vehicle_type_id":"4","last_reported":1770553594,"current_range_meters":10000,"station_id":"ce4bhn12rcd13ifvqgqg","pricing_plan_id":"cebpf4jnsgd1na2vs0mg"},{"bike_id":"2089e1d9-314f-4676-8364-32b5760ca1a1","system_id":"levelo_inurba_marseille","lat":43.28538,"lon":5.48444,"is_reserved":false,"is_disabled":false,"rental_uris":{"android":"levelo://app?vid=2089e1d9-314f-4676-8364-32b5760ca1a1","ios":"levelo://app?vid=2089e1d9-314f-4676-8364-32b5760ca1a1"},"vehicle_type_id":"4","last_reported":1770553594,"current_range_meters":10000,"station_id":"st_d3svhcjqgbts73a3dn0g","pricing_plan_id":"cebpf4jnsgd1na2vs0mg"},{"bike_id":"b98629f8-ee0a-40bb-86a1-ad6537ba67bf","system_id":"levelo_inurba_marseille","lat":43.3246,"lon":5.36583,"is_reserved":false,"is_disabled":false,"rental_uris":{"android":"levelo://app?vid=b98629f8-ee0a-40bb-86a1-ad6537ba67bf","ios":"levelo://app?vid=b98629f8-ee0a-40bb-86a1-ad6537ba67bf"},"vehicle_type_id":"4","last_reported":1770553594,"current_range_meters":10000,"station_id":"ce4bhs12rcd13ifvqhvg","pricing_plan_id":"cebpf4jnsgd1na2vs0mg"},{"bike_id":"0f001d06-af3e-4233-8ae5-81f8f5c15947","system_id":"levelo_inurba_marseille","lat":43.2622,"lon":5.37913,"is_reserved":false,"is_disabled":false,"rental_uris":{"android":"levelo://app?vid=0f001d06-af3e-4233-8ae5-81f8f5c15947","ios":"levelo://app?vid=0f001d06-af3e-4233-8ae5-81f8f5c15947"},"vehicle_type_id":"4","last_reported":1770553594,"current_range_meters":10000,"station_id":"ce4bhjp2rcd13ifvqg90","pricing_plan_id":"cebpf4jnsgd1na2vs0mg"},{"bike_id":"7fb77262-90b3-4d6c-938e-9eda296ba1ff","system_id":"levelo_inurba_marseille","lat":43.23377,"lon":5.41236,"is_reserved":false,"is_disabled":false,"rental_uris":{"android":"levelo://app?vid=7fb77262-90b3-4d6c-938e-9eda296ba1ff","ios":"levelo://app?vid=7fb77262-90b3-4d6c-938e-9eda296ba1ff"},"vehicle_type_id":"4","last_reported":1770553594,"current_range_meters":10000,"station_id":"","pricing_plan_id":"cebpf4jnsgd1na2vs0mg"},{"bike_id":"801ad909-18b3-4ab0-977b-525cc98af4a6","system_id":"levelo_inurba_marseille","lat":43.25889,"lon":5.39897,"is_reserved":false,"is_disabled":false,"rental_uris":{"android":"levelo://app?vid=801ad909-18b3-4ab0-977b-525cc98af4a6","ios":"levelo://app?vid=801ad909-18b3-4ab0-977b-525cc98af4a6"},"vehicle_type_id":"4","last_reported":1770553594,"current_range_meters":10800,"station_id":"ce4bhl92rcd13ifvqghg","pricing_plan_id":"cebpf4jnsgd1na2vs0mg"},{"bike_id":"cc2e70b1-9418-450c-8618-294ac8da0925","system_id":"levelo_inurba_marseille","lat":43.29975,"lon":5.38559,"is_reserved":false,"is_disabled":false,"rental_uris":{"android":"levelo://app?vid=cc2e70b1-9418-450c-8618-294ac8da0925","ios":"levelo://app?vid=cc2e70b1-9418-450c-8618-294ac8da0925"},"vehicle_type_id":"4","last_reported":1770553594,"current_range_meters":10800,"station_id":"","pricing_plan_id":"cebpf4jnsgd1na2vs0mg"},{"bike_id":"2a2e7824-3cdf-4155-b2b9-cd5c94f8108e","system_id":"levelo_inurba_marseille","lat":43.27567,"lon":5.38395,"is_reserved":false,"is_disabled":false,"rental_uris":{"android":"levelo://app?vid=2a2e7824-3cdf-4155-b2b9-cd5c94f8108e","ios":"levelo://app?vid=2a2e7824-3cdf-4155-b2b9-cd5c94f8108e"},"vehicle_type_id":"4","last_reported":1770553594,"current_range_meters":10800,"station_id":"ce4bhh92rcd13ifvqfi0","pricing_plan_id":"cebpf4jnsgd1na2vs0mg"},{"bike_id":"a234b1e8-aa48-4506-a47a-890ecb54626b","system_id":"levelo_inurba_marseille","lat":43.24417,"lon":5.37066,"is_reserved":false,"is_disabled":false,"rental_uris":{"android":"levelo://app?vid=a234b1e8-aa48-4506-a47a-890ecb54626b","ios":"levelo://app?vid=a234b1e8-aa48-4506-a47a-890ecb54626b"},"vehicle_type_id":"4","last_reported":1770553594,"current_range_meters":10800,"station_id":"ce4bhhh2rcd13ifvqfk0","pricing_plan_id":"cebpf4jnsgd1na2vs0mg"},{"bike_id":"f5015cc4-4081-47f5-9b14-5ebe990bd23d","system_id":"levelo_inurba_marseille","lat":43.301406,"lon":5.381013,"is_reserved":false,"is_disabled":false,"rental_uris":{"android":"levelo://app?vid=f5015cc4-4081-47f5-9b14-5ebe990bd23d","ios":"levelo://app?vid=f5015cc4-4081-47f5-9b14-5ebe990bd23d"},"vehicle_type_id":"4","last_reported":1770553594,"current_range_meters":10800,"station_id":"ce4bgjp2rcd13ifvqbh0","pricing_plan_id":"cebpf4jnsgd1na2vs0mg"},{"bike_id":"6718c760-57b4-4f5f-9c07-cadeec237be7","system_id":"levelo_inurba_marseille","lat":43.28146,"lon":5.426254,"is_reserved":false,"is_disabled":true,"rental_uris":{"android":"levelo://app?vid=6718c760-57b4-4f5f-9c07-cadeec237be7","ios":"levelo://app?vid=6718c760-57b4-4f5f-9c07-cadeec237be7"},"vehicle_type_id":"4","last_reported":1770553594,"current_range_meters":10800,"station_id":"ce4bhnh2rcd13ifvqgug","pricing_plan_id":"cebpf4jnsgd1na2vs0mg"},{"bike_id":"118efdfa-fcd1-4aa4-b836-b300d0519548","system_id":"levelo_inurba_marseille","lat":43.29602,"lon":5.37698,"is_reserved":false,"is_disabled":true,"rental_uris":{"android":"levelo://app?vid=118efdfa-fcd1-4aa4-b836-b300d0519548","ios":"levelo://app?vid=118efdfa-fcd1-4aa4-b836-b300d0519548"},"vehicle_type_id":"4","last_reported":1770553594,"current_range_meters":10800,"station_id":"ce4bgi92rcd13ifvqb90","pricing_plan_id":"cebpf4jnsgd1na2vs0mg"},{"bike_id":"3bfbcaa6-9cc7-4f78-9525-559218f7d29d","system_id":"levelo_inurba_marseille","lat":43.24817,"lon":5.37459,"is_reserved":false,"is_disabled":false,"rental_uris":{"android":"levelo://app?vid=3bfbcaa6-9cc7-4f78-9525-559218f7d29d","ios":"levelo://app?vid=3bfbcaa6-9cc7-4f78-9525-559218f7d29d"},"vehicle_type_id":"4","last_reported":1770553594,"current_range_meters":10800,"station_id":"ce4bhgh2rcd13ifvqfb0","pricing_plan_id":"cebpf4jnsgd1na2vs0mg"},{"bike_id":"d9d882bd-1a28-48fd-b84c-a86e8f84ab0c","system_id":"levelo_inurba_marseille","lat":43.246266,"lon":5.431524,"is_reserved":false,"is_disabled":false,"rental_uris":{"android":"levelo://app?vid=d9d882bd-1a28-48fd-b84c-a86e8f84ab0c","ios":"levelo://app?vid=d9d882bd-1a28-48fd-b84c-a86e8f84ab0c"},"vehicle_type_id":"4","last_reported":1770553594,"current_range_meters":10800,"station_id":"st_d2m6c4gdas8pm72e190g","pricing_plan_id":"cebpf4jnsgd1na2vs0mg"},{"bike_id":"3b2f9b19-5c55-42a4-bbe9-548002b32179","system_id":"levelo_inurba_marseille","lat":43.29781,"lon":5.37103,"is_reserved":false,"is_disabled":false,"rental_uris":{"android":"levelo://app?vid=3b2f9b19-5c55-42a4-bbe9-548002b32179","ios":"levelo://app?vid=3b2f9b19-5c55-42a4-bbe9-548002b32179"},"vehicle_type_id":"4","last_reported":1770553594,"current_range_meters":10800,"station_id":"ce4bgop2rcd13ifvqc1g","pricing_plan_id":"cebpf4jnsgd1na2vs0mg"},{"bike_id":"2b4c87ea-d0d8-4019-9d2f-badc657e912c","system_id":"levelo_inurba_marseille","lat":43.26956,"lon":5.3876,"is_reserved":false,"is_disabled":false,"rental_uris":{"android":"levelo://app?vid=2b4c87ea-d0d8-4019-9d2f-badc657e912c","ios":"levelo://app?vid=2b4c87ea-d0d8-4019-9d2f-badc657e912c"},"vehicle_type_id":"4","last_reported":1770553594,"current_range_meters":10800,"station_id":"ce4bhh92rcd13ifvqfh0","pricing_plan_id":"cebpf4jnsgd1na2vs0mg"},{"bike_id":"87a03171-e274-42c9-8301-2123e9d6174f","system_id":"levelo_inurba_marseille","lat":43.2464,"lon":5.4315,"is_reserved":false,"is_disabled":false,"rental_uris":{"android":"levelo://app?vid=87a03171-e274-42c9-8301-2123e9d6174f","ios":"levelo://app?vid=87a03171-e274-42c9-8301-2123e9d6174f"},"vehicle_type_id":"4","last_reported":1770553594,"current_range_meters":10800,"station_id":"st_d2m6c4gdas8pm72e190g","pricing_plan_id":"cebpf4jnsgd1na2vs0mg"},{"bike_id":"d4c60cfc-6569-475a-a999-90023dab6245","system_id":"levelo_inurba_marseille","lat":43.33551,"lon":5.37474,"is_reserved":false,"is_disabled":false,"rental_uris":{"android":"levelo://app?vid=d4c60cfc-6569-475a-a999-90023dab6245","ios":"levelo://app?vid=d4c60cfc-6569-475a-a999-90023dab6245"},"vehicle_type_id":"4","last_reported":1770553594,"current_range_meters":10800,"station_id":"","pricing_plan_id":"cebpf4jnsgd1na2vs0mg"},{"bike_id":"397e4117-c8c6-4338-b1b9-2f2a88f81c1e","system_id":"levelo_inurba_marseille","lat":43.25576,"lon":5.38225,"is_reserved":false,"is_disabled":false,"rental_uris":{"android":"levelo://app?vid=397e4117-c8c6-4338-b1b9-2f2a88f81c1e","ios":"levelo://app?vid=397e4117-c8c6-4338-b1b9-2f2a88f81c1e"},"vehicle_type_id":"4","last_reported":1770553594,"current_range_meters":10800,"station_id":"ce4bhih2rcd13ifvqfs0","pricing_plan_id":"cebpf4jnsgd1na2vs0mg"},{"bike_id":"c383832c-f801-4ea2-afff-0353b46aa87e","system_id":"levelo_inurba_marseille","lat":43.2503,"lon":5.38919,"is_reserved":false,"is_disabled":false,"rental_uris":{"android":"levelo://app?vid=c383832c-f801-4ea2-afff-0353b46aa87e","ios":"levelo://app?vid=c383832c-f801-4ea2-afff-0353b46aa87e"},"vehicle_type_id":"4","last_reported":1770553594,"current_range_meters":10800,"station_id":"ce4bhgp2rcd13ifvqfd0","pricing_plan_id":"cebpf4jnsgd1na2vs0mg"},{"bike_id":"c89fc745-e314-444c-b63e-8a25d581c03c","system_id":"levelo_inurba_marseille","lat":43.2705,"lon":5.39831,"is_reserved":false,"is_disabled":false,"rental_uris":{"android":"levelo://app?vid=c89fc745-e314-444c-b63e-8a25d581c03c","ios":"levelo://app?vid=c89fc745-e314-444c-b63e-8a25d581c03c"},"vehicle_type_id":"4","last_reported":1770553594,"current_range_meters":10800,"station_id":"","pricing_plan_id":"cebpf4jnsgd1na2vs0mg"},{"bike_id":"68968516-d91c-4c16-8c2e-c365a7f74690","system_id":"levelo_inurba_marseille","lat":43.30517,"lon":5.41214,"is_reserved":false,"is_disabled":false,"rental_uris":{"android":"levelo://app?vid=68968516-d91c-4c16-8c2e-c365a7f74690","ios":"levelo://app?vid=68968516-d91c-4c16-8c2e-c365a7f74690"},"vehicle_type_id":"4","last_reported":1770553594,"current_range_meters":10800,"station_id":"","pricing_plan_id":"cebpf4jnsgd1na2vs0mg"},{"bike_id":"1e0ce1b7-bf99-41f3-893a-edf1c630a405","system_id":"levelo_inurba_marseille","lat":43.28212,"lon":5.39049,"is_reserved":false,"is_disabled":false,"rental_uris":{"android":"levelo://app?vid=1e0ce1b7-bf99-41f3-893a-edf1c630a405","ios":"levelo://app?vid=1e0ce1b7-bf99-41f3-893a-edf1c630a405"},"vehicle_type_id":"4","last_reported":1770553594,"current_range_meters":11200,"station_id":"ce4bhn92rcd13ifvqgsg","pricing_plan_id":"cebpf4jnsgd1na2vs0mg"},{"bike_id":"d75d181c-97ed-4a21-95f7-f78c66ae671f","system_id":"levelo_inurba_marseille","lat":43.24074,"lon":5.37743,"is_reserved":false,"is_disabled":false,"rental_uris":{"android":"levelo://app?vid=d75d181c-97ed-4a21-95f7-f78c66ae671f","ios":"levelo://app?vid=d75d181c-97ed-4a21-95f7-f78c66ae671f"},"vehicle_type_id":"4","last_reported":1770553594,"current_range_meters":11200,"station_id":"ce4bhnp2rcd13ifvqgvg","pricing_plan_id":"cebpf4jnsgd1na2vs0mg"},{"bike_id":"d5cf5cdb-1430-48fc-8824-bc44ed778c7b","system_id":"levelo_inurba_marseille","lat":43.32264,"lon":5.38655,"is_reserved":false,"is_disabled":false,"rental_uris":{"android":"levelo://app?vid=d5cf5cdb-1430-48fc-8824-bc44ed778c7b","ios":"levelo://app?vid=d5cf5cdb-1430-48fc-8824-bc44ed778c7b"},"vehicle_type_id":"4","last_reported":1770553594,"current_range_meters":11200,"station_id":"","pricing_plan_id":"cebpf4jnsgd1na2vs0mg"},{"bike_id":"505c0388-808a-43fc-b871-774655d1eeb8","system_id":"levelo_inurba_marseille","lat":43.22562,"lon":5.41634,"is_reserved":false,"is_disabled":false,"rental_uris":{"android":"levelo://app?vid=505c0388-808a-43fc-b871-774655d1eeb8","ios":"levelo://app?vid=505c0388-808a-43fc-b871-774655d1eeb8"},"vehicle_type_id":"4","last_reported":1770553594,"current_range_meters":11200,"station_id":"st_d2o4gvlbi1j2169b742g","pricing_plan_id":"cebpf4jnsgd1na2vs0mg"},{"bike_id":"58382d36-7cb5-4d9a-81cf-d54827ddd44f","system_id":"levelo_inurba_marseille","lat":43.255679,"lon":5.382468,"is_reserved":false,"is_disabled":false,"rental_uris":{"android":"levelo://app?vid=58382d36-7cb5-4d9a-81cf-d54827ddd44f","ios":"levelo://app?vid=58382d36-7cb5-4d9a-81cf-d54827ddd44f"},"vehicle_type_id":"4","last_reported":1770553594,"current_range_meters":11200,"station_id":"ce4bhih2rcd13ifvqfs0","pricing_plan_id":"cebpf4jnsgd1na2vs0mg"},{"bike_id":"d9881866-8d8d-40b9-953d-bed8d3c31af8","system_id":"levelo_inurba_marseille","lat":43.24952,"lon":5.40527,"is_reserved":false,"is_disabled":false,"rental_uris":{"android":"levelo://app?vid=d9881866-8d8d-40b9-953d-bed8d3c31af8","ios":"levelo://app?vid=d9881866-8d8d-40b9-953d-bed8d3c31af8"},"vehicle_type_id":"4","last_reported":1770553594,"current_range_meters":11200,"station_id":"st_d2ngiaodas8pm72gd1h0","pricing_plan_id":"cebpf4jnsgd1na2vs0mg"},{"bike_id":"d653ed3a-f8af-441f-ad2d-cdc633785da3","system_id":"levelo_inurba_marseille","lat":43.25586,"lon":5.38239,"is_reserved":false,"is_disabled":false,"rental_uris":{"android":"levelo://app?vid=d653ed3a-f8af-441f-ad2d-cdc633785da3","ios":"levelo://app?vid=d653ed3a-f8af-441f-ad2d-cdc633785da3"},"vehicle_type_id":"4","last_reported":1770553594,"current_range_meters":11200,"station_id":"ce4bhih2rcd13ifvqfs0","pricing_plan_id":"cebpf4jnsgd1na2vs0mg"},{"bike_id":"029ba993-6e5b-462a-a880-cdb083ac545c","system_id":"levelo_inurba_marseille","lat":43.28947,"lon":5.39617,"is_reserved":false,"is_disabled":false,"rental_uris":{"android":"levelo://app?vid=029ba993-6e5b-462a-a880-cdb083ac545c","ios":"levelo://app?vid=029ba993-6e5b-462a-a880-cdb083ac545c"},"vehicle_type_id":"4","last_reported":1770553594,"current_range_meters":11200,"station_id":"ce4bh3h2rcd13ifvqdn0","pricing_plan_id":"cebpf4jnsgd1na2vs0mg"},{"bike_id":"9b9f6127-b0b2-4e5d-88d2-e7c7ad333831","system_id":"levelo_inurba_marseille","lat":43.28467,"lon":5.41002,"is_reserved":false,"is_disabled":false,"rental_uris":{"android":"levelo://app?vid=9b9f6127-b0b2-4e5d-88d2-e7c7ad333831","ios":"levelo://app?vid=9b9f6127-b0b2-4e5d-88d2-e7c7ad333831"},"vehicle_type_id":"4","last_reported":1770553594,"current_range_meters":11200,"station_id":"","pricing_plan_id":"cebpf4jnsgd1na2vs0mg"},{"bike_id":"28ef975c-b7f8-42cd-9f30-4c091e511cf0","system_id":"levelo_inurba_marseille","lat":43.28461,"lon":5.35879,"is_reserved":false,"is_disabled":false,"rental_uris":{"android":"levelo://app?vid=28ef975c-b7f8-42cd-9f30-4c091e511cf0","ios":"levelo://app?vid=28ef975c-b7f8-42cd-9f30-4c091e511cf0"},"vehicle_type_id":"4","last_reported":1770553594,"current_range_meters":11200,"station_id":"ce4bhah2rcd13ifvqei0","pricing_plan_id":"cebpf4jnsgd1na2vs0mg"},{"bike_id":"e57def88-bd31-4a22-8984-178400b968d2","system_id":"levelo_inurba_marseille","lat":43.29268,"lon":5.40907,"is_reserved":false,"is_disabled":true,"rental_uris":{"android":"levelo://app?vid=e57def88-bd31-4a22-8984-178400b968d2","ios":"levelo://app?vid=e57def88-bd31-4a22-8984-178400b968d2"},"vehicle_type_id":"4","last_reported":1770553594,"current_range_meters":11200,"station_id":"ce4bh192rcd13ifvqdc0","pricing_plan_id":"cebpf4jnsgd1na2vs0mg"},{"bike_id":"df66cdda-a68f-4cc1-bd22-da8e4bf9c5f0","system_id":"levelo_inurba_marseille","lat":43.27084,"lon":5.38299,"is_reserved":false,"is_disabled":false,"rental_uris":{"android":"levelo://app?vid=df66cdda-a68f-4cc1-bd22-da8e4bf9c5f0","ios":"levelo://app?vid=df66cdda-a68f-4cc1-bd22-da8e4bf9c5f0"},"vehicle_type_id":"4","last_reported":1770553594,"current_range_meters":11200,"station_id":"st_d3n2fo6cfp8s73cte1j0","pricing_plan_id":"cebpf4jnsgd1na2vs0mg"},{"bike_id":"01be7992-c62c-400e-89f6-fc94a9470e3e","system_id":"levelo_inurba_marseille","lat":43.23178,"lon":5.39992,"is_reserved":false,"is_disabled":false,"rental_uris":{"android":"levelo://app?vid=01be7992-c62c-400e-89f6-fc94a9470e3e","ios":"levelo://app?vid=01be7992-c62c-400e-89f6-fc94a9470e3e"},"vehicle_type_id":"4","last_reported":1770553594,"current_range_meters":11200,"station_id":"ce4bhn12rcd13ifvqgqg","pricing_plan_id":"cebpf4jnsgd1na2vs0mg"},{"bike_id":"9f4370a8-65b0-4b8d-b07b-b373421c8dcd","system_id":"levelo_inurba_marseille","lat":43.29922,"lon":5.36509,"is_reserved":false,"is_disabled":false,"rental_uris":{"android":"levelo://app?vid=9f4370a8-65b0-4b8d-b07b-b373421c8dcd","ios":"levelo://app?vid=9f4370a8-65b0-4b8d-b07b-b373421c8dcd"},"vehicle_type_id":"4","last_reported":1770553594,"current_range_meters":11200,"station_id":"ce4bgm92rcd13ifvqbr0","pricing_plan_id":"cebpf4jnsgd1na2vs0mg"},{"bike_id":"2c6a8d98-8cd8-408a-b9be-31674cd6bf9b","system_id":"levelo_inurba_marseille","lat":43.23784,"lon":5.36634,"is_reserved":false,"is_disabled":false,"rental_uris":{"android":"levelo://app?vid=2c6a8d98-8cd8-408a-b9be-31674cd6bf9b","ios":"levelo://app?vid=2c6a8d98-8cd8-408a-b9be-31674cd6bf9b"},"vehicle_type_id":"4","last_reported":1770553594,"current_range_meters":11200,"station_id":"st_d3nk18o9ro0c73en2l3g","pricing_plan_id":"cebpf4jnsgd1na2vs0mg"},{"bike_id":"ee0a6677-5059-4e6b-9cc8-a58f1076531a","system_id":"levelo_inurba_marseille","lat":43.279987,"lon":5.400101,"is_reserved":false,"is_disabled":false,"rental_uris":{"android":"levelo://app?vid=ee0a6677-5059-4e6b-9cc8-a58f1076531a","ios":"levelo://app?vid=ee0a6677-5059-4e6b-9cc8-a58f1076531a"},"vehicle_type_id":"4","last_reported":1770553594,"current_range_meters":11600,"station_id":"ce4bho92rcd13ifvqh4g","pricing_plan_id":"cebpf4jnsgd1na2vs0mg"},