{"last_updated":1726686468,"ttl":30,"version":"2.2","data":{"bikes":[{"bike_id":"af01be31-f9a2-4821-97fc-d6251c651b29","system_id":"levelo_inurba_marseille","lat":43.287811,"lon":5.384677,"is_reserved":false,"is_disabled":false,"rental_uris":{"android":"levelo://app?vid=af01be31-f9a2-4821-97fc-d6251c651b29","ios":"levelo://app?vid=af01be31-f9a2-4821-97fc-d6251c651b29"},"vehicle_type_id":"4","last_reported":1726686468,"current_range_meters":25600,"station_id":"ce4bgj12rcd13ifvqbc0","pricing_plan_id":"cebpf4jnsgd1na2vs0mg"},{"bike_id":"0288d614-6e4f-4934-ad15-cf509b72b6b9","system_id":"levelo_inurba_marseille","lat":43.27494,"lon":5.42452,"is_reserved":false,"is_disabled":false,"rental_uris":{"android":"levelo://app?vid=0288d614-6e4f-4934-ad15-cf509b72b6b9","ios":"levelo://app?vid=0288d614-6e4f-4934-ad15-cf509b72b6b9"},"vehicle_type_id":"4","last_reported":1726686468,"current_range_meters":39200,"station_id":"ce4bhn92rcd13ifvqgrg","pricing_plan_id":"cebpf4jnsgd1na2vs0mg"},{"bike_id":"2079a78f-59a6-44d5-9b6c-d3692438a29b","system_id":"levelo_inurba_marseille","lat":43.25572,"lon":5.38245,"is_reserved":false,"is_disabled":false,"rental_uris":{"android":"levelo://app?vid=2079a78f-59a6-44d5-9b6c-d3692438a29b","ios":"levelo://app?vid=2079a78f-59a6-44d5-9b6c-d3692438a29b"},"vehicle_type_id":"4","last_reported":1726686468,"current_range_meters":39200,"station_id":"ce4bhih2rcd13ifvqfs0","pricing_plan_id":"cebpf4jnsgd1na2vs0mg"},{"bike_id":"4e716995-f263-4f52-b2fb-2ed7cf45ae45","system_id":"levelo_inurba_marseille","lat":43.28261,"lon":5.35082,"is_reserved":false,"is_disabled":false,"rental_uris":{"android":"levelo://app?vid=4e716995-f263-4f52-b2fb-2ed7cf45ae45","ios":"levelo://app?vid=4e716995-f263-4f52-b2fb-2ed7cf45ae45"},"vehicle_type_id":"4","last_reported":1726686468,"current_range_meters":39200,"station_id":"ce4bhbp2rcd13ifvqerg","pricing_plan_id":"cebpf4jnsgd1na2vs0mg"},{"bike_id":"6a3ddc2a-1be4-4577-a233-5cc468852dcd","system_id":"levelo_inurba_marseille","lat":43.28661,"lon":5.36356,"is_reserved":false,"is_disabled":false,"rental_uris":{"android":"levelo://app?vid=6a3ddc2a-1be4-4577-a233-5cc468852dcd","ios":"levelo://app?vid=6a3ddc2a-1be4-4577-a233-5cc468852dcd"},"vehicle_type_id":"4","last_reported":1726686468,"current_range_meters":12400,"station_id":"ce4bhah2rcd13ifvqej0","pricing_plan_id":"cebpf4jnsgd1na2vs0mg"},{"bike_id":"6cb80f7a-647c-431f-af80-0a5fa80b3e12","system_id":"levelo_inurba_marseille","lat":43.31332,"lon":5.39695,"is_reserved":false,"is_disabled":false,"rental_uris":{"android":"levelo://app?vid=6cb80f7a-647c-431f-af80-0a5fa80b3e12","ios":"levelo://app?vid=6cb80f7a-647c-431f-af80-0a5fa80b3e12"},"vehicle_type_id":"4","last_reported":1726686468,"current_range_meters":14800,"station_id":"ce4bgvp2rcd13ifvqcu0","pricing_plan_id":"cebpf4jnsgd1na2vs0mg"},{"bike_id":"bc429879-8fad-4b8c-9e35-3b3be0e24853","system_id":"levelo_inurba_marseille","lat":43.27796,"lon":5.40734,"is_reserved":false,"is_disabled":false,"rental_uris":{"android":"levelo://app?vid=bc429879-8fad-4b8c-9e35-3b3be0e24853","ios":"levelo://app?vid=bc429879-8fad-4b8c-9e35-3b3be0e24853"},"vehicle_type_id":"4","last_reported":1726686468,"current_range_meters":38800,"station_id":"ce4bhnh2rcd13ifvqgtg","pricing_plan_id":"cebpf4jnsgd1na2vs0mg"},{"bike_id":"ce76674a-54a9-4d24-b324-5dc4a69593ac","system_id":"levelo_inurba_marseille","lat":43.30147,"lon":5.39834,"is_reserved":false,"is_disabled":false,"rental_uris":{"android":"levelo://app?vid=ce76674a-54a9-4d24-b324-5dc4a69593ac","ios":"levelo://app?vid=ce76674a-54a9-4d24-b324-5dc4a69593ac"},"vehicle_type_id":"4","last_reported":1726686468,"current_range_meters":28000,"station_id":"ce4bh0h2rcd13ifvqd40","pricing_plan_id":"cebpf4jnsgd1na2vs0mg"},{"bike_id":"e1fadedc-f09e-4cf8-beff-13971b48a1f7","system_id":"levelo_inurba_marseille","lat":43.2958,"lon":5.37513,"is_reserved":false,"is_disabled":false,"rental_uris":{"android":"levelo://app?vid=e1fadedc-f09e-4cf8-beff-13971b48a1f7","ios":"levelo://app?vid=e1fadedc-f09e-4cf8-beff-13971b48a1f7"},"vehicle_type_id":"4","last_reported":1726686468,"current_range_meters":38800,"station_id":"ce4bgh92rcd13ifvqb50","pricing_plan_id":"cebpf4jnsgd1na2vs0mg"},{"bike_id":"12ca8798-d15b-49cc-a8e7-75f7c34ba400","system_id":"levelo_inurba_marseille","lat":43.33026,"lon":5.39044,"is_reserved":false,"is_disabled":false,"rental_uris":{"android":"levelo://app?vid=12ca8798-d15b-49cc-a8e7-75f7c34ba400","ios":"levelo://app?vid=12ca8798-d15b-49cc-a8e7-75f7c34ba400"},"vehicle_type_id":"4","last_reported":1726686468,"current_range_meters":33600,"station_id":"ce4bhr92rcd13ifvqhrg","pricing_plan_id":"cebpf4jnsgd1na2vs0mg"},{"bike_id":"e532fd53-ad12-4848-82ea-70ac934c1c37","system_id":"levelo_inurba_marseille","lat":43.337444,"lon":5.374475,"is_reserved":false,"is_disabled":false,"rental_uris":{"android":"levelo://app?vid=e532fd53-ad12-4848-82ea-70ac934c1c37","ios":"levelo://app?vid=e532fd53-ad12-4848-82ea-70ac934c1c37"},"vehicle_type_id":"4","last_reported":1726686468,"current_range_meters":19200,"station_id":"","pricing_plan_id":"cebpf4jnsgd1na2vs0mg"},{"bike_id":"f6654f90-1b89-4a49-aa52-82247270e52d","system_id":"levelo_inurba_marseille","lat":43.282678,"lon":5.350619,"is_reserved":false,"is_disabled":false,"rental_uris":{"android":"levelo://app?vid=f6654f90-1b89-4a49-aa52-82247270e52d","ios":"levelo://app?vid=f6654f90-1b89-4a49-aa52-82247270e52d"},"vehicle_type_id":"4","last_reported":1726686468,"current_range_meters":18000,"station_id":"ce4bhbp2rcd13ifvqerg","pricing_plan_id":"cebpf4jnsgd1na2vs0mg"},{"bike_id":"7332dc89-86f5-4102-96be-093ed50799dc","system_id":"levelo_inurba_marseille","lat":43.24658,"lon":5.38163,"is_reserved":false,"is_disabled":false,"rental_uris":{"android":"levelo://app?vid=7332dc89-86f5-4102-96be-093ed50799dc","ios":"levelo://app?vid=7332dc89-86f5-4102-96be-093ed50799dc"},"vehicle_type_id":"4","last_reported":1726686468,"current_range_meters":27200,"station_id":"ce4bhih2rcd13ifvqfr0","pricing_plan_id":"cebpf4jnsgd1na2vs0mg"},{"bike_id":"33bc0665-b3a7-490d-80f2-29887dfd7650","system_id":"levelo_inurba_marseille","lat":43.30795,"lon":5.38167,"is_reserved":false,"is_disabled":false,"rental_uris":{"android":"levelo://app?vid=33bc0665-b3a7-490d-80f2-29887dfd7650","ios":"levelo://app?vid=33bc0665-b3a7-490d-80f2-29887dfd7650"},"vehicle_type_id":"4","last_reported":1726686468,"current_range_meters":17200,"station_id":"ce4bgt12rcd13ifvqce0","pricing_plan_id":"cebpf4jnsgd1na2vs0mg"},{"bike_id":"0e1541be-4757-4c55-b9ae-7fbe65e22263","system_id":"levelo_inurba_marseille","lat":43.28267,"lon":5.35069,"is_reserved":false,"is_disabled":false,"rental_uris":{"android":"levelo://app?vid=0e1541be-4757-4c55-b9ae-7fbe65e22263","ios":"levelo://app?vid=0e1541be-4757-4c55-b9ae-7fbe65e22263"},"vehicle_type_id":"4","last_reported":1726686468,"current_range_meters":27600,"station_id":"ce4bhbp2rcd13ifvqerg","pricing_plan_id":"cebpf4jnsgd1na2vs0mg"},{"bike_id":"df1003b0-3c83-469a-aeeb-2eaf283222f8","system_id":"levelo_inurba_marseille","lat":43.30195,"lon":5.39472,"is_reserved":false,"is_disabled":false,"rental_uris":{"android":"levelo://app?vid=df1003b0-3c83-469a-aeeb-2eaf283222f8","ios":"levelo://app?vid=df1003b0-3c83-469a-aeeb-2eaf283222f8"},"vehicle_type_id":"4","last_reported":1726686468,"current_range_meters":26000,"station_id":"ce4bh0p2rcd13ifvqd70","pricing_plan_id":"cebpf4jnsgd1na2vs0mg"},{"bike_id":"4e871cbb-8554-40d4-8be2-dd07b4559d20","system_id":"levelo_inurba_marseille","lat":43.28615,"lon":5.35102,"is_reserved":false,"is_disabled":false,"rental_uris":{"android":"levelo://app?vid=4e871cbb-8554-40d4-8be2-dd07b4559d20","ios":"levelo://app?vid=4e871cbb-8554-40d4-8be2-dd07b4559d20"},"vehicle_type_id":"4","last_reported":1726686468,"current_range_meters":8000,"station_id":"ce4bhch2rcd13ifvqeug","pricing_plan_id":"cebpf4jnsgd1na2vs0mg"},{"bike_id":"31984896-19d8-4961-9d12-66e62eb7e1b9","system_id":"levelo_inurba_marseille","lat":43.28621,"lon":5.35106,"is_reserved":false,"is_disabled":false,"rental_uris":{"android":"levelo://app?vid=31984896-19d8-4961-9d12-66e62eb7e1b9","ios":"levelo://app?vid=31984896-19d8-4961-9d12-66e62eb7e1b9"},"vehicle_type_id":"4","last_reported":1726686468,"current_range_meters":38800,"station_id":"ce4bhch2rcd13ifvqeug","pricing_plan_id":"cebpf4jnsgd1na2vs0mg"},{"bike_id":"61c3fb8d-f1ae-4f0e-a433-68e4163be93e","system_id":"levelo_inurba_marseille","lat":43.28409,"lon":5.37521,"is_reserved":false,"is_disabled":false,"rental_uris":{"android":"levelo://app?vid=61c3fb8d-f1ae-4f0e-a433-68e4163be93e","ios":"levelo://app?vid=61c3fb8d-f1ae-4f0e-a433-68e4163be93e"},"vehicle_type_id":"4","last_reported":1726686468,"current_range_meters":7200,"station_id":"ce4bh412rcd13ifvqds0","pricing_plan_id":"cebpf4jnsgd1na2vs0mg"},{"bike_id":"2793acf7-27bd-4a62-97d5-8c8605f27efc","system_id":"levelo_inurba_marseille","lat":43.30349,"lon":5.41869,"is_reserved":false,"is_disabled":false,"rental_uris":{"android":"levelo://app?vid=2793acf7-27bd-4a62-97d5-8c8605f27efc","ios":"levelo://app?vid=2793acf7-27bd-4a62-97d5-8c8605f27efc"},"vehicle_type_id":"4","last_reported":1726686468,"current_range_meters":33200,"station_id":"ce4bhop2rcd13ifvqh7g","pricing_plan_id":"cebpf4jnsgd1na2vs0mg"},{"bike_id":"1f65a9e2-9c3c-4e63-bd48-566027e8f1fb","system_id":"levelo_inurba_marseille","lat":43.29291,"lon":5.37473,"is_reserved":false,"is_disabled":false,"rental_uris":{"android":"levelo://app?vid=1f65a9e2-9c3c-4e63-bd48-566027e8f1fb","ios":"levelo://app?vid=1f65a9e2-9c3c-4e63-bd48-566027e8f1fb"},"vehicle_type_id":"4","last_reported":1726686468,"current_range_meters":30400,"station_id":"ce4bgi12rcd13ifvqb70","pricing_plan_id":"cebpf4jnsgd1na2vs0mg"},{"bike_id":"3a50afd2-cdfd-4dd4-900b-cf09c58ce3d6","system_id":"levelo_inurba_marseille","lat":43.2707,"lon":5.42283,"is_reserved":false,"is_disabled":false,"rental_uris":{"android":"levelo://app?vid=3a50afd2-cdfd-4dd4-900b-cf09c58ce3d6","ios":"levelo://app?vid=3a50afd2-cdfd-4dd4-900b-cf09c58ce3d6"},"vehicle_type_id":"4","last_reported":1726686468,"current_range_meters":32400,"station_id":"ce4bhk92rcd13ifvqgb0","pricing_plan_id":"cebpf4jnsgd1na2vs0mg"},{"bike_id":"1990f9ed-b0a9-4db5-8aa8-97b4d764c0af","system_id":"levelo_inurba_marseille","lat":43.26685,"lon":5.38273,"is_reserved":false,"is_disabled":false,"rental_uris":{"android":"levelo://app?vid=1990f9ed-b0a9-4db5-8aa8-97b4d764c0af","ios":"levelo://app?vid=1990f9ed-b0a9-4db5-8aa8-97b4d764c0af"},"vehicle_type_id":"4","last_reported":1726686468,"current_range_meters":38800,"station_id":"ce4bhg92rcd13ifvqf90","pricing_plan_id":"cebpf4jnsgd1na2vs0mg"},{"bike_id":"2f2579d7-da8e-4d48-acd6-80dced6622e3","system_id":"levelo_inurba_marseille","lat":43.29023,"lon":5.37557,"is_reserved":false,"is_disabled":false,"rental_uris":{"android":"levelo://app?vid=2f2579d7-da8e-4d48-acd6-80dced6622e3","ios":"levelo://app?vid=2f2579d7-da8e-4d48-acd6-80dced6622e3"},"vehicle_type_id":"4","last_reported":1726686468,"current_range_meters":8000,"station_id":"ce4bh692rcd13ifvqe90","pricing_plan_id":"cebpf4jnsgd1na2vs0mg"},{"bike_id":"bed91c9d-d86a-48eb-9707-c4bc0626e228","system_id":"levelo_inurba_marseille","lat":43.255,"lon":5.376452,"is_reserved":false,"is_disabled":false,"rental_uris":{"android":"levelo://app?vid=bed91c9d-d86a-48eb-9707-c4bc0626e228","ios":"levelo://app?vid=bed91c9d-d86a-48eb-9707-c4bc0626e228"},"vehicle_type_id":"4","last_reported":1726686468,"current_range_meters":27600,"station_id":"ce4bhih2rcd13ifvqfr0","pricing_plan_id":"cebpf4jnsgd1na2vs0mg"},{"bike_id":"c8b16021-ad4f-4c1b-80b1-7d1b9c811227","system_id":"levelo_inurba_marseille","lat":43.32361,"lon":5.3888,"is_reserved":false,"is_disabled":false,"rental_uris":{"android":"levelo://app?vid=c8b16021-ad4f-4c1b-80b1-7d1b9c811227","ios":"levelo://app?vid=c8b16021-ad4f-4c1b-80b1-7d1b9c811227"},"vehicle_type_id":"4","last_reported":1726686468,"current_range_meters":8400,"station_id":"ce4bhqp2rcd13ifvqhog","pricing_plan_id":"cebpf4jnsgd1na2vs0mg"},{"bike_id":"e8fbff76-6531-4b77-a667-db6012efeccc","system_id":"levelo_inurba_marseille","lat":43.29632,"lon":5.37589,"is_reserved":false,"is_disabled":false,"rental_uris":{"android":"levelo://app?vid=e8fbff76-6531-4b77-a667-db6012efeccc","ios":"levelo://app?vid=e8fbff76-6531-4b77-a667-db6012efeccc"},"vehicle_type_id":"4","last_reported":1726686468,"current_range_meters":9600,"station_id":"","pricing_plan_id":"cebpf4jnsgd1na2vs0mg"},{"bike_id":"ec54959f-68bb-4c01-b733-05aa7089c25f","system_id":"levelo_inurba_marseille","lat":43.26567,"lon":5.3901,"is_reserved":false,"is_disabled":false,"rental_uris":{"android":"levelo://app?vid=ec54959f-68bb-4c01-b733-05aa7089c25f","ios":"levelo://app?vid=ec54959f-68bb-4c01-b733-05aa7089c25f"},"vehicle_type_id":"4","last_reported":1726686468,"current_range_meters":8400,"station_id":"ce4bhe12rcd13ifvqf30","pricing_plan_id":"cebpf4jnsgd1na2vs0mg"},{"bike_id":"734aa74e-b926-4042-9aab-1e80809573f6","system_id":"levelo_inurba_marseille","lat":43.28678,"lon":5.38693,"is_reserved":false,"is_disabled":false,"rental_uris":{"android":"levelo://app?vid=734aa74e-b926-4042-9aab-1e80809573f6","ios":"levelo://app?vid=734aa74e-b926-4042-9aab-1e80809573f6"},"vehicle_type_id":"4","last_reported":1726686468,"current_range_meters":27200,"station_id":"","pricing_plan_id":"cebpf4jnsgd1na2vs0mg"},{"bike_id":"6fca5209-2cfc-475c-bf2d-19e350f4b119","system_id":"levelo_inurba_marseille","lat":43.31185,"lon":5.3876,"is_reserved":false,"is_disabled":false,"rental_uris":{"android":"levelo://app?vid=6fca5209-2cfc-475c-bf2d-19e350f4b119","ios":"levelo://app?vid=6fca5209-2cfc-475c-bf2d-19e350f4b119"},"vehicle_type_id":"4","last_reported":1726686468,"current_range_meters":33600,"station_id":"ce4bgv12rcd13ifvqcp0","pricing_plan_id":"cebpf4jnsgd1na2vs0mg"},{"bike_id":"01d4723d-68cd-4b49-b3ec-2f7c5f367b24","system_id":"levelo_inurba_marseille","lat":43.30125,"lon":5.38781,"is_reserved":false,"is_disabled":false,"rental_uris":{"android":"levelo://app?vid=01d4723d-68cd-4b49-b3ec-2f7c5f367b24","ios":"levelo://app?vid=01d4723d-68cd-4b49-b3ec-2f7c5f367b24"},"vehicle_type_id":"4","last_reported":1726686468,"current_range_meters":38800,"station_id":"ce4bghh2rcd13ifvqb60","pricing_plan_id":"cebpf4jnsgd1na2vs0mg"},{"bike_id":"90d40abe-b095-4f0b-8811-2a51c6549295","system_id":"levelo_inurba_marseille","lat":43.26057,"lon":5.39397,"is_reserved":false,"is_disabled":false,"rental_uris":{"android":"levelo://app?vid=90d40abe-b095-4f0b-8811-2a51c6549295","ios":"levelo://app?vid=90d40abe-b095-4f0b-8811-2a51c6549295"},"vehicle_type_id":"4","last_reported":1726686468,"current_range_meters":38800,"station_id":"ce4bhh92rcd13ifvqfj0","pricing_plan_id":"cebpf4jnsgd1na2vs0mg"},{"bike_id":"187f7ecf-ccc0-4e0f-a855-d748a5435d6f","system_id":"levelo_inurba_marseille","lat":43.24664,"lon":5.38162,"is_reserved":false,"is_disabled":false,"rental_uris":{"android":"levelo://app?vid=187f7ecf-ccc0-4e0f-a855-d748a5435d6f","ios":"levelo://app?vid=187f7ecf-ccc0-4e0f-a855-d748a5435d6f"},"vehicle_type_id":"4","last_reported":1726686468,"current_range_meters":22400,"station_id":"ce4bhih2rcd13ifvqfr0","pricing_plan_id":"cebpf4jnsgd1na2vs0mg"},{"bike_id":"3ceb4910-26dd-4e94-a3d0-4274cb5a83f0","system_id":"levelo_inurba_marseille","lat":43.30125,"lon":5.40285,"is_reserved":false,"is_disabled":false,"rental_uris":{"android":"levelo://app?vid=3ceb4910-26dd-4e94-a3d0-4274cb5a83f0","ios":"levelo://app?vid=3ceb4910-26dd-4e94-a3d0-4274cb5a83f0"},"vehicle_type_id":"4","last_reported":1726686468,"current_range_meters":6000,"station_id":"","pricing_plan_id":"cebpf4jnsgd1na2vs0mg"},{"bike_id":"0a3ffc0e-8e0f-478e-a002-b5e086f1ac54","system_id":"levelo_inurba_marseille","lat":43.25729,"lon":5.411,"is_reserved":false,"is_disabled":false,"rental_uris":{"android":"levelo://app?vid=0a3ffc0e-8e0f-478e-a002-b5e086f1ac54","ios":"levelo://app?vid=0a3ffc0e-8e0f-478e-a002-b5e086f1ac54"},"vehicle_type_id":"4","last_reported":1726686468,"current_range_meters":20000,"station_id":"ce4bhkp2rcd13ifvqgd0","pricing_plan_id":"cebpf4jnsgd1na2vs0mg"},{"bike_id":"0cf3bedc-a8fa-4df5-8766-6b213d975bd8","system_id":"levelo_inurba_marseille","lat":43.26931,"lon":5.38922,"is_reserved":false,"is_disabled":false,"rental_uris":{"android":"levelo://app?vid=0cf3bedc-a8fa-4df5-8766-6b213d975bd8","ios":"levelo://app?vid=0cf3bedc-a8fa-4df5-8766-6b213d975bd8"},"vehicle_type_id":"4","last_reported":1726686468,"current_range_meters":37600,"station_id":"ce4bhhh2rcd13ifvqfl0","pricing_plan_id":"cebpf4jnsgd1na2vs0mg"},{"bike_id":"5c20a958-d490-41db-84a7-f9730ee7ce03","system_id":"levelo_inurba_marseille","lat":43.2957,"lon":5.39966,"is_reserved":false,"is_disabled":false,"rental_uris":{"android":"levelo://app?vid=5c20a958-d490-41db-84a7-f9730ee7ce03","ios":"levelo://app?vid=5c20a958-d490-41db-84a7-f9730ee7ce03"},"vehicle_type_id":"4","last_reported":1726686468,"current_range_meters":22800,"station_id":"ce4bh312rcd13ifvqdj0","pricing_plan_id":"cebpf4jnsgd1na2vs0mg"},{"bike_id":"89f2d659-ec39-4790-bbe0-f6b32620a517","system_id":"levelo_inurba_marseille","lat":43.29713,"lon":5.36606,"is_reserved":false,"is_disabled":false,"rental_uris":{"android":"levelo://app?vid=89f2d659-ec39-4790-bbe0-f6b32620a517","ios":"levelo://app?vid=89f2d659-ec39-4790-bbe0-f6b32620a517"},"vehicle_type_id":"4","last_reported":1726686468,"current_range_meters":20800,"station_id":"ce4bgn12rcd13ifvqbt0","pricing_plan_id":"cebpf4jnsgd1na2vs0mg"},{"bike_id":"24641779-415d-49d6-b668-ff2afcba106a","system_id":"levelo_inurba_marseille","lat":43.29628,"lon":5.40602,"is_reserved":false,"is_disabled":false,"rental_uris":{"android":"levelo://app?vid=24641779-415d-49d6-b668-ff2afcba106a","ios":"levelo://app?vid=24641779-415d-49d6-b668-ff2afcba106a"},"vehicle_type_id":"4","last_reported":1726686468,"current_range_meters":16000,"station_id":"ce4bh0h2rcd13ifvqd60","pricing_plan_id":"cebpf4jnsgd1na2vs0mg"},{"bike_id":"ab8b1643-9e7f-47cc-b599-33f414e2c958","system_id":"levelo_inurba_marseille","lat":43.23179,"lon":5.39995,"is_reserved":false,"is_disabled":false,"rental_uris":{"android":"levelo://app?vid=ab8b1643-9e7f-47cc-b599-33f414e2c958","ios":"levelo://app?vid=ab8b1643-9e7f-47cc-b599-33f414e2c958"},"vehicle_type_id":"4","last_reported":1726686468,"current_range_meters":38800,"station_id":"ce4bhn12rcd13ifvqgqg","pricing_plan_id":"cebpf4jnsgd1na2vs0mg"},{"bike_id":"ddc2f7e6-d23b-4d89-96bc-a18a7029d574","system_id":"levelo_inurba_marseille","lat":43.31753,"lon":5.39019,"is_reserved":false,"is_disabled":false,"rental_uris":{"android":"levelo://app?vid=ddc2f7e6-d23b-4d89-96bc-a18a7029d574","ios":"levelo://app?vid=ddc2f7e6-d23b-4d89-96bc-a18a7029d574"},"vehicle_type_id":"4","last_reported":1726686468,"current_range_meters":30000,"station_id":"ce4bhqp2rcd13ifvqhng","pricing_plan_id":"cebpf4jnsgd1na2vs0mg"},{"bike_id":"c2667222-5d26-4d9c-a938-761c480fe584","system_id":"levelo_inurba_marseille","lat":43.33024,"lon":5.39049,"is_reserved":false,"is_disabled":false,"rental_uris":{"android":"levelo://app?vid=c2667222-5d26-4d9c-a938-761c480fe584","ios":"levelo://app?vid=c2667222-5d26-4d9c-a938-761c480fe584"},"vehicle_type_id":"4","last_reported":1726686468,"current_range_meters":9200,"station_id":"ce4bhr92rcd13ifvqhrg","pricing_plan_id":"cebpf4jnsgd1na2vs0mg"},{"bike_id":"41457f18-e63a-45c8-aa25-17486c265b14","system_id":"levelo_inurba_marseille","lat":43.302399,"lon":5.40053,"is_reserved":false,"is_disabled":false,"rental_uris":{"android":"levelo://app?vid=41457f18-e63a-45c8-aa25-17486c265b14","ios":"levelo://app?vid=41457f18-e63a-45c8-aa25-17486c265b14"},"vehicle_type_id":"4","last_reported":1726686468,"current_range_meters":23200,"station_id":"ce4bgvh2rcd13ifvqcs0","pricing_plan_id":"cebpf4jnsgd1na2vs0mg"},{"bike_id":"3af0d51b-5d00-4b16-bf0a-8089f8a4f138","system_id":"levelo_inurba_marseille","lat":43.29279,"lon":5.40137,"is_reserved":false,"is_disabled":false,"rental_uris":{"android":"levelo://app?vid=3af0d51b-5d00-4b16-bf0a-8089f8a4f138","ios":"levelo://app?vid=3af0d51b-5d00-4b16-bf0a-8089f8a4f138"},"vehicle_type_id":"4","last_reported":1726686468,"current_range_meters":2800,"station_id":"ce4bh312rcd13ifvqdk0","pricing_plan_id":"cebpf4jnsgd1na2vs0mg"},{"bike_id":"67862bba-f398-466f-ba35-b4de292b2526","system_id":"levelo_inurba_marseille","lat":43.25722,"lon":5.41104,"is_reserved":false,"is_disabled":false,"rental_uris":{"android":"levelo://app?vid=67862bba-f398-466f-ba35-b4de292b2526","ios":"levelo://app?vid=67862bba-f398-466f-ba35-b4de292b2526"},"vehicle_type_id":"4","last_reported":1726686468,"current_range_meters":38800,"station_id":"ce4bhkp2rcd13ifvqgd0","pricing_plan_id":"cebpf4jnsgd1na2vs0mg"},{"bike_id":"6dac8f14-133e-4a79-8702-bd4e74095672","system_id":"levelo_inurba_marseille","lat":43.292969,"lon":5.374687,"is_reserved":false,"is_disabled":false,"rental_uris":{"android":"levelo://app?vid=6dac8f14-133e-4a79-8702-bd4e74095672","ios":"levelo://app?vid=6dac8f14-133e-4a79-8702-bd4e74095672"},"vehicle_type_id":"4","last_reported":1726686468,"current_range_meters":14000,"station_id":"","pricing_plan_id":"cebpf4jnsgd1na2vs0mg"},{"bike_id":"608bc886-7142-4d07-8c02-3bda548dc5a6","system_id":"levelo_inurba_marseille","lat":43.2926,"lon":5.38444,"is_reserved":false,"is_disabled":false,"rental_uris":{"android":"levelo://app?vid=608bc886-7142-4d07-8c02-3bda548dc5a6","ios":"levelo://app?vid=608bc886-7142-4d07-8c02-3bda548dc5a6"},"vehicle_type_id":"4","last_reported":1726686468,"current_range_meters":36800,"station_id":"ce4bh692rcd13ifvqea0","pricing_plan_id":"cebpf4jnsgd1na2vs0mg"},{"bike_id":"bd100488-c448-4f25-897e-cfd9e6863224","system_id":"levelo_inurba_marseille","lat":43.28259,"lon":5.35073,"is_reserved":false,"is_disabled":false,"rental_uris":{"android":"levelo://app?vid=bd100488-c448-4f25-897e-cfd9e6863224","ios":"levelo://app?vid=bd100488-c448-4f25-897e-cfd9e6863224"},"vehicle_type_id":"4","last_reported":1726686468,"current_range_meters":28800,"station_id":"ce4bhbp2rcd13ifvqerg","pricing_plan_id":"cebpf4jnsgd1na2vs0mg"},{"bike_id":"215e1243-d773-4d5c-99dd-c9c39a44c76c","system_id":"levelo_inurba_marseille","lat":43.312622,"lon":5.401706,"is_reserved":false,"is_disabled":false,"rental_uris":{"android":"levelo://app?vid=215e1243-d773-4d5c-99dd-c9c39a44c76c","ios":"levelo://app?vid=215e1243-d773-4d5c-99dd-c9c39a44c76c"},"vehicle_type_id":"4","last_reported":1726686468,"current_range_meters":36400,"station_id":"ce4bh092rcd13ifvqd30","pricing_plan_id":"cebpf4jnsgd1na2vs0mg"},{"bike_id":"30273ac5-f770-4374-869e-af69990c2ec7","system_id":"levelo_inurba_marseille","lat":43.29524,"lon":5.39041,"is_reserved":false,"is_disabled":false,"rental_uris":{"android":"levelo://app?vid=30273ac5-f770-4374-869e-af69990c2ec7","ios":"levelo://app?vid=30273ac5-f770-4374-869e-af69990c2ec7"},"vehicle_type_id":"4","last_reported":1726686468,"current_range_meters":36800,"station_id":"ce4bh3p2rcd13ifvqdp0","pricing_plan_id":"cebpf4jnsgd1na2vs0mg"},{"bike_id":"4528b7b7-3d6f-43be-a4e4-4303143e96c8","system_id":"levelo_inurba_marseille","lat":43.30274,"lon":5.37701,"is_reserved":false,"is_disabled":false,"rental_uris":{"android":"levelo://app?vid=4528b7b7-3d6f-43be-a4e4-4303143e96c8","ios":"levelo://app?vid=4528b7b7-3d6f-43be-a4e4-4303143e96c8"},"vehicle_type_id":"4","last_reported":1726686468,"current_range_meters":16400,"station_id":"ce4bguh2rcd13ifvqcj0","pricing_plan_id":"cebpf4jnsgd1na2vs0mg"},{"bike_id":"0c2516aa-5bff-41e5-8b39-bac87b60df3b","system_id":"levelo_inurba_marseille","lat":43.29179,"lon":5.37148,"is_reserved":false,"is_disabled":false,"rental_uris":{"android":"levelo://app?vid=0c2516aa-5bff-41e5-8b39-bac87b60df3b","ios":"levelo://app?vid=0c2516aa-5bff-41e5-8b39-bac87b60df3b"},"vehicle_type_id":"4","last_reported":1726686468,"current_range_meters":24000,"station_id":"ce4bha92rcd13ifvqeh0","pricing_plan_id":"cebpf4jnsgd1na2vs0mg"},{"bike_id":"d325cef9-4c42-4313-82a5-afd80f597758","system_id":"levelo_inurba_marseille","lat":43.3091,"lon":5.3685,"is_reserved":false,"is_disabled":false,"rental_uris":{"android":"levelo://app?vid=d325cef9-4c42-4313-82a5-afd80f597758","ios":"levelo://app?vid=d325cef9-4c42-4313-82a5-afd80f597758"},"vehicle_type_id":"4","last_reported":1726686468,"current_range_meters":38800,"station_id":"ce4bgn92rcd13ifvqbvg","pricing_plan_id":"cebpf4jnsgd1na2vs0mg"},{"bike_id":"f73cab25-e77c-47a3-8def-b8875f74ecae","system_id":"levelo_inurba_marseille","lat":43.27808,"lon":5.39209,"is_reserved":false,"is_disabled":false,"rental_uris":{"android":"levelo://app?vid=f73cab25-e77c-47a3-8def-b8875f74ecae","ios":"levelo://app?vid=f73cab25-e77c-47a3-8def-b8875f74ecae"},"vehicle_type_id":"4","last_reported":1726686468,"current_range_meters":9200,"station_id":"ce4bhjp2rcd13ifvqga0","pricing_plan_id":"cebpf4jnsgd1na2vs0mg"},{"bike_id":"0dd3cd64-9b1b-470d-90e1-cb799c6f2a9b","system_id":"levelo_inurba_marseille","lat":43.24071,"lon":5.37763,"is_reserved":false,"is_disabled":false,"rental_uris":{"android":"levelo://app?vid=0dd3cd64-9b1b-470d-90e1-cb799c6f2a9b","ios":"levelo://app?vid=0dd3cd64-9b1b-470d-90e1-cb799c6f2a9b"},"vehicle_type_id":"4","last_reported":1726686468,"current_range_meters":16400,"station_id":"ce4bhnp2rcd13ifvqgvg","pricing_plan_id":"cebpf4jnsgd1na2vs0mg"},{"bike_id":"3681120e-e611-4cdd-bbd2-18c63b746d28","system_id":"levelo_inurba_marseille","lat":43.29568,"lon":5.39969,"is_reserved":false,"is_disabled":false,"rental_uris":{"android":"levelo://app?vid=3681120e-e611-4cdd-bbd2-18c63b746d28","ios":"levelo://app?vid=3681120e-e611-4cdd-bbd2-18c63b746d28"},"vehicle_type_id":"4","last_reported":1726686468,"current_range_meters":28000,"station_id":"ce4bh312rcd13ifvqdj0","pricing_plan_id":"cebpf4jnsgd1na2vs0mg"},{"bike_id":"a8cf1998-7f9f-4af3-9620-4b99d5e3ad99","system_id":"levelo_inurba_marseille","lat":43.28458,"lon":5.35881,"is_reserved":false,"is_disabled":false,"rental_uris":{"android":"levelo://app?vid=a8cf1998-7f9f-4af3-9620-4b99d5e3ad99","ios":"levelo://app?vid=a8cf1998-7f9f-4af3-9620-4b99d5e3ad99"},"vehicle_type_id":"4","last_reported":1726686468,"current_range_meters":20800,"station_id":"ce4bhah2rcd13ifvqei0","pricing_plan_id":"cebpf4jnsgd1na2vs0mg"},{"bike_id":"646b3e73-3d30-4b6d-a473-ca7cbdd4be03","system_id":"levelo_inurba_marseille","lat":43.29001,"lon":5.35615,"is_reserved":false,"is_disabled":false,"rental_uris":{"android":"levelo://app?vid=646b3e73-3d30-4b6d-a473-ca7cbdd4be03","ios":"levelo://app?vid=646b3e73-3d30-4b6d-a473-ca7cbdd4be03"},"vehicle_type_id":"4","last_reported":1726686468,"current_range_meters":16400,"station_id":"ce4bhb92rcd13ifvqen0","pricing_plan_id":"cebpf4jnsgd1na2vs0mg"},{"bike_id":"0b6b7b86-a195-45b6-a89a-efbdff713263","system_id":"levelo_inurba_marseille","lat":43.30074,"lon":5.39087,"is_reserved":false,"is_disabled":false,"rental_uris":{"android":"levelo://app?vid=0b6b7b86-a195-45b6-a89a-efbdff713263","ios":"levelo://app?vid=0b6b7b86-a195-45b6-a89a-efbdff713263"},"vehicle_type_id":"4","last_reported":1726686468,"current_range_meters":3200,"station_id":"ce4bh192rcd13ifvqdb0","pricing_plan_id":"cebpf4jnsgd1na2vs0mg"},{"bike_id":"a5c5147f-6437-4391-b265-ea09784a3d69","system_id":"levelo_inurba_marseille","lat":43.2587,"lon":5.39897,"is_reserved":false,"is_disabled":false,"rental_uris":{"android":"levelo://app?vid=a5c5147f-6437-4391-b265-ea09784a3d69","ios":"levelo://app?vid=a5c5147f-6437-4391-b265-ea09784a3d69"},"vehicle_type_id":"4","last_reported":1726686468,"current_range_meters":36000,"station_id":"ce4bhl92rcd13ifvqghg","pricing_plan_id":"cebpf4jnsgd1na2vs0mg"},{"bike_id":"33fd88cc-39de-4ce5-bfe7-d0b5e5bb1327","system_id":"levelo_inurba_marseille","lat":43.3171,"lon":5.43705,"is_reserved":false,"is_disabled":false,"rental_uris":{"android":"levelo://app?vid=33fd88cc-39de-4ce5-bfe7-d0b5e5bb1327","ios":"levelo://app?vid=33fd88cc-39de-4ce5-bfe7-d0b5e5bb1327"},"vehicle_type_id":"4","last_reported":1726686468,"current_range_meters":25200,"station_id":"ce4bhp92rcd13ifvqhcg","pricing_plan_id":"cebpf4jnsgd1na2vs0mg"},{"bike_id":"8f63ed9f-0d3a-4ab5-baf2-ef0c4ac64707","system_id":"levelo_inurba_marseille","lat":43.29553,"lon":5.42286,"is_reserved":false,"is_disabled":false,"rental_uris":{"android":"levelo://app?vid=8f63ed9f-0d3a-4ab5-baf2-ef0c4ac64707","ios":"levelo://app?vid=8f63ed9f-0d3a-4ab5-baf2-ef0c4ac64707"},"vehicle_type_id":"4","last_reported":1726686468,"current_range_meters":37600,"station_id":"ce4bhph2rcd13ifvqhdg","pricing_plan_id":"cebpf4jnsgd1na2vs0mg"},{"bike_id":"44b3b041-d9ea-4dd2-9333-d1f77a4bb946","system_id":"levelo_inurba_marseille","lat":43.27949,"lon":5.38699,"is_reserved":false,"is_disabled":false,"rental_uris":{"android":"levelo://app?vid=44b3b041-d9ea-4dd2-9333-d1f77a4bb946","ios":"levelo://app?vid=44b3b041-d9ea-4dd2-9333-d1f77a4bb946"},"vehicle_type_id":"4","last_reported":1726686468,"current_range_meters":38000,"station_id":"ce4bhg12rcd13ifvqf80","pricing_plan_id":"cebpf4jnsgd1na2vs0mg"},{"bike_id":"31e00c59-4572-451d-a487-74cf85030448","system_id":"levelo_inurba_marseille","lat":43.30774,"lon":5.37654,"is_reserved":false,"is_disabled":false,"rental_uris":{"android":"levelo://app?vid=31e00c59-4572-451d-a487-74cf85030448","ios":"levelo://app?vid=31e00c59-4572-451d-a487-74cf85030448"},"vehicle_type_id":"4","last_reported":1726686468,"current_range_meters":4400,"station_id":"ce4bgv92rcd13ifvqcq0","pricing_plan_id":"cebpf4jnsgd1na2vs0mg"},{"bike_id":"beb15bd0-b449-4862-b0ef-bc6b9508122c","system_id":"levelo_inurba_marseille","lat":43.27613,"lon":5.36116,"is_reserved":false,"is_disabled":false,"rental_uris":{"android":"levelo://app?vid=beb15bd0-b449-4862-b0ef-bc6b9508122c","ios":"levelo://app?vid=beb15bd0-b449-4862-b0ef-bc6b9508122c"},"vehicle_type_id":"4","last_reported":1726686468,"current_range_meters":7200,"station_id":"ce4bgj92rcd13ifvqbe0","pricing_plan_id":"cebpf4jnsgd1na2vs0mg"},{"bike_id":"d1d285b9-a61b-4822-b5aa-4e98478fb445","system_id":"levelo_inurba_marseille","lat":43.29283,"lon":5.4013,"is_reserved":false,"is_disabled":false,"rental_uris":{"android":"levelo://app?vid=d1d285b9-a61b-4822-b5aa-4e98478fb445","ios":"levelo://app?vid=d1d285b9-a61b-4822-b5aa-4e98478fb445"},"vehicle_type_id":"4","last_reported":1726686468,"current_range_meters":22000,"station_id":"ce4bh312rcd13ifvqdk0","pricing_plan_id":"cebpf4jnsgd1na2vs0mg"},{"bike_id":"5d78b308-9505-4ed0-832a-dc6eb31a5971","system_id":"levelo_inurba_marseille","lat":43.25579,"lon":5.38229,"is_reserved":false,"is_disabled":false,"rental_uris":{"android":"levelo://app?vid=5d78b308-9505-4ed0-832a-dc6eb31a5971","ios":"levelo://app?vid=5d78b308-9505-4ed0-832a-dc6eb31a5971"},"vehicle_type_id":"4","last_reported":1726686468,"current_range_meters":24800,"station_id":"ce4bhih2rcd13ifvqfs0","pricing_plan_id":"cebpf4jnsgd1na2vs0mg"},{"bike_id":"364da7cb-f4d3-4ae3-b35d-69a450e5109c","system_id":"levelo_inurba_marseille","lat":43.279,"lon":5.38016,"is_reserved":false,"is_disabled":false,"rental_uris":{"android":"levelo://app?vid=364da7cb-f4d3-4ae3-b35d-69a450e5109c","ios":"levelo://app?vid=364da7cb-f4d3-4ae3-b35d-69a450e5109c"},"vehicle_type_id":"4","last_reported":1726686468,"current_range_meters":8400,"station_id":"ce4bhf92rcd13ifvqf50","pricing_plan_id":"cebpf4jnsgd1na2vs0mg"},{"bike_id":"ba54f573-336a-40ad-b931-1ca2a8b1e077","system_id":"levelo_inurba_marseille","lat":43.25819,"lon":5.39437,"is_reserved":false,"is_disabled":false,"rental_uris":{"android":"levelo://app?vid=ba54f573-336a-40ad-b931-1ca2a8b1e077","ios":"levelo://app?vid=ba54f573-336a-40ad-b931-1ca2a8b1e077"},"vehicle_type_id":"4","last_reported":1726686468,"current_range_meters":38800,"station_id":"ce4bhip2rcd13ifvqft0","pricing_plan_id":"cebpf4jnsgd1na2vs0mg"},{"bike_id":"4cda1419-d3bd-4034-886b-4553c41e863d","system_id":"levelo_inurba_marseille","lat":43.28924,"lon":5.36644,"is_reserved":false,"is_disabled":false,"rental_uris":{"android":"levelo://app?vid=4cda1419-d3bd-4034-886b-4553c41e863d","ios":"levelo://app?vid=4cda1419-d3bd-4034-886b-4553c41e863d"},"vehicle_type_id":"4","last_reported":1726686468,"current_range_meters":22000,"station_id":"ce4bhap2rcd13ifvqek0","pricing_plan_id":"cebpf4jnsgd1na2vs0mg"},{"bike_id":"89032a77-9464-4c19-a181-2011b45be0e9","system_id":"levelo_inurba_marseille","lat":43.25105,"lon":5.40329,"is_reserved":false,"is_disabled":false,"rental_uris":{"android":"levelo://app?vid=89032a77-9464-4c19-a181-2011b45be0e9","ios":"levelo://app?vid=89032a77-9464-4c19-a181-2011b45be0e9"},"vehicle_type_id":"4","last_reported":1726686468,"current_range_meters":22800,"station_id":"ce4bhlh2rcd13ifvqgig","pricing_plan_id":"cebpf4jnsgd1na2vs0mg"},{"bike_id":"34773d52-8757-498a-add0-9b3fcbba7821","system_id":"levelo_inurba_marseille","lat":43.28417,"lon":5.34987,"is_reserved":false,"is_disabled":false,"rental_uris":{"android":"levelo://app?vid=34773d52-8757-498a-add0-9b3fcbba7821","ios":"levelo://app?vid=34773d52-8757-498a-add0-9b3fcbba7821"},"vehicle_type_id":"4","last_reported":1726686468,"current_range_meters":6800,"station_id":"ce4bhbh2rcd13ifvqepg","pricing_plan_id":"cebpf4jnsgd1na2vs0mg"},{"bike_id":"723a42f7-f4aa-4445-a27f-e7ce35c459e9","system_id":"levelo_inurba_marseille","lat":43.29367,"lon":5.37842,"is_reserved":false,"is_disabled":false,"rental_uris":{"android":"levelo://app?vid=723a42f7-f4aa-4445-a27f-e7ce35c459e9","ios":"levelo://app?vid=723a42f7-f4aa-4445-a27f-e7ce35c459e9"},"vehicle_type_id":"4","last_reported":1726686468,"current_range_meters":21600,"station_id":"ce4bgjh2rcd13ifvqbf0","pricing_plan_id":"cebpf4jnsgd1na2vs0mg"},{"bike_id":"36790754-4913-4156-83ef-83de91ead0a7","system_id":"levelo_inurba_marseille","lat":43.27325,"lon":5.391,"is_reserved":false,"is_disabled":false,"rental_uris":{"android":"levelo://app?vid=36790754-4913-4156-83ef-83de91ead0a7","ios":"levelo://app?vid=36790754-4913-4156-83ef-83de91ead0a7"},"vehicle_type_id":"4","last_reported":1726686468,"current_range_meters":39200,"station_id":"ce4bhgp2rcd13ifvqfe0","pricing_plan_id":"cebpf4jnsgd1na2vs0mg"},{"bike_id":"89d2e671-f0b9-44b6-9f35-a805a345c1b2","system_id":"levelo_inurba_marseille","lat":43.29021,"lon":5.38643,"is_reserved":false,"is_disabled":false,"rental_uris":{"android":"levelo://app?vid=89d2e671-f0b9-44b6-9f35-a805a345c1b2","ios":"levelo://app?vid=89d2e671-f0b9-44b6-9f35-a805a345c1b2"},"vehicle_type_id":"4","last_reported":1726686468,"current_range_meters":14400,"station_id":"ce4bh4p2rcd13ifvqe0g","pricing_plan_id":"cebpf4jnsgd1na2vs0mg"},{"bike_id":"7a795971-b5fd-4366-868f-8bf46f015c47","system_id":"levelo_inurba_marseille","lat":43.29573,"lon":5.39982,"is_reserved":false,"is_disabled":false,"rental_uris":{"android":"levelo://app?vid=7a795971-b5fd-4366-868f-8bf46f015c47","ios":"levelo://app?vid=7a795971-b5fd-4366-868f-8bf46f015c47"},"vehicle_type_id":"4","last_reported":1726686468,"current_range_meters":38000,"station_id":"ce4bh312rcd13ifvqdj0","pricing_plan_id":"cebpf4jnsgd1na2vs0mg"},{"bike_id":"aaf76d3e-3d39-4ed3-9e3b-76d8eacf89aa","system_id":"levelo_inurba_marseille","lat":43.29572,"lon":5.39972,"is_reserved":false,"is_disabled":false,"rental_uris":{"android":"levelo://app?vid=aaf76d3e-3d39-4ed3-9e3b-76d8eacf89aa","ios":"levelo://app?vid=aaf76d3e-3d39-4ed3-9e3b-76d8eacf89aa"},"vehicle_type_id":"4","last_reported":1726686468,"current_range_meters":12400,"station_id":"ce4bh312rcd13ifvqdj0","pricing_plan_id":"cebpf4jnsgd1na2vs0mg"},{"bike_id":"ef34c70d-2e65-48fd-bb4f-c142f621d359","system_id":"levelo_inurba_marseille","lat":43.24545,"lon":5.39527,"is_reserved":false,"is_disabled":false,"rental_uris":{"android":"levelo://app?vid=ef34c70d-2e65-48fd-bb4f-c142f621d359","ios":"levelo://app?vid=ef34c70d-2e65-48fd-bb4f-c142f621d359"},"vehicle_type_id":"4","last_reported":1726686468,"current_range_meters":38800,"station_id":"ce4bhlp2rcd13ifvqgjg","pricing_plan_id":"cebpf4jnsgd1na2vs0mg"},{"bike_id":"938a1d8e-8f7a-4dbb-a7f7-9b765b9ff51b","system_id":"levelo_inurba_marseille","lat":43.27611,"lon":5.3612,"is_reserved":false,"is_disabled":false,"rental_uris":{"android":"levelo://app?vid=938a1d8e-8f7a-4dbb-a7f7-9b765b9ff51b","ios":"levelo://app?vid=938a1d8e-8f7a-4dbb-a7f7-9b765b9ff51b"},"vehicle_type_id":"4","last_reported":1726686468,"current_range_meters":26800,"station_id":"ce4bgj92rcd13ifvqbe0","pricing_plan_id":"cebpf4jnsgd1na2vs0mg"},{"bike_id":"fa77e604-95b4-476d-a30f-499c3aaf710d","system_id":"levelo_inurba_marseille","lat":43.33722,"lon":5.39187,"is_reserved":false,"is_disabled":false,"rental_uris":{"android":"levelo://app?vid=fa77e604-95b4-476d-a30f-499c3aaf710d","ios":"levelo://app?vid=fa77e604-95b4-476d-a30f-499c3aaf710d"},"vehicle_type_id":"4","last_reported":1726686468,"current_range_meters":10000,"station_id":"ce4bhr92rcd13ifvqhsg","pricing_plan_id":"cebpf4jnsgd1na2vs0mg"},{"bike_id":"7620db55-f9a9-48d3-8e71-922c33f82c8f","system_id":"levelo_inurba_marseille","lat":43.33022,"lon":5.39034,"is_reserved":false,"is_disabled":false,"rental_uris":{"android":"levelo://app?vid=7620db55-f9a9-48d3-8e71-922c33f82c8f","ios":"levelo://app?vid=7620db55-f9a9-48d3-8e71-922c33f82c8f"},"vehicle_type_id":"4","last_reported":1726686468,"current_range_meters":22800,"station_id":"ce4bhr92rcd13ifvqhrg","pricing_plan_id":"cebpf4jnsgd1na2vs0mg"},{"bike_id":"a38468d6-008e-4542-b64c-f93d0f0b9f9b","system_id":"levelo_inurba_marseille","lat":43.23963,"lon":5.36629,"is_reserved":false,"is_disabled":false,"rental_uris":{"android":"levelo://app?vid=a38468d6-008e-4542-b64c-f93d0f0b9f9b","ios":"levelo://app?vid=a38468d6-008e-4542-b64c-f93d0f0b9f9b"},"vehicle_type_id":"4","last_reported":1726686468,"current_range_meters":33200,"station_id":"ce4bhi12rcd13ifvqfp0","pricing_plan_id":"cebpf4jnsgd1na2vs0mg"},{"bike_id":"6bea07ff-b7cf-43d7-9614-efd55ed0f2d6","system_id":"levelo_inurba_marseille","lat":43.24646,"lon":5.38899,"is_reserved":false,"is_disabled":false,"rental_uris":{"android":"levelo://app?vid=6bea07ff-b7cf-43d7-9614-efd55ed0f2d6","ios":"levelo://app?vid=6bea07ff-b7cf-43d7-9614-efd55ed0f2d6"},"vehicle_type_id":"4","last_reported":1726686468,"current_range_meters":29600,"station_id":"ce4bhg12rcd13ifvqf60","pricing_plan_id":"cebpf4jnsgd1na2vs0mg"},{"bike_id":"5304ed70-fad3-470c-b0c3-63f08a2a0a36","system_id":"levelo_inurba_marseille","lat":43.31324,"lon":5.39695,"is_reserved":false,"is_disabled":false,"rental_uris":{"android":"levelo://app?vid=5304ed70-fad3-470c-b0c3-63f08a2a0a36","ios":"levelo://app?vid=5304ed70-fad3-470c-b0c3-63f08a2a0a36"},"vehicle_type_id":"4","last_reported":1726686468,"current_range_meters":17600,"station_id":"ce4bgvp2rcd13ifvqcu0","pricing_plan_id":"cebpf4jnsgd1na2vs0mg"},{"bike_id":"52292db4-1e1f-47a9-8ea7-a6dfb6d7b84d","system_id":"levelo_inurba_marseille","lat":43.30951,"lon":5.39049,"is_reserved":false,"is_disabled":false,"rental_uris":{"android":"levelo://app?vid=52292db4-1e1f-47a9-8ea7-a6dfb6d7b84d","ios":"levelo://app?vid=52292db4-1e1f-47a9-8ea7-a6dfb6d7b84d"},"vehicle_type_id":"4","last_reported":1726686468,"current_range_meters":3600,"station_id":"ce4bgup2rcd13ifvqco0","pricing_plan_id":"cebpf4jnsgd1na2vs0mg"},{"bike_id":"9be94feb-a495-4651-8693-da9a946157ae","system_id":"levelo_inurba_marseille","lat":43.25005,"lon":5.3891,"is_reserved":false,"is_disabled":false,"rental_uris":{"android":"levelo://app?vid=9be94feb-a495-4651-8693-da9a946157ae","ios":"levelo://app?vid=9be94feb-a495-4651-8693-da9a946157ae"},"vehicle_type_id":"4","last_reported":1726686468,"current_range_meters":21600,"station_id":"ce4bhgp2rcd13ifvqfd0","pricing_plan_id":"cebpf4jnsgd1na2vs0mg"},{"bike_id":"8b92f07f-bbfd-414c-9917-9010c838ca72","system_id":"levelo_inurba_marseille","lat":43.32484,"lon":5.36556,"is_reserved":false,"is_disabled":false,"rental_uris":{"android":"levelo://app?vid=8b92f07f-bbfd-414c-9917-9010c838ca72","ios":"levelo://app?vid=8b92f07f-bbfd-414c-9917-9010c838ca72"},"vehicle_type_id":"4","last_reported":1726686468,"current_range_meters":14400,"station_id":"ce4bhs12rcd13ifvqhvg","pricing_plan_id":"cebpf4jnsgd1na2vs0mg"},{"bike_id":"1d7380bc-f6a9-4388-9188-755564b0eec4","system_id":"levelo_inurba_marseille","lat":43.24168,"lon":5.36394,"is_reserved":false,"is_disabled":false,"rental_uris":{"android":"levelo://app?vid=1d7380bc-f6a9-4388-9188-755564b0eec4","ios":"levelo://app?vid=1d7380bc-f6a9-4388-9188-755564b0eec4"},"vehicle_type_id":"4","last_reported":1726686468,"current_range_meters":24800,"station_id":"cpo36qri1sfpv3e86is0","pricing_plan_id":"cebpf4jnsgd1na2vs0mg"},{"bike_id":"8028020e-d6d9-4596-84d9-f47c7b1b844d","system_id":"levelo_inurba_marseille","lat":43.3093,"lon":5.40149,"is_reserved":false,"is_disabled":false,"rental_uris":{"android":"levelo://app?vid=8028020e-d6d9-4596-84d9-f47c7b1b844d","ios":"levelo://app?vid=8028020e-d6d9-4596-84d9-f47c7b1b844d"},"vehicle_type_id":"4","last_reported":1726686468,"current_range_meters":24000,"station_id":"ce4bgvp2rcd13ifvqct0","pricing_plan_id":"cebpf4jnsgd1na2vs0mg"},{"bike_id":"5853071a-a7de-43ad-87c8-982495d79fa0","system_id":"levelo_inurba_marseille","lat":43.24999,"lon":5.38915,"is_reserved":false,"is_disabled":false,"rental_uris":{"android":"levelo://app?vid=5853071a-a7de-43ad-87c8-982495d79fa0","ios":"levelo://app?vid=5853071a-a7de-43ad-87c8-982495d79fa0"},"vehicle_type_id":"4","last_reported":1726686468,"current_range_meters":38000,"station_id":"ce4bhgp2rcd13ifvqfd0","pricing_plan_id":"cebpf4jnsgd1na2vs0mg"},{"bike_id":"53773973-4df1-49a3-b879-f53c2d0c8602","system_id":"levelo_inurba_marseille","lat":43.29414,"lon":5.38626,"is_reserved":false,"is_disabled":false,"rental_uris":{"android":"levelo://app?vid=53773973-4df1-49a3-b879-f53c2d0c8602","ios":"levelo://app?vid=53773973-4df1-49a3-b879-f53c2d0c8602"},"vehicle_type_id":"4","last_reported":1726686468,"current_range_meters":18000,"station_id":"ce4bh2h2rcd13ifvqdh0","pricing_plan_id":"cebpf4jnsgd1na2vs0mg"},{"bike_id":"e22c5d96-b15a-49fc-a27f-c64e56ee15c6","system_id":"levelo_inurba_marseille","lat":43.29864,"lon":5.39747,"is_reserved":false,"is_disabled":false,"rental_uris":{"android":"levelo://app?vid=e22c5d96-b15a-49fc-a27f-c64e56ee15c6","ios":"levelo://app?vid=e22c5d96-b15a-49fc-a27f-c64e56ee15c6"},"vehicle_type_id":"4","last_reported":1726686468,"current_range_meters":39200,"station_id":"ce4bh0h2rcd13ifvqd50","pricing_plan_id":"cebpf4jnsgd1na2vs0mg"},{"bike_id":"fe07e7d6-33db-4565-ad29-2fe8748aec72","system_id":"levelo_inurba_marseille","lat":43.30204,"lon":5.39471,"is_reserved":false,"is_disabled":false,"rental_uris":{"android":"levelo://app?vid=fe07e7d6-33db-4565-ad29-2fe8748aec72","ios":"levelo://app?vid=fe07e7d6-33db-4565-ad29-2fe8748aec72"},"vehicle_type_id":"4","last_reported":1726686468,"current_range_meters":16400,"station_id":"ce4bh0p2rcd13ifvqd70","pricing_plan_id":"cebpf4jnsgd1na2vs0mg"},{"bike_id":"aff706df-eafb-49a1-9b43-6fdcaab72b5f","system_id":"levelo_inurba_marseille","lat":43.27429,"lon":5.39416,"is_reserved":false,"is_disabled":false,"rental_uris":{"android":"levelo://app?vid=aff706df-eafb-49a1-9b43-6fdcaab72b5f","ios":"levelo://app?vid=aff706df-eafb-49a1-9b43-6fdcaab72b5f"},"vehicle_type_id":"4","last_reported":1726686468,"current_range_meters":6800,"station_id":"ce4bhdp2rcd13ifvqf20","pricing_plan_id":"cebpf4jnsgd1na2vs0mg"},{"bike_id":"b18d8b94-ea3f-41c4-a439-b580881ddfe3","system_id":"levelo_inurba_marseille","lat":43.31323,"lon":5.39696,"is_reserved":false,"is_disabled":false,"rental_uris":{"android":"levelo://app?vid=b18d8b94-ea3f-41c4-a439-b580881ddfe3","ios":"levelo://app?vid=b18d8b94-ea3f-41c4-a439-b580881ddfe3"},"vehicle_type_id":"4","last_reported":1726686468,"current_range_meters":38800,"station_id":"ce4bgvp2rcd13ifvqcu0","pricing_plan_id":"cebpf4jnsgd1na2vs0mg"},{"bike_id":"e0173d18-6c8e-483c-9db6-bd92135cda26","system_id":"levelo_inurba_marseille","lat":43.31992,"lon":5.38159,"is_reserved":false,"is_disabled":false,"rental_uris":{"android":"levelo://app?vid=e0173d18-6c8e-483c-9db6-bd92135cda26","ios":"levelo://app?vid=e0173d18-6c8e-483c-9db6-bd92135cda26"},"vehicle_type_id":"4","last_reported":1726686468,"current_range_meters":24000,"station_id":"ce4bhr12rcd13ifvqhpg","pricing_plan_id":"cebpf4jnsgd1na2vs0mg"},{"bike_id":"b645ac77-0d58-4fa9-8ad3-947af8bdb1d9","system_id":"levelo_inurba_marseille","lat":43.29892,"lon":5.43673,"is_reserved":false,"is_disabled":false,"rental_uris":{"android":"levelo://app?vid=b645ac77-0d58-4fa9-8ad3-947af8bdb1d9","ios":"levelo://app?vid=b645ac77-0d58-4fa9-8ad3-947af8bdb1d9"},"vehicle_type_id":"4","last_reported":1726686468,"current_range_meters":17600,"station_id":"ce4bhpp2rcd13ifvqhfg","pricing_plan_id":"cebpf4jnsgd1na2vs0mg"},{"bike_id":"77e86427-f18b-4502-b4ab-6d97fdc517ac","system_id":"levelo_inurba_marseille","lat":43.28847,"lon":5.35847,"is_reserved":false,"is_disabled":false,"rental_uris":{"android":"levelo://app?vid=77e86427-f18b-4502-b4ab-6d97fdc517ac","ios":"levelo://app?vid=77e86427-f18b-4502-b4ab-6d97fdc517ac"},"vehicle_type_id":"4","last_reported":1726686468,"current_range_meters":27200,"station_id":"ce4bhb12rcd13ifvqem0","pricing_plan_id":"cebpf4jnsgd1na2vs0mg"},{"bike_id":"c934dec3-0b7c-498c-bd4f-f23b7aa70ba5","system_id":"levelo_inurba_marseille","lat":43.24071,"lon":5.3776,"is_reserved":false,"is_disabled":false,"rental_uris":{"android":"levelo://app?vid=c934dec3-0b7c-498c-bd4f-f23b7aa70ba5","ios":"levelo://app?vid=c934dec3-0b7c-498c-bd4f-f23b7aa70ba5"},"vehicle_type_id":"4","last_reported":1726686468,"current_range_meters":10000,"station_id":"ce4bhnp2rcd13ifvqgvg","pricing_plan_id":"cebpf4jnsgd1na2vs0mg"},{"bike_id":"55fed244-caf4-46e6-99fc-fcd916ddb5b7","system_id":"levelo_inurba_marseille","lat":43.23191,"lon":5.35551,"is_reserved":false,"is_disabled":false,"rental_uris":{"android":"levelo://app?vid=55fed244-caf4-46e6-99fc-fcd916ddb5b7","ios":"levelo://app?vid=55fed244-caf4-46e6-99fc-fcd916ddb5b7"},"vehicle_type_id":"4","last_reported":1726686468,"current_range_meters":24000,"station_id":"ce4bhu92rcd13ifvqi70","pricing_plan_id":"cebpf4jnsgd1na2vs0mg"},{"bike_id":"3f7da9c1-e887-441d-8808-9e98153d4023","system_id":"levelo_inurba_marseille","lat":43.28613,"lon":5.35101,"is_reserved":false,"is_disabled":false,"rental_uris":{"android":"levelo://app?vid=3f7da9c1-e887-441d-8808-9e98153d4023","ios":"levelo://app?vid=3f7da9c1-e887-441d-8808-9e98153d4023"},"vehicle_type_id":"4","last_reported":1726686468,"current_range_meters":6800,"station_id":"ce4bhch2rcd13ifvqeug","pricing_plan_id":"cebpf4jnsgd1na2vs0mg"},{"bike_id":"62e335eb-aaec-4647-b7e9-321a9f4dff46","system_id":"levelo_inurba_marseille","lat":43.28462,"lon":5.35888,"is_reserved":false,"is_disabled":false,"rental_uris":{"android":"levelo://app?vid=62e335eb-aaec-4647-b7e9-321a9f4dff46","ios":"levelo://app?vid=62e335eb-aaec-4647-b7e9-321a9f4dff46"},"vehicle_type_id":"4","last_reported":1726686468,"current_range_meters":38800,"station_id":"ce4bhah2rcd13ifvqei0","pricing_plan_id":"cebpf4jnsgd1na2vs0mg"},{"bike_id":"40bc2be5-e203-456c-b5d3-e40cc5c0db26","system_id":"levelo_inurba_marseille","lat":43.30955,"lon":5.39031,"is_reserved":false,"is_disabled":false,"rental_uris":{"android":"levelo://app?vid=40bc2be5-e203-456c-b5d3-e40cc5c0db26","ios":"levelo://app?vid=40bc2be5-e203-456c-b5d3-e40cc5c0db26"},"vehicle_type_id":"4","last_reported":1726686468,"current_range_meters":25200,"station_id":"ce4bgup2rcd13ifvqco0","pricing_plan_id":"cebpf4jnsgd1na2vs0mg"},{"bike_id":"d4205a71-f80c-443c-b3c6-48c0d14d1e59","system_id":"levelo_inurba_marseille","lat":43.31756,"lon":5.39012,"is_reserved":false,"is_disabled":false,"rental_uris":{"android":"levelo://app?vid=d4205a71-f80c-443c-b3c6-48c0d14d1e59","ios":"levelo://app?vid=d4205a71-f80c-443c-b3c6-48c0d14d1e59"},"vehicle_type_id":"4","last_reported":1726686468,"current_range_meters":2800,"station_id":"ce4bhqp2rcd13ifvqhng","pricing_plan_id":"cebpf4jnsgd1na2vs0mg"},{"bike_id":"3e5ce477-7f69-4c9f-bf73-e98e38620e8a","system_id":"levelo_inurba_marseille","lat":43.31753,"lon":5.39032,"is_reserved":false,"is_disabled":false,"rental_uris":{"android":"levelo://app?vid=3e5ce477-7f69-4c9f-bf73-e98e38620e8a","ios":"levelo://app?vid=3e5ce477-7f69-4c9f-bf73-e98e38620e8a"},"vehicle_type_id":"4","last_reported":1726686468,"current_range_meters":14000,"station_id":"ce4bhqp2rcd13ifvqhng","pricing_plan_id":"cebpf4jnsgd1na2vs0mg"},{"bike_id":"67e3a6af-f6ee-4466-86cf-1bd6401a24ff","system_id":"levelo_inurba_marseille","lat":43.28261,"lon":5.35069,"is_reserved":false,"is_disabled":false,"rental_uris":{"android":"levelo://app?vid=67e3a6af-f6ee-4466-86cf-1bd6401a24ff","ios":"levelo://app?vid=67e3a6af-f6ee-4466-86cf-1bd6401a24ff"},"vehicle_type_id":"4","last_reported":1726686468,"current_range_meters":38800,"station_id":"ce4bhbp2rcd13ifvqerg","pricing_plan_id":"cebpf4jnsgd1na2vs0mg"},{"bike_id":"677498c9-746b-4650-9a8e-2c7479635944","system_id":"levelo_inurba_marseille","lat":43.33023,"lon":5.39047,"is_reserved":false,"is_disabled":false,"rental_uris":{"android":"levelo://app?vid=677498c9-746b-4650-9a8e-2c7479635944","ios":"levelo://app?vid=677498c9-746b-4650-9a8e-2c7479635944"},"vehicle_type_id":"4","last_reported":1726686468,"current_range_meters":12400,"station_id":"ce4bhr92rcd13ifvqhrg","pricing_plan_id":"cebpf4jnsgd1na2vs0mg"},{"bike_id":"bee0e7c0-a7b3-4aa5-ab3e-0f242b502b94","system_id":"levelo_inurba_marseille","lat":43.31077,"lon":5.38363,"is_reserved":false,"is_disabled":false,"rental_uris":{"android":"levelo://app?vid=bee0e7c0-a7b3-4aa5-ab3e-0f242b502b94","ios":"levelo://app?vid=bee0e7c0-a7b3-4aa5-ab3e-0f242b502b94"},"vehicle_type_id":"4","last_reported":1726686468,"current_range_meters":11600,"station_id":"ce4bgv92rcd13ifvqcr0","pricing_plan_id":"cebpf4jnsgd1na2vs0mg"},{"bike_id":"a4c2d31a-5a3d-44d8-943e-6a9ae7240a99","system_id":"levelo_inurba_marseille","lat":43.30792,"lon":5.43532,"is_reserved":false,"is_disabled":false,"rental_uris":{"android":"levelo://app?vid=a4c2d31a-5a3d-44d8-943e-6a9ae7240a99","ios":"levelo://app?vid=a4c2d31a-5a3d-44d8-943e-6a9ae7240a99"},"vehicle_type_id":"4","last_reported":1726686468,"current_range_meters":2800,"station_id":"ce4bhph2rcd13ifvqheg","pricing_plan_id":"cebpf4jnsgd1na2vs0mg"},{"bike_id":"2cbb6dd5-2ec8-4ba5-808a-c5301f897d27","system_id":"levelo_inurba_marseille","lat":43.23955,"lon":5.36631,"is_reserved":false,"is_disabled":false,"rental_uris":{"android":"levelo://app?vid=2cbb6dd5-2ec8-4ba5-808a-c5301f897d27","ios":"levelo://app?vid=2cbb6dd5-2ec8-4ba5-808a-c5301f897d27"},"vehicle_type_id":"4","last_reported":1726686468,"current_range_meters":26000,"station_id":"ce4bhi12rcd13ifvqfp0","pricing_plan_id":"cebpf4jnsgd1na2vs0mg"},{"bike_id":"17ef5b39-7e34-4fcc-b52c-a42056c8793e","system_id":"levelo_inurba_marseille","lat":43.29002,"lon":5.35625,"is_reserved":false,"is_disabled":false,"rental_uris":{"android":"levelo://app?vid=17ef5b39-7e34-4fcc-b52c-a42056c8793e","ios":"levelo://app?vid=17ef5b39-7e34-4fcc-b52c-a42056c8793e"},"vehicle_type_id":"4","last_reported":1726686468,"current_range_meters":34000,"station_id":"ce4bhb92rcd13ifvqen0","pricing_plan_id":"cebpf4jnsgd1na2vs0mg"},{"bike_id":"f5ddcaf2-4df3-4791-8314-9ff825829baa","system_id":"levelo_inurba_marseille","lat":43.28461,"lon":5.35892,"is_reserved":false,"is_disabled":false,"rental_uris":{"android":"levelo://app?vid=f5ddcaf2-4df3-4791-8314-9ff825829baa","ios":"levelo://app?vid=f5ddcaf2-4df3-4791-8314-9ff825829baa"},"vehicle_type_id":"4","last_reported":1726686468,"current_range_meters":26000,"station_id":"ce4bhah2rcd13ifvqei0","pricing_plan_id":"cebpf4jnsgd1na2vs0mg"},{"bike_id":"60a48ecc-9daa-48c2-b121-ddd2616d1aab","system_id":"levelo_inurba_marseille","lat":43.28352,"lon":5.38115,"is_reserved":false,"is_disabled":false,"rental_uris":{"android":"levelo://app?vid=60a48ecc-9daa-48c2-b121-ddd2616d1aab","ios":"levelo://app?vid=60a48ecc-9daa-48c2-b121-ddd2616d1aab"},"vehicle_type_id":"4","last_reported":1726686468,"current_range_meters":9200,"station_id":"ce4bh412rcd13ifvqdr0","pricing_plan_id":"cebpf4jnsgd1na2vs0mg"},{"bike_id":"b91392b9-cffe-4b49-aef4-60a793bcdbd9","system_id":"levelo_inurba_marseille","lat":43.29533,"lon":5.38542,"is_reserved":false,"is_disabled":false,"rental_uris":{"android":"levelo://app?vid=b91392b9-cffe-4b49-aef4-60a793bcdbd9","ios":"levelo://app?vid=b91392b9-cffe-4b49-aef4-60a793bcdbd9"},"vehicle_type_id":"4","last_reported":1726686468,"current_range_meters":8400,"station_id":"ce4bgih2rcd13ifvqba0","pricing_plan_id":"cebpf4jnsgd1na2vs0mg"},{"bike_id":"52fffaf1-dd98-4e0a-a39d-48011512624f","system_id":"levelo_inurba_marseille","lat":43.25498,"lon":5.37652,"is_reserved":false,"is_disabled":false,"rental_uris":{"android":"levelo://app?vid=52fffaf1-dd98-4e0a-a39d-48011512624f","ios":"levelo://app?vid=52fffaf1-dd98-4e0a-a39d-48011512624f"},"vehicle_type_id":"4","last_reported":1726686468,"current_range_meters":30800,"station_id":"ce4bhh12rcd13ifvqff0","pricing_plan_id":"cebpf4jnsgd1na2vs0mg"},{"bike_id":"62eb64bf-1496-4e1f-9221-724f499e1636","system_id":"levelo_inurba_marseille","lat":43.29522,"lon":5.38537,"is_reserved":false,"is_disabled":false,"rental_uris":{"android":"levelo://app?vid=62eb64bf-1496-4e1f-9221-724f499e1636","ios":"levelo://app?vid=62eb64bf-1496-4e1f-9221-724f499e1636"},"vehicle_type_id":"4","last_reported":1726686468,"current_range_meters":8800,"station_id":"ce4bgih2rcd13ifvqba0","pricing_plan_id":"cebpf4jnsgd1na2vs0mg"},{"bike_id":"9f29c635-9347-4fd3-b0c2-70283bf3d354","system_id":"levelo_inurba_marseille","lat":43.31073,"lon":5.38354,"is_reserved":false,"is_disabled":false,"rental_uris":{"android":"levelo://app?vid=9f29c635-9347-4fd3-b0c2-70283bf3d354","ios":"levelo://app?vid=9f29c635-9347-4fd3-b0c2-70283bf3d354"},"vehicle_type_id":"4","last_reported":1726686468,"current_range_meters":16800,"station_id":"ce4bgv92rcd13ifvqcr0","pricing_plan_id":"cebpf4jnsgd1na2vs0mg"},{"bike_id":"d37aa318-9eec-42e5-ad66-edcb803356f0","system_id":"levelo_inurba_marseille","lat":43.27805,"lon":5.42817,"is_reserved":false,"is_disabled":false,"rental_uris":{"android":"levelo://app?vid=d37aa318-9eec-42e5-ad66-edcb803356f0","ios":"levelo://app?vid=d37aa318-9eec-42e5-ad66-edcb803356f0"},"vehicle_type_id":"4","last_reported":1726686468,"current_range_meters":11600,"station_id":"","pricing_plan_id":"cebpf4jnsgd1na2vs0mg"},{"bike_id":"b51480c2-9b9c-41e3-9bfc-f3e2a0ce7444","system_id":"levelo_inurba_marseille","lat":43.23193,"lon":5.35551,"is_reserved":false,"is_disabled":false,"rental_uris":{"android":"levelo://app?vid=b51480c2-9b9c-41e3-9bfc-f3e2a0ce7444","ios":"levelo://app?vid=b51480c2-9b9c-41e3-9bfc-f3e2a0ce7444"},"vehicle_type_id":"4","last_reported":1726686468,"current_range_meters":38800,"station_id":"ce4bhu92rcd13ifvqi70","pricing_plan_id":"cebpf4jnsgd1na2vs0mg"},{"bike_id":"468b2347-a600-4f5b-a3f2-f26bff4d1331","system_id":"levelo_inurba_marseille","lat":43.30306,"lon":5.36887,"is_reserved":false,"is_disabled":false,"rental_uris":{"android":"levelo://app?vid=468b2347-a600-4f5b-a3f2-f26bff4d1331","ios":"levelo://app?vid=468b2347-a600-4f5b-a3f2-f26bff4d1331"},"vehicle_type_id":"4","last_reported":1726686468,"current_range_meters":30800,"station_id":"","pricing_plan_id":"cebpf4jnsgd1na2vs0mg"},{"bike_id":"5a81ebfd-c296-4f60-9a59-ca70601e9979","system_id":"levelo_inurba_marseille","lat":43.29413,"lon":5.38625,"is_reserved":false,"is_disabled":false,"rental_uris":{"android":"levelo://app?vid=5a81ebfd-c296-4f60-9a59-ca70601e9979","ios":"levelo://app?vid=5a81ebfd-c296-4f60-9a59-ca70601e9979"},"vehicle_type_id":"4","last_reported":1726686468,"current_range_meters":8000,"station_id":"ce4bh2h2rcd13ifvqdh0","pricing_plan_id":"cebpf4jnsgd1na2vs0mg"},{"bike_id":"8109f245-30b3-4b7a-939b-ba81226c4b3e","system_id":"levelo_inurba_marseille","lat":43.29414,"lon":5.38633,"is_reserved":false,"is_disabled":false,"rental_uris":{"android":"levelo://app?vid=8109f245-30b3-4b7a-939b-ba81226c4b3e","ios":"levelo://app?vid=8109f245-30b3-4b7a-939b-ba81226c4b3e"},"vehicle_type_id":"4","last_reported":1726686468,"current_range_meters":38400,"station_id":"ce4bh2h2rcd13ifvqdh0","pricing_plan_id":"cebpf4jnsgd1na2vs0mg"},{"bike_id":"2b714e73-49f8-4f26-bb6d-7d72ce23aabc","system_id":"levelo_inurba_marseille","lat":43.23051,"lon":5.35491,"is_reserved":false,"is_disabled":false,"rental_uris":{"android":"levelo://app?vid=2b714e73-49f8-4f26-bb6d-7d72ce23aabc","ios":"levelo://app?vid=2b714e73-49f8-4f26-bb6d-7d72ce23aabc"},"vehicle_type_id":"4","last_reported":1726686468,"current_range_meters":6800,"station_id":"cpo3342slgdg3j2ifvpg","pricing_plan_id":"cebpf4jnsgd1na2vs0mg"},{"bike_id":"cb36a45f-4c0a-42ed-b37c-eea18317ed3b","system_id":"levelo_inurba_marseille","lat":43.29412,"lon":5.38628,"is_reserved":false,"is_disabled":false,"rental_uris":{"android":"levelo://app?vid=cb36a45f-4c0a-42ed-b37c-eea18317ed3b","ios":"levelo://app?vid=cb36a45f-4c0a-42ed-b37c-eea18317ed3b"},"vehicle_type_id":"4","last_reported":1726686468,"current_range_meters":26000,"station_id":"ce4bh2h2rcd13ifvqdh0","pricing_plan_id":"cebpf4jnsgd1na2vs0mg"},{"bike_id":"20f49174-6ab6-4ee8-8b65-9490551f9311","system_id":"levelo_inurba_marseille","lat":43.28676,"lon":5.38664,"is_reserved":false,"is_disabled":false,"rental_uris":{"android":"levelo://app?vid=20f49174-6ab6-4ee8-8b65-9490551f9311","ios":"levelo://app?vid=20f49174-6ab6-4ee8-8b65-9490551f9311"},"vehicle_type_id":"4","last_reported":1726686468,"current_range_meters":6800,"station_id":"ce4bh492rcd13ifvqdug","pricing_plan_id":"cebpf4jnsgd1na2vs0mg"},{"bike_id":"2e64ac77-37d0-42c4-9b89-df897b66197d","system_id":"levelo_inurba_marseille","lat":43.29955,"lon":5.41325,"is_reserved":false,"is_disabled":false,"rental_uris":{"android":"levelo://app?vid=2e64ac77-37d0-42c4-9b89-df897b66197d","ios":"levelo://app?vid=2e64ac77-37d0-42c4-9b89-df897b66197d"},"vehicle_type_id":"4","last_reported":1726686468,"current_range_meters":37600,"station_id":"ce4bhp12rcd13ifvqh9g","pricing_plan_id":"cebpf4jnsgd1na2vs0mg"},{"bike_id":"451cd4e6-d747-4d42-b652-d593351ccec4","system_id":"levelo_inurba_marseille","lat":43.24387,"lon":5.37052,"is_reserved":false,"is_disabled":false,"rental_uris":{"android":"levelo://app?vid=451cd4e6-d747-4d42-b652-d593351ccec4","ios":"levelo://app?vid=451cd4e6-d747-4d42-b652-d593351ccec4"},"vehicle_type_id":"4","last_reported":1726686468,"current_range_meters":38000,"station_id":"ce4bhhh2rcd13ifvqfk0","pricing_plan_id":"cebpf4jnsgd1na2vs0mg"},{"bike_id":"95f98e57-26bc-481e-bc92-df511c6abfe8","system_id":"levelo_inurba_marseille","lat":43.29411,"lon":5.38628,"is_reserved":false,"is_disabled":false,"rental_uris":{"android":"levelo://app?vid=95f98e57-26bc-481e-bc92-df511c6abfe8","ios":"levelo://app?vid=95f98e57-26bc-481e-bc92-df511c6abfe8"},"vehicle_type_id":"4","last_reported":1726686468,"current_range_meters":8400,"station_id":"ce4bh2h2rcd13ifvqdh0","pricing_plan_id":"cebpf4jnsgd1na2vs0mg"},{"bike_id":"29c0ed9b-0be8-4271-a1ed-14a1d3cb764b","system_id":"levelo_inurba_marseille","lat":43.287077,"lon":5.399814,"is_reserved":false,"is_disabled":false,"rental_uris":{"android":"levelo://app?vid=29c0ed9b-0be8-4271-a1ed-14a1d3cb764b","ios":"levelo://app?vid=29c0ed9b-0be8-4271-a1ed-14a1d3cb764b"},"vehicle_type_id":"4","last_reported":1726686468,"current_range_meters":8000,"station_id":"ce4bho92rcd13ifvqh3g","pricing_plan_id":"cebpf4jnsgd1na2vs0mg"},{"bike_id":"814c3ad7-ae62-4a71-888b-ee4b0342d150","system_id":"levelo_inurba_marseille","lat":43.31749,"lon":5.3902,"is_reserved":false,"is_disabled":false,"rental_uris":{"android":"levelo://app?vid=814c3ad7-ae62-4a71-888b-ee4b0342d150","ios":"levelo://app?vid=814c3ad7-ae62-4a71-888b-ee4b0342d150"},"vehicle_type_id":"4","last_reported":1726686468,"current_range_meters":22000,"station_id":"ce4bhqp2rcd13ifvqhng","pricing_plan_id":"cebpf4jnsgd1na2vs0mg"},{"bike_id":"417132c3-52ad-4cf3-8a2e-b80b24ab8feb","system_id":"levelo_inurba_marseille","lat":43.28421,"lon":5.34999,"is_reserved":false,"is_disabled":false,"rental_uris":{"android":"levelo://app?vid=417132c3-52ad-4cf3-8a2e-b80b24ab8feb","ios":"levelo://app?vid=417132c3-52ad-4cf3-8a2e-b80b24ab8feb"},"vehicle_type_id":"4","last_reported":1726686468,"current_range_meters":27200,"station_id":"ce4bhbh2rcd13ifvqepg","pricing_plan_id":"cebpf4jnsgd1na2vs0mg"},{"bike_id":"62605b61-4e41-49b0-8ed2-e4c0780af73e","system_id":"levelo_inurba_marseille","lat":43.28932,"lon":5.36637,"is_reserved":false,"is_disabled":false,"rental_uris":{"android":"levelo://app?vid=62605b61-4e41-49b0-8ed2-e4c0780af73e","ios":"levelo://app?vid=62605b61-4e41-49b0-8ed2-e4c0780af73e"},"vehicle_type_id":"4","last_reported":1726686468,"current_range_meters":37600,"station_id":"ce4bhap2rcd13ifvqek0","pricing_plan_id":"cebpf4jnsgd1na2vs0mg"},{"bike_id":"b2942ee2-a526-41c1-8eb3-256243591197","system_id":"levelo_inurba_marseille","lat":43.30204,"lon":5.39465,"is_reserved":false,"is_disabled":false,"rental_uris":{"android":"levelo://app?vid=b2942ee2-a526-41c1-8eb3-256243591197","ios":"levelo://app?vid=b2942ee2-a526-41c1-8eb3-256243591197"},"vehicle_type_id":"4","last_reported":1726686468,"current_range_meters":6800,"station_id":"ce4bh0p2rcd13ifvqd70","pricing_plan_id":"cebpf4jnsgd1na2vs0mg"},{"bike_id":"02c639a4-fe62-499a-a69a-f474d98d7667","system_id":"levelo_inurba_marseille","lat":43.28454,"lon":5.35895,"is_reserved":false,"is_disabled":false,"rental_uris":{"android":"levelo://app?vid=02c639a4-fe62-499a-a69a-f474d98d7667","ios":"levelo://app?vid=02c639a4-fe62-499a-a69a-f474d98d7667"},"vehicle_type_id":"4","last_reported":1726686468,"current_range_meters":38800,"station_id":"ce4bhah2rcd13ifvqei0","pricing_plan_id":"cebpf4jnsgd1na2vs0mg"},{"bike_id":"7ba6f73e-a8a3-48ac-bbf7-d921d805d50f","system_id":"levelo_inurba_marseille","lat":43.26555,"lon":5.39022,"is_reserved":false,"is_disabled":false,"rental_uris":{"android":"levelo://app?vid=7ba6f73e-a8a3-48ac-bbf7-d921d805d50f","ios":"levelo://app?vid=7ba6f73e-a8a3-48ac-bbf7-d921d805d50f"},"vehicle_type_id":"4","last_reported":1726686468,"current_range_meters":38800,"station_id":"ce4bhe12rcd13ifvqf30","pricing_plan_id":"cebpf4jnsgd1na2vs0mg"},{"bike_id":"6dd17a2f-59bb-4453-859d-2c09ab795824","system_id":"levelo_inurba_marseille","lat":43.33026,"lon":5.39049,"is_reserved":false,"is_disabled":false,"rental_uris":{"android":"levelo://app?vid=6dd17a2f-59bb-4453-859d-2c09ab795824","ios":"levelo://app?vid=6dd17a2f-59bb-4453-859d-2c09ab795824"},"vehicle_type_id":"4","last_reported":1726686468,"current_range_meters":24000,"station_id":"ce4bhr92rcd13ifvqhrg","pricing_plan_id":"cebpf4jnsgd1na2vs0mg"},{"bike_id":"682c326f-9756-4537-a3eb-f525cbc855ff","system_id":"levelo_inurba_marseille","lat":43.25722,"lon":5.41113,"is_reserved":false,"is_disabled":false,"rental_uris":{"android":"levelo://app?vid=682c326f-9756-4537-a3eb-f525cbc855ff","ios":"levelo://app?vid=682c326f-9756-4537-a3eb-f525cbc855ff"},"vehicle_type_id":"4","last_reported":1726686468,"current_range_meters":36800,"station_id":"ce4bhkp2rcd13ifvqgd0","pricing_plan_id":"cebpf4jnsgd1na2vs0mg"},{"bike_id":"70387d23-6e0a-49d6-b64c-24f16209c362","system_id":"levelo_inurba_marseille","lat":43.296,"lon":5.38668,"is_reserved":false,"is_disabled":false,"rental_uris":{"android":"levelo://app?vid=70387d23-6e0a-49d6-b64c-24f16209c362","ios":"levelo://app?vid=70387d23-6e0a-49d6-b64c-24f16209c362"},"vehicle_type_id":"4","last_reported":1726686468,"current_range_meters":20400,"station_id":"ce4bh0p2rcd13ifvqd70","pricing_plan_id":"cebpf4jnsgd1na2vs0mg"},{"bike_id":"fc2c37fd-b30e-4e49-9975-3233bf5effda","system_id":"levelo_inurba_marseille","lat":43.32137,"lon":5.38956,"is_reserved":false,"is_disabled":false,"rental_uris":{"android":"levelo://app?vid=fc2c37fd-b30e-4e49-9975-3233bf5effda","ios":"levelo://app?vid=fc2c37fd-b30e-4e49-9975-3233bf5effda"},"vehicle_type_id":"4","last_reported":1726686468,"current_range_meters":30400,"station_id":"","pricing_plan_id":"cebpf4jnsgd1na2vs0mg"},{"bike_id":"296c223c-f60d-4532-94cb-6d4310f56912","system_id":"levelo_inurba_marseille","lat":43.24994,"lon":5.38928,"is_reserved":false,"is_disabled":false,"rental_uris":{"android":"levelo://app?vid=296c223c-f60d-4532-94cb-6d4310f56912","ios":"levelo://app?vid=296c223c-f60d-4532-94cb-6d4310f56912"},"vehicle_type_id":"4","last_reported":1726686468,"current_range_meters":9200,"station_id":"ce4bhgp2rcd13ifvqfd0","pricing_plan_id":"cebpf4jnsgd1na2vs0mg"},{"bike_id":"4db3e6af-ece3-46a3-93c4-f66f6128bb53","system_id":"levelo_inurba_marseille","lat":43.29058,"lon":5.37161,"is_reserved":false,"is_disabled":false,"rental_uris":{"android":"levelo://app?vid=4db3e6af-ece3-46a3-93c4-f66f6128bb53","ios":"levelo://app?vid=4db3e6af-ece3-46a3-93c4-f66f6128bb53"},"vehicle_type_id":"4","last_reported":1726686468,"current_range_meters":10800,"station_id":"ce4bh5p2rcd13ifvqe4g","pricing_plan_id":"cebpf4jnsgd1na2vs0mg"},{"bike_id":"f2c95146-36ce-4175-8035-0c4ee99efa92","system_id":"levelo_inurba_marseille","lat":43.23193,"lon":5.35551,"is_reserved":false,"is_disabled":false,"rental_uris":{"android":"levelo://app?vid=f2c95146-36ce-4175-8035-0c4ee99efa92","ios":"levelo://app?vid=f2c95146-36ce-4175-8035-0c4ee99efa92"},"vehicle_type_id":"4","last_reported":1726686468,"current_range_meters":10800,"station_id":"ce4bhu92rcd13ifvqi70","pricing_plan_id":"cebpf4jnsgd1na2vs0mg"},{"bike_id":"11859f6c-e16b-4ee4-8084-fee7beccc9d9","system_id":"levelo_inurba_marseille","lat":43.29027,"lon":5.38653,"is_reserved":false,"is_disabled":false,"rental_uris":{"android":"levelo://app?vid=11859f6c-e16b-4ee4-8084-fee7beccc9d9","ios":"levelo://app?vid=11859f6c-e16b-4ee4-8084-fee7beccc9d9"},"vehicle_type_id":"4","last_reported":1726686468,"current_range_meters":8800,"station_id":"ce4bh4p2rcd13ifvqe0g","pricing_plan_id":"cebpf4jnsgd1na2vs0mg"},{"bike_id":"62f9480a-2994-4900-9225-2e08bfcddc39","system_id":"levelo_inurba_marseille","lat":43.29954,"lon":5.41319,"is_reserved":false,"is_disabled":false,"rental_uris":{"android":"levelo://app?vid=62f9480a-2994-4900-9225-2e08bfcddc39","ios":"levelo://app?vid=62f9480a-2994-4900-9225-2e08bfcddc39"},"vehicle_type_id":"4","last_reported":1726686468,"current_range_meters":5600,"station_id":"ce4bhp12rcd13ifvqh9g","pricing_plan_id":"cebpf4jnsgd1na2vs0mg"},{"bike_id":"6b4a774c-3e1c-4459-8907-994ec3f3dfcf","system_id":"levelo_inurba_marseille","lat":43.31323,"lon":5.397,"is_reserved":false,"is_disabled":false,"rental_uris":{"android":"levelo://app?vid=6b4a774c-3e1c-4459-8907-994ec3f3dfcf","ios":"levelo://app?vid=6b4a774c-3e1c-4459-8907-994ec3f3dfcf"},"vehicle_type_id":"4","last_reported":1726686468,"current_range_meters":32000,"station_id":"ce4bgvp2rcd13ifvqcu0","pricing_plan_id":"cebpf4jnsgd1na2vs0mg"},{"bike_id":"30aacab6-17c4-42f0-b9be-80144ff199d9","system_id":"levelo_inurba_marseille","lat":43.290314,"lon":5.375572,"is_reserved":false,"is_disabled":false,"rental_uris":{"android":"levelo://app?vid=30aacab6-17c4-42f0-b9be-80144ff199d9","ios":"levelo://app?vid=30aacab6-17c4-42f0-b9be-80144ff199d9"},"vehicle_type_id":"4","last_reported":1726686468,"current_range_meters":36000,"station_id":"ce4bh692rcd13ifvqe90","pricing_plan_id":"cebpf4jnsgd1na2vs0mg"},{"bike_id":"750e8351-13f9-43b0-b164-24061995e5de","system_id":"levelo_inurba_marseille","lat":43.30888,"lon":5.37196,"is_reserved":false,"is_disabled":false,"rental_uris":{"android":"levelo://app?vid=750e8351-13f9-43b0-b164-24061995e5de","ios":"levelo://app?vid=750e8351-13f9-43b0-b164-24061995e5de"},"vehicle_type_id":"4","last_reported":1726686468,"current_range_meters":38800,"station_id":"ce4bguh2rcd13ifvqckg","pricing_plan_id":"cebpf4jnsgd1na2vs0mg"},{"bike_id":"7d67441c-acf3-496b-9711-da23da5e28f1","system_id":"levelo_inurba_marseille","lat":43.28562,"lon":5.40275,"is_reserved":false,"is_disabled":false,"rental_uris":{"android":"levelo://app?vid=7d67441c-acf3-496b-9711-da23da5e28f1","ios":"levelo://app?vid=7d67441c-acf3-496b-9711-da23da5e28f1"},"vehicle_type_id":"4","last_reported":1726686468,"current_range_meters":30800,"station_id":"","pricing_plan_id":"cebpf4jnsgd1na2vs0mg"},{"bike_id":"db5bed51-afb9-4548-98e9-7b7ae226c501","system_id":"levelo_inurba_marseille","lat":43.33744,"lon":5.37459,"is_reserved":false,"is_disabled":false,"rental_uris":{"android":"levelo://app?vid=db5bed51-afb9-4548-98e9-7b7ae226c501","ios":"levelo://app?vid=db5bed51-afb9-4548-98e9-7b7ae226c501"},"vehicle_type_id":"4","last_reported":1726686468,"current_range_meters":34000,"station_id":"","pricing_plan_id":"cebpf4jnsgd1na2vs0mg"},{"bike_id":"6a78926c-7c24-4114-b69b-79fe85c63250","system_id":"levelo_inurba_marseille","lat":43.30874,"lon":5.39642,"is_reserved":false,"is_disabled":false,"rental_uris":{"android":"levelo://app?vid=6a78926c-7c24-4114-b69b-79fe85c63250","ios":"levelo://app?vid=6a78926c-7c24-4114-b69b-79fe85c63250"},"vehicle_type_id":"4","last_reported":1726686468,"current_range_meters":28000,"station_id":"ce4bh012rcd13ifvqcv0","pricing_plan_id":"cebpf4jnsgd1na2vs0mg"},{"bike_id":"1879e790-d377-499e-a4aa-07e16a65db2d","system_id":"levelo_inurba_marseille","lat":43.28426,"lon":5.392177,"is_reserved":false,"is_disabled":false,"rental_uris":{"android":"levelo://app?vid=1879e790-d377-499e-a4aa-07e16a65db2d","ios":"levelo://app?vid=1879e790-d377-499e-a4aa-07e16a65db2d"},"vehicle_type_id":"4","last_reported":1726686468,"current_range_meters":18800,"station_id":"ce4bhoh2rcd13ifvqh5g","pricing_plan_id":"cebpf4jnsgd1na2vs0mg"},{"bike_id":"9fceca34-e17a-4bf0-a598-90d4d81010cc","system_id":"levelo_inurba_marseille","lat":43.30086,"lon":5.390813,"is_reserved":false,"is_disabled":false,"rental_uris":{"android":"levelo://app?vid=9fceca34-e17a-4bf0-a598-90d4d81010cc","ios":"levelo://app?vid=9fceca34-e17a-4bf0-a598-90d4d81010cc"},"vehicle_type_id":"4","last_reported":1726686468,"current_range_meters":12400,"station_id":"ce4bh192rcd13ifvqdb0","pricing_plan_id":"cebpf4jnsgd1na2vs0mg"},{"bike_id":"26713ac2-c97b-4002-8b32-d3bc1b24a691","system_id":"levelo_inurba_marseille","lat":43.24164,"lon":5.36391,"is_reserved":false,"is_disabled":false,"rental_uris":{"android":"levelo://app?vid=26713ac2-c97b-4002-8b32-d3bc1b24a691","ios":"levelo://app?vid=26713ac2-c97b-4002-8b32-d3bc1b24a691"},"vehicle_type_id":"4","last_reported":1726686468,"current_range_meters":36800,"station_id":"cpo36qri1sfpv3e86is0","pricing_plan_id":"cebpf4jnsgd1na2vs0mg"},{"bike_id":"a748aa19-aa0a-4511-ba33-7fe7309322d3","system_id":"levelo_inurba_marseille","lat":43.28929,"lon":5.36633,"is_reserved":false,"is_disabled":false,"rental_uris":{"android":"levelo://app?vid=a748aa19-aa0a-4511-ba33-7fe7309322d3","ios":"levelo://app?vid=a748aa19-aa0a-4511-ba33-7fe7309322d3"},"vehicle_type_id":"4","last_reported":1726686468,"current_range_meters":30000,"station_id":"ce4bhap2rcd13ifvqek0","pricing_plan_id":"cebpf4jnsgd1na2vs0mg"},{"bike_id":"d06834b6-14ec-477c-92f7-a04b5630a0da","system_id":"levelo_inurba_marseille","lat":43.26547,"lon":5.37293,"is_reserved":false,"is_disabled":false,"rental_uris":{"android":"levelo://app?vid=d06834b6-14ec-477c-92f7-a04b5630a0da","ios":"levelo://app?vid=d06834b6-14ec-477c-92f7-a04b5630a0da"},"vehicle_type_id":"4","last_reported":1726686468,"current_range_meters":8800,"station_id":"ce4bhg12rcd13ifvqf70","pricing_plan_id":"cebpf4jnsgd1na2vs0mg"},{"bike_id":"0146a43c-73b1-43e4-b476-84526d8cbecf","system_id":"levelo_inurba_marseille","lat":43.27899,"lon":5.3801,"is_reserved":false,"is_disabled":false,"rental_uris":{"android":"levelo://app?vid=0146a43c-73b1-43e4-b476-84526d8cbecf","ios":"levelo://app?vid=0146a43c-73b1-43e4-b476-84526d8cbecf"},"vehicle_type_id":"4","last_reported":1726686468,"current_range_meters":27200,"station_id":"ce4bhf92rcd13ifvqf50","pricing_plan_id":"cebpf4jnsgd1na2vs0mg"},{"bike_id":"f5fd2cd8-f299-47e7-8665-70bc6ad5f778","system_id":"levelo_inurba_marseille","lat":43.23149,"lon":5.43718,"is_reserved":false,"is_disabled":false,"rental_uris":{"android":"levelo://app?vid=f5fd2cd8-f299-47e7-8665-70bc6ad5f778","ios":"levelo://app?vid=f5fd2cd8-f299-47e7-8665-70bc6ad5f778"},"vehicle_type_id":"4","last_reported":1726686468,"current_range_meters":18800,"station_id":"ce4bhmp2rcd13ifvqgog","pricing_plan_id":"cebpf4jnsgd1na2vs0mg"},{"bike_id":"955951c0-82ad-457e-818d-1db9706d249f","system_id":"levelo_inurba_marseille","lat":43.28457,"lon":5.35886,"is_reserved":false,"is_disabled":false,"rental_uris":{"android":"levelo://app?vid=955951c0-82ad-457e-818d-1db9706d249f","ios":"levelo://app?vid=955951c0-82ad-457e-818d-1db9706d249f"},"vehicle_type_id":"4","last_reported":1726686468,"current_range_meters":4800,"station_id":"ce4bhah2rcd13ifvqei0","pricing_plan_id":"cebpf4jnsgd1na2vs0mg"},{"bike_id":"58014cc6-4f39-4119-a8a0-cdc0e2507820","system_id":"levelo_inurba_marseille","lat":43.32288,"lon":5.38286,"is_reserved":false,"is_disabled":false,"rental_uris":{"android":"levelo://app?vid=58014cc6-4f39-4119-a8a0-cdc0e2507820","ios":"levelo://app?vid=58014cc6-4f39-4119-a8a0-cdc0e2507820"},"vehicle_type_id":"4","last_reported":1726686468,"current_range_meters":38800,"station_id":"ce4bhr12rcd13ifvqhqg","pricing_plan_id":"cebpf4jnsgd1na2vs0mg"},{"bike_id":"2d62242c-9469-4088-b5bf-7f4548c24990","system_id":"levelo_inurba_marseille","lat":43.29001,"lon":5.35609,"is_reserved":false,"is_disabled":false,"rental_uris":{"android":"levelo://app?vid=2d62242c-9469-4088-b5bf-7f4548c24990","ios":"levelo://app?vid=2d62242c-9469-4088-b5bf-7f4548c24990"},"vehicle_type_id":"4","last_reported":1726686468,"current_range_meters":28400,"station_id":"ce4bhb92rcd13ifvqen0","pricing_plan_id":"cebpf4jnsgd1na2vs0mg"},{"bike_id":"b168231b-2f3d-4b28-bd24-348b4b373070","system_id":"levelo_inurba_marseille","lat":43.31324,"lon":5.397,"is_reserved":false,"is_disabled":false,"rental_uris":{"android":"levelo://app?vid=b168231b-2f3d-4b28-bd24-348b4b373070","ios":"levelo://app?vid=b168231b-2f3d-4b28-bd24-348b4b373070"},"vehicle_type_id":"4","last_reported":1726686468,"current_range_meters":38800,"station_id":"ce4bgvp2rcd13ifvqcu0","pricing_plan_id":"cebpf4jnsgd1na2vs0mg"},{"bike_id":"67101e27-2fdd-4e84-bdf7-495c619879ab","system_id":"levelo_inurba_marseille","lat":43.31997,"lon":5.38166,"is_reserved":false,"is_disabled":false,"rental_uris":{"android":"levelo://app?vid=67101e27-2fdd-4e84-bdf7-495c619879ab","ios":"levelo://app?vid=67101e27-2fdd-4e84-bdf7-495c619879ab"},"vehicle_type_id":"4","last_reported":1726686468,"current_range_meters":12800,"station_id":"ce4bhr12rcd13ifvqhpg","pricing_plan_id":"cebpf4jnsgd1na2vs0mg"},{"bike_id":"13ee2a72-83d4-4ef5-8ab9-b048ac85604d","system_id":"levelo_inurba_marseille","lat":43.28449,"lon":5.35888,"is_reserved":false,"is_disabled":false,"rental_uris":{"android":"levelo://app?vid=13ee2a72-83d4-4ef5-8ab9-b048ac85604d","ios":"levelo://app?vid=13ee2a72-83d4-4ef5-8ab9-b048ac85604d"},"vehicle_type_id":"4","last_reported":1726686468,"current_range_meters":38800,"station_id":"ce4bhah2rcd13ifvqei0","pricing_plan_id":"cebpf4jnsgd1na2vs0mg"},{"bike_id":"9de036c4-decb-465b-a775-32e663a8924f","system_id":"levelo_inurba_marseille","lat":43.33023,"lon":5.39035,"is_reserved":false,"is_disabled":false,"rental_uris":{"android":"levelo://app?vid=9de036c4-decb-465b-a775-32e663a8924f","ios":"levelo://app?vid=9de036c4-decb-465b-a775-32e663a8924f"},"vehicle_type_id":"4","last_reported":1726686468,"current_range_meters":32800,"station_id":"ce4bhr92rcd13ifvqhrg","pricing_plan_id":"cebpf4jnsgd1na2vs0mg"},{"bike_id":"3eda4607-df67-4e07-b923-8887faadc06b","system_id":"levelo_inurba_marseille","lat":43.30891,"lon":5.37171,"is_reserved":false,"is_disabled":false,"rental_uris":{"android":"levelo://app?vid=3eda4607-df67-4e07-b923-8887faadc06b","ios":"levelo://app?vid=3eda4607-df67-4e07-b923-8887faadc06b"},"vehicle_type_id":"4","last_reported":1726686468,"current_range_meters":38800,"station_id":"ce4bguh2rcd13ifvqckg","pricing_plan_id":"cebpf4jnsgd1na2vs0mg"},{"bike_id":"17988050-fa09-4bf2-a553-de1e02c3549c","system_id":"levelo_inurba_marseille","lat":43.29873,"lon":5.39745,"is_reserved":false,"is_disabled":false,"rental_uris":{"android":"levelo://app?vid=17988050-fa09-4bf2-a553-de1e02c3549c","ios":"levelo://app?vid=17988050-fa09-4bf2-a553-de1e02c3549c"},"vehicle_type_id":"4","last_reported":1726686468,"current_range_meters":39200,"station_id":"ce4bh0h2rcd13ifvqd50","pricing_plan_id":"cebpf4jnsgd1na2vs0mg"},{"bike_id":"0c95fa43-48bf-4681-83d7-aad86c7517d9","system_id":"levelo_inurba_marseille","lat":43.28265,"lon":5.35087,"is_reserved":false,"is_disabled":false,"rental_uris":{"android":"levelo://app?vid=0c95fa43-48bf-4681-83d7-aad86c7517d9","ios":"levelo://app?vid=0c95fa43-48bf-4681-83d7-aad86c7517d9"},"vehicle_type_id":"4","last_reported":1726686468,"current_range_meters":38800,"station_id":"ce4bhbp2rcd13ifvqerg","pricing_plan_id":"cebpf4jnsgd1na2vs0mg"},{"bike_id":"1ee45580-1a02-40b2-8104-d760065a7120","system_id":"levelo_inurba_marseille","lat":43.2944,"lon":5.39749,"is_reserved":false,"is_disabled":false,"rental_uris":{"android":"levelo://app?vid=1ee45580-1a02-40b2-8104-d760065a7120","ios":"levelo://app?vid=1ee45580-1a02-40b2-8104-d760065a7120"},"vehicle_type_id":"4","last_reported":1726686468,"current_range_meters":36800,"station_id":"ce4bh3h2rcd13ifvqdo0","pricing_plan_id":"cebpf4jnsgd1na2vs0mg"},{"bike_id":"55256b03-7844-4d77-9601-6f7e880a9bdc","system_id":"levelo_inurba_marseille","lat":43.28364,"lon":5.38639,"is_reserved":false,"is_disabled":false,"rental_uris":{"android":"levelo://app?vid=55256b03-7844-4d77-9601-6f7e880a9bdc","ios":"levelo://app?vid=55256b03-7844-4d77-9601-6f7e880a9bdc"},"vehicle_type_id":"4","last_reported":1726686468,"current_range_meters":17200,"station_id":"ce4bh492rcd13ifvqdvg","pricing_plan_id":"cebpf4jnsgd1na2vs0mg"},{"bike_id":"34ddd361-0ce4-4b15-ac3d-654a51f34131","system_id":"levelo_inurba_marseille","lat":43.2731,"lon":5.39085,"is_reserved":false,"is_disabled":false,"rental_uris":{"android":"levelo://app?vid=34ddd361-0ce4-4b15-ac3d-654a51f34131","ios":"levelo://app?vid=34ddd361-0ce4-4b15-ac3d-654a51f34131"},"vehicle_type_id":"4","last_reported":1726686468,"current_range_meters":8000,"station_id":"ce4bhgp2rcd13ifvqfe0","pricing_plan_id":"cebpf4jnsgd1na2vs0mg"},{"bike_id":"48946851-4240-4b0d-a842-092e503adbe4","system_id":"levelo_inurba_marseille","lat":43.296295,"lon":5.405866,"is_reserved":false,"is_disabled":false,"rental_uris":{"android":"levelo://app?vid=48946851-4240-4b0d-a842-092e503adbe4","ios":"levelo://app?vid=48946851-4240-4b0d-a842-092e503adbe4"},"vehicle_type_id":"4","last_reported":1726686468,"current_range_meters":2800,"station_id":"ce4bh0h2rcd13ifvqd60","pricing_plan_id":"cebpf4jnsgd1na2vs0mg"},{"bike_id":"6e00666a-f02f-4580-a990-0531883c2cb7","system_id":"levelo_inurba_marseille","lat":43.29901,"lon":5.43671,"is_reserved":false,"is_disabled":false,"rental_uris":{"android":"levelo://app?vid=6e00666a-f02f-4580-a990-0531883c2cb7","ios":"levelo://app?vid=6e00666a-f02f-4580-a990-0531883c2cb7"},"vehicle_type_id":"4","last_reported":1726686468,"current_range_meters":4800,"station_id":"ce4bhpp2rcd13ifvqhfg","pricing_plan_id":"cebpf4jnsgd1na2vs0mg"},{"bike_id":"7d54046c-3cf1-4344-8137-17101feedbd5","system_id":"levelo_inurba_marseille","lat":43.32289,"lon":5.38282,"is_reserved":false,"is_disabled":false,"rental_uris":{"android":"levelo://app?vid=7d54046c-3cf1-4344-8137-17101feedbd5","ios":"levelo://app?vid=7d54046c-3cf1-4344-8137-17101feedbd5"},"vehicle_type_id":"4","last_reported":1726686468,"current_range_meters":39200,"station_id":"ce4bhr12rcd13ifvqhqg","pricing_plan_id":"cebpf4jnsgd1na2vs0mg"},{"bike_id":"77d6b913-8acb-441f-8cb7-8e3953bab408","system_id":"levelo_inurba_marseille","lat":43.29406,"lon":5.3862,"is_reserved":false,"is_disabled":false,"rental_uris":{"android":"levelo://app?vid=77d6b913-8acb-441f-8cb7-8e3953bab408","ios":"levelo://app?vid=77d6b913-8acb-441f-8cb7-8e3953bab408"},"vehicle_type_id":"4","last_reported":1726686468,"current_range_meters":28000,"station_id":"ce4bh2h2rcd13ifvqdh0","pricing_plan_id":"cebpf4jnsgd1na2vs0mg"},{"bike_id":"2828bd69-0c75-4d81-b85e-7e7dee15c6fc","system_id":"levelo_inurba_marseille","lat":43.29416,"lon":5.3862,"is_reserved":false,"is_disabled":false,"rental_uris":{"android":"levelo://app?vid=2828bd69-0c75-4d81-b85e-7e7dee15c6fc","ios":"levelo://app?vid=2828bd69-0c75-4d81-b85e-7e7dee15c6fc"},"vehicle_type_id":"4","last_reported":1726686468,"current_range_meters":8000,"station_id":"ce4bh2h2rcd13ifvqdh0","pricing_plan_id":"cebpf4jnsgd1na2vs0mg"},{"bike_id":"20a3e226-5012-43d0-aa77-226028801467","system_id":"levelo_inurba_marseille","lat":43.28855,"lon":5.39315,"is_reserved":false,"is_disabled":false,"rental_uris":{"android":"levelo://app?vid=20a3e226-5012-43d0-aa77-226028801467","ios":"levelo://app?vid=20a3e226-5012-43d0-aa77-226028801467"},"vehicle_type_id":"4","last_reported":1726686468,"current_range_meters":37600,"station_id":"ce4bh2p2rcd13ifvqdi0","pricing_plan_id":"cebpf4jnsgd1na2vs0mg"},{"bike_id":"fa2e946d-01fe-4bb4-a2b0-55af60a0bcec","system_id":"levelo_inurba_marseille","lat":43.33712,"lon":5.39193,"is_reserved":false,"is_disabled":false,"rental_uris":{"android":"levelo://app?vid=fa2e946d-01fe-4bb4-a2b0-55af60a0bcec","ios":"levelo://app?vid=fa2e946d-01fe-4bb4-a2b0-55af60a0bcec"},"vehicle_type_id":"4","last_reported":1726686468,"current_range_meters":38400,"station_id":"ce4bhr92rcd13ifvqhsg","pricing_plan_id":"cebpf4jnsgd1na2vs0mg"},{"bike_id":"3884d8c9-8196-43c1-8e1b-85179e85dab7","system_id":"levelo_inurba_marseille","lat":43.25864,"lon":5.39899,"is_reserved":false,"is_disabled":false,"rental_uris":{"android":"levelo://app?vid=3884d8c9-8196-43c1-8e1b-85179e85dab7","ios":"levelo://app?vid=3884d8c9-8196-43c1-8e1b-85179e85dab7"},"vehicle_type_id":"4","last_reported":1726686468,"current_range_meters":30000,"station_id":"ce4bhl92rcd13ifvqghg","pricing_plan_id":"cebpf4jnsgd1na2vs0mg"},{"bike_id":"c33e380e-e482-4047-874e-f3c84705d066","system_id":"levelo_inurba_marseille","lat":43.28695,"lon":5.37395,"is_reserved":false,"is_disabled":false,"rental_uris":{"android":"levelo://app?vid=c33e380e-e482-4047-874e-f3c84705d066","ios":"levelo://app?vid=c33e380e-e482-4047-874e-f3c84705d066"},"vehicle_type_id":"4","last_reported":1726686468,"current_range_meters":39200,"station_id":"ce4bh3p2rcd13ifvqdq0","pricing_plan_id":"cebpf4jnsgd1na2vs0mg"},{"bike_id":"3f57c083-0ba8-42ea-b589-5e2559532041","system_id":"levelo_inurba_marseille","lat":43.28611,"lon":5.3706,"is_reserved":false,"is_disabled":false,"rental_uris":{"android":"levelo://app?vid=3f57c083-0ba8-42ea-b589-5e2559532041","ios":"levelo://app?vid=3f57c083-0ba8-42ea-b589-5e2559532041"},"vehicle_type_id":"4","last_reported":1726686468,"current_range_meters":36800,"station_id":"ce4bht12rcd13ifvqi60","pricing_plan_id":"cebpf4jnsgd1na2vs0mg"},{"bike_id":"897f36fe-5290-421f-81e1-d238d9a21fa7","system_id":"levelo_inurba_marseille","lat":43.30131,"lon":5.39879,"is_reserved":false,"is_disabled":false,"rental_uris":{"android":"levelo://app?vid=897f36fe-5290-421f-81e1-d238d9a21fa7","ios":"levelo://app?vid=897f36fe-5290-421f-81e1-d238d9a21fa7"},"vehicle_type_id":"4","last_reported":1726686468,"current_range_meters":20800,"station_id":"ce4bh0h2rcd13ifvqd40","pricing_plan_id":"cebpf4jnsgd1na2vs0mg"},{"bike_id":"f84c07cb-ff23-4dd7-9634-7c6d17498a94","system_id":"levelo_inurba_marseille","lat":43.2885,"lon":5.3584,"is_reserved":false,"is_disabled":false,"rental_uris":{"android":"levelo://app?vid=f84c07cb-ff23-4dd7-9634-7c6d17498a94","ios":"levelo://app?vid=f84c07cb-ff23-4dd7-9634-7c6d17498a94"},"vehicle_type_id":"4","last_reported":1726686468,"current_range_meters":4800,"station_id":"ce4bhb12rcd13ifvqem0","pricing_plan_id":"cebpf4jnsgd1na2vs0mg"},{"bike_id":"328d45f9-980e-4811-97c0-47d761861509","system_id":"levelo_inurba_marseille","lat":43.29847,"lon":5.37836,"is_reserved":false,"is_disabled":false,"rental_uris":{"android":"levelo://app?vid=328d45f9-980e-4811-97c0-47d761861509","ios":"levelo://app?vid=328d45f9-980e-4811-97c0-47d761861509"},"vehicle_type_id":"4","last_reported":1726686468,"current_range_meters":9600,"station_id":"ce4bgkh2rcd13ifvqbl0","pricing_plan_id":"cebpf4jnsgd1na2vs0mg"},{"bike_id":"b75cc9c2-1b11-4d7c-a701-1a02dc7637bb","system_id":"levelo_inurba_marseille","lat":43.29518,"lon":5.39413,"is_reserved":false,"is_disabled":false,"rental_uris":{"android":"levelo://app?vid=b75cc9c2-1b11-4d7c-a701-1a02dc7637bb","ios":"levelo://app?vid=b75cc9c2-1b11-4d7c-a701-1a02dc7637bb"},"vehicle_type_id":"4","last_reported":1726686468,"current_range_meters":28400,"station_id":"ce4bh292rcd13ifvqdf0","pricing_plan_id":"cebpf4jnsgd1na2vs0mg"},{"bike_id":"1844ebf2-9585-442b-96e0-f7ccee8f52f7","system_id":"levelo_inurba_marseille","lat":43.30428,"lon":5.38887,"is_reserved":false,"is_disabled":false,"rental_uris":{"android":"levelo://app?vid=1844ebf2-9585-442b-96e0-f7ccee8f52f7","ios":"levelo://app?vid=1844ebf2-9585-442b-96e0-f7ccee8f52f7"},"vehicle_type_id":"4","last_reported":1726686468,"current_range_meters":19200,"station_id":"ce4bgk12rcd13ifvqbi0","pricing_plan_id":"cebpf4jnsgd1na2vs0mg"},{"bike_id":"cded9632-8481-416d-9b21-015c72b249ee","system_id":"levelo_inurba_marseille","lat":43.30955,"lon":5.39042,"is_reserved":false,"is_disabled":false,"rental_uris":{"android":"levelo://app?vid=cded9632-8481-416d-9b21-015c72b249ee","ios":"levelo://app?vid=cded9632-8481-416d-9b21-015c72b249ee"},"vehicle_type_id":"4","last_reported":1726686468,"current_range_meters":11600,"station_id":"ce4bgup2rcd13ifvqco0","pricing_plan_id":"cebpf4jnsgd1na2vs0mg"},{"bike_id":"70d6316d-15d8-443b-9f41-9417530b2115","system_id":"levelo_inurba_marseille","lat":43.27986,"lon":5.41665,"is_reserved":false,"is_disabled":false,"rental_uris":{"android":"levelo://app?vid=70d6316d-15d8-443b-9f41-9417530b2115","ios":"levelo://app?vid=70d6316d-15d8-443b-9f41-9417530b2115"},"vehicle_type_id":"4","last_reported":1726686468,"current_range_meters":4000,"station_id":"ce4bho12rcd13ifvqh1g","pricing_plan_id":"cebpf4jnsgd1na2vs0mg"},{"bike_id":"fa690805-233a-4a70-a9f3-33f1b67cdb1f","system_id":"levelo_inurba_marseille","lat":43.32284,"lon":5.38263,"is_reserved":false,"is_disabled":false,"rental_uris":{"android":"levelo://app?vid=fa690805-233a-4a70-a9f3-33f1b67cdb1f","ios":"levelo://app?vid=fa690805-233a-4a70-a9f3-33f1b67cdb1f"},"vehicle_type_id":"4","last_reported":1726686468,"current_range_meters":27200,"station_id":"ce4bhr12rcd13ifvqhqg","pricing_plan_id":"cebpf4jnsgd1na2vs0mg"},{"bike_id":"cbe1f610-9ee1-4b04-a8cd-7f6ae05b413e","system_id":"levelo_inurba_marseille","lat":43.29252,"lon":5.38445,"is_reserved":false,"is_disabled":false,"rental_uris":{"android":"levelo://app?vid=cbe1f610-9ee1-4b04-a8cd-7f6ae05b413e","ios":"levelo://app?vid=cbe1f610-9ee1-4b04-a8cd-7f6ae05b413e"},"vehicle_type_id":"4","last_reported":1726686468,"current_range_meters":39200,"station_id":"ce4bh692rcd13ifvqea0","pricing_plan_id":"cebpf4jnsgd1na2vs0mg"},{"bike_id":"8b608b96-fedf-4511-8d4b-09bad2606e1a","system_id":"levelo_inurba_marseille","lat":43.27729,"lon":5.41137,"is_reserved":false,"is_disabled":false,"rental_uris":{"android":"levelo://app?vid=8b608b96-fedf-4511-8d4b-09bad2606e1a","ios":"levelo://app?vid=8b608b96-fedf-4511-8d4b-09bad2606e1a"},"vehicle_type_id":"4","last_reported":1726686468,"current_range_meters":3200,"station_id":"","pricing_plan_id":"cebpf4jnsgd1na2vs0mg"},{"bike_id":"8c12bd83-89b9-4649-8c2d-757175de3b87","system_id":"levelo_inurba_marseille","lat":43.30132,"lon":5.38784,"is_reserved":false,"is_disabled":false,"rental_uris":{"android":"levelo://app?vid=8c12bd83-89b9-4649-8c2d-757175de3b87","ios":"levelo://app?vid=8c12bd83-89b9-4649-8c2d-757175de3b87"},"vehicle_type_id":"4","last_reported":1726686468,"current_range_meters":34000,"station_id":"ce4bghh2rcd13ifvqb60","pricing_plan_id":"cebpf4jnsgd1na2vs0mg"},{"bike_id":"6295a2d5-a262-41cd-b602-712d9ee9a468","system_id":"levelo_inurba_marseille","lat":43.28928,"lon":5.36638,"is_reserved":false,"is_disabled":false,"rental_uris":{"android":"levelo://app?vid=6295a2d5-a262-41cd-b602-712d9ee9a468","ios":"levelo://app?vid=6295a2d5-a262-41cd-b602-712d9ee9a468"},"vehicle_type_id":"4","last_reported":1726686468,"current_range_meters":19200,"station_id":"ce4bhap2rcd13ifvqek0","pricing_plan_id":"cebpf4jnsgd1na2vs0mg"},{"bike_id":"76a821bf-b661-4132-8252-92134dbb113e","system_id":"levelo_inurba_marseille","lat":43.30257,"lon":5.40072,"is_reserved":false,"is_disabled":false,"rental_uris":{"android":"levelo://app?vid=76a821bf-b661-4132-8252-92134dbb113e","ios":"levelo://app?vid=76a821bf-b661-4132-8252-92134dbb113e"},"vehicle_type_id":"4","last_reported":1726686468,"current_range_meters":34800,"station_id":"ce4bgvh2rcd13ifvqcs0","pricing_plan_id":"cebpf4jnsgd1na2vs0mg"},{"bike_id":"1e22a774-8b91-4465-8785-ed44b840b515","system_id":"levelo_inurba_marseille","lat":43.30802,"lon":5.38156,"is_reserved":false,"is_disabled":false,"rental_uris":{"android":"levelo://app?vid=1e22a774-8b91-4465-8785-ed44b840b515","ios":"levelo://app?vid=1e22a774-8b91-4465-8785-ed44b840b515"},"vehicle_type_id":"4","last_reported":1726686468,"current_range_meters":24800,"station_id":"ce4bgt12rcd13ifvqce0","pricing_plan_id":"cebpf4jnsgd1na2vs0mg"},{"bike_id":"5a5670bf-02f2-409e-91a1-66a418fef6b7","system_id":"levelo_inurba_marseille","lat":43.27898,"lon":5.38007,"is_reserved":false,"is_disabled":false,"rental_uris":{"android":"levelo://app?vid=5a5670bf-02f2-409e-91a1-66a418fef6b7","ios":"levelo://app?vid=5a5670bf-02f2-409e-91a1-66a418fef6b7"},"vehicle_type_id":"4","last_reported":1726686468,"current_range_meters":28000,"station_id":"ce4bhf92rcd13ifvqf50","pricing_plan_id":"cebpf4jnsgd1na2vs0mg"},{"bike_id":"e95562f2-ea41-48ff-b212-746c44bde19d","system_id":"levelo_inurba_marseille","lat":43.29269,"lon":5.38447,"is_reserved":false,"is_disabled":false,"rental_uris":{"android":"levelo://app?vid=e95562f2-ea41-48ff-b212-746c44bde19d","ios":"levelo://app?vid=e95562f2-ea41-48ff-b212-746c44bde19d"},"vehicle_type_id":"4","last_reported":1726686468,"current_range_meters":38800,"station_id":"ce4bh692rcd13ifvqea0","pricing_plan_id":"cebpf4jnsgd1na2vs0mg"},{"bike_id":"a2e4bcbf-e3f1-4b09-9ec2-6bd2b8536fc7","system_id":"levelo_inurba_marseille","lat":43.29875,"lon":5.38911,"is_reserved":false,"is_disabled":false,"rental_uris":{"android":"levelo://app?vid=a2e4bcbf-e3f1-4b09-9ec2-6bd2b8536fc7","ios":"levelo://app?vid=a2e4bcbf-e3f1-4b09-9ec2-6bd2b8536fc7"},"vehicle_type_id":"4","last_reported":1726686468,"current_range_meters":38800,"station_id":"ce4bh392rcd13ifvqdl0","pricing_plan_id":"cebpf4jnsgd1na2vs0mg"},{"bike_id":"f0c6f8eb-1ccb-4334-a1f7-8d11a82ce2d4","system_id":"levelo_inurba_marseille","lat":43.28431,"lon":5.39187,"is_reserved":false,"is_disabled":false,"rental_uris":{"android":"levelo://app?vid=f0c6f8eb-1ccb-4334-a1f7-8d11a82ce2d4","ios":"levelo://app?vid=f0c6f8eb-1ccb-4334-a1f7-8d11a82ce2d4"},"vehicle_type_id":"4","last_reported":1726686468,"current_range_meters":16000,"station_id":"ce4bhoh2rcd13ifvqh5g","pricing_plan_id":"cebpf4jnsgd1na2vs0mg"},{"bike_id":"0233f0af-35d2-47b6-b2fc-15e59b18717b","system_id":"levelo_inurba_marseille","lat":43.23058,"lon":5.3549,"is_reserved":false,"is_disabled":false,"rental_uris":{"android":"levelo://app?vid=0233f0af-35d2-47b6-b2fc-15e59b18717b","ios":"levelo://app?vid=0233f0af-35d2-47b6-b2fc-15e59b18717b"},"vehicle_type_id":"4","last_reported":1726686468,"current_range_meters":20800,"station_id":"cpo3342slgdg3j2ifvpg","pricing_plan_id":"cebpf4jnsgd1na2vs0mg"},{"bike_id":"6341f889-dc90-4971-b8cc-50a024eced54","system_id":"levelo_inurba_marseille","lat":43.29512,"lon":5.39409,"is_reserved":false,"is_disabled":false,"rental_uris":{"android":"levelo://app?vid=6341f889-dc90-4971-b8cc-50a024eced54","ios":"levelo://app?vid=6341f889-dc90-4971-b8cc-50a024eced54"},"vehicle_type_id":"4","last_reported":1726686468,"current_range_meters":25200,"station_id":"ce4bh292rcd13ifvqdf0","pricing_plan_id":"cebpf4jnsgd1na2vs0mg"},{"bike_id":"1be052d1-ff94-4095-aab0-4664d445c421","system_id":"levelo_inurba_marseille","lat":43.25089,"lon":5.39526,"is_reserved":false,"is_disabled":false,"rental_uris":{"android":"levelo://app?vid=1be052d1-ff94-4095-aab0-4664d445c421","ios":"levelo://app?vid=1be052d1-ff94-4095-aab0-4664d445c421"},"vehicle_type_id":"4","last_reported":1726686468,"current_range_meters":12800,"station_id":"ce4bhm12rcd13ifvqgkg","pricing_plan_id":"cebpf4jnsgd1na2vs0mg"},{"bike_id":"28cc4f42-0c59-4c04-b868-2d61f35ef940","system_id":"levelo_inurba_marseille","lat":43.29532,"lon":5.38547,"is_reserved":false,"is_disabled":false,"rental_uris":{"android":"levelo://app?vid=28cc4f42-0c59-4c04-b868-2d61f35ef940","ios":"levelo://app?vid=28cc4f42-0c59-4c04-b868-2d61f35ef940"},"vehicle_type_id":"4","last_reported":1726686468,"current_range_meters":38800,"station_id":"ce4bgih2rcd13ifvqba0","pricing_plan_id":"cebpf4jnsgd1na2vs0mg"},{"bike_id":"23a6ea08-0f55-40a5-997a-6eca3ef89d5b","system_id":"levelo_inurba_marseille","lat":43.24069,"lon":5.37768,"is_reserved":false,"is_disabled":false,"rental_uris":{"android":"levelo://app?vid=23a6ea08-0f55-40a5-997a-6eca3ef89d5b","ios":"levelo://app?vid=23a6ea08-0f55-40a5-997a-6eca3ef89d5b"},"vehicle_type_id":"4","last_reported":1726686468,"current_range_meters":36400,"station_id":"ce4bhnp2rcd13ifvqgvg","pricing_plan_id":"cebpf4jnsgd1na2vs0mg"},{"bike_id":"342c1282-75ca-4d98-98bc-923d8818eb0d","system_id":"levelo_inurba_marseille","lat":43.29252,"lon":5.40925,"is_reserved":false,"is_disabled":false,"rental_uris":{"android":"levelo://app?vid=342c1282-75ca-4d98-98bc-923d8818eb0d","ios":"levelo://app?vid=342c1282-75ca-4d98-98bc-923d8818eb0d"},"vehicle_type_id":"4","last_reported":1726686468,"current_range_meters":8800,"station_id":"ce4bh192rcd13ifvqdc0","pricing_plan_id":"cebpf4jnsgd1na2vs0mg"},{"bike_id":"e41512a5-fc1e-4b06-82e1-fd61533bebd1","system_id":"levelo_inurba_marseille","lat":43.28457,"lon":5.35886,"is_reserved":false,"is_disabled":false,"rental_uris":{"android":"levelo://app?vid=e41512a5-fc1e-4b06-82e1-fd61533bebd1","ios":"levelo://app?vid=e41512a5-fc1e-4b06-82e1-fd61533bebd1"},"vehicle_type_id":"4","last_reported":1726686468,"current_range_meters":6400,"station_id":"ce4bhah2rcd13ifvqei0","pricing_plan_id":"cebpf4jnsgd1na2vs0mg"},{"bike_id":"b07dc456-9600-4718-9a15-c485b2ad44cb","system_id":"levelo_inurba_marseille","lat":43.27807,"lon":5.40724,"is_reserved":false,"is_disabled":false,"rental_uris":{"android":"levelo://app?vid=b07dc456-9600-4718-9a15-c485b2ad44cb","ios":"levelo://app?vid=b07dc456-9600-4718-9a15-c485b2ad44cb"},"vehicle_type_id":"4","last_reported":1726686468,"current_range_meters":15200,"station_id":"ce4bhnh2rcd13ifvqgtg","pricing_plan_id":"cebpf4jnsgd1na2vs0mg"},{"bike_id":"e2421df7-1c7d-4e98-96e2-c048573d19af","system_id":"levelo_inurba_marseille","lat":43.29783,"lon":5.39357,"is_reserved":false,"is_disabled":false,"rental_uris":{"android":"levelo://app?vid=e2421df7-1c7d-4e98-96e2-c048573d19af","ios":"levelo://app?vid=e2421df7-1c7d-4e98-96e2-c048573d19af"},"vehicle_type_id":"4","last_reported":1726686468,"current_range_meters":27600,"station_id":"chh1huq6cuj3fo74tm60","pricing_plan_id":"cebpf4jnsgd1na2vs0mg"},{"bike_id":"f7b049d3-0e8d-420f-b746-e110d865dbe7","system_id":"levelo_inurba_marseille","lat":43.26927,"lon":5.40236,"is_reserved":false,"is_disabled":false,"rental_uris":{"android":"levelo://app?vid=f7b049d3-0e8d-420f-b746-e110d865dbe7","ios":"levelo://app?vid=f7b049d3-0e8d-420f-b746-e110d865dbe7"},"vehicle_type_id":"4","last_reported":1726686468,"current_range_meters":13600,"station_id":"cjm6bp8fraef2m0cb0m0","pricing_plan_id":"cebpf4jnsgd1na2vs0mg"},{"bike_id":"6da1dc80-45f7-4791-ba5a-2e0ca1a7d956","system_id":"levelo_inurba_marseille","lat":43.2951,"lon":5.39416,"is_reserved":false,"is_disabled":false,"rental_uris":{"android":"levelo://app?vid=6da1dc80-45f7-4791-ba5a-2e0ca1a7d956","ios":"levelo://app?vid=6da1dc80-45f7-4791-ba5a-2e0ca1a7d956"},"vehicle_type_id":"4","last_reported":1726686468,"current_range_meters":26800,"station_id":"ce4bh292rcd13ifvqdf0","pricing_plan_id":"cebpf4jnsgd1na2vs0mg"},{"bike_id":"ae5fe34a-33d8-41d0-aaad-6eb8613438c1","system_id":"levelo_inurba_marseille","lat":43.29972,"lon":5.38492,"is_reserved":false,"is_disabled":false,"rental_uris":{"android":"levelo://app?vid=ae5fe34a-33d8-41d0-aaad-6eb8613438c1","ios":"levelo://app?vid=ae5fe34a-33d8-41d0-aaad-6eb8613438c1"},"vehicle_type_id":"4","last_reported":1726686468,"current_range_meters":38800,"station_id":"ce4bgj92rcd13ifvqbd0","pricing_plan_id":"cebpf4jnsgd1na2vs0mg"},{"bike_id":"a0ef5eb5-8b16-4e07-bc6b-76ccbd003aa4","system_id":"levelo_inurba_marseille","lat":43.28463,"lon":5.35883,"is_reserved":false,"is_disabled":false,"rental_uris":{"android":"levelo://app?vid=a0ef5eb5-8b16-4e07-bc6b-76ccbd003aa4","ios":"levelo://app?vid=a0ef5eb5-8b16-4e07-bc6b-76ccbd003aa4"},"vehicle_type_id":"4","last_reported":1726686468,"current_range_meters":38800,"station_id":"ce4bhah2rcd13ifvqei0","pricing_plan_id":"cebpf4jnsgd1na2vs0mg"},{"bike_id":"c2c9a555-6ec8-4b92-b33e-073571605c93","system_id":"levelo_inurba_marseille","lat":43.23187,"lon":5.3556,"is_reserved":false,"is_disabled":false,"rental_uris":{"android":"levelo://app?vid=c2c9a555-6ec8-4b92-b33e-073571605c93","ios":"levelo://app?vid=c2c9a555-6ec8-4b92-b33e-073571605c93"},"vehicle_type_id":"4","last_reported":1726686468,"current_range_meters":36400,"station_id":"ce4bhu92rcd13ifvqi70","pricing_plan_id":"cebpf4jnsgd1na2vs0mg"},{"bike_id":"5a82f295-988a-4376-8039-2b42eaaf0a77","system_id":"levelo_inurba_marseille","lat":43.30882,"lon":5.39642,"is_reserved":false,"is_disabled":false,"rental_uris":{"android":"levelo://app?vid=5a82f295-988a-4376-8039-2b42eaaf0a77","ios":"levelo://app?vid=5a82f295-988a-4376-8039-2b42eaaf0a77"},"vehicle_type_id":"4","last_reported":1726686468,"current_range_meters":24000,"station_id":"ce4bh012rcd13ifvqcv0","pricing_plan_id":"cebpf4jnsgd1na2vs0mg"},{"bike_id":"f4d04d79-1d06-467a-aac3-c1872993d21c","system_id":"levelo_inurba_marseille","lat":43.2315,"lon":5.43708,"is_reserved":false,"is_disabled":false,"rental_uris":{"android":"levelo://app?vid=f4d04d79-1d06-467a-aac3-c1872993d21c","ios":"levelo://app?vid=f4d04d79-1d06-467a-aac3-c1872993d21c"},"vehicle_type_id":"4","last_reported":1726686468,"current_range_meters":8800,"station_id":"ce4bhmp2rcd13ifvqgog","pricing_plan_id":"cebpf4jnsgd1na2vs0mg"},{"bike_id":"56d42290-d865-483c-a937-6f5aadd018ff","system_id":"levelo_inurba_marseille","lat":43.301453,"lon":5.37418,"is_reserved":false,"is_disabled":false,"rental_uris":{"android":"levelo://app?vid=56d42290-d865-483c-a937-6f5aadd018ff","ios":"levelo://app?vid=56d42290-d865-483c-a937-6f5aadd018ff"},"vehicle_type_id":"4","last_reported":1726686468,"current_range_meters":38800,"station_id":"ce4bgs92rcd13ifvqcc0","pricing_plan_id":"cebpf4jnsgd1na2vs0mg"},{"bike_id":"bbaf7a35-3951-419b-a46e-6b1de6656039","system_id":"levelo_inurba_marseille","lat":43.25,"lon":5.38929,"is_reserved":false,"is_disabled":false,"rental_uris":{"android":"levelo://app?vid=bbaf7a35-3951-419b-a46e-6b1de6656039","ios":"levelo://app?vid=bbaf7a35-3951-419b-a46e-6b1de6656039"},"vehicle_type_id":"4","last_reported":1726686468,"current_range_meters":23200,"station_id":"ce4bhgp2rcd13ifvqfd0","pricing_plan_id":"cebpf4jnsgd1na2vs0mg"},{"bike_id":"e5ce120e-f189-4882-876a-d185220bcf95","system_id":"levelo_inurba_marseille","lat":43.3302,"lon":5.39049,"is_reserved":false,"is_disabled":false,"rental_uris":{"android":"levelo://app?vid=e5ce120e-f189-4882-876a-d185220bcf95","ios":"levelo://app?vid=e5ce120e-f189-4882-876a-d185220bcf95"},"vehicle_type_id":"4","last_reported":1726686468,"current_range_meters":9200,"station_id":"ce4bhr92rcd13ifvqhrg","pricing_plan_id":"cebpf4jnsgd1na2vs0mg"},{"bike_id":"0a3283f9-1885-4d53-8177-f8e3517fc853","system_id":"levelo_inurba_marseille","lat":43.28906,"lon":5.37808,"is_reserved":false,"is_disabled":false,"rental_uris":{"android":"levelo://app?vid=0a3283f9-1885-4d53-8177-f8e3517fc853","ios":"levelo://app?vid=0a3283f9-1885-4d53-8177-f8e3517fc853"},"vehicle_type_id":"4","last_reported":1726686468,"current_range_meters":28000,"station_id":"","pricing_plan_id":"cebpf4jnsgd1na2vs0mg"},{"bike_id":"b3519fa5-b215-4006-896e-757859019804","system_id":"levelo_inurba_marseille","lat":43.29421,"lon":5.38628,"is_reserved":false,"is_disabled":false,"rental_uris":{"android":"levelo://app?vid=b3519fa5-b215-4006-896e-757859019804","ios":"levelo://app?vid=b3519fa5-b215-4006-896e-757859019804"},"vehicle_type_id":"4","last_reported":1726686468,"current_range_meters":6000,"station_id":"ce4bh2h2rcd13ifvqdh0","pricing_plan_id":"cebpf4jnsgd1na2vs0mg"},