{"last_updated":1700391927,"ttl":30,"version":"2.2","data":{"bikes":[{"bike_id":"0c1a1e98-c95e-49d0-a641-10cc2d2c3f3d","system_id":"levelo_inurba_marseille","lat":43.312239,"lon":5.368562,"is_reserved":false,"is_disabled":false,"rental_uris":{"android":"levelo://app?vid=0c1a1e98-c95e-49d0-a641-10cc2d2c3f3d","ios":"levelo://app?vid=0c1a1e98-c95e-49d0-a641-10cc2d2c3f3d"},"vehicle_type_id":"4","last_reported":1700391928,"current_range_meters":30800,"station_id":"ce4bgl92rcd13ifvqbq0","pricing_plan_id":"free"},{"bike_id":"7a885d95-b87f-4a3f-8502-cc1b031c2230","system_id":"levelo_inurba_marseille","lat":43.309076,"lon":5.368465,"is_reserved":false,"is_disabled":false,"rental_uris":{"android":"levelo://app?vid=7a885d95-b87f-4a3f-8502-cc1b031c2230","ios":"levelo://app?vid=7a885d95-b87f-4a3f-8502-cc1b031c2230"},"vehicle_type_id":"4","last_reported":1700391928,"current_range_meters":30800,"station_id":"ce4bgn92rcd13ifvqbvg","pricing_plan_id":"free"},{"bike_id":"8107c2e4-c7df-4617-978e-4b3b6c674ab6","system_id":"levelo_inurba_marseille","lat":43.309076,"lon":5.368465,"is_reserved":false,"is_disabled":false,"rental_uris":{"android":"levelo://app?vid=8107c2e4-c7df-4617-978e-4b3b6c674ab6","ios":"levelo://app?vid=8107c2e4-c7df-4617-978e-4b3b6c674ab6"},"vehicle_type_id":"4","last_reported":1700391928,"current_range_meters":17200,"station_id":"ce4bgn92rcd13ifvqbvg","pricing_plan_id":"free"},{"bike_id":"3475d204-43b6-43d9-b615-ca1d0d58200e","system_id":"levelo_inurba_marseille","lat":43.30679,"lon":5.3679,"is_reserved":false,"is_disabled":false,"rental_uris":{"android":"levelo://app?vid=3475d204-43b6-43d9-b615-ca1d0d58200e","ios":"levelo://app?vid=3475d204-43b6-43d9-b615-ca1d0d58200e"},"vehicle_type_id":"4","last_reported":1700391928,"current_range_meters":11200,"station_id":"","pricing_plan_id":"free"},{"bike_id":"607819cf-a4fa-4b55-885d-29b97af7d346","system_id":"levelo_inurba_marseille","lat":43.30553,"lon":5.36697,"is_reserved":false,"is_disabled":false,"rental_uris":{"android":"levelo://app?vid=607819cf-a4fa-4b55-885d-29b97af7d346","ios":"levelo://app?vid=607819cf-a4fa-4b55-885d-29b97af7d346"},"vehicle_type_id":"4","last_reported":1700391928,"current_range_meters":0,"station_id":"ce4bgrp2rcd13ifvqc9g","pricing_plan_id":"free"},{"bike_id":"1a9ca1e0-5541-49ff-811a-61f61fc9bc80","system_id":"levelo_inurba_marseille","lat":43.30544,"lon":5.36712,"is_reserved":false,"is_disabled":false,"rental_uris":{"android":"levelo://app?vid=1a9ca1e0-5541-49ff-811a-61f61fc9bc80","ios":"levelo://app?vid=1a9ca1e0-5541-49ff-811a-61f61fc9bc80"},"vehicle_type_id":"4","last_reported":1700391928,"current_range_meters":20400,"station_id":"ce4bgrp2rcd13ifvqc9g","pricing_plan_id":"free"},{"bike_id":"09ccbac6-0f01-4cfb-8bb8-da5484277d5c","system_id":"levelo_inurba_marseille","lat":43.319519,"lon":5.371001,"is_reserved":false,"is_disabled":false,"rental_uris":{"android":"levelo://app?vid=09ccbac6-0f01-4cfb-8bb8-da5484277d5c","ios":"levelo://app?vid=09ccbac6-0f01-4cfb-8bb8-da5484277d5c"},"vehicle_type_id":"4","last_reported":1700391928,"current_range_meters":1200,"station_id":"","pricing_plan_id":"free"},{"bike_id":"66eac4f4-04e8-4ddc-bfe4-d2570a7e3c30","system_id":"levelo_inurba_marseille","lat":43.30532,"lon":5.36544,"is_reserved":false,"is_disabled":false,"rental_uris":{"android":"levelo://app?vid=66eac4f4-04e8-4ddc-bfe4-d2570a7e3c30","ios":"levelo://app?vid=66eac4f4-04e8-4ddc-bfe4-d2570a7e3c30"},"vehicle_type_id":"4","last_reported":1700391928,"current_range_meters":2000,"station_id":"ce4bgs12rcd13ifvqcag","pricing_plan_id":"free"},{"bike_id":"dcbf9c93-0758-41cf-8699-4ede01d69428","system_id":"levelo_inurba_marseille","lat":43.308194,"lon":5.376554,"is_reserved":false,"is_disabled":false,"rental_uris":{"android":"levelo://app?vid=dcbf9c93-0758-41cf-8699-4ede01d69428","ios":"levelo://app?vid=dcbf9c93-0758-41cf-8699-4ede01d69428"},"vehicle_type_id":"4","last_reported":1700391928,"current_range_meters":12000,"station_id":"ce4bgv92rcd13ifvqcq0","pricing_plan_id":"free"},{"bike_id":"184737ea-30ec-475d-964a-e94f53249e42","system_id":"levelo_inurba_marseille","lat":43.307945,"lon":5.376487,"is_reserved":false,"is_disabled":false,"rental_uris":{"android":"levelo://app?vid=184737ea-30ec-475d-964a-e94f53249e42","ios":"levelo://app?vid=184737ea-30ec-475d-964a-e94f53249e42"},"vehicle_type_id":"4","last_reported":1700391928,"current_range_meters":28000,"station_id":"ce4bgv92rcd13ifvqcq0","pricing_plan_id":"free"},{"bike_id":"621c6813-1569-4a9e-8f10-4a24632f0f5f","system_id":"levelo_inurba_marseille","lat":43.307833,"lon":5.376497,"is_reserved":false,"is_disabled":false,"rental_uris":{"android":"levelo://app?vid=621c6813-1569-4a9e-8f10-4a24632f0f5f","ios":"levelo://app?vid=621c6813-1569-4a9e-8f10-4a24632f0f5f"},"vehicle_type_id":"4","last_reported":1700391928,"current_range_meters":28800,"station_id":"ce4bgv92rcd13ifvqcq0","pricing_plan_id":"free"},{"bike_id":"c1b6f7bd-7ece-4b07-acb1-5c9f9e2474c0","system_id":"levelo_inurba_marseille","lat":43.321805,"lon":5.375155,"is_reserved":false,"is_disabled":false,"rental_uris":{"android":"levelo://app?vid=c1b6f7bd-7ece-4b07-acb1-5c9f9e2474c0","ios":"levelo://app?vid=c1b6f7bd-7ece-4b07-acb1-5c9f9e2474c0"},"vehicle_type_id":"4","last_reported":1700391928,"current_range_meters":28400,"station_id":"","pricing_plan_id":"free"},{"bike_id":"c0ff12ed-62e6-4631-8a97-97aa0a287e97","system_id":"levelo_inurba_marseille","lat":43.304606,"lon":5.379026,"is_reserved":false,"is_disabled":false,"rental_uris":{"android":"levelo://app?vid=c0ff12ed-62e6-4631-8a97-97aa0a287e97","ios":"levelo://app?vid=c0ff12ed-62e6-4631-8a97-97aa0a287e97"},"vehicle_type_id":"4","last_reported":1700391928,"current_range_meters":19600,"station_id":"ce4bgup2rcd13ifvqcn0","pricing_plan_id":"free"},{"bike_id":"8c6b9948-2f23-41f5-967e-cd18cc963390","system_id":"levelo_inurba_marseille","lat":43.32481,"lon":5.36559,"is_reserved":false,"is_disabled":false,"rental_uris":{"android":"levelo://app?vid=8c6b9948-2f23-41f5-967e-cd18cc963390","ios":"levelo://app?vid=8c6b9948-2f23-41f5-967e-cd18cc963390"},"vehicle_type_id":"4","last_reported":1700391928,"current_range_meters":15600,"station_id":"ce4bhs12rcd13ifvqhvg","pricing_plan_id":"free"},{"bike_id":"80aa2afa-97fa-4924-bdce-8c8516f416e1","system_id":"levelo_inurba_marseille","lat":43.32482,"lon":5.36577,"is_reserved":false,"is_disabled":false,"rental_uris":{"android":"levelo://app?vid=80aa2afa-97fa-4924-bdce-8c8516f416e1","ios":"levelo://app?vid=80aa2afa-97fa-4924-bdce-8c8516f416e1"},"vehicle_type_id":"4","last_reported":1700391928,"current_range_meters":23200,"station_id":"ce4bhs12rcd13ifvqhvg","pricing_plan_id":"free"},{"bike_id":"3a722b20-8d9a-4ed7-bed2-82edca53ad10","system_id":"levelo_inurba_marseille","lat":43.324829,"lon":5.365574,"is_reserved":false,"is_disabled":false,"rental_uris":{"android":"levelo://app?vid=3a722b20-8d9a-4ed7-bed2-82edca53ad10","ios":"levelo://app?vid=3a722b20-8d9a-4ed7-bed2-82edca53ad10"},"vehicle_type_id":"4","last_reported":1700391928,"current_range_meters":18000,"station_id":"ce4bhs12rcd13ifvqhvg","pricing_plan_id":"free"},{"bike_id":"fde8decb-52ff-450a-9d1e-76a161db02e3","system_id":"levelo_inurba_marseille","lat":43.299222,"lon":5.365554,"is_reserved":false,"is_disabled":false,"rental_uris":{"android":"levelo://app?vid=fde8decb-52ff-450a-9d1e-76a161db02e3","ios":"levelo://app?vid=fde8decb-52ff-450a-9d1e-76a161db02e3"},"vehicle_type_id":"4","last_reported":1700391928,"current_range_meters":20800,"station_id":"ce4bgm92rcd13ifvqbr0","pricing_plan_id":"free"},{"bike_id":"f3b47344-6199-4d65-bf32-8398cebf479c","system_id":"levelo_inurba_marseille","lat":43.299724,"lon":5.371829,"is_reserved":false,"is_disabled":false,"rental_uris":{"android":"levelo://app?vid=f3b47344-6199-4d65-bf32-8398cebf479c","ios":"levelo://app?vid=f3b47344-6199-4d65-bf32-8398cebf479c"},"vehicle_type_id":"4","last_reported":1700391928,"current_range_meters":0,"station_id":"ce4bgr92rcd13ifvqc7g","pricing_plan_id":"free"},{"bike_id":"db17b890-bd44-4881-8231-2021dcfbe19b","system_id":"levelo_inurba_marseille","lat":43.29926,"lon":5.36536,"is_reserved":false,"is_disabled":false,"rental_uris":{"android":"levelo://app?vid=db17b890-bd44-4881-8231-2021dcfbe19b","ios":"levelo://app?vid=db17b890-bd44-4881-8231-2021dcfbe19b"},"vehicle_type_id":"4","last_reported":1700391928,"current_range_meters":21200,"station_id":"ce4bgm92rcd13ifvqbr0","pricing_plan_id":"free"},{"bike_id":"5da9dea2-bd9f-4746-b637-56e44ea9e587","system_id":"levelo_inurba_marseille","lat":43.298489,"lon":5.362942,"is_reserved":false,"is_disabled":false,"rental_uris":{"android":"levelo://app?vid=5da9dea2-bd9f-4746-b637-56e44ea9e587","ios":"levelo://app?vid=5da9dea2-bd9f-4746-b637-56e44ea9e587"},"vehicle_type_id":"4","last_reported":1700391928,"current_range_meters":0,"station_id":"","pricing_plan_id":"free"},{"bike_id":"14e34e1b-b52d-4edb-9a9b-6603ea5f5dae","system_id":"levelo_inurba_marseille","lat":43.311722,"lon":5.387247,"is_reserved":false,"is_disabled":false,"rental_uris":{"android":"levelo://app?vid=14e34e1b-b52d-4edb-9a9b-6603ea5f5dae","ios":"levelo://app?vid=14e34e1b-b52d-4edb-9a9b-6603ea5f5dae"},"vehicle_type_id":"4","last_reported":1700391928,"current_range_meters":20800,"station_id":"ce4bgv12rcd13ifvqcp0","pricing_plan_id":"free"},{"bike_id":"6c5d7580-0af2-4711-aac6-b10b4ab61119","system_id":"levelo_inurba_marseille","lat":43.297847,"lon":5.372297,"is_reserved":false,"is_disabled":false,"rental_uris":{"android":"levelo://app?vid=6c5d7580-0af2-4711-aac6-b10b4ab61119","ios":"levelo://app?vid=6c5d7580-0af2-4711-aac6-b10b4ab61119"},"vehicle_type_id":"4","last_reported":1700391928,"current_range_meters":0,"station_id":"","pricing_plan_id":"free"},{"bike_id":"400f50f1-8856-47a5-98cc-d6af2c8bca12","system_id":"levelo_inurba_marseille","lat":43.32831,"lon":5.36687,"is_reserved":false,"is_disabled":false,"rental_uris":{"android":"levelo://app?vid=400f50f1-8856-47a5-98cc-d6af2c8bca12","ios":"levelo://app?vid=400f50f1-8856-47a5-98cc-d6af2c8bca12"},"vehicle_type_id":"4","last_reported":1700391928,"current_range_meters":10800,"station_id":"ce4bhs92rcd13ifvqi0g","pricing_plan_id":"free"},{"bike_id":"f1823e1a-4a1c-465c-a3d5-b3d8c07ce2f2","system_id":"levelo_inurba_marseille","lat":43.32835,"lon":5.36687,"is_reserved":false,"is_disabled":false,"rental_uris":{"android":"levelo://app?vid=f1823e1a-4a1c-465c-a3d5-b3d8c07ce2f2","ios":"levelo://app?vid=f1823e1a-4a1c-465c-a3d5-b3d8c07ce2f2"},"vehicle_type_id":"4","last_reported":1700391928,"current_range_meters":14400,"station_id":"ce4bhs92rcd13ifvqi0g","pricing_plan_id":"free"},{"bike_id":"a1bfef67-e787-4496-8e54-575847ffa6ab","system_id":"levelo_inurba_marseille","lat":43.32837,"lon":5.3669,"is_reserved":false,"is_disabled":false,"rental_uris":{"android":"levelo://app?vid=a1bfef67-e787-4496-8e54-575847ffa6ab","ios":"levelo://app?vid=a1bfef67-e787-4496-8e54-575847ffa6ab"},"vehicle_type_id":"4","last_reported":1700391928,"current_range_meters":16800,"station_id":"ce4bhs92rcd13ifvqi0g","pricing_plan_id":"free"},{"bike_id":"2a07802c-16d5-4104-9ab3-93ca6dd62601","system_id":"levelo_inurba_marseille","lat":43.29601,"lon":5.368027,"is_reserved":false,"is_disabled":false,"rental_uris":{"android":"levelo://app?vid=2a07802c-16d5-4104-9ab3-93ca6dd62601","ios":"levelo://app?vid=2a07802c-16d5-4104-9ab3-93ca6dd62601"},"vehicle_type_id":"4","last_reported":1700391928,"current_range_meters":26800,"station_id":"","pricing_plan_id":"free"},{"bike_id":"e3a72ada-7638-48e4-8f72-1e47804a3824","system_id":"levelo_inurba_marseille","lat":43.29573,"lon":5.367355,"is_reserved":false,"is_disabled":false,"rental_uris":{"android":"levelo://app?vid=e3a72ada-7638-48e4-8f72-1e47804a3824","ios":"levelo://app?vid=e3a72ada-7638-48e4-8f72-1e47804a3824"},"vehicle_type_id":"4","last_reported":1700391928,"current_range_meters":28000,"station_id":"ce4bgph2rcd13ifvqc2g","pricing_plan_id":"free"},{"bike_id":"fd7a5125-ea76-467e-98b0-cb5d0bc2b780","system_id":"levelo_inurba_marseille","lat":43.296921,"lon":5.376579,"is_reserved":false,"is_disabled":false,"rental_uris":{"android":"levelo://app?vid=fd7a5125-ea76-467e-98b0-cb5d0bc2b780","ios":"levelo://app?vid=fd7a5125-ea76-467e-98b0-cb5d0bc2b780"},"vehicle_type_id":"4","last_reported":1700391928,"current_range_meters":13600,"station_id":"ce4bgkh2rcd13ifvqbl0","pricing_plan_id":"free"},{"bike_id":"462a3f5c-8371-407e-86ab-abaf1708fb4d","system_id":"levelo_inurba_marseille","lat":43.29895,"lon":5.381498,"is_reserved":false,"is_disabled":false,"rental_uris":{"android":"levelo://app?vid=462a3f5c-8371-407e-86ab-abaf1708fb4d","ios":"levelo://app?vid=462a3f5c-8371-407e-86ab-abaf1708fb4d"},"vehicle_type_id":"4","last_reported":1700391928,"current_range_meters":0,"station_id":"ce4bgj12rcd13ifvqbc0","pricing_plan_id":"free"},{"bike_id":"fc5d2b38-75e1-48ea-a4ad-f1750e28dc2e","system_id":"levelo_inurba_marseille","lat":43.317557,"lon":5.390173,"is_reserved":false,"is_disabled":false,"rental_uris":{"android":"levelo://app?vid=fc5d2b38-75e1-48ea-a4ad-f1750e28dc2e","ios":"levelo://app?vid=fc5d2b38-75e1-48ea-a4ad-f1750e28dc2e"},"vehicle_type_id":"4","last_reported":1700391928,"current_range_meters":8800,"station_id":"ce4bhqp2rcd13ifvqhng","pricing_plan_id":"free"},{"bike_id":"67ffd28a-0325-489b-a10f-d90500122751","system_id":"levelo_inurba_marseille","lat":43.295748,"lon":5.37522,"is_reserved":false,"is_disabled":false,"rental_uris":{"android":"levelo://app?vid=67ffd28a-0325-489b-a10f-d90500122751","ios":"levelo://app?vid=67ffd28a-0325-489b-a10f-d90500122751"},"vehicle_type_id":"4","last_reported":1700391928,"current_range_meters":30800,"station_id":"ce4bgh92rcd13ifvqb50","pricing_plan_id":"free"},{"bike_id":"3e3e92fe-39b7-4933-99ff-3747b28b5d69","system_id":"levelo_inurba_marseille","lat":43.328154,"lon":5.380034,"is_reserved":false,"is_disabled":false,"rental_uris":{"android":"levelo://app?vid=3e3e92fe-39b7-4933-99ff-3747b28b5d69","ios":"levelo://app?vid=3e3e92fe-39b7-4933-99ff-3747b28b5d69"},"vehicle_type_id":"4","last_reported":1700391928,"current_range_meters":6400,"station_id":"","pricing_plan_id":"free"},{"bike_id":"d28adcae-53c4-4533-b2be-357a0d11b08b","system_id":"levelo_inurba_marseille","lat":43.29614,"lon":5.37708,"is_reserved":false,"is_disabled":false,"rental_uris":{"android":"levelo://app?vid=d28adcae-53c4-4533-b2be-357a0d11b08b","ios":"levelo://app?vid=d28adcae-53c4-4533-b2be-357a0d11b08b"},"vehicle_type_id":"4","last_reported":1700391928,"current_range_meters":0,"station_id":"ce4bgi92rcd13ifvqb90","pricing_plan_id":"free"},{"bike_id":"e145a3f7-00ac-4f8f-bfe5-435bc38ccaf7","system_id":"levelo_inurba_marseille","lat":43.293801,"lon":5.363066,"is_reserved":false,"is_disabled":false,"rental_uris":{"android":"levelo://app?vid=e145a3f7-00ac-4f8f-bfe5-435bc38ccaf7","ios":"levelo://app?vid=e145a3f7-00ac-4f8f-bfe5-435bc38ccaf7"},"vehicle_type_id":"4","last_reported":1700391928,"current_range_meters":24000,"station_id":"","pricing_plan_id":"free"},{"bike_id":"4eef38cc-64cf-4f4d-8d5b-99bd9d3b1b37","system_id":"levelo_inurba_marseille","lat":43.293217,"lon":5.371116,"is_reserved":false,"is_disabled":false,"rental_uris":{"android":"levelo://app?vid=4eef38cc-64cf-4f4d-8d5b-99bd9d3b1b37","ios":"levelo://app?vid=4eef38cc-64cf-4f4d-8d5b-99bd9d3b1b37"},"vehicle_type_id":"4","last_reported":1700391928,"current_range_meters":24800,"station_id":"","pricing_plan_id":"free"},{"bike_id":"4cd9286c-457a-4899-86d1-ececce399431","system_id":"levelo_inurba_marseille","lat":43.302992,"lon":5.392136,"is_reserved":false,"is_disabled":false,"rental_uris":{"android":"levelo://app?vid=4cd9286c-457a-4899-86d1-ececce399431","ios":"levelo://app?vid=4cd9286c-457a-4899-86d1-ececce399431"},"vehicle_type_id":"4","last_reported":1700391928,"current_range_meters":16800,"station_id":"ce4bgkh2rcd13ifvqbk0","pricing_plan_id":"free"},{"bike_id":"449dbae0-2e20-463a-b348-7bf2df405780","system_id":"levelo_inurba_marseille","lat":43.290104,"lon":5.356111,"is_reserved":false,"is_disabled":false,"rental_uris":{"android":"levelo://app?vid=449dbae0-2e20-463a-b348-7bf2df405780","ios":"levelo://app?vid=449dbae0-2e20-463a-b348-7bf2df405780"},"vehicle_type_id":"4","last_reported":1700391928,"current_range_meters":22400,"station_id":"ce4bhb92rcd13ifvqen0","pricing_plan_id":"free"},{"bike_id":"35ad5c9d-a228-454f-8ea5-95f18cc9bcbd","system_id":"levelo_inurba_marseille","lat":43.28856,"lon":5.358371,"is_reserved":false,"is_disabled":false,"rental_uris":{"android":"levelo://app?vid=35ad5c9d-a228-454f-8ea5-95f18cc9bcbd","ios":"levelo://app?vid=35ad5c9d-a228-454f-8ea5-95f18cc9bcbd"},"vehicle_type_id":"4","last_reported":1700391928,"current_range_meters":12000,"station_id":"ce4bhb12rcd13ifvqem0","pricing_plan_id":"free"},{"bike_id":"07202f70-50d7-46f0-a5bd-59712659d6a0","system_id":"levelo_inurba_marseille","lat":43.31251,"lon":5.40162,"is_reserved":false,"is_disabled":false,"rental_uris":{"android":"levelo://app?vid=07202f70-50d7-46f0-a5bd-59712659d6a0","ios":"levelo://app?vid=07202f70-50d7-46f0-a5bd-59712659d6a0"},"vehicle_type_id":"4","last_reported":1700391928,"current_range_meters":11200,"station_id":"","pricing_plan_id":"free"},{"bike_id":"4b839fc0-878b-4eed-9fc2-f5225b4f213c","system_id":"levelo_inurba_marseille","lat":43.31272,"lon":5.40174,"is_reserved":false,"is_disabled":false,"rental_uris":{"android":"levelo://app?vid=4b839fc0-878b-4eed-9fc2-f5225b4f213c","ios":"levelo://app?vid=4b839fc0-878b-4eed-9fc2-f5225b4f213c"},"vehicle_type_id":"4","last_reported":1700391928,"current_range_meters":0,"station_id":"ce4bh092rcd13ifvqd30","pricing_plan_id":"free"},{"bike_id":"46509513-12f0-4bae-91ab-3b5bb7ed22cf","system_id":"levelo_inurba_marseille","lat":43.337744,"lon":5.37427,"is_reserved":false,"is_disabled":false,"rental_uris":{"android":"levelo://app?vid=46509513-12f0-4bae-91ab-3b5bb7ed22cf","ios":"levelo://app?vid=46509513-12f0-4bae-91ab-3b5bb7ed22cf"},"vehicle_type_id":"4","last_reported":1700391928,"current_range_meters":19200,"station_id":"","pricing_plan_id":"free"},{"bike_id":"00a4c440-7508-477d-8c9b-b01ce6913893","system_id":"levelo_inurba_marseille","lat":43.301117,"lon":5.398795,"is_reserved":false,"is_disabled":false,"rental_uris":{"android":"levelo://app?vid=00a4c440-7508-477d-8c9b-b01ce6913893","ios":"levelo://app?vid=00a4c440-7508-477d-8c9b-b01ce6913893"},"vehicle_type_id":"4","last_reported":1700391928,"current_range_meters":8800,"station_id":"ce4bh0h2rcd13ifvqd40","pricing_plan_id":"free"},{"bike_id":"7cafb726-e5b8-4188-a440-753355aa206c","system_id":"levelo_inurba_marseille","lat":43.286591,"lon":5.363346,"is_reserved":false,"is_disabled":false,"rental_uris":{"android":"levelo://app?vid=7cafb726-e5b8-4188-a440-753355aa206c","ios":"levelo://app?vid=7cafb726-e5b8-4188-a440-753355aa206c"},"vehicle_type_id":"4","last_reported":1700391928,"current_range_meters":16000,"station_id":"ce4bhah2rcd13ifvqej0","pricing_plan_id":"free"},{"bike_id":"78f22ecb-1f06-452c-b4cd-70f7a8b578ac","system_id":"levelo_inurba_marseille","lat":43.286961,"lon":5.373785,"is_reserved":false,"is_disabled":false,"rental_uris":{"android":"levelo://app?vid=78f22ecb-1f06-452c-b4cd-70f7a8b578ac","ios":"levelo://app?vid=78f22ecb-1f06-452c-b4cd-70f7a8b578ac"},"vehicle_type_id":"4","last_reported":1700391928,"current_range_meters":13600,"station_id":"ce4bh3p2rcd13ifvqdq0","pricing_plan_id":"free"},{"bike_id":"c267c21a-808b-4f1e-8000-b93446b37418","system_id":"levelo_inurba_marseille","lat":43.289307,"lon":5.38406,"is_reserved":false,"is_disabled":false,"rental_uris":{"android":"levelo://app?vid=c267c21a-808b-4f1e-8000-b93446b37418","ios":"levelo://app?vid=c267c21a-808b-4f1e-8000-b93446b37418"},"vehicle_type_id":"4","last_reported":1700391928,"current_range_meters":29200,"station_id":"ce4bh612rcd13ifvqe6g","pricing_plan_id":"free"},{"bike_id":"580d1c20-e073-4e49-9769-30bdea7127a7","system_id":"levelo_inurba_marseille","lat":43.302759,"lon":5.400793,"is_reserved":false,"is_disabled":false,"rental_uris":{"android":"levelo://app?vid=580d1c20-e073-4e49-9769-30bdea7127a7","ios":"levelo://app?vid=580d1c20-e073-4e49-9769-30bdea7127a7"},"vehicle_type_id":"4","last_reported":1700391928,"current_range_meters":27200,"station_id":"ce4bgvh2rcd13ifvqcs0","pricing_plan_id":"free"},{"bike_id":"0784ee38-c738-40c3-baae-1d8dee78b29b","system_id":"levelo_inurba_marseille","lat":43.291994,"lon":5.392907,"is_reserved":false,"is_disabled":false,"rental_uris":{"android":"levelo://app?vid=0784ee38-c738-40c3-baae-1d8dee78b29b","ios":"levelo://app?vid=0784ee38-c738-40c3-baae-1d8dee78b29b"},"vehicle_type_id":"4","last_reported":1700391928,"current_range_meters":19600,"station_id":"ce4bh192rcd13ifvqdd0","pricing_plan_id":"free"},{"bike_id":"c74ecca9-7288-4b56-bcbf-445c85154644","system_id":"levelo_inurba_marseille","lat":43.284538,"lon":5.358657,"is_reserved":false,"is_disabled":false,"rental_uris":{"android":"levelo://app?vid=c74ecca9-7288-4b56-bcbf-445c85154644","ios":"levelo://app?vid=c74ecca9-7288-4b56-bcbf-445c85154644"},"vehicle_type_id":"4","last_reported":1700391928,"current_range_meters":31600,"station_id":"ce4bhah2rcd13ifvqei0","pricing_plan_id":"free"},{"bike_id":"9be8853a-f514-482e-8979-00abededa8bc","system_id":"levelo_inurba_marseille","lat":43.284538,"lon":5.358657,"is_reserved":false,"is_disabled":false,"rental_uris":{"android":"levelo://app?vid=9be8853a-f514-482e-8979-00abededa8bc","ios":"levelo://app?vid=9be8853a-f514-482e-8979-00abededa8bc"},"vehicle_type_id":"4","last_reported":1700391928,"current_range_meters":1600,"station_id":"ce4bhah2rcd13ifvqei0","pricing_plan_id":"free"},{"bike_id":"8a3238b8-c61a-4b5d-8888-e341be7627f7","system_id":"levelo_inurba_marseille","lat":43.285848,"lon":5.350787,"is_reserved":false,"is_disabled":false,"rental_uris":{"android":"levelo://app?vid=8a3238b8-c61a-4b5d-8888-e341be7627f7","ios":"levelo://app?vid=8a3238b8-c61a-4b5d-8888-e341be7627f7"},"vehicle_type_id":"4","last_reported":1700391928,"current_range_meters":26000,"station_id":"ce4bhch2rcd13ifvqeug","pricing_plan_id":"free"},{"bike_id":"2bece1a0-3a14-44ba-bca3-0cd701d848a0","system_id":"levelo_inurba_marseille","lat":43.285856,"lon":5.350771,"is_reserved":false,"is_disabled":false,"rental_uris":{"android":"levelo://app?vid=2bece1a0-3a14-44ba-bca3-0cd701d848a0","ios":"levelo://app?vid=2bece1a0-3a14-44ba-bca3-0cd701d848a0"},"vehicle_type_id":"4","last_reported":1700391928,"current_range_meters":24800,"station_id":"ce4bhch2rcd13ifvqeug","pricing_plan_id":"free"},{"bike_id":"ff7bee06-6a09-4bb8-bee9-a99d07c1f836","system_id":"levelo_inurba_marseille","lat":43.285856,"lon":5.350771,"is_reserved":false,"is_disabled":false,"rental_uris":{"android":"levelo://app?vid=ff7bee06-6a09-4bb8-bee9-a99d07c1f836","ios":"levelo://app?vid=ff7bee06-6a09-4bb8-bee9-a99d07c1f836"},"vehicle_type_id":"4","last_reported":1700391928,"current_range_meters":21200,"station_id":"ce4bhch2rcd13ifvqeug","pricing_plan_id":"free"},{"bike_id":"d6691ac0-7c01-4572-b2c3-9fa4041b5064","system_id":"levelo_inurba_marseille","lat":43.283998,"lon":5.375062,"is_reserved":false,"is_disabled":false,"rental_uris":{"android":"levelo://app?vid=d6691ac0-7c01-4572-b2c3-9fa4041b5064","ios":"levelo://app?vid=d6691ac0-7c01-4572-b2c3-9fa4041b5064"},"vehicle_type_id":"4","last_reported":1700391928,"current_range_meters":25200,"station_id":"ce4bh412rcd13ifvqds0","pricing_plan_id":"free"},{"bike_id":"6bd958f1-b8df-40b4-b8e3-3f94f88cbd65","system_id":"levelo_inurba_marseille","lat":43.286595,"lon":5.386795,"is_reserved":false,"is_disabled":false,"rental_uris":{"android":"levelo://app?vid=6bd958f1-b8df-40b4-b8e3-3f94f88cbd65","ios":"levelo://app?vid=6bd958f1-b8df-40b4-b8e3-3f94f88cbd65"},"vehicle_type_id":"4","last_reported":1700391928,"current_range_meters":0,"station_id":"ce4bh492rcd13ifvqdug","pricing_plan_id":"free"},{"bike_id":"39d57ba8-1c9d-41ba-8ae8-ead2a13492f7","system_id":"levelo_inurba_marseille","lat":43.319179,"lon":5.407725,"is_reserved":false,"is_disabled":false,"rental_uris":{"android":"levelo://app?vid=39d57ba8-1c9d-41ba-8ae8-ead2a13492f7","ios":"levelo://app?vid=39d57ba8-1c9d-41ba-8ae8-ead2a13492f7"},"vehicle_type_id":"4","last_reported":1700391928,"current_range_meters":20400,"station_id":"ce4bhq12rcd13ifvqhig","pricing_plan_id":"free"},{"bike_id":"5974ad3b-da81-42ca-a08b-1b3632a47afa","system_id":"levelo_inurba_marseille","lat":43.33237,"lon":5.3985,"is_reserved":false,"is_disabled":false,"rental_uris":{"android":"levelo://app?vid=5974ad3b-da81-42ca-a08b-1b3632a47afa","ios":"levelo://app?vid=5974ad3b-da81-42ca-a08b-1b3632a47afa"},"vehicle_type_id":"4","last_reported":1700391928,"current_range_meters":1600,"station_id":"","pricing_plan_id":"free"},{"bike_id":"a08607c1-816a-491b-a085-3077fb7fb178","system_id":"levelo_inurba_marseille","lat":43.323464,"lon":5.406297,"is_reserved":false,"is_disabled":false,"rental_uris":{"android":"levelo://app?vid=a08607c1-816a-491b-a085-3077fb7fb178","ios":"levelo://app?vid=a08607c1-816a-491b-a085-3077fb7fb178"},"vehicle_type_id":"4","last_reported":1700391928,"current_range_meters":30400,"station_id":"ce4bhq92rcd13ifvqhjg","pricing_plan_id":"free"},{"bike_id":"7ed57a00-706b-464d-9ddb-82eb5f4a8692","system_id":"levelo_inurba_marseille","lat":43.288501,"lon":5.393087,"is_reserved":false,"is_disabled":false,"rental_uris":{"android":"levelo://app?vid=7ed57a00-706b-464d-9ddb-82eb5f4a8692","ios":"levelo://app?vid=7ed57a00-706b-464d-9ddb-82eb5f4a8692"},"vehicle_type_id":"4","last_reported":1700391928,"current_range_meters":15600,"station_id":"ce4bh2p2rcd13ifvqdi0","pricing_plan_id":"free"},{"bike_id":"d3dd3e3d-57b0-4c9e-949f-fddd56c2349c","system_id":"levelo_inurba_marseille","lat":43.32521,"lon":5.40575,"is_reserved":false,"is_disabled":false,"rental_uris":{"android":"levelo://app?vid=d3dd3e3d-57b0-4c9e-949f-fddd56c2349c","ios":"levelo://app?vid=d3dd3e3d-57b0-4c9e-949f-fddd56c2349c"},"vehicle_type_id":"4","last_reported":1700391928,"current_range_meters":0,"station_id":"","pricing_plan_id":"free"},{"bike_id":"d2b701cb-2a4c-44b6-b39c-a8f489ce19e0","system_id":"levelo_inurba_marseille","lat":43.284219,"lon":5.3497,"is_reserved":false,"is_disabled":false,"rental_uris":{"android":"levelo://app?vid=d2b701cb-2a4c-44b6-b39c-a8f489ce19e0","ios":"levelo://app?vid=d2b701cb-2a4c-44b6-b39c-a8f489ce19e0"},"vehicle_type_id":"4","last_reported":1700391928,"current_range_meters":22800,"station_id":"ce4bhbh2rcd13ifvqepg","pricing_plan_id":"free"},{"bike_id":"47505dad-fa52-42ca-9052-2415b15b81a2","system_id":"levelo_inurba_marseille","lat":43.282751,"lon":5.350585,"is_reserved":false,"is_disabled":false,"rental_uris":{"android":"levelo://app?vid=47505dad-fa52-42ca-9052-2415b15b81a2","ios":"levelo://app?vid=47505dad-fa52-42ca-9052-2415b15b81a2"},"vehicle_type_id":"4","last_reported":1700391928,"current_range_meters":27200,"station_id":"ce4bhbp2rcd13ifvqerg","pricing_plan_id":"free"},{"bike_id":"c966c0ef-59e3-4370-b11b-f83051b67cb2","system_id":"levelo_inurba_marseille","lat":43.282754,"lon":5.350519,"is_reserved":false,"is_disabled":false,"rental_uris":{"android":"levelo://app?vid=c966c0ef-59e3-4370-b11b-f83051b67cb2","ios":"levelo://app?vid=c966c0ef-59e3-4370-b11b-f83051b67cb2"},"vehicle_type_id":"4","last_reported":1700391928,"current_range_meters":12400,"station_id":"ce4bhbp2rcd13ifvqerg","pricing_plan_id":"free"},{"bike_id":"4c234714-20f4-449c-9e5a-bb857ed3f896","system_id":"levelo_inurba_marseille","lat":43.28271,"lon":5.35066,"is_reserved":false,"is_disabled":false,"rental_uris":{"android":"levelo://app?vid=4c234714-20f4-449c-9e5a-bb857ed3f896","ios":"levelo://app?vid=4c234714-20f4-449c-9e5a-bb857ed3f896"},"vehicle_type_id":"4","last_reported":1700391928,"current_range_meters":3600,"station_id":"ce4bhbp2rcd13ifvqerg","pricing_plan_id":"free"},{"bike_id":"3d267fb8-f79a-4db4-97f1-e69f04688a26","system_id":"levelo_inurba_marseille","lat":43.28271,"lon":5.35062,"is_reserved":false,"is_disabled":false,"rental_uris":{"android":"levelo://app?vid=3d267fb8-f79a-4db4-97f1-e69f04688a26","ios":"levelo://app?vid=3d267fb8-f79a-4db4-97f1-e69f04688a26"},"vehicle_type_id":"4","last_reported":1700391928,"current_range_meters":17200,"station_id":"ce4bhbp2rcd13ifvqerg","pricing_plan_id":"free"},{"bike_id":"8ce7ce9d-13c3-4819-8220-2922da5dd331","system_id":"levelo_inurba_marseille","lat":43.282754,"lon":5.350519,"is_reserved":false,"is_disabled":false,"rental_uris":{"android":"levelo://app?vid=8ce7ce9d-13c3-4819-8220-2922da5dd331","ios":"levelo://app?vid=8ce7ce9d-13c3-4819-8220-2922da5dd331"},"vehicle_type_id":"4","last_reported":1700391928,"current_range_meters":11200,"station_id":"ce4bhbp2rcd13ifvqerg","pricing_plan_id":"free"},{"bike_id":"a16744a6-66b7-4fca-96b7-0511b9a2857c","system_id":"levelo_inurba_marseille","lat":43.283502,"lon":5.386471,"is_reserved":false,"is_disabled":false,"rental_uris":{"android":"levelo://app?vid=a16744a6-66b7-4fca-96b7-0511b9a2857c","ios":"levelo://app?vid=a16744a6-66b7-4fca-96b7-0511b9a2857c"},"vehicle_type_id":"4","last_reported":1700391928,"current_range_meters":26000,"station_id":"ce4bh492rcd13ifvqdvg","pricing_plan_id":"free"},{"bike_id":"59ce318f-66fb-46f4-9992-b93a6a5cdee3","system_id":"levelo_inurba_marseille","lat":43.28103,"lon":5.37844,"is_reserved":false,"is_disabled":false,"rental_uris":{"android":"levelo://app?vid=59ce318f-66fb-46f4-9992-b93a6a5cdee3","ios":"levelo://app?vid=59ce318f-66fb-46f4-9992-b93a6a5cdee3"},"vehicle_type_id":"4","last_reported":1700391928,"current_range_meters":5600,"station_id":"ce4bha12rcd13ifvqee0","pricing_plan_id":"free"},{"bike_id":"20afe71b-e308-4e10-96d1-c6ba9740cfcc","system_id":"levelo_inurba_marseille","lat":43.28045,"lon":5.35332,"is_reserved":false,"is_disabled":false,"rental_uris":{"android":"levelo://app?vid=20afe71b-e308-4e10-96d1-c6ba9740cfcc","ios":"levelo://app?vid=20afe71b-e308-4e10-96d1-c6ba9740cfcc"},"vehicle_type_id":"4","last_reported":1700391928,"current_range_meters":26400,"station_id":"","pricing_plan_id":"free"},{"bike_id":"ccf9b17e-2fb6-47d5-b5cb-73ea08fcb6e5","system_id":"levelo_inurba_marseille","lat":43.28575,"lon":5.39498,"is_reserved":false,"is_disabled":false,"rental_uris":{"android":"levelo://app?vid=ccf9b17e-2fb6-47d5-b5cb-73ea08fcb6e5","ios":"levelo://app?vid=ccf9b17e-2fb6-47d5-b5cb-73ea08fcb6e5"},"vehicle_type_id":"4","last_reported":1700391928,"current_range_meters":0,"station_id":"ce4bh292rcd13ifvqdg0","pricing_plan_id":"free"},{"bike_id":"e05860e3-01ce-4b1f-86c7-9f839ae165cc","system_id":"levelo_inurba_marseille","lat":43.304188,"lon":5.412904,"is_reserved":false,"is_disabled":false,"rental_uris":{"android":"levelo://app?vid=e05860e3-01ce-4b1f-86c7-9f839ae165cc","ios":"levelo://app?vid=e05860e3-01ce-4b1f-86c7-9f839ae165cc"},"vehicle_type_id":"4","last_reported":1700391928,"current_range_meters":31600,"station_id":"ce4bhop2rcd13ifvqh8g","pricing_plan_id":"free"},{"bike_id":"f5139a86-b706-4667-833c-062f9714c92d","system_id":"levelo_inurba_marseille","lat":43.279087,"lon":5.380114,"is_reserved":false,"is_disabled":false,"rental_uris":{"android":"levelo://app?vid=f5139a86-b706-4667-833c-062f9714c92d","ios":"levelo://app?vid=f5139a86-b706-4667-833c-062f9714c92d"},"vehicle_type_id":"4","last_reported":1700391928,"current_range_meters":6000,"station_id":"ce4bhf92rcd13ifvqf50","pricing_plan_id":"free"},{"bike_id":"95c048aa-7cab-4edf-acbe-afd6442604d0","system_id":"levelo_inurba_marseille","lat":43.279087,"lon":5.380114,"is_reserved":false,"is_disabled":false,"rental_uris":{"android":"levelo://app?vid=95c048aa-7cab-4edf-acbe-afd6442604d0","ios":"levelo://app?vid=95c048aa-7cab-4edf-acbe-afd6442604d0"},"vehicle_type_id":"4","last_reported":1700391928,"current_range_meters":21600,"station_id":"ce4bhf92rcd13ifvqf50","pricing_plan_id":"free"},{"bike_id":"1a66ec51-8872-4bc4-b87a-d78c086073cf","system_id":"levelo_inurba_marseille","lat":43.292646,"lon":5.408107,"is_reserved":false,"is_disabled":false,"rental_uris":{"android":"levelo://app?vid=1a66ec51-8872-4bc4-b87a-d78c086073cf","ios":"levelo://app?vid=1a66ec51-8872-4bc4-b87a-d78c086073cf"},"vehicle_type_id":"4","last_reported":1700391928,"current_range_meters":7200,"station_id":"","pricing_plan_id":"free"},{"bike_id":"ec3d5511-e101-462c-b1f5-b72b05193400","system_id":"levelo_inurba_marseille","lat":43.299577,"lon":5.413277,"is_reserved":false,"is_disabled":false,"rental_uris":{"android":"levelo://app?vid=ec3d5511-e101-462c-b1f5-b72b05193400","ios":"levelo://app?vid=ec3d5511-e101-462c-b1f5-b72b05193400"},"vehicle_type_id":"4","last_reported":1700391928,"current_range_meters":30800,"station_id":"ce4bhp12rcd13ifvqh9g","pricing_plan_id":"free"},{"bike_id":"68df0e61-8ced-464c-aef0-c215538196c3","system_id":"levelo_inurba_marseille","lat":43.279742,"lon":5.38744,"is_reserved":false,"is_disabled":false,"rental_uris":{"android":"levelo://app?vid=68df0e61-8ced-464c-aef0-c215538196c3","ios":"levelo://app?vid=68df0e61-8ced-464c-aef0-c215538196c3"},"vehicle_type_id":"4","last_reported":1700391928,"current_range_meters":14400,"station_id":"ce4bhg12rcd13ifvqf80","pricing_plan_id":"free"},{"bike_id":"2db20705-58b5-40f2-97ed-373c2e0250d5","system_id":"levelo_inurba_marseille","lat":43.292571,"lon":5.409107,"is_reserved":false,"is_disabled":false,"rental_uris":{"android":"levelo://app?vid=2db20705-58b5-40f2-97ed-373c2e0250d5","ios":"levelo://app?vid=2db20705-58b5-40f2-97ed-373c2e0250d5"},"vehicle_type_id":"4","last_reported":1700391928,"current_range_meters":27200,"station_id":"ce4bh192rcd13ifvqdc0","pricing_plan_id":"free"},{"bike_id":"c6788832-3bc0-41bc-81e7-c86f322cdccc","system_id":"levelo_inurba_marseille","lat":43.30356,"lon":5.4188,"is_reserved":false,"is_disabled":false,"rental_uris":{"android":"levelo://app?vid=c6788832-3bc0-41bc-81e7-c86f322cdccc","ios":"levelo://app?vid=c6788832-3bc0-41bc-81e7-c86f322cdccc"},"vehicle_type_id":"4","last_reported":1700391928,"current_range_meters":0,"station_id":"ce4bhop2rcd13ifvqh7g","pricing_plan_id":"free"},{"bike_id":"fae5ff94-e27e-4b7e-b224-12ca24f5701f","system_id":"levelo_inurba_marseille","lat":43.273609,"lon":5.362708,"is_reserved":false,"is_disabled":false,"rental_uris":{"android":"levelo://app?vid=fae5ff94-e27e-4b7e-b224-12ca24f5701f","ios":"levelo://app?vid=fae5ff94-e27e-4b7e-b224-12ca24f5701f"},"vehicle_type_id":"4","last_reported":1700391928,"current_range_meters":0,"station_id":"ce4bhbh2rcd13ifvqeo0","pricing_plan_id":"free"},{"bike_id":"d69994bb-c32a-48c3-9c4a-3b835490a2ba","system_id":"levelo_inurba_marseille","lat":43.279952,"lon":5.400085,"is_reserved":false,"is_disabled":false,"rental_uris":{"android":"levelo://app?vid=d69994bb-c32a-48c3-9c4a-3b835490a2ba","ios":"levelo://app?vid=d69994bb-c32a-48c3-9c4a-3b835490a2ba"},"vehicle_type_id":"4","last_reported":1700391928,"current_range_meters":29200,"station_id":"ce4bho92rcd13ifvqh4g","pricing_plan_id":"free"},{"bike_id":"eafeb385-8734-4d6e-872f-817338dfdd8c","system_id":"levelo_inurba_marseille","lat":43.317121,"lon":5.423936,"is_reserved":false,"is_disabled":false,"rental_uris":{"android":"levelo://app?vid=eafeb385-8734-4d6e-872f-817338dfdd8c","ios":"levelo://app?vid=eafeb385-8734-4d6e-872f-817338dfdd8c"},"vehicle_type_id":"4","last_reported":1700391928,"current_range_meters":20800,"station_id":"ce4bhp92rcd13ifvqhbg","pricing_plan_id":"free"},{"bike_id":"2b211598-c6f8-4e22-9ff6-5fa6873b8d02","system_id":"levelo_inurba_marseille","lat":43.317121,"lon":5.423936,"is_reserved":false,"is_disabled":false,"rental_uris":{"android":"levelo://app?vid=2b211598-c6f8-4e22-9ff6-5fa6873b8d02","ios":"levelo://app?vid=2b211598-c6f8-4e22-9ff6-5fa6873b8d02"},"vehicle_type_id":"4","last_reported":1700391928,"current_range_meters":29600,"station_id":"ce4bhp92rcd13ifvqhbg","pricing_plan_id":"free"},{"bike_id":"78f714bb-7753-4b90-962b-ecf24cce775c","system_id":"levelo_inurba_marseille","lat":43.310785,"lon":5.424305,"is_reserved":false,"is_disabled":false,"rental_uris":{"android":"levelo://app?vid=78f714bb-7753-4b90-962b-ecf24cce775c","ios":"levelo://app?vid=78f714bb-7753-4b90-962b-ecf24cce775c"},"vehicle_type_id":"4","last_reported":1700391928,"current_range_meters":21600,"station_id":"ce4bhp92rcd13ifvqhag","pricing_plan_id":"free"},{"bike_id":"168cf9ab-4a4c-4392-a1f3-6bd96aec7123","system_id":"levelo_inurba_marseille","lat":43.310785,"lon":5.424305,"is_reserved":false,"is_disabled":false,"rental_uris":{"android":"levelo://app?vid=168cf9ab-4a4c-4392-a1f3-6bd96aec7123","ios":"levelo://app?vid=168cf9ab-4a4c-4392-a1f3-6bd96aec7123"},"vehicle_type_id":"4","last_reported":1700391928,"current_range_meters":25600,"station_id":"ce4bhp92rcd13ifvqhag","pricing_plan_id":"free"},{"bike_id":"45f02aaa-4947-4afa-970b-0bee9da852ce","system_id":"levelo_inurba_marseille","lat":43.310785,"lon":5.424305,"is_reserved":false,"is_disabled":false,"rental_uris":{"android":"levelo://app?vid=45f02aaa-4947-4afa-970b-0bee9da852ce","ios":"levelo://app?vid=45f02aaa-4947-4afa-970b-0bee9da852ce"},"vehicle_type_id":"4","last_reported":1700391928,"current_range_meters":21600,"station_id":"ce4bhp92rcd13ifvqhag","pricing_plan_id":"free"},{"bike_id":"f1682c53-c82a-4992-b79b-bff87445594c","system_id":"levelo_inurba_marseille","lat":43.310785,"lon":5.424305,"is_reserved":false,"is_disabled":false,"rental_uris":{"android":"levelo://app?vid=f1682c53-c82a-4992-b79b-bff87445594c","ios":"levelo://app?vid=f1682c53-c82a-4992-b79b-bff87445594c"},"vehicle_type_id":"4","last_reported":1700391928,"current_range_meters":21200,"station_id":"ce4bhp92rcd13ifvqhag","pricing_plan_id":"free"},{"bike_id":"ce542890-8717-4995-89d1-bfd21ca58cd1","system_id":"levelo_inurba_marseille","lat":43.304096,"lon":5.425385,"is_reserved":false,"is_disabled":false,"rental_uris":{"android":"levelo://app?vid=ce542890-8717-4995-89d1-bfd21ca58cd1","ios":"levelo://app?vid=ce542890-8717-4995-89d1-bfd21ca58cd1"},"vehicle_type_id":"4","last_reported":1700391928,"current_range_meters":11200,"station_id":"ce4bhoh2rcd13ifvqh6g","pricing_plan_id":"free"},{"bike_id":"2a7cc644-8f22-4c4c-a64e-ab107532e50a","system_id":"levelo_inurba_marseille","lat":43.295511,"lon":5.422926,"is_reserved":false,"is_disabled":false,"rental_uris":{"android":"levelo://app?vid=2a7cc644-8f22-4c4c-a64e-ab107532e50a","ios":"levelo://app?vid=2a7cc644-8f22-4c4c-a64e-ab107532e50a"},"vehicle_type_id":"4","last_reported":1700391928,"current_range_meters":24800,"station_id":"ce4bhph2rcd13ifvqhdg","pricing_plan_id":"free"},{"bike_id":"18789769-1155-4c3e-b43d-41dcc7813683","system_id":"levelo_inurba_marseille","lat":43.295523,"lon":5.422926,"is_reserved":false,"is_disabled":false,"rental_uris":{"android":"levelo://app?vid=18789769-1155-4c3e-b43d-41dcc7813683","ios":"levelo://app?vid=18789769-1155-4c3e-b43d-41dcc7813683"},"vehicle_type_id":"4","last_reported":1700391928,"current_range_meters":31600,"station_id":"ce4bhph2rcd13ifvqhdg","pricing_plan_id":"free"},{"bike_id":"abe024ca-cbec-406a-ab12-ef1f44bbe8dc","system_id":"levelo_inurba_marseille","lat":43.295523,"lon":5.422926,"is_reserved":false,"is_disabled":false,"rental_uris":{"android":"levelo://app?vid=abe024ca-cbec-406a-ab12-ef1f44bbe8dc","ios":"levelo://app?vid=abe024ca-cbec-406a-ab12-ef1f44bbe8dc"},"vehicle_type_id":"4","last_reported":1700391928,"current_range_meters":28400,"station_id":"ce4bhph2rcd13ifvqhdg","pricing_plan_id":"free"},{"bike_id":"f8f5619a-a183-461d-b100-453fb972fcd4","system_id":"levelo_inurba_marseille","lat":43.272118,"lon":5.391758,"is_reserved":false,"is_disabled":false,"rental_uris":{"android":"levelo://app?vid=f8f5619a-a183-461d-b100-453fb972fcd4","ios":"levelo://app?vid=f8f5619a-a183-461d-b100-453fb972fcd4"},"vehicle_type_id":"4","last_reported":1700391928,"current_range_meters":21200,"station_id":"ce4bhhp2rcd13ifvqfm0","pricing_plan_id":"free"},{"bike_id":"139753b1-0b83-4c3a-80f1-5052bac15461","system_id":"levelo_inurba_marseille","lat":43.27215,"lon":5.39265,"is_reserved":false,"is_disabled":false,"rental_uris":{"android":"levelo://app?vid=139753b1-0b83-4c3a-80f1-5052bac15461","ios":"levelo://app?vid=139753b1-0b83-4c3a-80f1-5052bac15461"},"vehicle_type_id":"4","last_reported":1700391928,"current_range_meters":8400,"station_id":"","pricing_plan_id":"free"},{"bike_id":"fe139271-7817-4645-9ec4-f7eee743e805","system_id":"levelo_inurba_marseille","lat":43.271896,"lon":5.392307,"is_reserved":false,"is_disabled":false,"rental_uris":{"android":"levelo://app?vid=fe139271-7817-4645-9ec4-f7eee743e805","ios":"levelo://app?vid=fe139271-7817-4645-9ec4-f7eee743e805"},"vehicle_type_id":"4","last_reported":1700391928,"current_range_meters":0,"station_id":"","pricing_plan_id":"free"},{"bike_id":"f0ed4531-078e-42fb-a007-3ed80505eb54","system_id":"levelo_inurba_marseille","lat":43.271891,"lon":5.392412,"is_reserved":false,"is_disabled":false,"rental_uris":{"android":"levelo://app?vid=f0ed4531-078e-42fb-a007-3ed80505eb54","ios":"levelo://app?vid=f0ed4531-078e-42fb-a007-3ed80505eb54"},"vehicle_type_id":"4","last_reported":1700391928,"current_range_meters":3600,"station_id":"","pricing_plan_id":"free"},{"bike_id":"ae7b67e2-2820-410d-a709-1dd863928b7e","system_id":"levelo_inurba_marseille","lat":43.278128,"lon":5.407195,"is_reserved":false,"is_disabled":false,"rental_uris":{"android":"levelo://app?vid=ae7b67e2-2820-410d-a709-1dd863928b7e","ios":"levelo://app?vid=ae7b67e2-2820-410d-a709-1dd863928b7e"},"vehicle_type_id":"4","last_reported":1700391928,"current_range_meters":7600,"station_id":"ce4bhnh2rcd13ifvqgtg","pricing_plan_id":"free"},{"bike_id":"a6af1181-9c4d-4585-90ee-9617c47a8d44","system_id":"levelo_inurba_marseille","lat":43.26681,"lon":5.382694,"is_reserved":false,"is_disabled":false,"rental_uris":{"android":"levelo://app?vid=a6af1181-9c4d-4585-90ee-9617c47a8d44","ios":"levelo://app?vid=a6af1181-9c4d-4585-90ee-9617c47a8d44"},"vehicle_type_id":"4","last_reported":1700391928,"current_range_meters":25200,"station_id":"ce4bhg92rcd13ifvqf90","pricing_plan_id":"free"},{"bike_id":"c7758cb2-2a45-4f89-aa5c-0e391d845c76","system_id":"levelo_inurba_marseille","lat":43.326053,"lon":5.429943,"is_reserved":false,"is_disabled":false,"rental_uris":{"android":"levelo://app?vid=c7758cb2-2a45-4f89-aa5c-0e391d845c76","ios":"levelo://app?vid=c7758cb2-2a45-4f89-aa5c-0e391d845c76"},"vehicle_type_id":"4","last_reported":1700391928,"current_range_meters":800,"station_id":"","pricing_plan_id":"free"},{"bike_id":"42871d3b-8c03-490f-baf1-f4b57c44a331","system_id":"levelo_inurba_marseille","lat":43.326569,"lon":5.430586,"is_reserved":false,"is_disabled":false,"rental_uris":{"android":"levelo://app?vid=42871d3b-8c03-490f-baf1-f4b57c44a331","ios":"levelo://app?vid=42871d3b-8c03-490f-baf1-f4b57c44a331"},"vehicle_type_id":"4","last_reported":1700391928,"current_range_meters":16000,"station_id":"","pricing_plan_id":"free"},{"bike_id":"87be04d4-b68d-4ca4-bc75-5865077b920f","system_id":"levelo_inurba_marseille","lat":43.288463,"lon":5.42635,"is_reserved":false,"is_disabled":false,"rental_uris":{"android":"levelo://app?vid=87be04d4-b68d-4ca4-bc75-5865077b920f","ios":"levelo://app?vid=87be04d4-b68d-4ca4-bc75-5865077b920f"},"vehicle_type_id":"4","last_reported":1700391928,"current_range_meters":3200,"station_id":"","pricing_plan_id":"free"},{"bike_id":"15c5419a-b588-4ae6-90bd-54417c6f6978","system_id":"levelo_inurba_marseille","lat":43.308051,"lon":5.43527,"is_reserved":false,"is_disabled":false,"rental_uris":{"android":"levelo://app?vid=15c5419a-b588-4ae6-90bd-54417c6f6978","ios":"levelo://app?vid=15c5419a-b588-4ae6-90bd-54417c6f6978"},"vehicle_type_id":"4","last_reported":1700391928,"current_range_meters":30400,"station_id":"ce4bhph2rcd13ifvqheg","pricing_plan_id":"free"},{"bike_id":"57666d0d-7ee4-4358-9d5e-6bbfaf0f6fde","system_id":"levelo_inurba_marseille","lat":43.26569,"lon":5.39014,"is_reserved":false,"is_disabled":false,"rental_uris":{"android":"levelo://app?vid=57666d0d-7ee4-4358-9d5e-6bbfaf0f6fde","ios":"levelo://app?vid=57666d0d-7ee4-4358-9d5e-6bbfaf0f6fde"},"vehicle_type_id":"4","last_reported":1700391928,"current_range_meters":10400,"station_id":"ce4bhe12rcd13ifvqf30","pricing_plan_id":"free"},{"bike_id":"b092df4d-53b2-44d7-a0e1-02252813311e","system_id":"levelo_inurba_marseille","lat":43.26569,"lon":5.39021,"is_reserved":false,"is_disabled":false,"rental_uris":{"android":"levelo://app?vid=b092df4d-53b2-44d7-a0e1-02252813311e","ios":"levelo://app?vid=b092df4d-53b2-44d7-a0e1-02252813311e"},"vehicle_type_id":"4","last_reported":1700391928,"current_range_meters":24400,"station_id":"ce4bhe12rcd13ifvqf30","pricing_plan_id":"free"},{"bike_id":"64b315ad-8eb7-4209-abf7-970dd1e2d628","system_id":"levelo_inurba_marseille","lat":43.261782,"lon":5.374515,"is_reserved":false,"is_disabled":false,"rental_uris":{"android":"levelo://app?vid=64b315ad-8eb7-4209-abf7-970dd1e2d628","ios":"levelo://app?vid=64b315ad-8eb7-4209-abf7-970dd1e2d628"},"vehicle_type_id":"4","last_reported":1700391928,"current_range_meters":2400,"station_id":"ce4bhgp2rcd13ifvqfc0","pricing_plan_id":"free"},{"bike_id":"1013ff3e-d6f0-4ea6-91da-de381e77434d","system_id":"levelo_inurba_marseille","lat":43.26186,"lon":5.37443,"is_reserved":false,"is_disabled":false,"rental_uris":{"android":"levelo://app?vid=1013ff3e-d6f0-4ea6-91da-de381e77434d","ios":"levelo://app?vid=1013ff3e-d6f0-4ea6-91da-de381e77434d"},"vehicle_type_id":"4","last_reported":1700391928,"current_range_meters":24800,"station_id":"ce4bhgp2rcd13ifvqfc0","pricing_plan_id":"free"},{"bike_id":"9e1366d3-2c8d-4c5b-ad69-70c15129aa81","system_id":"levelo_inurba_marseille","lat":43.317104,"lon":5.436818,"is_reserved":false,"is_disabled":false,"rental_uris":{"android":"levelo://app?vid=9e1366d3-2c8d-4c5b-ad69-70c15129aa81","ios":"levelo://app?vid=9e1366d3-2c8d-4c5b-ad69-70c15129aa81"},"vehicle_type_id":"4","last_reported":1700391928,"current_range_meters":27600,"station_id":"ce4bhp92rcd13ifvqhcg","pricing_plan_id":"free"},{"bike_id":"d06dceee-ec7a-4aad-b25e-6d0840a89e3d","system_id":"levelo_inurba_marseille","lat":43.262012,"lon":5.379307,"is_reserved":false,"is_disabled":false,"rental_uris":{"android":"levelo://app?vid=d06dceee-ec7a-4aad-b25e-6d0840a89e3d","ios":"levelo://app?vid=d06dceee-ec7a-4aad-b25e-6d0840a89e3d"},"vehicle_type_id":"4","last_reported":1700391928,"current_range_meters":31600,"station_id":"ce4bhjp2rcd13ifvqg90","pricing_plan_id":"free"},{"bike_id":"10cc9d15-12a4-4222-8ac4-988310eef869","system_id":"levelo_inurba_marseille","lat":43.262012,"lon":5.379307,"is_reserved":false,"is_disabled":false,"rental_uris":{"android":"levelo://app?vid=10cc9d15-12a4-4222-8ac4-988310eef869","ios":"levelo://app?vid=10cc9d15-12a4-4222-8ac4-988310eef869"},"vehicle_type_id":"4","last_reported":1700391928,"current_range_meters":31600,"station_id":"ce4bhjp2rcd13ifvqg90","pricing_plan_id":"free"},{"bike_id":"05c00383-ec19-421b-b6cf-818fbc2db8ef","system_id":"levelo_inurba_marseille","lat":43.26202,"lon":5.379299,"is_reserved":false,"is_disabled":false,"rental_uris":{"android":"levelo://app?vid=05c00383-ec19-421b-b6cf-818fbc2db8ef","ios":"levelo://app?vid=05c00383-ec19-421b-b6cf-818fbc2db8ef"},"vehicle_type_id":"4","last_reported":1700391928,"current_range_meters":32000,"station_id":"ce4bhjp2rcd13ifvqg90","pricing_plan_id":"free"},{"bike_id":"1dd4dd20-2d67-44d1-b93b-d14142ab73a4","system_id":"levelo_inurba_marseille","lat":43.26202,"lon":5.379299,"is_reserved":false,"is_disabled":false,"rental_uris":{"android":"levelo://app?vid=1dd4dd20-2d67-44d1-b93b-d14142ab73a4","ios":"levelo://app?vid=1dd4dd20-2d67-44d1-b93b-d14142ab73a4"},"vehicle_type_id":"4","last_reported":1700391928,"current_range_meters":1200,"station_id":"ce4bhjp2rcd13ifvqg90","pricing_plan_id":"free"},{"bike_id":"621dbf3d-a8ce-4ff8-b7a2-b61746dd3457","system_id":"levelo_inurba_marseille","lat":43.26202,"lon":5.379299,"is_reserved":false,"is_disabled":false,"rental_uris":{"android":"levelo://app?vid=621dbf3d-a8ce-4ff8-b7a2-b61746dd3457","ios":"levelo://app?vid=621dbf3d-a8ce-4ff8-b7a2-b61746dd3457"},"vehicle_type_id":"4","last_reported":1700391928,"current_range_meters":26400,"station_id":"ce4bhjp2rcd13ifvqg90","pricing_plan_id":"free"},{"bike_id":"22b727a9-9142-4203-873d-af829385afe6","system_id":"levelo_inurba_marseille","lat":43.26202,"lon":5.379299,"is_reserved":false,"is_disabled":false,"rental_uris":{"android":"levelo://app?vid=22b727a9-9142-4203-873d-af829385afe6","ios":"levelo://app?vid=22b727a9-9142-4203-873d-af829385afe6"},"vehicle_type_id":"4","last_reported":1700391928,"current_range_meters":32000,"station_id":"ce4bhjp2rcd13ifvqg90","pricing_plan_id":"free"},{"bike_id":"c7657ea6-ad68-450f-9fb2-dfd60f85a7d3","system_id":"levelo_inurba_marseille","lat":43.26202,"lon":5.379299,"is_reserved":false,"is_disabled":false,"rental_uris":{"android":"levelo://app?vid=c7657ea6-ad68-450f-9fb2-dfd60f85a7d3","ios":"levelo://app?vid=c7657ea6-ad68-450f-9fb2-dfd60f85a7d3"},"vehicle_type_id":"4","last_reported":1700391928,"current_range_meters":7200,"station_id":"ce4bhjp2rcd13ifvqg90","pricing_plan_id":"free"},{"bike_id":"23e9d2d8-8b94-4ffe-9022-3469e592590c","system_id":"levelo_inurba_marseille","lat":43.271388,"lon":5.409269,"is_reserved":false,"is_disabled":false,"rental_uris":{"android":"levelo://app?vid=23e9d2d8-8b94-4ffe-9022-3469e592590c","ios":"levelo://app?vid=23e9d2d8-8b94-4ffe-9022-3469e592590c"},"vehicle_type_id":"4","last_reported":1700391928,"current_range_meters":27200,"station_id":"ce4bhl12rcd13ifvqgf0","pricing_plan_id":"free"},{"bike_id":"6903a251-9f6c-44af-927a-5f7d93eb6a4d","system_id":"levelo_inurba_marseille","lat":43.26202,"lon":5.379299,"is_reserved":false,"is_disabled":false,"rental_uris":{"android":"levelo://app?vid=6903a251-9f6c-44af-927a-5f7d93eb6a4d","ios":"levelo://app?vid=6903a251-9f6c-44af-927a-5f7d93eb6a4d"},"vehicle_type_id":"4","last_reported":1700391928,"current_range_meters":26800,"station_id":"ce4bhjp2rcd13ifvqg90","pricing_plan_id":"free"},{"bike_id":"74ce853b-0d8b-42c9-81c8-17a7564a4b34","system_id":"levelo_inurba_marseille","lat":43.31725,"lon":5.43786,"is_reserved":false,"is_disabled":false,"rental_uris":{"android":"levelo://app?vid=74ce853b-0d8b-42c9-81c8-17a7564a4b34","ios":"levelo://app?vid=74ce853b-0d8b-42c9-81c8-17a7564a4b34"},"vehicle_type_id":"4","last_reported":1700391928,"current_range_meters":14800,"station_id":"","pricing_plan_id":"free"},{"bike_id":"abadc828-69fe-497b-b711-e5360a68b2c4","system_id":"levelo_inurba_marseille","lat":43.29899,"lon":5.43662,"is_reserved":false,"is_disabled":false,"rental_uris":{"android":"levelo://app?vid=abadc828-69fe-497b-b711-e5360a68b2c4","ios":"levelo://app?vid=abadc828-69fe-497b-b711-e5360a68b2c4"},"vehicle_type_id":"4","last_reported":1700391928,"current_range_meters":21600,"station_id":"ce4bhpp2rcd13ifvqhfg","pricing_plan_id":"free"},{"bike_id":"0c5d14aa-3d5f-4d75-9b0f-1e0fe10f95f4","system_id":"levelo_inurba_marseille","lat":43.281548,"lon":5.42643,"is_reserved":false,"is_disabled":false,"rental_uris":{"android":"levelo://app?vid=0c5d14aa-3d5f-4d75-9b0f-1e0fe10f95f4","ios":"levelo://app?vid=0c5d14aa-3d5f-4d75-9b0f-1e0fe10f95f4"},"vehicle_type_id":"4","last_reported":1700391928,"current_range_meters":23600,"station_id":"ce4bhnh2rcd13ifvqgug","pricing_plan_id":"free"},{"bike_id":"eceaa0f3-52ef-4d0d-b422-04c8e585a271","system_id":"levelo_inurba_marseille","lat":43.28149,"lon":5.42642,"is_reserved":false,"is_disabled":false,"rental_uris":{"android":"levelo://app?vid=eceaa0f3-52ef-4d0d-b422-04c8e585a271","ios":"levelo://app?vid=eceaa0f3-52ef-4d0d-b422-04c8e585a271"},"vehicle_type_id":"4","last_reported":1700391928,"current_range_meters":0,"station_id":"ce4bhnh2rcd13ifvqgug","pricing_plan_id":"free"},{"bike_id":"4b05078a-8712-4997-a6f5-f5ba1ef519e4","system_id":"levelo_inurba_marseille","lat":43.26064,"lon":5.3939,"is_reserved":false,"is_disabled":false,"rental_uris":{"android":"levelo://app?vid=4b05078a-8712-4997-a6f5-f5ba1ef519e4","ios":"levelo://app?vid=4b05078a-8712-4997-a6f5-f5ba1ef519e4"},"vehicle_type_id":"4","last_reported":1700391928,"current_range_meters":26000,"station_id":"ce4bhh92rcd13ifvqfj0","pricing_plan_id":"free"},{"bike_id":"ffb26c8a-2fd1-4da4-add8-5f2230855cdd","system_id":"levelo_inurba_marseille","lat":43.2607,"lon":5.393983,"is_reserved":false,"is_disabled":false,"rental_uris":{"android":"levelo://app?vid=ffb26c8a-2fd1-4da4-add8-5f2230855cdd","ios":"levelo://app?vid=ffb26c8a-2fd1-4da4-add8-5f2230855cdd"},"vehicle_type_id":"4","last_reported":1700391928,"current_range_meters":14400,"station_id":"ce4bhh92rcd13ifvqfj0","pricing_plan_id":"free"},{"bike_id":"83adb50e-13ad-4a0a-b679-c8ddf78a1b0a","system_id":"levelo_inurba_marseille","lat":43.275028,"lon":5.424534,"is_reserved":false,"is_disabled":false,"rental_uris":{"android":"levelo://app?vid=83adb50e-13ad-4a0a-b679-c8ddf78a1b0a","ios":"levelo://app?vid=83adb50e-13ad-4a0a-b679-c8ddf78a1b0a"},"vehicle_type_id":"4","last_reported":1700391928,"current_range_meters":31600,"station_id":"ce4bhn92rcd13ifvqgrg","pricing_plan_id":"free"},{"bike_id":"a47e1a91-2a29-4b22-8ea4-ad071e92552a","system_id":"levelo_inurba_marseille","lat":43.275028,"lon":5.424534,"is_reserved":false,"is_disabled":false,"rental_uris":{"android":"levelo://app?vid=a47e1a91-2a29-4b22-8ea4-ad071e92552a","ios":"levelo://app?vid=a47e1a91-2a29-4b22-8ea4-ad071e92552a"},"vehicle_type_id":"4","last_reported":1700391928,"current_range_meters":19200,"station_id":"ce4bhn92rcd13ifvqgrg","pricing_plan_id":"free"},{"bike_id":"039398bb-8f48-4a09-90e4-c695a075e1b2","system_id":"levelo_inurba_marseille","lat":43.275028,"lon":5.424534,"is_reserved":false,"is_disabled":false,"rental_uris":{"android":"levelo://app?vid=039398bb-8f48-4a09-90e4-c695a075e1b2","ios":"levelo://app?vid=039398bb-8f48-4a09-90e4-c695a075e1b2"},"vehicle_type_id":"4","last_reported":1700391928,"current_range_meters":30000,"station_id":"ce4bhn92rcd13ifvqgrg","pricing_plan_id":"free"},{"bike_id":"91b3c4bf-7b19-45fb-b809-6f886f9aa480","system_id":"levelo_inurba_marseille","lat":43.275028,"lon":5.424534,"is_reserved":false,"is_disabled":false,"rental_uris":{"android":"levelo://app?vid=91b3c4bf-7b19-45fb-b809-6f886f9aa480","ios":"levelo://app?vid=91b3c4bf-7b19-45fb-b809-6f886f9aa480"},"vehicle_type_id":"4","last_reported":1700391928,"current_range_meters":31600,"station_id":"ce4bhn92rcd13ifvqgrg","pricing_plan_id":"free"},{"bike_id":"b15cbbda-e2a5-469d-83c7-b37d8c5ea310","system_id":"levelo_inurba_marseille","lat":43.25581,"lon":5.38233,"is_reserved":false,"is_disabled":false,"rental_uris":{"android":"levelo://app?vid=b15cbbda-e2a5-469d-83c7-b37d8c5ea310","ios":"levelo://app?vid=b15cbbda-e2a5-469d-83c7-b37d8c5ea310"},"vehicle_type_id":"4","last_reported":1700391928,"current_range_meters":31200,"station_id":"ce4bhih2rcd13ifvqfs0","pricing_plan_id":"free"},{"bike_id":"586e02c6-7a60-4097-b5cb-5b93a3905a40","system_id":"levelo_inurba_marseille","lat":43.25575,"lon":5.38228,"is_reserved":false,"is_disabled":false,"rental_uris":{"android":"levelo://app?vid=586e02c6-7a60-4097-b5cb-5b93a3905a40","ios":"levelo://app?vid=586e02c6-7a60-4097-b5cb-5b93a3905a40"},"vehicle_type_id":"4","last_reported":1700391928,"current_range_meters":24000,"station_id":"ce4bhih2rcd13ifvqfs0","pricing_plan_id":"free"},{"bike_id":"f87e197f-2ff1-4ba1-9cf2-60170245d4ac","system_id":"levelo_inurba_marseille","lat":43.25575,"lon":5.38235,"is_reserved":false,"is_disabled":false,"rental_uris":{"android":"levelo://app?vid=f87e197f-2ff1-4ba1-9cf2-60170245d4ac","ios":"levelo://app?vid=f87e197f-2ff1-4ba1-9cf2-60170245d4ac"},"vehicle_type_id":"4","last_reported":1700391928,"current_range_meters":26000,"station_id":"ce4bhih2rcd13ifvqfs0","pricing_plan_id":"free"},{"bike_id":"403b8889-8551-49e9-874c-00e794910e38","system_id":"levelo_inurba_marseille","lat":43.25573,"lon":5.38244,"is_reserved":false,"is_disabled":false,"rental_uris":{"android":"levelo://app?vid=403b8889-8551-49e9-874c-00e794910e38","ios":"levelo://app?vid=403b8889-8551-49e9-874c-00e794910e38"},"vehicle_type_id":"4","last_reported":1700391928,"current_range_meters":28000,"station_id":"ce4bhih2rcd13ifvqfs0","pricing_plan_id":"free"},{"bike_id":"94a87af4-1584-4b5f-bae6-770a3b307707","system_id":"levelo_inurba_marseille","lat":43.254947,"lon":5.376454,"is_reserved":false,"is_disabled":false,"rental_uris":{"android":"levelo://app?vid=94a87af4-1584-4b5f-bae6-770a3b307707","ios":"levelo://app?vid=94a87af4-1584-4b5f-bae6-770a3b307707"},"vehicle_type_id":"4","last_reported":1700391928,"current_range_meters":27200,"station_id":"ce4bhh12rcd13ifvqff0","pricing_plan_id":"free"},{"bike_id":"eda73509-5f55-4b2d-95fc-67f3395f85c0","system_id":"levelo_inurba_marseille","lat":43.25723,"lon":5.41108,"is_reserved":false,"is_disabled":false,"rental_uris":{"android":"levelo://app?vid=eda73509-5f55-4b2d-95fc-67f3395f85c0","ios":"levelo://app?vid=eda73509-5f55-4b2d-95fc-67f3395f85c0"},"vehicle_type_id":"4","last_reported":1700391928,"current_range_meters":0,"station_id":"ce4bhkp2rcd13ifvqgd0","pricing_plan_id":"free"},{"bike_id":"0ed2f0e0-b0bf-48ee-9dfa-f169064f79ef","system_id":"levelo_inurba_marseille","lat":43.24811,"lon":5.3746,"is_reserved":false,"is_disabled":false,"rental_uris":{"android":"levelo://app?vid=0ed2f0e0-b0bf-48ee-9dfa-f169064f79ef","ios":"levelo://app?vid=0ed2f0e0-b0bf-48ee-9dfa-f169064f79ef"},"vehicle_type_id":"4","last_reported":1700391928,"current_range_meters":23200,"station_id":"ce4bhgh2rcd13ifvqfb0","pricing_plan_id":"free"},{"bike_id":"7eb4a8c7-7a20-49ce-b503-a8221a535429","system_id":"levelo_inurba_marseille","lat":43.24807,"lon":5.37454,"is_reserved":false,"is_disabled":false,"rental_uris":{"android":"levelo://app?vid=7eb4a8c7-7a20-49ce-b503-a8221a535429","ios":"levelo://app?vid=7eb4a8c7-7a20-49ce-b503-a8221a535429"},"vehicle_type_id":"4","last_reported":1700391928,"current_range_meters":400,"station_id":"ce4bhgh2rcd13ifvqfb0","pricing_plan_id":"free"},{"bike_id":"dbb6068f-c2ab-4596-83d0-a6c91112fe97","system_id":"levelo_inurba_marseille","lat":43.24806,"lon":5.37457,"is_reserved":false,"is_disabled":false,"rental_uris":{"android":"levelo://app?vid=dbb6068f-c2ab-4596-83d0-a6c91112fe97","ios":"levelo://app?vid=dbb6068f-c2ab-4596-83d0-a6c91112fe97"},"vehicle_type_id":"4","last_reported":1700391928,"current_range_meters":6800,"station_id":"ce4bhgh2rcd13ifvqfb0","pricing_plan_id":"free"},{"bike_id":"8328051d-e5ce-47ff-83c6-d464c4dfb274","system_id":"levelo_inurba_marseille","lat":43.2479,"lon":5.374457,"is_reserved":false,"is_disabled":false,"rental_uris":{"android":"levelo://app?vid=8328051d-e5ce-47ff-83c6-d464c4dfb274","ios":"levelo://app?vid=8328051d-e5ce-47ff-83c6-d464c4dfb274"},"vehicle_type_id":"4","last_reported":1700391928,"current_range_meters":21600,"station_id":"ce4bhgh2rcd13ifvqfb0","pricing_plan_id":"free"},{"bike_id":"c32ac2c8-5d8e-4e54-84bc-612af648328a","system_id":"levelo_inurba_marseille","lat":43.24805,"lon":5.37456,"is_reserved":false,"is_disabled":false,"rental_uris":{"android":"levelo://app?vid=c32ac2c8-5d8e-4e54-84bc-612af648328a","ios":"levelo://app?vid=c32ac2c8-5d8e-4e54-84bc-612af648328a"},"vehicle_type_id":"4","last_reported":1700391928,"current_range_meters":3600,"station_id":"ce4bhgh2rcd13ifvqfb0","pricing_plan_id":"free"},{"bike_id":"2a189219-0b70-4911-a2bb-c2441b09b2fc","system_id":"levelo_inurba_marseille","lat":43.2479,"lon":5.374457,"is_reserved":false,"is_disabled":false,"rental_uris":{"android":"levelo://app?vid=2a189219-0b70-4911-a2bb-c2441b09b2fc","ios":"levelo://app?vid=2a189219-0b70-4911-a2bb-c2441b09b2fc"},"vehicle_type_id":"4","last_reported":1700391928,"current_range_meters":24800,"station_id":"ce4bhgh2rcd13ifvqfb0","pricing_plan_id":"free"},{"bike_id":"7096c921-ac91-4eae-be31-bf4dfef22a82","system_id":"levelo_inurba_marseille","lat":43.2479,"lon":5.374457,"is_reserved":false,"is_disabled":false,"rental_uris":{"android":"levelo://app?vid=7096c921-ac91-4eae-be31-bf4dfef22a82","ios":"levelo://app?vid=7096c921-ac91-4eae-be31-bf4dfef22a82"},"vehicle_type_id":"4","last_reported":1700391928,"current_range_meters":24400,"station_id":"ce4bhgh2rcd13ifvqfb0","pricing_plan_id":"free"},{"bike_id":"8411b8f1-836c-44bc-b345-22ebd537095d","system_id":"levelo_inurba_marseille","lat":43.2479,"lon":5.374457,"is_reserved":false,"is_disabled":false,"rental_uris":{"android":"levelo://app?vid=8411b8f1-836c-44bc-b345-22ebd537095d","ios":"levelo://app?vid=8411b8f1-836c-44bc-b345-22ebd537095d"},"vehicle_type_id":"4","last_reported":1700391928,"current_range_meters":12000,"station_id":"ce4bhgh2rcd13ifvqfb0","pricing_plan_id":"free"},{"bike_id":"636e98fb-c36f-477b-b6a3-9fb164c3e8b9","system_id":"levelo_inurba_marseille","lat":43.246697,"lon":5.381683,"is_reserved":false,"is_disabled":false,"rental_uris":{"android":"levelo://app?vid=636e98fb-c36f-477b-b6a3-9fb164c3e8b9","ios":"levelo://app?vid=636e98fb-c36f-477b-b6a3-9fb164c3e8b9"},"vehicle_type_id":"4","last_reported":1700391928,"current_range_meters":22400,"station_id":"ce4bhih2rcd13ifvqfr0","pricing_plan_id":"free"},{"bike_id":"f89be6fc-89d5-4a8e-af0d-87a6205e9dc5","system_id":"levelo_inurba_marseille","lat":43.25102,"lon":5.403214,"is_reserved":false,"is_disabled":false,"rental_uris":{"android":"levelo://app?vid=f89be6fc-89d5-4a8e-af0d-87a6205e9dc5","ios":"levelo://app?vid=f89be6fc-89d5-4a8e-af0d-87a6205e9dc5"},"vehicle_type_id":"4","last_reported":1700391928,"current_range_meters":15200,"station_id":"ce4bhlh2rcd13ifvqgig","pricing_plan_id":"free"},{"bike_id":"e790f58d-f934-4b90-8629-609f7adc8fb5","system_id":"levelo_inurba_marseille","lat":43.24659,"lon":5.38161,"is_reserved":false,"is_disabled":false,"rental_uris":{"android":"levelo://app?vid=e790f58d-f934-4b90-8629-609f7adc8fb5","ios":"levelo://app?vid=e790f58d-f934-4b90-8629-609f7adc8fb5"},"vehicle_type_id":"4","last_reported":1700391928,"current_range_meters":29600,"station_id":"ce4bhih2rcd13ifvqfr0","pricing_plan_id":"free"},{"bike_id":"c57e6eeb-c39b-452d-ac0d-ff893061fa11","system_id":"levelo_inurba_marseille","lat":43.25102,"lon":5.403214,"is_reserved":false,"is_disabled":false,"rental_uris":{"android":"levelo://app?vid=c57e6eeb-c39b-452d-ac0d-ff893061fa11","ios":"levelo://app?vid=c57e6eeb-c39b-452d-ac0d-ff893061fa11"},"vehicle_type_id":"4","last_reported":1700391928,"current_range_meters":21200,"station_id":"ce4bhlh2rcd13ifvqgig","pricing_plan_id":"free"},{"bike_id":"3f5aabea-5cba-40d4-8651-d7780d13a28a","system_id":"levelo_inurba_marseille","lat":43.246461,"lon":5.389014,"is_reserved":false,"is_disabled":false,"rental_uris":{"android":"levelo://app?vid=3f5aabea-5cba-40d4-8651-d7780d13a28a","ios":"levelo://app?vid=3f5aabea-5cba-40d4-8651-d7780d13a28a"},"vehicle_type_id":"4","last_reported":1700391928,"current_range_meters":9200,"station_id":"ce4bhg12rcd13ifvqf60","pricing_plan_id":"free"},{"bike_id":"6e03819b-20aa-4115-9f93-ed008282e9ee","system_id":"levelo_inurba_marseille","lat":43.243884,"lon":5.370737,"is_reserved":false,"is_disabled":false,"rental_uris":{"android":"levelo://app?vid=6e03819b-20aa-4115-9f93-ed008282e9ee","ios":"levelo://app?vid=6e03819b-20aa-4115-9f93-ed008282e9ee"},"vehicle_type_id":"4","last_reported":1700391928,"current_range_meters":31600,"station_id":"ce4bhhh2rcd13ifvqfk0","pricing_plan_id":"free"},{"bike_id":"4cdd475f-c093-4186-b524-2019e0d5a401","system_id":"levelo_inurba_marseille","lat":43.245581,"lon":5.395069,"is_reserved":false,"is_disabled":false,"rental_uris":{"android":"levelo://app?vid=4cdd475f-c093-4186-b524-2019e0d5a401","ios":"levelo://app?vid=4cdd475f-c093-4186-b524-2019e0d5a401"},"vehicle_type_id":"4","last_reported":1700391928,"current_range_meters":31600,"station_id":"ce4bhlp2rcd13ifvqgjg","pricing_plan_id":"free"},{"bike_id":"d2bd6a47-5856-4069-9e03-3769cd0f8353","system_id":"levelo_inurba_marseille","lat":43.245581,"lon":5.395069,"is_reserved":false,"is_disabled":false,"rental_uris":{"android":"levelo://app?vid=d2bd6a47-5856-4069-9e03-3769cd0f8353","ios":"levelo://app?vid=d2bd6a47-5856-4069-9e03-3769cd0f8353"},"vehicle_type_id":"4","last_reported":1700391928,"current_range_meters":31200,"station_id":"ce4bhlp2rcd13ifvqgjg","pricing_plan_id":"free"},{"bike_id":"21f94cf4-cffc-4cf9-a999-40af5845ee26","system_id":"levelo_inurba_marseille","lat":43.245581,"lon":5.395069,"is_reserved":false,"is_disabled":false,"rental_uris":{"android":"levelo://app?vid=21f94cf4-cffc-4cf9-a999-40af5845ee26","ios":"levelo://app?vid=21f94cf4-cffc-4cf9-a999-40af5845ee26"},"vehicle_type_id":"4","last_reported":1700391928,"current_range_meters":31200,"station_id":"ce4bhlp2rcd13ifvqgjg","pricing_plan_id":"free"},{"bike_id":"a83e137e-a89a-4896-b97d-e099c076723d","system_id":"levelo_inurba_marseille","lat":43.239588,"lon":5.366238,"is_reserved":false,"is_disabled":false,"rental_uris":{"android":"levelo://app?vid=a83e137e-a89a-4896-b97d-e099c076723d","ios":"levelo://app?vid=a83e137e-a89a-4896-b97d-e099c076723d"},"vehicle_type_id":"4","last_reported":1700391928,"current_range_meters":29200,"station_id":"ce4bhi12rcd13ifvqfp0","pricing_plan_id":"free"},{"bike_id":"6579e416-2ce8-443d-a73a-886941cc69f8","system_id":"levelo_inurba_marseille","lat":43.241782,"lon":5.397261,"is_reserved":false,"is_disabled":false,"rental_uris":{"android":"levelo://app?vid=6579e416-2ce8-443d-a73a-886941cc69f8","ios":"levelo://app?vid=6579e416-2ce8-443d-a73a-886941cc69f8"},"vehicle_type_id":"4","last_reported":1700391928,"current_range_meters":24400,"station_id":"ce4bhn12rcd13ifvqgpg","pricing_plan_id":"free"},{"bike_id":"4370869b-0c59-4e1b-b4c7-59bf3a7bc50e","system_id":"levelo_inurba_marseille","lat":43.24176,"lon":5.39726,"is_reserved":false,"is_disabled":false,"rental_uris":{"android":"levelo://app?vid=4370869b-0c59-4e1b-b4c7-59bf3a7bc50e","ios":"levelo://app?vid=4370869b-0c59-4e1b-b4c7-59bf3a7bc50e"},"vehicle_type_id":"4","last_reported":1700391928,"current_range_meters":13600,"station_id":"ce4bhn12rcd13ifvqgpg","pricing_plan_id":"free"},{"bike_id":"d9fd4f8d-322c-45fe-b651-4a9394dd3741","system_id":"levelo_inurba_marseille","lat":43.231923,"lon":5.355545,"is_reserved":false,"is_disabled":false,"rental_uris":{"android":"levelo://app?vid=d9fd4f8d-322c-45fe-b651-4a9394dd3741","ios":"levelo://app?vid=d9fd4f8d-322c-45fe-b651-4a9394dd3741"},"vehicle_type_id":"4","last_reported":1700391928,"current_range_meters":28000,"station_id":"ce4bhu92rcd13ifvqi70","pricing_plan_id":"free"},{"bike_id":"37416442-308e-4dea-bd51-2ca12166bbc7","system_id":"levelo_inurba_marseille","lat":43.231923,"lon":5.355545,"is_reserved":false,"is_disabled":false,"rental_uris":{"android":"levelo://app?vid=37416442-308e-4dea-bd51-2ca12166bbc7","ios":"levelo://app?vid=37416442-308e-4dea-bd51-2ca12166bbc7"},"vehicle_type_id":"4","last_reported":1700391928,"current_range_meters":25200,"station_id":"ce4bhu92rcd13ifvqi70","pricing_plan_id":"free"},{"bike_id":"8a62ccf4-93c4-408c-8efe-bc9afcdd6a80","system_id":"levelo_inurba_marseille","lat":43.231923,"lon":5.355545,"is_reserved":false,"is_disabled":false,"rental_uris":{"android":"levelo://app?vid=8a62ccf4-93c4-408c-8efe-bc9afcdd6a80","ios":"levelo://app?vid=8a62ccf4-93c4-408c-8efe-bc9afcdd6a80"},"vehicle_type_id":"4","last_reported":1700391928,"current_range_meters":26000,"station_id":"ce4bhu92rcd13ifvqi70","pricing_plan_id":"free"},{"bike_id":"b3f28fa0-47fb-43fd-82e6-2a2ef1ac5db0","system_id":"levelo_inurba_marseille","lat":43.231923,"lon":5.355545,"is_reserved":false,"is_disabled":false,"rental_uris":{"android":"levelo://app?vid=b3f28fa0-47fb-43fd-82e6-2a2ef1ac5db0","ios":"levelo://app?vid=b3f28fa0-47fb-43fd-82e6-2a2ef1ac5db0"},"vehicle_type_id":"4","last_reported":1700391928,"current_range_meters":23600,"station_id":"ce4bhu92rcd13ifvqi70","pricing_plan_id":"free"},{"bike_id":"73825668-897d-4ba7-8138-a1757218e46a","system_id":"levelo_inurba_marseille","lat":43.231923,"lon":5.355545,"is_reserved":false,"is_disabled":false,"rental_uris":{"android":"levelo://app?vid=73825668-897d-4ba7-8138-a1757218e46a","ios":"levelo://app?vid=73825668-897d-4ba7-8138-a1757218e46a"},"vehicle_type_id":"4","last_reported":1700391928,"current_range_meters":21600,"station_id":"ce4bhu92rcd13ifvqi70","pricing_plan_id":"free"},{"bike_id":"d4b8beac-e21d-4a32-bc13-6a5c65e2b33e","system_id":"levelo_inurba_marseille","lat":43.231923,"lon":5.355545,"is_reserved":false,"is_disabled":false,"rental_uris":{"android":"levelo://app?vid=d4b8beac-e21d-4a32-bc13-6a5c65e2b33e","ios":"levelo://app?vid=d4b8beac-e21d-4a32-bc13-6a5c65e2b33e"},"vehicle_type_id":"4","last_reported":1700391928,"current_range_meters":13600,"station_id":"ce4bhu92rcd13ifvqi70","pricing_plan_id":"free"},{"bike_id":"e90e6dbe-4103-4584-a33a-a878da9cf267","system_id":"levelo_inurba_marseille","lat":43.231923,"lon":5.355545,"is_reserved":false,"is_disabled":false,"rental_uris":{"android":"levelo://app?vid=e90e6dbe-4103-4584-a33a-a878da9cf267","ios":"levelo://app?vid=e90e6dbe-4103-4584-a33a-a878da9cf267"},"vehicle_type_id":"4","last_reported":1700391928,"current_range_meters":23600,"station_id":"ce4bhu92rcd13ifvqi70","pricing_plan_id":"free"},{"bike_id":"d8457044-e11e-4159-85e8-e12c29610982","system_id":"levelo_inurba_marseille","lat":43.231919,"lon":5.355532,"is_reserved":false,"is_disabled":false,"rental_uris":{"android":"levelo://app?vid=d8457044-e11e-4159-85e8-e12c29610982","ios":"levelo://app?vid=d8457044-e11e-4159-85e8-e12c29610982"},"vehicle_type_id":"4","last_reported":1700391928,"current_range_meters":11600,"station_id":"ce4bhu92rcd13ifvqi70","pricing_plan_id":"free"},{"bike_id":"4fc7e59d-8508-422c-8560-7d42e117611d","system_id":"levelo_inurba_marseille","lat":43.231919,"lon":5.355532,"is_reserved":false,"is_disabled":false,"rental_uris":{"android":"levelo://app?vid=4fc7e59d-8508-422c-8560-7d42e117611d","ios":"levelo://app?vid=4fc7e59d-8508-422c-8560-7d42e117611d"},"vehicle_type_id":"4","last_reported":1700391928,"current_range_meters":28800,"station_id":"ce4bhu92rcd13ifvqi70","pricing_plan_id":"free"},{"bike_id":"8455f21a-e0e1-4873-89da-72b3d3b154e0","system_id":"levelo_inurba_marseille","lat":43.231919,"lon":5.355532,"is_reserved":false,"is_disabled":false,"rental_uris":{"android":"levelo://app?vid=8455f21a-e0e1-4873-89da-72b3d3b154e0","ios":"levelo://app?vid=8455f21a-e0e1-4873-89da-72b3d3b154e0"},"vehicle_type_id":"4","last_reported":1700391928,"current_range_meters":31600,"station_id":"ce4bhu92rcd13ifvqi70","pricing_plan_id":"free"},{"bike_id":"662f058d-46b1-4787-b52a-d29e98a28779","system_id":"levelo_inurba_marseille","lat":43.231919,"lon":5.355532,"is_reserved":false,"is_disabled":false,"rental_uris":{"android":"levelo://app?vid=662f058d-46b1-4787-b52a-d29e98a28779","ios":"levelo://app?vid=662f058d-46b1-4787-b52a-d29e98a28779"},"vehicle_type_id":"4","last_reported":1700391928,"current_range_meters":32000,"station_id":"ce4bhu92rcd13ifvqi70","pricing_plan_id":"free"},{"bike_id":"ffa9bbb0-2049-48dc-9860-c3476c934f4b","system_id":"levelo_inurba_marseille","lat":43.231923,"lon":5.355545,"is_reserved":false,"is_disabled":false,"rental_uris":{"android":"levelo://app?vid=ffa9bbb0-2049-48dc-9860-c3476c934f4b","ios":"levelo://app?vid=ffa9bbb0-2049-48dc-9860-c3476c934f4b"},"vehicle_type_id":"4","last_reported":1700391928,"current_range_meters":17200,"station_id":"ce4bhu92rcd13ifvqi70","pricing_plan_id":"free"},{"bike_id":"04eb8677-0b7b-4a31-8c28-5ab07594f7e1","system_id":"levelo_inurba_marseille","lat":43.231919,"lon":5.355532,"is_reserved":false,"is_disabled":false,"rental_uris":{"android":"levelo://app?vid=04eb8677-0b7b-4a31-8c28-5ab07594f7e1","ios":"levelo://app?vid=04eb8677-0b7b-4a31-8c28-5ab07594f7e1"},"vehicle_type_id":"4","last_reported":1700391928,"current_range_meters":2800,"station_id":"ce4bhu92rcd13ifvqi70","pricing_plan_id":"free"},{"bike_id":"e5457ee5-4562-42f5-87e4-f39fc52d5dd8","system_id":"levelo_inurba_marseille","lat":43.231919,"lon":5.355532,"is_reserved":false,"is_disabled":false,"rental_uris":{"android":"levelo://app?vid=e5457ee5-4562-42f5-87e4-f39fc52d5dd8","ios":"levelo://app?vid=e5457ee5-4562-42f5-87e4-f39fc52d5dd8"},"vehicle_type_id":"4","last_reported":1700391928,"current_range_meters":24000,"station_id":"ce4bhu92rcd13ifvqi70","pricing_plan_id":"free"},{"bike_id":"58084edd-aa38-45e0-814b-88dc7d35a228","system_id":"levelo_inurba_marseille","lat":43.231919,"lon":5.355532,"is_reserved":false,"is_disabled":false,"rental_uris":{"android":"levelo://app?vid=58084edd-aa38-45e0-814b-88dc7d35a228","ios":"levelo://app?vid=58084edd-aa38-45e0-814b-88dc7d35a228"},"vehicle_type_id":"4","last_reported":1700391928,"current_range_meters":10400,"station_id":"ce4bhu92rcd13ifvqi70","pricing_plan_id":"free"},{"bike_id":"18a2742a-f4bf-49a9-9e2a-88eea5110e55","system_id":"levelo_inurba_marseille","lat":43.231923,"lon":5.355545,"is_reserved":false,"is_disabled":false,"rental_uris":{"android":"levelo://app?vid=18a2742a-f4bf-49a9-9e2a-88eea5110e55","ios":"levelo://app?vid=18a2742a-f4bf-49a9-9e2a-88eea5110e55"},"vehicle_type_id":"4","last_reported":1700391928,"current_range_meters":4000,"station_id":"ce4bhu92rcd13ifvqi70","pricing_plan_id":"free"},{"bike_id":"d6537e82-96a7-4893-88ef-a48c8572747e","system_id":"levelo_inurba_marseille","lat":43.231919,"lon":5.355532,"is_reserved":false,"is_disabled":false,"rental_uris":{"android":"levelo://app?vid=d6537e82-96a7-4893-88ef-a48c8572747e","ios":"levelo://app?vid=d6537e82-96a7-4893-88ef-a48c8572747e"},"vehicle_type_id":"4","last_reported":1700391928,"current_range_meters":17600,"station_id":"ce4bhu92rcd13ifvqi70","pricing_plan_id":"free"},{"bike_id":"efe9f44b-467d-42d3-8df0-08df4fdbb017","system_id":"levelo_inurba_marseille","lat":43.231923,"lon":5.355545,"is_reserved":false,"is_disabled":false,"rental_uris":{"android":"levelo://app?vid=efe9f44b-467d-42d3-8df0-08df4fdbb017","ios":"levelo://app?vid=efe9f44b-467d-42d3-8df0-08df4fdbb017"},"vehicle_type_id":"4","last_reported":1700391928,"current_range_meters":24800,"station_id":"ce4bhu92rcd13ifvqi70","pricing_plan_id":"free"},{"bike_id":"d66f08d8-b6e5-4ad9-be4a-5cd3998403dc","system_id":"levelo_inurba_marseille","lat":43.231919,"lon":5.355532,"is_reserved":false,"is_disabled":false,"rental_uris":{"android":"levelo://app?vid=d66f08d8-b6e5-4ad9-be4a-5cd3998403dc","ios":"levelo://app?vid=d66f08d8-b6e5-4ad9-be4a-5cd3998403dc"},"vehicle_type_id":"4","last_reported":1700391928,"current_range_meters":14800,"station_id":"ce4bhu92rcd13ifvqi70","pricing_plan_id":"free"},{"bike_id":"5bbc5b29-eab6-4054-bbe2-654faed59fa6","system_id":"levelo_inurba_marseille","lat":43.231919,"lon":5.355532,"is_reserved":false,"is_disabled":false,"rental_uris":{"android":"levelo://app?vid=5bbc5b29-eab6-4054-bbe2-654faed59fa6","ios":"levelo://app?vid=5bbc5b29-eab6-4054-bbe2-654faed59fa6"},"vehicle_type_id":"4","last_reported":1700391928,"current_range_meters":14400,"station_id":"ce4bhu92rcd13ifvqi70","pricing_plan_id":"free"},{"bike_id":"2bcbf8e7-1b5c-499d-b18f-46a3fc3ea19e","system_id":"levelo_inurba_marseille","lat":43.231919,"lon":5.355532,"is_reserved":false,"is_disabled":false,"rental_uris":{"android":"levelo://app?vid=2bcbf8e7-1b5c-499d-b18f-46a3fc3ea19e","ios":"levelo://app?vid=2bcbf8e7-1b5c-499d-b18f-46a3fc3ea19e"},"vehicle_type_id":"4","last_reported":1700391928,"current_range_meters":13200,"station_id":"ce4bhu92rcd13ifvqi70","pricing_plan_id":"free"},{"bike_id":"5d8316f4-9b3b-4f22-8b0a-d975b6faa1c0","system_id":"levelo_inurba_marseille","lat":43.231793,"lon":5.400044,"is_reserved":false,"is_disabled":false,"rental_uris":{"android":"levelo://app?vid=5d8316f4-9b3b-4f22-8b0a-d975b6faa1c0","ios":"levelo://app?vid=5d8316f4-9b3b-4f22-8b0a-d975b6faa1c0"},"vehicle_type_id":"4","last_reported":1700391928,"current_range_meters":15200,"station_id":"ce4bhn12rcd13ifvqgqg","pricing_plan_id":"free"},{"bike_id":"fb647ab6-bdfe-4d43-8021-469b840e3f01","system_id":"levelo_inurba_marseille","lat":43.231794,"lon":5.400052,"is_reserved":false,"is_disabled":false,"rental_uris":{"android":"levelo://app?vid=fb647ab6-bdfe-4d43-8021-469b840e3f01","ios":"levelo://app?vid=fb647ab6-bdfe-4d43-8021-469b840e3f01"},"vehicle_type_id":"4","last_reported":1700391928,"current_range_meters":26400,"station_id":"ce4bhn12rcd13ifvqgqg","pricing_plan_id":"free"},{"bike_id":"5a91a0b0-a2bb-4b5c-a99e-5b5c93d6631d","system_id":"levelo_inurba_marseille","lat":43.231793,"lon":5.400044,"is_reserved":false,"is_disabled":false,"rental_uris":{"android":"levelo://app?vid=5a91a0b0-a2bb-4b5c-a99e-5b5c93d6631d","ios":"levelo://app?vid=5a91a0b0-a2bb-4b5c-a99e-5b5c93d6631d"},"vehicle_type_id":"4","last_reported":1700391928,"current_range_meters":26400,"station_id":"ce4bhn12rcd13ifvqgqg","pricing_plan_id":"free"},{"bike_id":"65f86e4f-3234-4fca-beae-05f04dc8df5f","system_id":"levelo_inurba_marseille","lat":43.231794,"lon":5.400052,"is_reserved":false,"is_disabled":false,"rental_uris":{"android":"levelo://app?vid=65f86e4f-3234-4fca-beae-05f04dc8df5f","ios":"levelo://app?vid=65f86e4f-3234-4fca-beae-05f04dc8df5f"},"vehicle_type_id":"4","last_reported":1700391928,"current_range_meters":31200,"station_id":"ce4bhn12rcd13ifvqgqg","pricing_plan_id":"free"},{"bike_id":"486fecf0-765d-4eee-9a85-898f8aa27175","system_id":"levelo_inurba_marseille","lat":43.231793,"lon":5.400044,"is_reserved":false,"is_disabled":false,"rental_uris":{"android":"levelo://app?vid=486fecf0-765d-4eee-9a85-898f8aa27175","ios":"levelo://app?vid=486fecf0-765d-4eee-9a85-898f8aa27175"},"vehicle_type_id":"4","last_reported":1700391928,"current_range_meters":28800,"station_id":"ce4bhn12rcd13ifvqgqg","pricing_plan_id":"free"},{"bike_id":"7bc95a0e-72f8-4232-b877-46fe8e7f9e0c","system_id":"levelo_inurba_marseille","lat":43.231794,"lon":5.400052,"is_reserved":false,"is_disabled":false,"rental_uris":{"android":"levelo://app?vid=7bc95a0e-72f8-4232-b877-46fe8e7f9e0c","ios":"levelo://app?vid=7bc95a0e-72f8-4232-b877-46fe8e7f9e0c"},"vehicle_type_id":"4","last_reported":1700391928,"current_range_meters":30400,"station_id":"ce4bhn12rcd13ifvqgqg","pricing_plan_id":"free"},{"bike_id":"f585efc8-e6e5-452d-8953-287cc55833b3","system_id":"levelo_inurba_marseille","lat":43.231794,"lon":5.400052,"is_reserved":false,"is_disabled":false,"rental_uris":{"android":"levelo://app?vid=f585efc8-e6e5-452d-8953-287cc55833b3","ios":"levelo://app?vid=f585efc8-e6e5-452d-8953-287cc55833b3"},"vehicle_type_id":"4","last_reported":1700391928,"current_range_meters":14000,"station_id":"ce4bhn12rcd13ifvqgqg","pricing_plan_id":"free"},{"bike_id":"67b0dae3-3730-48b7-8c1b-0817011fbdd2","system_id":"levelo_inurba_marseille","lat":43.231794,"lon":5.400052,"is_reserved":false,"is_disabled":false,"rental_uris":{"android":"levelo://app?vid=67b0dae3-3730-48b7-8c1b-0817011fbdd2","ios":"levelo://app?vid=67b0dae3-3730-48b7-8c1b-0817011fbdd2"},"vehicle_type_id":"4","last_reported":1700391928,"current_range_meters":30800,"station_id":"ce4bhn12rcd13ifvqgqg","pricing_plan_id":"free"},{"bike_id":"adac1971-5e73-41e6-9ade-b5ded0f026e7","system_id":"levelo_inurba_marseille","lat":43.231793,"lon":5.400044,"is_reserved":false,"is_disabled":false,"rental_uris":{"android":"levelo://app?vid=adac1971-5e73-41e6-9ade-b5ded0f026e7","ios":"levelo://app?vid=adac1971-5e73-41e6-9ade-b5ded0f026e7"},"vehicle_type_id":"4","last_reported":1700391928,"current_range_meters":31200,"station_id":"ce4bhn12rcd13ifvqgqg","pricing_plan_id":"free"},{"bike_id":"ad9d26be-fd61-4954-b04a-614ee9d33f7d","system_id":"levelo_inurba_marseille","lat":43.231794,"lon":5.400052,"is_reserved":false,"is_disabled":false,"rental_uris":{"android":"levelo://app?vid=ad9d26be-fd61-4954-b04a-614ee9d33f7d","ios":"levelo://app?vid=ad9d26be-fd61-4954-b04a-614ee9d33f7d"},"vehicle_type_id":"4","last_reported":1700391928,"current_range_meters":32000,"station_id":"ce4bhn12rcd13ifvqgqg","pricing_plan_id":"free"},{"bike_id":"efc139d5-8bb1-4a6b-b437-01d31830d455","system_id":"levelo_inurba_marseille","lat":43.231794,"lon":5.400052,"is_reserved":false,"is_disabled":false,"rental_uris":{"android":"levelo://app?vid=efc139d5-8bb1-4a6b-b437-01d31830d455","ios":"levelo://app?vid=efc139d5-8bb1-4a6b-b437-01d31830d455"},"vehicle_type_id":"4","last_reported":1700391928,"current_range_meters":32000,"station_id":"ce4bhn12rcd13ifvqgqg","pricing_plan_id":"free"},{"bike_id":"ac02e1b8-1ca4-4a01-b902-4c09866a83e6","system_id":"levelo_inurba_marseille","lat":43.231794,"lon":5.400052,"is_reserved":false,"is_disabled":false,"rental_uris":{"android":"levelo://app?vid=ac02e1b8-1ca4-4a01-b902-4c09866a83e6","ios":"levelo://app?vid=ac02e1b8-1ca4-4a01-b902-4c09866a83e6"},"vehicle_type_id":"4","last_reported":1700391928,"current_range_meters":16800,"station_id":"ce4bhn12rcd13ifvqgqg","pricing_plan_id":"free"},{"bike_id":"a77536b5-5a4a-4d26-b9d3-350ffe3416bd","system_id":"levelo_inurba_marseille","lat":43.231793,"lon":5.400044,"is_reserved":false,"is_disabled":false,"rental_uris":{"android":"levelo://app?vid=a77536b5-5a4a-4d26-b9d3-350ffe3416bd","ios":"levelo://app?vid=a77536b5-5a4a-4d26-b9d3-350ffe3416bd"},"vehicle_type_id":"4","last_reported":1700391928,"current_range_meters":7600,"station_id":"ce4bhn12rcd13ifvqgqg","pricing_plan_id":"free"},{"bike_id":"4c94e881-6e5c-48d3-965c-664be9299745","system_id":"levelo_inurba_marseille","lat":43.231793,"lon":5.400044,"is_reserved":false,"is_disabled":false,"rental_uris":{"android":"levelo://app?vid=4c94e881-6e5c-48d3-965c-664be9299745","ios":"levelo://app?vid=4c94e881-6e5c-48d3-965c-664be9299745"},"vehicle_type_id":"4","last_reported":1700391928,"current_range_meters":7600,"station_id":"ce4bhn12rcd13ifvqgqg","pricing_plan_id":"free"},{"bike_id":"7bde39ae-8889-4118-9a02-468e2dbdcfda","system_id":"levelo_inurba_marseille","lat":43.231794,"lon":5.400052,"is_reserved":false,"is_disabled":false,"rental_uris":{"android":"levelo://app?vid=7bde39ae-8889-4118-9a02-468e2dbdcfda","ios":"levelo://app?vid=7bde39ae-8889-4118-9a02-468e2dbdcfda"},"vehicle_type_id":"4","last_reported":1700391928,"current_range_meters":18800,"station_id":"ce4bhn12rcd13ifvqgqg","pricing_plan_id":"free"},{"bike_id":"78c7b8b3-4492-4225-8359-c557b6989c3d","system_id":"levelo_inurba_marseille","lat":43.23155,"lon":5.43698,"is_reserved":false,"is_disabled":false,"rental_uris":{"android":"levelo://app?vid=78c7b8b3-4492-4225-8359-c557b6989c3d","ios":"levelo://app?vid=78c7b8b3-4492-4225-8359-c557b6989c3d"},"vehicle_type_id":"4","last_reported":1700391928,"current_range_meters":8800,"station_id":"ce4bhmp2rcd13ifvqgog","pricing_plan_id":"free"},{"bike_id":"49f546c6-5a89-4d62-b0e6-0167a3bea35f","system_id":"levelo_inurba_marseille","lat":43.231562,"lon":5.436933,"is_reserved":false,"is_disabled":false,"rental_uris":{"android":"levelo://app?vid=49f546c6-5a89-4d62-b0e6-0167a3bea35f","ios":"levelo://app?vid=49f546c6-5a89-4d62-b0e6-0167a3bea35f"},"vehicle_type_id":"4","last_reported":1700391928,"current_range_meters":25200,"station_id":"ce4bhmp2rcd13ifvqgog","pricing_plan_id":"free"},{"bike_id":"172b1adb-2ae3-4c1b-b5fe-96e44bf1344e","system_id":"levelo_inurba_marseille","lat":43.231562,"lon":5.436933,"is_reserved":false,"is_disabled":false,"rental_uris":{"android":"levelo://app?vid=172b1adb-2ae3-4c1b-b5fe-96e44bf1344e","ios":"levelo://app?vid=172b1adb-2ae3-4c1b-b5fe-96e44bf1344e"},"vehicle_type_id":"4","last_reported":1700391928,"current_range_meters":31200,"station_id":"ce4bhmp2rcd13ifvqgog","pricing_plan_id":"free"},{"bike_id":"79f0fe2a-828d-4adb-8c21-6c90ec54f44a","system_id":"levelo_inurba_marseille","lat":43.231562,"lon":5.436933,"is_reserved":false,"is_disabled":false,"rental_uris":{"android":"levelo://app?vid=79f0fe2a-828d-4adb-8c21-6c90ec54f44a","ios":"levelo://app?vid=79f0fe2a-828d-4adb-8c21-6c90ec54f44a"},"vehicle_type_id":"4","last_reported":1700391928,"current_range_meters":29200,"station_id":"ce4bhmp2rcd13ifvqgog","pricing_plan_id":"free"},{"bike_id":"ac753338-7ae7-484b-b345-d535336dbb1b","system_id":"levelo_inurba_marseille","lat":43.231562,"lon":5.436933,"is_reserved":false,"is_disabled":false,"rental_uris":{"android":"levelo://app?vid=ac753338-7ae7-484b-b345-d535336dbb1b","ios":"levelo://app?vid=ac753338-7ae7-484b-b345-d535336dbb1b"},"vehicle_type_id":"4","last_reported":1700391928,"current_range_meters":31200,"station_id":"ce4bhmp2rcd13ifvqgog","pricing_plan_id":"free"},{"bike_id":"04a6c4f8-53df-4ad5-9de2-341e812f9ec8","system_id":"levelo_inurba_marseille","lat":43.231562,"lon":5.436933,"is_reserved":false,"is_disabled":false,"rental_uris":{"android":"levelo://app?vid=04a6c4f8-53df-4ad5-9de2-341e812f9ec8","ios":"levelo://app?vid=04a6c4f8-53df-4ad5-9de2-341e812f9ec8"},"vehicle_type_id":"4","last_reported":1700391928,"current_range_meters":11200,"station_id":"ce4bhmp2rcd13ifvqgog","pricing_plan_id":"free"},{"bike_id":"96c9b960-69c2-43ef-8595-a0d32e3cd3b8","system_id":"levelo_inurba_marseille","lat":43.231562,"lon":5.436933,"is_reserved":false,"is_disabled":false,"rental_uris":{"android":"levelo://app?vid=96c9b960-69c2-43ef-8595-a0d32e3cd3b8","ios":"levelo://app?vid=96c9b960-69c2-43ef-8595-a0d32e3cd3b8"},"vehicle_type_id":"4","last_reported":1700391928,"current_range_meters":11600,"station_id":"ce4bhmp2rcd13ifvqgog","pricing_plan_id":"free"},{"bike_id":"97af9ed7-1dff-482a-b63f-065fd5a55b38","system_id":"levelo_inurba_marseille","lat":43.231562,"lon":5.436933,"is_reserved":false,"is_disabled":false,"rental_uris":{"android":"levelo://app?vid=97af9ed7-1dff-482a-b63f-065fd5a55b38","ios":"levelo://app?vid=97af9ed7-1dff-482a-b63f-065fd5a55b38"},"vehicle_type_id":"4","last_reported":1700391928,"current_range_meters":13200,"station_id":"ce4bhmp2rcd13ifvqgog","pricing_plan_id":"free"}]}}