{"last_updated":1768590796,"ttl":60,"version":"2.2","data":{"bikes":[{"bike_id":"f0f77a0a-fb63-466f-8221-ca4aa28e90e6","system_id":"levelo_inurba_marseille","lat":43.24804,"lon":5.37451,"is_reserved":false,"is_disabled":false,"rental_uris":{"android":"levelo://app?vid=f0f77a0a-fb63-466f-8221-ca4aa28e90e6","ios":"levelo://app?vid=f0f77a0a-fb63-466f-8221-ca4aa28e90e6"},"vehicle_type_id":"4","last_reported":1768590797,"current_range_meters":2800,"station_id":"ce4bhgh2rcd13ifvqfb0","pricing_plan_id":"cebpf4jnsgd1na2vs0mg"},{"bike_id":"ccc662fc-472c-4c24-a386-f8f1a4f0aa1b","system_id":"levelo_inurba_marseille","lat":43.29751,"lon":5.42778,"is_reserved":false,"is_disabled":false,"rental_uris":{"android":"levelo://app?vid=ccc662fc-472c-4c24-a386-f8f1a4f0aa1b","ios":"levelo://app?vid=ccc662fc-472c-4c24-a386-f8f1a4f0aa1b"},"vehicle_type_id":"4","last_reported":1768590797,"current_range_meters":2800,"station_id":"st_d3md5207bmas73dh9klg","pricing_plan_id":"cebpf4jnsgd1na2vs0mg"},{"bike_id":"91dbe188-56c8-4fce-a414-d6e43ed9eb6b","system_id":"levelo_inurba_marseille","lat":43.26719,"lon":5.3996,"is_reserved":false,"is_disabled":false,"rental_uris":{"android":"levelo://app?vid=91dbe188-56c8-4fce-a414-d6e43ed9eb6b","ios":"levelo://app?vid=91dbe188-56c8-4fce-a414-d6e43ed9eb6b"},"vehicle_type_id":"4","last_reported":1768590797,"current_range_meters":2800,"station_id":"","pricing_plan_id":"cebpf4jnsgd1na2vs0mg"},{"bike_id":"7163724e-7d88-4ab5-909f-51d27f65f7d8","system_id":"levelo_inurba_marseille","lat":43.28531,"lon":5.44109,"is_reserved":false,"is_disabled":false,"rental_uris":{"android":"levelo://app?vid=7163724e-7d88-4ab5-909f-51d27f65f7d8","ios":"levelo://app?vid=7163724e-7d88-4ab5-909f-51d27f65f7d8"},"vehicle_type_id":"4","last_reported":1768590797,"current_range_meters":2800,"station_id":"st_d3j3df2ikq2c7380ej80","pricing_plan_id":"cebpf4jnsgd1na2vs0mg"},{"bike_id":"abb6ee2d-0f55-4c70-bbe2-b28806aae858","system_id":"levelo_inurba_marseille","lat":43.29844,"lon":5.36271,"is_reserved":false,"is_disabled":false,"rental_uris":{"android":"levelo://app?vid=abb6ee2d-0f55-4c70-bbe2-b28806aae858","ios":"levelo://app?vid=abb6ee2d-0f55-4c70-bbe2-b28806aae858"},"vehicle_type_id":"4","last_reported":1768590797,"current_range_meters":2800,"station_id":"ce4bgpp2rcd13ifvqc3g","pricing_plan_id":"cebpf4jnsgd1na2vs0mg"},{"bike_id":"04445095-b038-41a3-a0ad-fec8f36b4c83","system_id":"levelo_inurba_marseille","lat":43.2583,"lon":5.39438,"is_reserved":false,"is_disabled":false,"rental_uris":{"android":"levelo://app?vid=04445095-b038-41a3-a0ad-fec8f36b4c83","ios":"levelo://app?vid=04445095-b038-41a3-a0ad-fec8f36b4c83"},"vehicle_type_id":"4","last_reported":1768590797,"current_range_meters":2800,"station_id":"ce4bhip2rcd13ifvqft0","pricing_plan_id":"cebpf4jnsgd1na2vs0mg"},{"bike_id":"0cdf751e-50be-4213-adcd-ec4933b84284","system_id":"levelo_inurba_marseille","lat":43.28537,"lon":5.44103,"is_reserved":false,"is_disabled":false,"rental_uris":{"android":"levelo://app?vid=0cdf751e-50be-4213-adcd-ec4933b84284","ios":"levelo://app?vid=0cdf751e-50be-4213-adcd-ec4933b84284"},"vehicle_type_id":"4","last_reported":1768590797,"current_range_meters":2800,"station_id":"st_d3j3df2ikq2c7380ej80","pricing_plan_id":"cebpf4jnsgd1na2vs0mg"},{"bike_id":"0e994130-a069-4140-bffc-1e19b05741b3","system_id":"levelo_inurba_marseille","lat":43.22553,"lon":5.41616,"is_reserved":false,"is_disabled":false,"rental_uris":{"android":"levelo://app?vid=0e994130-a069-4140-bffc-1e19b05741b3","ios":"levelo://app?vid=0e994130-a069-4140-bffc-1e19b05741b3"},"vehicle_type_id":"4","last_reported":1768590797,"current_range_meters":2800,"station_id":"st_d2o4gvlbi1j2169b742g","pricing_plan_id":"cebpf4jnsgd1na2vs0mg"},{"bike_id":"0cd1e779-26e9-49c5-b773-f088de1cb9ab","system_id":"levelo_inurba_marseille","lat":43.26066,"lon":5.38523,"is_reserved":false,"is_disabled":false,"rental_uris":{"android":"levelo://app?vid=0cd1e779-26e9-49c5-b773-f088de1cb9ab","ios":"levelo://app?vid=0cd1e779-26e9-49c5-b773-f088de1cb9ab"},"vehicle_type_id":"4","last_reported":1768590797,"current_range_meters":2800,"station_id":"","pricing_plan_id":"cebpf4jnsgd1na2vs0mg"},{"bike_id":"f4bc8881-cafb-4d21-83b9-8e903d2e8cd8","system_id":"levelo_inurba_marseille","lat":43.33146,"lon":5.37706,"is_reserved":false,"is_disabled":false,"rental_uris":{"android":"levelo://app?vid=f4bc8881-cafb-4d21-83b9-8e903d2e8cd8","ios":"levelo://app?vid=f4bc8881-cafb-4d21-83b9-8e903d2e8cd8"},"vehicle_type_id":"4","last_reported":1768590797,"current_range_meters":2800,"station_id":"st_d46cu089ee8s73dldbu0","pricing_plan_id":"cebpf4jnsgd1na2vs0mg"},{"bike_id":"7a86726c-97ed-4911-a6e7-fec95faf1904","system_id":"levelo_inurba_marseille","lat":43.29754,"lon":5.42773,"is_reserved":false,"is_disabled":false,"rental_uris":{"android":"levelo://app?vid=7a86726c-97ed-4911-a6e7-fec95faf1904","ios":"levelo://app?vid=7a86726c-97ed-4911-a6e7-fec95faf1904"},"vehicle_type_id":"4","last_reported":1768590797,"current_range_meters":2800,"station_id":"st_d3md5207bmas73dh9klg","pricing_plan_id":"cebpf4jnsgd1na2vs0mg"},{"bike_id":"2618b71e-e626-4cbf-aa0f-e06cd864aacc","system_id":"levelo_inurba_marseille","lat":43.248016,"lon":5.374547,"is_reserved":false,"is_disabled":false,"rental_uris":{"android":"levelo://app?vid=2618b71e-e626-4cbf-aa0f-e06cd864aacc","ios":"levelo://app?vid=2618b71e-e626-4cbf-aa0f-e06cd864aacc"},"vehicle_type_id":"4","last_reported":1768590797,"current_range_meters":2800,"station_id":"ce4bhgh2rcd13ifvqfb0","pricing_plan_id":"cebpf4jnsgd1na2vs0mg"},{"bike_id":"9a64ec59-2594-4085-a64e-e06cf3aeb2dd","system_id":"levelo_inurba_marseille","lat":43.27319,"lon":5.39057,"is_reserved":false,"is_disabled":false,"rental_uris":{"android":"levelo://app?vid=9a64ec59-2594-4085-a64e-e06cf3aeb2dd","ios":"levelo://app?vid=9a64ec59-2594-4085-a64e-e06cf3aeb2dd"},"vehicle_type_id":"4","last_reported":1768590797,"current_range_meters":2800,"station_id":"ce4bhgp2rcd13ifvqfe0","pricing_plan_id":"cebpf4jnsgd1na2vs0mg"},{"bike_id":"d653a3d4-ecb6-464c-a5a4-09d8d710bd1d","system_id":"levelo_inurba_marseille","lat":43.24427,"lon":5.3786,"is_reserved":false,"is_disabled":false,"rental_uris":{"android":"levelo://app?vid=d653a3d4-ecb6-464c-a5a4-09d8d710bd1d","ios":"levelo://app?vid=d653a3d4-ecb6-464c-a5a4-09d8d710bd1d"},"vehicle_type_id":"4","last_reported":1768590797,"current_range_meters":2800,"station_id":"","pricing_plan_id":"cebpf4jnsgd1na2vs0mg"},{"bike_id":"7bf645d4-598a-49a6-9e76-cf9acf0ff953","system_id":"levelo_inurba_marseille","lat":43.31573,"lon":5.37303,"is_reserved":false,"is_disabled":false,"rental_uris":{"android":"levelo://app?vid=7bf645d4-598a-49a6-9e76-cf9acf0ff953","ios":"levelo://app?vid=7bf645d4-598a-49a6-9e76-cf9acf0ff953"},"vehicle_type_id":"4","last_reported":1768590797,"current_range_meters":2800,"station_id":"ce4bgt12rcd13ifvqcd0","pricing_plan_id":"cebpf4jnsgd1na2vs0mg"},{"bike_id":"fada8fb5-f742-413d-9099-7b27a5a66654","system_id":"levelo_inurba_marseille","lat":43.28387,"lon":5.37503,"is_reserved":false,"is_disabled":false,"rental_uris":{"android":"levelo://app?vid=fada8fb5-f742-413d-9099-7b27a5a66654","ios":"levelo://app?vid=fada8fb5-f742-413d-9099-7b27a5a66654"},"vehicle_type_id":"4","last_reported":1768590797,"current_range_meters":2800,"station_id":"ce4bh412rcd13ifvqds0","pricing_plan_id":"cebpf4jnsgd1na2vs0mg"},{"bike_id":"e20b9d2d-cf1b-4ebe-86ed-5082721a43c7","system_id":"levelo_inurba_marseille","lat":43.25888,"lon":5.41705,"is_reserved":false,"is_disabled":false,"rental_uris":{"android":"levelo://app?vid=e20b9d2d-cf1b-4ebe-86ed-5082721a43c7","ios":"levelo://app?vid=e20b9d2d-cf1b-4ebe-86ed-5082721a43c7"},"vehicle_type_id":"4","last_reported":1768590797,"current_range_meters":2800,"station_id":"","pricing_plan_id":"cebpf4jnsgd1na2vs0mg"},{"bike_id":"f2c787eb-1b36-4e92-b487-3132386b8e37","system_id":"levelo_inurba_marseille","lat":43.24818,"lon":5.37459,"is_reserved":false,"is_disabled":false,"rental_uris":{"android":"levelo://app?vid=f2c787eb-1b36-4e92-b487-3132386b8e37","ios":"levelo://app?vid=f2c787eb-1b36-4e92-b487-3132386b8e37"},"vehicle_type_id":"4","last_reported":1768590797,"current_range_meters":3200,"station_id":"ce4bhgh2rcd13ifvqfb0","pricing_plan_id":"cebpf4jnsgd1na2vs0mg"},{"bike_id":"29556fb6-bb59-435f-8cbe-475f52338107","system_id":"levelo_inurba_marseille","lat":43.297695,"lon":5.393222,"is_reserved":false,"is_disabled":false,"rental_uris":{"android":"levelo://app?vid=29556fb6-bb59-435f-8cbe-475f52338107","ios":"levelo://app?vid=29556fb6-bb59-435f-8cbe-475f52338107"},"vehicle_type_id":"4","last_reported":1768590797,"current_range_meters":3200,"station_id":"chh1huq6cuj3fo74tm60","pricing_plan_id":"cebpf4jnsgd1na2vs0mg"},{"bike_id":"980d7ebb-418f-4873-8f03-823736355ef5","system_id":"levelo_inurba_marseille","lat":43.25763,"lon":5.41008,"is_reserved":false,"is_disabled":false,"rental_uris":{"android":"levelo://app?vid=980d7ebb-418f-4873-8f03-823736355ef5","ios":"levelo://app?vid=980d7ebb-418f-4873-8f03-823736355ef5"},"vehicle_type_id":"4","last_reported":1768590797,"current_range_meters":3200,"station_id":"","pricing_plan_id":"cebpf4jnsgd1na2vs0mg"},{"bike_id":"e5aa787f-c7e4-4b02-b6ed-ac65ac7744ea","system_id":"levelo_inurba_marseille","lat":43.23192,"lon":5.39995,"is_reserved":false,"is_disabled":false,"rental_uris":{"android":"levelo://app?vid=e5aa787f-c7e4-4b02-b6ed-ac65ac7744ea","ios":"levelo://app?vid=e5aa787f-c7e4-4b02-b6ed-ac65ac7744ea"},"vehicle_type_id":"4","last_reported":1768590797,"current_range_meters":3200,"station_id":"ce4bhn12rcd13ifvqgqg","pricing_plan_id":"cebpf4jnsgd1na2vs0mg"},{"bike_id":"e1006462-68a0-4ccc-a6ad-e2bac9c35aea","system_id":"levelo_inurba_marseille","lat":43.25336,"lon":5.42184,"is_reserved":false,"is_disabled":false,"rental_uris":{"android":"levelo://app?vid=e1006462-68a0-4ccc-a6ad-e2bac9c35aea","ios":"levelo://app?vid=e1006462-68a0-4ccc-a6ad-e2bac9c35aea"},"vehicle_type_id":"4","last_reported":1768590797,"current_range_meters":3200,"station_id":"st_d2m65c5bi1j21697t3ng","pricing_plan_id":"cebpf4jnsgd1na2vs0mg"},{"bike_id":"878a03c9-e726-428a-a862-5126d43ba501","system_id":"levelo_inurba_marseille","lat":43.29256,"lon":5.40905,"is_reserved":false,"is_disabled":false,"rental_uris":{"android":"levelo://app?vid=878a03c9-e726-428a-a862-5126d43ba501","ios":"levelo://app?vid=878a03c9-e726-428a-a862-5126d43ba501"},"vehicle_type_id":"4","last_reported":1768590797,"current_range_meters":3200,"station_id":"ce4bh192rcd13ifvqdc0","pricing_plan_id":"cebpf4jnsgd1na2vs0mg"},{"bike_id":"8f571b24-f4d8-4eb4-bfa5-0862a1b55fa1","system_id":"levelo_inurba_marseille","lat":43.30286,"lon":5.36895,"is_reserved":false,"is_disabled":false,"rental_uris":{"android":"levelo://app?vid=8f571b24-f4d8-4eb4-bfa5-0862a1b55fa1","ios":"levelo://app?vid=8f571b24-f4d8-4eb4-bfa5-0862a1b55fa1"},"vehicle_type_id":"4","last_reported":1768590797,"current_range_meters":3200,"station_id":"ce4bgqh2rcd13ifvqc5g","pricing_plan_id":"cebpf4jnsgd1na2vs0mg"},{"bike_id":"a605cdaa-0a40-429d-87cd-8cfc49d1c0e0","system_id":"levelo_inurba_marseille","lat":43.30157,"lon":5.37405,"is_reserved":false,"is_disabled":false,"rental_uris":{"android":"levelo://app?vid=a605cdaa-0a40-429d-87cd-8cfc49d1c0e0","ios":"levelo://app?vid=a605cdaa-0a40-429d-87cd-8cfc49d1c0e0"},"vehicle_type_id":"4","last_reported":1768590797,"current_range_meters":3200,"station_id":"ce4bgs92rcd13ifvqcc0","pricing_plan_id":"cebpf4jnsgd1na2vs0mg"},{"bike_id":"90218040-6582-4aa2-8913-05c76010fcbf","system_id":"levelo_inurba_marseille","lat":43.237847,"lon":5.366337,"is_reserved":false,"is_disabled":false,"rental_uris":{"android":"levelo://app?vid=90218040-6582-4aa2-8913-05c76010fcbf","ios":"levelo://app?vid=90218040-6582-4aa2-8913-05c76010fcbf"},"vehicle_type_id":"4","last_reported":1768590797,"current_range_meters":3200,"station_id":"st_d3nk18o9ro0c73en2l3g","pricing_plan_id":"cebpf4jnsgd1na2vs0mg"},{"bike_id":"4943d335-132a-4492-bb39-293d4465a63c","system_id":"levelo_inurba_marseille","lat":43.279927,"lon":5.416593,"is_reserved":false,"is_disabled":false,"rental_uris":{"android":"levelo://app?vid=4943d335-132a-4492-bb39-293d4465a63c","ios":"levelo://app?vid=4943d335-132a-4492-bb39-293d4465a63c"},"vehicle_type_id":"4","last_reported":1768590797,"current_range_meters":3600,"station_id":"ce4bho12rcd13ifvqh1g","pricing_plan_id":"cebpf4jnsgd1na2vs0mg"},{"bike_id":"24b13bde-24a6-4a9e-8d0f-a64c87085dc9","system_id":"levelo_inurba_marseille","lat":43.29905,"lon":5.38308,"is_reserved":false,"is_disabled":false,"rental_uris":{"android":"levelo://app?vid=24b13bde-24a6-4a9e-8d0f-a64c87085dc9","ios":"levelo://app?vid=24b13bde-24a6-4a9e-8d0f-a64c87085dc9"},"vehicle_type_id":"4","last_reported":1768590797,"current_range_meters":3600,"station_id":"","pricing_plan_id":"cebpf4jnsgd1na2vs0mg"},{"bike_id":"d232944c-9760-43bc-beb3-acf611cdb292","system_id":"levelo_inurba_marseille","lat":43.29913,"lon":5.38213,"is_reserved":false,"is_disabled":false,"rental_uris":{"android":"levelo://app?vid=d232944c-9760-43bc-beb3-acf611cdb292","ios":"levelo://app?vid=d232944c-9760-43bc-beb3-acf611cdb292"},"vehicle_type_id":"4","last_reported":1768590797,"current_range_meters":4000,"station_id":"","pricing_plan_id":"cebpf4jnsgd1na2vs0mg"},{"bike_id":"e5ea7934-0f2b-4a0b-98bd-cc4895783922","system_id":"levelo_inurba_marseille","lat":43.278152,"lon":5.407204,"is_reserved":false,"is_disabled":false,"rental_uris":{"android":"levelo://app?vid=e5ea7934-0f2b-4a0b-98bd-cc4895783922","ios":"levelo://app?vid=e5ea7934-0f2b-4a0b-98bd-cc4895783922"},"vehicle_type_id":"4","last_reported":1768590797,"current_range_meters":4000,"station_id":"ce4bhnh2rcd13ifvqgtg","pricing_plan_id":"cebpf4jnsgd1na2vs0mg"},{"bike_id":"a0a43241-d522-4b07-add5-2a27372bb437","system_id":"levelo_inurba_marseille","lat":43.25837,"lon":5.39431,"is_reserved":false,"is_disabled":false,"rental_uris":{"android":"levelo://app?vid=a0a43241-d522-4b07-add5-2a27372bb437","ios":"levelo://app?vid=a0a43241-d522-4b07-add5-2a27372bb437"},"vehicle_type_id":"4","last_reported":1768590797,"current_range_meters":4000,"station_id":"ce4bhip2rcd13ifvqft0","pricing_plan_id":"cebpf4jnsgd1na2vs0mg"},{"bike_id":"47d6a118-30fb-4bd5-8b2e-5b32dee8a421","system_id":"levelo_inurba_marseille","lat":43.28605,"lon":5.38937,"is_reserved":false,"is_disabled":false,"rental_uris":{"android":"levelo://app?vid=47d6a118-30fb-4bd5-8b2e-5b32dee8a421","ios":"levelo://app?vid=47d6a118-30fb-4bd5-8b2e-5b32dee8a421"},"vehicle_type_id":"4","last_reported":1768590797,"current_range_meters":4000,"station_id":"","pricing_plan_id":"cebpf4jnsgd1na2vs0mg"},{"bike_id":"91f12e44-fb57-4d25-99b4-ab40162c4b9f","system_id":"levelo_inurba_marseille","lat":43.2815,"lon":5.4264,"is_reserved":false,"is_disabled":false,"rental_uris":{"android":"levelo://app?vid=91f12e44-fb57-4d25-99b4-ab40162c4b9f","ios":"levelo://app?vid=91f12e44-fb57-4d25-99b4-ab40162c4b9f"},"vehicle_type_id":"4","last_reported":1768590797,"current_range_meters":4000,"station_id":"ce4bhnh2rcd13ifvqgug","pricing_plan_id":"cebpf4jnsgd1na2vs0mg"},{"bike_id":"a6efb7b3-8c44-4a6c-92e4-ed7eb57f41e2","system_id":"levelo_inurba_marseille","lat":43.284318,"lon":5.367679,"is_reserved":false,"is_disabled":false,"rental_uris":{"android":"levelo://app?vid=a6efb7b3-8c44-4a6c-92e4-ed7eb57f41e2","ios":"levelo://app?vid=a6efb7b3-8c44-4a6c-92e4-ed7eb57f41e2"},"vehicle_type_id":"4","last_reported":1768590797,"current_range_meters":4000,"station_id":"","pricing_plan_id":"cebpf4jnsgd1na2vs0mg"},{"bike_id":"5e878a07-092f-4b63-af36-04a4701880ef","system_id":"levelo_inurba_marseille","lat":43.2854,"lon":5.44074,"is_reserved":false,"is_disabled":false,"rental_uris":{"android":"levelo://app?vid=5e878a07-092f-4b63-af36-04a4701880ef","ios":"levelo://app?vid=5e878a07-092f-4b63-af36-04a4701880ef"},"vehicle_type_id":"4","last_reported":1768590797,"current_range_meters":4000,"station_id":"st_d3j3df2ikq2c7380ej80","pricing_plan_id":"cebpf4jnsgd1na2vs0mg"},{"bike_id":"ceb127dd-c990-4e84-9bd5-10a36add8b4c","system_id":"levelo_inurba_marseille","lat":43.27996,"lon":5.40014,"is_reserved":false,"is_disabled":false,"rental_uris":{"android":"levelo://app?vid=ceb127dd-c990-4e84-9bd5-10a36add8b4c","ios":"levelo://app?vid=ceb127dd-c990-4e84-9bd5-10a36add8b4c"},"vehicle_type_id":"4","last_reported":1768590797,"current_range_meters":4000,"station_id":"ce4bho92rcd13ifvqh4g","pricing_plan_id":"cebpf4jnsgd1na2vs0mg"},{"bike_id":"94a7f442-c2de-4944-8864-07c57903203c","system_id":"levelo_inurba_marseille","lat":43.33151,"lon":5.37696,"is_reserved":false,"is_disabled":false,"rental_uris":{"android":"levelo://app?vid=94a7f442-c2de-4944-8864-07c57903203c","ios":"levelo://app?vid=94a7f442-c2de-4944-8864-07c57903203c"},"vehicle_type_id":"4","last_reported":1768590797,"current_range_meters":4000,"station_id":"st_d46cu089ee8s73dldbu0","pricing_plan_id":"cebpf4jnsgd1na2vs0mg"},{"bike_id":"9b4a2739-513b-4b53-a773-9a63a9ca2098","system_id":"levelo_inurba_marseille","lat":43.30144,"lon":5.38778,"is_reserved":false,"is_disabled":false,"rental_uris":{"android":"levelo://app?vid=9b4a2739-513b-4b53-a773-9a63a9ca2098","ios":"levelo://app?vid=9b4a2739-513b-4b53-a773-9a63a9ca2098"},"vehicle_type_id":"4","last_reported":1768590797,"current_range_meters":4000,"station_id":"ce4bghh2rcd13ifvqb60","pricing_plan_id":"cebpf4jnsgd1na2vs0mg"},{"bike_id":"ca4179ba-d96b-437c-ae35-312b23a32116","system_id":"levelo_inurba_marseille","lat":43.25575,"lon":5.3824,"is_reserved":false,"is_disabled":false,"rental_uris":{"android":"levelo://app?vid=ca4179ba-d96b-437c-ae35-312b23a32116","ios":"levelo://app?vid=ca4179ba-d96b-437c-ae35-312b23a32116"},"vehicle_type_id":"4","last_reported":1768590797,"current_range_meters":4000,"station_id":"ce4bhih2rcd13ifvqfs0","pricing_plan_id":"cebpf4jnsgd1na2vs0mg"},{"bike_id":"cf001672-1b79-4be4-b38c-7c16a8075b4a","system_id":"levelo_inurba_marseille","lat":43.262008,"lon":5.379237,"is_reserved":false,"is_disabled":false,"rental_uris":{"android":"levelo://app?vid=cf001672-1b79-4be4-b38c-7c16a8075b4a","ios":"levelo://app?vid=cf001672-1b79-4be4-b38c-7c16a8075b4a"},"vehicle_type_id":"4","last_reported":1768590797,"current_range_meters":4000,"station_id":"ce4bhjp2rcd13ifvqg90","pricing_plan_id":"cebpf4jnsgd1na2vs0mg"},{"bike_id":"d970374e-5112-478e-8dba-3dba5eea6b44","system_id":"levelo_inurba_marseille","lat":43.30125,"lon":5.43115,"is_reserved":false,"is_disabled":false,"rental_uris":{"android":"levelo://app?vid=d970374e-5112-478e-8dba-3dba5eea6b44","ios":"levelo://app?vid=d970374e-5112-478e-8dba-3dba5eea6b44"},"vehicle_type_id":"4","last_reported":1768590797,"current_range_meters":4000,"station_id":"st_d3js3co5814s73ftftug","pricing_plan_id":"cebpf4jnsgd1na2vs0mg"},{"bike_id":"0ce3cc02-2962-4286-804f-4dc1590de945","system_id":"levelo_inurba_marseille","lat":43.255734,"lon":5.382384,"is_reserved":false,"is_disabled":false,"rental_uris":{"android":"levelo://app?vid=0ce3cc02-2962-4286-804f-4dc1590de945","ios":"levelo://app?vid=0ce3cc02-2962-4286-804f-4dc1590de945"},"vehicle_type_id":"4","last_reported":1768590797,"current_range_meters":4000,"station_id":"ce4bhih2rcd13ifvqfs0","pricing_plan_id":"cebpf4jnsgd1na2vs0mg"},{"bike_id":"640a2c1a-6656-4f72-9d80-a05d025fe26c","system_id":"levelo_inurba_marseille","lat":43.26787,"lon":5.39417,"is_reserved":false,"is_disabled":false,"rental_uris":{"android":"levelo://app?vid=640a2c1a-6656-4f72-9d80-a05d025fe26c","ios":"levelo://app?vid=640a2c1a-6656-4f72-9d80-a05d025fe26c"},"vehicle_type_id":"4","last_reported":1768590797,"current_range_meters":4000,"station_id":"ce4bhh12rcd13ifvqfg0","pricing_plan_id":"cebpf4jnsgd1na2vs0mg"},{"bike_id":"d573dea0-84f2-4278-9343-3e80901c823b","system_id":"levelo_inurba_marseille","lat":43.31409,"lon":5.37738,"is_reserved":false,"is_disabled":false,"rental_uris":{"android":"levelo://app?vid=d573dea0-84f2-4278-9343-3e80901c823b","ios":"levelo://app?vid=d573dea0-84f2-4278-9343-3e80901c823b"},"vehicle_type_id":"4","last_reported":1768590797,"current_range_meters":4000,"station_id":"","pricing_plan_id":"cebpf4jnsgd1na2vs0mg"},{"bike_id":"e70abe95-579e-427d-9044-e606b2f1e69a","system_id":"levelo_inurba_marseille","lat":43.28515,"lon":5.44086,"is_reserved":false,"is_disabled":false,"rental_uris":{"android":"levelo://app?vid=e70abe95-579e-427d-9044-e606b2f1e69a","ios":"levelo://app?vid=e70abe95-579e-427d-9044-e606b2f1e69a"},"vehicle_type_id":"4","last_reported":1768590797,"current_range_meters":4000,"station_id":"st_d3j3df2ikq2c7380ej80","pricing_plan_id":"cebpf4jnsgd1na2vs0mg"},{"bike_id":"15e31a2c-ce76-4a1b-a09d-65a5dffb389e","system_id":"levelo_inurba_marseille","lat":43.237135,"lon":5.401655,"is_reserved":false,"is_disabled":false,"rental_uris":{"android":"levelo://app?vid=15e31a2c-ce76-4a1b-a09d-65a5dffb389e","ios":"levelo://app?vid=15e31a2c-ce76-4a1b-a09d-65a5dffb389e"},"vehicle_type_id":"4","last_reported":1768590797,"current_range_meters":4000,"station_id":"","pricing_plan_id":"cebpf4jnsgd1na2vs0mg"},{"bike_id":"5379f5ed-da06-4adb-b823-51e71e531df4","system_id":"levelo_inurba_marseille","lat":43.2464,"lon":5.4314,"is_reserved":false,"is_disabled":false,"rental_uris":{"android":"levelo://app?vid=5379f5ed-da06-4adb-b823-51e71e531df4","ios":"levelo://app?vid=5379f5ed-da06-4adb-b823-51e71e531df4"},"vehicle_type_id":"4","last_reported":1768590797,"current_range_meters":4000,"station_id":"st_d2m6c4gdas8pm72e190g","pricing_plan_id":"cebpf4jnsgd1na2vs0mg"},{"bike_id":"89bd2b72-7c1e-448f-83b2-6ea2872669f5","system_id":"levelo_inurba_marseille","lat":43.31324,"lon":5.39691,"is_reserved":false,"is_disabled":false,"rental_uris":{"android":"levelo://app?vid=89bd2b72-7c1e-448f-83b2-6ea2872669f5","ios":"levelo://app?vid=89bd2b72-7c1e-448f-83b2-6ea2872669f5"},"vehicle_type_id":"4","last_reported":1768590797,"current_range_meters":4000,"station_id":"ce4bgvp2rcd13ifvqcu0","pricing_plan_id":"cebpf4jnsgd1na2vs0mg"},{"bike_id":"469478d7-1890-484f-bd56-d0a886cbfdb3","system_id":"levelo_inurba_marseille","lat":43.28935,"lon":5.36635,"is_reserved":false,"is_disabled":false,"rental_uris":{"android":"levelo://app?vid=469478d7-1890-484f-bd56-d0a886cbfdb3","ios":"levelo://app?vid=469478d7-1890-484f-bd56-d0a886cbfdb3"},"vehicle_type_id":"4","last_reported":1768590797,"current_range_meters":4000,"station_id":"ce4bhap2rcd13ifvqek0","pricing_plan_id":"cebpf4jnsgd1na2vs0mg"},{"bike_id":"0b4166d6-aebd-4924-bca2-02a8e626f86f","system_id":"levelo_inurba_marseille","lat":43.3071,"lon":5.42435,"is_reserved":false,"is_disabled":false,"rental_uris":{"android":"levelo://app?vid=0b4166d6-aebd-4924-bca2-02a8e626f86f","ios":"levelo://app?vid=0b4166d6-aebd-4924-bca2-02a8e626f86f"},"vehicle_type_id":"4","last_reported":1768590797,"current_range_meters":4400,"station_id":"st_cvj6ca6bvosntc0bfgr0","pricing_plan_id":"cebpf4jnsgd1na2vs0mg"},{"bike_id":"5374e4a5-372a-4009-95fd-eb8ddb1eb6c1","system_id":"levelo_inurba_marseille","lat":43.23179,"lon":5.3999,"is_reserved":false,"is_disabled":false,"rental_uris":{"android":"levelo://app?vid=5374e4a5-372a-4009-95fd-eb8ddb1eb6c1","ios":"levelo://app?vid=5374e4a5-372a-4009-95fd-eb8ddb1eb6c1"},"vehicle_type_id":"4","last_reported":1768590797,"current_range_meters":4400,"station_id":"ce4bhn12rcd13ifvqgqg","pricing_plan_id":"cebpf4jnsgd1na2vs0mg"},{"bike_id":"8875f8cc-07a8-40ca-92de-9f4ce77fad56","system_id":"levelo_inurba_marseille","lat":43.28447,"lon":5.38655,"is_reserved":false,"is_disabled":false,"rental_uris":{"android":"levelo://app?vid=8875f8cc-07a8-40ca-92de-9f4ce77fad56","ios":"levelo://app?vid=8875f8cc-07a8-40ca-92de-9f4ce77fad56"},"vehicle_type_id":"4","last_reported":1768590797,"current_range_meters":4400,"station_id":"","pricing_plan_id":"cebpf4jnsgd1na2vs0mg"},{"bike_id":"0aaffd21-6317-47b2-85da-6b9bfa421a46","system_id":"levelo_inurba_marseille","lat":43.29824,"lon":5.37664,"is_reserved":false,"is_disabled":false,"rental_uris":{"android":"levelo://app?vid=0aaffd21-6317-47b2-85da-6b9bfa421a46","ios":"levelo://app?vid=0aaffd21-6317-47b2-85da-6b9bfa421a46"},"vehicle_type_id":"4","last_reported":1768590797,"current_range_meters":4400,"station_id":"","pricing_plan_id":"cebpf4jnsgd1na2vs0mg"},{"bike_id":"3b06d8ac-0c0e-4815-baae-3f6b7bfae72e","system_id":"levelo_inurba_marseille","lat":43.34157,"lon":5.36045,"is_reserved":false,"is_disabled":false,"rental_uris":{"android":"levelo://app?vid=3b06d8ac-0c0e-4815-baae-3f6b7bfae72e","ios":"levelo://app?vid=3b06d8ac-0c0e-4815-baae-3f6b7bfae72e"},"vehicle_type_id":"4","last_reported":1768590797,"current_range_meters":4400,"station_id":"","pricing_plan_id":"cebpf4jnsgd1na2vs0mg"},{"bike_id":"84a64c9c-ed4f-4996-9c9c-4015389b1dd3","system_id":"levelo_inurba_marseille","lat":43.33778,"lon":5.37437,"is_reserved":false,"is_disabled":false,"rental_uris":{"android":"levelo://app?vid=84a64c9c-ed4f-4996-9c9c-4015389b1dd3","ios":"levelo://app?vid=84a64c9c-ed4f-4996-9c9c-4015389b1dd3"},"vehicle_type_id":"4","last_reported":1768590797,"current_range_meters":4400,"station_id":"","pricing_plan_id":"cebpf4jnsgd1na2vs0mg"},{"bike_id":"87ed11d8-6dfd-40ba-9acc-1875ca5803cb","system_id":"levelo_inurba_marseille","lat":43.30149,"lon":5.3988,"is_reserved":false,"is_disabled":false,"rental_uris":{"android":"levelo://app?vid=87ed11d8-6dfd-40ba-9acc-1875ca5803cb","ios":"levelo://app?vid=87ed11d8-6dfd-40ba-9acc-1875ca5803cb"},"vehicle_type_id":"4","last_reported":1768590797,"current_range_meters":4400,"station_id":"ce4bh0h2rcd13ifvqd40","pricing_plan_id":"cebpf4jnsgd1na2vs0mg"},{"bike_id":"8a9da358-0636-479a-bfed-c18a1491989f","system_id":"levelo_inurba_marseille","lat":43.31052,"lon":5.37151,"is_reserved":false,"is_disabled":false,"rental_uris":{"android":"levelo://app?vid=8a9da358-0636-479a-bfed-c18a1491989f","ios":"levelo://app?vid=8a9da358-0636-479a-bfed-c18a1491989f"},"vehicle_type_id":"4","last_reported":1768590797,"current_range_meters":4400,"station_id":"st_d4kl2rp97mjs73e7tdfg","pricing_plan_id":"cebpf4jnsgd1na2vs0mg"},{"bike_id":"e832dbda-db1d-4286-a1d7-6e99944a506a","system_id":"levelo_inurba_marseille","lat":43.304219,"lon":5.412853,"is_reserved":false,"is_disabled":false,"rental_uris":{"android":"levelo://app?vid=e832dbda-db1d-4286-a1d7-6e99944a506a","ios":"levelo://app?vid=e832dbda-db1d-4286-a1d7-6e99944a506a"},"vehicle_type_id":"4","last_reported":1768590797,"current_range_meters":4400,"station_id":"ce4bhop2rcd13ifvqh8g","pricing_plan_id":"cebpf4jnsgd1na2vs0mg"},{"bike_id":"69d47657-6b1a-4823-85a8-40be21f119ac","system_id":"levelo_inurba_marseille","lat":43.31444,"lon":5.42475,"is_reserved":false,"is_disabled":false,"rental_uris":{"android":"levelo://app?vid=69d47657-6b1a-4823-85a8-40be21f119ac","ios":"levelo://app?vid=69d47657-6b1a-4823-85a8-40be21f119ac"},"vehicle_type_id":"4","last_reported":1768590797,"current_range_meters":4400,"station_id":"","pricing_plan_id":"cebpf4jnsgd1na2vs0mg"},{"bike_id":"f546a598-b504-471e-9b6d-f4786269b128","system_id":"levelo_inurba_marseille","lat":43.25202,"lon":5.38026,"is_reserved":false,"is_disabled":false,"rental_uris":{"android":"levelo://app?vid=f546a598-b504-471e-9b6d-f4786269b128","ios":"levelo://app?vid=f546a598-b504-471e-9b6d-f4786269b128"},"vehicle_type_id":"4","last_reported":1768590797,"current_range_meters":4400,"station_id":"","pricing_plan_id":"cebpf4jnsgd1na2vs0mg"},{"bike_id":"9798252a-9361-46ce-9695-59458b1329bc","system_id":"levelo_inurba_marseille","lat":43.23188,"lon":5.35563,"is_reserved":false,"is_disabled":false,"rental_uris":{"android":"levelo://app?vid=9798252a-9361-46ce-9695-59458b1329bc","ios":"levelo://app?vid=9798252a-9361-46ce-9695-59458b1329bc"},"vehicle_type_id":"4","last_reported":1768590797,"current_range_meters":4800,"station_id":"ce4bhu92rcd13ifvqi70","pricing_plan_id":"cebpf4jnsgd1na2vs0mg"},{"bike_id":"73770b38-d8b9-4deb-b7bc-9b47ac9b68ca","system_id":"levelo_inurba_marseille","lat":43.24183,"lon":5.39705,"is_reserved":false,"is_disabled":false,"rental_uris":{"android":"levelo://app?vid=73770b38-d8b9-4deb-b7bc-9b47ac9b68ca","ios":"levelo://app?vid=73770b38-d8b9-4deb-b7bc-9b47ac9b68ca"},"vehicle_type_id":"4","last_reported":1768590797,"current_range_meters":4800,"station_id":"ce4bhn12rcd13ifvqgpg","pricing_plan_id":"cebpf4jnsgd1na2vs0mg"},{"bike_id":"b62e2e4f-8d17-40db-9aeb-d34b261b865e","system_id":"levelo_inurba_marseille","lat":43.23195,"lon":5.35555,"is_reserved":false,"is_disabled":false,"rental_uris":{"android":"levelo://app?vid=b62e2e4f-8d17-40db-9aeb-d34b261b865e","ios":"levelo://app?vid=b62e2e4f-8d17-40db-9aeb-d34b261b865e"},"vehicle_type_id":"4","last_reported":1768590797,"current_range_meters":4800,"station_id":"ce4bhu92rcd13ifvqi70","pricing_plan_id":"cebpf4jnsgd1na2vs0mg"},{"bike_id":"5032b02a-9efc-499b-80c1-ff1804d0ec8d","system_id":"levelo_inurba_marseille","lat":43.24784,"lon":5.37453,"is_reserved":false,"is_disabled":false,"rental_uris":{"android":"levelo://app?vid=5032b02a-9efc-499b-80c1-ff1804d0ec8d","ios":"levelo://app?vid=5032b02a-9efc-499b-80c1-ff1804d0ec8d"},"vehicle_type_id":"4","last_reported":1768590797,"current_range_meters":4800,"station_id":"ce4bhgh2rcd13ifvqfb0","pricing_plan_id":"cebpf4jnsgd1na2vs0mg"},{"bike_id":"9960dbea-b98d-4f66-9c0e-bd781035e4b1","system_id":"levelo_inurba_marseille","lat":43.29905,"lon":5.38132,"is_reserved":false,"is_disabled":false,"rental_uris":{"android":"levelo://app?vid=9960dbea-b98d-4f66-9c0e-bd781035e4b1","ios":"levelo://app?vid=9960dbea-b98d-4f66-9c0e-bd781035e4b1"},"vehicle_type_id":"4","last_reported":1768590797,"current_range_meters":4800,"station_id":"ce4bgj12rcd13ifvqbc0","pricing_plan_id":"cebpf4jnsgd1na2vs0mg"},{"bike_id":"5ef95128-9e87-4e01-b9ca-a3ed3162f6d1","system_id":"levelo_inurba_marseille","lat":43.27063,"lon":5.40258,"is_reserved":false,"is_disabled":false,"rental_uris":{"android":"levelo://app?vid=5ef95128-9e87-4e01-b9ca-a3ed3162f6d1","ios":"levelo://app?vid=5ef95128-9e87-4e01-b9ca-a3ed3162f6d1"},"vehicle_type_id":"4","last_reported":1768590797,"current_range_meters":4800,"station_id":"ce4bhk92rcd13ifvqgc0","pricing_plan_id":"cebpf4jnsgd1na2vs0mg"},{"bike_id":"38c3b80e-0308-46b2-9a29-2654b96d87d9","system_id":"levelo_inurba_marseille","lat":43.29965,"lon":5.37327,"is_reserved":false,"is_disabled":false,"rental_uris":{"android":"levelo://app?vid=38c3b80e-0308-46b2-9a29-2654b96d87d9","ios":"levelo://app?vid=38c3b80e-0308-46b2-9a29-2654b96d87d9"},"vehicle_type_id":"4","last_reported":1768590797,"current_range_meters":4800,"station_id":"","pricing_plan_id":"cebpf4jnsgd1na2vs0mg"},{"bike_id":"140c40b1-8631-48b6-8307-6fb47b0aa84f","system_id":"levelo_inurba_marseille","lat":43.31482,"lon":5.37298,"is_reserved":false,"is_disabled":false,"rental_uris":{"android":"levelo://app?vid=140c40b1-8631-48b6-8307-6fb47b0aa84f","ios":"levelo://app?vid=140c40b1-8631-48b6-8307-6fb47b0aa84f"},"vehicle_type_id":"4","last_reported":1768590797,"current_range_meters":4800,"station_id":"ce4bgt12rcd13ifvqcd0","pricing_plan_id":"cebpf4jnsgd1na2vs0mg"},{"bike_id":"48aeaab0-6b80-4b7a-a472-f0414a5d3089","system_id":"levelo_inurba_marseille","lat":43.29779,"lon":5.37082,"is_reserved":false,"is_disabled":false,"rental_uris":{"android":"levelo://app?vid=48aeaab0-6b80-4b7a-a472-f0414a5d3089","ios":"levelo://app?vid=48aeaab0-6b80-4b7a-a472-f0414a5d3089"},"vehicle_type_id":"4","last_reported":1768590797,"current_range_meters":4800,"station_id":"ce4bgop2rcd13ifvqc1g","pricing_plan_id":"cebpf4jnsgd1na2vs0mg"},{"bike_id":"9f0ca942-43cc-4c26-b45d-b02a363371a5","system_id":"levelo_inurba_marseille","lat":43.27811,"lon":5.40724,"is_reserved":false,"is_disabled":false,"rental_uris":{"android":"levelo://app?vid=9f0ca942-43cc-4c26-b45d-b02a363371a5","ios":"levelo://app?vid=9f0ca942-43cc-4c26-b45d-b02a363371a5"},"vehicle_type_id":"4","last_reported":1768590797,"current_range_meters":4800,"station_id":"ce4bhnh2rcd13ifvqgtg","pricing_plan_id":"cebpf4jnsgd1na2vs0mg"},{"bike_id":"b20a8a85-b9a1-47ab-ad21-4f965b1ca351","system_id":"levelo_inurba_marseille","lat":43.248,"lon":5.37461,"is_reserved":false,"is_disabled":false,"rental_uris":{"android":"levelo://app?vid=b20a8a85-b9a1-47ab-ad21-4f965b1ca351","ios":"levelo://app?vid=b20a8a85-b9a1-47ab-ad21-4f965b1ca351"},"vehicle_type_id":"4","last_reported":1768590797,"current_range_meters":4800,"station_id":"ce4bhgh2rcd13ifvqfb0","pricing_plan_id":"cebpf4jnsgd1na2vs0mg"},{"bike_id":"9dd51bac-d02c-4ac5-a1b5-ad3fa06f41c3","system_id":"levelo_inurba_marseille","lat":43.25587,"lon":5.38248,"is_reserved":false,"is_disabled":false,"rental_uris":{"android":"levelo://app?vid=9dd51bac-d02c-4ac5-a1b5-ad3fa06f41c3","ios":"levelo://app?vid=9dd51bac-d02c-4ac5-a1b5-ad3fa06f41c3"},"vehicle_type_id":"4","last_reported":1768590797,"current_range_meters":4800,"station_id":"ce4bhih2rcd13ifvqfs0","pricing_plan_id":"cebpf4jnsgd1na2vs0mg"},{"bike_id":"7465de0c-3252-438c-a1d0-10a150ee4d72","system_id":"levelo_inurba_marseille","lat":43.229291,"lon":5.353841,"is_reserved":false,"is_disabled":false,"rental_uris":{"android":"levelo://app?vid=7465de0c-3252-438c-a1d0-10a150ee4d72","ios":"levelo://app?vid=7465de0c-3252-438c-a1d0-10a150ee4d72"},"vehicle_type_id":"4","last_reported":1768590797,"current_range_meters":4800,"station_id":"cpo3532slgdg3j2ikp40","pricing_plan_id":"cebpf4jnsgd1na2vs0mg"},{"bike_id":"fb93d224-5964-4f2e-ba2f-d2699823d102","system_id":"levelo_inurba_marseille","lat":43.29267,"lon":5.38444,"is_reserved":false,"is_disabled":false,"rental_uris":{"android":"levelo://app?vid=fb93d224-5964-4f2e-ba2f-d2699823d102","ios":"levelo://app?vid=fb93d224-5964-4f2e-ba2f-d2699823d102"},"vehicle_type_id":"4","last_reported":1768590797,"current_range_meters":5600,"station_id":"ce4bh692rcd13ifvqea0","pricing_plan_id":"cebpf4jnsgd1na2vs0mg"},{"bike_id":"ba610a57-276c-47e6-946b-7d7160321b17","system_id":"levelo_inurba_marseille","lat":43.27484,"lon":5.38992,"is_reserved":false,"is_disabled":false,"rental_uris":{"android":"levelo://app?vid=ba610a57-276c-47e6-946b-7d7160321b17","ios":"levelo://app?vid=ba610a57-276c-47e6-946b-7d7160321b17"},"vehicle_type_id":"4","last_reported":1768590797,"current_range_meters":5600,"station_id":"","pricing_plan_id":"cebpf4jnsgd1na2vs0mg"},{"bike_id":"dcba5e0d-8e79-44d0-8827-5e7dfb547664","system_id":"levelo_inurba_marseille","lat":43.28537,"lon":5.44108,"is_reserved":false,"is_disabled":false,"rental_uris":{"android":"levelo://app?vid=dcba5e0d-8e79-44d0-8827-5e7dfb547664","ios":"levelo://app?vid=dcba5e0d-8e79-44d0-8827-5e7dfb547664"},"vehicle_type_id":"4","last_reported":1768590797,"current_range_meters":5600,"station_id":"st_d3j3df2ikq2c7380ej80","pricing_plan_id":"cebpf4jnsgd1na2vs0mg"},{"bike_id":"3df4dfb2-a283-4c16-94bd-e45fe1d34f73","system_id":"levelo_inurba_marseille","lat":43.27918,"lon":5.39572,"is_reserved":false,"is_disabled":false,"rental_uris":{"android":"levelo://app?vid=3df4dfb2-a283-4c16-94bd-e45fe1d34f73","ios":"levelo://app?vid=3df4dfb2-a283-4c16-94bd-e45fe1d34f73"},"vehicle_type_id":"4","last_reported":1768590797,"current_range_meters":5600,"station_id":"ce4bhf92rcd13ifvqf40","pricing_plan_id":"cebpf4jnsgd1na2vs0mg"},{"bike_id":"01584734-b620-48f0-a1b2-524a5254d233","system_id":"levelo_inurba_marseille","lat":43.29574,"lon":5.3773,"is_reserved":false,"is_disabled":false,"rental_uris":{"android":"levelo://app?vid=01584734-b620-48f0-a1b2-524a5254d233","ios":"levelo://app?vid=01584734-b620-48f0-a1b2-524a5254d233"},"vehicle_type_id":"4","last_reported":1768590797,"current_range_meters":5600,"station_id":"","pricing_plan_id":"cebpf4jnsgd1na2vs0mg"},{"bike_id":"f8be3f31-7ad2-418e-9347-d8ac1717ae50","system_id":"levelo_inurba_marseille","lat":43.29452,"lon":5.40899,"is_reserved":false,"is_disabled":false,"rental_uris":{"android":"levelo://app?vid=f8be3f31-7ad2-418e-9347-d8ac1717ae50","ios":"levelo://app?vid=f8be3f31-7ad2-418e-9347-d8ac1717ae50"},"vehicle_type_id":"4","last_reported":1768590797,"current_range_meters":5600,"station_id":"","pricing_plan_id":"cebpf4jnsgd1na2vs0mg"},{"bike_id":"c6b7d41c-17d5-4d4d-98f7-04f5d62108df","system_id":"levelo_inurba_marseille","lat":43.22566,"lon":5.41622,"is_reserved":false,"is_disabled":false,"rental_uris":{"android":"levelo://app?vid=c6b7d41c-17d5-4d4d-98f7-04f5d62108df","ios":"levelo://app?vid=c6b7d41c-17d5-4d4d-98f7-04f5d62108df"},"vehicle_type_id":"4","last_reported":1768590797,"current_range_meters":5600,"station_id":"st_d2o4gvlbi1j2169b742g","pricing_plan_id":"cebpf4jnsgd1na2vs0mg"},{"bike_id":"843f91d3-3497-4c4b-8a26-d0f129a5f82d","system_id":"levelo_inurba_marseille","lat":43.24164,"lon":5.364,"is_reserved":false,"is_disabled":false,"rental_uris":{"android":"levelo://app?vid=843f91d3-3497-4c4b-8a26-d0f129a5f82d","ios":"levelo://app?vid=843f91d3-3497-4c4b-8a26-d0f129a5f82d"},"vehicle_type_id":"4","last_reported":1768590797,"current_range_meters":5600,"station_id":"cpo36qri1sfpv3e86is0","pricing_plan_id":"cebpf4jnsgd1na2vs0mg"},{"bike_id":"e83b0368-6c97-434e-b4ed-ba709e06a4bd","system_id":"levelo_inurba_marseille","lat":43.28101,"lon":5.37841,"is_reserved":false,"is_disabled":false,"rental_uris":{"android":"levelo://app?vid=e83b0368-6c97-434e-b4ed-ba709e06a4bd","ios":"levelo://app?vid=e83b0368-6c97-434e-b4ed-ba709e06a4bd"},"vehicle_type_id":"4","last_reported":1768590797,"current_range_meters":5600,"station_id":"ce4bha12rcd13ifvqee0","pricing_plan_id":"cebpf4jnsgd1na2vs0mg"},{"bike_id":"8782c85b-4cd2-4d16-816f-ea9c0e380452","system_id":"levelo_inurba_marseille","lat":43.28059,"lon":5.4047,"is_reserved":false,"is_disabled":false,"rental_uris":{"android":"levelo://app?vid=8782c85b-4cd2-4d16-816f-ea9c0e380452","ios":"levelo://app?vid=8782c85b-4cd2-4d16-816f-ea9c0e380452"},"vehicle_type_id":"4","last_reported":1768590797,"current_range_meters":5600,"station_id":"","pricing_plan_id":"cebpf4jnsgd1na2vs0mg"},{"bike_id":"6abf8a46-f540-4848-8617-65edd2aabe92","system_id":"levelo_inurba_marseille","lat":43.31724,"lon":5.39717,"is_reserved":false,"is_disabled":false,"rental_uris":{"android":"levelo://app?vid=6abf8a46-f540-4848-8617-65edd2aabe92","ios":"levelo://app?vid=6abf8a46-f540-4848-8617-65edd2aabe92"},"vehicle_type_id":"4","last_reported":1768590797,"current_range_meters":5600,"station_id":"","pricing_plan_id":"cebpf4jnsgd1na2vs0mg"},{"bike_id":"2e2933c7-df0b-4642-926f-bb95164b7899","system_id":"levelo_inurba_marseille","lat":43.29256,"lon":5.38448,"is_reserved":false,"is_disabled":false,"rental_uris":{"android":"levelo://app?vid=2e2933c7-df0b-4642-926f-bb95164b7899","ios":"levelo://app?vid=2e2933c7-df0b-4642-926f-bb95164b7899"},"vehicle_type_id":"4","last_reported":1768590797,"current_range_meters":5600,"station_id":"ce4bh692rcd13ifvqea0","pricing_plan_id":"cebpf4jnsgd1na2vs0mg"},{"bike_id":"e6edae64-1a37-4fba-8f8f-763f3c80057a","system_id":"levelo_inurba_marseille","lat":43.29874,"lon":5.39735,"is_reserved":false,"is_disabled":false,"rental_uris":{"android":"levelo://app?vid=e6edae64-1a37-4fba-8f8f-763f3c80057a","ios":"levelo://app?vid=e6edae64-1a37-4fba-8f8f-763f3c80057a"},"vehicle_type_id":"4","last_reported":1768590797,"current_range_meters":5600,"station_id":"ce4bh0h2rcd13ifvqd50","pricing_plan_id":"cebpf4jnsgd1na2vs0mg"},{"bike_id":"410955ac-137d-462c-a4c6-8f0aa8211054","system_id":"levelo_inurba_marseille","lat":43.24952,"lon":5.40487,"is_reserved":false,"is_disabled":false,"rental_uris":{"android":"levelo://app?vid=410955ac-137d-462c-a4c6-8f0aa8211054","ios":"levelo://app?vid=410955ac-137d-462c-a4c6-8f0aa8211054"},"vehicle_type_id":"4","last_reported":1768590797,"current_range_meters":5600,"station_id":"st_d2ngiaodas8pm72gd1h0","pricing_plan_id":"cebpf4jnsgd1na2vs0mg"},{"bike_id":"62afe525-9579-41bb-b844-87fde0b30797","system_id":"levelo_inurba_marseille","lat":43.31069,"lon":5.38359,"is_reserved":false,"is_disabled":false,"rental_uris":{"android":"levelo://app?vid=62afe525-9579-41bb-b844-87fde0b30797","ios":"levelo://app?vid=62afe525-9579-41bb-b844-87fde0b30797"},"vehicle_type_id":"4","last_reported":1768590797,"current_range_meters":5600,"station_id":"ce4bgv92rcd13ifvqcr0","pricing_plan_id":"cebpf4jnsgd1na2vs0mg"},{"bike_id":"22e9729b-8265-4d53-a3e7-9ed14476c2dd","system_id":"levelo_inurba_marseille","lat":43.2896,"lon":5.38351,"is_reserved":false,"is_disabled":false,"rental_uris":{"android":"levelo://app?vid=22e9729b-8265-4d53-a3e7-9ed14476c2dd","ios":"levelo://app?vid=22e9729b-8265-4d53-a3e7-9ed14476c2dd"},"vehicle_type_id":"4","last_reported":1768590797,"current_range_meters":6000,"station_id":"","pricing_plan_id":"cebpf4jnsgd1na2vs0mg"},{"bike_id":"627e5e4e-322b-49e8-be53-e7b0ef4c2eda","system_id":"levelo_inurba_marseille","lat":43.25571,"lon":5.38206,"is_reserved":false,"is_disabled":false,"rental_uris":{"android":"levelo://app?vid=627e5e4e-322b-49e8-be53-e7b0ef4c2eda","ios":"levelo://app?vid=627e5e4e-322b-49e8-be53-e7b0ef4c2eda"},"vehicle_type_id":"4","last_reported":1768590797,"current_range_meters":6000,"station_id":"ce4bhih2rcd13ifvqfs0","pricing_plan_id":"cebpf4jnsgd1na2vs0mg"},{"bike_id":"0105de79-43a8-4de9-af65-6d3d110a6400","system_id":"levelo_inurba_marseille","lat":43.2412,"lon":5.39709,"is_reserved":false,"is_disabled":false,"rental_uris":{"android":"levelo://app?vid=0105de79-43a8-4de9-af65-6d3d110a6400","ios":"levelo://app?vid=0105de79-43a8-4de9-af65-6d3d110a6400"},"vehicle_type_id":"4","last_reported":1768590797,"current_range_meters":6000,"station_id":"","pricing_plan_id":"cebpf4jnsgd1na2vs0mg"},{"bike_id":"174ec315-1070-4d7f-8752-355ade0349a2","system_id":"levelo_inurba_marseille","lat":43.26131,"lon":5.3873,"is_reserved":false,"is_disabled":false,"rental_uris":{"android":"levelo://app?vid=174ec315-1070-4d7f-8752-355ade0349a2","ios":"levelo://app?vid=174ec315-1070-4d7f-8752-355ade0349a2"},"vehicle_type_id":"4","last_reported":1768590797,"current_range_meters":6000,"station_id":"","pricing_plan_id":"cebpf4jnsgd1na2vs0mg"},{"bike_id":"7bff1363-c4fa-4ec9-8501-d87b2c3b54d0","system_id":"levelo_inurba_marseille","lat":43.249961,"lon":5.389405,"is_reserved":false,"is_disabled":false,"rental_uris":{"android":"levelo://app?vid=7bff1363-c4fa-4ec9-8501-d87b2c3b54d0","ios":"levelo://app?vid=7bff1363-c4fa-4ec9-8501-d87b2c3b54d0"},"vehicle_type_id":"4","last_reported":1768590797,"current_range_meters":6000,"station_id":"ce4bhgp2rcd13ifvqfd0","pricing_plan_id":"cebpf4jnsgd1na2vs0mg"},{"bike_id":"210cae09-d882-4855-bf2a-d5e2b7d3c103","system_id":"levelo_inurba_marseille","lat":43.265282,"lon":5.395274,"is_reserved":false,"is_disabled":false,"rental_uris":{"android":"levelo://app?vid=210cae09-d882-4855-bf2a-d5e2b7d3c103","ios":"levelo://app?vid=210cae09-d882-4855-bf2a-d5e2b7d3c103"},"vehicle_type_id":"4","last_reported":1768590797,"current_range_meters":6000,"station_id":"","pricing_plan_id":"cebpf4jnsgd1na2vs0mg"},{"bike_id":"89d9cd06-54be-44ac-b8c9-f576dccb8768","system_id":"levelo_inurba_marseille","lat":43.24994,"lon":5.38945,"is_reserved":false,"is_disabled":false,"rental_uris":{"android":"levelo://app?vid=89d9cd06-54be-44ac-b8c9-f576dccb8768","ios":"levelo://app?vid=89d9cd06-54be-44ac-b8c9-f576dccb8768"},"vehicle_type_id":"4","last_reported":1768590797,"current_range_meters":6000,"station_id":"ce4bhgp2rcd13ifvqfd0","pricing_plan_id":"cebpf4jnsgd1na2vs0mg"},{"bike_id":"8196675e-1758-4be8-aa6e-9a780663d26d","system_id":"levelo_inurba_marseille","lat":43.32353,"lon":5.36713,"is_reserved":false,"is_disabled":false,"rental_uris":{"android":"levelo://app?vid=8196675e-1758-4be8-aa6e-9a780663d26d","ios":"levelo://app?vid=8196675e-1758-4be8-aa6e-9a780663d26d"},"vehicle_type_id":"4","last_reported":1768590797,"current_range_meters":6000,"station_id":"ce4bhsh2rcd13ifvqi2g","pricing_plan_id":"cebpf4jnsgd1na2vs0mg"},{"bike_id":"0d1b3fbd-8e22-4133-b021-3f5d669a7f52","system_id":"levelo_inurba_marseille","lat":43.337444,"lon":5.374475,"is_reserved":false,"is_disabled":false,"rental_uris":{"android":"levelo://app?vid=0d1b3fbd-8e22-4133-b021-3f5d669a7f52","ios":"levelo://app?vid=0d1b3fbd-8e22-4133-b021-3f5d669a7f52"},"vehicle_type_id":"4","last_reported":1768590797,"current_range_meters":6000,"station_id":"","pricing_plan_id":"cebpf4jnsgd1na2vs0mg"},{"bike_id":"d0577f9e-12fb-4c7c-8d52-9d553fa867c3","system_id":"levelo_inurba_marseille","lat":43.28934,"lon":5.38375,"is_reserved":false,"is_disabled":false,"rental_uris":{"android":"levelo://app?vid=d0577f9e-12fb-4c7c-8d52-9d553fa867c3","ios":"levelo://app?vid=d0577f9e-12fb-4c7c-8d52-9d553fa867c3"},"vehicle_type_id":"4","last_reported":1768590797,"current_range_meters":6000,"station_id":"ce4bh612rcd13ifvqe6g","pricing_plan_id":"cebpf4jnsgd1na2vs0mg"},{"bike_id":"f6089bac-fcae-4935-8c4e-3122b27ad14d","system_id":"levelo_inurba_marseille","lat":43.27418,"lon":5.39409,"is_reserved":false,"is_disabled":false,"rental_uris":{"android":"levelo://app?vid=f6089bac-fcae-4935-8c4e-3122b27ad14d","ios":"levelo://app?vid=f6089bac-fcae-4935-8c4e-3122b27ad14d"},"vehicle_type_id":"4","last_reported":1768590797,"current_range_meters":6000,"station_id":"ce4bhdp2rcd13ifvqf20","pricing_plan_id":"cebpf4jnsgd1na2vs0mg"},{"bike_id":"726854d4-253b-4395-b0b7-0066d3df6931","system_id":"levelo_inurba_marseille","lat":43.26572,"lon":5.40317,"is_reserved":false,"is_disabled":false,"rental_uris":{"android":"levelo://app?vid=726854d4-253b-4395-b0b7-0066d3df6931","ios":"levelo://app?vid=726854d4-253b-4395-b0b7-0066d3df6931"},"vehicle_type_id":"4","last_reported":1768590797,"current_range_meters":6000,"station_id":"ce4bhmp2rcd13ifvqgng","pricing_plan_id":"cebpf4jnsgd1na2vs0mg"},{"bike_id":"089c22d1-62e9-4a52-bfe1-8ddd728b4101","system_id":"levelo_inurba_marseille","lat":43.25335,"lon":5.42175,"is_reserved":false,"is_disabled":false,"rental_uris":{"android":"levelo://app?vid=089c22d1-62e9-4a52-bfe1-8ddd728b4101","ios":"levelo://app?vid=089c22d1-62e9-4a52-bfe1-8ddd728b4101"},"vehicle_type_id":"4","last_reported":1768590797,"current_range_meters":6000,"station_id":"st_d2m65c5bi1j21697t3ng","pricing_plan_id":"cebpf4jnsgd1na2vs0mg"},{"bike_id":"beaae619-a4ac-4aa6-b171-20d72d73eed8","system_id":"levelo_inurba_marseille","lat":43.32351,"lon":5.36743,"is_reserved":false,"is_disabled":false,"rental_uris":{"android":"levelo://app?vid=beaae619-a4ac-4aa6-b171-20d72d73eed8","ios":"levelo://app?vid=beaae619-a4ac-4aa6-b171-20d72d73eed8"},"vehicle_type_id":"4","last_reported":1768590797,"current_range_meters":6000,"station_id":"ce4bhsh2rcd13ifvqi2g","pricing_plan_id":"cebpf4jnsgd1na2vs0mg"},{"bike_id":"ee672d40-ee79-42d9-af0c-79cb82e61958","system_id":"levelo_inurba_marseille","lat":43.28537,"lon":5.44115,"is_reserved":false,"is_disabled":false,"rental_uris":{"android":"levelo://app?vid=ee672d40-ee79-42d9-af0c-79cb82e61958","ios":"levelo://app?vid=ee672d40-ee79-42d9-af0c-79cb82e61958"},"vehicle_type_id":"4","last_reported":1768590797,"current_range_meters":6000,"station_id":"st_d3j3df2ikq2c7380ej80","pricing_plan_id":"cebpf4jnsgd1na2vs0mg"},{"bike_id":"d33a7735-eeb9-4115-8902-17f626cd1584","system_id":"levelo_inurba_marseille","lat":43.30096,"lon":5.3992,"is_reserved":false,"is_disabled":false,"rental_uris":{"android":"levelo://app?vid=d33a7735-eeb9-4115-8902-17f626cd1584","ios":"levelo://app?vid=d33a7735-eeb9-4115-8902-17f626cd1584"},"vehicle_type_id":"4","last_reported":1768590797,"current_range_meters":6000,"station_id":"","pricing_plan_id":"cebpf4jnsgd1na2vs0mg"},{"bike_id":"6392d4ba-52a7-4ff6-bed3-714717b5ab52","system_id":"levelo_inurba_marseille","lat":43.22511,"lon":5.41613,"is_reserved":false,"is_disabled":false,"rental_uris":{"android":"levelo://app?vid=6392d4ba-52a7-4ff6-bed3-714717b5ab52","ios":"levelo://app?vid=6392d4ba-52a7-4ff6-bed3-714717b5ab52"},"vehicle_type_id":"4","last_reported":1768590797,"current_range_meters":6000,"station_id":"","pricing_plan_id":"cebpf4jnsgd1na2vs0mg"},{"bike_id":"d6c1ff93-c86d-4d11-8e05-6b9d1f260016","system_id":"levelo_inurba_marseille","lat":43.29268,"lon":5.38448,"is_reserved":false,"is_disabled":false,"rental_uris":{"android":"levelo://app?vid=d6c1ff93-c86d-4d11-8e05-6b9d1f260016","ios":"levelo://app?vid=d6c1ff93-c86d-4d11-8e05-6b9d1f260016"},"vehicle_type_id":"4","last_reported":1768590797,"current_range_meters":6000,"station_id":"ce4bh692rcd13ifvqea0","pricing_plan_id":"cebpf4jnsgd1na2vs0mg"},{"bike_id":"862f83ff-732d-4b28-8508-2ce757c08c6a","system_id":"levelo_inurba_marseille","lat":43.29272,"lon":5.38442,"is_reserved":false,"is_disabled":false,"rental_uris":{"android":"levelo://app?vid=862f83ff-732d-4b28-8508-2ce757c08c6a","ios":"levelo://app?vid=862f83ff-732d-4b28-8508-2ce757c08c6a"},"vehicle_type_id":"4","last_reported":1768590797,"current_range_meters":6000,"station_id":"ce4bh692rcd13ifvqea0","pricing_plan_id":"cebpf4jnsgd1na2vs0mg"},{"bike_id":"6c692c2a-4d29-4de9-a7fd-87703f6a37a2","system_id":"levelo_inurba_marseille","lat":43.24456,"lon":5.42529,"is_reserved":false,"is_disabled":false,"rental_uris":{"android":"levelo://app?vid=6c692c2a-4d29-4de9-a7fd-87703f6a37a2","ios":"levelo://app?vid=6c692c2a-4d29-4de9-a7fd-87703f6a37a2"},"vehicle_type_id":"4","last_reported":1768590797,"current_range_meters":6400,"station_id":"st_d4a3vfp97mjs738cd8kg","pricing_plan_id":"cebpf4jnsgd1na2vs0mg"},{"bike_id":"9dd4cee1-6e9f-4b21-8c2a-6186c33cbfd1","system_id":"levelo_inurba_marseille","lat":43.32757,"lon":5.39249,"is_reserved":false,"is_disabled":false,"rental_uris":{"android":"levelo://app?vid=9dd4cee1-6e9f-4b21-8c2a-6186c33cbfd1","ios":"levelo://app?vid=9dd4cee1-6e9f-4b21-8c2a-6186c33cbfd1"},"vehicle_type_id":"4","last_reported":1768590797,"current_range_meters":6400,"station_id":"","pricing_plan_id":"cebpf4jnsgd1na2vs0mg"},{"bike_id":"0967e074-c864-4ede-814f-7861d601bf0e","system_id":"levelo_inurba_marseille","lat":43.31363,"lon":5.36688,"is_reserved":false,"is_disabled":false,"rental_uris":{"android":"levelo://app?vid=0967e074-c864-4ede-814f-7861d601bf0e","ios":"levelo://app?vid=0967e074-c864-4ede-814f-7861d601bf0e"},"vehicle_type_id":"4","last_reported":1768590797,"current_range_meters":6400,"station_id":"ce4bgr92rcd13ifvqc6g","pricing_plan_id":"cebpf4jnsgd1na2vs0mg"},{"bike_id":"2dcdbfd5-ea9c-48f0-a358-3c3a1e18e731","system_id":"levelo_inurba_marseille","lat":43.27989,"lon":5.40017,"is_reserved":false,"is_disabled":false,"rental_uris":{"android":"levelo://app?vid=2dcdbfd5-ea9c-48f0-a358-3c3a1e18e731","ios":"levelo://app?vid=2dcdbfd5-ea9c-48f0-a358-3c3a1e18e731"},"vehicle_type_id":"4","last_reported":1768590797,"current_range_meters":6400,"station_id":"ce4bho92rcd13ifvqh4g","pricing_plan_id":"cebpf4jnsgd1na2vs0mg"},{"bike_id":"0c015406-c4e0-4957-b6ea-e8db9f6df0cb","system_id":"levelo_inurba_marseille","lat":43.25832,"lon":5.39427,"is_reserved":false,"is_disabled":false,"rental_uris":{"android":"levelo://app?vid=0c015406-c4e0-4957-b6ea-e8db9f6df0cb","ios":"levelo://app?vid=0c015406-c4e0-4957-b6ea-e8db9f6df0cb"},"vehicle_type_id":"4","last_reported":1768590797,"current_range_meters":6400,"station_id":"ce4bhip2rcd13ifvqft0","pricing_plan_id":"cebpf4jnsgd1na2vs0mg"},{"bike_id":"20696002-54d7-4af6-a1a3-4992415bf5f7","system_id":"levelo_inurba_marseille","lat":43.29636,"lon":5.37575,"is_reserved":false,"is_disabled":false,"rental_uris":{"android":"levelo://app?vid=20696002-54d7-4af6-a1a3-4992415bf5f7","ios":"levelo://app?vid=20696002-54d7-4af6-a1a3-4992415bf5f7"},"vehicle_type_id":"4","last_reported":1768590797,"current_range_meters":6400,"station_id":"","pricing_plan_id":"cebpf4jnsgd1na2vs0mg"},{"bike_id":"2a7d5e42-317a-411e-9966-bf8fe7512f95","system_id":"levelo_inurba_marseille","lat":43.28679,"lon":5.38669,"is_reserved":false,"is_disabled":false,"rental_uris":{"android":"levelo://app?vid=2a7d5e42-317a-411e-9966-bf8fe7512f95","ios":"levelo://app?vid=2a7d5e42-317a-411e-9966-bf8fe7512f95"},"vehicle_type_id":"4","last_reported":1768590797,"current_range_meters":6400,"station_id":"ce4bh492rcd13ifvqdug","pricing_plan_id":"cebpf4jnsgd1na2vs0mg"},{"bike_id":"82b87168-267f-432c-a609-70f7b40ac901","system_id":"levelo_inurba_marseille","lat":43.27726,"lon":5.40776,"is_reserved":false,"is_disabled":false,"rental_uris":{"android":"levelo://app?vid=82b87168-267f-432c-a609-70f7b40ac901","ios":"levelo://app?vid=82b87168-267f-432c-a609-70f7b40ac901"},"vehicle_type_id":"4","last_reported":1768590797,"current_range_meters":6400,"station_id":"","pricing_plan_id":"cebpf4jnsgd1na2vs0mg"},{"bike_id":"4891cf42-6fce-49e3-b26b-529641c1ce9c","system_id":"levelo_inurba_marseille","lat":43.29537,"lon":5.42296,"is_reserved":false,"is_disabled":false,"rental_uris":{"android":"levelo://app?vid=4891cf42-6fce-49e3-b26b-529641c1ce9c","ios":"levelo://app?vid=4891cf42-6fce-49e3-b26b-529641c1ce9c"},"vehicle_type_id":"4","last_reported":1768590797,"current_range_meters":6400,"station_id":"ce4bhph2rcd13ifvqhdg","pricing_plan_id":"cebpf4jnsgd1na2vs0mg"},{"bike_id":"87b41ccf-9e46-44ee-9e4a-b0913909d881","system_id":"levelo_inurba_marseille","lat":43.29751,"lon":5.42775,"is_reserved":false,"is_disabled":false,"rental_uris":{"android":"levelo://app?vid=87b41ccf-9e46-44ee-9e4a-b0913909d881","ios":"levelo://app?vid=87b41ccf-9e46-44ee-9e4a-b0913909d881"},"vehicle_type_id":"4","last_reported":1768590797,"current_range_meters":6400,"station_id":"st_d3md5207bmas73dh9klg","pricing_plan_id":"cebpf4jnsgd1na2vs0mg"},{"bike_id":"8a7f2945-6de5-4126-b1bc-ac7d8adba539","system_id":"levelo_inurba_marseille","lat":43.31524,"lon":5.38041,"is_reserved":false,"is_disabled":false,"rental_uris":{"android":"levelo://app?vid=8a7f2945-6de5-4126-b1bc-ac7d8adba539","ios":"levelo://app?vid=8a7f2945-6de5-4126-b1bc-ac7d8adba539"},"vehicle_type_id":"4","last_reported":1768590797,"current_range_meters":6400,"station_id":"ce4bhsp2rcd13ifvqi50","pricing_plan_id":"cebpf4jnsgd1na2vs0mg"},{"bike_id":"612b6cc1-af85-4ee3-83c3-b2430d47b828","system_id":"levelo_inurba_marseille","lat":43.2921,"lon":5.36043,"is_reserved":false,"is_disabled":false,"rental_uris":{"android":"levelo://app?vid=612b6cc1-af85-4ee3-83c3-b2430d47b828","ios":"levelo://app?vid=612b6cc1-af85-4ee3-83c3-b2430d47b828"},"vehicle_type_id":"4","last_reported":1768590797,"current_range_meters":6400,"station_id":"ce4bhbh2rcd13ifvqeqg","pricing_plan_id":"cebpf4jnsgd1na2vs0mg"},{"bike_id":"1935688c-642d-4b98-8510-7a9991719b17","system_id":"levelo_inurba_marseille","lat":43.24946,"lon":5.40509,"is_reserved":false,"is_disabled":false,"rental_uris":{"android":"levelo://app?vid=1935688c-642d-4b98-8510-7a9991719b17","ios":"levelo://app?vid=1935688c-642d-4b98-8510-7a9991719b17"},"vehicle_type_id":"4","last_reported":1768590797,"current_range_meters":6400,"station_id":"st_d2ngiaodas8pm72gd1h0","pricing_plan_id":"cebpf4jnsgd1na2vs0mg"},{"bike_id":"8a241489-3e55-4c40-973d-a88dd4f30fb4","system_id":"levelo_inurba_marseille","lat":43.29539,"lon":5.37499,"is_reserved":false,"is_disabled":false,"rental_uris":{"android":"levelo://app?vid=8a241489-3e55-4c40-973d-a88dd4f30fb4","ios":"levelo://app?vid=8a241489-3e55-4c40-973d-a88dd4f30fb4"},"vehicle_type_id":"4","last_reported":1768590797,"current_range_meters":6400,"station_id":"ce4bgkp2rcd13ifvqbmg","pricing_plan_id":"cebpf4jnsgd1na2vs0mg"},{"bike_id":"a1ce7ca3-56c7-402e-a0a5-8c554fdda857","system_id":"levelo_inurba_marseille","lat":43.29839,"lon":5.37585,"is_reserved":false,"is_disabled":false,"rental_uris":{"android":"levelo://app?vid=a1ce7ca3-56c7-402e-a0a5-8c554fdda857","ios":"levelo://app?vid=a1ce7ca3-56c7-402e-a0a5-8c554fdda857"},"vehicle_type_id":"4","last_reported":1768590797,"current_range_meters":6400,"station_id":"","pricing_plan_id":"cebpf4jnsgd1na2vs0mg"},{"bike_id":"8af5f46f-c90a-42d6-9c3d-6b70ee19c412","system_id":"levelo_inurba_marseille","lat":43.29566,"lon":5.37508,"is_reserved":false,"is_disabled":false,"rental_uris":{"android":"levelo://app?vid=8af5f46f-c90a-42d6-9c3d-6b70ee19c412","ios":"levelo://app?vid=8af5f46f-c90a-42d6-9c3d-6b70ee19c412"},"vehicle_type_id":"4","last_reported":1768590797,"current_range_meters":6400,"station_id":"ce4bgh92rcd13ifvqb50","pricing_plan_id":"cebpf4jnsgd1na2vs0mg"},{"bike_id":"b9cdf0f2-0f17-47a0-b6cf-cde43dc6cc04","system_id":"levelo_inurba_marseille","lat":43.24828,"lon":5.37421,"is_reserved":false,"is_disabled":false,"rental_uris":{"android":"levelo://app?vid=b9cdf0f2-0f17-47a0-b6cf-cde43dc6cc04","ios":"levelo://app?vid=b9cdf0f2-0f17-47a0-b6cf-cde43dc6cc04"},"vehicle_type_id":"4","last_reported":1768590797,"current_range_meters":6400,"station_id":"ce4bhgh2rcd13ifvqfb0","pricing_plan_id":"cebpf4jnsgd1na2vs0mg"},{"bike_id":"23ec3a98-26a5-4b81-8fe6-bd629f0771f5","system_id":"levelo_inurba_marseille","lat":43.28124,"lon":5.38918,"is_reserved":false,"is_disabled":false,"rental_uris":{"android":"levelo://app?vid=23ec3a98-26a5-4b81-8fe6-bd629f0771f5","ios":"levelo://app?vid=23ec3a98-26a5-4b81-8fe6-bd629f0771f5"},"vehicle_type_id":"4","last_reported":1768590797,"current_range_meters":6400,"station_id":"","pricing_plan_id":"cebpf4jnsgd1na2vs0mg"},{"bike_id":"beeda613-7b77-479c-90f5-b635b4700e74","system_id":"levelo_inurba_marseille","lat":43.24177,"lon":5.36391,"is_reserved":false,"is_disabled":false,"rental_uris":{"android":"levelo://app?vid=beeda613-7b77-479c-90f5-b635b4700e74","ios":"levelo://app?vid=beeda613-7b77-479c-90f5-b635b4700e74"},"vehicle_type_id":"4","last_reported":1768590797,"current_range_meters":6400,"station_id":"cpo36qri1sfpv3e86is0","pricing_plan_id":"cebpf4jnsgd1na2vs0mg"},{"bike_id":"f291b0bc-93dd-4b46-9d98-75a3df912fe1","system_id":"levelo_inurba_marseille","lat":43.26203,"lon":5.37442,"is_reserved":false,"is_disabled":false,"rental_uris":{"android":"levelo://app?vid=f291b0bc-93dd-4b46-9d98-75a3df912fe1","ios":"levelo://app?vid=f291b0bc-93dd-4b46-9d98-75a3df912fe1"},"vehicle_type_id":"4","last_reported":1768590797,"current_range_meters":6800,"station_id":"ce4bhgp2rcd13ifvqfc0","pricing_plan_id":"cebpf4jnsgd1na2vs0mg"},{"bike_id":"25ed961a-5384-43ae-9ae0-92012b19cc36","system_id":"levelo_inurba_marseille","lat":43.28128,"lon":5.38212,"is_reserved":false,"is_disabled":false,"rental_uris":{"android":"levelo://app?vid=25ed961a-5384-43ae-9ae0-92012b19cc36","ios":"levelo://app?vid=25ed961a-5384-43ae-9ae0-92012b19cc36"},"vehicle_type_id":"4","last_reported":1768590797,"current_range_meters":6800,"station_id":"","pricing_plan_id":"cebpf4jnsgd1na2vs0mg"},{"bike_id":"2a49273c-b35f-40af-9991-87544c417eaf","system_id":"levelo_inurba_marseille","lat":43.31667,"lon":5.36411,"is_reserved":false,"is_disabled":false,"rental_uris":{"android":"levelo://app?vid=2a49273c-b35f-40af-9991-87544c417eaf","ios":"levelo://app?vid=2a49273c-b35f-40af-9991-87544c417eaf"},"vehicle_type_id":"4","last_reported":1768590797,"current_range_meters":6800,"station_id":"","pricing_plan_id":"cebpf4jnsgd1na2vs0mg"},{"bike_id":"fc489fcf-c251-4a4f-870b-c76aecd2ad14","system_id":"levelo_inurba_marseille","lat":43.27077,"lon":5.42275,"is_reserved":false,"is_disabled":false,"rental_uris":{"android":"levelo://app?vid=fc489fcf-c251-4a4f-870b-c76aecd2ad14","ios":"levelo://app?vid=fc489fcf-c251-4a4f-870b-c76aecd2ad14"},"vehicle_type_id":"4","last_reported":1768590797,"current_range_meters":6800,"station_id":"ce4bhk92rcd13ifvqgb0","pricing_plan_id":"cebpf4jnsgd1na2vs0mg"},{"bike_id":"4e44ad19-917a-417d-ad43-e0bd0f158954","system_id":"levelo_inurba_marseille","lat":43.292666,"lon":5.368419,"is_reserved":false,"is_disabled":false,"rental_uris":{"android":"levelo://app?vid=4e44ad19-917a-417d-ad43-e0bd0f158954","ios":"levelo://app?vid=4e44ad19-917a-417d-ad43-e0bd0f158954"},"vehicle_type_id":"4","last_reported":1768590797,"current_range_meters":6800,"station_id":"ce4bhbp2rcd13ifvqesg","pricing_plan_id":"cebpf4jnsgd1na2vs0mg"},{"bike_id":"c553b968-1866-463e-8b27-0eae6a0faab9","system_id":"levelo_inurba_marseille","lat":43.28566,"lon":5.39489,"is_reserved":false,"is_disabled":false,"rental_uris":{"android":"levelo://app?vid=c553b968-1866-463e-8b27-0eae6a0faab9","ios":"levelo://app?vid=c553b968-1866-463e-8b27-0eae6a0faab9"},"vehicle_type_id":"4","last_reported":1768590797,"current_range_meters":6800,"station_id":"ce4bh292rcd13ifvqdg0","pricing_plan_id":"cebpf4jnsgd1na2vs0mg"},{"bike_id":"6fcd2582-4ea8-45da-bdae-7947375c6e96","system_id":"levelo_inurba_marseille","lat":43.27954,"lon":5.38725,"is_reserved":false,"is_disabled":false,"rental_uris":{"android":"levelo://app?vid=6fcd2582-4ea8-45da-bdae-7947375c6e96","ios":"levelo://app?vid=6fcd2582-4ea8-45da-bdae-7947375c6e96"},"vehicle_type_id":"4","last_reported":1768590797,"current_range_meters":6800,"station_id":"ce4bhg12rcd13ifvqf80","pricing_plan_id":"cebpf4jnsgd1na2vs0mg"},{"bike_id":"c4cbef88-cc5b-4c76-8a49-f9a189461cba","system_id":"levelo_inurba_marseille","lat":43.28441,"lon":5.36747,"is_reserved":false,"is_disabled":false,"rental_uris":{"android":"levelo://app?vid=c4cbef88-cc5b-4c76-8a49-f9a189461cba","ios":"levelo://app?vid=c4cbef88-cc5b-4c76-8a49-f9a189461cba"},"vehicle_type_id":"4","last_reported":1768590797,"current_range_meters":6800,"station_id":"","pricing_plan_id":"cebpf4jnsgd1na2vs0mg"},{"bike_id":"8399168d-b423-4708-a267-23d3a56d7c0e","system_id":"levelo_inurba_marseille","lat":43.30447,"lon":5.36727,"is_reserved":false,"is_disabled":false,"rental_uris":{"android":"levelo://app?vid=8399168d-b423-4708-a267-23d3a56d7c0e","ios":"levelo://app?vid=8399168d-b423-4708-a267-23d3a56d7c0e"},"vehicle_type_id":"4","last_reported":1768590797,"current_range_meters":6800,"station_id":"","pricing_plan_id":"cebpf4jnsgd1na2vs0mg"},{"bike_id":"7185850f-857b-44fd-92b4-76c22c7fdea5","system_id":"levelo_inurba_marseille","lat":43.303514,"lon":5.449612,"is_reserved":false,"is_disabled":false,"rental_uris":{"android":"levelo://app?vid=7185850f-857b-44fd-92b4-76c22c7fdea5","ios":"levelo://app?vid=7185850f-857b-44fd-92b4-76c22c7fdea5"},"vehicle_type_id":"4","last_reported":1768590797,"current_range_meters":6800,"station_id":"","pricing_plan_id":"cebpf4jnsgd1na2vs0mg"},{"bike_id":"3845cbb1-7f96-455b-bf3f-9d1d600a356f","system_id":"levelo_inurba_marseille","lat":43.29034,"lon":5.38655,"is_reserved":false,"is_disabled":false,"rental_uris":{"android":"levelo://app?vid=3845cbb1-7f96-455b-bf3f-9d1d600a356f","ios":"levelo://app?vid=3845cbb1-7f96-455b-bf3f-9d1d600a356f"},"vehicle_type_id":"4","last_reported":1768590797,"current_range_meters":6800,"station_id":"ce4bh4p2rcd13ifvqe0g","pricing_plan_id":"cebpf4jnsgd1na2vs0mg"},{"bike_id":"ee53b67d-32aa-4b1e-875f-1b20ac2a0110","system_id":"levelo_inurba_marseille","lat":43.28676,"lon":5.38681,"is_reserved":false,"is_disabled":false,"rental_uris":{"android":"levelo://app?vid=ee53b67d-32aa-4b1e-875f-1b20ac2a0110","ios":"levelo://app?vid=ee53b67d-32aa-4b1e-875f-1b20ac2a0110"},"vehicle_type_id":"4","last_reported":1768590797,"current_range_meters":6800,"station_id":"ce4bh492rcd13ifvqdug","pricing_plan_id":"cebpf4jnsgd1na2vs0mg"},{"bike_id":"75a01f13-be16-4370-a7fc-dbe0f442faa9","system_id":"levelo_inurba_marseille","lat":43.21742,"lon":5.346,"is_reserved":false,"is_disabled":false,"rental_uris":{"android":"levelo://app?vid=75a01f13-be16-4370-a7fc-dbe0f442faa9","ios":"levelo://app?vid=75a01f13-be16-4370-a7fc-dbe0f442faa9"},"vehicle_type_id":"4","last_reported":1768590797,"current_range_meters":6800,"station_id":"st_cvj6r9ubvosntc0bgbag","pricing_plan_id":"cebpf4jnsgd1na2vs0mg"},{"bike_id":"cd552d3c-b0fe-4e05-9483-1412f42d1f25","system_id":"levelo_inurba_marseille","lat":43.28475,"lon":5.484,"is_reserved":false,"is_disabled":false,"rental_uris":{"android":"levelo://app?vid=cd552d3c-b0fe-4e05-9483-1412f42d1f25","ios":"levelo://app?vid=cd552d3c-b0fe-4e05-9483-1412f42d1f25"},"vehicle_type_id":"4","last_reported":1768590797,"current_range_meters":6800,"station_id":"st_d3svhcjqgbts73a3dn0g","pricing_plan_id":"cebpf4jnsgd1na2vs0mg"},{"bike_id":"4b1923c2-4ab1-4eb4-9c85-bc8e4a77cb39","system_id":"levelo_inurba_marseille","lat":43.3087,"lon":5.36838,"is_reserved":false,"is_disabled":false,"rental_uris":{"android":"levelo://app?vid=4b1923c2-4ab1-4eb4-9c85-bc8e4a77cb39","ios":"levelo://app?vid=4b1923c2-4ab1-4eb4-9c85-bc8e4a77cb39"},"vehicle_type_id":"4","last_reported":1768590797,"current_range_meters":6800,"station_id":"ce4bgn92rcd13ifvqbvg","pricing_plan_id":"cebpf4jnsgd1na2vs0mg"},{"bike_id":"4c330636-b4ee-4a81-8afe-c3deb704dc18","system_id":"levelo_inurba_marseille","lat":43.23967,"lon":5.36628,"is_reserved":false,"is_disabled":false,"rental_uris":{"android":"levelo://app?vid=4c330636-b4ee-4a81-8afe-c3deb704dc18","ios":"levelo://app?vid=4c330636-b4ee-4a81-8afe-c3deb704dc18"},"vehicle_type_id":"4","last_reported":1768590797,"current_range_meters":6800,"station_id":"ce4bhi12rcd13ifvqfp0","pricing_plan_id":"cebpf4jnsgd1na2vs0mg"},{"bike_id":"52b94ec7-8fe5-4efe-9ded-573bc5509e48","system_id":"levelo_inurba_marseille","lat":43.28468,"lon":5.35891,"is_reserved":false,"is_disabled":false,"rental_uris":{"android":"levelo://app?vid=52b94ec7-8fe5-4efe-9ded-573bc5509e48","ios":"levelo://app?vid=52b94ec7-8fe5-4efe-9ded-573bc5509e48"},"vehicle_type_id":"4","last_reported":1768590797,"current_range_meters":6800,"station_id":"ce4bhah2rcd13ifvqei0","pricing_plan_id":"cebpf4jnsgd1na2vs0mg"},{"bike_id":"611737f5-0f65-4007-a4ce-c26d4cf73149","system_id":"levelo_inurba_marseille","lat":43.24993,"lon":5.38919,"is_reserved":false,"is_disabled":false,"rental_uris":{"android":"levelo://app?vid=611737f5-0f65-4007-a4ce-c26d4cf73149","ios":"levelo://app?vid=611737f5-0f65-4007-a4ce-c26d4cf73149"},"vehicle_type_id":"4","last_reported":1768590797,"current_range_meters":6800,"station_id":"ce4bhgp2rcd13ifvqfd0","pricing_plan_id":"cebpf4jnsgd1na2vs0mg"},{"bike_id":"b223653d-a046-4120-8776-e3c49ae637a8","system_id":"levelo_inurba_marseille","lat":43.21759,"lon":5.34614,"is_reserved":false,"is_disabled":false,"rental_uris":{"android":"levelo://app?vid=b223653d-a046-4120-8776-e3c49ae637a8","ios":"levelo://app?vid=b223653d-a046-4120-8776-e3c49ae637a8"},"vehicle_type_id":"4","last_reported":1768590797,"current_range_meters":6800,"station_id":"st_cvj6r9ubvosntc0bgbag","pricing_plan_id":"cebpf4jnsgd1na2vs0mg"},{"bike_id":"2456f7ed-174e-4522-9da0-1322a4f20240","system_id":"levelo_inurba_marseille","lat":43.31162,"lon":5.38722,"is_reserved":false,"is_disabled":false,"rental_uris":{"android":"levelo://app?vid=2456f7ed-174e-4522-9da0-1322a4f20240","ios":"levelo://app?vid=2456f7ed-174e-4522-9da0-1322a4f20240"},"vehicle_type_id":"4","last_reported":1768590797,"current_range_meters":7200,"station_id":"ce4bgv12rcd13ifvqcp0","pricing_plan_id":"cebpf4jnsgd1na2vs0mg"},{"bike_id":"86e6621f-7881-4c25-ad15-d2bf78f793fd","system_id":"levelo_inurba_marseille","lat":43.27814,"lon":5.40711,"is_reserved":false,"is_disabled":false,"rental_uris":{"android":"levelo://app?vid=86e6621f-7881-4c25-ad15-d2bf78f793fd","ios":"levelo://app?vid=86e6621f-7881-4c25-ad15-d2bf78f793fd"},"vehicle_type_id":"4","last_reported":1768590797,"current_range_meters":7200,"station_id":"ce4bhnh2rcd13ifvqgtg","pricing_plan_id":"cebpf4jnsgd1na2vs0mg"},{"bike_id":"62ece781-0f7b-48a1-8907-a9e8966bfa7b","system_id":"levelo_inurba_marseille","lat":43.28931,"lon":5.36626,"is_reserved":false,"is_disabled":false,"rental_uris":{"android":"levelo://app?vid=62ece781-0f7b-48a1-8907-a9e8966bfa7b","ios":"levelo://app?vid=62ece781-0f7b-48a1-8907-a9e8966bfa7b"},"vehicle_type_id":"4","last_reported":1768590797,"current_range_meters":7200,"station_id":"ce4bhap2rcd13ifvqek0","pricing_plan_id":"cebpf4jnsgd1na2vs0mg"},{"bike_id":"e67306f2-91be-4bbd-b4f1-9cc45e01c0f5","system_id":"levelo_inurba_marseille","lat":43.32354,"lon":5.36731,"is_reserved":false,"is_disabled":false,"rental_uris":{"android":"levelo://app?vid=e67306f2-91be-4bbd-b4f1-9cc45e01c0f5","ios":"levelo://app?vid=e67306f2-91be-4bbd-b4f1-9cc45e01c0f5"},"vehicle_type_id":"4","last_reported":1768590797,"current_range_meters":7200,"station_id":"ce4bhsh2rcd13ifvqi2g","pricing_plan_id":"cebpf4jnsgd1na2vs0mg"},{"bike_id":"b13d35dd-ebb4-41fb-b6db-2fd0555583ba","system_id":"levelo_inurba_marseille","lat":43.27554,"lon":5.38423,"is_reserved":false,"is_disabled":false,"rental_uris":{"android":"levelo://app?vid=b13d35dd-ebb4-41fb-b6db-2fd0555583ba","ios":"levelo://app?vid=b13d35dd-ebb4-41fb-b6db-2fd0555583ba"},"vehicle_type_id":"4","last_reported":1768590797,"current_range_meters":7200,"station_id":"ce4bhh92rcd13ifvqfi0","pricing_plan_id":"cebpf4jnsgd1na2vs0mg"},{"bike_id":"3b5c4f84-7f90-4474-adba-916a9c8db3a2","system_id":"levelo_inurba_marseille","lat":43.32052,"lon":5.4156,"is_reserved":false,"is_disabled":false,"rental_uris":{"android":"levelo://app?vid=3b5c4f84-7f90-4474-adba-916a9c8db3a2","ios":"levelo://app?vid=3b5c4f84-7f90-4474-adba-916a9c8db3a2"},"vehicle_type_id":"4","last_reported":1768590797,"current_range_meters":7200,"station_id":"ce4bhq92rcd13ifvqhkg","pricing_plan_id":"cebpf4jnsgd1na2vs0mg"},{"bike_id":"20ef9144-91e8-409f-b00a-14ecda56d561","system_id":"levelo_inurba_marseille","lat":43.21752,"lon":5.34607,"is_reserved":false,"is_disabled":false,"rental_uris":{"android":"levelo://app?vid=20ef9144-91e8-409f-b00a-14ecda56d561","ios":"levelo://app?vid=20ef9144-91e8-409f-b00a-14ecda56d561"},"vehicle_type_id":"4","last_reported":1768590797,"current_range_meters":7200,"station_id":"","pricing_plan_id":"cebpf4jnsgd1na2vs0mg"},{"bike_id":"7256baa1-b22a-42a4-b191-32184fea855d","system_id":"levelo_inurba_marseille","lat":43.26061,"lon":5.39397,"is_reserved":false,"is_disabled":false,"rental_uris":{"android":"levelo://app?vid=7256baa1-b22a-42a4-b191-32184fea855d","ios":"levelo://app?vid=7256baa1-b22a-42a4-b191-32184fea855d"},"vehicle_type_id":"4","last_reported":1768590797,"current_range_meters":7200,"station_id":"ce4bhh92rcd13ifvqfj0","pricing_plan_id":"cebpf4jnsgd1na2vs0mg"},{"bike_id":"78a9b9a2-5d06-4258-a0c0-0962138f338f","system_id":"levelo_inurba_marseille","lat":43.2848,"lon":5.48395,"is_reserved":false,"is_disabled":false,"rental_uris":{"android":"levelo://app?vid=78a9b9a2-5d06-4258-a0c0-0962138f338f","ios":"levelo://app?vid=78a9b9a2-5d06-4258-a0c0-0962138f338f"},"vehicle_type_id":"4","last_reported":1768590797,"current_range_meters":7200,"station_id":"st_d3svhcjqgbts73a3dn0g","pricing_plan_id":"cebpf4jnsgd1na2vs0mg"},{"bike_id":"60991d25-6b74-4058-b5ad-99241edb1696","system_id":"levelo_inurba_marseille","lat":43.29266,"lon":5.38442,"is_reserved":false,"is_disabled":false,"rental_uris":{"android":"levelo://app?vid=60991d25-6b74-4058-b5ad-99241edb1696","ios":"levelo://app?vid=60991d25-6b74-4058-b5ad-99241edb1696"},"vehicle_type_id":"4","last_reported":1768590797,"current_range_meters":7200,"station_id":"ce4bh692rcd13ifvqea0","pricing_plan_id":"cebpf4jnsgd1na2vs0mg"},{"bike_id":"7606441b-c58d-43e5-9940-05af535d1d90","system_id":"levelo_inurba_marseille","lat":43.29786,"lon":5.38082,"is_reserved":false,"is_disabled":false,"rental_uris":{"android":"levelo://app?vid=7606441b-c58d-43e5-9940-05af535d1d90","ios":"levelo://app?vid=7606441b-c58d-43e5-9940-05af535d1d90"},"vehicle_type_id":"4","last_reported":1768590797,"current_range_meters":7200,"station_id":"ce4bgip2rcd13ifvqbb0","pricing_plan_id":"cebpf4jnsgd1na2vs0mg"},{"bike_id":"9bec5549-995a-4384-a167-5c91ed11e284","system_id":"levelo_inurba_marseille","lat":43.30739,"lon":5.42442,"is_reserved":false,"is_disabled":false,"rental_uris":{"android":"levelo://app?vid=9bec5549-995a-4384-a167-5c91ed11e284","ios":"levelo://app?vid=9bec5549-995a-4384-a167-5c91ed11e284"},"vehicle_type_id":"4","last_reported":1768590797,"current_range_meters":7200,"station_id":"st_cvj6ca6bvosntc0bfgr0","pricing_plan_id":"cebpf4jnsgd1na2vs0mg"},{"bike_id":"33a43e34-88a4-4083-b992-f809b7203d8d","system_id":"levelo_inurba_marseille","lat":43.27051,"lon":5.38308,"is_reserved":false,"is_disabled":false,"rental_uris":{"android":"levelo://app?vid=33a43e34-88a4-4083-b992-f809b7203d8d","ios":"levelo://app?vid=33a43e34-88a4-4083-b992-f809b7203d8d"},"vehicle_type_id":"4","last_reported":1768590797,"current_range_meters":7200,"station_id":"st_d3n2fo6cfp8s73cte1j0","pricing_plan_id":"cebpf4jnsgd1na2vs0mg"},{"bike_id":"b45e3786-f240-418c-8d2f-00029fe91c40","system_id":"levelo_inurba_marseille","lat":43.284557,"lon":5.388019,"is_reserved":false,"is_disabled":false,"rental_uris":{"android":"levelo://app?vid=b45e3786-f240-418c-8d2f-00029fe91c40","ios":"levelo://app?vid=b45e3786-f240-418c-8d2f-00029fe91c40"},"vehicle_type_id":"4","last_reported":1768590797,"current_range_meters":7200,"station_id":"","pricing_plan_id":"cebpf4jnsgd1na2vs0mg"},{"bike_id":"c213175e-76cb-4571-b781-3891be5ded63","system_id":"levelo_inurba_marseille","lat":43.23805,"lon":5.36636,"is_reserved":false,"is_disabled":false,"rental_uris":{"android":"levelo://app?vid=c213175e-76cb-4571-b781-3891be5ded63","ios":"levelo://app?vid=c213175e-76cb-4571-b781-3891be5ded63"},"vehicle_type_id":"4","last_reported":1768590797,"current_range_meters":7200,"station_id":"st_d3nk18o9ro0c73en2l3g","pricing_plan_id":"cebpf4jnsgd1na2vs0mg"},{"bike_id":"c0ce7413-b87b-4471-89a8-3524c7a2d1cb","system_id":"levelo_inurba_marseille","lat":43.24886,"lon":5.4234,"is_reserved":false,"is_disabled":false,"rental_uris":{"android":"levelo://app?vid=c0ce7413-b87b-4471-89a8-3524c7a2d1cb","ios":"levelo://app?vid=c0ce7413-b87b-4471-89a8-3524c7a2d1cb"},"vehicle_type_id":"4","last_reported":1768590797,"current_range_meters":7200,"station_id":"st_d2m65c5bi1j21697t3ng","pricing_plan_id":"cebpf4jnsgd1na2vs0mg"},{"bike_id":"0d6897ee-18f3-48e3-8995-dbd357dcf6f6","system_id":"levelo_inurba_marseille","lat":43.27813,"lon":5.407155,"is_reserved":false,"is_disabled":false,"rental_uris":{"android":"levelo://app?vid=0d6897ee-18f3-48e3-8995-dbd357dcf6f6","ios":"levelo://app?vid=0d6897ee-18f3-48e3-8995-dbd357dcf6f6"},"vehicle_type_id":"4","last_reported":1768590797,"current_range_meters":8000,"station_id":"ce4bhnh2rcd13ifvqgtg","pricing_plan_id":"cebpf4jnsgd1na2vs0mg"},{"bike_id":"d0d1d698-a748-4849-a68c-b2045ed71aae","system_id":"levelo_inurba_marseille","lat":43.25124,"lon":5.40287,"is_reserved":false,"is_disabled":false,"rental_uris":{"android":"levelo://app?vid=d0d1d698-a748-4849-a68c-b2045ed71aae","ios":"levelo://app?vid=d0d1d698-a748-4849-a68c-b2045ed71aae"},"vehicle_type_id":"4","last_reported":1768590797,"current_range_meters":8000,"station_id":"ce4bhlh2rcd13ifvqgig","pricing_plan_id":"cebpf4jnsgd1na2vs0mg"},{"bike_id":"421cacd8-e947-4afd-a144-abf07645a343","system_id":"levelo_inurba_marseille","lat":43.337444,"lon":5.374475,"is_reserved":false,"is_disabled":false,"rental_uris":{"android":"levelo://app?vid=421cacd8-e947-4afd-a144-abf07645a343","ios":"levelo://app?vid=421cacd8-e947-4afd-a144-abf07645a343"},"vehicle_type_id":"4","last_reported":1768590797,"current_range_meters":8000,"station_id":"","pricing_plan_id":"cebpf4jnsgd1na2vs0mg"},{"bike_id":"d7a7bee1-7e52-448b-8db4-293e5d040752","system_id":"levelo_inurba_marseille","lat":43.30603,"lon":5.3723,"is_reserved":false,"is_disabled":false,"rental_uris":{"android":"levelo://app?vid=d7a7bee1-7e52-448b-8db4-293e5d040752","ios":"levelo://app?vid=d7a7bee1-7e52-448b-8db4-293e5d040752"},"vehicle_type_id":"4","last_reported":1768590797,"current_range_meters":8000,"station_id":"ce4bgqh2rcd13ifvqc4g","pricing_plan_id":"cebpf4jnsgd1na2vs0mg"},{"bike_id":"205e067b-4784-4a9d-8eb5-b6861b4cfcd1","system_id":"levelo_inurba_marseille","lat":43.285383,"lon":5.44097,"is_reserved":false,"is_disabled":false,"rental_uris":{"android":"levelo://app?vid=205e067b-4784-4a9d-8eb5-b6861b4cfcd1","ios":"levelo://app?vid=205e067b-4784-4a9d-8eb5-b6861b4cfcd1"},"vehicle_type_id":"4","last_reported":1768590797,"current_range_meters":8000,"station_id":"st_d3j3df2ikq2c7380ej80","pricing_plan_id":"cebpf4jnsgd1na2vs0mg"},{"bike_id":"e7a64005-213b-444f-8365-5be005b6fcb8","system_id":"levelo_inurba_marseille","lat":43.29591,"lon":5.381,"is_reserved":false,"is_disabled":false,"rental_uris":{"android":"levelo://app?vid=e7a64005-213b-444f-8365-5be005b6fcb8","ios":"levelo://app?vid=e7a64005-213b-444f-8365-5be005b6fcb8"},"vehicle_type_id":"4","last_reported":1768590797,"current_range_meters":8000,"station_id":"ce4bgl12rcd13ifvqbo0","pricing_plan_id":"cebpf4jnsgd1na2vs0mg"},{"bike_id":"fa772604-5343-4874-a9f9-6fae0b9aaa0e","system_id":"levelo_inurba_marseille","lat":43.245781,"lon":5.399436,"is_reserved":false,"is_disabled":false,"rental_uris":{"android":"levelo://app?vid=fa772604-5343-4874-a9f9-6fae0b9aaa0e","ios":"levelo://app?vid=fa772604-5343-4874-a9f9-6fae0b9aaa0e"},"vehicle_type_id":"4","last_reported":1768590797,"current_range_meters":8000,"station_id":"","pricing_plan_id":"cebpf4jnsgd1na2vs0mg"},{"bike_id":"cb322bd5-780f-4976-ac84-7f70ca124770","system_id":"levelo_inurba_marseille","lat":43.24156,"lon":5.36381,"is_reserved":false,"is_disabled":false,"rental_uris":{"android":"levelo://app?vid=cb322bd5-780f-4976-ac84-7f70ca124770","ios":"levelo://app?vid=cb322bd5-780f-4976-ac84-7f70ca124770"},"vehicle_type_id":"4","last_reported":1768590797,"current_range_meters":8000,"station_id":"cpo36qri1sfpv3e86is0","pricing_plan_id":"cebpf4jnsgd1na2vs0mg"},{"bike_id":"6b614937-a502-44f5-934f-81d015634ef2","system_id":"levelo_inurba_marseille","lat":43.32051,"lon":5.36763,"is_reserved":false,"is_disabled":false,"rental_uris":{"android":"levelo://app?vid=6b614937-a502-44f5-934f-81d015634ef2","ios":"levelo://app?vid=6b614937-a502-44f5-934f-81d015634ef2"},"vehicle_type_id":"4","last_reported":1768590797,"current_range_meters":8000,"station_id":"ce4bhrh2rcd13ifvqhug","pricing_plan_id":"cebpf4jnsgd1na2vs0mg"},{"bike_id":"8d06b1dd-b39f-481f-9fd0-15b08a4bd888","system_id":"levelo_inurba_marseille","lat":43.253344,"lon":5.42162,"is_reserved":false,"is_disabled":false,"rental_uris":{"android":"levelo://app?vid=8d06b1dd-b39f-481f-9fd0-15b08a4bd888","ios":"levelo://app?vid=8d06b1dd-b39f-481f-9fd0-15b08a4bd888"},"vehicle_type_id":"4","last_reported":1768590797,"current_range_meters":8000,"station_id":"st_d2m65c5bi1j21697t3ng","pricing_plan_id":"cebpf4jnsgd1na2vs0mg"},{"bike_id":"b95f2c15-5b8f-49fa-a151-16ad667668da","system_id":"levelo_inurba_marseille","lat":43.30141,"lon":5.38781,"is_reserved":false,"is_disabled":false,"rental_uris":{"android":"levelo://app?vid=b95f2c15-5b8f-49fa-a151-16ad667668da","ios":"levelo://app?vid=b95f2c15-5b8f-49fa-a151-16ad667668da"},"vehicle_type_id":"4","last_reported":1768590797,"current_range_meters":8000,"station_id":"ce4bghh2rcd13ifvqb60","pricing_plan_id":"cebpf4jnsgd1na2vs0mg"},{"bike_id":"744e766d-6cf3-40d3-9efc-3dc33d883636","system_id":"levelo_inurba_marseille","lat":43.25585,"lon":5.38243,"is_reserved":false,"is_disabled":false,"rental_uris":{"android":"levelo://app?vid=744e766d-6cf3-40d3-9efc-3dc33d883636","ios":"levelo://app?vid=744e766d-6cf3-40d3-9efc-3dc33d883636"},"vehicle_type_id":"4","last_reported":1768590797,"current_range_meters":8000,"station_id":"ce4bhih2rcd13ifvqfs0","pricing_plan_id":"cebpf4jnsgd1na2vs0mg"},{"bike_id":"0c8e6400-5132-4fc8-bc0c-deb5c809d02f","system_id":"levelo_inurba_marseille","lat":43.22555,"lon":5.41628,"is_reserved":false,"is_disabled":false,"rental_uris":{"android":"levelo://app?vid=0c8e6400-5132-4fc8-bc0c-deb5c809d02f","ios":"levelo://app?vid=0c8e6400-5132-4fc8-bc0c-deb5c809d02f"},"vehicle_type_id":"4","last_reported":1768590797,"current_range_meters":8000,"station_id":"st_d2o4gvlbi1j2169b742g","pricing_plan_id":"cebpf4jnsgd1na2vs0mg"},{"bike_id":"883e634f-3a04-4514-aae5-6e096d30b06f","system_id":"levelo_inurba_marseille","lat":43.2781,"lon":5.40723,"is_reserved":false,"is_disabled":false,"rental_uris":{"android":"levelo://app?vid=883e634f-3a04-4514-aae5-6e096d30b06f","ios":"levelo://app?vid=883e634f-3a04-4514-aae5-6e096d30b06f"},"vehicle_type_id":"4","last_reported":1768590797,"current_range_meters":8000,"station_id":"ce4bhnh2rcd13ifvqgtg","pricing_plan_id":"cebpf4jnsgd1na2vs0mg"},{"bike_id":"6b0a9408-3892-42be-a86a-e294e97e2a1c","system_id":"levelo_inurba_marseille","lat":43.279897,"lon":5.400132,"is_reserved":false,"is_disabled":false,"rental_uris":{"android":"levelo://app?vid=6b0a9408-3892-42be-a86a-e294e97e2a1c","ios":"levelo://app?vid=6b0a9408-3892-42be-a86a-e294e97e2a1c"},"vehicle_type_id":"4","last_reported":1768590797,"current_range_meters":8000,"station_id":"ce4bho92rcd13ifvqh4g","pricing_plan_id":"cebpf4jnsgd1na2vs0mg"},{"bike_id":"374f7257-cfcd-4f34-8a16-ba578db8b7e2","system_id":"levelo_inurba_marseille","lat":43.2446,"lon":5.4253,"is_reserved":false,"is_disabled":false,"rental_uris":{"android":"levelo://app?vid=374f7257-cfcd-4f34-8a16-ba578db8b7e2","ios":"levelo://app?vid=374f7257-cfcd-4f34-8a16-ba578db8b7e2"},"vehicle_type_id":"4","last_reported":1768590797,"current_range_meters":8000,"station_id":"st_d4a3vfp97mjs738cd8kg","pricing_plan_id":"cebpf4jnsgd1na2vs0mg"},{"bike_id":"b3b55f91-3f31-4ef9-8e07-f9d8fab7732b","system_id":"levelo_inurba_marseille","lat":43.29012,"lon":5.38113,"is_reserved":false,"is_disabled":false,"rental_uris":{"android":"levelo://app?vid=b3b55f91-3f31-4ef9-8e07-f9d8fab7732b","ios":"levelo://app?vid=b3b55f91-3f31-4ef9-8e07-f9d8fab7732b"},"vehicle_type_id":"4","last_reported":1768590797,"current_range_meters":8000,"station_id":"ce4bh4p2rcd13ifvqe1g","pricing_plan_id":"cebpf4jnsgd1na2vs0mg"},{"bike_id":"89802bb7-dabd-4cb7-b4ea-541ea62a2f2b","system_id":"levelo_inurba_marseille","lat":43.31189,"lon":5.36828,"is_reserved":false,"is_disabled":false,"rental_uris":{"android":"levelo://app?vid=89802bb7-dabd-4cb7-b4ea-541ea62a2f2b","ios":"levelo://app?vid=89802bb7-dabd-4cb7-b4ea-541ea62a2f2b"},"vehicle_type_id":"4","last_reported":1768590797,"current_range_meters":8000,"station_id":"ce4bgl92rcd13ifvqbq0","pricing_plan_id":"cebpf4jnsgd1na2vs0mg"},{"bike_id":"7487b6a5-e6bc-4230-a715-a467fb8605f8","system_id":"levelo_inurba_marseille","lat":43.29541,"lon":5.37526,"is_reserved":false,"is_disabled":false,"rental_uris":{"android":"levelo://app?vid=7487b6a5-e6bc-4230-a715-a467fb8605f8","ios":"levelo://app?vid=7487b6a5-e6bc-4230-a715-a467fb8605f8"},"vehicle_type_id":"4","last_reported":1768590797,"current_range_meters":8400,"station_id":"ce4bgkp2rcd13ifvqbmg","pricing_plan_id":"cebpf4jnsgd1na2vs0mg"},{"bike_id":"a8d1d20f-d92d-47de-927d-e5e2e47888fa","system_id":"levelo_inurba_marseille","lat":43.30196,"lon":5.38036,"is_reserved":false,"is_disabled":false,"rental_uris":{"android":"levelo://app?vid=a8d1d20f-d92d-47de-927d-e5e2e47888fa","ios":"levelo://app?vid=a8d1d20f-d92d-47de-927d-e5e2e47888fa"},"vehicle_type_id":"4","last_reported":1768590797,"current_range_meters":8400,"station_id":"","pricing_plan_id":"cebpf4jnsgd1na2vs0mg"},{"bike_id":"4fb815c4-9159-4e67-b466-bfe664696d0d","system_id":"levelo_inurba_marseille","lat":43.30375,"lon":5.42486,"is_reserved":false,"is_disabled":false,"rental_uris":{"android":"levelo://app?vid=4fb815c4-9159-4e67-b466-bfe664696d0d","ios":"levelo://app?vid=4fb815c4-9159-4e67-b466-bfe664696d0d"},"vehicle_type_id":"4","last_reported":1768590797,"current_range_meters":8400,"station_id":"ce4bhoh2rcd13ifvqh6g","pricing_plan_id":"cebpf4jnsgd1na2vs0mg"},{"bike_id":"96193c37-b5b5-4dc2-ad34-d690301016c9","system_id":"levelo_inurba_marseille","lat":43.25577,"lon":5.38235,"is_reserved":false,"is_disabled":false,"rental_uris":{"android":"levelo://app?vid=96193c37-b5b5-4dc2-ad34-d690301016c9","ios":"levelo://app?vid=96193c37-b5b5-4dc2-ad34-d690301016c9"},"vehicle_type_id":"4","last_reported":1768590797,"current_range_meters":8400,"station_id":"ce4bhih2rcd13ifvqfs0","pricing_plan_id":"cebpf4jnsgd1na2vs0mg"},{"bike_id":"13c5bb29-9d1c-4ac3-bd57-1aeb26a4e127","system_id":"levelo_inurba_marseille","lat":43.27311,"lon":5.39096,"is_reserved":false,"is_disabled":false,"rental_uris":{"android":"levelo://app?vid=13c5bb29-9d1c-4ac3-bd57-1aeb26a4e127","ios":"levelo://app?vid=13c5bb29-9d1c-4ac3-bd57-1aeb26a4e127"},"vehicle_type_id":"4","last_reported":1768590797,"current_range_meters":8400,"station_id":"ce4bhgp2rcd13ifvqfe0","pricing_plan_id":"cebpf4jnsgd1na2vs0mg"},{"bike_id":"f9b52cb1-0613-4cd6-9d3d-81a06babe3c6","system_id":"levelo_inurba_marseille","lat":43.33157,"lon":5.37709,"is_reserved":false,"is_disabled":false,"rental_uris":{"android":"levelo://app?vid=f9b52cb1-0613-4cd6-9d3d-81a06babe3c6","ios":"levelo://app?vid=f9b52cb1-0613-4cd6-9d3d-81a06babe3c6"},"vehicle_type_id":"4","last_reported":1768590797,"current_range_meters":8400,"station_id":"st_d46cu089ee8s73dldbu0","pricing_plan_id":"cebpf4jnsgd1na2vs0mg"},{"bike_id":"1d746947-3f2d-4bd9-b59d-ebbfcb66128a","system_id":"levelo_inurba_marseille","lat":43.29293,"lon":5.37461,"is_reserved":false,"is_disabled":false,"rental_uris":{"android":"levelo://app?vid=1d746947-3f2d-4bd9-b59d-ebbfcb66128a","ios":"levelo://app?vid=1d746947-3f2d-4bd9-b59d-ebbfcb66128a"},"vehicle_type_id":"4","last_reported":1768590797,"current_range_meters":8400,"station_id":"ce4bgi12rcd13ifvqb70","pricing_plan_id":"cebpf4jnsgd1na2vs0mg"},{"bike_id":"f5de62ed-d0f8-4ad4-b15a-af8b81d662d3","system_id":"levelo_inurba_marseille","lat":43.27959,"lon":5.43616,"is_reserved":false,"is_disabled":false,"rental_uris":{"android":"levelo://app?vid=f5de62ed-d0f8-4ad4-b15a-af8b81d662d3","ios":"levelo://app?vid=f5de62ed-d0f8-4ad4-b15a-af8b81d662d3"},"vehicle_type_id":"4","last_reported":1768590797,"current_range_meters":8400,"station_id":"","pricing_plan_id":"cebpf4jnsgd1na2vs0mg"},{"bike_id":"3b3b81ef-94e2-42e9-99e5-1204cf977676","system_id":"levelo_inurba_marseille","lat":43.24476,"lon":5.42538,"is_reserved":false,"is_disabled":false,"rental_uris":{"android":"levelo://app?vid=3b3b81ef-94e2-42e9-99e5-1204cf977676","ios":"levelo://app?vid=3b3b81ef-94e2-42e9-99e5-1204cf977676"},"vehicle_type_id":"4","last_reported":1768590797,"current_range_meters":8400,"station_id":"st_d4a3vfp97mjs738cd8kg","pricing_plan_id":"cebpf4jnsgd1na2vs0mg"},{"bike_id":"ac863133-1003-4992-8ead-e17fcb8c6569","system_id":"levelo_inurba_marseille","lat":43.30309,"lon":5.36898,"is_reserved":false,"is_disabled":false,"rental_uris":{"android":"levelo://app?vid=ac863133-1003-4992-8ead-e17fcb8c6569","ios":"levelo://app?vid=ac863133-1003-4992-8ead-e17fcb8c6569"},"vehicle_type_id":"4","last_reported":1768590797,"current_range_meters":8400,"station_id":"ce4bgqh2rcd13ifvqc5g","pricing_plan_id":"cebpf4jnsgd1na2vs0mg"},{"bike_id":"a2063c8d-f51c-4170-b956-f1a16f6c2585","system_id":"levelo_inurba_marseille","lat":43.24989,"lon":5.38947,"is_reserved":false,"is_disabled":false,"rental_uris":{"android":"levelo://app?vid=a2063c8d-f51c-4170-b956-f1a16f6c2585","ios":"levelo://app?vid=a2063c8d-f51c-4170-b956-f1a16f6c2585"},"vehicle_type_id":"4","last_reported":1768590797,"current_range_meters":8400,"station_id":"ce4bhgp2rcd13ifvqfd0","pricing_plan_id":"cebpf4jnsgd1na2vs0mg"},{"bike_id":"878dde24-bede-4e19-ae02-67a59c493306","system_id":"levelo_inurba_marseille","lat":43.27943,"lon":5.41032,"is_reserved":false,"is_disabled":false,"rental_uris":{"android":"levelo://app?vid=878dde24-bede-4e19-ae02-67a59c493306","ios":"levelo://app?vid=878dde24-bede-4e19-ae02-67a59c493306"},"vehicle_type_id":"4","last_reported":1768590797,"current_range_meters":8400,"station_id":"ce4bhnp2rcd13ifvqh0g","pricing_plan_id":"cebpf4jnsgd1na2vs0mg"},{"bike_id":"48290c16-ada1-4dc5-b68e-7d1c12407831","system_id":"levelo_inurba_marseille","lat":43.30267,"lon":5.39464,"is_reserved":false,"is_disabled":true,"rental_uris":{"android":"levelo://app?vid=48290c16-ada1-4dc5-b68e-7d1c12407831","ios":"levelo://app?vid=48290c16-ada1-4dc5-b68e-7d1c12407831"},"vehicle_type_id":"4","last_reported":1768590797,"current_range_meters":8400,"station_id":"ce4bh0p2rcd13ifvqd70","pricing_plan_id":"cebpf4jnsgd1na2vs0mg"},{"bike_id":"576a061d-1fb4-476f-a84f-2ef395c324f6","system_id":"levelo_inurba_marseille","lat":43.25509,"lon":5.37622,"is_reserved":false,"is_disabled":false,"rental_uris":{"android":"levelo://app?vid=576a061d-1fb4-476f-a84f-2ef395c324f6","ios":"levelo://app?vid=576a061d-1fb4-476f-a84f-2ef395c324f6"},"vehicle_type_id":"4","last_reported":1768590797,"current_range_meters":8400,"station_id":"ce4bhh12rcd13ifvqff0","pricing_plan_id":"cebpf4jnsgd1na2vs0mg"},{"bike_id":"06743496-56ca-4ffb-9554-da7929f3016c","system_id":"levelo_inurba_marseille","lat":43.24461,"lon":5.42532,"is_reserved":false,"is_disabled":false,"rental_uris":{"android":"levelo://app?vid=06743496-56ca-4ffb-9554-da7929f3016c","ios":"levelo://app?vid=06743496-56ca-4ffb-9554-da7929f3016c"},"vehicle_type_id":"4","last_reported":1768590797,"current_range_meters":8400,"station_id":"st_d4a3vfp97mjs738cd8kg","pricing_plan_id":"cebpf4jnsgd1na2vs0mg"},{"bike_id":"d7944e80-8928-4e28-b76c-8b1fb20ad259","system_id":"levelo_inurba_marseille","lat":43.29418,"lon":5.41328,"is_reserved":false,"is_disabled":false,"rental_uris":{"android":"levelo://app?vid=d7944e80-8928-4e28-b76c-8b1fb20ad259","ios":"levelo://app?vid=d7944e80-8928-4e28-b76c-8b1fb20ad259"},"vehicle_type_id":"4","last_reported":1768590797,"current_range_meters":8400,"station_id":"","pricing_plan_id":"cebpf4jnsgd1na2vs0mg"},{"bike_id":"93b12964-8541-40ed-b67c-56725f990bd7","system_id":"levelo_inurba_marseille","lat":43.26057,"lon":5.394,"is_reserved":false,"is_disabled":false,"rental_uris":{"android":"levelo://app?vid=93b12964-8541-40ed-b67c-56725f990bd7","ios":"levelo://app?vid=93b12964-8541-40ed-b67c-56725f990bd7"},"vehicle_type_id":"4","last_reported":1768590797,"current_range_meters":8400,"station_id":"ce4bhh92rcd13ifvqfj0","pricing_plan_id":"cebpf4jnsgd1na2vs0mg"},{"bike_id":"2bf36226-1d9f-42b2-9a74-e7e17d35894d","system_id":"levelo_inurba_marseille","lat":43.32878,"lon":5.38324,"is_reserved":false,"is_disabled":false,"rental_uris":{"android":"levelo://app?vid=2bf36226-1d9f-42b2-9a74-e7e17d35894d","ios":"levelo://app?vid=2bf36226-1d9f-42b2-9a74-e7e17d35894d"},"vehicle_type_id":"4","last_reported":1768590797,"current_range_meters":8400,"station_id":"","pricing_plan_id":"cebpf4jnsgd1na2vs0mg"},{"bike_id":"f33669df-ff33-4a89-963c-7de296c37478","system_id":"levelo_inurba_marseille","lat":43.24439,"lon":5.42519,"is_reserved":false,"is_disabled":false,"rental_uris":{"android":"levelo://app?vid=f33669df-ff33-4a89-963c-7de296c37478","ios":"levelo://app?vid=f33669df-ff33-4a89-963c-7de296c37478"},"vehicle_type_id":"4","last_reported":1768590797,"current_range_meters":8800,"station_id":"st_d4a3vfp97mjs738cd8kg","pricing_plan_id":"cebpf4jnsgd1na2vs0mg"},{"bike_id":"be61de48-f428-4e23-9580-42507af6fc38","system_id":"levelo_inurba_marseille","lat":43.26563,"lon":5.39034,"is_reserved":false,"is_disabled":false,"rental_uris":{"android":"levelo://app?vid=be61de48-f428-4e23-9580-42507af6fc38","ios":"levelo://app?vid=be61de48-f428-4e23-9580-42507af6fc38"},"vehicle_type_id":"4","last_reported":1768590797,"current_range_meters":8800,"station_id":"ce4bhe12rcd13ifvqf30","pricing_plan_id":"cebpf4jnsgd1na2vs0mg"},{"bike_id":"ab96d693-0de6-43f1-85b1-d62380e9052b","system_id":"levelo_inurba_marseille","lat":43.27957,"lon":5.39989,"is_reserved":false,"is_disabled":false,"rental_uris":{"android":"levelo://app?vid=ab96d693-0de6-43f1-85b1-d62380e9052b","ios":"levelo://app?vid=ab96d693-0de6-43f1-85b1-d62380e9052b"},"vehicle_type_id":"4","last_reported":1768590797,"current_range_meters":8800,"station_id":"ce4bho92rcd13ifvqh4g","pricing_plan_id":"cebpf4jnsgd1na2vs0mg"},{"bike_id":"0b5e89ab-49d3-4fac-a0ae-333cd25a8ffe","system_id":"levelo_inurba_marseille","lat":43.28934,"lon":5.38403,"is_reserved":false,"is_disabled":false,"rental_uris":{"android":"levelo://app?vid=0b5e89ab-49d3-4fac-a0ae-333cd25a8ffe","ios":"levelo://app?vid=0b5e89ab-49d3-4fac-a0ae-333cd25a8ffe"},"vehicle_type_id":"4","last_reported":1768590797,"current_range_meters":8800,"station_id":"ce4bh612rcd13ifvqe6g","pricing_plan_id":"cebpf4jnsgd1na2vs0mg"},{"bike_id":"2e6cb03d-306f-4296-9a04-d09464218c73","system_id":"levelo_inurba_marseille","lat":43.28481,"lon":5.38411,"is_reserved":false,"is_disabled":false,"rental_uris":{"android":"levelo://app?vid=2e6cb03d-306f-4296-9a04-d09464218c73","ios":"levelo://app?vid=2e6cb03d-306f-4296-9a04-d09464218c73"},"vehicle_type_id":"4","last_reported":1768590797,"current_range_meters":8800,"station_id":"ce4bh512rcd13ifvqe3g","pricing_plan_id":"cebpf4jnsgd1na2vs0mg"},{"bike_id":"9846cbdc-21ba-42d8-bf2e-d6f21817802c","system_id":"levelo_inurba_marseille","lat":43.26933,"lon":5.38927,"is_reserved":false,"is_disabled":false,"rental_uris":{"android":"levelo://app?vid=9846cbdc-21ba-42d8-bf2e-d6f21817802c","ios":"levelo://app?vid=9846cbdc-21ba-42d8-bf2e-d6f21817802c"},"vehicle_type_id":"4","last_reported":1768590797,"current_range_meters":8800,"station_id":"ce4bhhh2rcd13ifvqfl0","pricing_plan_id":"cebpf4jnsgd1na2vs0mg"},{"bike_id":"0bc61347-9b23-444b-8417-57af3b905e16","system_id":"levelo_inurba_marseille","lat":43.26952,"lon":5.38651,"is_reserved":false,"is_disabled":false,"rental_uris":{"android":"levelo://app?vid=0bc61347-9b23-444b-8417-57af3b905e16","ios":"levelo://app?vid=0bc61347-9b23-444b-8417-57af3b905e16"},"vehicle_type_id":"4","last_reported":1768590797,"current_range_meters":8800,"station_id":"ce4bhh92rcd13ifvqfh0","pricing_plan_id":"cebpf4jnsgd1na2vs0mg"},{"bike_id":"e6872936-d756-4b20-b25b-25e2aeef4bd8","system_id":"levelo_inurba_marseille","lat":43.23158,"lon":5.35537,"is_reserved":false,"is_disabled":false,"rental_uris":{"android":"levelo://app?vid=e6872936-d756-4b20-b25b-25e2aeef4bd8","ios":"levelo://app?vid=e6872936-d756-4b20-b25b-25e2aeef4bd8"},"vehicle_type_id":"4","last_reported":1768590797,"current_range_meters":8800,"station_id":"ce4bhu92rcd13ifvqi70","pricing_plan_id":"cebpf4jnsgd1na2vs0mg"},{"bike_id":"f8a75625-c513-497c-8888-718a1b8bb0ef","system_id":"levelo_inurba_marseille","lat":43.30148,"lon":5.38078,"is_reserved":false,"is_disabled":false,"rental_uris":{"android":"levelo://app?vid=f8a75625-c513-497c-8888-718a1b8bb0ef","ios":"levelo://app?vid=f8a75625-c513-497c-8888-718a1b8bb0ef"},"vehicle_type_id":"4","last_reported":1768590797,"current_range_meters":8800,"station_id":"ce4bgjp2rcd13ifvqbh0","pricing_plan_id":"cebpf4jnsgd1na2vs0mg"},{"bike_id":"bf3c9612-0590-462d-87a5-0987166375b2","system_id":"levelo_inurba_marseille","lat":43.23962,"lon":5.36615,"is_reserved":false,"is_disabled":true,"rental_uris":{"android":"levelo://app?vid=bf3c9612-0590-462d-87a5-0987166375b2","ios":"levelo://app?vid=bf3c9612-0590-462d-87a5-0987166375b2"},"vehicle_type_id":"4","last_reported":1768590797,"current_range_meters":8800,"station_id":"ce4bhi12rcd13ifvqfp0","pricing_plan_id":"cebpf4jnsgd1na2vs0mg"},{"bike_id":"9a6c5e8a-2ffa-4261-b17c-9ee71e85e96d","system_id":"levelo_inurba_marseille","lat":43.27313,"lon":5.39086,"is_reserved":false,"is_disabled":false,"rental_uris":{"android":"levelo://app?vid=9a6c5e8a-2ffa-4261-b17c-9ee71e85e96d","ios":"levelo://app?vid=9a6c5e8a-2ffa-4261-b17c-9ee71e85e96d"},"vehicle_type_id":"4","last_reported":1768590797,"current_range_meters":8800,"station_id":"ce4bhgp2rcd13ifvqfe0","pricing_plan_id":"cebpf4jnsgd1na2vs0mg"},{"bike_id":"fa9db0ce-4c2f-4bb0-a6e0-d8277a44cc60","system_id":"levelo_inurba_marseille","lat":43.30183,"lon":5.36624,"is_reserved":false,"is_disabled":false,"rental_uris":{"android":"levelo://app?vid=fa9db0ce-4c2f-4bb0-a6e0-d8277a44cc60","ios":"levelo://app?vid=fa9db0ce-4c2f-4bb0-a6e0-d8277a44cc60"},"vehicle_type_id":"4","last_reported":1768590797,"current_range_meters":8800,"station_id":"ce4bgrh2rcd13ifvqc8g","pricing_plan_id":"cebpf4jnsgd1na2vs0mg"},{"bike_id":"8db52122-96c8-424a-a720-30d9d4a4480c","system_id":"levelo_inurba_marseille","lat":43.23785,"lon":5.36621,"is_reserved":false,"is_disabled":false,"rental_uris":{"android":"levelo://app?vid=8db52122-96c8-424a-a720-30d9d4a4480c","ios":"levelo://app?vid=8db52122-96c8-424a-a720-30d9d4a4480c"},"vehicle_type_id":"4","last_reported":1768590797,"current_range_meters":8800,"station_id":"st_d3nk18o9ro0c73en2l3g","pricing_plan_id":"cebpf4jnsgd1na2vs0mg"},{"bike_id":"4a28ef74-056c-4568-bfa3-e40f0a491bda","system_id":"levelo_inurba_marseille","lat":43.2549,"lon":5.37647,"is_reserved":false,"is_disabled":false,"rental_uris":{"android":"levelo://app?vid=4a28ef74-056c-4568-bfa3-e40f0a491bda","ios":"levelo://app?vid=4a28ef74-056c-4568-bfa3-e40f0a491bda"},"vehicle_type_id":"4","last_reported":1768590797,"current_range_meters":8800,"station_id":"ce4bhh12rcd13ifvqff0","pricing_plan_id":"cebpf4jnsgd1na2vs0mg"},{"bike_id":"be33ff36-3674-4109-b4b7-76a79b25caca","system_id":"levelo_inurba_marseille","lat":43.292719,"lon":5.384417,"is_reserved":false,"is_disabled":false,"rental_uris":{"android":"levelo://app?vid=be33ff36-3674-4109-b4b7-76a79b25caca","ios":"levelo://app?vid=be33ff36-3674-4109-b4b7-76a79b25caca"},"vehicle_type_id":"4","last_reported":1768590797,"current_range_meters":8800,"station_id":"ce4bh692rcd13ifvqea0","pricing_plan_id":"cebpf4jnsgd1na2vs0mg"},{"bike_id":"5d6e7b27-7678-4def-a69d-d4b42ac2ea83","system_id":"levelo_inurba_marseille","lat":43.25503,"lon":5.37648,"is_reserved":false,"is_disabled":false,"rental_uris":{"android":"levelo://app?vid=5d6e7b27-7678-4def-a69d-d4b42ac2ea83","ios":"levelo://app?vid=5d6e7b27-7678-4def-a69d-d4b42ac2ea83"},"vehicle_type_id":"4","last_reported":1768590797,"current_range_meters":8800,"station_id":"ce4bhh12rcd13ifvqff0","pricing_plan_id":"cebpf4jnsgd1na2vs0mg"},{"bike_id":"7c68b16c-250e-4f9c-84b4-50e346a52e42","system_id":"levelo_inurba_marseille","lat":43.29528,"lon":5.38538,"is_reserved":false,"is_disabled":false,"rental_uris":{"android":"levelo://app?vid=7c68b16c-250e-4f9c-84b4-50e346a52e42","ios":"levelo://app?vid=7c68b16c-250e-4f9c-84b4-50e346a52e42"},"vehicle_type_id":"4","last_reported":1768590797,"current_range_meters":8800,"station_id":"ce4bgih2rcd13ifvqba0","pricing_plan_id":"cebpf4jnsgd1na2vs0mg"},{"bike_id":"081dca07-e8a6-423f-95f0-96bcbec61c3d","system_id":"levelo_inurba_marseille","lat":43.25254,"lon":5.37979,"is_reserved":false,"is_disabled":false,"rental_uris":{"android":"levelo://app?vid=081dca07-e8a6-423f-95f0-96bcbec61c3d","ios":"levelo://app?vid=081dca07-e8a6-423f-95f0-96bcbec61c3d"},"vehicle_type_id":"4","last_reported":1768590797,"current_range_meters":8800,"station_id":"","pricing_plan_id":"cebpf4jnsgd1na2vs0mg"},{"bike_id":"b2f81bb9-b9c8-4b52-ae1a-4f227d3464cd","system_id":"levelo_inurba_marseille","lat":43.29314,"lon":5.37461,"is_reserved":false,"is_disabled":false,"rental_uris":{"android":"levelo://app?vid=b2f81bb9-b9c8-4b52-ae1a-4f227d3464cd","ios":"levelo://app?vid=b2f81bb9-b9c8-4b52-ae1a-4f227d3464cd"},"vehicle_type_id":"4","last_reported":1768590797,"current_range_meters":8800,"station_id":"ce4bgi12rcd13ifvqb70","pricing_plan_id":"cebpf4jnsgd1na2vs0mg"},{"bike_id":"4d4dbef2-787f-4e6c-a9d2-398aa9c2095e","system_id":"levelo_inurba_marseille","lat":43.28542,"lon":5.44101,"is_reserved":false,"is_disabled":false,"rental_uris":{"android":"levelo://app?vid=4d4dbef2-787f-4e6c-a9d2-398aa9c2095e","ios":"levelo://app?vid=4d4dbef2-787f-4e6c-a9d2-398aa9c2095e"},"vehicle_type_id":"4","last_reported":1768590797,"current_range_meters":9200,"station_id":"st_d3j3df2ikq2c7380ej80","pricing_plan_id":"cebpf4jnsgd1na2vs0mg"},{"bike_id":"70455a40-0d73-4f7a-a245-46695a4b4871","system_id":"levelo_inurba_marseille","lat":43.30508,"lon":5.36714,"is_reserved":false,"is_disabled":false,"rental_uris":{"android":"levelo://app?vid=70455a40-0d73-4f7a-a245-46695a4b4871","ios":"levelo://app?vid=70455a40-0d73-4f7a-a245-46695a4b4871"},"vehicle_type_id":"4","last_reported":1768590797,"current_range_meters":9200,"station_id":"ce4bgrp2rcd13ifvqc9g","pricing_plan_id":"cebpf4jnsgd1na2vs0mg"},{"bike_id":"53e177f7-aa5f-4d89-99a4-ff4b5885358d","system_id":"levelo_inurba_marseille","lat":43.2982,"lon":5.38103,"is_reserved":false,"is_disabled":false,"rental_uris":{"android":"levelo://app?vid=53e177f7-aa5f-4d89-99a4-ff4b5885358d","ios":"levelo://app?vid=53e177f7-aa5f-4d89-99a4-ff4b5885358d"},"vehicle_type_id":"4","last_reported":1768590797,"current_range_meters":9200,"station_id":"ce4bgip2rcd13ifvqbb0","pricing_plan_id":"cebpf4jnsgd1na2vs0mg"},{"bike_id":"e12da946-6ac2-4563-8625-68605442f884","system_id":"levelo_inurba_marseille","lat":43.30454,"lon":5.37917,"is_reserved":false,"is_disabled":false,"rental_uris":{"android":"levelo://app?vid=e12da946-6ac2-4563-8625-68605442f884","ios":"levelo://app?vid=e12da946-6ac2-4563-8625-68605442f884"},"vehicle_type_id":"4","last_reported":1768590797,"current_range_meters":9200,"station_id":"ce4bgup2rcd13ifvqcn0","pricing_plan_id":"cebpf4jnsgd1na2vs0mg"},{"bike_id":"663d0ae7-6900-4ed6-b652-cfae56750069","system_id":"levelo_inurba_marseille","lat":43.3193,"lon":5.37369,"is_reserved":false,"is_disabled":true,"rental_uris":{"android":"levelo://app?vid=663d0ae7-6900-4ed6-b652-cfae56750069","ios":"levelo://app?vid=663d0ae7-6900-4ed6-b652-cfae56750069"},"vehicle_type_id":"4","last_reported":1768590797,"current_range_meters":9200,"station_id":"","pricing_plan_id":"cebpf4jnsgd1na2vs0mg"},