{"last_updated":1751915397,"ttl":60,"version":"2.2","data":{"bikes":[{"bike_id":"3da29fb8-fc97-44c6-b9ac-31dd456b2fd4","system_id":"levelo_inurba_marseille","lat":43.33771,"lon":5.37424,"is_reserved":false,"is_disabled":true,"rental_uris":{"android":"levelo://app?vid=3da29fb8-fc97-44c6-b9ac-31dd456b2fd4","ios":"levelo://app?vid=3da29fb8-fc97-44c6-b9ac-31dd456b2fd4"},"vehicle_type_id":"4","last_reported":1751915397,"current_range_meters":0,"station_id":"","pricing_plan_id":"cebpf4jnsgd1na2vs0mg"},{"bike_id":"01861ad8-a8d7-4be6-816e-651927c87584","system_id":"levelo_inurba_marseille","lat":43.33751,"lon":5.37456,"is_reserved":false,"is_disabled":true,"rental_uris":{"android":"levelo://app?vid=01861ad8-a8d7-4be6-816e-651927c87584","ios":"levelo://app?vid=01861ad8-a8d7-4be6-816e-651927c87584"},"vehicle_type_id":"4","last_reported":1751915397,"current_range_meters":0,"station_id":"","pricing_plan_id":"cebpf4jnsgd1na2vs0mg"},{"bike_id":"95c194a9-5cae-4867-bc56-f8781828dc70","system_id":"levelo_inurba_marseille","lat":43.337444,"lon":5.374475,"is_reserved":false,"is_disabled":true,"rental_uris":{"android":"levelo://app?vid=95c194a9-5cae-4867-bc56-f8781828dc70","ios":"levelo://app?vid=95c194a9-5cae-4867-bc56-f8781828dc70"},"vehicle_type_id":"4","last_reported":1751915397,"current_range_meters":0,"station_id":"","pricing_plan_id":"cebpf4jnsgd1na2vs0mg"},{"bike_id":"36fc43ff-930e-421b-9c9a-ac8fb9d1625b","system_id":"levelo_inurba_marseille","lat":43.29223,"lon":5.40556,"is_reserved":false,"is_disabled":true,"rental_uris":{"android":"levelo://app?vid=36fc43ff-930e-421b-9c9a-ac8fb9d1625b","ios":"levelo://app?vid=36fc43ff-930e-421b-9c9a-ac8fb9d1625b"},"vehicle_type_id":"4","last_reported":1751915397,"current_range_meters":0,"station_id":"","pricing_plan_id":"cebpf4jnsgd1na2vs0mg"},{"bike_id":"1437024d-d2bc-4dcb-8d85-7721d91fc486","system_id":"levelo_inurba_marseille","lat":43.28473,"lon":5.384,"is_reserved":false,"is_disabled":true,"rental_uris":{"android":"levelo://app?vid=1437024d-d2bc-4dcb-8d85-7721d91fc486","ios":"levelo://app?vid=1437024d-d2bc-4dcb-8d85-7721d91fc486"},"vehicle_type_id":"4","last_reported":1751915397,"current_range_meters":0,"station_id":"ce4bh512rcd13ifvqe3g","pricing_plan_id":"cebpf4jnsgd1na2vs0mg"},{"bike_id":"58f2a339-8157-4697-9978-8e6521de8d99","system_id":"levelo_inurba_marseille","lat":43.23154,"lon":5.43702,"is_reserved":false,"is_disabled":true,"rental_uris":{"android":"levelo://app?vid=58f2a339-8157-4697-9978-8e6521de8d99","ios":"levelo://app?vid=58f2a339-8157-4697-9978-8e6521de8d99"},"vehicle_type_id":"4","last_reported":1751915397,"current_range_meters":0,"station_id":"ce4bhmp2rcd13ifvqgog","pricing_plan_id":"cebpf4jnsgd1na2vs0mg"},{"bike_id":"15f74229-234f-42fe-a5d4-557c90639fe5","system_id":"levelo_inurba_marseille","lat":43.27838,"lon":5.40711,"is_reserved":false,"is_disabled":true,"rental_uris":{"android":"levelo://app?vid=15f74229-234f-42fe-a5d4-557c90639fe5","ios":"levelo://app?vid=15f74229-234f-42fe-a5d4-557c90639fe5"},"vehicle_type_id":"4","last_reported":1751915397,"current_range_meters":0,"station_id":"ce4bhnh2rcd13ifvqgtg","pricing_plan_id":"cebpf4jnsgd1na2vs0mg"},{"bike_id":"3d508917-55ee-42b6-894b-89c2a444dc06","system_id":"levelo_inurba_marseille","lat":43.22498,"lon":5.34764,"is_reserved":false,"is_disabled":true,"rental_uris":{"android":"levelo://app?vid=3d508917-55ee-42b6-894b-89c2a444dc06","ios":"levelo://app?vid=3d508917-55ee-42b6-894b-89c2a444dc06"},"vehicle_type_id":"4","last_reported":1751915397,"current_range_meters":0,"station_id":"st_cvj5dfep6f1abm77gieg","pricing_plan_id":"cebpf4jnsgd1na2vs0mg"},{"bike_id":"e86ba8c9-208d-482c-a826-4c100938472a","system_id":"levelo_inurba_marseille","lat":43.21179,"lon":5.35068,"is_reserved":false,"is_disabled":true,"rental_uris":{"android":"levelo://app?vid=e86ba8c9-208d-482c-a826-4c100938472a","ios":"levelo://app?vid=e86ba8c9-208d-482c-a826-4c100938472a"},"vehicle_type_id":"4","last_reported":1751915397,"current_range_meters":0,"station_id":"st_cvj6sg6p6f1abm77japg","pricing_plan_id":"cebpf4jnsgd1na2vs0mg"},{"bike_id":"f0a19a9e-f150-4c1e-bcc6-db3195370cac","system_id":"levelo_inurba_marseille","lat":43.32684,"lon":5.4308,"is_reserved":false,"is_disabled":true,"rental_uris":{"android":"levelo://app?vid=f0a19a9e-f150-4c1e-bcc6-db3195370cac","ios":"levelo://app?vid=f0a19a9e-f150-4c1e-bcc6-db3195370cac"},"vehicle_type_id":"4","last_reported":1751915397,"current_range_meters":400,"station_id":"","pricing_plan_id":"cebpf4jnsgd1na2vs0mg"},{"bike_id":"48118a73-aac8-4489-9a93-167e38b81035","system_id":"levelo_inurba_marseille","lat":43.26236,"lon":5.4043,"is_reserved":false,"is_disabled":true,"rental_uris":{"android":"levelo://app?vid=48118a73-aac8-4489-9a93-167e38b81035","ios":"levelo://app?vid=48118a73-aac8-4489-9a93-167e38b81035"},"vehicle_type_id":"4","last_reported":1751915397,"current_range_meters":400,"station_id":"ce4bhmh2rcd13ifvqgmg","pricing_plan_id":"cebpf4jnsgd1na2vs0mg"},{"bike_id":"fe88f084-a14c-4b79-9236-49c7471e179c","system_id":"levelo_inurba_marseille","lat":43.290497,"lon":5.371546,"is_reserved":false,"is_disabled":true,"rental_uris":{"android":"levelo://app?vid=fe88f084-a14c-4b79-9236-49c7471e179c","ios":"levelo://app?vid=fe88f084-a14c-4b79-9236-49c7471e179c"},"vehicle_type_id":"4","last_reported":1751915397,"current_range_meters":800,"station_id":"","pricing_plan_id":"cebpf4jnsgd1na2vs0mg"},{"bike_id":"4fd1a86b-41e8-49cc-b34f-9043241b8e9a","system_id":"levelo_inurba_marseille","lat":43.2904,"lon":5.39962,"is_reserved":false,"is_disabled":true,"rental_uris":{"android":"levelo://app?vid=4fd1a86b-41e8-49cc-b34f-9043241b8e9a","ios":"levelo://app?vid=4fd1a86b-41e8-49cc-b34f-9043241b8e9a"},"vehicle_type_id":"4","last_reported":1751915397,"current_range_meters":800,"station_id":"ce4bh392rcd13ifvqdm0","pricing_plan_id":"cebpf4jnsgd1na2vs0mg"},{"bike_id":"c32a44ab-b078-4729-9be5-e0735978229d","system_id":"levelo_inurba_marseille","lat":43.21192,"lon":5.35055,"is_reserved":false,"is_disabled":true,"rental_uris":{"android":"levelo://app?vid=c32a44ab-b078-4729-9be5-e0735978229d","ios":"levelo://app?vid=c32a44ab-b078-4729-9be5-e0735978229d"},"vehicle_type_id":"4","last_reported":1751915397,"current_range_meters":1200,"station_id":"st_cvj6sg6p6f1abm77japg","pricing_plan_id":"cebpf4jnsgd1na2vs0mg"},{"bike_id":"1f5142b7-01a4-4492-8514-2785deeff19b","system_id":"levelo_inurba_marseille","lat":43.29678,"lon":5.3727,"is_reserved":false,"is_disabled":true,"rental_uris":{"android":"levelo://app?vid=1f5142b7-01a4-4492-8514-2785deeff19b","ios":"levelo://app?vid=1f5142b7-01a4-4492-8514-2785deeff19b"},"vehicle_type_id":"4","last_reported":1751915397,"current_range_meters":1600,"station_id":"ce4bgk12rcd13ifvqbj0","pricing_plan_id":"cebpf4jnsgd1na2vs0mg"},{"bike_id":"fb3faa44-3ac5-4105-ad21-a0234a9f343c","system_id":"levelo_inurba_marseille","lat":43.29851,"lon":5.3628,"is_reserved":false,"is_disabled":false,"rental_uris":{"android":"levelo://app?vid=fb3faa44-3ac5-4105-ad21-a0234a9f343c","ios":"levelo://app?vid=fb3faa44-3ac5-4105-ad21-a0234a9f343c"},"vehicle_type_id":"4","last_reported":1751915397,"current_range_meters":2800,"station_id":"ce4bgpp2rcd13ifvqc3g","pricing_plan_id":"cebpf4jnsgd1na2vs0mg"},{"bike_id":"51aa6a07-b4f7-4eac-862d-099b08e7d189","system_id":"levelo_inurba_marseille","lat":43.286133,"lon":5.370623,"is_reserved":false,"is_disabled":false,"rental_uris":{"android":"levelo://app?vid=51aa6a07-b4f7-4eac-862d-099b08e7d189","ios":"levelo://app?vid=51aa6a07-b4f7-4eac-862d-099b08e7d189"},"vehicle_type_id":"4","last_reported":1751915397,"current_range_meters":3600,"station_id":"ce4bht12rcd13ifvqi60","pricing_plan_id":"cebpf4jnsgd1na2vs0mg"},{"bike_id":"0a391030-7507-4a3b-8bb9-cacc772d379b","system_id":"levelo_inurba_marseille","lat":43.29438,"lon":5.39751,"is_reserved":false,"is_disabled":false,"rental_uris":{"android":"levelo://app?vid=0a391030-7507-4a3b-8bb9-cacc772d379b","ios":"levelo://app?vid=0a391030-7507-4a3b-8bb9-cacc772d379b"},"vehicle_type_id":"4","last_reported":1751915397,"current_range_meters":4000,"station_id":"ce4bh3h2rcd13ifvqdo0","pricing_plan_id":"cebpf4jnsgd1na2vs0mg"},{"bike_id":"86c92dc1-b4da-49d9-acb8-ba390f939865","system_id":"levelo_inurba_marseille","lat":43.33061,"lon":5.39209,"is_reserved":false,"is_disabled":false,"rental_uris":{"android":"levelo://app?vid=86c92dc1-b4da-49d9-acb8-ba390f939865","ios":"levelo://app?vid=86c92dc1-b4da-49d9-acb8-ba390f939865"},"vehicle_type_id":"4","last_reported":1751915397,"current_range_meters":4400,"station_id":"","pricing_plan_id":"cebpf4jnsgd1na2vs0mg"},{"bike_id":"f63ae57f-5c69-46e0-b934-bc4e8e5ebb2a","system_id":"levelo_inurba_marseille","lat":43.28004,"lon":5.40011,"is_reserved":false,"is_disabled":false,"rental_uris":{"android":"levelo://app?vid=f63ae57f-5c69-46e0-b934-bc4e8e5ebb2a","ios":"levelo://app?vid=f63ae57f-5c69-46e0-b934-bc4e8e5ebb2a"},"vehicle_type_id":"4","last_reported":1751915397,"current_range_meters":4800,"station_id":"ce4bho92rcd13ifvqh4g","pricing_plan_id":"cebpf4jnsgd1na2vs0mg"},{"bike_id":"a2734281-29e9-49c2-a5ad-b491d322c24c","system_id":"levelo_inurba_marseille","lat":43.29787,"lon":5.38108,"is_reserved":false,"is_disabled":false,"rental_uris":{"android":"levelo://app?vid=a2734281-29e9-49c2-a5ad-b491d322c24c","ios":"levelo://app?vid=a2734281-29e9-49c2-a5ad-b491d322c24c"},"vehicle_type_id":"4","last_reported":1751915397,"current_range_meters":5600,"station_id":"ce4bgip2rcd13ifvqbb0","pricing_plan_id":"cebpf4jnsgd1na2vs0mg"},{"bike_id":"7fb61cbb-9639-432d-99fd-58769a434d35","system_id":"levelo_inurba_marseille","lat":43.2996,"lon":5.38535,"is_reserved":false,"is_disabled":false,"rental_uris":{"android":"levelo://app?vid=7fb61cbb-9639-432d-99fd-58769a434d35","ios":"levelo://app?vid=7fb61cbb-9639-432d-99fd-58769a434d35"},"vehicle_type_id":"4","last_reported":1751915397,"current_range_meters":6000,"station_id":"ce4bgj92rcd13ifvqbd0","pricing_plan_id":"cebpf4jnsgd1na2vs0mg"},{"bike_id":"d30f762b-6a69-4560-836e-f12ee0bd9d7f","system_id":"levelo_inurba_marseille","lat":43.2842,"lon":5.37501,"is_reserved":false,"is_disabled":false,"rental_uris":{"android":"levelo://app?vid=d30f762b-6a69-4560-836e-f12ee0bd9d7f","ios":"levelo://app?vid=d30f762b-6a69-4560-836e-f12ee0bd9d7f"},"vehicle_type_id":"4","last_reported":1751915397,"current_range_meters":6000,"station_id":"ce4bh412rcd13ifvqds0","pricing_plan_id":"cebpf4jnsgd1na2vs0mg"},{"bike_id":"f26c3917-1b75-40cc-b2ee-63b7df609133","system_id":"levelo_inurba_marseille","lat":43.29266,"lon":5.38436,"is_reserved":false,"is_disabled":false,"rental_uris":{"android":"levelo://app?vid=f26c3917-1b75-40cc-b2ee-63b7df609133","ios":"levelo://app?vid=f26c3917-1b75-40cc-b2ee-63b7df609133"},"vehicle_type_id":"4","last_reported":1751915397,"current_range_meters":6000,"station_id":"ce4bh692rcd13ifvqea0","pricing_plan_id":"cebpf4jnsgd1na2vs0mg"},{"bike_id":"ce5f7cd6-30e5-4fd1-9c0c-be357f59a05b","system_id":"levelo_inurba_marseille","lat":43.2867,"lon":5.36339,"is_reserved":false,"is_disabled":false,"rental_uris":{"android":"levelo://app?vid=ce5f7cd6-30e5-4fd1-9c0c-be357f59a05b","ios":"levelo://app?vid=ce5f7cd6-30e5-4fd1-9c0c-be357f59a05b"},"vehicle_type_id":"4","last_reported":1751915397,"current_range_meters":6000,"station_id":"ce4bhah2rcd13ifvqej0","pricing_plan_id":"cebpf4jnsgd1na2vs0mg"},{"bike_id":"ed290504-6948-4f69-8584-2e2b0286febf","system_id":"levelo_inurba_marseille","lat":43.21204,"lon":5.35049,"is_reserved":false,"is_disabled":false,"rental_uris":{"android":"levelo://app?vid=ed290504-6948-4f69-8584-2e2b0286febf","ios":"levelo://app?vid=ed290504-6948-4f69-8584-2e2b0286febf"},"vehicle_type_id":"4","last_reported":1751915397,"current_range_meters":6000,"station_id":"st_cvj6sg6p6f1abm77japg","pricing_plan_id":"cebpf4jnsgd1na2vs0mg"},{"bike_id":"4152178b-3b24-40f2-bda2-56ccc0bdd182","system_id":"levelo_inurba_marseille","lat":43.292603,"lon":5.38443,"is_reserved":false,"is_disabled":false,"rental_uris":{"android":"levelo://app?vid=4152178b-3b24-40f2-bda2-56ccc0bdd182","ios":"levelo://app?vid=4152178b-3b24-40f2-bda2-56ccc0bdd182"},"vehicle_type_id":"4","last_reported":1751915397,"current_range_meters":6400,"station_id":"ce4bh692rcd13ifvqea0","pricing_plan_id":"cebpf4jnsgd1na2vs0mg"},{"bike_id":"a7753154-ad7f-4eb5-b7b3-df27edf18a53","system_id":"levelo_inurba_marseille","lat":43.22502,"lon":5.34796,"is_reserved":false,"is_disabled":false,"rental_uris":{"android":"levelo://app?vid=a7753154-ad7f-4eb5-b7b3-df27edf18a53","ios":"levelo://app?vid=a7753154-ad7f-4eb5-b7b3-df27edf18a53"},"vehicle_type_id":"4","last_reported":1751915397,"current_range_meters":6400,"station_id":"st_cvj5dfep6f1abm77gieg","pricing_plan_id":"cebpf4jnsgd1na2vs0mg"},{"bike_id":"98f46642-8fdc-43be-8379-a5bf33d8441b","system_id":"levelo_inurba_marseille","lat":43.21192,"lon":5.35067,"is_reserved":false,"is_disabled":false,"rental_uris":{"android":"levelo://app?vid=98f46642-8fdc-43be-8379-a5bf33d8441b","ios":"levelo://app?vid=98f46642-8fdc-43be-8379-a5bf33d8441b"},"vehicle_type_id":"4","last_reported":1751915397,"current_range_meters":6800,"station_id":"","pricing_plan_id":"cebpf4jnsgd1na2vs0mg"},{"bike_id":"873bd554-1a58-4656-9509-e84e7b0ae5cc","system_id":"levelo_inurba_marseille","lat":43.246583,"lon":5.381701,"is_reserved":false,"is_disabled":false,"rental_uris":{"android":"levelo://app?vid=873bd554-1a58-4656-9509-e84e7b0ae5cc","ios":"levelo://app?vid=873bd554-1a58-4656-9509-e84e7b0ae5cc"},"vehicle_type_id":"4","last_reported":1751915397,"current_range_meters":6800,"station_id":"ce4bhih2rcd13ifvqfr0","pricing_plan_id":"cebpf4jnsgd1na2vs0mg"},{"bike_id":"627b2b06-da8a-466f-9608-3cef29636059","system_id":"levelo_inurba_marseille","lat":43.21739,"lon":5.34612,"is_reserved":false,"is_disabled":false,"rental_uris":{"android":"levelo://app?vid=627b2b06-da8a-466f-9608-3cef29636059","ios":"levelo://app?vid=627b2b06-da8a-466f-9608-3cef29636059"},"vehicle_type_id":"4","last_reported":1751915397,"current_range_meters":6800,"station_id":"st_cvj6r9ubvosntc0bgbag","pricing_plan_id":"cebpf4jnsgd1na2vs0mg"},{"bike_id":"162df072-133f-468a-9013-4739a4917268","system_id":"levelo_inurba_marseille","lat":43.25494,"lon":5.37649,"is_reserved":false,"is_disabled":false,"rental_uris":{"android":"levelo://app?vid=162df072-133f-468a-9013-4739a4917268","ios":"levelo://app?vid=162df072-133f-468a-9013-4739a4917268"},"vehicle_type_id":"4","last_reported":1751915397,"current_range_meters":7200,"station_id":"ce4bhh12rcd13ifvqff0","pricing_plan_id":"cebpf4jnsgd1na2vs0mg"},{"bike_id":"243bb21b-5fa5-4005-9689-11281ff6fbc9","system_id":"levelo_inurba_marseille","lat":43.260255,"lon":5.417443,"is_reserved":false,"is_disabled":false,"rental_uris":{"android":"levelo://app?vid=243bb21b-5fa5-4005-9689-11281ff6fbc9","ios":"levelo://app?vid=243bb21b-5fa5-4005-9689-11281ff6fbc9"},"vehicle_type_id":"4","last_reported":1751915397,"current_range_meters":8000,"station_id":"","pricing_plan_id":"cebpf4jnsgd1na2vs0mg"},{"bike_id":"602a2fc8-0511-40d6-a0c5-e48c06255923","system_id":"levelo_inurba_marseille","lat":43.30128,"lon":5.39841,"is_reserved":false,"is_disabled":false,"rental_uris":{"android":"levelo://app?vid=602a2fc8-0511-40d6-a0c5-e48c06255923","ios":"levelo://app?vid=602a2fc8-0511-40d6-a0c5-e48c06255923"},"vehicle_type_id":"4","last_reported":1751915397,"current_range_meters":8000,"station_id":"ce4bh0h2rcd13ifvqd40","pricing_plan_id":"cebpf4jnsgd1na2vs0mg"},{"bike_id":"def5f13e-2462-4cd4-934f-8743d420e6c6","system_id":"levelo_inurba_marseille","lat":43.292122,"lon":5.36435,"is_reserved":false,"is_disabled":false,"rental_uris":{"android":"levelo://app?vid=def5f13e-2462-4cd4-934f-8743d420e6c6","ios":"levelo://app?vid=def5f13e-2462-4cd4-934f-8743d420e6c6"},"vehicle_type_id":"4","last_reported":1751915397,"current_range_meters":8000,"station_id":"ce4bhch2rcd13ifvqeug","pricing_plan_id":"cebpf4jnsgd1na2vs0mg"},{"bike_id":"cbf6849a-8fd4-4315-a450-aa55319cfb79","system_id":"levelo_inurba_marseille","lat":43.30465,"lon":5.37904,"is_reserved":false,"is_disabled":false,"rental_uris":{"android":"levelo://app?vid=cbf6849a-8fd4-4315-a450-aa55319cfb79","ios":"levelo://app?vid=cbf6849a-8fd4-4315-a450-aa55319cfb79"},"vehicle_type_id":"4","last_reported":1751915397,"current_range_meters":8400,"station_id":"ce4bgup2rcd13ifvqcn0","pricing_plan_id":"cebpf4jnsgd1na2vs0mg"},{"bike_id":"eded7ae2-3035-42aa-91bf-0a5203a63872","system_id":"levelo_inurba_marseille","lat":43.30219,"lon":5.39461,"is_reserved":false,"is_disabled":false,"rental_uris":{"android":"levelo://app?vid=eded7ae2-3035-42aa-91bf-0a5203a63872","ios":"levelo://app?vid=eded7ae2-3035-42aa-91bf-0a5203a63872"},"vehicle_type_id":"4","last_reported":1751915397,"current_range_meters":8400,"station_id":"ce4bh0p2rcd13ifvqd70","pricing_plan_id":"cebpf4jnsgd1na2vs0mg"},{"bike_id":"75635463-05a5-4988-99c6-48f3701c07ed","system_id":"levelo_inurba_marseille","lat":43.32655,"lon":5.40996,"is_reserved":false,"is_disabled":false,"rental_uris":{"android":"levelo://app?vid=75635463-05a5-4988-99c6-48f3701c07ed","ios":"levelo://app?vid=75635463-05a5-4988-99c6-48f3701c07ed"},"vehicle_type_id":"4","last_reported":1751915397,"current_range_meters":8400,"station_id":"ce4bhpp2rcd13ifvqhgg","pricing_plan_id":"cebpf4jnsgd1na2vs0mg"},{"bike_id":"a2b7fc52-cb27-4f80-b109-9338e5ad6bbe","system_id":"levelo_inurba_marseille","lat":43.28404,"lon":5.37494,"is_reserved":false,"is_disabled":false,"rental_uris":{"android":"levelo://app?vid=a2b7fc52-cb27-4f80-b109-9338e5ad6bbe","ios":"levelo://app?vid=a2b7fc52-cb27-4f80-b109-9338e5ad6bbe"},"vehicle_type_id":"4","last_reported":1751915397,"current_range_meters":8800,"station_id":"ce4bh412rcd13ifvqds0","pricing_plan_id":"cebpf4jnsgd1na2vs0mg"},{"bike_id":"e4a61b12-838a-43ef-84f5-ad67bb9f2c56","system_id":"levelo_inurba_marseille","lat":43.29034,"lon":5.37567,"is_reserved":false,"is_disabled":false,"rental_uris":{"android":"levelo://app?vid=e4a61b12-838a-43ef-84f5-ad67bb9f2c56","ios":"levelo://app?vid=e4a61b12-838a-43ef-84f5-ad67bb9f2c56"},"vehicle_type_id":"4","last_reported":1751915397,"current_range_meters":8800,"station_id":"ce4bh692rcd13ifvqe90","pricing_plan_id":"cebpf4jnsgd1na2vs0mg"},{"bike_id":"7b527f00-f6ea-4963-b59d-8da04a2feedb","system_id":"levelo_inurba_marseille","lat":43.321,"lon":5.40104,"is_reserved":false,"is_disabled":false,"rental_uris":{"android":"levelo://app?vid=7b527f00-f6ea-4963-b59d-8da04a2feedb","ios":"levelo://app?vid=7b527f00-f6ea-4963-b59d-8da04a2feedb"},"vehicle_type_id":"4","last_reported":1751915397,"current_range_meters":9200,"station_id":"","pricing_plan_id":"cebpf4jnsgd1na2vs0mg"},{"bike_id":"376a272f-0645-4651-982c-055db5cf5aa7","system_id":"levelo_inurba_marseille","lat":43.30415,"lon":5.39738,"is_reserved":false,"is_disabled":false,"rental_uris":{"android":"levelo://app?vid=376a272f-0645-4651-982c-055db5cf5aa7","ios":"levelo://app?vid=376a272f-0645-4651-982c-055db5cf5aa7"},"vehicle_type_id":"4","last_reported":1751915397,"current_range_meters":9200,"station_id":"ce4bh092rcd13ifvqd20","pricing_plan_id":"cebpf4jnsgd1na2vs0mg"},{"bike_id":"fce7c4f4-dd99-4b31-9110-14801993ff5f","system_id":"levelo_inurba_marseille","lat":43.21752,"lon":5.34599,"is_reserved":false,"is_disabled":false,"rental_uris":{"android":"levelo://app?vid=fce7c4f4-dd99-4b31-9110-14801993ff5f","ios":"levelo://app?vid=fce7c4f4-dd99-4b31-9110-14801993ff5f"},"vehicle_type_id":"4","last_reported":1751915397,"current_range_meters":9600,"station_id":"","pricing_plan_id":"cebpf4jnsgd1na2vs0mg"},{"bike_id":"88ea42cb-cf0f-4e4a-8442-732645bc4ba5","system_id":"levelo_inurba_marseille","lat":43.3109,"lon":5.36652,"is_reserved":false,"is_disabled":false,"rental_uris":{"android":"levelo://app?vid=88ea42cb-cf0f-4e4a-8442-732645bc4ba5","ios":"levelo://app?vid=88ea42cb-cf0f-4e4a-8442-732645bc4ba5"},"vehicle_type_id":"4","last_reported":1751915397,"current_range_meters":9600,"station_id":"","pricing_plan_id":"cebpf4jnsgd1na2vs0mg"},{"bike_id":"ae8d3fc9-3220-4851-9253-4161220db336","system_id":"levelo_inurba_marseille","lat":43.29007,"lon":5.35614,"is_reserved":false,"is_disabled":false,"rental_uris":{"android":"levelo://app?vid=ae8d3fc9-3220-4851-9253-4161220db336","ios":"levelo://app?vid=ae8d3fc9-3220-4851-9253-4161220db336"},"vehicle_type_id":"4","last_reported":1751915397,"current_range_meters":9600,"station_id":"ce4bhb92rcd13ifvqen0","pricing_plan_id":"cebpf4jnsgd1na2vs0mg"},{"bike_id":"331d046f-200f-4f4c-abd5-ad5345181dca","system_id":"levelo_inurba_marseille","lat":43.3248,"lon":5.36562,"is_reserved":false,"is_disabled":false,"rental_uris":{"android":"levelo://app?vid=331d046f-200f-4f4c-abd5-ad5345181dca","ios":"levelo://app?vid=331d046f-200f-4f4c-abd5-ad5345181dca"},"vehicle_type_id":"4","last_reported":1751915397,"current_range_meters":9600,"station_id":"ce4bhs12rcd13ifvqhvg","pricing_plan_id":"cebpf4jnsgd1na2vs0mg"},{"bike_id":"294cb5d8-db20-4fd9-8822-ee755a1e9bbd","system_id":"levelo_inurba_marseille","lat":43.30358,"lon":5.38588,"is_reserved":false,"is_disabled":false,"rental_uris":{"android":"levelo://app?vid=294cb5d8-db20-4fd9-8822-ee755a1e9bbd","ios":"levelo://app?vid=294cb5d8-db20-4fd9-8822-ee755a1e9bbd"},"vehicle_type_id":"4","last_reported":1751915397,"current_range_meters":10000,"station_id":"","pricing_plan_id":"cebpf4jnsgd1na2vs0mg"},{"bike_id":"06b80433-7d54-4f35-b2b1-1fc174a3bca3","system_id":"levelo_inurba_marseille","lat":43.29775,"lon":5.37105,"is_reserved":false,"is_disabled":false,"rental_uris":{"android":"levelo://app?vid=06b80433-7d54-4f35-b2b1-1fc174a3bca3","ios":"levelo://app?vid=06b80433-7d54-4f35-b2b1-1fc174a3bca3"},"vehicle_type_id":"4","last_reported":1751915397,"current_range_meters":10000,"station_id":"ce4bgop2rcd13ifvqc1g","pricing_plan_id":"cebpf4jnsgd1na2vs0mg"},{"bike_id":"c22e63ad-55e6-457b-a91a-3cb9a6dadc78","system_id":"levelo_inurba_marseille","lat":43.31683,"lon":5.36935,"is_reserved":false,"is_disabled":false,"rental_uris":{"android":"levelo://app?vid=c22e63ad-55e6-457b-a91a-3cb9a6dadc78","ios":"levelo://app?vid=c22e63ad-55e6-457b-a91a-3cb9a6dadc78"},"vehicle_type_id":"4","last_reported":1751915397,"current_range_meters":10000,"station_id":"ce4bgt12rcd13ifvqcd0","pricing_plan_id":"cebpf4jnsgd1na2vs0mg"},{"bike_id":"0fd8bae1-7d1e-4a89-a333-700f6cc271c7","system_id":"levelo_inurba_marseille","lat":43.28417,"lon":5.37494,"is_reserved":false,"is_disabled":false,"rental_uris":{"android":"levelo://app?vid=0fd8bae1-7d1e-4a89-a333-700f6cc271c7","ios":"levelo://app?vid=0fd8bae1-7d1e-4a89-a333-700f6cc271c7"},"vehicle_type_id":"4","last_reported":1751915397,"current_range_meters":10000,"station_id":"ce4bh412rcd13ifvqds0","pricing_plan_id":"cebpf4jnsgd1na2vs0mg"},{"bike_id":"41acf8ca-bb15-49f3-abfc-a06cbf5c5a0c","system_id":"levelo_inurba_marseille","lat":43.25116,"lon":5.40314,"is_reserved":false,"is_disabled":false,"rental_uris":{"android":"levelo://app?vid=41acf8ca-bb15-49f3-abfc-a06cbf5c5a0c","ios":"levelo://app?vid=41acf8ca-bb15-49f3-abfc-a06cbf5c5a0c"},"vehicle_type_id":"4","last_reported":1751915397,"current_range_meters":10000,"station_id":"ce4bhlh2rcd13ifvqgig","pricing_plan_id":"cebpf4jnsgd1na2vs0mg"},{"bike_id":"a8afc920-648c-43e2-b257-e486319c654b","system_id":"levelo_inurba_marseille","lat":43.28722,"lon":5.36085,"is_reserved":false,"is_disabled":false,"rental_uris":{"android":"levelo://app?vid=a8afc920-648c-43e2-b257-e486319c654b","ios":"levelo://app?vid=a8afc920-648c-43e2-b257-e486319c654b"},"vehicle_type_id":"4","last_reported":1751915397,"current_range_meters":10000,"station_id":"cki0cbj6b192h4jlfktg","pricing_plan_id":"cebpf4jnsgd1na2vs0mg"},{"bike_id":"2580a786-ce1f-4713-a838-8bd018c0292c","system_id":"levelo_inurba_marseille","lat":43.29382,"lon":5.3727,"is_reserved":false,"is_disabled":false,"rental_uris":{"android":"levelo://app?vid=2580a786-ce1f-4713-a838-8bd018c0292c","ios":"levelo://app?vid=2580a786-ce1f-4713-a838-8bd018c0292c"},"vehicle_type_id":"4","last_reported":1751915397,"current_range_meters":10800,"station_id":"","pricing_plan_id":"cebpf4jnsgd1na2vs0mg"},{"bike_id":"3b22f952-d0bc-4c00-8fd3-7e27b88aea23","system_id":"levelo_inurba_marseille","lat":43.29659,"lon":5.36245,"is_reserved":false,"is_disabled":false,"rental_uris":{"android":"levelo://app?vid=3b22f952-d0bc-4c00-8fd3-7e27b88aea23","ios":"levelo://app?vid=3b22f952-d0bc-4c00-8fd3-7e27b88aea23"},"vehicle_type_id":"4","last_reported":1751915397,"current_range_meters":10800,"station_id":"","pricing_plan_id":"cebpf4jnsgd1na2vs0mg"},{"bike_id":"bcf1e2fc-38e1-4035-bee2-89d77b73a005","system_id":"levelo_inurba_marseille","lat":43.29622,"lon":5.37719,"is_reserved":false,"is_disabled":false,"rental_uris":{"android":"levelo://app?vid=bcf1e2fc-38e1-4035-bee2-89d77b73a005","ios":"levelo://app?vid=bcf1e2fc-38e1-4035-bee2-89d77b73a005"},"vehicle_type_id":"4","last_reported":1751915397,"current_range_meters":10800,"station_id":"ce4bgi92rcd13ifvqb90","pricing_plan_id":"cebpf4jnsgd1na2vs0mg"},{"bike_id":"75044dde-d363-4948-9102-288c0f54b7ad","system_id":"levelo_inurba_marseille","lat":43.29534,"lon":5.3855,"is_reserved":false,"is_disabled":false,"rental_uris":{"android":"levelo://app?vid=75044dde-d363-4948-9102-288c0f54b7ad","ios":"levelo://app?vid=75044dde-d363-4948-9102-288c0f54b7ad"},"vehicle_type_id":"4","last_reported":1751915397,"current_range_meters":10800,"station_id":"ce4bgih2rcd13ifvqba0","pricing_plan_id":"cebpf4jnsgd1na2vs0mg"},{"bike_id":"c3ace2bc-d9b5-4ab7-b2f1-c7d52962181e","system_id":"levelo_inurba_marseille","lat":43.28,"lon":5.40015,"is_reserved":false,"is_disabled":false,"rental_uris":{"android":"levelo://app?vid=c3ace2bc-d9b5-4ab7-b2f1-c7d52962181e","ios":"levelo://app?vid=c3ace2bc-d9b5-4ab7-b2f1-c7d52962181e"},"vehicle_type_id":"4","last_reported":1751915397,"current_range_meters":10800,"station_id":"ce4bho92rcd13ifvqh4g","pricing_plan_id":"cebpf4jnsgd1na2vs0mg"},{"bike_id":"37f2becd-23f9-4f13-a711-38b8024eeec7","system_id":"levelo_inurba_marseille","lat":43.33768,"lon":5.37516,"is_reserved":false,"is_disabled":false,"rental_uris":{"android":"levelo://app?vid=37f2becd-23f9-4f13-a711-38b8024eeec7","ios":"levelo://app?vid=37f2becd-23f9-4f13-a711-38b8024eeec7"},"vehicle_type_id":"4","last_reported":1751915397,"current_range_meters":11200,"station_id":"","pricing_plan_id":"cebpf4jnsgd1na2vs0mg"},{"bike_id":"2ab24a3b-65a2-4c1b-abc3-9acf251060d8","system_id":"levelo_inurba_marseille","lat":43.299622,"lon":5.384883,"is_reserved":false,"is_disabled":false,"rental_uris":{"android":"levelo://app?vid=2ab24a3b-65a2-4c1b-abc3-9acf251060d8","ios":"levelo://app?vid=2ab24a3b-65a2-4c1b-abc3-9acf251060d8"},"vehicle_type_id":"4","last_reported":1751915397,"current_range_meters":11200,"station_id":"ce4bgj92rcd13ifvqbd0","pricing_plan_id":"cebpf4jnsgd1na2vs0mg"},{"bike_id":"3a11af27-3e25-4dfc-bbac-a943767f6913","system_id":"levelo_inurba_marseille","lat":43.31755,"lon":5.39009,"is_reserved":false,"is_disabled":false,"rental_uris":{"android":"levelo://app?vid=3a11af27-3e25-4dfc-bbac-a943767f6913","ios":"levelo://app?vid=3a11af27-3e25-4dfc-bbac-a943767f6913"},"vehicle_type_id":"4","last_reported":1751915397,"current_range_meters":11200,"station_id":"ce4bhqp2rcd13ifvqhng","pricing_plan_id":"cebpf4jnsgd1na2vs0mg"},{"bike_id":"e87ddf70-1a3d-453e-8b78-e0285305e4aa","system_id":"levelo_inurba_marseille","lat":43.28606,"lon":5.3706,"is_reserved":false,"is_disabled":false,"rental_uris":{"android":"levelo://app?vid=e87ddf70-1a3d-453e-8b78-e0285305e4aa","ios":"levelo://app?vid=e87ddf70-1a3d-453e-8b78-e0285305e4aa"},"vehicle_type_id":"4","last_reported":1751915397,"current_range_meters":11200,"station_id":"ce4bht12rcd13ifvqi60","pricing_plan_id":"cebpf4jnsgd1na2vs0mg"},{"bike_id":"ccc29df5-1113-42b5-b8de-771b9f206409","system_id":"levelo_inurba_marseille","lat":43.26269,"lon":5.3744,"is_reserved":false,"is_disabled":false,"rental_uris":{"android":"levelo://app?vid=ccc29df5-1113-42b5-b8de-771b9f206409","ios":"levelo://app?vid=ccc29df5-1113-42b5-b8de-771b9f206409"},"vehicle_type_id":"4","last_reported":1751915397,"current_range_meters":11600,"station_id":"","pricing_plan_id":"cebpf4jnsgd1na2vs0mg"},{"bike_id":"f9299238-1c1d-47cf-bf88-5d373396acec","system_id":"levelo_inurba_marseille","lat":43.30938,"lon":5.40175,"is_reserved":false,"is_disabled":false,"rental_uris":{"android":"levelo://app?vid=f9299238-1c1d-47cf-bf88-5d373396acec","ios":"levelo://app?vid=f9299238-1c1d-47cf-bf88-5d373396acec"},"vehicle_type_id":"4","last_reported":1751915397,"current_range_meters":11600,"station_id":"ce4bgvp2rcd13ifvqct0","pricing_plan_id":"cebpf4jnsgd1na2vs0mg"},{"bike_id":"35fa55ab-3965-4df4-8549-8ac1f569c4db","system_id":"levelo_inurba_marseille","lat":43.29875,"lon":5.39729,"is_reserved":false,"is_disabled":false,"rental_uris":{"android":"levelo://app?vid=35fa55ab-3965-4df4-8549-8ac1f569c4db","ios":"levelo://app?vid=35fa55ab-3965-4df4-8549-8ac1f569c4db"},"vehicle_type_id":"4","last_reported":1751915397,"current_range_meters":11600,"station_id":"ce4bh0h2rcd13ifvqd50","pricing_plan_id":"cebpf4jnsgd1na2vs0mg"},{"bike_id":"41aac1e1-da46-4910-b692-acc873a5f11a","system_id":"levelo_inurba_marseille","lat":43.29867,"lon":5.39726,"is_reserved":false,"is_disabled":false,"rental_uris":{"android":"levelo://app?vid=41aac1e1-da46-4910-b692-acc873a5f11a","ios":"levelo://app?vid=41aac1e1-da46-4910-b692-acc873a5f11a"},"vehicle_type_id":"4","last_reported":1751915397,"current_range_meters":11600,"station_id":"ce4bh0h2rcd13ifvqd50","pricing_plan_id":"cebpf4jnsgd1na2vs0mg"},{"bike_id":"2c423baa-ecca-420a-87d7-ad0b7e0b9ebb","system_id":"levelo_inurba_marseille","lat":43.28039,"lon":5.35345,"is_reserved":false,"is_disabled":false,"rental_uris":{"android":"levelo://app?vid=2c423baa-ecca-420a-87d7-ad0b7e0b9ebb","ios":"levelo://app?vid=2c423baa-ecca-420a-87d7-ad0b7e0b9ebb"},"vehicle_type_id":"4","last_reported":1751915397,"current_range_meters":12000,"station_id":"","pricing_plan_id":"cebpf4jnsgd1na2vs0mg"},{"bike_id":"1e336ee5-e03e-4dec-a9d1-e3df639a2860","system_id":"levelo_inurba_marseille","lat":43.2952,"lon":5.39041,"is_reserved":false,"is_disabled":false,"rental_uris":{"android":"levelo://app?vid=1e336ee5-e03e-4dec-a9d1-e3df639a2860","ios":"levelo://app?vid=1e336ee5-e03e-4dec-a9d1-e3df639a2860"},"vehicle_type_id":"4","last_reported":1751915397,"current_range_meters":12000,"station_id":"ce4bh3p2rcd13ifvqdp0","pricing_plan_id":"cebpf4jnsgd1na2vs0mg"},{"bike_id":"d941fde0-51e3-4372-abf4-1a7f3fd5b373","system_id":"levelo_inurba_marseille","lat":43.24175,"lon":5.39729,"is_reserved":false,"is_disabled":false,"rental_uris":{"android":"levelo://app?vid=d941fde0-51e3-4372-abf4-1a7f3fd5b373","ios":"levelo://app?vid=d941fde0-51e3-4372-abf4-1a7f3fd5b373"},"vehicle_type_id":"4","last_reported":1751915397,"current_range_meters":12000,"station_id":"ce4bhn12rcd13ifvqgpg","pricing_plan_id":"cebpf4jnsgd1na2vs0mg"},{"bike_id":"d6c3738b-0c9a-4bf4-86f3-5a1899347e98","system_id":"levelo_inurba_marseille","lat":43.32047,"lon":5.4156,"is_reserved":false,"is_disabled":false,"rental_uris":{"android":"levelo://app?vid=d6c3738b-0c9a-4bf4-86f3-5a1899347e98","ios":"levelo://app?vid=d6c3738b-0c9a-4bf4-86f3-5a1899347e98"},"vehicle_type_id":"4","last_reported":1751915397,"current_range_meters":12000,"station_id":"ce4bhq92rcd13ifvqhkg","pricing_plan_id":"cebpf4jnsgd1na2vs0mg"},{"bike_id":"a31d7b1d-f875-4f27-b8f6-640a4ac62493","system_id":"levelo_inurba_marseille","lat":43.337241,"lon":5.391899,"is_reserved":false,"is_disabled":false,"rental_uris":{"android":"levelo://app?vid=a31d7b1d-f875-4f27-b8f6-640a4ac62493","ios":"levelo://app?vid=a31d7b1d-f875-4f27-b8f6-640a4ac62493"},"vehicle_type_id":"4","last_reported":1751915397,"current_range_meters":12000,"station_id":"ce4bhr92rcd13ifvqhsg","pricing_plan_id":"cebpf4jnsgd1na2vs0mg"},{"bike_id":"29102da4-02a2-4f9c-99ed-89cdef887179","system_id":"levelo_inurba_marseille","lat":43.22513,"lon":5.3479,"is_reserved":false,"is_disabled":false,"rental_uris":{"android":"levelo://app?vid=29102da4-02a2-4f9c-99ed-89cdef887179","ios":"levelo://app?vid=29102da4-02a2-4f9c-99ed-89cdef887179"},"vehicle_type_id":"4","last_reported":1751915397,"current_range_meters":12000,"station_id":"st_cvj5dfep6f1abm77gieg","pricing_plan_id":"cebpf4jnsgd1na2vs0mg"},{"bike_id":"a70cfab5-f447-4d61-b80a-343a49825360","system_id":"levelo_inurba_marseille","lat":43.31572,"lon":5.38836,"is_reserved":false,"is_disabled":false,"rental_uris":{"android":"levelo://app?vid=a70cfab5-f447-4d61-b80a-343a49825360","ios":"levelo://app?vid=a70cfab5-f447-4d61-b80a-343a49825360"},"vehicle_type_id":"4","last_reported":1751915397,"current_range_meters":12400,"station_id":"","pricing_plan_id":"cebpf4jnsgd1na2vs0mg"},{"bike_id":"78c65a7f-d308-40b5-accc-8e6897ac9f8a","system_id":"levelo_inurba_marseille","lat":43.30081,"lon":5.37775,"is_reserved":false,"is_disabled":false,"rental_uris":{"android":"levelo://app?vid=78c65a7f-d308-40b5-accc-8e6897ac9f8a","ios":"levelo://app?vid=78c65a7f-d308-40b5-accc-8e6897ac9f8a"},"vehicle_type_id":"4","last_reported":1751915397,"current_range_meters":12400,"station_id":"","pricing_plan_id":"cebpf4jnsgd1na2vs0mg"},{"bike_id":"20c0674d-b5fd-4e8e-88c4-fe181160a0e2","system_id":"levelo_inurba_marseille","lat":43.21752,"lon":5.34591,"is_reserved":false,"is_disabled":false,"rental_uris":{"android":"levelo://app?vid=20c0674d-b5fd-4e8e-88c4-fe181160a0e2","ios":"levelo://app?vid=20c0674d-b5fd-4e8e-88c4-fe181160a0e2"},"vehicle_type_id":"4","last_reported":1751915397,"current_range_meters":12400,"station_id":"st_cvj6r9ubvosntc0bgbag","pricing_plan_id":"cebpf4jnsgd1na2vs0mg"},{"bike_id":"d7e74aff-740c-48a0-bc3b-3164af0af25d","system_id":"levelo_inurba_marseille","lat":43.30599,"lon":5.37226,"is_reserved":false,"is_disabled":false,"rental_uris":{"android":"levelo://app?vid=d7e74aff-740c-48a0-bc3b-3164af0af25d","ios":"levelo://app?vid=d7e74aff-740c-48a0-bc3b-3164af0af25d"},"vehicle_type_id":"4","last_reported":1751915397,"current_range_meters":12800,"station_id":"ce4bgqh2rcd13ifvqc4g","pricing_plan_id":"cebpf4jnsgd1na2vs0mg"},{"bike_id":"796d2c3c-82ca-45b0-874c-3b0d07f69824","system_id":"levelo_inurba_marseille","lat":43.30127,"lon":5.39872,"is_reserved":false,"is_disabled":false,"rental_uris":{"android":"levelo://app?vid=796d2c3c-82ca-45b0-874c-3b0d07f69824","ios":"levelo://app?vid=796d2c3c-82ca-45b0-874c-3b0d07f69824"},"vehicle_type_id":"4","last_reported":1751915397,"current_range_meters":12800,"station_id":"ce4bh0h2rcd13ifvqd40","pricing_plan_id":"cebpf4jnsgd1na2vs0mg"},{"bike_id":"4f74523f-a26f-4e2f-b452-87ecac57b18c","system_id":"levelo_inurba_marseille","lat":43.28411,"lon":5.37515,"is_reserved":false,"is_disabled":false,"rental_uris":{"android":"levelo://app?vid=4f74523f-a26f-4e2f-b452-87ecac57b18c","ios":"levelo://app?vid=4f74523f-a26f-4e2f-b452-87ecac57b18c"},"vehicle_type_id":"4","last_reported":1751915397,"current_range_meters":12800,"station_id":"ce4bh412rcd13ifvqds0","pricing_plan_id":"cebpf4jnsgd1na2vs0mg"},{"bike_id":"811d479f-3524-481c-bd23-2f8975169585","system_id":"levelo_inurba_marseille","lat":43.25729,"lon":5.41104,"is_reserved":false,"is_disabled":false,"rental_uris":{"android":"levelo://app?vid=811d479f-3524-481c-bd23-2f8975169585","ios":"levelo://app?vid=811d479f-3524-481c-bd23-2f8975169585"},"vehicle_type_id":"4","last_reported":1751915397,"current_range_meters":12800,"station_id":"ce4bhkp2rcd13ifvqgd0","pricing_plan_id":"cebpf4jnsgd1na2vs0mg"},{"bike_id":"218d1f16-f8a8-4528-8407-4c84f38a7294","system_id":"levelo_inurba_marseille","lat":43.31087,"lon":5.4244,"is_reserved":false,"is_disabled":false,"rental_uris":{"android":"levelo://app?vid=218d1f16-f8a8-4528-8407-4c84f38a7294","ios":"levelo://app?vid=218d1f16-f8a8-4528-8407-4c84f38a7294"},"vehicle_type_id":"4","last_reported":1751915397,"current_range_meters":12800,"station_id":"ce4bhp92rcd13ifvqhag","pricing_plan_id":"cebpf4jnsgd1na2vs0mg"},{"bike_id":"33f81a93-a2a0-48f8-ac54-078601f4600d","system_id":"levelo_inurba_marseille","lat":43.30933,"lon":5.40145,"is_reserved":false,"is_disabled":false,"rental_uris":{"android":"levelo://app?vid=33f81a93-a2a0-48f8-ac54-078601f4600d","ios":"levelo://app?vid=33f81a93-a2a0-48f8-ac54-078601f4600d"},"vehicle_type_id":"4","last_reported":1751915397,"current_range_meters":13600,"station_id":"ce4bgvp2rcd13ifvqct0","pricing_plan_id":"cebpf4jnsgd1na2vs0mg"},{"bike_id":"9a835e01-725b-41f5-8a1c-1a4de65a16a4","system_id":"levelo_inurba_marseille","lat":43.28031,"lon":5.36925,"is_reserved":false,"is_disabled":false,"rental_uris":{"android":"levelo://app?vid=9a835e01-725b-41f5-8a1c-1a4de65a16a4","ios":"levelo://app?vid=9a835e01-725b-41f5-8a1c-1a4de65a16a4"},"vehicle_type_id":"4","last_reported":1751915397,"current_range_meters":13600,"station_id":"ce4bha12rcd13ifvqef0","pricing_plan_id":"cebpf4jnsgd1na2vs0mg"},{"bike_id":"debde6da-fc8e-4c89-83d6-80f3b93d8de1","system_id":"levelo_inurba_marseille","lat":43.26676,"lon":5.38265,"is_reserved":false,"is_disabled":false,"rental_uris":{"android":"levelo://app?vid=debde6da-fc8e-4c89-83d6-80f3b93d8de1","ios":"levelo://app?vid=debde6da-fc8e-4c89-83d6-80f3b93d8de1"},"vehicle_type_id":"4","last_reported":1751915397,"current_range_meters":13600,"station_id":"ce4bhg92rcd13ifvqf90","pricing_plan_id":"cebpf4jnsgd1na2vs0mg"},{"bike_id":"7137264e-d47d-4493-95ae-4ec61510338c","system_id":"levelo_inurba_marseille","lat":43.25,"lon":5.38931,"is_reserved":false,"is_disabled":false,"rental_uris":{"android":"levelo://app?vid=7137264e-d47d-4493-95ae-4ec61510338c","ios":"levelo://app?vid=7137264e-d47d-4493-95ae-4ec61510338c"},"vehicle_type_id":"4","last_reported":1751915397,"current_range_meters":13600,"station_id":"ce4bhgp2rcd13ifvqfd0","pricing_plan_id":"cebpf4jnsgd1na2vs0mg"},{"bike_id":"072aef18-8c4c-41ca-9032-1b5fba7539b3","system_id":"levelo_inurba_marseille","lat":43.31992,"lon":5.36752,"is_reserved":false,"is_disabled":false,"rental_uris":{"android":"levelo://app?vid=072aef18-8c4c-41ca-9032-1b5fba7539b3","ios":"levelo://app?vid=072aef18-8c4c-41ca-9032-1b5fba7539b3"},"vehicle_type_id":"4","last_reported":1751915397,"current_range_meters":13600,"station_id":"ce4bhrh2rcd13ifvqhug","pricing_plan_id":"cebpf4jnsgd1na2vs0mg"},{"bike_id":"aebe40ff-e84b-4093-9199-5df7043b3910","system_id":"levelo_inurba_marseille","lat":43.276166,"lon":5.360995,"is_reserved":false,"is_disabled":false,"rental_uris":{"android":"levelo://app?vid=aebe40ff-e84b-4093-9199-5df7043b3910","ios":"levelo://app?vid=aebe40ff-e84b-4093-9199-5df7043b3910"},"vehicle_type_id":"4","last_reported":1751915397,"current_range_meters":14000,"station_id":"ce4bgj92rcd13ifvqbe0","pricing_plan_id":"cebpf4jnsgd1na2vs0mg"},{"bike_id":"33497ed3-5c7d-4620-a84a-eaf8c6249269","system_id":"levelo_inurba_marseille","lat":43.30428,"lon":5.39739,"is_reserved":false,"is_disabled":false,"rental_uris":{"android":"levelo://app?vid=33497ed3-5c7d-4620-a84a-eaf8c6249269","ios":"levelo://app?vid=33497ed3-5c7d-4620-a84a-eaf8c6249269"},"vehicle_type_id":"4","last_reported":1751915397,"current_range_meters":14000,"station_id":"ce4bh092rcd13ifvqd20","pricing_plan_id":"cebpf4jnsgd1na2vs0mg"},{"bike_id":"a50a7cb4-3f39-45f0-bf31-fa0e8126d200","system_id":"levelo_inurba_marseille","lat":43.29225,"lon":5.3606,"is_reserved":false,"is_disabled":false,"rental_uris":{"android":"levelo://app?vid=a50a7cb4-3f39-45f0-bf31-fa0e8126d200","ios":"levelo://app?vid=a50a7cb4-3f39-45f0-bf31-fa0e8126d200"},"vehicle_type_id":"4","last_reported":1751915397,"current_range_meters":14000,"station_id":"ce4bhbh2rcd13ifvqeqg","pricing_plan_id":"cebpf4jnsgd1na2vs0mg"},{"bike_id":"8f13d38c-0510-4eaa-986c-62ae1fef2b49","system_id":"levelo_inurba_marseille","lat":43.28613,"lon":5.35119,"is_reserved":false,"is_disabled":false,"rental_uris":{"android":"levelo://app?vid=8f13d38c-0510-4eaa-986c-62ae1fef2b49","ios":"levelo://app?vid=8f13d38c-0510-4eaa-986c-62ae1fef2b49"},"vehicle_type_id":"4","last_reported":1751915397,"current_range_meters":14000,"station_id":"ce4bhch2rcd13ifvqeug","pricing_plan_id":"cebpf4jnsgd1na2vs0mg"},{"bike_id":"bd1874bf-e30a-482e-a165-63d599b3ee06","system_id":"levelo_inurba_marseille","lat":43.29538,"lon":5.40067,"is_reserved":false,"is_disabled":false,"rental_uris":{"android":"levelo://app?vid=bd1874bf-e30a-482e-a165-63d599b3ee06","ios":"levelo://app?vid=bd1874bf-e30a-482e-a165-63d599b3ee06"},"vehicle_type_id":"4","last_reported":1751915397,"current_range_meters":14400,"station_id":"","pricing_plan_id":"cebpf4jnsgd1na2vs0mg"},{"bike_id":"4a3154ac-3048-463e-9c11-90185238f36f","system_id":"levelo_inurba_marseille","lat":43.30132,"lon":5.39869,"is_reserved":false,"is_disabled":false,"rental_uris":{"android":"levelo://app?vid=4a3154ac-3048-463e-9c11-90185238f36f","ios":"levelo://app?vid=4a3154ac-3048-463e-9c11-90185238f36f"},"vehicle_type_id":"4","last_reported":1751915397,"current_range_meters":14400,"station_id":"ce4bh0h2rcd13ifvqd40","pricing_plan_id":"cebpf4jnsgd1na2vs0mg"},{"bike_id":"643bf0ec-a742-46d8-b1b6-88cdec4fb98f","system_id":"levelo_inurba_marseille","lat":43.29004,"lon":5.35602,"is_reserved":false,"is_disabled":false,"rental_uris":{"android":"levelo://app?vid=643bf0ec-a742-46d8-b1b6-88cdec4fb98f","ios":"levelo://app?vid=643bf0ec-a742-46d8-b1b6-88cdec4fb98f"},"vehicle_type_id":"4","last_reported":1751915397,"current_range_meters":14400,"station_id":"ce4bhb92rcd13ifvqen0","pricing_plan_id":"cebpf4jnsgd1na2vs0mg"},{"bike_id":"e79346c8-86fc-4daa-86ef-e1e68b65043e","system_id":"levelo_inurba_marseille","lat":43.24084,"lon":5.37754,"is_reserved":false,"is_disabled":false,"rental_uris":{"android":"levelo://app?vid=e79346c8-86fc-4daa-86ef-e1e68b65043e","ios":"levelo://app?vid=e79346c8-86fc-4daa-86ef-e1e68b65043e"},"vehicle_type_id":"4","last_reported":1751915397,"current_range_meters":14400,"station_id":"ce4bhnp2rcd13ifvqgvg","pricing_plan_id":"cebpf4jnsgd1na2vs0mg"},{"bike_id":"14848200-7a92-4aba-aa9b-67d638b0cd36","system_id":"levelo_inurba_marseille","lat":43.26941,"lon":5.40273,"is_reserved":false,"is_disabled":false,"rental_uris":{"android":"levelo://app?vid=14848200-7a92-4aba-aa9b-67d638b0cd36","ios":"levelo://app?vid=14848200-7a92-4aba-aa9b-67d638b0cd36"},"vehicle_type_id":"4","last_reported":1751915397,"current_range_meters":14400,"station_id":"cjm6bp8fraef2m0cb0m0","pricing_plan_id":"cebpf4jnsgd1na2vs0mg"},{"bike_id":"00d86da3-e475-47a0-8641-e53ca1239c8b","system_id":"levelo_inurba_marseille","lat":43.29679,"lon":5.37275,"is_reserved":false,"is_disabled":false,"rental_uris":{"android":"levelo://app?vid=00d86da3-e475-47a0-8641-e53ca1239c8b","ios":"levelo://app?vid=00d86da3-e475-47a0-8641-e53ca1239c8b"},"vehicle_type_id":"4","last_reported":1751915397,"current_range_meters":14800,"station_id":"ce4bgk12rcd13ifvqbj0","pricing_plan_id":"cebpf4jnsgd1na2vs0mg"},{"bike_id":"59b75db7-5ea6-4ffd-bac2-0c221b3f372a","system_id":"levelo_inurba_marseille","lat":43.28725,"lon":5.37932,"is_reserved":false,"is_disabled":false,"rental_uris":{"android":"levelo://app?vid=59b75db7-5ea6-4ffd-bac2-0c221b3f372a","ios":"levelo://app?vid=59b75db7-5ea6-4ffd-bac2-0c221b3f372a"},"vehicle_type_id":"4","last_reported":1751915397,"current_range_meters":14800,"station_id":"ce4bh9p2rcd13ifvqec0","pricing_plan_id":"cebpf4jnsgd1na2vs0mg"},{"bike_id":"7f189570-d86b-4e22-b750-cde58fa14537","system_id":"levelo_inurba_marseille","lat":43.28413,"lon":5.34983,"is_reserved":false,"is_disabled":false,"rental_uris":{"android":"levelo://app?vid=7f189570-d86b-4e22-b750-cde58fa14537","ios":"levelo://app?vid=7f189570-d86b-4e22-b750-cde58fa14537"},"vehicle_type_id":"4","last_reported":1751915397,"current_range_meters":14800,"station_id":"ce4bhbh2rcd13ifvqepg","pricing_plan_id":"cebpf4jnsgd1na2vs0mg"},{"bike_id":"942a983a-7094-47d3-97b7-ba4ab853d965","system_id":"levelo_inurba_marseille","lat":43.2707,"lon":5.42269,"is_reserved":false,"is_disabled":false,"rental_uris":{"android":"levelo://app?vid=942a983a-7094-47d3-97b7-ba4ab853d965","ios":"levelo://app?vid=942a983a-7094-47d3-97b7-ba4ab853d965"},"vehicle_type_id":"4","last_reported":1751915397,"current_range_meters":14800,"station_id":"ce4bhk92rcd13ifvqgb0","pricing_plan_id":"cebpf4jnsgd1na2vs0mg"},{"bike_id":"5eace689-684d-4f7d-8bf9-3ba5b450ebdc","system_id":"levelo_inurba_marseille","lat":43.29534,"lon":5.38548,"is_reserved":false,"is_disabled":false,"rental_uris":{"android":"levelo://app?vid=5eace689-684d-4f7d-8bf9-3ba5b450ebdc","ios":"levelo://app?vid=5eace689-684d-4f7d-8bf9-3ba5b450ebdc"},"vehicle_type_id":"4","last_reported":1751915397,"current_range_meters":15200,"station_id":"ce4bgih2rcd13ifvqba0","pricing_plan_id":"cebpf4jnsgd1na2vs0mg"},{"bike_id":"82dc7477-d23f-4fe2-8763-1826918122f6","system_id":"levelo_inurba_marseille","lat":43.2803,"lon":5.36924,"is_reserved":false,"is_disabled":false,"rental_uris":{"android":"levelo://app?vid=82dc7477-d23f-4fe2-8763-1826918122f6","ios":"levelo://app?vid=82dc7477-d23f-4fe2-8763-1826918122f6"},"vehicle_type_id":"4","last_reported":1751915397,"current_range_meters":15200,"station_id":"ce4bha12rcd13ifvqef0","pricing_plan_id":"cebpf4jnsgd1na2vs0mg"},{"bike_id":"ee48f0e0-2efc-4007-86c7-16994a61d9e5","system_id":"levelo_inurba_marseille","lat":43.28613,"lon":5.35103,"is_reserved":false,"is_disabled":false,"rental_uris":{"android":"levelo://app?vid=ee48f0e0-2efc-4007-86c7-16994a61d9e5","ios":"levelo://app?vid=ee48f0e0-2efc-4007-86c7-16994a61d9e5"},"vehicle_type_id":"4","last_reported":1751915397,"current_range_meters":15200,"station_id":"ce4bhch2rcd13ifvqeug","pricing_plan_id":"cebpf4jnsgd1na2vs0mg"},{"bike_id":"e0792193-1845-48bc-8a33-0d60dda98d41","system_id":"levelo_inurba_marseille","lat":43.28622,"lon":5.35092,"is_reserved":false,"is_disabled":false,"rental_uris":{"android":"levelo://app?vid=e0792193-1845-48bc-8a33-0d60dda98d41","ios":"levelo://app?vid=e0792193-1845-48bc-8a33-0d60dda98d41"},"vehicle_type_id":"4","last_reported":1751915397,"current_range_meters":15200,"station_id":"ce4bhch2rcd13ifvqeug","pricing_plan_id":"cebpf4jnsgd1na2vs0mg"},{"bike_id":"c2ee7d66-374b-44cd-b9d7-9ad64301293b","system_id":"levelo_inurba_marseille","lat":43.22505,"lon":5.34772,"is_reserved":false,"is_disabled":false,"rental_uris":{"android":"levelo://app?vid=c2ee7d66-374b-44cd-b9d7-9ad64301293b","ios":"levelo://app?vid=c2ee7d66-374b-44cd-b9d7-9ad64301293b"},"vehicle_type_id":"4","last_reported":1751915397,"current_range_meters":15200,"station_id":"st_cvj5dfep6f1abm77gieg","pricing_plan_id":"cebpf4jnsgd1na2vs0mg"},{"bike_id":"0a54a6fe-1efb-4eb9-a789-1ad738235b96","system_id":"levelo_inurba_marseille","lat":43.29529,"lon":5.38532,"is_reserved":false,"is_disabled":false,"rental_uris":{"android":"levelo://app?vid=0a54a6fe-1efb-4eb9-a789-1ad738235b96","ios":"levelo://app?vid=0a54a6fe-1efb-4eb9-a789-1ad738235b96"},"vehicle_type_id":"4","last_reported":1751915397,"current_range_meters":16000,"station_id":"ce4bgih2rcd13ifvqba0","pricing_plan_id":"cebpf4jnsgd1na2vs0mg"},{"bike_id":"c3ada3f1-ddde-4bf5-8936-f4ee5b898c22","system_id":"levelo_inurba_marseille","lat":43.2763,"lon":5.36109,"is_reserved":false,"is_disabled":false,"rental_uris":{"android":"levelo://app?vid=c3ada3f1-ddde-4bf5-8936-f4ee5b898c22","ios":"levelo://app?vid=c3ada3f1-ddde-4bf5-8936-f4ee5b898c22"},"vehicle_type_id":"4","last_reported":1751915397,"current_range_meters":16000,"station_id":"ce4bgj92rcd13ifvqbe0","pricing_plan_id":"cebpf4jnsgd1na2vs0mg"},{"bike_id":"f65e405d-6194-460e-9fb0-6590539d22b9","system_id":"levelo_inurba_marseille","lat":43.28716,"lon":5.37936,"is_reserved":false,"is_disabled":false,"rental_uris":{"android":"levelo://app?vid=f65e405d-6194-460e-9fb0-6590539d22b9","ios":"levelo://app?vid=f65e405d-6194-460e-9fb0-6590539d22b9"},"vehicle_type_id":"4","last_reported":1751915397,"current_range_meters":16000,"station_id":"ce4bh9p2rcd13ifvqec0","pricing_plan_id":"cebpf4jnsgd1na2vs0mg"},{"bike_id":"d83608bb-4437-43c9-8764-6af0d6d7dccf","system_id":"levelo_inurba_marseille","lat":43.28846,"lon":5.35859,"is_reserved":false,"is_disabled":false,"rental_uris":{"android":"levelo://app?vid=d83608bb-4437-43c9-8764-6af0d6d7dccf","ios":"levelo://app?vid=d83608bb-4437-43c9-8764-6af0d6d7dccf"},"vehicle_type_id":"4","last_reported":1751915397,"current_range_meters":16000,"station_id":"ce4bhb12rcd13ifvqem0","pricing_plan_id":"cebpf4jnsgd1na2vs0mg"},{"bike_id":"476a6051-92e6-4497-b1e3-27260c4929e4","system_id":"levelo_inurba_marseille","lat":43.25005,"lon":5.38912,"is_reserved":false,"is_disabled":false,"rental_uris":{"android":"levelo://app?vid=476a6051-92e6-4497-b1e3-27260c4929e4","ios":"levelo://app?vid=476a6051-92e6-4497-b1e3-27260c4929e4"},"vehicle_type_id":"4","last_reported":1751915397,"current_range_meters":16000,"station_id":"ce4bhgp2rcd13ifvqfd0","pricing_plan_id":"cebpf4jnsgd1na2vs0mg"},{"bike_id":"4c4d4b94-5832-431b-a6a4-1addce77dff7","system_id":"levelo_inurba_marseille","lat":43.24396,"lon":5.37074,"is_reserved":false,"is_disabled":false,"rental_uris":{"android":"levelo://app?vid=4c4d4b94-5832-431b-a6a4-1addce77dff7","ios":"levelo://app?vid=4c4d4b94-5832-431b-a6a4-1addce77dff7"},"vehicle_type_id":"4","last_reported":1751915397,"current_range_meters":16000,"station_id":"ce4bhhh2rcd13ifvqfk0","pricing_plan_id":"cebpf4jnsgd1na2vs0mg"},{"bike_id":"2090512e-543d-4a55-b888-2423e2f84234","system_id":"levelo_inurba_marseille","lat":43.24068,"lon":5.37741,"is_reserved":false,"is_disabled":false,"rental_uris":{"android":"levelo://app?vid=2090512e-543d-4a55-b888-2423e2f84234","ios":"levelo://app?vid=2090512e-543d-4a55-b888-2423e2f84234"},"vehicle_type_id":"4","last_reported":1751915397,"current_range_meters":16000,"station_id":"ce4bhnp2rcd13ifvqgvg","pricing_plan_id":"cebpf4jnsgd1na2vs0mg"},{"bike_id":"bac13eb2-75b6-43a2-8750-65111fd6394f","system_id":"levelo_inurba_marseille","lat":43.32104,"lon":5.36777,"is_reserved":false,"is_disabled":false,"rental_uris":{"android":"levelo://app?vid=bac13eb2-75b6-43a2-8750-65111fd6394f","ios":"levelo://app?vid=bac13eb2-75b6-43a2-8750-65111fd6394f"},"vehicle_type_id":"4","last_reported":1751915397,"current_range_meters":16000,"station_id":"ce4bhrh2rcd13ifvqhug","pricing_plan_id":"cebpf4jnsgd1na2vs0mg"},{"bike_id":"9bfc7d3d-4e60-4f8a-9c32-ef3d0e77ec5b","system_id":"levelo_inurba_marseille","lat":43.21194,"lon":5.35044,"is_reserved":false,"is_disabled":false,"rental_uris":{"android":"levelo://app?vid=9bfc7d3d-4e60-4f8a-9c32-ef3d0e77ec5b","ios":"levelo://app?vid=9bfc7d3d-4e60-4f8a-9c32-ef3d0e77ec5b"},"vehicle_type_id":"4","last_reported":1751915397,"current_range_meters":16000,"station_id":"st_cvj6sg6p6f1abm77japg","pricing_plan_id":"cebpf4jnsgd1na2vs0mg"},{"bike_id":"6ffc31bf-be63-440b-8353-4ff83386083b","system_id":"levelo_inurba_marseille","lat":43.29844,"lon":5.36401,"is_reserved":false,"is_disabled":false,"rental_uris":{"android":"levelo://app?vid=6ffc31bf-be63-440b-8353-4ff83386083b","ios":"levelo://app?vid=6ffc31bf-be63-440b-8353-4ff83386083b"},"vehicle_type_id":"4","last_reported":1751915397,"current_range_meters":16400,"station_id":"","pricing_plan_id":"cebpf4jnsgd1na2vs0mg"},{"bike_id":"f8865810-9997-4d13-80b8-fd4d9a8f09e7","system_id":"levelo_inurba_marseille","lat":43.29296,"lon":5.3717,"is_reserved":false,"is_disabled":false,"rental_uris":{"android":"levelo://app?vid=f8865810-9997-4d13-80b8-fd4d9a8f09e7","ios":"levelo://app?vid=f8865810-9997-4d13-80b8-fd4d9a8f09e7"},"vehicle_type_id":"4","last_reported":1751915397,"current_range_meters":16400,"station_id":"ce4bgh92rcd13ifvqb40","pricing_plan_id":"cebpf4jnsgd1na2vs0mg"},{"bike_id":"14eda378-5e1f-4a7e-9133-2bfcaf43f3b2","system_id":"levelo_inurba_marseille","lat":43.29527,"lon":5.38545,"is_reserved":false,"is_disabled":false,"rental_uris":{"android":"levelo://app?vid=14eda378-5e1f-4a7e-9133-2bfcaf43f3b2","ios":"levelo://app?vid=14eda378-5e1f-4a7e-9133-2bfcaf43f3b2"},"vehicle_type_id":"4","last_reported":1751915397,"current_range_meters":16400,"station_id":"ce4bgih2rcd13ifvqba0","pricing_plan_id":"cebpf4jnsgd1na2vs0mg"},{"bike_id":"ae063a66-86c8-4dbf-85fb-211b53656a78","system_id":"levelo_inurba_marseille","lat":43.30791,"lon":5.37646,"is_reserved":false,"is_disabled":false,"rental_uris":{"android":"levelo://app?vid=ae063a66-86c8-4dbf-85fb-211b53656a78","ios":"levelo://app?vid=ae063a66-86c8-4dbf-85fb-211b53656a78"},"vehicle_type_id":"4","last_reported":1751915397,"current_range_meters":16400,"station_id":"ce4bgv92rcd13ifvqcq0","pricing_plan_id":"cebpf4jnsgd1na2vs0mg"},{"bike_id":"593b65f5-5d8e-4ba1-8e42-c2b1facb5061","system_id":"levelo_inurba_marseille","lat":43.29265,"lon":5.38436,"is_reserved":false,"is_disabled":false,"rental_uris":{"android":"levelo://app?vid=593b65f5-5d8e-4ba1-8e42-c2b1facb5061","ios":"levelo://app?vid=593b65f5-5d8e-4ba1-8e42-c2b1facb5061"},"vehicle_type_id":"4","last_reported":1751915397,"current_range_meters":16400,"station_id":"ce4bh692rcd13ifvqea0","pricing_plan_id":"cebpf4jnsgd1na2vs0mg"},{"bike_id":"cf6840db-4b7a-47c2-8068-00d21969f468","system_id":"levelo_inurba_marseille","lat":43.28461,"lon":5.35878,"is_reserved":false,"is_disabled":false,"rental_uris":{"android":"levelo://app?vid=cf6840db-4b7a-47c2-8068-00d21969f468","ios":"levelo://app?vid=cf6840db-4b7a-47c2-8068-00d21969f468"},"vehicle_type_id":"4","last_reported":1751915397,"current_range_meters":16400,"station_id":"ce4bhah2rcd13ifvqei0","pricing_plan_id":"cebpf4jnsgd1na2vs0mg"},{"bike_id":"fe7ecf40-9aa5-4d9b-9a98-8637aadd6e83","system_id":"levelo_inurba_marseille","lat":43.21751,"lon":5.34615,"is_reserved":false,"is_disabled":false,"rental_uris":{"android":"levelo://app?vid=fe7ecf40-9aa5-4d9b-9a98-8637aadd6e83","ios":"levelo://app?vid=fe7ecf40-9aa5-4d9b-9a98-8637aadd6e83"},"vehicle_type_id":"4","last_reported":1751915397,"current_range_meters":16400,"station_id":"st_cvj6r9ubvosntc0bgbag","pricing_plan_id":"cebpf4jnsgd1na2vs0mg"},{"bike_id":"43d0a216-171e-45fe-88be-8650fec68cf8","system_id":"levelo_inurba_marseille","lat":43.21194,"lon":5.35058,"is_reserved":false,"is_disabled":false,"rental_uris":{"android":"levelo://app?vid=43d0a216-171e-45fe-88be-8650fec68cf8","ios":"levelo://app?vid=43d0a216-171e-45fe-88be-8650fec68cf8"},"vehicle_type_id":"4","last_reported":1751915397,"current_range_meters":16400,"station_id":"st_cvj6sg6p6f1abm77japg","pricing_plan_id":"cebpf4jnsgd1na2vs0mg"},{"bike_id":"6a3a3e65-1839-43d5-b574-3a73e4e32dac","system_id":"levelo_inurba_marseille","lat":43.32321,"lon":5.3887,"is_reserved":false,"is_disabled":false,"rental_uris":{"android":"levelo://app?vid=6a3a3e65-1839-43d5-b574-3a73e4e32dac","ios":"levelo://app?vid=6a3a3e65-1839-43d5-b574-3a73e4e32dac"},"vehicle_type_id":"4","last_reported":1751915397,"current_range_meters":16800,"station_id":"","pricing_plan_id":"cebpf4jnsgd1na2vs0mg"},{"bike_id":"fb5a6163-ab29-4ba5-bb6f-2eaa6a482950","system_id":"levelo_inurba_marseille","lat":43.286623,"lon":5.386768,"is_reserved":false,"is_disabled":false,"rental_uris":{"android":"levelo://app?vid=fb5a6163-ab29-4ba5-bb6f-2eaa6a482950","ios":"levelo://app?vid=fb5a6163-ab29-4ba5-bb6f-2eaa6a482950"},"vehicle_type_id":"4","last_reported":1751915397,"current_range_meters":16800,"station_id":"ce4bh492rcd13ifvqdug","pricing_plan_id":"cebpf4jnsgd1na2vs0mg"},{"bike_id":"7d8ec08a-1dba-454a-ad92-fea1080ab788","system_id":"levelo_inurba_marseille","lat":43.29269,"lon":5.38444,"is_reserved":false,"is_disabled":false,"rental_uris":{"android":"levelo://app?vid=7d8ec08a-1dba-454a-ad92-fea1080ab788","ios":"levelo://app?vid=7d8ec08a-1dba-454a-ad92-fea1080ab788"},"vehicle_type_id":"4","last_reported":1751915397,"current_range_meters":16800,"station_id":"ce4bh692rcd13ifvqea0","pricing_plan_id":"cebpf4jnsgd1na2vs0mg"},{"bike_id":"ed1a9846-3be7-46cb-aef4-82b779b7c551","system_id":"levelo_inurba_marseille","lat":43.29787,"lon":5.39346,"is_reserved":false,"is_disabled":false,"rental_uris":{"android":"levelo://app?vid=ed1a9846-3be7-46cb-aef4-82b779b7c551","ios":"levelo://app?vid=ed1a9846-3be7-46cb-aef4-82b779b7c551"},"vehicle_type_id":"4","last_reported":1751915397,"current_range_meters":16800,"station_id":"chh1huq6cuj3fo74tm60","pricing_plan_id":"cebpf4jnsgd1na2vs0mg"},{"bike_id":"47504bfd-399a-4889-acd8-b9a1331dcb3c","system_id":"levelo_inurba_marseille","lat":43.30736,"lon":5.42436,"is_reserved":false,"is_disabled":false,"rental_uris":{"android":"levelo://app?vid=47504bfd-399a-4889-acd8-b9a1331dcb3c","ios":"levelo://app?vid=47504bfd-399a-4889-acd8-b9a1331dcb3c"},"vehicle_type_id":"4","last_reported":1751915397,"current_range_meters":16800,"station_id":"st_cvj6ca6bvosntc0bfgr0","pricing_plan_id":"cebpf4jnsgd1na2vs0mg"},{"bike_id":"64b4fa4f-0779-4ed7-89cb-2e78d143f36e","system_id":"levelo_inurba_marseille","lat":43.21755,"lon":5.34572,"is_reserved":false,"is_disabled":false,"rental_uris":{"android":"levelo://app?vid=64b4fa4f-0779-4ed7-89cb-2e78d143f36e","ios":"levelo://app?vid=64b4fa4f-0779-4ed7-89cb-2e78d143f36e"},"vehicle_type_id":"4","last_reported":1751915397,"current_range_meters":16800,"station_id":"st_cvj6r9ubvosntc0bgbag","pricing_plan_id":"cebpf4jnsgd1na2vs0mg"},{"bike_id":"427cea64-fc3b-46a4-bd25-2bad84cd1642","system_id":"levelo_inurba_marseille","lat":43.21181,"lon":5.35094,"is_reserved":false,"is_disabled":false,"rental_uris":{"android":"levelo://app?vid=427cea64-fc3b-46a4-bd25-2bad84cd1642","ios":"levelo://app?vid=427cea64-fc3b-46a4-bd25-2bad84cd1642"},"vehicle_type_id":"4","last_reported":1751915397,"current_range_meters":16800,"station_id":"st_cvj6sg6p6f1abm77japg","pricing_plan_id":"cebpf4jnsgd1na2vs0mg"},{"bike_id":"888522e3-39b6-4ff3-ad74-ff6c6f771157","system_id":"levelo_inurba_marseille","lat":43.29492,"lon":5.40267,"is_reserved":false,"is_disabled":false,"rental_uris":{"android":"levelo://app?vid=888522e3-39b6-4ff3-ad74-ff6c6f771157","ios":"levelo://app?vid=888522e3-39b6-4ff3-ad74-ff6c6f771157"},"vehicle_type_id":"4","last_reported":1751915397,"current_range_meters":17200,"station_id":"","pricing_plan_id":"cebpf4jnsgd1na2vs0mg"},{"bike_id":"4678e57b-3974-4a90-881b-cfd46388d567","system_id":"levelo_inurba_marseille","lat":43.29876,"lon":5.38906,"is_reserved":false,"is_disabled":false,"rental_uris":{"android":"levelo://app?vid=4678e57b-3974-4a90-881b-cfd46388d567","ios":"levelo://app?vid=4678e57b-3974-4a90-881b-cfd46388d567"},"vehicle_type_id":"4","last_reported":1751915397,"current_range_meters":17200,"station_id":"ce4bh392rcd13ifvqdl0","pricing_plan_id":"cebpf4jnsgd1na2vs0mg"},{"bike_id":"86a1300d-a610-4541-92ef-48f124fb320d","system_id":"levelo_inurba_marseille","lat":43.26562,"lon":5.39014,"is_reserved":false,"is_disabled":false,"rental_uris":{"android":"levelo://app?vid=86a1300d-a610-4541-92ef-48f124fb320d","ios":"levelo://app?vid=86a1300d-a610-4541-92ef-48f124fb320d"},"vehicle_type_id":"4","last_reported":1751915397,"current_range_meters":17200,"station_id":"ce4bhe12rcd13ifvqf30","pricing_plan_id":"cebpf4jnsgd1na2vs0mg"},{"bike_id":"762784bc-76e0-4220-961c-3afad064fde2","system_id":"levelo_inurba_marseille","lat":43.32084,"lon":5.36771,"is_reserved":false,"is_disabled":false,"rental_uris":{"android":"levelo://app?vid=762784bc-76e0-4220-961c-3afad064fde2","ios":"levelo://app?vid=762784bc-76e0-4220-961c-3afad064fde2"},"vehicle_type_id":"4","last_reported":1751915397,"current_range_meters":17200,"station_id":"ce4bhrh2rcd13ifvqhug","pricing_plan_id":"cebpf4jnsgd1na2vs0mg"},{"bike_id":"d5ef770d-9759-47e3-b3a5-7d2785ef76db","system_id":"levelo_inurba_marseille","lat":43.32929,"lon":5.39031,"is_reserved":false,"is_disabled":false,"rental_uris":{"android":"levelo://app?vid=d5ef770d-9759-47e3-b3a5-7d2785ef76db","ios":"levelo://app?vid=d5ef770d-9759-47e3-b3a5-7d2785ef76db"},"vehicle_type_id":"4","last_reported":1751915397,"current_range_meters":17600,"station_id":"","pricing_plan_id":"cebpf4jnsgd1na2vs0mg"},{"bike_id":"afd2c671-b274-4716-95f7-9abfdfc6dc55","system_id":"levelo_inurba_marseille","lat":43.31523,"lon":5.37432,"is_reserved":false,"is_disabled":false,"rental_uris":{"android":"levelo://app?vid=afd2c671-b274-4716-95f7-9abfdfc6dc55","ios":"levelo://app?vid=afd2c671-b274-4716-95f7-9abfdfc6dc55"},"vehicle_type_id":"4","last_reported":1751915397,"current_range_meters":17600,"station_id":"","pricing_plan_id":"cebpf4jnsgd1na2vs0mg"},{"bike_id":"9db15efa-62b5-43dc-beab-14a16c0840b9","system_id":"levelo_inurba_marseille","lat":43.304524,"lon":5.415534,"is_reserved":false,"is_disabled":false,"rental_uris":{"android":"levelo://app?vid=9db15efa-62b5-43dc-beab-14a16c0840b9","ios":"levelo://app?vid=9db15efa-62b5-43dc-beab-14a16c0840b9"},"vehicle_type_id":"4","last_reported":1751915397,"current_range_meters":17600,"station_id":"","pricing_plan_id":"cebpf4jnsgd1na2vs0mg"},{"bike_id":"be24e3dd-a274-46ef-af6d-b3f5a3c2fe59","system_id":"levelo_inurba_marseille","lat":43.30323,"lon":5.40392,"is_reserved":false,"is_disabled":false,"rental_uris":{"android":"levelo://app?vid=be24e3dd-a274-46ef-af6d-b3f5a3c2fe59","ios":"levelo://app?vid=be24e3dd-a274-46ef-af6d-b3f5a3c2fe59"},"vehicle_type_id":"4","last_reported":1751915397,"current_range_meters":17600,"station_id":"ce4bh012rcd13ifvqd10","pricing_plan_id":"cebpf4jnsgd1na2vs0mg"},{"bike_id":"1b0bf1a3-69b2-4604-b147-5e1e04fee197","system_id":"levelo_inurba_marseille","lat":43.28665,"lon":5.36338,"is_reserved":false,"is_disabled":false,"rental_uris":{"android":"levelo://app?vid=1b0bf1a3-69b2-4604-b147-5e1e04fee197","ios":"levelo://app?vid=1b0bf1a3-69b2-4604-b147-5e1e04fee197"},"vehicle_type_id":"4","last_reported":1751915397,"current_range_meters":17600,"station_id":"ce4bhah2rcd13ifvqej0","pricing_plan_id":"cebpf4jnsgd1na2vs0mg"},{"bike_id":"3a2273aa-a820-48e1-8372-c1fcc76fba10","system_id":"levelo_inurba_marseille","lat":43.25115,"lon":5.40321,"is_reserved":false,"is_disabled":false,"rental_uris":{"android":"levelo://app?vid=3a2273aa-a820-48e1-8372-c1fcc76fba10","ios":"levelo://app?vid=3a2273aa-a820-48e1-8372-c1fcc76fba10"},"vehicle_type_id":"4","last_reported":1751915397,"current_range_meters":17600,"station_id":"ce4bhlh2rcd13ifvqgig","pricing_plan_id":"cebpf4jnsgd1na2vs0mg"},{"bike_id":"51890362-46b0-4ee7-9f02-afbf036d064e","system_id":"levelo_inurba_marseille","lat":43.212031,"lon":5.350755,"is_reserved":false,"is_disabled":false,"rental_uris":{"android":"levelo://app?vid=51890362-46b0-4ee7-9f02-afbf036d064e","ios":"levelo://app?vid=51890362-46b0-4ee7-9f02-afbf036d064e"},"vehicle_type_id":"4","last_reported":1751915397,"current_range_meters":17600,"station_id":"st_cvj6sg6p6f1abm77japg","pricing_plan_id":"cebpf4jnsgd1na2vs0mg"},{"bike_id":"084f14d4-0bc9-446c-902e-a4f3b90135fe","system_id":"levelo_inurba_marseille","lat":43.3245,"lon":5.4288,"is_reserved":false,"is_disabled":false,"rental_uris":{"android":"levelo://app?vid=084f14d4-0bc9-446c-902e-a4f3b90135fe","ios":"levelo://app?vid=084f14d4-0bc9-446c-902e-a4f3b90135fe"},"vehicle_type_id":"4","last_reported":1751915397,"current_range_meters":18000,"station_id":"","pricing_plan_id":"cebpf4jnsgd1na2vs0mg"},{"bike_id":"87c2d236-4978-4760-be77-27d7f5a212e4","system_id":"levelo_inurba_marseille","lat":43.29644,"lon":5.36205,"is_reserved":false,"is_disabled":false,"rental_uris":{"android":"levelo://app?vid=87c2d236-4978-4760-be77-27d7f5a212e4","ios":"levelo://app?vid=87c2d236-4978-4760-be77-27d7f5a212e4"},"vehicle_type_id":"4","last_reported":1751915397,"current_range_meters":18000,"station_id":"","pricing_plan_id":"cebpf4jnsgd1na2vs0mg"},{"bike_id":"497bec26-ccbe-4e9a-bdf7-bee893542f24","system_id":"levelo_inurba_marseille","lat":43.296018,"lon":5.373584,"is_reserved":false,"is_disabled":false,"rental_uris":{"android":"levelo://app?vid=497bec26-ccbe-4e9a-bdf7-bee893542f24","ios":"levelo://app?vid=497bec26-ccbe-4e9a-bdf7-bee893542f24"},"vehicle_type_id":"4","last_reported":1751915397,"current_range_meters":18000,"station_id":"ce4bgnh2rcd13ifvqc0g","pricing_plan_id":"cebpf4jnsgd1na2vs0mg"},{"bike_id":"74d11e3e-17d2-4a64-832f-1066bb4adac4","system_id":"levelo_inurba_marseille","lat":43.3094,"lon":5.37158,"is_reserved":false,"is_disabled":false,"rental_uris":{"android":"levelo://app?vid=74d11e3e-17d2-4a64-832f-1066bb4adac4","ios":"levelo://app?vid=74d11e3e-17d2-4a64-832f-1066bb4adac4"},"vehicle_type_id":"4","last_reported":1751915397,"current_range_meters":18000,"station_id":"ce4bguh2rcd13ifvqckg","pricing_plan_id":"cebpf4jnsgd1na2vs0mg"},{"bike_id":"c5f83647-e0bc-4d1c-96d9-15bff83e5fe0","system_id":"levelo_inurba_marseille","lat":43.25092,"lon":5.3951,"is_reserved":false,"is_disabled":false,"rental_uris":{"android":"levelo://app?vid=c5f83647-e0bc-4d1c-96d9-15bff83e5fe0","ios":"levelo://app?vid=c5f83647-e0bc-4d1c-96d9-15bff83e5fe0"},"vehicle_type_id":"4","last_reported":1751915397,"current_range_meters":18000,"station_id":"ce4bhm12rcd13ifvqgkg","pricing_plan_id":"cebpf4jnsgd1na2vs0mg"},{"bike_id":"137b6d7a-41a0-49ca-9283-49e27f31c7f7","system_id":"levelo_inurba_marseille","lat":43.28438,"lon":5.39171,"is_reserved":false,"is_disabled":false,"rental_uris":{"android":"levelo://app?vid=137b6d7a-41a0-49ca-9283-49e27f31c7f7","ios":"levelo://app?vid=137b6d7a-41a0-49ca-9283-49e27f31c7f7"},"vehicle_type_id":"4","last_reported":1751915397,"current_range_meters":18000,"station_id":"ce4bhoh2rcd13ifvqh5g","pricing_plan_id":"cebpf4jnsgd1na2vs0mg"},{"bike_id":"167d3d5b-50d2-4c0d-b6e2-d21a123d1563","system_id":"levelo_inurba_marseille","lat":43.32001,"lon":5.3815,"is_reserved":false,"is_disabled":false,"rental_uris":{"android":"levelo://app?vid=167d3d5b-50d2-4c0d-b6e2-d21a123d1563","ios":"levelo://app?vid=167d3d5b-50d2-4c0d-b6e2-d21a123d1563"},"vehicle_type_id":"4","last_reported":1751915397,"current_range_meters":18000,"station_id":"ce4bhr12rcd13ifvqhpg","pricing_plan_id":"cebpf4jnsgd1na2vs0mg"},{"bike_id":"d0f48bf1-c52c-4bf6-a2e2-6466bb76b6b7","system_id":"levelo_inurba_marseille","lat":43.26802,"lon":5.4025,"is_reserved":false,"is_disabled":false,"rental_uris":{"android":"levelo://app?vid=d0f48bf1-c52c-4bf6-a2e2-6466bb76b6b7","ios":"levelo://app?vid=d0f48bf1-c52c-4bf6-a2e2-6466bb76b6b7"},"vehicle_type_id":"4","last_reported":1751915397,"current_range_meters":18000,"station_id":"ce501612rcd8frsf0b60","pricing_plan_id":"cebpf4jnsgd1na2vs0mg"},{"bike_id":"75bd97c0-617f-4b47-b34c-936387a00e9d","system_id":"levelo_inurba_marseille","lat":43.29909,"lon":5.3814,"is_reserved":false,"is_disabled":false,"rental_uris":{"android":"levelo://app?vid=75bd97c0-617f-4b47-b34c-936387a00e9d","ios":"levelo://app?vid=75bd97c0-617f-4b47-b34c-936387a00e9d"},"vehicle_type_id":"4","last_reported":1751915397,"current_range_meters":18800,"station_id":"ce4bgj12rcd13ifvqbc0","pricing_plan_id":"cebpf4jnsgd1na2vs0mg"},{"bike_id":"8f79dc00-a15d-4197-9ff0-cceb654c0ae7","system_id":"levelo_inurba_marseille","lat":43.294417,"lon":5.38662,"is_reserved":false,"is_disabled":false,"rental_uris":{"android":"levelo://app?vid=8f79dc00-a15d-4197-9ff0-cceb654c0ae7","ios":"levelo://app?vid=8f79dc00-a15d-4197-9ff0-cceb654c0ae7"},"vehicle_type_id":"4","last_reported":1751915397,"current_range_meters":18800,"station_id":"ce4bh2h2rcd13ifvqdh0","pricing_plan_id":"cebpf4jnsgd1na2vs0mg"},{"bike_id":"2b38bca0-77c8-47a7-a549-619ca16e57e9","system_id":"levelo_inurba_marseille","lat":43.28348,"lon":5.38079,"is_reserved":false,"is_disabled":false,"rental_uris":{"android":"levelo://app?vid=2b38bca0-77c8-47a7-a549-619ca16e57e9","ios":"levelo://app?vid=2b38bca0-77c8-47a7-a549-619ca16e57e9"},"vehicle_type_id":"4","last_reported":1751915397,"current_range_meters":18800,"station_id":"ce4bh412rcd13ifvqdr0","pricing_plan_id":"cebpf4jnsgd1na2vs0mg"},{"bike_id":"9e82c5ed-12bc-4d5f-8bc1-0a8a00726eec","system_id":"levelo_inurba_marseille","lat":43.27998,"lon":5.40009,"is_reserved":false,"is_disabled":false,"rental_uris":{"android":"levelo://app?vid=9e82c5ed-12bc-4d5f-8bc1-0a8a00726eec","ios":"levelo://app?vid=9e82c5ed-12bc-4d5f-8bc1-0a8a00726eec"},"vehicle_type_id":"4","last_reported":1751915397,"current_range_meters":18800,"station_id":"ce4bho92rcd13ifvqh4g","pricing_plan_id":"cebpf4jnsgd1na2vs0mg"},{"bike_id":"ec27dc5d-7673-45e7-9db2-ecbd889914bb","system_id":"levelo_inurba_marseille","lat":43.31759,"lon":5.39015,"is_reserved":false,"is_disabled":false,"rental_uris":{"android":"levelo://app?vid=ec27dc5d-7673-45e7-9db2-ecbd889914bb","ios":"levelo://app?vid=ec27dc5d-7673-45e7-9db2-ecbd889914bb"},"vehicle_type_id":"4","last_reported":1751915397,"current_range_meters":18800,"station_id":"ce4bhqp2rcd13ifvqhng","pricing_plan_id":"cebpf4jnsgd1na2vs0mg"},{"bike_id":"45c3ad09-b1da-4fc3-91bb-bd47eb417001","system_id":"levelo_inurba_marseille","lat":43.29292,"lon":5.36869,"is_reserved":false,"is_disabled":false,"rental_uris":{"android":"levelo://app?vid=45c3ad09-b1da-4fc3-91bb-bd47eb417001","ios":"levelo://app?vid=45c3ad09-b1da-4fc3-91bb-bd47eb417001"},"vehicle_type_id":"4","last_reported":1751915397,"current_range_meters":19200,"station_id":"","pricing_plan_id":"cebpf4jnsgd1na2vs0mg"},{"bike_id":"2e63035f-7c49-436a-b3c7-09266caa3f67","system_id":"levelo_inurba_marseille","lat":43.29262,"lon":5.38442,"is_reserved":false,"is_disabled":false,"rental_uris":{"android":"levelo://app?vid=2e63035f-7c49-436a-b3c7-09266caa3f67","ios":"levelo://app?vid=2e63035f-7c49-436a-b3c7-09266caa3f67"},"vehicle_type_id":"4","last_reported":1751915397,"current_range_meters":19200,"station_id":"ce4bh692rcd13ifvqea0","pricing_plan_id":"cebpf4jnsgd1na2vs0mg"},{"bike_id":"3e18fdad-5080-44a1-849e-1b3236a414a3","system_id":"levelo_inurba_marseille","lat":43.25494,"lon":5.37645,"is_reserved":false,"is_disabled":false,"rental_uris":{"android":"levelo://app?vid=3e18fdad-5080-44a1-849e-1b3236a414a3","ios":"levelo://app?vid=3e18fdad-5080-44a1-849e-1b3236a414a3"},"vehicle_type_id":"4","last_reported":1751915397,"current_range_meters":19200,"station_id":"ce4bhh12rcd13ifvqff0","pricing_plan_id":"cebpf4jnsgd1na2vs0mg"},{"bike_id":"e6b5247c-6e8d-4291-89d2-3fb954f8db22","system_id":"levelo_inurba_marseille","lat":43.27077,"lon":5.42279,"is_reserved":false,"is_disabled":false,"rental_uris":{"android":"levelo://app?vid=e6b5247c-6e8d-4291-89d2-3fb954f8db22","ios":"levelo://app?vid=e6b5247c-6e8d-4291-89d2-3fb954f8db22"},"vehicle_type_id":"4","last_reported":1751915397,"current_range_meters":19200,"station_id":"ce4bhk92rcd13ifvqgb0","pricing_plan_id":"cebpf4jnsgd1na2vs0mg"},{"bike_id":"3cbbaa5c-38a0-432f-acda-816ad26e3088","system_id":"levelo_inurba_marseille","lat":43.31485,"lon":5.37292,"is_reserved":false,"is_disabled":false,"rental_uris":{"android":"levelo://app?vid=3cbbaa5c-38a0-432f-acda-816ad26e3088","ios":"levelo://app?vid=3cbbaa5c-38a0-432f-acda-816ad26e3088"},"vehicle_type_id":"4","last_reported":1751915397,"current_range_meters":19600,"station_id":"ce4bgt12rcd13ifvqcd0","pricing_plan_id":"cebpf4jnsgd1na2vs0mg"},{"bike_id":"87b46f9d-0d89-48e6-866d-12eb9ae69e76","system_id":"levelo_inurba_marseille","lat":43.28422,"lon":5.3497,"is_reserved":false,"is_disabled":false,"rental_uris":{"android":"levelo://app?vid=87b46f9d-0d89-48e6-866d-12eb9ae69e76","ios":"levelo://app?vid=87b46f9d-0d89-48e6-866d-12eb9ae69e76"},"vehicle_type_id":"4","last_reported":1751915397,"current_range_meters":19600,"station_id":"ce4bhbh2rcd13ifvqepg","pricing_plan_id":"cebpf4jnsgd1na2vs0mg"},{"bike_id":"58576875-89ce-44e2-aa39-7ed2b965fd4a","system_id":"levelo_inurba_marseille","lat":43.28623,"lon":5.35085,"is_reserved":false,"is_disabled":false,"rental_uris":{"android":"levelo://app?vid=58576875-89ce-44e2-aa39-7ed2b965fd4a","ios":"levelo://app?vid=58576875-89ce-44e2-aa39-7ed2b965fd4a"},"vehicle_type_id":"4","last_reported":1751915397,"current_range_meters":19600,"station_id":"ce4bhch2rcd13ifvqeug","pricing_plan_id":"cebpf4jnsgd1na2vs0mg"},{"bike_id":"b0eb1a86-3670-4480-89fd-568163e84106","system_id":"levelo_inurba_marseille","lat":43.25002,"lon":5.38923,"is_reserved":false,"is_disabled":false,"rental_uris":{"android":"levelo://app?vid=b0eb1a86-3670-4480-89fd-568163e84106","ios":"levelo://app?vid=b0eb1a86-3670-4480-89fd-568163e84106"},"vehicle_type_id":"4","last_reported":1751915397,"current_range_meters":19600,"station_id":"ce4bhgp2rcd13ifvqfd0","pricing_plan_id":"cebpf4jnsgd1na2vs0mg"},{"bike_id":"b231d536-48e1-4977-a7a7-95ba92258faf","system_id":"levelo_inurba_marseille","lat":43.25728,"lon":5.41106,"is_reserved":false,"is_disabled":false,"rental_uris":{"android":"levelo://app?vid=b231d536-48e1-4977-a7a7-95ba92258faf","ios":"levelo://app?vid=b231d536-48e1-4977-a7a7-95ba92258faf"},"vehicle_type_id":"4","last_reported":1751915397,"current_range_meters":19600,"station_id":"ce4bhkp2rcd13ifvqgd0","pricing_plan_id":"cebpf4jnsgd1na2vs0mg"},{"bike_id":"ec031d6c-12db-4c34-9130-63f92e0ca6dd","system_id":"levelo_inurba_marseille","lat":43.30429,"lon":5.41279,"is_reserved":false,"is_disabled":false,"rental_uris":{"android":"levelo://app?vid=ec031d6c-12db-4c34-9130-63f92e0ca6dd","ios":"levelo://app?vid=ec031d6c-12db-4c34-9130-63f92e0ca6dd"},"vehicle_type_id":"4","last_reported":1751915397,"current_range_meters":19600,"station_id":"ce4bhop2rcd13ifvqh8g","pricing_plan_id":"cebpf4jnsgd1na2vs0mg"},{"bike_id":"35d41f41-e942-42c5-97f1-40ccdd96f7a4","system_id":"levelo_inurba_marseille","lat":43.21193,"lon":5.35039,"is_reserved":false,"is_disabled":false,"rental_uris":{"android":"levelo://app?vid=35d41f41-e942-42c5-97f1-40ccdd96f7a4","ios":"levelo://app?vid=35d41f41-e942-42c5-97f1-40ccdd96f7a4"},"vehicle_type_id":"4","last_reported":1751915397,"current_range_meters":19600,"station_id":"st_cvj6sg6p6f1abm77japg","pricing_plan_id":"cebpf4jnsgd1na2vs0mg"},{"bike_id":"3e5ae229-a7f4-4369-b174-15a8529b0b50","system_id":"levelo_inurba_marseille","lat":43.28662,"lon":5.3832,"is_reserved":false,"is_disabled":false,"rental_uris":{"android":"levelo://app?vid=3e5ae229-a7f4-4369-b174-15a8529b0b50","ios":"levelo://app?vid=3e5ae229-a7f4-4369-b174-15a8529b0b50"},"vehicle_type_id":"4","last_reported":1751915397,"current_range_meters":20000,"station_id":"","pricing_plan_id":"cebpf4jnsgd1na2vs0mg"},{"bike_id":"ea7df389-5dc0-4c58-88fe-80a5af035925","system_id":"levelo_inurba_marseille","lat":43.29848,"lon":5.36411,"is_reserved":false,"is_disabled":false,"rental_uris":{"android":"levelo://app?vid=ea7df389-5dc0-4c58-88fe-80a5af035925","ios":"levelo://app?vid=ea7df389-5dc0-4c58-88fe-80a5af035925"},"vehicle_type_id":"4","last_reported":1751915397,"current_range_meters":20000,"station_id":"","pricing_plan_id":"cebpf4jnsgd1na2vs0mg"},{"bike_id":"d44be792-e4c0-45b1-96b1-d9dfde42e217","system_id":"levelo_inurba_marseille","lat":43.28707,"lon":5.37404,"is_reserved":false,"is_disabled":false,"rental_uris":{"android":"levelo://app?vid=d44be792-e4c0-45b1-96b1-d9dfde42e217","ios":"levelo://app?vid=d44be792-e4c0-45b1-96b1-d9dfde42e217"},"vehicle_type_id":"4","last_reported":1751915397,"current_range_meters":20000,"station_id":"ce4bh3p2rcd13ifvqdq0","pricing_plan_id":"cebpf4jnsgd1na2vs0mg"},{"bike_id":"9e555447-bc4b-4551-8312-b095933eb62f","system_id":"levelo_inurba_marseille","lat":43.2903,"lon":5.38642,"is_reserved":false,"is_disabled":false,"rental_uris":{"android":"levelo://app?vid=9e555447-bc4b-4551-8312-b095933eb62f","ios":"levelo://app?vid=9e555447-bc4b-4551-8312-b095933eb62f"},"vehicle_type_id":"4","last_reported":1751915397,"current_range_meters":20000,"station_id":"ce4bh4p2rcd13ifvqe0g","pricing_plan_id":"cebpf4jnsgd1na2vs0mg"},{"bike_id":"217f3e9d-8ac3-4fa3-8525-2939edc6b489","system_id":"levelo_inurba_marseille","lat":43.29009,"lon":5.35607,"is_reserved":false,"is_disabled":false,"rental_uris":{"android":"levelo://app?vid=217f3e9d-8ac3-4fa3-8525-2939edc6b489","ios":"levelo://app?vid=217f3e9d-8ac3-4fa3-8525-2939edc6b489"},"vehicle_type_id":"4","last_reported":1751915397,"current_range_meters":20000,"station_id":"ce4bhb92rcd13ifvqen0","pricing_plan_id":"cebpf4jnsgd1na2vs0mg"},{"bike_id":"6e0cb045-7a78-4a10-92d3-cbf7399a39df","system_id":"levelo_inurba_marseille","lat":43.26959,"lon":5.38633,"is_reserved":false,"is_disabled":false,"rental_uris":{"android":"levelo://app?vid=6e0cb045-7a78-4a10-92d3-cbf7399a39df","ios":"levelo://app?vid=6e0cb045-7a78-4a10-92d3-cbf7399a39df"},"vehicle_type_id":"4","last_reported":1751915397,"current_range_meters":20000,"station_id":"ce4bhh92rcd13ifvqfh0","pricing_plan_id":"cebpf4jnsgd1na2vs0mg"},{"bike_id":"92c6a9d9-2b7f-4402-84f4-471caf5ebfd6","system_id":"levelo_inurba_marseille","lat":43.24673,"lon":5.38173,"is_reserved":false,"is_disabled":false,"rental_uris":{"android":"levelo://app?vid=92c6a9d9-2b7f-4402-84f4-471caf5ebfd6","ios":"levelo://app?vid=92c6a9d9-2b7f-4402-84f4-471caf5ebfd6"},"vehicle_type_id":"4","last_reported":1751915397,"current_range_meters":20000,"station_id":"ce4bhih2rcd13ifvqfr0","pricing_plan_id":"cebpf4jnsgd1na2vs0mg"},{"bike_id":"a65c1bd2-bea7-4f7e-8a8e-bfd7c3ed93fe","system_id":"levelo_inurba_marseille","lat":43.29556,"lon":5.42297,"is_reserved":false,"is_disabled":false,"rental_uris":{"android":"levelo://app?vid=a65c1bd2-bea7-4f7e-8a8e-bfd7c3ed93fe","ios":"levelo://app?vid=a65c1bd2-bea7-4f7e-8a8e-bfd7c3ed93fe"},"vehicle_type_id":"4","last_reported":1751915397,"current_range_meters":20000,"station_id":"ce4bhph2rcd13ifvqhdg","pricing_plan_id":"cebpf4jnsgd1na2vs0mg"},{"bike_id":"ed24ef27-3f2f-4e32-848c-213c4e9bdacc","system_id":"levelo_inurba_marseille","lat":43.30337,"lon":5.38598,"is_reserved":false,"is_disabled":false,"rental_uris":{"android":"levelo://app?vid=ed24ef27-3f2f-4e32-848c-213c4e9bdacc","ios":"levelo://app?vid=ed24ef27-3f2f-4e32-848c-213c4e9bdacc"},"vehicle_type_id":"4","last_reported":1751915397,"current_range_meters":20400,"station_id":"","pricing_plan_id":"cebpf4jnsgd1na2vs0mg"},{"bike_id":"8c908279-4ec3-4aba-b8d5-ebf1f54e7227","system_id":"levelo_inurba_marseille","lat":43.309307,"lon":5.401388,"is_reserved":false,"is_disabled":false,"rental_uris":{"android":"levelo://app?vid=8c908279-4ec3-4aba-b8d5-ebf1f54e7227","ios":"levelo://app?vid=8c908279-4ec3-4aba-b8d5-ebf1f54e7227"},"vehicle_type_id":"4","last_reported":1751915397,"current_range_meters":20400,"station_id":"ce4bgvp2rcd13ifvqct0","pricing_plan_id":"cebpf4jnsgd1na2vs0mg"},{"bike_id":"10fa7eab-1386-4978-ac2c-d5454ea7124f","system_id":"levelo_inurba_marseille","lat":43.284119,"lon":5.375025,"is_reserved":false,"is_disabled":false,"rental_uris":{"android":"levelo://app?vid=10fa7eab-1386-4978-ac2c-d5454ea7124f","ios":"levelo://app?vid=10fa7eab-1386-4978-ac2c-d5454ea7124f"},"vehicle_type_id":"4","last_reported":1751915397,"current_range_meters":20400,"station_id":"ce4bh412rcd13ifvqds0","pricing_plan_id":"cebpf4jnsgd1na2vs0mg"},{"bike_id":"07639b8f-c509-4a22-b06d-5d54f125a568","system_id":"levelo_inurba_marseille","lat":43.29257,"lon":5.38442,"is_reserved":false,"is_disabled":false,"rental_uris":{"android":"levelo://app?vid=07639b8f-c509-4a22-b06d-5d54f125a568","ios":"levelo://app?vid=07639b8f-c509-4a22-b06d-5d54f125a568"},"vehicle_type_id":"4","last_reported":1751915397,"current_range_meters":20400,"station_id":"ce4bh692rcd13ifvqea0","pricing_plan_id":"cebpf4jnsgd1na2vs0mg"},{"bike_id":"59880a3b-32ba-4e8f-81e0-ad47f41b0cf9","system_id":"levelo_inurba_marseille","lat":43.28034,"lon":5.36941,"is_reserved":false,"is_disabled":false,"rental_uris":{"android":"levelo://app?vid=59880a3b-32ba-4e8f-81e0-ad47f41b0cf9","ios":"levelo://app?vid=59880a3b-32ba-4e8f-81e0-ad47f41b0cf9"},"vehicle_type_id":"4","last_reported":1751915397,"current_range_meters":20400,"station_id":"ce4bha12rcd13ifvqef0","pricing_plan_id":"cebpf4jnsgd1na2vs0mg"},{"bike_id":"da3c16a7-1722-44ec-a60c-bdcaac1fbdad","system_id":"levelo_inurba_marseille","lat":43.28628,"lon":5.35096,"is_reserved":false,"is_disabled":false,"rental_uris":{"android":"levelo://app?vid=da3c16a7-1722-44ec-a60c-bdcaac1fbdad","ios":"levelo://app?vid=da3c16a7-1722-44ec-a60c-bdcaac1fbdad"},"vehicle_type_id":"4","last_reported":1751915397,"current_range_meters":20400,"station_id":"ce4bhch2rcd13ifvqeug","pricing_plan_id":"cebpf4jnsgd1na2vs0mg"},{"bike_id":"3ec3ded0-3f01-47a2-91be-7944b7ae052a","system_id":"levelo_inurba_marseille","lat":43.27185,"lon":5.40989,"is_reserved":false,"is_disabled":false,"rental_uris":{"android":"levelo://app?vid=3ec3ded0-3f01-47a2-91be-7944b7ae052a","ios":"levelo://app?vid=3ec3ded0-3f01-47a2-91be-7944b7ae052a"},"vehicle_type_id":"4","last_reported":1751915397,"current_range_meters":20400,"station_id":"ce4bhl12rcd13ifvqgf0","pricing_plan_id":"cebpf4jnsgd1na2vs0mg"},{"bike_id":"b287377f-3d0b-47ac-86fe-9e0dfc1563de","system_id":"levelo_inurba_marseille","lat":43.22509,"lon":5.34764,"is_reserved":false,"is_disabled":false,"rental_uris":{"android":"levelo://app?vid=b287377f-3d0b-47ac-86fe-9e0dfc1563de","ios":"levelo://app?vid=b287377f-3d0b-47ac-86fe-9e0dfc1563de"},"vehicle_type_id":"4","last_reported":1751915397,"current_range_meters":20400,"station_id":"st_cvj5dfep6f1abm77gieg","pricing_plan_id":"cebpf4jnsgd1na2vs0mg"},{"bike_id":"0a967b9b-4d06-4142-9038-0014f7535902","system_id":"levelo_inurba_marseille","lat":43.29263,"lon":5.37611,"is_reserved":false,"is_disabled":false,"rental_uris":{"android":"levelo://app?vid=0a967b9b-4d06-4142-9038-0014f7535902","ios":"levelo://app?vid=0a967b9b-4d06-4142-9038-0014f7535902"},"vehicle_type_id":"4","last_reported":1751915397,"current_range_meters":20800,"station_id":"ce4bgi12rcd13ifvqb80","pricing_plan_id":"cebpf4jnsgd1na2vs0mg"},{"bike_id":"7158c648-1f0f-4b8b-9e1d-c0028930122f","system_id":"levelo_inurba_marseille","lat":43.27215,"lon":5.39206,"is_reserved":false,"is_disabled":false,"rental_uris":{"android":"levelo://app?vid=7158c648-1f0f-4b8b-9e1d-c0028930122f","ios":"levelo://app?vid=7158c648-1f0f-4b8b-9e1d-c0028930122f"},"vehicle_type_id":"4","last_reported":1751915397,"current_range_meters":20800,"station_id":"ce4bhhp2rcd13ifvqfm0","pricing_plan_id":"cebpf4jnsgd1na2vs0mg"},{"bike_id":"d00bfd9c-d56c-4ae7-9e0e-bb6b7351d199","system_id":"levelo_inurba_marseille","lat":43.279951,"lon":5.400241,"is_reserved":false,"is_disabled":false,"rental_uris":{"android":"levelo://app?vid=d00bfd9c-d56c-4ae7-9e0e-bb6b7351d199","ios":"levelo://app?vid=d00bfd9c-d56c-4ae7-9e0e-bb6b7351d199"},"vehicle_type_id":"4","last_reported":1751915397,"current_range_meters":20800,"station_id":"ce4bho92rcd13ifvqh4g","pricing_plan_id":"cebpf4jnsgd1na2vs0mg"},{"bike_id":"a1a6343c-3d7a-46cb-a96c-d0df672a7d8b","system_id":"levelo_inurba_marseille","lat":43.30431,"lon":5.39731,"is_reserved":false,"is_disabled":false,"rental_uris":{"android":"levelo://app?vid=a1a6343c-3d7a-46cb-a96c-d0df672a7d8b","ios":"levelo://app?vid=a1a6343c-3d7a-46cb-a96c-d0df672a7d8b"},"vehicle_type_id":"4","last_reported":1751915397,"current_range_meters":21600,"station_id":"ce4bh092rcd13ifvqd20","pricing_plan_id":"cebpf4jnsgd1na2vs0mg"},{"bike_id":"04e1cd82-22af-4bf0-8b7c-cade6b11fe8f","system_id":"levelo_inurba_marseille","lat":43.28463,"lon":5.35873,"is_reserved":false,"is_disabled":false,"rental_uris":{"android":"levelo://app?vid=04e1cd82-22af-4bf0-8b7c-cade6b11fe8f","ios":"levelo://app?vid=04e1cd82-22af-4bf0-8b7c-cade6b11fe8f"},"vehicle_type_id":"4","last_reported":1751915397,"current_range_meters":21600,"station_id":"ce4bhah2rcd13ifvqei0","pricing_plan_id":"cebpf4jnsgd1na2vs0mg"},{"bike_id":"9cb9ccf2-9eaf-42fe-aeed-0af908eda627","system_id":"levelo_inurba_marseille","lat":43.27915,"lon":5.39589,"is_reserved":false,"is_disabled":false,"rental_uris":{"android":"levelo://app?vid=9cb9ccf2-9eaf-42fe-aeed-0af908eda627","ios":"levelo://app?vid=9cb9ccf2-9eaf-42fe-aeed-0af908eda627"},"vehicle_type_id":"4","last_reported":1751915397,"current_range_meters":21600,"station_id":"ce4bhf92rcd13ifvqf40","pricing_plan_id":"cebpf4jnsgd1na2vs0mg"},{"bike_id":"01d7d53c-863f-472d-a438-ce48a0146924","system_id":"levelo_inurba_marseille","lat":43.26956,"lon":5.38633,"is_reserved":false,"is_disabled":false,"rental_uris":{"android":"levelo://app?vid=01d7d53c-863f-472d-a438-ce48a0146924","ios":"levelo://app?vid=01d7d53c-863f-472d-a438-ce48a0146924"},"vehicle_type_id":"4","last_reported":1751915397,"current_range_meters":21600,"station_id":"ce4bhh92rcd13ifvqfh0","pricing_plan_id":"cebpf4jnsgd1na2vs0mg"},{"bike_id":"a3fb674a-02dd-4d71-9206-ec6e88876c8e","system_id":"levelo_inurba_marseille","lat":43.27566,"lon":5.38418,"is_reserved":false,"is_disabled":false,"rental_uris":{"android":"levelo://app?vid=a3fb674a-02dd-4d71-9206-ec6e88876c8e","ios":"levelo://app?vid=a3fb674a-02dd-4d71-9206-ec6e88876c8e"},"vehicle_type_id":"4","last_reported":1751915397,"current_range_meters":21600,"station_id":"ce4bhh92rcd13ifvqfi0","pricing_plan_id":"cebpf4jnsgd1na2vs0mg"},{"bike_id":"9692020a-1f44-4dee-856e-51aef9b7c527","system_id":"levelo_inurba_marseille","lat":43.3172,"lon":5.4366,"is_reserved":false,"is_disabled":false,"rental_uris":{"android":"levelo://app?vid=9692020a-1f44-4dee-856e-51aef9b7c527","ios":"levelo://app?vid=9692020a-1f44-4dee-856e-51aef9b7c527"},"vehicle_type_id":"4","last_reported":1751915397,"current_range_meters":21600,"station_id":"ce4bhp92rcd13ifvqhcg","pricing_plan_id":"cebpf4jnsgd1na2vs0mg"},{"bike_id":"e35c65f3-3f9e-44ac-9c35-d67050f82774","system_id":"levelo_inurba_marseille","lat":43.30795,"lon":5.43518,"is_reserved":false,"is_disabled":false,"rental_uris":{"android":"levelo://app?vid=e35c65f3-3f9e-44ac-9c35-d67050f82774","ios":"levelo://app?vid=e35c65f3-3f9e-44ac-9c35-d67050f82774"},"vehicle_type_id":"4","last_reported":1751915397,"current_range_meters":21600,"station_id":"ce4bhph2rcd13ifvqheg","pricing_plan_id":"cebpf4jnsgd1na2vs0mg"},{"bike_id":"18ada8ec-1676-4f33-9f1c-e7b13948f3ee","system_id":"levelo_inurba_marseille","lat":43.21735,"lon":5.34611,"is_reserved":false,"is_disabled":false,"rental_uris":{"android":"levelo://app?vid=18ada8ec-1676-4f33-9f1c-e7b13948f3ee","ios":"levelo://app?vid=18ada8ec-1676-4f33-9f1c-e7b13948f3ee"},"vehicle_type_id":"4","last_reported":1751915397,"current_range_meters":21600,"station_id":"st_cvj6r9ubvosntc0bgbag","pricing_plan_id":"cebpf4jnsgd1na2vs0mg"},{"bike_id":"f5c16f07-bc6f-4121-91a7-5ad90eec4f34","system_id":"levelo_inurba_marseille","lat":43.31201,"lon":5.37297,"is_reserved":false,"is_disabled":false,"rental_uris":{"android":"levelo://app?vid=f5c16f07-bc6f-4121-91a7-5ad90eec4f34","ios":"levelo://app?vid=f5c16f07-bc6f-4121-91a7-5ad90eec4f34"},"vehicle_type_id":"4","last_reported":1751915397,"current_range_meters":22000,"station_id":"","pricing_plan_id":"cebpf4jnsgd1na2vs0mg"},{"bike_id":"264f5118-aff9-4e28-9064-bcd41635eeae","system_id":"levelo_inurba_marseille","lat":43.29271,"lon":5.38428,"is_reserved":false,"is_disabled":false,"rental_uris":{"android":"levelo://app?vid=264f5118-aff9-4e28-9064-bcd41635eeae","ios":"levelo://app?vid=264f5118-aff9-4e28-9064-bcd41635eeae"},"vehicle_type_id":"4","last_reported":1751915397,"current_range_meters":22000,"station_id":"ce4bh692rcd13ifvqea0","pricing_plan_id":"cebpf4jnsgd1na2vs0mg"},{"bike_id":"e4793d5e-b4cd-4c12-b9d4-446cb97752b9","system_id":"levelo_inurba_marseille","lat":43.292745,"lon":5.39054,"is_reserved":false,"is_disabled":false,"rental_uris":{"android":"levelo://app?vid=e4793d5e-b4cd-4c12-b9d4-446cb97752b9","ios":"levelo://app?vid=e4793d5e-b4cd-4c12-b9d4-446cb97752b9"},"vehicle_type_id":"4","last_reported":1751915397,"current_range_meters":22400,"station_id":"","pricing_plan_id":"cebpf4jnsgd1na2vs0mg"},{"bike_id":"5a5872c6-a97c-4e06-96d5-1828b33141df","system_id":"levelo_inurba_marseille","lat":43.30941,"lon":5.37044,"is_reserved":false,"is_disabled":false,"rental_uris":{"android":"levelo://app?vid=5a5872c6-a97c-4e06-96d5-1828b33141df","ios":"levelo://app?vid=5a5872c6-a97c-4e06-96d5-1828b33141df"},"vehicle_type_id":"4","last_reported":1751915397,"current_range_meters":22400,"station_id":"","pricing_plan_id":"cebpf4jnsgd1na2vs0mg"},{"bike_id":"2f4cddfb-e9fa-4020-b1eb-6aaa1eef7dcd","system_id":"levelo_inurba_marseille","lat":43.30844,"lon":5.37086,"is_reserved":false,"is_disabled":false,"rental_uris":{"android":"levelo://app?vid=2f4cddfb-e9fa-4020-b1eb-6aaa1eef7dcd","ios":"levelo://app?vid=2f4cddfb-e9fa-4020-b1eb-6aaa1eef7dcd"},"vehicle_type_id":"4","last_reported":1751915397,"current_range_meters":22400,"station_id":"","pricing_plan_id":"cebpf4jnsgd1na2vs0mg"},{"bike_id":"279b1db8-509c-4a82-8085-19fab32bd239","system_id":"levelo_inurba_marseille","lat":43.29974,"lon":5.3849,"is_reserved":false,"is_disabled":false,"rental_uris":{"android":"levelo://app?vid=279b1db8-509c-4a82-8085-19fab32bd239","ios":"levelo://app?vid=279b1db8-509c-4a82-8085-19fab32bd239"},"vehicle_type_id":"4","last_reported":1751915397,"current_range_meters":22400,"station_id":"ce4bgj92rcd13ifvqbd0","pricing_plan_id":"cebpf4jnsgd1na2vs0mg"},{"bike_id":"4a10a4f8-f8a9-47de-826f-07ab92594475","system_id":"levelo_inurba_marseille","lat":43.283653,"lon":5.386455,"is_reserved":false,"is_disabled":false,"rental_uris":{"android":"levelo://app?vid=4a10a4f8-f8a9-47de-826f-07ab92594475","ios":"levelo://app?vid=4a10a4f8-f8a9-47de-826f-07ab92594475"},"vehicle_type_id":"4","last_reported":1751915397,"current_range_meters":22400,"station_id":"ce4bh492rcd13ifvqdvg","pricing_plan_id":"cebpf4jnsgd1na2vs0mg"},{"bike_id":"58483bd8-0ad2-4d64-bda4-5467381a0167","system_id":"levelo_inurba_marseille","lat":43.28613,"lon":5.35103,"is_reserved":false,"is_disabled":false,"rental_uris":{"android":"levelo://app?vid=58483bd8-0ad2-4d64-bda4-5467381a0167","ios":"levelo://app?vid=58483bd8-0ad2-4d64-bda4-5467381a0167"},"vehicle_type_id":"4","last_reported":1751915397,"current_range_meters":22400,"station_id":"ce4bhch2rcd13ifvqeug","pricing_plan_id":"cebpf4jnsgd1na2vs0mg"},{"bike_id":"e9e5a906-116a-49e4-915d-4b85edbe4ce1","system_id":"levelo_inurba_marseille","lat":43.25104,"lon":5.40322,"is_reserved":false,"is_disabled":false,"rental_uris":{"android":"levelo://app?vid=e9e5a906-116a-49e4-915d-4b85edbe4ce1","ios":"levelo://app?vid=e9e5a906-116a-49e4-915d-4b85edbe4ce1"},"vehicle_type_id":"4","last_reported":1751915397,"current_range_meters":22400,"station_id":"ce4bhlh2rcd13ifvqgig","pricing_plan_id":"cebpf4jnsgd1na2vs0mg"},{"bike_id":"1c12fb9a-01b8-49a6-b681-4b9afe63309a","system_id":"levelo_inurba_marseille","lat":43.27999,"lon":5.41655,"is_reserved":false,"is_disabled":false,"rental_uris":{"android":"levelo://app?vid=1c12fb9a-01b8-49a6-b681-4b9afe63309a","ios":"levelo://app?vid=1c12fb9a-01b8-49a6-b681-4b9afe63309a"},"vehicle_type_id":"4","last_reported":1751915397,"current_range_meters":22400,"station_id":"ce4bho12rcd13ifvqh1g","pricing_plan_id":"cebpf4jnsgd1na2vs0mg"},{"bike_id":"56eb3fdf-ea87-4fcf-85df-3680fa66363e","system_id":"levelo_inurba_marseille","lat":43.22509,"lon":5.34758,"is_reserved":false,"is_disabled":false,"rental_uris":{"android":"levelo://app?vid=56eb3fdf-ea87-4fcf-85df-3680fa66363e","ios":"levelo://app?vid=56eb3fdf-ea87-4fcf-85df-3680fa66363e"},"vehicle_type_id":"4","last_reported":1751915397,"current_range_meters":22400,"station_id":"st_cvj5dfep6f1abm77gieg","pricing_plan_id":"cebpf4jnsgd1na2vs0mg"},{"bike_id":"d0f90c24-dd03-411b-9731-55305f76b7c8","system_id":"levelo_inurba_marseille","lat":43.21185,"lon":5.35071,"is_reserved":false,"is_disabled":false,"rental_uris":{"android":"levelo://app?vid=d0f90c24-dd03-411b-9731-55305f76b7c8","ios":"levelo://app?vid=d0f90c24-dd03-411b-9731-55305f76b7c8"},"vehicle_type_id":"4","last_reported":1751915397,"current_range_meters":22400,"station_id":"st_cvj6sg6p6f1abm77japg","pricing_plan_id":"cebpf4jnsgd1na2vs0mg"},{"bike_id":"06feb6af-5eb5-49ba-8d41-8d2f4dbe1ee1","system_id":"levelo_inurba_marseille","lat":43.2994,"lon":5.36562,"is_reserved":false,"is_disabled":false,"rental_uris":{"android":"levelo://app?vid=06feb6af-5eb5-49ba-8d41-8d2f4dbe1ee1","ios":"levelo://app?vid=06feb6af-5eb5-49ba-8d41-8d2f4dbe1ee1"},"vehicle_type_id":"4","last_reported":1751915397,"current_range_meters":22800,"station_id":"","pricing_plan_id":"cebpf4jnsgd1na2vs0mg"},{"bike_id":"b24f979e-74e1-4c81-aa96-7aa0769a665c","system_id":"levelo_inurba_marseille","lat":43.29298,"lon":5.37156,"is_reserved":false,"is_disabled":false,"rental_uris":{"android":"levelo://app?vid=b24f979e-74e1-4c81-aa96-7aa0769a665c","ios":"levelo://app?vid=b24f979e-74e1-4c81-aa96-7aa0769a665c"},"vehicle_type_id":"4","last_reported":1751915397,"current_range_meters":22800,"station_id":"ce4bgh92rcd13ifvqb40","pricing_plan_id":"cebpf4jnsgd1na2vs0mg"},{"bike_id":"c2b72fe0-bae6-4c7b-ad48-9e771b203dc8","system_id":"levelo_inurba_marseille","lat":43.31372,"lon":5.38474,"is_reserved":false,"is_disabled":false,"rental_uris":{"android":"levelo://app?vid=c2b72fe0-bae6-4c7b-ad48-9e771b203dc8","ios":"levelo://app?vid=c2b72fe0-bae6-4c7b-ad48-9e771b203dc8"},"vehicle_type_id":"4","last_reported":1751915397,"current_range_meters":22800,"station_id":"ce4bgt92rcd13ifvqcf0","pricing_plan_id":"cebpf4jnsgd1na2vs0mg"},{"bike_id":"1d2affec-d1cf-4861-b444-3b7a56700c8f","system_id":"levelo_inurba_marseille","lat":43.31357,"lon":5.38489,"is_reserved":false,"is_disabled":false,"rental_uris":{"android":"levelo://app?vid=1d2affec-d1cf-4861-b444-3b7a56700c8f","ios":"levelo://app?vid=1d2affec-d1cf-4861-b444-3b7a56700c8f"},"vehicle_type_id":"4","last_reported":1751915397,"current_range_meters":22800,"station_id":"ce4bgt92rcd13ifvqcf0","pricing_plan_id":"cebpf4jnsgd1na2vs0mg"},{"bike_id":"9c181fcc-3f40-45a7-8572-922290ecb138","system_id":"levelo_inurba_marseille","lat":43.3171,"lon":5.3776,"is_reserved":false,"is_disabled":false,"rental_uris":{"android":"levelo://app?vid=9c181fcc-3f40-45a7-8572-922290ecb138","ios":"levelo://app?vid=9c181fcc-3f40-45a7-8572-922290ecb138"},"vehicle_type_id":"4","last_reported":1751915397,"current_range_meters":22800,"station_id":"ce4bgth2rcd13ifvqch0","pricing_plan_id":"cebpf4jnsgd1na2vs0mg"},{"bike_id":"90e6ec29-bd81-4a9d-8ebf-de6fd7cc47f1","system_id":"levelo_inurba_marseille","lat":43.29876,"lon":5.38896,"is_reserved":false,"is_disabled":false,"rental_uris":{"android":"levelo://app?vid=90e6ec29-bd81-4a9d-8ebf-de6fd7cc47f1","ios":"levelo://app?vid=90e6ec29-bd81-4a9d-8ebf-de6fd7cc47f1"},"vehicle_type_id":"4","last_reported":1751915397,"current_range_meters":22800,"station_id":"ce4bh392rcd13ifvqdl0","pricing_plan_id":"cebpf4jnsgd1na2vs0mg"},{"bike_id":"da3276ab-30b5-4da6-993d-a1b719511e1c","system_id":"levelo_inurba_marseille","lat":43.28619,"lon":5.35103,"is_reserved":false,"is_disabled":false,"rental_uris":{"android":"levelo://app?vid=da3276ab-30b5-4da6-993d-a1b719511e1c","ios":"levelo://app?vid=da3276ab-30b5-4da6-993d-a1b719511e1c"},"vehicle_type_id":"4","last_reported":1751915397,"current_range_meters":22800,"station_id":"ce4bhch2rcd13ifvqeug","pricing_plan_id":"cebpf4jnsgd1na2vs0mg"},{"bike_id":"8af3bab5-67ca-4001-a1bb-3e99bc14c96c","system_id":"levelo_inurba_marseille","lat":43.22928,"lon":5.35381,"is_reserved":false,"is_disabled":false,"rental_uris":{"android":"levelo://app?vid=8af3bab5-67ca-4001-a1bb-3e99bc14c96c","ios":"levelo://app?vid=8af3bab5-67ca-4001-a1bb-3e99bc14c96c"},"vehicle_type_id":"4","last_reported":1751915397,"current_range_meters":22800,"station_id":"cpo3532slgdg3j2ikp40","pricing_plan_id":"cebpf4jnsgd1na2vs0mg"},{"bike_id":"1e91cee9-7d4a-458c-9805-68ef6c30eb40","system_id":"levelo_inurba_marseille","lat":43.21773,"lon":5.3462,"is_reserved":false,"is_disabled":false,"rental_uris":{"android":"levelo://app?vid=1e91cee9-7d4a-458c-9805-68ef6c30eb40","ios":"levelo://app?vid=1e91cee9-7d4a-458c-9805-68ef6c30eb40"},"vehicle_type_id":"4","last_reported":1751915397,"current_range_meters":22800,"station_id":"st_cvj6r9ubvosntc0bgbag","pricing_plan_id":"cebpf4jnsgd1na2vs0mg"},{"bike_id":"dd424475-1b09-4cb5-b79b-f20728299dd6","system_id":"levelo_inurba_marseille","lat":43.211958,"lon":5.350753,"is_reserved":false,"is_disabled":false,"rental_uris":{"android":"levelo://app?vid=dd424475-1b09-4cb5-b79b-f20728299dd6","ios":"levelo://app?vid=dd424475-1b09-4cb5-b79b-f20728299dd6"},"vehicle_type_id":"4","last_reported":1751915397,"current_range_meters":22800,"station_id":"st_cvj6sg6p6f1abm77japg","pricing_plan_id":"cebpf4jnsgd1na2vs0mg"},{"bike_id":"b2caa530-bb19-4cc6-a6bd-61e3e1d7432e","system_id":"levelo_inurba_marseille","lat":43.33763,"lon":5.37461,"is_reserved":false,"is_disabled":false,"rental_uris":{"android":"levelo://app?vid=b2caa530-bb19-4cc6-a6bd-61e3e1d7432e","ios":"levelo://app?vid=b2caa530-bb19-4cc6-a6bd-61e3e1d7432e"},"vehicle_type_id":"4","last_reported":1751915397,"current_range_meters":23200,"station_id":"","pricing_plan_id":"cebpf4jnsgd1na2vs0mg"},{"bike_id":"8107d122-8122-4a01-bb38-9fcc4b041042","system_id":"levelo_inurba_marseille","lat":43.3053,"lon":5.38421,"is_reserved":false,"is_disabled":false,"rental_uris":{"android":"levelo://app?vid=8107d122-8122-4a01-bb38-9fcc4b041042","ios":"levelo://app?vid=8107d122-8122-4a01-bb38-9fcc4b041042"},"vehicle_type_id":"4","last_reported":1751915397,"current_range_meters":23200,"station_id":"ce4bgg92rcd13ifvqb30","pricing_plan_id":"cebpf4jnsgd1na2vs0mg"},{"bike_id":"7760c982-23f9-441e-a56e-27b8d4f0c34c","system_id":"levelo_inurba_marseille","lat":43.29309,"lon":5.37171,"is_reserved":false,"is_disabled":false,"rental_uris":{"android":"levelo://app?vid=7760c982-23f9-441e-a56e-27b8d4f0c34c","ios":"levelo://app?vid=7760c982-23f9-441e-a56e-27b8d4f0c34c"},"vehicle_type_id":"4","last_reported":1751915397,"current_range_meters":23200,"station_id":"ce4bgh92rcd13ifvqb40","pricing_plan_id":"cebpf4jnsgd1na2vs0mg"},{"bike_id":"4d977352-112a-4901-bc74-ee52653dc61e","system_id":"levelo_inurba_marseille","lat":43.31174,"lon":5.38708,"is_reserved":false,"is_disabled":false,"rental_uris":{"android":"levelo://app?vid=4d977352-112a-4901-bc74-ee52653dc61e","ios":"levelo://app?vid=4d977352-112a-4901-bc74-ee52653dc61e"},"vehicle_type_id":"4","last_reported":1751915397,"current_range_meters":23200,"station_id":"ce4bgv12rcd13ifvqcp0","pricing_plan_id":"cebpf4jnsgd1na2vs0mg"},{"bike_id":"68aa20b7-3635-4746-8147-ec5e4970f479","system_id":"levelo_inurba_marseille","lat":43.30885,"lon":5.39624,"is_reserved":false,"is_disabled":false,"rental_uris":{"android":"levelo://app?vid=68aa20b7-3635-4746-8147-ec5e4970f479","ios":"levelo://app?vid=68aa20b7-3635-4746-8147-ec5e4970f479"},"vehicle_type_id":"4","last_reported":1751915397,"current_range_meters":23200,"station_id":"ce4bh012rcd13ifvqcv0","pricing_plan_id":"cebpf4jnsgd1na2vs0mg"},{"bike_id":"bb18b2a5-6848-4b6b-91d8-d21c697cf808","system_id":"levelo_inurba_marseille","lat":43.28625,"lon":5.35087,"is_reserved":false,"is_disabled":false,"rental_uris":{"android":"levelo://app?vid=bb18b2a5-6848-4b6b-91d8-d21c697cf808","ios":"levelo://app?vid=bb18b2a5-6848-4b6b-91d8-d21c697cf808"},"vehicle_type_id":"4","last_reported":1751915397,"current_range_meters":23200,"station_id":"ce4bhch2rcd13ifvqeug","pricing_plan_id":"cebpf4jnsgd1na2vs0mg"},{"bike_id":"fb4122cd-0277-4297-8cd5-1b777b465e3e","system_id":"levelo_inurba_marseille","lat":43.24079,"lon":5.37754,"is_reserved":false,"is_disabled":false,"rental_uris":{"android":"levelo://app?vid=fb4122cd-0277-4297-8cd5-1b777b465e3e","ios":"levelo://app?vid=fb4122cd-0277-4297-8cd5-1b777b465e3e"},"vehicle_type_id":"4","last_reported":1751915397,"current_range_meters":23200,"station_id":"ce4bhnp2rcd13ifvqgvg","pricing_plan_id":"cebpf4jnsgd1na2vs0mg"},{"bike_id":"b6d9b946-f66a-4c6f-96e5-5d23e176360c","system_id":"levelo_inurba_marseille","lat":43.31315,"lon":5.38172,"is_reserved":false,"is_disabled":false,"rental_uris":{"android":"levelo://app?vid=b6d9b946-f66a-4c6f-96e5-5d23e176360c","ios":"levelo://app?vid=b6d9b946-f66a-4c6f-96e5-5d23e176360c"},"vehicle_type_id":"4","last_reported":1751915397,"current_range_meters":24000,"station_id":"","pricing_plan_id":"cebpf4jnsgd1na2vs0mg"},{"bike_id":"7798e495-e4e2-46f7-bc16-d111a5b91290","system_id":"levelo_inurba_marseille","lat":43.29846,"lon":5.36271,"is_reserved":false,"is_disabled":false,"rental_uris":{"android":"levelo://app?vid=7798e495-e4e2-46f7-bc16-d111a5b91290","ios":"levelo://app?vid=7798e495-e4e2-46f7-bc16-d111a5b91290"},"vehicle_type_id":"4","last_reported":1751915397,"current_range_meters":24000,"station_id":"ce4bgpp2rcd13ifvqc3g","pricing_plan_id":"cebpf4jnsgd1na2vs0mg"},{"bike_id":"4d204027-e58f-4770-9c2e-43b395582ed1","system_id":"levelo_inurba_marseille","lat":43.30923,"lon":5.40137,"is_reserved":false,"is_disabled":false,"rental_uris":{"android":"levelo://app?vid=4d204027-e58f-4770-9c2e-43b395582ed1","ios":"levelo://app?vid=4d204027-e58f-4770-9c2e-43b395582ed1"},"vehicle_type_id":"4","last_reported":1751915397,"current_range_meters":24000,"station_id":"ce4bgvp2rcd13ifvqct0","pricing_plan_id":"cebpf4jnsgd1na2vs0mg"},