{"last_updated":1752332996,"ttl":60,"version":"2.2","data":{"bikes":[{"bike_id":"752fb2bc-dca0-4d6d-bc9b-386f577ea011","system_id":"levelo_inurba_marseille","lat":43.24385,"lon":5.37061,"is_reserved":false,"is_disabled":false,"rental_uris":{"android":"levelo://app?vid=752fb2bc-dca0-4d6d-bc9b-386f577ea011","ios":"levelo://app?vid=752fb2bc-dca0-4d6d-bc9b-386f577ea011"},"vehicle_type_id":"4","last_reported":1752332996,"current_range_meters":2800,"station_id":"ce4bhhh2rcd13ifvqfk0","pricing_plan_id":"cebpf4jnsgd1na2vs0mg"},{"bike_id":"d2101bfa-a33d-48da-b243-1c7b4d701aa1","system_id":"levelo_inurba_marseille","lat":43.30185,"lon":5.36622,"is_reserved":false,"is_disabled":false,"rental_uris":{"android":"levelo://app?vid=d2101bfa-a33d-48da-b243-1c7b4d701aa1","ios":"levelo://app?vid=d2101bfa-a33d-48da-b243-1c7b4d701aa1"},"vehicle_type_id":"4","last_reported":1752332996,"current_range_meters":3600,"station_id":"ce4bgrh2rcd13ifvqc8g","pricing_plan_id":"cebpf4jnsgd1na2vs0mg"},{"bike_id":"6de38f3f-43f9-4a5f-84f3-cad8f0e9f80c","system_id":"levelo_inurba_marseille","lat":43.29283,"lon":5.36845,"is_reserved":false,"is_disabled":false,"rental_uris":{"android":"levelo://app?vid=6de38f3f-43f9-4a5f-84f3-cad8f0e9f80c","ios":"levelo://app?vid=6de38f3f-43f9-4a5f-84f3-cad8f0e9f80c"},"vehicle_type_id":"4","last_reported":1752332996,"current_range_meters":3600,"station_id":"ce4bhbp2rcd13ifvqesg","pricing_plan_id":"cebpf4jnsgd1na2vs0mg"},{"bike_id":"2c1f14ae-e17b-4b1d-8601-e9a6f4ce03de","system_id":"levelo_inurba_marseille","lat":43.28942,"lon":5.36381,"is_reserved":false,"is_disabled":false,"rental_uris":{"android":"levelo://app?vid=2c1f14ae-e17b-4b1d-8601-e9a6f4ce03de","ios":"levelo://app?vid=2c1f14ae-e17b-4b1d-8601-e9a6f4ce03de"},"vehicle_type_id":"4","last_reported":1752332996,"current_range_meters":3600,"station_id":"","pricing_plan_id":"cebpf4jnsgd1na2vs0mg"},{"bike_id":"7b104484-ae7b-4050-bd2a-ff3300aa92e7","system_id":"levelo_inurba_marseille","lat":43.30545,"lon":5.365609,"is_reserved":false,"is_disabled":true,"rental_uris":{"android":"levelo://app?vid=7b104484-ae7b-4050-bd2a-ff3300aa92e7","ios":"levelo://app?vid=7b104484-ae7b-4050-bd2a-ff3300aa92e7"},"vehicle_type_id":"4","last_reported":1752332996,"current_range_meters":4000,"station_id":"ce4bgs12rcd13ifvqcag","pricing_plan_id":"cebpf4jnsgd1na2vs0mg"},{"bike_id":"64e62dc3-e6db-40b4-8f92-d2a2731af736","system_id":"levelo_inurba_marseille","lat":43.30459,"lon":5.37899,"is_reserved":false,"is_disabled":false,"rental_uris":{"android":"levelo://app?vid=64e62dc3-e6db-40b4-8f92-d2a2731af736","ios":"levelo://app?vid=64e62dc3-e6db-40b4-8f92-d2a2731af736"},"vehicle_type_id":"4","last_reported":1752332996,"current_range_meters":3600,"station_id":"ce4bgup2rcd13ifvqcn0","pricing_plan_id":"cebpf4jnsgd1na2vs0mg"},{"bike_id":"16da21a7-cc5e-4c6e-baa9-7d7428046b57","system_id":"levelo_inurba_marseille","lat":43.28265,"lon":5.3507,"is_reserved":false,"is_disabled":false,"rental_uris":{"android":"levelo://app?vid=16da21a7-cc5e-4c6e-baa9-7d7428046b57","ios":"levelo://app?vid=16da21a7-cc5e-4c6e-baa9-7d7428046b57"},"vehicle_type_id":"4","last_reported":1752332996,"current_range_meters":4400,"station_id":"ce4bhbp2rcd13ifvqerg","pricing_plan_id":"cebpf4jnsgd1na2vs0mg"},{"bike_id":"c25b2ef2-6698-45a7-bc61-acbd8a9e65fc","system_id":"levelo_inurba_marseille","lat":43.28042,"lon":5.36939,"is_reserved":false,"is_disabled":false,"rental_uris":{"android":"levelo://app?vid=c25b2ef2-6698-45a7-bc61-acbd8a9e65fc","ios":"levelo://app?vid=c25b2ef2-6698-45a7-bc61-acbd8a9e65fc"},"vehicle_type_id":"4","last_reported":1752332996,"current_range_meters":4800,"station_id":"ce4bha12rcd13ifvqef0","pricing_plan_id":"cebpf4jnsgd1na2vs0mg"},{"bike_id":"a261fc7a-dced-4250-842d-aa423dbd1353","system_id":"levelo_inurba_marseille","lat":43.30545,"lon":5.36556,"is_reserved":false,"is_disabled":false,"rental_uris":{"android":"levelo://app?vid=a261fc7a-dced-4250-842d-aa423dbd1353","ios":"levelo://app?vid=a261fc7a-dced-4250-842d-aa423dbd1353"},"vehicle_type_id":"4","last_reported":1752332996,"current_range_meters":4800,"station_id":"ce4bgs12rcd13ifvqcag","pricing_plan_id":"cebpf4jnsgd1na2vs0mg"},{"bike_id":"d6eeb278-b79f-4b20-9480-8a1f3373eac9","system_id":"levelo_inurba_marseille","lat":43.24806,"lon":5.37452,"is_reserved":false,"is_disabled":false,"rental_uris":{"android":"levelo://app?vid=d6eeb278-b79f-4b20-9480-8a1f3373eac9","ios":"levelo://app?vid=d6eeb278-b79f-4b20-9480-8a1f3373eac9"},"vehicle_type_id":"4","last_reported":1752332996,"current_range_meters":4800,"station_id":"ce4bhgh2rcd13ifvqfb0","pricing_plan_id":"cebpf4jnsgd1na2vs0mg"},{"bike_id":"df9933d3-2d3e-451c-bd27-6dcfb9ee56ca","system_id":"levelo_inurba_marseille","lat":43.30191,"lon":5.36621,"is_reserved":false,"is_disabled":false,"rental_uris":{"android":"levelo://app?vid=df9933d3-2d3e-451c-bd27-6dcfb9ee56ca","ios":"levelo://app?vid=df9933d3-2d3e-451c-bd27-6dcfb9ee56ca"},"vehicle_type_id":"4","last_reported":1752332996,"current_range_meters":5600,"station_id":"ce4bgrh2rcd13ifvqc8g","pricing_plan_id":"cebpf4jnsgd1na2vs0mg"},{"bike_id":"490a8f6b-e459-4da5-b73f-0d5429c0c0cf","system_id":"levelo_inurba_marseille","lat":43.28267,"lon":5.35057,"is_reserved":false,"is_disabled":false,"rental_uris":{"android":"levelo://app?vid=490a8f6b-e459-4da5-b73f-0d5429c0c0cf","ios":"levelo://app?vid=490a8f6b-e459-4da5-b73f-0d5429c0c0cf"},"vehicle_type_id":"4","last_reported":1752332996,"current_range_meters":5600,"station_id":"ce4bhbp2rcd13ifvqerg","pricing_plan_id":"cebpf4jnsgd1na2vs0mg"},{"bike_id":"5bafd008-4bd5-4507-8351-ba5ef0fbf820","system_id":"levelo_inurba_marseille","lat":43.29628,"lon":5.405803,"is_reserved":false,"is_disabled":false,"rental_uris":{"android":"levelo://app?vid=5bafd008-4bd5-4507-8351-ba5ef0fbf820","ios":"levelo://app?vid=5bafd008-4bd5-4507-8351-ba5ef0fbf820"},"vehicle_type_id":"4","last_reported":1752332996,"current_range_meters":6400,"station_id":"ce4bh0h2rcd13ifvqd60","pricing_plan_id":"cebpf4jnsgd1na2vs0mg"},{"bike_id":"c4cb91f3-21de-4fc5-9c62-bcf13ddf8388","system_id":"levelo_inurba_marseille","lat":43.26572,"lon":5.39041,"is_reserved":false,"is_disabled":true,"rental_uris":{"android":"levelo://app?vid=c4cb91f3-21de-4fc5-9c62-bcf13ddf8388","ios":"levelo://app?vid=c4cb91f3-21de-4fc5-9c62-bcf13ddf8388"},"vehicle_type_id":"4","last_reported":1752332996,"current_range_meters":6800,"station_id":"ce4bhe12rcd13ifvqf30","pricing_plan_id":"cebpf4jnsgd1na2vs0mg"},{"bike_id":"3111779c-930b-4276-baec-6ef4090a03c2","system_id":"levelo_inurba_marseille","lat":43.29257,"lon":5.37625,"is_reserved":false,"is_disabled":false,"rental_uris":{"android":"levelo://app?vid=3111779c-930b-4276-baec-6ef4090a03c2","ios":"levelo://app?vid=3111779c-930b-4276-baec-6ef4090a03c2"},"vehicle_type_id":"4","last_reported":1752332996,"current_range_meters":6800,"station_id":"ce4bgi12rcd13ifvqb80","pricing_plan_id":"cebpf4jnsgd1na2vs0mg"},{"bike_id":"5e2fb716-5776-47ad-93b8-8f88563ab449","system_id":"levelo_inurba_marseille","lat":43.29273,"lon":5.36836,"is_reserved":false,"is_disabled":false,"rental_uris":{"android":"levelo://app?vid=5e2fb716-5776-47ad-93b8-8f88563ab449","ios":"levelo://app?vid=5e2fb716-5776-47ad-93b8-8f88563ab449"},"vehicle_type_id":"4","last_reported":1752332996,"current_range_meters":7200,"station_id":"ce4bhbp2rcd13ifvqesg","pricing_plan_id":"cebpf4jnsgd1na2vs0mg"},{"bike_id":"d85b1be1-6f2e-4434-978b-8fba3df37f09","system_id":"levelo_inurba_marseille","lat":43.26193,"lon":5.37935,"is_reserved":false,"is_disabled":false,"rental_uris":{"android":"levelo://app?vid=d85b1be1-6f2e-4434-978b-8fba3df37f09","ios":"levelo://app?vid=d85b1be1-6f2e-4434-978b-8fba3df37f09"},"vehicle_type_id":"4","last_reported":1752332996,"current_range_meters":8000,"station_id":"ce4bhjp2rcd13ifvqg90","pricing_plan_id":"cebpf4jnsgd1na2vs0mg"},{"bike_id":"cb9282c9-0a04-426f-af4a-9dc494a82650","system_id":"levelo_inurba_marseille","lat":43.225037,"lon":5.347922,"is_reserved":false,"is_disabled":false,"rental_uris":{"android":"levelo://app?vid=cb9282c9-0a04-426f-af4a-9dc494a82650","ios":"levelo://app?vid=cb9282c9-0a04-426f-af4a-9dc494a82650"},"vehicle_type_id":"4","last_reported":1752332996,"current_range_meters":7200,"station_id":"","pricing_plan_id":"cebpf4jnsgd1na2vs0mg"},{"bike_id":"534ed68d-5ceb-43a8-968b-be30f01dfa74","system_id":"levelo_inurba_marseille","lat":43.28209,"lon":5.39046,"is_reserved":false,"is_disabled":false,"rental_uris":{"android":"levelo://app?vid=534ed68d-5ceb-43a8-968b-be30f01dfa74","ios":"levelo://app?vid=534ed68d-5ceb-43a8-968b-be30f01dfa74"},"vehicle_type_id":"4","last_reported":1752332996,"current_range_meters":8000,"station_id":"","pricing_plan_id":"cebpf4jnsgd1na2vs0mg"},{"bike_id":"b012bde4-73cf-4ec3-b715-7c20a6ef04ca","system_id":"levelo_inurba_marseille","lat":43.30536,"lon":5.36723,"is_reserved":false,"is_disabled":false,"rental_uris":{"android":"levelo://app?vid=b012bde4-73cf-4ec3-b715-7c20a6ef04ca","ios":"levelo://app?vid=b012bde4-73cf-4ec3-b715-7c20a6ef04ca"},"vehicle_type_id":"4","last_reported":1752332996,"current_range_meters":9600,"station_id":"ce4bgrp2rcd13ifvqc9g","pricing_plan_id":"cebpf4jnsgd1na2vs0mg"},{"bike_id":"83d2afe8-5618-4386-919e-b52b172b37e6","system_id":"levelo_inurba_marseille","lat":43.27293,"lon":5.39043,"is_reserved":false,"is_disabled":false,"rental_uris":{"android":"levelo://app?vid=83d2afe8-5618-4386-919e-b52b172b37e6","ios":"levelo://app?vid=83d2afe8-5618-4386-919e-b52b172b37e6"},"vehicle_type_id":"4","last_reported":1752332996,"current_range_meters":8000,"station_id":"ce4bhgp2rcd13ifvqfe0","pricing_plan_id":"cebpf4jnsgd1na2vs0mg"},{"bike_id":"8b0bdd03-2b06-4d6a-9174-94108e214284","system_id":"levelo_inurba_marseille","lat":43.24173,"lon":5.36399,"is_reserved":false,"is_disabled":false,"rental_uris":{"android":"levelo://app?vid=8b0bdd03-2b06-4d6a-9174-94108e214284","ios":"levelo://app?vid=8b0bdd03-2b06-4d6a-9174-94108e214284"},"vehicle_type_id":"4","last_reported":1752332996,"current_range_meters":8000,"station_id":"cpo36qri1sfpv3e86is0","pricing_plan_id":"cebpf4jnsgd1na2vs0mg"},{"bike_id":"76fe4666-e60c-4f06-ae56-598072d604ae","system_id":"levelo_inurba_marseille","lat":43.29671,"lon":5.3772,"is_reserved":false,"is_disabled":true,"rental_uris":{"android":"levelo://app?vid=76fe4666-e60c-4f06-ae56-598072d604ae","ios":"levelo://app?vid=76fe4666-e60c-4f06-ae56-598072d604ae"},"vehicle_type_id":"4","last_reported":1752332996,"current_range_meters":8400,"station_id":"ce4bgi92rcd13ifvqb90","pricing_plan_id":"cebpf4jnsgd1na2vs0mg"},{"bike_id":"1eb8b7c7-c1cf-41ea-a4c4-1418fec98d7b","system_id":"levelo_inurba_marseille","lat":43.261762,"lon":5.374367,"is_reserved":false,"is_disabled":false,"rental_uris":{"android":"levelo://app?vid=1eb8b7c7-c1cf-41ea-a4c4-1418fec98d7b","ios":"levelo://app?vid=1eb8b7c7-c1cf-41ea-a4c4-1418fec98d7b"},"vehicle_type_id":"4","last_reported":1752332996,"current_range_meters":8400,"station_id":"ce4bhgp2rcd13ifvqfc0","pricing_plan_id":"cebpf4jnsgd1na2vs0mg"},{"bike_id":"e42d58d1-9095-4536-9283-e6be8e42bc72","system_id":"levelo_inurba_marseille","lat":43.30535,"lon":5.36711,"is_reserved":false,"is_disabled":false,"rental_uris":{"android":"levelo://app?vid=e42d58d1-9095-4536-9283-e6be8e42bc72","ios":"levelo://app?vid=e42d58d1-9095-4536-9283-e6be8e42bc72"},"vehicle_type_id":"4","last_reported":1752332996,"current_range_meters":8800,"station_id":"ce4bgrp2rcd13ifvqc9g","pricing_plan_id":"cebpf4jnsgd1na2vs0mg"},{"bike_id":"9a721a67-800d-41fb-b2c2-3309f63164c3","system_id":"levelo_inurba_marseille","lat":43.21211,"lon":5.35121,"is_reserved":false,"is_disabled":false,"rental_uris":{"android":"levelo://app?vid=9a721a67-800d-41fb-b2c2-3309f63164c3","ios":"levelo://app?vid=9a721a67-800d-41fb-b2c2-3309f63164c3"},"vehicle_type_id":"4","last_reported":1752332996,"current_range_meters":8800,"station_id":"st_cvj6sg6p6f1abm77japg","pricing_plan_id":"cebpf4jnsgd1na2vs0mg"},{"bike_id":"73318631-486a-459e-a6c9-328ce8bbfe12","system_id":"levelo_inurba_marseille","lat":43.23055,"lon":5.35495,"is_reserved":false,"is_disabled":false,"rental_uris":{"android":"levelo://app?vid=73318631-486a-459e-a6c9-328ce8bbfe12","ios":"levelo://app?vid=73318631-486a-459e-a6c9-328ce8bbfe12"},"vehicle_type_id":"4","last_reported":1752332996,"current_range_meters":9200,"station_id":"cpo3342slgdg3j2ifvpg","pricing_plan_id":"cebpf4jnsgd1na2vs0mg"},{"bike_id":"aab98c4b-ec08-4f1b-b06b-b81b97f81d2b","system_id":"levelo_inurba_marseille","lat":43.27067,"lon":5.42277,"is_reserved":false,"is_disabled":false,"rental_uris":{"android":"levelo://app?vid=aab98c4b-ec08-4f1b-b06b-b81b97f81d2b","ios":"levelo://app?vid=aab98c4b-ec08-4f1b-b06b-b81b97f81d2b"},"vehicle_type_id":"4","last_reported":1752332996,"current_range_meters":9200,"station_id":"ce4bhk92rcd13ifvqgb0","pricing_plan_id":"cebpf4jnsgd1na2vs0mg"},{"bike_id":"351615bd-06e2-4d29-8f16-2fc2b8715483","system_id":"levelo_inurba_marseille","lat":43.296991,"lon":5.376768,"is_reserved":false,"is_disabled":false,"rental_uris":{"android":"levelo://app?vid=351615bd-06e2-4d29-8f16-2fc2b8715483","ios":"levelo://app?vid=351615bd-06e2-4d29-8f16-2fc2b8715483"},"vehicle_type_id":"4","last_reported":1752332996,"current_range_meters":9200,"station_id":"ce4bgkh2rcd13ifvqbl0","pricing_plan_id":"cebpf4jnsgd1na2vs0mg"},{"bike_id":"6a66eb12-7164-48c9-adff-37b4197867aa","system_id":"levelo_inurba_marseille","lat":43.26553,"lon":5.39024,"is_reserved":false,"is_disabled":false,"rental_uris":{"android":"levelo://app?vid=6a66eb12-7164-48c9-adff-37b4197867aa","ios":"levelo://app?vid=6a66eb12-7164-48c9-adff-37b4197867aa"},"vehicle_type_id":"4","last_reported":1752332996,"current_range_meters":9200,"station_id":"ce4bhe12rcd13ifvqf30","pricing_plan_id":"cebpf4jnsgd1na2vs0mg"},{"bike_id":"4417d256-3b9e-4bb2-b4bd-c1b285c9af27","system_id":"levelo_inurba_marseille","lat":43.29155,"lon":5.35715,"is_reserved":false,"is_disabled":false,"rental_uris":{"android":"levelo://app?vid=4417d256-3b9e-4bb2-b4bd-c1b285c9af27","ios":"levelo://app?vid=4417d256-3b9e-4bb2-b4bd-c1b285c9af27"},"vehicle_type_id":"4","last_reported":1752332996,"current_range_meters":9200,"station_id":"","pricing_plan_id":"cebpf4jnsgd1na2vs0mg"},{"bike_id":"55e06dd5-70cc-4475-9fd4-462ebaf52bde","system_id":"levelo_inurba_marseille","lat":43.28616,"lon":5.35106,"is_reserved":false,"is_disabled":false,"rental_uris":{"android":"levelo://app?vid=55e06dd5-70cc-4475-9fd4-462ebaf52bde","ios":"levelo://app?vid=55e06dd5-70cc-4475-9fd4-462ebaf52bde"},"vehicle_type_id":"4","last_reported":1752332996,"current_range_meters":9600,"station_id":"ce4bhch2rcd13ifvqeug","pricing_plan_id":"cebpf4jnsgd1na2vs0mg"},{"bike_id":"a7aaf1bc-081d-458e-9eae-ae2f7b2d05bf","system_id":"levelo_inurba_marseille","lat":43.29265,"lon":5.38449,"is_reserved":false,"is_disabled":false,"rental_uris":{"android":"levelo://app?vid=a7aaf1bc-081d-458e-9eae-ae2f7b2d05bf","ios":"levelo://app?vid=a7aaf1bc-081d-458e-9eae-ae2f7b2d05bf"},"vehicle_type_id":"4","last_reported":1752332996,"current_range_meters":9600,"station_id":"ce4bh692rcd13ifvqea0","pricing_plan_id":"cebpf4jnsgd1na2vs0mg"},{"bike_id":"cc6dbcee-6bea-403a-acf4-7cc960fd8080","system_id":"levelo_inurba_marseille","lat":43.23069,"lon":5.35487,"is_reserved":false,"is_disabled":false,"rental_uris":{"android":"levelo://app?vid=cc6dbcee-6bea-403a-acf4-7cc960fd8080","ios":"levelo://app?vid=cc6dbcee-6bea-403a-acf4-7cc960fd8080"},"vehicle_type_id":"4","last_reported":1752332996,"current_range_meters":9600,"station_id":"cpo3342slgdg3j2ifvpg","pricing_plan_id":"cebpf4jnsgd1na2vs0mg"},{"bike_id":"d36eb585-c270-447c-8cc8-9a1502095f39","system_id":"levelo_inurba_marseille","lat":43.24809,"lon":5.37459,"is_reserved":false,"is_disabled":false,"rental_uris":{"android":"levelo://app?vid=d36eb585-c270-447c-8cc8-9a1502095f39","ios":"levelo://app?vid=d36eb585-c270-447c-8cc8-9a1502095f39"},"vehicle_type_id":"4","last_reported":1752332996,"current_range_meters":9600,"station_id":"ce4bhgh2rcd13ifvqfb0","pricing_plan_id":"cebpf4jnsgd1na2vs0mg"},{"bike_id":"595e9351-a7ce-45de-8995-771f7d9fe86e","system_id":"levelo_inurba_marseille","lat":43.309243,"lon":5.378088,"is_reserved":false,"is_disabled":false,"rental_uris":{"android":"levelo://app?vid=595e9351-a7ce-45de-8995-771f7d9fe86e","ios":"levelo://app?vid=595e9351-a7ce-45de-8995-771f7d9fe86e"},"vehicle_type_id":"4","last_reported":1752332996,"current_range_meters":9600,"station_id":"","pricing_plan_id":"cebpf4jnsgd1na2vs0mg"},{"bike_id":"e370b2df-b587-4291-8280-7109e2aaf68c","system_id":"levelo_inurba_marseille","lat":43.295754,"lon":5.375191,"is_reserved":false,"is_disabled":false,"rental_uris":{"android":"levelo://app?vid=e370b2df-b587-4291-8280-7109e2aaf68c","ios":"levelo://app?vid=e370b2df-b587-4291-8280-7109e2aaf68c"},"vehicle_type_id":"4","last_reported":1752332996,"current_range_meters":9600,"station_id":"","pricing_plan_id":"cebpf4jnsgd1na2vs0mg"},{"bike_id":"54954314-a959-4474-9419-39ef65c1ef8a","system_id":"levelo_inurba_marseille","lat":43.29901,"lon":5.38134,"is_reserved":false,"is_disabled":false,"rental_uris":{"android":"levelo://app?vid=54954314-a959-4474-9419-39ef65c1ef8a","ios":"levelo://app?vid=54954314-a959-4474-9419-39ef65c1ef8a"},"vehicle_type_id":"4","last_reported":1752332996,"current_range_meters":9600,"station_id":"ce4bgj12rcd13ifvqbc0","pricing_plan_id":"cebpf4jnsgd1na2vs0mg"},{"bike_id":"e3a75ee9-c614-467b-8cc2-f813bcef2ab1","system_id":"levelo_inurba_marseille","lat":43.33743,"lon":5.3919,"is_reserved":false,"is_disabled":false,"rental_uris":{"android":"levelo://app?vid=e3a75ee9-c614-467b-8cc2-f813bcef2ab1","ios":"levelo://app?vid=e3a75ee9-c614-467b-8cc2-f813bcef2ab1"},"vehicle_type_id":"4","last_reported":1752332996,"current_range_meters":9600,"station_id":"ce4bhr92rcd13ifvqhsg","pricing_plan_id":"cebpf4jnsgd1na2vs0mg"},{"bike_id":"196b1093-1fbb-4545-b9a6-ee0d9c00193a","system_id":"levelo_inurba_marseille","lat":43.29581,"lon":5.37501,"is_reserved":false,"is_disabled":false,"rental_uris":{"android":"levelo://app?vid=196b1093-1fbb-4545-b9a6-ee0d9c00193a","ios":"levelo://app?vid=196b1093-1fbb-4545-b9a6-ee0d9c00193a"},"vehicle_type_id":"4","last_reported":1752332996,"current_range_meters":10000,"station_id":"ce4bgh92rcd13ifvqb50","pricing_plan_id":"cebpf4jnsgd1na2vs0mg"},{"bike_id":"097106d7-0dc8-4152-8540-cae0e1de8dea","system_id":"levelo_inurba_marseille","lat":43.21198,"lon":5.35072,"is_reserved":false,"is_disabled":false,"rental_uris":{"android":"levelo://app?vid=097106d7-0dc8-4152-8540-cae0e1de8dea","ios":"levelo://app?vid=097106d7-0dc8-4152-8540-cae0e1de8dea"},"vehicle_type_id":"4","last_reported":1752332996,"current_range_meters":10000,"station_id":"st_cvj6sg6p6f1abm77japg","pricing_plan_id":"cebpf4jnsgd1na2vs0mg"},{"bike_id":"3f8946e5-fd7f-48e3-80f4-b268a4eac1f4","system_id":"levelo_inurba_marseille","lat":43.262,"lon":5.3794,"is_reserved":false,"is_disabled":false,"rental_uris":{"android":"levelo://app?vid=3f8946e5-fd7f-48e3-80f4-b268a4eac1f4","ios":"levelo://app?vid=3f8946e5-fd7f-48e3-80f4-b268a4eac1f4"},"vehicle_type_id":"4","last_reported":1752332996,"current_range_meters":10000,"station_id":"ce4bhjp2rcd13ifvqg90","pricing_plan_id":"cebpf4jnsgd1na2vs0mg"},{"bike_id":"d62a5e18-93ba-414d-9667-f598fdd464b4","system_id":"levelo_inurba_marseille","lat":43.28409,"lon":5.37507,"is_reserved":false,"is_disabled":false,"rental_uris":{"android":"levelo://app?vid=d62a5e18-93ba-414d-9667-f598fdd464b4","ios":"levelo://app?vid=d62a5e18-93ba-414d-9667-f598fdd464b4"},"vehicle_type_id":"4","last_reported":1752332996,"current_range_meters":10000,"station_id":"ce4bh412rcd13ifvqds0","pricing_plan_id":"cebpf4jnsgd1na2vs0mg"},{"bike_id":"46cacac0-84b7-4c70-a453-a1cb8250fb4d","system_id":"levelo_inurba_marseille","lat":43.3373,"lon":5.37417,"is_reserved":false,"is_disabled":false,"rental_uris":{"android":"levelo://app?vid=46cacac0-84b7-4c70-a453-a1cb8250fb4d","ios":"levelo://app?vid=46cacac0-84b7-4c70-a453-a1cb8250fb4d"},"vehicle_type_id":"4","last_reported":1752332996,"current_range_meters":10000,"station_id":"","pricing_plan_id":"cebpf4jnsgd1na2vs0mg"},{"bike_id":"efbf6e7f-5418-4ac1-aaeb-e76bcb5121e0","system_id":"levelo_inurba_marseille","lat":43.28418,"lon":5.34993,"is_reserved":false,"is_disabled":false,"rental_uris":{"android":"levelo://app?vid=efbf6e7f-5418-4ac1-aaeb-e76bcb5121e0","ios":"levelo://app?vid=efbf6e7f-5418-4ac1-aaeb-e76bcb5121e0"},"vehicle_type_id":"4","last_reported":1752332996,"current_range_meters":10000,"station_id":"ce4bhbh2rcd13ifvqepg","pricing_plan_id":"cebpf4jnsgd1na2vs0mg"},{"bike_id":"4ce2d3db-9781-4526-9308-4d2203494e10","system_id":"levelo_inurba_marseille","lat":43.23069,"lon":5.35492,"is_reserved":false,"is_disabled":false,"rental_uris":{"android":"levelo://app?vid=4ce2d3db-9781-4526-9308-4d2203494e10","ios":"levelo://app?vid=4ce2d3db-9781-4526-9308-4d2203494e10"},"vehicle_type_id":"4","last_reported":1752332996,"current_range_meters":10000,"station_id":"cpo3342slgdg3j2ifvpg","pricing_plan_id":"cebpf4jnsgd1na2vs0mg"},{"bike_id":"1bfa168e-7ab3-4f09-87bf-de0698a16a33","system_id":"levelo_inurba_marseille","lat":43.289519,"lon":5.359343,"is_reserved":false,"is_disabled":false,"rental_uris":{"android":"levelo://app?vid=1bfa168e-7ab3-4f09-87bf-de0698a16a33","ios":"levelo://app?vid=1bfa168e-7ab3-4f09-87bf-de0698a16a33"},"vehicle_type_id":"4","last_reported":1752332996,"current_range_meters":10000,"station_id":"ce4bha92rcd13ifvqeg0","pricing_plan_id":"cebpf4jnsgd1na2vs0mg"},{"bike_id":"2711aaaf-3805-4804-9329-3207cf061148","system_id":"levelo_inurba_marseille","lat":43.28431,"lon":5.34968,"is_reserved":false,"is_disabled":false,"rental_uris":{"android":"levelo://app?vid=2711aaaf-3805-4804-9329-3207cf061148","ios":"levelo://app?vid=2711aaaf-3805-4804-9329-3207cf061148"},"vehicle_type_id":"4","last_reported":1752332996,"current_range_meters":10000,"station_id":"ce4bhbh2rcd13ifvqepg","pricing_plan_id":"cebpf4jnsgd1na2vs0mg"},{"bike_id":"e6a13a5a-5da2-46f9-9066-ad2166b809dc","system_id":"levelo_inurba_marseille","lat":43.25726,"lon":5.41106,"is_reserved":false,"is_disabled":false,"rental_uris":{"android":"levelo://app?vid=e6a13a5a-5da2-46f9-9066-ad2166b809dc","ios":"levelo://app?vid=e6a13a5a-5da2-46f9-9066-ad2166b809dc"},"vehicle_type_id":"4","last_reported":1752332996,"current_range_meters":10000,"station_id":"ce4bhkp2rcd13ifvqgd0","pricing_plan_id":"cebpf4jnsgd1na2vs0mg"},{"bike_id":"75bb1dd6-50a7-47a9-9e4b-6b29bd46237a","system_id":"levelo_inurba_marseille","lat":43.21221,"lon":5.3505,"is_reserved":false,"is_disabled":false,"rental_uris":{"android":"levelo://app?vid=75bb1dd6-50a7-47a9-9e4b-6b29bd46237a","ios":"levelo://app?vid=75bb1dd6-50a7-47a9-9e4b-6b29bd46237a"},"vehicle_type_id":"4","last_reported":1752332996,"current_range_meters":10000,"station_id":"","pricing_plan_id":"cebpf4jnsgd1na2vs0mg"},{"bike_id":"9dbd7bad-ca30-43ae-8d8f-a597179d5b51","system_id":"levelo_inurba_marseille","lat":43.28032,"lon":5.36948,"is_reserved":false,"is_disabled":true,"rental_uris":{"android":"levelo://app?vid=9dbd7bad-ca30-43ae-8d8f-a597179d5b51","ios":"levelo://app?vid=9dbd7bad-ca30-43ae-8d8f-a597179d5b51"},"vehicle_type_id":"4","last_reported":1752332996,"current_range_meters":10000,"station_id":"ce4bha12rcd13ifvqef0","pricing_plan_id":"cebpf4jnsgd1na2vs0mg"},{"bike_id":"eda0ea69-6404-43e6-9ede-2655d170d444","system_id":"levelo_inurba_marseille","lat":43.28842,"lon":5.3585,"is_reserved":false,"is_disabled":true,"rental_uris":{"android":"levelo://app?vid=eda0ea69-6404-43e6-9ede-2655d170d444","ios":"levelo://app?vid=eda0ea69-6404-43e6-9ede-2655d170d444"},"vehicle_type_id":"4","last_reported":1752332996,"current_range_meters":10000,"station_id":"ce4bhb12rcd13ifvqem0","pricing_plan_id":"cebpf4jnsgd1na2vs0mg"},{"bike_id":"549f70c3-e2dd-4901-945c-fdf5831cfcef","system_id":"levelo_inurba_marseille","lat":43.240754,"lon":5.377588,"is_reserved":false,"is_disabled":false,"rental_uris":{"android":"levelo://app?vid=549f70c3-e2dd-4901-945c-fdf5831cfcef","ios":"levelo://app?vid=549f70c3-e2dd-4901-945c-fdf5831cfcef"},"vehicle_type_id":"4","last_reported":1752332996,"current_range_meters":10000,"station_id":"ce4bhnp2rcd13ifvqgvg","pricing_plan_id":"cebpf4jnsgd1na2vs0mg"},{"bike_id":"0f217f24-1151-4865-aee7-c826d0832df6","system_id":"levelo_inurba_marseille","lat":43.29522,"lon":5.3904,"is_reserved":false,"is_disabled":false,"rental_uris":{"android":"levelo://app?vid=0f217f24-1151-4865-aee7-c826d0832df6","ios":"levelo://app?vid=0f217f24-1151-4865-aee7-c826d0832df6"},"vehicle_type_id":"4","last_reported":1752332996,"current_range_meters":10000,"station_id":"ce4bh3p2rcd13ifvqdp0","pricing_plan_id":"cebpf4jnsgd1na2vs0mg"},{"bike_id":"8929c1bf-fd4d-44e4-aa66-b3eb6538c998","system_id":"levelo_inurba_marseille","lat":43.2857,"lon":5.42991,"is_reserved":false,"is_disabled":false,"rental_uris":{"android":"levelo://app?vid=8929c1bf-fd4d-44e4-aa66-b3eb6538c998","ios":"levelo://app?vid=8929c1bf-fd4d-44e4-aa66-b3eb6538c998"},"vehicle_type_id":"4","last_reported":1752332996,"current_range_meters":10800,"station_id":"","pricing_plan_id":"cebpf4jnsgd1na2vs0mg"},{"bike_id":"4c969e36-8dbc-471a-9fa8-b947082e225a","system_id":"levelo_inurba_marseille","lat":43.21193,"lon":5.35041,"is_reserved":false,"is_disabled":false,"rental_uris":{"android":"levelo://app?vid=4c969e36-8dbc-471a-9fa8-b947082e225a","ios":"levelo://app?vid=4c969e36-8dbc-471a-9fa8-b947082e225a"},"vehicle_type_id":"4","last_reported":1752332996,"current_range_meters":10800,"station_id":"st_cvj6sg6p6f1abm77japg","pricing_plan_id":"cebpf4jnsgd1na2vs0mg"},{"bike_id":"353b3d94-d878-469f-9a9d-0ce9964df18e","system_id":"levelo_inurba_marseille","lat":43.23178,"lon":5.39986,"is_reserved":false,"is_disabled":false,"rental_uris":{"android":"levelo://app?vid=353b3d94-d878-469f-9a9d-0ce9964df18e","ios":"levelo://app?vid=353b3d94-d878-469f-9a9d-0ce9964df18e"},"vehicle_type_id":"4","last_reported":1752332996,"current_range_meters":10800,"station_id":"ce4bhn12rcd13ifvqgqg","pricing_plan_id":"cebpf4jnsgd1na2vs0mg"},{"bike_id":"97d4bafb-1703-482a-9af9-9c0328bf232e","system_id":"levelo_inurba_marseille","lat":43.29554,"lon":5.37499,"is_reserved":false,"is_disabled":false,"rental_uris":{"android":"levelo://app?vid=97d4bafb-1703-482a-9af9-9c0328bf232e","ios":"levelo://app?vid=97d4bafb-1703-482a-9af9-9c0328bf232e"},"vehicle_type_id":"4","last_reported":1752332996,"current_range_meters":10800,"station_id":"ce4bgkp2rcd13ifvqbmg","pricing_plan_id":"cebpf4jnsgd1na2vs0mg"},{"bike_id":"b6603358-7ba0-4c6e-8cf0-4274e4220e09","system_id":"levelo_inurba_marseille","lat":43.2668,"lon":5.38272,"is_reserved":false,"is_disabled":false,"rental_uris":{"android":"levelo://app?vid=b6603358-7ba0-4c6e-8cf0-4274e4220e09","ios":"levelo://app?vid=b6603358-7ba0-4c6e-8cf0-4274e4220e09"},"vehicle_type_id":"4","last_reported":1752332996,"current_range_meters":10800,"station_id":"ce4bhg92rcd13ifvqf90","pricing_plan_id":"cebpf4jnsgd1na2vs0mg"},{"bike_id":"036f5b4d-0498-41f3-92cb-f26dd868847e","system_id":"levelo_inurba_marseille","lat":43.30173,"lon":5.38094,"is_reserved":false,"is_disabled":false,"rental_uris":{"android":"levelo://app?vid=036f5b4d-0498-41f3-92cb-f26dd868847e","ios":"levelo://app?vid=036f5b4d-0498-41f3-92cb-f26dd868847e"},"vehicle_type_id":"4","last_reported":1752332996,"current_range_meters":11200,"station_id":"ce4bgjp2rcd13ifvqbh0","pricing_plan_id":"cebpf4jnsgd1na2vs0mg"},{"bike_id":"683da432-399d-4390-923e-40f0b7e772b2","system_id":"levelo_inurba_marseille","lat":43.22937,"lon":5.35381,"is_reserved":false,"is_disabled":false,"rental_uris":{"android":"levelo://app?vid=683da432-399d-4390-923e-40f0b7e772b2","ios":"levelo://app?vid=683da432-399d-4390-923e-40f0b7e772b2"},"vehicle_type_id":"4","last_reported":1752332996,"current_range_meters":11200,"station_id":"cpo3532slgdg3j2ikp40","pricing_plan_id":"cebpf4jnsgd1na2vs0mg"},{"bike_id":"21f51f77-8b78-488b-a42e-44d2a504cf11","system_id":"levelo_inurba_marseille","lat":43.24167,"lon":5.36409,"is_reserved":false,"is_disabled":true,"rental_uris":{"android":"levelo://app?vid=21f51f77-8b78-488b-a42e-44d2a504cf11","ios":"levelo://app?vid=21f51f77-8b78-488b-a42e-44d2a504cf11"},"vehicle_type_id":"4","last_reported":1752332996,"current_range_meters":11200,"station_id":"cpo36qri1sfpv3e86is0","pricing_plan_id":"cebpf4jnsgd1na2vs0mg"},{"bike_id":"c809955f-9614-49a3-9279-d9d11891d755","system_id":"levelo_inurba_marseille","lat":43.29732,"lon":5.37688,"is_reserved":false,"is_disabled":false,"rental_uris":{"android":"levelo://app?vid=c809955f-9614-49a3-9279-d9d11891d755","ios":"levelo://app?vid=c809955f-9614-49a3-9279-d9d11891d755"},"vehicle_type_id":"4","last_reported":1752332996,"current_range_meters":11200,"station_id":"ce4bgkh2rcd13ifvqbl0","pricing_plan_id":"cebpf4jnsgd1na2vs0mg"},{"bike_id":"557f22e2-b9e8-4327-956b-0cd4e2e3fd60","system_id":"levelo_inurba_marseille","lat":43.30542,"lon":5.36552,"is_reserved":false,"is_disabled":false,"rental_uris":{"android":"levelo://app?vid=557f22e2-b9e8-4327-956b-0cd4e2e3fd60","ios":"levelo://app?vid=557f22e2-b9e8-4327-956b-0cd4e2e3fd60"},"vehicle_type_id":"4","last_reported":1752332996,"current_range_meters":11600,"station_id":"ce4bgs12rcd13ifvqcag","pricing_plan_id":"cebpf4jnsgd1na2vs0mg"},{"bike_id":"be8a9ba9-02ab-47ab-ba69-144fedff4f09","system_id":"levelo_inurba_marseille","lat":43.29027,"lon":5.38133,"is_reserved":false,"is_disabled":false,"rental_uris":{"android":"levelo://app?vid=be8a9ba9-02ab-47ab-ba69-144fedff4f09","ios":"levelo://app?vid=be8a9ba9-02ab-47ab-ba69-144fedff4f09"},"vehicle_type_id":"4","last_reported":1752332996,"current_range_meters":11600,"station_id":"ce4bh4p2rcd13ifvqe1g","pricing_plan_id":"cebpf4jnsgd1na2vs0mg"},{"bike_id":"733bc91c-338c-4ff7-bdae-9de737268e57","system_id":"levelo_inurba_marseille","lat":43.29908,"lon":5.37472,"is_reserved":false,"is_disabled":false,"rental_uris":{"android":"levelo://app?vid=733bc91c-338c-4ff7-bdae-9de737268e57","ios":"levelo://app?vid=733bc91c-338c-4ff7-bdae-9de737268e57"},"vehicle_type_id":"4","last_reported":1752332996,"current_range_meters":11600,"station_id":"ce4bgjh2rcd13ifvqbg0","pricing_plan_id":"cebpf4jnsgd1na2vs0mg"},{"bike_id":"b0acdd29-d79f-412d-8f93-5f6abb4004e6","system_id":"levelo_inurba_marseille","lat":43.29613,"lon":5.37709,"is_reserved":false,"is_disabled":false,"rental_uris":{"android":"levelo://app?vid=b0acdd29-d79f-412d-8f93-5f6abb4004e6","ios":"levelo://app?vid=b0acdd29-d79f-412d-8f93-5f6abb4004e6"},"vehicle_type_id":"4","last_reported":1752332996,"current_range_meters":11600,"station_id":"ce4bgi92rcd13ifvqb90","pricing_plan_id":"cebpf4jnsgd1na2vs0mg"},{"bike_id":"c453155a-5220-48fc-922b-600ca54f8ab5","system_id":"levelo_inurba_marseille","lat":43.286568,"lon":5.363481,"is_reserved":false,"is_disabled":true,"rental_uris":{"android":"levelo://app?vid=c453155a-5220-48fc-922b-600ca54f8ab5","ios":"levelo://app?vid=c453155a-5220-48fc-922b-600ca54f8ab5"},"vehicle_type_id":"4","last_reported":1752332996,"current_range_meters":11600,"station_id":"ce4bhah2rcd13ifvqej0","pricing_plan_id":"cebpf4jnsgd1na2vs0mg"},{"bike_id":"f6974de0-f478-4f51-9582-c4d48c77f98e","system_id":"levelo_inurba_marseille","lat":43.26208,"lon":5.37443,"is_reserved":false,"is_disabled":false,"rental_uris":{"android":"levelo://app?vid=f6974de0-f478-4f51-9582-c4d48c77f98e","ios":"levelo://app?vid=f6974de0-f478-4f51-9582-c4d48c77f98e"},"vehicle_type_id":"4","last_reported":1752332996,"current_range_meters":12000,"station_id":"ce4bhgp2rcd13ifvqfc0","pricing_plan_id":"cebpf4jnsgd1na2vs0mg"},{"bike_id":"c25bdb93-ad67-4fb5-8b97-e2e0752ede62","system_id":"levelo_inurba_marseille","lat":43.28412,"lon":5.34981,"is_reserved":false,"is_disabled":false,"rental_uris":{"android":"levelo://app?vid=c25bdb93-ad67-4fb5-8b97-e2e0752ede62","ios":"levelo://app?vid=c25bdb93-ad67-4fb5-8b97-e2e0752ede62"},"vehicle_type_id":"4","last_reported":1752332996,"current_range_meters":12000,"station_id":"ce4bhbh2rcd13ifvqepg","pricing_plan_id":"cebpf4jnsgd1na2vs0mg"},{"bike_id":"b59abc13-3ce4-4852-b64e-5c578ce71136","system_id":"levelo_inurba_marseille","lat":43.231925,"lon":5.355498,"is_reserved":false,"is_disabled":false,"rental_uris":{"android":"levelo://app?vid=b59abc13-3ce4-4852-b64e-5c578ce71136","ios":"levelo://app?vid=b59abc13-3ce4-4852-b64e-5c578ce71136"},"vehicle_type_id":"4","last_reported":1752332996,"current_range_meters":12000,"station_id":"ce4bhu92rcd13ifvqi70","pricing_plan_id":"cebpf4jnsgd1na2vs0mg"},{"bike_id":"61198919-e72c-4fce-bc96-126627987dc0","system_id":"levelo_inurba_marseille","lat":43.2959,"lon":5.37847,"is_reserved":false,"is_disabled":false,"rental_uris":{"android":"levelo://app?vid=61198919-e72c-4fce-bc96-126627987dc0","ios":"levelo://app?vid=61198919-e72c-4fce-bc96-126627987dc0"},"vehicle_type_id":"4","last_reported":1752332996,"current_range_meters":12000,"station_id":"","pricing_plan_id":"cebpf4jnsgd1na2vs0mg"},{"bike_id":"dbba3321-20c7-4989-a7b5-ea9ab2c4b3e8","system_id":"levelo_inurba_marseille","lat":43.261935,"lon":5.374477,"is_reserved":false,"is_disabled":false,"rental_uris":{"android":"levelo://app?vid=dbba3321-20c7-4989-a7b5-ea9ab2c4b3e8","ios":"levelo://app?vid=dbba3321-20c7-4989-a7b5-ea9ab2c4b3e8"},"vehicle_type_id":"4","last_reported":1752332996,"current_range_meters":12000,"station_id":"ce4bhgp2rcd13ifvqfc0","pricing_plan_id":"cebpf4jnsgd1na2vs0mg"},{"bike_id":"abaf9c0a-74e8-428f-ad69-0012491ee081","system_id":"levelo_inurba_marseille","lat":43.26505,"lon":5.39539,"is_reserved":false,"is_disabled":false,"rental_uris":{"android":"levelo://app?vid=abaf9c0a-74e8-428f-ad69-0012491ee081","ios":"levelo://app?vid=abaf9c0a-74e8-428f-ad69-0012491ee081"},"vehicle_type_id":"4","last_reported":1752332996,"current_range_meters":11600,"station_id":"ce4bhi12rcd13ifvqfq0","pricing_plan_id":"cebpf4jnsgd1na2vs0mg"},{"bike_id":"413d35c0-51f8-4407-8c4f-a86fd651f15b","system_id":"levelo_inurba_marseille","lat":43.29623,"lon":5.37172,"is_reserved":false,"is_disabled":false,"rental_uris":{"android":"levelo://app?vid=413d35c0-51f8-4407-8c4f-a86fd651f15b","ios":"levelo://app?vid=413d35c0-51f8-4407-8c4f-a86fd651f15b"},"vehicle_type_id":"4","last_reported":1752332996,"current_range_meters":12400,"station_id":"ce4bgnh2rcd13ifvqc0g","pricing_plan_id":"cebpf4jnsgd1na2vs0mg"},{"bike_id":"b176ed47-5a78-439d-98f3-2bb4a8d83849","system_id":"levelo_inurba_marseille","lat":43.29372,"lon":5.37857,"is_reserved":false,"is_disabled":false,"rental_uris":{"android":"levelo://app?vid=b176ed47-5a78-439d-98f3-2bb4a8d83849","ios":"levelo://app?vid=b176ed47-5a78-439d-98f3-2bb4a8d83849"},"vehicle_type_id":"4","last_reported":1752332996,"current_range_meters":12400,"station_id":"ce4bgjh2rcd13ifvqbf0","pricing_plan_id":"cebpf4jnsgd1na2vs0mg"},{"bike_id":"ab6cb234-c8d6-4ce4-ab4f-b14b364484d3","system_id":"levelo_inurba_marseille","lat":43.30127,"lon":5.38101,"is_reserved":false,"is_disabled":false,"rental_uris":{"android":"levelo://app?vid=ab6cb234-c8d6-4ce4-ab4f-b14b364484d3","ios":"levelo://app?vid=ab6cb234-c8d6-4ce4-ab4f-b14b364484d3"},"vehicle_type_id":"4","last_reported":1752332996,"current_range_meters":12400,"station_id":"ce4bgjp2rcd13ifvqbh0","pricing_plan_id":"cebpf4jnsgd1na2vs0mg"},{"bike_id":"e646e481-a4d6-4b85-b84d-3edc06745025","system_id":"levelo_inurba_marseille","lat":43.30601,"lon":5.39332,"is_reserved":false,"is_disabled":true,"rental_uris":{"android":"levelo://app?vid=e646e481-a4d6-4b85-b84d-3edc06745025","ios":"levelo://app?vid=e646e481-a4d6-4b85-b84d-3edc06745025"},"vehicle_type_id":"4","last_reported":1752332996,"current_range_meters":12400,"station_id":"ce4bh0p2rcd13ifvqd80","pricing_plan_id":"cebpf4jnsgd1na2vs0mg"},{"bike_id":"f814ed79-f1e3-440c-b156-f7a409e5edab","system_id":"levelo_inurba_marseille","lat":43.31093,"lon":5.42418,"is_reserved":false,"is_disabled":false,"rental_uris":{"android":"levelo://app?vid=f814ed79-f1e3-440c-b156-f7a409e5edab","ios":"levelo://app?vid=f814ed79-f1e3-440c-b156-f7a409e5edab"},"vehicle_type_id":"4","last_reported":1752332996,"current_range_meters":12800,"station_id":"ce4bhp92rcd13ifvqhag","pricing_plan_id":"cebpf4jnsgd1na2vs0mg"},{"bike_id":"598d4daf-e8c2-4609-a82b-cf943a5efae4","system_id":"levelo_inurba_marseille","lat":43.22935,"lon":5.35383,"is_reserved":false,"is_disabled":false,"rental_uris":{"android":"levelo://app?vid=598d4daf-e8c2-4609-a82b-cf943a5efae4","ios":"levelo://app?vid=598d4daf-e8c2-4609-a82b-cf943a5efae4"},"vehicle_type_id":"4","last_reported":1752332996,"current_range_meters":12800,"station_id":"cpo3532slgdg3j2ikp40","pricing_plan_id":"cebpf4jnsgd1na2vs0mg"},{"bike_id":"a77e0efc-52a8-46e4-88e9-0fa0ee1efc98","system_id":"levelo_inurba_marseille","lat":43.28612,"lon":5.350983,"is_reserved":false,"is_disabled":false,"rental_uris":{"android":"levelo://app?vid=a77e0efc-52a8-46e4-88e9-0fa0ee1efc98","ios":"levelo://app?vid=a77e0efc-52a8-46e4-88e9-0fa0ee1efc98"},"vehicle_type_id":"4","last_reported":1752332996,"current_range_meters":12800,"station_id":"ce4bhch2rcd13ifvqeug","pricing_plan_id":"cebpf4jnsgd1na2vs0mg"},{"bike_id":"008260af-f96d-46f7-9f16-44b7a7c6d361","system_id":"levelo_inurba_marseille","lat":43.29273,"lon":5.36833,"is_reserved":false,"is_disabled":false,"rental_uris":{"android":"levelo://app?vid=008260af-f96d-46f7-9f16-44b7a7c6d361","ios":"levelo://app?vid=008260af-f96d-46f7-9f16-44b7a7c6d361"},"vehicle_type_id":"4","last_reported":1752332996,"current_range_meters":13600,"station_id":"ce4bhbp2rcd13ifvqesg","pricing_plan_id":"cebpf4jnsgd1na2vs0mg"},{"bike_id":"4d45486c-f881-4f55-a8c2-49a10b22295b","system_id":"levelo_inurba_marseille","lat":43.29897,"lon":5.38119,"is_reserved":false,"is_disabled":false,"rental_uris":{"android":"levelo://app?vid=4d45486c-f881-4f55-a8c2-49a10b22295b","ios":"levelo://app?vid=4d45486c-f881-4f55-a8c2-49a10b22295b"},"vehicle_type_id":"4","last_reported":1752332996,"current_range_meters":13600,"station_id":"ce4bgj12rcd13ifvqbc0","pricing_plan_id":"cebpf4jnsgd1na2vs0mg"},{"bike_id":"4e81fdf0-043e-4b24-9ebd-c5d4822e478a","system_id":"levelo_inurba_marseille","lat":43.29262,"lon":5.38441,"is_reserved":false,"is_disabled":false,"rental_uris":{"android":"levelo://app?vid=4e81fdf0-043e-4b24-9ebd-c5d4822e478a","ios":"levelo://app?vid=4e81fdf0-043e-4b24-9ebd-c5d4822e478a"},"vehicle_type_id":"4","last_reported":1752332996,"current_range_meters":13600,"station_id":"ce4bh692rcd13ifvqea0","pricing_plan_id":"cebpf4jnsgd1na2vs0mg"},{"bike_id":"c816310d-8ff0-4290-b10a-aad431dd902c","system_id":"levelo_inurba_marseille","lat":43.21753,"lon":5.3461,"is_reserved":false,"is_disabled":true,"rental_uris":{"android":"levelo://app?vid=c816310d-8ff0-4290-b10a-aad431dd902c","ios":"levelo://app?vid=c816310d-8ff0-4290-b10a-aad431dd902c"},"vehicle_type_id":"4","last_reported":1752332996,"current_range_meters":14000,"station_id":"","pricing_plan_id":"cebpf4jnsgd1na2vs0mg"},{"bike_id":"ad3a92a9-aac6-4694-a2f3-20c935fef2b6","system_id":"levelo_inurba_marseille","lat":43.292986,"lon":5.374656,"is_reserved":false,"is_disabled":false,"rental_uris":{"android":"levelo://app?vid=ad3a92a9-aac6-4694-a2f3-20c935fef2b6","ios":"levelo://app?vid=ad3a92a9-aac6-4694-a2f3-20c935fef2b6"},"vehicle_type_id":"4","last_reported":1752332996,"current_range_meters":14000,"station_id":"","pricing_plan_id":"cebpf4jnsgd1na2vs0mg"},{"bike_id":"342194d3-4be6-4316-bc12-fda91600845d","system_id":"levelo_inurba_marseille","lat":43.28946,"lon":5.3643,"is_reserved":false,"is_disabled":false,"rental_uris":{"android":"levelo://app?vid=342194d3-4be6-4316-bc12-fda91600845d","ios":"levelo://app?vid=342194d3-4be6-4316-bc12-fda91600845d"},"vehicle_type_id":"4","last_reported":1752332996,"current_range_meters":14000,"station_id":"ce4bhc92rcd13ifvqetg","pricing_plan_id":"cebpf4jnsgd1na2vs0mg"},{"bike_id":"c12fada5-3696-4dd5-a664-ae0874a6d9af","system_id":"levelo_inurba_marseille","lat":43.217512,"lon":5.346008,"is_reserved":false,"is_disabled":false,"rental_uris":{"android":"levelo://app?vid=c12fada5-3696-4dd5-a664-ae0874a6d9af","ios":"levelo://app?vid=c12fada5-3696-4dd5-a664-ae0874a6d9af"},"vehicle_type_id":"4","last_reported":1752332996,"current_range_meters":14400,"station_id":"st_cvj6r9ubvosntc0bgbag","pricing_plan_id":"cebpf4jnsgd1na2vs0mg"},{"bike_id":"478952d0-5680-46f4-b800-e1910fc928d8","system_id":"levelo_inurba_marseille","lat":43.24169,"lon":5.36391,"is_reserved":false,"is_disabled":false,"rental_uris":{"android":"levelo://app?vid=478952d0-5680-46f4-b800-e1910fc928d8","ios":"levelo://app?vid=478952d0-5680-46f4-b800-e1910fc928d8"},"vehicle_type_id":"4","last_reported":1752332996,"current_range_meters":14400,"station_id":"cpo36qri1sfpv3e86is0","pricing_plan_id":"cebpf4jnsgd1na2vs0mg"},{"bike_id":"915875d0-1075-498e-bea9-c03b462a7f2c","system_id":"levelo_inurba_marseille","lat":43.231892,"lon":5.400891,"is_reserved":false,"is_disabled":false,"rental_uris":{"android":"levelo://app?vid=915875d0-1075-498e-bea9-c03b462a7f2c","ios":"levelo://app?vid=915875d0-1075-498e-bea9-c03b462a7f2c"},"vehicle_type_id":"4","last_reported":1752332996,"current_range_meters":14400,"station_id":"ce4bhn12rcd13ifvqgqg","pricing_plan_id":"cebpf4jnsgd1na2vs0mg"},{"bike_id":"470d1e9d-8c05-40b8-a6b2-039f183b9f6a","system_id":"levelo_inurba_marseille","lat":43.23194,"lon":5.35576,"is_reserved":false,"is_disabled":true,"rental_uris":{"android":"levelo://app?vid=470d1e9d-8c05-40b8-a6b2-039f183b9f6a","ios":"levelo://app?vid=470d1e9d-8c05-40b8-a6b2-039f183b9f6a"},"vehicle_type_id":"4","last_reported":1752332996,"current_range_meters":14400,"station_id":"ce4bhu92rcd13ifvqi70","pricing_plan_id":"cebpf4jnsgd1na2vs0mg"},{"bike_id":"32f1c2b5-522a-4242-bab4-abd002128b88","system_id":"levelo_inurba_marseille","lat":43.30917,"lon":5.36846,"is_reserved":false,"is_disabled":false,"rental_uris":{"android":"levelo://app?vid=32f1c2b5-522a-4242-bab4-abd002128b88","ios":"levelo://app?vid=32f1c2b5-522a-4242-bab4-abd002128b88"},"vehicle_type_id":"4","last_reported":1752332996,"current_range_meters":14800,"station_id":"ce4bgn92rcd13ifvqbvg","pricing_plan_id":"cebpf4jnsgd1na2vs0mg"},{"bike_id":"7f02047d-a6cd-43f4-a617-996f2b9a8bc8","system_id":"levelo_inurba_marseille","lat":43.32367,"lon":5.36768,"is_reserved":false,"is_disabled":false,"rental_uris":{"android":"levelo://app?vid=7f02047d-a6cd-43f4-a617-996f2b9a8bc8","ios":"levelo://app?vid=7f02047d-a6cd-43f4-a617-996f2b9a8bc8"},"vehicle_type_id":"4","last_reported":1752332996,"current_range_meters":14800,"station_id":"ce4bhsh2rcd13ifvqi2g","pricing_plan_id":"cebpf4jnsgd1na2vs0mg"},{"bike_id":"ce3b7c35-fd06-4c6c-af57-25b5524398ea","system_id":"levelo_inurba_marseille","lat":43.28278,"lon":5.35073,"is_reserved":false,"is_disabled":false,"rental_uris":{"android":"levelo://app?vid=ce3b7c35-fd06-4c6c-af57-25b5524398ea","ios":"levelo://app?vid=ce3b7c35-fd06-4c6c-af57-25b5524398ea"},"vehicle_type_id":"4","last_reported":1752332996,"current_range_meters":14800,"station_id":"ce4bhbp2rcd13ifvqerg","pricing_plan_id":"cebpf4jnsgd1na2vs0mg"},{"bike_id":"a49c2f3d-1f9f-4474-bcc5-dfde5529e311","system_id":"levelo_inurba_marseille","lat":43.21752,"lon":5.34601,"is_reserved":false,"is_disabled":false,"rental_uris":{"android":"levelo://app?vid=a49c2f3d-1f9f-4474-bcc5-dfde5529e311","ios":"levelo://app?vid=a49c2f3d-1f9f-4474-bcc5-dfde5529e311"},"vehicle_type_id":"4","last_reported":1752332996,"current_range_meters":14800,"station_id":"st_cvj6r9ubvosntc0bgbag","pricing_plan_id":"cebpf4jnsgd1na2vs0mg"},{"bike_id":"888bd7d8-4ec5-4282-97cb-63503f2485c0","system_id":"levelo_inurba_marseille","lat":43.30811,"lon":5.38164,"is_reserved":false,"is_disabled":false,"rental_uris":{"android":"levelo://app?vid=888bd7d8-4ec5-4282-97cb-63503f2485c0","ios":"levelo://app?vid=888bd7d8-4ec5-4282-97cb-63503f2485c0"},"vehicle_type_id":"4","last_reported":1752332996,"current_range_meters":15200,"station_id":"ce4bgt12rcd13ifvqce0","pricing_plan_id":"cebpf4jnsgd1na2vs0mg"},{"bike_id":"d81fc32a-e83b-43aa-88f6-45ae21d3a857","system_id":"levelo_inurba_marseille","lat":43.31709,"lon":5.40468,"is_reserved":false,"is_disabled":false,"rental_uris":{"android":"levelo://app?vid=d81fc32a-e83b-43aa-88f6-45ae21d3a857","ios":"levelo://app?vid=d81fc32a-e83b-43aa-88f6-45ae21d3a857"},"vehicle_type_id":"4","last_reported":1752332996,"current_range_meters":15200,"station_id":"ce4bh012rcd13ifvqd00","pricing_plan_id":"cebpf4jnsgd1na2vs0mg"},{"bike_id":"5a1aa169-e8de-4c42-8232-f9cf794c57f1","system_id":"levelo_inurba_marseille","lat":43.21196,"lon":5.35079,"is_reserved":false,"is_disabled":false,"rental_uris":{"android":"levelo://app?vid=5a1aa169-e8de-4c42-8232-f9cf794c57f1","ios":"levelo://app?vid=5a1aa169-e8de-4c42-8232-f9cf794c57f1"},"vehicle_type_id":"4","last_reported":1752332996,"current_range_meters":15200,"station_id":"st_cvj6sg6p6f1abm77japg","pricing_plan_id":"cebpf4jnsgd1na2vs0mg"},{"bike_id":"0d05e84d-10fa-41da-b241-9cfd8aee4666","system_id":"levelo_inurba_marseille","lat":43.28268,"lon":5.35081,"is_reserved":false,"is_disabled":false,"rental_uris":{"android":"levelo://app?vid=0d05e84d-10fa-41da-b241-9cfd8aee4666","ios":"levelo://app?vid=0d05e84d-10fa-41da-b241-9cfd8aee4666"},"vehicle_type_id":"4","last_reported":1752332996,"current_range_meters":15200,"station_id":"ce4bhbp2rcd13ifvqerg","pricing_plan_id":"cebpf4jnsgd1na2vs0mg"},{"bike_id":"737ead6f-e608-42f1-8a55-8949c954e8e3","system_id":"levelo_inurba_marseille","lat":43.21207,"lon":5.35084,"is_reserved":false,"is_disabled":false,"rental_uris":{"android":"levelo://app?vid=737ead6f-e608-42f1-8a55-8949c954e8e3","ios":"levelo://app?vid=737ead6f-e608-42f1-8a55-8949c954e8e3"},"vehicle_type_id":"4","last_reported":1752332996,"current_range_meters":15200,"station_id":"st_cvj6sg6p6f1abm77japg","pricing_plan_id":"cebpf4jnsgd1na2vs0mg"},{"bike_id":"c7c4725f-ddab-4a76-b57e-952d7794448c","system_id":"levelo_inurba_marseille","lat":43.22954,"lon":5.35351,"is_reserved":false,"is_disabled":false,"rental_uris":{"android":"levelo://app?vid=c7c4725f-ddab-4a76-b57e-952d7794448c","ios":"levelo://app?vid=c7c4725f-ddab-4a76-b57e-952d7794448c"},"vehicle_type_id":"4","last_reported":1752332996,"current_range_meters":15200,"station_id":"cpo3532slgdg3j2ikp40","pricing_plan_id":"cebpf4jnsgd1na2vs0mg"},{"bike_id":"dd2b2878-a442-439f-8fb1-d3459dd71e96","system_id":"levelo_inurba_marseille","lat":43.25087,"lon":5.39524,"is_reserved":false,"is_disabled":false,"rental_uris":{"android":"levelo://app?vid=dd2b2878-a442-439f-8fb1-d3459dd71e96","ios":"levelo://app?vid=dd2b2878-a442-439f-8fb1-d3459dd71e96"},"vehicle_type_id":"4","last_reported":1752332996,"current_range_meters":16000,"station_id":"ce4bhm12rcd13ifvqgkg","pricing_plan_id":"cebpf4jnsgd1na2vs0mg"},{"bike_id":"ee5338dd-18a1-4b48-a5b0-f8c72f7b1319","system_id":"levelo_inurba_marseille","lat":43.31937,"lon":5.36963,"is_reserved":false,"is_disabled":false,"rental_uris":{"android":"levelo://app?vid=ee5338dd-18a1-4b48-a5b0-f8c72f7b1319","ios":"levelo://app?vid=ee5338dd-18a1-4b48-a5b0-f8c72f7b1319"},"vehicle_type_id":"4","last_reported":1752332996,"current_range_meters":16000,"station_id":"","pricing_plan_id":"cebpf4jnsgd1na2vs0mg"},{"bike_id":"e127f91e-f96d-4947-8cee-9aea2cb54aa8","system_id":"levelo_inurba_marseille","lat":43.26557,"lon":5.37286,"is_reserved":false,"is_disabled":false,"rental_uris":{"android":"levelo://app?vid=e127f91e-f96d-4947-8cee-9aea2cb54aa8","ios":"levelo://app?vid=e127f91e-f96d-4947-8cee-9aea2cb54aa8"},"vehicle_type_id":"4","last_reported":1752332996,"current_range_meters":16000,"station_id":"ce4bhg12rcd13ifvqf70","pricing_plan_id":"cebpf4jnsgd1na2vs0mg"},{"bike_id":"6c5cb5c3-4c25-4cc1-978e-c47b112e67a5","system_id":"levelo_inurba_marseille","lat":43.29006,"lon":5.35613,"is_reserved":false,"is_disabled":false,"rental_uris":{"android":"levelo://app?vid=6c5cb5c3-4c25-4cc1-978e-c47b112e67a5","ios":"levelo://app?vid=6c5cb5c3-4c25-4cc1-978e-c47b112e67a5"},"vehicle_type_id":"4","last_reported":1752332996,"current_range_meters":16000,"station_id":"ce4bhb92rcd13ifvqen0","pricing_plan_id":"cebpf4jnsgd1na2vs0mg"},{"bike_id":"948e7b57-8c0d-4309-aa18-cc24448b5476","system_id":"levelo_inurba_marseille","lat":43.24169,"lon":5.36397,"is_reserved":false,"is_disabled":false,"rental_uris":{"android":"levelo://app?vid=948e7b57-8c0d-4309-aa18-cc24448b5476","ios":"levelo://app?vid=948e7b57-8c0d-4309-aa18-cc24448b5476"},"vehicle_type_id":"4","last_reported":1752332996,"current_range_meters":16000,"station_id":"cpo36qri1sfpv3e86is0","pricing_plan_id":"cebpf4jnsgd1na2vs0mg"},{"bike_id":"d7d851de-d966-47dc-9bd8-1a9ae0c433a4","system_id":"levelo_inurba_marseille","lat":43.225055,"lon":5.347843,"is_reserved":false,"is_disabled":false,"rental_uris":{"android":"levelo://app?vid=d7d851de-d966-47dc-9bd8-1a9ae0c433a4","ios":"levelo://app?vid=d7d851de-d966-47dc-9bd8-1a9ae0c433a4"},"vehicle_type_id":"4","last_reported":1752332996,"current_range_meters":16000,"station_id":"","pricing_plan_id":"cebpf4jnsgd1na2vs0mg"},{"bike_id":"51890362-46b0-4ee7-9f02-afbf036d064e","system_id":"levelo_inurba_marseille","lat":43.211889,"lon":5.350861,"is_reserved":false,"is_disabled":false,"rental_uris":{"android":"levelo://app?vid=51890362-46b0-4ee7-9f02-afbf036d064e","ios":"levelo://app?vid=51890362-46b0-4ee7-9f02-afbf036d064e"},"vehicle_type_id":"4","last_reported":1752332996,"current_range_meters":16000,"station_id":"st_cvj6sg6p6f1abm77japg","pricing_plan_id":"cebpf4jnsgd1na2vs0mg"},{"bike_id":"3d3737e6-2c58-4e9f-a7b4-c00ec5634681","system_id":"levelo_inurba_marseille","lat":43.32082,"lon":5.41523,"is_reserved":false,"is_disabled":false,"rental_uris":{"android":"levelo://app?vid=3d3737e6-2c58-4e9f-a7b4-c00ec5634681","ios":"levelo://app?vid=3d3737e6-2c58-4e9f-a7b4-c00ec5634681"},"vehicle_type_id":"4","last_reported":1752332996,"current_range_meters":16000,"station_id":"ce4bhq92rcd13ifvqhkg","pricing_plan_id":"cebpf4jnsgd1na2vs0mg"},{"bike_id":"b4809075-4a52-4299-987f-40a1d5407754","system_id":"levelo_inurba_marseille","lat":43.26202,"lon":5.3793,"is_reserved":false,"is_disabled":false,"rental_uris":{"android":"levelo://app?vid=b4809075-4a52-4299-987f-40a1d5407754","ios":"levelo://app?vid=b4809075-4a52-4299-987f-40a1d5407754"},"vehicle_type_id":"4","last_reported":1752332996,"current_range_meters":16000,"station_id":"ce4bhjp2rcd13ifvqg90","pricing_plan_id":"cebpf4jnsgd1na2vs0mg"},{"bike_id":"81453938-d4c1-4290-9d98-e0755d9a5bb7","system_id":"levelo_inurba_marseille","lat":43.28417,"lon":5.34986,"is_reserved":false,"is_disabled":false,"rental_uris":{"android":"levelo://app?vid=81453938-d4c1-4290-9d98-e0755d9a5bb7","ios":"levelo://app?vid=81453938-d4c1-4290-9d98-e0755d9a5bb7"},"vehicle_type_id":"4","last_reported":1752332996,"current_range_meters":16000,"station_id":"ce4bhbh2rcd13ifvqepg","pricing_plan_id":"cebpf4jnsgd1na2vs0mg"},{"bike_id":"c6f7dabd-b092-4554-a710-07eb4af96a4c","system_id":"levelo_inurba_marseille","lat":43.21187,"lon":5.35067,"is_reserved":false,"is_disabled":false,"rental_uris":{"android":"levelo://app?vid=c6f7dabd-b092-4554-a710-07eb4af96a4c","ios":"levelo://app?vid=c6f7dabd-b092-4554-a710-07eb4af96a4c"},"vehicle_type_id":"4","last_reported":1752332996,"current_range_meters":16000,"station_id":"st_cvj6sg6p6f1abm77japg","pricing_plan_id":"cebpf4jnsgd1na2vs0mg"},{"bike_id":"a432aebe-ce1e-4f3d-b292-efbc82e724ee","system_id":"levelo_inurba_marseille","lat":43.2842,"lon":5.34984,"is_reserved":false,"is_disabled":false,"rental_uris":{"android":"levelo://app?vid=a432aebe-ce1e-4f3d-b292-efbc82e724ee","ios":"levelo://app?vid=a432aebe-ce1e-4f3d-b292-efbc82e724ee"},"vehicle_type_id":"4","last_reported":1752332996,"current_range_meters":16000,"station_id":"ce4bhbh2rcd13ifvqepg","pricing_plan_id":"cebpf4jnsgd1na2vs0mg"},{"bike_id":"33bb176b-33f1-4a13-8796-cee4ae9d00ea","system_id":"levelo_inurba_marseille","lat":43.27364,"lon":5.36252,"is_reserved":false,"is_disabled":false,"rental_uris":{"android":"levelo://app?vid=33bb176b-33f1-4a13-8796-cee4ae9d00ea","ios":"levelo://app?vid=33bb176b-33f1-4a13-8796-cee4ae9d00ea"},"vehicle_type_id":"4","last_reported":1752332996,"current_range_meters":16400,"station_id":"ce4bhbh2rcd13ifvqeo0","pricing_plan_id":"cebpf4jnsgd1na2vs0mg"},{"bike_id":"00bc0b3b-e317-4a17-a011-a3a9a29d816a","system_id":"levelo_inurba_marseille","lat":43.21215,"lon":5.35075,"is_reserved":false,"is_disabled":false,"rental_uris":{"android":"levelo://app?vid=00bc0b3b-e317-4a17-a011-a3a9a29d816a","ios":"levelo://app?vid=00bc0b3b-e317-4a17-a011-a3a9a29d816a"},"vehicle_type_id":"4","last_reported":1752332996,"current_range_meters":16400,"station_id":"st_cvj6sg6p6f1abm77japg","pricing_plan_id":"cebpf4jnsgd1na2vs0mg"},{"bike_id":"b9ef4702-89c4-44ae-835a-ce06e3cf439c","system_id":"levelo_inurba_marseille","lat":43.217544,"lon":5.345992,"is_reserved":false,"is_disabled":false,"rental_uris":{"android":"levelo://app?vid=b9ef4702-89c4-44ae-835a-ce06e3cf439c","ios":"levelo://app?vid=b9ef4702-89c4-44ae-835a-ce06e3cf439c"},"vehicle_type_id":"4","last_reported":1752332996,"current_range_meters":16400,"station_id":"st_cvj6r9ubvosntc0bgbag","pricing_plan_id":"cebpf4jnsgd1na2vs0mg"},{"bike_id":"13ae5651-78b6-42f2-867b-703c439fab55","system_id":"levelo_inurba_marseille","lat":43.27366,"lon":5.36235,"is_reserved":false,"is_disabled":false,"rental_uris":{"android":"levelo://app?vid=13ae5651-78b6-42f2-867b-703c439fab55","ios":"levelo://app?vid=13ae5651-78b6-42f2-867b-703c439fab55"},"vehicle_type_id":"4","last_reported":1752332996,"current_range_meters":16400,"station_id":"ce4bhbh2rcd13ifvqeo0","pricing_plan_id":"cebpf4jnsgd1na2vs0mg"},{"bike_id":"49801dc2-618a-44b8-84ae-416cd87fdbe9","system_id":"levelo_inurba_marseille","lat":43.33767,"lon":5.37471,"is_reserved":false,"is_disabled":false,"rental_uris":{"android":"levelo://app?vid=49801dc2-618a-44b8-84ae-416cd87fdbe9","ios":"levelo://app?vid=49801dc2-618a-44b8-84ae-416cd87fdbe9"},"vehicle_type_id":"4","last_reported":1752332996,"current_range_meters":16400,"station_id":"","pricing_plan_id":"cebpf4jnsgd1na2vs0mg"},{"bike_id":"a0137104-c9f4-434a-a5e3-80725cd5a2b4","system_id":"levelo_inurba_marseille","lat":43.21196,"lon":5.35071,"is_reserved":false,"is_disabled":false,"rental_uris":{"android":"levelo://app?vid=a0137104-c9f4-434a-a5e3-80725cd5a2b4","ios":"levelo://app?vid=a0137104-c9f4-434a-a5e3-80725cd5a2b4"},"vehicle_type_id":"4","last_reported":1752332996,"current_range_meters":16400,"station_id":"st_cvj6sg6p6f1abm77japg","pricing_plan_id":"cebpf4jnsgd1na2vs0mg"},{"bike_id":"a625795d-8f06-444e-8760-e6b3011c4d38","system_id":"levelo_inurba_marseille","lat":43.23054,"lon":5.35494,"is_reserved":false,"is_disabled":false,"rental_uris":{"android":"levelo://app?vid=a625795d-8f06-444e-8760-e6b3011c4d38","ios":"levelo://app?vid=a625795d-8f06-444e-8760-e6b3011c4d38"},"vehicle_type_id":"4","last_reported":1752332996,"current_range_meters":16800,"station_id":"cpo3342slgdg3j2ifvpg","pricing_plan_id":"cebpf4jnsgd1na2vs0mg"},{"bike_id":"3c2d13bd-bc4f-4607-9f64-68fe88da400a","system_id":"levelo_inurba_marseille","lat":43.29576,"lon":5.37489,"is_reserved":false,"is_disabled":false,"rental_uris":{"android":"levelo://app?vid=3c2d13bd-bc4f-4607-9f64-68fe88da400a","ios":"levelo://app?vid=3c2d13bd-bc4f-4607-9f64-68fe88da400a"},"vehicle_type_id":"4","last_reported":1752332996,"current_range_meters":16800,"station_id":"ce4bgh92rcd13ifvqb50","pricing_plan_id":"cebpf4jnsgd1na2vs0mg"},{"bike_id":"f14a7374-847b-4cad-aa16-a0ee35449972","system_id":"levelo_inurba_marseille","lat":43.231993,"lon":5.355473,"is_reserved":false,"is_disabled":false,"rental_uris":{"android":"levelo://app?vid=f14a7374-847b-4cad-aa16-a0ee35449972","ios":"levelo://app?vid=f14a7374-847b-4cad-aa16-a0ee35449972"},"vehicle_type_id":"4","last_reported":1752332996,"current_range_meters":16800,"station_id":"ce4bhu92rcd13ifvqi70","pricing_plan_id":"cebpf4jnsgd1na2vs0mg"},{"bike_id":"23884536-5695-475a-ae31-33433608e6a7","system_id":"levelo_inurba_marseille","lat":43.23197,"lon":5.3554,"is_reserved":false,"is_disabled":false,"rental_uris":{"android":"levelo://app?vid=23884536-5695-475a-ae31-33433608e6a7","ios":"levelo://app?vid=23884536-5695-475a-ae31-33433608e6a7"},"vehicle_type_id":"4","last_reported":1752332996,"current_range_meters":16800,"station_id":"ce4bhu92rcd13ifvqi70","pricing_plan_id":"cebpf4jnsgd1na2vs0mg"},{"bike_id":"6802b5b4-c7c8-4c4e-b876-f967e0f7c59b","system_id":"levelo_inurba_marseille","lat":43.3021,"lon":5.39469,"is_reserved":false,"is_disabled":false,"rental_uris":{"android":"levelo://app?vid=6802b5b4-c7c8-4c4e-b876-f967e0f7c59b","ios":"levelo://app?vid=6802b5b4-c7c8-4c4e-b876-f967e0f7c59b"},"vehicle_type_id":"4","last_reported":1752332996,"current_range_meters":16800,"station_id":"ce4bh0p2rcd13ifvqd70","pricing_plan_id":"cebpf4jnsgd1na2vs0mg"},{"bike_id":"8b37f03f-f226-4bbc-8648-b109da7ba145","system_id":"levelo_inurba_marseille","lat":43.30536,"lon":5.366999,"is_reserved":false,"is_disabled":false,"rental_uris":{"android":"levelo://app?vid=8b37f03f-f226-4bbc-8648-b109da7ba145","ios":"levelo://app?vid=8b37f03f-f226-4bbc-8648-b109da7ba145"},"vehicle_type_id":"4","last_reported":1752332996,"current_range_meters":16800,"station_id":"","pricing_plan_id":"cebpf4jnsgd1na2vs0mg"},{"bike_id":"f23760ff-ab61-4853-aa67-28aac93822c1","system_id":"levelo_inurba_marseille","lat":43.337444,"lon":5.374475,"is_reserved":false,"is_disabled":false,"rental_uris":{"android":"levelo://app?vid=f23760ff-ab61-4853-aa67-28aac93822c1","ios":"levelo://app?vid=f23760ff-ab61-4853-aa67-28aac93822c1"},"vehicle_type_id":"4","last_reported":1752332996,"current_range_meters":16800,"station_id":"","pricing_plan_id":"cebpf4jnsgd1na2vs0mg"},{"bike_id":"82ef1451-87a5-4323-9c8b-63a8b3bec973","system_id":"levelo_inurba_marseille","lat":43.23058,"lon":5.35491,"is_reserved":false,"is_disabled":false,"rental_uris":{"android":"levelo://app?vid=82ef1451-87a5-4323-9c8b-63a8b3bec973","ios":"levelo://app?vid=82ef1451-87a5-4323-9c8b-63a8b3bec973"},"vehicle_type_id":"4","last_reported":1752332996,"current_range_meters":16800,"station_id":"cpo3342slgdg3j2ifvpg","pricing_plan_id":"cebpf4jnsgd1na2vs0mg"},{"bike_id":"844b44b6-4e33-4917-878d-a3c647561239","system_id":"levelo_inurba_marseille","lat":43.30778,"lon":5.42458,"is_reserved":false,"is_disabled":false,"rental_uris":{"android":"levelo://app?vid=844b44b6-4e33-4917-878d-a3c647561239","ios":"levelo://app?vid=844b44b6-4e33-4917-878d-a3c647561239"},"vehicle_type_id":"4","last_reported":1752332996,"current_range_meters":17200,"station_id":"","pricing_plan_id":"cebpf4jnsgd1na2vs0mg"},{"bike_id":"57692aae-9841-41ad-bc01-254866eaf8b0","system_id":"levelo_inurba_marseille","lat":43.32345,"lon":5.40617,"is_reserved":false,"is_disabled":false,"rental_uris":{"android":"levelo://app?vid=57692aae-9841-41ad-bc01-254866eaf8b0","ios":"levelo://app?vid=57692aae-9841-41ad-bc01-254866eaf8b0"},"vehicle_type_id":"4","last_reported":1752332996,"current_range_meters":17200,"station_id":"ce4bhq92rcd13ifvqhjg","pricing_plan_id":"cebpf4jnsgd1na2vs0mg"},{"bike_id":"a359fde9-c657-4b6f-a8ee-1b7f85aa6c3f","system_id":"levelo_inurba_marseille","lat":43.295714,"lon":5.375173,"is_reserved":false,"is_disabled":false,"rental_uris":{"android":"levelo://app?vid=a359fde9-c657-4b6f-a8ee-1b7f85aa6c3f","ios":"levelo://app?vid=a359fde9-c657-4b6f-a8ee-1b7f85aa6c3f"},"vehicle_type_id":"4","last_reported":1752332996,"current_range_meters":17200,"station_id":"ce4bgh92rcd13ifvqb50","pricing_plan_id":"cebpf4jnsgd1na2vs0mg"},{"bike_id":"6e41bc9b-d721-4d0e-a930-a8546720d456","system_id":"levelo_inurba_marseille","lat":43.26556,"lon":5.37284,"is_reserved":false,"is_disabled":false,"rental_uris":{"android":"levelo://app?vid=6e41bc9b-d721-4d0e-a930-a8546720d456","ios":"levelo://app?vid=6e41bc9b-d721-4d0e-a930-a8546720d456"},"vehicle_type_id":"4","last_reported":1752332996,"current_range_meters":17200,"station_id":"ce4bhg12rcd13ifvqf70","pricing_plan_id":"cebpf4jnsgd1na2vs0mg"},{"bike_id":"280d6b00-6472-4526-b9e1-5ec9bfd58182","system_id":"levelo_inurba_marseille","lat":43.29632,"lon":5.40596,"is_reserved":false,"is_disabled":false,"rental_uris":{"android":"levelo://app?vid=280d6b00-6472-4526-b9e1-5ec9bfd58182","ios":"levelo://app?vid=280d6b00-6472-4526-b9e1-5ec9bfd58182"},"vehicle_type_id":"4","last_reported":1752332996,"current_range_meters":17200,"station_id":"ce4bh0h2rcd13ifvqd60","pricing_plan_id":"cebpf4jnsgd1na2vs0mg"},{"bike_id":"58b12081-e74c-441e-bb0f-06ab8e932316","system_id":"levelo_inurba_marseille","lat":43.29967,"lon":5.3849,"is_reserved":false,"is_disabled":false,"rental_uris":{"android":"levelo://app?vid=58b12081-e74c-441e-bb0f-06ab8e932316","ios":"levelo://app?vid=58b12081-e74c-441e-bb0f-06ab8e932316"},"vehicle_type_id":"4","last_reported":1752332996,"current_range_meters":17200,"station_id":"ce4bgj92rcd13ifvqbd0","pricing_plan_id":"cebpf4jnsgd1na2vs0mg"},{"bike_id":"5f5b9265-c917-4a67-a37b-76c4b3d93066","system_id":"levelo_inurba_marseille","lat":43.2957,"lon":5.37507,"is_reserved":false,"is_disabled":false,"rental_uris":{"android":"levelo://app?vid=5f5b9265-c917-4a67-a37b-76c4b3d93066","ios":"levelo://app?vid=5f5b9265-c917-4a67-a37b-76c4b3d93066"},"vehicle_type_id":"4","last_reported":1752332996,"current_range_meters":17200,"station_id":"ce4bgh92rcd13ifvqb50","pricing_plan_id":"cebpf4jnsgd1na2vs0mg"},{"bike_id":"a0b192ed-8b79-45f5-8bdc-32318ff43fbd","system_id":"levelo_inurba_marseille","lat":43.30156,"lon":5.38098,"is_reserved":false,"is_disabled":false,"rental_uris":{"android":"levelo://app?vid=a0b192ed-8b79-45f5-8bdc-32318ff43fbd","ios":"levelo://app?vid=a0b192ed-8b79-45f5-8bdc-32318ff43fbd"},"vehicle_type_id":"4","last_reported":1752332996,"current_range_meters":17200,"station_id":"ce4bgjp2rcd13ifvqbh0","pricing_plan_id":"cebpf4jnsgd1na2vs0mg"},{"bike_id":"3e4c52d1-eb4a-4e19-980e-2fda0d32d440","system_id":"levelo_inurba_marseille","lat":43.30134,"lon":5.38091,"is_reserved":false,"is_disabled":false,"rental_uris":{"android":"levelo://app?vid=3e4c52d1-eb4a-4e19-980e-2fda0d32d440","ios":"levelo://app?vid=3e4c52d1-eb4a-4e19-980e-2fda0d32d440"},"vehicle_type_id":"4","last_reported":1752332996,"current_range_meters":17200,"station_id":"ce4bgjp2rcd13ifvqbh0","pricing_plan_id":"cebpf4jnsgd1na2vs0mg"},{"bike_id":"4cb34928-1b88-4eb3-b94e-e654d0913a8a","system_id":"levelo_inurba_marseille","lat":43.29274,"lon":5.36839,"is_reserved":false,"is_disabled":false,"rental_uris":{"android":"levelo://app?vid=4cb34928-1b88-4eb3-b94e-e654d0913a8a","ios":"levelo://app?vid=4cb34928-1b88-4eb3-b94e-e654d0913a8a"},"vehicle_type_id":"4","last_reported":1752332996,"current_range_meters":17200,"station_id":"ce4bhbp2rcd13ifvqesg","pricing_plan_id":"cebpf4jnsgd1na2vs0mg"},{"bike_id":"b74832bb-6449-48c5-8077-0bfb2b852778","system_id":"levelo_inurba_marseille","lat":43.2841,"lon":5.35002,"is_reserved":false,"is_disabled":false,"rental_uris":{"android":"levelo://app?vid=b74832bb-6449-48c5-8077-0bfb2b852778","ios":"levelo://app?vid=b74832bb-6449-48c5-8077-0bfb2b852778"},"vehicle_type_id":"4","last_reported":1752332996,"current_range_meters":17600,"station_id":"ce4bhbh2rcd13ifvqepg","pricing_plan_id":"cebpf4jnsgd1na2vs0mg"},{"bike_id":"523c3ec8-4411-47bf-9cc8-79706a74569a","system_id":"levelo_inurba_marseille","lat":43.28621,"lon":5.35098,"is_reserved":false,"is_disabled":false,"rental_uris":{"android":"levelo://app?vid=523c3ec8-4411-47bf-9cc8-79706a74569a","ios":"levelo://app?vid=523c3ec8-4411-47bf-9cc8-79706a74569a"},"vehicle_type_id":"4","last_reported":1752332996,"current_range_meters":17600,"station_id":"ce4bhch2rcd13ifvqeug","pricing_plan_id":"cebpf4jnsgd1na2vs0mg"},{"bike_id":"6d3f299a-d341-49bc-a1f9-7534528d9b67","system_id":"levelo_inurba_marseille","lat":43.23187,"lon":5.35576,"is_reserved":false,"is_disabled":false,"rental_uris":{"android":"levelo://app?vid=6d3f299a-d341-49bc-a1f9-7534528d9b67","ios":"levelo://app?vid=6d3f299a-d341-49bc-a1f9-7534528d9b67"},"vehicle_type_id":"4","last_reported":1752332996,"current_range_meters":17600,"station_id":"ce4bhu92rcd13ifvqi70","pricing_plan_id":"cebpf4jnsgd1na2vs0mg"},{"bike_id":"29d5f9cc-6565-4f4b-99fe-d7cd637fc2f5","system_id":"levelo_inurba_marseille","lat":43.29571,"lon":5.37508,"is_reserved":false,"is_disabled":false,"rental_uris":{"android":"levelo://app?vid=29d5f9cc-6565-4f4b-99fe-d7cd637fc2f5","ios":"levelo://app?vid=29d5f9cc-6565-4f4b-99fe-d7cd637fc2f5"},"vehicle_type_id":"4","last_reported":1752332996,"current_range_meters":17600,"station_id":"ce4bgh92rcd13ifvqb50","pricing_plan_id":"cebpf4jnsgd1na2vs0mg"},{"bike_id":"4ee5bb10-b533-4f74-8cc9-2540f690c48d","system_id":"levelo_inurba_marseille","lat":43.28612,"lon":5.35107,"is_reserved":false,"is_disabled":false,"rental_uris":{"android":"levelo://app?vid=4ee5bb10-b533-4f74-8cc9-2540f690c48d","ios":"levelo://app?vid=4ee5bb10-b533-4f74-8cc9-2540f690c48d"},"vehicle_type_id":"4","last_reported":1752332996,"current_range_meters":17600,"station_id":"ce4bhch2rcd13ifvqeug","pricing_plan_id":"cebpf4jnsgd1na2vs0mg"},{"bike_id":"4b8da722-ee9e-48a4-a5e5-3a8a10364708","system_id":"levelo_inurba_marseille","lat":43.31236,"lon":5.37806,"is_reserved":false,"is_disabled":false,"rental_uris":{"android":"levelo://app?vid=4b8da722-ee9e-48a4-a5e5-3a8a10364708","ios":"levelo://app?vid=4b8da722-ee9e-48a4-a5e5-3a8a10364708"},"vehicle_type_id":"4","last_reported":1752332996,"current_range_meters":17600,"station_id":"","pricing_plan_id":"cebpf4jnsgd1na2vs0mg"},{"bike_id":"01af640c-d461-48d8-adb1-88197217aa33","system_id":"levelo_inurba_marseille","lat":43.28611,"lon":5.370669,"is_reserved":false,"is_disabled":false,"rental_uris":{"android":"levelo://app?vid=01af640c-d461-48d8-adb1-88197217aa33","ios":"levelo://app?vid=01af640c-d461-48d8-adb1-88197217aa33"},"vehicle_type_id":"4","last_reported":1752332996,"current_range_meters":17600,"station_id":"ce4bht12rcd13ifvqi60","pricing_plan_id":"cebpf4jnsgd1na2vs0mg"},{"bike_id":"a357298b-5b6d-48ff-b681-624fe6b6b49a","system_id":"levelo_inurba_marseille","lat":43.29438,"lon":5.39753,"is_reserved":false,"is_disabled":false,"rental_uris":{"android":"levelo://app?vid=a357298b-5b6d-48ff-b681-624fe6b6b49a","ios":"levelo://app?vid=a357298b-5b6d-48ff-b681-624fe6b6b49a"},"vehicle_type_id":"4","last_reported":1752332996,"current_range_meters":19200,"station_id":"ce4bh3h2rcd13ifvqdo0","pricing_plan_id":"cebpf4jnsgd1na2vs0mg"},{"bike_id":"fdec3e7e-d085-4a13-8970-b1d817a7e356","system_id":"levelo_inurba_marseille","lat":43.27371,"lon":5.36257,"is_reserved":false,"is_disabled":false,"rental_uris":{"android":"levelo://app?vid=fdec3e7e-d085-4a13-8970-b1d817a7e356","ios":"levelo://app?vid=fdec3e7e-d085-4a13-8970-b1d817a7e356"},"vehicle_type_id":"4","last_reported":1752332996,"current_range_meters":17600,"station_id":"ce4bhbh2rcd13ifvqeo0","pricing_plan_id":"cebpf4jnsgd1na2vs0mg"},{"bike_id":"8a905c44-b931-4655-81b7-34952c8547aa","system_id":"levelo_inurba_marseille","lat":43.299175,"lon":5.381366,"is_reserved":false,"is_disabled":false,"rental_uris":{"android":"levelo://app?vid=8a905c44-b931-4655-81b7-34952c8547aa","ios":"levelo://app?vid=8a905c44-b931-4655-81b7-34952c8547aa"},"vehicle_type_id":"4","last_reported":1752332996,"current_range_meters":17600,"station_id":"ce4bhhp2rcd13ifvqfm0","pricing_plan_id":"cebpf4jnsgd1na2vs0mg"},{"bike_id":"b4cfca4d-74bf-4746-9ca9-6835f5b26f77","system_id":"levelo_inurba_marseille","lat":43.26962,"lon":5.40248,"is_reserved":false,"is_disabled":false,"rental_uris":{"android":"levelo://app?vid=b4cfca4d-74bf-4746-9ca9-6835f5b26f77","ios":"levelo://app?vid=b4cfca4d-74bf-4746-9ca9-6835f5b26f77"},"vehicle_type_id":"4","last_reported":1752332996,"current_range_meters":18000,"station_id":"cjm6bp8fraef2m0cb0m0","pricing_plan_id":"cebpf4jnsgd1na2vs0mg"},{"bike_id":"5ecf5b91-07fd-4dc8-af7d-32f07dcaef5d","system_id":"levelo_inurba_marseille","lat":43.23203,"lon":5.35547,"is_reserved":false,"is_disabled":false,"rental_uris":{"android":"levelo://app?vid=5ecf5b91-07fd-4dc8-af7d-32f07dcaef5d","ios":"levelo://app?vid=5ecf5b91-07fd-4dc8-af7d-32f07dcaef5d"},"vehicle_type_id":"4","last_reported":1752332996,"current_range_meters":18000,"station_id":"ce4bhu92rcd13ifvqi70","pricing_plan_id":"cebpf4jnsgd1na2vs0mg"},{"bike_id":"6929fb00-76b7-4628-94e6-66764dec48b6","system_id":"levelo_inurba_marseille","lat":43.2841,"lon":5.34979,"is_reserved":false,"is_disabled":false,"rental_uris":{"android":"levelo://app?vid=6929fb00-76b7-4628-94e6-66764dec48b6","ios":"levelo://app?vid=6929fb00-76b7-4628-94e6-66764dec48b6"},"vehicle_type_id":"4","last_reported":1752332996,"current_range_meters":18000,"station_id":"ce4bhbh2rcd13ifvqepg","pricing_plan_id":"cebpf4jnsgd1na2vs0mg"},{"bike_id":"f36bad63-c225-4f59-878f-028d7059b783","system_id":"levelo_inurba_marseille","lat":43.28278,"lon":5.35097,"is_reserved":false,"is_disabled":false,"rental_uris":{"android":"levelo://app?vid=f36bad63-c225-4f59-878f-028d7059b783","ios":"levelo://app?vid=f36bad63-c225-4f59-878f-028d7059b783"},"vehicle_type_id":"4","last_reported":1752332996,"current_range_meters":18000,"station_id":"ce4bhbp2rcd13ifvqerg","pricing_plan_id":"cebpf4jnsgd1na2vs0mg"},{"bike_id":"e4f60a7e-d35f-404e-924f-8496bc4bb84b","system_id":"levelo_inurba_marseille","lat":43.2319,"lon":5.39999,"is_reserved":false,"is_disabled":false,"rental_uris":{"android":"levelo://app?vid=e4f60a7e-d35f-404e-924f-8496bc4bb84b","ios":"levelo://app?vid=e4f60a7e-d35f-404e-924f-8496bc4bb84b"},"vehicle_type_id":"4","last_reported":1752332996,"current_range_meters":18000,"station_id":"ce4bhn12rcd13ifvqgqg","pricing_plan_id":"cebpf4jnsgd1na2vs0mg"},{"bike_id":"a258dc86-7c84-4445-ad0e-265b9f56cb91","system_id":"levelo_inurba_marseille","lat":43.29551,"lon":5.42295,"is_reserved":false,"is_disabled":false,"rental_uris":{"android":"levelo://app?vid=a258dc86-7c84-4445-ad0e-265b9f56cb91","ios":"levelo://app?vid=a258dc86-7c84-4445-ad0e-265b9f56cb91"},"vehicle_type_id":"4","last_reported":1752332996,"current_range_meters":18000,"station_id":"ce4bhph2rcd13ifvqhdg","pricing_plan_id":"cebpf4jnsgd1na2vs0mg"},{"bike_id":"66bc7fe6-c3da-43c0-afe1-a6bdaf2c5a79","system_id":"levelo_inurba_marseille","lat":43.21174,"lon":5.35079,"is_reserved":false,"is_disabled":false,"rental_uris":{"android":"levelo://app?vid=66bc7fe6-c3da-43c0-afe1-a6bdaf2c5a79","ios":"levelo://app?vid=66bc7fe6-c3da-43c0-afe1-a6bdaf2c5a79"},"vehicle_type_id":"4","last_reported":1752332996,"current_range_meters":18000,"station_id":"st_cvj6sg6p6f1abm77japg","pricing_plan_id":"cebpf4jnsgd1na2vs0mg"},{"bike_id":"e6d36fc6-370c-480a-b7e7-3c08709a4ac4","system_id":"levelo_inurba_marseille","lat":43.2835,"lon":5.381,"is_reserved":false,"is_disabled":false,"rental_uris":{"android":"levelo://app?vid=e6d36fc6-370c-480a-b7e7-3c08709a4ac4","ios":"levelo://app?vid=e6d36fc6-370c-480a-b7e7-3c08709a4ac4"},"vehicle_type_id":"4","last_reported":1752332996,"current_range_meters":18800,"station_id":"ce4bh412rcd13ifvqdr0","pricing_plan_id":"cebpf4jnsgd1na2vs0mg"},{"bike_id":"76e5eb5a-faa2-448e-a8b8-2fc4a3131919","system_id":"levelo_inurba_marseille","lat":43.29868,"lon":5.39737,"is_reserved":false,"is_disabled":false,"rental_uris":{"android":"levelo://app?vid=76e5eb5a-faa2-448e-a8b8-2fc4a3131919","ios":"levelo://app?vid=76e5eb5a-faa2-448e-a8b8-2fc4a3131919"},"vehicle_type_id":"4","last_reported":1752332996,"current_range_meters":19600,"station_id":"ce4bh0h2rcd13ifvqd50","pricing_plan_id":"cebpf4jnsgd1na2vs0mg"},{"bike_id":"f9924005-c8ac-4086-8e25-9a21391f65ea","system_id":"levelo_inurba_marseille","lat":43.21194,"lon":5.35078,"is_reserved":false,"is_disabled":false,"rental_uris":{"android":"levelo://app?vid=f9924005-c8ac-4086-8e25-9a21391f65ea","ios":"levelo://app?vid=f9924005-c8ac-4086-8e25-9a21391f65ea"},"vehicle_type_id":"4","last_reported":1752332996,"current_range_meters":18800,"station_id":"st_cvj6sg6p6f1abm77japg","pricing_plan_id":"cebpf4jnsgd1na2vs0mg"},{"bike_id":"d192eb85-30c6-4e26-a441-a2601c0d72ec","system_id":"levelo_inurba_marseille","lat":43.21187,"lon":5.35073,"is_reserved":false,"is_disabled":false,"rental_uris":{"android":"levelo://app?vid=d192eb85-30c6-4e26-a441-a2601c0d72ec","ios":"levelo://app?vid=d192eb85-30c6-4e26-a441-a2601c0d72ec"},"vehicle_type_id":"4","last_reported":1752332996,"current_range_meters":18800,"station_id":"st_cvj6sg6p6f1abm77japg","pricing_plan_id":"cebpf4jnsgd1na2vs0mg"},{"bike_id":"0f3895c3-9bc6-4dda-a7c7-6b72d16bb958","system_id":"levelo_inurba_marseille","lat":43.28268,"lon":5.35059,"is_reserved":false,"is_disabled":false,"rental_uris":{"android":"levelo://app?vid=0f3895c3-9bc6-4dda-a7c7-6b72d16bb958","ios":"levelo://app?vid=0f3895c3-9bc6-4dda-a7c7-6b72d16bb958"},"vehicle_type_id":"4","last_reported":1752332996,"current_range_meters":18800,"station_id":"ce4bhbp2rcd13ifvqerg","pricing_plan_id":"cebpf4jnsgd1na2vs0mg"},{"bike_id":"08f9ccb9-b043-4a85-8804-afd455ee421b","system_id":"levelo_inurba_marseille","lat":43.29965,"lon":5.372,"is_reserved":false,"is_disabled":false,"rental_uris":{"android":"levelo://app?vid=08f9ccb9-b043-4a85-8804-afd455ee421b","ios":"levelo://app?vid=08f9ccb9-b043-4a85-8804-afd455ee421b"},"vehicle_type_id":"4","last_reported":1752332996,"current_range_meters":18800,"station_id":"ce4bgr92rcd13ifvqc7g","pricing_plan_id":"cebpf4jnsgd1na2vs0mg"},{"bike_id":"5af35bc3-c835-45dc-8089-0d78e9c38b02","system_id":"levelo_inurba_marseille","lat":43.27895,"lon":5.3801,"is_reserved":false,"is_disabled":false,"rental_uris":{"android":"levelo://app?vid=5af35bc3-c835-45dc-8089-0d78e9c38b02","ios":"levelo://app?vid=5af35bc3-c835-45dc-8089-0d78e9c38b02"},"vehicle_type_id":"4","last_reported":1752332996,"current_range_meters":18800,"station_id":"ce4bhf92rcd13ifvqf50","pricing_plan_id":"cebpf4jnsgd1na2vs0mg"},{"bike_id":"2afd10ce-5f23-4122-9c7a-a3416be941b2","system_id":"levelo_inurba_marseille","lat":43.2605,"lon":5.37566,"is_reserved":false,"is_disabled":true,"rental_uris":{"android":"levelo://app?vid=2afd10ce-5f23-4122-9c7a-a3416be941b2","ios":"levelo://app?vid=2afd10ce-5f23-4122-9c7a-a3416be941b2"},"vehicle_type_id":"4","last_reported":1752332996,"current_range_meters":18800,"station_id":"ce4bhgh2rcd13ifvqfa0","pricing_plan_id":"cebpf4jnsgd1na2vs0mg"},{"bike_id":"1439409e-fcaa-42de-8e6b-6f5d9ec4abcb","system_id":"levelo_inurba_marseille","lat":43.27378,"lon":5.36255,"is_reserved":false,"is_disabled":false,"rental_uris":{"android":"levelo://app?vid=1439409e-fcaa-42de-8e6b-6f5d9ec4abcb","ios":"levelo://app?vid=1439409e-fcaa-42de-8e6b-6f5d9ec4abcb"},"vehicle_type_id":"4","last_reported":1752332996,"current_range_meters":18800,"station_id":"ce4bhbh2rcd13ifvqeo0","pricing_plan_id":"cebpf4jnsgd1na2vs0mg"},{"bike_id":"6b24281b-8627-4cc6-8164-9baa9ceda8d0","system_id":"levelo_inurba_marseille","lat":43.28402,"lon":5.35008,"is_reserved":false,"is_disabled":false,"rental_uris":{"android":"levelo://app?vid=6b24281b-8627-4cc6-8164-9baa9ceda8d0","ios":"levelo://app?vid=6b24281b-8627-4cc6-8164-9baa9ceda8d0"},"vehicle_type_id":"4","last_reported":1752332996,"current_range_meters":18800,"station_id":"ce4bhbh2rcd13ifvqepg","pricing_plan_id":"cebpf4jnsgd1na2vs0mg"},{"bike_id":"6db2d44d-c7ca-41ac-b814-ccca58d47fae","system_id":"levelo_inurba_marseille","lat":43.26219,"lon":5.37441,"is_reserved":false,"is_disabled":false,"rental_uris":{"android":"levelo://app?vid=6db2d44d-c7ca-41ac-b814-ccca58d47fae","ios":"levelo://app?vid=6db2d44d-c7ca-41ac-b814-ccca58d47fae"},"vehicle_type_id":"4","last_reported":1752332996,"current_range_meters":19200,"station_id":"ce4bhgp2rcd13ifvqfc0","pricing_plan_id":"cebpf4jnsgd1na2vs0mg"},{"bike_id":"8bc65b40-0f7a-4db0-bab7-834d249697b6","system_id":"levelo_inurba_marseille","lat":43.28429,"lon":5.34982,"is_reserved":false,"is_disabled":false,"rental_uris":{"android":"levelo://app?vid=8bc65b40-0f7a-4db0-bab7-834d249697b6","ios":"levelo://app?vid=8bc65b40-0f7a-4db0-bab7-834d249697b6"},"vehicle_type_id":"4","last_reported":1752332996,"current_range_meters":19200,"station_id":"ce4bhbh2rcd13ifvqepg","pricing_plan_id":"cebpf4jnsgd1na2vs0mg"},{"bike_id":"b371972f-930a-4edc-a2a2-6868be2f7a46","system_id":"levelo_inurba_marseille","lat":43.21309,"lon":5.3528,"is_reserved":false,"is_disabled":false,"rental_uris":{"android":"levelo://app?vid=b371972f-930a-4edc-a2a2-6868be2f7a46","ios":"levelo://app?vid=b371972f-930a-4edc-a2a2-6868be2f7a46"},"vehicle_type_id":"4","last_reported":1752332996,"current_range_meters":19200,"station_id":"","pricing_plan_id":"cebpf4jnsgd1na2vs0mg"},{"bike_id":"2789363d-6c32-4f54-a6f0-e032059a9c8e","system_id":"levelo_inurba_marseille","lat":43.24399,"lon":5.3706,"is_reserved":false,"is_disabled":false,"rental_uris":{"android":"levelo://app?vid=2789363d-6c32-4f54-a6f0-e032059a9c8e","ios":"levelo://app?vid=2789363d-6c32-4f54-a6f0-e032059a9c8e"},"vehicle_type_id":"4","last_reported":1752332996,"current_range_meters":19200,"station_id":"ce4bhhh2rcd13ifvqfk0","pricing_plan_id":"cebpf4jnsgd1na2vs0mg"},{"bike_id":"291d3410-13b4-4e3f-a2b2-7531824aadfb","system_id":"levelo_inurba_marseille","lat":43.23056,"lon":5.35486,"is_reserved":false,"is_disabled":false,"rental_uris":{"android":"levelo://app?vid=291d3410-13b4-4e3f-a2b2-7531824aadfb","ios":"levelo://app?vid=291d3410-13b4-4e3f-a2b2-7531824aadfb"},"vehicle_type_id":"4","last_reported":1752332996,"current_range_meters":19200,"station_id":"cpo3342slgdg3j2ifvpg","pricing_plan_id":"cebpf4jnsgd1na2vs0mg"},{"bike_id":"18530e59-6a86-4f2b-8228-4105493be3ef","system_id":"levelo_inurba_marseille","lat":43.24172,"lon":5.36395,"is_reserved":false,"is_disabled":false,"rental_uris":{"android":"levelo://app?vid=18530e59-6a86-4f2b-8228-4105493be3ef","ios":"levelo://app?vid=18530e59-6a86-4f2b-8228-4105493be3ef"},"vehicle_type_id":"4","last_reported":1752332996,"current_range_meters":19200,"station_id":"cpo36qri1sfpv3e86is0","pricing_plan_id":"cebpf4jnsgd1na2vs0mg"},{"bike_id":"20747e02-772d-46c3-930c-e6741d4f0cb4","system_id":"levelo_inurba_marseille","lat":43.29724,"lon":5.37703,"is_reserved":false,"is_disabled":false,"rental_uris":{"android":"levelo://app?vid=20747e02-772d-46c3-930c-e6741d4f0cb4","ios":"levelo://app?vid=20747e02-772d-46c3-930c-e6741d4f0cb4"},"vehicle_type_id":"4","last_reported":1752332996,"current_range_meters":19200,"station_id":"ce4bgkh2rcd13ifvqbl0","pricing_plan_id":"cebpf4jnsgd1na2vs0mg"},{"bike_id":"7aba66d5-779a-4e30-b504-8ac9307c9ee8","system_id":"levelo_inurba_marseille","lat":43.24166,"lon":5.3645,"is_reserved":false,"is_disabled":false,"rental_uris":{"android":"levelo://app?vid=7aba66d5-779a-4e30-b504-8ac9307c9ee8","ios":"levelo://app?vid=7aba66d5-779a-4e30-b504-8ac9307c9ee8"},"vehicle_type_id":"4","last_reported":1752332996,"current_range_meters":19200,"station_id":"cpo36qri1sfpv3e86is0","pricing_plan_id":"cebpf4jnsgd1na2vs0mg"},{"bike_id":"c1d0629c-eaee-41e7-8c10-68b0ec1b077d","system_id":"levelo_inurba_marseille","lat":43.32972,"lon":5.388882,"is_reserved":false,"is_disabled":false,"rental_uris":{"android":"levelo://app?vid=c1d0629c-eaee-41e7-8c10-68b0ec1b077d","ios":"levelo://app?vid=c1d0629c-eaee-41e7-8c10-68b0ec1b077d"},"vehicle_type_id":"4","last_reported":1752332996,"current_range_meters":19200,"station_id":"ce4bhr92rcd13ifvqhrg","pricing_plan_id":"cebpf4jnsgd1na2vs0mg"},{"bike_id":"373b2ef0-3754-4a1a-8c0d-bae66cfced3a","system_id":"levelo_inurba_marseille","lat":43.29003,"lon":5.35613,"is_reserved":false,"is_disabled":false,"rental_uris":{"android":"levelo://app?vid=373b2ef0-3754-4a1a-8c0d-bae66cfced3a","ios":"levelo://app?vid=373b2ef0-3754-4a1a-8c0d-bae66cfced3a"},"vehicle_type_id":"4","last_reported":1752332996,"current_range_meters":19200,"station_id":"ce4bhb92rcd13ifvqen0","pricing_plan_id":"cebpf4jnsgd1na2vs0mg"},{"bike_id":"9b40dc73-509b-4d2f-8a27-44696719b175","system_id":"levelo_inurba_marseille","lat":43.27065,"lon":5.42268,"is_reserved":false,"is_disabled":false,"rental_uris":{"android":"levelo://app?vid=9b40dc73-509b-4d2f-8a27-44696719b175","ios":"levelo://app?vid=9b40dc73-509b-4d2f-8a27-44696719b175"},"vehicle_type_id":"4","last_reported":1752332996,"current_range_meters":19600,"station_id":"ce4bhk92rcd13ifvqgb0","pricing_plan_id":"cebpf4jnsgd1na2vs0mg"},{"bike_id":"cd88d4a2-2f84-4937-81ab-66e82005f3d1","system_id":"levelo_inurba_marseille","lat":43.26214,"lon":5.3744,"is_reserved":false,"is_disabled":false,"rental_uris":{"android":"levelo://app?vid=cd88d4a2-2f84-4937-81ab-66e82005f3d1","ios":"levelo://app?vid=cd88d4a2-2f84-4937-81ab-66e82005f3d1"},"vehicle_type_id":"4","last_reported":1752332996,"current_range_meters":19600,"station_id":"ce4bhgp2rcd13ifvqfc0","pricing_plan_id":"cebpf4jnsgd1na2vs0mg"},{"bike_id":"7ce98aad-4559-43b5-b4b7-eae95d9ca631","system_id":"levelo_inurba_marseille","lat":43.30645,"lon":5.40094,"is_reserved":false,"is_disabled":false,"rental_uris":{"android":"levelo://app?vid=7ce98aad-4559-43b5-b4b7-eae95d9ca631","ios":"levelo://app?vid=7ce98aad-4559-43b5-b4b7-eae95d9ca631"},"vehicle_type_id":"4","last_reported":1752332996,"current_range_meters":20800,"station_id":"ce4bh112rcd13ifvqda0","pricing_plan_id":"cebpf4jnsgd1na2vs0mg"},{"bike_id":"3ffad272-c94b-4371-ba8e-f57cfe4572ca","system_id":"levelo_inurba_marseille","lat":43.2439,"lon":5.37061,"is_reserved":false,"is_disabled":false,"rental_uris":{"android":"levelo://app?vid=3ffad272-c94b-4371-ba8e-f57cfe4572ca","ios":"levelo://app?vid=3ffad272-c94b-4371-ba8e-f57cfe4572ca"},"vehicle_type_id":"4","last_reported":1752332996,"current_range_meters":19600,"station_id":"ce4bhhh2rcd13ifvqfk0","pricing_plan_id":"cebpf4jnsgd1na2vs0mg"},{"bike_id":"2478ed8b-8422-43ee-a655-867c1b6a1c96","system_id":"levelo_inurba_marseille","lat":43.30784,"lon":5.37646,"is_reserved":false,"is_disabled":false,"rental_uris":{"android":"levelo://app?vid=2478ed8b-8422-43ee-a655-867c1b6a1c96","ios":"levelo://app?vid=2478ed8b-8422-43ee-a655-867c1b6a1c96"},"vehicle_type_id":"4","last_reported":1752332996,"current_range_meters":19600,"station_id":"ce4bgv92rcd13ifvqcq0","pricing_plan_id":"cebpf4jnsgd1na2vs0mg"},{"bike_id":"3ddb6d3f-6e11-4a20-95ed-3b1d52ce7226","system_id":"levelo_inurba_marseille","lat":43.28421,"lon":5.34962,"is_reserved":false,"is_disabled":false,"rental_uris":{"android":"levelo://app?vid=3ddb6d3f-6e11-4a20-95ed-3b1d52ce7226","ios":"levelo://app?vid=3ddb6d3f-6e11-4a20-95ed-3b1d52ce7226"},"vehicle_type_id":"4","last_reported":1752332996,"current_range_meters":19600,"station_id":"ce4bhbh2rcd13ifvqepg","pricing_plan_id":"cebpf4jnsgd1na2vs0mg"},{"bike_id":"c0e1cefb-0cdc-4b15-903d-f653930b62e8","system_id":"levelo_inurba_marseille","lat":43.28405,"lon":5.34963,"is_reserved":false,"is_disabled":false,"rental_uris":{"android":"levelo://app?vid=c0e1cefb-0cdc-4b15-903d-f653930b62e8","ios":"levelo://app?vid=c0e1cefb-0cdc-4b15-903d-f653930b62e8"},"vehicle_type_id":"4","last_reported":1752332996,"current_range_meters":19600,"station_id":"ce4bhbh2rcd13ifvqepg","pricing_plan_id":"cebpf4jnsgd1na2vs0mg"},{"bike_id":"f287c747-447b-4a57-8736-e2b2cd84aaa9","system_id":"levelo_inurba_marseille","lat":43.246413,"lon":5.389073,"is_reserved":false,"is_disabled":false,"rental_uris":{"android":"levelo://app?vid=f287c747-447b-4a57-8736-e2b2cd84aaa9","ios":"levelo://app?vid=f287c747-447b-4a57-8736-e2b2cd84aaa9"},"vehicle_type_id":"4","last_reported":1752332996,"current_range_meters":20000,"station_id":"ce4bhg12rcd13ifvqf60","pricing_plan_id":"cebpf4jnsgd1na2vs0mg"},{"bike_id":"36a18c89-8302-4275-9926-195ba1455d14","system_id":"levelo_inurba_marseille","lat":43.29272,"lon":5.36843,"is_reserved":false,"is_disabled":false,"rental_uris":{"android":"levelo://app?vid=36a18c89-8302-4275-9926-195ba1455d14","ios":"levelo://app?vid=36a18c89-8302-4275-9926-195ba1455d14"},"vehicle_type_id":"4","last_reported":1752332996,"current_range_meters":20000,"station_id":"ce4bhbp2rcd13ifvqesg","pricing_plan_id":"cebpf4jnsgd1na2vs0mg"},{"bike_id":"02c71304-9c4f-4ebf-b265-2eb94afb5a95","system_id":"levelo_inurba_marseille","lat":43.30932,"lon":5.36832,"is_reserved":false,"is_disabled":false,"rental_uris":{"android":"levelo://app?vid=02c71304-9c4f-4ebf-b265-2eb94afb5a95","ios":"levelo://app?vid=02c71304-9c4f-4ebf-b265-2eb94afb5a95"},"vehicle_type_id":"4","last_reported":1752332996,"current_range_meters":20000,"station_id":"","pricing_plan_id":"cebpf4jnsgd1na2vs0mg"},{"bike_id":"ac927c18-d987-439d-aecc-1f8cabd9bb94","system_id":"levelo_inurba_marseille","lat":43.254982,"lon":5.376504,"is_reserved":false,"is_disabled":false,"rental_uris":{"android":"levelo://app?vid=ac927c18-d987-439d-aecc-1f8cabd9bb94","ios":"levelo://app?vid=ac927c18-d987-439d-aecc-1f8cabd9bb94"},"vehicle_type_id":"4","last_reported":1752332996,"current_range_meters":20000,"station_id":"ce4bhh12rcd13ifvqff0","pricing_plan_id":"cebpf4jnsgd1na2vs0mg"},{"bike_id":"a98855e7-4d3f-46da-b3e4-61acc9992e87","system_id":"levelo_inurba_marseille","lat":43.29518,"lon":5.37491,"is_reserved":false,"is_disabled":false,"rental_uris":{"android":"levelo://app?vid=a98855e7-4d3f-46da-b3e4-61acc9992e87","ios":"levelo://app?vid=a98855e7-4d3f-46da-b3e4-61acc9992e87"},"vehicle_type_id":"4","last_reported":1752332996,"current_range_meters":20000,"station_id":"ce4bgkp2rcd13ifvqbmg","pricing_plan_id":"cebpf4jnsgd1na2vs0mg"},{"bike_id":"e25a62e3-7973-4347-9f75-e97f1d4dcef5","system_id":"levelo_inurba_marseille","lat":43.29529,"lon":5.3855,"is_reserved":false,"is_disabled":false,"rental_uris":{"android":"levelo://app?vid=e25a62e3-7973-4347-9f75-e97f1d4dcef5","ios":"levelo://app?vid=e25a62e3-7973-4347-9f75-e97f1d4dcef5"},"vehicle_type_id":"4","last_reported":1752332996,"current_range_meters":20400,"station_id":"ce4bgih2rcd13ifvqba0","pricing_plan_id":"cebpf4jnsgd1na2vs0mg"},{"bike_id":"f5a47db5-6fb2-46bd-a2de-efa4ad13bf60","system_id":"levelo_inurba_marseille","lat":43.21194,"lon":5.3507,"is_reserved":false,"is_disabled":false,"rental_uris":{"android":"levelo://app?vid=f5a47db5-6fb2-46bd-a2de-efa4ad13bf60","ios":"levelo://app?vid=f5a47db5-6fb2-46bd-a2de-efa4ad13bf60"},"vehicle_type_id":"4","last_reported":1752332996,"current_range_meters":20400,"station_id":"st_cvj6sg6p6f1abm77japg","pricing_plan_id":"cebpf4jnsgd1na2vs0mg"},{"bike_id":"536c6997-0dbb-4f37-a3e1-516881c22090","system_id":"levelo_inurba_marseille","lat":43.28614,"lon":5.3511,"is_reserved":false,"is_disabled":false,"rental_uris":{"android":"levelo://app?vid=536c6997-0dbb-4f37-a3e1-516881c22090","ios":"levelo://app?vid=536c6997-0dbb-4f37-a3e1-516881c22090"},"vehicle_type_id":"4","last_reported":1752332996,"current_range_meters":20400,"station_id":"ce4bhch2rcd13ifvqeug","pricing_plan_id":"cebpf4jnsgd1na2vs0mg"},{"bike_id":"1e5764db-94a3-4533-abaa-32ce78ff99dd","system_id":"levelo_inurba_marseille","lat":43.29572,"lon":5.37526,"is_reserved":false,"is_disabled":false,"rental_uris":{"android":"levelo://app?vid=1e5764db-94a3-4533-abaa-32ce78ff99dd","ios":"levelo://app?vid=1e5764db-94a3-4533-abaa-32ce78ff99dd"},"vehicle_type_id":"4","last_reported":1752332996,"current_range_meters":20400,"station_id":"ce4bgh92rcd13ifvqb50","pricing_plan_id":"cebpf4jnsgd1na2vs0mg"},{"bike_id":"22a0dfd1-9fc6-40cb-ab0e-795410d334f7","system_id":"levelo_inurba_marseille","lat":43.25745,"lon":5.41093,"is_reserved":false,"is_disabled":false,"rental_uris":{"android":"levelo://app?vid=22a0dfd1-9fc6-40cb-ab0e-795410d334f7","ios":"levelo://app?vid=22a0dfd1-9fc6-40cb-ab0e-795410d334f7"},"vehicle_type_id":"4","last_reported":1752332996,"current_range_meters":20400,"station_id":"ce4bhkp2rcd13ifvqgd0","pricing_plan_id":"cebpf4jnsgd1na2vs0mg"},{"bike_id":"89bff35c-c856-44b1-9a72-ffdd0e22a34d","system_id":"levelo_inurba_marseille","lat":43.28614,"lon":5.35108,"is_reserved":false,"is_disabled":false,"rental_uris":{"android":"levelo://app?vid=89bff35c-c856-44b1-9a72-ffdd0e22a34d","ios":"levelo://app?vid=89bff35c-c856-44b1-9a72-ffdd0e22a34d"},"vehicle_type_id":"4","last_reported":1752332996,"current_range_meters":20400,"station_id":"","pricing_plan_id":"cebpf4jnsgd1na2vs0mg"},{"bike_id":"9bfc7d3d-4e60-4f8a-9c32-ef3d0e77ec5b","system_id":"levelo_inurba_marseille","lat":43.21184,"lon":5.35085,"is_reserved":false,"is_disabled":false,"rental_uris":{"android":"levelo://app?vid=9bfc7d3d-4e60-4f8a-9c32-ef3d0e77ec5b","ios":"levelo://app?vid=9bfc7d3d-4e60-4f8a-9c32-ef3d0e77ec5b"},"vehicle_type_id":"4","last_reported":1752332996,"current_range_meters":20400,"station_id":"st_cvj6sg6p6f1abm77japg","pricing_plan_id":"cebpf4jnsgd1na2vs0mg"},{"bike_id":"95ea4737-47de-40a1-93b9-5fe34dc12990","system_id":"levelo_inurba_marseille","lat":43.21192,"lon":5.35076,"is_reserved":false,"is_disabled":false,"rental_uris":{"android":"levelo://app?vid=95ea4737-47de-40a1-93b9-5fe34dc12990","ios":"levelo://app?vid=95ea4737-47de-40a1-93b9-5fe34dc12990"},"vehicle_type_id":"4","last_reported":1752332996,"current_range_meters":20400,"station_id":"st_cvj6sg6p6f1abm77japg","pricing_plan_id":"cebpf4jnsgd1na2vs0mg"},{"bike_id":"11382250-5868-400c-9301-0c7ec5bcfc43","system_id":"levelo_inurba_marseille","lat":43.30774,"lon":5.37658,"is_reserved":false,"is_disabled":false,"rental_uris":{"android":"levelo://app?vid=11382250-5868-400c-9301-0c7ec5bcfc43","ios":"levelo://app?vid=11382250-5868-400c-9301-0c7ec5bcfc43"},"vehicle_type_id":"4","last_reported":1752332996,"current_range_meters":20800,"station_id":"ce4bgv92rcd13ifvqcq0","pricing_plan_id":"cebpf4jnsgd1na2vs0mg"},{"bike_id":"e1b53900-c592-46fc-9e72-c51f38e41c34","system_id":"levelo_inurba_marseille","lat":43.27378,"lon":5.36248,"is_reserved":false,"is_disabled":false,"rental_uris":{"android":"levelo://app?vid=e1b53900-c592-46fc-9e72-c51f38e41c34","ios":"levelo://app?vid=e1b53900-c592-46fc-9e72-c51f38e41c34"},"vehicle_type_id":"4","last_reported":1752332996,"current_range_meters":20800,"station_id":"ce4bhbh2rcd13ifvqeo0","pricing_plan_id":"cebpf4jnsgd1na2vs0mg"},{"bike_id":"77b1f0bd-f9aa-4280-a31f-5c05374d6fcc","system_id":"levelo_inurba_marseille","lat":43.29356,"lon":5.37849,"is_reserved":false,"is_disabled":false,"rental_uris":{"android":"levelo://app?vid=77b1f0bd-f9aa-4280-a31f-5c05374d6fcc","ios":"levelo://app?vid=77b1f0bd-f9aa-4280-a31f-5c05374d6fcc"},"vehicle_type_id":"4","last_reported":1752332996,"current_range_meters":20800,"station_id":"ce4bgjh2rcd13ifvqbf0","pricing_plan_id":"cebpf4jnsgd1na2vs0mg"},{"bike_id":"58375fde-ca97-4dab-be52-59caf98323d3","system_id":"levelo_inurba_marseille","lat":43.26589,"lon":5.37276,"is_reserved":false,"is_disabled":true,"rental_uris":{"android":"levelo://app?vid=58375fde-ca97-4dab-be52-59caf98323d3","ios":"levelo://app?vid=58375fde-ca97-4dab-be52-59caf98323d3"},"vehicle_type_id":"4","last_reported":1752332996,"current_range_meters":20800,"station_id":"ce4bhg12rcd13ifvqf70","pricing_plan_id":"cebpf4jnsgd1na2vs0mg"},{"bike_id":"cc6260c7-e588-42d7-afef-96c409802ccc","system_id":"levelo_inurba_marseille","lat":43.211914,"lon":5.350757,"is_reserved":false,"is_disabled":false,"rental_uris":{"android":"levelo://app?vid=cc6260c7-e588-42d7-afef-96c409802ccc","ios":"levelo://app?vid=cc6260c7-e588-42d7-afef-96c409802ccc"},"vehicle_type_id":"4","last_reported":1752332996,"current_range_meters":20800,"station_id":"st_cvj6sg6p6f1abm77japg","pricing_plan_id":"cebpf4jnsgd1na2vs0mg"},{"bike_id":"8a71b868-1223-48f7-a7fc-ca5979732e28","system_id":"levelo_inurba_marseille","lat":43.26195,"lon":5.37447,"is_reserved":false,"is_disabled":false,"rental_uris":{"android":"levelo://app?vid=8a71b868-1223-48f7-a7fc-ca5979732e28","ios":"levelo://app?vid=8a71b868-1223-48f7-a7fc-ca5979732e28"},"vehicle_type_id":"4","last_reported":1752332996,"current_range_meters":20800,"station_id":"ce4bhgp2rcd13ifvqfc0","pricing_plan_id":"cebpf4jnsgd1na2vs0mg"},{"bike_id":"b8eb3130-c203-4842-b5ea-03fa9e487ff4","system_id":"levelo_inurba_marseille","lat":43.2414,"lon":5.36431,"is_reserved":false,"is_disabled":false,"rental_uris":{"android":"levelo://app?vid=b8eb3130-c203-4842-b5ea-03fa9e487ff4","ios":"levelo://app?vid=b8eb3130-c203-4842-b5ea-03fa9e487ff4"},"vehicle_type_id":"4","last_reported":1752332996,"current_range_meters":20800,"station_id":"cpo36qri1sfpv3e86is0","pricing_plan_id":"cebpf4jnsgd1na2vs0mg"},{"bike_id":"5aff04a6-bb5c-45c5-a3c1-6edad43e0b54","system_id":"levelo_inurba_marseille","lat":43.32289,"lon":5.38265,"is_reserved":false,"is_disabled":false,"rental_uris":{"android":"levelo://app?vid=5aff04a6-bb5c-45c5-a3c1-6edad43e0b54","ios":"levelo://app?vid=5aff04a6-bb5c-45c5-a3c1-6edad43e0b54"},"vehicle_type_id":"4","last_reported":1752332996,"current_range_meters":20800,"station_id":"ce4bhr12rcd13ifvqhqg","pricing_plan_id":"cebpf4jnsgd1na2vs0mg"},{"bike_id":"5636a512-4b1a-43b3-b350-ba5761f6e3e0","system_id":"levelo_inurba_marseille","lat":43.2738,"lon":5.36259,"is_reserved":false,"is_disabled":false,"rental_uris":{"android":"levelo://app?vid=5636a512-4b1a-43b3-b350-ba5761f6e3e0","ios":"levelo://app?vid=5636a512-4b1a-43b3-b350-ba5761f6e3e0"},"vehicle_type_id":"4","last_reported":1752332996,"current_range_meters":21600,"station_id":"ce4bhbh2rcd13ifvqeo0","pricing_plan_id":"cebpf4jnsgd1na2vs0mg"},{"bike_id":"f4e0d880-eb6e-45a2-a356-915ae6e14531","system_id":"levelo_inurba_marseille","lat":43.29627,"lon":5.37137,"is_reserved":false,"is_disabled":false,"rental_uris":{"android":"levelo://app?vid=f4e0d880-eb6e-45a2-a356-915ae6e14531","ios":"levelo://app?vid=f4e0d880-eb6e-45a2-a356-915ae6e14531"},"vehicle_type_id":"4","last_reported":1752332996,"current_range_meters":21600,"station_id":"ce4bgnh2rcd13ifvqc0g","pricing_plan_id":"cebpf4jnsgd1na2vs0mg"},{"bike_id":"807d7fb5-28e1-469f-b1ce-a7614934cf05","system_id":"levelo_inurba_marseille","lat":43.27845,"lon":5.35452,"is_reserved":false,"is_disabled":false,"rental_uris":{"android":"levelo://app?vid=807d7fb5-28e1-469f-b1ce-a7614934cf05","ios":"levelo://app?vid=807d7fb5-28e1-469f-b1ce-a7614934cf05"},"vehicle_type_id":"4","last_reported":1752332996,"current_range_meters":21600,"station_id":"","pricing_plan_id":"cebpf4jnsgd1na2vs0mg"},{"bike_id":"490bd673-04a2-4ecd-8a33-95eda5ca324c","system_id":"levelo_inurba_marseille","lat":43.29231,"lon":5.36057,"is_reserved":false,"is_disabled":false,"rental_uris":{"android":"levelo://app?vid=490bd673-04a2-4ecd-8a33-95eda5ca324c","ios":"levelo://app?vid=490bd673-04a2-4ecd-8a33-95eda5ca324c"},"vehicle_type_id":"4","last_reported":1752332996,"current_range_meters":21600,"station_id":"ce4bhbh2rcd13ifvqeqg","pricing_plan_id":"cebpf4jnsgd1na2vs0mg"},{"bike_id":"602b4abd-3cab-4cb4-adff-add09ae118b3","system_id":"levelo_inurba_marseille","lat":43.28286,"lon":5.35056,"is_reserved":false,"is_disabled":false,"rental_uris":{"android":"levelo://app?vid=602b4abd-3cab-4cb4-adff-add09ae118b3","ios":"levelo://app?vid=602b4abd-3cab-4cb4-adff-add09ae118b3"},"vehicle_type_id":"4","last_reported":1752332996,"current_range_meters":21600,"station_id":"ce4bhbp2rcd13ifvqerg","pricing_plan_id":"cebpf4jnsgd1na2vs0mg"},{"bike_id":"e0df13f3-1542-433d-a502-cf1a4ebd8d3c","system_id":"levelo_inurba_marseille","lat":43.28404,"lon":5.34986,"is_reserved":false,"is_disabled":false,"rental_uris":{"android":"levelo://app?vid=e0df13f3-1542-433d-a502-cf1a4ebd8d3c","ios":"levelo://app?vid=e0df13f3-1542-433d-a502-cf1a4ebd8d3c"},"vehicle_type_id":"4","last_reported":1752332996,"current_range_meters":21600,"station_id":"ce4bhbh2rcd13ifvqepg","pricing_plan_id":"cebpf4jnsgd1na2vs0mg"},{"bike_id":"22c911ed-dd2d-4fec-9f9b-e84a1af74b8f","system_id":"levelo_inurba_marseille","lat":43.27373,"lon":5.36255,"is_reserved":false,"is_disabled":false,"rental_uris":{"android":"levelo://app?vid=22c911ed-dd2d-4fec-9f9b-e84a1af74b8f","ios":"levelo://app?vid=22c911ed-dd2d-4fec-9f9b-e84a1af74b8f"},"vehicle_type_id":"4","last_reported":1752332996,"current_range_meters":21600,"station_id":"ce4bhbh2rcd13ifvqeo0","pricing_plan_id":"cebpf4jnsgd1na2vs0mg"},{"bike_id":"b3c3491c-305d-44b9-99fe-71afe816f55d","system_id":"levelo_inurba_marseille","lat":43.23208,"lon":5.35549,"is_reserved":false,"is_disabled":false,"rental_uris":{"android":"levelo://app?vid=b3c3491c-305d-44b9-99fe-71afe816f55d","ios":"levelo://app?vid=b3c3491c-305d-44b9-99fe-71afe816f55d"},"vehicle_type_id":"4","last_reported":1752332996,"current_range_meters":21600,"station_id":"ce4bhu92rcd13ifvqi70","pricing_plan_id":"cebpf4jnsgd1na2vs0mg"},{"bike_id":"c8c4de1a-846f-4f5b-aace-9fb14bf7ad52","system_id":"levelo_inurba_marseille","lat":43.21193,"lon":5.3507,"is_reserved":false,"is_disabled":false,"rental_uris":{"android":"levelo://app?vid=c8c4de1a-846f-4f5b-aace-9fb14bf7ad52","ios":"levelo://app?vid=c8c4de1a-846f-4f5b-aace-9fb14bf7ad52"},"vehicle_type_id":"4","last_reported":1752332996,"current_range_meters":21600,"station_id":"st_cvj6sg6p6f1abm77japg","pricing_plan_id":"cebpf4jnsgd1na2vs0mg"},{"bike_id":"fc5b4626-cf66-4a7f-ae6e-f2f640f70dc8","system_id":"levelo_inurba_marseille","lat":43.32364,"lon":5.36756,"is_reserved":false,"is_disabled":false,"rental_uris":{"android":"levelo://app?vid=fc5b4626-cf66-4a7f-ae6e-f2f640f70dc8","ios":"levelo://app?vid=fc5b4626-cf66-4a7f-ae6e-f2f640f70dc8"},"vehicle_type_id":"4","last_reported":1752332996,"current_range_meters":21600,"station_id":"ce4bhsh2rcd13ifvqi2g","pricing_plan_id":"cebpf4jnsgd1na2vs0mg"},{"bike_id":"94ee9bc1-a935-4f1b-959f-339ac3424214","system_id":"levelo_inurba_marseille","lat":43.273728,"lon":5.362604,"is_reserved":false,"is_disabled":false,"rental_uris":{"android":"levelo://app?vid=94ee9bc1-a935-4f1b-959f-339ac3424214","ios":"levelo://app?vid=94ee9bc1-a935-4f1b-959f-339ac3424214"},"vehicle_type_id":"4","last_reported":1752332996,"current_range_meters":21600,"station_id":"ce4bhbh2rcd13ifvqeo0","pricing_plan_id":"cebpf4jnsgd1na2vs0mg"},{"bike_id":"7b24d22c-7607-4d99-a30c-c524d01a3c3f","system_id":"levelo_inurba_marseille","lat":43.28638,"lon":5.35093,"is_reserved":false,"is_disabled":false,"rental_uris":{"android":"levelo://app?vid=7b24d22c-7607-4d99-a30c-c524d01a3c3f","ios":"levelo://app?vid=7b24d22c-7607-4d99-a30c-c524d01a3c3f"},"vehicle_type_id":"4","last_reported":1752332996,"current_range_meters":22000,"station_id":"ce4bhch2rcd13ifvqeug","pricing_plan_id":"cebpf4jnsgd1na2vs0mg"},{"bike_id":"5749bc1f-5f8c-4973-8d72-f09deac4ef2b","system_id":"levelo_inurba_marseille","lat":43.31498,"lon":5.37302,"is_reserved":false,"is_disabled":false,"rental_uris":{"android":"levelo://app?vid=5749bc1f-5f8c-4973-8d72-f09deac4ef2b","ios":"levelo://app?vid=5749bc1f-5f8c-4973-8d72-f09deac4ef2b"},"vehicle_type_id":"4","last_reported":1752332996,"current_range_meters":22000,"station_id":"ce4bgt12rcd13ifvqcd0","pricing_plan_id":"cebpf4jnsgd1na2vs0mg"},{"bike_id":"6f2526ec-d6d7-4fcb-ac09-6d765414cd1f","system_id":"levelo_inurba_marseille","lat":43.28405,"lon":5.37518,"is_reserved":false,"is_disabled":false,"rental_uris":{"android":"levelo://app?vid=6f2526ec-d6d7-4fcb-ac09-6d765414cd1f","ios":"levelo://app?vid=6f2526ec-d6d7-4fcb-ac09-6d765414cd1f"},"vehicle_type_id":"4","last_reported":1752332996,"current_range_meters":22000,"station_id":"ce4bh412rcd13ifvqds0","pricing_plan_id":"cebpf4jnsgd1na2vs0mg"},{"bike_id":"104b5d66-4e12-4a79-9ddd-9cb239e79d9e","system_id":"levelo_inurba_marseille","lat":43.27373,"lon":5.36252,"is_reserved":false,"is_disabled":false,"rental_uris":{"android":"levelo://app?vid=104b5d66-4e12-4a79-9ddd-9cb239e79d9e","ios":"levelo://app?vid=104b5d66-4e12-4a79-9ddd-9cb239e79d9e"},"vehicle_type_id":"4","last_reported":1752332996,"current_range_meters":22000,"station_id":"ce4bhbh2rcd13ifvqeo0","pricing_plan_id":"cebpf4jnsgd1na2vs0mg"},{"bike_id":"87a29a10-e21a-403e-bb77-6802fb182693","system_id":"levelo_inurba_marseille","lat":43.29025,"lon":5.35599,"is_reserved":false,"is_disabled":false,"rental_uris":{"android":"levelo://app?vid=87a29a10-e21a-403e-bb77-6802fb182693","ios":"levelo://app?vid=87a29a10-e21a-403e-bb77-6802fb182693"},"vehicle_type_id":"4","last_reported":1752332996,"current_range_meters":22000,"station_id":"ce4bhb92rcd13ifvqen0","pricing_plan_id":"cebpf4jnsgd1na2vs0mg"},{"bike_id":"c2134fa1-db32-46c0-a7af-c4c2180986a0","system_id":"levelo_inurba_marseille","lat":43.217517,"lon":5.346033,"is_reserved":false,"is_disabled":false,"rental_uris":{"android":"levelo://app?vid=c2134fa1-db32-46c0-a7af-c4c2180986a0","ios":"levelo://app?vid=c2134fa1-db32-46c0-a7af-c4c2180986a0"},"vehicle_type_id":"4","last_reported":1752332996,"current_range_meters":22400,"station_id":"st_cvj6r9ubvosntc0bgbag","pricing_plan_id":"cebpf4jnsgd1na2vs0mg"},