{"last_updated":1759244908,"ttl":60,"version":"2.2","data":{"bikes":[{"bike_id":"79802147-e174-4bf5-8fbc-5cc7b541cc38","system_id":"levelo_inurba_marseille","lat":43.29906,"lon":5.38135,"is_reserved":false,"is_disabled":false,"rental_uris":{"android":"levelo://app?vid=79802147-e174-4bf5-8fbc-5cc7b541cc38","ios":"levelo://app?vid=79802147-e174-4bf5-8fbc-5cc7b541cc38"},"vehicle_type_id":"4","last_reported":1759244908,"current_range_meters":2800,"station_id":"ce4bgj12rcd13ifvqbc0","pricing_plan_id":"cebpf4jnsgd1na2vs0mg"},{"bike_id":"9c863b27-7404-4726-b45f-38065fbaf4aa","system_id":"levelo_inurba_marseille","lat":43.2927,"lon":5.38444,"is_reserved":false,"is_disabled":false,"rental_uris":{"android":"levelo://app?vid=9c863b27-7404-4726-b45f-38065fbaf4aa","ios":"levelo://app?vid=9c863b27-7404-4726-b45f-38065fbaf4aa"},"vehicle_type_id":"4","last_reported":1759244908,"current_range_meters":2800,"station_id":"ce4bh692rcd13ifvqea0","pricing_plan_id":"cebpf4jnsgd1na2vs0mg"},{"bike_id":"cf004314-afbd-42da-b108-4bca02efcb52","system_id":"levelo_inurba_marseille","lat":43.296422,"lon":5.405861,"is_reserved":false,"is_disabled":false,"rental_uris":{"android":"levelo://app?vid=cf004314-afbd-42da-b108-4bca02efcb52","ios":"levelo://app?vid=cf004314-afbd-42da-b108-4bca02efcb52"},"vehicle_type_id":"4","last_reported":1759244908,"current_range_meters":2800,"station_id":"ce4bh0h2rcd13ifvqd60","pricing_plan_id":"cebpf4jnsgd1na2vs0mg"},{"bike_id":"7405ab20-06b7-40cc-aaf8-bae850dc46a1","system_id":"levelo_inurba_marseille","lat":43.26209,"lon":5.37443,"is_reserved":false,"is_disabled":false,"rental_uris":{"android":"levelo://app?vid=7405ab20-06b7-40cc-aaf8-bae850dc46a1","ios":"levelo://app?vid=7405ab20-06b7-40cc-aaf8-bae850dc46a1"},"vehicle_type_id":"4","last_reported":1759244908,"current_range_meters":2800,"station_id":"ce4bhgp2rcd13ifvqfc0","pricing_plan_id":"cebpf4jnsgd1na2vs0mg"},{"bike_id":"5f4d6a30-43de-416d-ba20-5b0a04852814","system_id":"levelo_inurba_marseille","lat":43.23152,"lon":5.43726,"is_reserved":false,"is_disabled":false,"rental_uris":{"android":"levelo://app?vid=5f4d6a30-43de-416d-ba20-5b0a04852814","ios":"levelo://app?vid=5f4d6a30-43de-416d-ba20-5b0a04852814"},"vehicle_type_id":"4","last_reported":1759244908,"current_range_meters":2800,"station_id":"ce4bhmp2rcd13ifvqgog","pricing_plan_id":"cebpf4jnsgd1na2vs0mg"},{"bike_id":"eb418ea3-c7ef-4955-98f6-69d9d35f5401","system_id":"levelo_inurba_marseille","lat":43.29601,"lon":5.38108,"is_reserved":false,"is_disabled":false,"rental_uris":{"android":"levelo://app?vid=eb418ea3-c7ef-4955-98f6-69d9d35f5401","ios":"levelo://app?vid=eb418ea3-c7ef-4955-98f6-69d9d35f5401"},"vehicle_type_id":"4","last_reported":1759244908,"current_range_meters":3200,"station_id":"ce4bgl12rcd13ifvqbo0","pricing_plan_id":"cebpf4jnsgd1na2vs0mg"},{"bike_id":"8a4a8404-2223-404b-b9d6-fda388efd3eb","system_id":"levelo_inurba_marseille","lat":43.225399,"lon":5.348524,"is_reserved":false,"is_disabled":false,"rental_uris":{"android":"levelo://app?vid=8a4a8404-2223-404b-b9d6-fda388efd3eb","ios":"levelo://app?vid=8a4a8404-2223-404b-b9d6-fda388efd3eb"},"vehicle_type_id":"4","last_reported":1759244908,"current_range_meters":3200,"station_id":"","pricing_plan_id":"cebpf4jnsgd1na2vs0mg"},{"bike_id":"258ab053-1083-4ca9-a32a-1e85f085fc22","system_id":"levelo_inurba_marseille","lat":43.337444,"lon":5.374475,"is_reserved":false,"is_disabled":false,"rental_uris":{"android":"levelo://app?vid=258ab053-1083-4ca9-a32a-1e85f085fc22","ios":"levelo://app?vid=258ab053-1083-4ca9-a32a-1e85f085fc22"},"vehicle_type_id":"4","last_reported":1759244908,"current_range_meters":3200,"station_id":"","pricing_plan_id":"cebpf4jnsgd1na2vs0mg"},{"bike_id":"e90c2211-6dc7-4d7b-ad39-8688a7ed0039","system_id":"levelo_inurba_marseille","lat":43.28616,"lon":5.35107,"is_reserved":false,"is_disabled":false,"rental_uris":{"android":"levelo://app?vid=e90c2211-6dc7-4d7b-ad39-8688a7ed0039","ios":"levelo://app?vid=e90c2211-6dc7-4d7b-ad39-8688a7ed0039"},"vehicle_type_id":"4","last_reported":1759244908,"current_range_meters":3600,"station_id":"ce4bhch2rcd13ifvqeug","pricing_plan_id":"cebpf4jnsgd1na2vs0mg"},{"bike_id":"46d6975c-a1b8-4f68-8170-e0d89721c0c7","system_id":"levelo_inurba_marseille","lat":43.28599,"lon":5.35121,"is_reserved":false,"is_disabled":false,"rental_uris":{"android":"levelo://app?vid=46d6975c-a1b8-4f68-8170-e0d89721c0c7","ios":"levelo://app?vid=46d6975c-a1b8-4f68-8170-e0d89721c0c7"},"vehicle_type_id":"4","last_reported":1759244908,"current_range_meters":3600,"station_id":"ce4bhch2rcd13ifvqeug","pricing_plan_id":"cebpf4jnsgd1na2vs0mg"},{"bike_id":"258da332-7c94-4781-b6c6-e5564fe17166","system_id":"levelo_inurba_marseille","lat":43.28268,"lon":5.35068,"is_reserved":false,"is_disabled":false,"rental_uris":{"android":"levelo://app?vid=258da332-7c94-4781-b6c6-e5564fe17166","ios":"levelo://app?vid=258da332-7c94-4781-b6c6-e5564fe17166"},"vehicle_type_id":"4","last_reported":1759244908,"current_range_meters":3600,"station_id":"ce4bhbp2rcd13ifvqerg","pricing_plan_id":"cebpf4jnsgd1na2vs0mg"},{"bike_id":"8b353c9e-13c5-42ee-a76f-ccbd6269a3dc","system_id":"levelo_inurba_marseille","lat":43.30444,"lon":5.36689,"is_reserved":false,"is_disabled":false,"rental_uris":{"android":"levelo://app?vid=8b353c9e-13c5-42ee-a76f-ccbd6269a3dc","ios":"levelo://app?vid=8b353c9e-13c5-42ee-a76f-ccbd6269a3dc"},"vehicle_type_id":"4","last_reported":1759244908,"current_range_meters":4000,"station_id":"","pricing_plan_id":"cebpf4jnsgd1na2vs0mg"},{"bike_id":"bfbe14f5-4cb7-4392-826f-fa93ced326b9","system_id":"levelo_inurba_marseille","lat":43.30798,"lon":5.38159,"is_reserved":false,"is_disabled":false,"rental_uris":{"android":"levelo://app?vid=bfbe14f5-4cb7-4392-826f-fa93ced326b9","ios":"levelo://app?vid=bfbe14f5-4cb7-4392-826f-fa93ced326b9"},"vehicle_type_id":"4","last_reported":1759244908,"current_range_meters":4000,"station_id":"ce4bgt12rcd13ifvqce0","pricing_plan_id":"cebpf4jnsgd1na2vs0mg"},{"bike_id":"2c6518be-b3f0-42d2-93c9-c1de9e54885f","system_id":"levelo_inurba_marseille","lat":43.29227,"lon":5.38219,"is_reserved":false,"is_disabled":false,"rental_uris":{"android":"levelo://app?vid=2c6518be-b3f0-42d2-93c9-c1de9e54885f","ios":"levelo://app?vid=2c6518be-b3f0-42d2-93c9-c1de9e54885f"},"vehicle_type_id":"4","last_reported":1759244908,"current_range_meters":4000,"station_id":"","pricing_plan_id":"cebpf4jnsgd1na2vs0mg"},{"bike_id":"27645b46-63f0-4e29-b97c-ef5b00714fc6","system_id":"levelo_inurba_marseille","lat":43.27968,"lon":5.38737,"is_reserved":false,"is_disabled":false,"rental_uris":{"android":"levelo://app?vid=27645b46-63f0-4e29-b97c-ef5b00714fc6","ios":"levelo://app?vid=27645b46-63f0-4e29-b97c-ef5b00714fc6"},"vehicle_type_id":"4","last_reported":1759244908,"current_range_meters":4000,"station_id":"ce4bhg12rcd13ifvqf80","pricing_plan_id":"cebpf4jnsgd1na2vs0mg"},{"bike_id":"9abf09c0-1544-4b42-ae90-f05002160041","system_id":"levelo_inurba_marseille","lat":43.29886,"lon":5.38904,"is_reserved":false,"is_disabled":false,"rental_uris":{"android":"levelo://app?vid=9abf09c0-1544-4b42-ae90-f05002160041","ios":"levelo://app?vid=9abf09c0-1544-4b42-ae90-f05002160041"},"vehicle_type_id":"4","last_reported":1759244908,"current_range_meters":3600,"station_id":"ce4bh392rcd13ifvqdl0","pricing_plan_id":"cebpf4jnsgd1na2vs0mg"},{"bike_id":"525d72cb-f58e-435d-9995-24dd130c0613","system_id":"levelo_inurba_marseille","lat":43.27938,"lon":5.41047,"is_reserved":false,"is_disabled":false,"rental_uris":{"android":"levelo://app?vid=525d72cb-f58e-435d-9995-24dd130c0613","ios":"levelo://app?vid=525d72cb-f58e-435d-9995-24dd130c0613"},"vehicle_type_id":"4","last_reported":1759244908,"current_range_meters":4000,"station_id":"ce4bhnp2rcd13ifvqh0g","pricing_plan_id":"cebpf4jnsgd1na2vs0mg"},{"bike_id":"1925a677-2089-48e8-bbca-1f4319a62829","system_id":"levelo_inurba_marseille","lat":43.28569,"lon":5.39499,"is_reserved":false,"is_disabled":false,"rental_uris":{"android":"levelo://app?vid=1925a677-2089-48e8-bbca-1f4319a62829","ios":"levelo://app?vid=1925a677-2089-48e8-bbca-1f4319a62829"},"vehicle_type_id":"4","last_reported":1759244908,"current_range_meters":4000,"station_id":"ce4bh292rcd13ifvqdg0","pricing_plan_id":"cebpf4jnsgd1na2vs0mg"},{"bike_id":"d269481e-6753-4928-8d51-e22d81f8cc87","system_id":"levelo_inurba_marseille","lat":43.24633,"lon":5.43144,"is_reserved":false,"is_disabled":false,"rental_uris":{"android":"levelo://app?vid=d269481e-6753-4928-8d51-e22d81f8cc87","ios":"levelo://app?vid=d269481e-6753-4928-8d51-e22d81f8cc87"},"vehicle_type_id":"4","last_reported":1759244908,"current_range_meters":4000,"station_id":"st_d2m6c4gdas8pm72e190g","pricing_plan_id":"cebpf4jnsgd1na2vs0mg"},{"bike_id":"a599d1b2-b269-4a47-a41b-8fef4d790dea","system_id":"levelo_inurba_marseille","lat":43.29404,"lon":5.43233,"is_reserved":false,"is_disabled":false,"rental_uris":{"android":"levelo://app?vid=a599d1b2-b269-4a47-a41b-8fef4d790dea","ios":"levelo://app?vid=a599d1b2-b269-4a47-a41b-8fef4d790dea"},"vehicle_type_id":"4","last_reported":1759244908,"current_range_meters":4000,"station_id":"","pricing_plan_id":"cebpf4jnsgd1na2vs0mg"},{"bike_id":"1dad2113-89e2-44fc-a0b6-ddd6a09baff1","system_id":"levelo_inurba_marseille","lat":43.337444,"lon":5.374475,"is_reserved":false,"is_disabled":false,"rental_uris":{"android":"levelo://app?vid=1dad2113-89e2-44fc-a0b6-ddd6a09baff1","ios":"levelo://app?vid=1dad2113-89e2-44fc-a0b6-ddd6a09baff1"},"vehicle_type_id":"4","last_reported":1759244908,"current_range_meters":4000,"station_id":"","pricing_plan_id":"cebpf4jnsgd1na2vs0mg"},{"bike_id":"ca660db5-13a2-4b17-89f6-c4a43f402701","system_id":"levelo_inurba_marseille","lat":43.31864,"lon":5.37072,"is_reserved":false,"is_disabled":false,"rental_uris":{"android":"levelo://app?vid=ca660db5-13a2-4b17-89f6-c4a43f402701","ios":"levelo://app?vid=ca660db5-13a2-4b17-89f6-c4a43f402701"},"vehicle_type_id":"4","last_reported":1759244908,"current_range_meters":4400,"station_id":"","pricing_plan_id":"cebpf4jnsgd1na2vs0mg"},{"bike_id":"b1d74b1b-4b4c-4c2d-9dc1-4bc77a748bcc","system_id":"levelo_inurba_marseille","lat":43.29259,"lon":5.40899,"is_reserved":false,"is_disabled":false,"rental_uris":{"android":"levelo://app?vid=b1d74b1b-4b4c-4c2d-9dc1-4bc77a748bcc","ios":"levelo://app?vid=b1d74b1b-4b4c-4c2d-9dc1-4bc77a748bcc"},"vehicle_type_id":"4","last_reported":1759244908,"current_range_meters":4000,"station_id":"ce4bh192rcd13ifvqdc0","pricing_plan_id":"cebpf4jnsgd1na2vs0mg"},{"bike_id":"551e404c-9594-488f-9279-9b3567002ce7","system_id":"levelo_inurba_marseille","lat":43.29232,"lon":5.40913,"is_reserved":false,"is_disabled":false,"rental_uris":{"android":"levelo://app?vid=551e404c-9594-488f-9279-9b3567002ce7","ios":"levelo://app?vid=551e404c-9594-488f-9279-9b3567002ce7"},"vehicle_type_id":"4","last_reported":1759244908,"current_range_meters":4400,"station_id":"ce4bh192rcd13ifvqdc0","pricing_plan_id":"cebpf4jnsgd1na2vs0mg"},{"bike_id":"69169abb-a27e-4744-a71c-a4842544eae7","system_id":"levelo_inurba_marseille","lat":43.28564,"lon":5.39501,"is_reserved":false,"is_disabled":false,"rental_uris":{"android":"levelo://app?vid=69169abb-a27e-4744-a71c-a4842544eae7","ios":"levelo://app?vid=69169abb-a27e-4744-a71c-a4842544eae7"},"vehicle_type_id":"4","last_reported":1759244908,"current_range_meters":4800,"station_id":"ce4bh292rcd13ifvqdg0","pricing_plan_id":"cebpf4jnsgd1na2vs0mg"},{"bike_id":"35e8f722-b82a-4247-beb8-7e2827829ce6","system_id":"levelo_inurba_marseille","lat":43.32405,"lon":5.3911,"is_reserved":false,"is_disabled":false,"rental_uris":{"android":"levelo://app?vid=35e8f722-b82a-4247-beb8-7e2827829ce6","ios":"levelo://app?vid=35e8f722-b82a-4247-beb8-7e2827829ce6"},"vehicle_type_id":"4","last_reported":1759244908,"current_range_meters":5600,"station_id":"","pricing_plan_id":"cebpf4jnsgd1na2vs0mg"},{"bike_id":"84522226-5133-44d9-ac6f-7dfe06c2e090","system_id":"levelo_inurba_marseille","lat":43.23175,"lon":5.39988,"is_reserved":false,"is_disabled":false,"rental_uris":{"android":"levelo://app?vid=84522226-5133-44d9-ac6f-7dfe06c2e090","ios":"levelo://app?vid=84522226-5133-44d9-ac6f-7dfe06c2e090"},"vehicle_type_id":"4","last_reported":1759244908,"current_range_meters":5600,"station_id":"ce4bhn12rcd13ifvqgqg","pricing_plan_id":"cebpf4jnsgd1na2vs0mg"},{"bike_id":"e5378695-fba9-432a-9cfb-3b5b05e40fec","system_id":"levelo_inurba_marseille","lat":43.337986,"lon":5.374304,"is_reserved":false,"is_disabled":false,"rental_uris":{"android":"levelo://app?vid=e5378695-fba9-432a-9cfb-3b5b05e40fec","ios":"levelo://app?vid=e5378695-fba9-432a-9cfb-3b5b05e40fec"},"vehicle_type_id":"4","last_reported":1759244908,"current_range_meters":5600,"station_id":"","pricing_plan_id":"cebpf4jnsgd1na2vs0mg"},{"bike_id":"8eba698c-1343-4776-a7ef-1194c9c853da","system_id":"levelo_inurba_marseille","lat":43.26625,"lon":5.39416,"is_reserved":false,"is_disabled":false,"rental_uris":{"android":"levelo://app?vid=8eba698c-1343-4776-a7ef-1194c9c853da","ios":"levelo://app?vid=8eba698c-1343-4776-a7ef-1194c9c853da"},"vehicle_type_id":"4","last_reported":1759244908,"current_range_meters":6000,"station_id":"","pricing_plan_id":"cebpf4jnsgd1na2vs0mg"},{"bike_id":"cc20d004-e186-4711-88d6-122b1121d713","system_id":"levelo_inurba_marseille","lat":43.30095,"lon":5.39103,"is_reserved":false,"is_disabled":false,"rental_uris":{"android":"levelo://app?vid=cc20d004-e186-4711-88d6-122b1121d713","ios":"levelo://app?vid=cc20d004-e186-4711-88d6-122b1121d713"},"vehicle_type_id":"4","last_reported":1759244908,"current_range_meters":6000,"station_id":"ce4bh192rcd13ifvqdb0","pricing_plan_id":"cebpf4jnsgd1na2vs0mg"},{"bike_id":"498cbbee-e60f-4ad7-a7b4-e350fcd93a4f","system_id":"levelo_inurba_marseille","lat":43.29095,"lon":5.38134,"is_reserved":false,"is_disabled":false,"rental_uris":{"android":"levelo://app?vid=498cbbee-e60f-4ad7-a7b4-e350fcd93a4f","ios":"levelo://app?vid=498cbbee-e60f-4ad7-a7b4-e350fcd93a4f"},"vehicle_type_id":"4","last_reported":1759244908,"current_range_meters":5600,"station_id":"ce4bh512rcd13ifvqe2g","pricing_plan_id":"cebpf4jnsgd1na2vs0mg"},{"bike_id":"ada6f189-50b4-4b2f-8e05-034318219df3","system_id":"levelo_inurba_marseille","lat":43.25505,"lon":5.3765,"is_reserved":false,"is_disabled":false,"rental_uris":{"android":"levelo://app?vid=ada6f189-50b4-4b2f-8e05-034318219df3","ios":"levelo://app?vid=ada6f189-50b4-4b2f-8e05-034318219df3"},"vehicle_type_id":"4","last_reported":1759244908,"current_range_meters":6000,"station_id":"ce4bhh12rcd13ifvqff0","pricing_plan_id":"cebpf4jnsgd1na2vs0mg"},{"bike_id":"aae0fff4-79c4-4eff-a901-ce6dfad9d0e7","system_id":"levelo_inurba_marseille","lat":43.28073,"lon":5.38671,"is_reserved":false,"is_disabled":true,"rental_uris":{"android":"levelo://app?vid=aae0fff4-79c4-4eff-a901-ce6dfad9d0e7","ios":"levelo://app?vid=aae0fff4-79c4-4eff-a901-ce6dfad9d0e7"},"vehicle_type_id":"4","last_reported":1759244908,"current_range_meters":6000,"station_id":"","pricing_plan_id":"cebpf4jnsgd1na2vs0mg"},{"bike_id":"929771ea-7a45-4246-bf97-74b93e638a34","system_id":"levelo_inurba_marseille","lat":43.31884,"lon":5.40741,"is_reserved":false,"is_disabled":false,"rental_uris":{"android":"levelo://app?vid=929771ea-7a45-4246-bf97-74b93e638a34","ios":"levelo://app?vid=929771ea-7a45-4246-bf97-74b93e638a34"},"vehicle_type_id":"4","last_reported":1759244908,"current_range_meters":6000,"station_id":"ce4bhq12rcd13ifvqhig","pricing_plan_id":"cebpf4jnsgd1na2vs0mg"},{"bike_id":"48ca400e-1660-45b0-b312-f562099083d8","system_id":"levelo_inurba_marseille","lat":43.30434,"lon":5.38893,"is_reserved":false,"is_disabled":false,"rental_uris":{"android":"levelo://app?vid=48ca400e-1660-45b0-b312-f562099083d8","ios":"levelo://app?vid=48ca400e-1660-45b0-b312-f562099083d8"},"vehicle_type_id":"4","last_reported":1759244908,"current_range_meters":6400,"station_id":"ce4bgk12rcd13ifvqbi0","pricing_plan_id":"cebpf4jnsgd1na2vs0mg"},{"bike_id":"29fb0313-96d0-4699-a2b9-d9bfae768dba","system_id":"levelo_inurba_marseille","lat":43.28162,"lon":5.42622,"is_reserved":false,"is_disabled":true,"rental_uris":{"android":"levelo://app?vid=29fb0313-96d0-4699-a2b9-d9bfae768dba","ios":"levelo://app?vid=29fb0313-96d0-4699-a2b9-d9bfae768dba"},"vehicle_type_id":"4","last_reported":1759244908,"current_range_meters":6800,"station_id":"ce4bhnh2rcd13ifvqgug","pricing_plan_id":"cebpf4jnsgd1na2vs0mg"},{"bike_id":"aa123961-c527-4db0-9350-7d548f67905a","system_id":"levelo_inurba_marseille","lat":43.26381,"lon":5.39697,"is_reserved":false,"is_disabled":false,"rental_uris":{"android":"levelo://app?vid=aa123961-c527-4db0-9350-7d548f67905a","ios":"levelo://app?vid=aa123961-c527-4db0-9350-7d548f67905a"},"vehicle_type_id":"4","last_reported":1759244908,"current_range_meters":6800,"station_id":"","pricing_plan_id":"cebpf4jnsgd1na2vs0mg"},{"bike_id":"406aed86-4316-4749-8eba-673994ddfcc7","system_id":"levelo_inurba_marseille","lat":43.28475,"lon":5.38425,"is_reserved":false,"is_disabled":false,"rental_uris":{"android":"levelo://app?vid=406aed86-4316-4749-8eba-673994ddfcc7","ios":"levelo://app?vid=406aed86-4316-4749-8eba-673994ddfcc7"},"vehicle_type_id":"4","last_reported":1759244908,"current_range_meters":6800,"station_id":"ce4bh512rcd13ifvqe3g","pricing_plan_id":"cebpf4jnsgd1na2vs0mg"},{"bike_id":"ea59b303-6900-42ad-9e79-5b0f95bedd6c","system_id":"levelo_inurba_marseille","lat":43.30452,"lon":5.36851,"is_reserved":false,"is_disabled":false,"rental_uris":{"android":"levelo://app?vid=ea59b303-6900-42ad-9e79-5b0f95bedd6c","ios":"levelo://app?vid=ea59b303-6900-42ad-9e79-5b0f95bedd6c"},"vehicle_type_id":"4","last_reported":1759244908,"current_range_meters":6800,"station_id":"","pricing_plan_id":"cebpf4jnsgd1na2vs0mg"},{"bike_id":"8c95f60d-85ca-45de-a1cb-7f05f4248ed1","system_id":"levelo_inurba_marseille","lat":43.269436,"lon":5.402548,"is_reserved":false,"is_disabled":false,"rental_uris":{"android":"levelo://app?vid=8c95f60d-85ca-45de-a1cb-7f05f4248ed1","ios":"levelo://app?vid=8c95f60d-85ca-45de-a1cb-7f05f4248ed1"},"vehicle_type_id":"4","last_reported":1759244908,"current_range_meters":6400,"station_id":"cjm6bp8fraef2m0cb0m0","pricing_plan_id":"cebpf4jnsgd1na2vs0mg"},{"bike_id":"e4b04b55-dfc8-446d-85b9-a9defa103a6a","system_id":"levelo_inurba_marseille","lat":43.2827,"lon":5.3506,"is_reserved":false,"is_disabled":false,"rental_uris":{"android":"levelo://app?vid=e4b04b55-dfc8-446d-85b9-a9defa103a6a","ios":"levelo://app?vid=e4b04b55-dfc8-446d-85b9-a9defa103a6a"},"vehicle_type_id":"4","last_reported":1759244908,"current_range_meters":6800,"station_id":"ce4bhbp2rcd13ifvqerg","pricing_plan_id":"cebpf4jnsgd1na2vs0mg"},{"bike_id":"ce5e157e-4ef2-4c41-9b3b-54d3eecbfa45","system_id":"levelo_inurba_marseille","lat":43.2251,"lon":5.34839,"is_reserved":false,"is_disabled":false,"rental_uris":{"android":"levelo://app?vid=ce5e157e-4ef2-4c41-9b3b-54d3eecbfa45","ios":"levelo://app?vid=ce5e157e-4ef2-4c41-9b3b-54d3eecbfa45"},"vehicle_type_id":"4","last_reported":1759244908,"current_range_meters":6800,"station_id":"","pricing_plan_id":"cebpf4jnsgd1na2vs0mg"},{"bike_id":"30369c8f-6895-4e24-b2df-5d317aa542ed","system_id":"levelo_inurba_marseille","lat":43.24804,"lon":5.37455,"is_reserved":false,"is_disabled":true,"rental_uris":{"android":"levelo://app?vid=30369c8f-6895-4e24-b2df-5d317aa542ed","ios":"levelo://app?vid=30369c8f-6895-4e24-b2df-5d317aa542ed"},"vehicle_type_id":"4","last_reported":1759244908,"current_range_meters":7200,"station_id":"ce4bhgh2rcd13ifvqfb0","pricing_plan_id":"cebpf4jnsgd1na2vs0mg"},{"bike_id":"889ee56b-0b98-41cf-bc27-89921a6bfbf5","system_id":"levelo_inurba_marseille","lat":43.25328,"lon":5.42173,"is_reserved":false,"is_disabled":false,"rental_uris":{"android":"levelo://app?vid=889ee56b-0b98-41cf-bc27-89921a6bfbf5","ios":"levelo://app?vid=889ee56b-0b98-41cf-bc27-89921a6bfbf5"},"vehicle_type_id":"4","last_reported":1759244908,"current_range_meters":7200,"station_id":"st_d2m65c5bi1j21697t3ng","pricing_plan_id":"cebpf4jnsgd1na2vs0mg"},{"bike_id":"7952d0c5-c3b4-4c29-bacd-f59ef155894d","system_id":"levelo_inurba_marseille","lat":43.30093,"lon":5.39027,"is_reserved":false,"is_disabled":false,"rental_uris":{"android":"levelo://app?vid=7952d0c5-c3b4-4c29-bacd-f59ef155894d","ios":"levelo://app?vid=7952d0c5-c3b4-4c29-bacd-f59ef155894d"},"vehicle_type_id":"4","last_reported":1759244908,"current_range_meters":7200,"station_id":"ce4bh192rcd13ifvqdb0","pricing_plan_id":"cebpf4jnsgd1na2vs0mg"},{"bike_id":"ee96a502-9b76-492e-840a-498b02aefe72","system_id":"levelo_inurba_marseille","lat":43.32358,"lon":5.39224,"is_reserved":false,"is_disabled":false,"rental_uris":{"android":"levelo://app?vid=ee96a502-9b76-492e-840a-498b02aefe72","ios":"levelo://app?vid=ee96a502-9b76-492e-840a-498b02aefe72"},"vehicle_type_id":"4","last_reported":1759244908,"current_range_meters":7200,"station_id":"","pricing_plan_id":"cebpf4jnsgd1na2vs0mg"},{"bike_id":"5a5f0890-1d3b-4da9-8863-5a0f4e6253ef","system_id":"levelo_inurba_marseille","lat":43.32997,"lon":5.39044,"is_reserved":false,"is_disabled":false,"rental_uris":{"android":"levelo://app?vid=5a5f0890-1d3b-4da9-8863-5a0f4e6253ef","ios":"levelo://app?vid=5a5f0890-1d3b-4da9-8863-5a0f4e6253ef"},"vehicle_type_id":"4","last_reported":1759244908,"current_range_meters":7200,"station_id":"ce4bhr92rcd13ifvqhrg","pricing_plan_id":"cebpf4jnsgd1na2vs0mg"},{"bike_id":"9643c386-f02c-4346-9f3f-d96668d0a223","system_id":"levelo_inurba_marseille","lat":43.27994,"lon":5.41668,"is_reserved":false,"is_disabled":false,"rental_uris":{"android":"levelo://app?vid=9643c386-f02c-4346-9f3f-d96668d0a223","ios":"levelo://app?vid=9643c386-f02c-4346-9f3f-d96668d0a223"},"vehicle_type_id":"4","last_reported":1759244908,"current_range_meters":7200,"station_id":"ce4bho12rcd13ifvqh1g","pricing_plan_id":"cebpf4jnsgd1na2vs0mg"},{"bike_id":"63739df1-9d0d-4d60-9761-92ff5e0840df","system_id":"levelo_inurba_marseille","lat":43.31718,"lon":5.42407,"is_reserved":false,"is_disabled":false,"rental_uris":{"android":"levelo://app?vid=63739df1-9d0d-4d60-9761-92ff5e0840df","ios":"levelo://app?vid=63739df1-9d0d-4d60-9761-92ff5e0840df"},"vehicle_type_id":"4","last_reported":1759244908,"current_range_meters":8000,"station_id":"ce4bhp92rcd13ifvqhbg","pricing_plan_id":"cebpf4jnsgd1na2vs0mg"},{"bike_id":"5d36f18b-df85-422d-a857-5b8309cbb93e","system_id":"levelo_inurba_marseille","lat":43.28848,"lon":5.39306,"is_reserved":false,"is_disabled":false,"rental_uris":{"android":"levelo://app?vid=5d36f18b-df85-422d-a857-5b8309cbb93e","ios":"levelo://app?vid=5d36f18b-df85-422d-a857-5b8309cbb93e"},"vehicle_type_id":"4","last_reported":1759244908,"current_range_meters":7200,"station_id":"ce4bh2p2rcd13ifvqdi0","pricing_plan_id":"cebpf4jnsgd1na2vs0mg"},{"bike_id":"9c4235da-d3d0-4056-aa6b-c6aa6e8e7367","system_id":"levelo_inurba_marseille","lat":43.306716,"lon":5.375035,"is_reserved":false,"is_disabled":false,"rental_uris":{"android":"levelo://app?vid=9c4235da-d3d0-4056-aa6b-c6aa6e8e7367","ios":"levelo://app?vid=9c4235da-d3d0-4056-aa6b-c6aa6e8e7367"},"vehicle_type_id":"4","last_reported":1759244908,"current_range_meters":8000,"station_id":"","pricing_plan_id":"cebpf4jnsgd1na2vs0mg"},{"bike_id":"8c6776b2-c8ee-4daa-9407-47703d737911","system_id":"levelo_inurba_marseille","lat":43.292685,"lon":5.384331,"is_reserved":false,"is_disabled":false,"rental_uris":{"android":"levelo://app?vid=8c6776b2-c8ee-4daa-9407-47703d737911","ios":"levelo://app?vid=8c6776b2-c8ee-4daa-9407-47703d737911"},"vehicle_type_id":"4","last_reported":1759244908,"current_range_meters":8000,"station_id":"ce4bh692rcd13ifvqea0","pricing_plan_id":"cebpf4jnsgd1na2vs0mg"},{"bike_id":"11a656a8-c1d0-4fb1-a1b7-79421d19c856","system_id":"levelo_inurba_marseille","lat":43.30795,"lon":5.3817,"is_reserved":false,"is_disabled":false,"rental_uris":{"android":"levelo://app?vid=11a656a8-c1d0-4fb1-a1b7-79421d19c856","ios":"levelo://app?vid=11a656a8-c1d0-4fb1-a1b7-79421d19c856"},"vehicle_type_id":"4","last_reported":1759244908,"current_range_meters":8400,"station_id":"ce4bgt12rcd13ifvqce0","pricing_plan_id":"cebpf4jnsgd1na2vs0mg"},{"bike_id":"db96702e-4077-448f-9b9c-3df362e838bb","system_id":"levelo_inurba_marseille","lat":43.29717,"lon":5.37697,"is_reserved":false,"is_disabled":false,"rental_uris":{"android":"levelo://app?vid=db96702e-4077-448f-9b9c-3df362e838bb","ios":"levelo://app?vid=db96702e-4077-448f-9b9c-3df362e838bb"},"vehicle_type_id":"4","last_reported":1759244908,"current_range_meters":8400,"station_id":"ce4bgkh2rcd13ifvqbl0","pricing_plan_id":"cebpf4jnsgd1na2vs0mg"},{"bike_id":"b90f9b7d-36d8-4f89-9fe7-f480bffbad12","system_id":"levelo_inurba_marseille","lat":43.32052,"lon":5.41556,"is_reserved":false,"is_disabled":false,"rental_uris":{"android":"levelo://app?vid=b90f9b7d-36d8-4f89-9fe7-f480bffbad12","ios":"levelo://app?vid=b90f9b7d-36d8-4f89-9fe7-f480bffbad12"},"vehicle_type_id":"4","last_reported":1759244908,"current_range_meters":8400,"station_id":"ce4bhq92rcd13ifvqhkg","pricing_plan_id":"cebpf4jnsgd1na2vs0mg"},{"bike_id":"2e8e4b55-0ca7-4b03-b7cf-6bb39aff6c93","system_id":"levelo_inurba_marseille","lat":43.2179,"lon":5.34631,"is_reserved":false,"is_disabled":false,"rental_uris":{"android":"levelo://app?vid=2e8e4b55-0ca7-4b03-b7cf-6bb39aff6c93","ios":"levelo://app?vid=2e8e4b55-0ca7-4b03-b7cf-6bb39aff6c93"},"vehicle_type_id":"4","last_reported":1759244908,"current_range_meters":8400,"station_id":"","pricing_plan_id":"cebpf4jnsgd1na2vs0mg"},{"bike_id":"b8a5f797-3dab-4439-aff4-7408f4880372","system_id":"levelo_inurba_marseille","lat":43.31884,"lon":5.40741,"is_reserved":false,"is_disabled":false,"rental_uris":{"android":"levelo://app?vid=b8a5f797-3dab-4439-aff4-7408f4880372","ios":"levelo://app?vid=b8a5f797-3dab-4439-aff4-7408f4880372"},"vehicle_type_id":"4","last_reported":1759244908,"current_range_meters":8400,"station_id":"ce4bhq12rcd13ifvqhig","pricing_plan_id":"cebpf4jnsgd1na2vs0mg"},{"bike_id":"dd5e8987-9f51-4f50-bdd1-4945b8c8a574","system_id":"levelo_inurba_marseille","lat":43.25575,"lon":5.38249,"is_reserved":false,"is_disabled":true,"rental_uris":{"android":"levelo://app?vid=dd5e8987-9f51-4f50-bdd1-4945b8c8a574","ios":"levelo://app?vid=dd5e8987-9f51-4f50-bdd1-4945b8c8a574"},"vehicle_type_id":"4","last_reported":1759244908,"current_range_meters":8400,"station_id":"ce4bhih2rcd13ifvqfs0","pricing_plan_id":"cebpf4jnsgd1na2vs0mg"},{"bike_id":"c9f7c894-4df2-4643-ac68-955fcc67beeb","system_id":"levelo_inurba_marseille","lat":43.27991,"lon":5.41682,"is_reserved":false,"is_disabled":true,"rental_uris":{"android":"levelo://app?vid=c9f7c894-4df2-4643-ac68-955fcc67beeb","ios":"levelo://app?vid=c9f7c894-4df2-4643-ac68-955fcc67beeb"},"vehicle_type_id":"4","last_reported":1759244908,"current_range_meters":8400,"station_id":"ce4bho12rcd13ifvqh1g","pricing_plan_id":"cebpf4jnsgd1na2vs0mg"},{"bike_id":"bd3793d9-9288-4c36-a192-4a9639457aa2","system_id":"levelo_inurba_marseille","lat":43.29617,"lon":5.37172,"is_reserved":false,"is_disabled":false,"rental_uris":{"android":"levelo://app?vid=bd3793d9-9288-4c36-a192-4a9639457aa2","ios":"levelo://app?vid=bd3793d9-9288-4c36-a192-4a9639457aa2"},"vehicle_type_id":"4","last_reported":1759244908,"current_range_meters":8000,"station_id":"ce4bgnh2rcd13ifvqc0g","pricing_plan_id":"cebpf4jnsgd1na2vs0mg"},{"bike_id":"52cbcddf-1e2e-4534-a416-08b3c50e6d82","system_id":"levelo_inurba_marseille","lat":43.27312,"lon":5.39092,"is_reserved":false,"is_disabled":false,"rental_uris":{"android":"levelo://app?vid=52cbcddf-1e2e-4534-a416-08b3c50e6d82","ios":"levelo://app?vid=52cbcddf-1e2e-4534-a416-08b3c50e6d82"},"vehicle_type_id":"4","last_reported":1759244908,"current_range_meters":8400,"station_id":"ce4bhgp2rcd13ifvqfe0","pricing_plan_id":"cebpf4jnsgd1na2vs0mg"},{"bike_id":"6734c476-4598-422c-9549-b4dfcd11231a","system_id":"levelo_inurba_marseille","lat":43.29392,"lon":5.43219,"is_reserved":false,"is_disabled":false,"rental_uris":{"android":"levelo://app?vid=6734c476-4598-422c-9549-b4dfcd11231a","ios":"levelo://app?vid=6734c476-4598-422c-9549-b4dfcd11231a"},"vehicle_type_id":"4","last_reported":1759244908,"current_range_meters":8400,"station_id":"","pricing_plan_id":"cebpf4jnsgd1na2vs0mg"},{"bike_id":"d69de035-ef5e-4f09-809f-c5357349484f","system_id":"levelo_inurba_marseille","lat":43.279097,"lon":5.380086,"is_reserved":false,"is_disabled":false,"rental_uris":{"android":"levelo://app?vid=d69de035-ef5e-4f09-809f-c5357349484f","ios":"levelo://app?vid=d69de035-ef5e-4f09-809f-c5357349484f"},"vehicle_type_id":"4","last_reported":1759244908,"current_range_meters":8400,"station_id":"ce4bhf92rcd13ifvqf50","pricing_plan_id":"cebpf4jnsgd1na2vs0mg"},{"bike_id":"5c8eb019-0d62-4c37-8a3a-a024ea6a91df","system_id":"levelo_inurba_marseille","lat":43.296057,"lon":5.403488,"is_reserved":false,"is_disabled":false,"rental_uris":{"android":"levelo://app?vid=5c8eb019-0d62-4c37-8a3a-a024ea6a91df","ios":"levelo://app?vid=5c8eb019-0d62-4c37-8a3a-a024ea6a91df"},"vehicle_type_id":"4","last_reported":1759244908,"current_range_meters":8400,"station_id":"ce4bh0h2rcd13ifvqd60","pricing_plan_id":"cebpf4jnsgd1na2vs0mg"},{"bike_id":"fd4e3480-2957-4d35-814a-304cd624d223","system_id":"levelo_inurba_marseille","lat":43.28613,"lon":5.35131,"is_reserved":false,"is_disabled":false,"rental_uris":{"android":"levelo://app?vid=fd4e3480-2957-4d35-814a-304cd624d223","ios":"levelo://app?vid=fd4e3480-2957-4d35-814a-304cd624d223"},"vehicle_type_id":"4","last_reported":1759244908,"current_range_meters":8400,"station_id":"ce4bhch2rcd13ifvqeug","pricing_plan_id":"cebpf4jnsgd1na2vs0mg"},{"bike_id":"aedd9bde-e54e-457d-a3c8-bc848a3aaac8","system_id":"levelo_inurba_marseille","lat":43.27572,"lon":5.38412,"is_reserved":false,"is_disabled":false,"rental_uris":{"android":"levelo://app?vid=aedd9bde-e54e-457d-a3c8-bc848a3aaac8","ios":"levelo://app?vid=aedd9bde-e54e-457d-a3c8-bc848a3aaac8"},"vehicle_type_id":"4","last_reported":1759244908,"current_range_meters":8400,"station_id":"ce4bhh92rcd13ifvqfi0","pricing_plan_id":"cebpf4jnsgd1na2vs0mg"},{"bike_id":"a07a513e-e5a9-4481-8592-d991379bc662","system_id":"levelo_inurba_marseille","lat":43.33735,"lon":5.37481,"is_reserved":false,"is_disabled":false,"rental_uris":{"android":"levelo://app?vid=a07a513e-e5a9-4481-8592-d991379bc662","ios":"levelo://app?vid=a07a513e-e5a9-4481-8592-d991379bc662"},"vehicle_type_id":"4","last_reported":1759244908,"current_range_meters":8400,"station_id":"","pricing_plan_id":"cebpf4jnsgd1na2vs0mg"},{"bike_id":"2e92ffb2-12db-4f1d-af0b-cfe283662484","system_id":"levelo_inurba_marseille","lat":43.27323,"lon":5.39074,"is_reserved":false,"is_disabled":false,"rental_uris":{"android":"levelo://app?vid=2e92ffb2-12db-4f1d-af0b-cfe283662484","ios":"levelo://app?vid=2e92ffb2-12db-4f1d-af0b-cfe283662484"},"vehicle_type_id":"4","last_reported":1759244908,"current_range_meters":8800,"station_id":"ce4bhgp2rcd13ifvqfe0","pricing_plan_id":"cebpf4jnsgd1na2vs0mg"},{"bike_id":"be7eaae5-363c-41a6-9c9b-d51459862618","system_id":"levelo_inurba_marseille","lat":43.28606,"lon":5.37047,"is_reserved":false,"is_disabled":false,"rental_uris":{"android":"levelo://app?vid=be7eaae5-363c-41a6-9c9b-d51459862618","ios":"levelo://app?vid=be7eaae5-363c-41a6-9c9b-d51459862618"},"vehicle_type_id":"4","last_reported":1759244908,"current_range_meters":8800,"station_id":"ce4bht12rcd13ifvqi60","pricing_plan_id":"cebpf4jnsgd1na2vs0mg"},{"bike_id":"ab3e48e4-ec44-4d50-87e1-796e33a28262","system_id":"levelo_inurba_marseille","lat":43.284483,"lon":5.391988,"is_reserved":false,"is_disabled":false,"rental_uris":{"android":"levelo://app?vid=ab3e48e4-ec44-4d50-87e1-796e33a28262","ios":"levelo://app?vid=ab3e48e4-ec44-4d50-87e1-796e33a28262"},"vehicle_type_id":"4","last_reported":1759244908,"current_range_meters":8400,"station_id":"ce4bhoh2rcd13ifvqh5g","pricing_plan_id":"cebpf4jnsgd1na2vs0mg"},{"bike_id":"1824d1a5-6abf-47b2-ac81-0e442779e954","system_id":"levelo_inurba_marseille","lat":43.28035,"lon":5.36948,"is_reserved":false,"is_disabled":true,"rental_uris":{"android":"levelo://app?vid=1824d1a5-6abf-47b2-ac81-0e442779e954","ios":"levelo://app?vid=1824d1a5-6abf-47b2-ac81-0e442779e954"},"vehicle_type_id":"4","last_reported":1759244908,"current_range_meters":8800,"station_id":"ce4bha12rcd13ifvqef0","pricing_plan_id":"cebpf4jnsgd1na2vs0mg"},{"bike_id":"59677baa-1d57-46fa-a443-35fe98f12ff4","system_id":"levelo_inurba_marseille","lat":43.23189,"lon":5.39998,"is_reserved":false,"is_disabled":false,"rental_uris":{"android":"levelo://app?vid=59677baa-1d57-46fa-a443-35fe98f12ff4","ios":"levelo://app?vid=59677baa-1d57-46fa-a443-35fe98f12ff4"},"vehicle_type_id":"4","last_reported":1759244908,"current_range_meters":8800,"station_id":"ce4bhn12rcd13ifvqgqg","pricing_plan_id":"cebpf4jnsgd1na2vs0mg"},{"bike_id":"c627b34a-8e81-4438-af3b-4fd0aab1c160","system_id":"levelo_inurba_marseille","lat":43.29658,"lon":5.36005,"is_reserved":false,"is_disabled":false,"rental_uris":{"android":"levelo://app?vid=c627b34a-8e81-4438-af3b-4fd0aab1c160","ios":"levelo://app?vid=c627b34a-8e81-4438-af3b-4fd0aab1c160"},"vehicle_type_id":"4","last_reported":1759244908,"current_range_meters":8800,"station_id":"","pricing_plan_id":"cebpf4jnsgd1na2vs0mg"},{"bike_id":"99442e93-a170-435c-b3c7-c027029e4fd3","system_id":"levelo_inurba_marseille","lat":43.22564,"lon":5.41632,"is_reserved":false,"is_disabled":false,"rental_uris":{"android":"levelo://app?vid=99442e93-a170-435c-b3c7-c027029e4fd3","ios":"levelo://app?vid=99442e93-a170-435c-b3c7-c027029e4fd3"},"vehicle_type_id":"4","last_reported":1759244908,"current_range_meters":9200,"station_id":"st_d2o4gvlbi1j2169b742g","pricing_plan_id":"cebpf4jnsgd1na2vs0mg"},{"bike_id":"9b84ff89-1ded-4468-bd50-b8a0c7f0b9b3","system_id":"levelo_inurba_marseille","lat":43.30599,"lon":5.37226,"is_reserved":false,"is_disabled":false,"rental_uris":{"android":"levelo://app?vid=9b84ff89-1ded-4468-bd50-b8a0c7f0b9b3","ios":"levelo://app?vid=9b84ff89-1ded-4468-bd50-b8a0c7f0b9b3"},"vehicle_type_id":"4","last_reported":1759244908,"current_range_meters":8800,"station_id":"ce4bgqh2rcd13ifvqc4g","pricing_plan_id":"cebpf4jnsgd1na2vs0mg"},{"bike_id":"3a8a9dd9-df7b-412e-9466-be1306cdb76a","system_id":"levelo_inurba_marseille","lat":43.28272,"lon":5.35084,"is_reserved":false,"is_disabled":false,"rental_uris":{"android":"levelo://app?vid=3a8a9dd9-df7b-412e-9466-be1306cdb76a","ios":"levelo://app?vid=3a8a9dd9-df7b-412e-9466-be1306cdb76a"},"vehicle_type_id":"4","last_reported":1759244908,"current_range_meters":9200,"station_id":"ce4bhbp2rcd13ifvqerg","pricing_plan_id":"cebpf4jnsgd1na2vs0mg"},{"bike_id":"fa7b8d5d-cda7-4720-9ca3-21b0406e462a","system_id":"levelo_inurba_marseille","lat":43.295248,"lon":5.37505,"is_reserved":false,"is_disabled":false,"rental_uris":{"android":"levelo://app?vid=fa7b8d5d-cda7-4720-9ca3-21b0406e462a","ios":"levelo://app?vid=fa7b8d5d-cda7-4720-9ca3-21b0406e462a"},"vehicle_type_id":"4","last_reported":1759244908,"current_range_meters":9200,"station_id":"","pricing_plan_id":"cebpf4jnsgd1na2vs0mg"},{"bike_id":"498de633-1978-409b-aa35-b617d56ba506","system_id":"levelo_inurba_marseille","lat":43.289401,"lon":5.366452,"is_reserved":false,"is_disabled":false,"rental_uris":{"android":"levelo://app?vid=498de633-1978-409b-aa35-b617d56ba506","ios":"levelo://app?vid=498de633-1978-409b-aa35-b617d56ba506"},"vehicle_type_id":"4","last_reported":1759244908,"current_range_meters":9200,"station_id":"ce4bhap2rcd13ifvqek0","pricing_plan_id":"cebpf4jnsgd1na2vs0mg"},{"bike_id":"47960ed6-4880-498d-8fe6-f239a71d6dd3","system_id":"levelo_inurba_marseille","lat":43.308899,"lon":5.396612,"is_reserved":false,"is_disabled":false,"rental_uris":{"android":"levelo://app?vid=47960ed6-4880-498d-8fe6-f239a71d6dd3","ios":"levelo://app?vid=47960ed6-4880-498d-8fe6-f239a71d6dd3"},"vehicle_type_id":"4","last_reported":1759244908,"current_range_meters":8800,"station_id":"ce4bh012rcd13ifvqcv0","pricing_plan_id":"cebpf4jnsgd1na2vs0mg"},{"bike_id":"b3aac7b4-0ed6-4ddc-9d19-ef755d070cd4","system_id":"levelo_inurba_marseille","lat":43.308026,"lon":5.435257,"is_reserved":false,"is_disabled":false,"rental_uris":{"android":"levelo://app?vid=b3aac7b4-0ed6-4ddc-9d19-ef755d070cd4","ios":"levelo://app?vid=b3aac7b4-0ed6-4ddc-9d19-ef755d070cd4"},"vehicle_type_id":"4","last_reported":1759244908,"current_range_meters":9200,"station_id":"ce4bhph2rcd13ifvqheg","pricing_plan_id":"cebpf4jnsgd1na2vs0mg"},{"bike_id":"53a019c1-aa32-4ea1-a60e-83c2d00043d9","system_id":"levelo_inurba_marseille","lat":43.292268,"lon":5.360579,"is_reserved":false,"is_disabled":false,"rental_uris":{"android":"levelo://app?vid=53a019c1-aa32-4ea1-a60e-83c2d00043d9","ios":"levelo://app?vid=53a019c1-aa32-4ea1-a60e-83c2d00043d9"},"vehicle_type_id":"4","last_reported":1759244908,"current_range_meters":9600,"station_id":"","pricing_plan_id":"cebpf4jnsgd1na2vs0mg"},{"bike_id":"0f24fdcd-1968-4663-addf-9dbcc866827a","system_id":"levelo_inurba_marseille","lat":43.28647,"lon":5.35081,"is_reserved":false,"is_disabled":false,"rental_uris":{"android":"levelo://app?vid=0f24fdcd-1968-4663-addf-9dbcc866827a","ios":"levelo://app?vid=0f24fdcd-1968-4663-addf-9dbcc866827a"},"vehicle_type_id":"4","last_reported":1759244908,"current_range_meters":9600,"station_id":"ce4bhch2rcd13ifvqeug","pricing_plan_id":"cebpf4jnsgd1na2vs0mg"},{"bike_id":"ef3e0a0e-17ce-4273-94dd-2c4a0527d2e3","system_id":"levelo_inurba_marseille","lat":43.28725,"lon":5.36084,"is_reserved":false,"is_disabled":false,"rental_uris":{"android":"levelo://app?vid=ef3e0a0e-17ce-4273-94dd-2c4a0527d2e3","ios":"levelo://app?vid=ef3e0a0e-17ce-4273-94dd-2c4a0527d2e3"},"vehicle_type_id":"4","last_reported":1759244908,"current_range_meters":9600,"station_id":"cki0cbj6b192h4jlfktg","pricing_plan_id":"cebpf4jnsgd1na2vs0mg"},{"bike_id":"0662e5ec-17b3-4da7-8ffc-903097426f9d","system_id":"levelo_inurba_marseille","lat":43.3169,"lon":5.43705,"is_reserved":false,"is_disabled":false,"rental_uris":{"android":"levelo://app?vid=0662e5ec-17b3-4da7-8ffc-903097426f9d","ios":"levelo://app?vid=0662e5ec-17b3-4da7-8ffc-903097426f9d"},"vehicle_type_id":"4","last_reported":1759244908,"current_range_meters":9600,"station_id":"ce4bhp92rcd13ifvqhcg","pricing_plan_id":"cebpf4jnsgd1na2vs0mg"},{"bike_id":"6c088798-773d-43d3-8886-8d50ff7aadcd","system_id":"levelo_inurba_marseille","lat":43.29881,"lon":5.38919,"is_reserved":false,"is_disabled":false,"rental_uris":{"android":"levelo://app?vid=6c088798-773d-43d3-8886-8d50ff7aadcd","ios":"levelo://app?vid=6c088798-773d-43d3-8886-8d50ff7aadcd"},"vehicle_type_id":"4","last_reported":1759244908,"current_range_meters":9600,"station_id":"ce4bh392rcd13ifvqdl0","pricing_plan_id":"cebpf4jnsgd1na2vs0mg"},{"bike_id":"e72db6c0-2cd2-4763-a2c0-652764f55897","system_id":"levelo_inurba_marseille","lat":43.31991,"lon":5.38157,"is_reserved":false,"is_disabled":false,"rental_uris":{"android":"levelo://app?vid=e72db6c0-2cd2-4763-a2c0-652764f55897","ios":"levelo://app?vid=e72db6c0-2cd2-4763-a2c0-652764f55897"},"vehicle_type_id":"4","last_reported":1759244908,"current_range_meters":9200,"station_id":"ce4bhr12rcd13ifvqhpg","pricing_plan_id":"cebpf4jnsgd1na2vs0mg"},{"bike_id":"aebf0e68-ba27-412a-9ce2-11cc42127dee","system_id":"levelo_inurba_marseille","lat":43.337444,"lon":5.374475,"is_reserved":false,"is_disabled":false,"rental_uris":{"android":"levelo://app?vid=aebf0e68-ba27-412a-9ce2-11cc42127dee","ios":"levelo://app?vid=aebf0e68-ba27-412a-9ce2-11cc42127dee"},"vehicle_type_id":"4","last_reported":1759244908,"current_range_meters":9600,"station_id":"","pricing_plan_id":"cebpf4jnsgd1na2vs0mg"},{"bike_id":"7c40d404-995e-41c7-a7a9-975deb29644c","system_id":"levelo_inurba_marseille","lat":43.23195,"lon":5.35554,"is_reserved":false,"is_disabled":false,"rental_uris":{"android":"levelo://app?vid=7c40d404-995e-41c7-a7a9-975deb29644c","ios":"levelo://app?vid=7c40d404-995e-41c7-a7a9-975deb29644c"},"vehicle_type_id":"4","last_reported":1759244908,"current_range_meters":10000,"station_id":"ce4bhu92rcd13ifvqi70","pricing_plan_id":"cebpf4jnsgd1na2vs0mg"},{"bike_id":"a180971b-73b2-4389-a7d9-a777c50d03b2","system_id":"levelo_inurba_marseille","lat":43.2983,"lon":5.38091,"is_reserved":false,"is_disabled":false,"rental_uris":{"android":"levelo://app?vid=a180971b-73b2-4389-a7d9-a777c50d03b2","ios":"levelo://app?vid=a180971b-73b2-4389-a7d9-a777c50d03b2"},"vehicle_type_id":"4","last_reported":1759244908,"current_range_meters":10000,"station_id":"","pricing_plan_id":"cebpf4jnsgd1na2vs0mg"},{"bike_id":"8cbcf5e7-b804-4925-bbed-5f57e8580ccf","system_id":"levelo_inurba_marseille","lat":43.31519,"lon":5.36803,"is_reserved":false,"is_disabled":false,"rental_uris":{"android":"levelo://app?vid=8cbcf5e7-b804-4925-bbed-5f57e8580ccf","ios":"levelo://app?vid=8cbcf5e7-b804-4925-bbed-5f57e8580ccf"},"vehicle_type_id":"4","last_reported":1759244908,"current_range_meters":10000,"station_id":"","pricing_plan_id":"cebpf4jnsgd1na2vs0mg"},{"bike_id":"56d6a008-a903-4bd5-8ee3-1cec5d05c634","system_id":"levelo_inurba_marseille","lat":43.31749,"lon":5.39024,"is_reserved":false,"is_disabled":false,"rental_uris":{"android":"levelo://app?vid=56d6a008-a903-4bd5-8ee3-1cec5d05c634","ios":"levelo://app?vid=56d6a008-a903-4bd5-8ee3-1cec5d05c634"},"vehicle_type_id":"4","last_reported":1759244908,"current_range_meters":10000,"station_id":"ce4bhqp2rcd13ifvqhng","pricing_plan_id":"cebpf4jnsgd1na2vs0mg"},{"bike_id":"115d89b8-cb56-47a7-8987-2b745ee82c71","system_id":"levelo_inurba_marseille","lat":43.30546,"lon":5.36556,"is_reserved":false,"is_disabled":false,"rental_uris":{"android":"levelo://app?vid=115d89b8-cb56-47a7-8987-2b745ee82c71","ios":"levelo://app?vid=115d89b8-cb56-47a7-8987-2b745ee82c71"},"vehicle_type_id":"4","last_reported":1759244908,"current_range_meters":10000,"station_id":"ce4bgs12rcd13ifvqcag","pricing_plan_id":"cebpf4jnsgd1na2vs0mg"},{"bike_id":"cbf5f2b9-0634-4733-86af-c2447a3d228b","system_id":"levelo_inurba_marseille","lat":43.28259,"lon":5.35064,"is_reserved":false,"is_disabled":false,"rental_uris":{"android":"levelo://app?vid=cbf5f2b9-0634-4733-86af-c2447a3d228b","ios":"levelo://app?vid=cbf5f2b9-0634-4733-86af-c2447a3d228b"},"vehicle_type_id":"4","last_reported":1759244908,"current_range_meters":10000,"station_id":"ce4bhbp2rcd13ifvqerg","pricing_plan_id":"cebpf4jnsgd1na2vs0mg"},{"bike_id":"5c2f0d31-796f-4d43-a540-fa8a60cac702","system_id":"levelo_inurba_marseille","lat":43.29266,"lon":5.38449,"is_reserved":false,"is_disabled":false,"rental_uris":{"android":"levelo://app?vid=5c2f0d31-796f-4d43-a540-fa8a60cac702","ios":"levelo://app?vid=5c2f0d31-796f-4d43-a540-fa8a60cac702"},"vehicle_type_id":"4","last_reported":1759244908,"current_range_meters":10000,"station_id":"ce4bh692rcd13ifvqea0","pricing_plan_id":"cebpf4jnsgd1na2vs0mg"},{"bike_id":"400a13d3-2dcc-4b4f-91a1-3b839b24ea7d","system_id":"levelo_inurba_marseille","lat":43.28599,"lon":5.39185,"is_reserved":false,"is_disabled":false,"rental_uris":{"android":"levelo://app?vid=400a13d3-2dcc-4b4f-91a1-3b839b24ea7d","ios":"levelo://app?vid=400a13d3-2dcc-4b4f-91a1-3b839b24ea7d"},"vehicle_type_id":"4","last_reported":1759244908,"current_range_meters":10800,"station_id":"","pricing_plan_id":"cebpf4jnsgd1na2vs0mg"},{"bike_id":"5f8245c1-d6d3-4e20-af8e-6d792fdc04ce","system_id":"levelo_inurba_marseille","lat":43.2986,"lon":5.45578,"is_reserved":false,"is_disabled":false,"rental_uris":{"android":"levelo://app?vid=5f8245c1-d6d3-4e20-af8e-6d792fdc04ce","ios":"levelo://app?vid=5f8245c1-d6d3-4e20-af8e-6d792fdc04ce"},"vehicle_type_id":"4","last_reported":1759244908,"current_range_meters":10800,"station_id":"","pricing_plan_id":"cebpf4jnsgd1na2vs0mg"},{"bike_id":"99ce2063-5dfb-4ed3-a4a6-8fc3a54c4890","system_id":"levelo_inurba_marseille","lat":43.337444,"lon":5.374475,"is_reserved":false,"is_disabled":false,"rental_uris":{"android":"levelo://app?vid=99ce2063-5dfb-4ed3-a4a6-8fc3a54c4890","ios":"levelo://app?vid=99ce2063-5dfb-4ed3-a4a6-8fc3a54c4890"},"vehicle_type_id":"4","last_reported":1759244908,"current_range_meters":10800,"station_id":"","pricing_plan_id":"cebpf4jnsgd1na2vs0mg"},{"bike_id":"cb4b9073-e436-438a-959a-5f5f4b3d56dd","system_id":"levelo_inurba_marseille","lat":43.26677,"lon":5.38272,"is_reserved":false,"is_disabled":false,"rental_uris":{"android":"levelo://app?vid=cb4b9073-e436-438a-959a-5f5f4b3d56dd","ios":"levelo://app?vid=cb4b9073-e436-438a-959a-5f5f4b3d56dd"},"vehicle_type_id":"4","last_reported":1759244908,"current_range_meters":11200,"station_id":"ce4bhg92rcd13ifvqf90","pricing_plan_id":"cebpf4jnsgd1na2vs0mg"},{"bike_id":"9e898d98-dda5-4fbd-871c-e3c1b03c63ac","system_id":"levelo_inurba_marseille","lat":43.29266,"lon":5.40915,"is_reserved":false,"is_disabled":false,"rental_uris":{"android":"levelo://app?vid=9e898d98-dda5-4fbd-871c-e3c1b03c63ac","ios":"levelo://app?vid=9e898d98-dda5-4fbd-871c-e3c1b03c63ac"},"vehicle_type_id":"4","last_reported":1759244908,"current_range_meters":11200,"station_id":"ce4bh192rcd13ifvqdc0","pricing_plan_id":"cebpf4jnsgd1na2vs0mg"},{"bike_id":"443719ee-4035-461d-80e3-84957335ffe2","system_id":"levelo_inurba_marseille","lat":43.31271,"lon":5.40167,"is_reserved":false,"is_disabled":false,"rental_uris":{"android":"levelo://app?vid=443719ee-4035-461d-80e3-84957335ffe2","ios":"levelo://app?vid=443719ee-4035-461d-80e3-84957335ffe2"},"vehicle_type_id":"4","last_reported":1759244908,"current_range_meters":11200,"station_id":"ce4bh092rcd13ifvqd30","pricing_plan_id":"cebpf4jnsgd1na2vs0mg"},{"bike_id":"92662833-c6ac-4b02-b7df-1638b54b1972","system_id":"levelo_inurba_marseille","lat":43.33742,"lon":5.37449,"is_reserved":false,"is_disabled":false,"rental_uris":{"android":"levelo://app?vid=92662833-c6ac-4b02-b7df-1638b54b1972","ios":"levelo://app?vid=92662833-c6ac-4b02-b7df-1638b54b1972"},"vehicle_type_id":"4","last_reported":1759244908,"current_range_meters":11200,"station_id":"","pricing_plan_id":"cebpf4jnsgd1na2vs0mg"},{"bike_id":"f8d78e5f-60e1-4623-939f-49e76ff16505","system_id":"levelo_inurba_marseille","lat":43.33742,"lon":5.37448,"is_reserved":false,"is_disabled":false,"rental_uris":{"android":"levelo://app?vid=f8d78e5f-60e1-4623-939f-49e76ff16505","ios":"levelo://app?vid=f8d78e5f-60e1-4623-939f-49e76ff16505"},"vehicle_type_id":"4","last_reported":1759244908,"current_range_meters":11200,"station_id":"","pricing_plan_id":"cebpf4jnsgd1na2vs0mg"},{"bike_id":"a87c4102-98c7-4d5f-b5a5-c15af241989e","system_id":"levelo_inurba_marseille","lat":43.292269,"lon":5.3606,"is_reserved":false,"is_disabled":false,"rental_uris":{"android":"levelo://app?vid=a87c4102-98c7-4d5f-b5a5-c15af241989e","ios":"levelo://app?vid=a87c4102-98c7-4d5f-b5a5-c15af241989e"},"vehicle_type_id":"4","last_reported":1759244908,"current_range_meters":11600,"station_id":"ce4bhbh2rcd13ifvqeqg","pricing_plan_id":"cebpf4jnsgd1na2vs0mg"},{"bike_id":"84ebcd11-1124-45a8-b548-64f08413c385","system_id":"levelo_inurba_marseille","lat":43.28282,"lon":5.35072,"is_reserved":false,"is_disabled":false,"rental_uris":{"android":"levelo://app?vid=84ebcd11-1124-45a8-b548-64f08413c385","ios":"levelo://app?vid=84ebcd11-1124-45a8-b548-64f08413c385"},"vehicle_type_id":"4","last_reported":1759244908,"current_range_meters":11600,"station_id":"ce4bhbp2rcd13ifvqerg","pricing_plan_id":"cebpf4jnsgd1na2vs0mg"},{"bike_id":"92d05395-7dc9-41cb-954a-64d9ebdbcfbe","system_id":"levelo_inurba_marseille","lat":43.29868,"lon":5.37437,"is_reserved":false,"is_disabled":false,"rental_uris":{"android":"levelo://app?vid=92d05395-7dc9-41cb-954a-64d9ebdbcfbe","ios":"levelo://app?vid=92d05395-7dc9-41cb-954a-64d9ebdbcfbe"},"vehicle_type_id":"4","last_reported":1759244908,"current_range_meters":11600,"station_id":"","pricing_plan_id":"cebpf4jnsgd1na2vs0mg"},{"bike_id":"fc403f4f-2827-43d8-b0cd-0a915d34f462","system_id":"levelo_inurba_marseille","lat":43.23183,"lon":5.3998,"is_reserved":false,"is_disabled":false,"rental_uris":{"android":"levelo://app?vid=fc403f4f-2827-43d8-b0cd-0a915d34f462","ios":"levelo://app?vid=fc403f4f-2827-43d8-b0cd-0a915d34f462"},"vehicle_type_id":"4","last_reported":1759244908,"current_range_meters":11600,"station_id":"ce4bhn12rcd13ifvqgqg","pricing_plan_id":"cebpf4jnsgd1na2vs0mg"},{"bike_id":"56ca0258-bee9-4eb2-b3c5-63b5cd0b9e67","system_id":"levelo_inurba_marseille","lat":43.33737,"lon":5.37445,"is_reserved":false,"is_disabled":false,"rental_uris":{"android":"levelo://app?vid=56ca0258-bee9-4eb2-b3c5-63b5cd0b9e67","ios":"levelo://app?vid=56ca0258-bee9-4eb2-b3c5-63b5cd0b9e67"},"vehicle_type_id":"4","last_reported":1759244908,"current_range_meters":11600,"station_id":"","pricing_plan_id":"cebpf4jnsgd1na2vs0mg"},{"bike_id":"0aba4fe3-5dca-4d79-8b9d-2fc77d6e7d70","system_id":"levelo_inurba_marseille","lat":43.28418,"lon":5.349815,"is_reserved":false,"is_disabled":false,"rental_uris":{"android":"levelo://app?vid=0aba4fe3-5dca-4d79-8b9d-2fc77d6e7d70","ios":"levelo://app?vid=0aba4fe3-5dca-4d79-8b9d-2fc77d6e7d70"},"vehicle_type_id":"4","last_reported":1759244908,"current_range_meters":12000,"station_id":"","pricing_plan_id":"cebpf4jnsgd1na2vs0mg"},{"bike_id":"ce4cf508-f681-4d6e-8fb3-5ac922005f53","system_id":"levelo_inurba_marseille","lat":43.30085,"lon":5.39078,"is_reserved":false,"is_disabled":false,"rental_uris":{"android":"levelo://app?vid=ce4cf508-f681-4d6e-8fb3-5ac922005f53","ios":"levelo://app?vid=ce4cf508-f681-4d6e-8fb3-5ac922005f53"},"vehicle_type_id":"4","last_reported":1759244908,"current_range_meters":12000,"station_id":"ce4bh192rcd13ifvqdb0","pricing_plan_id":"cebpf4jnsgd1na2vs0mg"},{"bike_id":"66152275-7f1e-4e9f-a8bb-fe5abe69a420","system_id":"levelo_inurba_marseille","lat":43.28405,"lon":5.34989,"is_reserved":false,"is_disabled":false,"rental_uris":{"android":"levelo://app?vid=66152275-7f1e-4e9f-a8bb-fe5abe69a420","ios":"levelo://app?vid=66152275-7f1e-4e9f-a8bb-fe5abe69a420"},"vehicle_type_id":"4","last_reported":1759244908,"current_range_meters":12000,"station_id":"ce4bhbh2rcd13ifvqepg","pricing_plan_id":"cebpf4jnsgd1na2vs0mg"},{"bike_id":"06c31c45-b4c7-4d24-80de-54eeb518946b","system_id":"levelo_inurba_marseille","lat":43.29037,"lon":5.39975,"is_reserved":false,"is_disabled":false,"rental_uris":{"android":"levelo://app?vid=06c31c45-b4c7-4d24-80de-54eeb518946b","ios":"levelo://app?vid=06c31c45-b4c7-4d24-80de-54eeb518946b"},"vehicle_type_id":"4","last_reported":1759244908,"current_range_meters":12000,"station_id":"ce4bh392rcd13ifvqdm0","pricing_plan_id":"cebpf4jnsgd1na2vs0mg"},{"bike_id":"c6675985-04bd-4683-b136-8f7eddb47e95","system_id":"levelo_inurba_marseille","lat":43.29261,"lon":5.37621,"is_reserved":false,"is_disabled":false,"rental_uris":{"android":"levelo://app?vid=c6675985-04bd-4683-b136-8f7eddb47e95","ios":"levelo://app?vid=c6675985-04bd-4683-b136-8f7eddb47e95"},"vehicle_type_id":"4","last_reported":1759244908,"current_range_meters":12000,"station_id":"ce4bgi12rcd13ifvqb80","pricing_plan_id":"cebpf4jnsgd1na2vs0mg"},{"bike_id":"ca084004-4340-4c7c-9c4f-062d2451626a","system_id":"levelo_inurba_marseille","lat":43.30596,"lon":5.39367,"is_reserved":false,"is_disabled":false,"rental_uris":{"android":"levelo://app?vid=ca084004-4340-4c7c-9c4f-062d2451626a","ios":"levelo://app?vid=ca084004-4340-4c7c-9c4f-062d2451626a"},"vehicle_type_id":"4","last_reported":1759244908,"current_range_meters":12000,"station_id":"ce4bh0p2rcd13ifvqd80","pricing_plan_id":"cebpf4jnsgd1na2vs0mg"},{"bike_id":"f56fc89b-3991-4048-8193-27cf7b6ee891","system_id":"levelo_inurba_marseille","lat":43.24168,"lon":5.36412,"is_reserved":false,"is_disabled":false,"rental_uris":{"android":"levelo://app?vid=f56fc89b-3991-4048-8193-27cf7b6ee891","ios":"levelo://app?vid=f56fc89b-3991-4048-8193-27cf7b6ee891"},"vehicle_type_id":"4","last_reported":1759244908,"current_range_meters":12000,"station_id":"cpo36qri1sfpv3e86is0","pricing_plan_id":"cebpf4jnsgd1na2vs0mg"},{"bike_id":"8c889c5e-dbff-42f9-9e9a-56a3d0500fe9","system_id":"levelo_inurba_marseille","lat":43.30279,"lon":5.36986,"is_reserved":false,"is_disabled":false,"rental_uris":{"android":"levelo://app?vid=8c889c5e-dbff-42f9-9e9a-56a3d0500fe9","ios":"levelo://app?vid=8c889c5e-dbff-42f9-9e9a-56a3d0500fe9"},"vehicle_type_id":"4","last_reported":1759244908,"current_range_meters":12400,"station_id":"","pricing_plan_id":"cebpf4jnsgd1na2vs0mg"},{"bike_id":"fac6c017-c764-45f4-a316-d754f6897c35","system_id":"levelo_inurba_marseille","lat":43.31235,"lon":5.36877,"is_reserved":false,"is_disabled":false,"rental_uris":{"android":"levelo://app?vid=fac6c017-c764-45f4-a316-d754f6897c35","ios":"levelo://app?vid=fac6c017-c764-45f4-a316-d754f6897c35"},"vehicle_type_id":"4","last_reported":1759244908,"current_range_meters":12400,"station_id":"ce4bgl92rcd13ifvqbq0","pricing_plan_id":"cebpf4jnsgd1na2vs0mg"},{"bike_id":"93dd4733-4a87-4a55-b9a3-8bc598242e1d","system_id":"levelo_inurba_marseille","lat":43.277037,"lon":5.388893,"is_reserved":false,"is_disabled":false,"rental_uris":{"android":"levelo://app?vid=93dd4733-4a87-4a55-b9a3-8bc598242e1d","ios":"levelo://app?vid=93dd4733-4a87-4a55-b9a3-8bc598242e1d"},"vehicle_type_id":"4","last_reported":1759244908,"current_range_meters":12400,"station_id":"ce4bhi12rcd13ifvqfo0","pricing_plan_id":"cebpf4jnsgd1na2vs0mg"},{"bike_id":"35750caf-9b66-4a89-9f74-7b424527d069","system_id":"levelo_inurba_marseille","lat":43.29856,"lon":5.3624,"is_reserved":false,"is_disabled":false,"rental_uris":{"android":"levelo://app?vid=35750caf-9b66-4a89-9f74-7b424527d069","ios":"levelo://app?vid=35750caf-9b66-4a89-9f74-7b424527d069"},"vehicle_type_id":"4","last_reported":1759244908,"current_range_meters":12800,"station_id":"ce4bgpp2rcd13ifvqc3g","pricing_plan_id":"cebpf4jnsgd1na2vs0mg"},{"bike_id":"fc432294-e19c-47a0-833a-6ebac6768ae5","system_id":"levelo_inurba_marseille","lat":43.24068,"lon":5.37756,"is_reserved":false,"is_disabled":false,"rental_uris":{"android":"levelo://app?vid=fc432294-e19c-47a0-833a-6ebac6768ae5","ios":"levelo://app?vid=fc432294-e19c-47a0-833a-6ebac6768ae5"},"vehicle_type_id":"4","last_reported":1759244908,"current_range_meters":13600,"station_id":"","pricing_plan_id":"cebpf4jnsgd1na2vs0mg"},{"bike_id":"578c2d6f-d7ac-4311-b39a-6c8f5170dc3d","system_id":"levelo_inurba_marseille","lat":43.290974,"lon":5.380961,"is_reserved":false,"is_disabled":false,"rental_uris":{"android":"levelo://app?vid=578c2d6f-d7ac-4311-b39a-6c8f5170dc3d","ios":"levelo://app?vid=578c2d6f-d7ac-4311-b39a-6c8f5170dc3d"},"vehicle_type_id":"4","last_reported":1759244908,"current_range_meters":12800,"station_id":"ce4bh512rcd13ifvqe2g","pricing_plan_id":"cebpf4jnsgd1na2vs0mg"},{"bike_id":"6bbe7c3d-6a0b-4cfd-993e-13357c91e237","system_id":"levelo_inurba_marseille","lat":43.280011,"lon":5.416649,"is_reserved":false,"is_disabled":false,"rental_uris":{"android":"levelo://app?vid=6bbe7c3d-6a0b-4cfd-993e-13357c91e237","ios":"levelo://app?vid=6bbe7c3d-6a0b-4cfd-993e-13357c91e237"},"vehicle_type_id":"4","last_reported":1759244908,"current_range_meters":12800,"station_id":"","pricing_plan_id":"cebpf4jnsgd1na2vs0mg"},{"bike_id":"2ab535df-4c2c-40d8-af4f-189047a67c11","system_id":"levelo_inurba_marseille","lat":43.24623,"lon":5.43143,"is_reserved":false,"is_disabled":false,"rental_uris":{"android":"levelo://app?vid=2ab535df-4c2c-40d8-af4f-189047a67c11","ios":"levelo://app?vid=2ab535df-4c2c-40d8-af4f-189047a67c11"},"vehicle_type_id":"4","last_reported":1759244908,"current_range_meters":12800,"station_id":"st_d2m6c4gdas8pm72e190g","pricing_plan_id":"cebpf4jnsgd1na2vs0mg"},{"bike_id":"4973e832-d17c-4213-aa96-d81492e5534e","system_id":"levelo_inurba_marseille","lat":43.30135,"lon":5.38781,"is_reserved":false,"is_disabled":false,"rental_uris":{"android":"levelo://app?vid=4973e832-d17c-4213-aa96-d81492e5534e","ios":"levelo://app?vid=4973e832-d17c-4213-aa96-d81492e5534e"},"vehicle_type_id":"4","last_reported":1759244908,"current_range_meters":12800,"station_id":"ce4bghh2rcd13ifvqb60","pricing_plan_id":"cebpf4jnsgd1na2vs0mg"},{"bike_id":"19bb257f-89cb-4aba-9b46-c153159e1501","system_id":"levelo_inurba_marseille","lat":43.28614,"lon":5.35106,"is_reserved":false,"is_disabled":false,"rental_uris":{"android":"levelo://app?vid=19bb257f-89cb-4aba-9b46-c153159e1501","ios":"levelo://app?vid=19bb257f-89cb-4aba-9b46-c153159e1501"},"vehicle_type_id":"4","last_reported":1759244908,"current_range_meters":12800,"station_id":"ce4bhch2rcd13ifvqeug","pricing_plan_id":"cebpf4jnsgd1na2vs0mg"},{"bike_id":"d2f46c9e-a53c-42a7-ad54-fd7c896f4565","system_id":"levelo_inurba_marseille","lat":43.33797,"lon":5.37428,"is_reserved":false,"is_disabled":false,"rental_uris":{"android":"levelo://app?vid=d2f46c9e-a53c-42a7-ad54-fd7c896f4565","ios":"levelo://app?vid=d2f46c9e-a53c-42a7-ad54-fd7c896f4565"},"vehicle_type_id":"4","last_reported":1759244908,"current_range_meters":12800,"station_id":"","pricing_plan_id":"cebpf4jnsgd1na2vs0mg"},{"bike_id":"adfbe18b-7ca7-424a-9090-23d85cce22c6","system_id":"levelo_inurba_marseille","lat":43.3004,"lon":5.40952,"is_reserved":false,"is_disabled":false,"rental_uris":{"android":"levelo://app?vid=adfbe18b-7ca7-424a-9090-23d85cce22c6","ios":"levelo://app?vid=adfbe18b-7ca7-424a-9090-23d85cce22c6"},"vehicle_type_id":"4","last_reported":1759244908,"current_range_meters":13600,"station_id":"","pricing_plan_id":"cebpf4jnsgd1na2vs0mg"},{"bike_id":"f6369a8d-337f-4d96-b93b-5fae17fa63fb","system_id":"levelo_inurba_marseille","lat":43.23151,"lon":5.43706,"is_reserved":false,"is_disabled":true,"rental_uris":{"android":"levelo://app?vid=f6369a8d-337f-4d96-b93b-5fae17fa63fb","ios":"levelo://app?vid=f6369a8d-337f-4d96-b93b-5fae17fa63fb"},"vehicle_type_id":"4","last_reported":1759244908,"current_range_meters":12800,"station_id":"ce4bhmp2rcd13ifvqgog","pricing_plan_id":"cebpf4jnsgd1na2vs0mg"},{"bike_id":"e4b830e3-f2e6-46c8-beac-f7d139f50a04","system_id":"levelo_inurba_marseille","lat":43.28263,"lon":5.35081,"is_reserved":false,"is_disabled":false,"rental_uris":{"android":"levelo://app?vid=e4b830e3-f2e6-46c8-beac-f7d139f50a04","ios":"levelo://app?vid=e4b830e3-f2e6-46c8-beac-f7d139f50a04"},"vehicle_type_id":"4","last_reported":1759244908,"current_range_meters":13600,"station_id":"ce4bhbp2rcd13ifvqerg","pricing_plan_id":"cebpf4jnsgd1na2vs0mg"},{"bike_id":"22f8778f-d1e6-4f7b-a74f-1ade4bb2e4f0","system_id":"levelo_inurba_marseille","lat":43.248081,"lon":5.374557,"is_reserved":false,"is_disabled":false,"rental_uris":{"android":"levelo://app?vid=22f8778f-d1e6-4f7b-a74f-1ade4bb2e4f0","ios":"levelo://app?vid=22f8778f-d1e6-4f7b-a74f-1ade4bb2e4f0"},"vehicle_type_id":"4","last_reported":1759244908,"current_range_meters":16000,"station_id":"ce4bhgh2rcd13ifvqfb0","pricing_plan_id":"cebpf4jnsgd1na2vs0mg"},{"bike_id":"aa4a7a34-7b69-424b-ba0e-c69e6587a0c7","system_id":"levelo_inurba_marseille","lat":43.240724,"lon":5.377665,"is_reserved":false,"is_disabled":false,"rental_uris":{"android":"levelo://app?vid=aa4a7a34-7b69-424b-ba0e-c69e6587a0c7","ios":"levelo://app?vid=aa4a7a34-7b69-424b-ba0e-c69e6587a0c7"},"vehicle_type_id":"4","last_reported":1759244908,"current_range_meters":13600,"station_id":"","pricing_plan_id":"cebpf4jnsgd1na2vs0mg"},{"bike_id":"b75044ed-b042-49d3-9133-402b3a14b34f","system_id":"levelo_inurba_marseille","lat":43.25335,"lon":5.421787,"is_reserved":false,"is_disabled":false,"rental_uris":{"android":"levelo://app?vid=b75044ed-b042-49d3-9133-402b3a14b34f","ios":"levelo://app?vid=b75044ed-b042-49d3-9133-402b3a14b34f"},"vehicle_type_id":"4","last_reported":1759244908,"current_range_meters":13600,"station_id":"st_d2m65c5bi1j21697t3ng","pricing_plan_id":"cebpf4jnsgd1na2vs0mg"},{"bike_id":"30cbf9c0-d8c9-49e3-afe2-ea0d70b63a10","system_id":"levelo_inurba_marseille","lat":43.28358,"lon":5.3865,"is_reserved":false,"is_disabled":true,"rental_uris":{"android":"levelo://app?vid=30cbf9c0-d8c9-49e3-afe2-ea0d70b63a10","ios":"levelo://app?vid=30cbf9c0-d8c9-49e3-afe2-ea0d70b63a10"},"vehicle_type_id":"4","last_reported":1759244908,"current_range_meters":14000,"station_id":"ce4bh492rcd13ifvqdvg","pricing_plan_id":"cebpf4jnsgd1na2vs0mg"},{"bike_id":"1adf72d4-f2e2-443a-bd81-e3e77d2b1f3e","system_id":"levelo_inurba_marseille","lat":43.26699,"lon":5.40228,"is_reserved":false,"is_disabled":false,"rental_uris":{"android":"levelo://app?vid=1adf72d4-f2e2-443a-bd81-e3e77d2b1f3e","ios":"levelo://app?vid=1adf72d4-f2e2-443a-bd81-e3e77d2b1f3e"},"vehicle_type_id":"4","last_reported":1759244908,"current_range_meters":14000,"station_id":"","pricing_plan_id":"cebpf4jnsgd1na2vs0mg"},{"bike_id":"7de6f0e2-2bc0-4391-ab75-6268f6fa12c5","system_id":"levelo_inurba_marseille","lat":43.287,"lon":5.39985,"is_reserved":false,"is_disabled":false,"rental_uris":{"android":"levelo://app?vid=7de6f0e2-2bc0-4391-ab75-6268f6fa12c5","ios":"levelo://app?vid=7de6f0e2-2bc0-4391-ab75-6268f6fa12c5"},"vehicle_type_id":"4","last_reported":1759244908,"current_range_meters":14000,"station_id":"ce4bho92rcd13ifvqh3g","pricing_plan_id":"cebpf4jnsgd1na2vs0mg"},{"bike_id":"412a1a1a-ecd6-49e0-81ac-31f1af1b4e09","system_id":"levelo_inurba_marseille","lat":43.29017,"lon":5.38131,"is_reserved":false,"is_disabled":false,"rental_uris":{"android":"levelo://app?vid=412a1a1a-ecd6-49e0-81ac-31f1af1b4e09","ios":"levelo://app?vid=412a1a1a-ecd6-49e0-81ac-31f1af1b4e09"},"vehicle_type_id":"4","last_reported":1759244908,"current_range_meters":14000,"station_id":"ce4bh4p2rcd13ifvqe1g","pricing_plan_id":"cebpf4jnsgd1na2vs0mg"},{"bike_id":"44631c7d-87d1-44be-96c2-2a43e54fa7d0","system_id":"levelo_inurba_marseille","lat":43.26196,"lon":5.37451,"is_reserved":false,"is_disabled":false,"rental_uris":{"android":"levelo://app?vid=44631c7d-87d1-44be-96c2-2a43e54fa7d0","ios":"levelo://app?vid=44631c7d-87d1-44be-96c2-2a43e54fa7d0"},"vehicle_type_id":"4","last_reported":1759244908,"current_range_meters":14000,"station_id":"ce4bhgp2rcd13ifvqfc0","pricing_plan_id":"cebpf4jnsgd1na2vs0mg"},{"bike_id":"8510cfb9-ccd6-4829-8d98-ea0c1b206f01","system_id":"levelo_inurba_marseille","lat":43.28,"lon":5.41673,"is_reserved":false,"is_disabled":false,"rental_uris":{"android":"levelo://app?vid=8510cfb9-ccd6-4829-8d98-ea0c1b206f01","ios":"levelo://app?vid=8510cfb9-ccd6-4829-8d98-ea0c1b206f01"},"vehicle_type_id":"4","last_reported":1759244908,"current_range_meters":14400,"station_id":"ce4bho12rcd13ifvqh1g","pricing_plan_id":"cebpf4jnsgd1na2vs0mg"},{"bike_id":"d7f7f30f-2c78-4b6e-af48-a936d20c8c72","system_id":"levelo_inurba_marseille","lat":43.287168,"lon":5.360709,"is_reserved":false,"is_disabled":false,"rental_uris":{"android":"levelo://app?vid=d7f7f30f-2c78-4b6e-af48-a936d20c8c72","ios":"levelo://app?vid=d7f7f30f-2c78-4b6e-af48-a936d20c8c72"},"vehicle_type_id":"4","last_reported":1759244908,"current_range_meters":14000,"station_id":"cki0cbj6b192h4jlfktg","pricing_plan_id":"cebpf4jnsgd1na2vs0mg"},{"bike_id":"1a39bea0-5ccb-447b-bb13-5e2abf3f61be","system_id":"levelo_inurba_marseille","lat":43.29226,"lon":5.36074,"is_reserved":false,"is_disabled":false,"rental_uris":{"android":"levelo://app?vid=1a39bea0-5ccb-447b-bb13-5e2abf3f61be","ios":"levelo://app?vid=1a39bea0-5ccb-447b-bb13-5e2abf3f61be"},"vehicle_type_id":"4","last_reported":1759244908,"current_range_meters":14400,"station_id":"ce4bhbh2rcd13ifvqeqg","pricing_plan_id":"cebpf4jnsgd1na2vs0mg"},{"bike_id":"7e0b962b-4788-446a-8040-a7b4cc6f24f5","system_id":"levelo_inurba_marseille","lat":43.304347,"lon":5.378631,"is_reserved":false,"is_disabled":false,"rental_uris":{"android":"levelo://app?vid=7e0b962b-4788-446a-8040-a7b4cc6f24f5","ios":"levelo://app?vid=7e0b962b-4788-446a-8040-a7b4cc6f24f5"},"vehicle_type_id":"4","last_reported":1759244908,"current_range_meters":14400,"station_id":"ce4bgup2rcd13ifvqcn0","pricing_plan_id":"cebpf4jnsgd1na2vs0mg"},{"bike_id":"51f491ff-3218-4612-8c99-ba94da741ec2","system_id":"levelo_inurba_marseille","lat":43.32038,"lon":5.41584,"is_reserved":false,"is_disabled":false,"rental_uris":{"android":"levelo://app?vid=51f491ff-3218-4612-8c99-ba94da741ec2","ios":"levelo://app?vid=51f491ff-3218-4612-8c99-ba94da741ec2"},"vehicle_type_id":"4","last_reported":1759244908,"current_range_meters":14400,"station_id":"ce4bhq92rcd13ifvqhkg","pricing_plan_id":"cebpf4jnsgd1na2vs0mg"},{"bike_id":"371d9aa8-6e94-4053-8817-0277c7084567","system_id":"levelo_inurba_marseille","lat":43.29933,"lon":5.36538,"is_reserved":false,"is_disabled":false,"rental_uris":{"android":"levelo://app?vid=371d9aa8-6e94-4053-8817-0277c7084567","ios":"levelo://app?vid=371d9aa8-6e94-4053-8817-0277c7084567"},"vehicle_type_id":"4","last_reported":1759244908,"current_range_meters":14400,"station_id":"ce4bgm92rcd13ifvqbr0","pricing_plan_id":"cebpf4jnsgd1na2vs0mg"},{"bike_id":"00b08bb6-0392-4a25-8947-4669bfee3b1c","system_id":"levelo_inurba_marseille","lat":43.292613,"lon":5.384387,"is_reserved":false,"is_disabled":false,"rental_uris":{"android":"levelo://app?vid=00b08bb6-0392-4a25-8947-4669bfee3b1c","ios":"levelo://app?vid=00b08bb6-0392-4a25-8947-4669bfee3b1c"},"vehicle_type_id":"4","last_reported":1759244908,"current_range_meters":14400,"station_id":"ce4bh692rcd13ifvqea0","pricing_plan_id":"cebpf4jnsgd1na2vs0mg"},{"bike_id":"dec9446c-a40f-4d64-8476-2f4372230baf","system_id":"levelo_inurba_marseille","lat":43.30248,"lon":5.38149,"is_reserved":false,"is_disabled":false,"rental_uris":{"android":"levelo://app?vid=dec9446c-a40f-4d64-8476-2f4372230baf","ios":"levelo://app?vid=dec9446c-a40f-4d64-8476-2f4372230baf"},"vehicle_type_id":"4","last_reported":1759244908,"current_range_meters":14800,"station_id":"","pricing_plan_id":"cebpf4jnsgd1na2vs0mg"},{"bike_id":"29eeb82b-4da4-413d-bf71-529f910399a2","system_id":"levelo_inurba_marseille","lat":43.24389,"lon":5.37063,"is_reserved":false,"is_disabled":false,"rental_uris":{"android":"levelo://app?vid=29eeb82b-4da4-413d-bf71-529f910399a2","ios":"levelo://app?vid=29eeb82b-4da4-413d-bf71-529f910399a2"},"vehicle_type_id":"4","last_reported":1759244908,"current_range_meters":14800,"station_id":"ce4bhhh2rcd13ifvqfk0","pricing_plan_id":"cebpf4jnsgd1na2vs0mg"},{"bike_id":"ed9e20e4-6e45-4345-baee-f085da6dcf6c","system_id":"levelo_inurba_marseille","lat":43.30734,"lon":5.4244,"is_reserved":false,"is_disabled":false,"rental_uris":{"android":"levelo://app?vid=ed9e20e4-6e45-4345-baee-f085da6dcf6c","ios":"levelo://app?vid=ed9e20e4-6e45-4345-baee-f085da6dcf6c"},"vehicle_type_id":"4","last_reported":1759244908,"current_range_meters":14800,"station_id":"st_cvj6ca6bvosntc0bfgr0","pricing_plan_id":"cebpf4jnsgd1na2vs0mg"},{"bike_id":"1f412724-77a6-4d01-a904-f3b55a965f8e","system_id":"levelo_inurba_marseille","lat":43.27902,"lon":5.38028,"is_reserved":false,"is_disabled":false,"rental_uris":{"android":"levelo://app?vid=1f412724-77a6-4d01-a904-f3b55a965f8e","ios":"levelo://app?vid=1f412724-77a6-4d01-a904-f3b55a965f8e"},"vehicle_type_id":"4","last_reported":1759244908,"current_range_meters":14400,"station_id":"ce4bhf92rcd13ifvqf50","pricing_plan_id":"cebpf4jnsgd1na2vs0mg"},{"bike_id":"943f9d05-0864-4bc6-8cd3-54c00ee8a691","system_id":"levelo_inurba_marseille","lat":43.29719,"lon":5.37708,"is_reserved":false,"is_disabled":false,"rental_uris":{"android":"levelo://app?vid=943f9d05-0864-4bc6-8cd3-54c00ee8a691","ios":"levelo://app?vid=943f9d05-0864-4bc6-8cd3-54c00ee8a691"},"vehicle_type_id":"4","last_reported":1759244908,"current_range_meters":14800,"station_id":"ce4bgkh2rcd13ifvqbl0","pricing_plan_id":"cebpf4jnsgd1na2vs0mg"},{"bike_id":"69f4aa3a-9633-4289-8380-bc5bfcf3f864","system_id":"levelo_inurba_marseille","lat":43.28947,"lon":5.36415,"is_reserved":false,"is_disabled":false,"rental_uris":{"android":"levelo://app?vid=69f4aa3a-9633-4289-8380-bc5bfcf3f864","ios":"levelo://app?vid=69f4aa3a-9633-4289-8380-bc5bfcf3f864"},"vehicle_type_id":"4","last_reported":1759244908,"current_range_meters":14800,"station_id":"ce4bhc92rcd13ifvqetg","pricing_plan_id":"cebpf4jnsgd1na2vs0mg"},{"bike_id":"f752559e-e357-41d0-b0e1-06afd32411be","system_id":"levelo_inurba_marseille","lat":43.27493,"lon":5.40788,"is_reserved":false,"is_disabled":false,"rental_uris":{"android":"levelo://app?vid=f752559e-e357-41d0-b0e1-06afd32411be","ios":"levelo://app?vid=f752559e-e357-41d0-b0e1-06afd32411be"},"vehicle_type_id":"4","last_reported":1759244908,"current_range_meters":15200,"station_id":"","pricing_plan_id":"cebpf4jnsgd1na2vs0mg"},{"bike_id":"6a464238-1f78-4c86-8879-2c74b53fed46","system_id":"levelo_inurba_marseille","lat":43.295225,"lon":5.390421,"is_reserved":false,"is_disabled":false,"rental_uris":{"android":"levelo://app?vid=6a464238-1f78-4c86-8879-2c74b53fed46","ios":"levelo://app?vid=6a464238-1f78-4c86-8879-2c74b53fed46"},"vehicle_type_id":"4","last_reported":1759244908,"current_range_meters":15200,"station_id":"ce4bh3p2rcd13ifvqdp0","pricing_plan_id":"cebpf4jnsgd1na2vs0mg"},{"bike_id":"6a80563a-33ef-46e3-b795-c0e1254bcc18","system_id":"levelo_inurba_marseille","lat":43.24159,"lon":5.39775,"is_reserved":false,"is_disabled":false,"rental_uris":{"android":"levelo://app?vid=6a80563a-33ef-46e3-b795-c0e1254bcc18","ios":"levelo://app?vid=6a80563a-33ef-46e3-b795-c0e1254bcc18"},"vehicle_type_id":"4","last_reported":1759244908,"current_range_meters":15200,"station_id":"ce4bhn12rcd13ifvqgpg","pricing_plan_id":"cebpf4jnsgd1na2vs0mg"},{"bike_id":"805731f5-6911-4fc8-9eed-f07fded70f5b","system_id":"levelo_inurba_marseille","lat":43.31744,"lon":5.42394,"is_reserved":false,"is_disabled":false,"rental_uris":{"android":"levelo://app?vid=805731f5-6911-4fc8-9eed-f07fded70f5b","ios":"levelo://app?vid=805731f5-6911-4fc8-9eed-f07fded70f5b"},"vehicle_type_id":"4","last_reported":1759244908,"current_range_meters":15200,"station_id":"ce4bhp92rcd13ifvqhbg","pricing_plan_id":"cebpf4jnsgd1na2vs0mg"},{"bike_id":"627f0009-c086-4f8a-8406-c08f3975bb85","system_id":"levelo_inurba_marseille","lat":43.337914,"lon":5.374267,"is_reserved":false,"is_disabled":false,"rental_uris":{"android":"levelo://app?vid=627f0009-c086-4f8a-8406-c08f3975bb85","ios":"levelo://app?vid=627f0009-c086-4f8a-8406-c08f3975bb85"},"vehicle_type_id":"4","last_reported":1759244908,"current_range_meters":15200,"station_id":"","pricing_plan_id":"cebpf4jnsgd1na2vs0mg"},{"bike_id":"a850760d-f890-4818-860e-321d70e97b11","system_id":"levelo_inurba_marseille","lat":43.32353,"lon":5.36759,"is_reserved":false,"is_disabled":false,"rental_uris":{"android":"levelo://app?vid=a850760d-f890-4818-860e-321d70e97b11","ios":"levelo://app?vid=a850760d-f890-4818-860e-321d70e97b11"},"vehicle_type_id":"4","last_reported":1759244908,"current_range_meters":16000,"station_id":"ce4bhsh2rcd13ifvqi2g","pricing_plan_id":"cebpf4jnsgd1na2vs0mg"},{"bike_id":"40984540-03fa-4ac3-a291-4387510e4217","system_id":"levelo_inurba_marseille","lat":43.27593,"lon":5.36143,"is_reserved":false,"is_disabled":false,"rental_uris":{"android":"levelo://app?vid=40984540-03fa-4ac3-a291-4387510e4217","ios":"levelo://app?vid=40984540-03fa-4ac3-a291-4387510e4217"},"vehicle_type_id":"4","last_reported":1759244908,"current_range_meters":16000,"station_id":"ce4bgj92rcd13ifvqbe0","pricing_plan_id":"cebpf4jnsgd1na2vs0mg"},{"bike_id":"9259d079-29af-4c38-99e0-f25e4d514b98","system_id":"levelo_inurba_marseille","lat":43.28417,"lon":5.34981,"is_reserved":false,"is_disabled":false,"rental_uris":{"android":"levelo://app?vid=9259d079-29af-4c38-99e0-f25e4d514b98","ios":"levelo://app?vid=9259d079-29af-4c38-99e0-f25e4d514b98"},"vehicle_type_id":"4","last_reported":1759244908,"current_range_meters":16000,"station_id":"ce4bhbh2rcd13ifvqepg","pricing_plan_id":"cebpf4jnsgd1na2vs0mg"},{"bike_id":"84772d7d-db5c-439d-916b-4875985beea5","system_id":"levelo_inurba_marseille","lat":43.29531,"lon":5.39039,"is_reserved":false,"is_disabled":false,"rental_uris":{"android":"levelo://app?vid=84772d7d-db5c-439d-916b-4875985beea5","ios":"levelo://app?vid=84772d7d-db5c-439d-916b-4875985beea5"},"vehicle_type_id":"4","last_reported":1759244908,"current_range_meters":15200,"station_id":"ce4bh3p2rcd13ifvqdp0","pricing_plan_id":"cebpf4jnsgd1na2vs0mg"},{"bike_id":"6b754b28-6083-4c45-bf22-e57f5de15fc8","system_id":"levelo_inurba_marseille","lat":43.27984,"lon":5.4166,"is_reserved":false,"is_disabled":false,"rental_uris":{"android":"levelo://app?vid=6b754b28-6083-4c45-bf22-e57f5de15fc8","ios":"levelo://app?vid=6b754b28-6083-4c45-bf22-e57f5de15fc8"},"vehicle_type_id":"4","last_reported":1759244908,"current_range_meters":15200,"station_id":"ce4bho12rcd13ifvqh1g","pricing_plan_id":"cebpf4jnsgd1na2vs0mg"},{"bike_id":"617dca4b-4508-4d52-9e62-d583d919ac44","system_id":"levelo_inurba_marseille","lat":43.29742,"lon":5.37116,"is_reserved":false,"is_disabled":false,"rental_uris":{"android":"levelo://app?vid=617dca4b-4508-4d52-9e62-d583d919ac44","ios":"levelo://app?vid=617dca4b-4508-4d52-9e62-d583d919ac44"},"vehicle_type_id":"4","last_reported":1759244908,"current_range_meters":16000,"station_id":"ce4bgop2rcd13ifvqc1g","pricing_plan_id":"cebpf4jnsgd1na2vs0mg"},{"bike_id":"8529f32e-2b7c-4b03-9b67-3802b1b158ab","system_id":"levelo_inurba_marseille","lat":43.31332,"lon":5.36736,"is_reserved":false,"is_disabled":false,"rental_uris":{"android":"levelo://app?vid=8529f32e-2b7c-4b03-9b67-3802b1b158ab","ios":"levelo://app?vid=8529f32e-2b7c-4b03-9b67-3802b1b158ab"},"vehicle_type_id":"4","last_reported":1759244908,"current_range_meters":16000,"station_id":"ce4bgr92rcd13ifvqc6g","pricing_plan_id":"cebpf4jnsgd1na2vs0mg"},{"bike_id":"66a0e74e-7f56-4e4d-a1d9-b433b748f53b","system_id":"levelo_inurba_marseille","lat":43.28251,"lon":5.3506,"is_reserved":false,"is_disabled":false,"rental_uris":{"android":"levelo://app?vid=66a0e74e-7f56-4e4d-a1d9-b433b748f53b","ios":"levelo://app?vid=66a0e74e-7f56-4e4d-a1d9-b433b748f53b"},"vehicle_type_id":"4","last_reported":1759244908,"current_range_meters":16000,"station_id":"ce4bhbp2rcd13ifvqerg","pricing_plan_id":"cebpf4jnsgd1na2vs0mg"},{"bike_id":"c2b14ef3-880a-4a7e-b2ad-e3fbd3d066a0","system_id":"levelo_inurba_marseille","lat":43.24642,"lon":5.4313,"is_reserved":false,"is_disabled":false,"rental_uris":{"android":"levelo://app?vid=c2b14ef3-880a-4a7e-b2ad-e3fbd3d066a0","ios":"levelo://app?vid=c2b14ef3-880a-4a7e-b2ad-e3fbd3d066a0"},"vehicle_type_id":"4","last_reported":1759244908,"current_range_meters":16000,"station_id":"st_d2m6c4gdas8pm72e190g","pricing_plan_id":"cebpf4jnsgd1na2vs0mg"},{"bike_id":"fa3e6782-c198-4993-bfc8-ba4949faaf19","system_id":"levelo_inurba_marseille","lat":43.21185,"lon":5.35077,"is_reserved":false,"is_disabled":true,"rental_uris":{"android":"levelo://app?vid=fa3e6782-c198-4993-bfc8-ba4949faaf19","ios":"levelo://app?vid=fa3e6782-c198-4993-bfc8-ba4949faaf19"},"vehicle_type_id":"4","last_reported":1759244908,"current_range_meters":16400,"station_id":"","pricing_plan_id":"cebpf4jnsgd1na2vs0mg"},{"bike_id":"6c2e96f0-0d94-4ada-b75d-f16e4d9045a7","system_id":"levelo_inurba_marseille","lat":43.2396,"lon":5.36591,"is_reserved":false,"is_disabled":false,"rental_uris":{"android":"levelo://app?vid=6c2e96f0-0d94-4ada-b75d-f16e4d9045a7","ios":"levelo://app?vid=6c2e96f0-0d94-4ada-b75d-f16e4d9045a7"},"vehicle_type_id":"4","last_reported":1759244908,"current_range_meters":16400,"station_id":"ce4bhi12rcd13ifvqfp0","pricing_plan_id":"cebpf4jnsgd1na2vs0mg"},{"bike_id":"8aa0252b-bfe1-4791-bcb2-47bc0726c293","system_id":"levelo_inurba_marseille","lat":43.23365,"lon":5.43943,"is_reserved":false,"is_disabled":false,"rental_uris":{"android":"levelo://app?vid=8aa0252b-bfe1-4791-bcb2-47bc0726c293","ios":"levelo://app?vid=8aa0252b-bfe1-4791-bcb2-47bc0726c293"},"vehicle_type_id":"4","last_reported":1759244908,"current_range_meters":16400,"station_id":"","pricing_plan_id":"cebpf4jnsgd1na2vs0mg"},{"bike_id":"57ba1a11-1a31-42f9-bc82-712fab90729d","system_id":"levelo_inurba_marseille","lat":43.28677,"lon":5.38663,"is_reserved":false,"is_disabled":false,"rental_uris":{"android":"levelo://app?vid=57ba1a11-1a31-42f9-bc82-712fab90729d","ios":"levelo://app?vid=57ba1a11-1a31-42f9-bc82-712fab90729d"},"vehicle_type_id":"4","last_reported":1759244908,"current_range_meters":16400,"station_id":"ce4bh492rcd13ifvqdug","pricing_plan_id":"cebpf4jnsgd1na2vs0mg"},{"bike_id":"ee94eda5-f40b-4168-a57a-bf8989940e9c","system_id":"levelo_inurba_marseille","lat":43.32465,"lon":5.36548,"is_reserved":false,"is_disabled":false,"rental_uris":{"android":"levelo://app?vid=ee94eda5-f40b-4168-a57a-bf8989940e9c","ios":"levelo://app?vid=ee94eda5-f40b-4168-a57a-bf8989940e9c"},"vehicle_type_id":"4","last_reported":1759244908,"current_range_meters":16400,"station_id":"ce4bhs12rcd13ifvqhvg","pricing_plan_id":"cebpf4jnsgd1na2vs0mg"},{"bike_id":"2c2dc494-3886-4b72-a9bd-762a17c7f724","system_id":"levelo_inurba_marseille","lat":43.29073,"lon":5.37168,"is_reserved":false,"is_disabled":false,"rental_uris":{"android":"levelo://app?vid=2c2dc494-3886-4b72-a9bd-762a17c7f724","ios":"levelo://app?vid=2c2dc494-3886-4b72-a9bd-762a17c7f724"},"vehicle_type_id":"4","last_reported":1759244908,"current_range_meters":16400,"station_id":"ce4bh5p2rcd13ifvqe4g","pricing_plan_id":"cebpf4jnsgd1na2vs0mg"},{"bike_id":"d88e0d03-a71d-4d69-bfe0-f7906e10eef6","system_id":"levelo_inurba_marseille","lat":43.22928,"lon":5.3538,"is_reserved":false,"is_disabled":false,"rental_uris":{"android":"levelo://app?vid=d88e0d03-a71d-4d69-bfe0-f7906e10eef6","ios":"levelo://app?vid=d88e0d03-a71d-4d69-bfe0-f7906e10eef6"},"vehicle_type_id":"4","last_reported":1759244908,"current_range_meters":16400,"station_id":"cpo3532slgdg3j2ikp40","pricing_plan_id":"cebpf4jnsgd1na2vs0mg"},{"bike_id":"50a6d9be-879d-4d99-9855-abb98fbce5b8","system_id":"levelo_inurba_marseille","lat":43.337851,"lon":5.374298,"is_reserved":false,"is_disabled":false,"rental_uris":{"android":"levelo://app?vid=50a6d9be-879d-4d99-9855-abb98fbce5b8","ios":"levelo://app?vid=50a6d9be-879d-4d99-9855-abb98fbce5b8"},"vehicle_type_id":"4","last_reported":1759244908,"current_range_meters":16400,"station_id":"","pricing_plan_id":"cebpf4jnsgd1na2vs0mg"},{"bike_id":"f389964a-c6b6-4af1-95ba-d2e996bf344e","system_id":"levelo_inurba_marseille","lat":43.28412,"lon":5.34991,"is_reserved":false,"is_disabled":false,"rental_uris":{"android":"levelo://app?vid=f389964a-c6b6-4af1-95ba-d2e996bf344e","ios":"levelo://app?vid=f389964a-c6b6-4af1-95ba-d2e996bf344e"},"vehicle_type_id":"4","last_reported":1759244908,"current_range_meters":16800,"station_id":"ce4bhbh2rcd13ifvqepg","pricing_plan_id":"cebpf4jnsgd1na2vs0mg"},{"bike_id":"6e35eb3a-244d-446e-ba2c-c58465f51251","system_id":"levelo_inurba_marseille","lat":43.32094,"lon":5.36813,"is_reserved":false,"is_disabled":false,"rental_uris":{"android":"levelo://app?vid=6e35eb3a-244d-446e-ba2c-c58465f51251","ios":"levelo://app?vid=6e35eb3a-244d-446e-ba2c-c58465f51251"},"vehicle_type_id":"4","last_reported":1759244908,"current_range_meters":16800,"station_id":"ce4bhrh2rcd13ifvqhug","pricing_plan_id":"cebpf4jnsgd1na2vs0mg"},{"bike_id":"64b25e14-4e01-4810-94ac-2ca7b90cf2f7","system_id":"levelo_inurba_marseille","lat":43.28399,"lon":5.34995,"is_reserved":false,"is_disabled":false,"rental_uris":{"android":"levelo://app?vid=64b25e14-4e01-4810-94ac-2ca7b90cf2f7","ios":"levelo://app?vid=64b25e14-4e01-4810-94ac-2ca7b90cf2f7"},"vehicle_type_id":"4","last_reported":1759244908,"current_range_meters":16800,"station_id":"ce4bhbh2rcd13ifvqepg","pricing_plan_id":"cebpf4jnsgd1na2vs0mg"},{"bike_id":"a58a4c94-7754-46be-b35a-a0b84fc468a5","system_id":"levelo_inurba_marseille","lat":43.2998,"lon":5.37335,"is_reserved":false,"is_disabled":false,"rental_uris":{"android":"levelo://app?vid=a58a4c94-7754-46be-b35a-a0b84fc468a5","ios":"levelo://app?vid=a58a4c94-7754-46be-b35a-a0b84fc468a5"},"vehicle_type_id":"4","last_reported":1759244908,"current_range_meters":16800,"station_id":"","pricing_plan_id":"cebpf4jnsgd1na2vs0mg"},{"bike_id":"b972f52e-bdd9-4bb2-a7ce-ae56c2f38925","system_id":"levelo_inurba_marseille","lat":43.28624,"lon":5.35089,"is_reserved":false,"is_disabled":false,"rental_uris":{"android":"levelo://app?vid=b972f52e-bdd9-4bb2-a7ce-ae56c2f38925","ios":"levelo://app?vid=b972f52e-bdd9-4bb2-a7ce-ae56c2f38925"},"vehicle_type_id":"4","last_reported":1759244908,"current_range_meters":16800,"station_id":"ce4bhch2rcd13ifvqeug","pricing_plan_id":"cebpf4jnsgd1na2vs0mg"},{"bike_id":"aa44d07e-6268-4b5c-80fb-bdf5232877a1","system_id":"levelo_inurba_marseille","lat":43.284,"lon":5.35086,"is_reserved":false,"is_disabled":false,"rental_uris":{"android":"levelo://app?vid=aa44d07e-6268-4b5c-80fb-bdf5232877a1","ios":"levelo://app?vid=aa44d07e-6268-4b5c-80fb-bdf5232877a1"},"vehicle_type_id":"4","last_reported":1759244908,"current_range_meters":16800,"station_id":"","pricing_plan_id":"cebpf4jnsgd1na2vs0mg"},{"bike_id":"96989374-612f-4d3b-9955-b4d13e07474a","system_id":"levelo_inurba_marseille","lat":43.24166,"lon":5.36389,"is_reserved":false,"is_disabled":false,"rental_uris":{"android":"levelo://app?vid=96989374-612f-4d3b-9955-b4d13e07474a","ios":"levelo://app?vid=96989374-612f-4d3b-9955-b4d13e07474a"},"vehicle_type_id":"4","last_reported":1759244908,"current_range_meters":16800,"station_id":"cpo36qri1sfpv3e86is0","pricing_plan_id":"cebpf4jnsgd1na2vs0mg"},{"bike_id":"0e22ced9-197b-4339-bd33-e5a8f131c1c2","system_id":"levelo_inurba_marseille","lat":43.23189,"lon":5.3554,"is_reserved":false,"is_disabled":false,"rental_uris":{"android":"levelo://app?vid=0e22ced9-197b-4339-bd33-e5a8f131c1c2","ios":"levelo://app?vid=0e22ced9-197b-4339-bd33-e5a8f131c1c2"},"vehicle_type_id":"4","last_reported":1759244908,"current_range_meters":16800,"station_id":"ce4bhu92rcd13ifvqi70","pricing_plan_id":"cebpf4jnsgd1na2vs0mg"},{"bike_id":"f6fe3c39-5f43-491c-903a-a55d20c6cdf2","system_id":"levelo_inurba_marseille","lat":43.30186,"lon":5.36626,"is_reserved":false,"is_disabled":false,"rental_uris":{"android":"levelo://app?vid=f6fe3c39-5f43-491c-903a-a55d20c6cdf2","ios":"levelo://app?vid=f6fe3c39-5f43-491c-903a-a55d20c6cdf2"},"vehicle_type_id":"4","last_reported":1759244908,"current_range_meters":16400,"station_id":"ce4bgrh2rcd13ifvqc8g","pricing_plan_id":"cebpf4jnsgd1na2vs0mg"},{"bike_id":"3f8a7425-65dd-467a-bda8-36ede2e6a269","system_id":"levelo_inurba_marseille","lat":43.26931,"lon":5.41005,"is_reserved":false,"is_disabled":false,"rental_uris":{"android":"levelo://app?vid=3f8a7425-65dd-467a-bda8-36ede2e6a269","ios":"levelo://app?vid=3f8a7425-65dd-467a-bda8-36ede2e6a269"},"vehicle_type_id":"4","last_reported":1759244908,"current_range_meters":17200,"station_id":"","pricing_plan_id":"cebpf4jnsgd1na2vs0mg"},{"bike_id":"0d9484ee-e179-48d9-8b30-24b977129163","system_id":"levelo_inurba_marseille","lat":43.28615,"lon":5.35114,"is_reserved":false,"is_disabled":false,"rental_uris":{"android":"levelo://app?vid=0d9484ee-e179-48d9-8b30-24b977129163","ios":"levelo://app?vid=0d9484ee-e179-48d9-8b30-24b977129163"},"vehicle_type_id":"4","last_reported":1759244908,"current_range_meters":17200,"station_id":"ce4bhch2rcd13ifvqeug","pricing_plan_id":"cebpf4jnsgd1na2vs0mg"},{"bike_id":"06f6e6f1-0967-43e0-8fee-c9eea06b058c","system_id":"levelo_inurba_marseille","lat":43.29528,"lon":5.39041,"is_reserved":false,"is_disabled":false,"rental_uris":{"android":"levelo://app?vid=06f6e6f1-0967-43e0-8fee-c9eea06b058c","ios":"levelo://app?vid=06f6e6f1-0967-43e0-8fee-c9eea06b058c"},"vehicle_type_id":"4","last_reported":1759244908,"current_range_meters":16800,"station_id":"ce4bh3p2rcd13ifvqdp0","pricing_plan_id":"cebpf4jnsgd1na2vs0mg"},{"bike_id":"284a0a39-8634-4794-8ee9-f93dbb66a72f","system_id":"levelo_inurba_marseille","lat":43.28271,"lon":5.35061,"is_reserved":false,"is_disabled":false,"rental_uris":{"android":"levelo://app?vid=284a0a39-8634-4794-8ee9-f93dbb66a72f","ios":"levelo://app?vid=284a0a39-8634-4794-8ee9-f93dbb66a72f"},"vehicle_type_id":"4","last_reported":1759244908,"current_range_meters":17200,"station_id":"ce4bhbp2rcd13ifvqerg","pricing_plan_id":"cebpf4jnsgd1na2vs0mg"},{"bike_id":"2410b542-4dbb-4ba2-8de7-3b722fc9a69f","system_id":"levelo_inurba_marseille","lat":43.28463,"lon":5.35897,"is_reserved":false,"is_disabled":true,"rental_uris":{"android":"levelo://app?vid=2410b542-4dbb-4ba2-8de7-3b722fc9a69f","ios":"levelo://app?vid=2410b542-4dbb-4ba2-8de7-3b722fc9a69f"},"vehicle_type_id":"4","last_reported":1759244908,"current_range_meters":17200,"station_id":"ce4bhah2rcd13ifvqei0","pricing_plan_id":"cebpf4jnsgd1na2vs0mg"},{"bike_id":"db3a202b-6514-4a53-892d-e953fc1e9d26","system_id":"levelo_inurba_marseille","lat":43.225369,"lon":5.348573,"is_reserved":false,"is_disabled":false,"rental_uris":{"android":"levelo://app?vid=db3a202b-6514-4a53-892d-e953fc1e9d26","ios":"levelo://app?vid=db3a202b-6514-4a53-892d-e953fc1e9d26"},"vehicle_type_id":"4","last_reported":1759244908,"current_range_meters":17200,"station_id":"","pricing_plan_id":"cebpf4jnsgd1na2vs0mg"},{"bike_id":"700e2971-7ce2-46cc-996b-6959d72691c7","system_id":"levelo_inurba_marseille","lat":43.22568,"lon":5.4162,"is_reserved":false,"is_disabled":false,"rental_uris":{"android":"levelo://app?vid=700e2971-7ce2-46cc-996b-6959d72691c7","ios":"levelo://app?vid=700e2971-7ce2-46cc-996b-6959d72691c7"},"vehicle_type_id":"4","last_reported":1759244908,"current_range_meters":17200,"station_id":"st_d2o4gvlbi1j2169b742g","pricing_plan_id":"cebpf4jnsgd1na2vs0mg"},{"bike_id":"123e055a-692b-459b-9c4f-970a83ad75be","system_id":"levelo_inurba_marseille","lat":43.32359,"lon":5.36754,"is_reserved":false,"is_disabled":true,"rental_uris":{"android":"levelo://app?vid=123e055a-692b-459b-9c4f-970a83ad75be","ios":"levelo://app?vid=123e055a-692b-459b-9c4f-970a83ad75be"},"vehicle_type_id":"4","last_reported":1759244908,"current_range_meters":17200,"station_id":"ce4bhsh2rcd13ifvqi2g","pricing_plan_id":"cebpf4jnsgd1na2vs0mg"},{"bike_id":"ad5f8d16-87be-429b-b806-371c5b5a9851","system_id":"levelo_inurba_marseille","lat":43.279406,"lon":5.41049,"is_reserved":false,"is_disabled":false,"rental_uris":{"android":"levelo://app?vid=ad5f8d16-87be-429b-b806-371c5b5a9851","ios":"levelo://app?vid=ad5f8d16-87be-429b-b806-371c5b5a9851"},"vehicle_type_id":"4","last_reported":1759244908,"current_range_meters":17200,"station_id":"ce4bhnp2rcd13ifvqh0g","pricing_plan_id":"cebpf4jnsgd1na2vs0mg"},{"bike_id":"450844ba-2fc2-47be-9959-8fee61f07fb6","system_id":"levelo_inurba_marseille","lat":43.317354,"lon":5.390403,"is_reserved":false,"is_disabled":false,"rental_uris":{"android":"levelo://app?vid=450844ba-2fc2-47be-9959-8fee61f07fb6","ios":"levelo://app?vid=450844ba-2fc2-47be-9959-8fee61f07fb6"},"vehicle_type_id":"4","last_reported":1759244908,"current_range_meters":17600,"station_id":"ce4bhqp2rcd13ifvqhng","pricing_plan_id":"cebpf4jnsgd1na2vs0mg"},{"bike_id":"902561a4-d118-4de2-a70c-f6181c7156c7","system_id":"levelo_inurba_marseille","lat":43.28271,"lon":5.35062,"is_reserved":false,"is_disabled":false,"rental_uris":{"android":"levelo://app?vid=902561a4-d118-4de2-a70c-f6181c7156c7","ios":"levelo://app?vid=902561a4-d118-4de2-a70c-f6181c7156c7"},"vehicle_type_id":"4","last_reported":1759244908,"current_range_meters":17600,"station_id":"ce4bhbp2rcd13ifvqerg","pricing_plan_id":"cebpf4jnsgd1na2vs0mg"},{"bike_id":"73e22ed6-f150-4bd5-a7c9-af939e7a8ce9","system_id":"levelo_inurba_marseille","lat":43.290507,"lon":5.419421,"is_reserved":false,"is_disabled":false,"rental_uris":{"android":"levelo://app?vid=73e22ed6-f150-4bd5-a7c9-af939e7a8ce9","ios":"levelo://app?vid=73e22ed6-f150-4bd5-a7c9-af939e7a8ce9"},"vehicle_type_id":"4","last_reported":1759244908,"current_range_meters":17600,"station_id":"","pricing_plan_id":"cebpf4jnsgd1na2vs0mg"},{"bike_id":"a458eac8-cd0b-4ce2-aeef-e8575c3b64ab","system_id":"levelo_inurba_marseille","lat":43.29576,"lon":5.36739,"is_reserved":false,"is_disabled":false,"rental_uris":{"android":"levelo://app?vid=a458eac8-cd0b-4ce2-aeef-e8575c3b64ab","ios":"levelo://app?vid=a458eac8-cd0b-4ce2-aeef-e8575c3b64ab"},"vehicle_type_id":"4","last_reported":1759244908,"current_range_meters":17200,"station_id":"ce4bgph2rcd13ifvqc2g","pricing_plan_id":"cebpf4jnsgd1na2vs0mg"},{"bike_id":"e8a6d609-d965-4c72-b22f-83ffb60a3d29","system_id":"levelo_inurba_marseille","lat":43.28406,"lon":5.34993,"is_reserved":false,"is_disabled":false,"rental_uris":{"android":"levelo://app?vid=e8a6d609-d965-4c72-b22f-83ffb60a3d29","ios":"levelo://app?vid=e8a6d609-d965-4c72-b22f-83ffb60a3d29"},"vehicle_type_id":"4","last_reported":1759244908,"current_range_meters":17600,"station_id":"ce4bhbh2rcd13ifvqepg","pricing_plan_id":"cebpf4jnsgd1na2vs0mg"},{"bike_id":"9f344037-7aa5-4ee2-920d-740ab1273e5a","system_id":"levelo_inurba_marseille","lat":43.296,"lon":5.37712,"is_reserved":false,"is_disabled":false,"rental_uris":{"android":"levelo://app?vid=9f344037-7aa5-4ee2-920d-740ab1273e5a","ios":"levelo://app?vid=9f344037-7aa5-4ee2-920d-740ab1273e5a"},"vehicle_type_id":"4","last_reported":1759244908,"current_range_meters":17600,"station_id":"ce4bgi92rcd13ifvqb90","pricing_plan_id":"cebpf4jnsgd1na2vs0mg"},{"bike_id":"1a2f0714-8e67-4620-aa63-d73353139f90","system_id":"levelo_inurba_marseille","lat":43.30211,"lon":5.39466,"is_reserved":false,"is_disabled":false,"rental_uris":{"android":"levelo://app?vid=1a2f0714-8e67-4620-aa63-d73353139f90","ios":"levelo://app?vid=1a2f0714-8e67-4620-aa63-d73353139f90"},"vehicle_type_id":"4","last_reported":1759244908,"current_range_meters":17600,"station_id":"ce4bh0p2rcd13ifvqd70","pricing_plan_id":"cebpf4jnsgd1na2vs0mg"},{"bike_id":"d2b4df01-39a0-458c-b9ed-a01df7fb78b2","system_id":"levelo_inurba_marseille","lat":43.29183,"lon":5.39307,"is_reserved":false,"is_disabled":true,"rental_uris":{"android":"levelo://app?vid=d2b4df01-39a0-458c-b9ed-a01df7fb78b2","ios":"levelo://app?vid=d2b4df01-39a0-458c-b9ed-a01df7fb78b2"},"vehicle_type_id":"4","last_reported":1759244908,"current_range_meters":17600,"station_id":"ce4bh192rcd13ifvqdd0","pricing_plan_id":"cebpf4jnsgd1na2vs0mg"},{"bike_id":"a7d7834a-6060-4214-a66f-8338e20b7942","system_id":"levelo_inurba_marseille","lat":43.29091,"lon":5.3713,"is_reserved":false,"is_disabled":false,"rental_uris":{"android":"levelo://app?vid=a7d7834a-6060-4214-a66f-8338e20b7942","ios":"levelo://app?vid=a7d7834a-6060-4214-a66f-8338e20b7942"},"vehicle_type_id":"4","last_reported":1759244908,"current_range_meters":17600,"station_id":"","pricing_plan_id":"cebpf4jnsgd1na2vs0mg"},{"bike_id":"8758711a-1ac5-4451-83b4-71cf262c01c9","system_id":"levelo_inurba_marseille","lat":43.28268,"lon":5.35052,"is_reserved":false,"is_disabled":false,"rental_uris":{"android":"levelo://app?vid=8758711a-1ac5-4451-83b4-71cf262c01c9","ios":"levelo://app?vid=8758711a-1ac5-4451-83b4-71cf262c01c9"},"vehicle_type_id":"4","last_reported":1759244908,"current_range_meters":17600,"station_id":"ce4bhbp2rcd13ifvqerg","pricing_plan_id":"cebpf4jnsgd1na2vs0mg"},{"bike_id":"f4d120e8-5781-4af5-8cd8-a8a77cef6bdb","system_id":"levelo_inurba_marseille","lat":43.298772,"lon":5.389049,"is_reserved":false,"is_disabled":false,"rental_uris":{"android":"levelo://app?vid=f4d120e8-5781-4af5-8cd8-a8a77cef6bdb","ios":"levelo://app?vid=f4d120e8-5781-4af5-8cd8-a8a77cef6bdb"},"vehicle_type_id":"4","last_reported":1759244908,"current_range_meters":17600,"station_id":"ce4bh392rcd13ifvqdl0","pricing_plan_id":"cebpf4jnsgd1na2vs0mg"},{"bike_id":"bb80e5da-8df2-462f-8828-7587302fcb86","system_id":"levelo_inurba_marseille","lat":43.29784,"lon":5.37666,"is_reserved":false,"is_disabled":false,"rental_uris":{"android":"levelo://app?vid=bb80e5da-8df2-462f-8828-7587302fcb86","ios":"levelo://app?vid=bb80e5da-8df2-462f-8828-7587302fcb86"},"vehicle_type_id":"4","last_reported":1759244908,"current_range_meters":17600,"station_id":"","pricing_plan_id":"cebpf4jnsgd1na2vs0mg"},{"bike_id":"b7cd29c1-7e6a-4750-89cf-107360408473","system_id":"levelo_inurba_marseille","lat":43.22542,"lon":5.34824,"is_reserved":false,"is_disabled":false,"rental_uris":{"android":"levelo://app?vid=b7cd29c1-7e6a-4750-89cf-107360408473","ios":"levelo://app?vid=b7cd29c1-7e6a-4750-89cf-107360408473"},"vehicle_type_id":"4","last_reported":1759244908,"current_range_meters":18000,"station_id":"","pricing_plan_id":"cebpf4jnsgd1na2vs0mg"},{"bike_id":"d3416567-8a7d-4af8-b1b2-79295984a51f","system_id":"levelo_inurba_marseille","lat":43.26057,"lon":5.39402,"is_reserved":false,"is_disabled":false,"rental_uris":{"android":"levelo://app?vid=d3416567-8a7d-4af8-b1b2-79295984a51f","ios":"levelo://app?vid=d3416567-8a7d-4af8-b1b2-79295984a51f"},"vehicle_type_id":"4","last_reported":1759244908,"current_range_meters":18000,"station_id":"ce4bhh92rcd13ifvqfj0","pricing_plan_id":"cebpf4jnsgd1na2vs0mg"},{"bike_id":"4bfdeb80-9884-49e1-b245-6dd804daa778","system_id":"levelo_inurba_marseille","lat":43.22918,"lon":5.35389,"is_reserved":false,"is_disabled":true,"rental_uris":{"android":"levelo://app?vid=4bfdeb80-9884-49e1-b245-6dd804daa778","ios":"levelo://app?vid=4bfdeb80-9884-49e1-b245-6dd804daa778"},"vehicle_type_id":"4","last_reported":1759244908,"current_range_meters":18000,"station_id":"cpo3532slgdg3j2ikp40","pricing_plan_id":"cebpf4jnsgd1na2vs0mg"},{"bike_id":"ed72cb11-07b3-4d9e-a5e8-81f72acc58fc","system_id":"levelo_inurba_marseille","lat":43.25331,"lon":5.42176,"is_reserved":false,"is_disabled":false,"rental_uris":{"android":"levelo://app?vid=ed72cb11-07b3-4d9e-a5e8-81f72acc58fc","ios":"levelo://app?vid=ed72cb11-07b3-4d9e-a5e8-81f72acc58fc"},"vehicle_type_id":"4","last_reported":1759244908,"current_range_meters":18000,"station_id":"st_d2m65c5bi1j21697t3ng","pricing_plan_id":"cebpf4jnsgd1na2vs0mg"},{"bike_id":"389659a7-3122-4465-9928-28d03293e8cc","system_id":"levelo_inurba_marseille","lat":43.29905,"lon":5.36537,"is_reserved":false,"is_disabled":false,"rental_uris":{"android":"levelo://app?vid=389659a7-3122-4465-9928-28d03293e8cc","ios":"levelo://app?vid=389659a7-3122-4465-9928-28d03293e8cc"},"vehicle_type_id":"4","last_reported":1759244908,"current_range_meters":18000,"station_id":"ce4bgm92rcd13ifvqbr0","pricing_plan_id":"cebpf4jnsgd1na2vs0mg"},{"bike_id":"d81e7086-a597-422a-8b7f-f9a7c928d9cf","system_id":"levelo_inurba_marseille","lat":43.29751,"lon":5.38888,"is_reserved":false,"is_disabled":false,"rental_uris":{"android":"levelo://app?vid=d81e7086-a597-422a-8b7f-f9a7c928d9cf","ios":"levelo://app?vid=d81e7086-a597-422a-8b7f-f9a7c928d9cf"},"vehicle_type_id":"4","last_reported":1759244908,"current_range_meters":18000,"station_id":"","pricing_plan_id":"cebpf4jnsgd1na2vs0mg"},{"bike_id":"ebe5af89-71b0-4605-99b1-81390a7b5227","system_id":"levelo_inurba_marseille","lat":43.27438,"lon":5.39397,"is_reserved":false,"is_disabled":false,"rental_uris":{"android":"levelo://app?vid=ebe5af89-71b0-4605-99b1-81390a7b5227","ios":"levelo://app?vid=ebe5af89-71b0-4605-99b1-81390a7b5227"},"vehicle_type_id":"4","last_reported":1759244908,"current_range_meters":18000,"station_id":"ce4bhdp2rcd13ifvqf20","pricing_plan_id":"cebpf4jnsgd1na2vs0mg"},{"bike_id":"b1016946-078a-4b0e-8002-395e573573de","system_id":"levelo_inurba_marseille","lat":43.28687,"lon":5.399691,"is_reserved":false,"is_disabled":false,"rental_uris":{"android":"levelo://app?vid=b1016946-078a-4b0e-8002-395e573573de","ios":"levelo://app?vid=b1016946-078a-4b0e-8002-395e573573de"},"vehicle_type_id":"4","last_reported":1759244908,"current_range_meters":18000,"station_id":"ce4bho92rcd13ifvqh3g","pricing_plan_id":"cebpf4jnsgd1na2vs0mg"},{"bike_id":"b2247c74-eb94-43e5-9980-04c221204944","system_id":"levelo_inurba_marseille","lat":43.25087,"lon":5.39518,"is_reserved":false,"is_disabled":false,"rental_uris":{"android":"levelo://app?vid=b2247c74-eb94-43e5-9980-04c221204944","ios":"levelo://app?vid=b2247c74-eb94-43e5-9980-04c221204944"},"vehicle_type_id":"4","last_reported":1759244908,"current_range_meters":18000,"station_id":"ce4bhm12rcd13ifvqgkg","pricing_plan_id":"cebpf4jnsgd1na2vs0mg"},{"bike_id":"2b3126dd-cafa-40b2-a45b-940f1b7a7a65","system_id":"levelo_inurba_marseille","lat":43.26681,"lon":5.38269,"is_reserved":false,"is_disabled":false,"rental_uris":{"android":"levelo://app?vid=2b3126dd-cafa-40b2-a45b-940f1b7a7a65","ios":"levelo://app?vid=2b3126dd-cafa-40b2-a45b-940f1b7a7a65"},"vehicle_type_id":"4","last_reported":1759244908,"current_range_meters":18000,"station_id":"ce4bhg92rcd13ifvqf90","pricing_plan_id":"cebpf4jnsgd1na2vs0mg"},{"bike_id":"fa8dacc2-e6fa-4a05-80d9-fc90564c7f6a","system_id":"levelo_inurba_marseille","lat":43.28453,"lon":5.35892,"is_reserved":false,"is_disabled":false,"rental_uris":{"android":"levelo://app?vid=fa8dacc2-e6fa-4a05-80d9-fc90564c7f6a","ios":"levelo://app?vid=fa8dacc2-e6fa-4a05-80d9-fc90564c7f6a"},"vehicle_type_id":"4","last_reported":1759244908,"current_range_meters":16400,"station_id":"ce4bhah2rcd13ifvqei0","pricing_plan_id":"cebpf4jnsgd1na2vs0mg"},{"bike_id":"3bbc2ed3-11a3-45e3-9458-39d389642322","system_id":"levelo_inurba_marseille","lat":43.28155,"lon":5.42652,"is_reserved":false,"is_disabled":false,"rental_uris":{"android":"levelo://app?vid=3bbc2ed3-11a3-45e3-9458-39d389642322","ios":"levelo://app?vid=3bbc2ed3-11a3-45e3-9458-39d389642322"},"vehicle_type_id":"4","last_reported":1759244908,"current_range_meters":18000,"station_id":"ce4bhnh2rcd13ifvqgug","pricing_plan_id":"cebpf4jnsgd1na2vs0mg"},{"bike_id":"abbe8cb0-7830-4fe7-82a9-7402368399e8","system_id":"levelo_inurba_marseille","lat":43.28663,"lon":5.37336,"is_reserved":false,"is_disabled":false,"rental_uris":{"android":"levelo://app?vid=abbe8cb0-7830-4fe7-82a9-7402368399e8","ios":"levelo://app?vid=abbe8cb0-7830-4fe7-82a9-7402368399e8"},"vehicle_type_id":"4","last_reported":1759244908,"current_range_meters":18000,"station_id":"","pricing_plan_id":"cebpf4jnsgd1na2vs0mg"},{"bike_id":"90b7f1cc-7eb2-494b-a6ca-5368ed144322","system_id":"levelo_inurba_marseille","lat":43.28938,"lon":5.36643,"is_reserved":false,"is_disabled":false,"rental_uris":{"android":"levelo://app?vid=90b7f1cc-7eb2-494b-a6ca-5368ed144322","ios":"levelo://app?vid=90b7f1cc-7eb2-494b-a6ca-5368ed144322"},"vehicle_type_id":"4","last_reported":1759244908,"current_range_meters":18000,"station_id":"ce4bhap2rcd13ifvqek0","pricing_plan_id":"cebpf4jnsgd1na2vs0mg"},{"bike_id":"682eae6f-07f3-4e6c-a96a-5741af5df669","system_id":"levelo_inurba_marseille","lat":43.29111,"lon":5.382992,"is_reserved":false,"is_disabled":false,"rental_uris":{"android":"levelo://app?vid=682eae6f-07f3-4e6c-a96a-5741af5df669","ios":"levelo://app?vid=682eae6f-07f3-4e6c-a96a-5741af5df669"},"vehicle_type_id":"4","last_reported":1759244908,"current_range_meters":18800,"station_id":"","pricing_plan_id":"cebpf4jnsgd1na2vs0mg"},{"bike_id":"8d8f8e5f-13b2-4a3c-a7da-d91c14bce88c","system_id":"levelo_inurba_marseille","lat":43.32034,"lon":5.41573,"is_reserved":false,"is_disabled":false,"rental_uris":{"android":"levelo://app?vid=8d8f8e5f-13b2-4a3c-a7da-d91c14bce88c","ios":"levelo://app?vid=8d8f8e5f-13b2-4a3c-a7da-d91c14bce88c"},"vehicle_type_id":"4","last_reported":1759244908,"current_range_meters":18800,"station_id":"ce4bhq92rcd13ifvqhkg","pricing_plan_id":"cebpf4jnsgd1na2vs0mg"},{"bike_id":"95403f12-d065-471d-bbfa-da5ad933798a","system_id":"levelo_inurba_marseille","lat":43.31242,"lon":5.3687,"is_reserved":false,"is_disabled":false,"rental_uris":{"android":"levelo://app?vid=95403f12-d065-471d-bbfa-da5ad933798a","ios":"levelo://app?vid=95403f12-d065-471d-bbfa-da5ad933798a"},"vehicle_type_id":"4","last_reported":1759244908,"current_range_meters":18800,"station_id":"ce4bgl92rcd13ifvqbq0","pricing_plan_id":"cebpf4jnsgd1na2vs0mg"},{"bike_id":"0a980e9f-bc6f-4ec2-a773-69600206ae92","system_id":"levelo_inurba_marseille","lat":43.25607,"lon":5.39002,"is_reserved":false,"is_disabled":false,"rental_uris":{"android":"levelo://app?vid=0a980e9f-bc6f-4ec2-a773-69600206ae92","ios":"levelo://app?vid=0a980e9f-bc6f-4ec2-a773-69600206ae92"},"vehicle_type_id":"4","last_reported":1759244908,"current_range_meters":18800,"station_id":"","pricing_plan_id":"cebpf4jnsgd1na2vs0mg"},{"bike_id":"c6031b6f-802b-4320-8268-f5c1bda2f4f6","system_id":"levelo_inurba_marseille","lat":43.29791,"lon":5.3936,"is_reserved":false,"is_disabled":false,"rental_uris":{"android":"levelo://app?vid=c6031b6f-802b-4320-8268-f5c1bda2f4f6","ios":"levelo://app?vid=c6031b6f-802b-4320-8268-f5c1bda2f4f6"},"vehicle_type_id":"4","last_reported":1759244908,"current_range_meters":18000,"station_id":"chh1huq6cuj3fo74tm60","pricing_plan_id":"cebpf4jnsgd1na2vs0mg"},{"bike_id":"8595f03b-c1e6-4024-875f-1523d4e58c1d","system_id":"levelo_inurba_marseille","lat":43.25947,"lon":5.41371,"is_reserved":false,"is_disabled":false,"rental_uris":{"android":"levelo://app?vid=8595f03b-c1e6-4024-875f-1523d4e58c1d","ios":"levelo://app?vid=8595f03b-c1e6-4024-875f-1523d4e58c1d"},"vehicle_type_id":"4","last_reported":1759244908,"current_range_meters":18800,"station_id":"","pricing_plan_id":"cebpf4jnsgd1na2vs0mg"},