{"last_updated":1749737443,"ttl":60,"version":"2.2","data":{"bikes":[{"bike_id":"b31f0139-170f-4194-984f-4386218a1e9d","system_id":"levelo_inurba_marseille","lat":43.33771,"lon":5.37424,"is_reserved":false,"is_disabled":true,"rental_uris":{"android":"levelo://app?vid=b31f0139-170f-4194-984f-4386218a1e9d","ios":"levelo://app?vid=b31f0139-170f-4194-984f-4386218a1e9d"},"vehicle_type_id":"4","last_reported":1749737443,"current_range_meters":0,"station_id":"","pricing_plan_id":"cebpf4jnsgd1na2vs0mg"},{"bike_id":"1acfb620-cad7-48c0-8901-d7a5b74a5b65","system_id":"levelo_inurba_marseille","lat":43.33751,"lon":5.37456,"is_reserved":false,"is_disabled":false,"rental_uris":{"android":"levelo://app?vid=1acfb620-cad7-48c0-8901-d7a5b74a5b65","ios":"levelo://app?vid=1acfb620-cad7-48c0-8901-d7a5b74a5b65"},"vehicle_type_id":"4","last_reported":1749737443,"current_range_meters":8400,"station_id":"","pricing_plan_id":"cebpf4jnsgd1na2vs0mg"},{"bike_id":"15642284-38bf-46a3-8429-b976f7e075a1","system_id":"levelo_inurba_marseille","lat":43.27948,"lon":5.3829,"is_reserved":false,"is_disabled":true,"rental_uris":{"android":"levelo://app?vid=15642284-38bf-46a3-8429-b976f7e075a1","ios":"levelo://app?vid=15642284-38bf-46a3-8429-b976f7e075a1"},"vehicle_type_id":"4","last_reported":1749737443,"current_range_meters":0,"station_id":"","pricing_plan_id":"cebpf4jnsgd1na2vs0mg"},{"bike_id":"bf89d78c-eb96-40d5-beb0-f402ef102cc1","system_id":"levelo_inurba_marseille","lat":43.337444,"lon":5.374475,"is_reserved":false,"is_disabled":true,"rental_uris":{"android":"levelo://app?vid=bf89d78c-eb96-40d5-beb0-f402ef102cc1","ios":"levelo://app?vid=bf89d78c-eb96-40d5-beb0-f402ef102cc1"},"vehicle_type_id":"4","last_reported":1749737443,"current_range_meters":0,"station_id":"","pricing_plan_id":"cebpf4jnsgd1na2vs0mg"},{"bike_id":"7c6a9c32-3bbe-4d4c-8294-1969d0688a87","system_id":"levelo_inurba_marseille","lat":43.28503,"lon":5.42321,"is_reserved":false,"is_disabled":true,"rental_uris":{"android":"levelo://app?vid=7c6a9c32-3bbe-4d4c-8294-1969d0688a87","ios":"levelo://app?vid=7c6a9c32-3bbe-4d4c-8294-1969d0688a87"},"vehicle_type_id":"4","last_reported":1749737443,"current_range_meters":0,"station_id":"","pricing_plan_id":"cebpf4jnsgd1na2vs0mg"},{"bike_id":"18ab1fe6-a7e6-448a-9631-a8542cf8c56c","system_id":"levelo_inurba_marseille","lat":43.33226,"lon":5.37918,"is_reserved":false,"is_disabled":true,"rental_uris":{"android":"levelo://app?vid=18ab1fe6-a7e6-448a-9631-a8542cf8c56c","ios":"levelo://app?vid=18ab1fe6-a7e6-448a-9631-a8542cf8c56c"},"vehicle_type_id":"4","last_reported":1749737443,"current_range_meters":0,"station_id":"","pricing_plan_id":"cebpf4jnsgd1na2vs0mg"},{"bike_id":"9e55e93e-42c5-4c2c-9154-2d3c316cb5d9","system_id":"levelo_inurba_marseille","lat":43.31865,"lon":5.39371,"is_reserved":false,"is_disabled":true,"rental_uris":{"android":"levelo://app?vid=9e55e93e-42c5-4c2c-9154-2d3c316cb5d9","ios":"levelo://app?vid=9e55e93e-42c5-4c2c-9154-2d3c316cb5d9"},"vehicle_type_id":"4","last_reported":1749737443,"current_range_meters":0,"station_id":"","pricing_plan_id":"cebpf4jnsgd1na2vs0mg"},{"bike_id":"78778bea-ee8d-4617-9940-e8d532761b1d","system_id":"levelo_inurba_marseille","lat":43.32409,"lon":5.42733,"is_reserved":false,"is_disabled":true,"rental_uris":{"android":"levelo://app?vid=78778bea-ee8d-4617-9940-e8d532761b1d","ios":"levelo://app?vid=78778bea-ee8d-4617-9940-e8d532761b1d"},"vehicle_type_id":"4","last_reported":1749737443,"current_range_meters":0,"station_id":"","pricing_plan_id":"cebpf4jnsgd1na2vs0mg"},{"bike_id":"15988eb6-4ac2-4228-b4b4-8767be95739e","system_id":"levelo_inurba_marseille","lat":43.31298,"lon":5.36631,"is_reserved":false,"is_disabled":true,"rental_uris":{"android":"levelo://app?vid=15988eb6-4ac2-4228-b4b4-8767be95739e","ios":"levelo://app?vid=15988eb6-4ac2-4228-b4b4-8767be95739e"},"vehicle_type_id":"4","last_reported":1749737443,"current_range_meters":0,"station_id":"","pricing_plan_id":"cebpf4jnsgd1na2vs0mg"},{"bike_id":"492f4bbd-1190-4ef2-b66a-479ffe91b09b","system_id":"levelo_inurba_marseille","lat":43.337444,"lon":5.374475,"is_reserved":false,"is_disabled":true,"rental_uris":{"android":"levelo://app?vid=492f4bbd-1190-4ef2-b66a-479ffe91b09b","ios":"levelo://app?vid=492f4bbd-1190-4ef2-b66a-479ffe91b09b"},"vehicle_type_id":"4","last_reported":1749737443,"current_range_meters":0,"station_id":"","pricing_plan_id":"cebpf4jnsgd1na2vs0mg"},{"bike_id":"a76bfa59-b731-46b4-a462-7fdbb44a5154","system_id":"levelo_inurba_marseille","lat":43.29797,"lon":5.42191,"is_reserved":false,"is_disabled":true,"rental_uris":{"android":"levelo://app?vid=a76bfa59-b731-46b4-a462-7fdbb44a5154","ios":"levelo://app?vid=a76bfa59-b731-46b4-a462-7fdbb44a5154"},"vehicle_type_id":"4","last_reported":1749737443,"current_range_meters":0,"station_id":"","pricing_plan_id":"cebpf4jnsgd1na2vs0mg"},{"bike_id":"ce526313-e4c7-47eb-856f-183916936663","system_id":"levelo_inurba_marseille","lat":43.26235,"lon":5.39591,"is_reserved":false,"is_disabled":true,"rental_uris":{"android":"levelo://app?vid=ce526313-e4c7-47eb-856f-183916936663","ios":"levelo://app?vid=ce526313-e4c7-47eb-856f-183916936663"},"vehicle_type_id":"4","last_reported":1749737443,"current_range_meters":0,"station_id":"","pricing_plan_id":"cebpf4jnsgd1na2vs0mg"},{"bike_id":"1e0f7626-c4af-45c1-9d66-f7a9cf86ccda","system_id":"levelo_inurba_marseille","lat":43.29528,"lon":5.38543,"is_reserved":false,"is_disabled":true,"rental_uris":{"android":"levelo://app?vid=1e0f7626-c4af-45c1-9d66-f7a9cf86ccda","ios":"levelo://app?vid=1e0f7626-c4af-45c1-9d66-f7a9cf86ccda"},"vehicle_type_id":"4","last_reported":1749737443,"current_range_meters":0,"station_id":"ce4bgih2rcd13ifvqba0","pricing_plan_id":"cebpf4jnsgd1na2vs0mg"},{"bike_id":"35047826-59d8-4a1e-b07d-4c1ecfa3aa96","system_id":"levelo_inurba_marseille","lat":43.29808,"lon":5.38101,"is_reserved":false,"is_disabled":true,"rental_uris":{"android":"levelo://app?vid=35047826-59d8-4a1e-b07d-4c1ecfa3aa96","ios":"levelo://app?vid=35047826-59d8-4a1e-b07d-4c1ecfa3aa96"},"vehicle_type_id":"4","last_reported":1749737443,"current_range_meters":0,"station_id":"ce4bgip2rcd13ifvqbb0","pricing_plan_id":"cebpf4jnsgd1na2vs0mg"},{"bike_id":"4dcd176a-acfc-494d-9b1d-008dbf913888","system_id":"levelo_inurba_marseille","lat":43.310669,"lon":5.383513,"is_reserved":false,"is_disabled":true,"rental_uris":{"android":"levelo://app?vid=4dcd176a-acfc-494d-9b1d-008dbf913888","ios":"levelo://app?vid=4dcd176a-acfc-494d-9b1d-008dbf913888"},"vehicle_type_id":"4","last_reported":1749737443,"current_range_meters":0,"station_id":"ce4bgv92rcd13ifvqcr0","pricing_plan_id":"cebpf4jnsgd1na2vs0mg"},{"bike_id":"1935673c-3b96-4877-91d2-5e48d2adac12","system_id":"levelo_inurba_marseille","lat":43.30087,"lon":5.39081,"is_reserved":false,"is_disabled":true,"rental_uris":{"android":"levelo://app?vid=1935673c-3b96-4877-91d2-5e48d2adac12","ios":"levelo://app?vid=1935673c-3b96-4877-91d2-5e48d2adac12"},"vehicle_type_id":"4","last_reported":1749737443,"current_range_meters":0,"station_id":"ce4bh192rcd13ifvqdb0","pricing_plan_id":"cebpf4jnsgd1na2vs0mg"},{"bike_id":"42edc4a5-05b3-403a-92c7-ba0256c22971","system_id":"levelo_inurba_marseille","lat":43.28685,"lon":5.37371,"is_reserved":false,"is_disabled":true,"rental_uris":{"android":"levelo://app?vid=42edc4a5-05b3-403a-92c7-ba0256c22971","ios":"levelo://app?vid=42edc4a5-05b3-403a-92c7-ba0256c22971"},"vehicle_type_id":"4","last_reported":1749737443,"current_range_meters":0,"station_id":"ce4bh3p2rcd13ifvqdq0","pricing_plan_id":"cebpf4jnsgd1na2vs0mg"},{"bike_id":"53df2731-bc10-4b9e-8bf6-595166260dc0","system_id":"levelo_inurba_marseille","lat":43.28479,"lon":5.38426,"is_reserved":false,"is_disabled":true,"rental_uris":{"android":"levelo://app?vid=53df2731-bc10-4b9e-8bf6-595166260dc0","ios":"levelo://app?vid=53df2731-bc10-4b9e-8bf6-595166260dc0"},"vehicle_type_id":"4","last_reported":1749737443,"current_range_meters":0,"station_id":"ce4bh512rcd13ifvqe3g","pricing_plan_id":"cebpf4jnsgd1na2vs0mg"},{"bike_id":"02e9b309-2eb9-4855-a835-4856d3f72ded","system_id":"levelo_inurba_marseille","lat":43.28974,"lon":5.37827,"is_reserved":false,"is_disabled":true,"rental_uris":{"android":"levelo://app?vid=02e9b309-2eb9-4855-a835-4856d3f72ded","ios":"levelo://app?vid=02e9b309-2eb9-4855-a835-4856d3f72ded"},"vehicle_type_id":"4","last_reported":1749737443,"current_range_meters":0,"station_id":"ce4bh9p2rcd13ifvqed0","pricing_plan_id":"cebpf4jnsgd1na2vs0mg"},{"bike_id":"9bde050b-2f4a-44c5-916f-37977ef29c9f","system_id":"levelo_inurba_marseille","lat":43.29167,"lon":5.37163,"is_reserved":false,"is_disabled":true,"rental_uris":{"android":"levelo://app?vid=9bde050b-2f4a-44c5-916f-37977ef29c9f","ios":"levelo://app?vid=9bde050b-2f4a-44c5-916f-37977ef29c9f"},"vehicle_type_id":"4","last_reported":1749737443,"current_range_meters":0,"station_id":"ce4bha92rcd13ifvqeh0","pricing_plan_id":"cebpf4jnsgd1na2vs0mg"},{"bike_id":"105a1502-de3a-4286-bc2b-4ee8b745ad1e","system_id":"levelo_inurba_marseille","lat":43.28415,"lon":5.34979,"is_reserved":false,"is_disabled":true,"rental_uris":{"android":"levelo://app?vid=105a1502-de3a-4286-bc2b-4ee8b745ad1e","ios":"levelo://app?vid=105a1502-de3a-4286-bc2b-4ee8b745ad1e"},"vehicle_type_id":"4","last_reported":1749737443,"current_range_meters":0,"station_id":"ce4bhbh2rcd13ifvqepg","pricing_plan_id":"cebpf4jnsgd1na2vs0mg"},{"bike_id":"a86ffd67-4a25-4819-b69d-dfd1dab55c73","system_id":"levelo_inurba_marseille","lat":43.29219,"lon":5.36056,"is_reserved":false,"is_disabled":true,"rental_uris":{"android":"levelo://app?vid=a86ffd67-4a25-4819-b69d-dfd1dab55c73","ios":"levelo://app?vid=a86ffd67-4a25-4819-b69d-dfd1dab55c73"},"vehicle_type_id":"4","last_reported":1749737443,"current_range_meters":0,"station_id":"ce4bhbh2rcd13ifvqeqg","pricing_plan_id":"cebpf4jnsgd1na2vs0mg"},{"bike_id":"a6d9c4ff-ecaa-46e4-a7ba-d3960e38019d","system_id":"levelo_inurba_marseille","lat":43.28266,"lon":5.35062,"is_reserved":false,"is_disabled":true,"rental_uris":{"android":"levelo://app?vid=a6d9c4ff-ecaa-46e4-a7ba-d3960e38019d","ios":"levelo://app?vid=a6d9c4ff-ecaa-46e4-a7ba-d3960e38019d"},"vehicle_type_id":"4","last_reported":1749737443,"current_range_meters":0,"station_id":"ce4bhbp2rcd13ifvqerg","pricing_plan_id":"cebpf4jnsgd1na2vs0mg"},{"bike_id":"715726da-d25a-4e6f-8447-addfd87b639c","system_id":"levelo_inurba_marseille","lat":43.24387,"lon":5.37061,"is_reserved":false,"is_disabled":true,"rental_uris":{"android":"levelo://app?vid=715726da-d25a-4e6f-8447-addfd87b639c","ios":"levelo://app?vid=715726da-d25a-4e6f-8447-addfd87b639c"},"vehicle_type_id":"4","last_reported":1749737443,"current_range_meters":0,"station_id":"ce4bhhh2rcd13ifvqfk0","pricing_plan_id":"cebpf4jnsgd1na2vs0mg"},{"bike_id":"0957761d-fa71-4312-9901-7b1b9a8b8955","system_id":"levelo_inurba_marseille","lat":43.23141,"lon":5.4372,"is_reserved":false,"is_disabled":true,"rental_uris":{"android":"levelo://app?vid=0957761d-fa71-4312-9901-7b1b9a8b8955","ios":"levelo://app?vid=0957761d-fa71-4312-9901-7b1b9a8b8955"},"vehicle_type_id":"4","last_reported":1749737443,"current_range_meters":0,"station_id":"ce4bhmp2rcd13ifvqgog","pricing_plan_id":"cebpf4jnsgd1na2vs0mg"},{"bike_id":"f4a529c2-e076-4853-9434-aa931ab59680","system_id":"levelo_inurba_marseille","lat":43.317082,"lon":5.437084,"is_reserved":false,"is_disabled":true,"rental_uris":{"android":"levelo://app?vid=f4a529c2-e076-4853-9434-aa931ab59680","ios":"levelo://app?vid=f4a529c2-e076-4853-9434-aa931ab59680"},"vehicle_type_id":"4","last_reported":1749737443,"current_range_meters":0,"station_id":"ce4bhp92rcd13ifvqhcg","pricing_plan_id":"cebpf4jnsgd1na2vs0mg"},{"bike_id":"49e00df2-c247-4472-a359-0d4b87ed43b2","system_id":"levelo_inurba_marseille","lat":43.323677,"lon":5.388903,"is_reserved":false,"is_disabled":true,"rental_uris":{"android":"levelo://app?vid=49e00df2-c247-4472-a359-0d4b87ed43b2","ios":"levelo://app?vid=49e00df2-c247-4472-a359-0d4b87ed43b2"},"vehicle_type_id":"4","last_reported":1749737443,"current_range_meters":0,"station_id":"ce4bhqp2rcd13ifvqhog","pricing_plan_id":"cebpf4jnsgd1na2vs0mg"},{"bike_id":"14aac9b6-05c9-41ee-b641-566d623829af","system_id":"levelo_inurba_marseille","lat":43.32332,"lon":5.3889,"is_reserved":false,"is_disabled":true,"rental_uris":{"android":"levelo://app?vid=14aac9b6-05c9-41ee-b641-566d623829af","ios":"levelo://app?vid=14aac9b6-05c9-41ee-b641-566d623829af"},"vehicle_type_id":"4","last_reported":1749737443,"current_range_meters":0,"station_id":"ce4bhqp2rcd13ifvqhog","pricing_plan_id":"cebpf4jnsgd1na2vs0mg"},{"bike_id":"34079f42-b9d3-4f05-b94e-8f5fac3bf6ca","system_id":"levelo_inurba_marseille","lat":43.3248,"lon":5.36572,"is_reserved":false,"is_disabled":true,"rental_uris":{"android":"levelo://app?vid=34079f42-b9d3-4f05-b94e-8f5fac3bf6ca","ios":"levelo://app?vid=34079f42-b9d3-4f05-b94e-8f5fac3bf6ca"},"vehicle_type_id":"4","last_reported":1749737443,"current_range_meters":0,"station_id":"ce4bhs12rcd13ifvqhvg","pricing_plan_id":"cebpf4jnsgd1na2vs0mg"},{"bike_id":"52c8e3c6-bb38-401c-9a83-3c310bc6dfaa","system_id":"levelo_inurba_marseille","lat":43.29571,"lon":5.39989,"is_reserved":false,"is_disabled":true,"rental_uris":{"android":"levelo://app?vid=52c8e3c6-bb38-401c-9a83-3c310bc6dfaa","ios":"levelo://app?vid=52c8e3c6-bb38-401c-9a83-3c310bc6dfaa"},"vehicle_type_id":"4","last_reported":1749737443,"current_range_meters":800,"station_id":"ce4bh312rcd13ifvqdj0","pricing_plan_id":"cebpf4jnsgd1na2vs0mg"},{"bike_id":"da0dc9d8-433a-4d43-aa66-3d89232d6864","system_id":"levelo_inurba_marseille","lat":43.28415,"lon":5.37509,"is_reserved":false,"is_disabled":true,"rental_uris":{"android":"levelo://app?vid=da0dc9d8-433a-4d43-aa66-3d89232d6864","ios":"levelo://app?vid=da0dc9d8-433a-4d43-aa66-3d89232d6864"},"vehicle_type_id":"4","last_reported":1749737443,"current_range_meters":800,"station_id":"ce4bh412rcd13ifvqds0","pricing_plan_id":"cebpf4jnsgd1na2vs0mg"},{"bike_id":"af2d2612-43da-4f1a-b074-223feaa89590","system_id":"levelo_inurba_marseille","lat":43.28613,"lon":5.35109,"is_reserved":false,"is_disabled":true,"rental_uris":{"android":"levelo://app?vid=af2d2612-43da-4f1a-b074-223feaa89590","ios":"levelo://app?vid=af2d2612-43da-4f1a-b074-223feaa89590"},"vehicle_type_id":"4","last_reported":1749737443,"current_range_meters":800,"station_id":"ce4bhch2rcd13ifvqeug","pricing_plan_id":"cebpf4jnsgd1na2vs0mg"},{"bike_id":"028d7efc-09af-4e81-899d-7f1dc74ebaae","system_id":"levelo_inurba_marseille","lat":43.25794,"lon":5.410549,"is_reserved":false,"is_disabled":true,"rental_uris":{"android":"levelo://app?vid=028d7efc-09af-4e81-899d-7f1dc74ebaae","ios":"levelo://app?vid=028d7efc-09af-4e81-899d-7f1dc74ebaae"},"vehicle_type_id":"4","last_reported":1749737443,"current_range_meters":800,"station_id":"ce4bhm92rcd13ifvqglg","pricing_plan_id":"cebpf4jnsgd1na2vs0mg"},{"bike_id":"87ad60d3-a8be-4537-b606-cf205dd555df","system_id":"levelo_inurba_marseille","lat":43.30976,"lon":5.405667,"is_reserved":false,"is_disabled":true,"rental_uris":{"android":"levelo://app?vid=87ad60d3-a8be-4537-b606-cf205dd555df","ios":"levelo://app?vid=87ad60d3-a8be-4537-b606-cf205dd555df"},"vehicle_type_id":"4","last_reported":1749737443,"current_range_meters":1200,"station_id":"","pricing_plan_id":"cebpf4jnsgd1na2vs0mg"},{"bike_id":"6ed0db1e-1994-4d32-bbb6-14008a3d0e89","system_id":"levelo_inurba_marseille","lat":43.30531,"lon":5.38424,"is_reserved":false,"is_disabled":true,"rental_uris":{"android":"levelo://app?vid=6ed0db1e-1994-4d32-bbb6-14008a3d0e89","ios":"levelo://app?vid=6ed0db1e-1994-4d32-bbb6-14008a3d0e89"},"vehicle_type_id":"4","last_reported":1749737443,"current_range_meters":1200,"station_id":"ce4bgg92rcd13ifvqb30","pricing_plan_id":"cebpf4jnsgd1na2vs0mg"},{"bike_id":"9930ff4f-cf32-4ada-a22b-938873982668","system_id":"levelo_inurba_marseille","lat":43.24389,"lon":5.37063,"is_reserved":false,"is_disabled":true,"rental_uris":{"android":"levelo://app?vid=9930ff4f-cf32-4ada-a22b-938873982668","ios":"levelo://app?vid=9930ff4f-cf32-4ada-a22b-938873982668"},"vehicle_type_id":"4","last_reported":1749737443,"current_range_meters":1200,"station_id":"ce4bhhh2rcd13ifvqfk0","pricing_plan_id":"cebpf4jnsgd1na2vs0mg"},{"bike_id":"a5650ac6-6a7b-4007-a580-3ac6efc27670","system_id":"levelo_inurba_marseille","lat":43.24542,"lon":5.39524,"is_reserved":false,"is_disabled":true,"rental_uris":{"android":"levelo://app?vid=a5650ac6-6a7b-4007-a580-3ac6efc27670","ios":"levelo://app?vid=a5650ac6-6a7b-4007-a580-3ac6efc27670"},"vehicle_type_id":"4","last_reported":1749737443,"current_range_meters":1200,"station_id":"ce4bhlp2rcd13ifvqgjg","pricing_plan_id":"cebpf4jnsgd1na2vs0mg"},{"bike_id":"a9b6bf99-4070-4437-bb20-72962ae30b90","system_id":"levelo_inurba_marseille","lat":43.274677,"lon":5.363871,"is_reserved":false,"is_disabled":true,"rental_uris":{"android":"levelo://app?vid=a9b6bf99-4070-4437-bb20-72962ae30b90","ios":"levelo://app?vid=a9b6bf99-4070-4437-bb20-72962ae30b90"},"vehicle_type_id":"4","last_reported":1749737443,"current_range_meters":1600,"station_id":"","pricing_plan_id":"cebpf4jnsgd1na2vs0mg"},{"bike_id":"180061b1-5a4f-4df2-9da6-6986a89a0d66","system_id":"levelo_inurba_marseille","lat":43.30133,"lon":5.39878,"is_reserved":false,"is_disabled":true,"rental_uris":{"android":"levelo://app?vid=180061b1-5a4f-4df2-9da6-6986a89a0d66","ios":"levelo://app?vid=180061b1-5a4f-4df2-9da6-6986a89a0d66"},"vehicle_type_id":"4","last_reported":1749737443,"current_range_meters":1600,"station_id":"ce4bh0h2rcd13ifvqd40","pricing_plan_id":"cebpf4jnsgd1na2vs0mg"},{"bike_id":"bfc03663-62f6-4632-83e1-cf8cb931bf75","system_id":"levelo_inurba_marseille","lat":43.28667,"lon":5.38674,"is_reserved":false,"is_disabled":true,"rental_uris":{"android":"levelo://app?vid=bfc03663-62f6-4632-83e1-cf8cb931bf75","ios":"levelo://app?vid=bfc03663-62f6-4632-83e1-cf8cb931bf75"},"vehicle_type_id":"4","last_reported":1749737443,"current_range_meters":1600,"station_id":"ce4bh492rcd13ifvqdug","pricing_plan_id":"cebpf4jnsgd1na2vs0mg"},{"bike_id":"7625ebc0-bb4d-4fd1-b770-8aeed2c238da","system_id":"levelo_inurba_marseille","lat":43.26053,"lon":5.39396,"is_reserved":false,"is_disabled":true,"rental_uris":{"android":"levelo://app?vid=7625ebc0-bb4d-4fd1-b770-8aeed2c238da","ios":"levelo://app?vid=7625ebc0-bb4d-4fd1-b770-8aeed2c238da"},"vehicle_type_id":"4","last_reported":1749737443,"current_range_meters":1600,"station_id":"ce4bhh92rcd13ifvqfj0","pricing_plan_id":"cebpf4jnsgd1na2vs0mg"},{"bike_id":"c9cf4e21-70d2-4f38-86ba-592ea46b9590","system_id":"levelo_inurba_marseille","lat":43.30535,"lon":5.36553,"is_reserved":false,"is_disabled":false,"rental_uris":{"android":"levelo://app?vid=c9cf4e21-70d2-4f38-86ba-592ea46b9590","ios":"levelo://app?vid=c9cf4e21-70d2-4f38-86ba-592ea46b9590"},"vehicle_type_id":"4","last_reported":1749737443,"current_range_meters":3200,"station_id":"ce4bgs12rcd13ifvqcag","pricing_plan_id":"cebpf4jnsgd1na2vs0mg"},{"bike_id":"453f25d7-edfa-4046-a4c2-54e8000453ca","system_id":"levelo_inurba_marseille","lat":43.28612,"lon":5.35104,"is_reserved":false,"is_disabled":false,"rental_uris":{"android":"levelo://app?vid=453f25d7-edfa-4046-a4c2-54e8000453ca","ios":"levelo://app?vid=453f25d7-edfa-4046-a4c2-54e8000453ca"},"vehicle_type_id":"4","last_reported":1749737443,"current_range_meters":3200,"station_id":"ce4bhch2rcd13ifvqeug","pricing_plan_id":"cebpf4jnsgd1na2vs0mg"},{"bike_id":"66b1cbfb-c132-4ef4-922c-0beab9b5a350","system_id":"levelo_inurba_marseille","lat":43.29777,"lon":5.46009,"is_reserved":false,"is_disabled":false,"rental_uris":{"android":"levelo://app?vid=66b1cbfb-c132-4ef4-922c-0beab9b5a350","ios":"levelo://app?vid=66b1cbfb-c132-4ef4-922c-0beab9b5a350"},"vehicle_type_id":"4","last_reported":1749737443,"current_range_meters":3600,"station_id":"","pricing_plan_id":"cebpf4jnsgd1na2vs0mg"},{"bike_id":"853e9d90-8fb4-4c17-a762-9923b9fb02f0","system_id":"levelo_inurba_marseille","lat":43.254267,"lon":5.381047,"is_reserved":false,"is_disabled":false,"rental_uris":{"android":"levelo://app?vid=853e9d90-8fb4-4c17-a762-9923b9fb02f0","ios":"levelo://app?vid=853e9d90-8fb4-4c17-a762-9923b9fb02f0"},"vehicle_type_id":"4","last_reported":1749737443,"current_range_meters":3600,"station_id":"","pricing_plan_id":"cebpf4jnsgd1na2vs0mg"},{"bike_id":"b9e54cd9-e408-4ecc-aa9d-fcf4bebf3e32","system_id":"levelo_inurba_marseille","lat":43.29516,"lon":5.39398,"is_reserved":false,"is_disabled":false,"rental_uris":{"android":"levelo://app?vid=b9e54cd9-e408-4ecc-aa9d-fcf4bebf3e32","ios":"levelo://app?vid=b9e54cd9-e408-4ecc-aa9d-fcf4bebf3e32"},"vehicle_type_id":"4","last_reported":1749737443,"current_range_meters":3600,"station_id":"ce4bh292rcd13ifvqdf0","pricing_plan_id":"cebpf4jnsgd1na2vs0mg"},{"bike_id":"baa39371-d9f7-4c96-99d3-9b4743380698","system_id":"levelo_inurba_marseille","lat":43.28836,"lon":5.3586,"is_reserved":false,"is_disabled":false,"rental_uris":{"android":"levelo://app?vid=baa39371-d9f7-4c96-99d3-9b4743380698","ios":"levelo://app?vid=baa39371-d9f7-4c96-99d3-9b4743380698"},"vehicle_type_id":"4","last_reported":1749737443,"current_range_meters":3600,"station_id":"ce4bhb12rcd13ifvqem0","pricing_plan_id":"cebpf4jnsgd1na2vs0mg"},{"bike_id":"32c31f2b-ec8c-4772-a432-d520d4240a8b","system_id":"levelo_inurba_marseille","lat":43.26684,"lon":5.3822,"is_reserved":false,"is_disabled":false,"rental_uris":{"android":"levelo://app?vid=32c31f2b-ec8c-4772-a432-d520d4240a8b","ios":"levelo://app?vid=32c31f2b-ec8c-4772-a432-d520d4240a8b"},"vehicle_type_id":"4","last_reported":1749737443,"current_range_meters":3600,"station_id":"ce4bhg92rcd13ifvqf90","pricing_plan_id":"cebpf4jnsgd1na2vs0mg"},{"bike_id":"e1af1998-b19e-4398-b7cd-d18fc23128e6","system_id":"levelo_inurba_marseille","lat":43.25498,"lon":5.37645,"is_reserved":false,"is_disabled":false,"rental_uris":{"android":"levelo://app?vid=e1af1998-b19e-4398-b7cd-d18fc23128e6","ios":"levelo://app?vid=e1af1998-b19e-4398-b7cd-d18fc23128e6"},"vehicle_type_id":"4","last_reported":1749737443,"current_range_meters":3600,"station_id":"ce4bhh12rcd13ifvqff0","pricing_plan_id":"cebpf4jnsgd1na2vs0mg"},{"bike_id":"5077581b-cebb-46fc-ba69-4fa8272d4810","system_id":"levelo_inurba_marseille","lat":43.2136,"lon":5.35537,"is_reserved":false,"is_disabled":false,"rental_uris":{"android":"levelo://app?vid=5077581b-cebb-46fc-ba69-4fa8272d4810","ios":"levelo://app?vid=5077581b-cebb-46fc-ba69-4fa8272d4810"},"vehicle_type_id":"4","last_reported":1749737443,"current_range_meters":4000,"station_id":"","pricing_plan_id":"cebpf4jnsgd1na2vs0mg"},{"bike_id":"4b46de49-fc9e-423b-b68b-7bdf05a00e45","system_id":"levelo_inurba_marseille","lat":43.25309,"lon":5.39407,"is_reserved":false,"is_disabled":false,"rental_uris":{"android":"levelo://app?vid=4b46de49-fc9e-423b-b68b-7bdf05a00e45","ios":"levelo://app?vid=4b46de49-fc9e-423b-b68b-7bdf05a00e45"},"vehicle_type_id":"4","last_reported":1749737443,"current_range_meters":4000,"station_id":"","pricing_plan_id":"cebpf4jnsgd1na2vs0mg"},{"bike_id":"165a6ce2-f806-45b2-bf82-39d7bdd011fc","system_id":"levelo_inurba_marseille","lat":43.293816,"lon":5.385412,"is_reserved":false,"is_disabled":false,"rental_uris":{"android":"levelo://app?vid=165a6ce2-f806-45b2-bf82-39d7bdd011fc","ios":"levelo://app?vid=165a6ce2-f806-45b2-bf82-39d7bdd011fc"},"vehicle_type_id":"4","last_reported":1749737443,"current_range_meters":4400,"station_id":"","pricing_plan_id":"cebpf4jnsgd1na2vs0mg"},{"bike_id":"19cfd6ac-6d90-4d99-9f5b-cd37058bb802","system_id":"levelo_inurba_marseille","lat":43.31325,"lon":5.39693,"is_reserved":false,"is_disabled":false,"rental_uris":{"android":"levelo://app?vid=19cfd6ac-6d90-4d99-9f5b-cd37058bb802","ios":"levelo://app?vid=19cfd6ac-6d90-4d99-9f5b-cd37058bb802"},"vehicle_type_id":"4","last_reported":1749737443,"current_range_meters":4400,"station_id":"ce4bgvp2rcd13ifvqcu0","pricing_plan_id":"cebpf4jnsgd1na2vs0mg"},{"bike_id":"1e20f032-0f6a-40b2-ad29-e4d2225496fa","system_id":"levelo_inurba_marseille","lat":43.30232,"lon":5.37037,"is_reserved":false,"is_disabled":false,"rental_uris":{"android":"levelo://app?vid=1e20f032-0f6a-40b2-ad29-e4d2225496fa","ios":"levelo://app?vid=1e20f032-0f6a-40b2-ad29-e4d2225496fa"},"vehicle_type_id":"4","last_reported":1749737443,"current_range_meters":4800,"station_id":"","pricing_plan_id":"cebpf4jnsgd1na2vs0mg"},{"bike_id":"2f3b914f-8c40-472c-a092-f7a6c57822d8","system_id":"levelo_inurba_marseille","lat":43.28412,"lon":5.3752,"is_reserved":false,"is_disabled":false,"rental_uris":{"android":"levelo://app?vid=2f3b914f-8c40-472c-a092-f7a6c57822d8","ios":"levelo://app?vid=2f3b914f-8c40-472c-a092-f7a6c57822d8"},"vehicle_type_id":"4","last_reported":1749737443,"current_range_meters":5600,"station_id":"ce4bh412rcd13ifvqds0","pricing_plan_id":"cebpf4jnsgd1na2vs0mg"},{"bike_id":"fbe56d0e-d906-4010-8ee7-89d3ceef79bc","system_id":"levelo_inurba_marseille","lat":43.258148,"lon":5.394326,"is_reserved":false,"is_disabled":false,"rental_uris":{"android":"levelo://app?vid=fbe56d0e-d906-4010-8ee7-89d3ceef79bc","ios":"levelo://app?vid=fbe56d0e-d906-4010-8ee7-89d3ceef79bc"},"vehicle_type_id":"4","last_reported":1749737443,"current_range_meters":5600,"station_id":"ce4bhip2rcd13ifvqft0","pricing_plan_id":"cebpf4jnsgd1na2vs0mg"},{"bike_id":"2c382c8d-26be-429b-8672-118c8c680909","system_id":"levelo_inurba_marseille","lat":43.27813,"lon":5.40713,"is_reserved":false,"is_disabled":false,"rental_uris":{"android":"levelo://app?vid=2c382c8d-26be-429b-8672-118c8c680909","ios":"levelo://app?vid=2c382c8d-26be-429b-8672-118c8c680909"},"vehicle_type_id":"4","last_reported":1749737443,"current_range_meters":5600,"station_id":"ce4bhnh2rcd13ifvqgtg","pricing_plan_id":"cebpf4jnsgd1na2vs0mg"},{"bike_id":"66314ca9-30a7-4c0a-8507-6f89f4c9b4e1","system_id":"levelo_inurba_marseille","lat":43.26178,"lon":5.37051,"is_reserved":false,"is_disabled":false,"rental_uris":{"android":"levelo://app?vid=66314ca9-30a7-4c0a-8507-6f89f4c9b4e1","ios":"levelo://app?vid=66314ca9-30a7-4c0a-8507-6f89f4c9b4e1"},"vehicle_type_id":"4","last_reported":1749737443,"current_range_meters":6400,"station_id":"","pricing_plan_id":"cebpf4jnsgd1na2vs0mg"},{"bike_id":"3110fc6d-f003-44ce-97ab-62fdc96eadca","system_id":"levelo_inurba_marseille","lat":43.31288,"lon":5.3697,"is_reserved":false,"is_disabled":false,"rental_uris":{"android":"levelo://app?vid=3110fc6d-f003-44ce-97ab-62fdc96eadca","ios":"levelo://app?vid=3110fc6d-f003-44ce-97ab-62fdc96eadca"},"vehicle_type_id":"4","last_reported":1749737443,"current_range_meters":6400,"station_id":"","pricing_plan_id":"cebpf4jnsgd1na2vs0mg"},{"bike_id":"989f1d0a-e87f-4782-a544-a85ab62fbec9","system_id":"levelo_inurba_marseille","lat":43.28448,"lon":5.3592,"is_reserved":false,"is_disabled":false,"rental_uris":{"android":"levelo://app?vid=989f1d0a-e87f-4782-a544-a85ab62fbec9","ios":"levelo://app?vid=989f1d0a-e87f-4782-a544-a85ab62fbec9"},"vehicle_type_id":"4","last_reported":1749737443,"current_range_meters":6400,"station_id":"ce4bhah2rcd13ifvqei0","pricing_plan_id":"cebpf4jnsgd1na2vs0mg"},{"bike_id":"afe2c0fd-0c99-4d7b-a48c-35bbf493498d","system_id":"levelo_inurba_marseille","lat":43.27558,"lon":5.3843,"is_reserved":false,"is_disabled":false,"rental_uris":{"android":"levelo://app?vid=afe2c0fd-0c99-4d7b-a48c-35bbf493498d","ios":"levelo://app?vid=afe2c0fd-0c99-4d7b-a48c-35bbf493498d"},"vehicle_type_id":"4","last_reported":1749737443,"current_range_meters":6400,"station_id":"ce4bhh92rcd13ifvqfi0","pricing_plan_id":"cebpf4jnsgd1na2vs0mg"},{"bike_id":"cb18a2c9-cd23-4a69-96bf-8e781dd324c5","system_id":"levelo_inurba_marseille","lat":43.27998,"lon":5.41667,"is_reserved":false,"is_disabled":false,"rental_uris":{"android":"levelo://app?vid=cb18a2c9-cd23-4a69-96bf-8e781dd324c5","ios":"levelo://app?vid=cb18a2c9-cd23-4a69-96bf-8e781dd324c5"},"vehicle_type_id":"4","last_reported":1749737443,"current_range_meters":6400,"station_id":"ce4bho12rcd13ifvqh1g","pricing_plan_id":"cebpf4jnsgd1na2vs0mg"},{"bike_id":"e1e70d0a-09b5-4d65-a75b-ad58749232f9","system_id":"levelo_inurba_marseille","lat":43.2678,"lon":5.39412,"is_reserved":false,"is_disabled":false,"rental_uris":{"android":"levelo://app?vid=e1e70d0a-09b5-4d65-a75b-ad58749232f9","ios":"levelo://app?vid=e1e70d0a-09b5-4d65-a75b-ad58749232f9"},"vehicle_type_id":"4","last_reported":1749737443,"current_range_meters":6800,"station_id":"ce4bhh12rcd13ifvqfg0","pricing_plan_id":"cebpf4jnsgd1na2vs0mg"},{"bike_id":"90dc7174-e5f5-45c7-9da5-620eaf7e2d08","system_id":"levelo_inurba_marseille","lat":43.23142,"lon":5.43719,"is_reserved":false,"is_disabled":false,"rental_uris":{"android":"levelo://app?vid=90dc7174-e5f5-45c7-9da5-620eaf7e2d08","ios":"levelo://app?vid=90dc7174-e5f5-45c7-9da5-620eaf7e2d08"},"vehicle_type_id":"4","last_reported":1749737443,"current_range_meters":6800,"station_id":"ce4bhmp2rcd13ifvqgog","pricing_plan_id":"cebpf4jnsgd1na2vs0mg"},{"bike_id":"664ace5f-9178-4db8-9256-2e5f8a712dc4","system_id":"levelo_inurba_marseille","lat":43.29693,"lon":5.36605,"is_reserved":false,"is_disabled":false,"rental_uris":{"android":"levelo://app?vid=664ace5f-9178-4db8-9256-2e5f8a712dc4","ios":"levelo://app?vid=664ace5f-9178-4db8-9256-2e5f8a712dc4"},"vehicle_type_id":"4","last_reported":1749737443,"current_range_meters":7200,"station_id":"ce4bgn12rcd13ifvqbt0","pricing_plan_id":"cebpf4jnsgd1na2vs0mg"},{"bike_id":"c8446c6b-b0c7-4c52-bb72-de9ec52c8f43","system_id":"levelo_inurba_marseille","lat":43.28661,"lon":5.36349,"is_reserved":false,"is_disabled":false,"rental_uris":{"android":"levelo://app?vid=c8446c6b-b0c7-4c52-bb72-de9ec52c8f43","ios":"levelo://app?vid=c8446c6b-b0c7-4c52-bb72-de9ec52c8f43"},"vehicle_type_id":"4","last_reported":1749737443,"current_range_meters":7200,"station_id":"ce4bhah2rcd13ifvqej0","pricing_plan_id":"cebpf4jnsgd1na2vs0mg"},{"bike_id":"83fdc2be-3b71-4e19-a119-e4e255c47263","system_id":"levelo_inurba_marseille","lat":43.297015,"lon":5.37742,"is_reserved":false,"is_disabled":false,"rental_uris":{"android":"levelo://app?vid=83fdc2be-3b71-4e19-a119-e4e255c47263","ios":"levelo://app?vid=83fdc2be-3b71-4e19-a119-e4e255c47263"},"vehicle_type_id":"4","last_reported":1749737443,"current_range_meters":7200,"station_id":"ce4bhbh2rcd13ifvqeo0","pricing_plan_id":"cebpf4jnsgd1na2vs0mg"},{"bike_id":"590841a2-8572-4aa2-8c53-7b2ed8f758fb","system_id":"levelo_inurba_marseille","lat":43.28268,"lon":5.3508,"is_reserved":false,"is_disabled":false,"rental_uris":{"android":"levelo://app?vid=590841a2-8572-4aa2-8c53-7b2ed8f758fb","ios":"levelo://app?vid=590841a2-8572-4aa2-8c53-7b2ed8f758fb"},"vehicle_type_id":"4","last_reported":1749737443,"current_range_meters":7200,"station_id":"ce4bhbp2rcd13ifvqerg","pricing_plan_id":"cebpf4jnsgd1na2vs0mg"},{"bike_id":"826363c5-cf9e-4c17-8bc3-81093c8265c5","system_id":"levelo_inurba_marseille","lat":43.3033,"lon":5.36899,"is_reserved":false,"is_disabled":false,"rental_uris":{"android":"levelo://app?vid=826363c5-cf9e-4c17-8bc3-81093c8265c5","ios":"levelo://app?vid=826363c5-cf9e-4c17-8bc3-81093c8265c5"},"vehicle_type_id":"4","last_reported":1749737443,"current_range_meters":8000,"station_id":"ce4bgqh2rcd13ifvqc5g","pricing_plan_id":"cebpf4jnsgd1na2vs0mg"},{"bike_id":"fdf1e88a-7c80-4805-b5e7-5e32a5da1b90","system_id":"levelo_inurba_marseille","lat":43.23151,"lon":5.43754,"is_reserved":false,"is_disabled":false,"rental_uris":{"android":"levelo://app?vid=fdf1e88a-7c80-4805-b5e7-5e32a5da1b90","ios":"levelo://app?vid=fdf1e88a-7c80-4805-b5e7-5e32a5da1b90"},"vehicle_type_id":"4","last_reported":1749737443,"current_range_meters":8000,"station_id":"ce4bhmp2rcd13ifvqgog","pricing_plan_id":"cebpf4jnsgd1na2vs0mg"},{"bike_id":"84f5a926-1dd6-4535-b647-2764ce0ca103","system_id":"levelo_inurba_marseille","lat":43.32113,"lon":5.367726,"is_reserved":false,"is_disabled":false,"rental_uris":{"android":"levelo://app?vid=84f5a926-1dd6-4535-b647-2764ce0ca103","ios":"levelo://app?vid=84f5a926-1dd6-4535-b647-2764ce0ca103"},"vehicle_type_id":"4","last_reported":1749737443,"current_range_meters":8000,"station_id":"ce4bhrh2rcd13ifvqhug","pricing_plan_id":"cebpf4jnsgd1na2vs0mg"},{"bike_id":"b6cb49fe-881d-4a58-9af3-789a0091adfd","system_id":"levelo_inurba_marseille","lat":43.22927,"lon":5.35366,"is_reserved":false,"is_disabled":false,"rental_uris":{"android":"levelo://app?vid=b6cb49fe-881d-4a58-9af3-789a0091adfd","ios":"levelo://app?vid=b6cb49fe-881d-4a58-9af3-789a0091adfd"},"vehicle_type_id":"4","last_reported":1749737443,"current_range_meters":8000,"station_id":"cpo3532slgdg3j2ikp40","pricing_plan_id":"cebpf4jnsgd1na2vs0mg"},{"bike_id":"4033e87a-38d6-4813-9c83-42d202950aed","system_id":"levelo_inurba_marseille","lat":43.29906,"lon":5.38145,"is_reserved":false,"is_disabled":false,"rental_uris":{"android":"levelo://app?vid=4033e87a-38d6-4813-9c83-42d202950aed","ios":"levelo://app?vid=4033e87a-38d6-4813-9c83-42d202950aed"},"vehicle_type_id":"4","last_reported":1749737443,"current_range_meters":8400,"station_id":"ce4bgj12rcd13ifvqbc0","pricing_plan_id":"cebpf4jnsgd1na2vs0mg"},{"bike_id":"1ecf5c63-dd4c-4ff7-bf61-f397a42e4be4","system_id":"levelo_inurba_marseille","lat":43.30869,"lon":5.39669,"is_reserved":false,"is_disabled":false,"rental_uris":{"android":"levelo://app?vid=1ecf5c63-dd4c-4ff7-bf61-f397a42e4be4","ios":"levelo://app?vid=1ecf5c63-dd4c-4ff7-bf61-f397a42e4be4"},"vehicle_type_id":"4","last_reported":1749737443,"current_range_meters":8400,"station_id":"ce4bh012rcd13ifvqcv0","pricing_plan_id":"cebpf4jnsgd1na2vs0mg"},{"bike_id":"43dc4dfd-0125-4413-859d-018f25e22fc1","system_id":"levelo_inurba_marseille","lat":43.29263,"lon":5.38436,"is_reserved":false,"is_disabled":false,"rental_uris":{"android":"levelo://app?vid=43dc4dfd-0125-4413-859d-018f25e22fc1","ios":"levelo://app?vid=43dc4dfd-0125-4413-859d-018f25e22fc1"},"vehicle_type_id":"4","last_reported":1749737443,"current_range_meters":8400,"station_id":"ce4bh692rcd13ifvqea0","pricing_plan_id":"cebpf4jnsgd1na2vs0mg"},{"bike_id":"87fc3b88-b811-433a-878e-f92bbad152ca","system_id":"levelo_inurba_marseille","lat":43.28411,"lon":5.34987,"is_reserved":false,"is_disabled":false,"rental_uris":{"android":"levelo://app?vid=87fc3b88-b811-433a-878e-f92bbad152ca","ios":"levelo://app?vid=87fc3b88-b811-433a-878e-f92bbad152ca"},"vehicle_type_id":"4","last_reported":1749737443,"current_range_meters":8400,"station_id":"ce4bhbh2rcd13ifvqepg","pricing_plan_id":"cebpf4jnsgd1na2vs0mg"},{"bike_id":"aca5989a-1b4f-4c5a-9650-373fbfb6ca84","system_id":"levelo_inurba_marseille","lat":43.25,"lon":5.38925,"is_reserved":false,"is_disabled":false,"rental_uris":{"android":"levelo://app?vid=aca5989a-1b4f-4c5a-9650-373fbfb6ca84","ios":"levelo://app?vid=aca5989a-1b4f-4c5a-9650-373fbfb6ca84"},"vehicle_type_id":"4","last_reported":1749737443,"current_range_meters":8400,"station_id":"ce4bhgp2rcd13ifvqfd0","pricing_plan_id":"cebpf4jnsgd1na2vs0mg"},{"bike_id":"7e61e945-7f83-4090-88f0-86880724f413","system_id":"levelo_inurba_marseille","lat":43.32354,"lon":5.38939,"is_reserved":false,"is_disabled":false,"rental_uris":{"android":"levelo://app?vid=7e61e945-7f83-4090-88f0-86880724f413","ios":"levelo://app?vid=7e61e945-7f83-4090-88f0-86880724f413"},"vehicle_type_id":"4","last_reported":1749737443,"current_range_meters":8400,"station_id":"ce4bhqp2rcd13ifvqhog","pricing_plan_id":"cebpf4jnsgd1na2vs0mg"},{"bike_id":"8105426e-eb6c-4b79-bfaa-254c1b037d55","system_id":"levelo_inurba_marseille","lat":43.32374,"lon":5.36764,"is_reserved":false,"is_disabled":false,"rental_uris":{"android":"levelo://app?vid=8105426e-eb6c-4b79-bfaa-254c1b037d55","ios":"levelo://app?vid=8105426e-eb6c-4b79-bfaa-254c1b037d55"},"vehicle_type_id":"4","last_reported":1749737443,"current_range_meters":8400,"station_id":"ce4bhsh2rcd13ifvqi2g","pricing_plan_id":"cebpf4jnsgd1na2vs0mg"},{"bike_id":"5c12d5a3-a4e9-4881-b144-6a1782aaad9a","system_id":"levelo_inurba_marseille","lat":43.304403,"lon":5.389013,"is_reserved":false,"is_disabled":false,"rental_uris":{"android":"levelo://app?vid=5c12d5a3-a4e9-4881-b144-6a1782aaad9a","ios":"levelo://app?vid=5c12d5a3-a4e9-4881-b144-6a1782aaad9a"},"vehicle_type_id":"4","last_reported":1749737443,"current_range_meters":8800,"station_id":"ce4bgk12rcd13ifvqbi0","pricing_plan_id":"cebpf4jnsgd1na2vs0mg"},{"bike_id":"a3060abe-54e2-43bf-9b4a-a392845a2d0f","system_id":"levelo_inurba_marseille","lat":43.303045,"lon":5.392126,"is_reserved":false,"is_disabled":false,"rental_uris":{"android":"levelo://app?vid=a3060abe-54e2-43bf-9b4a-a392845a2d0f","ios":"levelo://app?vid=a3060abe-54e2-43bf-9b4a-a392845a2d0f"},"vehicle_type_id":"4","last_reported":1749737443,"current_range_meters":8800,"station_id":"ce4bgkh2rcd13ifvqbk0","pricing_plan_id":"cebpf4jnsgd1na2vs0mg"},{"bike_id":"d33f0948-7380-485e-a092-e6b4817f02ff","system_id":"levelo_inurba_marseille","lat":43.2972,"lon":5.37695,"is_reserved":false,"is_disabled":false,"rental_uris":{"android":"levelo://app?vid=d33f0948-7380-485e-a092-e6b4817f02ff","ios":"levelo://app?vid=d33f0948-7380-485e-a092-e6b4817f02ff"},"vehicle_type_id":"4","last_reported":1749737443,"current_range_meters":8800,"station_id":"ce4bgkh2rcd13ifvqbl0","pricing_plan_id":"cebpf4jnsgd1na2vs0mg"},{"bike_id":"da10203b-b675-4f75-91f5-fa23d705df41","system_id":"levelo_inurba_marseille","lat":43.28414,"lon":5.3499,"is_reserved":false,"is_disabled":false,"rental_uris":{"android":"levelo://app?vid=da10203b-b675-4f75-91f5-fa23d705df41","ios":"levelo://app?vid=da10203b-b675-4f75-91f5-fa23d705df41"},"vehicle_type_id":"4","last_reported":1749737443,"current_range_meters":8800,"station_id":"ce4bhbh2rcd13ifvqepg","pricing_plan_id":"cebpf4jnsgd1na2vs0mg"},{"bike_id":"090ded6d-18cb-4111-b8b9-bb9dd44cc28e","system_id":"levelo_inurba_marseille","lat":43.28274,"lon":5.35078,"is_reserved":false,"is_disabled":false,"rental_uris":{"android":"levelo://app?vid=090ded6d-18cb-4111-b8b9-bb9dd44cc28e","ios":"levelo://app?vid=090ded6d-18cb-4111-b8b9-bb9dd44cc28e"},"vehicle_type_id":"4","last_reported":1749737443,"current_range_meters":8800,"station_id":"ce4bhbp2rcd13ifvqerg","pricing_plan_id":"cebpf4jnsgd1na2vs0mg"},{"bike_id":"308cbf69-b866-4a48-b377-e4f7d5e7c70b","system_id":"levelo_inurba_marseille","lat":43.32945,"lon":5.39034,"is_reserved":false,"is_disabled":false,"rental_uris":{"android":"levelo://app?vid=308cbf69-b866-4a48-b377-e4f7d5e7c70b","ios":"levelo://app?vid=308cbf69-b866-4a48-b377-e4f7d5e7c70b"},"vehicle_type_id":"4","last_reported":1749737443,"current_range_meters":9200,"station_id":"","pricing_plan_id":"cebpf4jnsgd1na2vs0mg"},{"bike_id":"843caf31-d060-4773-a653-f63af7bbc33a","system_id":"levelo_inurba_marseille","lat":43.29267,"lon":5.38445,"is_reserved":false,"is_disabled":false,"rental_uris":{"android":"levelo://app?vid=843caf31-d060-4773-a653-f63af7bbc33a","ios":"levelo://app?vid=843caf31-d060-4773-a653-f63af7bbc33a"},"vehicle_type_id":"4","last_reported":1749737443,"current_range_meters":9200,"station_id":"ce4bh692rcd13ifvqea0","pricing_plan_id":"cebpf4jnsgd1na2vs0mg"},{"bike_id":"4c7a7648-1697-41c2-b7e8-3e88dfe8686c","system_id":"levelo_inurba_marseille","lat":43.23145,"lon":5.437,"is_reserved":false,"is_disabled":false,"rental_uris":{"android":"levelo://app?vid=4c7a7648-1697-41c2-b7e8-3e88dfe8686c","ios":"levelo://app?vid=4c7a7648-1697-41c2-b7e8-3e88dfe8686c"},"vehicle_type_id":"4","last_reported":1749737443,"current_range_meters":9200,"station_id":"ce4bhmp2rcd13ifvqgog","pricing_plan_id":"cebpf4jnsgd1na2vs0mg"},{"bike_id":"e5ff82fd-cc37-4e1f-aade-050998fb0f61","system_id":"levelo_inurba_marseille","lat":43.26261,"lon":5.37029,"is_reserved":false,"is_disabled":false,"rental_uris":{"android":"levelo://app?vid=e5ff82fd-cc37-4e1f-aade-050998fb0f61","ios":"levelo://app?vid=e5ff82fd-cc37-4e1f-aade-050998fb0f61"},"vehicle_type_id":"4","last_reported":1749737443,"current_range_meters":9600,"station_id":"","pricing_plan_id":"cebpf4jnsgd1na2vs0mg"},{"bike_id":"a8f56578-30fd-4638-91a7-4deef71f0263","system_id":"levelo_inurba_marseille","lat":43.3124,"lon":5.36877,"is_reserved":false,"is_disabled":false,"rental_uris":{"android":"levelo://app?vid=a8f56578-30fd-4638-91a7-4deef71f0263","ios":"levelo://app?vid=a8f56578-30fd-4638-91a7-4deef71f0263"},"vehicle_type_id":"4","last_reported":1749737443,"current_range_meters":9600,"station_id":"ce4bgl92rcd13ifvqbq0","pricing_plan_id":"cebpf4jnsgd1na2vs0mg"},{"bike_id":"b3410e09-d5f2-4109-b8c1-51350b1c0231","system_id":"levelo_inurba_marseille","lat":43.28349,"lon":5.38107,"is_reserved":false,"is_disabled":false,"rental_uris":{"android":"levelo://app?vid=b3410e09-d5f2-4109-b8c1-51350b1c0231","ios":"levelo://app?vid=b3410e09-d5f2-4109-b8c1-51350b1c0231"},"vehicle_type_id":"4","last_reported":1749737443,"current_range_meters":9600,"station_id":"ce4bh412rcd13ifvqdr0","pricing_plan_id":"cebpf4jnsgd1na2vs0mg"},{"bike_id":"f57da1de-1821-4d0c-a34e-6999c5262ffc","system_id":"levelo_inurba_marseille","lat":43.31219,"lon":5.36869,"is_reserved":false,"is_disabled":false,"rental_uris":{"android":"levelo://app?vid=f57da1de-1821-4d0c-a34e-6999c5262ffc","ios":"levelo://app?vid=f57da1de-1821-4d0c-a34e-6999c5262ffc"},"vehicle_type_id":"4","last_reported":1749737443,"current_range_meters":10000,"station_id":"ce4bgl92rcd13ifvqbq0","pricing_plan_id":"cebpf4jnsgd1na2vs0mg"},{"bike_id":"9d6b83fc-44a1-4fb0-841c-35e87bc3a2db","system_id":"levelo_inurba_marseille","lat":43.284202,"lon":5.349699,"is_reserved":false,"is_disabled":false,"rental_uris":{"android":"levelo://app?vid=9d6b83fc-44a1-4fb0-841c-35e87bc3a2db","ios":"levelo://app?vid=9d6b83fc-44a1-4fb0-841c-35e87bc3a2db"},"vehicle_type_id":"4","last_reported":1749737443,"current_range_meters":10000,"station_id":"ce4bgvh2rcd13ifvqcs0","pricing_plan_id":"cebpf4jnsgd1na2vs0mg"},{"bike_id":"112dce8f-72fd-4aed-89f8-acd0442135a9","system_id":"levelo_inurba_marseille","lat":43.30888,"lon":5.396613,"is_reserved":false,"is_disabled":false,"rental_uris":{"android":"levelo://app?vid=112dce8f-72fd-4aed-89f8-acd0442135a9","ios":"levelo://app?vid=112dce8f-72fd-4aed-89f8-acd0442135a9"},"vehicle_type_id":"4","last_reported":1749737443,"current_range_meters":10000,"station_id":"ce4bh012rcd13ifvqcv0","pricing_plan_id":"cebpf4jnsgd1na2vs0mg"},{"bike_id":"9b2181ef-6141-4c9b-b1fd-6e956cf8647e","system_id":"levelo_inurba_marseille","lat":43.28934,"lon":5.36645,"is_reserved":false,"is_disabled":false,"rental_uris":{"android":"levelo://app?vid=9b2181ef-6141-4c9b-b1fd-6e956cf8647e","ios":"levelo://app?vid=9b2181ef-6141-4c9b-b1fd-6e956cf8647e"},"vehicle_type_id":"4","last_reported":1749737443,"current_range_meters":10000,"station_id":"ce4bhap2rcd13ifvqek0","pricing_plan_id":"cebpf4jnsgd1na2vs0mg"},{"bike_id":"a2421370-e442-436f-a98a-844d44299694","system_id":"levelo_inurba_marseille","lat":43.32363,"lon":5.36767,"is_reserved":false,"is_disabled":false,"rental_uris":{"android":"levelo://app?vid=a2421370-e442-436f-a98a-844d44299694","ios":"levelo://app?vid=a2421370-e442-436f-a98a-844d44299694"},"vehicle_type_id":"4","last_reported":1749737443,"current_range_meters":10000,"station_id":"ce4bhsh2rcd13ifvqi2g","pricing_plan_id":"cebpf4jnsgd1na2vs0mg"},{"bike_id":"6dfd5595-654e-42ee-8e58-2a5c3df13ff8","system_id":"levelo_inurba_marseille","lat":43.309439,"lon":5.372785,"is_reserved":false,"is_disabled":false,"rental_uris":{"android":"levelo://app?vid=6dfd5595-654e-42ee-8e58-2a5c3df13ff8","ios":"levelo://app?vid=6dfd5595-654e-42ee-8e58-2a5c3df13ff8"},"vehicle_type_id":"4","last_reported":1749737443,"current_range_meters":10800,"station_id":"","pricing_plan_id":"cebpf4jnsgd1na2vs0mg"},{"bike_id":"a4b9753e-b6c7-4ba7-a141-8a6e4fd5377f","system_id":"levelo_inurba_marseille","lat":43.3028,"lon":5.37704,"is_reserved":false,"is_disabled":false,"rental_uris":{"android":"levelo://app?vid=a4b9753e-b6c7-4ba7-a141-8a6e4fd5377f","ios":"levelo://app?vid=a4b9753e-b6c7-4ba7-a141-8a6e4fd5377f"},"vehicle_type_id":"4","last_reported":1749737443,"current_range_meters":10800,"station_id":"ce4bguh2rcd13ifvqcj0","pricing_plan_id":"cebpf4jnsgd1na2vs0mg"},{"bike_id":"dc5bb1e1-9bdd-4b33-ab26-ca70d2a3a51e","system_id":"levelo_inurba_marseille","lat":43.28482,"lon":5.38562,"is_reserved":false,"is_disabled":false,"rental_uris":{"android":"levelo://app?vid=dc5bb1e1-9bdd-4b33-ab26-ca70d2a3a51e","ios":"levelo://app?vid=dc5bb1e1-9bdd-4b33-ab26-ca70d2a3a51e"},"vehicle_type_id":"4","last_reported":1749737443,"current_range_meters":10800,"station_id":"ce4bh8p2rcd13ifvqeb0","pricing_plan_id":"cebpf4jnsgd1na2vs0mg"},{"bike_id":"80476846-9545-44ff-adb4-ed9e25c3969c","system_id":"levelo_inurba_marseille","lat":43.25498,"lon":5.37655,"is_reserved":false,"is_disabled":false,"rental_uris":{"android":"levelo://app?vid=80476846-9545-44ff-adb4-ed9e25c3969c","ios":"levelo://app?vid=80476846-9545-44ff-adb4-ed9e25c3969c"},"vehicle_type_id":"4","last_reported":1749737443,"current_range_meters":10800,"station_id":"ce4bhh12rcd13ifvqff0","pricing_plan_id":"cebpf4jnsgd1na2vs0mg"},{"bike_id":"cf1930f3-034a-4dfe-812a-101edcb21871","system_id":"levelo_inurba_marseille","lat":43.27809,"lon":5.40714,"is_reserved":false,"is_disabled":false,"rental_uris":{"android":"levelo://app?vid=cf1930f3-034a-4dfe-812a-101edcb21871","ios":"levelo://app?vid=cf1930f3-034a-4dfe-812a-101edcb21871"},"vehicle_type_id":"4","last_reported":1749737443,"current_range_meters":10800,"station_id":"ce4bhnh2rcd13ifvqgtg","pricing_plan_id":"cebpf4jnsgd1na2vs0mg"},{"bike_id":"e8d1c5bb-de92-4e6e-81e7-65c09aadd7ca","system_id":"levelo_inurba_marseille","lat":43.21203,"lon":5.35108,"is_reserved":false,"is_disabled":false,"rental_uris":{"android":"levelo://app?vid=e8d1c5bb-de92-4e6e-81e7-65c09aadd7ca","ios":"levelo://app?vid=e8d1c5bb-de92-4e6e-81e7-65c09aadd7ca"},"vehicle_type_id":"4","last_reported":1749737443,"current_range_meters":10800,"station_id":"st_cvj6sg6p6f1abm77japg","pricing_plan_id":"cebpf4jnsgd1na2vs0mg"},{"bike_id":"b72ded49-711c-49ed-9b26-27d4f9bf278e","system_id":"levelo_inurba_marseille","lat":43.309301,"lon":5.368577,"is_reserved":false,"is_disabled":false,"rental_uris":{"android":"levelo://app?vid=b72ded49-711c-49ed-9b26-27d4f9bf278e","ios":"levelo://app?vid=b72ded49-711c-49ed-9b26-27d4f9bf278e"},"vehicle_type_id":"4","last_reported":1749737443,"current_range_meters":11200,"station_id":"","pricing_plan_id":"cebpf4jnsgd1na2vs0mg"},{"bike_id":"12f04983-cd6c-42b5-bb41-cd58a43c303d","system_id":"levelo_inurba_marseille","lat":43.26206,"lon":5.37439,"is_reserved":false,"is_disabled":false,"rental_uris":{"android":"levelo://app?vid=12f04983-cd6c-42b5-bb41-cd58a43c303d","ios":"levelo://app?vid=12f04983-cd6c-42b5-bb41-cd58a43c303d"},"vehicle_type_id":"4","last_reported":1749737443,"current_range_meters":11200,"station_id":"ce4bhgp2rcd13ifvqfc0","pricing_plan_id":"cebpf4jnsgd1na2vs0mg"},{"bike_id":"51c9c3d1-050f-47d1-8726-c1814cd19d79","system_id":"levelo_inurba_marseille","lat":43.31278,"lon":5.38943,"is_reserved":false,"is_disabled":false,"rental_uris":{"android":"levelo://app?vid=51c9c3d1-050f-47d1-8726-c1814cd19d79","ios":"levelo://app?vid=51c9c3d1-050f-47d1-8726-c1814cd19d79"},"vehicle_type_id":"4","last_reported":1749737443,"current_range_meters":11600,"station_id":"","pricing_plan_id":"cebpf4jnsgd1na2vs0mg"},{"bike_id":"78bd3e36-2ce6-4a00-9cd8-2dbe5052fa6e","system_id":"levelo_inurba_marseille","lat":43.28612,"lon":5.35108,"is_reserved":false,"is_disabled":false,"rental_uris":{"android":"levelo://app?vid=78bd3e36-2ce6-4a00-9cd8-2dbe5052fa6e","ios":"levelo://app?vid=78bd3e36-2ce6-4a00-9cd8-2dbe5052fa6e"},"vehicle_type_id":"4","last_reported":1749737443,"current_range_meters":11600,"station_id":"ce4bhch2rcd13ifvqeug","pricing_plan_id":"cebpf4jnsgd1na2vs0mg"},{"bike_id":"9c71796c-3cc7-4ee9-9b85-32b689afffee","system_id":"levelo_inurba_marseille","lat":43.26564,"lon":5.39015,"is_reserved":false,"is_disabled":false,"rental_uris":{"android":"levelo://app?vid=9c71796c-3cc7-4ee9-9b85-32b689afffee","ios":"levelo://app?vid=9c71796c-3cc7-4ee9-9b85-32b689afffee"},"vehicle_type_id":"4","last_reported":1749737443,"current_range_meters":11600,"station_id":"ce4bhe12rcd13ifvqf30","pricing_plan_id":"cebpf4jnsgd1na2vs0mg"},{"bike_id":"4d71b743-ce35-4227-8058-72f001aa2457","system_id":"levelo_inurba_marseille","lat":43.26564,"lon":5.39008,"is_reserved":false,"is_disabled":false,"rental_uris":{"android":"levelo://app?vid=4d71b743-ce35-4227-8058-72f001aa2457","ios":"levelo://app?vid=4d71b743-ce35-4227-8058-72f001aa2457"},"vehicle_type_id":"4","last_reported":1749737443,"current_range_meters":11600,"station_id":"ce4bhe12rcd13ifvqf30","pricing_plan_id":"cebpf4jnsgd1na2vs0mg"},{"bike_id":"608dbf53-4bd7-4842-92d3-6444e235738b","system_id":"levelo_inurba_marseille","lat":43.26673,"lon":5.38276,"is_reserved":false,"is_disabled":false,"rental_uris":{"android":"levelo://app?vid=608dbf53-4bd7-4842-92d3-6444e235738b","ios":"levelo://app?vid=608dbf53-4bd7-4842-92d3-6444e235738b"},"vehicle_type_id":"4","last_reported":1749737443,"current_range_meters":11600,"station_id":"ce4bhg92rcd13ifvqf90","pricing_plan_id":"cebpf4jnsgd1na2vs0mg"},{"bike_id":"500320f2-e4bb-4906-a414-ca67470055ab","system_id":"levelo_inurba_marseille","lat":43.25657,"lon":5.38619,"is_reserved":false,"is_disabled":false,"rental_uris":{"android":"levelo://app?vid=500320f2-e4bb-4906-a414-ca67470055ab","ios":"levelo://app?vid=500320f2-e4bb-4906-a414-ca67470055ab"},"vehicle_type_id":"4","last_reported":1749737443,"current_range_meters":12000,"station_id":"","pricing_plan_id":"cebpf4jnsgd1na2vs0mg"},{"bike_id":"8b296589-8652-4e4c-9ad0-3db8f491d548","system_id":"levelo_inurba_marseille","lat":43.309113,"lon":5.368559,"is_reserved":false,"is_disabled":false,"rental_uris":{"android":"levelo://app?vid=8b296589-8652-4e4c-9ad0-3db8f491d548","ios":"levelo://app?vid=8b296589-8652-4e4c-9ad0-3db8f491d548"},"vehicle_type_id":"4","last_reported":1749737443,"current_range_meters":12000,"station_id":"ce4bgn92rcd13ifvqbvg","pricing_plan_id":"cebpf4jnsgd1na2vs0mg"},{"bike_id":"a086267f-6fd9-4504-a137-777392d89809","system_id":"levelo_inurba_marseille","lat":43.29872,"lon":5.38916,"is_reserved":false,"is_disabled":false,"rental_uris":{"android":"levelo://app?vid=a086267f-6fd9-4504-a137-777392d89809","ios":"levelo://app?vid=a086267f-6fd9-4504-a137-777392d89809"},"vehicle_type_id":"4","last_reported":1749737443,"current_range_meters":12000,"station_id":"ce4bh392rcd13ifvqdl0","pricing_plan_id":"cebpf4jnsgd1na2vs0mg"},{"bike_id":"743245d4-5457-49b9-9efc-d95c90d69b8e","system_id":"levelo_inurba_marseille","lat":43.314873,"lon":5.373081,"is_reserved":false,"is_disabled":false,"rental_uris":{"android":"levelo://app?vid=743245d4-5457-49b9-9efc-d95c90d69b8e","ios":"levelo://app?vid=743245d4-5457-49b9-9efc-d95c90d69b8e"},"vehicle_type_id":"4","last_reported":1749737443,"current_range_meters":12000,"station_id":"ce4bhip2rcd13ifvqft0","pricing_plan_id":"cebpf4jnsgd1na2vs0mg"},{"bike_id":"501fe5cc-ec9f-4031-8e12-9c9a87dfd25d","system_id":"levelo_inurba_marseille","lat":43.31764,"lon":5.4063,"is_reserved":false,"is_disabled":false,"rental_uris":{"android":"levelo://app?vid=501fe5cc-ec9f-4031-8e12-9c9a87dfd25d","ios":"levelo://app?vid=501fe5cc-ec9f-4031-8e12-9c9a87dfd25d"},"vehicle_type_id":"4","last_reported":1749737443,"current_range_meters":12400,"station_id":"","pricing_plan_id":"cebpf4jnsgd1na2vs0mg"},{"bike_id":"1f0401a1-c89f-4d8f-a887-cd89fac74c31","system_id":"levelo_inurba_marseille","lat":43.29583,"lon":5.37595,"is_reserved":false,"is_disabled":false,"rental_uris":{"android":"levelo://app?vid=1f0401a1-c89f-4d8f-a887-cd89fac74c31","ios":"levelo://app?vid=1f0401a1-c89f-4d8f-a887-cd89fac74c31"},"vehicle_type_id":"4","last_reported":1749737443,"current_range_meters":12400,"station_id":"ce4bgh92rcd13ifvqb50","pricing_plan_id":"cebpf4jnsgd1na2vs0mg"},{"bike_id":"f87b3a41-c1a2-450b-a127-655809bf01a0","system_id":"levelo_inurba_marseille","lat":43.29729,"lon":5.37721,"is_reserved":false,"is_disabled":false,"rental_uris":{"android":"levelo://app?vid=f87b3a41-c1a2-450b-a127-655809bf01a0","ios":"levelo://app?vid=f87b3a41-c1a2-450b-a127-655809bf01a0"},"vehicle_type_id":"4","last_reported":1749737443,"current_range_meters":12400,"station_id":"ce4bgkh2rcd13ifvqbl0","pricing_plan_id":"cebpf4jnsgd1na2vs0mg"},{"bike_id":"2676e0f2-8978-4433-8c2e-f7f8580a07b8","system_id":"levelo_inurba_marseille","lat":43.28611,"lon":5.35097,"is_reserved":false,"is_disabled":false,"rental_uris":{"android":"levelo://app?vid=2676e0f2-8978-4433-8c2e-f7f8580a07b8","ios":"levelo://app?vid=2676e0f2-8978-4433-8c2e-f7f8580a07b8"},"vehicle_type_id":"4","last_reported":1749737443,"current_range_meters":12400,"station_id":"ce4bhch2rcd13ifvqeug","pricing_plan_id":"cebpf4jnsgd1na2vs0mg"},{"bike_id":"16a144f1-12d2-4c01-a554-d61c07188f81","system_id":"levelo_inurba_marseille","lat":43.273111,"lon":5.390726,"is_reserved":false,"is_disabled":false,"rental_uris":{"android":"levelo://app?vid=16a144f1-12d2-4c01-a554-d61c07188f81","ios":"levelo://app?vid=16a144f1-12d2-4c01-a554-d61c07188f81"},"vehicle_type_id":"4","last_reported":1749737443,"current_range_meters":12400,"station_id":"ce4bhgp2rcd13ifvqfe0","pricing_plan_id":"cebpf4jnsgd1na2vs0mg"},{"bike_id":"52565a0a-9710-4a83-b5d9-a6358947c3c3","system_id":"levelo_inurba_marseille","lat":43.31719,"lon":5.424,"is_reserved":false,"is_disabled":false,"rental_uris":{"android":"levelo://app?vid=52565a0a-9710-4a83-b5d9-a6358947c3c3","ios":"levelo://app?vid=52565a0a-9710-4a83-b5d9-a6358947c3c3"},"vehicle_type_id":"4","last_reported":1749737443,"current_range_meters":12400,"station_id":"ce4bhp92rcd13ifvqhbg","pricing_plan_id":"cebpf4jnsgd1na2vs0mg"},{"bike_id":"45cb9171-bb7e-418e-bf45-5916b7d21e5e","system_id":"levelo_inurba_marseille","lat":43.32126,"lon":5.36792,"is_reserved":false,"is_disabled":false,"rental_uris":{"android":"levelo://app?vid=45cb9171-bb7e-418e-bf45-5916b7d21e5e","ios":"levelo://app?vid=45cb9171-bb7e-418e-bf45-5916b7d21e5e"},"vehicle_type_id":"4","last_reported":1749737443,"current_range_meters":12400,"station_id":"ce4bhrh2rcd13ifvqhug","pricing_plan_id":"cebpf4jnsgd1na2vs0mg"},{"bike_id":"b7080653-789f-4d0a-bc3f-01095da4a8bc","system_id":"levelo_inurba_marseille","lat":43.29425,"lon":5.39764,"is_reserved":false,"is_disabled":false,"rental_uris":{"android":"levelo://app?vid=b7080653-789f-4d0a-bc3f-01095da4a8bc","ios":"levelo://app?vid=b7080653-789f-4d0a-bc3f-01095da4a8bc"},"vehicle_type_id":"4","last_reported":1749737443,"current_range_meters":12800,"station_id":"ce4bh3h2rcd13ifvqdo0","pricing_plan_id":"cebpf4jnsgd1na2vs0mg"},{"bike_id":"63eff3e0-6c8c-4829-8038-c9993c07783d","system_id":"levelo_inurba_marseille","lat":43.211924,"lon":5.350664,"is_reserved":false,"is_disabled":false,"rental_uris":{"android":"levelo://app?vid=63eff3e0-6c8c-4829-8038-c9993c07783d","ios":"levelo://app?vid=63eff3e0-6c8c-4829-8038-c9993c07783d"},"vehicle_type_id":"4","last_reported":1749737443,"current_range_meters":13600,"station_id":"","pricing_plan_id":"cebpf4jnsgd1na2vs0mg"},{"bike_id":"d157eaf0-d117-4b04-bc6e-ae1162885bce","system_id":"levelo_inurba_marseille","lat":43.29699,"lon":5.377,"is_reserved":false,"is_disabled":false,"rental_uris":{"android":"levelo://app?vid=d157eaf0-d117-4b04-bc6e-ae1162885bce","ios":"levelo://app?vid=d157eaf0-d117-4b04-bc6e-ae1162885bce"},"vehicle_type_id":"4","last_reported":1749737443,"current_range_meters":13600,"station_id":"ce4bgkh2rcd13ifvqbl0","pricing_plan_id":"cebpf4jnsgd1na2vs0mg"},{"bike_id":"d2a08257-3974-4943-9835-0afd4e705ecd","system_id":"levelo_inurba_marseille","lat":43.31113,"lon":5.37794,"is_reserved":false,"is_disabled":false,"rental_uris":{"android":"levelo://app?vid=d2a08257-3974-4943-9835-0afd4e705ecd","ios":"levelo://app?vid=d2a08257-3974-4943-9835-0afd4e705ecd"},"vehicle_type_id":"4","last_reported":1749737443,"current_range_meters":13600,"station_id":"ce4bgt92rcd13ifvqcg0","pricing_plan_id":"cebpf4jnsgd1na2vs0mg"},{"bike_id":"a21ad8f2-5986-4c07-ad59-d4d3ada271f6","system_id":"levelo_inurba_marseille","lat":43.30538,"lon":5.36562,"is_reserved":false,"is_disabled":false,"rental_uris":{"android":"levelo://app?vid=a21ad8f2-5986-4c07-ad59-d4d3ada271f6","ios":"levelo://app?vid=a21ad8f2-5986-4c07-ad59-d4d3ada271f6"},"vehicle_type_id":"4","last_reported":1749737443,"current_range_meters":14000,"station_id":"ce4bgs12rcd13ifvqcag","pricing_plan_id":"cebpf4jnsgd1na2vs0mg"},{"bike_id":"2c16b958-b115-4abe-b026-53a78f6d2da9","system_id":"levelo_inurba_marseille","lat":43.30894,"lon":5.37201,"is_reserved":false,"is_disabled":false,"rental_uris":{"android":"levelo://app?vid=2c16b958-b115-4abe-b026-53a78f6d2da9","ios":"levelo://app?vid=2c16b958-b115-4abe-b026-53a78f6d2da9"},"vehicle_type_id":"4","last_reported":1749737443,"current_range_meters":14000,"station_id":"ce4bguh2rcd13ifvqckg","pricing_plan_id":"cebpf4jnsgd1na2vs0mg"},{"bike_id":"7829361b-bacd-48dc-87a2-23afac21cb4f","system_id":"levelo_inurba_marseille","lat":43.30589,"lon":5.39361,"is_reserved":false,"is_disabled":false,"rental_uris":{"android":"levelo://app?vid=7829361b-bacd-48dc-87a2-23afac21cb4f","ios":"levelo://app?vid=7829361b-bacd-48dc-87a2-23afac21cb4f"},"vehicle_type_id":"4","last_reported":1749737443,"current_range_meters":14000,"station_id":"ce4bh0p2rcd13ifvqd80","pricing_plan_id":"cebpf4jnsgd1na2vs0mg"},{"bike_id":"11d7c038-a2d8-4faa-99bb-681216d94050","system_id":"levelo_inurba_marseille","lat":43.2903,"lon":5.38623,"is_reserved":false,"is_disabled":false,"rental_uris":{"android":"levelo://app?vid=11d7c038-a2d8-4faa-99bb-681216d94050","ios":"levelo://app?vid=11d7c038-a2d8-4faa-99bb-681216d94050"},"vehicle_type_id":"4","last_reported":1749737443,"current_range_meters":14000,"station_id":"ce4bh4p2rcd13ifvqe0g","pricing_plan_id":"cebpf4jnsgd1na2vs0mg"},{"bike_id":"02c29b19-f2cb-4d45-9401-6fbc7c80751b","system_id":"levelo_inurba_marseille","lat":43.281098,"lon":5.378421,"is_reserved":false,"is_disabled":false,"rental_uris":{"android":"levelo://app?vid=02c29b19-f2cb-4d45-9401-6fbc7c80751b","ios":"levelo://app?vid=02c29b19-f2cb-4d45-9401-6fbc7c80751b"},"vehicle_type_id":"4","last_reported":1749737443,"current_range_meters":14000,"station_id":"ce4bha12rcd13ifvqee0","pricing_plan_id":"cebpf4jnsgd1na2vs0mg"},{"bike_id":"c8d39aad-10f2-49f0-b132-259630728ead","system_id":"levelo_inurba_marseille","lat":43.28934,"lon":5.36631,"is_reserved":false,"is_disabled":false,"rental_uris":{"android":"levelo://app?vid=c8d39aad-10f2-49f0-b132-259630728ead","ios":"levelo://app?vid=c8d39aad-10f2-49f0-b132-259630728ead"},"vehicle_type_id":"4","last_reported":1749737443,"current_range_meters":14000,"station_id":"ce4bhap2rcd13ifvqek0","pricing_plan_id":"cebpf4jnsgd1na2vs0mg"},{"bike_id":"24ac8115-041f-45d2-a8c6-449a576dd176","system_id":"levelo_inurba_marseille","lat":43.241638,"lon":5.397408,"is_reserved":false,"is_disabled":false,"rental_uris":{"android":"levelo://app?vid=24ac8115-041f-45d2-a8c6-449a576dd176","ios":"levelo://app?vid=24ac8115-041f-45d2-a8c6-449a576dd176"},"vehicle_type_id":"4","last_reported":1749737443,"current_range_meters":14000,"station_id":"ce4bhn12rcd13ifvqgpg","pricing_plan_id":"cebpf4jnsgd1na2vs0mg"},{"bike_id":"46186c23-1d81-4d78-83f7-1cfbc90e845c","system_id":"levelo_inurba_marseille","lat":43.31229,"lon":5.36859,"is_reserved":false,"is_disabled":false,"rental_uris":{"android":"levelo://app?vid=46186c23-1d81-4d78-83f7-1cfbc90e845c","ios":"levelo://app?vid=46186c23-1d81-4d78-83f7-1cfbc90e845c"},"vehicle_type_id":"4","last_reported":1749737443,"current_range_meters":14400,"station_id":"ce4bgl92rcd13ifvqbq0","pricing_plan_id":"cebpf4jnsgd1na2vs0mg"},{"bike_id":"7691b747-5418-43fb-a371-6ae82b15e0b7","system_id":"levelo_inurba_marseille","lat":43.29847,"lon":5.36288,"is_reserved":false,"is_disabled":false,"rental_uris":{"android":"levelo://app?vid=7691b747-5418-43fb-a371-6ae82b15e0b7","ios":"levelo://app?vid=7691b747-5418-43fb-a371-6ae82b15e0b7"},"vehicle_type_id":"4","last_reported":1749737443,"current_range_meters":14400,"station_id":"ce4bgpp2rcd13ifvqc3g","pricing_plan_id":"cebpf4jnsgd1na2vs0mg"},{"bike_id":"af7ffcc4-44e8-4685-a696-1b3262d6e3c6","system_id":"levelo_inurba_marseille","lat":43.31366,"lon":5.38476,"is_reserved":false,"is_disabled":false,"rental_uris":{"android":"levelo://app?vid=af7ffcc4-44e8-4685-a696-1b3262d6e3c6","ios":"levelo://app?vid=af7ffcc4-44e8-4685-a696-1b3262d6e3c6"},"vehicle_type_id":"4","last_reported":1749737443,"current_range_meters":14400,"station_id":"ce4bgt92rcd13ifvqcf0","pricing_plan_id":"cebpf4jnsgd1na2vs0mg"},{"bike_id":"98803927-0486-4ad2-83fd-c7d24cfd0068","system_id":"levelo_inurba_marseille","lat":43.28925,"lon":5.38397,"is_reserved":false,"is_disabled":false,"rental_uris":{"android":"levelo://app?vid=98803927-0486-4ad2-83fd-c7d24cfd0068","ios":"levelo://app?vid=98803927-0486-4ad2-83fd-c7d24cfd0068"},"vehicle_type_id":"4","last_reported":1749737443,"current_range_meters":14400,"station_id":"ce4bh612rcd13ifvqe6g","pricing_plan_id":"cebpf4jnsgd1na2vs0mg"},{"bike_id":"beb8b8a3-f4a0-4749-9c9f-01986d2c8f66","system_id":"levelo_inurba_marseille","lat":43.26222,"lon":5.40467,"is_reserved":false,"is_disabled":false,"rental_uris":{"android":"levelo://app?vid=beb8b8a3-f4a0-4749-9c9f-01986d2c8f66","ios":"levelo://app?vid=beb8b8a3-f4a0-4749-9c9f-01986d2c8f66"},"vehicle_type_id":"4","last_reported":1749737443,"current_range_meters":14400,"station_id":"ce4bhmh2rcd13ifvqgmg","pricing_plan_id":"cebpf4jnsgd1na2vs0mg"},{"bike_id":"8c31f4a5-033f-4dc1-acaa-6b626b1b7f90","system_id":"levelo_inurba_marseille","lat":43.231483,"lon":5.437187,"is_reserved":false,"is_disabled":false,"rental_uris":{"android":"levelo://app?vid=8c31f4a5-033f-4dc1-acaa-6b626b1b7f90","ios":"levelo://app?vid=8c31f4a5-033f-4dc1-acaa-6b626b1b7f90"},"vehicle_type_id":"4","last_reported":1749737443,"current_range_meters":14400,"station_id":"ce4bhmp2rcd13ifvqgog","pricing_plan_id":"cebpf4jnsgd1na2vs0mg"},{"bike_id":"251b53ee-a9bd-46af-8180-bb5a0a34903d","system_id":"levelo_inurba_marseille","lat":43.23148,"lon":5.43716,"is_reserved":false,"is_disabled":false,"rental_uris":{"android":"levelo://app?vid=251b53ee-a9bd-46af-8180-bb5a0a34903d","ios":"levelo://app?vid=251b53ee-a9bd-46af-8180-bb5a0a34903d"},"vehicle_type_id":"4","last_reported":1749737443,"current_range_meters":14400,"station_id":"ce4bhmp2rcd13ifvqgog","pricing_plan_id":"cebpf4jnsgd1na2vs0mg"},{"bike_id":"9cfb5991-2280-4230-b550-97760b380a10","system_id":"levelo_inurba_marseille","lat":43.2416,"lon":5.36382,"is_reserved":false,"is_disabled":false,"rental_uris":{"android":"levelo://app?vid=9cfb5991-2280-4230-b550-97760b380a10","ios":"levelo://app?vid=9cfb5991-2280-4230-b550-97760b380a10"},"vehicle_type_id":"4","last_reported":1749737443,"current_range_meters":14400,"station_id":"cpo36qri1sfpv3e86is0","pricing_plan_id":"cebpf4jnsgd1na2vs0mg"},{"bike_id":"1268e070-f02d-4537-93df-0bfd5c4daa05","system_id":"levelo_inurba_marseille","lat":43.32683,"lon":5.37679,"is_reserved":false,"is_disabled":false,"rental_uris":{"android":"levelo://app?vid=1268e070-f02d-4537-93df-0bfd5c4daa05","ios":"levelo://app?vid=1268e070-f02d-4537-93df-0bfd5c4daa05"},"vehicle_type_id":"4","last_reported":1749737443,"current_range_meters":14800,"station_id":"","pricing_plan_id":"cebpf4jnsgd1na2vs0mg"},{"bike_id":"e5ef7447-82af-477b-846f-d44631249354","system_id":"levelo_inurba_marseille","lat":43.325063,"lon":5.387993,"is_reserved":false,"is_disabled":false,"rental_uris":{"android":"levelo://app?vid=e5ef7447-82af-477b-846f-d44631249354","ios":"levelo://app?vid=e5ef7447-82af-477b-846f-d44631249354"},"vehicle_type_id":"4","last_reported":1749737443,"current_range_meters":14800,"station_id":"","pricing_plan_id":"cebpf4jnsgd1na2vs0mg"},{"bike_id":"9c507a40-153b-45c1-b875-b384668e9b5b","system_id":"levelo_inurba_marseille","lat":43.30427,"lon":5.38881,"is_reserved":false,"is_disabled":false,"rental_uris":{"android":"levelo://app?vid=9c507a40-153b-45c1-b875-b384668e9b5b","ios":"levelo://app?vid=9c507a40-153b-45c1-b875-b384668e9b5b"},"vehicle_type_id":"4","last_reported":1749737443,"current_range_meters":14800,"station_id":"ce4bgk12rcd13ifvqbi0","pricing_plan_id":"cebpf4jnsgd1na2vs0mg"},{"bike_id":"f4a3cdbd-f14e-482e-a5c7-f3fb97861a5b","system_id":"levelo_inurba_marseille","lat":43.28263,"lon":5.35063,"is_reserved":false,"is_disabled":false,"rental_uris":{"android":"levelo://app?vid=f4a3cdbd-f14e-482e-a5c7-f3fb97861a5b","ios":"levelo://app?vid=f4a3cdbd-f14e-482e-a5c7-f3fb97861a5b"},"vehicle_type_id":"4","last_reported":1749737443,"current_range_meters":14800,"station_id":"ce4bhbp2rcd13ifvqerg","pricing_plan_id":"cebpf4jnsgd1na2vs0mg"},{"bike_id":"e1259bdc-2fca-4f0a-8c39-8cf9d1a28f2e","system_id":"levelo_inurba_marseille","lat":43.26714,"lon":5.38288,"is_reserved":false,"is_disabled":false,"rental_uris":{"android":"levelo://app?vid=e1259bdc-2fca-4f0a-8c39-8cf9d1a28f2e","ios":"levelo://app?vid=e1259bdc-2fca-4f0a-8c39-8cf9d1a28f2e"},"vehicle_type_id":"4","last_reported":1749737443,"current_range_meters":14800,"station_id":"ce4bhg92rcd13ifvqf90","pricing_plan_id":"cebpf4jnsgd1na2vs0mg"},{"bike_id":"42bf70a3-9122-416d-8972-64337ce8a25b","system_id":"levelo_inurba_marseille","lat":43.25582,"lon":5.38226,"is_reserved":false,"is_disabled":false,"rental_uris":{"android":"levelo://app?vid=42bf70a3-9122-416d-8972-64337ce8a25b","ios":"levelo://app?vid=42bf70a3-9122-416d-8972-64337ce8a25b"},"vehicle_type_id":"4","last_reported":1749737443,"current_range_meters":14800,"station_id":"ce4bhih2rcd13ifvqfs0","pricing_plan_id":"cebpf4jnsgd1na2vs0mg"},{"bike_id":"4a81d68c-9a7d-4adb-af16-71d1ee6cb301","system_id":"levelo_inurba_marseille","lat":43.28079,"lon":5.39659,"is_reserved":false,"is_disabled":false,"rental_uris":{"android":"levelo://app?vid=4a81d68c-9a7d-4adb-af16-71d1ee6cb301","ios":"levelo://app?vid=4a81d68c-9a7d-4adb-af16-71d1ee6cb301"},"vehicle_type_id":"4","last_reported":1749737443,"current_range_meters":14800,"station_id":"ce4bho12rcd13ifvqh2g","pricing_plan_id":"cebpf4jnsgd1na2vs0mg"},{"bike_id":"ece35212-03b3-4009-bfc9-2d2077e0778b","system_id":"levelo_inurba_marseille","lat":43.224987,"lon":5.347839,"is_reserved":false,"is_disabled":false,"rental_uris":{"android":"levelo://app?vid=ece35212-03b3-4009-bfc9-2d2077e0778b","ios":"levelo://app?vid=ece35212-03b3-4009-bfc9-2d2077e0778b"},"vehicle_type_id":"4","last_reported":1749737443,"current_range_meters":15200,"station_id":"","pricing_plan_id":"cebpf4jnsgd1na2vs0mg"},{"bike_id":"7d7170dd-d55e-43db-a9c2-1ed74c433fd7","system_id":"levelo_inurba_marseille","lat":43.31014,"lon":5.42009,"is_reserved":false,"is_disabled":false,"rental_uris":{"android":"levelo://app?vid=7d7170dd-d55e-43db-a9c2-1ed74c433fd7","ios":"levelo://app?vid=7d7170dd-d55e-43db-a9c2-1ed74c433fd7"},"vehicle_type_id":"4","last_reported":1749737443,"current_range_meters":15200,"station_id":"","pricing_plan_id":"cebpf4jnsgd1na2vs0mg"},{"bike_id":"6e464720-93b0-4699-80fe-881649eb71cd","system_id":"levelo_inurba_marseille","lat":43.23276,"lon":5.35616,"is_reserved":false,"is_disabled":false,"rental_uris":{"android":"levelo://app?vid=6e464720-93b0-4699-80fe-881649eb71cd","ios":"levelo://app?vid=6e464720-93b0-4699-80fe-881649eb71cd"},"vehicle_type_id":"4","last_reported":1749737443,"current_range_meters":15200,"station_id":"","pricing_plan_id":"cebpf4jnsgd1na2vs0mg"},{"bike_id":"a36b7389-c11b-4ba6-ada0-01dce3784427","system_id":"levelo_inurba_marseille","lat":43.29299,"lon":5.374614,"is_reserved":false,"is_disabled":false,"rental_uris":{"android":"levelo://app?vid=a36b7389-c11b-4ba6-ada0-01dce3784427","ios":"levelo://app?vid=a36b7389-c11b-4ba6-ada0-01dce3784427"},"vehicle_type_id":"4","last_reported":1749737443,"current_range_meters":15200,"station_id":"ce4bgi12rcd13ifvqb70","pricing_plan_id":"cebpf4jnsgd1na2vs0mg"},{"bike_id":"5363b065-d678-4eb1-8cb2-357e5fd0d7bc","system_id":"levelo_inurba_marseille","lat":43.30474,"lon":5.37899,"is_reserved":false,"is_disabled":false,"rental_uris":{"android":"levelo://app?vid=5363b065-d678-4eb1-8cb2-357e5fd0d7bc","ios":"levelo://app?vid=5363b065-d678-4eb1-8cb2-357e5fd0d7bc"},"vehicle_type_id":"4","last_reported":1749737443,"current_range_meters":15200,"station_id":"ce4bgup2rcd13ifvqcn0","pricing_plan_id":"cebpf4jnsgd1na2vs0mg"},{"bike_id":"6978adb0-b13f-4176-989b-323d442178d2","system_id":"levelo_inurba_marseille","lat":43.29269,"lon":5.3684,"is_reserved":false,"is_disabled":false,"rental_uris":{"android":"levelo://app?vid=6978adb0-b13f-4176-989b-323d442178d2","ios":"levelo://app?vid=6978adb0-b13f-4176-989b-323d442178d2"},"vehicle_type_id":"4","last_reported":1749737443,"current_range_meters":15200,"station_id":"ce4bhbp2rcd13ifvqesg","pricing_plan_id":"cebpf4jnsgd1na2vs0mg"},{"bike_id":"6cd880f8-e5de-42fc-8807-0c427d2a2e24","system_id":"levelo_inurba_marseille","lat":43.26689,"lon":5.3828,"is_reserved":false,"is_disabled":false,"rental_uris":{"android":"levelo://app?vid=6cd880f8-e5de-42fc-8807-0c427d2a2e24","ios":"levelo://app?vid=6cd880f8-e5de-42fc-8807-0c427d2a2e24"},"vehicle_type_id":"4","last_reported":1749737443,"current_range_meters":15200,"station_id":"ce4bhg92rcd13ifvqf90","pricing_plan_id":"cebpf4jnsgd1na2vs0mg"},{"bike_id":"7003b93c-725d-412e-9127-fbade718cbc3","system_id":"levelo_inurba_marseille","lat":43.21189,"lon":5.35072,"is_reserved":false,"is_disabled":false,"rental_uris":{"android":"levelo://app?vid=7003b93c-725d-412e-9127-fbade718cbc3","ios":"levelo://app?vid=7003b93c-725d-412e-9127-fbade718cbc3"},"vehicle_type_id":"4","last_reported":1749737443,"current_range_meters":15200,"station_id":"st_cvj6sg6p6f1abm77japg","pricing_plan_id":"cebpf4jnsgd1na2vs0mg"},{"bike_id":"1989215c-378c-442b-a262-e4741c2e9de7","system_id":"levelo_inurba_marseille","lat":43.30237,"lon":5.40339,"is_reserved":false,"is_disabled":false,"rental_uris":{"android":"levelo://app?vid=1989215c-378c-442b-a262-e4741c2e9de7","ios":"levelo://app?vid=1989215c-378c-442b-a262-e4741c2e9de7"},"vehicle_type_id":"4","last_reported":1749737443,"current_range_meters":16000,"station_id":"","pricing_plan_id":"cebpf4jnsgd1na2vs0mg"},{"bike_id":"7624f930-8a29-453f-876b-d242de2c99f9","system_id":"levelo_inurba_marseille","lat":43.312329,"lon":5.368511,"is_reserved":false,"is_disabled":false,"rental_uris":{"android":"levelo://app?vid=7624f930-8a29-453f-876b-d242de2c99f9","ios":"levelo://app?vid=7624f930-8a29-453f-876b-d242de2c99f9"},"vehicle_type_id":"4","last_reported":1749737443,"current_range_meters":16000,"station_id":"ce4bgl92rcd13ifvqbq0","pricing_plan_id":"cebpf4jnsgd1na2vs0mg"},{"bike_id":"39fceb77-737c-4620-a179-e42f2e9eabb1","system_id":"levelo_inurba_marseille","lat":43.30534,"lon":5.36551,"is_reserved":false,"is_disabled":false,"rental_uris":{"android":"levelo://app?vid=39fceb77-737c-4620-a179-e42f2e9eabb1","ios":"levelo://app?vid=39fceb77-737c-4620-a179-e42f2e9eabb1"},"vehicle_type_id":"4","last_reported":1749737443,"current_range_meters":16000,"station_id":"ce4bgs12rcd13ifvqcag","pricing_plan_id":"cebpf4jnsgd1na2vs0mg"},{"bike_id":"0e351ad5-64b5-46d8-8f3f-c11ecfe29af5","system_id":"levelo_inurba_marseille","lat":43.27908,"lon":5.3959,"is_reserved":false,"is_disabled":false,"rental_uris":{"android":"levelo://app?vid=0e351ad5-64b5-46d8-8f3f-c11ecfe29af5","ios":"levelo://app?vid=0e351ad5-64b5-46d8-8f3f-c11ecfe29af5"},"vehicle_type_id":"4","last_reported":1749737443,"current_range_meters":16000,"station_id":"ce4bhf92rcd13ifvqf40","pricing_plan_id":"cebpf4jnsgd1na2vs0mg"},{"bike_id":"2b3487c0-6d03-4c54-801f-a27aa1820b7e","system_id":"levelo_inurba_marseille","lat":43.26565,"lon":5.37335,"is_reserved":false,"is_disabled":false,"rental_uris":{"android":"levelo://app?vid=2b3487c0-6d03-4c54-801f-a27aa1820b7e","ios":"levelo://app?vid=2b3487c0-6d03-4c54-801f-a27aa1820b7e"},"vehicle_type_id":"4","last_reported":1749737443,"current_range_meters":16000,"station_id":"ce4bhg12rcd13ifvqf70","pricing_plan_id":"cebpf4jnsgd1na2vs0mg"},{"bike_id":"85bbd0bd-4fa7-4b76-a13e-9890f4846da8","system_id":"levelo_inurba_marseille","lat":43.23152,"lon":5.43705,"is_reserved":false,"is_disabled":false,"rental_uris":{"android":"levelo://app?vid=85bbd0bd-4fa7-4b76-a13e-9890f4846da8","ios":"levelo://app?vid=85bbd0bd-4fa7-4b76-a13e-9890f4846da8"},"vehicle_type_id":"4","last_reported":1749737443,"current_range_meters":16000,"station_id":"ce4bhmp2rcd13ifvqgog","pricing_plan_id":"cebpf4jnsgd1na2vs0mg"},{"bike_id":"99e60434-491e-4f85-b8a2-3f97de608991","system_id":"levelo_inurba_marseille","lat":43.32357,"lon":5.38901,"is_reserved":false,"is_disabled":false,"rental_uris":{"android":"levelo://app?vid=99e60434-491e-4f85-b8a2-3f97de608991","ios":"levelo://app?vid=99e60434-491e-4f85-b8a2-3f97de608991"},"vehicle_type_id":"4","last_reported":1749737443,"current_range_meters":16000,"station_id":"ce4bhqp2rcd13ifvqhog","pricing_plan_id":"cebpf4jnsgd1na2vs0mg"},{"bike_id":"c0bd4251-d527-48a7-9378-e4e80c1c274f","system_id":"levelo_inurba_marseille","lat":43.318133,"lon":5.37358,"is_reserved":false,"is_disabled":false,"rental_uris":{"android":"levelo://app?vid=c0bd4251-d527-48a7-9378-e4e80c1c274f","ios":"levelo://app?vid=c0bd4251-d527-48a7-9378-e4e80c1c274f"},"vehicle_type_id":"4","last_reported":1749737443,"current_range_meters":16400,"station_id":"","pricing_plan_id":"cebpf4jnsgd1na2vs0mg"},{"bike_id":"8979febd-27bb-4260-9774-a774e38d8583","system_id":"levelo_inurba_marseille","lat":43.28939,"lon":5.36639,"is_reserved":false,"is_disabled":false,"rental_uris":{"android":"levelo://app?vid=8979febd-27bb-4260-9774-a774e38d8583","ios":"levelo://app?vid=8979febd-27bb-4260-9774-a774e38d8583"},"vehicle_type_id":"4","last_reported":1749737443,"current_range_meters":16400,"station_id":"ce4bhap2rcd13ifvqek0","pricing_plan_id":"cebpf4jnsgd1na2vs0mg"},{"bike_id":"1b121849-935e-47b6-bbe2-c73ccc346feb","system_id":"levelo_inurba_marseille","lat":43.262031,"lon":5.374361,"is_reserved":false,"is_disabled":false,"rental_uris":{"android":"levelo://app?vid=1b121849-935e-47b6-bbe2-c73ccc346feb","ios":"levelo://app?vid=1b121849-935e-47b6-bbe2-c73ccc346feb"},"vehicle_type_id":"4","last_reported":1749737443,"current_range_meters":16400,"station_id":"ce4bhgp2rcd13ifvqfc0","pricing_plan_id":"cebpf4jnsgd1na2vs0mg"},{"bike_id":"073a713c-5385-496b-b4a6-feb54569c69b","system_id":"levelo_inurba_marseille","lat":43.26205,"lon":5.3742,"is_reserved":false,"is_disabled":false,"rental_uris":{"android":"levelo://app?vid=073a713c-5385-496b-b4a6-feb54569c69b","ios":"levelo://app?vid=073a713c-5385-496b-b4a6-feb54569c69b"},"vehicle_type_id":"4","last_reported":1749737443,"current_range_meters":16400,"station_id":"ce4bhgp2rcd13ifvqfc0","pricing_plan_id":"cebpf4jnsgd1na2vs0mg"},{"bike_id":"35733ac5-1a87-435f-bdd3-fb5ec7a34be5","system_id":"levelo_inurba_marseille","lat":43.29547,"lon":5.42287,"is_reserved":false,"is_disabled":false,"rental_uris":{"android":"levelo://app?vid=35733ac5-1a87-435f-bdd3-fb5ec7a34be5","ios":"levelo://app?vid=35733ac5-1a87-435f-bdd3-fb5ec7a34be5"},"vehicle_type_id":"4","last_reported":1749737443,"current_range_meters":16400,"station_id":"ce4bhph2rcd13ifvqhdg","pricing_plan_id":"cebpf4jnsgd1na2vs0mg"},{"bike_id":"78e4331f-c67f-4812-a1cf-4af0acc5e2d6","system_id":"levelo_inurba_marseille","lat":43.32391,"lon":5.367743,"is_reserved":false,"is_disabled":false,"rental_uris":{"android":"levelo://app?vid=78e4331f-c67f-4812-a1cf-4af0acc5e2d6","ios":"levelo://app?vid=78e4331f-c67f-4812-a1cf-4af0acc5e2d6"},"vehicle_type_id":"4","last_reported":1749737443,"current_range_meters":16400,"station_id":"ce4bhsh2rcd13ifvqi2g","pricing_plan_id":"cebpf4jnsgd1na2vs0mg"},{"bike_id":"13c243cd-9cd7-41ad-a6fc-cb8f0f4eabf6","system_id":"levelo_inurba_marseille","lat":43.21755,"lon":5.34598,"is_reserved":false,"is_disabled":false,"rental_uris":{"android":"levelo://app?vid=13c243cd-9cd7-41ad-a6fc-cb8f0f4eabf6","ios":"levelo://app?vid=13c243cd-9cd7-41ad-a6fc-cb8f0f4eabf6"},"vehicle_type_id":"4","last_reported":1749737443,"current_range_meters":16400,"station_id":"st_cvj6r9ubvosntc0bgbag","pricing_plan_id":"cebpf4jnsgd1na2vs0mg"},{"bike_id":"346f3f80-6b15-4406-b905-bb78596f5bac","system_id":"levelo_inurba_marseille","lat":43.32361,"lon":5.367,"is_reserved":false,"is_disabled":false,"rental_uris":{"android":"levelo://app?vid=346f3f80-6b15-4406-b905-bb78596f5bac","ios":"levelo://app?vid=346f3f80-6b15-4406-b905-bb78596f5bac"},"vehicle_type_id":"4","last_reported":1749737443,"current_range_meters":16800,"station_id":"","pricing_plan_id":"cebpf4jnsgd1na2vs0mg"},{"bike_id":"bfe18978-b572-4ad5-8a87-b5fd0b4204ed","system_id":"levelo_inurba_marseille","lat":43.29975,"lon":5.37168,"is_reserved":false,"is_disabled":false,"rental_uris":{"android":"levelo://app?vid=bfe18978-b572-4ad5-8a87-b5fd0b4204ed","ios":"levelo://app?vid=bfe18978-b572-4ad5-8a87-b5fd0b4204ed"},"vehicle_type_id":"4","last_reported":1749737443,"current_range_meters":16800,"station_id":"ce4bgr92rcd13ifvqc7g","pricing_plan_id":"cebpf4jnsgd1na2vs0mg"},{"bike_id":"d0f3ebc6-3edf-4190-9e63-1300aa3126d9","system_id":"levelo_inurba_marseille","lat":43.29258,"lon":5.38448,"is_reserved":false,"is_disabled":false,"rental_uris":{"android":"levelo://app?vid=d0f3ebc6-3edf-4190-9e63-1300aa3126d9","ios":"levelo://app?vid=d0f3ebc6-3edf-4190-9e63-1300aa3126d9"},"vehicle_type_id":"4","last_reported":1749737443,"current_range_meters":16800,"station_id":"ce4bh692rcd13ifvqea0","pricing_plan_id":"cebpf4jnsgd1na2vs0mg"},{"bike_id":"2b341cff-c94d-4ef2-8a0f-90f326cfd912","system_id":"levelo_inurba_marseille","lat":43.29,"lon":5.35602,"is_reserved":false,"is_disabled":false,"rental_uris":{"android":"levelo://app?vid=2b341cff-c94d-4ef2-8a0f-90f326cfd912","ios":"levelo://app?vid=2b341cff-c94d-4ef2-8a0f-90f326cfd912"},"vehicle_type_id":"4","last_reported":1749737443,"current_range_meters":16800,"station_id":"ce4bhb92rcd13ifvqen0","pricing_plan_id":"cebpf4jnsgd1na2vs0mg"},{"bike_id":"b2798195-4fce-46b6-9218-5d7d2f4fa6a6","system_id":"levelo_inurba_marseille","lat":43.29533,"lon":5.42288,"is_reserved":false,"is_disabled":false,"rental_uris":{"android":"levelo://app?vid=b2798195-4fce-46b6-9218-5d7d2f4fa6a6","ios":"levelo://app?vid=b2798195-4fce-46b6-9218-5d7d2f4fa6a6"},"vehicle_type_id":"4","last_reported":1749737443,"current_range_meters":16800,"station_id":"ce4bhph2rcd13ifvqhdg","pricing_plan_id":"cebpf4jnsgd1na2vs0mg"},{"bike_id":"41902e46-3363-402b-89a9-77321257c96b","system_id":"levelo_inurba_marseille","lat":43.32374,"lon":5.36735,"is_reserved":false,"is_disabled":false,"rental_uris":{"android":"levelo://app?vid=41902e46-3363-402b-89a9-77321257c96b","ios":"levelo://app?vid=41902e46-3363-402b-89a9-77321257c96b"},"vehicle_type_id":"4","last_reported":1749737443,"current_range_meters":16800,"station_id":"ce4bhsh2rcd13ifvqi2g","pricing_plan_id":"cebpf4jnsgd1na2vs0mg"},{"bike_id":"fa2ca940-2ef4-42c3-88d8-76169aa9efd4","system_id":"levelo_inurba_marseille","lat":43.295684,"lon":5.375232,"is_reserved":false,"is_disabled":false,"rental_uris":{"android":"levelo://app?vid=fa2ca940-2ef4-42c3-88d8-76169aa9efd4","ios":"levelo://app?vid=fa2ca940-2ef4-42c3-88d8-76169aa9efd4"},"vehicle_type_id":"4","last_reported":1749737443,"current_range_meters":17200,"station_id":"ce4bgh92rcd13ifvqb50","pricing_plan_id":"cebpf4jnsgd1na2vs0mg"},{"bike_id":"93eb3566-a86e-4251-a065-6498c0a4f19c","system_id":"levelo_inurba_marseille","lat":43.27376,"lon":5.36262,"is_reserved":false,"is_disabled":false,"rental_uris":{"android":"levelo://app?vid=93eb3566-a86e-4251-a065-6498c0a4f19c","ios":"levelo://app?vid=93eb3566-a86e-4251-a065-6498c0a4f19c"},"vehicle_type_id":"4","last_reported":1749737443,"current_range_meters":17200,"station_id":"ce4bhbh2rcd13ifvqeo0","pricing_plan_id":"cebpf4jnsgd1na2vs0mg"},{"bike_id":"ca49d5a7-39ea-4a01-b407-8308522d74fb","system_id":"levelo_inurba_marseille","lat":43.27435,"lon":5.39399,"is_reserved":false,"is_disabled":false,"rental_uris":{"android":"levelo://app?vid=ca49d5a7-39ea-4a01-b407-8308522d74fb","ios":"levelo://app?vid=ca49d5a7-39ea-4a01-b407-8308522d74fb"},"vehicle_type_id":"4","last_reported":1749737443,"current_range_meters":17200,"station_id":"ce4bhdp2rcd13ifvqf20","pricing_plan_id":"cebpf4jnsgd1na2vs0mg"},{"bike_id":"1c63d182-997d-4bee-95d1-bd42b1b0f810","system_id":"levelo_inurba_marseille","lat":43.26217,"lon":5.37438,"is_reserved":false,"is_disabled":false,"rental_uris":{"android":"levelo://app?vid=1c63d182-997d-4bee-95d1-bd42b1b0f810","ios":"levelo://app?vid=1c63d182-997d-4bee-95d1-bd42b1b0f810"},"vehicle_type_id":"4","last_reported":1749737443,"current_range_meters":17200,"station_id":"ce4bhgp2rcd13ifvqfc0","pricing_plan_id":"cebpf4jnsgd1na2vs0mg"},{"bike_id":"0a7fd60e-79bc-44a5-a70c-2a0122823df7","system_id":"levelo_inurba_marseille","lat":43.25702,"lon":5.411,"is_reserved":false,"is_disabled":false,"rental_uris":{"android":"levelo://app?vid=0a7fd60e-79bc-44a5-a70c-2a0122823df7","ios":"levelo://app?vid=0a7fd60e-79bc-44a5-a70c-2a0122823df7"},"vehicle_type_id":"4","last_reported":1749737443,"current_range_meters":17200,"station_id":"ce4bhkp2rcd13ifvqgd0","pricing_plan_id":"cebpf4jnsgd1na2vs0mg"},{"bike_id":"4a1ebb57-de4c-466d-8a5a-f3907adc6246","system_id":"levelo_inurba_marseille","lat":43.27939,"lon":5.41051,"is_reserved":false,"is_disabled":false,"rental_uris":{"android":"levelo://app?vid=4a1ebb57-de4c-466d-8a5a-f3907adc6246","ios":"levelo://app?vid=4a1ebb57-de4c-466d-8a5a-f3907adc6246"},"vehicle_type_id":"4","last_reported":1749737443,"current_range_meters":17200,"station_id":"ce4bhnp2rcd13ifvqh0g","pricing_plan_id":"cebpf4jnsgd1na2vs0mg"},{"bike_id":"5cdc677d-7be2-4709-87fc-1213956154df","system_id":"levelo_inurba_marseille","lat":43.21179,"lon":5.35078,"is_reserved":false,"is_disabled":false,"rental_uris":{"android":"levelo://app?vid=5cdc677d-7be2-4709-87fc-1213956154df","ios":"levelo://app?vid=5cdc677d-7be2-4709-87fc-1213956154df"},"vehicle_type_id":"4","last_reported":1749737443,"current_range_meters":17200,"station_id":"st_cvj6sg6p6f1abm77japg","pricing_plan_id":"cebpf4jnsgd1na2vs0mg"},{"bike_id":"62c0da7f-aff9-4ffa-86b8-6966d8f0e555","system_id":"levelo_inurba_marseille","lat":43.211946,"lon":5.350563,"is_reserved":false,"is_disabled":false,"rental_uris":{"android":"levelo://app?vid=62c0da7f-aff9-4ffa-86b8-6966d8f0e555","ios":"levelo://app?vid=62c0da7f-aff9-4ffa-86b8-6966d8f0e555"},"vehicle_type_id":"4","last_reported":1749737443,"current_range_meters":17200,"station_id":"st_cvj6sg6p6f1abm77japg","pricing_plan_id":"cebpf4jnsgd1na2vs0mg"},{"bike_id":"600da287-0374-4ee0-bea4-ba6902340b5e","system_id":"levelo_inurba_marseille","lat":43.27476,"lon":5.36006,"is_reserved":false,"is_disabled":false,"rental_uris":{"android":"levelo://app?vid=600da287-0374-4ee0-bea4-ba6902340b5e","ios":"levelo://app?vid=600da287-0374-4ee0-bea4-ba6902340b5e"},"vehicle_type_id":"4","last_reported":1749737443,"current_range_meters":17600,"station_id":"","pricing_plan_id":"cebpf4jnsgd1na2vs0mg"},{"bike_id":"11a7710f-084d-413d-abc1-c587a947a05e","system_id":"levelo_inurba_marseille","lat":43.268151,"lon":5.390633,"is_reserved":false,"is_disabled":false,"rental_uris":{"android":"levelo://app?vid=11a7710f-084d-413d-abc1-c587a947a05e","ios":"levelo://app?vid=11a7710f-084d-413d-abc1-c587a947a05e"},"vehicle_type_id":"4","last_reported":1749737443,"current_range_meters":17600,"station_id":"","pricing_plan_id":"cebpf4jnsgd1na2vs0mg"},{"bike_id":"45557f6f-9f3c-4b30-a961-76d7fef79fd0","system_id":"levelo_inurba_marseille","lat":43.306022,"lon":5.393658,"is_reserved":false,"is_disabled":false,"rental_uris":{"android":"levelo://app?vid=45557f6f-9f3c-4b30-a961-76d7fef79fd0","ios":"levelo://app?vid=45557f6f-9f3c-4b30-a961-76d7fef79fd0"},"vehicle_type_id":"4","last_reported":1749737443,"current_range_meters":17600,"station_id":"ce4bh0p2rcd13ifvqd80","pricing_plan_id":"cebpf4jnsgd1na2vs0mg"},{"bike_id":"2465ca7d-6854-4ba3-9542-793094707cab","system_id":"levelo_inurba_marseille","lat":43.28942,"lon":5.36641,"is_reserved":false,"is_disabled":false,"rental_uris":{"android":"levelo://app?vid=2465ca7d-6854-4ba3-9542-793094707cab","ios":"levelo://app?vid=2465ca7d-6854-4ba3-9542-793094707cab"},"vehicle_type_id":"4","last_reported":1749737443,"current_range_meters":17600,"station_id":"ce4bhap2rcd13ifvqek0","pricing_plan_id":"cebpf4jnsgd1na2vs0mg"},{"bike_id":"ac283712-ce97-4912-9bc4-bb650d19701d","system_id":"levelo_inurba_marseille","lat":43.26563,"lon":5.39014,"is_reserved":false,"is_disabled":false,"rental_uris":{"android":"levelo://app?vid=ac283712-ce97-4912-9bc4-bb650d19701d","ios":"levelo://app?vid=ac283712-ce97-4912-9bc4-bb650d19701d"},"vehicle_type_id":"4","last_reported":1749737443,"current_range_meters":17600,"station_id":"ce4bhe12rcd13ifvqf30","pricing_plan_id":"cebpf4jnsgd1na2vs0mg"},{"bike_id":"d81e5e14-83b0-4611-b7d5-283e9326033a","system_id":"levelo_inurba_marseille","lat":43.28072,"lon":5.39654,"is_reserved":false,"is_disabled":false,"rental_uris":{"android":"levelo://app?vid=d81e5e14-83b0-4611-b7d5-283e9326033a","ios":"levelo://app?vid=d81e5e14-83b0-4611-b7d5-283e9326033a"},"vehicle_type_id":"4","last_reported":1749737443,"current_range_meters":17600,"station_id":"ce4bho12rcd13ifvqh2g","pricing_plan_id":"cebpf4jnsgd1na2vs0mg"},{"bike_id":"e8639d85-2d2a-429d-bcfe-f3a304f2fccb","system_id":"levelo_inurba_marseille","lat":43.33753,"lon":5.37485,"is_reserved":false,"is_disabled":false,"rental_uris":{"android":"levelo://app?vid=e8639d85-2d2a-429d-bcfe-f3a304f2fccb","ios":"levelo://app?vid=e8639d85-2d2a-429d-bcfe-f3a304f2fccb"},"vehicle_type_id":"4","last_reported":1749737443,"current_range_meters":18000,"station_id":"","pricing_plan_id":"cebpf4jnsgd1na2vs0mg"},{"bike_id":"6facbc0d-f1b5-4dc3-86d4-5c1204834925","system_id":"levelo_inurba_marseille","lat":43.28103,"lon":5.34847,"is_reserved":false,"is_disabled":false,"rental_uris":{"android":"levelo://app?vid=6facbc0d-f1b5-4dc3-86d4-5c1204834925","ios":"levelo://app?vid=6facbc0d-f1b5-4dc3-86d4-5c1204834925"},"vehicle_type_id":"4","last_reported":1749737443,"current_range_meters":18000,"station_id":"","pricing_plan_id":"cebpf4jnsgd1na2vs0mg"},{"bike_id":"850e96ac-854a-4393-b195-6b1f32efcb6f","system_id":"levelo_inurba_marseille","lat":43.30592,"lon":5.39358,"is_reserved":false,"is_disabled":false,"rental_uris":{"android":"levelo://app?vid=850e96ac-854a-4393-b195-6b1f32efcb6f","ios":"levelo://app?vid=850e96ac-854a-4393-b195-6b1f32efcb6f"},"vehicle_type_id":"4","last_reported":1749737443,"current_range_meters":18000,"station_id":"ce4bh0p2rcd13ifvqd80","pricing_plan_id":"cebpf4jnsgd1na2vs0mg"},{"bike_id":"2d94d84a-9027-4ed6-949f-11d42e2b6602","system_id":"levelo_inurba_marseille","lat":43.28418,"lon":5.34975,"is_reserved":false,"is_disabled":false,"rental_uris":{"android":"levelo://app?vid=2d94d84a-9027-4ed6-949f-11d42e2b6602","ios":"levelo://app?vid=2d94d84a-9027-4ed6-949f-11d42e2b6602"},"vehicle_type_id":"4","last_reported":1749737443,"current_range_meters":18000,"station_id":"ce4bhbh2rcd13ifvqepg","pricing_plan_id":"cebpf4jnsgd1na2vs0mg"},{"bike_id":"41ce87af-bd3a-457b-96b6-41ca14b2d7b5","system_id":"levelo_inurba_marseille","lat":43.28265,"lon":5.35063,"is_reserved":false,"is_disabled":false,"rental_uris":{"android":"levelo://app?vid=41ce87af-bd3a-457b-96b6-41ca14b2d7b5","ios":"levelo://app?vid=41ce87af-bd3a-457b-96b6-41ca14b2d7b5"},"vehicle_type_id":"4","last_reported":1749737443,"current_range_meters":18000,"station_id":"ce4bhbp2rcd13ifvqerg","pricing_plan_id":"cebpf4jnsgd1na2vs0mg"},{"bike_id":"eb033ce6-a585-4e6e-b61e-8ddb3c04724d","system_id":"levelo_inurba_marseille","lat":43.28614,"lon":5.35094,"is_reserved":false,"is_disabled":false,"rental_uris":{"android":"levelo://app?vid=eb033ce6-a585-4e6e-b61e-8ddb3c04724d","ios":"levelo://app?vid=eb033ce6-a585-4e6e-b61e-8ddb3c04724d"},"vehicle_type_id":"4","last_reported":1749737443,"current_range_meters":18000,"station_id":"ce4bhch2rcd13ifvqeug","pricing_plan_id":"cebpf4jnsgd1na2vs0mg"},{"bike_id":"fbab353d-c351-4809-8f41-9640905d5e1e","system_id":"levelo_inurba_marseille","lat":43.26676,"lon":5.3826,"is_reserved":false,"is_disabled":false,"rental_uris":{"android":"levelo://app?vid=fbab353d-c351-4809-8f41-9640905d5e1e","ios":"levelo://app?vid=fbab353d-c351-4809-8f41-9640905d5e1e"},"vehicle_type_id":"4","last_reported":1749737443,"current_range_meters":18000,"station_id":"ce4bhg92rcd13ifvqf90","pricing_plan_id":"cebpf4jnsgd1na2vs0mg"},{"bike_id":"28eabedf-d475-48d3-8501-b387f8a66189","system_id":"levelo_inurba_marseille","lat":43.24385,"lon":5.37064,"is_reserved":false,"is_disabled":false,"rental_uris":{"android":"levelo://app?vid=28eabedf-d475-48d3-8501-b387f8a66189","ios":"levelo://app?vid=28eabedf-d475-48d3-8501-b387f8a66189"},"vehicle_type_id":"4","last_reported":1749737443,"current_range_meters":18000,"station_id":"ce4bhhh2rcd13ifvqfk0","pricing_plan_id":"cebpf4jnsgd1na2vs0mg"},{"bike_id":"09f63c8a-a282-4cbe-8836-96dd728b16fa","system_id":"levelo_inurba_marseille","lat":43.24188,"lon":5.39726,"is_reserved":false,"is_disabled":false,"rental_uris":{"android":"levelo://app?vid=09f63c8a-a282-4cbe-8836-96dd728b16fa","ios":"levelo://app?vid=09f63c8a-a282-4cbe-8836-96dd728b16fa"},"vehicle_type_id":"4","last_reported":1749737443,"current_range_meters":18000,"station_id":"ce4bhn12rcd13ifvqgpg","pricing_plan_id":"cebpf4jnsgd1na2vs0mg"},{"bike_id":"326cc913-bdbc-48c2-9a88-414846f09512","system_id":"levelo_inurba_marseille","lat":43.32368,"lon":5.3673,"is_reserved":false,"is_disabled":false,"rental_uris":{"android":"levelo://app?vid=326cc913-bdbc-48c2-9a88-414846f09512","ios":"levelo://app?vid=326cc913-bdbc-48c2-9a88-414846f09512"},"vehicle_type_id":"4","last_reported":1749737443,"current_range_meters":18000,"station_id":"ce4bhsh2rcd13ifvqi2g","pricing_plan_id":"cebpf4jnsgd1na2vs0mg"},{"bike_id":"92730cd5-1e62-4687-b41f-f0c45944f02e","system_id":"levelo_inurba_marseille","lat":43.23189,"lon":5.355387,"is_reserved":false,"is_disabled":false,"rental_uris":{"android":"levelo://app?vid=92730cd5-1e62-4687-b41f-f0c45944f02e","ios":"levelo://app?vid=92730cd5-1e62-4687-b41f-f0c45944f02e"},"vehicle_type_id":"4","last_reported":1749737443,"current_range_meters":18000,"station_id":"ce4bhu92rcd13ifvqi70","pricing_plan_id":"cebpf4jnsgd1na2vs0mg"},{"bike_id":"075c05ec-b3c9-44c3-b57f-1083abf2ca61","system_id":"levelo_inurba_marseille","lat":43.2712,"lon":5.42625,"is_reserved":false,"is_disabled":false,"rental_uris":{"android":"levelo://app?vid=075c05ec-b3c9-44c3-b57f-1083abf2ca61","ios":"levelo://app?vid=075c05ec-b3c9-44c3-b57f-1083abf2ca61"},"vehicle_type_id":"4","last_reported":1749737443,"current_range_meters":18800,"station_id":"","pricing_plan_id":"cebpf4jnsgd1na2vs0mg"},{"bike_id":"3d243e1c-a883-4bc3-9c15-b8da6e60785b","system_id":"levelo_inurba_marseille","lat":43.26848,"lon":5.42852,"is_reserved":false,"is_disabled":false,"rental_uris":{"android":"levelo://app?vid=3d243e1c-a883-4bc3-9c15-b8da6e60785b","ios":"levelo://app?vid=3d243e1c-a883-4bc3-9c15-b8da6e60785b"},"vehicle_type_id":"4","last_reported":1749737443,"current_range_meters":18800,"station_id":"","pricing_plan_id":"cebpf4jnsgd1na2vs0mg"},{"bike_id":"2bae304d-06f7-450f-9c20-63d800e700e2","system_id":"levelo_inurba_marseille","lat":43.31739,"lon":5.38126,"is_reserved":false,"is_disabled":false,"rental_uris":{"android":"levelo://app?vid=2bae304d-06f7-450f-9c20-63d800e700e2","ios":"levelo://app?vid=2bae304d-06f7-450f-9c20-63d800e700e2"},"vehicle_type_id":"4","last_reported":1749737443,"current_range_meters":18800,"station_id":"","pricing_plan_id":"cebpf4jnsgd1na2vs0mg"},{"bike_id":"713f94e3-c67e-4836-bdd5-cfe7bb1b1281","system_id":"levelo_inurba_marseille","lat":43.22503,"lon":5.34782,"is_reserved":false,"is_disabled":false,"rental_uris":{"android":"levelo://app?vid=713f94e3-c67e-4836-bdd5-cfe7bb1b1281","ios":"levelo://app?vid=713f94e3-c67e-4836-bdd5-cfe7bb1b1281"},"vehicle_type_id":"4","last_reported":1749737443,"current_range_meters":18800,"station_id":"","pricing_plan_id":"cebpf4jnsgd1na2vs0mg"},{"bike_id":"5be377e0-019d-4327-9c41-f377d0ea2623","system_id":"levelo_inurba_marseille","lat":43.28982,"lon":5.37837,"is_reserved":false,"is_disabled":false,"rental_uris":{"android":"levelo://app?vid=5be377e0-019d-4327-9c41-f377d0ea2623","ios":"levelo://app?vid=5be377e0-019d-4327-9c41-f377d0ea2623"},"vehicle_type_id":"4","last_reported":1749737443,"current_range_meters":18800,"station_id":"ce4bh9p2rcd13ifvqed0","pricing_plan_id":"cebpf4jnsgd1na2vs0mg"},{"bike_id":"13453308-2f21-428e-a3fd-da2768a84d1b","system_id":"levelo_inurba_marseille","lat":43.28031,"lon":5.36961,"is_reserved":false,"is_disabled":false,"rental_uris":{"android":"levelo://app?vid=13453308-2f21-428e-a3fd-da2768a84d1b","ios":"levelo://app?vid=13453308-2f21-428e-a3fd-da2768a84d1b"},"vehicle_type_id":"4","last_reported":1749737443,"current_range_meters":18800,"station_id":"ce4bha12rcd13ifvqef0","pricing_plan_id":"cebpf4jnsgd1na2vs0mg"},{"bike_id":"09a77d6a-db8b-428e-b5d2-68c96c6e5acb","system_id":"levelo_inurba_marseille","lat":43.26208,"lon":5.37443,"is_reserved":false,"is_disabled":false,"rental_uris":{"android":"levelo://app?vid=09a77d6a-db8b-428e-b5d2-68c96c6e5acb","ios":"levelo://app?vid=09a77d6a-db8b-428e-b5d2-68c96c6e5acb"},"vehicle_type_id":"4","last_reported":1749737443,"current_range_meters":18800,"station_id":"ce4bhgp2rcd13ifvqfc0","pricing_plan_id":"cebpf4jnsgd1na2vs0mg"},{"bike_id":"3a3002f6-02fb-48dd-940a-e945c31107a7","system_id":"levelo_inurba_marseille","lat":43.272096,"lon":5.391975,"is_reserved":false,"is_disabled":false,"rental_uris":{"android":"levelo://app?vid=3a3002f6-02fb-48dd-940a-e945c31107a7","ios":"levelo://app?vid=3a3002f6-02fb-48dd-940a-e945c31107a7"},"vehicle_type_id":"4","last_reported":1749737443,"current_range_meters":18800,"station_id":"ce4bhhp2rcd13ifvqfm0","pricing_plan_id":"cebpf4jnsgd1na2vs0mg"},{"bike_id":"a2aca07b-70e8-427c-8bd5-4177bf9e5693","system_id":"levelo_inurba_marseille","lat":43.30419,"lon":5.41283,"is_reserved":false,"is_disabled":false,"rental_uris":{"android":"levelo://app?vid=a2aca07b-70e8-427c-8bd5-4177bf9e5693","ios":"levelo://app?vid=a2aca07b-70e8-427c-8bd5-4177bf9e5693"},"vehicle_type_id":"4","last_reported":1749737443,"current_range_meters":18800,"station_id":"ce4bhop2rcd13ifvqh8g","pricing_plan_id":"cebpf4jnsgd1na2vs0mg"},{"bike_id":"8b8c9fd7-78e5-4baf-a748-d17d876b3816","system_id":"levelo_inurba_marseille","lat":43.29551,"lon":5.42298,"is_reserved":false,"is_disabled":false,"rental_uris":{"android":"levelo://app?vid=8b8c9fd7-78e5-4baf-a748-d17d876b3816","ios":"levelo://app?vid=8b8c9fd7-78e5-4baf-a748-d17d876b3816"},"vehicle_type_id":"4","last_reported":1749737443,"current_range_meters":18800,"station_id":"ce4bhph2rcd13ifvqhdg","pricing_plan_id":"cebpf4jnsgd1na2vs0mg"},{"bike_id":"ef8f2924-50e0-41af-91d5-338d180db502","system_id":"levelo_inurba_marseille","lat":43.21741,"lon":5.34607,"is_reserved":false,"is_disabled":false,"rental_uris":{"android":"levelo://app?vid=ef8f2924-50e0-41af-91d5-338d180db502","ios":"levelo://app?vid=ef8f2924-50e0-41af-91d5-338d180db502"},"vehicle_type_id":"4","last_reported":1749737443,"current_range_meters":18800,"station_id":"st_cvj6r9ubvosntc0bgbag","pricing_plan_id":"cebpf4jnsgd1na2vs0mg"},{"bike_id":"4a5e5322-1ec3-4365-83b9-cece4c20f53c","system_id":"levelo_inurba_marseille","lat":43.29573,"lon":5.36762,"is_reserved":false,"is_disabled":false,"rental_uris":{"android":"levelo://app?vid=4a5e5322-1ec3-4365-83b9-cece4c20f53c","ios":"levelo://app?vid=4a5e5322-1ec3-4365-83b9-cece4c20f53c"},"vehicle_type_id":"4","last_reported":1749737443,"current_range_meters":19200,"station_id":"ce4bgph2rcd13ifvqc2g","pricing_plan_id":"cebpf4jnsgd1na2vs0mg"},{"bike_id":"7ef4f0d8-ef91-431d-82fb-14d51fb73eb6","system_id":"levelo_inurba_marseille","lat":43.29853,"lon":5.36287,"is_reserved":false,"is_disabled":false,"rental_uris":{"android":"levelo://app?vid=7ef4f0d8-ef91-431d-82fb-14d51fb73eb6","ios":"levelo://app?vid=7ef4f0d8-ef91-431d-82fb-14d51fb73eb6"},"vehicle_type_id":"4","last_reported":1749737443,"current_range_meters":19200,"station_id":"ce4bgpp2rcd13ifvqc3g","pricing_plan_id":"cebpf4jnsgd1na2vs0mg"},{"bike_id":"57d6588a-c097-415d-b7b3-53ac48eadcf2","system_id":"levelo_inurba_marseille","lat":43.29283,"lon":5.401197,"is_reserved":false,"is_disabled":false,"rental_uris":{"android":"levelo://app?vid=57d6588a-c097-415d-b7b3-53ac48eadcf2","ios":"levelo://app?vid=57d6588a-c097-415d-b7b3-53ac48eadcf2"},"vehicle_type_id":"4","last_reported":1749737443,"current_range_meters":19200,"station_id":"ce4bh312rcd13ifvqdk0","pricing_plan_id":"cebpf4jnsgd1na2vs0mg"},{"bike_id":"0dbdb2e2-4d99-4f09-b359-b263f48871c7","system_id":"levelo_inurba_marseille","lat":43.27915,"lon":5.39578,"is_reserved":false,"is_disabled":false,"rental_uris":{"android":"levelo://app?vid=0dbdb2e2-4d99-4f09-b359-b263f48871c7","ios":"levelo://app?vid=0dbdb2e2-4d99-4f09-b359-b263f48871c7"},"vehicle_type_id":"4","last_reported":1749737443,"current_range_meters":19200,"station_id":"ce4bhf92rcd13ifvqf40","pricing_plan_id":"cebpf4jnsgd1na2vs0mg"},{"bike_id":"8fb3d286-2733-41b7-ba75-10cbffee1fbc","system_id":"levelo_inurba_marseille","lat":43.268037,"lon":5.402683,"is_reserved":false,"is_disabled":false,"rental_uris":{"android":"levelo://app?vid=8fb3d286-2733-41b7-ba75-10cbffee1fbc","ios":"levelo://app?vid=8fb3d286-2733-41b7-ba75-10cbffee1fbc"},"vehicle_type_id":"4","last_reported":1749737443,"current_range_meters":19200,"station_id":"ce501612rcd8frsf0b60","pricing_plan_id":"cebpf4jnsgd1na2vs0mg"},{"bike_id":"34595850-f982-42b7-a8fa-5129353459d0","system_id":"levelo_inurba_marseille","lat":43.24175,"lon":5.36437,"is_reserved":false,"is_disabled":false,"rental_uris":{"android":"levelo://app?vid=34595850-f982-42b7-a8fa-5129353459d0","ios":"levelo://app?vid=34595850-f982-42b7-a8fa-5129353459d0"},"vehicle_type_id":"4","last_reported":1749737443,"current_range_meters":19200,"station_id":"cpo36qri1sfpv3e86is0","pricing_plan_id":"cebpf4jnsgd1na2vs0mg"},{"bike_id":"25c46408-a352-47a0-8827-b707b4a6c5d2","system_id":"levelo_inurba_marseille","lat":43.28612,"lon":5.35115,"is_reserved":false,"is_disabled":false,"rental_uris":{"android":"levelo://app?vid=25c46408-a352-47a0-8827-b707b4a6c5d2","ios":"levelo://app?vid=25c46408-a352-47a0-8827-b707b4a6c5d2"},"vehicle_type_id":"4","last_reported":1749737443,"current_range_meters":19600,"station_id":"ce4bhch2rcd13ifvqeug","pricing_plan_id":"cebpf4jnsgd1na2vs0mg"},{"bike_id":"53ed7bca-5bf0-49b1-9179-a5275873190f","system_id":"levelo_inurba_marseille","lat":43.24641,"lon":5.38899,"is_reserved":false,"is_disabled":false,"rental_uris":{"android":"levelo://app?vid=53ed7bca-5bf0-49b1-9179-a5275873190f","ios":"levelo://app?vid=53ed7bca-5bf0-49b1-9179-a5275873190f"},"vehicle_type_id":"4","last_reported":1749737443,"current_range_meters":19600,"station_id":"ce4bhg12rcd13ifvqf60","pricing_plan_id":"cebpf4jnsgd1na2vs0mg"},{"bike_id":"ebde0757-a94a-4915-8c86-60ad7ee049c4","system_id":"levelo_inurba_marseille","lat":43.23178,"lon":5.35541,"is_reserved":false,"is_disabled":false,"rental_uris":{"android":"levelo://app?vid=ebde0757-a94a-4915-8c86-60ad7ee049c4","ios":"levelo://app?vid=ebde0757-a94a-4915-8c86-60ad7ee049c4"},"vehicle_type_id":"4","last_reported":1749737443,"current_range_meters":19600,"station_id":"ce4bhu92rcd13ifvqi70","pricing_plan_id":"cebpf4jnsgd1na2vs0mg"},{"bike_id":"f18a0601-1dad-46f4-a79d-606dc3308886","system_id":"levelo_inurba_marseille","lat":43.21753,"lon":5.34604,"is_reserved":false,"is_disabled":false,"rental_uris":{"android":"levelo://app?vid=f18a0601-1dad-46f4-a79d-606dc3308886","ios":"levelo://app?vid=f18a0601-1dad-46f4-a79d-606dc3308886"},"vehicle_type_id":"4","last_reported":1749737443,"current_range_meters":19600,"station_id":"st_cvj6r9ubvosntc0bgbag","pricing_plan_id":"cebpf4jnsgd1na2vs0mg"},{"bike_id":"2d9eb491-ef60-4c87-8fa5-c0a977f848da","system_id":"levelo_inurba_marseille","lat":43.21195,"lon":5.350754,"is_reserved":false,"is_disabled":false,"rental_uris":{"android":"levelo://app?vid=2d9eb491-ef60-4c87-8fa5-c0a977f848da","ios":"levelo://app?vid=2d9eb491-ef60-4c87-8fa5-c0a977f848da"},"vehicle_type_id":"4","last_reported":1749737443,"current_range_meters":19600,"station_id":"st_cvj6sg6p6f1abm77japg","pricing_plan_id":"cebpf4jnsgd1na2vs0mg"},{"bike_id":"3b2851dc-cdc3-4c74-bb7a-6b50ea5674bc","system_id":"levelo_inurba_marseille","lat":43.31627,"lon":5.3841,"is_reserved":false,"is_disabled":false,"rental_uris":{"android":"levelo://app?vid=3b2851dc-cdc3-4c74-bb7a-6b50ea5674bc","ios":"levelo://app?vid=3b2851dc-cdc3-4c74-bb7a-6b50ea5674bc"},"vehicle_type_id":"4","last_reported":1749737443,"current_range_meters":20000,"station_id":"","pricing_plan_id":"cebpf4jnsgd1na2vs0mg"},