{"last_updated":1702663753,"ttl":30,"version":"2.2","data":{"bikes":[{"bike_id":"46e2e0d9-f5a3-4e72-bb21-8b9599ab1efc","system_id":"levelo_inurba_marseille","lat":43.312239,"lon":5.368562,"is_reserved":false,"is_disabled":false,"rental_uris":{"android":"levelo://app?vid=46e2e0d9-f5a3-4e72-bb21-8b9599ab1efc","ios":"levelo://app?vid=46e2e0d9-f5a3-4e72-bb21-8b9599ab1efc"},"vehicle_type_id":"4","last_reported":1702663753,"current_range_meters":6000,"station_id":"ce4bgl92rcd13ifvqbq0","pricing_plan_id":"free"},{"bike_id":"173ddada-5b34-4078-9504-4709075bf474","system_id":"levelo_inurba_marseille","lat":43.314811,"lon":5.373104,"is_reserved":false,"is_disabled":false,"rental_uris":{"android":"levelo://app?vid=173ddada-5b34-4078-9504-4709075bf474","ios":"levelo://app?vid=173ddada-5b34-4078-9504-4709075bf474"},"vehicle_type_id":"4","last_reported":1702663753,"current_range_meters":3600,"station_id":"ce4bgt12rcd13ifvqcd0","pricing_plan_id":"free"},{"bike_id":"3f8b821f-e430-4a35-bf14-f8b6e777ea11","system_id":"levelo_inurba_marseille","lat":43.313939,"lon":5.375306,"is_reserved":false,"is_disabled":false,"rental_uris":{"android":"levelo://app?vid=3f8b821f-e430-4a35-bf14-f8b6e777ea11","ios":"levelo://app?vid=3f8b821f-e430-4a35-bf14-f8b6e777ea11"},"vehicle_type_id":"4","last_reported":1702663753,"current_range_meters":0,"station_id":"","pricing_plan_id":"free"},{"bike_id":"48786aa4-70b6-4e0a-8279-7792130cc9a4","system_id":"levelo_inurba_marseille","lat":43.305714,"lon":5.365633,"is_reserved":false,"is_disabled":false,"rental_uris":{"android":"levelo://app?vid=48786aa4-70b6-4e0a-8279-7792130cc9a4","ios":"levelo://app?vid=48786aa4-70b6-4e0a-8279-7792130cc9a4"},"vehicle_type_id":"4","last_reported":1702663753,"current_range_meters":10000,"station_id":"ce4bgs12rcd13ifvqcag","pricing_plan_id":"free"},{"bike_id":"955e4ab2-16e5-44e8-a986-a2f50ff96c06","system_id":"levelo_inurba_marseille","lat":43.305382,"lon":5.365389,"is_reserved":false,"is_disabled":false,"rental_uris":{"android":"levelo://app?vid=955e4ab2-16e5-44e8-a986-a2f50ff96c06","ios":"levelo://app?vid=955e4ab2-16e5-44e8-a986-a2f50ff96c06"},"vehicle_type_id":"4","last_reported":1702663753,"current_range_meters":18400,"station_id":"","pricing_plan_id":"free"},{"bike_id":"15aead00-72c7-4f8a-af9e-a29a457d8529","system_id":"levelo_inurba_marseille","lat":43.31108,"lon":5.37758,"is_reserved":false,"is_disabled":false,"rental_uris":{"android":"levelo://app?vid=15aead00-72c7-4f8a-af9e-a29a457d8529","ios":"levelo://app?vid=15aead00-72c7-4f8a-af9e-a29a457d8529"},"vehicle_type_id":"4","last_reported":1702663753,"current_range_meters":16800,"station_id":"ce4bgt92rcd13ifvqcg0","pricing_plan_id":"free"},{"bike_id":"5fee9a9c-d585-498d-b0f6-40b6eaf7417b","system_id":"levelo_inurba_marseille","lat":43.31699,"lon":5.377655,"is_reserved":false,"is_disabled":false,"rental_uris":{"android":"levelo://app?vid=5fee9a9c-d585-498d-b0f6-40b6eaf7417b","ios":"levelo://app?vid=5fee9a9c-d585-498d-b0f6-40b6eaf7417b"},"vehicle_type_id":"4","last_reported":1702663753,"current_range_meters":2400,"station_id":"ce4bgth2rcd13ifvqch0","pricing_plan_id":"free"},{"bike_id":"112889bc-8d0f-431d-9767-314715ea602b","system_id":"levelo_inurba_marseille","lat":43.315524,"lon":5.38027,"is_reserved":false,"is_disabled":false,"rental_uris":{"android":"levelo://app?vid=112889bc-8d0f-431d-9767-314715ea602b","ios":"levelo://app?vid=112889bc-8d0f-431d-9767-314715ea602b"},"vehicle_type_id":"4","last_reported":1702663753,"current_range_meters":19600,"station_id":"ce4bhsp2rcd13ifvqi50","pricing_plan_id":"free"},{"bike_id":"16597aae-13d5-4d6b-8c69-4c0733255b6a","system_id":"levelo_inurba_marseille","lat":43.308012,"lon":5.381511,"is_reserved":false,"is_disabled":false,"rental_uris":{"android":"levelo://app?vid=16597aae-13d5-4d6b-8c69-4c0733255b6a","ios":"levelo://app?vid=16597aae-13d5-4d6b-8c69-4c0733255b6a"},"vehicle_type_id":"4","last_reported":1702663753,"current_range_meters":0,"station_id":"ce4bgt12rcd13ifvqce0","pricing_plan_id":"free"},{"bike_id":"88f7ea2a-62f7-4a88-9e9d-900940b4d7e5","system_id":"levelo_inurba_marseille","lat":43.324769,"lon":5.365633,"is_reserved":false,"is_disabled":false,"rental_uris":{"android":"levelo://app?vid=88f7ea2a-62f7-4a88-9e9d-900940b4d7e5","ios":"levelo://app?vid=88f7ea2a-62f7-4a88-9e9d-900940b4d7e5"},"vehicle_type_id":"4","last_reported":1702663753,"current_range_meters":19600,"station_id":"ce4bhs12rcd13ifvqhvg","pricing_plan_id":"free"},{"bike_id":"f1cde3ff-6cd4-4e86-99bc-06e7a73fc0a0","system_id":"levelo_inurba_marseille","lat":43.32479,"lon":5.36558,"is_reserved":false,"is_disabled":false,"rental_uris":{"android":"levelo://app?vid=f1cde3ff-6cd4-4e86-99bc-06e7a73fc0a0","ios":"levelo://app?vid=f1cde3ff-6cd4-4e86-99bc-06e7a73fc0a0"},"vehicle_type_id":"4","last_reported":1702663753,"current_range_meters":20800,"station_id":"ce4bhs12rcd13ifvqhvg","pricing_plan_id":"free"},{"bike_id":"7fd40965-65ed-4127-ab75-0a982225b29e","system_id":"levelo_inurba_marseille","lat":43.3014,"lon":5.37415,"is_reserved":false,"is_disabled":false,"rental_uris":{"android":"levelo://app?vid=7fd40965-65ed-4127-ab75-0a982225b29e","ios":"levelo://app?vid=7fd40965-65ed-4127-ab75-0a982225b29e"},"vehicle_type_id":"4","last_reported":1702663753,"current_range_meters":0,"station_id":"ce4bgs92rcd13ifvqcc0","pricing_plan_id":"free"},{"bike_id":"e5a32586-ae75-49a8-a2c5-49b4a3210505","system_id":"levelo_inurba_marseille","lat":43.319935,"lon":5.381699,"is_reserved":false,"is_disabled":false,"rental_uris":{"android":"levelo://app?vid=e5a32586-ae75-49a8-a2c5-49b4a3210505","ios":"levelo://app?vid=e5a32586-ae75-49a8-a2c5-49b4a3210505"},"vehicle_type_id":"4","last_reported":1702663753,"current_range_meters":16000,"station_id":"ce4bhr12rcd13ifvqhpg","pricing_plan_id":"free"},{"bike_id":"c4373a24-4c1b-41f1-98cc-0e66e6420416","system_id":"levelo_inurba_marseille","lat":43.319935,"lon":5.381699,"is_reserved":false,"is_disabled":false,"rental_uris":{"android":"levelo://app?vid=c4373a24-4c1b-41f1-98cc-0e66e6420416","ios":"levelo://app?vid=c4373a24-4c1b-41f1-98cc-0e66e6420416"},"vehicle_type_id":"4","last_reported":1702663753,"current_range_meters":26000,"station_id":"ce4bhr12rcd13ifvqhpg","pricing_plan_id":"free"},{"bike_id":"2b6071f4-1a1c-4b2b-b9f1-8f9689b86811","system_id":"levelo_inurba_marseille","lat":43.319935,"lon":5.381699,"is_reserved":false,"is_disabled":false,"rental_uris":{"android":"levelo://app?vid=2b6071f4-1a1c-4b2b-b9f1-8f9689b86811","ios":"levelo://app?vid=2b6071f4-1a1c-4b2b-b9f1-8f9689b86811"},"vehicle_type_id":"4","last_reported":1702663753,"current_range_meters":12000,"station_id":"ce4bhr12rcd13ifvqhpg","pricing_plan_id":"free"},{"bike_id":"afc143f6-d517-4b0d-b953-0c274cc58c18","system_id":"levelo_inurba_marseille","lat":43.313571,"lon":5.384829,"is_reserved":false,"is_disabled":false,"rental_uris":{"android":"levelo://app?vid=afc143f6-d517-4b0d-b953-0c274cc58c18","ios":"levelo://app?vid=afc143f6-d517-4b0d-b953-0c274cc58c18"},"vehicle_type_id":"4","last_reported":1702663753,"current_range_meters":11200,"station_id":"ce4bgt92rcd13ifvqcf0","pricing_plan_id":"free"},{"bike_id":"4cfeee5c-a63d-4ec0-b4ff-b5cc74f4f508","system_id":"levelo_inurba_marseille","lat":43.31291,"lon":5.386253,"is_reserved":false,"is_disabled":false,"rental_uris":{"android":"levelo://app?vid=4cfeee5c-a63d-4ec0-b4ff-b5cc74f4f508","ios":"levelo://app?vid=4cfeee5c-a63d-4ec0-b4ff-b5cc74f4f508"},"vehicle_type_id":"4","last_reported":1702663753,"current_range_meters":0,"station_id":"","pricing_plan_id":"free"},{"bike_id":"b91defcd-9569-4b3f-bbd1-38aefc9fff14","system_id":"levelo_inurba_marseille","lat":43.298433,"lon":5.362774,"is_reserved":false,"is_disabled":false,"rental_uris":{"android":"levelo://app?vid=b91defcd-9569-4b3f-bbd1-38aefc9fff14","ios":"levelo://app?vid=b91defcd-9569-4b3f-bbd1-38aefc9fff14"},"vehicle_type_id":"4","last_reported":1702663753,"current_range_meters":4800,"station_id":"ce4bgpp2rcd13ifvqc3g","pricing_plan_id":"free"},{"bike_id":"c4e77394-aef9-4077-b745-e99148625344","system_id":"levelo_inurba_marseille","lat":43.32733,"lon":5.36707,"is_reserved":false,"is_disabled":false,"rental_uris":{"android":"levelo://app?vid=c4e77394-aef9-4077-b745-e99148625344","ios":"levelo://app?vid=c4e77394-aef9-4077-b745-e99148625344"},"vehicle_type_id":"4","last_reported":1702663753,"current_range_meters":25600,"station_id":"","pricing_plan_id":"free"},{"bike_id":"8be1f8d3-5213-46cb-8d6d-215e95ff3997","system_id":"levelo_inurba_marseille","lat":43.298433,"lon":5.362774,"is_reserved":false,"is_disabled":false,"rental_uris":{"android":"levelo://app?vid=8be1f8d3-5213-46cb-8d6d-215e95ff3997","ios":"levelo://app?vid=8be1f8d3-5213-46cb-8d6d-215e95ff3997"},"vehicle_type_id":"4","last_reported":1702663753,"current_range_meters":11600,"station_id":"ce4bgpp2rcd13ifvqc3g","pricing_plan_id":"free"},{"bike_id":"e82b7c9e-e7db-413e-b84e-e106ea61430b","system_id":"levelo_inurba_marseille","lat":43.299243,"lon":5.374807,"is_reserved":false,"is_disabled":false,"rental_uris":{"android":"levelo://app?vid=e82b7c9e-e7db-413e-b84e-e106ea61430b","ios":"levelo://app?vid=e82b7c9e-e7db-413e-b84e-e106ea61430b"},"vehicle_type_id":"4","last_reported":1702663753,"current_range_meters":12000,"station_id":"ce4bgjh2rcd13ifvqbg0","pricing_plan_id":"free"},{"bike_id":"e8352861-96fe-4567-b874-f932cf46879c","system_id":"levelo_inurba_marseille","lat":43.311722,"lon":5.387247,"is_reserved":false,"is_disabled":false,"rental_uris":{"android":"levelo://app?vid=e8352861-96fe-4567-b874-f932cf46879c","ios":"levelo://app?vid=e8352861-96fe-4567-b874-f932cf46879c"},"vehicle_type_id":"4","last_reported":1702663753,"current_range_meters":16800,"station_id":"ce4bgv12rcd13ifvqcp0","pricing_plan_id":"free"},{"bike_id":"bd2aae94-1b2f-451c-8f62-d38149589b70","system_id":"levelo_inurba_marseille","lat":43.299243,"lon":5.374807,"is_reserved":false,"is_disabled":false,"rental_uris":{"android":"levelo://app?vid=bd2aae94-1b2f-451c-8f62-d38149589b70","ios":"levelo://app?vid=bd2aae94-1b2f-451c-8f62-d38149589b70"},"vehicle_type_id":"4","last_reported":1702663753,"current_range_meters":23600,"station_id":"ce4bgjh2rcd13ifvqbg0","pricing_plan_id":"free"},{"bike_id":"cb559df9-b405-48a1-9eb4-7367463ff55c","system_id":"levelo_inurba_marseille","lat":43.322872,"lon":5.382756,"is_reserved":false,"is_disabled":false,"rental_uris":{"android":"levelo://app?vid=cb559df9-b405-48a1-9eb4-7367463ff55c","ios":"levelo://app?vid=cb559df9-b405-48a1-9eb4-7367463ff55c"},"vehicle_type_id":"4","last_reported":1702663753,"current_range_meters":6000,"station_id":"ce4bhr12rcd13ifvqhqg","pricing_plan_id":"free"},{"bike_id":"e85a18a5-1778-4fd6-93f9-b641e870c561","system_id":"levelo_inurba_marseille","lat":43.322872,"lon":5.382756,"is_reserved":false,"is_disabled":false,"rental_uris":{"android":"levelo://app?vid=e85a18a5-1778-4fd6-93f9-b641e870c561","ios":"levelo://app?vid=e85a18a5-1778-4fd6-93f9-b641e870c561"},"vehicle_type_id":"4","last_reported":1702663753,"current_range_meters":28800,"station_id":"ce4bhr12rcd13ifvqhqg","pricing_plan_id":"free"},{"bike_id":"269d50ce-f017-4ad9-bb47-6a080bc95c82","system_id":"levelo_inurba_marseille","lat":43.2968,"lon":5.37291,"is_reserved":false,"is_disabled":false,"rental_uris":{"android":"levelo://app?vid=269d50ce-f017-4ad9-bb47-6a080bc95c82","ios":"levelo://app?vid=269d50ce-f017-4ad9-bb47-6a080bc95c82"},"vehicle_type_id":"4","last_reported":1702663753,"current_range_meters":2000,"station_id":"ce4bgk12rcd13ifvqbj0","pricing_plan_id":"free"},{"bike_id":"cc1fb108-9bd1-4d8d-ad3c-2123d65cc3f9","system_id":"levelo_inurba_marseille","lat":43.299028,"lon":5.381509,"is_reserved":false,"is_disabled":false,"rental_uris":{"android":"levelo://app?vid=cc1fb108-9bd1-4d8d-ad3c-2123d65cc3f9","ios":"levelo://app?vid=cc1fb108-9bd1-4d8d-ad3c-2123d65cc3f9"},"vehicle_type_id":"4","last_reported":1702663753,"current_range_meters":10400,"station_id":"ce4bgj12rcd13ifvqbc0","pricing_plan_id":"free"},{"bike_id":"75e34609-ed7d-44b8-9b5f-d0d1294bd46a","system_id":"levelo_inurba_marseille","lat":43.299028,"lon":5.381509,"is_reserved":false,"is_disabled":false,"rental_uris":{"android":"levelo://app?vid=75e34609-ed7d-44b8-9b5f-d0d1294bd46a","ios":"levelo://app?vid=75e34609-ed7d-44b8-9b5f-d0d1294bd46a"},"vehicle_type_id":"4","last_reported":1702663753,"current_range_meters":23600,"station_id":"ce4bgj12rcd13ifvqbc0","pricing_plan_id":"free"},{"bike_id":"5db3a47b-dcb3-4baf-823f-573b10dddf50","system_id":"levelo_inurba_marseille","lat":43.296935,"lon":5.376544,"is_reserved":false,"is_disabled":false,"rental_uris":{"android":"levelo://app?vid=5db3a47b-dcb3-4baf-823f-573b10dddf50","ios":"levelo://app?vid=5db3a47b-dcb3-4baf-823f-573b10dddf50"},"vehicle_type_id":"4","last_reported":1702663753,"current_range_meters":20000,"station_id":"ce4bgkh2rcd13ifvqbl0","pricing_plan_id":"free"},{"bike_id":"d4800d72-1969-4402-90a2-36c0a6fe7730","system_id":"levelo_inurba_marseille","lat":43.317557,"lon":5.390173,"is_reserved":false,"is_disabled":false,"rental_uris":{"android":"levelo://app?vid=d4800d72-1969-4402-90a2-36c0a6fe7730","ios":"levelo://app?vid=d4800d72-1969-4402-90a2-36c0a6fe7730"},"vehicle_type_id":"4","last_reported":1702663753,"current_range_meters":24000,"station_id":"ce4bhqp2rcd13ifvqhng","pricing_plan_id":"free"},{"bike_id":"591a5a1a-62a3-4d76-8a8e-8cadc8e573b2","system_id":"levelo_inurba_marseille","lat":43.317557,"lon":5.390173,"is_reserved":false,"is_disabled":false,"rental_uris":{"android":"levelo://app?vid=591a5a1a-62a3-4d76-8a8e-8cadc8e573b2","ios":"levelo://app?vid=591a5a1a-62a3-4d76-8a8e-8cadc8e573b2"},"vehicle_type_id":"4","last_reported":1702663753,"current_range_meters":28800,"station_id":"ce4bhqp2rcd13ifvqhng","pricing_plan_id":"free"},{"bike_id":"d71ee77c-8589-4de2-a48b-a3be57ada946","system_id":"levelo_inurba_marseille","lat":43.304274,"lon":5.388873,"is_reserved":false,"is_disabled":false,"rental_uris":{"android":"levelo://app?vid=d71ee77c-8589-4de2-a48b-a3be57ada946","ios":"levelo://app?vid=d71ee77c-8589-4de2-a48b-a3be57ada946"},"vehicle_type_id":"4","last_reported":1702663753,"current_range_meters":18800,"station_id":"ce4bgk12rcd13ifvqbi0","pricing_plan_id":"free"},{"bike_id":"b006531c-0d08-45ee-90f6-434a8638dc15","system_id":"levelo_inurba_marseille","lat":43.304278,"lon":5.388868,"is_reserved":false,"is_disabled":false,"rental_uris":{"android":"levelo://app?vid=b006531c-0d08-45ee-90f6-434a8638dc15","ios":"levelo://app?vid=b006531c-0d08-45ee-90f6-434a8638dc15"},"vehicle_type_id":"4","last_reported":1702663753,"current_range_meters":9600,"station_id":"ce4bgk12rcd13ifvqbi0","pricing_plan_id":"free"},{"bike_id":"1d381acb-7cf5-4e0a-80f5-a93afedf8e58","system_id":"levelo_inurba_marseille","lat":43.29972,"lon":5.38487,"is_reserved":false,"is_disabled":false,"rental_uris":{"android":"levelo://app?vid=1d381acb-7cf5-4e0a-80f5-a93afedf8e58","ios":"levelo://app?vid=1d381acb-7cf5-4e0a-80f5-a93afedf8e58"},"vehicle_type_id":"4","last_reported":1702663753,"current_range_meters":0,"station_id":"ce4bgj92rcd13ifvqbd0","pricing_plan_id":"free"},{"bike_id":"a20416a9-0d4c-4185-a373-f08d7cb384bb","system_id":"levelo_inurba_marseille","lat":43.299724,"lon":5.384848,"is_reserved":false,"is_disabled":false,"rental_uris":{"android":"levelo://app?vid=a20416a9-0d4c-4185-a373-f08d7cb384bb","ios":"levelo://app?vid=a20416a9-0d4c-4185-a373-f08d7cb384bb"},"vehicle_type_id":"4","last_reported":1702663753,"current_range_meters":0,"station_id":"ce4bgj92rcd13ifvqbd0","pricing_plan_id":"free"},{"bike_id":"deb09b03-0619-4d39-9cee-20a476a19bfa","system_id":"levelo_inurba_marseille","lat":43.293259,"lon":5.371586,"is_reserved":false,"is_disabled":false,"rental_uris":{"android":"levelo://app?vid=deb09b03-0619-4d39-9cee-20a476a19bfa","ios":"levelo://app?vid=deb09b03-0619-4d39-9cee-20a476a19bfa"},"vehicle_type_id":"4","last_reported":1702663753,"current_range_meters":8400,"station_id":"ce4bgh92rcd13ifvqb40","pricing_plan_id":"free"},{"bike_id":"07a5f9bf-c67c-4566-92c2-755ea4ba40ba","system_id":"levelo_inurba_marseille","lat":43.29276,"lon":5.36845,"is_reserved":false,"is_disabled":false,"rental_uris":{"android":"levelo://app?vid=07a5f9bf-c67c-4566-92c2-755ea4ba40ba","ios":"levelo://app?vid=07a5f9bf-c67c-4566-92c2-755ea4ba40ba"},"vehicle_type_id":"4","last_reported":1702663753,"current_range_meters":12400,"station_id":"ce4bhbp2rcd13ifvqesg","pricing_plan_id":"free"},{"bike_id":"35d2c741-e04a-4c90-8f01-9438907014f2","system_id":"levelo_inurba_marseille","lat":43.293009,"lon":5.374584,"is_reserved":false,"is_disabled":false,"rental_uris":{"android":"levelo://app?vid=35d2c741-e04a-4c90-8f01-9438907014f2","ios":"levelo://app?vid=35d2c741-e04a-4c90-8f01-9438907014f2"},"vehicle_type_id":"4","last_reported":1702663753,"current_range_meters":22800,"station_id":"ce4bgi12rcd13ifvqb70","pricing_plan_id":"free"},{"bike_id":"809f41cc-8cd8-4913-a22e-5c5845bf7c36","system_id":"levelo_inurba_marseille","lat":43.29302,"lon":5.37455,"is_reserved":false,"is_disabled":false,"rental_uris":{"android":"levelo://app?vid=809f41cc-8cd8-4913-a22e-5c5845bf7c36","ios":"levelo://app?vid=809f41cc-8cd8-4913-a22e-5c5845bf7c36"},"vehicle_type_id":"4","last_reported":1702663753,"current_range_meters":18000,"station_id":"ce4bgi12rcd13ifvqb70","pricing_plan_id":"free"},{"bike_id":"81a86d0f-d513-4abf-a23d-4a405127eb28","system_id":"levelo_inurba_marseille","lat":43.293009,"lon":5.374584,"is_reserved":false,"is_disabled":false,"rental_uris":{"android":"levelo://app?vid=81a86d0f-d513-4abf-a23d-4a405127eb28","ios":"levelo://app?vid=81a86d0f-d513-4abf-a23d-4a405127eb28"},"vehicle_type_id":"4","last_reported":1702663753,"current_range_meters":0,"station_id":"ce4bgi12rcd13ifvqb70","pricing_plan_id":"free"},{"bike_id":"1a70965a-58dc-4e90-b722-9712d25c2bdf","system_id":"levelo_inurba_marseille","lat":43.303002,"lon":5.392142,"is_reserved":false,"is_disabled":false,"rental_uris":{"android":"levelo://app?vid=1a70965a-58dc-4e90-b722-9712d25c2bdf","ios":"levelo://app?vid=1a70965a-58dc-4e90-b722-9712d25c2bdf"},"vehicle_type_id":"4","last_reported":1702663753,"current_range_meters":4400,"station_id":"ce4bgkh2rcd13ifvqbk0","pricing_plan_id":"free"},{"bike_id":"0bdd3e7d-130b-4170-b8e6-fde20c12d434","system_id":"levelo_inurba_marseille","lat":43.292659,"lon":5.376297,"is_reserved":false,"is_disabled":false,"rental_uris":{"android":"levelo://app?vid=0bdd3e7d-130b-4170-b8e6-fde20c12d434","ios":"levelo://app?vid=0bdd3e7d-130b-4170-b8e6-fde20c12d434"},"vehicle_type_id":"4","last_reported":1702663753,"current_range_meters":10000,"station_id":"","pricing_plan_id":"free"},{"bike_id":"cefa2ff1-3dd1-4d07-acca-0a4e3051a600","system_id":"levelo_inurba_marseille","lat":43.29872,"lon":5.38906,"is_reserved":false,"is_disabled":false,"rental_uris":{"android":"levelo://app?vid=cefa2ff1-3dd1-4d07-acca-0a4e3051a600","ios":"levelo://app?vid=cefa2ff1-3dd1-4d07-acca-0a4e3051a600"},"vehicle_type_id":"4","last_reported":1702663753,"current_range_meters":18000,"station_id":"","pricing_plan_id":"free"},{"bike_id":"e63c1ff2-4d92-47c3-bd7a-cbca52fc8397","system_id":"levelo_inurba_marseille","lat":43.29529,"lon":5.385581,"is_reserved":false,"is_disabled":false,"rental_uris":{"android":"levelo://app?vid=e63c1ff2-4d92-47c3-bd7a-cbca52fc8397","ios":"levelo://app?vid=e63c1ff2-4d92-47c3-bd7a-cbca52fc8397"},"vehicle_type_id":"4","last_reported":1702663753,"current_range_meters":4400,"station_id":"ce4bgih2rcd13ifvqba0","pricing_plan_id":"free"},{"bike_id":"08f1976a-5524-4c5c-a6c3-b584ae6df963","system_id":"levelo_inurba_marseille","lat":43.294153,"lon":5.386305,"is_reserved":false,"is_disabled":false,"rental_uris":{"android":"levelo://app?vid=08f1976a-5524-4c5c-a6c3-b584ae6df963","ios":"levelo://app?vid=08f1976a-5524-4c5c-a6c3-b584ae6df963"},"vehicle_type_id":"4","last_reported":1702663753,"current_range_meters":0,"station_id":"ce4bh2h2rcd13ifvqdh0","pricing_plan_id":"free"},{"bike_id":"9e4cf36f-5e9f-4bb0-bafc-ef6e8ffb3c64","system_id":"levelo_inurba_marseille","lat":43.294153,"lon":5.386305,"is_reserved":false,"is_disabled":false,"rental_uris":{"android":"levelo://app?vid=9e4cf36f-5e9f-4bb0-bafc-ef6e8ffb3c64","ios":"levelo://app?vid=9e4cf36f-5e9f-4bb0-bafc-ef6e8ffb3c64"},"vehicle_type_id":"4","last_reported":1702663753,"current_range_meters":5600,"station_id":"ce4bh2h2rcd13ifvqdh0","pricing_plan_id":"free"},{"bike_id":"0cff9ff2-812c-49d3-b212-e77dfd3e3d65","system_id":"levelo_inurba_marseille","lat":43.294153,"lon":5.386305,"is_reserved":false,"is_disabled":false,"rental_uris":{"android":"levelo://app?vid=0cff9ff2-812c-49d3-b212-e77dfd3e3d65","ios":"levelo://app?vid=0cff9ff2-812c-49d3-b212-e77dfd3e3d65"},"vehicle_type_id":"4","last_reported":1702663753,"current_range_meters":0,"station_id":"ce4bh2h2rcd13ifvqdh0","pricing_plan_id":"free"},{"bike_id":"3c818434-bca0-4ae1-90e0-1f2352c87748","system_id":"levelo_inurba_marseille","lat":43.294153,"lon":5.386305,"is_reserved":false,"is_disabled":false,"rental_uris":{"android":"levelo://app?vid=3c818434-bca0-4ae1-90e0-1f2352c87748","ios":"levelo://app?vid=3c818434-bca0-4ae1-90e0-1f2352c87748"},"vehicle_type_id":"4","last_reported":1702663753,"current_range_meters":27600,"station_id":"ce4bh2h2rcd13ifvqdh0","pricing_plan_id":"free"},{"bike_id":"fc12d758-a266-45b2-a25a-93af92d7ad3a","system_id":"levelo_inurba_marseille","lat":43.294153,"lon":5.386305,"is_reserved":false,"is_disabled":false,"rental_uris":{"android":"levelo://app?vid=fc12d758-a266-45b2-a25a-93af92d7ad3a","ios":"levelo://app?vid=fc12d758-a266-45b2-a25a-93af92d7ad3a"},"vehicle_type_id":"4","last_reported":1702663753,"current_range_meters":1600,"station_id":"ce4bh2h2rcd13ifvqdh0","pricing_plan_id":"free"},{"bike_id":"51839789-14a7-4531-84b7-8a15eff1ac5c","system_id":"levelo_inurba_marseille","lat":43.2942,"lon":5.3862,"is_reserved":false,"is_disabled":false,"rental_uris":{"android":"levelo://app?vid=51839789-14a7-4531-84b7-8a15eff1ac5c","ios":"levelo://app?vid=51839789-14a7-4531-84b7-8a15eff1ac5c"},"vehicle_type_id":"4","last_reported":1702663753,"current_range_meters":4400,"station_id":"","pricing_plan_id":"free"},{"bike_id":"01b26127-2df1-4537-b555-3f6d9a5e544b","system_id":"levelo_inurba_marseille","lat":43.290327,"lon":5.375711,"is_reserved":false,"is_disabled":false,"rental_uris":{"android":"levelo://app?vid=01b26127-2df1-4537-b555-3f6d9a5e544b","ios":"levelo://app?vid=01b26127-2df1-4537-b555-3f6d9a5e544b"},"vehicle_type_id":"4","last_reported":1702663753,"current_range_meters":25600,"station_id":"ce4bh692rcd13ifvqe90","pricing_plan_id":"free"},{"bike_id":"87502bb8-a110-4d31-a73f-df4fd9c8d38c","system_id":"levelo_inurba_marseille","lat":43.289184,"lon":5.366408,"is_reserved":false,"is_disabled":false,"rental_uris":{"android":"levelo://app?vid=87502bb8-a110-4d31-a73f-df4fd9c8d38c","ios":"levelo://app?vid=87502bb8-a110-4d31-a73f-df4fd9c8d38c"},"vehicle_type_id":"4","last_reported":1702663753,"current_range_meters":30000,"station_id":"ce4bhap2rcd13ifvqek0","pricing_plan_id":"free"},{"bike_id":"1636edde-5a44-419d-806f-010f1d86a06f","system_id":"levelo_inurba_marseille","lat":43.292644,"lon":5.384257,"is_reserved":false,"is_disabled":false,"rental_uris":{"android":"levelo://app?vid=1636edde-5a44-419d-806f-010f1d86a06f","ios":"levelo://app?vid=1636edde-5a44-419d-806f-010f1d86a06f"},"vehicle_type_id":"4","last_reported":1702663753,"current_range_meters":20800,"station_id":"ce4bh692rcd13ifvqea0","pricing_plan_id":"free"},{"bike_id":"f2c160a8-4c8e-4357-a555-9fdd0cb55b4f","system_id":"levelo_inurba_marseille","lat":43.330442,"lon":5.389148,"is_reserved":false,"is_disabled":false,"rental_uris":{"android":"levelo://app?vid=f2c160a8-4c8e-4357-a555-9fdd0cb55b4f","ios":"levelo://app?vid=f2c160a8-4c8e-4357-a555-9fdd0cb55b4f"},"vehicle_type_id":"4","last_reported":1702663753,"current_range_meters":20000,"station_id":"ce4bhr92rcd13ifvqhrg","pricing_plan_id":"free"},{"bike_id":"3fa2ad4b-7e57-4511-9cd5-34f1cf36456e","system_id":"levelo_inurba_marseille","lat":43.290104,"lon":5.356111,"is_reserved":false,"is_disabled":false,"rental_uris":{"android":"levelo://app?vid=3fa2ad4b-7e57-4511-9cd5-34f1cf36456e","ios":"levelo://app?vid=3fa2ad4b-7e57-4511-9cd5-34f1cf36456e"},"vehicle_type_id":"4","last_reported":1702663753,"current_range_meters":21200,"station_id":"ce4bhb92rcd13ifvqen0","pricing_plan_id":"free"},{"bike_id":"da1df734-14d9-4b02-a581-954e15b02c60","system_id":"levelo_inurba_marseille","lat":43.295169,"lon":5.390426,"is_reserved":false,"is_disabled":false,"rental_uris":{"android":"levelo://app?vid=da1df734-14d9-4b02-a581-954e15b02c60","ios":"levelo://app?vid=da1df734-14d9-4b02-a581-954e15b02c60"},"vehicle_type_id":"4","last_reported":1702663753,"current_range_meters":0,"station_id":"ce4bh3p2rcd13ifvqdp0","pricing_plan_id":"free"},{"bike_id":"ac2d6e2f-1fa6-4095-a0ce-33759b29b5ce","system_id":"levelo_inurba_marseille","lat":43.30878,"lon":5.40008,"is_reserved":false,"is_disabled":false,"rental_uris":{"android":"levelo://app?vid=ac2d6e2f-1fa6-4095-a0ce-33759b29b5ce","ios":"levelo://app?vid=ac2d6e2f-1fa6-4095-a0ce-33759b29b5ce"},"vehicle_type_id":"4","last_reported":1702663753,"current_range_meters":13600,"station_id":"ce4bgvp2rcd13ifvqct0","pricing_plan_id":"free"},{"bike_id":"271cdce5-60a1-448a-aa87-a666b78ab556","system_id":"levelo_inurba_marseille","lat":43.28856,"lon":5.358371,"is_reserved":false,"is_disabled":false,"rental_uris":{"android":"levelo://app?vid=271cdce5-60a1-448a-aa87-a666b78ab556","ios":"levelo://app?vid=271cdce5-60a1-448a-aa87-a666b78ab556"},"vehicle_type_id":"4","last_reported":1702663753,"current_range_meters":0,"station_id":"ce4bhb12rcd13ifvqem0","pricing_plan_id":"free"},{"bike_id":"253ec75b-44ed-4897-9962-7da20422376e","system_id":"levelo_inurba_marseille","lat":43.28856,"lon":5.358371,"is_reserved":false,"is_disabled":false,"rental_uris":{"android":"levelo://app?vid=253ec75b-44ed-4897-9962-7da20422376e","ios":"levelo://app?vid=253ec75b-44ed-4897-9962-7da20422376e"},"vehicle_type_id":"4","last_reported":1702663753,"current_range_meters":31200,"station_id":"ce4bhb12rcd13ifvqem0","pricing_plan_id":"free"},{"bike_id":"caac6c64-81f1-463b-828c-45c03caa166e","system_id":"levelo_inurba_marseille","lat":43.31264,"lon":5.40158,"is_reserved":false,"is_disabled":false,"rental_uris":{"android":"levelo://app?vid=caac6c64-81f1-463b-828c-45c03caa166e","ios":"levelo://app?vid=caac6c64-81f1-463b-828c-45c03caa166e"},"vehicle_type_id":"4","last_reported":1702663753,"current_range_meters":400,"station_id":"ce4bh092rcd13ifvqd30","pricing_plan_id":"free"},{"bike_id":"93ddb065-a271-41e8-9d16-a49af23b2332","system_id":"levelo_inurba_marseille","lat":43.312609,"lon":5.401662,"is_reserved":false,"is_disabled":false,"rental_uris":{"android":"levelo://app?vid=93ddb065-a271-41e8-9d16-a49af23b2332","ios":"levelo://app?vid=93ddb065-a271-41e8-9d16-a49af23b2332"},"vehicle_type_id":"4","last_reported":1702663753,"current_range_meters":10800,"station_id":"ce4bh092rcd13ifvqd30","pricing_plan_id":"free"},{"bike_id":"9e5231e6-9497-41e6-bfd0-a7d79b8fad43","system_id":"levelo_inurba_marseille","lat":43.33746,"lon":5.37445,"is_reserved":false,"is_disabled":false,"rental_uris":{"android":"levelo://app?vid=9e5231e6-9497-41e6-bfd0-a7d79b8fad43","ios":"levelo://app?vid=9e5231e6-9497-41e6-bfd0-a7d79b8fad43"},"vehicle_type_id":"4","last_reported":1702663753,"current_range_meters":28800,"station_id":"","pricing_plan_id":"free"},{"bike_id":"f0cd831c-cfb9-44c7-9487-103b6df223ca","system_id":"levelo_inurba_marseille","lat":43.33744,"lon":5.37461,"is_reserved":false,"is_disabled":false,"rental_uris":{"android":"levelo://app?vid=f0cd831c-cfb9-44c7-9487-103b6df223ca","ios":"levelo://app?vid=f0cd831c-cfb9-44c7-9487-103b6df223ca"},"vehicle_type_id":"4","last_reported":1702663753,"current_range_meters":29600,"station_id":"","pricing_plan_id":"free"},{"bike_id":"72081e40-e133-474a-948c-2b0911b09d40","system_id":"levelo_inurba_marseille","lat":43.31277,"lon":5.4018,"is_reserved":false,"is_disabled":false,"rental_uris":{"android":"levelo://app?vid=72081e40-e133-474a-948c-2b0911b09d40","ios":"levelo://app?vid=72081e40-e133-474a-948c-2b0911b09d40"},"vehicle_type_id":"4","last_reported":1702663753,"current_range_meters":24000,"station_id":"ce4bh092rcd13ifvqd30","pricing_plan_id":"free"},{"bike_id":"a15a6f31-d26a-498f-aab0-fad2629bd007","system_id":"levelo_inurba_marseille","lat":43.337535,"lon":5.37446,"is_reserved":false,"is_disabled":false,"rental_uris":{"android":"levelo://app?vid=a15a6f31-d26a-498f-aab0-fad2629bd007","ios":"levelo://app?vid=a15a6f31-d26a-498f-aab0-fad2629bd007"},"vehicle_type_id":"4","last_reported":1702663753,"current_range_meters":1600,"station_id":"","pricing_plan_id":"free"},{"bike_id":"adfcfe3d-f0bb-41e3-92b3-fae985cb2ef0","system_id":"levelo_inurba_marseille","lat":43.33755,"lon":5.37443,"is_reserved":false,"is_disabled":false,"rental_uris":{"android":"levelo://app?vid=adfcfe3d-f0bb-41e3-92b3-fae985cb2ef0","ios":"levelo://app?vid=adfcfe3d-f0bb-41e3-92b3-fae985cb2ef0"},"vehicle_type_id":"4","last_reported":1702663753,"current_range_meters":29600,"station_id":"","pricing_plan_id":"free"},{"bike_id":"930bba3a-4350-44cf-bb9b-310a6cbdb5ef","system_id":"levelo_inurba_marseille","lat":43.337568,"lon":5.374565,"is_reserved":false,"is_disabled":false,"rental_uris":{"android":"levelo://app?vid=930bba3a-4350-44cf-bb9b-310a6cbdb5ef","ios":"levelo://app?vid=930bba3a-4350-44cf-bb9b-310a6cbdb5ef"},"vehicle_type_id":"4","last_reported":1702663753,"current_range_meters":28000,"station_id":"","pricing_plan_id":"free"},{"bike_id":"a0544956-0633-4cfb-b0df-5fbb54b9d1c2","system_id":"levelo_inurba_marseille","lat":43.309371,"lon":5.401449,"is_reserved":false,"is_disabled":false,"rental_uris":{"android":"levelo://app?vid=a0544956-0633-4cfb-b0df-5fbb54b9d1c2","ios":"levelo://app?vid=a0544956-0633-4cfb-b0df-5fbb54b9d1c2"},"vehicle_type_id":"4","last_reported":1702663753,"current_range_meters":21600,"station_id":"ce4bgvp2rcd13ifvqct0","pricing_plan_id":"free"},{"bike_id":"1b1bd80c-92ec-4f8e-8e80-a125315f4b22","system_id":"levelo_inurba_marseille","lat":43.337685,"lon":5.37433,"is_reserved":false,"is_disabled":false,"rental_uris":{"android":"levelo://app?vid=1b1bd80c-92ec-4f8e-8e80-a125315f4b22","ios":"levelo://app?vid=1b1bd80c-92ec-4f8e-8e80-a125315f4b22"},"vehicle_type_id":"4","last_reported":1702663753,"current_range_meters":17600,"station_id":"","pricing_plan_id":"free"},{"bike_id":"0f5059a4-9544-44fc-80cc-6dde58402a8c","system_id":"levelo_inurba_marseille","lat":43.30136,"lon":5.39861,"is_reserved":false,"is_disabled":false,"rental_uris":{"android":"levelo://app?vid=0f5059a4-9544-44fc-80cc-6dde58402a8c","ios":"levelo://app?vid=0f5059a4-9544-44fc-80cc-6dde58402a8c"},"vehicle_type_id":"4","last_reported":1702663753,"current_range_meters":6000,"station_id":"ce4bh0h2rcd13ifvqd40","pricing_plan_id":"free"},{"bike_id":"c77eb0a9-a4dd-47c7-97e3-6dad77337983","system_id":"levelo_inurba_marseille","lat":43.28727,"lon":5.36078,"is_reserved":false,"is_disabled":false,"rental_uris":{"android":"levelo://app?vid=c77eb0a9-a4dd-47c7-97e3-6dad77337983","ios":"levelo://app?vid=c77eb0a9-a4dd-47c7-97e3-6dad77337983"},"vehicle_type_id":"4","last_reported":1702663753,"current_range_meters":4800,"station_id":"cki0cbj6b192h4jlfktg","pricing_plan_id":"free"},{"bike_id":"4189c09d-d993-419c-b27b-d4e06aeb42f7","system_id":"levelo_inurba_marseille","lat":43.286961,"lon":5.373785,"is_reserved":false,"is_disabled":false,"rental_uris":{"android":"levelo://app?vid=4189c09d-d993-419c-b27b-d4e06aeb42f7","ios":"levelo://app?vid=4189c09d-d993-419c-b27b-d4e06aeb42f7"},"vehicle_type_id":"4","last_reported":1702663753,"current_range_meters":20800,"station_id":"ce4bh3p2rcd13ifvqdq0","pricing_plan_id":"free"},{"bike_id":"d1c621e4-534a-492c-80c7-80f7a03d6f06","system_id":"levelo_inurba_marseille","lat":43.290336,"lon":5.386425,"is_reserved":false,"is_disabled":false,"rental_uris":{"android":"levelo://app?vid=d1c621e4-534a-492c-80c7-80f7a03d6f06","ios":"levelo://app?vid=d1c621e4-534a-492c-80c7-80f7a03d6f06"},"vehicle_type_id":"4","last_reported":1702663753,"current_range_meters":0,"station_id":"ce4bh4p2rcd13ifvqe0g","pricing_plan_id":"free"},{"bike_id":"f79aee0f-deb9-41c4-88ea-7f05ac30308f","system_id":"levelo_inurba_marseille","lat":43.289307,"lon":5.38406,"is_reserved":false,"is_disabled":false,"rental_uris":{"android":"levelo://app?vid=f79aee0f-deb9-41c4-88ea-7f05ac30308f","ios":"levelo://app?vid=f79aee0f-deb9-41c4-88ea-7f05ac30308f"},"vehicle_type_id":"4","last_reported":1702663753,"current_range_meters":16000,"station_id":"ce4bh612rcd13ifvqe6g","pricing_plan_id":"free"},{"bike_id":"9dddb631-43be-4c89-b340-3dd33a1a09c8","system_id":"levelo_inurba_marseille","lat":43.287184,"lon":5.37937,"is_reserved":false,"is_disabled":false,"rental_uris":{"android":"levelo://app?vid=9dddb631-43be-4c89-b340-3dd33a1a09c8","ios":"levelo://app?vid=9dddb631-43be-4c89-b340-3dd33a1a09c8"},"vehicle_type_id":"4","last_reported":1702663753,"current_range_meters":400,"station_id":"ce4bh9p2rcd13ifvqec0","pricing_plan_id":"free"},{"bike_id":"60f92a34-f679-46d8-bda0-b1eefc8b2de5","system_id":"levelo_inurba_marseille","lat":43.316828,"lon":5.404723,"is_reserved":false,"is_disabled":false,"rental_uris":{"android":"levelo://app?vid=60f92a34-f679-46d8-bda0-b1eefc8b2de5","ios":"levelo://app?vid=60f92a34-f679-46d8-bda0-b1eefc8b2de5"},"vehicle_type_id":"4","last_reported":1702663753,"current_range_meters":12400,"station_id":"ce4bh012rcd13ifvqd00","pricing_plan_id":"free"},{"bike_id":"a559f1e6-12f2-4785-8b89-fa63af0d4bd5","system_id":"levelo_inurba_marseille","lat":43.284538,"lon":5.358657,"is_reserved":false,"is_disabled":false,"rental_uris":{"android":"levelo://app?vid=a559f1e6-12f2-4785-8b89-fa63af0d4bd5","ios":"levelo://app?vid=a559f1e6-12f2-4785-8b89-fa63af0d4bd5"},"vehicle_type_id":"4","last_reported":1702663753,"current_range_meters":6000,"station_id":"ce4bhah2rcd13ifvqei0","pricing_plan_id":"free"},{"bike_id":"fde289b1-1f2a-4a14-8437-6cfbbc143155","system_id":"levelo_inurba_marseille","lat":43.283998,"lon":5.375062,"is_reserved":false,"is_disabled":false,"rental_uris":{"android":"levelo://app?vid=fde289b1-1f2a-4a14-8437-6cfbbc143155","ios":"levelo://app?vid=fde289b1-1f2a-4a14-8437-6cfbbc143155"},"vehicle_type_id":"4","last_reported":1702663753,"current_range_meters":1600,"station_id":"ce4bh412rcd13ifvqds0","pricing_plan_id":"free"},{"bike_id":"975ce48b-5ee6-4141-baec-20904ecd16ae","system_id":"levelo_inurba_marseille","lat":43.283998,"lon":5.375062,"is_reserved":false,"is_disabled":false,"rental_uris":{"android":"levelo://app?vid=975ce48b-5ee6-4141-baec-20904ecd16ae","ios":"levelo://app?vid=975ce48b-5ee6-4141-baec-20904ecd16ae"},"vehicle_type_id":"4","last_reported":1702663753,"current_range_meters":0,"station_id":"ce4bh412rcd13ifvqds0","pricing_plan_id":"free"},{"bike_id":"da69fff0-f8a0-4a67-b12c-7306603e0b1a","system_id":"levelo_inurba_marseille","lat":43.284115,"lon":5.375128,"is_reserved":false,"is_disabled":false,"rental_uris":{"android":"levelo://app?vid=da69fff0-f8a0-4a67-b12c-7306603e0b1a","ios":"levelo://app?vid=da69fff0-f8a0-4a67-b12c-7306603e0b1a"},"vehicle_type_id":"4","last_reported":1702663753,"current_range_meters":2800,"station_id":"","pricing_plan_id":"free"},{"bike_id":"e2dff518-02e8-4754-a383-91814d0ebf9c","system_id":"levelo_inurba_marseille","lat":43.295713,"lon":5.399639,"is_reserved":false,"is_disabled":false,"rental_uris":{"android":"levelo://app?vid=e2dff518-02e8-4754-a383-91814d0ebf9c","ios":"levelo://app?vid=e2dff518-02e8-4754-a383-91814d0ebf9c"},"vehicle_type_id":"4","last_reported":1702663753,"current_range_meters":15600,"station_id":"ce4bh312rcd13ifvqdj0","pricing_plan_id":"free"},{"bike_id":"451c3fdc-dc3c-4d2a-a87b-7bed254e0f49","system_id":"levelo_inurba_marseille","lat":43.295713,"lon":5.399639,"is_reserved":false,"is_disabled":false,"rental_uris":{"android":"levelo://app?vid=451c3fdc-dc3c-4d2a-a87b-7bed254e0f49","ios":"levelo://app?vid=451c3fdc-dc3c-4d2a-a87b-7bed254e0f49"},"vehicle_type_id":"4","last_reported":1702663753,"current_range_meters":14800,"station_id":"ce4bh312rcd13ifvqdj0","pricing_plan_id":"free"},{"bike_id":"7dad4481-4867-4557-8614-5bf9a8d365e1","system_id":"levelo_inurba_marseille","lat":43.33716,"lon":5.39178,"is_reserved":false,"is_disabled":false,"rental_uris":{"android":"levelo://app?vid=7dad4481-4867-4557-8614-5bf9a8d365e1","ios":"levelo://app?vid=7dad4481-4867-4557-8614-5bf9a8d365e1"},"vehicle_type_id":"4","last_reported":1702663753,"current_range_meters":20000,"station_id":"ce4bhr92rcd13ifvqhsg","pricing_plan_id":"free"},{"bike_id":"16373837-b161-407f-b0fa-3d0f27559010","system_id":"levelo_inurba_marseille","lat":43.323464,"lon":5.406297,"is_reserved":false,"is_disabled":false,"rental_uris":{"android":"levelo://app?vid=16373837-b161-407f-b0fa-3d0f27559010","ios":"levelo://app?vid=16373837-b161-407f-b0fa-3d0f27559010"},"vehicle_type_id":"4","last_reported":1702663753,"current_range_meters":22000,"station_id":"ce4bhq92rcd13ifvqhjg","pricing_plan_id":"free"},{"bike_id":"24558423-948d-4d8a-ba7d-d12d62c24314","system_id":"levelo_inurba_marseille","lat":43.297946,"lon":5.404063,"is_reserved":false,"is_disabled":false,"rental_uris":{"android":"levelo://app?vid=24558423-948d-4d8a-ba7d-d12d62c24314","ios":"levelo://app?vid=24558423-948d-4d8a-ba7d-d12d62c24314"},"vehicle_type_id":"4","last_reported":1702663753,"current_range_meters":12800,"station_id":"ce4bh112rcd13ifvqd90","pricing_plan_id":"free"},{"bike_id":"fe458257-05cf-47c0-9097-25b12933dcb9","system_id":"levelo_inurba_marseille","lat":43.292724,"lon":5.401131,"is_reserved":false,"is_disabled":false,"rental_uris":{"android":"levelo://app?vid=fe458257-05cf-47c0-9097-25b12933dcb9","ios":"levelo://app?vid=fe458257-05cf-47c0-9097-25b12933dcb9"},"vehicle_type_id":"4","last_reported":1702663753,"current_range_meters":13600,"station_id":"ce4bh312rcd13ifvqdk0","pricing_plan_id":"free"},{"bike_id":"5dc5d21f-0822-44b5-9d04-94109033ade4","system_id":"levelo_inurba_marseille","lat":43.282744,"lon":5.350533,"is_reserved":false,"is_disabled":false,"rental_uris":{"android":"levelo://app?vid=5dc5d21f-0822-44b5-9d04-94109033ade4","ios":"levelo://app?vid=5dc5d21f-0822-44b5-9d04-94109033ade4"},"vehicle_type_id":"4","last_reported":1702663753,"current_range_meters":9600,"station_id":"ce4bhbp2rcd13ifvqerg","pricing_plan_id":"free"},{"bike_id":"51c67930-0f81-4e81-8ba2-97e5f5bf98b2","system_id":"levelo_inurba_marseille","lat":43.28039,"lon":5.369297,"is_reserved":false,"is_disabled":false,"rental_uris":{"android":"levelo://app?vid=51c67930-0f81-4e81-8ba2-97e5f5bf98b2","ios":"levelo://app?vid=51c67930-0f81-4e81-8ba2-97e5f5bf98b2"},"vehicle_type_id":"4","last_reported":1702663753,"current_range_meters":10800,"station_id":"ce4bha12rcd13ifvqef0","pricing_plan_id":"free"},{"bike_id":"b447efc9-65f7-4094-b5d3-54972e9aab64","system_id":"levelo_inurba_marseille","lat":43.282744,"lon":5.350533,"is_reserved":false,"is_disabled":false,"rental_uris":{"android":"levelo://app?vid=b447efc9-65f7-4094-b5d3-54972e9aab64","ios":"levelo://app?vid=b447efc9-65f7-4094-b5d3-54972e9aab64"},"vehicle_type_id":"4","last_reported":1702663753,"current_range_meters":12000,"station_id":"ce4bhbp2rcd13ifvqerg","pricing_plan_id":"free"},{"bike_id":"8fb47eb9-d1de-47c3-9a4f-063d68d00739","system_id":"levelo_inurba_marseille","lat":43.280382,"lon":5.369291,"is_reserved":false,"is_disabled":false,"rental_uris":{"android":"levelo://app?vid=8fb47eb9-d1de-47c3-9a4f-063d68d00739","ios":"levelo://app?vid=8fb47eb9-d1de-47c3-9a4f-063d68d00739"},"vehicle_type_id":"4","last_reported":1702663753,"current_range_meters":30400,"station_id":"ce4bha12rcd13ifvqef0","pricing_plan_id":"free"},{"bike_id":"62c32a41-5c85-445e-a62d-27f8a6e615c9","system_id":"levelo_inurba_marseille","lat":43.280382,"lon":5.369291,"is_reserved":false,"is_disabled":false,"rental_uris":{"android":"levelo://app?vid=62c32a41-5c85-445e-a62d-27f8a6e615c9","ios":"levelo://app?vid=62c32a41-5c85-445e-a62d-27f8a6e615c9"},"vehicle_type_id":"4","last_reported":1702663753,"current_range_meters":26800,"station_id":"ce4bha12rcd13ifvqef0","pricing_plan_id":"free"},{"bike_id":"64f166a2-3938-4db9-b4af-890856044047","system_id":"levelo_inurba_marseille","lat":43.280382,"lon":5.369291,"is_reserved":false,"is_disabled":false,"rental_uris":{"android":"levelo://app?vid=64f166a2-3938-4db9-b4af-890856044047","ios":"levelo://app?vid=64f166a2-3938-4db9-b4af-890856044047"},"vehicle_type_id":"4","last_reported":1702663753,"current_range_meters":30400,"station_id":"ce4bha12rcd13ifvqef0","pricing_plan_id":"free"},{"bike_id":"eecd5a2e-23b9-4a48-a7d9-5d48163860d4","system_id":"levelo_inurba_marseille","lat":43.290465,"lon":5.399695,"is_reserved":false,"is_disabled":false,"rental_uris":{"android":"levelo://app?vid=eecd5a2e-23b9-4a48-a7d9-5d48163860d4","ios":"levelo://app?vid=eecd5a2e-23b9-4a48-a7d9-5d48163860d4"},"vehicle_type_id":"4","last_reported":1702663753,"current_range_meters":0,"station_id":"ce4bh392rcd13ifvqdm0","pricing_plan_id":"free"},{"bike_id":"4f73e0d0-6fe8-4a0b-aabf-4130f9b2b995","system_id":"levelo_inurba_marseille","lat":43.284462,"lon":5.392121,"is_reserved":false,"is_disabled":false,"rental_uris":{"android":"levelo://app?vid=4f73e0d0-6fe8-4a0b-aabf-4130f9b2b995","ios":"levelo://app?vid=4f73e0d0-6fe8-4a0b-aabf-4130f9b2b995"},"vehicle_type_id":"4","last_reported":1702663753,"current_range_meters":800,"station_id":"ce4bhoh2rcd13ifvqh5g","pricing_plan_id":"free"},{"bike_id":"4f7c10e3-a1d3-4a71-9108-de56d4d57184","system_id":"levelo_inurba_marseille","lat":43.284462,"lon":5.392121,"is_reserved":false,"is_disabled":false,"rental_uris":{"android":"levelo://app?vid=4f7c10e3-a1d3-4a71-9108-de56d4d57184","ios":"levelo://app?vid=4f7c10e3-a1d3-4a71-9108-de56d4d57184"},"vehicle_type_id":"4","last_reported":1702663753,"current_range_meters":12400,"station_id":"ce4bhoh2rcd13ifvqh5g","pricing_plan_id":"free"},{"bike_id":"83fbd5e6-a479-4355-b2be-0cccfe721d72","system_id":"levelo_inurba_marseille","lat":43.293259,"lon":5.371586,"is_reserved":false,"is_disabled":false,"rental_uris":{"android":"levelo://app?vid=83fbd5e6-a479-4355-b2be-0cccfe721d72","ios":"levelo://app?vid=83fbd5e6-a479-4355-b2be-0cccfe721d72"},"vehicle_type_id":"4","last_reported":1702663753,"current_range_meters":15200,"station_id":"ce4bgh92rcd13ifvqb40","pricing_plan_id":"free"},{"bike_id":"9482c88b-d49d-4d5c-a01c-cf5a2f802312","system_id":"levelo_inurba_marseille","lat":43.326605,"lon":5.409903,"is_reserved":false,"is_disabled":false,"rental_uris":{"android":"levelo://app?vid=9482c88b-d49d-4d5c-a01c-cf5a2f802312","ios":"levelo://app?vid=9482c88b-d49d-4d5c-a01c-cf5a2f802312"},"vehicle_type_id":"4","last_reported":1702663753,"current_range_meters":24400,"station_id":"ce4bhpp2rcd13ifvqhgg","pricing_plan_id":"free"},{"bike_id":"14aae101-81e9-433e-bca6-3531f5c67abb","system_id":"levelo_inurba_marseille","lat":43.304188,"lon":5.412904,"is_reserved":false,"is_disabled":false,"rental_uris":{"android":"levelo://app?vid=14aae101-81e9-433e-bca6-3531f5c67abb","ios":"levelo://app?vid=14aae101-81e9-433e-bca6-3531f5c67abb"},"vehicle_type_id":"4","last_reported":1702663753,"current_range_meters":15200,"station_id":"ce4bhop2rcd13ifvqh8g","pricing_plan_id":"free"},{"bike_id":"effe2cc1-3464-4591-bd2f-1030d674d970","system_id":"levelo_inurba_marseille","lat":43.279087,"lon":5.380114,"is_reserved":false,"is_disabled":false,"rental_uris":{"android":"levelo://app?vid=effe2cc1-3464-4591-bd2f-1030d674d970","ios":"levelo://app?vid=effe2cc1-3464-4591-bd2f-1030d674d970"},"vehicle_type_id":"4","last_reported":1702663753,"current_range_meters":13200,"station_id":"ce4bhf92rcd13ifvqf50","pricing_plan_id":"free"},{"bike_id":"cb7b2e7d-96eb-4f03-af34-58227fc2fbc8","system_id":"levelo_inurba_marseille","lat":43.320045,"lon":5.415046,"is_reserved":false,"is_disabled":false,"rental_uris":{"android":"levelo://app?vid=cb7b2e7d-96eb-4f03-af34-58227fc2fbc8","ios":"levelo://app?vid=cb7b2e7d-96eb-4f03-af34-58227fc2fbc8"},"vehicle_type_id":"4","last_reported":1702663753,"current_range_meters":24400,"station_id":"ce4bhq92rcd13ifvqhkg","pricing_plan_id":"free"},{"bike_id":"a933c48e-f673-4d03-ab97-4c5fb8b77de3","system_id":"levelo_inurba_marseille","lat":43.279742,"lon":5.38744,"is_reserved":false,"is_disabled":false,"rental_uris":{"android":"levelo://app?vid=a933c48e-f673-4d03-ab97-4c5fb8b77de3","ios":"levelo://app?vid=a933c48e-f673-4d03-ab97-4c5fb8b77de3"},"vehicle_type_id":"4","last_reported":1702663753,"current_range_meters":400,"station_id":"ce4bhg12rcd13ifvqf80","pricing_plan_id":"free"},{"bike_id":"c69b786c-6498-4ec6-92bc-fff35e7453dc","system_id":"levelo_inurba_marseille","lat":43.279742,"lon":5.38744,"is_reserved":false,"is_disabled":false,"rental_uris":{"android":"levelo://app?vid=c69b786c-6498-4ec6-92bc-fff35e7453dc","ios":"levelo://app?vid=c69b786c-6498-4ec6-92bc-fff35e7453dc"},"vehicle_type_id":"4","last_reported":1702663753,"current_range_meters":17600,"station_id":"ce4bhg12rcd13ifvqf80","pricing_plan_id":"free"},{"bike_id":"905b4bf8-3a18-4848-85b7-3d0a7187a758","system_id":"levelo_inurba_marseille","lat":43.292569,"lon":5.409107,"is_reserved":false,"is_disabled":false,"rental_uris":{"android":"levelo://app?vid=905b4bf8-3a18-4848-85b7-3d0a7187a758","ios":"levelo://app?vid=905b4bf8-3a18-4848-85b7-3d0a7187a758"},"vehicle_type_id":"4","last_reported":1702663753,"current_range_meters":5600,"station_id":"ce4bh192rcd13ifvqdc0","pricing_plan_id":"free"},{"bike_id":"a2f99305-9f7b-41a2-ab54-a2f3237a27eb","system_id":"levelo_inurba_marseille","lat":43.292571,"lon":5.409107,"is_reserved":false,"is_disabled":false,"rental_uris":{"android":"levelo://app?vid=a2f99305-9f7b-41a2-ab54-a2f3237a27eb","ios":"levelo://app?vid=a2f99305-9f7b-41a2-ab54-a2f3237a27eb"},"vehicle_type_id":"4","last_reported":1702663753,"current_range_meters":20000,"station_id":"ce4bh192rcd13ifvqdc0","pricing_plan_id":"free"},{"bike_id":"bf9b9c00-a86c-4165-8ab6-3486b9189841","system_id":"levelo_inurba_marseille","lat":43.292571,"lon":5.409107,"is_reserved":false,"is_disabled":false,"rental_uris":{"android":"levelo://app?vid=bf9b9c00-a86c-4165-8ab6-3486b9189841","ios":"levelo://app?vid=bf9b9c00-a86c-4165-8ab6-3486b9189841"},"vehicle_type_id":"4","last_reported":1702663753,"current_range_meters":6800,"station_id":"ce4bh192rcd13ifvqdc0","pricing_plan_id":"free"},{"bike_id":"b206e64b-418d-400d-b7ad-a8ab7b4a7b77","system_id":"levelo_inurba_marseille","lat":43.292569,"lon":5.409107,"is_reserved":false,"is_disabled":false,"rental_uris":{"android":"levelo://app?vid=b206e64b-418d-400d-b7ad-a8ab7b4a7b77","ios":"levelo://app?vid=b206e64b-418d-400d-b7ad-a8ab7b4a7b77"},"vehicle_type_id":"4","last_reported":1702663753,"current_range_meters":23200,"station_id":"ce4bh192rcd13ifvqdc0","pricing_plan_id":"free"},{"bike_id":"2fcee072-6c68-432e-a56d-4cb6589de9b8","system_id":"levelo_inurba_marseille","lat":43.292569,"lon":5.409107,"is_reserved":false,"is_disabled":false,"rental_uris":{"android":"levelo://app?vid=2fcee072-6c68-432e-a56d-4cb6589de9b8","ios":"levelo://app?vid=2fcee072-6c68-432e-a56d-4cb6589de9b8"},"vehicle_type_id":"4","last_reported":1702663753,"current_range_meters":6400,"station_id":"ce4bh192rcd13ifvqdc0","pricing_plan_id":"free"},{"bike_id":"adc39c46-2333-4fdb-9dc0-bff8b4e05824","system_id":"levelo_inurba_marseille","lat":43.292571,"lon":5.409107,"is_reserved":false,"is_disabled":false,"rental_uris":{"android":"levelo://app?vid=adc39c46-2333-4fdb-9dc0-bff8b4e05824","ios":"levelo://app?vid=adc39c46-2333-4fdb-9dc0-bff8b4e05824"},"vehicle_type_id":"4","last_reported":1702663753,"current_range_meters":30400,"station_id":"ce4bh192rcd13ifvqdc0","pricing_plan_id":"free"},{"bike_id":"6b8643c5-1fdd-4c34-b326-58145f7f1ac7","system_id":"levelo_inurba_marseille","lat":43.27618,"lon":5.361009,"is_reserved":false,"is_disabled":false,"rental_uris":{"android":"levelo://app?vid=6b8643c5-1fdd-4c34-b326-58145f7f1ac7","ios":"levelo://app?vid=6b8643c5-1fdd-4c34-b326-58145f7f1ac7"},"vehicle_type_id":"4","last_reported":1702663753,"current_range_meters":30000,"station_id":"ce4bgj92rcd13ifvqbe0","pricing_plan_id":"free"},{"bike_id":"c40aebd4-c148-4d4d-9243-dcfaa5c4b14c","system_id":"levelo_inurba_marseille","lat":43.27615,"lon":5.36115,"is_reserved":false,"is_disabled":false,"rental_uris":{"android":"levelo://app?vid=c40aebd4-c148-4d4d-9243-dcfaa5c4b14c","ios":"levelo://app?vid=c40aebd4-c148-4d4d-9243-dcfaa5c4b14c"},"vehicle_type_id":"4","last_reported":1702663753,"current_range_meters":18000,"station_id":"ce4bgj92rcd13ifvqbe0","pricing_plan_id":"free"},{"bike_id":"85967ac3-c8bf-4c4d-9f65-8f46db69571a","system_id":"levelo_inurba_marseille","lat":43.276138,"lon":5.361093,"is_reserved":false,"is_disabled":false,"rental_uris":{"android":"levelo://app?vid=85967ac3-c8bf-4c4d-9f65-8f46db69571a","ios":"levelo://app?vid=85967ac3-c8bf-4c4d-9f65-8f46db69571a"},"vehicle_type_id":"4","last_reported":1702663753,"current_range_meters":29600,"station_id":"ce4bgj92rcd13ifvqbe0","pricing_plan_id":"free"},{"bike_id":"f8194b60-80e1-4777-a7a8-f67423256e1d","system_id":"levelo_inurba_marseille","lat":43.280784,"lon":5.396622,"is_reserved":false,"is_disabled":false,"rental_uris":{"android":"levelo://app?vid=f8194b60-80e1-4777-a7a8-f67423256e1d","ios":"levelo://app?vid=f8194b60-80e1-4777-a7a8-f67423256e1d"},"vehicle_type_id":"4","last_reported":1702663753,"current_range_meters":12000,"station_id":"ce4bho12rcd13ifvqh2g","pricing_plan_id":"free"},{"bike_id":"c9250e58-a793-45c3-a928-308dd29db233","system_id":"levelo_inurba_marseille","lat":43.280784,"lon":5.396622,"is_reserved":false,"is_disabled":false,"rental_uris":{"android":"levelo://app?vid=c9250e58-a793-45c3-a928-308dd29db233","ios":"levelo://app?vid=c9250e58-a793-45c3-a928-308dd29db233"},"vehicle_type_id":"4","last_reported":1702663753,"current_range_meters":26000,"station_id":"ce4bho12rcd13ifvqh2g","pricing_plan_id":"free"},{"bike_id":"973ebab7-4841-4aa7-ac13-e060b6fcee3e","system_id":"levelo_inurba_marseille","lat":43.303837,"lon":5.418724,"is_reserved":false,"is_disabled":false,"rental_uris":{"android":"levelo://app?vid=973ebab7-4841-4aa7-ac13-e060b6fcee3e","ios":"levelo://app?vid=973ebab7-4841-4aa7-ac13-e060b6fcee3e"},"vehicle_type_id":"4","last_reported":1702663753,"current_range_meters":2000,"station_id":"ce4bhop2rcd13ifvqh7g","pricing_plan_id":"free"},{"bike_id":"0a47c193-7d32-42af-8b7b-37fd614e8e4c","system_id":"levelo_inurba_marseille","lat":43.303837,"lon":5.418724,"is_reserved":false,"is_disabled":false,"rental_uris":{"android":"levelo://app?vid=0a47c193-7d32-42af-8b7b-37fd614e8e4c","ios":"levelo://app?vid=0a47c193-7d32-42af-8b7b-37fd614e8e4c"},"vehicle_type_id":"4","last_reported":1702663753,"current_range_meters":17600,"station_id":"ce4bhop2rcd13ifvqh7g","pricing_plan_id":"free"},{"bike_id":"79754383-443a-4246-ab6a-bf05a32544a0","system_id":"levelo_inurba_marseille","lat":43.303837,"lon":5.418724,"is_reserved":false,"is_disabled":false,"rental_uris":{"android":"levelo://app?vid=79754383-443a-4246-ab6a-bf05a32544a0","ios":"levelo://app?vid=79754383-443a-4246-ab6a-bf05a32544a0"},"vehicle_type_id":"4","last_reported":1702663753,"current_range_meters":4000,"station_id":"ce4bhop2rcd13ifvqh7g","pricing_plan_id":"free"},{"bike_id":"5aa62cce-579f-4dac-91f0-0369b150a10b","system_id":"levelo_inurba_marseille","lat":43.278401,"lon":5.392152,"is_reserved":false,"is_disabled":false,"rental_uris":{"android":"levelo://app?vid=5aa62cce-579f-4dac-91f0-0369b150a10b","ios":"levelo://app?vid=5aa62cce-579f-4dac-91f0-0369b150a10b"},"vehicle_type_id":"4","last_reported":1702663753,"current_range_meters":3600,"station_id":"ce4bhjp2rcd13ifvqga0","pricing_plan_id":"free"},{"bike_id":"8e1e848d-d96b-4302-ada5-5df8b44d4656","system_id":"levelo_inurba_marseille","lat":43.30345,"lon":5.41897,"is_reserved":false,"is_disabled":false,"rental_uris":{"android":"levelo://app?vid=8e1e848d-d96b-4302-ada5-5df8b44d4656","ios":"levelo://app?vid=8e1e848d-d96b-4302-ada5-5df8b44d4656"},"vehicle_type_id":"4","last_reported":1702663753,"current_range_meters":17200,"station_id":"ce4bhop2rcd13ifvqh7g","pricing_plan_id":"free"},{"bike_id":"6a468fa5-b367-46bc-8a88-48c80972df78","system_id":"levelo_inurba_marseille","lat":43.2738,"lon":5.36255,"is_reserved":false,"is_disabled":false,"rental_uris":{"android":"levelo://app?vid=6a468fa5-b367-46bc-8a88-48c80972df78","ios":"levelo://app?vid=6a468fa5-b367-46bc-8a88-48c80972df78"},"vehicle_type_id":"4","last_reported":1702663753,"current_range_meters":30400,"station_id":"ce4bhbh2rcd13ifvqeo0","pricing_plan_id":"free"},{"bike_id":"3bce963e-4ff0-44ae-911c-664b1b6677df","system_id":"levelo_inurba_marseille","lat":43.2738,"lon":5.36247,"is_reserved":false,"is_disabled":false,"rental_uris":{"android":"levelo://app?vid=3bce963e-4ff0-44ae-911c-664b1b6677df","ios":"levelo://app?vid=3bce963e-4ff0-44ae-911c-664b1b6677df"},"vehicle_type_id":"4","last_reported":1702663753,"current_range_meters":19200,"station_id":"ce4bhbh2rcd13ifvqeo0","pricing_plan_id":"free"},{"bike_id":"907a067d-c63b-4e71-8a69-1f3786170ca7","system_id":"levelo_inurba_marseille","lat":43.27555,"lon":5.38413,"is_reserved":false,"is_disabled":false,"rental_uris":{"android":"levelo://app?vid=907a067d-c63b-4e71-8a69-1f3786170ca7","ios":"levelo://app?vid=907a067d-c63b-4e71-8a69-1f3786170ca7"},"vehicle_type_id":"4","last_reported":1702663753,"current_range_meters":20400,"station_id":"ce4bhh92rcd13ifvqfi0","pricing_plan_id":"free"},{"bike_id":"c7ae117d-77dd-4d9e-8e21-f367819b2e42","system_id":"levelo_inurba_marseille","lat":43.279952,"lon":5.400085,"is_reserved":false,"is_disabled":false,"rental_uris":{"android":"levelo://app?vid=c7ae117d-77dd-4d9e-8e21-f367819b2e42","ios":"levelo://app?vid=c7ae117d-77dd-4d9e-8e21-f367819b2e42"},"vehicle_type_id":"4","last_reported":1702663753,"current_range_meters":3600,"station_id":"ce4bho92rcd13ifvqh4g","pricing_plan_id":"free"},{"bike_id":"58836c95-6366-4507-b317-696c63def311","system_id":"levelo_inurba_marseille","lat":43.317121,"lon":5.423936,"is_reserved":false,"is_disabled":false,"rental_uris":{"android":"levelo://app?vid=58836c95-6366-4507-b317-696c63def311","ios":"levelo://app?vid=58836c95-6366-4507-b317-696c63def311"},"vehicle_type_id":"4","last_reported":1702663753,"current_range_meters":30000,"station_id":"ce4bhp92rcd13ifvqhbg","pricing_plan_id":"free"},{"bike_id":"cdc69067-dad5-415d-b4f3-0a438e350196","system_id":"levelo_inurba_marseille","lat":43.317121,"lon":5.423936,"is_reserved":false,"is_disabled":false,"rental_uris":{"android":"levelo://app?vid=cdc69067-dad5-415d-b4f3-0a438e350196","ios":"levelo://app?vid=cdc69067-dad5-415d-b4f3-0a438e350196"},"vehicle_type_id":"4","last_reported":1702663753,"current_range_meters":24000,"station_id":"ce4bhp92rcd13ifvqhbg","pricing_plan_id":"free"},{"bike_id":"93a9a0b0-f09a-4679-973e-f3ebca0caf36","system_id":"levelo_inurba_marseille","lat":43.310785,"lon":5.424305,"is_reserved":false,"is_disabled":false,"rental_uris":{"android":"levelo://app?vid=93a9a0b0-f09a-4679-973e-f3ebca0caf36","ios":"levelo://app?vid=93a9a0b0-f09a-4679-973e-f3ebca0caf36"},"vehicle_type_id":"4","last_reported":1702663753,"current_range_meters":28400,"station_id":"ce4bhp92rcd13ifvqhag","pricing_plan_id":"free"},{"bike_id":"13b63d08-aaa3-4985-bf57-1f32727c58d1","system_id":"levelo_inurba_marseille","lat":43.310785,"lon":5.424305,"is_reserved":false,"is_disabled":false,"rental_uris":{"android":"levelo://app?vid=13b63d08-aaa3-4985-bf57-1f32727c58d1","ios":"levelo://app?vid=13b63d08-aaa3-4985-bf57-1f32727c58d1"},"vehicle_type_id":"4","last_reported":1702663753,"current_range_meters":26800,"station_id":"ce4bhp92rcd13ifvqhag","pricing_plan_id":"free"},{"bike_id":"3ca2c2d2-99b0-4aa6-a05d-e30f02e6a7fb","system_id":"levelo_inurba_marseille","lat":43.276092,"lon":5.395289,"is_reserved":false,"is_disabled":false,"rental_uris":{"android":"levelo://app?vid=3ca2c2d2-99b0-4aa6-a05d-e30f02e6a7fb","ios":"levelo://app?vid=3ca2c2d2-99b0-4aa6-a05d-e30f02e6a7fb"},"vehicle_type_id":"4","last_reported":1702663753,"current_range_meters":26000,"station_id":"","pricing_plan_id":"free"},{"bike_id":"bd16862a-4b1d-4cc1-ad95-bcd3646ce921","system_id":"levelo_inurba_marseille","lat":43.273125,"lon":5.390731,"is_reserved":false,"is_disabled":false,"rental_uris":{"android":"levelo://app?vid=bd16862a-4b1d-4cc1-ad95-bcd3646ce921","ios":"levelo://app?vid=bd16862a-4b1d-4cc1-ad95-bcd3646ce921"},"vehicle_type_id":"4","last_reported":1702663753,"current_range_meters":24800,"station_id":"ce4bhgp2rcd13ifvqfe0","pricing_plan_id":"free"},{"bike_id":"de9feb39-3844-4206-aa16-9fe6fe1926e0","system_id":"levelo_inurba_marseille","lat":43.295511,"lon":5.422926,"is_reserved":false,"is_disabled":false,"rental_uris":{"android":"levelo://app?vid=de9feb39-3844-4206-aa16-9fe6fe1926e0","ios":"levelo://app?vid=de9feb39-3844-4206-aa16-9fe6fe1926e0"},"vehicle_type_id":"4","last_reported":1702663753,"current_range_meters":18400,"station_id":"ce4bhph2rcd13ifvqhdg","pricing_plan_id":"free"},{"bike_id":"624d579c-bc37-4f4d-8491-66eb3a55fefa","system_id":"levelo_inurba_marseille","lat":43.295511,"lon":5.422926,"is_reserved":false,"is_disabled":false,"rental_uris":{"android":"levelo://app?vid=624d579c-bc37-4f4d-8491-66eb3a55fefa","ios":"levelo://app?vid=624d579c-bc37-4f4d-8491-66eb3a55fefa"},"vehicle_type_id":"4","last_reported":1702663753,"current_range_meters":18800,"station_id":"ce4bhph2rcd13ifvqhdg","pricing_plan_id":"free"},{"bike_id":"1d2472e2-350f-44fa-a627-38e6bb5829da","system_id":"levelo_inurba_marseille","lat":43.295511,"lon":5.422926,"is_reserved":false,"is_disabled":false,"rental_uris":{"android":"levelo://app?vid=1d2472e2-350f-44fa-a627-38e6bb5829da","ios":"levelo://app?vid=1d2472e2-350f-44fa-a627-38e6bb5829da"},"vehicle_type_id":"4","last_reported":1702663753,"current_range_meters":31600,"station_id":"ce4bhph2rcd13ifvqhdg","pricing_plan_id":"free"},{"bike_id":"f9f2fea5-1644-4907-8425-96fb3c646817","system_id":"levelo_inurba_marseille","lat":43.272116,"lon":5.391763,"is_reserved":false,"is_disabled":false,"rental_uris":{"android":"levelo://app?vid=f9f2fea5-1644-4907-8425-96fb3c646817","ios":"levelo://app?vid=f9f2fea5-1644-4907-8425-96fb3c646817"},"vehicle_type_id":"4","last_reported":1702663753,"current_range_meters":16000,"station_id":"ce4bhhp2rcd13ifvqfm0","pricing_plan_id":"free"},{"bike_id":"297f8938-cb47-4222-9f58-940127d6aca9","system_id":"levelo_inurba_marseille","lat":43.272116,"lon":5.391747,"is_reserved":false,"is_disabled":false,"rental_uris":{"android":"levelo://app?vid=297f8938-cb47-4222-9f58-940127d6aca9","ios":"levelo://app?vid=297f8938-cb47-4222-9f58-940127d6aca9"},"vehicle_type_id":"4","last_reported":1702663753,"current_range_meters":2400,"station_id":"ce4bhhp2rcd13ifvqfm0","pricing_plan_id":"free"},{"bike_id":"c52928c9-4db5-4734-b2a1-722395fc76c7","system_id":"levelo_inurba_marseille","lat":43.27187,"lon":5.39224,"is_reserved":false,"is_disabled":false,"rental_uris":{"android":"levelo://app?vid=c52928c9-4db5-4734-b2a1-722395fc76c7","ios":"levelo://app?vid=c52928c9-4db5-4734-b2a1-722395fc76c7"},"vehicle_type_id":"4","last_reported":1702663753,"current_range_meters":20000,"station_id":"ce4bhhp2rcd13ifvqfm0","pricing_plan_id":"free"},{"bike_id":"86c12b55-d5ee-4fb9-bd25-1d619c4c1cc8","system_id":"levelo_inurba_marseille","lat":43.278128,"lon":5.407195,"is_reserved":false,"is_disabled":false,"rental_uris":{"android":"levelo://app?vid=86c12b55-d5ee-4fb9-bd25-1d619c4c1cc8","ios":"levelo://app?vid=86c12b55-d5ee-4fb9-bd25-1d619c4c1cc8"},"vehicle_type_id":"4","last_reported":1702663753,"current_range_meters":6000,"station_id":"ce4bhnh2rcd13ifvqgtg","pricing_plan_id":"free"},{"bike_id":"e5a10107-4d8c-4d74-9f7b-5b76938d2964","system_id":"levelo_inurba_marseille","lat":43.269467,"lon":5.386439,"is_reserved":false,"is_disabled":false,"rental_uris":{"android":"levelo://app?vid=e5a10107-4d8c-4d74-9f7b-5b76938d2964","ios":"levelo://app?vid=e5a10107-4d8c-4d74-9f7b-5b76938d2964"},"vehicle_type_id":"4","last_reported":1702663753,"current_range_meters":4800,"station_id":"ce4bhh92rcd13ifvqfh0","pricing_plan_id":"free"},{"bike_id":"fb361dbf-eed1-46f6-a8a7-ace29a33be31","system_id":"levelo_inurba_marseille","lat":43.27943,"lon":5.41043,"is_reserved":false,"is_disabled":false,"rental_uris":{"android":"levelo://app?vid=fb361dbf-eed1-46f6-a8a7-ace29a33be31","ios":"levelo://app?vid=fb361dbf-eed1-46f6-a8a7-ace29a33be31"},"vehicle_type_id":"4","last_reported":1702663753,"current_range_meters":15600,"station_id":"ce4bhnp2rcd13ifvqh0g","pricing_plan_id":"free"},{"bike_id":"0c2a2f18-2ab5-402a-ad48-7cc152bdd939","system_id":"levelo_inurba_marseille","lat":43.269319,"lon":5.389397,"is_reserved":false,"is_disabled":false,"rental_uris":{"android":"levelo://app?vid=0c2a2f18-2ab5-402a-ad48-7cc152bdd939","ios":"levelo://app?vid=0c2a2f18-2ab5-402a-ad48-7cc152bdd939"},"vehicle_type_id":"4","last_reported":1702663753,"current_range_meters":31200,"station_id":"ce4bhhh2rcd13ifvqfl0","pricing_plan_id":"free"},{"bike_id":"db774753-4382-453e-a138-c32d538f9839","system_id":"levelo_inurba_marseille","lat":43.3587,"lon":5.35679,"is_reserved":false,"is_disabled":false,"rental_uris":{"android":"levelo://app?vid=db774753-4382-453e-a138-c32d538f9839","ios":"levelo://app?vid=db774753-4382-453e-a138-c32d538f9839"},"vehicle_type_id":"4","last_reported":1702663753,"current_range_meters":11200,"station_id":"","pricing_plan_id":"free"},{"bike_id":"00e1ad9a-0b64-4e47-bacd-25829f0337d0","system_id":"levelo_inurba_marseille","lat":43.265714,"lon":5.372891,"is_reserved":false,"is_disabled":false,"rental_uris":{"android":"levelo://app?vid=00e1ad9a-0b64-4e47-bacd-25829f0337d0","ios":"levelo://app?vid=00e1ad9a-0b64-4e47-bacd-25829f0337d0"},"vehicle_type_id":"4","last_reported":1702663753,"current_range_meters":27200,"station_id":"ce4bhg12rcd13ifvqf70","pricing_plan_id":"free"},{"bike_id":"95e9dd1f-f2f5-405d-b720-08fe860b3dcc","system_id":"levelo_inurba_marseille","lat":43.308051,"lon":5.43527,"is_reserved":false,"is_disabled":false,"rental_uris":{"android":"levelo://app?vid=95e9dd1f-f2f5-405d-b720-08fe860b3dcc","ios":"levelo://app?vid=95e9dd1f-f2f5-405d-b720-08fe860b3dcc"},"vehicle_type_id":"4","last_reported":1702663753,"current_range_meters":16000,"station_id":"ce4bhph2rcd13ifvqheg","pricing_plan_id":"free"},{"bike_id":"842fd104-4e72-479c-a710-36212f57ceb7","system_id":"levelo_inurba_marseille","lat":43.26949,"lon":5.40262,"is_reserved":false,"is_disabled":false,"rental_uris":{"android":"levelo://app?vid=842fd104-4e72-479c-a710-36212f57ceb7","ios":"levelo://app?vid=842fd104-4e72-479c-a710-36212f57ceb7"},"vehicle_type_id":"4","last_reported":1702663753,"current_range_meters":9600,"station_id":"cjm6bp8fraef2m0cb0m0","pricing_plan_id":"free"},{"bike_id":"f0a32142-a0fb-402e-ac11-91fd807e6315","system_id":"levelo_inurba_marseille","lat":43.2693,"lon":5.402785,"is_reserved":false,"is_disabled":false,"rental_uris":{"android":"levelo://app?vid=f0a32142-a0fb-402e-ac11-91fd807e6315","ios":"levelo://app?vid=f0a32142-a0fb-402e-ac11-91fd807e6315"},"vehicle_type_id":"4","last_reported":1702663753,"current_range_meters":15200,"station_id":"","pricing_plan_id":"free"},{"bike_id":"aa7ebe32-f1a4-4d47-bd7a-34b412f08674","system_id":"levelo_inurba_marseille","lat":43.317104,"lon":5.436818,"is_reserved":false,"is_disabled":false,"rental_uris":{"android":"levelo://app?vid=aa7ebe32-f1a4-4d47-bd7a-34b412f08674","ios":"levelo://app?vid=aa7ebe32-f1a4-4d47-bd7a-34b412f08674"},"vehicle_type_id":"4","last_reported":1702663753,"current_range_meters":31200,"station_id":"ce4bhp92rcd13ifvqhcg","pricing_plan_id":"free"},{"bike_id":"3feeb233-5481-4cea-989c-30b75874f2b5","system_id":"levelo_inurba_marseille","lat":43.26198,"lon":5.37928,"is_reserved":false,"is_disabled":false,"rental_uris":{"android":"levelo://app?vid=3feeb233-5481-4cea-989c-30b75874f2b5","ios":"levelo://app?vid=3feeb233-5481-4cea-989c-30b75874f2b5"},"vehicle_type_id":"4","last_reported":1702663753,"current_range_meters":29600,"station_id":"ce4bhjp2rcd13ifvqg90","pricing_plan_id":"free"},{"bike_id":"5b37bf3b-1d3d-4bcb-b86b-d23003f4a8d2","system_id":"levelo_inurba_marseille","lat":43.271368,"lon":5.40928,"is_reserved":false,"is_disabled":false,"rental_uris":{"android":"levelo://app?vid=5b37bf3b-1d3d-4bcb-b86b-d23003f4a8d2","ios":"levelo://app?vid=5b37bf3b-1d3d-4bcb-b86b-d23003f4a8d2"},"vehicle_type_id":"4","last_reported":1702663753,"current_range_meters":19200,"station_id":"ce4bhl12rcd13ifvqgf0","pricing_plan_id":"free"},{"bike_id":"5b29ac48-5ba9-4f57-847d-b41be8046c39","system_id":"levelo_inurba_marseille","lat":43.281548,"lon":5.42643,"is_reserved":false,"is_disabled":false,"rental_uris":{"android":"levelo://app?vid=5b29ac48-5ba9-4f57-847d-b41be8046c39","ios":"levelo://app?vid=5b29ac48-5ba9-4f57-847d-b41be8046c39"},"vehicle_type_id":"4","last_reported":1702663753,"current_range_meters":6000,"station_id":"ce4bhnh2rcd13ifvqgug","pricing_plan_id":"free"},{"bike_id":"8bb68f77-a514-45db-ac8f-d0ee315c2c9c","system_id":"levelo_inurba_marseille","lat":43.281548,"lon":5.42643,"is_reserved":false,"is_disabled":false,"rental_uris":{"android":"levelo://app?vid=8bb68f77-a514-45db-ac8f-d0ee315c2c9c","ios":"levelo://app?vid=8bb68f77-a514-45db-ac8f-d0ee315c2c9c"},"vehicle_type_id":"4","last_reported":1702663753,"current_range_meters":25600,"station_id":"ce4bhnh2rcd13ifvqgug","pricing_plan_id":"free"},{"bike_id":"ebb09701-6c50-4701-bc34-8efcf2b61faa","system_id":"levelo_inurba_marseille","lat":43.275028,"lon":5.424534,"is_reserved":false,"is_disabled":false,"rental_uris":{"android":"levelo://app?vid=ebb09701-6c50-4701-bc34-8efcf2b61faa","ios":"levelo://app?vid=ebb09701-6c50-4701-bc34-8efcf2b61faa"},"vehicle_type_id":"4","last_reported":1702663753,"current_range_meters":4800,"station_id":"ce4bhn92rcd13ifvqgrg","pricing_plan_id":"free"},{"bike_id":"b76e4b50-f6f0-431f-a6f8-b141c06663a4","system_id":"levelo_inurba_marseille","lat":43.275028,"lon":5.424534,"is_reserved":false,"is_disabled":false,"rental_uris":{"android":"levelo://app?vid=b76e4b50-f6f0-431f-a6f8-b141c06663a4","ios":"levelo://app?vid=b76e4b50-f6f0-431f-a6f8-b141c06663a4"},"vehicle_type_id":"4","last_reported":1702663753,"current_range_meters":12400,"station_id":"ce4bhn92rcd13ifvqgrg","pricing_plan_id":"free"},{"bike_id":"cc5d76b0-a393-4a4c-baa6-a656fc269eb7","system_id":"levelo_inurba_marseille","lat":43.275028,"lon":5.424534,"is_reserved":false,"is_disabled":false,"rental_uris":{"android":"levelo://app?vid=cc5d76b0-a393-4a4c-baa6-a656fc269eb7","ios":"levelo://app?vid=cc5d76b0-a393-4a4c-baa6-a656fc269eb7"},"vehicle_type_id":"4","last_reported":1702663753,"current_range_meters":22800,"station_id":"ce4bhn92rcd13ifvqgrg","pricing_plan_id":"free"},{"bike_id":"51db3d55-1508-44d3-a1ab-1ae837af26aa","system_id":"levelo_inurba_marseille","lat":43.258224,"lon":5.394369,"is_reserved":false,"is_disabled":false,"rental_uris":{"android":"levelo://app?vid=51db3d55-1508-44d3-a1ab-1ae837af26aa","ios":"levelo://app?vid=51db3d55-1508-44d3-a1ab-1ae837af26aa"},"vehicle_type_id":"4","last_reported":1702663753,"current_range_meters":5200,"station_id":"ce4bhip2rcd13ifvqft0","pricing_plan_id":"free"},{"bike_id":"684c1270-0092-4a86-ad29-c7608ce182e8","system_id":"levelo_inurba_marseille","lat":43.254947,"lon":5.376454,"is_reserved":false,"is_disabled":false,"rental_uris":{"android":"levelo://app?vid=684c1270-0092-4a86-ad29-c7608ce182e8","ios":"levelo://app?vid=684c1270-0092-4a86-ad29-c7608ce182e8"},"vehicle_type_id":"4","last_reported":1702663753,"current_range_meters":30000,"station_id":"ce4bhh12rcd13ifvqff0","pricing_plan_id":"free"},{"bike_id":"51fbc073-d4b5-4fad-b3f5-538567d17cc0","system_id":"levelo_inurba_marseille","lat":43.254947,"lon":5.376454,"is_reserved":false,"is_disabled":false,"rental_uris":{"android":"levelo://app?vid=51fbc073-d4b5-4fad-b3f5-538567d17cc0","ios":"levelo://app?vid=51fbc073-d4b5-4fad-b3f5-538567d17cc0"},"vehicle_type_id":"4","last_reported":1702663753,"current_range_meters":31600,"station_id":"ce4bhh12rcd13ifvqff0","pricing_plan_id":"free"},{"bike_id":"774dd1c5-d7ab-4987-aaff-87ab2bdb72e5","system_id":"levelo_inurba_marseille","lat":43.254947,"lon":5.376454,"is_reserved":false,"is_disabled":false,"rental_uris":{"android":"levelo://app?vid=774dd1c5-d7ab-4987-aaff-87ab2bdb72e5","ios":"levelo://app?vid=774dd1c5-d7ab-4987-aaff-87ab2bdb72e5"},"vehicle_type_id":"4","last_reported":1702663753,"current_range_meters":32000,"station_id":"ce4bhh12rcd13ifvqff0","pricing_plan_id":"free"},{"bike_id":"c9f09b88-2f5a-4c7b-9b79-b379e0790abf","system_id":"levelo_inurba_marseille","lat":43.254947,"lon":5.376454,"is_reserved":false,"is_disabled":false,"rental_uris":{"android":"levelo://app?vid=c9f09b88-2f5a-4c7b-9b79-b379e0790abf","ios":"levelo://app?vid=c9f09b88-2f5a-4c7b-9b79-b379e0790abf"},"vehicle_type_id":"4","last_reported":1702663753,"current_range_meters":800,"station_id":"ce4bhh12rcd13ifvqff0","pricing_plan_id":"free"},{"bike_id":"90403209-61c6-41ce-af1e-ea5a1c60ef66","system_id":"levelo_inurba_marseille","lat":43.258658,"lon":5.398935,"is_reserved":false,"is_disabled":false,"rental_uris":{"android":"levelo://app?vid=90403209-61c6-41ce-af1e-ea5a1c60ef66","ios":"levelo://app?vid=90403209-61c6-41ce-af1e-ea5a1c60ef66"},"vehicle_type_id":"4","last_reported":1702663753,"current_range_meters":2400,"station_id":"ce4bhl92rcd13ifvqghg","pricing_plan_id":"free"},{"bike_id":"c6c15238-8e51-4d91-9c37-cee4f2654fdf","system_id":"levelo_inurba_marseille","lat":43.257079,"lon":5.411051,"is_reserved":false,"is_disabled":false,"rental_uris":{"android":"levelo://app?vid=c6c15238-8e51-4d91-9c37-cee4f2654fdf","ios":"levelo://app?vid=c6c15238-8e51-4d91-9c37-cee4f2654fdf"},"vehicle_type_id":"4","last_reported":1702663753,"current_range_meters":14800,"station_id":"ce4bhkp2rcd13ifvqgd0","pricing_plan_id":"free"},{"bike_id":"a7f098b0-6b35-4dab-b301-868df9c05a47","system_id":"levelo_inurba_marseille","lat":43.250009,"lon":5.389195,"is_reserved":false,"is_disabled":false,"rental_uris":{"android":"levelo://app?vid=a7f098b0-6b35-4dab-b301-868df9c05a47","ios":"levelo://app?vid=a7f098b0-6b35-4dab-b301-868df9c05a47"},"vehicle_type_id":"4","last_reported":1702663753,"current_range_meters":4800,"station_id":"ce4bhgp2rcd13ifvqfd0","pricing_plan_id":"free"},{"bike_id":"ed62940b-c905-4c36-8e71-42992f2fb176","system_id":"levelo_inurba_marseille","lat":43.2479,"lon":5.374457,"is_reserved":false,"is_disabled":false,"rental_uris":{"android":"levelo://app?vid=ed62940b-c905-4c36-8e71-42992f2fb176","ios":"levelo://app?vid=ed62940b-c905-4c36-8e71-42992f2fb176"},"vehicle_type_id":"4","last_reported":1702663753,"current_range_meters":2000,"station_id":"ce4bhgh2rcd13ifvqfb0","pricing_plan_id":"free"},{"bike_id":"828dc8e7-2d40-4d15-8e08-5501b2a53a76","system_id":"levelo_inurba_marseille","lat":43.250966,"lon":5.395186,"is_reserved":false,"is_disabled":false,"rental_uris":{"android":"levelo://app?vid=828dc8e7-2d40-4d15-8e08-5501b2a53a76","ios":"levelo://app?vid=828dc8e7-2d40-4d15-8e08-5501b2a53a76"},"vehicle_type_id":"4","last_reported":1702663753,"current_range_meters":23600,"station_id":"ce4bhm12rcd13ifvqgkg","pricing_plan_id":"free"},{"bike_id":"1792bf4b-2a7a-4e47-9b67-780a8c27534f","system_id":"levelo_inurba_marseille","lat":43.24693,"lon":5.382096,"is_reserved":false,"is_disabled":false,"rental_uris":{"android":"levelo://app?vid=1792bf4b-2a7a-4e47-9b67-780a8c27534f","ios":"levelo://app?vid=1792bf4b-2a7a-4e47-9b67-780a8c27534f"},"vehicle_type_id":"4","last_reported":1702663753,"current_range_meters":24400,"station_id":"ce4bhih2rcd13ifvqfr0","pricing_plan_id":"free"},{"bike_id":"7563cd1b-77ac-4b34-8561-48c6f98c8e6e","system_id":"levelo_inurba_marseille","lat":43.24693,"lon":5.382096,"is_reserved":false,"is_disabled":false,"rental_uris":{"android":"levelo://app?vid=7563cd1b-77ac-4b34-8561-48c6f98c8e6e","ios":"levelo://app?vid=7563cd1b-77ac-4b34-8561-48c6f98c8e6e"},"vehicle_type_id":"4","last_reported":1702663753,"current_range_meters":30800,"station_id":"ce4bhih2rcd13ifvqfr0","pricing_plan_id":"free"},{"bike_id":"24823af9-e338-40f7-b3ab-8a760ed4d424","system_id":"levelo_inurba_marseille","lat":43.24693,"lon":5.382096,"is_reserved":false,"is_disabled":false,"rental_uris":{"android":"levelo://app?vid=24823af9-e338-40f7-b3ab-8a760ed4d424","ios":"levelo://app?vid=24823af9-e338-40f7-b3ab-8a760ed4d424"},"vehicle_type_id":"4","last_reported":1702663753,"current_range_meters":30000,"station_id":"ce4bhih2rcd13ifvqfr0","pricing_plan_id":"free"},{"bike_id":"8f2d7b2e-c3d6-4b8f-b256-abc9433d0bfe","system_id":"levelo_inurba_marseille","lat":43.24693,"lon":5.382096,"is_reserved":false,"is_disabled":false,"rental_uris":{"android":"levelo://app?vid=8f2d7b2e-c3d6-4b8f-b256-abc9433d0bfe","ios":"levelo://app?vid=8f2d7b2e-c3d6-4b8f-b256-abc9433d0bfe"},"vehicle_type_id":"4","last_reported":1702663753,"current_range_meters":11600,"station_id":"ce4bhih2rcd13ifvqfr0","pricing_plan_id":"free"},{"bike_id":"603c6ed6-d095-4604-a7ad-666c014cd821","system_id":"levelo_inurba_marseille","lat":43.246467,"lon":5.388984,"is_reserved":false,"is_disabled":false,"rental_uris":{"android":"levelo://app?vid=603c6ed6-d095-4604-a7ad-666c014cd821","ios":"levelo://app?vid=603c6ed6-d095-4604-a7ad-666c014cd821"},"vehicle_type_id":"4","last_reported":1702663753,"current_range_meters":24000,"station_id":"ce4bhg12rcd13ifvqf60","pricing_plan_id":"free"},{"bike_id":"36fa9eef-0c0d-4284-b155-3a298ccbbdeb","system_id":"levelo_inurba_marseille","lat":43.246461,"lon":5.389014,"is_reserved":false,"is_disabled":false,"rental_uris":{"android":"levelo://app?vid=36fa9eef-0c0d-4284-b155-3a298ccbbdeb","ios":"levelo://app?vid=36fa9eef-0c0d-4284-b155-3a298ccbbdeb"},"vehicle_type_id":"4","last_reported":1702663753,"current_range_meters":30400,"station_id":"ce4bhg12rcd13ifvqf60","pricing_plan_id":"free"},{"bike_id":"34b69203-613a-479b-8c79-741d2eebb768","system_id":"levelo_inurba_marseille","lat":43.246467,"lon":5.388984,"is_reserved":false,"is_disabled":false,"rental_uris":{"android":"levelo://app?vid=34b69203-613a-479b-8c79-741d2eebb768","ios":"levelo://app?vid=34b69203-613a-479b-8c79-741d2eebb768"},"vehicle_type_id":"4","last_reported":1702663753,"current_range_meters":26800,"station_id":"ce4bhg12rcd13ifvqf60","pricing_plan_id":"free"},{"bike_id":"69b59e58-508b-4fdf-b4b4-3993ed4ed03a","system_id":"levelo_inurba_marseille","lat":43.245581,"lon":5.395069,"is_reserved":false,"is_disabled":false,"rental_uris":{"android":"levelo://app?vid=69b59e58-508b-4fdf-b4b4-3993ed4ed03a","ios":"levelo://app?vid=69b59e58-508b-4fdf-b4b4-3993ed4ed03a"},"vehicle_type_id":"4","last_reported":1702663753,"current_range_meters":8000,"station_id":"ce4bhlp2rcd13ifvqgjg","pricing_plan_id":"free"},{"bike_id":"8c3891d1-12b8-4bd8-9f6f-1377fa1aee87","system_id":"levelo_inurba_marseille","lat":43.245581,"lon":5.395069,"is_reserved":false,"is_disabled":false,"rental_uris":{"android":"levelo://app?vid=8c3891d1-12b8-4bd8-9f6f-1377fa1aee87","ios":"levelo://app?vid=8c3891d1-12b8-4bd8-9f6f-1377fa1aee87"},"vehicle_type_id":"4","last_reported":1702663753,"current_range_meters":15200,"station_id":"ce4bhlp2rcd13ifvqgjg","pricing_plan_id":"free"},{"bike_id":"9598216e-3907-4d5a-afe5-225f53a70c98","system_id":"levelo_inurba_marseille","lat":43.240623,"lon":5.377642,"is_reserved":false,"is_disabled":false,"rental_uris":{"android":"levelo://app?vid=9598216e-3907-4d5a-afe5-225f53a70c98","ios":"levelo://app?vid=9598216e-3907-4d5a-afe5-225f53a70c98"},"vehicle_type_id":"4","last_reported":1702663753,"current_range_meters":6000,"station_id":"ce4bhnp2rcd13ifvqgvg","pricing_plan_id":"free"},{"bike_id":"633a54a7-ec31-4855-849b-d14e8dd63cf3","system_id":"levelo_inurba_marseille","lat":43.2407,"lon":5.37752,"is_reserved":false,"is_disabled":false,"rental_uris":{"android":"levelo://app?vid=633a54a7-ec31-4855-849b-d14e8dd63cf3","ios":"levelo://app?vid=633a54a7-ec31-4855-849b-d14e8dd63cf3"},"vehicle_type_id":"4","last_reported":1702663753,"current_range_meters":31200,"station_id":"ce4bhnp2rcd13ifvqgvg","pricing_plan_id":"free"},{"bike_id":"6d680d70-803a-4545-9d63-f28f95cfd909","system_id":"levelo_inurba_marseille","lat":43.240623,"lon":5.377642,"is_reserved":false,"is_disabled":false,"rental_uris":{"android":"levelo://app?vid=6d680d70-803a-4545-9d63-f28f95cfd909","ios":"levelo://app?vid=6d680d70-803a-4545-9d63-f28f95cfd909"},"vehicle_type_id":"4","last_reported":1702663753,"current_range_meters":31600,"station_id":"ce4bhnp2rcd13ifvqgvg","pricing_plan_id":"free"},{"bike_id":"af693e6a-00ef-4c50-92eb-cde540e63672","system_id":"levelo_inurba_marseille","lat":43.240623,"lon":5.377642,"is_reserved":false,"is_disabled":false,"rental_uris":{"android":"levelo://app?vid=af693e6a-00ef-4c50-92eb-cde540e63672","ios":"levelo://app?vid=af693e6a-00ef-4c50-92eb-cde540e63672"},"vehicle_type_id":"4","last_reported":1702663753,"current_range_meters":1600,"station_id":"ce4bhnp2rcd13ifvqgvg","pricing_plan_id":"free"},{"bike_id":"167a08d0-dea3-4d98-a4df-0326b0c28a96","system_id":"levelo_inurba_marseille","lat":43.240623,"lon":5.377642,"is_reserved":false,"is_disabled":false,"rental_uris":{"android":"levelo://app?vid=167a08d0-dea3-4d98-a4df-0326b0c28a96","ios":"levelo://app?vid=167a08d0-dea3-4d98-a4df-0326b0c28a96"},"vehicle_type_id":"4","last_reported":1702663753,"current_range_meters":13600,"station_id":"ce4bhnp2rcd13ifvqgvg","pricing_plan_id":"free"},{"bike_id":"1be7afb8-e150-40e6-8ef3-26aff36265f5","system_id":"levelo_inurba_marseille","lat":43.240623,"lon":5.377642,"is_reserved":false,"is_disabled":false,"rental_uris":{"android":"levelo://app?vid=1be7afb8-e150-40e6-8ef3-26aff36265f5","ios":"levelo://app?vid=1be7afb8-e150-40e6-8ef3-26aff36265f5"},"vehicle_type_id":"4","last_reported":1702663753,"current_range_meters":20800,"station_id":"ce4bhnp2rcd13ifvqgvg","pricing_plan_id":"free"},{"bike_id":"8c112bac-5f5a-407d-8532-bc3c79605cd8","system_id":"levelo_inurba_marseille","lat":43.239588,"lon":5.366238,"is_reserved":false,"is_disabled":false,"rental_uris":{"android":"levelo://app?vid=8c112bac-5f5a-407d-8532-bc3c79605cd8","ios":"levelo://app?vid=8c112bac-5f5a-407d-8532-bc3c79605cd8"},"vehicle_type_id":"4","last_reported":1702663753,"current_range_meters":31600,"station_id":"ce4bhi12rcd13ifvqfp0","pricing_plan_id":"free"},{"bike_id":"2ffd8ac8-de90-4c36-9a5c-645a3a741992","system_id":"levelo_inurba_marseille","lat":43.241782,"lon":5.397261,"is_reserved":false,"is_disabled":false,"rental_uris":{"android":"levelo://app?vid=2ffd8ac8-de90-4c36-9a5c-645a3a741992","ios":"levelo://app?vid=2ffd8ac8-de90-4c36-9a5c-645a3a741992"},"vehicle_type_id":"4","last_reported":1702663753,"current_range_meters":30800,"station_id":"ce4bhn12rcd13ifvqgpg","pricing_plan_id":"free"},{"bike_id":"bad9b33d-de7d-4c7c-82d1-be01fc455f93","system_id":"levelo_inurba_marseille","lat":43.231923,"lon":5.355545,"is_reserved":false,"is_disabled":false,"rental_uris":{"android":"levelo://app?vid=bad9b33d-de7d-4c7c-82d1-be01fc455f93","ios":"levelo://app?vid=bad9b33d-de7d-4c7c-82d1-be01fc455f93"},"vehicle_type_id":"4","last_reported":1702663753,"current_range_meters":26400,"station_id":"ce4bhu92rcd13ifvqi70","pricing_plan_id":"free"},{"bike_id":"600bdeb8-ea2a-4d1c-a6da-f7a255388a48","system_id":"levelo_inurba_marseille","lat":43.23198,"lon":5.35552,"is_reserved":false,"is_disabled":false,"rental_uris":{"android":"levelo://app?vid=600bdeb8-ea2a-4d1c-a6da-f7a255388a48","ios":"levelo://app?vid=600bdeb8-ea2a-4d1c-a6da-f7a255388a48"},"vehicle_type_id":"4","last_reported":1702663753,"current_range_meters":14400,"station_id":"ce4bhu92rcd13ifvqi70","pricing_plan_id":"free"},{"bike_id":"547672b1-18af-4711-b9a3-86e73cab70b4","system_id":"levelo_inurba_marseille","lat":43.231919,"lon":5.355532,"is_reserved":false,"is_disabled":false,"rental_uris":{"android":"levelo://app?vid=547672b1-18af-4711-b9a3-86e73cab70b4","ios":"levelo://app?vid=547672b1-18af-4711-b9a3-86e73cab70b4"},"vehicle_type_id":"4","last_reported":1702663753,"current_range_meters":20000,"station_id":"ce4bhu92rcd13ifvqi70","pricing_plan_id":"free"},{"bike_id":"185da70e-7a95-41eb-8b73-66c95513e7d7","system_id":"levelo_inurba_marseille","lat":43.231919,"lon":5.355532,"is_reserved":false,"is_disabled":false,"rental_uris":{"android":"levelo://app?vid=185da70e-7a95-41eb-8b73-66c95513e7d7","ios":"levelo://app?vid=185da70e-7a95-41eb-8b73-66c95513e7d7"},"vehicle_type_id":"4","last_reported":1702663753,"current_range_meters":20000,"station_id":"ce4bhu92rcd13ifvqi70","pricing_plan_id":"free"},{"bike_id":"bb21ca5a-cb13-451e-943b-2dfa4a3b7fbc","system_id":"levelo_inurba_marseille","lat":43.231919,"lon":5.355532,"is_reserved":false,"is_disabled":false,"rental_uris":{"android":"levelo://app?vid=bb21ca5a-cb13-451e-943b-2dfa4a3b7fbc","ios":"levelo://app?vid=bb21ca5a-cb13-451e-943b-2dfa4a3b7fbc"},"vehicle_type_id":"4","last_reported":1702663753,"current_range_meters":31200,"station_id":"ce4bhu92rcd13ifvqi70","pricing_plan_id":"free"},{"bike_id":"a6ab5f0e-f0ee-41be-b237-17726a43f065","system_id":"levelo_inurba_marseille","lat":43.23185,"lon":5.35541,"is_reserved":false,"is_disabled":false,"rental_uris":{"android":"levelo://app?vid=a6ab5f0e-f0ee-41be-b237-17726a43f065","ios":"levelo://app?vid=a6ab5f0e-f0ee-41be-b237-17726a43f065"},"vehicle_type_id":"4","last_reported":1702663753,"current_range_meters":6800,"station_id":"ce4bhu92rcd13ifvqi70","pricing_plan_id":"free"},{"bike_id":"5e675e68-5f89-4337-9f5e-8b0067b010c6","system_id":"levelo_inurba_marseille","lat":43.231794,"lon":5.400052,"is_reserved":false,"is_disabled":false,"rental_uris":{"android":"levelo://app?vid=5e675e68-5f89-4337-9f5e-8b0067b010c6","ios":"levelo://app?vid=5e675e68-5f89-4337-9f5e-8b0067b010c6"},"vehicle_type_id":"4","last_reported":1702663753,"current_range_meters":29200,"station_id":"ce4bhn12rcd13ifvqgqg","pricing_plan_id":"free"},{"bike_id":"4bbb9689-2e2d-4bda-9d3c-7b90daddfa8a","system_id":"levelo_inurba_marseille","lat":43.231793,"lon":5.400044,"is_reserved":false,"is_disabled":false,"rental_uris":{"android":"levelo://app?vid=4bbb9689-2e2d-4bda-9d3c-7b90daddfa8a","ios":"levelo://app?vid=4bbb9689-2e2d-4bda-9d3c-7b90daddfa8a"},"vehicle_type_id":"4","last_reported":1702663753,"current_range_meters":30400,"station_id":"ce4bhn12rcd13ifvqgqg","pricing_plan_id":"free"},{"bike_id":"76011e8e-8381-4dc8-a22b-7020e857666d","system_id":"levelo_inurba_marseille","lat":43.23186,"lon":5.39981,"is_reserved":false,"is_disabled":false,"rental_uris":{"android":"levelo://app?vid=76011e8e-8381-4dc8-a22b-7020e857666d","ios":"levelo://app?vid=76011e8e-8381-4dc8-a22b-7020e857666d"},"vehicle_type_id":"4","last_reported":1702663753,"current_range_meters":18000,"station_id":"ce4bhn12rcd13ifvqgqg","pricing_plan_id":"free"},{"bike_id":"f232aa67-6076-4223-8e5a-a70e7a8cdfcf","system_id":"levelo_inurba_marseille","lat":43.231794,"lon":5.400052,"is_reserved":false,"is_disabled":false,"rental_uris":{"android":"levelo://app?vid=f232aa67-6076-4223-8e5a-a70e7a8cdfcf","ios":"levelo://app?vid=f232aa67-6076-4223-8e5a-a70e7a8cdfcf"},"vehicle_type_id":"4","last_reported":1702663753,"current_range_meters":22800,"station_id":"ce4bhn12rcd13ifvqgqg","pricing_plan_id":"free"},{"bike_id":"ad4a709a-3bbc-4b66-b7ec-31b555a6fb6f","system_id":"levelo_inurba_marseille","lat":43.231794,"lon":5.400052,"is_reserved":false,"is_disabled":false,"rental_uris":{"android":"levelo://app?vid=ad4a709a-3bbc-4b66-b7ec-31b555a6fb6f","ios":"levelo://app?vid=ad4a709a-3bbc-4b66-b7ec-31b555a6fb6f"},"vehicle_type_id":"4","last_reported":1702663753,"current_range_meters":22400,"station_id":"ce4bhn12rcd13ifvqgqg","pricing_plan_id":"free"},{"bike_id":"f0daebf7-48d1-4965-9af4-f0c1a8bd3366","system_id":"levelo_inurba_marseille","lat":43.231793,"lon":5.400044,"is_reserved":false,"is_disabled":false,"rental_uris":{"android":"levelo://app?vid=f0daebf7-48d1-4965-9af4-f0c1a8bd3366","ios":"levelo://app?vid=f0daebf7-48d1-4965-9af4-f0c1a8bd3366"},"vehicle_type_id":"4","last_reported":1702663753,"current_range_meters":21200,"station_id":"ce4bhn12rcd13ifvqgqg","pricing_plan_id":"free"}]}}