{"last_updated":1738537652,"ttl":60,"version":"2.2","data":{"bikes":[{"bike_id":"ef1b25f8-6252-4d08-81d1-202f52136b43","system_id":"levelo_inurba_marseille","lat":43.25139,"lon":5.40346,"is_reserved":false,"is_disabled":false,"rental_uris":{"android":"levelo://app?vid=ef1b25f8-6252-4d08-81d1-202f52136b43","ios":"levelo://app?vid=ef1b25f8-6252-4d08-81d1-202f52136b43"},"vehicle_type_id":"4","last_reported":1738537653,"current_range_meters":38800,"station_id":"ce4bhlh2rcd13ifvqgig","pricing_plan_id":"cebpf4jnsgd1na2vs0mg"},{"bike_id":"7ac6de87-4cb5-4d58-adc2-a7c162322d3f","system_id":"levelo_inurba_marseille","lat":43.28486,"lon":5.38437,"is_reserved":false,"is_disabled":true,"rental_uris":{"android":"levelo://app?vid=7ac6de87-4cb5-4d58-adc2-a7c162322d3f","ios":"levelo://app?vid=7ac6de87-4cb5-4d58-adc2-a7c162322d3f"},"vehicle_type_id":"4","last_reported":1738537653,"current_range_meters":17200,"station_id":"ce4bh512rcd13ifvqe3g","pricing_plan_id":"cebpf4jnsgd1na2vs0mg"},{"bike_id":"8c87bd3f-67b7-4bf9-b37a-a227f22789fd","system_id":"levelo_inurba_marseille","lat":43.33616,"lon":5.41031,"is_reserved":false,"is_disabled":false,"rental_uris":{"android":"levelo://app?vid=8c87bd3f-67b7-4bf9-b37a-a227f22789fd","ios":"levelo://app?vid=8c87bd3f-67b7-4bf9-b37a-a227f22789fd"},"vehicle_type_id":"4","last_reported":1738537653,"current_range_meters":38000,"station_id":"ce4bhqh2rcd13ifvqhmg","pricing_plan_id":"cebpf4jnsgd1na2vs0mg"},{"bike_id":"28f2ee39-c342-4264-9aba-b44edbff64ff","system_id":"levelo_inurba_marseille","lat":43.24001,"lon":5.37762,"is_reserved":false,"is_disabled":false,"rental_uris":{"android":"levelo://app?vid=28f2ee39-c342-4264-9aba-b44edbff64ff","ios":"levelo://app?vid=28f2ee39-c342-4264-9aba-b44edbff64ff"},"vehicle_type_id":"4","last_reported":1738537653,"current_range_meters":39200,"station_id":"ce4bhnp2rcd13ifvqgvg","pricing_plan_id":"cebpf4jnsgd1na2vs0mg"},{"bike_id":"801e3224-520f-45a3-b9b1-a6f82c57c033","system_id":"levelo_inurba_marseille","lat":43.29372,"lon":5.37832,"is_reserved":false,"is_disabled":false,"rental_uris":{"android":"levelo://app?vid=801e3224-520f-45a3-b9b1-a6f82c57c033","ios":"levelo://app?vid=801e3224-520f-45a3-b9b1-a6f82c57c033"},"vehicle_type_id":"4","last_reported":1738537653,"current_range_meters":38800,"station_id":"ce4bgjh2rcd13ifvqbf0","pricing_plan_id":"cebpf4jnsgd1na2vs0mg"},{"bike_id":"21ce7c90-ecf1-4c2b-ae39-e9d88703c00b","system_id":"levelo_inurba_marseille","lat":43.27201,"lon":5.39202,"is_reserved":false,"is_disabled":true,"rental_uris":{"android":"levelo://app?vid=21ce7c90-ecf1-4c2b-ae39-e9d88703c00b","ios":"levelo://app?vid=21ce7c90-ecf1-4c2b-ae39-e9d88703c00b"},"vehicle_type_id":"4","last_reported":1738537653,"current_range_meters":28800,"station_id":"ce4bhhp2rcd13ifvqfm0","pricing_plan_id":"cebpf4jnsgd1na2vs0mg"},{"bike_id":"68ec889f-fbad-4ec7-bbe1-dbda6b88a3f5","system_id":"levelo_inurba_marseille","lat":43.2903,"lon":5.38639,"is_reserved":false,"is_disabled":true,"rental_uris":{"android":"levelo://app?vid=68ec889f-fbad-4ec7-bbe1-dbda6b88a3f5","ios":"levelo://app?vid=68ec889f-fbad-4ec7-bbe1-dbda6b88a3f5"},"vehicle_type_id":"4","last_reported":1738537653,"current_range_meters":22400,"station_id":"ce4bh4p2rcd13ifvqe0g","pricing_plan_id":"cebpf4jnsgd1na2vs0mg"},{"bike_id":"19508e03-fa05-4c91-87a7-0a29ac898a81","system_id":"levelo_inurba_marseille","lat":43.25833,"lon":5.39438,"is_reserved":false,"is_disabled":false,"rental_uris":{"android":"levelo://app?vid=19508e03-fa05-4c91-87a7-0a29ac898a81","ios":"levelo://app?vid=19508e03-fa05-4c91-87a7-0a29ac898a81"},"vehicle_type_id":"4","last_reported":1738537653,"current_range_meters":16800,"station_id":"ce4bhip2rcd13ifvqft0","pricing_plan_id":"cebpf4jnsgd1na2vs0mg"},{"bike_id":"7e740250-bf93-41f3-8432-28ab58a780b3","system_id":"levelo_inurba_marseille","lat":43.30422,"lon":5.38889,"is_reserved":false,"is_disabled":false,"rental_uris":{"android":"levelo://app?vid=7e740250-bf93-41f3-8432-28ab58a780b3","ios":"levelo://app?vid=7e740250-bf93-41f3-8432-28ab58a780b3"},"vehicle_type_id":"4","last_reported":1738537653,"current_range_meters":14800,"station_id":"ce4bgk12rcd13ifvqbi0","pricing_plan_id":"cebpf4jnsgd1na2vs0mg"},{"bike_id":"62a9a0d8-18b1-4ebb-9853-eb4133e14713","system_id":"levelo_inurba_marseille","lat":43.28108,"lon":5.37839,"is_reserved":false,"is_disabled":false,"rental_uris":{"android":"levelo://app?vid=62a9a0d8-18b1-4ebb-9853-eb4133e14713","ios":"levelo://app?vid=62a9a0d8-18b1-4ebb-9853-eb4133e14713"},"vehicle_type_id":"4","last_reported":1738537653,"current_range_meters":18800,"station_id":"ce4bha12rcd13ifvqee0","pricing_plan_id":"cebpf4jnsgd1na2vs0mg"},{"bike_id":"5b4ad7df-c1f9-4dba-90ec-634b3a063554","system_id":"levelo_inurba_marseille","lat":43.31368,"lon":5.38499,"is_reserved":false,"is_disabled":false,"rental_uris":{"android":"levelo://app?vid=5b4ad7df-c1f9-4dba-90ec-634b3a063554","ios":"levelo://app?vid=5b4ad7df-c1f9-4dba-90ec-634b3a063554"},"vehicle_type_id":"4","last_reported":1738537653,"current_range_meters":36800,"station_id":"ce4bgt92rcd13ifvqcf0","pricing_plan_id":"cebpf4jnsgd1na2vs0mg"},{"bike_id":"940dcd0d-4fa5-41d2-ac6c-49ec663b7a44","system_id":"levelo_inurba_marseille","lat":43.29269,"lon":5.36858,"is_reserved":false,"is_disabled":false,"rental_uris":{"android":"levelo://app?vid=940dcd0d-4fa5-41d2-ac6c-49ec663b7a44","ios":"levelo://app?vid=940dcd0d-4fa5-41d2-ac6c-49ec663b7a44"},"vehicle_type_id":"4","last_reported":1738537653,"current_range_meters":30400,"station_id":"ce4bhbp2rcd13ifvqesg","pricing_plan_id":"cebpf4jnsgd1na2vs0mg"},{"bike_id":"fb982a78-e4ef-4837-8ef3-ee9b9509ec0c","system_id":"levelo_inurba_marseille","lat":43.29554,"lon":5.42274,"is_reserved":false,"is_disabled":false,"rental_uris":{"android":"levelo://app?vid=fb982a78-e4ef-4837-8ef3-ee9b9509ec0c","ios":"levelo://app?vid=fb982a78-e4ef-4837-8ef3-ee9b9509ec0c"},"vehicle_type_id":"4","last_reported":1738537653,"current_range_meters":38800,"station_id":"ce4bhph2rcd13ifvqhdg","pricing_plan_id":"cebpf4jnsgd1na2vs0mg"},{"bike_id":"e4ea5a29-07fb-4262-8283-b278e7a33772","system_id":"levelo_inurba_marseille","lat":43.2511,"lon":5.40321,"is_reserved":false,"is_disabled":false,"rental_uris":{"android":"levelo://app?vid=e4ea5a29-07fb-4262-8283-b278e7a33772","ios":"levelo://app?vid=e4ea5a29-07fb-4262-8283-b278e7a33772"},"vehicle_type_id":"4","last_reported":1738537653,"current_range_meters":32800,"station_id":"ce4bhlh2rcd13ifvqgig","pricing_plan_id":"cebpf4jnsgd1na2vs0mg"},{"bike_id":"5d48a61d-cf22-4c98-83c4-85b6c901eb8b","system_id":"levelo_inurba_marseille","lat":43.31763,"lon":5.39005,"is_reserved":false,"is_disabled":false,"rental_uris":{"android":"levelo://app?vid=5d48a61d-cf22-4c98-83c4-85b6c901eb8b","ios":"levelo://app?vid=5d48a61d-cf22-4c98-83c4-85b6c901eb8b"},"vehicle_type_id":"4","last_reported":1738537653,"current_range_meters":36800,"station_id":"ce4bhqp2rcd13ifvqhng","pricing_plan_id":"cebpf4jnsgd1na2vs0mg"},{"bike_id":"ac2d738a-827a-4bcd-a16e-094036ce1f8a","system_id":"levelo_inurba_marseille","lat":43.3122,"lon":5.36883,"is_reserved":false,"is_disabled":false,"rental_uris":{"android":"levelo://app?vid=ac2d738a-827a-4bcd-a16e-094036ce1f8a","ios":"levelo://app?vid=ac2d738a-827a-4bcd-a16e-094036ce1f8a"},"vehicle_type_id":"4","last_reported":1738537653,"current_range_meters":24000,"station_id":"ce4bgl92rcd13ifvqbq0","pricing_plan_id":"cebpf4jnsgd1na2vs0mg"},{"bike_id":"c26284e6-53ee-4b35-a0cc-ee8d0a2119d1","system_id":"levelo_inurba_marseille","lat":43.28717,"lon":5.37937,"is_reserved":false,"is_disabled":true,"rental_uris":{"android":"levelo://app?vid=c26284e6-53ee-4b35-a0cc-ee8d0a2119d1","ios":"levelo://app?vid=c26284e6-53ee-4b35-a0cc-ee8d0a2119d1"},"vehicle_type_id":"4","last_reported":1738537653,"current_range_meters":9600,"station_id":"ce4bh9p2rcd13ifvqec0","pricing_plan_id":"cebpf4jnsgd1na2vs0mg"},{"bike_id":"a0df00d9-0c8e-4d56-94a5-2e54bf2973af","system_id":"levelo_inurba_marseille","lat":43.30253,"lon":5.40047,"is_reserved":false,"is_disabled":false,"rental_uris":{"android":"levelo://app?vid=a0df00d9-0c8e-4d56-94a5-2e54bf2973af","ios":"levelo://app?vid=a0df00d9-0c8e-4d56-94a5-2e54bf2973af"},"vehicle_type_id":"4","last_reported":1738537653,"current_range_meters":38800,"station_id":"ce4bgvh2rcd13ifvqcs0","pricing_plan_id":"cebpf4jnsgd1na2vs0mg"},{"bike_id":"c1fbf002-c448-42e6-8168-8beaa00f06c7","system_id":"levelo_inurba_marseille","lat":43.28837,"lon":5.35875,"is_reserved":false,"is_disabled":false,"rental_uris":{"android":"levelo://app?vid=c1fbf002-c448-42e6-8168-8beaa00f06c7","ios":"levelo://app?vid=c1fbf002-c448-42e6-8168-8beaa00f06c7"},"vehicle_type_id":"4","last_reported":1738537653,"current_range_meters":27600,"station_id":"ce4bhb12rcd13ifvqem0","pricing_plan_id":"cebpf4jnsgd1na2vs0mg"},{"bike_id":"40c853c0-44e5-4a47-a5e8-961c1c63a92a","system_id":"levelo_inurba_marseille","lat":43.27071,"lon":5.42287,"is_reserved":false,"is_disabled":false,"rental_uris":{"android":"levelo://app?vid=40c853c0-44e5-4a47-a5e8-961c1c63a92a","ios":"levelo://app?vid=40c853c0-44e5-4a47-a5e8-961c1c63a92a"},"vehicle_type_id":"4","last_reported":1738537653,"current_range_meters":38800,"station_id":"ce4bhk92rcd13ifvqgb0","pricing_plan_id":"cebpf4jnsgd1na2vs0mg"},{"bike_id":"e7e0bae0-ab4c-4497-97e9-026bb881f331","system_id":"levelo_inurba_marseille","lat":43.29271,"lon":5.40129,"is_reserved":false,"is_disabled":false,"rental_uris":{"android":"levelo://app?vid=e7e0bae0-ab4c-4497-97e9-026bb881f331","ios":"levelo://app?vid=e7e0bae0-ab4c-4497-97e9-026bb881f331"},"vehicle_type_id":"4","last_reported":1738537653,"current_range_meters":37600,"station_id":"ce4bh312rcd13ifvqdk0","pricing_plan_id":"cebpf4jnsgd1na2vs0mg"},{"bike_id":"c076181b-29f7-408b-a44f-e24c57139925","system_id":"levelo_inurba_marseille","lat":43.30257,"lon":5.40077,"is_reserved":false,"is_disabled":false,"rental_uris":{"android":"levelo://app?vid=c076181b-29f7-408b-a44f-e24c57139925","ios":"levelo://app?vid=c076181b-29f7-408b-a44f-e24c57139925"},"vehicle_type_id":"4","last_reported":1738537653,"current_range_meters":33600,"station_id":"ce4bgvh2rcd13ifvqcs0","pricing_plan_id":"cebpf4jnsgd1na2vs0mg"},{"bike_id":"0875f546-71ae-4892-b7f1-948adedf9f98","system_id":"levelo_inurba_marseille","lat":43.3127,"lon":5.40158,"is_reserved":false,"is_disabled":false,"rental_uris":{"android":"levelo://app?vid=0875f546-71ae-4892-b7f1-948adedf9f98","ios":"levelo://app?vid=0875f546-71ae-4892-b7f1-948adedf9f98"},"vehicle_type_id":"4","last_reported":1738537653,"current_range_meters":30000,"station_id":"ce4bh092rcd13ifvqd30","pricing_plan_id":"cebpf4jnsgd1na2vs0mg"},{"bike_id":"85101c84-9999-45b6-903a-edab62a1c8ef","system_id":"levelo_inurba_marseille","lat":43.28269,"lon":5.35073,"is_reserved":false,"is_disabled":false,"rental_uris":{"android":"levelo://app?vid=85101c84-9999-45b6-903a-edab62a1c8ef","ios":"levelo://app?vid=85101c84-9999-45b6-903a-edab62a1c8ef"},"vehicle_type_id":"4","last_reported":1738537653,"current_range_meters":28400,"station_id":"ce4bhbp2rcd13ifvqerg","pricing_plan_id":"cebpf4jnsgd1na2vs0mg"},{"bike_id":"b53cf432-0e47-4b61-a305-952377a64c88","system_id":"levelo_inurba_marseille","lat":43.30813,"lon":5.38155,"is_reserved":false,"is_disabled":true,"rental_uris":{"android":"levelo://app?vid=b53cf432-0e47-4b61-a305-952377a64c88","ios":"levelo://app?vid=b53cf432-0e47-4b61-a305-952377a64c88"},"vehicle_type_id":"4","last_reported":1738537653,"current_range_meters":36000,"station_id":"ce4bgt12rcd13ifvqce0","pricing_plan_id":"cebpf4jnsgd1na2vs0mg"},{"bike_id":"c9f00705-9681-4f51-9484-af5120db3699","system_id":"levelo_inurba_marseille","lat":43.27945,"lon":5.41045,"is_reserved":false,"is_disabled":false,"rental_uris":{"android":"levelo://app?vid=c9f00705-9681-4f51-9484-af5120db3699","ios":"levelo://app?vid=c9f00705-9681-4f51-9484-af5120db3699"},"vehicle_type_id":"4","last_reported":1738537653,"current_range_meters":16800,"station_id":"ce4bhnp2rcd13ifvqh0g","pricing_plan_id":"cebpf4jnsgd1na2vs0mg"},{"bike_id":"13a71ca0-af90-4e61-a6f2-18a028732efe","system_id":"levelo_inurba_marseille","lat":43.25088,"lon":5.395,"is_reserved":false,"is_disabled":false,"rental_uris":{"android":"levelo://app?vid=13a71ca0-af90-4e61-a6f2-18a028732efe","ios":"levelo://app?vid=13a71ca0-af90-4e61-a6f2-18a028732efe"},"vehicle_type_id":"4","last_reported":1738537653,"current_range_meters":25600,"station_id":"ce4bhm12rcd13ifvqgkg","pricing_plan_id":"cebpf4jnsgd1na2vs0mg"},{"bike_id":"b9fb3d2d-81d5-43a8-89dc-d204f4ce4ab1","system_id":"levelo_inurba_marseille","lat":43.30786,"lon":5.43531,"is_reserved":false,"is_disabled":true,"rental_uris":{"android":"levelo://app?vid=b9fb3d2d-81d5-43a8-89dc-d204f4ce4ab1","ios":"levelo://app?vid=b9fb3d2d-81d5-43a8-89dc-d204f4ce4ab1"},"vehicle_type_id":"4","last_reported":1738537653,"current_range_meters":0,"station_id":"ce4bhph2rcd13ifvqheg","pricing_plan_id":"cebpf4jnsgd1na2vs0mg"},{"bike_id":"ac435b7a-3cbe-439d-966f-9ad227b0ea53","system_id":"levelo_inurba_marseille","lat":43.2922,"lon":5.36063,"is_reserved":false,"is_disabled":true,"rental_uris":{"android":"levelo://app?vid=ac435b7a-3cbe-439d-966f-9ad227b0ea53","ios":"levelo://app?vid=ac435b7a-3cbe-439d-966f-9ad227b0ea53"},"vehicle_type_id":"4","last_reported":1738537653,"current_range_meters":38800,"station_id":"ce4bhbh2rcd13ifvqeqg","pricing_plan_id":"cebpf4jnsgd1na2vs0mg"},{"bike_id":"478e4f7b-8fe0-4b88-be47-0f06be19b712","system_id":"levelo_inurba_marseille","lat":43.28429,"lon":5.39192,"is_reserved":false,"is_disabled":false,"rental_uris":{"android":"levelo://app?vid=478e4f7b-8fe0-4b88-be47-0f06be19b712","ios":"levelo://app?vid=478e4f7b-8fe0-4b88-be47-0f06be19b712"},"vehicle_type_id":"4","last_reported":1738537653,"current_range_meters":38400,"station_id":"ce4bhoh2rcd13ifvqh5g","pricing_plan_id":"cebpf4jnsgd1na2vs0mg"},{"bike_id":"05e6967f-52b4-4d89-933e-b74089631b53","system_id":"levelo_inurba_marseille","lat":43.32476,"lon":5.36566,"is_reserved":false,"is_disabled":false,"rental_uris":{"android":"levelo://app?vid=05e6967f-52b4-4d89-933e-b74089631b53","ios":"levelo://app?vid=05e6967f-52b4-4d89-933e-b74089631b53"},"vehicle_type_id":"4","last_reported":1738537653,"current_range_meters":24400,"station_id":"ce4bhs12rcd13ifvqhvg","pricing_plan_id":"cebpf4jnsgd1na2vs0mg"},{"bike_id":"a1361b83-7dfc-447a-91a0-ca180866041b","system_id":"levelo_inurba_marseille","lat":43.32357,"lon":5.36747,"is_reserved":false,"is_disabled":false,"rental_uris":{"android":"levelo://app?vid=a1361b83-7dfc-447a-91a0-ca180866041b","ios":"levelo://app?vid=a1361b83-7dfc-447a-91a0-ca180866041b"},"vehicle_type_id":"4","last_reported":1738537653,"current_range_meters":25600,"station_id":"ce4bhsh2rcd13ifvqi2g","pricing_plan_id":"cebpf4jnsgd1na2vs0mg"},{"bike_id":"ddb9c7e9-65ef-4267-9499-9c9d26630482","system_id":"levelo_inurba_marseille","lat":43.3248,"lon":5.36575,"is_reserved":false,"is_disabled":false,"rental_uris":{"android":"levelo://app?vid=ddb9c7e9-65ef-4267-9499-9c9d26630482","ios":"levelo://app?vid=ddb9c7e9-65ef-4267-9499-9c9d26630482"},"vehicle_type_id":"4","last_reported":1738537653,"current_range_meters":28800,"station_id":"ce4bhs12rcd13ifvqhvg","pricing_plan_id":"cebpf4jnsgd1na2vs0mg"},{"bike_id":"6f5f9008-4ec8-4324-9439-2f5658e1e170","system_id":"levelo_inurba_marseille","lat":43.24391,"lon":5.37058,"is_reserved":false,"is_disabled":false,"rental_uris":{"android":"levelo://app?vid=6f5f9008-4ec8-4324-9439-2f5658e1e170","ios":"levelo://app?vid=6f5f9008-4ec8-4324-9439-2f5658e1e170"},"vehicle_type_id":"4","last_reported":1738537653,"current_range_meters":38800,"station_id":"ce4bhhh2rcd13ifvqfk0","pricing_plan_id":"cebpf4jnsgd1na2vs0mg"},{"bike_id":"2bd84fa3-17d1-4c60-a194-91eef67aa1a3","system_id":"levelo_inurba_marseille","lat":43.22928,"lon":5.35375,"is_reserved":false,"is_disabled":false,"rental_uris":{"android":"levelo://app?vid=2bd84fa3-17d1-4c60-a194-91eef67aa1a3","ios":"levelo://app?vid=2bd84fa3-17d1-4c60-a194-91eef67aa1a3"},"vehicle_type_id":"4","last_reported":1738537653,"current_range_meters":33200,"station_id":"cpo3532slgdg3j2ikp40","pricing_plan_id":"cebpf4jnsgd1na2vs0mg"},{"bike_id":"943be55d-cee7-424a-b22e-f9aee29db6e6","system_id":"levelo_inurba_marseille","lat":43.27561,"lon":5.38422,"is_reserved":false,"is_disabled":false,"rental_uris":{"android":"levelo://app?vid=943be55d-cee7-424a-b22e-f9aee29db6e6","ios":"levelo://app?vid=943be55d-cee7-424a-b22e-f9aee29db6e6"},"vehicle_type_id":"4","last_reported":1738537653,"current_range_meters":38800,"station_id":"ce4bhh92rcd13ifvqfi0","pricing_plan_id":"cebpf4jnsgd1na2vs0mg"},{"bike_id":"eccf3e1b-479c-430a-81d9-b77c081460ec","system_id":"levelo_inurba_marseille","lat":43.31796,"lon":5.39055,"is_reserved":false,"is_disabled":true,"rental_uris":{"android":"levelo://app?vid=eccf3e1b-479c-430a-81d9-b77c081460ec","ios":"levelo://app?vid=eccf3e1b-479c-430a-81d9-b77c081460ec"},"vehicle_type_id":"4","last_reported":1738537653,"current_range_meters":8000,"station_id":"","pricing_plan_id":"cebpf4jnsgd1na2vs0mg"},{"bike_id":"88769796-cc26-4829-a6b8-263383824347","system_id":"levelo_inurba_marseille","lat":43.27831,"lon":5.40731,"is_reserved":false,"is_disabled":false,"rental_uris":{"android":"levelo://app?vid=88769796-cc26-4829-a6b8-263383824347","ios":"levelo://app?vid=88769796-cc26-4829-a6b8-263383824347"},"vehicle_type_id":"4","last_reported":1738537653,"current_range_meters":29600,"station_id":"ce4bhnh2rcd13ifvqgtg","pricing_plan_id":"cebpf4jnsgd1na2vs0mg"},{"bike_id":"0edaa840-e8b0-4f2c-ad98-c123355c590c","system_id":"levelo_inurba_marseille","lat":43.26067,"lon":5.39392,"is_reserved":false,"is_disabled":true,"rental_uris":{"android":"levelo://app?vid=0edaa840-e8b0-4f2c-ad98-c123355c590c","ios":"levelo://app?vid=0edaa840-e8b0-4f2c-ad98-c123355c590c"},"vehicle_type_id":"4","last_reported":1738537653,"current_range_meters":28000,"station_id":"ce4bhh92rcd13ifvqfj0","pricing_plan_id":"cebpf4jnsgd1na2vs0mg"},{"bike_id":"428af571-a138-4b31-ac0f-fafe4061000e","system_id":"levelo_inurba_marseille","lat":43.25092,"lon":5.39516,"is_reserved":false,"is_disabled":false,"rental_uris":{"android":"levelo://app?vid=428af571-a138-4b31-ac0f-fafe4061000e","ios":"levelo://app?vid=428af571-a138-4b31-ac0f-fafe4061000e"},"vehicle_type_id":"4","last_reported":1738537653,"current_range_meters":36000,"station_id":"ce4bhm12rcd13ifvqgkg","pricing_plan_id":"cebpf4jnsgd1na2vs0mg"},{"bike_id":"a87c8dd6-4ed1-4fd2-a6d7-2e4139c707ed","system_id":"levelo_inurba_marseille","lat":43.24999,"lon":5.38928,"is_reserved":false,"is_disabled":false,"rental_uris":{"android":"levelo://app?vid=a87c8dd6-4ed1-4fd2-a6d7-2e4139c707ed","ios":"levelo://app?vid=a87c8dd6-4ed1-4fd2-a6d7-2e4139c707ed"},"vehicle_type_id":"4","last_reported":1738537653,"current_range_meters":38000,"station_id":"ce4bhgp2rcd13ifvqfd0","pricing_plan_id":"cebpf4jnsgd1na2vs0mg"},{"bike_id":"8b23552f-b7c0-40c8-9d4f-37ff82774c67","system_id":"levelo_inurba_marseille","lat":43.25585,"lon":5.38223,"is_reserved":false,"is_disabled":false,"rental_uris":{"android":"levelo://app?vid=8b23552f-b7c0-40c8-9d4f-37ff82774c67","ios":"levelo://app?vid=8b23552f-b7c0-40c8-9d4f-37ff82774c67"},"vehicle_type_id":"4","last_reported":1738537653,"current_range_meters":26800,"station_id":"ce4bhih2rcd13ifvqfs0","pricing_plan_id":"cebpf4jnsgd1na2vs0mg"},{"bike_id":"637e7848-7b84-4e1d-9cee-355c6601f7c3","system_id":"levelo_inurba_marseille","lat":43.279877,"lon":5.416492,"is_reserved":false,"is_disabled":true,"rental_uris":{"android":"levelo://app?vid=637e7848-7b84-4e1d-9cee-355c6601f7c3","ios":"levelo://app?vid=637e7848-7b84-4e1d-9cee-355c6601f7c3"},"vehicle_type_id":"4","last_reported":1738537653,"current_range_meters":0,"station_id":"ce4bho12rcd13ifvqh1g","pricing_plan_id":"cebpf4jnsgd1na2vs0mg"},{"bike_id":"4291c738-6cd9-4bae-9b4d-d5728eb13d24","system_id":"levelo_inurba_marseille","lat":43.28269,"lon":5.35071,"is_reserved":false,"is_disabled":false,"rental_uris":{"android":"levelo://app?vid=4291c738-6cd9-4bae-9b4d-d5728eb13d24","ios":"levelo://app?vid=4291c738-6cd9-4bae-9b4d-d5728eb13d24"},"vehicle_type_id":"4","last_reported":1738537653,"current_range_meters":30800,"station_id":"ce4bhbp2rcd13ifvqerg","pricing_plan_id":"cebpf4jnsgd1na2vs0mg"},{"bike_id":"2139aa37-3e6d-49e0-adc6-0003f039b7a5","system_id":"levelo_inurba_marseille","lat":43.29032,"lon":5.35919,"is_reserved":false,"is_disabled":false,"rental_uris":{"android":"levelo://app?vid=2139aa37-3e6d-49e0-adc6-0003f039b7a5","ios":"levelo://app?vid=2139aa37-3e6d-49e0-adc6-0003f039b7a5"},"vehicle_type_id":"4","last_reported":1738537653,"current_range_meters":38800,"station_id":"ce4bha92rcd13ifvqeg0","pricing_plan_id":"cebpf4jnsgd1na2vs0mg"},{"bike_id":"73a3e5f7-2b2e-4f61-906e-4c8695aed0ee","system_id":"levelo_inurba_marseille","lat":43.28975,"lon":5.37854,"is_reserved":false,"is_disabled":false,"rental_uris":{"android":"levelo://app?vid=73a3e5f7-2b2e-4f61-906e-4c8695aed0ee","ios":"levelo://app?vid=73a3e5f7-2b2e-4f61-906e-4c8695aed0ee"},"vehicle_type_id":"4","last_reported":1738537653,"current_range_meters":30000,"station_id":"ce4bh9p2rcd13ifvqed0","pricing_plan_id":"cebpf4jnsgd1na2vs0mg"},{"bike_id":"766807e2-5dd5-4f9d-8a99-3eada8bf4811","system_id":"levelo_inurba_marseille","lat":43.34639,"lon":5.38091,"is_reserved":false,"is_disabled":false,"rental_uris":{"android":"levelo://app?vid=766807e2-5dd5-4f9d-8a99-3eada8bf4811","ios":"levelo://app?vid=766807e2-5dd5-4f9d-8a99-3eada8bf4811"},"vehicle_type_id":"4","last_reported":1738537653,"current_range_meters":20800,"station_id":"","pricing_plan_id":"cebpf4jnsgd1na2vs0mg"},{"bike_id":"4164000a-3575-41b2-8242-cb2eaaa11f6b","system_id":"levelo_inurba_marseille","lat":43.27985,"lon":5.38745,"is_reserved":false,"is_disabled":true,"rental_uris":{"android":"levelo://app?vid=4164000a-3575-41b2-8242-cb2eaaa11f6b","ios":"levelo://app?vid=4164000a-3575-41b2-8242-cb2eaaa11f6b"},"vehicle_type_id":"4","last_reported":1738537653,"current_range_meters":36000,"station_id":"ce4bhg12rcd13ifvqf80","pricing_plan_id":"cebpf4jnsgd1na2vs0mg"},{"bike_id":"32e5f4af-c3e2-4e2b-9428-5595e9b70920","system_id":"levelo_inurba_marseille","lat":43.29594,"lon":5.3708,"is_reserved":false,"is_disabled":true,"rental_uris":{"android":"levelo://app?vid=32e5f4af-c3e2-4e2b-9428-5595e9b70920","ios":"levelo://app?vid=32e5f4af-c3e2-4e2b-9428-5595e9b70920"},"vehicle_type_id":"4","last_reported":1738537653,"current_range_meters":36000,"station_id":"","pricing_plan_id":"cebpf4jnsgd1na2vs0mg"},{"bike_id":"81ac34d9-952f-412a-85a4-b101975f8266","system_id":"levelo_inurba_marseille","lat":43.28848,"lon":5.35863,"is_reserved":false,"is_disabled":false,"rental_uris":{"android":"levelo://app?vid=81ac34d9-952f-412a-85a4-b101975f8266","ios":"levelo://app?vid=81ac34d9-952f-412a-85a4-b101975f8266"},"vehicle_type_id":"4","last_reported":1738537653,"current_range_meters":24400,"station_id":"ce4bhb12rcd13ifvqem0","pricing_plan_id":"cebpf4jnsgd1na2vs0mg"},{"bike_id":"2759ce27-3951-4de9-ba5e-023c45353256","system_id":"levelo_inurba_marseille","lat":43.28841,"lon":5.39287,"is_reserved":false,"is_disabled":false,"rental_uris":{"android":"levelo://app?vid=2759ce27-3951-4de9-ba5e-023c45353256","ios":"levelo://app?vid=2759ce27-3951-4de9-ba5e-023c45353256"},"vehicle_type_id":"4","last_reported":1738537653,"current_range_meters":30400,"station_id":"ce4bh2p2rcd13ifvqdi0","pricing_plan_id":"cebpf4jnsgd1na2vs0mg"},{"bike_id":"392cffe7-eaf7-47c9-956d-7ae47705d8b2","system_id":"levelo_inurba_marseille","lat":43.25569,"lon":5.38243,"is_reserved":false,"is_disabled":false,"rental_uris":{"android":"levelo://app?vid=392cffe7-eaf7-47c9-956d-7ae47705d8b2","ios":"levelo://app?vid=392cffe7-eaf7-47c9-956d-7ae47705d8b2"},"vehicle_type_id":"4","last_reported":1738537653,"current_range_meters":38800,"station_id":"ce4bhih2rcd13ifvqfs0","pricing_plan_id":"cebpf4jnsgd1na2vs0mg"},{"bike_id":"095e5291-f842-4478-bc34-3769cd441c0c","system_id":"levelo_inurba_marseille","lat":43.28152,"lon":5.42655,"is_reserved":false,"is_disabled":false,"rental_uris":{"android":"levelo://app?vid=095e5291-f842-4478-bc34-3769cd441c0c","ios":"levelo://app?vid=095e5291-f842-4478-bc34-3769cd441c0c"},"vehicle_type_id":"4","last_reported":1738537653,"current_range_meters":10800,"station_id":"ce4bhnh2rcd13ifvqgug","pricing_plan_id":"cebpf4jnsgd1na2vs0mg"},{"bike_id":"19ccc093-786b-4a36-b96d-6e1a9fb02f18","system_id":"levelo_inurba_marseille","lat":43.29021,"lon":5.38622,"is_reserved":false,"is_disabled":true,"rental_uris":{"android":"levelo://app?vid=19ccc093-786b-4a36-b96d-6e1a9fb02f18","ios":"levelo://app?vid=19ccc093-786b-4a36-b96d-6e1a9fb02f18"},"vehicle_type_id":"4","last_reported":1738537653,"current_range_meters":19600,"station_id":"ce4bh4p2rcd13ifvqe0g","pricing_plan_id":"cebpf4jnsgd1na2vs0mg"},{"bike_id":"9f7cbc3c-6e0b-4442-8c70-64c0b2a1452e","system_id":"levelo_inurba_marseille","lat":43.230601,"lon":5.354897,"is_reserved":false,"is_disabled":false,"rental_uris":{"android":"levelo://app?vid=9f7cbc3c-6e0b-4442-8c70-64c0b2a1452e","ios":"levelo://app?vid=9f7cbc3c-6e0b-4442-8c70-64c0b2a1452e"},"vehicle_type_id":"4","last_reported":1738537653,"current_range_meters":30000,"station_id":"cpo3342slgdg3j2ifvpg","pricing_plan_id":"cebpf4jnsgd1na2vs0mg"},{"bike_id":"1fb2cc5b-f611-4791-9100-5672bb358bcd","system_id":"levelo_inurba_marseille","lat":43.29799,"lon":5.40399,"is_reserved":false,"is_disabled":false,"rental_uris":{"android":"levelo://app?vid=1fb2cc5b-f611-4791-9100-5672bb358bcd","ios":"levelo://app?vid=1fb2cc5b-f611-4791-9100-5672bb358bcd"},"vehicle_type_id":"4","last_reported":1738537653,"current_range_meters":38000,"station_id":"ce4bh112rcd13ifvqd90","pricing_plan_id":"cebpf4jnsgd1na2vs0mg"},{"bike_id":"983b19a2-34ef-44c9-9414-abab5be1eeec","system_id":"levelo_inurba_marseille","lat":43.29286,"lon":5.40132,"is_reserved":false,"is_disabled":false,"rental_uris":{"android":"levelo://app?vid=983b19a2-34ef-44c9-9414-abab5be1eeec","ios":"levelo://app?vid=983b19a2-34ef-44c9-9414-abab5be1eeec"},"vehicle_type_id":"4","last_reported":1738537653,"current_range_meters":36000,"station_id":"ce4bh312rcd13ifvqdk0","pricing_plan_id":"cebpf4jnsgd1na2vs0mg"},{"bike_id":"9191983c-f500-4e34-800a-5c4da4f130cb","system_id":"levelo_inurba_marseille","lat":43.27935,"lon":5.41071,"is_reserved":false,"is_disabled":false,"rental_uris":{"android":"levelo://app?vid=9191983c-f500-4e34-800a-5c4da4f130cb","ios":"levelo://app?vid=9191983c-f500-4e34-800a-5c4da4f130cb"},"vehicle_type_id":"4","last_reported":1738537653,"current_range_meters":30400,"station_id":"ce4bhnp2rcd13ifvqh0g","pricing_plan_id":"cebpf4jnsgd1na2vs0mg"},{"bike_id":"7641f6f7-5789-4ada-aa28-ef549475b41d","system_id":"levelo_inurba_marseille","lat":43.30908,"lon":5.36837,"is_reserved":false,"is_disabled":false,"rental_uris":{"android":"levelo://app?vid=7641f6f7-5789-4ada-aa28-ef549475b41d","ios":"levelo://app?vid=7641f6f7-5789-4ada-aa28-ef549475b41d"},"vehicle_type_id":"4","last_reported":1738537653,"current_range_meters":20400,"station_id":"ce4bgn92rcd13ifvqbvg","pricing_plan_id":"cebpf4jnsgd1na2vs0mg"},{"bike_id":"fc599354-138c-4ffb-aa06-bbebd6ffed1f","system_id":"levelo_inurba_marseille","lat":43.28938,"lon":5.36631,"is_reserved":false,"is_disabled":false,"rental_uris":{"android":"levelo://app?vid=fc599354-138c-4ffb-aa06-bbebd6ffed1f","ios":"levelo://app?vid=fc599354-138c-4ffb-aa06-bbebd6ffed1f"},"vehicle_type_id":"4","last_reported":1738537653,"current_range_meters":21600,"station_id":"ce4bhap2rcd13ifvqek0","pricing_plan_id":"cebpf4jnsgd1na2vs0mg"},{"bike_id":"40c28d79-aeeb-4a16-b1d9-e1d8818bf3d3","system_id":"levelo_inurba_marseille","lat":43.28852,"lon":5.35864,"is_reserved":false,"is_disabled":false,"rental_uris":{"android":"levelo://app?vid=40c28d79-aeeb-4a16-b1d9-e1d8818bf3d3","ios":"levelo://app?vid=40c28d79-aeeb-4a16-b1d9-e1d8818bf3d3"},"vehicle_type_id":"4","last_reported":1738537653,"current_range_meters":26800,"station_id":"ce4bhb12rcd13ifvqem0","pricing_plan_id":"cebpf4jnsgd1na2vs0mg"},{"bike_id":"d1d9fbfa-01e5-46a6-9772-86d55833a58d","system_id":"levelo_inurba_marseille","lat":43.2987,"lon":5.38913,"is_reserved":false,"is_disabled":false,"rental_uris":{"android":"levelo://app?vid=d1d9fbfa-01e5-46a6-9772-86d55833a58d","ios":"levelo://app?vid=d1d9fbfa-01e5-46a6-9772-86d55833a58d"},"vehicle_type_id":"4","last_reported":1738537653,"current_range_meters":22400,"station_id":"ce4bh392rcd13ifvqdl0","pricing_plan_id":"cebpf4jnsgd1na2vs0mg"},{"bike_id":"cf8d5ee6-e246-49cb-a25f-c80699da9055","system_id":"levelo_inurba_marseille","lat":43.3093,"lon":5.40148,"is_reserved":false,"is_disabled":false,"rental_uris":{"android":"levelo://app?vid=cf8d5ee6-e246-49cb-a25f-c80699da9055","ios":"levelo://app?vid=cf8d5ee6-e246-49cb-a25f-c80699da9055"},"vehicle_type_id":"4","last_reported":1738537653,"current_range_meters":24400,"station_id":"ce4bgvp2rcd13ifvqct0","pricing_plan_id":"cebpf4jnsgd1na2vs0mg"},{"bike_id":"4ce0c14b-de3f-4e94-bda0-a25e3fbe5d01","system_id":"levelo_inurba_marseille","lat":43.24073,"lon":5.37767,"is_reserved":false,"is_disabled":false,"rental_uris":{"android":"levelo://app?vid=4ce0c14b-de3f-4e94-bda0-a25e3fbe5d01","ios":"levelo://app?vid=4ce0c14b-de3f-4e94-bda0-a25e3fbe5d01"},"vehicle_type_id":"4","last_reported":1738537653,"current_range_meters":38800,"station_id":"ce4bhnp2rcd13ifvqgvg","pricing_plan_id":"cebpf4jnsgd1na2vs0mg"},{"bike_id":"1b3c0e17-2319-42ae-a0ea-b70f969a0464","system_id":"levelo_inurba_marseille","lat":43.28086,"lon":5.39659,"is_reserved":false,"is_disabled":false,"rental_uris":{"android":"levelo://app?vid=1b3c0e17-2319-42ae-a0ea-b70f969a0464","ios":"levelo://app?vid=1b3c0e17-2319-42ae-a0ea-b70f969a0464"},"vehicle_type_id":"4","last_reported":1738537653,"current_range_meters":26000,"station_id":"ce4bho12rcd13ifvqh2g","pricing_plan_id":"cebpf4jnsgd1na2vs0mg"},{"bike_id":"75a1eac8-9a2e-4159-ac6a-ffd65d7d822b","system_id":"levelo_inurba_marseille","lat":43.28851,"lon":5.393097,"is_reserved":false,"is_disabled":false,"rental_uris":{"android":"levelo://app?vid=75a1eac8-9a2e-4159-ac6a-ffd65d7d822b","ios":"levelo://app?vid=75a1eac8-9a2e-4159-ac6a-ffd65d7d822b"},"vehicle_type_id":"4","last_reported":1738537653,"current_range_meters":20800,"station_id":"ce4bh2p2rcd13ifvqdi0","pricing_plan_id":"cebpf4jnsgd1na2vs0mg"},{"bike_id":"b5d2dc33-3a65-47a0-a322-d472bb4e55a6","system_id":"levelo_inurba_marseille","lat":43.29879,"lon":5.38911,"is_reserved":false,"is_disabled":false,"rental_uris":{"android":"levelo://app?vid=b5d2dc33-3a65-47a0-a322-d472bb4e55a6","ios":"levelo://app?vid=b5d2dc33-3a65-47a0-a322-d472bb4e55a6"},"vehicle_type_id":"4","last_reported":1738537653,"current_range_meters":10000,"station_id":"ce4bh392rcd13ifvqdl0","pricing_plan_id":"cebpf4jnsgd1na2vs0mg"},{"bike_id":"ad82b953-766d-43fe-8267-b56879c820d1","system_id":"levelo_inurba_marseille","lat":43.24556,"lon":5.39546,"is_reserved":false,"is_disabled":false,"rental_uris":{"android":"levelo://app?vid=ad82b953-766d-43fe-8267-b56879c820d1","ios":"levelo://app?vid=ad82b953-766d-43fe-8267-b56879c820d1"},"vehicle_type_id":"4","last_reported":1738537653,"current_range_meters":38800,"station_id":"ce4bhlp2rcd13ifvqgjg","pricing_plan_id":"cebpf4jnsgd1na2vs0mg"},{"bike_id":"c537f746-287c-425a-aaa6-10d8e5019a6d","system_id":"levelo_inurba_marseille","lat":43.34144,"lon":5.4091,"is_reserved":false,"is_disabled":false,"rental_uris":{"android":"levelo://app?vid=c537f746-287c-425a-aaa6-10d8e5019a6d","ios":"levelo://app?vid=c537f746-287c-425a-aaa6-10d8e5019a6d"},"vehicle_type_id":"4","last_reported":1738537653,"current_range_meters":27600,"station_id":"ce4bhqh2rcd13ifvqhlg","pricing_plan_id":"cebpf4jnsgd1na2vs0mg"},{"bike_id":"9fd1d072-3a8b-4482-b70f-62cd25efe66f","system_id":"levelo_inurba_marseille","lat":43.28145,"lon":5.42659,"is_reserved":false,"is_disabled":false,"rental_uris":{"android":"levelo://app?vid=9fd1d072-3a8b-4482-b70f-62cd25efe66f","ios":"levelo://app?vid=9fd1d072-3a8b-4482-b70f-62cd25efe66f"},"vehicle_type_id":"4","last_reported":1738537653,"current_range_meters":32000,"station_id":"ce4bhnh2rcd13ifvqgug","pricing_plan_id":"cebpf4jnsgd1na2vs0mg"},{"bike_id":"ad8a6327-a9f2-4f3d-94b8-de56457cc33b","system_id":"levelo_inurba_marseille","lat":43.308845,"lon":5.39645,"is_reserved":false,"is_disabled":false,"rental_uris":{"android":"levelo://app?vid=ad8a6327-a9f2-4f3d-94b8-de56457cc33b","ios":"levelo://app?vid=ad8a6327-a9f2-4f3d-94b8-de56457cc33b"},"vehicle_type_id":"4","last_reported":1738537653,"current_range_meters":8400,"station_id":"ce4bh012rcd13ifvqcv0","pricing_plan_id":"cebpf4jnsgd1na2vs0mg"},{"bike_id":"635f2b06-b908-464b-a12b-e7917f7fef77","system_id":"levelo_inurba_marseille","lat":43.28273,"lon":5.35085,"is_reserved":false,"is_disabled":false,"rental_uris":{"android":"levelo://app?vid=635f2b06-b908-464b-a12b-e7917f7fef77","ios":"levelo://app?vid=635f2b06-b908-464b-a12b-e7917f7fef77"},"vehicle_type_id":"4","last_reported":1738537653,"current_range_meters":38000,"station_id":"ce4bhbp2rcd13ifvqerg","pricing_plan_id":"cebpf4jnsgd1na2vs0mg"},{"bike_id":"17296d3c-de23-4082-b7cb-6d15cb3f16ef","system_id":"levelo_inurba_marseille","lat":43.33603,"lon":5.41015,"is_reserved":false,"is_disabled":false,"rental_uris":{"android":"levelo://app?vid=17296d3c-de23-4082-b7cb-6d15cb3f16ef","ios":"levelo://app?vid=17296d3c-de23-4082-b7cb-6d15cb3f16ef"},"vehicle_type_id":"4","last_reported":1738537653,"current_range_meters":20400,"station_id":"ce4bhqh2rcd13ifvqhmg","pricing_plan_id":"cebpf4jnsgd1na2vs0mg"},{"bike_id":"eb7adffc-4f15-4c7c-897d-463c148ed83f","system_id":"levelo_inurba_marseille","lat":43.24079,"lon":5.37773,"is_reserved":false,"is_disabled":false,"rental_uris":{"android":"levelo://app?vid=eb7adffc-4f15-4c7c-897d-463c148ed83f","ios":"levelo://app?vid=eb7adffc-4f15-4c7c-897d-463c148ed83f"},"vehicle_type_id":"4","last_reported":1738537653,"current_range_meters":38800,"station_id":"ce4bhnp2rcd13ifvqgvg","pricing_plan_id":"cebpf4jnsgd1na2vs0mg"},{"bike_id":"5a270969-07d4-4cc7-8572-3c1cac0a5ac6","system_id":"levelo_inurba_marseille","lat":43.31242,"lon":5.37967,"is_reserved":false,"is_disabled":false,"rental_uris":{"android":"levelo://app?vid=5a270969-07d4-4cc7-8572-3c1cac0a5ac6","ios":"levelo://app?vid=5a270969-07d4-4cc7-8572-3c1cac0a5ac6"},"vehicle_type_id":"4","last_reported":1738537653,"current_range_meters":26000,"station_id":"","pricing_plan_id":"cebpf4jnsgd1na2vs0mg"},{"bike_id":"7a38dcdc-5d9e-43ee-9f68-0ac26e180460","system_id":"levelo_inurba_marseille","lat":43.32345,"lon":5.38883,"is_reserved":false,"is_disabled":false,"rental_uris":{"android":"levelo://app?vid=7a38dcdc-5d9e-43ee-9f68-0ac26e180460","ios":"levelo://app?vid=7a38dcdc-5d9e-43ee-9f68-0ac26e180460"},"vehicle_type_id":"4","last_reported":1738537653,"current_range_meters":18000,"station_id":"ce4bhqp2rcd13ifvqhog","pricing_plan_id":"cebpf4jnsgd1na2vs0mg"},{"bike_id":"e67151be-040a-4c39-9f5e-9a6e81664acc","system_id":"levelo_inurba_marseille","lat":43.26058,"lon":5.39397,"is_reserved":false,"is_disabled":false,"rental_uris":{"android":"levelo://app?vid=e67151be-040a-4c39-9f5e-9a6e81664acc","ios":"levelo://app?vid=e67151be-040a-4c39-9f5e-9a6e81664acc"},"vehicle_type_id":"4","last_reported":1738537653,"current_range_meters":4400,"station_id":"ce4bhh92rcd13ifvqfj0","pricing_plan_id":"cebpf4jnsgd1na2vs0mg"},{"bike_id":"07d1d985-af2a-4639-bc01-5419ea2b7b91","system_id":"levelo_inurba_marseille","lat":43.30644,"lon":5.4006,"is_reserved":false,"is_disabled":false,"rental_uris":{"android":"levelo://app?vid=07d1d985-af2a-4639-bc01-5419ea2b7b91","ios":"levelo://app?vid=07d1d985-af2a-4639-bc01-5419ea2b7b91"},"vehicle_type_id":"4","last_reported":1738537653,"current_range_meters":19200,"station_id":"ce4bh112rcd13ifvqda0","pricing_plan_id":"cebpf4jnsgd1na2vs0mg"},{"bike_id":"3e242f84-d04b-4d88-98ae-b0eb705c06e7","system_id":"levelo_inurba_marseille","lat":43.28984,"lon":5.37848,"is_reserved":false,"is_disabled":true,"rental_uris":{"android":"levelo://app?vid=3e242f84-d04b-4d88-98ae-b0eb705c06e7","ios":"levelo://app?vid=3e242f84-d04b-4d88-98ae-b0eb705c06e7"},"vehicle_type_id":"4","last_reported":1738537653,"current_range_meters":38800,"station_id":"ce4bh9p2rcd13ifvqed0","pricing_plan_id":"cebpf4jnsgd1na2vs0mg"},{"bike_id":"c51ba98b-9484-4d66-a893-40418f1c41b6","system_id":"levelo_inurba_marseille","lat":43.29038,"lon":5.35905,"is_reserved":false,"is_disabled":false,"rental_uris":{"android":"levelo://app?vid=c51ba98b-9484-4d66-a893-40418f1c41b6","ios":"levelo://app?vid=c51ba98b-9484-4d66-a893-40418f1c41b6"},"vehicle_type_id":"4","last_reported":1738537653,"current_range_meters":38800,"station_id":"ce4bha92rcd13ifvqeg0","pricing_plan_id":"cebpf4jnsgd1na2vs0mg"},{"bike_id":"5da1e538-a09c-450d-87c5-27f28dd03c7a","system_id":"levelo_inurba_marseille","lat":43.30645,"lon":5.40106,"is_reserved":false,"is_disabled":false,"rental_uris":{"android":"levelo://app?vid=5da1e538-a09c-450d-87c5-27f28dd03c7a","ios":"levelo://app?vid=5da1e538-a09c-450d-87c5-27f28dd03c7a"},"vehicle_type_id":"4","last_reported":1738537653,"current_range_meters":25600,"station_id":"ce4bh112rcd13ifvqda0","pricing_plan_id":"cebpf4jnsgd1na2vs0mg"},{"bike_id":"9178cdc5-a4f7-4604-8548-68c648dce4e8","system_id":"levelo_inurba_marseille","lat":43.29028,"lon":5.3998,"is_reserved":false,"is_disabled":false,"rental_uris":{"android":"levelo://app?vid=9178cdc5-a4f7-4604-8548-68c648dce4e8","ios":"levelo://app?vid=9178cdc5-a4f7-4604-8548-68c648dce4e8"},"vehicle_type_id":"4","last_reported":1738537653,"current_range_meters":39200,"station_id":"ce4bh392rcd13ifvqdm0","pricing_plan_id":"cebpf4jnsgd1na2vs0mg"},{"bike_id":"29e433c5-f86e-40bf-8cf3-374b024916b0","system_id":"levelo_inurba_marseille","lat":43.32289,"lon":5.38271,"is_reserved":false,"is_disabled":false,"rental_uris":{"android":"levelo://app?vid=29e433c5-f86e-40bf-8cf3-374b024916b0","ios":"levelo://app?vid=29e433c5-f86e-40bf-8cf3-374b024916b0"},"vehicle_type_id":"4","last_reported":1738537653,"current_range_meters":37600,"station_id":"ce4bhr12rcd13ifvqhqg","pricing_plan_id":"cebpf4jnsgd1na2vs0mg"},{"bike_id":"479bb601-c987-463b-8a8a-641097e77c23","system_id":"levelo_inurba_marseille","lat":43.28454,"lon":5.35892,"is_reserved":false,"is_disabled":false,"rental_uris":{"android":"levelo://app?vid=479bb601-c987-463b-8a8a-641097e77c23","ios":"levelo://app?vid=479bb601-c987-463b-8a8a-641097e77c23"},"vehicle_type_id":"4","last_reported":1738537653,"current_range_meters":39200,"station_id":"ce4bhah2rcd13ifvqei0","pricing_plan_id":"cebpf4jnsgd1na2vs0mg"},{"bike_id":"ccf74bb0-77b5-47a3-91cd-199ac433dec4","system_id":"levelo_inurba_marseille","lat":43.30818,"lon":5.38153,"is_reserved":false,"is_disabled":false,"rental_uris":{"android":"levelo://app?vid=ccf74bb0-77b5-47a3-91cd-199ac433dec4","ios":"levelo://app?vid=ccf74bb0-77b5-47a3-91cd-199ac433dec4"},"vehicle_type_id":"4","last_reported":1738537653,"current_range_meters":37600,"station_id":"ce4bgt12rcd13ifvqce0","pricing_plan_id":"cebpf4jnsgd1na2vs0mg"},{"bike_id":"dd6947e1-5efd-41c6-9dad-bc275e89bb22","system_id":"levelo_inurba_marseille","lat":43.30251,"lon":5.40053,"is_reserved":false,"is_disabled":false,"rental_uris":{"android":"levelo://app?vid=dd6947e1-5efd-41c6-9dad-bc275e89bb22","ios":"levelo://app?vid=dd6947e1-5efd-41c6-9dad-bc275e89bb22"},"vehicle_type_id":"4","last_reported":1738537653,"current_range_meters":16400,"station_id":"ce4bgvh2rcd13ifvqcs0","pricing_plan_id":"cebpf4jnsgd1na2vs0mg"},{"bike_id":"84fe84b0-3c78-4909-b6ea-2c4d9b766026","system_id":"levelo_inurba_marseille","lat":43.29535,"lon":5.38551,"is_reserved":false,"is_disabled":true,"rental_uris":{"android":"levelo://app?vid=84fe84b0-3c78-4909-b6ea-2c4d9b766026","ios":"levelo://app?vid=84fe84b0-3c78-4909-b6ea-2c4d9b766026"},"vehicle_type_id":"4","last_reported":1738537653,"current_range_meters":18000,"station_id":"ce4bgih2rcd13ifvqba0","pricing_plan_id":"cebpf4jnsgd1na2vs0mg"},{"bike_id":"a561aae7-6369-4c00-9d68-e8c23562735d","system_id":"levelo_inurba_marseille","lat":43.26559,"lon":5.39013,"is_reserved":false,"is_disabled":true,"rental_uris":{"android":"levelo://app?vid=a561aae7-6369-4c00-9d68-e8c23562735d","ios":"levelo://app?vid=a561aae7-6369-4c00-9d68-e8c23562735d"},"vehicle_type_id":"4","last_reported":1738537653,"current_range_meters":12800,"station_id":"ce4bhe12rcd13ifvqf30","pricing_plan_id":"cebpf4jnsgd1na2vs0mg"},{"bike_id":"b9677c7b-67e5-4626-9fda-e3dd506363aa","system_id":"levelo_inurba_marseille","lat":43.2679,"lon":5.39413,"is_reserved":false,"is_disabled":false,"rental_uris":{"android":"levelo://app?vid=b9677c7b-67e5-4626-9fda-e3dd506363aa","ios":"levelo://app?vid=b9677c7b-67e5-4626-9fda-e3dd506363aa"},"vehicle_type_id":"4","last_reported":1738537653,"current_range_meters":10000,"station_id":"ce4bhh12rcd13ifvqfg0","pricing_plan_id":"cebpf4jnsgd1na2vs0mg"},{"bike_id":"61b9bc9c-89cb-4f33-a107-e1d46889ee3d","system_id":"levelo_inurba_marseille","lat":43.28147,"lon":5.42626,"is_reserved":false,"is_disabled":false,"rental_uris":{"android":"levelo://app?vid=61b9bc9c-89cb-4f33-a107-e1d46889ee3d","ios":"levelo://app?vid=61b9bc9c-89cb-4f33-a107-e1d46889ee3d"},"vehicle_type_id":"4","last_reported":1738537653,"current_range_meters":35200,"station_id":"ce4bhnh2rcd13ifvqgug","pricing_plan_id":"cebpf4jnsgd1na2vs0mg"},{"bike_id":"1d3c0a30-0621-46ad-b7c1-d02c6c83e414","system_id":"levelo_inurba_marseille","lat":43.29592,"lon":5.36746,"is_reserved":false,"is_disabled":false,"rental_uris":{"android":"levelo://app?vid=1d3c0a30-0621-46ad-b7c1-d02c6c83e414","ios":"levelo://app?vid=1d3c0a30-0621-46ad-b7c1-d02c6c83e414"},"vehicle_type_id":"4","last_reported":1738537653,"current_range_meters":39200,"station_id":"ce4bgph2rcd13ifvqc2g","pricing_plan_id":"cebpf4jnsgd1na2vs0mg"},{"bike_id":"17b1527f-0847-45c8-a29a-b30f8850515d","system_id":"levelo_inurba_marseille","lat":43.31175,"lon":5.38726,"is_reserved":false,"is_disabled":false,"rental_uris":{"android":"levelo://app?vid=17b1527f-0847-45c8-a29a-b30f8850515d","ios":"levelo://app?vid=17b1527f-0847-45c8-a29a-b30f8850515d"},"vehicle_type_id":"4","last_reported":1738537653,"current_range_meters":27200,"station_id":"ce4bgv12rcd13ifvqcp0","pricing_plan_id":"cebpf4jnsgd1na2vs0mg"},{"bike_id":"82c6eebf-0519-4b18-a727-88dc1d4c976d","system_id":"levelo_inurba_marseille","lat":43.28266,"lon":5.35066,"is_reserved":false,"is_disabled":true,"rental_uris":{"android":"levelo://app?vid=82c6eebf-0519-4b18-a727-88dc1d4c976d","ios":"levelo://app?vid=82c6eebf-0519-4b18-a727-88dc1d4c976d"},"vehicle_type_id":"4","last_reported":1738537653,"current_range_meters":38800,"station_id":"ce4bhbp2rcd13ifvqerg","pricing_plan_id":"cebpf4jnsgd1na2vs0mg"},{"bike_id":"6da60d9c-131b-4c89-a230-acdf22550cc0","system_id":"levelo_inurba_marseille","lat":43.31169,"lon":5.38727,"is_reserved":false,"is_disabled":false,"rental_uris":{"android":"levelo://app?vid=6da60d9c-131b-4c89-a230-acdf22550cc0","ios":"levelo://app?vid=6da60d9c-131b-4c89-a230-acdf22550cc0"},"vehicle_type_id":"4","last_reported":1738537653,"current_range_meters":39200,"station_id":"ce4bgv12rcd13ifvqcp0","pricing_plan_id":"cebpf4jnsgd1na2vs0mg"},{"bike_id":"3ccd196e-cddd-41f1-8a25-97e7f22947f7","system_id":"levelo_inurba_marseille","lat":43.2511,"lon":5.40311,"is_reserved":false,"is_disabled":true,"rental_uris":{"android":"levelo://app?vid=3ccd196e-cddd-41f1-8a25-97e7f22947f7","ios":"levelo://app?vid=3ccd196e-cddd-41f1-8a25-97e7f22947f7"},"vehicle_type_id":"4","last_reported":1738537653,"current_range_meters":38000,"station_id":"ce4bhlh2rcd13ifvqgig","pricing_plan_id":"cebpf4jnsgd1na2vs0mg"},{"bike_id":"b204300b-808f-43a2-9aa9-be4a9598b23b","system_id":"levelo_inurba_marseille","lat":43.29528,"lon":5.39057,"is_reserved":false,"is_disabled":false,"rental_uris":{"android":"levelo://app?vid=b204300b-808f-43a2-9aa9-be4a9598b23b","ios":"levelo://app?vid=b204300b-808f-43a2-9aa9-be4a9598b23b"},"vehicle_type_id":"4","last_reported":1738537653,"current_range_meters":38800,"station_id":"ce4bh3p2rcd13ifvqdp0","pricing_plan_id":"cebpf4jnsgd1na2vs0mg"},{"bike_id":"0ebf4f58-26e3-4307-bdb9-850eabafe38f","system_id":"levelo_inurba_marseille","lat":43.30276,"lon":5.40078,"is_reserved":false,"is_disabled":false,"rental_uris":{"android":"levelo://app?vid=0ebf4f58-26e3-4307-bdb9-850eabafe38f","ios":"levelo://app?vid=0ebf4f58-26e3-4307-bdb9-850eabafe38f"},"vehicle_type_id":"4","last_reported":1738537653,"current_range_meters":24800,"station_id":"ce4bgvh2rcd13ifvqcs0","pricing_plan_id":"cebpf4jnsgd1na2vs0mg"},{"bike_id":"14eb7a59-9b20-4e76-b93d-5c9f392068a1","system_id":"levelo_inurba_marseille","lat":43.28142,"lon":5.4265,"is_reserved":false,"is_disabled":false,"rental_uris":{"android":"levelo://app?vid=14eb7a59-9b20-4e76-b93d-5c9f392068a1","ios":"levelo://app?vid=14eb7a59-9b20-4e76-b93d-5c9f392068a1"},"vehicle_type_id":"4","last_reported":1738537653,"current_range_meters":12400,"station_id":"ce4bhnh2rcd13ifvqgug","pricing_plan_id":"cebpf4jnsgd1na2vs0mg"},{"bike_id":"85e818aa-44cc-45e7-a6ae-b3c964bcb6af","system_id":"levelo_inurba_marseille","lat":43.29547,"lon":5.42289,"is_reserved":false,"is_disabled":false,"rental_uris":{"android":"levelo://app?vid=85e818aa-44cc-45e7-a6ae-b3c964bcb6af","ios":"levelo://app?vid=85e818aa-44cc-45e7-a6ae-b3c964bcb6af"},"vehicle_type_id":"4","last_reported":1738537653,"current_range_meters":38800,"station_id":"ce4bhph2rcd13ifvqhdg","pricing_plan_id":"cebpf4jnsgd1na2vs0mg"},{"bike_id":"d04d969a-9d62-4d40-b3e1-46b8510df428","system_id":"levelo_inurba_marseille","lat":43.29858,"lon":5.3972,"is_reserved":false,"is_disabled":false,"rental_uris":{"android":"levelo://app?vid=d04d969a-9d62-4d40-b3e1-46b8510df428","ios":"levelo://app?vid=d04d969a-9d62-4d40-b3e1-46b8510df428"},"vehicle_type_id":"4","last_reported":1738537653,"current_range_meters":22800,"station_id":"ce4bh0h2rcd13ifvqd50","pricing_plan_id":"cebpf4jnsgd1na2vs0mg"},{"bike_id":"f99e91c4-2330-4795-bfe7-3495ca9ba92c","system_id":"levelo_inurba_marseille","lat":43.28942,"lon":5.36628,"is_reserved":false,"is_disabled":true,"rental_uris":{"android":"levelo://app?vid=f99e91c4-2330-4795-bfe7-3495ca9ba92c","ios":"levelo://app?vid=f99e91c4-2330-4795-bfe7-3495ca9ba92c"},"vehicle_type_id":"4","last_reported":1738537653,"current_range_meters":27600,"station_id":"ce4bhap2rcd13ifvqek0","pricing_plan_id":"cebpf4jnsgd1na2vs0mg"},{"bike_id":"0f0beca1-cf2c-470b-a1cc-3c6f92df455d","system_id":"levelo_inurba_marseille","lat":43.24634,"lon":5.3818,"is_reserved":false,"is_disabled":false,"rental_uris":{"android":"levelo://app?vid=0f0beca1-cf2c-470b-a1cc-3c6f92df455d","ios":"levelo://app?vid=0f0beca1-cf2c-470b-a1cc-3c6f92df455d"},"vehicle_type_id":"4","last_reported":1738537653,"current_range_meters":7200,"station_id":"ce4bhih2rcd13ifvqfr0","pricing_plan_id":"cebpf4jnsgd1na2vs0mg"},{"bike_id":"861303b7-ad1c-4398-bdeb-473d56999f22","system_id":"levelo_inurba_marseille","lat":43.24651,"lon":5.38902,"is_reserved":false,"is_disabled":false,"rental_uris":{"android":"levelo://app?vid=861303b7-ad1c-4398-bdeb-473d56999f22","ios":"levelo://app?vid=861303b7-ad1c-4398-bdeb-473d56999f22"},"vehicle_type_id":"4","last_reported":1738537653,"current_range_meters":9600,"station_id":"ce4bhg12rcd13ifvqf60","pricing_plan_id":"cebpf4jnsgd1na2vs0mg"},{"bike_id":"bf6f6448-ac2a-4aa9-a865-7272995774af","system_id":"levelo_inurba_marseille","lat":43.3302,"lon":5.39047,"is_reserved":false,"is_disabled":false,"rental_uris":{"android":"levelo://app?vid=bf6f6448-ac2a-4aa9-a865-7272995774af","ios":"levelo://app?vid=bf6f6448-ac2a-4aa9-a865-7272995774af"},"vehicle_type_id":"4","last_reported":1738537653,"current_range_meters":38800,"station_id":"ce4bhr92rcd13ifvqhrg","pricing_plan_id":"cebpf4jnsgd1na2vs0mg"},{"bike_id":"2017d996-f52c-4584-a168-e8654a14f503","system_id":"levelo_inurba_marseille","lat":43.23942,"lon":5.36657,"is_reserved":false,"is_disabled":true,"rental_uris":{"android":"levelo://app?vid=2017d996-f52c-4584-a168-e8654a14f503","ios":"levelo://app?vid=2017d996-f52c-4584-a168-e8654a14f503"},"vehicle_type_id":"4","last_reported":1738537653,"current_range_meters":34000,"station_id":"ce4bhi12rcd13ifvqfp0","pricing_plan_id":"cebpf4jnsgd1na2vs0mg"},{"bike_id":"e2698efb-9971-49b6-8c17-ae3367c057dc","system_id":"levelo_inurba_marseille","lat":43.30428,"lon":5.38909,"is_reserved":false,"is_disabled":false,"rental_uris":{"android":"levelo://app?vid=e2698efb-9971-49b6-8c17-ae3367c057dc","ios":"levelo://app?vid=e2698efb-9971-49b6-8c17-ae3367c057dc"},"vehicle_type_id":"4","last_reported":1738537653,"current_range_meters":33600,"station_id":"ce4bgk12rcd13ifvqbi0","pricing_plan_id":"cebpf4jnsgd1na2vs0mg"},{"bike_id":"6ba3b23f-46b4-407d-9c68-847ea52b2d07","system_id":"levelo_inurba_marseille","lat":43.25118,"lon":5.40327,"is_reserved":false,"is_disabled":false,"rental_uris":{"android":"levelo://app?vid=6ba3b23f-46b4-407d-9c68-847ea52b2d07","ios":"levelo://app?vid=6ba3b23f-46b4-407d-9c68-847ea52b2d07"},"vehicle_type_id":"4","last_reported":1738537653,"current_range_meters":38000,"station_id":"ce4bhlh2rcd13ifvqgig","pricing_plan_id":"cebpf4jnsgd1na2vs0mg"},{"bike_id":"4141e714-4e7a-4571-8c94-78a1e86b7493","system_id":"levelo_inurba_marseille","lat":43.24806,"lon":5.37457,"is_reserved":false,"is_disabled":false,"rental_uris":{"android":"levelo://app?vid=4141e714-4e7a-4571-8c94-78a1e86b7493","ios":"levelo://app?vid=4141e714-4e7a-4571-8c94-78a1e86b7493"},"vehicle_type_id":"4","last_reported":1738537653,"current_range_meters":33200,"station_id":"ce4bhgh2rcd13ifvqfb0","pricing_plan_id":"cebpf4jnsgd1na2vs0mg"},{"bike_id":"0ef83bbd-06ec-47f7-a25d-62aa89428599","system_id":"levelo_inurba_marseille","lat":43.25867,"lon":5.39901,"is_reserved":false,"is_disabled":false,"rental_uris":{"android":"levelo://app?vid=0ef83bbd-06ec-47f7-a25d-62aa89428599","ios":"levelo://app?vid=0ef83bbd-06ec-47f7-a25d-62aa89428599"},"vehicle_type_id":"4","last_reported":1738537653,"current_range_meters":28800,"station_id":"ce4bhl92rcd13ifvqghg","pricing_plan_id":"cebpf4jnsgd1na2vs0mg"},{"bike_id":"51faca83-1fce-414b-97bc-4d0bcda87249","system_id":"levelo_inurba_marseille","lat":43.28259,"lon":5.35099,"is_reserved":false,"is_disabled":false,"rental_uris":{"android":"levelo://app?vid=51faca83-1fce-414b-97bc-4d0bcda87249","ios":"levelo://app?vid=51faca83-1fce-414b-97bc-4d0bcda87249"},"vehicle_type_id":"4","last_reported":1738537653,"current_range_meters":17600,"station_id":"ce4bhbp2rcd13ifvqerg","pricing_plan_id":"cebpf4jnsgd1na2vs0mg"},{"bike_id":"dbe5cc32-3f1b-4ab9-b522-eb2eb52f2077","system_id":"levelo_inurba_marseille","lat":43.28856,"lon":5.39273,"is_reserved":false,"is_disabled":false,"rental_uris":{"android":"levelo://app?vid=dbe5cc32-3f1b-4ab9-b522-eb2eb52f2077","ios":"levelo://app?vid=dbe5cc32-3f1b-4ab9-b522-eb2eb52f2077"},"vehicle_type_id":"4","last_reported":1738537653,"current_range_meters":18000,"station_id":"ce4bh2p2rcd13ifvqdi0","pricing_plan_id":"cebpf4jnsgd1na2vs0mg"},{"bike_id":"8344a4b9-fe19-4ccf-9e1e-c66810831c8c","system_id":"levelo_inurba_marseille","lat":43.24377,"lon":5.37034,"is_reserved":false,"is_disabled":false,"rental_uris":{"android":"levelo://app?vid=8344a4b9-fe19-4ccf-9e1e-c66810831c8c","ios":"levelo://app?vid=8344a4b9-fe19-4ccf-9e1e-c66810831c8c"},"vehicle_type_id":"4","last_reported":1738537653,"current_range_meters":9600,"station_id":"ce4bhhh2rcd13ifvqfk0","pricing_plan_id":"cebpf4jnsgd1na2vs0mg"},{"bike_id":"776cc8ca-f01e-4676-990d-99f02a854c44","system_id":"levelo_inurba_marseille","lat":43.29271,"lon":5.36832,"is_reserved":false,"is_disabled":false,"rental_uris":{"android":"levelo://app?vid=776cc8ca-f01e-4676-990d-99f02a854c44","ios":"levelo://app?vid=776cc8ca-f01e-4676-990d-99f02a854c44"},"vehicle_type_id":"4","last_reported":1738537653,"current_range_meters":38000,"station_id":"ce4bhbp2rcd13ifvqesg","pricing_plan_id":"cebpf4jnsgd1na2vs0mg"},{"bike_id":"b9c9228a-1d62-494b-80a7-dbffbb3390f6","system_id":"levelo_inurba_marseille","lat":43.33731,"lon":5.39182,"is_reserved":false,"is_disabled":false,"rental_uris":{"android":"levelo://app?vid=b9c9228a-1d62-494b-80a7-dbffbb3390f6","ios":"levelo://app?vid=b9c9228a-1d62-494b-80a7-dbffbb3390f6"},"vehicle_type_id":"4","last_reported":1738537653,"current_range_meters":38000,"station_id":"ce4bhr92rcd13ifvqhsg","pricing_plan_id":"cebpf4jnsgd1na2vs0mg"},{"bike_id":"2047e938-57e3-4375-958a-69a4e97a2c7d","system_id":"levelo_inurba_marseille","lat":43.23199,"lon":5.39995,"is_reserved":false,"is_disabled":true,"rental_uris":{"android":"levelo://app?vid=2047e938-57e3-4375-958a-69a4e97a2c7d","ios":"levelo://app?vid=2047e938-57e3-4375-958a-69a4e97a2c7d"},"vehicle_type_id":"4","last_reported":1738537653,"current_range_meters":4400,"station_id":"ce4bhn12rcd13ifvqgqg","pricing_plan_id":"cebpf4jnsgd1na2vs0mg"},{"bike_id":"4181ad57-d212-4d18-bef7-cb60c188f749","system_id":"levelo_inurba_marseille","lat":43.29305,"lon":5.37468,"is_reserved":false,"is_disabled":false,"rental_uris":{"android":"levelo://app?vid=4181ad57-d212-4d18-bef7-cb60c188f749","ios":"levelo://app?vid=4181ad57-d212-4d18-bef7-cb60c188f749"},"vehicle_type_id":"4","last_reported":1738537653,"current_range_meters":27600,"station_id":"ce4bgi12rcd13ifvqb70","pricing_plan_id":"cebpf4jnsgd1na2vs0mg"},{"bike_id":"ee5c8a51-ad90-430a-9429-c6f1c8ebd0a4","system_id":"levelo_inurba_marseille","lat":43.2624,"lon":5.37545,"is_reserved":false,"is_disabled":false,"rental_uris":{"android":"levelo://app?vid=ee5c8a51-ad90-430a-9429-c6f1c8ebd0a4","ios":"levelo://app?vid=ee5c8a51-ad90-430a-9429-c6f1c8ebd0a4"},"vehicle_type_id":"4","last_reported":1738537653,"current_range_meters":6800,"station_id":"","pricing_plan_id":"cebpf4jnsgd1na2vs0mg"},{"bike_id":"9e08ca9f-8bd0-444c-b69a-cb263cfb88be","system_id":"levelo_inurba_marseille","lat":43.265703,"lon":5.39017,"is_reserved":false,"is_disabled":true,"rental_uris":{"android":"levelo://app?vid=9e08ca9f-8bd0-444c-b69a-cb263cfb88be","ios":"levelo://app?vid=9e08ca9f-8bd0-444c-b69a-cb263cfb88be"},"vehicle_type_id":"4","last_reported":1738537653,"current_range_meters":32000,"station_id":"ce4bhe12rcd13ifvqf30","pricing_plan_id":"cebpf4jnsgd1na2vs0mg"},{"bike_id":"51066c61-f28c-45f5-927a-c632495855f1","system_id":"levelo_inurba_marseille","lat":43.28148,"lon":5.42643,"is_reserved":false,"is_disabled":false,"rental_uris":{"android":"levelo://app?vid=51066c61-f28c-45f5-927a-c632495855f1","ios":"levelo://app?vid=51066c61-f28c-45f5-927a-c632495855f1"},"vehicle_type_id":"4","last_reported":1738537653,"current_range_meters":28400,"station_id":"ce4bhnh2rcd13ifvqgug","pricing_plan_id":"cebpf4jnsgd1na2vs0mg"},{"bike_id":"5bfb88bf-b512-4c17-8ead-82e64327b77a","system_id":"levelo_inurba_marseille","lat":43.28278,"lon":5.35067,"is_reserved":false,"is_disabled":false,"rental_uris":{"android":"levelo://app?vid=5bfb88bf-b512-4c17-8ead-82e64327b77a","ios":"levelo://app?vid=5bfb88bf-b512-4c17-8ead-82e64327b77a"},"vehicle_type_id":"4","last_reported":1738537653,"current_range_meters":38800,"station_id":"ce4bhbp2rcd13ifvqerg","pricing_plan_id":"cebpf4jnsgd1na2vs0mg"},{"bike_id":"4f2321b3-b72c-4368-be30-9b405df9d523","system_id":"levelo_inurba_marseille","lat":43.30632,"lon":5.40094,"is_reserved":false,"is_disabled":false,"rental_uris":{"android":"levelo://app?vid=4f2321b3-b72c-4368-be30-9b405df9d523","ios":"levelo://app?vid=4f2321b3-b72c-4368-be30-9b405df9d523"},"vehicle_type_id":"4","last_reported":1738537653,"current_range_meters":25200,"station_id":"ce4bh112rcd13ifvqda0","pricing_plan_id":"cebpf4jnsgd1na2vs0mg"},{"bike_id":"eeb9a5cf-3d03-479f-9646-e8bf0a748ea8","system_id":"levelo_inurba_marseille","lat":43.28448,"lon":5.3921,"is_reserved":false,"is_disabled":false,"rental_uris":{"android":"levelo://app?vid=eeb9a5cf-3d03-479f-9646-e8bf0a748ea8","ios":"levelo://app?vid=eeb9a5cf-3d03-479f-9646-e8bf0a748ea8"},"vehicle_type_id":"4","last_reported":1738537653,"current_range_meters":34800,"station_id":"ce4bhoh2rcd13ifvqh5g","pricing_plan_id":"cebpf4jnsgd1na2vs0mg"},{"bike_id":"5193ac84-5b8b-4519-b9bf-865fff08a5b3","system_id":"levelo_inurba_marseille","lat":43.29249,"lon":5.40913,"is_reserved":false,"is_disabled":false,"rental_uris":{"android":"levelo://app?vid=5193ac84-5b8b-4519-b9bf-865fff08a5b3","ios":"levelo://app?vid=5193ac84-5b8b-4519-b9bf-865fff08a5b3"},"vehicle_type_id":"4","last_reported":1738537653,"current_range_meters":39200,"station_id":"ce4bh192rcd13ifvqdc0","pricing_plan_id":"cebpf4jnsgd1na2vs0mg"},{"bike_id":"16985281-bba7-477d-aedc-c19a1619dd25","system_id":"levelo_inurba_marseille","lat":43.26524,"lon":5.39577,"is_reserved":false,"is_disabled":false,"rental_uris":{"android":"levelo://app?vid=16985281-bba7-477d-aedc-c19a1619dd25","ios":"levelo://app?vid=16985281-bba7-477d-aedc-c19a1619dd25"},"vehicle_type_id":"4","last_reported":1738537653,"current_range_meters":38800,"station_id":"ce4bhi12rcd13ifvqfq0","pricing_plan_id":"cebpf4jnsgd1na2vs0mg"},{"bike_id":"461a8c06-47b5-498d-98c2-5799cd485fe6","system_id":"levelo_inurba_marseille","lat":43.241796,"lon":5.397382,"is_reserved":false,"is_disabled":false,"rental_uris":{"android":"levelo://app?vid=461a8c06-47b5-498d-98c2-5799cd485fe6","ios":"levelo://app?vid=461a8c06-47b5-498d-98c2-5799cd485fe6"},"vehicle_type_id":"4","last_reported":1738537653,"current_range_meters":31200,"station_id":"ce4bhn12rcd13ifvqgpg","pricing_plan_id":"cebpf4jnsgd1na2vs0mg"},{"bike_id":"3a60ebc0-dac7-4b3e-a8c5-4699cca32d17","system_id":"levelo_inurba_marseille","lat":43.30803,"lon":5.43529,"is_reserved":false,"is_disabled":false,"rental_uris":{"android":"levelo://app?vid=3a60ebc0-dac7-4b3e-a8c5-4699cca32d17","ios":"levelo://app?vid=3a60ebc0-dac7-4b3e-a8c5-4699cca32d17"},"vehicle_type_id":"4","last_reported":1738537653,"current_range_meters":27200,"station_id":"ce4bhph2rcd13ifvqheg","pricing_plan_id":"cebpf4jnsgd1na2vs0mg"},{"bike_id":"0ade81b6-94a4-4b71-9bcb-5d48ab6b6901","system_id":"levelo_inurba_marseille","lat":43.29789,"lon":5.3935,"is_reserved":false,"is_disabled":false,"rental_uris":{"android":"levelo://app?vid=0ade81b6-94a4-4b71-9bcb-5d48ab6b6901","ios":"levelo://app?vid=0ade81b6-94a4-4b71-9bcb-5d48ab6b6901"},"vehicle_type_id":"4","last_reported":1738537653,"current_range_meters":10000,"station_id":"chh1huq6cuj3fo74tm60","pricing_plan_id":"cebpf4jnsgd1na2vs0mg"},{"bike_id":"5c33e9ec-ac2d-41a1-800b-dddc0d3862e2","system_id":"levelo_inurba_marseille","lat":43.301266,"lon":5.387774,"is_reserved":false,"is_disabled":true,"rental_uris":{"android":"levelo://app?vid=5c33e9ec-ac2d-41a1-800b-dddc0d3862e2","ios":"levelo://app?vid=5c33e9ec-ac2d-41a1-800b-dddc0d3862e2"},"vehicle_type_id":"4","last_reported":1738537653,"current_range_meters":30800,"station_id":"ce4bghh2rcd13ifvqb60","pricing_plan_id":"cebpf4jnsgd1na2vs0mg"},{"bike_id":"3e36ac69-430f-415c-ac0a-246b83170535","system_id":"levelo_inurba_marseille","lat":43.32101,"lon":5.36771,"is_reserved":false,"is_disabled":false,"rental_uris":{"android":"levelo://app?vid=3e36ac69-430f-415c-ac0a-246b83170535","ios":"levelo://app?vid=3e36ac69-430f-415c-ac0a-246b83170535"},"vehicle_type_id":"4","last_reported":1738537653,"current_range_meters":6400,"station_id":"ce4bhrh2rcd13ifvqhug","pricing_plan_id":"cebpf4jnsgd1na2vs0mg"},{"bike_id":"55588187-a4ea-4de4-8902-f9455c40bdb2","system_id":"levelo_inurba_marseille","lat":43.32478,"lon":5.3655,"is_reserved":false,"is_disabled":false,"rental_uris":{"android":"levelo://app?vid=55588187-a4ea-4de4-8902-f9455c40bdb2","ios":"levelo://app?vid=55588187-a4ea-4de4-8902-f9455c40bdb2"},"vehicle_type_id":"4","last_reported":1738537653,"current_range_meters":14400,"station_id":"ce4bhs12rcd13ifvqhvg","pricing_plan_id":"cebpf4jnsgd1na2vs0mg"},{"bike_id":"00f2f312-84f7-4297-a90d-7beda41dd9ad","system_id":"levelo_inurba_marseille","lat":43.29901,"lon":5.4367,"is_reserved":false,"is_disabled":false,"rental_uris":{"android":"levelo://app?vid=00f2f312-84f7-4297-a90d-7beda41dd9ad","ios":"levelo://app?vid=00f2f312-84f7-4297-a90d-7beda41dd9ad"},"vehicle_type_id":"4","last_reported":1738537653,"current_range_meters":38800,"station_id":"ce4bhpp2rcd13ifvqhfg","pricing_plan_id":"cebpf4jnsgd1na2vs0mg"},{"bike_id":"78404ded-34e2-4c23-b95f-76f175a5d028","system_id":"levelo_inurba_marseille","lat":43.2868,"lon":5.38657,"is_reserved":false,"is_disabled":false,"rental_uris":{"android":"levelo://app?vid=78404ded-34e2-4c23-b95f-76f175a5d028","ios":"levelo://app?vid=78404ded-34e2-4c23-b95f-76f175a5d028"},"vehicle_type_id":"4","last_reported":1738537653,"current_range_meters":39200,"station_id":"ce4bh492rcd13ifvqdug","pricing_plan_id":"cebpf4jnsgd1na2vs0mg"},{"bike_id":"f9a8bd69-665c-48a7-ad3c-2e9818255e07","system_id":"levelo_inurba_marseille","lat":43.32524,"lon":5.3662,"is_reserved":false,"is_disabled":false,"rental_uris":{"android":"levelo://app?vid=f9a8bd69-665c-48a7-ad3c-2e9818255e07","ios":"levelo://app?vid=f9a8bd69-665c-48a7-ad3c-2e9818255e07"},"vehicle_type_id":"4","last_reported":1738537653,"current_range_meters":34800,"station_id":"","pricing_plan_id":"cebpf4jnsgd1na2vs0mg"},{"bike_id":"a2f7a7c7-2f14-4316-93ee-a418fab95c71","system_id":"levelo_inurba_marseille","lat":43.29282,"lon":5.3746,"is_reserved":false,"is_disabled":false,"rental_uris":{"android":"levelo://app?vid=a2f7a7c7-2f14-4316-93ee-a418fab95c71","ios":"levelo://app?vid=a2f7a7c7-2f14-4316-93ee-a418fab95c71"},"vehicle_type_id":"4","last_reported":1738537653,"current_range_meters":39200,"station_id":"ce4bgi12rcd13ifvqb70","pricing_plan_id":"cebpf4jnsgd1na2vs0mg"},{"bike_id":"2abf2e04-64f9-454a-a5ce-482f321c0fbc","system_id":"levelo_inurba_marseille","lat":43.296239,"lon":5.377045,"is_reserved":false,"is_disabled":true,"rental_uris":{"android":"levelo://app?vid=2abf2e04-64f9-454a-a5ce-482f321c0fbc","ios":"levelo://app?vid=2abf2e04-64f9-454a-a5ce-482f321c0fbc"},"vehicle_type_id":"4","last_reported":1738537653,"current_range_meters":0,"station_id":"","pricing_plan_id":"cebpf4jnsgd1na2vs0mg"},{"bike_id":"74f973f6-53f8-42c3-b1d8-95ee9a3c40ae","system_id":"levelo_inurba_marseille","lat":43.28702,"lon":5.3739,"is_reserved":false,"is_disabled":false,"rental_uris":{"android":"levelo://app?vid=74f973f6-53f8-42c3-b1d8-95ee9a3c40ae","ios":"levelo://app?vid=74f973f6-53f8-42c3-b1d8-95ee9a3c40ae"},"vehicle_type_id":"4","last_reported":1738537653,"current_range_meters":31200,"station_id":"ce4bh3p2rcd13ifvqdq0","pricing_plan_id":"cebpf4jnsgd1na2vs0mg"},{"bike_id":"ab2c796a-c23b-4a3a-9534-777b873d6a05","system_id":"levelo_inurba_marseille","lat":43.24165,"lon":5.36409,"is_reserved":false,"is_disabled":false,"rental_uris":{"android":"levelo://app?vid=ab2c796a-c23b-4a3a-9534-777b873d6a05","ios":"levelo://app?vid=ab2c796a-c23b-4a3a-9534-777b873d6a05"},"vehicle_type_id":"4","last_reported":1738537653,"current_range_meters":27600,"station_id":"cpo36qri1sfpv3e86is0","pricing_plan_id":"cebpf4jnsgd1na2vs0mg"},{"bike_id":"7425f960-9d6f-463d-9f22-8efe90f42224","system_id":"levelo_inurba_marseille","lat":43.28503,"lon":5.3847,"is_reserved":false,"is_disabled":true,"rental_uris":{"android":"levelo://app?vid=7425f960-9d6f-463d-9f22-8efe90f42224","ios":"levelo://app?vid=7425f960-9d6f-463d-9f22-8efe90f42224"},"vehicle_type_id":"4","last_reported":1738537653,"current_range_meters":0,"station_id":"","pricing_plan_id":"cebpf4jnsgd1na2vs0mg"},{"bike_id":"00f658b8-d83e-4060-a5c9-dc5560d25140","system_id":"levelo_inurba_marseille","lat":43.31848,"lon":5.37406,"is_reserved":false,"is_disabled":false,"rental_uris":{"android":"levelo://app?vid=00f658b8-d83e-4060-a5c9-dc5560d25140","ios":"levelo://app?vid=00f658b8-d83e-4060-a5c9-dc5560d25140"},"vehicle_type_id":"4","last_reported":1738537653,"current_range_meters":22800,"station_id":"","pricing_plan_id":"cebpf4jnsgd1na2vs0mg"},{"bike_id":"f91b18cc-a186-4b7b-b9cd-3dab5bb8af26","system_id":"levelo_inurba_marseille","lat":43.25111,"lon":5.40319,"is_reserved":false,"is_disabled":false,"rental_uris":{"android":"levelo://app?vid=f91b18cc-a186-4b7b-b9cd-3dab5bb8af26","ios":"levelo://app?vid=f91b18cc-a186-4b7b-b9cd-3dab5bb8af26"},"vehicle_type_id":"4","last_reported":1738537653,"current_range_meters":33200,"station_id":"ce4bhlh2rcd13ifvqgig","pricing_plan_id":"cebpf4jnsgd1na2vs0mg"},{"bike_id":"58feef8f-17b5-470d-8151-c7a13f0dbe24","system_id":"levelo_inurba_marseille","lat":43.28421,"lon":5.37536,"is_reserved":false,"is_disabled":true,"rental_uris":{"android":"levelo://app?vid=58feef8f-17b5-470d-8151-c7a13f0dbe24","ios":"levelo://app?vid=58feef8f-17b5-470d-8151-c7a13f0dbe24"},"vehicle_type_id":"4","last_reported":1738537653,"current_range_meters":0,"station_id":"ce4bh412rcd13ifvqds0","pricing_plan_id":"cebpf4jnsgd1na2vs0mg"},{"bike_id":"e6e082fa-fdb2-448a-b26a-b32745ad3bf3","system_id":"levelo_inurba_marseille","lat":43.2749,"lon":5.42464,"is_reserved":false,"is_disabled":false,"rental_uris":{"android":"levelo://app?vid=e6e082fa-fdb2-448a-b26a-b32745ad3bf3","ios":"levelo://app?vid=e6e082fa-fdb2-448a-b26a-b32745ad3bf3"},"vehicle_type_id":"4","last_reported":1738537653,"current_range_meters":39200,"station_id":"ce4bhn92rcd13ifvqgrg","pricing_plan_id":"cebpf4jnsgd1na2vs0mg"},{"bike_id":"7dff5ef2-0f3e-4356-b18c-e55038d676c5","system_id":"levelo_inurba_marseille","lat":43.29807,"lon":5.40402,"is_reserved":false,"is_disabled":false,"rental_uris":{"android":"levelo://app?vid=7dff5ef2-0f3e-4356-b18c-e55038d676c5","ios":"levelo://app?vid=7dff5ef2-0f3e-4356-b18c-e55038d676c5"},"vehicle_type_id":"4","last_reported":1738537653,"current_range_meters":38400,"station_id":"ce4bh112rcd13ifvqd90","pricing_plan_id":"cebpf4jnsgd1na2vs0mg"},{"bike_id":"f5ccd368-925f-407a-a56e-8cc47bfdb3e3","system_id":"levelo_inurba_marseille","lat":43.28043,"lon":5.36963,"is_reserved":false,"is_disabled":false,"rental_uris":{"android":"levelo://app?vid=f5ccd368-925f-407a-a56e-8cc47bfdb3e3","ios":"levelo://app?vid=f5ccd368-925f-407a-a56e-8cc47bfdb3e3"},"vehicle_type_id":"4","last_reported":1738537653,"current_range_meters":25600,"station_id":"ce4bha12rcd13ifvqef0","pricing_plan_id":"cebpf4jnsgd1na2vs0mg"},{"bike_id":"8d11fe87-f8fe-471d-9034-71b46c4b8b9f","system_id":"levelo_inurba_marseille","lat":43.24622,"lon":5.38116,"is_reserved":false,"is_disabled":false,"rental_uris":{"android":"levelo://app?vid=8d11fe87-f8fe-471d-9034-71b46c4b8b9f","ios":"levelo://app?vid=8d11fe87-f8fe-471d-9034-71b46c4b8b9f"},"vehicle_type_id":"4","last_reported":1738537653,"current_range_meters":27600,"station_id":"","pricing_plan_id":"cebpf4jnsgd1na2vs0mg"},{"bike_id":"924c5ffd-e7eb-40f4-98e7-138891fab8e6","system_id":"levelo_inurba_marseille","lat":43.24651,"lon":5.389,"is_reserved":false,"is_disabled":false,"rental_uris":{"android":"levelo://app?vid=924c5ffd-e7eb-40f4-98e7-138891fab8e6","ios":"levelo://app?vid=924c5ffd-e7eb-40f4-98e7-138891fab8e6"},"vehicle_type_id":"4","last_reported":1738537653,"current_range_meters":9600,"station_id":"ce4bhg12rcd13ifvqf60","pricing_plan_id":"cebpf4jnsgd1na2vs0mg"},{"bike_id":"b69743c2-b22e-4135-9a55-ab7140ba08d5","system_id":"levelo_inurba_marseille","lat":43.28626,"lon":5.35146,"is_reserved":false,"is_disabled":true,"rental_uris":{"android":"levelo://app?vid=b69743c2-b22e-4135-9a55-ab7140ba08d5","ios":"levelo://app?vid=b69743c2-b22e-4135-9a55-ab7140ba08d5"},"vehicle_type_id":"4","last_reported":1738537653,"current_range_meters":32400,"station_id":"ce4bhch2rcd13ifvqeug","pricing_plan_id":"cebpf4jnsgd1na2vs0mg"},{"bike_id":"f85aba39-8a5f-4b9b-ae02-5805e5d5b06e","system_id":"levelo_inurba_marseille","lat":43.23052,"lon":5.35497,"is_reserved":false,"is_disabled":false,"rental_uris":{"android":"levelo://app?vid=f85aba39-8a5f-4b9b-ae02-5805e5d5b06e","ios":"levelo://app?vid=f85aba39-8a5f-4b9b-ae02-5805e5d5b06e"},"vehicle_type_id":"4","last_reported":1738537653,"current_range_meters":6800,"station_id":"cpo3342slgdg3j2ifvpg","pricing_plan_id":"cebpf4jnsgd1na2vs0mg"},{"bike_id":"e1d4a2f1-c484-42e0-9232-e98e59dd1624","system_id":"levelo_inurba_marseille","lat":43.290296,"lon":5.386274,"is_reserved":false,"is_disabled":true,"rental_uris":{"android":"levelo://app?vid=e1d4a2f1-c484-42e0-9232-e98e59dd1624","ios":"levelo://app?vid=e1d4a2f1-c484-42e0-9232-e98e59dd1624"},"vehicle_type_id":"4","last_reported":1738537653,"current_range_meters":38800,"station_id":"ce4bh4p2rcd13ifvqe0g","pricing_plan_id":"cebpf4jnsgd1na2vs0mg"},{"bike_id":"f5192a48-f127-416f-ac25-5dcd6cb43014","system_id":"levelo_inurba_marseille","lat":43.31079,"lon":5.4243,"is_reserved":false,"is_disabled":false,"rental_uris":{"android":"levelo://app?vid=f5192a48-f127-416f-ac25-5dcd6cb43014","ios":"levelo://app?vid=f5192a48-f127-416f-ac25-5dcd6cb43014"},"vehicle_type_id":"4","last_reported":1738537653,"current_range_meters":32000,"station_id":"ce4bhp92rcd13ifvqhag","pricing_plan_id":"cebpf4jnsgd1na2vs0mg"},{"bike_id":"10e01d0a-632b-4d62-8534-f552a3667c64","system_id":"levelo_inurba_marseille","lat":43.31108,"lon":5.37997,"is_reserved":false,"is_disabled":false,"rental_uris":{"android":"levelo://app?vid=10e01d0a-632b-4d62-8534-f552a3667c64","ios":"levelo://app?vid=10e01d0a-632b-4d62-8534-f552a3667c64"},"vehicle_type_id":"4","last_reported":1738537653,"current_range_meters":32000,"station_id":"","pricing_plan_id":"cebpf4jnsgd1na2vs0mg"},{"bike_id":"23d7ed63-2931-42c9-8ce6-5a8c1b55e53b","system_id":"levelo_inurba_marseille","lat":43.25077,"lon":5.39514,"is_reserved":false,"is_disabled":false,"rental_uris":{"android":"levelo://app?vid=23d7ed63-2931-42c9-8ce6-5a8c1b55e53b","ios":"levelo://app?vid=23d7ed63-2931-42c9-8ce6-5a8c1b55e53b"},"vehicle_type_id":"4","last_reported":1738537653,"current_range_meters":38000,"station_id":"ce4bhm12rcd13ifvqgkg","pricing_plan_id":"cebpf4jnsgd1na2vs0mg"},{"bike_id":"1ae7a4a0-bc90-4f06-852a-a3a68813fe3f","system_id":"levelo_inurba_marseille","lat":43.28702,"lon":5.37382,"is_reserved":false,"is_disabled":false,"rental_uris":{"android":"levelo://app?vid=1ae7a4a0-bc90-4f06-852a-a3a68813fe3f","ios":"levelo://app?vid=1ae7a4a0-bc90-4f06-852a-a3a68813fe3f"},"vehicle_type_id":"4","last_reported":1738537653,"current_range_meters":31200,"station_id":"ce4bh3p2rcd13ifvqdq0","pricing_plan_id":"cebpf4jnsgd1na2vs0mg"},{"bike_id":"1343d691-3a05-4016-a7b2-12228ba1a879","system_id":"levelo_inurba_marseille","lat":43.2707,"lon":5.42274,"is_reserved":false,"is_disabled":false,"rental_uris":{"android":"levelo://app?vid=1343d691-3a05-4016-a7b2-12228ba1a879","ios":"levelo://app?vid=1343d691-3a05-4016-a7b2-12228ba1a879"},"vehicle_type_id":"4","last_reported":1738537653,"current_range_meters":30800,"station_id":"ce4bhk92rcd13ifvqgb0","pricing_plan_id":"cebpf4jnsgd1na2vs0mg"},{"bike_id":"cb342d80-7b25-4c05-9bf4-2a845d0e5daf","system_id":"levelo_inurba_marseille","lat":43.31074,"lon":5.38358,"is_reserved":false,"is_disabled":false,"rental_uris":{"android":"levelo://app?vid=cb342d80-7b25-4c05-9bf4-2a845d0e5daf","ios":"levelo://app?vid=cb342d80-7b25-4c05-9bf4-2a845d0e5daf"},"vehicle_type_id":"4","last_reported":1738537653,"current_range_meters":20800,"station_id":"ce4bgv92rcd13ifvqcr0","pricing_plan_id":"cebpf4jnsgd1na2vs0mg"},{"bike_id":"02b2bb89-f7bf-489a-903d-e9038c5d9090","system_id":"levelo_inurba_marseille","lat":43.29261,"lon":5.38437,"is_reserved":false,"is_disabled":true,"rental_uris":{"android":"levelo://app?vid=02b2bb89-f7bf-489a-903d-e9038c5d9090","ios":"levelo://app?vid=02b2bb89-f7bf-489a-903d-e9038c5d9090"},"vehicle_type_id":"4","last_reported":1738537653,"current_range_meters":28400,"station_id":"ce4bh692rcd13ifvqea0","pricing_plan_id":"cebpf4jnsgd1na2vs0mg"},{"bike_id":"b321ff38-be2e-4454-a2e0-371e8882e8f4","system_id":"levelo_inurba_marseille","lat":43.29616,"lon":5.37674,"is_reserved":false,"is_disabled":true,"rental_uris":{"android":"levelo://app?vid=b321ff38-be2e-4454-a2e0-371e8882e8f4","ios":"levelo://app?vid=b321ff38-be2e-4454-a2e0-371e8882e8f4"},"vehicle_type_id":"4","last_reported":1738537653,"current_range_meters":1200,"station_id":"ce4bgi92rcd13ifvqb90","pricing_plan_id":"cebpf4jnsgd1na2vs0mg"},{"bike_id":"3a18294d-3924-4e1b-b9d8-20d972975f40","system_id":"levelo_inurba_marseille","lat":43.29927,"lon":5.36572,"is_reserved":false,"is_disabled":false,"rental_uris":{"android":"levelo://app?vid=3a18294d-3924-4e1b-b9d8-20d972975f40","ios":"levelo://app?vid=3a18294d-3924-4e1b-b9d8-20d972975f40"},"vehicle_type_id":"4","last_reported":1738537653,"current_range_meters":23200,"station_id":"ce4bgm92rcd13ifvqbr0","pricing_plan_id":"cebpf4jnsgd1na2vs0mg"},{"bike_id":"bed6b53d-ed92-410e-8774-ebf210f3490f","system_id":"levelo_inurba_marseille","lat":43.32652,"lon":5.40999,"is_reserved":false,"is_disabled":false,"rental_uris":{"android":"levelo://app?vid=bed6b53d-ed92-410e-8774-ebf210f3490f","ios":"levelo://app?vid=bed6b53d-ed92-410e-8774-ebf210f3490f"},"vehicle_type_id":"4","last_reported":1738537653,"current_range_meters":38800,"station_id":"ce4bhpp2rcd13ifvqhgg","pricing_plan_id":"cebpf4jnsgd1na2vs0mg"},{"bike_id":"995fc9c5-9cc3-404c-bd94-5898daf1a360","system_id":"levelo_inurba_marseille","lat":43.309063,"lon":5.368463,"is_reserved":false,"is_disabled":true,"rental_uris":{"android":"levelo://app?vid=995fc9c5-9cc3-404c-bd94-5898daf1a360","ios":"levelo://app?vid=995fc9c5-9cc3-404c-bd94-5898daf1a360"},"vehicle_type_id":"4","last_reported":1738537653,"current_range_meters":32400,"station_id":"ce4bgn92rcd13ifvqbvg","pricing_plan_id":"cebpf4jnsgd1na2vs0mg"},{"bike_id":"8eddcbd0-45f3-4451-8861-25efe0c2930a","system_id":"levelo_inurba_marseille","lat":43.26942,"lon":5.40256,"is_reserved":false,"is_disabled":false,"rental_uris":{"android":"levelo://app?vid=8eddcbd0-45f3-4451-8861-25efe0c2930a","ios":"levelo://app?vid=8eddcbd0-45f3-4451-8861-25efe0c2930a"},"vehicle_type_id":"4","last_reported":1738537653,"current_range_meters":35200,"station_id":"cjm6bp8fraef2m0cb0m0","pricing_plan_id":"cebpf4jnsgd1na2vs0mg"},{"bike_id":"826e3589-a544-4de9-b21e-e94631584af1","system_id":"levelo_inurba_marseille","lat":43.2987,"lon":5.39725,"is_reserved":false,"is_disabled":false,"rental_uris":{"android":"levelo://app?vid=826e3589-a544-4de9-b21e-e94631584af1","ios":"levelo://app?vid=826e3589-a544-4de9-b21e-e94631584af1"},"vehicle_type_id":"4","last_reported":1738537653,"current_range_meters":39200,"station_id":"ce4bh0h2rcd13ifvqd50","pricing_plan_id":"cebpf4jnsgd1na2vs0mg"},{"bike_id":"bd6db94f-8ac9-4b47-a990-393bec7cd7d4","system_id":"levelo_inurba_marseille","lat":43.2624,"lon":5.40497,"is_reserved":false,"is_disabled":true,"rental_uris":{"android":"levelo://app?vid=bd6db94f-8ac9-4b47-a990-393bec7cd7d4","ios":"levelo://app?vid=bd6db94f-8ac9-4b47-a990-393bec7cd7d4"},"vehicle_type_id":"4","last_reported":1738537653,"current_range_meters":800,"station_id":"ce4bhmh2rcd13ifvqgmg","pricing_plan_id":"cebpf4jnsgd1na2vs0mg"},{"bike_id":"ddd00e95-387d-4687-9b99-27d0e7bf1447","system_id":"levelo_inurba_marseille","lat":43.314514,"lon":5.373813,"is_reserved":false,"is_disabled":true,"rental_uris":{"android":"levelo://app?vid=ddd00e95-387d-4687-9b99-27d0e7bf1447","ios":"levelo://app?vid=ddd00e95-387d-4687-9b99-27d0e7bf1447"},"vehicle_type_id":"4","last_reported":1738537653,"current_range_meters":0,"station_id":"","pricing_plan_id":"cebpf4jnsgd1na2vs0mg"},{"bike_id":"1e4fb263-2fba-4f88-9b2b-9bf396bd5315","system_id":"levelo_inurba_marseille","lat":43.26036,"lon":5.37554,"is_reserved":false,"is_disabled":false,"rental_uris":{"android":"levelo://app?vid=1e4fb263-2fba-4f88-9b2b-9bf396bd5315","ios":"levelo://app?vid=1e4fb263-2fba-4f88-9b2b-9bf396bd5315"},"vehicle_type_id":"4","last_reported":1738537653,"current_range_meters":22400,"station_id":"ce4bhgh2rcd13ifvqfa0","pricing_plan_id":"cebpf4jnsgd1na2vs0mg"},{"bike_id":"0759578c-022e-4212-84c9-2cc2e59945d4","system_id":"levelo_inurba_marseille","lat":43.27195,"lon":5.40982,"is_reserved":false,"is_disabled":false,"rental_uris":{"android":"levelo://app?vid=0759578c-022e-4212-84c9-2cc2e59945d4","ios":"levelo://app?vid=0759578c-022e-4212-84c9-2cc2e59945d4"},"vehicle_type_id":"4","last_reported":1738537653,"current_range_meters":37600,"station_id":"ce4bhl12rcd13ifvqgf0","pricing_plan_id":"cebpf4jnsgd1na2vs0mg"},{"bike_id":"ba1b16dd-09e2-4536-8411-babb750bcb3c","system_id":"levelo_inurba_marseille","lat":43.23189,"lon":5.39997,"is_reserved":false,"is_disabled":true,"rental_uris":{"android":"levelo://app?vid=ba1b16dd-09e2-4536-8411-babb750bcb3c","ios":"levelo://app?vid=ba1b16dd-09e2-4536-8411-babb750bcb3c"},"vehicle_type_id":"4","last_reported":1738537653,"current_range_meters":19600,"station_id":"ce4bhn12rcd13ifvqgqg","pricing_plan_id":"cebpf4jnsgd1na2vs0mg"},{"bike_id":"20029bdd-9f9c-4ff9-86e4-5ba6ed30f46a","system_id":"levelo_inurba_marseille","lat":43.23148,"lon":5.43705,"is_reserved":false,"is_disabled":true,"rental_uris":{"android":"levelo://app?vid=20029bdd-9f9c-4ff9-86e4-5ba6ed30f46a","ios":"levelo://app?vid=20029bdd-9f9c-4ff9-86e4-5ba6ed30f46a"},"vehicle_type_id":"4","last_reported":1738537653,"current_range_meters":0,"station_id":"ce4bhmp2rcd13ifvqgog","pricing_plan_id":"cebpf4jnsgd1na2vs0mg"},{"bike_id":"c0bc84f9-0a3b-40ae-86bf-a72b654385c9","system_id":"levelo_inurba_marseille","lat":43.31109,"lon":5.40094,"is_reserved":false,"is_disabled":false,"rental_uris":{"android":"levelo://app?vid=c0bc84f9-0a3b-40ae-86bf-a72b654385c9","ios":"levelo://app?vid=c0bc84f9-0a3b-40ae-86bf-a72b654385c9"},"vehicle_type_id":"4","last_reported":1738537653,"current_range_meters":24400,"station_id":"","pricing_plan_id":"cebpf4jnsgd1na2vs0mg"},{"bike_id":"65d01550-2daa-4ae4-9b08-a4f8b2d3bcbe","system_id":"levelo_inurba_marseille","lat":43.33704,"lon":5.39171,"is_reserved":false,"is_disabled":false,"rental_uris":{"android":"levelo://app?vid=65d01550-2daa-4ae4-9b08-a4f8b2d3bcbe","ios":"levelo://app?vid=65d01550-2daa-4ae4-9b08-a4f8b2d3bcbe"},"vehicle_type_id":"4","last_reported":1738537653,"current_range_meters":38000,"station_id":"ce4bhr92rcd13ifvqhsg","pricing_plan_id":"cebpf4jnsgd1na2vs0mg"},{"bike_id":"858ff006-a182-4689-87b1-ad1aa4ecd207","system_id":"levelo_inurba_marseille","lat":43.2847,"lon":5.38409,"is_reserved":false,"is_disabled":false,"rental_uris":{"android":"levelo://app?vid=858ff006-a182-4689-87b1-ad1aa4ecd207","ios":"levelo://app?vid=858ff006-a182-4689-87b1-ad1aa4ecd207"},"vehicle_type_id":"4","last_reported":1738537653,"current_range_meters":26000,"station_id":"ce4bh512rcd13ifvqe3g","pricing_plan_id":"cebpf4jnsgd1na2vs0mg"},{"bike_id":"5805abe4-d33a-4c57-986f-3167b5b7a28d","system_id":"levelo_inurba_marseille","lat":43.279114,"lon":5.395864,"is_reserved":false,"is_disabled":true,"rental_uris":{"android":"levelo://app?vid=5805abe4-d33a-4c57-986f-3167b5b7a28d","ios":"levelo://app?vid=5805abe4-d33a-4c57-986f-3167b5b7a28d"},"vehicle_type_id":"4","last_reported":1738537653,"current_range_meters":0,"station_id":"ce4bhf92rcd13ifvqf40","pricing_plan_id":"cebpf4jnsgd1na2vs0mg"},{"bike_id":"1ab3385b-ef01-4ed8-8984-032f740b0888","system_id":"levelo_inurba_marseille","lat":43.26073,"lon":5.39386,"is_reserved":false,"is_disabled":false,"rental_uris":{"android":"levelo://app?vid=1ab3385b-ef01-4ed8-8984-032f740b0888","ios":"levelo://app?vid=1ab3385b-ef01-4ed8-8984-032f740b0888"},"vehicle_type_id":"4","last_reported":1738537653,"current_range_meters":38400,"station_id":"ce4bhh92rcd13ifvqfj0","pricing_plan_id":"cebpf4jnsgd1na2vs0mg"},{"bike_id":"469182f8-ed5a-4426-b5f5-e469d388c310","system_id":"levelo_inurba_marseille","lat":43.298,"lon":5.40396,"is_reserved":false,"is_disabled":false,"rental_uris":{"android":"levelo://app?vid=469182f8-ed5a-4426-b5f5-e469d388c310","ios":"levelo://app?vid=469182f8-ed5a-4426-b5f5-e469d388c310"},"vehicle_type_id":"4","last_reported":1738537653,"current_range_meters":38000,"station_id":"ce4bh112rcd13ifvqd90","pricing_plan_id":"cebpf4jnsgd1na2vs0mg"},{"bike_id":"00c2b463-ff28-416c-bdaa-0914555df2d5","system_id":"levelo_inurba_marseille","lat":43.29003,"lon":5.35602,"is_reserved":false,"is_disabled":false,"rental_uris":{"android":"levelo://app?vid=00c2b463-ff28-416c-bdaa-0914555df2d5","ios":"levelo://app?vid=00c2b463-ff28-416c-bdaa-0914555df2d5"},"vehicle_type_id":"4","last_reported":1738537653,"current_range_meters":38800,"station_id":"ce4bhb92rcd13ifvqen0","pricing_plan_id":"cebpf4jnsgd1na2vs0mg"},{"bike_id":"491407c5-a175-44f0-86fc-0f4ccadf82e3","system_id":"levelo_inurba_marseille","lat":43.337444,"lon":5.374475,"is_reserved":false,"is_disabled":true,"rental_uris":{"android":"levelo://app?vid=491407c5-a175-44f0-86fc-0f4ccadf82e3","ios":"levelo://app?vid=491407c5-a175-44f0-86fc-0f4ccadf82e3"},"vehicle_type_id":"4","last_reported":1738537653,"current_range_meters":0,"station_id":"","pricing_plan_id":"cebpf4jnsgd1na2vs0mg"},{"bike_id":"bdf8cf62-3c77-4fc2-8e1b-016e9d866b50","system_id":"levelo_inurba_marseille","lat":43.2956,"lon":5.42295,"is_reserved":false,"is_disabled":false,"rental_uris":{"android":"levelo://app?vid=bdf8cf62-3c77-4fc2-8e1b-016e9d866b50","ios":"levelo://app?vid=bdf8cf62-3c77-4fc2-8e1b-016e9d866b50"},"vehicle_type_id":"4","last_reported":1738537653,"current_range_meters":28400,"station_id":"ce4bhph2rcd13ifvqhdg","pricing_plan_id":"cebpf4jnsgd1na2vs0mg"},{"bike_id":"3844d7d2-7ad1-4056-ad31-7871ccaa4a51","system_id":"levelo_inurba_marseille","lat":43.28565,"lon":5.39512,"is_reserved":false,"is_disabled":false,"rental_uris":{"android":"levelo://app?vid=3844d7d2-7ad1-4056-ad31-7871ccaa4a51","ios":"levelo://app?vid=3844d7d2-7ad1-4056-ad31-7871ccaa4a51"},"vehicle_type_id":"4","last_reported":1738537653,"current_range_meters":20800,"station_id":"ce4bh292rcd13ifvqdg0","pricing_plan_id":"cebpf4jnsgd1na2vs0mg"},{"bike_id":"d3c71994-f738-4ff3-a20e-ace13d2c73e0","system_id":"levelo_inurba_marseille","lat":43.255,"lon":5.37658,"is_reserved":false,"is_disabled":false,"rental_uris":{"android":"levelo://app?vid=d3c71994-f738-4ff3-a20e-ace13d2c73e0","ios":"levelo://app?vid=d3c71994-f738-4ff3-a20e-ace13d2c73e0"},"vehicle_type_id":"4","last_reported":1738537653,"current_range_meters":38400,"station_id":"ce4bhh12rcd13ifvqff0","pricing_plan_id":"cebpf4jnsgd1na2vs0mg"},{"bike_id":"4a7af680-8a77-45cb-85cc-9f0a7f33be68","system_id":"levelo_inurba_marseille","lat":43.29765,"lon":5.40472,"is_reserved":false,"is_disabled":true,"rental_uris":{"android":"levelo://app?vid=4a7af680-8a77-45cb-85cc-9f0a7f33be68","ios":"levelo://app?vid=4a7af680-8a77-45cb-85cc-9f0a7f33be68"},"vehicle_type_id":"4","last_reported":1738537653,"current_range_meters":25200,"station_id":"","pricing_plan_id":"cebpf4jnsgd1na2vs0mg"},{"bike_id":"4eee6b0f-a3e9-4398-8a9c-f47c5bcf31f8","system_id":"levelo_inurba_marseille","lat":43.29548,"lon":5.42268,"is_reserved":false,"is_disabled":false,"rental_uris":{"android":"levelo://app?vid=4eee6b0f-a3e9-4398-8a9c-f47c5bcf31f8","ios":"levelo://app?vid=4eee6b0f-a3e9-4398-8a9c-f47c5bcf31f8"},"vehicle_type_id":"4","last_reported":1738537653,"current_range_meters":18000,"station_id":"ce4bhph2rcd13ifvqhdg","pricing_plan_id":"cebpf4jnsgd1na2vs0mg"},{"bike_id":"99c1e446-17f6-4977-ab02-37cf2dc4140e","system_id":"levelo_inurba_marseille","lat":43.24164,"lon":5.3641,"is_reserved":false,"is_disabled":false,"rental_uris":{"android":"levelo://app?vid=99c1e446-17f6-4977-ab02-37cf2dc4140e","ios":"levelo://app?vid=99c1e446-17f6-4977-ab02-37cf2dc4140e"},"vehicle_type_id":"4","last_reported":1738537653,"current_range_meters":32400,"station_id":"cpo36qri1sfpv3e86is0","pricing_plan_id":"cebpf4jnsgd1na2vs0mg"},{"bike_id":"0b439ceb-bbef-470b-b522-3e20f798d948","system_id":"levelo_inurba_marseille","lat":43.29091,"lon":5.38159,"is_reserved":false,"is_disabled":true,"rental_uris":{"android":"levelo://app?vid=0b439ceb-bbef-470b-b522-3e20f798d948","ios":"levelo://app?vid=0b439ceb-bbef-470b-b522-3e20f798d948"},"vehicle_type_id":"4","last_reported":1738537653,"current_range_meters":16000,"station_id":"ce4bh512rcd13ifvqe2g","pricing_plan_id":"cebpf4jnsgd1na2vs0mg"},{"bike_id":"528fe304-774b-4f5e-99b0-3a6df52f7bd5","system_id":"levelo_inurba_marseille","lat":43.26685,"lon":5.38268,"is_reserved":false,"is_disabled":false,"rental_uris":{"android":"levelo://app?vid=528fe304-774b-4f5e-99b0-3a6df52f7bd5","ios":"levelo://app?vid=528fe304-774b-4f5e-99b0-3a6df52f7bd5"},"vehicle_type_id":"4","last_reported":1738537653,"current_range_meters":12400,"station_id":"ce4bhg92rcd13ifvqf90","pricing_plan_id":"cebpf4jnsgd1na2vs0mg"},{"bike_id":"37ba8b6f-005b-42d7-90c2-0c64fb7745e0","system_id":"levelo_inurba_marseille","lat":43.29578,"lon":5.39978,"is_reserved":false,"is_disabled":true,"rental_uris":{"android":"levelo://app?vid=37ba8b6f-005b-42d7-90c2-0c64fb7745e0","ios":"levelo://app?vid=37ba8b6f-005b-42d7-90c2-0c64fb7745e0"},"vehicle_type_id":"4","last_reported":1738537653,"current_range_meters":38800,"station_id":"ce4bh312rcd13ifvqdj0","pricing_plan_id":"cebpf4jnsgd1na2vs0mg"},{"bike_id":"246cfd69-3f92-4e90-aa97-e3988a738d3e","system_id":"levelo_inurba_marseille","lat":43.286819,"lon":5.386606,"is_reserved":false,"is_disabled":true,"rental_uris":{"android":"levelo://app?vid=246cfd69-3f92-4e90-aa97-e3988a738d3e","ios":"levelo://app?vid=246cfd69-3f92-4e90-aa97-e3988a738d3e"},"vehicle_type_id":"4","last_reported":1738537653,"current_range_meters":28800,"station_id":"ce4bh492rcd13ifvqdug","pricing_plan_id":"cebpf4jnsgd1na2vs0mg"},{"bike_id":"f38a9b51-7bc8-4445-89b3-2095fb6b771f","system_id":"levelo_inurba_marseille","lat":43.28706,"lon":5.37409,"is_reserved":false,"is_disabled":true,"rental_uris":{"android":"levelo://app?vid=f38a9b51-7bc8-4445-89b3-2095fb6b771f","ios":"levelo://app?vid=f38a9b51-7bc8-4445-89b3-2095fb6b771f"},"vehicle_type_id":"4","last_reported":1738537653,"current_range_meters":21600,"station_id":"ce4bh3p2rcd13ifvqdq0","pricing_plan_id":"cebpf4jnsgd1na2vs0mg"},{"bike_id":"9960956f-115f-415f-b954-8ef922a7f600","system_id":"levelo_inurba_marseille","lat":43.29292,"lon":5.40142,"is_reserved":false,"is_disabled":false,"rental_uris":{"android":"levelo://app?vid=9960956f-115f-415f-b954-8ef922a7f600","ios":"levelo://app?vid=9960956f-115f-415f-b954-8ef922a7f600"},"vehicle_type_id":"4","last_reported":1738537653,"current_range_meters":35200,"station_id":"ce4bh312rcd13ifvqdk0","pricing_plan_id":"cebpf4jnsgd1na2vs0mg"},{"bike_id":"d4393554-b58a-47b7-8eaa-ea3dde7a5df2","system_id":"levelo_inurba_marseille","lat":43.28707,"lon":5.37921,"is_reserved":false,"is_disabled":false,"rental_uris":{"android":"levelo://app?vid=d4393554-b58a-47b7-8eaa-ea3dde7a5df2","ios":"levelo://app?vid=d4393554-b58a-47b7-8eaa-ea3dde7a5df2"},"vehicle_type_id":"4","last_reported":1738537653,"current_range_meters":30800,"station_id":"ce4bh9p2rcd13ifvqec0","pricing_plan_id":"cebpf4jnsgd1na2vs0mg"},{"bike_id":"32ac2062-b222-4475-bcd7-3ee23b8f545a","system_id":"levelo_inurba_marseille","lat":43.3032,"lon":5.40448,"is_reserved":false,"is_disabled":false,"rental_uris":{"android":"levelo://app?vid=32ac2062-b222-4475-bcd7-3ee23b8f545a","ios":"levelo://app?vid=32ac2062-b222-4475-bcd7-3ee23b8f545a"},"vehicle_type_id":"4","last_reported":1738537653,"current_range_meters":24800,"station_id":"ce4bh012rcd13ifvqd10","pricing_plan_id":"cebpf4jnsgd1na2vs0mg"},{"bike_id":"7d892f3e-e17f-4300-aaa6-ba24cfc8ca30","system_id":"levelo_inurba_marseille","lat":43.28679,"lon":5.38665,"is_reserved":false,"is_disabled":false,"rental_uris":{"android":"levelo://app?vid=7d892f3e-e17f-4300-aaa6-ba24cfc8ca30","ios":"levelo://app?vid=7d892f3e-e17f-4300-aaa6-ba24cfc8ca30"},"vehicle_type_id":"4","last_reported":1738537653,"current_range_meters":38000,"station_id":"ce4bh492rcd13ifvqdug","pricing_plan_id":"cebpf4jnsgd1na2vs0mg"},{"bike_id":"5cbd0846-3779-450c-bbc0-666e1e145d5f","system_id":"levelo_inurba_marseille","lat":43.30909,"lon":5.39062,"is_reserved":false,"is_disabled":false,"rental_uris":{"android":"levelo://app?vid=5cbd0846-3779-450c-bbc0-666e1e145d5f","ios":"levelo://app?vid=5cbd0846-3779-450c-bbc0-666e1e145d5f"},"vehicle_type_id":"4","last_reported":1738537653,"current_range_meters":24000,"station_id":"ce4bgup2rcd13ifvqco0","pricing_plan_id":"cebpf4jnsgd1na2vs0mg"},{"bike_id":"04c970c4-63ce-4120-b27e-ba8d1dd705cb","system_id":"levelo_inurba_marseille","lat":43.28724,"lon":5.36073,"is_reserved":false,"is_disabled":false,"rental_uris":{"android":"levelo://app?vid=04c970c4-63ce-4120-b27e-ba8d1dd705cb","ios":"levelo://app?vid=04c970c4-63ce-4120-b27e-ba8d1dd705cb"},"vehicle_type_id":"4","last_reported":1738537653,"current_range_meters":25600,"station_id":"cki0cbj6b192h4jlfktg","pricing_plan_id":"cebpf4jnsgd1na2vs0mg"},{"bike_id":"6dc758d1-7964-46b9-a9a9-11abac76b7de","system_id":"levelo_inurba_marseille","lat":43.24391,"lon":5.37057,"is_reserved":false,"is_disabled":false,"rental_uris":{"android":"levelo://app?vid=6dc758d1-7964-46b9-a9a9-11abac76b7de","ios":"levelo://app?vid=6dc758d1-7964-46b9-a9a9-11abac76b7de"},"vehicle_type_id":"4","last_reported":1738537653,"current_range_meters":28800,"station_id":"ce4bhhh2rcd13ifvqfk0","pricing_plan_id":"cebpf4jnsgd1na2vs0mg"},{"bike_id":"dff2410f-4af5-4630-b92e-ba7b2cac4e8c","system_id":"levelo_inurba_marseille","lat":43.28155,"lon":5.42646,"is_reserved":false,"is_disabled":false,"rental_uris":{"android":"levelo://app?vid=dff2410f-4af5-4630-b92e-ba7b2cac4e8c","ios":"levelo://app?vid=dff2410f-4af5-4630-b92e-ba7b2cac4e8c"},"vehicle_type_id":"4","last_reported":1738537653,"current_range_meters":30400,"station_id":"ce4bhnh2rcd13ifvqgug","pricing_plan_id":"cebpf4jnsgd1na2vs0mg"},{"bike_id":"00bbb5cd-9f74-4c00-94cb-7246c199dfb7","system_id":"levelo_inurba_marseille","lat":43.28608,"lon":5.35101,"is_reserved":false,"is_disabled":true,"rental_uris":{"android":"levelo://app?vid=00bbb5cd-9f74-4c00-94cb-7246c199dfb7","ios":"levelo://app?vid=00bbb5cd-9f74-4c00-94cb-7246c199dfb7"},"vehicle_type_id":"4","last_reported":1738537653,"current_range_meters":0,"station_id":"ce4bhch2rcd13ifvqeug","pricing_plan_id":"cebpf4jnsgd1na2vs0mg"},{"bike_id":"ab4e1438-274f-4ed7-ac4d-8bd3728badb1","system_id":"levelo_inurba_marseille","lat":43.25109,"lon":5.40329,"is_reserved":false,"is_disabled":false,"rental_uris":{"android":"levelo://app?vid=ab4e1438-274f-4ed7-ac4d-8bd3728badb1","ios":"levelo://app?vid=ab4e1438-274f-4ed7-ac4d-8bd3728badb1"},"vehicle_type_id":"4","last_reported":1738537653,"current_range_meters":29600,"station_id":"ce4bhlh2rcd13ifvqgig","pricing_plan_id":"cebpf4jnsgd1na2vs0mg"},{"bike_id":"785d7c7b-9ee6-419c-8415-ff90703fea3d","system_id":"levelo_inurba_marseille","lat":43.31279,"lon":5.36751,"is_reserved":false,"is_disabled":false,"rental_uris":{"android":"levelo://app?vid=785d7c7b-9ee6-419c-8415-ff90703fea3d","ios":"levelo://app?vid=785d7c7b-9ee6-419c-8415-ff90703fea3d"},"vehicle_type_id":"4","last_reported":1738537653,"current_range_meters":38800,"station_id":"ce4bgr92rcd13ifvqc6g","pricing_plan_id":"cebpf4jnsgd1na2vs0mg"},{"bike_id":"9beea162-7f88-4bab-8bc0-de9c6b0cd9ad","system_id":"levelo_inurba_marseille","lat":43.30772,"lon":5.37649,"is_reserved":false,"is_disabled":false,"rental_uris":{"android":"levelo://app?vid=9beea162-7f88-4bab-8bc0-de9c6b0cd9ad","ios":"levelo://app?vid=9beea162-7f88-4bab-8bc0-de9c6b0cd9ad"},"vehicle_type_id":"4","last_reported":1738537653,"current_range_meters":34000,"station_id":"ce4bgv92rcd13ifvqcq0","pricing_plan_id":"cebpf4jnsgd1na2vs0mg"},{"bike_id":"6cd661e3-de5d-41f6-b3ff-26fd75ee3741","system_id":"levelo_inurba_marseille","lat":43.28832,"lon":5.39323,"is_reserved":false,"is_disabled":false,"rental_uris":{"android":"levelo://app?vid=6cd661e3-de5d-41f6-b3ff-26fd75ee3741","ios":"levelo://app?vid=6cd661e3-de5d-41f6-b3ff-26fd75ee3741"},"vehicle_type_id":"4","last_reported":1738537653,"current_range_meters":29600,"station_id":"ce4bh2p2rcd13ifvqdi0","pricing_plan_id":"cebpf4jnsgd1na2vs0mg"},{"bike_id":"f4001614-a8f5-4231-b4a5-58ad6a748e23","system_id":"levelo_inurba_marseille","lat":43.29961,"lon":5.41322,"is_reserved":false,"is_disabled":false,"rental_uris":{"android":"levelo://app?vid=f4001614-a8f5-4231-b4a5-58ad6a748e23","ios":"levelo://app?vid=f4001614-a8f5-4231-b4a5-58ad6a748e23"},"vehicle_type_id":"4","last_reported":1738537653,"current_range_meters":8000,"station_id":"ce4bhp12rcd13ifvqh9g","pricing_plan_id":"cebpf4jnsgd1na2vs0mg"},{"bike_id":"a2e5bca9-7ab7-41b3-b8d3-54f8742d613c","system_id":"levelo_inurba_marseille","lat":43.29923,"lon":5.37483,"is_reserved":false,"is_disabled":false,"rental_uris":{"android":"levelo://app?vid=a2e5bca9-7ab7-41b3-b8d3-54f8742d613c","ios":"levelo://app?vid=a2e5bca9-7ab7-41b3-b8d3-54f8742d613c"},"vehicle_type_id":"4","last_reported":1738537653,"current_range_meters":38000,"station_id":"ce4bgjh2rcd13ifvqbg0","pricing_plan_id":"cebpf4jnsgd1na2vs0mg"},{"bike_id":"1f4e4183-ba38-4674-b19d-0c758736fe8e","system_id":"levelo_inurba_marseille","lat":43.250879,"lon":5.395133,"is_reserved":false,"is_disabled":false,"rental_uris":{"android":"levelo://app?vid=1f4e4183-ba38-4674-b19d-0c758736fe8e","ios":"levelo://app?vid=1f4e4183-ba38-4674-b19d-0c758736fe8e"},"vehicle_type_id":"4","last_reported":1738537653,"current_range_meters":23200,"station_id":"ce4bhm12rcd13ifvqgkg","pricing_plan_id":"cebpf4jnsgd1na2vs0mg"},{"bike_id":"a5ed823a-a5d0-4548-8cfd-2703a4da9034","system_id":"levelo_inurba_marseille","lat":43.30557,"lon":5.36537,"is_reserved":false,"is_disabled":false,"rental_uris":{"android":"levelo://app?vid=a5ed823a-a5d0-4548-8cfd-2703a4da9034","ios":"levelo://app?vid=a5ed823a-a5d0-4548-8cfd-2703a4da9034"},"vehicle_type_id":"4","last_reported":1738537653,"current_range_meters":24000,"station_id":"ce4bgs12rcd13ifvqcag","pricing_plan_id":"cebpf4jnsgd1na2vs0mg"},{"bike_id":"fb4cc7a8-e961-4995-96e8-4cbd01ddee0f","system_id":"levelo_inurba_marseille","lat":43.30293,"lon":5.3916,"is_reserved":false,"is_disabled":true,"rental_uris":{"android":"levelo://app?vid=fb4cc7a8-e961-4995-96e8-4cbd01ddee0f","ios":"levelo://app?vid=fb4cc7a8-e961-4995-96e8-4cbd01ddee0f"},"vehicle_type_id":"4","last_reported":1738537653,"current_range_meters":4800,"station_id":"ce4bgkh2rcd13ifvqbk0","pricing_plan_id":"cebpf4jnsgd1na2vs0mg"},{"bike_id":"31ed6c66-ad12-40bc-b75e-f4bd7465a333","system_id":"levelo_inurba_marseille","lat":43.3153,"lon":5.38033,"is_reserved":false,"is_disabled":false,"rental_uris":{"android":"levelo://app?vid=31ed6c66-ad12-40bc-b75e-f4bd7465a333","ios":"levelo://app?vid=31ed6c66-ad12-40bc-b75e-f4bd7465a333"},"vehicle_type_id":"4","last_reported":1738537653,"current_range_meters":39200,"station_id":"ce4bhsp2rcd13ifvqi50","pricing_plan_id":"cebpf4jnsgd1na2vs0mg"},{"bike_id":"a895efa9-50aa-435c-91d1-c119eaf59a54","system_id":"levelo_inurba_marseille","lat":43.26523,"lon":5.3957,"is_reserved":false,"is_disabled":false,"rental_uris":{"android":"levelo://app?vid=a895efa9-50aa-435c-91d1-c119eaf59a54","ios":"levelo://app?vid=a895efa9-50aa-435c-91d1-c119eaf59a54"},"vehicle_type_id":"4","last_reported":1738537653,"current_range_meters":29600,"station_id":"ce4bhi12rcd13ifvqfq0","pricing_plan_id":"cebpf4jnsgd1na2vs0mg"},{"bike_id":"56131ee5-6342-49c1-8177-092ab7838e01","system_id":"levelo_inurba_marseille","lat":43.29888,"lon":5.39723,"is_reserved":false,"is_disabled":false,"rental_uris":{"android":"levelo://app?vid=56131ee5-6342-49c1-8177-092ab7838e01","ios":"levelo://app?vid=56131ee5-6342-49c1-8177-092ab7838e01"},"vehicle_type_id":"4","last_reported":1738537653,"current_range_meters":34800,"station_id":"ce4bh0h2rcd13ifvqd50","pricing_plan_id":"cebpf4jnsgd1na2vs0mg"},{"bike_id":"93b49084-e6f7-44ad-bdb7-6aedefc580e2","system_id":"levelo_inurba_marseille","lat":43.26567,"lon":5.39003,"is_reserved":false,"is_disabled":false,"rental_uris":{"android":"levelo://app?vid=93b49084-e6f7-44ad-bdb7-6aedefc580e2","ios":"levelo://app?vid=93b49084-e6f7-44ad-bdb7-6aedefc580e2"},"vehicle_type_id":"4","last_reported":1738537653,"current_range_meters":36400,"station_id":"ce4bhe12rcd13ifvqf30","pricing_plan_id":"cebpf4jnsgd1na2vs0mg"},{"bike_id":"093ac1ad-aed6-4f26-bc9e-f9dd53f74afd","system_id":"levelo_inurba_marseille","lat":43.31343,"lon":5.36695,"is_reserved":false,"is_disabled":false,"rental_uris":{"android":"levelo://app?vid=093ac1ad-aed6-4f26-bc9e-f9dd53f74afd","ios":"levelo://app?vid=093ac1ad-aed6-4f26-bc9e-f9dd53f74afd"},"vehicle_type_id":"4","last_reported":1738537653,"current_range_meters":28800,"station_id":"ce4bgr92rcd13ifvqc6g","pricing_plan_id":"cebpf4jnsgd1na2vs0mg"},{"bike_id":"e1db3f6a-994b-4903-95e2-43f77febc51f","system_id":"levelo_inurba_marseille","lat":43.29876,"lon":5.38917,"is_reserved":false,"is_disabled":false,"rental_uris":{"android":"levelo://app?vid=e1db3f6a-994b-4903-95e2-43f77febc51f","ios":"levelo://app?vid=e1db3f6a-994b-4903-95e2-43f77febc51f"},"vehicle_type_id":"4","last_reported":1738537653,"current_range_meters":35600,"station_id":"ce4bh392rcd13ifvqdl0","pricing_plan_id":"cebpf4jnsgd1na2vs0mg"},{"bike_id":"c0e7550b-6f33-4fbd-9387-96500956f50a","system_id":"levelo_inurba_marseille","lat":43.29444,"lon":5.39759,"is_reserved":false,"is_disabled":true,"rental_uris":{"android":"levelo://app?vid=c0e7550b-6f33-4fbd-9387-96500956f50a","ios":"levelo://app?vid=c0e7550b-6f33-4fbd-9387-96500956f50a"},"vehicle_type_id":"4","last_reported":1738537653,"current_range_meters":22800,"station_id":"ce4bh3h2rcd13ifvqdo0","pricing_plan_id":"cebpf4jnsgd1na2vs0mg"},{"bike_id":"a30d8b93-ac92-468d-a652-79171594fd66","system_id":"levelo_inurba_marseille","lat":43.33614,"lon":5.41024,"is_reserved":false,"is_disabled":false,"rental_uris":{"android":"levelo://app?vid=a30d8b93-ac92-468d-a652-79171594fd66","ios":"levelo://app?vid=a30d8b93-ac92-468d-a652-79171594fd66"},"vehicle_type_id":"4","last_reported":1738537653,"current_range_meters":19200,"station_id":"ce4bhqh2rcd13ifvqhmg","pricing_plan_id":"cebpf4jnsgd1na2vs0mg"},{"bike_id":"4dc08388-188e-4869-97a8-e70f14c3f63a","system_id":"levelo_inurba_marseille","lat":43.28101,"lon":5.37861,"is_reserved":false,"is_disabled":false,"rental_uris":{"android":"levelo://app?vid=4dc08388-188e-4869-97a8-e70f14c3f63a","ios":"levelo://app?vid=4dc08388-188e-4869-97a8-e70f14c3f63a"},"vehicle_type_id":"4","last_reported":1738537653,"current_range_meters":39200,"station_id":"ce4bha12rcd13ifvqee0","pricing_plan_id":"cebpf4jnsgd1na2vs0mg"},{"bike_id":"51e98b31-1659-413c-a2fd-ad1f5f5b25a8","system_id":"levelo_inurba_marseille","lat":43.31039,"lon":5.3674,"is_reserved":false,"is_disabled":false,"rental_uris":{"android":"levelo://app?vid=51e98b31-1659-413c-a2fd-ad1f5f5b25a8","ios":"levelo://app?vid=51e98b31-1659-413c-a2fd-ad1f5f5b25a8"},"vehicle_type_id":"4","last_reported":1738537653,"current_range_meters":30400,"station_id":"","pricing_plan_id":"cebpf4jnsgd1na2vs0mg"},{"bike_id":"320f17aa-5d3b-45da-a6be-b587cdc1c956","system_id":"levelo_inurba_marseille","lat":43.2418,"lon":5.39737,"is_reserved":false,"is_disabled":false,"rental_uris":{"android":"levelo://app?vid=320f17aa-5d3b-45da-a6be-b587cdc1c956","ios":"levelo://app?vid=320f17aa-5d3b-45da-a6be-b587cdc1c956"},"vehicle_type_id":"4","last_reported":1738537653,"current_range_meters":27200,"station_id":"ce4bhn12rcd13ifvqgpg","pricing_plan_id":"cebpf4jnsgd1na2vs0mg"},{"bike_id":"5e8b7018-e7ad-4d87-8b00-09f8c9411b4c","system_id":"levelo_inurba_marseille","lat":43.30538,"lon":5.36549,"is_reserved":false,"is_disabled":true,"rental_uris":{"android":"levelo://app?vid=5e8b7018-e7ad-4d87-8b00-09f8c9411b4c","ios":"levelo://app?vid=5e8b7018-e7ad-4d87-8b00-09f8c9411b4c"},"vehicle_type_id":"4","last_reported":1738537653,"current_range_meters":37600,"station_id":"ce4bgs12rcd13ifvqcag","pricing_plan_id":"cebpf4jnsgd1na2vs0mg"},{"bike_id":"51965cc3-9798-4a7b-bcc3-095cd11fc890","system_id":"levelo_inurba_marseille","lat":43.29592,"lon":5.36756,"is_reserved":false,"is_disabled":false,"rental_uris":{"android":"levelo://app?vid=51965cc3-9798-4a7b-bcc3-095cd11fc890","ios":"levelo://app?vid=51965cc3-9798-4a7b-bcc3-095cd11fc890"},"vehicle_type_id":"4","last_reported":1738537653,"current_range_meters":27600,"station_id":"ce4bgph2rcd13ifvqc2g","pricing_plan_id":"cebpf4jnsgd1na2vs0mg"},{"bike_id":"e25e7c8d-e943-4d96-8f84-0602de6aff1f","system_id":"levelo_inurba_marseille","lat":43.23123,"lon":5.43707,"is_reserved":false,"is_disabled":true,"rental_uris":{"android":"levelo://app?vid=e25e7c8d-e943-4d96-8f84-0602de6aff1f","ios":"levelo://app?vid=e25e7c8d-e943-4d96-8f84-0602de6aff1f"},"vehicle_type_id":"4","last_reported":1738537653,"current_range_meters":39200,"station_id":"ce4bhmp2rcd13ifvqgog","pricing_plan_id":"cebpf4jnsgd1na2vs0mg"},