{"last_updated":1726038534,"ttl":30,"version":"2.2","data":{"bikes":[{"bike_id":"61ec69dc-0887-45a0-9a18-564e7d706b0b","system_id":"levelo_inurba_marseille","lat":43.24079,"lon":5.37738,"is_reserved":false,"is_disabled":false,"rental_uris":{"android":"levelo://app?vid=61ec69dc-0887-45a0-9a18-564e7d706b0b","ios":"levelo://app?vid=61ec69dc-0887-45a0-9a18-564e7d706b0b"},"vehicle_type_id":"4","last_reported":1726038534,"current_range_meters":29600,"station_id":"ce4bhnp2rcd13ifvqgvg","pricing_plan_id":"cebpf4jnsgd1na2vs0mg"},{"bike_id":"f56f0c93-bf77-4e54-9e0a-65b6b35b836b","system_id":"levelo_inurba_marseille","lat":43.25914,"lon":5.40905,"is_reserved":false,"is_disabled":false,"rental_uris":{"android":"levelo://app?vid=f56f0c93-bf77-4e54-9e0a-65b6b35b836b","ios":"levelo://app?vid=f56f0c93-bf77-4e54-9e0a-65b6b35b836b"},"vehicle_type_id":"4","last_reported":1726038534,"current_range_meters":12000,"station_id":"ce4bhm92rcd13ifvqglg","pricing_plan_id":"cebpf4jnsgd1na2vs0mg"},{"bike_id":"2cb98ec0-89f3-403c-ad97-f83258eca980","system_id":"levelo_inurba_marseille","lat":43.28037,"lon":5.36934,"is_reserved":false,"is_disabled":false,"rental_uris":{"android":"levelo://app?vid=2cb98ec0-89f3-403c-ad97-f83258eca980","ios":"levelo://app?vid=2cb98ec0-89f3-403c-ad97-f83258eca980"},"vehicle_type_id":"4","last_reported":1726038534,"current_range_meters":32400,"station_id":"ce4bha12rcd13ifvqef0","pricing_plan_id":"cebpf4jnsgd1na2vs0mg"},{"bike_id":"297bd7e2-28d9-4147-9a35-81468155911e","system_id":"levelo_inurba_marseille","lat":43.287161,"lon":5.379362,"is_reserved":false,"is_disabled":false,"rental_uris":{"android":"levelo://app?vid=297bd7e2-28d9-4147-9a35-81468155911e","ios":"levelo://app?vid=297bd7e2-28d9-4147-9a35-81468155911e"},"vehicle_type_id":"4","last_reported":1726038534,"current_range_meters":21600,"station_id":"ce4bh9p2rcd13ifvqec0","pricing_plan_id":"cebpf4jnsgd1na2vs0mg"},{"bike_id":"b8ada792-75a7-4bd2-a45b-0503cca8388f","system_id":"levelo_inurba_marseille","lat":43.27491,"lon":5.42455,"is_reserved":false,"is_disabled":false,"rental_uris":{"android":"levelo://app?vid=b8ada792-75a7-4bd2-a45b-0503cca8388f","ios":"levelo://app?vid=b8ada792-75a7-4bd2-a45b-0503cca8388f"},"vehicle_type_id":"4","last_reported":1726038534,"current_range_meters":32400,"station_id":"ce4bhn92rcd13ifvqgrg","pricing_plan_id":"cebpf4jnsgd1na2vs0mg"},{"bike_id":"74df2840-b8f2-454e-b98d-f9de8a15646c","system_id":"levelo_inurba_marseille","lat":43.24073,"lon":5.3776,"is_reserved":false,"is_disabled":false,"rental_uris":{"android":"levelo://app?vid=74df2840-b8f2-454e-b98d-f9de8a15646c","ios":"levelo://app?vid=74df2840-b8f2-454e-b98d-f9de8a15646c"},"vehicle_type_id":"4","last_reported":1726038534,"current_range_meters":32800,"station_id":"ce4bhnp2rcd13ifvqgvg","pricing_plan_id":"cebpf4jnsgd1na2vs0mg"},{"bike_id":"315c4883-a082-4d01-865e-7851dd837c5d","system_id":"levelo_inurba_marseille","lat":43.29427,"lon":5.37405,"is_reserved":false,"is_disabled":false,"rental_uris":{"android":"levelo://app?vid=315c4883-a082-4d01-865e-7851dd837c5d","ios":"levelo://app?vid=315c4883-a082-4d01-865e-7851dd837c5d"},"vehicle_type_id":"4","last_reported":1726038534,"current_range_meters":19600,"station_id":"","pricing_plan_id":"cebpf4jnsgd1na2vs0mg"},{"bike_id":"343f8a7b-c84d-46f3-98b4-8253eb0833f1","system_id":"levelo_inurba_marseille","lat":43.29557,"lon":5.42277,"is_reserved":false,"is_disabled":false,"rental_uris":{"android":"levelo://app?vid=343f8a7b-c84d-46f3-98b4-8253eb0833f1","ios":"levelo://app?vid=343f8a7b-c84d-46f3-98b4-8253eb0833f1"},"vehicle_type_id":"4","last_reported":1726038534,"current_range_meters":7200,"station_id":"ce4bhph2rcd13ifvqhdg","pricing_plan_id":"cebpf4jnsgd1na2vs0mg"},{"bike_id":"de4808b8-d2d5-4967-a7a2-7114e2e0cd28","system_id":"levelo_inurba_marseille","lat":43.27071,"lon":5.42274,"is_reserved":false,"is_disabled":false,"rental_uris":{"android":"levelo://app?vid=de4808b8-d2d5-4967-a7a2-7114e2e0cd28","ios":"levelo://app?vid=de4808b8-d2d5-4967-a7a2-7114e2e0cd28"},"vehicle_type_id":"4","last_reported":1726038534,"current_range_meters":36800,"station_id":"ce4bhk92rcd13ifvqgb0","pricing_plan_id":"cebpf4jnsgd1na2vs0mg"},{"bike_id":"4a3a4c58-f423-405d-811e-a7ff05e7cbb2","system_id":"levelo_inurba_marseille","lat":43.30209,"lon":5.39461,"is_reserved":false,"is_disabled":false,"rental_uris":{"android":"levelo://app?vid=4a3a4c58-f423-405d-811e-a7ff05e7cbb2","ios":"levelo://app?vid=4a3a4c58-f423-405d-811e-a7ff05e7cbb2"},"vehicle_type_id":"4","last_reported":1726038534,"current_range_meters":38800,"station_id":"ce4bh0p2rcd13ifvqd70","pricing_plan_id":"cebpf4jnsgd1na2vs0mg"},{"bike_id":"c08aa00e-db22-4c99-b1bc-f25abe4ffc55","system_id":"levelo_inurba_marseille","lat":43.25579,"lon":5.38235,"is_reserved":false,"is_disabled":false,"rental_uris":{"android":"levelo://app?vid=c08aa00e-db22-4c99-b1bc-f25abe4ffc55","ios":"levelo://app?vid=c08aa00e-db22-4c99-b1bc-f25abe4ffc55"},"vehicle_type_id":"4","last_reported":1726038534,"current_range_meters":8400,"station_id":"ce4bhih2rcd13ifvqfs0","pricing_plan_id":"cebpf4jnsgd1na2vs0mg"},{"bike_id":"283dd0c6-cf5c-4b15-952f-53892e9c82da","system_id":"levelo_inurba_marseille","lat":43.30474,"lon":5.37909,"is_reserved":false,"is_disabled":false,"rental_uris":{"android":"levelo://app?vid=283dd0c6-cf5c-4b15-952f-53892e9c82da","ios":"levelo://app?vid=283dd0c6-cf5c-4b15-952f-53892e9c82da"},"vehicle_type_id":"4","last_reported":1726038534,"current_range_meters":18000,"station_id":"ce4bgup2rcd13ifvqcn0","pricing_plan_id":"cebpf4jnsgd1na2vs0mg"},{"bike_id":"1c24aac2-c640-4080-ae93-d60ec0cc8cd2","system_id":"levelo_inurba_marseille","lat":43.299706,"lon":5.371795,"is_reserved":false,"is_disabled":false,"rental_uris":{"android":"levelo://app?vid=1c24aac2-c640-4080-ae93-d60ec0cc8cd2","ios":"levelo://app?vid=1c24aac2-c640-4080-ae93-d60ec0cc8cd2"},"vehicle_type_id":"4","last_reported":1726038534,"current_range_meters":24800,"station_id":"ce4bgr92rcd13ifvqc7g","pricing_plan_id":"cebpf4jnsgd1na2vs0mg"},{"bike_id":"f9e09b67-3554-4f00-8f5e-43815f704dda","system_id":"levelo_inurba_marseille","lat":43.3135,"lon":5.36708,"is_reserved":false,"is_disabled":false,"rental_uris":{"android":"levelo://app?vid=f9e09b67-3554-4f00-8f5e-43815f704dda","ios":"levelo://app?vid=f9e09b67-3554-4f00-8f5e-43815f704dda"},"vehicle_type_id":"4","last_reported":1726038534,"current_range_meters":28800,"station_id":"ce4bgr92rcd13ifvqc6g","pricing_plan_id":"cebpf4jnsgd1na2vs0mg"},{"bike_id":"f34747ce-f309-4326-987e-7bc67d09e8c3","system_id":"levelo_inurba_marseille","lat":43.32288,"lon":5.38262,"is_reserved":false,"is_disabled":false,"rental_uris":{"android":"levelo://app?vid=f34747ce-f309-4326-987e-7bc67d09e8c3","ios":"levelo://app?vid=f34747ce-f309-4326-987e-7bc67d09e8c3"},"vehicle_type_id":"4","last_reported":1726038534,"current_range_meters":38800,"station_id":"ce4bhr12rcd13ifvqhqg","pricing_plan_id":"cebpf4jnsgd1na2vs0mg"},{"bike_id":"d02d6740-b6de-4487-a048-a0fcd35b8dee","system_id":"levelo_inurba_marseille","lat":43.23153,"lon":5.43711,"is_reserved":false,"is_disabled":false,"rental_uris":{"android":"levelo://app?vid=d02d6740-b6de-4487-a048-a0fcd35b8dee","ios":"levelo://app?vid=d02d6740-b6de-4487-a048-a0fcd35b8dee"},"vehicle_type_id":"4","last_reported":1726038534,"current_range_meters":27600,"station_id":"ce4bhmp2rcd13ifvqgog","pricing_plan_id":"cebpf4jnsgd1na2vs0mg"},{"bike_id":"b0c418e3-7076-4b48-86c9-8b078567e702","system_id":"levelo_inurba_marseille","lat":43.24089,"lon":5.37742,"is_reserved":false,"is_disabled":false,"rental_uris":{"android":"levelo://app?vid=b0c418e3-7076-4b48-86c9-8b078567e702","ios":"levelo://app?vid=b0c418e3-7076-4b48-86c9-8b078567e702"},"vehicle_type_id":"4","last_reported":1726038534,"current_range_meters":26000,"station_id":"ce4bhnp2rcd13ifvqgvg","pricing_plan_id":"cebpf4jnsgd1na2vs0mg"},{"bike_id":"1231bb5d-4e29-4f66-8f06-42769a37b8de","system_id":"levelo_inurba_marseille","lat":43.2695,"lon":5.38636,"is_reserved":false,"is_disabled":false,"rental_uris":{"android":"levelo://app?vid=1231bb5d-4e29-4f66-8f06-42769a37b8de","ios":"levelo://app?vid=1231bb5d-4e29-4f66-8f06-42769a37b8de"},"vehicle_type_id":"4","last_reported":1726038534,"current_range_meters":26800,"station_id":"ce4bhh92rcd13ifvqfh0","pricing_plan_id":"cebpf4jnsgd1na2vs0mg"},{"bike_id":"d1321249-2a3a-4948-8d9a-c4334a161631","system_id":"levelo_inurba_marseille","lat":43.26957,"lon":5.38626,"is_reserved":false,"is_disabled":false,"rental_uris":{"android":"levelo://app?vid=d1321249-2a3a-4948-8d9a-c4334a161631","ios":"levelo://app?vid=d1321249-2a3a-4948-8d9a-c4334a161631"},"vehicle_type_id":"4","last_reported":1726038534,"current_range_meters":22000,"station_id":"ce4bhh92rcd13ifvqfh0","pricing_plan_id":"cebpf4jnsgd1na2vs0mg"},{"bike_id":"41fc4b78-f7f9-4fec-be8f-e46760e47264","system_id":"levelo_inurba_marseille","lat":43.26954,"lon":5.38631,"is_reserved":false,"is_disabled":false,"rental_uris":{"android":"levelo://app?vid=41fc4b78-f7f9-4fec-be8f-e46760e47264","ios":"levelo://app?vid=41fc4b78-f7f9-4fec-be8f-e46760e47264"},"vehicle_type_id":"4","last_reported":1726038534,"current_range_meters":14400,"station_id":"ce4bhh92rcd13ifvqfh0","pricing_plan_id":"cebpf4jnsgd1na2vs0mg"},{"bike_id":"45f7e6e5-fad8-4dbe-a3ab-a21b77f3898a","system_id":"levelo_inurba_marseille","lat":43.273168,"lon":5.390666,"is_reserved":false,"is_disabled":false,"rental_uris":{"android":"levelo://app?vid=45f7e6e5-fad8-4dbe-a3ab-a21b77f3898a","ios":"levelo://app?vid=45f7e6e5-fad8-4dbe-a3ab-a21b77f3898a"},"vehicle_type_id":"4","last_reported":1726038534,"current_range_meters":25200,"station_id":"ce4bhgp2rcd13ifvqfe0","pricing_plan_id":"cebpf4jnsgd1na2vs0mg"},{"bike_id":"1744a6d5-d990-40eb-b046-4a7d725be16a","system_id":"levelo_inurba_marseille","lat":43.28349,"lon":5.381,"is_reserved":false,"is_disabled":false,"rental_uris":{"android":"levelo://app?vid=1744a6d5-d990-40eb-b046-4a7d725be16a","ios":"levelo://app?vid=1744a6d5-d990-40eb-b046-4a7d725be16a"},"vehicle_type_id":"4","last_reported":1726038534,"current_range_meters":37600,"station_id":"ce4bh412rcd13ifvqdr0","pricing_plan_id":"cebpf4jnsgd1na2vs0mg"},{"bike_id":"ee4607c9-6955-4e13-b7d5-aec07ce4d086","system_id":"levelo_inurba_marseille","lat":43.31702,"lon":5.40468,"is_reserved":false,"is_disabled":false,"rental_uris":{"android":"levelo://app?vid=ee4607c9-6955-4e13-b7d5-aec07ce4d086","ios":"levelo://app?vid=ee4607c9-6955-4e13-b7d5-aec07ce4d086"},"vehicle_type_id":"4","last_reported":1726038534,"current_range_meters":14800,"station_id":"ce4bh012rcd13ifvqd00","pricing_plan_id":"cebpf4jnsgd1na2vs0mg"},{"bike_id":"e06026df-eb9b-438c-b639-ce57cdbcdc2a","system_id":"levelo_inurba_marseille","lat":43.31328,"lon":5.36728,"is_reserved":false,"is_disabled":false,"rental_uris":{"android":"levelo://app?vid=e06026df-eb9b-438c-b639-ce57cdbcdc2a","ios":"levelo://app?vid=e06026df-eb9b-438c-b639-ce57cdbcdc2a"},"vehicle_type_id":"4","last_reported":1726038534,"current_range_meters":30000,"station_id":"ce4bgr92rcd13ifvqc6g","pricing_plan_id":"cebpf4jnsgd1na2vs0mg"},{"bike_id":"d790824a-6ad6-44be-8bd8-2d991a60a773","system_id":"levelo_inurba_marseille","lat":43.2902,"lon":5.38144,"is_reserved":false,"is_disabled":false,"rental_uris":{"android":"levelo://app?vid=d790824a-6ad6-44be-8bd8-2d991a60a773","ios":"levelo://app?vid=d790824a-6ad6-44be-8bd8-2d991a60a773"},"vehicle_type_id":"4","last_reported":1726038534,"current_range_meters":13600,"station_id":"ce4bh4p2rcd13ifvqe1g","pricing_plan_id":"cebpf4jnsgd1na2vs0mg"},{"bike_id":"36b476ff-1eb7-400a-b3c7-043570dc2d0d","system_id":"levelo_inurba_marseille","lat":43.2606,"lon":5.39392,"is_reserved":false,"is_disabled":false,"rental_uris":{"android":"levelo://app?vid=36b476ff-1eb7-400a-b3c7-043570dc2d0d","ios":"levelo://app?vid=36b476ff-1eb7-400a-b3c7-043570dc2d0d"},"vehicle_type_id":"4","last_reported":1726038534,"current_range_meters":38000,"station_id":"ce4bhh92rcd13ifvqfj0","pricing_plan_id":"cebpf4jnsgd1na2vs0mg"},{"bike_id":"be689caf-830a-4e26-8445-6f04442f00b4","system_id":"levelo_inurba_marseille","lat":43.31163,"lon":5.421899,"is_reserved":false,"is_disabled":false,"rental_uris":{"android":"levelo://app?vid=be689caf-830a-4e26-8445-6f04442f00b4","ios":"levelo://app?vid=be689caf-830a-4e26-8445-6f04442f00b4"},"vehicle_type_id":"4","last_reported":1726038534,"current_range_meters":24400,"station_id":"ce4bhp92rcd13ifvqhag","pricing_plan_id":"cebpf4jnsgd1na2vs0mg"},{"bike_id":"98f8975b-1652-45a9-a84f-e0f8cf84af34","system_id":"levelo_inurba_marseille","lat":43.24564,"lon":5.42617,"is_reserved":false,"is_disabled":false,"rental_uris":{"android":"levelo://app?vid=98f8975b-1652-45a9-a84f-e0f8cf84af34","ios":"levelo://app?vid=98f8975b-1652-45a9-a84f-e0f8cf84af34"},"vehicle_type_id":"4","last_reported":1726038534,"current_range_meters":26800,"station_id":"","pricing_plan_id":"cebpf4jnsgd1na2vs0mg"},{"bike_id":"79c048a7-5de8-4f6b-a4ee-caa7e8248925","system_id":"levelo_inurba_marseille","lat":43.24073,"lon":5.37762,"is_reserved":false,"is_disabled":false,"rental_uris":{"android":"levelo://app?vid=79c048a7-5de8-4f6b-a4ee-caa7e8248925","ios":"levelo://app?vid=79c048a7-5de8-4f6b-a4ee-caa7e8248925"},"vehicle_type_id":"4","last_reported":1726038534,"current_range_meters":22000,"station_id":"ce4bhnp2rcd13ifvqgvg","pricing_plan_id":"cebpf4jnsgd1na2vs0mg"},{"bike_id":"c418a0a3-69bc-4a59-97fd-7bc4eeb30394","system_id":"levelo_inurba_marseille","lat":43.30535,"lon":5.36551,"is_reserved":false,"is_disabled":false,"rental_uris":{"android":"levelo://app?vid=c418a0a3-69bc-4a59-97fd-7bc4eeb30394","ios":"levelo://app?vid=c418a0a3-69bc-4a59-97fd-7bc4eeb30394"},"vehicle_type_id":"4","last_reported":1726038534,"current_range_meters":36000,"station_id":"ce4bgs12rcd13ifvqcag","pricing_plan_id":"cebpf4jnsgd1na2vs0mg"},{"bike_id":"81dacef5-d4ce-4496-8998-8803e5082d29","system_id":"levelo_inurba_marseille","lat":43.279618,"lon":5.390104,"is_reserved":false,"is_disabled":false,"rental_uris":{"android":"levelo://app?vid=81dacef5-d4ce-4496-8998-8803e5082d29","ios":"levelo://app?vid=81dacef5-d4ce-4496-8998-8803e5082d29"},"vehicle_type_id":"4","last_reported":1726038534,"current_range_meters":26800,"station_id":"ce4bhg12rcd13ifvqf80","pricing_plan_id":"cebpf4jnsgd1na2vs0mg"},{"bike_id":"fb594920-985b-492d-9f83-f9ce3ea2961b","system_id":"levelo_inurba_marseille","lat":43.30148,"lon":5.38085,"is_reserved":false,"is_disabled":false,"rental_uris":{"android":"levelo://app?vid=fb594920-985b-492d-9f83-f9ce3ea2961b","ios":"levelo://app?vid=fb594920-985b-492d-9f83-f9ce3ea2961b"},"vehicle_type_id":"4","last_reported":1726038534,"current_range_meters":33200,"station_id":"ce4bgjp2rcd13ifvqbh0","pricing_plan_id":"cebpf4jnsgd1na2vs0mg"},{"bike_id":"29109e3f-3366-456a-962a-b4a2ce7d403c","system_id":"levelo_inurba_marseille","lat":43.336086,"lon":5.41038,"is_reserved":false,"is_disabled":false,"rental_uris":{"android":"levelo://app?vid=29109e3f-3366-456a-962a-b4a2ce7d403c","ios":"levelo://app?vid=29109e3f-3366-456a-962a-b4a2ce7d403c"},"vehicle_type_id":"4","last_reported":1726038534,"current_range_meters":32000,"station_id":"ce4bhqh2rcd13ifvqhmg","pricing_plan_id":"cebpf4jnsgd1na2vs0mg"},{"bike_id":"17192454-d19a-45de-ab35-dd086d3e77de","system_id":"levelo_inurba_marseille","lat":43.24396,"lon":5.37088,"is_reserved":false,"is_disabled":false,"rental_uris":{"android":"levelo://app?vid=17192454-d19a-45de-ab35-dd086d3e77de","ios":"levelo://app?vid=17192454-d19a-45de-ab35-dd086d3e77de"},"vehicle_type_id":"4","last_reported":1726038534,"current_range_meters":27200,"station_id":"ce4bhhh2rcd13ifvqfk0","pricing_plan_id":"cebpf4jnsgd1na2vs0mg"},{"bike_id":"bfb1fb19-fed4-49ae-b7b9-aba1381ccfb6","system_id":"levelo_inurba_marseille","lat":43.28675,"lon":5.38656,"is_reserved":false,"is_disabled":false,"rental_uris":{"android":"levelo://app?vid=bfb1fb19-fed4-49ae-b7b9-aba1381ccfb6","ios":"levelo://app?vid=bfb1fb19-fed4-49ae-b7b9-aba1381ccfb6"},"vehicle_type_id":"4","last_reported":1726038534,"current_range_meters":36000,"station_id":"ce4bh492rcd13ifvqdug","pricing_plan_id":"cebpf4jnsgd1na2vs0mg"},{"bike_id":"fc040440-b87d-4ded-aae6-5232271a70cc","system_id":"levelo_inurba_marseille","lat":43.25577,"lon":5.3824,"is_reserved":false,"is_disabled":false,"rental_uris":{"android":"levelo://app?vid=fc040440-b87d-4ded-aae6-5232271a70cc","ios":"levelo://app?vid=fc040440-b87d-4ded-aae6-5232271a70cc"},"vehicle_type_id":"4","last_reported":1726038534,"current_range_meters":19600,"station_id":"ce4bhih2rcd13ifvqfs0","pricing_plan_id":"cebpf4jnsgd1na2vs0mg"},{"bike_id":"b75a39c8-a36f-45e0-879f-5989f5af4897","system_id":"levelo_inurba_marseille","lat":43.30481,"lon":5.37905,"is_reserved":false,"is_disabled":false,"rental_uris":{"android":"levelo://app?vid=b75a39c8-a36f-45e0-879f-5989f5af4897","ios":"levelo://app?vid=b75a39c8-a36f-45e0-879f-5989f5af4897"},"vehicle_type_id":"4","last_reported":1726038534,"current_range_meters":25600,"station_id":"ce4bgup2rcd13ifvqcn0","pricing_plan_id":"cebpf4jnsgd1na2vs0mg"},{"bike_id":"4cee46aa-a00a-4346-bda4-e676a637d13a","system_id":"levelo_inurba_marseille","lat":43.31081,"lon":5.42426,"is_reserved":false,"is_disabled":false,"rental_uris":{"android":"levelo://app?vid=4cee46aa-a00a-4346-bda4-e676a637d13a","ios":"levelo://app?vid=4cee46aa-a00a-4346-bda4-e676a637d13a"},"vehicle_type_id":"4","last_reported":1726038534,"current_range_meters":12400,"station_id":"ce4bhp92rcd13ifvqhag","pricing_plan_id":"cebpf4jnsgd1na2vs0mg"},{"bike_id":"b59d6bb8-aefb-4db8-b3f2-f169f342ddcd","system_id":"levelo_inurba_marseille","lat":43.32362,"lon":5.38883,"is_reserved":false,"is_disabled":false,"rental_uris":{"android":"levelo://app?vid=b59d6bb8-aefb-4db8-b3f2-f169f342ddcd","ios":"levelo://app?vid=b59d6bb8-aefb-4db8-b3f2-f169f342ddcd"},"vehicle_type_id":"4","last_reported":1726038534,"current_range_meters":3600,"station_id":"ce4bhqp2rcd13ifvqhog","pricing_plan_id":"cebpf4jnsgd1na2vs0mg"},{"bike_id":"00115f0a-ac26-4e9a-986d-383b5654c372","system_id":"levelo_inurba_marseille","lat":43.26687,"lon":5.38272,"is_reserved":false,"is_disabled":false,"rental_uris":{"android":"levelo://app?vid=00115f0a-ac26-4e9a-986d-383b5654c372","ios":"levelo://app?vid=00115f0a-ac26-4e9a-986d-383b5654c372"},"vehicle_type_id":"4","last_reported":1726038534,"current_range_meters":25600,"station_id":"ce4bhg92rcd13ifvqf90","pricing_plan_id":"cebpf4jnsgd1na2vs0mg"},{"bike_id":"49ba73ea-a764-4dbe-a56f-caa2a09b4fbd","system_id":"levelo_inurba_marseille","lat":43.25827,"lon":5.39436,"is_reserved":false,"is_disabled":false,"rental_uris":{"android":"levelo://app?vid=49ba73ea-a764-4dbe-a56f-caa2a09b4fbd","ios":"levelo://app?vid=49ba73ea-a764-4dbe-a56f-caa2a09b4fbd"},"vehicle_type_id":"4","last_reported":1726038534,"current_range_meters":31200,"station_id":"ce4bhip2rcd13ifvqft0","pricing_plan_id":"cebpf4jnsgd1na2vs0mg"},{"bike_id":"8448f02d-fc0d-4b12-b64e-f1c9c4b5973f","system_id":"levelo_inurba_marseille","lat":43.33769,"lon":5.37468,"is_reserved":false,"is_disabled":false,"rental_uris":{"android":"levelo://app?vid=8448f02d-fc0d-4b12-b64e-f1c9c4b5973f","ios":"levelo://app?vid=8448f02d-fc0d-4b12-b64e-f1c9c4b5973f"},"vehicle_type_id":"4","last_reported":1726038534,"current_range_meters":36000,"station_id":"","pricing_plan_id":"cebpf4jnsgd1na2vs0mg"},{"bike_id":"7727b811-eb5e-4439-b991-7555b4fa4a0e","system_id":"levelo_inurba_marseille","lat":43.30279,"lon":5.37696,"is_reserved":false,"is_disabled":false,"rental_uris":{"android":"levelo://app?vid=7727b811-eb5e-4439-b991-7555b4fa4a0e","ios":"levelo://app?vid=7727b811-eb5e-4439-b991-7555b4fa4a0e"},"vehicle_type_id":"4","last_reported":1726038534,"current_range_meters":38400,"station_id":"ce4bguh2rcd13ifvqcj0","pricing_plan_id":"cebpf4jnsgd1na2vs0mg"},{"bike_id":"44e72f35-4cef-4c08-bc93-0253414c9b58","system_id":"levelo_inurba_marseille","lat":43.29614,"lon":5.37715,"is_reserved":false,"is_disabled":false,"rental_uris":{"android":"levelo://app?vid=44e72f35-4cef-4c08-bc93-0253414c9b58","ios":"levelo://app?vid=44e72f35-4cef-4c08-bc93-0253414c9b58"},"vehicle_type_id":"4","last_reported":1726038534,"current_range_meters":36400,"station_id":"ce4bgi92rcd13ifvqb90","pricing_plan_id":"cebpf4jnsgd1na2vs0mg"},{"bike_id":"b6b39233-539e-43ba-bb0c-a24a0c8fbc7e","system_id":"levelo_inurba_marseille","lat":43.24075,"lon":5.37749,"is_reserved":false,"is_disabled":false,"rental_uris":{"android":"levelo://app?vid=b6b39233-539e-43ba-bb0c-a24a0c8fbc7e","ios":"levelo://app?vid=b6b39233-539e-43ba-bb0c-a24a0c8fbc7e"},"vehicle_type_id":"4","last_reported":1726038534,"current_range_meters":8400,"station_id":"ce4bhnp2rcd13ifvqgvg","pricing_plan_id":"cebpf4jnsgd1na2vs0mg"},{"bike_id":"d94cf20d-19e4-4d88-bbb3-72b7a4c6baa3","system_id":"levelo_inurba_marseille","lat":43.32288,"lon":5.38258,"is_reserved":false,"is_disabled":false,"rental_uris":{"android":"levelo://app?vid=d94cf20d-19e4-4d88-bbb3-72b7a4c6baa3","ios":"levelo://app?vid=d94cf20d-19e4-4d88-bbb3-72b7a4c6baa3"},"vehicle_type_id":"4","last_reported":1726038534,"current_range_meters":38800,"station_id":"ce4bhr12rcd13ifvqhqg","pricing_plan_id":"cebpf4jnsgd1na2vs0mg"},{"bike_id":"89c18716-35c7-460a-897d-0ad83434eceb","system_id":"levelo_inurba_marseille","lat":43.30148,"lon":5.38087,"is_reserved":false,"is_disabled":false,"rental_uris":{"android":"levelo://app?vid=89c18716-35c7-460a-897d-0ad83434eceb","ios":"levelo://app?vid=89c18716-35c7-460a-897d-0ad83434eceb"},"vehicle_type_id":"4","last_reported":1726038534,"current_range_meters":15200,"station_id":"ce4bgjp2rcd13ifvqbh0","pricing_plan_id":"cebpf4jnsgd1na2vs0mg"},{"bike_id":"5b366469-26ac-47ae-8cda-9ae09671eba1","system_id":"levelo_inurba_marseille","lat":43.30094,"lon":5.39064,"is_reserved":false,"is_disabled":false,"rental_uris":{"android":"levelo://app?vid=5b366469-26ac-47ae-8cda-9ae09671eba1","ios":"levelo://app?vid=5b366469-26ac-47ae-8cda-9ae09671eba1"},"vehicle_type_id":"4","last_reported":1726038534,"current_range_meters":21600,"station_id":"ce4bh192rcd13ifvqdb0","pricing_plan_id":"cebpf4jnsgd1na2vs0mg"},{"bike_id":"00ca710c-aa25-453d-b5eb-9286e939dc6d","system_id":"levelo_inurba_marseille","lat":43.29553,"lon":5.42286,"is_reserved":false,"is_disabled":false,"rental_uris":{"android":"levelo://app?vid=00ca710c-aa25-453d-b5eb-9286e939dc6d","ios":"levelo://app?vid=00ca710c-aa25-453d-b5eb-9286e939dc6d"},"vehicle_type_id":"4","last_reported":1726038534,"current_range_meters":39200,"station_id":"ce4bhph2rcd13ifvqhdg","pricing_plan_id":"cebpf4jnsgd1na2vs0mg"},{"bike_id":"4096826d-082f-48bf-aaa9-e570b35c89f7","system_id":"levelo_inurba_marseille","lat":43.27921,"lon":5.39565,"is_reserved":false,"is_disabled":false,"rental_uris":{"android":"levelo://app?vid=4096826d-082f-48bf-aaa9-e570b35c89f7","ios":"levelo://app?vid=4096826d-082f-48bf-aaa9-e570b35c89f7"},"vehicle_type_id":"4","last_reported":1726038534,"current_range_meters":25200,"station_id":"ce4bhf92rcd13ifvqf40","pricing_plan_id":"cebpf4jnsgd1na2vs0mg"},{"bike_id":"a36a6131-7175-4d21-afcf-16a3b952996a","system_id":"levelo_inurba_marseille","lat":43.30818,"lon":5.37657,"is_reserved":false,"is_disabled":false,"rental_uris":{"android":"levelo://app?vid=a36a6131-7175-4d21-afcf-16a3b952996a","ios":"levelo://app?vid=a36a6131-7175-4d21-afcf-16a3b952996a"},"vehicle_type_id":"4","last_reported":1726038534,"current_range_meters":10800,"station_id":"ce4bgv92rcd13ifvqcq0","pricing_plan_id":"cebpf4jnsgd1na2vs0mg"},{"bike_id":"928a5d3e-209f-4162-8230-412be2f1bd6c","system_id":"levelo_inurba_marseille","lat":43.28709,"lon":5.37929,"is_reserved":false,"is_disabled":false,"rental_uris":{"android":"levelo://app?vid=928a5d3e-209f-4162-8230-412be2f1bd6c","ios":"levelo://app?vid=928a5d3e-209f-4162-8230-412be2f1bd6c"},"vehicle_type_id":"4","last_reported":1726038534,"current_range_meters":35600,"station_id":"ce4bh9p2rcd13ifvqec0","pricing_plan_id":"cebpf4jnsgd1na2vs0mg"},{"bike_id":"71e434c8-9251-47ca-88a8-25cb42fcaa66","system_id":"levelo_inurba_marseille","lat":43.27663,"lon":5.38894,"is_reserved":false,"is_disabled":false,"rental_uris":{"android":"levelo://app?vid=71e434c8-9251-47ca-88a8-25cb42fcaa66","ios":"levelo://app?vid=71e434c8-9251-47ca-88a8-25cb42fcaa66"},"vehicle_type_id":"4","last_reported":1726038534,"current_range_meters":38400,"station_id":"ce4bhi12rcd13ifvqfo0","pricing_plan_id":"cebpf4jnsgd1na2vs0mg"},{"bike_id":"153f7a93-8f82-47b3-a82c-cadcd93a7cda","system_id":"levelo_inurba_marseille","lat":43.31352,"lon":5.36716,"is_reserved":false,"is_disabled":false,"rental_uris":{"android":"levelo://app?vid=153f7a93-8f82-47b3-a82c-cadcd93a7cda","ios":"levelo://app?vid=153f7a93-8f82-47b3-a82c-cadcd93a7cda"},"vehicle_type_id":"4","last_reported":1726038534,"current_range_meters":35600,"station_id":"ce4bgr92rcd13ifvqc6g","pricing_plan_id":"cebpf4jnsgd1na2vs0mg"},{"bike_id":"7d379912-5512-4136-825f-f149378c51b0","system_id":"levelo_inurba_marseille","lat":43.27838,"lon":5.38502,"is_reserved":false,"is_disabled":false,"rental_uris":{"android":"levelo://app?vid=7d379912-5512-4136-825f-f149378c51b0","ios":"levelo://app?vid=7d379912-5512-4136-825f-f149378c51b0"},"vehicle_type_id":"4","last_reported":1726038534,"current_range_meters":32400,"station_id":"","pricing_plan_id":"cebpf4jnsgd1na2vs0mg"},{"bike_id":"fd085921-e1d7-4c89-a66d-87af421fb9d3","system_id":"levelo_inurba_marseille","lat":43.26949,"lon":5.38631,"is_reserved":false,"is_disabled":false,"rental_uris":{"android":"levelo://app?vid=fd085921-e1d7-4c89-a66d-87af421fb9d3","ios":"levelo://app?vid=fd085921-e1d7-4c89-a66d-87af421fb9d3"},"vehicle_type_id":"4","last_reported":1726038534,"current_range_meters":38400,"station_id":"ce4bhh92rcd13ifvqfh0","pricing_plan_id":"cebpf4jnsgd1na2vs0mg"},{"bike_id":"faa82c10-3d44-4783-bf5c-3b32d994fd40","system_id":"levelo_inurba_marseille","lat":43.289093,"lon":5.384298,"is_reserved":false,"is_disabled":false,"rental_uris":{"android":"levelo://app?vid=faa82c10-3d44-4783-bf5c-3b32d994fd40","ios":"levelo://app?vid=faa82c10-3d44-4783-bf5c-3b32d994fd40"},"vehicle_type_id":"4","last_reported":1726038534,"current_range_meters":23200,"station_id":"ce4bh612rcd13ifvqe6g","pricing_plan_id":"cebpf4jnsgd1na2vs0mg"},{"bike_id":"8bfb1f0d-2633-40db-8a6a-d4a15f301a55","system_id":"levelo_inurba_marseille","lat":43.30152,"lon":5.38079,"is_reserved":false,"is_disabled":false,"rental_uris":{"android":"levelo://app?vid=8bfb1f0d-2633-40db-8a6a-d4a15f301a55","ios":"levelo://app?vid=8bfb1f0d-2633-40db-8a6a-d4a15f301a55"},"vehicle_type_id":"4","last_reported":1726038534,"current_range_meters":37600,"station_id":"ce4bgjp2rcd13ifvqbh0","pricing_plan_id":"cebpf4jnsgd1na2vs0mg"},{"bike_id":"df7d9a4b-6ecb-409a-9d20-53d92f6d12b5","system_id":"levelo_inurba_marseille","lat":43.30466,"lon":5.37909,"is_reserved":false,"is_disabled":false,"rental_uris":{"android":"levelo://app?vid=df7d9a4b-6ecb-409a-9d20-53d92f6d12b5","ios":"levelo://app?vid=df7d9a4b-6ecb-409a-9d20-53d92f6d12b5"},"vehicle_type_id":"4","last_reported":1726038534,"current_range_meters":12800,"station_id":"ce4bgup2rcd13ifvqcn0","pricing_plan_id":"cebpf4jnsgd1na2vs0mg"},{"bike_id":"dbe8842d-5124-48b3-961a-1ebe254bf5d8","system_id":"levelo_inurba_marseille","lat":43.29286,"lon":5.37449,"is_reserved":false,"is_disabled":false,"rental_uris":{"android":"levelo://app?vid=dbe8842d-5124-48b3-961a-1ebe254bf5d8","ios":"levelo://app?vid=dbe8842d-5124-48b3-961a-1ebe254bf5d8"},"vehicle_type_id":"4","last_reported":1726038534,"current_range_meters":37600,"station_id":"ce4bgi12rcd13ifvqb70","pricing_plan_id":"cebpf4jnsgd1na2vs0mg"},{"bike_id":"16624194-78f3-471e-a0e1-0ab5423510b5","system_id":"levelo_inurba_marseille","lat":43.295829,"lon":5.399643,"is_reserved":false,"is_disabled":false,"rental_uris":{"android":"levelo://app?vid=16624194-78f3-471e-a0e1-0ab5423510b5","ios":"levelo://app?vid=16624194-78f3-471e-a0e1-0ab5423510b5"},"vehicle_type_id":"4","last_reported":1726038534,"current_range_meters":14800,"station_id":"ce4bh312rcd13ifvqdj0","pricing_plan_id":"cebpf4jnsgd1na2vs0mg"},{"bike_id":"b57b7c50-b45e-48bf-80f1-5809fd7245ab","system_id":"levelo_inurba_marseille","lat":43.266941,"lon":5.382231,"is_reserved":false,"is_disabled":false,"rental_uris":{"android":"levelo://app?vid=b57b7c50-b45e-48bf-80f1-5809fd7245ab","ios":"levelo://app?vid=b57b7c50-b45e-48bf-80f1-5809fd7245ab"},"vehicle_type_id":"4","last_reported":1726038534,"current_range_meters":33600,"station_id":"ce4bhg92rcd13ifvqf90","pricing_plan_id":"cebpf4jnsgd1na2vs0mg"},{"bike_id":"f1ea8c6f-65c6-4c34-b89c-98dd712d80c3","system_id":"levelo_inurba_marseille","lat":43.24073,"lon":5.37754,"is_reserved":false,"is_disabled":false,"rental_uris":{"android":"levelo://app?vid=f1ea8c6f-65c6-4c34-b89c-98dd712d80c3","ios":"levelo://app?vid=f1ea8c6f-65c6-4c34-b89c-98dd712d80c3"},"vehicle_type_id":"4","last_reported":1726038534,"current_range_meters":20000,"station_id":"ce4bhnp2rcd13ifvqgvg","pricing_plan_id":"cebpf4jnsgd1na2vs0mg"},{"bike_id":"9734d854-1bee-4703-b105-c182cf679f1a","system_id":"levelo_inurba_marseille","lat":43.25934,"lon":5.4091,"is_reserved":false,"is_disabled":false,"rental_uris":{"android":"levelo://app?vid=9734d854-1bee-4703-b105-c182cf679f1a","ios":"levelo://app?vid=9734d854-1bee-4703-b105-c182cf679f1a"},"vehicle_type_id":"4","last_reported":1726038534,"current_range_meters":20000,"station_id":"ce4bhm92rcd13ifvqglg","pricing_plan_id":"cebpf4jnsgd1na2vs0mg"},{"bike_id":"1b8e2124-c9b2-450b-8e12-e90ed145db35","system_id":"levelo_inurba_marseille","lat":43.29842,"lon":5.36259,"is_reserved":false,"is_disabled":false,"rental_uris":{"android":"levelo://app?vid=1b8e2124-c9b2-450b-8e12-e90ed145db35","ios":"levelo://app?vid=1b8e2124-c9b2-450b-8e12-e90ed145db35"},"vehicle_type_id":"4","last_reported":1726038534,"current_range_meters":28000,"station_id":"ce4bgpp2rcd13ifvqc3g","pricing_plan_id":"cebpf4jnsgd1na2vs0mg"},{"bike_id":"931314e8-e917-4027-9ca3-2e3a96f72682","system_id":"levelo_inurba_marseille","lat":43.27565,"lon":5.38459,"is_reserved":false,"is_disabled":false,"rental_uris":{"android":"levelo://app?vid=931314e8-e917-4027-9ca3-2e3a96f72682","ios":"levelo://app?vid=931314e8-e917-4027-9ca3-2e3a96f72682"},"vehicle_type_id":"4","last_reported":1726038534,"current_range_meters":30400,"station_id":"ce4bhh92rcd13ifvqfi0","pricing_plan_id":"cebpf4jnsgd1na2vs0mg"},{"bike_id":"877ed13c-c5e6-4e2e-96d9-a36a879042b9","system_id":"levelo_inurba_marseille","lat":43.28932,"lon":5.3663,"is_reserved":false,"is_disabled":false,"rental_uris":{"android":"levelo://app?vid=877ed13c-c5e6-4e2e-96d9-a36a879042b9","ios":"levelo://app?vid=877ed13c-c5e6-4e2e-96d9-a36a879042b9"},"vehicle_type_id":"4","last_reported":1726038534,"current_range_meters":17200,"station_id":"ce4bhap2rcd13ifvqek0","pricing_plan_id":"cebpf4jnsgd1na2vs0mg"},{"bike_id":"1d26db6b-b271-4287-8e8d-3ddb954969dd","system_id":"levelo_inurba_marseille","lat":43.255585,"lon":5.376449,"is_reserved":false,"is_disabled":false,"rental_uris":{"android":"levelo://app?vid=1d26db6b-b271-4287-8e8d-3ddb954969dd","ios":"levelo://app?vid=1d26db6b-b271-4287-8e8d-3ddb954969dd"},"vehicle_type_id":"4","last_reported":1726038534,"current_range_meters":22400,"station_id":"ce4bhh12rcd13ifvqff0","pricing_plan_id":"cebpf4jnsgd1na2vs0mg"},{"bike_id":"8ad708b3-61e9-4f81-82b9-7c80da732e99","system_id":"levelo_inurba_marseille","lat":43.26792,"lon":5.39406,"is_reserved":false,"is_disabled":false,"rental_uris":{"android":"levelo://app?vid=8ad708b3-61e9-4f81-82b9-7c80da732e99","ios":"levelo://app?vid=8ad708b3-61e9-4f81-82b9-7c80da732e99"},"vehicle_type_id":"4","last_reported":1726038534,"current_range_meters":25600,"station_id":"ce4bhh12rcd13ifvqfg0","pricing_plan_id":"cebpf4jnsgd1na2vs0mg"},{"bike_id":"cd2e400c-a456-4791-820e-275a373259d8","system_id":"levelo_inurba_marseille","lat":43.29567,"lon":5.3997,"is_reserved":false,"is_disabled":false,"rental_uris":{"android":"levelo://app?vid=cd2e400c-a456-4791-820e-275a373259d8","ios":"levelo://app?vid=cd2e400c-a456-4791-820e-275a373259d8"},"vehicle_type_id":"4","last_reported":1726038534,"current_range_meters":31200,"station_id":"ce4bh112rcd13ifvqda0","pricing_plan_id":"cebpf4jnsgd1na2vs0mg"},{"bike_id":"d16d3e6a-2f35-4075-b4b8-dff4af07f2ef","system_id":"levelo_inurba_marseille","lat":43.30304,"lon":5.36885,"is_reserved":false,"is_disabled":false,"rental_uris":{"android":"levelo://app?vid=d16d3e6a-2f35-4075-b4b8-dff4af07f2ef","ios":"levelo://app?vid=d16d3e6a-2f35-4075-b4b8-dff4af07f2ef"},"vehicle_type_id":"4","last_reported":1726038534,"current_range_meters":34800,"station_id":"ce4bgqh2rcd13ifvqc5g","pricing_plan_id":"cebpf4jnsgd1na2vs0mg"},{"bike_id":"e01f2de8-0328-4104-8c10-bddcb364c8e7","system_id":"levelo_inurba_marseille","lat":43.2407,"lon":5.37758,"is_reserved":false,"is_disabled":false,"rental_uris":{"android":"levelo://app?vid=e01f2de8-0328-4104-8c10-bddcb364c8e7","ios":"levelo://app?vid=e01f2de8-0328-4104-8c10-bddcb364c8e7"},"vehicle_type_id":"4","last_reported":1726038534,"current_range_meters":33200,"station_id":"ce4bhnp2rcd13ifvqgvg","pricing_plan_id":"cebpf4jnsgd1na2vs0mg"},{"bike_id":"c22bf776-82f1-423d-83f3-ab20051eb388","system_id":"levelo_inurba_marseille","lat":43.33614,"lon":5.41017,"is_reserved":false,"is_disabled":false,"rental_uris":{"android":"levelo://app?vid=c22bf776-82f1-423d-83f3-ab20051eb388","ios":"levelo://app?vid=c22bf776-82f1-423d-83f3-ab20051eb388"},"vehicle_type_id":"4","last_reported":1726038534,"current_range_meters":6400,"station_id":"ce4bhqh2rcd13ifvqhmg","pricing_plan_id":"cebpf4jnsgd1na2vs0mg"},{"bike_id":"276aff80-6d5b-448f-be07-ae40ba73dbc2","system_id":"levelo_inurba_marseille","lat":43.240569,"lon":5.377725,"is_reserved":false,"is_disabled":false,"rental_uris":{"android":"levelo://app?vid=276aff80-6d5b-448f-be07-ae40ba73dbc2","ios":"levelo://app?vid=276aff80-6d5b-448f-be07-ae40ba73dbc2"},"vehicle_type_id":"4","last_reported":1726038534,"current_range_meters":17600,"station_id":"ce4bhnp2rcd13ifvqgvg","pricing_plan_id":"cebpf4jnsgd1na2vs0mg"},{"bike_id":"5711be28-cbc0-4fc6-bfe8-04573769105c","system_id":"levelo_inurba_marseille","lat":43.30799,"lon":5.43512,"is_reserved":false,"is_disabled":false,"rental_uris":{"android":"levelo://app?vid=5711be28-cbc0-4fc6-bfe8-04573769105c","ios":"levelo://app?vid=5711be28-cbc0-4fc6-bfe8-04573769105c"},"vehicle_type_id":"4","last_reported":1726038534,"current_range_meters":28000,"station_id":"ce4bhph2rcd13ifvqheg","pricing_plan_id":"cebpf4jnsgd1na2vs0mg"},{"bike_id":"c7d6d06e-c6b6-456a-8174-515e62d4bdb2","system_id":"levelo_inurba_marseille","lat":43.33605,"lon":5.41033,"is_reserved":false,"is_disabled":false,"rental_uris":{"android":"levelo://app?vid=c7d6d06e-c6b6-456a-8174-515e62d4bdb2","ios":"levelo://app?vid=c7d6d06e-c6b6-456a-8174-515e62d4bdb2"},"vehicle_type_id":"4","last_reported":1726038534,"current_range_meters":16000,"station_id":"ce4bhqh2rcd13ifvqhmg","pricing_plan_id":"cebpf4jnsgd1na2vs0mg"},{"bike_id":"9b9547b7-77e2-4c32-9975-f0a65876f133","system_id":"levelo_inurba_marseille","lat":43.28042,"lon":5.36936,"is_reserved":false,"is_disabled":false,"rental_uris":{"android":"levelo://app?vid=9b9547b7-77e2-4c32-9975-f0a65876f133","ios":"levelo://app?vid=9b9547b7-77e2-4c32-9975-f0a65876f133"},"vehicle_type_id":"4","last_reported":1726038534,"current_range_meters":36000,"station_id":"ce4bha12rcd13ifvqef0","pricing_plan_id":"cebpf4jnsgd1na2vs0mg"},{"bike_id":"719bc6c4-8a33-4716-9972-890608eab4a8","system_id":"levelo_inurba_marseille","lat":43.28041,"lon":5.36934,"is_reserved":false,"is_disabled":false,"rental_uris":{"android":"levelo://app?vid=719bc6c4-8a33-4716-9972-890608eab4a8","ios":"levelo://app?vid=719bc6c4-8a33-4716-9972-890608eab4a8"},"vehicle_type_id":"4","last_reported":1726038534,"current_range_meters":20400,"station_id":"ce4bha12rcd13ifvqef0","pricing_plan_id":"cebpf4jnsgd1na2vs0mg"},{"bike_id":"ee0efcc0-0594-4a83-85d9-439b7eb0d1d1","system_id":"levelo_inurba_marseille","lat":43.23062,"lon":5.35494,"is_reserved":false,"is_disabled":false,"rental_uris":{"android":"levelo://app?vid=ee0efcc0-0594-4a83-85d9-439b7eb0d1d1","ios":"levelo://app?vid=ee0efcc0-0594-4a83-85d9-439b7eb0d1d1"},"vehicle_type_id":"4","last_reported":1726038534,"current_range_meters":38400,"station_id":"cpo3342slgdg3j2ifvpg","pricing_plan_id":"cebpf4jnsgd1na2vs0mg"},{"bike_id":"3ca161b1-fb03-46e1-bc58-270f4d2ef071","system_id":"levelo_inurba_marseille","lat":43.3047,"lon":5.37894,"is_reserved":false,"is_disabled":false,"rental_uris":{"android":"levelo://app?vid=3ca161b1-fb03-46e1-bc58-270f4d2ef071","ios":"levelo://app?vid=3ca161b1-fb03-46e1-bc58-270f4d2ef071"},"vehicle_type_id":"4","last_reported":1726038534,"current_range_meters":28800,"station_id":"ce4bgup2rcd13ifvqcn0","pricing_plan_id":"cebpf4jnsgd1na2vs0mg"},{"bike_id":"723c073e-5c6a-4fb9-a382-e8ea44a73076","system_id":"levelo_inurba_marseille","lat":43.29554,"lon":5.42279,"is_reserved":false,"is_disabled":false,"rental_uris":{"android":"levelo://app?vid=723c073e-5c6a-4fb9-a382-e8ea44a73076","ios":"levelo://app?vid=723c073e-5c6a-4fb9-a382-e8ea44a73076"},"vehicle_type_id":"4","last_reported":1726038534,"current_range_meters":33600,"station_id":"ce4bhph2rcd13ifvqhdg","pricing_plan_id":"cebpf4jnsgd1na2vs0mg"},{"bike_id":"2aad4b02-945c-4d35-b3a5-85b3d17dc503","system_id":"levelo_inurba_marseille","lat":43.32284,"lon":5.38248,"is_reserved":false,"is_disabled":false,"rental_uris":{"android":"levelo://app?vid=2aad4b02-945c-4d35-b3a5-85b3d17dc503","ios":"levelo://app?vid=2aad4b02-945c-4d35-b3a5-85b3d17dc503"},"vehicle_type_id":"4","last_reported":1726038534,"current_range_meters":4000,"station_id":"ce4bhr12rcd13ifvqhqg","pricing_plan_id":"cebpf4jnsgd1na2vs0mg"},{"bike_id":"e9924c4f-09ca-4c11-80fb-946a94fbe388","system_id":"levelo_inurba_marseille","lat":43.25582,"lon":5.38236,"is_reserved":false,"is_disabled":false,"rental_uris":{"android":"levelo://app?vid=e9924c4f-09ca-4c11-80fb-946a94fbe388","ios":"levelo://app?vid=e9924c4f-09ca-4c11-80fb-946a94fbe388"},"vehicle_type_id":"4","last_reported":1726038534,"current_range_meters":26000,"station_id":"ce4bhih2rcd13ifvqfs0","pricing_plan_id":"cebpf4jnsgd1na2vs0mg"},{"bike_id":"37b8420a-fe98-41c3-9452-1cd162e79db5","system_id":"levelo_inurba_marseille","lat":43.271902,"lon":5.390683,"is_reserved":false,"is_disabled":false,"rental_uris":{"android":"levelo://app?vid=37b8420a-fe98-41c3-9452-1cd162e79db5","ios":"levelo://app?vid=37b8420a-fe98-41c3-9452-1cd162e79db5"},"vehicle_type_id":"4","last_reported":1726038534,"current_range_meters":20400,"station_id":"ce4bhhp2rcd13ifvqfm0","pricing_plan_id":"cebpf4jnsgd1na2vs0mg"},{"bike_id":"270a84f9-41d6-4d64-8f74-449af4920796","system_id":"levelo_inurba_marseille","lat":43.2407,"lon":5.37754,"is_reserved":false,"is_disabled":false,"rental_uris":{"android":"levelo://app?vid=270a84f9-41d6-4d64-8f74-449af4920796","ios":"levelo://app?vid=270a84f9-41d6-4d64-8f74-449af4920796"},"vehicle_type_id":"4","last_reported":1726038534,"current_range_meters":31200,"station_id":"ce4bhnp2rcd13ifvqgvg","pricing_plan_id":"cebpf4jnsgd1na2vs0mg"},{"bike_id":"dd4c77a3-8f2f-4327-86e0-d9668552430d","system_id":"levelo_inurba_marseille","lat":43.27197,"lon":5.39193,"is_reserved":false,"is_disabled":false,"rental_uris":{"android":"levelo://app?vid=dd4c77a3-8f2f-4327-86e0-d9668552430d","ios":"levelo://app?vid=dd4c77a3-8f2f-4327-86e0-d9668552430d"},"vehicle_type_id":"4","last_reported":1726038534,"current_range_meters":36800,"station_id":"ce4bhhp2rcd13ifvqfm0","pricing_plan_id":"cebpf4jnsgd1na2vs0mg"},{"bike_id":"211b5142-9ff2-4985-b66d-e93c99bdd248","system_id":"levelo_inurba_marseille","lat":43.24391,"lon":5.37061,"is_reserved":false,"is_disabled":false,"rental_uris":{"android":"levelo://app?vid=211b5142-9ff2-4985-b66d-e93c99bdd248","ios":"levelo://app?vid=211b5142-9ff2-4985-b66d-e93c99bdd248"},"vehicle_type_id":"4","last_reported":1726038534,"current_range_meters":24000,"station_id":"ce4bhhh2rcd13ifvqfk0","pricing_plan_id":"cebpf4jnsgd1na2vs0mg"},{"bike_id":"ba029e3c-a52b-4614-b297-934f2a650282","system_id":"levelo_inurba_marseille","lat":43.30472,"lon":5.37908,"is_reserved":false,"is_disabled":false,"rental_uris":{"android":"levelo://app?vid=ba029e3c-a52b-4614-b297-934f2a650282","ios":"levelo://app?vid=ba029e3c-a52b-4614-b297-934f2a650282"},"vehicle_type_id":"4","last_reported":1726038534,"current_range_meters":28400,"station_id":"ce4bgup2rcd13ifvqcn0","pricing_plan_id":"cebpf4jnsgd1na2vs0mg"},{"bike_id":"bc69e2db-013a-4c37-be86-7d4956af6508","system_id":"levelo_inurba_marseille","lat":43.2907,"lon":5.3715,"is_reserved":false,"is_disabled":false,"rental_uris":{"android":"levelo://app?vid=bc69e2db-013a-4c37-be86-7d4956af6508","ios":"levelo://app?vid=bc69e2db-013a-4c37-be86-7d4956af6508"},"vehicle_type_id":"4","last_reported":1726038534,"current_range_meters":25600,"station_id":"ce4bh5p2rcd13ifvqe4g","pricing_plan_id":"cebpf4jnsgd1na2vs0mg"},{"bike_id":"5817cf3b-31bd-46c0-9966-60d1672b1743","system_id":"levelo_inurba_marseille","lat":43.26786,"lon":5.39407,"is_reserved":false,"is_disabled":false,"rental_uris":{"android":"levelo://app?vid=5817cf3b-31bd-46c0-9966-60d1672b1743","ios":"levelo://app?vid=5817cf3b-31bd-46c0-9966-60d1672b1743"},"vehicle_type_id":"4","last_reported":1726038534,"current_range_meters":32400,"station_id":"ce4bhh12rcd13ifvqfg0","pricing_plan_id":"cebpf4jnsgd1na2vs0mg"},{"bike_id":"c4a180ae-4760-4a4f-8b2c-5162521f967a","system_id":"levelo_inurba_marseille","lat":43.279663,"lon":5.387144,"is_reserved":false,"is_disabled":false,"rental_uris":{"android":"levelo://app?vid=c4a180ae-4760-4a4f-8b2c-5162521f967a","ios":"levelo://app?vid=c4a180ae-4760-4a4f-8b2c-5162521f967a"},"vehicle_type_id":"4","last_reported":1726038534,"current_range_meters":18000,"station_id":"ce4bhg12rcd13ifvqf80","pricing_plan_id":"cebpf4jnsgd1na2vs0mg"},{"bike_id":"c4a11cd6-597d-4826-ad55-56b34d91dddb","system_id":"levelo_inurba_marseille","lat":43.24076,"lon":5.37756,"is_reserved":false,"is_disabled":false,"rental_uris":{"android":"levelo://app?vid=c4a11cd6-597d-4826-ad55-56b34d91dddb","ios":"levelo://app?vid=c4a11cd6-597d-4826-ad55-56b34d91dddb"},"vehicle_type_id":"4","last_reported":1726038534,"current_range_meters":11200,"station_id":"ce4bhnp2rcd13ifvqgvg","pricing_plan_id":"cebpf4jnsgd1na2vs0mg"},{"bike_id":"c240ea29-de20-4cb4-adfe-faad75b01225","system_id":"levelo_inurba_marseille","lat":43.31349,"lon":5.36714,"is_reserved":false,"is_disabled":false,"rental_uris":{"android":"levelo://app?vid=c240ea29-de20-4cb4-adfe-faad75b01225","ios":"levelo://app?vid=c240ea29-de20-4cb4-adfe-faad75b01225"},"vehicle_type_id":"4","last_reported":1726038534,"current_range_meters":16800,"station_id":"ce4bgr92rcd13ifvqc6g","pricing_plan_id":"cebpf4jnsgd1na2vs0mg"},{"bike_id":"4ccb9985-92ac-4458-9f80-54d64695e9f2","system_id":"levelo_inurba_marseille","lat":43.32366,"lon":5.38875,"is_reserved":false,"is_disabled":false,"rental_uris":{"android":"levelo://app?vid=4ccb9985-92ac-4458-9f80-54d64695e9f2","ios":"levelo://app?vid=4ccb9985-92ac-4458-9f80-54d64695e9f2"},"vehicle_type_id":"4","last_reported":1726038534,"current_range_meters":2800,"station_id":"ce4bhqh2rcd13ifvqhmg","pricing_plan_id":"cebpf4jnsgd1na2vs0mg"},{"bike_id":"08cc88cf-d0bc-4013-8d56-ce7f6a2de190","system_id":"levelo_inurba_marseille","lat":43.30146,"lon":5.38083,"is_reserved":false,"is_disabled":false,"rental_uris":{"android":"levelo://app?vid=08cc88cf-d0bc-4013-8d56-ce7f6a2de190","ios":"levelo://app?vid=08cc88cf-d0bc-4013-8d56-ce7f6a2de190"},"vehicle_type_id":"4","last_reported":1726038534,"current_range_meters":33600,"station_id":"ce4bgjp2rcd13ifvqbh0","pricing_plan_id":"cebpf4jnsgd1na2vs0mg"},{"bike_id":"e8a6a657-d2c5-44d4-8b63-97cb1a6ff3e0","system_id":"levelo_inurba_marseille","lat":43.32537,"lon":5.41429,"is_reserved":false,"is_disabled":false,"rental_uris":{"android":"levelo://app?vid=e8a6a657-d2c5-44d4-8b63-97cb1a6ff3e0","ios":"levelo://app?vid=e8a6a657-d2c5-44d4-8b63-97cb1a6ff3e0"},"vehicle_type_id":"4","last_reported":1726038534,"current_range_meters":16000,"station_id":"ce4bhq12rcd13ifvqhhg","pricing_plan_id":"cebpf4jnsgd1na2vs0mg"},{"bike_id":"ae5848c5-f1d3-4343-ae2e-d78a2d5b0242","system_id":"levelo_inurba_marseille","lat":43.30141,"lon":5.37423,"is_reserved":false,"is_disabled":false,"rental_uris":{"android":"levelo://app?vid=ae5848c5-f1d3-4343-ae2e-d78a2d5b0242","ios":"levelo://app?vid=ae5848c5-f1d3-4343-ae2e-d78a2d5b0242"},"vehicle_type_id":"4","last_reported":1726038534,"current_range_meters":35600,"station_id":"ce4bgs92rcd13ifvqcc0","pricing_plan_id":"cebpf4jnsgd1na2vs0mg"},{"bike_id":"74d7f432-f596-45ae-b14d-0ddc7f8a62f6","system_id":"levelo_inurba_marseille","lat":43.23146,"lon":5.43703,"is_reserved":false,"is_disabled":false,"rental_uris":{"android":"levelo://app?vid=74d7f432-f596-45ae-b14d-0ddc7f8a62f6","ios":"levelo://app?vid=74d7f432-f596-45ae-b14d-0ddc7f8a62f6"},"vehicle_type_id":"4","last_reported":1726038534,"current_range_meters":9200,"station_id":"ce4bhmp2rcd13ifvqgog","pricing_plan_id":"cebpf4jnsgd1na2vs0mg"},{"bike_id":"145df20c-dcd6-4546-8dc7-49aa5dc0c190","system_id":"levelo_inurba_marseille","lat":43.30459,"lon":5.37903,"is_reserved":false,"is_disabled":false,"rental_uris":{"android":"levelo://app?vid=145df20c-dcd6-4546-8dc7-49aa5dc0c190","ios":"levelo://app?vid=145df20c-dcd6-4546-8dc7-49aa5dc0c190"},"vehicle_type_id":"4","last_reported":1726038534,"current_range_meters":32000,"station_id":"ce4bgup2rcd13ifvqcn0","pricing_plan_id":"cebpf4jnsgd1na2vs0mg"},{"bike_id":"0a0c8c31-4dbb-4a4b-9757-6c7c06e9989d","system_id":"levelo_inurba_marseille","lat":43.30144,"lon":5.37418,"is_reserved":false,"is_disabled":false,"rental_uris":{"android":"levelo://app?vid=0a0c8c31-4dbb-4a4b-9757-6c7c06e9989d","ios":"levelo://app?vid=0a0c8c31-4dbb-4a4b-9757-6c7c06e9989d"},"vehicle_type_id":"4","last_reported":1726038534,"current_range_meters":38000,"station_id":"ce4bgs92rcd13ifvqcc0","pricing_plan_id":"cebpf4jnsgd1na2vs0mg"},{"bike_id":"13d810db-8ea3-44ea-ac0c-516776fcde15","system_id":"levelo_inurba_marseille","lat":43.29511,"lon":5.37506,"is_reserved":false,"is_disabled":false,"rental_uris":{"android":"levelo://app?vid=13d810db-8ea3-44ea-ac0c-516776fcde15","ios":"levelo://app?vid=13d810db-8ea3-44ea-ac0c-516776fcde15"},"vehicle_type_id":"4","last_reported":1726038534,"current_range_meters":27200,"station_id":"ce4bgkp2rcd13ifvqbmg","pricing_plan_id":"cebpf4jnsgd1na2vs0mg"},{"bike_id":"20058ce1-e735-4a58-b1f1-49b6d63a88f4","system_id":"levelo_inurba_marseille","lat":43.25579,"lon":5.38236,"is_reserved":false,"is_disabled":false,"rental_uris":{"android":"levelo://app?vid=20058ce1-e735-4a58-b1f1-49b6d63a88f4","ios":"levelo://app?vid=20058ce1-e735-4a58-b1f1-49b6d63a88f4"},"vehicle_type_id":"4","last_reported":1726038534,"current_range_meters":27600,"station_id":"ce4bhih2rcd13ifvqfs0","pricing_plan_id":"cebpf4jnsgd1na2vs0mg"},{"bike_id":"7b2b6aa9-d9ad-475c-a16f-abdf3eec6d77","system_id":"levelo_inurba_marseille","lat":43.2293,"lon":5.35374,"is_reserved":false,"is_disabled":false,"rental_uris":{"android":"levelo://app?vid=7b2b6aa9-d9ad-475c-a16f-abdf3eec6d77","ios":"levelo://app?vid=7b2b6aa9-d9ad-475c-a16f-abdf3eec6d77"},"vehicle_type_id":"4","last_reported":1726038534,"current_range_meters":18000,"station_id":"cpo3532slgdg3j2ikp40","pricing_plan_id":"cebpf4jnsgd1na2vs0mg"},{"bike_id":"dac8819e-afd6-47e3-9dfc-2293fe7ea318","system_id":"levelo_inurba_marseille","lat":43.30466,"lon":5.37908,"is_reserved":false,"is_disabled":false,"rental_uris":{"android":"levelo://app?vid=dac8819e-afd6-47e3-9dfc-2293fe7ea318","ios":"levelo://app?vid=dac8819e-afd6-47e3-9dfc-2293fe7ea318"},"vehicle_type_id":"4","last_reported":1726038534,"current_range_meters":28800,"station_id":"ce4bgup2rcd13ifvqcn0","pricing_plan_id":"cebpf4jnsgd1na2vs0mg"},{"bike_id":"638343ce-15e7-4192-b8b3-9dbbe2d9e121","system_id":"levelo_inurba_marseille","lat":43.2719,"lon":5.40989,"is_reserved":false,"is_disabled":false,"rental_uris":{"android":"levelo://app?vid=638343ce-15e7-4192-b8b3-9dbbe2d9e121","ios":"levelo://app?vid=638343ce-15e7-4192-b8b3-9dbbe2d9e121"},"vehicle_type_id":"4","last_reported":1726038534,"current_range_meters":37600,"station_id":"ce4bhl12rcd13ifvqgf0","pricing_plan_id":"cebpf4jnsgd1na2vs0mg"},{"bike_id":"7f4ea667-56df-4b26-bd46-3e71bc3cc245","system_id":"levelo_inurba_marseille","lat":43.29311,"lon":5.35561,"is_reserved":false,"is_disabled":false,"rental_uris":{"android":"levelo://app?vid=7f4ea667-56df-4b26-bd46-3e71bc3cc245","ios":"levelo://app?vid=7f4ea667-56df-4b26-bd46-3e71bc3cc245"},"vehicle_type_id":"4","last_reported":1726038534,"current_range_meters":3200,"station_id":"","pricing_plan_id":"cebpf4jnsgd1na2vs0mg"},{"bike_id":"ca736aa2-9ae6-4cb8-b0fe-510d91a35421","system_id":"levelo_inurba_marseille","lat":43.30535,"lon":5.36544,"is_reserved":false,"is_disabled":false,"rental_uris":{"android":"levelo://app?vid=ca736aa2-9ae6-4cb8-b0fe-510d91a35421","ios":"levelo://app?vid=ca736aa2-9ae6-4cb8-b0fe-510d91a35421"},"vehicle_type_id":"4","last_reported":1726038534,"current_range_meters":20000,"station_id":"ce4bgs12rcd13ifvqcag","pricing_plan_id":"cebpf4jnsgd1na2vs0mg"},{"bike_id":"3b163329-75e0-42ce-a395-e2936b5dfbec","system_id":"levelo_inurba_marseille","lat":43.2955,"lon":5.4226,"is_reserved":false,"is_disabled":false,"rental_uris":{"android":"levelo://app?vid=3b163329-75e0-42ce-a395-e2936b5dfbec","ios":"levelo://app?vid=3b163329-75e0-42ce-a395-e2936b5dfbec"},"vehicle_type_id":"4","last_reported":1726038534,"current_range_meters":30400,"station_id":"ce4bhph2rcd13ifvqhdg","pricing_plan_id":"cebpf4jnsgd1na2vs0mg"},{"bike_id":"2e2d75f9-c4d9-465d-9bf0-aa85c3aefd9e","system_id":"levelo_inurba_marseille","lat":43.26489,"lon":5.39555,"is_reserved":false,"is_disabled":false,"rental_uris":{"android":"levelo://app?vid=2e2d75f9-c4d9-465d-9bf0-aa85c3aefd9e","ios":"levelo://app?vid=2e2d75f9-c4d9-465d-9bf0-aa85c3aefd9e"},"vehicle_type_id":"4","last_reported":1726038534,"current_range_meters":25600,"station_id":"ce4bhi12rcd13ifvqfq0","pricing_plan_id":"cebpf4jnsgd1na2vs0mg"},{"bike_id":"d3c8ea6e-d01d-4d9e-9557-beffc1884ace","system_id":"levelo_inurba_marseille","lat":43.32286,"lon":5.38278,"is_reserved":false,"is_disabled":false,"rental_uris":{"android":"levelo://app?vid=d3c8ea6e-d01d-4d9e-9557-beffc1884ace","ios":"levelo://app?vid=d3c8ea6e-d01d-4d9e-9557-beffc1884ace"},"vehicle_type_id":"4","last_reported":1726038534,"current_range_meters":38800,"station_id":"ce4bhr12rcd13ifvqhqg","pricing_plan_id":"cebpf4jnsgd1na2vs0mg"},{"bike_id":"e7389cbb-9c79-4497-bb1b-155f416d24da","system_id":"levelo_inurba_marseille","lat":43.31362,"lon":5.3849,"is_reserved":false,"is_disabled":false,"rental_uris":{"android":"levelo://app?vid=e7389cbb-9c79-4497-bb1b-155f416d24da","ios":"levelo://app?vid=e7389cbb-9c79-4497-bb1b-155f416d24da"},"vehicle_type_id":"4","last_reported":1726038534,"current_range_meters":34000,"station_id":"ce4bgt92rcd13ifvqcf0","pricing_plan_id":"cebpf4jnsgd1na2vs0mg"},{"bike_id":"2f886a15-37e4-4dad-86c7-a7a6746278bd","system_id":"levelo_inurba_marseille","lat":43.25943,"lon":5.40894,"is_reserved":false,"is_disabled":false,"rental_uris":{"android":"levelo://app?vid=2f886a15-37e4-4dad-86c7-a7a6746278bd","ios":"levelo://app?vid=2f886a15-37e4-4dad-86c7-a7a6746278bd"},"vehicle_type_id":"4","last_reported":1726038534,"current_range_meters":8800,"station_id":"ce4bhm92rcd13ifvqglg","pricing_plan_id":"cebpf4jnsgd1na2vs0mg"},{"bike_id":"9a795f40-a383-4eb9-aaa3-2d65ccd4654d","system_id":"levelo_inurba_marseille","lat":43.28936,"lon":5.36642,"is_reserved":false,"is_disabled":false,"rental_uris":{"android":"levelo://app?vid=9a795f40-a383-4eb9-aaa3-2d65ccd4654d","ios":"levelo://app?vid=9a795f40-a383-4eb9-aaa3-2d65ccd4654d"},"vehicle_type_id":"4","last_reported":1726038534,"current_range_meters":4400,"station_id":"ce4bhap2rcd13ifvqek0","pricing_plan_id":"cebpf4jnsgd1na2vs0mg"},{"bike_id":"c51c8f7e-bcf2-42f2-94c6-3e415993eea6","system_id":"levelo_inurba_marseille","lat":43.30147,"lon":5.37414,"is_reserved":false,"is_disabled":false,"rental_uris":{"android":"levelo://app?vid=c51c8f7e-bcf2-42f2-94c6-3e415993eea6","ios":"levelo://app?vid=c51c8f7e-bcf2-42f2-94c6-3e415993eea6"},"vehicle_type_id":"4","last_reported":1726038534,"current_range_meters":25200,"station_id":"ce4bgs92rcd13ifvqcc0","pricing_plan_id":"cebpf4jnsgd1na2vs0mg"},{"bike_id":"532d53c7-e79f-4f48-a531-5cde729796db","system_id":"levelo_inurba_marseille","lat":43.26955,"lon":5.38628,"is_reserved":false,"is_disabled":false,"rental_uris":{"android":"levelo://app?vid=532d53c7-e79f-4f48-a531-5cde729796db","ios":"levelo://app?vid=532d53c7-e79f-4f48-a531-5cde729796db"},"vehicle_type_id":"4","last_reported":1726038534,"current_range_meters":23200,"station_id":"ce4bhh92rcd13ifvqfh0","pricing_plan_id":"cebpf4jnsgd1na2vs0mg"},{"bike_id":"d808c1df-3dce-4540-9468-f94ffa8c7e6f","system_id":"levelo_inurba_marseille","lat":43.266761,"lon":5.382613,"is_reserved":false,"is_disabled":false,"rental_uris":{"android":"levelo://app?vid=d808c1df-3dce-4540-9468-f94ffa8c7e6f","ios":"levelo://app?vid=d808c1df-3dce-4540-9468-f94ffa8c7e6f"},"vehicle_type_id":"4","last_reported":1726038534,"current_range_meters":8400,"station_id":"ce4bhg92rcd13ifvqf90","pricing_plan_id":"cebpf4jnsgd1na2vs0mg"},{"bike_id":"24ea4db4-bcd3-4773-a10c-e0451f1c0df9","system_id":"levelo_inurba_marseille","lat":43.28043,"lon":5.36946,"is_reserved":false,"is_disabled":false,"rental_uris":{"android":"levelo://app?vid=24ea4db4-bcd3-4773-a10c-e0451f1c0df9","ios":"levelo://app?vid=24ea4db4-bcd3-4773-a10c-e0451f1c0df9"},"vehicle_type_id":"4","last_reported":1726038534,"current_range_meters":35200,"station_id":"ce4bha12rcd13ifvqef0","pricing_plan_id":"cebpf4jnsgd1na2vs0mg"},{"bike_id":"b28a5ccd-a007-4e36-9dac-6251dabefb91","system_id":"levelo_inurba_marseille","lat":43.33607,"lon":5.41031,"is_reserved":false,"is_disabled":false,"rental_uris":{"android":"levelo://app?vid=b28a5ccd-a007-4e36-9dac-6251dabefb91","ios":"levelo://app?vid=b28a5ccd-a007-4e36-9dac-6251dabefb91"},"vehicle_type_id":"4","last_reported":1726038534,"current_range_meters":30400,"station_id":"ce4bhqh2rcd13ifvqhmg","pricing_plan_id":"cebpf4jnsgd1na2vs0mg"},{"bike_id":"37d8c39f-1cdd-4f24-9274-2d093441df6e","system_id":"levelo_inurba_marseille","lat":43.31226,"lon":5.36846,"is_reserved":false,"is_disabled":false,"rental_uris":{"android":"levelo://app?vid=37d8c39f-1cdd-4f24-9274-2d093441df6e","ios":"levelo://app?vid=37d8c39f-1cdd-4f24-9274-2d093441df6e"},"vehicle_type_id":"4","last_reported":1726038534,"current_range_meters":30800,"station_id":"","pricing_plan_id":"cebpf4jnsgd1na2vs0mg"},{"bike_id":"36e02e03-11f3-41ac-9b0f-93c4017adc48","system_id":"levelo_inurba_marseille","lat":43.27346,"lon":5.41592,"is_reserved":false,"is_disabled":false,"rental_uris":{"android":"levelo://app?vid=36e02e03-11f3-41ac-9b0f-93c4017adc48","ios":"levelo://app?vid=36e02e03-11f3-41ac-9b0f-93c4017adc48"},"vehicle_type_id":"4","last_reported":1726038534,"current_range_meters":2000,"station_id":"ce4bhl12rcd13ifvqgf0","pricing_plan_id":"cebpf4jnsgd1na2vs0mg"},{"bike_id":"3db616b0-5520-4918-bfd5-c50674f17186","system_id":"levelo_inurba_marseille","lat":43.31698,"lon":5.40464,"is_reserved":false,"is_disabled":false,"rental_uris":{"android":"levelo://app?vid=3db616b0-5520-4918-bfd5-c50674f17186","ios":"levelo://app?vid=3db616b0-5520-4918-bfd5-c50674f17186"},"vehicle_type_id":"4","last_reported":1726038534,"current_range_meters":30800,"station_id":"ce4bh012rcd13ifvqd00","pricing_plan_id":"cebpf4jnsgd1na2vs0mg"},{"bike_id":"08ccdf55-d2f4-4005-846f-72a69494905d","system_id":"levelo_inurba_marseille","lat":43.336104,"lon":5.410387,"is_reserved":false,"is_disabled":false,"rental_uris":{"android":"levelo://app?vid=08ccdf55-d2f4-4005-846f-72a69494905d","ios":"levelo://app?vid=08ccdf55-d2f4-4005-846f-72a69494905d"},"vehicle_type_id":"4","last_reported":1726038534,"current_range_meters":21600,"station_id":"ce4bhqh2rcd13ifvqhmg","pricing_plan_id":"cebpf4jnsgd1na2vs0mg"},{"bike_id":"ba7ededa-e78d-4500-9282-cfbae8d9b971","system_id":"levelo_inurba_marseille","lat":43.30145,"lon":5.37399,"is_reserved":false,"is_disabled":false,"rental_uris":{"android":"levelo://app?vid=ba7ededa-e78d-4500-9282-cfbae8d9b971","ios":"levelo://app?vid=ba7ededa-e78d-4500-9282-cfbae8d9b971"},"vehicle_type_id":"4","last_reported":1726038534,"current_range_meters":9600,"station_id":"ce4bgs92rcd13ifvqcc0","pricing_plan_id":"cebpf4jnsgd1na2vs0mg"},{"bike_id":"741d5534-ed42-4703-b198-0caa1ad17c49","system_id":"levelo_inurba_marseille","lat":43.3169,"lon":5.40477,"is_reserved":false,"is_disabled":false,"rental_uris":{"android":"levelo://app?vid=741d5534-ed42-4703-b198-0caa1ad17c49","ios":"levelo://app?vid=741d5534-ed42-4703-b198-0caa1ad17c49"},"vehicle_type_id":"4","last_reported":1726038534,"current_range_meters":33600,"station_id":"ce4bh012rcd13ifvqd00","pricing_plan_id":"cebpf4jnsgd1na2vs0mg"},{"bike_id":"6ad204f6-e000-404e-9782-e42e08e65f86","system_id":"levelo_inurba_marseille","lat":43.25727,"lon":5.41104,"is_reserved":false,"is_disabled":false,"rental_uris":{"android":"levelo://app?vid=6ad204f6-e000-404e-9782-e42e08e65f86","ios":"levelo://app?vid=6ad204f6-e000-404e-9782-e42e08e65f86"},"vehicle_type_id":"4","last_reported":1726038534,"current_range_meters":38400,"station_id":"ce4bhkp2rcd13ifvqgd0","pricing_plan_id":"cebpf4jnsgd1na2vs0mg"},{"bike_id":"3ad1c0b7-cf14-40ac-a119-2362e08acbad","system_id":"levelo_inurba_marseille","lat":43.30462,"lon":5.37898,"is_reserved":false,"is_disabled":false,"rental_uris":{"android":"levelo://app?vid=3ad1c0b7-cf14-40ac-a119-2362e08acbad","ios":"levelo://app?vid=3ad1c0b7-cf14-40ac-a119-2362e08acbad"},"vehicle_type_id":"4","last_reported":1726038534,"current_range_meters":37600,"station_id":"ce4bgup2rcd13ifvqcn0","pricing_plan_id":"cebpf4jnsgd1na2vs0mg"},{"bike_id":"0575475f-5370-4c36-95ef-4c97dd6c11f7","system_id":"levelo_inurba_marseille","lat":43.3033,"lon":5.40427,"is_reserved":false,"is_disabled":false,"rental_uris":{"android":"levelo://app?vid=0575475f-5370-4c36-95ef-4c97dd6c11f7","ios":"levelo://app?vid=0575475f-5370-4c36-95ef-4c97dd6c11f7"},"vehicle_type_id":"4","last_reported":1726038534,"current_range_meters":20800,"station_id":"ce4bh012rcd13ifvqd10","pricing_plan_id":"cebpf4jnsgd1na2vs0mg"},{"bike_id":"5a3fd4a6-1755-465c-8d8f-1a84ddce9916","system_id":"levelo_inurba_marseille","lat":43.25005,"lon":5.38909,"is_reserved":false,"is_disabled":false,"rental_uris":{"android":"levelo://app?vid=5a3fd4a6-1755-465c-8d8f-1a84ddce9916","ios":"levelo://app?vid=5a3fd4a6-1755-465c-8d8f-1a84ddce9916"},"vehicle_type_id":"4","last_reported":1726038534,"current_range_meters":26800,"station_id":"ce4bhgp2rcd13ifvqfd0","pricing_plan_id":"cebpf4jnsgd1na2vs0mg"},{"bike_id":"da13a46c-41f2-424e-b687-72ec7560f69d","system_id":"levelo_inurba_marseille","lat":43.26198,"lon":5.37929,"is_reserved":false,"is_disabled":false,"rental_uris":{"android":"levelo://app?vid=da13a46c-41f2-424e-b687-72ec7560f69d","ios":"levelo://app?vid=da13a46c-41f2-424e-b687-72ec7560f69d"},"vehicle_type_id":"4","last_reported":1726038534,"current_range_meters":33600,"station_id":"ce4bhjp2rcd13ifvqg90","pricing_plan_id":"cebpf4jnsgd1na2vs0mg"},{"bike_id":"15f10409-51fd-4935-8d9f-64cd1a619804","system_id":"levelo_inurba_marseille","lat":43.24085,"lon":5.37746,"is_reserved":false,"is_disabled":false,"rental_uris":{"android":"levelo://app?vid=15f10409-51fd-4935-8d9f-64cd1a619804","ios":"levelo://app?vid=15f10409-51fd-4935-8d9f-64cd1a619804"},"vehicle_type_id":"4","last_reported":1726038534,"current_range_meters":14400,"station_id":"ce4bhnp2rcd13ifvqgvg","pricing_plan_id":"cebpf4jnsgd1na2vs0mg"},{"bike_id":"f9fbfbb8-1db7-4121-8536-60fa723d2bf3","system_id":"levelo_inurba_marseille","lat":43.25581,"lon":5.38236,"is_reserved":false,"is_disabled":false,"rental_uris":{"android":"levelo://app?vid=f9fbfbb8-1db7-4121-8536-60fa723d2bf3","ios":"levelo://app?vid=f9fbfbb8-1db7-4121-8536-60fa723d2bf3"},"vehicle_type_id":"4","last_reported":1726038534,"current_range_meters":32400,"station_id":"ce4bhih2rcd13ifvqfs0","pricing_plan_id":"cebpf4jnsgd1na2vs0mg"},{"bike_id":"1a4a1740-fdad-4f70-8d6b-3bbdf765a312","system_id":"levelo_inurba_marseille","lat":43.24545,"lon":5.39519,"is_reserved":false,"is_disabled":false,"rental_uris":{"android":"levelo://app?vid=1a4a1740-fdad-4f70-8d6b-3bbdf765a312","ios":"levelo://app?vid=1a4a1740-fdad-4f70-8d6b-3bbdf765a312"},"vehicle_type_id":"4","last_reported":1726038534,"current_range_meters":26800,"station_id":"ce4bhlp2rcd13ifvqgjg","pricing_plan_id":"cebpf4jnsgd1na2vs0mg"},{"bike_id":"56a4fa88-c9bc-4c23-baa5-5224a2d16b28","system_id":"levelo_inurba_marseille","lat":43.25583,"lon":5.3822,"is_reserved":false,"is_disabled":false,"rental_uris":{"android":"levelo://app?vid=56a4fa88-c9bc-4c23-baa5-5224a2d16b28","ios":"levelo://app?vid=56a4fa88-c9bc-4c23-baa5-5224a2d16b28"},"vehicle_type_id":"4","last_reported":1726038534,"current_range_meters":6800,"station_id":"ce4bhih2rcd13ifvqfs0","pricing_plan_id":"cebpf4jnsgd1na2vs0mg"},{"bike_id":"0cf4393d-de7a-4e10-8d86-c59233420309","system_id":"levelo_inurba_marseille","lat":43.27994,"lon":5.40019,"is_reserved":false,"is_disabled":false,"rental_uris":{"android":"levelo://app?vid=0cf4393d-de7a-4e10-8d86-c59233420309","ios":"levelo://app?vid=0cf4393d-de7a-4e10-8d86-c59233420309"},"vehicle_type_id":"4","last_reported":1726038534,"current_range_meters":38800,"station_id":"ce4bho92rcd13ifvqh4g","pricing_plan_id":"cebpf4jnsgd1na2vs0mg"},{"bike_id":"3284e331-b9f8-4159-8289-1afee059d4fd","system_id":"levelo_inurba_marseille","lat":43.3254,"lon":5.41437,"is_reserved":false,"is_disabled":false,"rental_uris":{"android":"levelo://app?vid=3284e331-b9f8-4159-8289-1afee059d4fd","ios":"levelo://app?vid=3284e331-b9f8-4159-8289-1afee059d4fd"},"vehicle_type_id":"4","last_reported":1726038534,"current_range_meters":16400,"station_id":"ce4bhq12rcd13ifvqhhg","pricing_plan_id":"cebpf4jnsgd1na2vs0mg"},{"bike_id":"e7f1ce34-711f-4386-95b9-fe5f61acdbcc","system_id":"levelo_inurba_marseille","lat":43.27376,"lon":5.36249,"is_reserved":false,"is_disabled":false,"rental_uris":{"android":"levelo://app?vid=e7f1ce34-711f-4386-95b9-fe5f61acdbcc","ios":"levelo://app?vid=e7f1ce34-711f-4386-95b9-fe5f61acdbcc"},"vehicle_type_id":"4","last_reported":1726038534,"current_range_meters":32800,"station_id":"ce4bhbh2rcd13ifvqeo0","pricing_plan_id":"cebpf4jnsgd1na2vs0mg"},{"bike_id":"5876c5ef-9fac-478d-bd3c-ea1780c21005","system_id":"levelo_inurba_marseille","lat":43.33755,"lon":5.37446,"is_reserved":false,"is_disabled":false,"rental_uris":{"android":"levelo://app?vid=5876c5ef-9fac-478d-bd3c-ea1780c21005","ios":"levelo://app?vid=5876c5ef-9fac-478d-bd3c-ea1780c21005"},"vehicle_type_id":"4","last_reported":1726038534,"current_range_meters":36800,"station_id":"","pricing_plan_id":"cebpf4jnsgd1na2vs0mg"},{"bike_id":"3ef293cb-6b10-47c2-a61b-1c747b67c2aa","system_id":"levelo_inurba_marseille","lat":43.22929,"lon":5.35378,"is_reserved":false,"is_disabled":false,"rental_uris":{"android":"levelo://app?vid=3ef293cb-6b10-47c2-a61b-1c747b67c2aa","ios":"levelo://app?vid=3ef293cb-6b10-47c2-a61b-1c747b67c2aa"},"vehicle_type_id":"4","last_reported":1726038534,"current_range_meters":36400,"station_id":"cpo3532slgdg3j2ikp40","pricing_plan_id":"cebpf4jnsgd1na2vs0mg"},{"bike_id":"9658173f-729f-44c0-b272-df35fcc2e649","system_id":"levelo_inurba_marseille","lat":43.34141,"lon":5.40906,"is_reserved":false,"is_disabled":false,"rental_uris":{"android":"levelo://app?vid=9658173f-729f-44c0-b272-df35fcc2e649","ios":"levelo://app?vid=9658173f-729f-44c0-b272-df35fcc2e649"},"vehicle_type_id":"4","last_reported":1726038534,"current_range_meters":31200,"station_id":"ce4bhqh2rcd13ifvqhlg","pricing_plan_id":"cebpf4jnsgd1na2vs0mg"},{"bike_id":"4a11d9fd-40e4-4144-a2c5-79cfa49f7d0e","system_id":"levelo_inurba_marseille","lat":43.304644,"lon":5.379097,"is_reserved":false,"is_disabled":false,"rental_uris":{"android":"levelo://app?vid=4a11d9fd-40e4-4144-a2c5-79cfa49f7d0e","ios":"levelo://app?vid=4a11d9fd-40e4-4144-a2c5-79cfa49f7d0e"},"vehicle_type_id":"4","last_reported":1726038534,"current_range_meters":32800,"station_id":"ce4bh512rcd13ifvqe3g","pricing_plan_id":"cebpf4jnsgd1na2vs0mg"},{"bike_id":"21c33059-a251-4ee3-8044-85e814a623b7","system_id":"levelo_inurba_marseille","lat":43.30969,"lon":5.37372,"is_reserved":false,"is_disabled":false,"rental_uris":{"android":"levelo://app?vid=21c33059-a251-4ee3-8044-85e814a623b7","ios":"levelo://app?vid=21c33059-a251-4ee3-8044-85e814a623b7"},"vehicle_type_id":"4","last_reported":1726038534,"current_range_meters":19600,"station_id":"","pricing_plan_id":"cebpf4jnsgd1na2vs0mg"},{"bike_id":"9d97c6b7-d5ff-4ca7-999e-9c4395e89c55","system_id":"levelo_inurba_marseille","lat":43.24071,"lon":5.37762,"is_reserved":false,"is_disabled":false,"rental_uris":{"android":"levelo://app?vid=9d97c6b7-d5ff-4ca7-999e-9c4395e89c55","ios":"levelo://app?vid=9d97c6b7-d5ff-4ca7-999e-9c4395e89c55"},"vehicle_type_id":"4","last_reported":1726038534,"current_range_meters":37600,"station_id":"ce4bhnp2rcd13ifvqgvg","pricing_plan_id":"cebpf4jnsgd1na2vs0mg"},{"bike_id":"009d3b65-00a9-4737-8d68-fc0e9d0883ee","system_id":"levelo_inurba_marseille","lat":43.3046,"lon":5.37906,"is_reserved":false,"is_disabled":false,"rental_uris":{"android":"levelo://app?vid=009d3b65-00a9-4737-8d68-fc0e9d0883ee","ios":"levelo://app?vid=009d3b65-00a9-4737-8d68-fc0e9d0883ee"},"vehicle_type_id":"4","last_reported":1726038534,"current_range_meters":26000,"station_id":"ce4bgup2rcd13ifvqcn0","pricing_plan_id":"cebpf4jnsgd1na2vs0mg"},{"bike_id":"d30c0660-787a-4f4f-b4b0-e0cbcc67c31d","system_id":"levelo_inurba_marseille","lat":43.33758,"lon":5.37424,"is_reserved":false,"is_disabled":false,"rental_uris":{"android":"levelo://app?vid=d30c0660-787a-4f4f-b4b0-e0cbcc67c31d","ios":"levelo://app?vid=d30c0660-787a-4f4f-b4b0-e0cbcc67c31d"},"vehicle_type_id":"4","last_reported":1726038534,"current_range_meters":14400,"station_id":"","pricing_plan_id":"cebpf4jnsgd1na2vs0mg"},{"bike_id":"7abb3655-b461-4e13-bc97-8c353f282d6b","system_id":"levelo_inurba_marseille","lat":43.23189,"lon":5.39979,"is_reserved":false,"is_disabled":false,"rental_uris":{"android":"levelo://app?vid=7abb3655-b461-4e13-bc97-8c353f282d6b","ios":"levelo://app?vid=7abb3655-b461-4e13-bc97-8c353f282d6b"},"vehicle_type_id":"4","last_reported":1726038534,"current_range_meters":6000,"station_id":"ce4bhn12rcd13ifvqgqg","pricing_plan_id":"cebpf4jnsgd1na2vs0mg"},{"bike_id":"717f8f0d-25f4-451f-8cde-f8d4a50b20ac","system_id":"levelo_inurba_marseille","lat":43.27311,"lon":5.39099,"is_reserved":false,"is_disabled":false,"rental_uris":{"android":"levelo://app?vid=717f8f0d-25f4-451f-8cde-f8d4a50b20ac","ios":"levelo://app?vid=717f8f0d-25f4-451f-8cde-f8d4a50b20ac"},"vehicle_type_id":"4","last_reported":1726038534,"current_range_meters":6400,"station_id":"ce4bhgp2rcd13ifvqfe0","pricing_plan_id":"cebpf4jnsgd1na2vs0mg"},{"bike_id":"b0275aa5-5a60-47e5-b417-e66c5c398811","system_id":"levelo_inurba_marseille","lat":43.32487,"lon":5.36567,"is_reserved":false,"is_disabled":false,"rental_uris":{"android":"levelo://app?vid=b0275aa5-5a60-47e5-b417-e66c5c398811","ios":"levelo://app?vid=b0275aa5-5a60-47e5-b417-e66c5c398811"},"vehicle_type_id":"4","last_reported":1726038534,"current_range_meters":17600,"station_id":"ce4bhs12rcd13ifvqhvg","pricing_plan_id":"cebpf4jnsgd1na2vs0mg"},{"bike_id":"388a346e-87a0-486d-ad8f-d2c121c4f188","system_id":"levelo_inurba_marseille","lat":43.280181,"lon":5.394041,"is_reserved":false,"is_disabled":false,"rental_uris":{"android":"levelo://app?vid=388a346e-87a0-486d-ad8f-d2c121c4f188","ios":"levelo://app?vid=388a346e-87a0-486d-ad8f-d2c121c4f188"},"vehicle_type_id":"4","last_reported":1726038534,"current_range_meters":31200,"station_id":"ce4bhg12rcd13ifvqf80","pricing_plan_id":"cebpf4jnsgd1na2vs0mg"},{"bike_id":"80fbad51-0a3b-4bd2-8a8f-5d4c68b18d1f","system_id":"levelo_inurba_marseille","lat":43.25581,"lon":5.38233,"is_reserved":false,"is_disabled":false,"rental_uris":{"android":"levelo://app?vid=80fbad51-0a3b-4bd2-8a8f-5d4c68b18d1f","ios":"levelo://app?vid=80fbad51-0a3b-4bd2-8a8f-5d4c68b18d1f"},"vehicle_type_id":"4","last_reported":1726038534,"current_range_meters":20400,"station_id":"ce4bhih2rcd13ifvqfs0","pricing_plan_id":"cebpf4jnsgd1na2vs0mg"},{"bike_id":"09a7a1ad-315d-4983-a6e2-a22d1208f337","system_id":"levelo_inurba_marseille","lat":43.27325,"lon":5.39097,"is_reserved":false,"is_disabled":false,"rental_uris":{"android":"levelo://app?vid=09a7a1ad-315d-4983-a6e2-a22d1208f337","ios":"levelo://app?vid=09a7a1ad-315d-4983-a6e2-a22d1208f337"},"vehicle_type_id":"4","last_reported":1726038534,"current_range_meters":37600,"station_id":"ce4bhgp2rcd13ifvqfe0","pricing_plan_id":"cebpf4jnsgd1na2vs0mg"},{"bike_id":"2d0e238a-215e-4dcd-9966-2d7cad99b184","system_id":"levelo_inurba_marseille","lat":43.27995,"lon":5.40011,"is_reserved":false,"is_disabled":false,"rental_uris":{"android":"levelo://app?vid=2d0e238a-215e-4dcd-9966-2d7cad99b184","ios":"levelo://app?vid=2d0e238a-215e-4dcd-9966-2d7cad99b184"},"vehicle_type_id":"4","last_reported":1726038534,"current_range_meters":34800,"station_id":"ce4bho92rcd13ifvqh4g","pricing_plan_id":"cebpf4jnsgd1na2vs0mg"},{"bike_id":"74153a2f-5c36-4b79-8bfb-5ed19dd22f51","system_id":"levelo_inurba_marseille","lat":43.3136,"lon":5.36732,"is_reserved":false,"is_disabled":false,"rental_uris":{"android":"levelo://app?vid=74153a2f-5c36-4b79-8bfb-5ed19dd22f51","ios":"levelo://app?vid=74153a2f-5c36-4b79-8bfb-5ed19dd22f51"},"vehicle_type_id":"4","last_reported":1726038534,"current_range_meters":35200,"station_id":"ce4bgr92rcd13ifvqc6g","pricing_plan_id":"cebpf4jnsgd1na2vs0mg"},{"bike_id":"ea819ce7-e7bf-48a2-ac96-42c69241eb83","system_id":"levelo_inurba_marseille","lat":43.29624,"lon":5.37163,"is_reserved":false,"is_disabled":false,"rental_uris":{"android":"levelo://app?vid=ea819ce7-e7bf-48a2-ac96-42c69241eb83","ios":"levelo://app?vid=ea819ce7-e7bf-48a2-ac96-42c69241eb83"},"vehicle_type_id":"4","last_reported":1726038534,"current_range_meters":34000,"station_id":"ce4bgnh2rcd13ifvqc0g","pricing_plan_id":"cebpf4jnsgd1na2vs0mg"},{"bike_id":"aba54961-8bd3-4503-ad38-db886dd7ee2c","system_id":"levelo_inurba_marseille","lat":43.29703,"lon":5.37711,"is_reserved":false,"is_disabled":false,"rental_uris":{"android":"levelo://app?vid=aba54961-8bd3-4503-ad38-db886dd7ee2c","ios":"levelo://app?vid=aba54961-8bd3-4503-ad38-db886dd7ee2c"},"vehicle_type_id":"4","last_reported":1726038534,"current_range_meters":26000,"station_id":"ce4bgkh2rcd13ifvqbl0","pricing_plan_id":"cebpf4jnsgd1na2vs0mg"},{"bike_id":"77a964c0-b975-4b9f-b619-ddf5dc543156","system_id":"levelo_inurba_marseille","lat":43.29791,"lon":5.37119,"is_reserved":false,"is_disabled":false,"rental_uris":{"android":"levelo://app?vid=77a964c0-b975-4b9f-b619-ddf5dc543156","ios":"levelo://app?vid=77a964c0-b975-4b9f-b619-ddf5dc543156"},"vehicle_type_id":"4","last_reported":1726038534,"current_range_meters":30000,"station_id":"ce4bgop2rcd13ifvqc1g","pricing_plan_id":"cebpf4jnsgd1na2vs0mg"},{"bike_id":"5722f385-0124-4bed-a8de-85c0d18d21ac","system_id":"levelo_inurba_marseille","lat":43.25941,"lon":5.40899,"is_reserved":false,"is_disabled":false,"rental_uris":{"android":"levelo://app?vid=5722f385-0124-4bed-a8de-85c0d18d21ac","ios":"levelo://app?vid=5722f385-0124-4bed-a8de-85c0d18d21ac"},"vehicle_type_id":"4","last_reported":1726038534,"current_range_meters":30000,"station_id":"ce4bhm92rcd13ifvqglg","pricing_plan_id":"cebpf4jnsgd1na2vs0mg"},{"bike_id":"cd82fa41-b636-4841-a4ad-36cab80eb359","system_id":"levelo_inurba_marseille","lat":43.24072,"lon":5.37754,"is_reserved":false,"is_disabled":false,"rental_uris":{"android":"levelo://app?vid=cd82fa41-b636-4841-a4ad-36cab80eb359","ios":"levelo://app?vid=cd82fa41-b636-4841-a4ad-36cab80eb359"},"vehicle_type_id":"4","last_reported":1726038534,"current_range_meters":24000,"station_id":"ce4bhnp2rcd13ifvqgvg","pricing_plan_id":"cebpf4jnsgd1na2vs0mg"},{"bike_id":"a96b35a2-6539-4ad3-a385-682114851a42","system_id":"levelo_inurba_marseille","lat":43.262929,"lon":5.402702,"is_reserved":false,"is_disabled":false,"rental_uris":{"android":"levelo://app?vid=a96b35a2-6539-4ad3-a385-682114851a42","ios":"levelo://app?vid=a96b35a2-6539-4ad3-a385-682114851a42"},"vehicle_type_id":"4","last_reported":1726038534,"current_range_meters":30800,"station_id":"","pricing_plan_id":"cebpf4jnsgd1na2vs0mg"},{"bike_id":"0bb70059-2f60-459a-b180-cf1d0d83d44f","system_id":"levelo_inurba_marseille","lat":43.27988,"lon":5.41655,"is_reserved":false,"is_disabled":false,"rental_uris":{"android":"levelo://app?vid=0bb70059-2f60-459a-b180-cf1d0d83d44f","ios":"levelo://app?vid=0bb70059-2f60-459a-b180-cf1d0d83d44f"},"vehicle_type_id":"4","last_reported":1726038534,"current_range_meters":3200,"station_id":"ce4bho12rcd13ifvqh1g","pricing_plan_id":"cebpf4jnsgd1na2vs0mg"},{"bike_id":"ebeef02f-c695-4f9f-9930-c590cc656bf6","system_id":"levelo_inurba_marseille","lat":43.28364,"lon":5.38624,"is_reserved":false,"is_disabled":false,"rental_uris":{"android":"levelo://app?vid=ebeef02f-c695-4f9f-9930-c590cc656bf6","ios":"levelo://app?vid=ebeef02f-c695-4f9f-9930-c590cc656bf6"},"vehicle_type_id":"4","last_reported":1726038534,"current_range_meters":30800,"station_id":"ce4bh492rcd13ifvqdvg","pricing_plan_id":"cebpf4jnsgd1na2vs0mg"},{"bike_id":"1a1d14f1-7cb5-498f-a2fa-249b84683464","system_id":"levelo_inurba_marseille","lat":43.304324,"lon":5.367439,"is_reserved":false,"is_disabled":false,"rental_uris":{"android":"levelo://app?vid=1a1d14f1-7cb5-498f-a2fa-249b84683464","ios":"levelo://app?vid=1a1d14f1-7cb5-498f-a2fa-249b84683464"},"vehicle_type_id":"4","last_reported":1726038534,"current_range_meters":34000,"station_id":"","pricing_plan_id":"cebpf4jnsgd1na2vs0mg"},{"bike_id":"d5b556f9-7894-4958-be4d-3a1142e0906e","system_id":"levelo_inurba_marseille","lat":43.30144,"lon":5.37424,"is_reserved":false,"is_disabled":false,"rental_uris":{"android":"levelo://app?vid=d5b556f9-7894-4958-be4d-3a1142e0906e","ios":"levelo://app?vid=d5b556f9-7894-4958-be4d-3a1142e0906e"},"vehicle_type_id":"4","last_reported":1726038534,"current_range_meters":25600,"station_id":"ce4bgs92rcd13ifvqcc0","pricing_plan_id":"cebpf4jnsgd1na2vs0mg"},{"bike_id":"de8b0f22-3b1d-4d6e-a9da-a0700d5a348e","system_id":"levelo_inurba_marseille","lat":43.27322,"lon":5.39089,"is_reserved":false,"is_disabled":false,"rental_uris":{"android":"levelo://app?vid=de8b0f22-3b1d-4d6e-a9da-a0700d5a348e","ios":"levelo://app?vid=de8b0f22-3b1d-4d6e-a9da-a0700d5a348e"},"vehicle_type_id":"4","last_reported":1726038534,"current_range_meters":38400,"station_id":"ce4bhgp2rcd13ifvqfe0","pricing_plan_id":"cebpf4jnsgd1na2vs0mg"},{"bike_id":"f3e09029-e952-48e6-8aff-b1e72566ae98","system_id":"levelo_inurba_marseille","lat":43.306458,"lon":5.40103,"is_reserved":false,"is_disabled":false,"rental_uris":{"android":"levelo://app?vid=f3e09029-e952-48e6-8aff-b1e72566ae98","ios":"levelo://app?vid=f3e09029-e952-48e6-8aff-b1e72566ae98"},"vehicle_type_id":"4","last_reported":1726038534,"current_range_meters":8000,"station_id":"ce4bhq12rcd13ifvqhhg","pricing_plan_id":"cebpf4jnsgd1na2vs0mg"},{"bike_id":"95b66875-4347-4f7e-bb6f-c326ae0b5674","system_id":"levelo_inurba_marseille","lat":43.304602,"lon":5.379151,"is_reserved":false,"is_disabled":false,"rental_uris":{"android":"levelo://app?vid=95b66875-4347-4f7e-bb6f-c326ae0b5674","ios":"levelo://app?vid=95b66875-4347-4f7e-bb6f-c326ae0b5674"},"vehicle_type_id":"4","last_reported":1726038534,"current_range_meters":4000,"station_id":"ce4bgup2rcd13ifvqcn0","pricing_plan_id":"cebpf4jnsgd1na2vs0mg"},{"bike_id":"c8e0fcb6-1d3f-4d83-b861-1f56e6b3ab2c","system_id":"levelo_inurba_marseille","lat":43.32282,"lon":5.3827,"is_reserved":false,"is_disabled":false,"rental_uris":{"android":"levelo://app?vid=c8e0fcb6-1d3f-4d83-b861-1f56e6b3ab2c","ios":"levelo://app?vid=c8e0fcb6-1d3f-4d83-b861-1f56e6b3ab2c"},"vehicle_type_id":"4","last_reported":1726038534,"current_range_meters":32800,"station_id":"ce4bhr12rcd13ifvqhqg","pricing_plan_id":"cebpf4jnsgd1na2vs0mg"},{"bike_id":"f8f6cfc1-dcc0-4116-a9c1-25e11afa8dcc","system_id":"levelo_inurba_marseille","lat":43.31342,"lon":5.36736,"is_reserved":false,"is_disabled":false,"rental_uris":{"android":"levelo://app?vid=f8f6cfc1-dcc0-4116-a9c1-25e11afa8dcc","ios":"levelo://app?vid=f8f6cfc1-dcc0-4116-a9c1-25e11afa8dcc"},"vehicle_type_id":"4","last_reported":1726038534,"current_range_meters":14000,"station_id":"ce4bgr92rcd13ifvqc6g","pricing_plan_id":"cebpf4jnsgd1na2vs0mg"},{"bike_id":"ced7f5c0-0351-4dfa-82a8-09f3c9b706b7","system_id":"levelo_inurba_marseille","lat":43.30186,"lon":5.36597,"is_reserved":false,"is_disabled":false,"rental_uris":{"android":"levelo://app?vid=ced7f5c0-0351-4dfa-82a8-09f3c9b706b7","ios":"levelo://app?vid=ced7f5c0-0351-4dfa-82a8-09f3c9b706b7"},"vehicle_type_id":"4","last_reported":1726038534,"current_range_meters":14400,"station_id":"ce4bgrh2rcd13ifvqc8g","pricing_plan_id":"cebpf4jnsgd1na2vs0mg"},{"bike_id":"33c39d1d-7dae-4444-8c41-c5ed72e67378","system_id":"levelo_inurba_marseille","lat":43.3046,"lon":5.37914,"is_reserved":false,"is_disabled":false,"rental_uris":{"android":"levelo://app?vid=33c39d1d-7dae-4444-8c41-c5ed72e67378","ios":"levelo://app?vid=33c39d1d-7dae-4444-8c41-c5ed72e67378"},"vehicle_type_id":"4","last_reported":1726038534,"current_range_meters":24800,"station_id":"ce4bgup2rcd13ifvqcn0","pricing_plan_id":"cebpf4jnsgd1na2vs0mg"},{"bike_id":"9a3b46d7-7efe-4e0e-8319-4aa5e0ea9bf2","system_id":"levelo_inurba_marseille","lat":43.30265,"lon":5.37725,"is_reserved":false,"is_disabled":false,"rental_uris":{"android":"levelo://app?vid=9a3b46d7-7efe-4e0e-8319-4aa5e0ea9bf2","ios":"levelo://app?vid=9a3b46d7-7efe-4e0e-8319-4aa5e0ea9bf2"},"vehicle_type_id":"4","last_reported":1726038534,"current_range_meters":30400,"station_id":"ce4bguh2rcd13ifvqcj0","pricing_plan_id":"cebpf4jnsgd1na2vs0mg"},{"bike_id":"917fd476-e3ba-4286-ac35-9bf959a5ce6c","system_id":"levelo_inurba_marseille","lat":43.2407,"lon":5.37751,"is_reserved":false,"is_disabled":false,"rental_uris":{"android":"levelo://app?vid=917fd476-e3ba-4286-ac35-9bf959a5ce6c","ios":"levelo://app?vid=917fd476-e3ba-4286-ac35-9bf959a5ce6c"},"vehicle_type_id":"4","last_reported":1726038534,"current_range_meters":16400,"station_id":"ce4bhnp2rcd13ifvqgvg","pricing_plan_id":"cebpf4jnsgd1na2vs0mg"},{"bike_id":"74e737b5-82b3-4055-9407-d70bde56ceed","system_id":"levelo_inurba_marseille","lat":43.313945,"lon":5.374128,"is_reserved":false,"is_disabled":false,"rental_uris":{"android":"levelo://app?vid=74e737b5-82b3-4055-9407-d70bde56ceed","ios":"levelo://app?vid=74e737b5-82b3-4055-9407-d70bde56ceed"},"vehicle_type_id":"4","last_reported":1726038534,"current_range_meters":34000,"station_id":"","pricing_plan_id":"cebpf4jnsgd1na2vs0mg"},{"bike_id":"9610f388-60c6-49bb-84bb-4ea91a1f925b","system_id":"levelo_inurba_marseille","lat":43.29551,"lon":5.42278,"is_reserved":false,"is_disabled":false,"rental_uris":{"android":"levelo://app?vid=9610f388-60c6-49bb-84bb-4ea91a1f925b","ios":"levelo://app?vid=9610f388-60c6-49bb-84bb-4ea91a1f925b"},"vehicle_type_id":"4","last_reported":1726038534,"current_range_meters":6400,"station_id":"ce4bhph2rcd13ifvqhdg","pricing_plan_id":"cebpf4jnsgd1na2vs0mg"},{"bike_id":"b979827e-ffa2-4465-8490-36166590de00","system_id":"levelo_inurba_marseille","lat":43.24069,"lon":5.37765,"is_reserved":false,"is_disabled":false,"rental_uris":{"android":"levelo://app?vid=b979827e-ffa2-4465-8490-36166590de00","ios":"levelo://app?vid=b979827e-ffa2-4465-8490-36166590de00"},"vehicle_type_id":"4","last_reported":1726038534,"current_range_meters":36000,"station_id":"ce4bhnp2rcd13ifvqgvg","pricing_plan_id":"cebpf4jnsgd1na2vs0mg"},{"bike_id":"19d5e365-10b9-4743-b125-03759b9d0bc7","system_id":"levelo_inurba_marseille","lat":43.25496,"lon":5.37641,"is_reserved":false,"is_disabled":false,"rental_uris":{"android":"levelo://app?vid=19d5e365-10b9-4743-b125-03759b9d0bc7","ios":"levelo://app?vid=19d5e365-10b9-4743-b125-03759b9d0bc7"},"vehicle_type_id":"4","last_reported":1726038534,"current_range_meters":3600,"station_id":"ce4bhh12rcd13ifvqff0","pricing_plan_id":"cebpf4jnsgd1na2vs0mg"},{"bike_id":"cbd47430-6678-4dfb-8022-31198711ea30","system_id":"levelo_inurba_marseille","lat":43.27489,"lon":5.42459,"is_reserved":false,"is_disabled":false,"rental_uris":{"android":"levelo://app?vid=cbd47430-6678-4dfb-8022-31198711ea30","ios":"levelo://app?vid=cbd47430-6678-4dfb-8022-31198711ea30"},"vehicle_type_id":"4","last_reported":1726038534,"current_range_meters":30000,"station_id":"ce4bhn92rcd13ifvqgrg","pricing_plan_id":"cebpf4jnsgd1na2vs0mg"},{"bike_id":"3e7d6579-011c-4e59-83ea-dab4e297703e","system_id":"levelo_inurba_marseille","lat":43.27492,"lon":5.42456,"is_reserved":false,"is_disabled":false,"rental_uris":{"android":"levelo://app?vid=3e7d6579-011c-4e59-83ea-dab4e297703e","ios":"levelo://app?vid=3e7d6579-011c-4e59-83ea-dab4e297703e"},"vehicle_type_id":"4","last_reported":1726038534,"current_range_meters":18800,"station_id":"ce4bhn92rcd13ifvqgrg","pricing_plan_id":"cebpf4jnsgd1na2vs0mg"},{"bike_id":"79c554e0-a5b3-40e4-a76f-e5d5a68a6672","system_id":"levelo_inurba_marseille","lat":43.30469,"lon":5.37915,"is_reserved":false,"is_disabled":false,"rental_uris":{"android":"levelo://app?vid=79c554e0-a5b3-40e4-a76f-e5d5a68a6672","ios":"levelo://app?vid=79c554e0-a5b3-40e4-a76f-e5d5a68a6672"},"vehicle_type_id":"4","last_reported":1726038534,"current_range_meters":32800,"station_id":"ce4bgup2rcd13ifvqcn0","pricing_plan_id":"cebpf4jnsgd1na2vs0mg"},{"bike_id":"aa9c2c5d-9213-49c0-84f0-e2f7706bf7e0","system_id":"levelo_inurba_marseille","lat":43.30906,"lon":5.36842,"is_reserved":false,"is_disabled":false,"rental_uris":{"android":"levelo://app?vid=aa9c2c5d-9213-49c0-84f0-e2f7706bf7e0","ios":"levelo://app?vid=aa9c2c5d-9213-49c0-84f0-e2f7706bf7e0"},"vehicle_type_id":"4","last_reported":1726038534,"current_range_meters":24400,"station_id":"ce4bgn92rcd13ifvqbvg","pricing_plan_id":"cebpf4jnsgd1na2vs0mg"},{"bike_id":"51e13f07-3491-4911-be5b-b4c992f74f41","system_id":"levelo_inurba_marseille","lat":43.27817,"lon":5.40718,"is_reserved":false,"is_disabled":false,"rental_uris":{"android":"levelo://app?vid=51e13f07-3491-4911-be5b-b4c992f74f41","ios":"levelo://app?vid=51e13f07-3491-4911-be5b-b4c992f74f41"},"vehicle_type_id":"4","last_reported":1726038534,"current_range_meters":27200,"station_id":"ce4bhnh2rcd13ifvqgtg","pricing_plan_id":"cebpf4jnsgd1na2vs0mg"},{"bike_id":"d71d5552-ba78-4933-8d87-9c52bd8ea092","system_id":"levelo_inurba_marseille","lat":43.29935,"lon":5.36544,"is_reserved":false,"is_disabled":false,"rental_uris":{"android":"levelo://app?vid=d71d5552-ba78-4933-8d87-9c52bd8ea092","ios":"levelo://app?vid=d71d5552-ba78-4933-8d87-9c52bd8ea092"},"vehicle_type_id":"4","last_reported":1726038534,"current_range_meters":20400,"station_id":"ce4bgm92rcd13ifvqbr0","pricing_plan_id":"cebpf4jnsgd1na2vs0mg"},{"bike_id":"5828ca84-6055-4b4f-b6cc-9dcb2c01f1b4","system_id":"levelo_inurba_marseille","lat":43.34143,"lon":5.4089,"is_reserved":false,"is_disabled":false,"rental_uris":{"android":"levelo://app?vid=5828ca84-6055-4b4f-b6cc-9dcb2c01f1b4","ios":"levelo://app?vid=5828ca84-6055-4b4f-b6cc-9dcb2c01f1b4"},"vehicle_type_id":"4","last_reported":1726038534,"current_range_meters":28400,"station_id":"ce4bhqh2rcd13ifvqhlg","pricing_plan_id":"cebpf4jnsgd1na2vs0mg"},{"bike_id":"626dbb3b-5c16-4b96-9456-2cd507c35f4c","system_id":"levelo_inurba_marseille","lat":43.26956,"lon":5.38629,"is_reserved":false,"is_disabled":false,"rental_uris":{"android":"levelo://app?vid=626dbb3b-5c16-4b96-9456-2cd507c35f4c","ios":"levelo://app?vid=626dbb3b-5c16-4b96-9456-2cd507c35f4c"},"vehicle_type_id":"4","last_reported":1726038534,"current_range_meters":30800,"station_id":"ce4bhh92rcd13ifvqfh0","pricing_plan_id":"cebpf4jnsgd1na2vs0mg"},{"bike_id":"174bf329-e4c0-410e-94ce-60c346786c99","system_id":"levelo_inurba_marseille","lat":43.33772,"lon":5.37467,"is_reserved":false,"is_disabled":false,"rental_uris":{"android":"levelo://app?vid=174bf329-e4c0-410e-94ce-60c346786c99","ios":"levelo://app?vid=174bf329-e4c0-410e-94ce-60c346786c99"},"vehicle_type_id":"4","last_reported":1726038534,"current_range_meters":36400,"station_id":"","pricing_plan_id":"cebpf4jnsgd1na2vs0mg"},{"bike_id":"4dfaeb16-4ad1-4c9d-bc8d-824173f80fbc","system_id":"levelo_inurba_marseille","lat":43.2407,"lon":5.3776,"is_reserved":false,"is_disabled":false,"rental_uris":{"android":"levelo://app?vid=4dfaeb16-4ad1-4c9d-bc8d-824173f80fbc","ios":"levelo://app?vid=4dfaeb16-4ad1-4c9d-bc8d-824173f80fbc"},"vehicle_type_id":"4","last_reported":1726038534,"current_range_meters":13600,"station_id":"ce4bhnp2rcd13ifvqgvg","pricing_plan_id":"cebpf4jnsgd1na2vs0mg"},{"bike_id":"f400d370-a20e-4ced-86f0-64f62510749c","system_id":"levelo_inurba_marseille","lat":43.3237,"lon":5.38926,"is_reserved":false,"is_disabled":false,"rental_uris":{"android":"levelo://app?vid=f400d370-a20e-4ced-86f0-64f62510749c","ios":"levelo://app?vid=f400d370-a20e-4ced-86f0-64f62510749c"},"vehicle_type_id":"4","last_reported":1726038534,"current_range_meters":14800,"station_id":"","pricing_plan_id":"cebpf4jnsgd1na2vs0mg"},{"bike_id":"88d02e52-7466-442c-a697-a70eac9f6e7e","system_id":"levelo_inurba_marseille","lat":43.31721,"lon":5.42395,"is_reserved":false,"is_disabled":false,"rental_uris":{"android":"levelo://app?vid=88d02e52-7466-442c-a697-a70eac9f6e7e","ios":"levelo://app?vid=88d02e52-7466-442c-a697-a70eac9f6e7e"},"vehicle_type_id":"4","last_reported":1726038534,"current_range_meters":9600,"station_id":"ce4bhp92rcd13ifvqhbg","pricing_plan_id":"cebpf4jnsgd1na2vs0mg"},{"bike_id":"2ecdada2-119e-4ebc-8cfa-5143edad5067","system_id":"levelo_inurba_marseille","lat":43.2318,"lon":5.39986,"is_reserved":false,"is_disabled":false,"rental_uris":{"android":"levelo://app?vid=2ecdada2-119e-4ebc-8cfa-5143edad5067","ios":"levelo://app?vid=2ecdada2-119e-4ebc-8cfa-5143edad5067"},"vehicle_type_id":"4","last_reported":1726038534,"current_range_meters":33600,"station_id":"ce4bhn12rcd13ifvqgqg","pricing_plan_id":"cebpf4jnsgd1na2vs0mg"},{"bike_id":"3406224d-0992-4b67-847f-e229def61da4","system_id":"levelo_inurba_marseille","lat":43.23965,"lon":5.36629,"is_reserved":false,"is_disabled":false,"rental_uris":{"android":"levelo://app?vid=3406224d-0992-4b67-847f-e229def61da4","ios":"levelo://app?vid=3406224d-0992-4b67-847f-e229def61da4"},"vehicle_type_id":"4","last_reported":1726038534,"current_range_meters":19600,"station_id":"ce4bhi12rcd13ifvqfp0","pricing_plan_id":"cebpf4jnsgd1na2vs0mg"},{"bike_id":"2d0d62b5-28eb-4533-970b-790f4f64cbbf","system_id":"levelo_inurba_marseille","lat":43.28713,"lon":5.37944,"is_reserved":false,"is_disabled":false,"rental_uris":{"android":"levelo://app?vid=2d0d62b5-28eb-4533-970b-790f4f64cbbf","ios":"levelo://app?vid=2d0d62b5-28eb-4533-970b-790f4f64cbbf"},"vehicle_type_id":"4","last_reported":1726038534,"current_range_meters":35200,"station_id":"ce4bh9p2rcd13ifvqec0","pricing_plan_id":"cebpf4jnsgd1na2vs0mg"},{"bike_id":"662f53c6-3511-4d32-a325-7f7f91a5144b","system_id":"levelo_inurba_marseille","lat":43.30548,"lon":5.36553,"is_reserved":false,"is_disabled":false,"rental_uris":{"android":"levelo://app?vid=662f53c6-3511-4d32-a325-7f7f91a5144b","ios":"levelo://app?vid=662f53c6-3511-4d32-a325-7f7f91a5144b"},"vehicle_type_id":"4","last_reported":1726038534,"current_range_meters":28000,"station_id":"ce4bgs12rcd13ifvqcag","pricing_plan_id":"cebpf4jnsgd1na2vs0mg"},{"bike_id":"4f98b9a6-3078-458b-b605-3b0ed6341dd8","system_id":"levelo_inurba_marseille","lat":43.287037,"lon":5.375093,"is_reserved":false,"is_disabled":false,"rental_uris":{"android":"levelo://app?vid=4f98b9a6-3078-458b-b605-3b0ed6341dd8","ios":"levelo://app?vid=4f98b9a6-3078-458b-b605-3b0ed6341dd8"},"vehicle_type_id":"4","last_reported":1726038534,"current_range_meters":30000,"station_id":"","pricing_plan_id":"cebpf4jnsgd1na2vs0mg"},{"bike_id":"20f50902-380e-403c-b839-453710f15317","system_id":"levelo_inurba_marseille","lat":43.27173,"lon":5.40987,"is_reserved":false,"is_disabled":false,"rental_uris":{"android":"levelo://app?vid=20f50902-380e-403c-b839-453710f15317","ios":"levelo://app?vid=20f50902-380e-403c-b839-453710f15317"},"vehicle_type_id":"4","last_reported":1726038534,"current_range_meters":38000,"station_id":"ce4bhl12rcd13ifvqgf0","pricing_plan_id":"cebpf4jnsgd1na2vs0mg"},{"bike_id":"5bcb6beb-074a-4003-a526-af0e599dffa7","system_id":"levelo_inurba_marseille","lat":43.30148,"lon":5.38076,"is_reserved":false,"is_disabled":false,"rental_uris":{"android":"levelo://app?vid=5bcb6beb-074a-4003-a526-af0e599dffa7","ios":"levelo://app?vid=5bcb6beb-074a-4003-a526-af0e599dffa7"},"vehicle_type_id":"4","last_reported":1726038534,"current_range_meters":27200,"station_id":"ce4bgjp2rcd13ifvqbh0","pricing_plan_id":"cebpf4jnsgd1na2vs0mg"},{"bike_id":"3fdfe0b5-f8c6-41d2-b514-1ae8af62830f","system_id":"levelo_inurba_marseille","lat":43.29259,"lon":5.38437,"is_reserved":false,"is_disabled":false,"rental_uris":{"android":"levelo://app?vid=3fdfe0b5-f8c6-41d2-b514-1ae8af62830f","ios":"levelo://app?vid=3fdfe0b5-f8c6-41d2-b514-1ae8af62830f"},"vehicle_type_id":"4","last_reported":1726038534,"current_range_meters":8000,"station_id":"ce4bh692rcd13ifvqea0","pricing_plan_id":"cebpf4jnsgd1na2vs0mg"},{"bike_id":"9171d867-d71c-43c3-a5ba-f4a3773cf8eb","system_id":"levelo_inurba_marseille","lat":43.30468,"lon":5.37898,"is_reserved":false,"is_disabled":false,"rental_uris":{"android":"levelo://app?vid=9171d867-d71c-43c3-a5ba-f4a3773cf8eb","ios":"levelo://app?vid=9171d867-d71c-43c3-a5ba-f4a3773cf8eb"},"vehicle_type_id":"4","last_reported":1726038534,"current_range_meters":2800,"station_id":"ce4bgup2rcd13ifvqcn0","pricing_plan_id":"cebpf4jnsgd1na2vs0mg"},{"bike_id":"e5ed0075-14c4-4d1d-a9af-a1ffecf526a7","system_id":"levelo_inurba_marseille","lat":43.29843,"lon":5.36265,"is_reserved":false,"is_disabled":false,"rental_uris":{"android":"levelo://app?vid=e5ed0075-14c4-4d1d-a9af-a1ffecf526a7","ios":"levelo://app?vid=e5ed0075-14c4-4d1d-a9af-a1ffecf526a7"},"vehicle_type_id":"4","last_reported":1726038534,"current_range_meters":24000,"station_id":"ce4bgpp2rcd13ifvqc3g","pricing_plan_id":"cebpf4jnsgd1na2vs0mg"},{"bike_id":"38b29daa-05a9-4468-b855-697ff9da1a2e","system_id":"levelo_inurba_marseille","lat":43.26953,"lon":5.38628,"is_reserved":false,"is_disabled":false,"rental_uris":{"android":"levelo://app?vid=38b29daa-05a9-4468-b855-697ff9da1a2e","ios":"levelo://app?vid=38b29daa-05a9-4468-b855-697ff9da1a2e"},"vehicle_type_id":"4","last_reported":1726038534,"current_range_meters":13600,"station_id":"ce4bhh92rcd13ifvqfh0","pricing_plan_id":"cebpf4jnsgd1na2vs0mg"},{"bike_id":"a63f94bf-60a1-4f59-8038-f901c7e66c95","system_id":"levelo_inurba_marseille","lat":43.295613,"lon":5.422942,"is_reserved":false,"is_disabled":false,"rental_uris":{"android":"levelo://app?vid=a63f94bf-60a1-4f59-8038-f901c7e66c95","ios":"levelo://app?vid=a63f94bf-60a1-4f59-8038-f901c7e66c95"},"vehicle_type_id":"4","last_reported":1726038534,"current_range_meters":27200,"station_id":"ce4bhph2rcd13ifvqhdg","pricing_plan_id":"cebpf4jnsgd1na2vs0mg"},{"bike_id":"5b361be6-fa67-4751-9e80-7bcb60a132d4","system_id":"levelo_inurba_marseille","lat":43.30463,"lon":5.37905,"is_reserved":false,"is_disabled":false,"rental_uris":{"android":"levelo://app?vid=5b361be6-fa67-4751-9e80-7bcb60a132d4","ios":"levelo://app?vid=5b361be6-fa67-4751-9e80-7bcb60a132d4"},"vehicle_type_id":"4","last_reported":1726038534,"current_range_meters":26000,"station_id":"ce4bgup2rcd13ifvqcn0","pricing_plan_id":"cebpf4jnsgd1na2vs0mg"},{"bike_id":"efb90d7e-2c7c-486d-95ca-2cb71fb25773","system_id":"levelo_inurba_marseille","lat":43.27489,"lon":5.42458,"is_reserved":false,"is_disabled":false,"rental_uris":{"android":"levelo://app?vid=efb90d7e-2c7c-486d-95ca-2cb71fb25773","ios":"levelo://app?vid=efb90d7e-2c7c-486d-95ca-2cb71fb25773"},"vehicle_type_id":"4","last_reported":1726038534,"current_range_meters":16800,"station_id":"ce4bhn92rcd13ifvqgrg","pricing_plan_id":"cebpf4jnsgd1na2vs0mg"},{"bike_id":"4936ca47-0c75-4037-aae7-a7b234f8348b","system_id":"levelo_inurba_marseille","lat":43.323375,"lon":5.406258,"is_reserved":false,"is_disabled":false,"rental_uris":{"android":"levelo://app?vid=4936ca47-0c75-4037-aae7-a7b234f8348b","ios":"levelo://app?vid=4936ca47-0c75-4037-aae7-a7b234f8348b"},"vehicle_type_id":"4","last_reported":1726038534,"current_range_meters":14400,"station_id":"ce4bhq92rcd13ifvqhjg","pricing_plan_id":"cebpf4jnsgd1na2vs0mg"},{"bike_id":"cec131b6-6c84-4899-9723-159f4b060af5","system_id":"levelo_inurba_marseille","lat":43.31694,"lon":5.37752,"is_reserved":false,"is_disabled":false,"rental_uris":{"android":"levelo://app?vid=cec131b6-6c84-4899-9723-159f4b060af5","ios":"levelo://app?vid=cec131b6-6c84-4899-9723-159f4b060af5"},"vehicle_type_id":"4","last_reported":1726038534,"current_range_meters":8400,"station_id":"ce4bgth2rcd13ifvqch0","pricing_plan_id":"cebpf4jnsgd1na2vs0mg"},{"bike_id":"a882960d-3ac7-4f77-bb51-aee566575fd6","system_id":"levelo_inurba_marseille","lat":43.27665,"lon":5.3888,"is_reserved":false,"is_disabled":false,"rental_uris":{"android":"levelo://app?vid=a882960d-3ac7-4f77-bb51-aee566575fd6","ios":"levelo://app?vid=a882960d-3ac7-4f77-bb51-aee566575fd6"},"vehicle_type_id":"4","last_reported":1726038534,"current_range_meters":37600,"station_id":"ce4bhi12rcd13ifvqfo0","pricing_plan_id":"cebpf4jnsgd1na2vs0mg"},{"bike_id":"2cfe9cf9-8c5e-4154-acba-0a54170b6cb3","system_id":"levelo_inurba_marseille","lat":43.25937,"lon":5.40902,"is_reserved":false,"is_disabled":false,"rental_uris":{"android":"levelo://app?vid=2cfe9cf9-8c5e-4154-acba-0a54170b6cb3","ios":"levelo://app?vid=2cfe9cf9-8c5e-4154-acba-0a54170b6cb3"},"vehicle_type_id":"4","last_reported":1726038534,"current_range_meters":8400,"station_id":"ce4bhm92rcd13ifvqglg","pricing_plan_id":"cebpf4jnsgd1na2vs0mg"},{"bike_id":"008685fb-3e4b-4a86-b668-f6b44233c388","system_id":"levelo_inurba_marseille","lat":43.25756,"lon":5.39309,"is_reserved":false,"is_disabled":false,"rental_uris":{"android":"levelo://app?vid=008685fb-3e4b-4a86-b668-f6b44233c388","ios":"levelo://app?vid=008685fb-3e4b-4a86-b668-f6b44233c388"},"vehicle_type_id":"4","last_reported":1726038534,"current_range_meters":3600,"station_id":"","pricing_plan_id":"cebpf4jnsgd1na2vs0mg"},{"bike_id":"61cf4a3a-2942-44a8-a346-1fbbdf1a4d5c","system_id":"levelo_inurba_marseille","lat":43.23154,"lon":5.43701,"is_reserved":false,"is_disabled":false,"rental_uris":{"android":"levelo://app?vid=61cf4a3a-2942-44a8-a346-1fbbdf1a4d5c","ios":"levelo://app?vid=61cf4a3a-2942-44a8-a346-1fbbdf1a4d5c"},"vehicle_type_id":"4","last_reported":1726038534,"current_range_meters":14400,"station_id":"ce4bhmp2rcd13ifvqgog","pricing_plan_id":"cebpf4jnsgd1na2vs0mg"},{"bike_id":"f9588990-7de1-4e0b-979b-31419c532106","system_id":"levelo_inurba_marseille","lat":43.28032,"lon":5.36939,"is_reserved":false,"is_disabled":false,"rental_uris":{"android":"levelo://app?vid=f9588990-7de1-4e0b-979b-31419c532106","ios":"levelo://app?vid=f9588990-7de1-4e0b-979b-31419c532106"},"vehicle_type_id":"4","last_reported":1726038534,"current_range_meters":10800,"station_id":"ce4bha12rcd13ifvqef0","pricing_plan_id":"cebpf4jnsgd1na2vs0mg"},{"bike_id":"ef05c3d8-4cc3-4df4-b421-e6da0624612c","system_id":"levelo_inurba_marseille","lat":43.28109,"lon":5.37835,"is_reserved":false,"is_disabled":false,"rental_uris":{"android":"levelo://app?vid=ef05c3d8-4cc3-4df4-b421-e6da0624612c","ios":"levelo://app?vid=ef05c3d8-4cc3-4df4-b421-e6da0624612c"},"vehicle_type_id":"4","last_reported":1726038534,"current_range_meters":28800,"station_id":"ce4bha12rcd13ifvqee0","pricing_plan_id":"cebpf4jnsgd1na2vs0mg"},{"bike_id":"ea547e96-58db-43e3-871c-6a5edbb3f391","system_id":"levelo_inurba_marseille","lat":43.27177,"lon":5.40979,"is_reserved":false,"is_disabled":false,"rental_uris":{"android":"levelo://app?vid=ea547e96-58db-43e3-871c-6a5edbb3f391","ios":"levelo://app?vid=ea547e96-58db-43e3-871c-6a5edbb3f391"},"vehicle_type_id":"4","last_reported":1726038534,"current_range_meters":39200,"station_id":"ce4bhl12rcd13ifvqgf0","pricing_plan_id":"cebpf4jnsgd1na2vs0mg"},{"bike_id":"0355e768-9837-4e19-b5cb-35a830899366","system_id":"levelo_inurba_marseille","lat":43.27495,"lon":5.42449,"is_reserved":false,"is_disabled":false,"rental_uris":{"android":"levelo://app?vid=0355e768-9837-4e19-b5cb-35a830899366","ios":"levelo://app?vid=0355e768-9837-4e19-b5cb-35a830899366"},"vehicle_type_id":"4","last_reported":1726038534,"current_range_meters":20400,"station_id":"ce4bhn92rcd13ifvqgrg","pricing_plan_id":"cebpf4jnsgd1na2vs0mg"},{"bike_id":"38a69614-fc80-4fe6-9020-2aa2f561d214","system_id":"levelo_inurba_marseille","lat":43.26686,"lon":5.38274,"is_reserved":false,"is_disabled":false,"rental_uris":{"android":"levelo://app?vid=38a69614-fc80-4fe6-9020-2aa2f561d214","ios":"levelo://app?vid=38a69614-fc80-4fe6-9020-2aa2f561d214"},"vehicle_type_id":"4","last_reported":1726038534,"current_range_meters":31200,"station_id":"ce4bhg92rcd13ifvqf90","pricing_plan_id":"cebpf4jnsgd1na2vs0mg"},{"bike_id":"cec1f9c3-f935-49fa-9c33-44dd73c28b4d","system_id":"levelo_inurba_marseille","lat":43.32481,"lon":5.36567,"is_reserved":false,"is_disabled":false,"rental_uris":{"android":"levelo://app?vid=cec1f9c3-f935-49fa-9c33-44dd73c28b4d","ios":"levelo://app?vid=cec1f9c3-f935-49fa-9c33-44dd73c28b4d"},"vehicle_type_id":"4","last_reported":1726038534,"current_range_meters":37600,"station_id":"ce4bhs12rcd13ifvqhvg","pricing_plan_id":"cebpf4jnsgd1na2vs0mg"},{"bike_id":"44f32411-a978-4e5c-8794-5490ed45ba7d","system_id":"levelo_inurba_marseille","lat":43.33762,"lon":5.3743,"is_reserved":false,"is_disabled":false,"rental_uris":{"android":"levelo://app?vid=44f32411-a978-4e5c-8794-5490ed45ba7d","ios":"levelo://app?vid=44f32411-a978-4e5c-8794-5490ed45ba7d"},"vehicle_type_id":"4","last_reported":1726038534,"current_range_meters":35600,"station_id":"","pricing_plan_id":"cebpf4jnsgd1na2vs0mg"},{"bike_id":"f97605b9-9823-47fe-9282-16cbbbcf1ab6","system_id":"levelo_inurba_marseille","lat":43.29295,"lon":5.37456,"is_reserved":false,"is_disabled":false,"rental_uris":{"android":"levelo://app?vid=f97605b9-9823-47fe-9282-16cbbbcf1ab6","ios":"levelo://app?vid=f97605b9-9823-47fe-9282-16cbbbcf1ab6"},"vehicle_type_id":"4","last_reported":1726038534,"current_range_meters":34000,"station_id":"ce4bgi12rcd13ifvqb70","pricing_plan_id":"cebpf4jnsgd1na2vs0mg"},{"bike_id":"a5637a8b-38f0-4dcf-bb5c-f0548702728e","system_id":"levelo_inurba_marseille","lat":43.24071,"lon":5.37757,"is_reserved":false,"is_disabled":false,"rental_uris":{"android":"levelo://app?vid=a5637a8b-38f0-4dcf-bb5c-f0548702728e","ios":"levelo://app?vid=a5637a8b-38f0-4dcf-bb5c-f0548702728e"},"vehicle_type_id":"4","last_reported":1726038534,"current_range_meters":36800,"station_id":"ce4bhnp2rcd13ifvqgvg","pricing_plan_id":"cebpf4jnsgd1na2vs0mg"},{"bike_id":"cd4d6f4d-c80a-4353-933b-1fafbf4b8f64","system_id":"levelo_inurba_marseille","lat":43.24168,"lon":5.36395,"is_reserved":false,"is_disabled":false,"rental_uris":{"android":"levelo://app?vid=cd4d6f4d-c80a-4353-933b-1fafbf4b8f64","ios":"levelo://app?vid=cd4d6f4d-c80a-4353-933b-1fafbf4b8f64"},"vehicle_type_id":"4","last_reported":1726038534,"current_range_meters":28400,"station_id":"cpo36qri1sfpv3e86is0","pricing_plan_id":"cebpf4jnsgd1na2vs0mg"},{"bike_id":"59e225ba-c01e-492a-87d4-e7680c4239c3","system_id":"levelo_inurba_marseille","lat":43.27492,"lon":5.42451,"is_reserved":false,"is_disabled":false,"rental_uris":{"android":"levelo://app?vid=59e225ba-c01e-492a-87d4-e7680c4239c3","ios":"levelo://app?vid=59e225ba-c01e-492a-87d4-e7680c4239c3"},"vehicle_type_id":"4","last_reported":1726038534,"current_range_meters":33600,"station_id":"ce4bhn92rcd13ifvqgrg","pricing_plan_id":"cebpf4jnsgd1na2vs0mg"},{"bike_id":"1633b603-8e95-4f03-9a67-96c296e999e6","system_id":"levelo_inurba_marseille","lat":43.303594,"lon":5.376578,"is_reserved":false,"is_disabled":false,"rental_uris":{"android":"levelo://app?vid=1633b603-8e95-4f03-9a67-96c296e999e6","ios":"levelo://app?vid=1633b603-8e95-4f03-9a67-96c296e999e6"},"vehicle_type_id":"4","last_reported":1726038534,"current_range_meters":30400,"station_id":"ce4bgup2rcd13ifvqcn0","pricing_plan_id":"cebpf4jnsgd1na2vs0mg"},