{"last_updated":1761419229,"ttl":60,"version":"2.2","data":{"bikes":[{"bike_id":"4b1ac596-3fdb-4128-a161-06b1a24346b2","system_id":"levelo_inurba_marseille","lat":43.292548,"lon":5.409043,"is_reserved":false,"is_disabled":false,"rental_uris":{"android":"levelo://app?vid=4b1ac596-3fdb-4128-a161-06b1a24346b2","ios":"levelo://app?vid=4b1ac596-3fdb-4128-a161-06b1a24346b2"},"vehicle_type_id":"4","last_reported":1761419229,"current_range_meters":2800,"station_id":"ce4bh192rcd13ifvqdc0","pricing_plan_id":"cebpf4jnsgd1na2vs0mg"},{"bike_id":"c3aaa1c6-07fe-486b-b1f6-475c510a8f7b","system_id":"levelo_inurba_marseille","lat":43.2742,"lon":5.39406,"is_reserved":false,"is_disabled":false,"rental_uris":{"android":"levelo://app?vid=c3aaa1c6-07fe-486b-b1f6-475c510a8f7b","ios":"levelo://app?vid=c3aaa1c6-07fe-486b-b1f6-475c510a8f7b"},"vehicle_type_id":"4","last_reported":1761419229,"current_range_meters":2800,"station_id":"ce4bhdp2rcd13ifvqf20","pricing_plan_id":"cebpf4jnsgd1na2vs0mg"},{"bike_id":"892ad6cd-826f-4ec7-b8dc-d822a82e970f","system_id":"levelo_inurba_marseille","lat":43.2524,"lon":5.38629,"is_reserved":false,"is_disabled":false,"rental_uris":{"android":"levelo://app?vid=892ad6cd-826f-4ec7-b8dc-d822a82e970f","ios":"levelo://app?vid=892ad6cd-826f-4ec7-b8dc-d822a82e970f"},"vehicle_type_id":"4","last_reported":1761419229,"current_range_meters":2800,"station_id":"","pricing_plan_id":"cebpf4jnsgd1na2vs0mg"},{"bike_id":"440714dd-a106-4ecd-a171-eeeb1addf8b1","system_id":"levelo_inurba_marseille","lat":43.23778,"lon":5.43564,"is_reserved":false,"is_disabled":false,"rental_uris":{"android":"levelo://app?vid=440714dd-a106-4ecd-a171-eeeb1addf8b1","ios":"levelo://app?vid=440714dd-a106-4ecd-a171-eeeb1addf8b1"},"vehicle_type_id":"4","last_reported":1761419229,"current_range_meters":2800,"station_id":"st_d2m6c4gdas8pm72e190g","pricing_plan_id":"cebpf4jnsgd1na2vs0mg"},{"bike_id":"b06742cf-77b2-474e-bb4d-88e55534c9d6","system_id":"levelo_inurba_marseille","lat":43.30289,"lon":5.39196,"is_reserved":false,"is_disabled":false,"rental_uris":{"android":"levelo://app?vid=b06742cf-77b2-474e-bb4d-88e55534c9d6","ios":"levelo://app?vid=b06742cf-77b2-474e-bb4d-88e55534c9d6"},"vehicle_type_id":"4","last_reported":1761419229,"current_range_meters":2800,"station_id":"ce4bgkh2rcd13ifvqbk0","pricing_plan_id":"cebpf4jnsgd1na2vs0mg"},{"bike_id":"48a98c88-4357-4385-bf6d-850e7ba10128","system_id":"levelo_inurba_marseille","lat":43.316935,"lon":5.404663,"is_reserved":false,"is_disabled":false,"rental_uris":{"android":"levelo://app?vid=48a98c88-4357-4385-bf6d-850e7ba10128","ios":"levelo://app?vid=48a98c88-4357-4385-bf6d-850e7ba10128"},"vehicle_type_id":"4","last_reported":1761419229,"current_range_meters":3200,"station_id":"ce4bh3p2rcd13ifvqdq0","pricing_plan_id":"cebpf4jnsgd1na2vs0mg"},{"bike_id":"2e4bbb1e-5e7b-4f17-bb6f-fb325d644123","system_id":"levelo_inurba_marseille","lat":43.287174,"lon":5.379367,"is_reserved":false,"is_disabled":false,"rental_uris":{"android":"levelo://app?vid=2e4bbb1e-5e7b-4f17-bb6f-fb325d644123","ios":"levelo://app?vid=2e4bbb1e-5e7b-4f17-bb6f-fb325d644123"},"vehicle_type_id":"4","last_reported":1761419229,"current_range_meters":3200,"station_id":"ce4bgn12rcd13ifvqbt0","pricing_plan_id":"cebpf4jnsgd1na2vs0mg"},{"bike_id":"85afcb9d-9b6c-4a84-8c6c-3218f3337a86","system_id":"levelo_inurba_marseille","lat":43.24954,"lon":5.38915,"is_reserved":false,"is_disabled":false,"rental_uris":{"android":"levelo://app?vid=85afcb9d-9b6c-4a84-8c6c-3218f3337a86","ios":"levelo://app?vid=85afcb9d-9b6c-4a84-8c6c-3218f3337a86"},"vehicle_type_id":"4","last_reported":1761419229,"current_range_meters":3200,"station_id":"","pricing_plan_id":"cebpf4jnsgd1na2vs0mg"},{"bike_id":"e08d4553-4c0b-4986-8aac-0bde0cbffe65","system_id":"levelo_inurba_marseille","lat":43.28936,"lon":5.39644,"is_reserved":false,"is_disabled":true,"rental_uris":{"android":"levelo://app?vid=e08d4553-4c0b-4986-8aac-0bde0cbffe65","ios":"levelo://app?vid=e08d4553-4c0b-4986-8aac-0bde0cbffe65"},"vehicle_type_id":"4","last_reported":1761419229,"current_range_meters":3600,"station_id":"ce4bh3h2rcd13ifvqdn0","pricing_plan_id":"cebpf4jnsgd1na2vs0mg"},{"bike_id":"323bf2de-3bb4-4b4c-b330-b19ea807dbf5","system_id":"levelo_inurba_marseille","lat":43.33004,"lon":5.4297,"is_reserved":false,"is_disabled":false,"rental_uris":{"android":"levelo://app?vid=323bf2de-3bb4-4b4c-b330-b19ea807dbf5","ios":"levelo://app?vid=323bf2de-3bb4-4b4c-b330-b19ea807dbf5"},"vehicle_type_id":"4","last_reported":1761419229,"current_range_meters":3600,"station_id":"","pricing_plan_id":"cebpf4jnsgd1na2vs0mg"},{"bike_id":"17bd9fff-f8a7-45af-8120-cab272292f42","system_id":"levelo_inurba_marseille","lat":43.284783,"lon":5.484004,"is_reserved":false,"is_disabled":false,"rental_uris":{"android":"levelo://app?vid=17bd9fff-f8a7-45af-8120-cab272292f42","ios":"levelo://app?vid=17bd9fff-f8a7-45af-8120-cab272292f42"},"vehicle_type_id":"4","last_reported":1761419229,"current_range_meters":3600,"station_id":"st_d3svhcjqgbts73a3dn0g","pricing_plan_id":"cebpf4jnsgd1na2vs0mg"},{"bike_id":"cf3e7825-edb7-459b-bd61-582427624b31","system_id":"levelo_inurba_marseille","lat":43.29987,"lon":5.38496,"is_reserved":false,"is_disabled":false,"rental_uris":{"android":"levelo://app?vid=cf3e7825-edb7-459b-bd61-582427624b31","ios":"levelo://app?vid=cf3e7825-edb7-459b-bd61-582427624b31"},"vehicle_type_id":"4","last_reported":1761419229,"current_range_meters":4000,"station_id":"","pricing_plan_id":"cebpf4jnsgd1na2vs0mg"},{"bike_id":"4cac6df0-fc82-4d18-8a37-769ccee9cff3","system_id":"levelo_inurba_marseille","lat":43.28005,"lon":5.40028,"is_reserved":false,"is_disabled":false,"rental_uris":{"android":"levelo://app?vid=4cac6df0-fc82-4d18-8a37-769ccee9cff3","ios":"levelo://app?vid=4cac6df0-fc82-4d18-8a37-769ccee9cff3"},"vehicle_type_id":"4","last_reported":1761419229,"current_range_meters":4000,"station_id":"ce4bho92rcd13ifvqh4g","pricing_plan_id":"cebpf4jnsgd1na2vs0mg"},{"bike_id":"70f03832-66aa-47ef-b329-6fa1ff414992","system_id":"levelo_inurba_marseille","lat":43.305296,"lon":5.366949,"is_reserved":false,"is_disabled":false,"rental_uris":{"android":"levelo://app?vid=70f03832-66aa-47ef-b329-6fa1ff414992","ios":"levelo://app?vid=70f03832-66aa-47ef-b329-6fa1ff414992"},"vehicle_type_id":"4","last_reported":1761419229,"current_range_meters":4400,"station_id":"ce4bgrp2rcd13ifvqc9g","pricing_plan_id":"cebpf4jnsgd1na2vs0mg"},{"bike_id":"8504096e-568d-467f-a038-ca9bbb9a8300","system_id":"levelo_inurba_marseille","lat":43.29878,"lon":5.37606,"is_reserved":false,"is_disabled":false,"rental_uris":{"android":"levelo://app?vid=8504096e-568d-467f-a038-ca9bbb9a8300","ios":"levelo://app?vid=8504096e-568d-467f-a038-ca9bbb9a8300"},"vehicle_type_id":"4","last_reported":1761419229,"current_range_meters":4400,"station_id":"","pricing_plan_id":"cebpf4jnsgd1na2vs0mg"},{"bike_id":"865f4b01-9b9b-45c7-9501-6db6c3f324f6","system_id":"levelo_inurba_marseille","lat":43.28933,"lon":5.3839,"is_reserved":false,"is_disabled":false,"rental_uris":{"android":"levelo://app?vid=865f4b01-9b9b-45c7-9501-6db6c3f324f6","ios":"levelo://app?vid=865f4b01-9b9b-45c7-9501-6db6c3f324f6"},"vehicle_type_id":"4","last_reported":1761419229,"current_range_meters":4400,"station_id":"ce4bh612rcd13ifvqe6g","pricing_plan_id":"cebpf4jnsgd1na2vs0mg"},{"bike_id":"66fbb9df-0ce9-4540-a5fc-6a7636f67b51","system_id":"levelo_inurba_marseille","lat":43.29044,"lon":5.38635,"is_reserved":false,"is_disabled":false,"rental_uris":{"android":"levelo://app?vid=66fbb9df-0ce9-4540-a5fc-6a7636f67b51","ios":"levelo://app?vid=66fbb9df-0ce9-4540-a5fc-6a7636f67b51"},"vehicle_type_id":"4","last_reported":1761419229,"current_range_meters":4400,"station_id":"ce4bh4p2rcd13ifvqe0g","pricing_plan_id":"cebpf4jnsgd1na2vs0mg"},{"bike_id":"257e60f3-f71b-48c2-98ae-7032af6b39ea","system_id":"levelo_inurba_marseille","lat":43.292633,"lon":5.384358,"is_reserved":false,"is_disabled":false,"rental_uris":{"android":"levelo://app?vid=257e60f3-f71b-48c2-98ae-7032af6b39ea","ios":"levelo://app?vid=257e60f3-f71b-48c2-98ae-7032af6b39ea"},"vehicle_type_id":"4","last_reported":1761419229,"current_range_meters":4400,"station_id":"","pricing_plan_id":"cebpf4jnsgd1na2vs0mg"},{"bike_id":"d1e4b9a6-0d73-4699-b946-bacfe0253dbc","system_id":"levelo_inurba_marseille","lat":43.27051,"lon":5.38334,"is_reserved":false,"is_disabled":false,"rental_uris":{"android":"levelo://app?vid=d1e4b9a6-0d73-4699-b946-bacfe0253dbc","ios":"levelo://app?vid=d1e4b9a6-0d73-4699-b946-bacfe0253dbc"},"vehicle_type_id":"4","last_reported":1761419229,"current_range_meters":4800,"station_id":"st_d3n2fo6cfp8s73cte1j0","pricing_plan_id":"cebpf4jnsgd1na2vs0mg"},{"bike_id":"d580972f-d071-4bb5-84d4-5cce6c8bda2e","system_id":"levelo_inurba_marseille","lat":43.284851,"lon":5.385405,"is_reserved":false,"is_disabled":false,"rental_uris":{"android":"levelo://app?vid=d580972f-d071-4bb5-84d4-5cce6c8bda2e","ios":"levelo://app?vid=d580972f-d071-4bb5-84d4-5cce6c8bda2e"},"vehicle_type_id":"4","last_reported":1761419229,"current_range_meters":4800,"station_id":"ce4bh8p2rcd13ifvqeb0","pricing_plan_id":"cebpf4jnsgd1na2vs0mg"},{"bike_id":"00fd3c6a-780c-49dc-9993-d4de69c9b57a","system_id":"levelo_inurba_marseille","lat":43.310738,"lon":5.37455,"is_reserved":false,"is_disabled":false,"rental_uris":{"android":"levelo://app?vid=00fd3c6a-780c-49dc-9993-d4de69c9b57a","ios":"levelo://app?vid=00fd3c6a-780c-49dc-9993-d4de69c9b57a"},"vehicle_type_id":"4","last_reported":1761419229,"current_range_meters":4800,"station_id":"","pricing_plan_id":"cebpf4jnsgd1na2vs0mg"},{"bike_id":"645a2134-62e6-4999-a39e-f5da207de569","system_id":"levelo_inurba_marseille","lat":43.300835,"lon":5.390815,"is_reserved":false,"is_disabled":false,"rental_uris":{"android":"levelo://app?vid=645a2134-62e6-4999-a39e-f5da207de569","ios":"levelo://app?vid=645a2134-62e6-4999-a39e-f5da207de569"},"vehicle_type_id":"4","last_reported":1761419229,"current_range_meters":5600,"station_id":"","pricing_plan_id":"cebpf4jnsgd1na2vs0mg"},{"bike_id":"b9764ed2-f91a-421e-b54e-d7527bd8af22","system_id":"levelo_inurba_marseille","lat":43.29811,"lon":5.36588,"is_reserved":false,"is_disabled":false,"rental_uris":{"android":"levelo://app?vid=b9764ed2-f91a-421e-b54e-d7527bd8af22","ios":"levelo://app?vid=b9764ed2-f91a-421e-b54e-d7527bd8af22"},"vehicle_type_id":"4","last_reported":1761419229,"current_range_meters":5600,"station_id":"","pricing_plan_id":"cebpf4jnsgd1na2vs0mg"},{"bike_id":"8bcacd78-80de-4026-af75-b37ebe3030fe","system_id":"levelo_inurba_marseille","lat":43.334756,"lon":5.404255,"is_reserved":false,"is_disabled":false,"rental_uris":{"android":"levelo://app?vid=8bcacd78-80de-4026-af75-b37ebe3030fe","ios":"levelo://app?vid=8bcacd78-80de-4026-af75-b37ebe3030fe"},"vehicle_type_id":"4","last_reported":1761419229,"current_range_meters":5600,"station_id":"","pricing_plan_id":"cebpf4jnsgd1na2vs0mg"},{"bike_id":"9bd2d8c7-e88c-4fc1-8dd0-e07ecd8cc4ec","system_id":"levelo_inurba_marseille","lat":43.248121,"lon":5.37461,"is_reserved":false,"is_disabled":false,"rental_uris":{"android":"levelo://app?vid=9bd2d8c7-e88c-4fc1-8dd0-e07ecd8cc4ec","ios":"levelo://app?vid=9bd2d8c7-e88c-4fc1-8dd0-e07ecd8cc4ec"},"vehicle_type_id":"4","last_reported":1761419229,"current_range_meters":6000,"station_id":"ce4bhgh2rcd13ifvqfb0","pricing_plan_id":"cebpf4jnsgd1na2vs0mg"},{"bike_id":"575efb12-7b12-4f03-93a1-37f6c5ef750e","system_id":"levelo_inurba_marseille","lat":43.29784,"lon":5.42786,"is_reserved":false,"is_disabled":false,"rental_uris":{"android":"levelo://app?vid=575efb12-7b12-4f03-93a1-37f6c5ef750e","ios":"levelo://app?vid=575efb12-7b12-4f03-93a1-37f6c5ef750e"},"vehicle_type_id":"4","last_reported":1761419229,"current_range_meters":6000,"station_id":"st_d3md5207bmas73dh9klg","pricing_plan_id":"cebpf4jnsgd1na2vs0mg"},{"bike_id":"2d094c29-19c7-41f3-ba0e-3ccdd5127866","system_id":"levelo_inurba_marseille","lat":43.29206,"lon":5.39322,"is_reserved":false,"is_disabled":false,"rental_uris":{"android":"levelo://app?vid=2d094c29-19c7-41f3-ba0e-3ccdd5127866","ios":"levelo://app?vid=2d094c29-19c7-41f3-ba0e-3ccdd5127866"},"vehicle_type_id":"4","last_reported":1761419229,"current_range_meters":6400,"station_id":"ce4bh192rcd13ifvqdd0","pricing_plan_id":"cebpf4jnsgd1na2vs0mg"},{"bike_id":"ef9f94b6-49db-4195-b862-563223e2ba3d","system_id":"levelo_inurba_marseille","lat":43.21776,"lon":5.34599,"is_reserved":false,"is_disabled":false,"rental_uris":{"android":"levelo://app?vid=ef9f94b6-49db-4195-b862-563223e2ba3d","ios":"levelo://app?vid=ef9f94b6-49db-4195-b862-563223e2ba3d"},"vehicle_type_id":"4","last_reported":1761419229,"current_range_meters":6400,"station_id":"st_cvj6r9ubvosntc0bgbag","pricing_plan_id":"cebpf4jnsgd1na2vs0mg"},{"bike_id":"e7bb7b19-03a2-4ce3-98bd-1068778ea96c","system_id":"levelo_inurba_marseille","lat":43.2292,"lon":5.3541,"is_reserved":false,"is_disabled":false,"rental_uris":{"android":"levelo://app?vid=e7bb7b19-03a2-4ce3-98bd-1068778ea96c","ios":"levelo://app?vid=e7bb7b19-03a2-4ce3-98bd-1068778ea96c"},"vehicle_type_id":"4","last_reported":1761419229,"current_range_meters":6400,"station_id":"cpo3532slgdg3j2ikp40","pricing_plan_id":"cebpf4jnsgd1na2vs0mg"},{"bike_id":"d8cb6b3d-7af9-491d-9b11-f2c173d5e691","system_id":"levelo_inurba_marseille","lat":43.25006,"lon":5.38923,"is_reserved":false,"is_disabled":false,"rental_uris":{"android":"levelo://app?vid=d8cb6b3d-7af9-491d-9b11-f2c173d5e691","ios":"levelo://app?vid=d8cb6b3d-7af9-491d-9b11-f2c173d5e691"},"vehicle_type_id":"4","last_reported":1761419229,"current_range_meters":6400,"station_id":"ce4bhgp2rcd13ifvqfd0","pricing_plan_id":"cebpf4jnsgd1na2vs0mg"},{"bike_id":"cb14a91a-e5a7-4fa2-9c1d-b1acec3d3362","system_id":"levelo_inurba_marseille","lat":43.24161,"lon":5.36383,"is_reserved":false,"is_disabled":false,"rental_uris":{"android":"levelo://app?vid=cb14a91a-e5a7-4fa2-9c1d-b1acec3d3362","ios":"levelo://app?vid=cb14a91a-e5a7-4fa2-9c1d-b1acec3d3362"},"vehicle_type_id":"4","last_reported":1761419229,"current_range_meters":6400,"station_id":"cpo36qri1sfpv3e86is0","pricing_plan_id":"cebpf4jnsgd1na2vs0mg"},{"bike_id":"c26e32ce-2c0f-4586-8c0b-707ef9dc97b3","system_id":"levelo_inurba_marseille","lat":43.27986,"lon":5.41664,"is_reserved":false,"is_disabled":false,"rental_uris":{"android":"levelo://app?vid=c26e32ce-2c0f-4586-8c0b-707ef9dc97b3","ios":"levelo://app?vid=c26e32ce-2c0f-4586-8c0b-707ef9dc97b3"},"vehicle_type_id":"4","last_reported":1761419229,"current_range_meters":6400,"station_id":"ce4bho12rcd13ifvqh1g","pricing_plan_id":"cebpf4jnsgd1na2vs0mg"},{"bike_id":"9881c788-42a8-46f5-8ccc-580a73583155","system_id":"levelo_inurba_marseille","lat":43.3206,"lon":5.409,"is_reserved":false,"is_disabled":false,"rental_uris":{"android":"levelo://app?vid=9881c788-42a8-46f5-8ccc-580a73583155","ios":"levelo://app?vid=9881c788-42a8-46f5-8ccc-580a73583155"},"vehicle_type_id":"4","last_reported":1761419229,"current_range_meters":6400,"station_id":"","pricing_plan_id":"cebpf4jnsgd1na2vs0mg"},{"bike_id":"7e0fd963-943e-4fc1-ac37-d6f692d04850","system_id":"levelo_inurba_marseille","lat":43.28349,"lon":5.38101,"is_reserved":false,"is_disabled":false,"rental_uris":{"android":"levelo://app?vid=7e0fd963-943e-4fc1-ac37-d6f692d04850","ios":"levelo://app?vid=7e0fd963-943e-4fc1-ac37-d6f692d04850"},"vehicle_type_id":"4","last_reported":1761419229,"current_range_meters":6800,"station_id":"ce4bh412rcd13ifvqdr0","pricing_plan_id":"cebpf4jnsgd1na2vs0mg"},{"bike_id":"08e142ce-7c20-4229-ae81-8ba3f4114eb6","system_id":"levelo_inurba_marseille","lat":43.29518,"lon":5.39036,"is_reserved":false,"is_disabled":false,"rental_uris":{"android":"levelo://app?vid=08e142ce-7c20-4229-ae81-8ba3f4114eb6","ios":"levelo://app?vid=08e142ce-7c20-4229-ae81-8ba3f4114eb6"},"vehicle_type_id":"4","last_reported":1761419229,"current_range_meters":6800,"station_id":"ce4bh3p2rcd13ifvqdp0","pricing_plan_id":"cebpf4jnsgd1na2vs0mg"},{"bike_id":"e88e4896-3ef8-47bf-9bd4-8f87640c0755","system_id":"levelo_inurba_marseille","lat":43.30418,"lon":5.38884,"is_reserved":false,"is_disabled":false,"rental_uris":{"android":"levelo://app?vid=e88e4896-3ef8-47bf-9bd4-8f87640c0755","ios":"levelo://app?vid=e88e4896-3ef8-47bf-9bd4-8f87640c0755"},"vehicle_type_id":"4","last_reported":1761419229,"current_range_meters":6800,"station_id":"ce4bgk12rcd13ifvqbi0","pricing_plan_id":"cebpf4jnsgd1na2vs0mg"},{"bike_id":"2842f5fd-7b05-4b47-909c-5ee54d7d3bc5","system_id":"levelo_inurba_marseille","lat":43.3245,"lon":5.42822,"is_reserved":false,"is_disabled":false,"rental_uris":{"android":"levelo://app?vid=2842f5fd-7b05-4b47-909c-5ee54d7d3bc5","ios":"levelo://app?vid=2842f5fd-7b05-4b47-909c-5ee54d7d3bc5"},"vehicle_type_id":"4","last_reported":1761419229,"current_range_meters":6800,"station_id":"","pricing_plan_id":"cebpf4jnsgd1na2vs0mg"},{"bike_id":"da5ec092-2438-4dd2-a625-8fc0f3baf6af","system_id":"levelo_inurba_marseille","lat":43.33722,"lon":5.36287,"is_reserved":false,"is_disabled":false,"rental_uris":{"android":"levelo://app?vid=da5ec092-2438-4dd2-a625-8fc0f3baf6af","ios":"levelo://app?vid=da5ec092-2438-4dd2-a625-8fc0f3baf6af"},"vehicle_type_id":"4","last_reported":1761419229,"current_range_meters":6800,"station_id":"","pricing_plan_id":"cebpf4jnsgd1na2vs0mg"},{"bike_id":"f58cc4c7-5b67-4eef-b09a-6d2df91574f9","system_id":"levelo_inurba_marseille","lat":43.298891,"lon":5.38892,"is_reserved":false,"is_disabled":false,"rental_uris":{"android":"levelo://app?vid=f58cc4c7-5b67-4eef-b09a-6d2df91574f9","ios":"levelo://app?vid=f58cc4c7-5b67-4eef-b09a-6d2df91574f9"},"vehicle_type_id":"4","last_reported":1761419229,"current_range_meters":6800,"station_id":"ce4bh092rcd13ifvqd30","pricing_plan_id":"cebpf4jnsgd1na2vs0mg"},{"bike_id":"139d020b-78f9-452a-b9f6-07a4ecc161b4","system_id":"levelo_inurba_marseille","lat":43.24545,"lon":5.39512,"is_reserved":false,"is_disabled":false,"rental_uris":{"android":"levelo://app?vid=139d020b-78f9-452a-b9f6-07a4ecc161b4","ios":"levelo://app?vid=139d020b-78f9-452a-b9f6-07a4ecc161b4"},"vehicle_type_id":"4","last_reported":1761419229,"current_range_meters":6800,"station_id":"ce4bhlp2rcd13ifvqgjg","pricing_plan_id":"cebpf4jnsgd1na2vs0mg"},{"bike_id":"9d3dac32-fb10-4bb5-9912-444b5db347c2","system_id":"levelo_inurba_marseille","lat":43.27972,"lon":5.41069,"is_reserved":false,"is_disabled":false,"rental_uris":{"android":"levelo://app?vid=9d3dac32-fb10-4bb5-9912-444b5db347c2","ios":"levelo://app?vid=9d3dac32-fb10-4bb5-9912-444b5db347c2"},"vehicle_type_id":"4","last_reported":1761419229,"current_range_meters":6800,"station_id":"ce4bhnp2rcd13ifvqh0g","pricing_plan_id":"cebpf4jnsgd1na2vs0mg"},{"bike_id":"8bfb13c1-e80a-475c-bc30-056099b83655","system_id":"levelo_inurba_marseille","lat":43.29256,"lon":5.38441,"is_reserved":false,"is_disabled":false,"rental_uris":{"android":"levelo://app?vid=8bfb13c1-e80a-475c-bc30-056099b83655","ios":"levelo://app?vid=8bfb13c1-e80a-475c-bc30-056099b83655"},"vehicle_type_id":"4","last_reported":1761419229,"current_range_meters":7200,"station_id":"ce4bh692rcd13ifvqea0","pricing_plan_id":"cebpf4jnsgd1na2vs0mg"},{"bike_id":"53881f93-48f1-4312-8257-bcb02eb6b29c","system_id":"levelo_inurba_marseille","lat":43.262,"lon":5.39702,"is_reserved":false,"is_disabled":false,"rental_uris":{"android":"levelo://app?vid=53881f93-48f1-4312-8257-bcb02eb6b29c","ios":"levelo://app?vid=53881f93-48f1-4312-8257-bcb02eb6b29c"},"vehicle_type_id":"4","last_reported":1761419229,"current_range_meters":7200,"station_id":"","pricing_plan_id":"cebpf4jnsgd1na2vs0mg"},{"bike_id":"f4833121-38e2-4f4d-9560-2a1e9dccb36d","system_id":"levelo_inurba_marseille","lat":43.27046,"lon":5.40257,"is_reserved":false,"is_disabled":false,"rental_uris":{"android":"levelo://app?vid=f4833121-38e2-4f4d-9560-2a1e9dccb36d","ios":"levelo://app?vid=f4833121-38e2-4f4d-9560-2a1e9dccb36d"},"vehicle_type_id":"4","last_reported":1761419229,"current_range_meters":7200,"station_id":"ce4bhk92rcd13ifvqgc0","pricing_plan_id":"cebpf4jnsgd1na2vs0mg"},{"bike_id":"6741ae78-dcb1-4412-8315-7e4cc7b39387","system_id":"levelo_inurba_marseille","lat":43.30323,"lon":5.40428,"is_reserved":false,"is_disabled":false,"rental_uris":{"android":"levelo://app?vid=6741ae78-dcb1-4412-8315-7e4cc7b39387","ios":"levelo://app?vid=6741ae78-dcb1-4412-8315-7e4cc7b39387"},"vehicle_type_id":"4","last_reported":1761419229,"current_range_meters":7200,"station_id":"ce4bh012rcd13ifvqd10","pricing_plan_id":"cebpf4jnsgd1na2vs0mg"},{"bike_id":"0b85a8e4-6bf3-4808-99b0-993df2828df7","system_id":"levelo_inurba_marseille","lat":43.29522,"lon":5.3904,"is_reserved":false,"is_disabled":false,"rental_uris":{"android":"levelo://app?vid=0b85a8e4-6bf3-4808-99b0-993df2828df7","ios":"levelo://app?vid=0b85a8e4-6bf3-4808-99b0-993df2828df7"},"vehicle_type_id":"4","last_reported":1761419229,"current_range_meters":7200,"station_id":"ce4bh3p2rcd13ifvqdp0","pricing_plan_id":"cebpf4jnsgd1na2vs0mg"},{"bike_id":"8cb36d19-5056-4020-a28d-d65dc1f0a061","system_id":"levelo_inurba_marseille","lat":43.282654,"lon":5.350594,"is_reserved":false,"is_disabled":false,"rental_uris":{"android":"levelo://app?vid=8cb36d19-5056-4020-a28d-d65dc1f0a061","ios":"levelo://app?vid=8cb36d19-5056-4020-a28d-d65dc1f0a061"},"vehicle_type_id":"4","last_reported":1761419229,"current_range_meters":8000,"station_id":"ce4bhbp2rcd13ifvqerg","pricing_plan_id":"cebpf4jnsgd1na2vs0mg"},{"bike_id":"772d13e1-723b-4baa-9e67-01e4784c4aa7","system_id":"levelo_inurba_marseille","lat":43.3254,"lon":5.41431,"is_reserved":false,"is_disabled":false,"rental_uris":{"android":"levelo://app?vid=772d13e1-723b-4baa-9e67-01e4784c4aa7","ios":"levelo://app?vid=772d13e1-723b-4baa-9e67-01e4784c4aa7"},"vehicle_type_id":"4","last_reported":1761419229,"current_range_meters":8000,"station_id":"ce4bhq12rcd13ifvqhhg","pricing_plan_id":"cebpf4jnsgd1na2vs0mg"},{"bike_id":"d2745b39-f871-4368-b4e8-9f4a5e021318","system_id":"levelo_inurba_marseille","lat":43.29036,"lon":5.38627,"is_reserved":false,"is_disabled":false,"rental_uris":{"android":"levelo://app?vid=d2745b39-f871-4368-b4e8-9f4a5e021318","ios":"levelo://app?vid=d2745b39-f871-4368-b4e8-9f4a5e021318"},"vehicle_type_id":"4","last_reported":1761419229,"current_range_meters":8000,"station_id":"ce4bh4p2rcd13ifvqe0g","pricing_plan_id":"cebpf4jnsgd1na2vs0mg"},{"bike_id":"27add9ad-a521-4b7b-ba6b-3c1fae90fe02","system_id":"levelo_inurba_marseille","lat":43.29531,"lon":5.38541,"is_reserved":false,"is_disabled":false,"rental_uris":{"android":"levelo://app?vid=27add9ad-a521-4b7b-ba6b-3c1fae90fe02","ios":"levelo://app?vid=27add9ad-a521-4b7b-ba6b-3c1fae90fe02"},"vehicle_type_id":"4","last_reported":1761419229,"current_range_meters":8000,"station_id":"ce4bgih2rcd13ifvqba0","pricing_plan_id":"cebpf4jnsgd1na2vs0mg"},{"bike_id":"4a296afa-1a38-462e-a74c-004b14367763","system_id":"levelo_inurba_marseille","lat":43.241841,"lon":5.397346,"is_reserved":false,"is_disabled":false,"rental_uris":{"android":"levelo://app?vid=4a296afa-1a38-462e-a74c-004b14367763","ios":"levelo://app?vid=4a296afa-1a38-462e-a74c-004b14367763"},"vehicle_type_id":"4","last_reported":1761419229,"current_range_meters":8000,"station_id":"ce4bhn12rcd13ifvqgpg","pricing_plan_id":"cebpf4jnsgd1na2vs0mg"},{"bike_id":"f9f2f691-0d7d-4143-b899-adc8073802d9","system_id":"levelo_inurba_marseille","lat":43.28725,"lon":5.37394,"is_reserved":false,"is_disabled":true,"rental_uris":{"android":"levelo://app?vid=f9f2f691-0d7d-4143-b899-adc8073802d9","ios":"levelo://app?vid=f9f2f691-0d7d-4143-b899-adc8073802d9"},"vehicle_type_id":"4","last_reported":1761419229,"current_range_meters":8000,"station_id":"ce4bh3p2rcd13ifvqdq0","pricing_plan_id":"cebpf4jnsgd1na2vs0mg"},{"bike_id":"e35e1247-2ec0-4206-a360-6aaa534a130f","system_id":"levelo_inurba_marseille","lat":43.28484,"lon":5.4839,"is_reserved":false,"is_disabled":false,"rental_uris":{"android":"levelo://app?vid=e35e1247-2ec0-4206-a360-6aaa534a130f","ios":"levelo://app?vid=e35e1247-2ec0-4206-a360-6aaa534a130f"},"vehicle_type_id":"4","last_reported":1761419229,"current_range_meters":8000,"station_id":"st_d3svhcjqgbts73a3dn0g","pricing_plan_id":"cebpf4jnsgd1na2vs0mg"},{"bike_id":"ae4fddc0-6f74-460c-b2fe-e96a368c74bf","system_id":"levelo_inurba_marseille","lat":43.30423,"lon":5.41286,"is_reserved":false,"is_disabled":false,"rental_uris":{"android":"levelo://app?vid=ae4fddc0-6f74-460c-b2fe-e96a368c74bf","ios":"levelo://app?vid=ae4fddc0-6f74-460c-b2fe-e96a368c74bf"},"vehicle_type_id":"4","last_reported":1761419229,"current_range_meters":8400,"station_id":"ce4bhop2rcd13ifvqh8g","pricing_plan_id":"cebpf4jnsgd1na2vs0mg"},{"bike_id":"5f9debc0-c360-4a2e-b517-592e9a0c2818","system_id":"levelo_inurba_marseille","lat":43.32926,"lon":5.428,"is_reserved":false,"is_disabled":false,"rental_uris":{"android":"levelo://app?vid=5f9debc0-c360-4a2e-b517-592e9a0c2818","ios":"levelo://app?vid=5f9debc0-c360-4a2e-b517-592e9a0c2818"},"vehicle_type_id":"4","last_reported":1761419229,"current_range_meters":8400,"station_id":"","pricing_plan_id":"cebpf4jnsgd1na2vs0mg"},{"bike_id":"1715b7da-9079-41a3-b081-02b46f1562f5","system_id":"levelo_inurba_marseille","lat":43.31492,"lon":5.37197,"is_reserved":false,"is_disabled":false,"rental_uris":{"android":"levelo://app?vid=1715b7da-9079-41a3-b081-02b46f1562f5","ios":"levelo://app?vid=1715b7da-9079-41a3-b081-02b46f1562f5"},"vehicle_type_id":"4","last_reported":1761419229,"current_range_meters":8400,"station_id":"ce4bgt12rcd13ifvqcd0","pricing_plan_id":"cebpf4jnsgd1na2vs0mg"},{"bike_id":"c75dd7aa-5a3d-4dac-874f-93f43821958d","system_id":"levelo_inurba_marseille","lat":43.32548,"lon":5.41441,"is_reserved":false,"is_disabled":false,"rental_uris":{"android":"levelo://app?vid=c75dd7aa-5a3d-4dac-874f-93f43821958d","ios":"levelo://app?vid=c75dd7aa-5a3d-4dac-874f-93f43821958d"},"vehicle_type_id":"4","last_reported":1761419229,"current_range_meters":8400,"station_id":"ce4bhq12rcd13ifvqhhg","pricing_plan_id":"cebpf4jnsgd1na2vs0mg"},{"bike_id":"8be5d16d-10d8-4992-9fd8-347e09f85485","system_id":"levelo_inurba_marseille","lat":43.22936,"lon":5.35379,"is_reserved":false,"is_disabled":false,"rental_uris":{"android":"levelo://app?vid=8be5d16d-10d8-4992-9fd8-347e09f85485","ios":"levelo://app?vid=8be5d16d-10d8-4992-9fd8-347e09f85485"},"vehicle_type_id":"4","last_reported":1761419229,"current_range_meters":8400,"station_id":"cpo3532slgdg3j2ikp40","pricing_plan_id":"cebpf4jnsgd1na2vs0mg"},{"bike_id":"fa063608-29c2-42ab-95b5-2fc82231eea9","system_id":"levelo_inurba_marseille","lat":43.21195,"lon":5.3507,"is_reserved":false,"is_disabled":true,"rental_uris":{"android":"levelo://app?vid=fa063608-29c2-42ab-95b5-2fc82231eea9","ios":"levelo://app?vid=fa063608-29c2-42ab-95b5-2fc82231eea9"},"vehicle_type_id":"4","last_reported":1761419229,"current_range_meters":8400,"station_id":"st_cvj6sg6p6f1abm77japg","pricing_plan_id":"cebpf4jnsgd1na2vs0mg"},{"bike_id":"197f73a4-d800-4b31-9153-1d695ae3668b","system_id":"levelo_inurba_marseille","lat":43.3146,"lon":5.39242,"is_reserved":false,"is_disabled":false,"rental_uris":{"android":"levelo://app?vid=197f73a4-d800-4b31-9153-1d695ae3668b","ios":"levelo://app?vid=197f73a4-d800-4b31-9153-1d695ae3668b"},"vehicle_type_id":"4","last_reported":1761419229,"current_range_meters":8400,"station_id":"","pricing_plan_id":"cebpf4jnsgd1na2vs0mg"},{"bike_id":"91b07bac-e3a9-4e84-864b-63b2dad0df59","system_id":"levelo_inurba_marseille","lat":43.316962,"lon":5.404746,"is_reserved":false,"is_disabled":false,"rental_uris":{"android":"levelo://app?vid=91b07bac-e3a9-4e84-864b-63b2dad0df59","ios":"levelo://app?vid=91b07bac-e3a9-4e84-864b-63b2dad0df59"},"vehicle_type_id":"4","last_reported":1761419229,"current_range_meters":8400,"station_id":"ce4bh012rcd13ifvqd00","pricing_plan_id":"cebpf4jnsgd1na2vs0mg"},{"bike_id":"38bae4b3-7406-494f-add6-18310d92b72a","system_id":"levelo_inurba_marseille","lat":43.23211,"lon":5.35527,"is_reserved":false,"is_disabled":false,"rental_uris":{"android":"levelo://app?vid=38bae4b3-7406-494f-add6-18310d92b72a","ios":"levelo://app?vid=38bae4b3-7406-494f-add6-18310d92b72a"},"vehicle_type_id":"4","last_reported":1761419229,"current_range_meters":8800,"station_id":"ce4bhu92rcd13ifvqi70","pricing_plan_id":"cebpf4jnsgd1na2vs0mg"},{"bike_id":"94885b3f-20ef-4059-8c1d-cef922aeb73e","system_id":"levelo_inurba_marseille","lat":43.29034,"lon":5.38627,"is_reserved":false,"is_disabled":false,"rental_uris":{"android":"levelo://app?vid=94885b3f-20ef-4059-8c1d-cef922aeb73e","ios":"levelo://app?vid=94885b3f-20ef-4059-8c1d-cef922aeb73e"},"vehicle_type_id":"4","last_reported":1761419229,"current_range_meters":8800,"station_id":"ce4bh4p2rcd13ifvqe0g","pricing_plan_id":"cebpf4jnsgd1na2vs0mg"},{"bike_id":"6398fd05-47e5-41f8-95bf-116d17d1d757","system_id":"levelo_inurba_marseille","lat":43.292603,"lon":5.384447,"is_reserved":false,"is_disabled":false,"rental_uris":{"android":"levelo://app?vid=6398fd05-47e5-41f8-95bf-116d17d1d757","ios":"levelo://app?vid=6398fd05-47e5-41f8-95bf-116d17d1d757"},"vehicle_type_id":"4","last_reported":1761419229,"current_range_meters":8800,"station_id":"","pricing_plan_id":"cebpf4jnsgd1na2vs0mg"},{"bike_id":"af5e7963-26db-4fad-ad4c-add99ed3cd72","system_id":"levelo_inurba_marseille","lat":43.29033,"lon":5.38643,"is_reserved":false,"is_disabled":false,"rental_uris":{"android":"levelo://app?vid=af5e7963-26db-4fad-ad4c-add99ed3cd72","ios":"levelo://app?vid=af5e7963-26db-4fad-ad4c-add99ed3cd72"},"vehicle_type_id":"4","last_reported":1761419229,"current_range_meters":8800,"station_id":"ce4bh4p2rcd13ifvqe0g","pricing_plan_id":"cebpf4jnsgd1na2vs0mg"},{"bike_id":"4f5c5045-2f2c-4ab7-ad8b-eeba1d52fe66","system_id":"levelo_inurba_marseille","lat":43.29602,"lon":5.36594,"is_reserved":false,"is_disabled":false,"rental_uris":{"android":"levelo://app?vid=4f5c5045-2f2c-4ab7-ad8b-eeba1d52fe66","ios":"levelo://app?vid=4f5c5045-2f2c-4ab7-ad8b-eeba1d52fe66"},"vehicle_type_id":"4","last_reported":1761419229,"current_range_meters":9200,"station_id":"","pricing_plan_id":"cebpf4jnsgd1na2vs0mg"},{"bike_id":"e94f57f2-601c-4cad-a187-6e953770aa25","system_id":"levelo_inurba_marseille","lat":43.31244,"lon":5.37863,"is_reserved":false,"is_disabled":false,"rental_uris":{"android":"levelo://app?vid=e94f57f2-601c-4cad-a187-6e953770aa25","ios":"levelo://app?vid=e94f57f2-601c-4cad-a187-6e953770aa25"},"vehicle_type_id":"4","last_reported":1761419229,"current_range_meters":9200,"station_id":"","pricing_plan_id":"cebpf4jnsgd1na2vs0mg"},{"bike_id":"e0d9a8ed-91e5-4c7f-afbf-5bcae1a3d349","system_id":"levelo_inurba_marseille","lat":43.2998,"lon":5.38498,"is_reserved":false,"is_disabled":false,"rental_uris":{"android":"levelo://app?vid=e0d9a8ed-91e5-4c7f-afbf-5bcae1a3d349","ios":"levelo://app?vid=e0d9a8ed-91e5-4c7f-afbf-5bcae1a3d349"},"vehicle_type_id":"4","last_reported":1761419229,"current_range_meters":9200,"station_id":"ce4bgj92rcd13ifvqbd0","pricing_plan_id":"cebpf4jnsgd1na2vs0mg"},{"bike_id":"df12db7f-d06b-4f32-9106-0cee53886db0","system_id":"levelo_inurba_marseille","lat":43.31557,"lon":5.38904,"is_reserved":false,"is_disabled":false,"rental_uris":{"android":"levelo://app?vid=df12db7f-d06b-4f32-9106-0cee53886db0","ios":"levelo://app?vid=df12db7f-d06b-4f32-9106-0cee53886db0"},"vehicle_type_id":"4","last_reported":1761419229,"current_range_meters":9200,"station_id":"","pricing_plan_id":"cebpf4jnsgd1na2vs0mg"},{"bike_id":"67edc04a-667c-446f-983c-f0dfe3f0ac76","system_id":"levelo_inurba_marseille","lat":43.23971,"lon":5.36637,"is_reserved":false,"is_disabled":false,"rental_uris":{"android":"levelo://app?vid=67edc04a-667c-446f-983c-f0dfe3f0ac76","ios":"levelo://app?vid=67edc04a-667c-446f-983c-f0dfe3f0ac76"},"vehicle_type_id":"4","last_reported":1761419229,"current_range_meters":9600,"station_id":"ce4bhi12rcd13ifvqfp0","pricing_plan_id":"cebpf4jnsgd1na2vs0mg"},{"bike_id":"a35a4922-b803-4cd9-8623-7e895c294787","system_id":"levelo_inurba_marseille","lat":43.29779,"lon":5.38247,"is_reserved":false,"is_disabled":true,"rental_uris":{"android":"levelo://app?vid=a35a4922-b803-4cd9-8623-7e895c294787","ios":"levelo://app?vid=a35a4922-b803-4cd9-8623-7e895c294787"},"vehicle_type_id":"4","last_reported":1761419229,"current_range_meters":9600,"station_id":"","pricing_plan_id":"cebpf4jnsgd1na2vs0mg"},{"bike_id":"478a7703-feff-4904-acce-3c28e809f711","system_id":"levelo_inurba_marseille","lat":43.2903,"lon":5.38644,"is_reserved":false,"is_disabled":false,"rental_uris":{"android":"levelo://app?vid=478a7703-feff-4904-acce-3c28e809f711","ios":"levelo://app?vid=478a7703-feff-4904-acce-3c28e809f711"},"vehicle_type_id":"4","last_reported":1761419229,"current_range_meters":9600,"station_id":"ce4bh4p2rcd13ifvqe0g","pricing_plan_id":"cebpf4jnsgd1na2vs0mg"},{"bike_id":"e71901b3-0490-4707-b066-fc1a6044a3a0","system_id":"levelo_inurba_marseille","lat":43.29257,"lon":5.40908,"is_reserved":false,"is_disabled":false,"rental_uris":{"android":"levelo://app?vid=e71901b3-0490-4707-b066-fc1a6044a3a0","ios":"levelo://app?vid=e71901b3-0490-4707-b066-fc1a6044a3a0"},"vehicle_type_id":"4","last_reported":1761419229,"current_range_meters":10000,"station_id":"ce4bh192rcd13ifvqdc0","pricing_plan_id":"cebpf4jnsgd1na2vs0mg"},{"bike_id":"a8cc71fd-eca5-4b7e-b19c-425682294a8c","system_id":"levelo_inurba_marseille","lat":43.27941,"lon":5.41048,"is_reserved":false,"is_disabled":false,"rental_uris":{"android":"levelo://app?vid=a8cc71fd-eca5-4b7e-b19c-425682294a8c","ios":"levelo://app?vid=a8cc71fd-eca5-4b7e-b19c-425682294a8c"},"vehicle_type_id":"4","last_reported":1761419229,"current_range_meters":10800,"station_id":"ce4bhnp2rcd13ifvqh0g","pricing_plan_id":"cebpf4jnsgd1na2vs0mg"},{"bike_id":"9976edfb-fc69-4448-a5ea-e1e859a08491","system_id":"levelo_inurba_marseille","lat":43.2848,"lon":5.38547,"is_reserved":false,"is_disabled":false,"rental_uris":{"android":"levelo://app?vid=9976edfb-fc69-4448-a5ea-e1e859a08491","ios":"levelo://app?vid=9976edfb-fc69-4448-a5ea-e1e859a08491"},"vehicle_type_id":"4","last_reported":1761419229,"current_range_meters":10800,"station_id":"ce4bh8p2rcd13ifvqeb0","pricing_plan_id":"cebpf4jnsgd1na2vs0mg"},{"bike_id":"420b6971-47e2-4c67-8bd0-faa4f00e5ca7","system_id":"levelo_inurba_marseille","lat":43.29983,"lon":5.41356,"is_reserved":false,"is_disabled":false,"rental_uris":{"android":"levelo://app?vid=420b6971-47e2-4c67-8bd0-faa4f00e5ca7","ios":"levelo://app?vid=420b6971-47e2-4c67-8bd0-faa4f00e5ca7"},"vehicle_type_id":"4","last_reported":1761419229,"current_range_meters":10800,"station_id":"ce4bhp12rcd13ifvqh9g","pricing_plan_id":"cebpf4jnsgd1na2vs0mg"},{"bike_id":"9d964ec4-c537-4f1d-b21c-451d3f46b1bf","system_id":"levelo_inurba_marseille","lat":43.29905,"lon":5.37863,"is_reserved":false,"is_disabled":false,"rental_uris":{"android":"levelo://app?vid=9d964ec4-c537-4f1d-b21c-451d3f46b1bf","ios":"levelo://app?vid=9d964ec4-c537-4f1d-b21c-451d3f46b1bf"},"vehicle_type_id":"4","last_reported":1761419229,"current_range_meters":10800,"station_id":"","pricing_plan_id":"cebpf4jnsgd1na2vs0mg"},{"bike_id":"30ca6269-8a04-4fa6-8201-0b6ac9e96188","system_id":"levelo_inurba_marseille","lat":43.29983,"lon":5.38491,"is_reserved":false,"is_disabled":false,"rental_uris":{"android":"levelo://app?vid=30ca6269-8a04-4fa6-8201-0b6ac9e96188","ios":"levelo://app?vid=30ca6269-8a04-4fa6-8201-0b6ac9e96188"},"vehicle_type_id":"4","last_reported":1761419229,"current_range_meters":11200,"station_id":"ce4bgj92rcd13ifvqbd0","pricing_plan_id":"cebpf4jnsgd1na2vs0mg"},{"bike_id":"c973b2d7-503e-4eb2-bf4a-4af00d3f7fc0","system_id":"levelo_inurba_marseille","lat":43.29258,"lon":5.38438,"is_reserved":false,"is_disabled":false,"rental_uris":{"android":"levelo://app?vid=c973b2d7-503e-4eb2-bf4a-4af00d3f7fc0","ios":"levelo://app?vid=c973b2d7-503e-4eb2-bf4a-4af00d3f7fc0"},"vehicle_type_id":"4","last_reported":1761419229,"current_range_meters":11200,"station_id":"ce4bh692rcd13ifvqea0","pricing_plan_id":"cebpf4jnsgd1na2vs0mg"},{"bike_id":"8602ed53-c970-45ea-a8d7-d17cd72892ae","system_id":"levelo_inurba_marseille","lat":43.30548,"lon":5.36677,"is_reserved":false,"is_disabled":false,"rental_uris":{"android":"levelo://app?vid=8602ed53-c970-45ea-a8d7-d17cd72892ae","ios":"levelo://app?vid=8602ed53-c970-45ea-a8d7-d17cd72892ae"},"vehicle_type_id":"4","last_reported":1761419229,"current_range_meters":11200,"station_id":"ce4bgrp2rcd13ifvqc9g","pricing_plan_id":"cebpf4jnsgd1na2vs0mg"},{"bike_id":"35049181-5286-4d69-869a-cc7e4b9b3a4f","system_id":"levelo_inurba_marseille","lat":43.29367,"lon":5.3787,"is_reserved":false,"is_disabled":false,"rental_uris":{"android":"levelo://app?vid=35049181-5286-4d69-869a-cc7e4b9b3a4f","ios":"levelo://app?vid=35049181-5286-4d69-869a-cc7e4b9b3a4f"},"vehicle_type_id":"4","last_reported":1761419229,"current_range_meters":11600,"station_id":"ce4bgjh2rcd13ifvqbf0","pricing_plan_id":"cebpf4jnsgd1na2vs0mg"},{"bike_id":"88e6c915-73c7-49d2-a0da-65969d967e6b","system_id":"levelo_inurba_marseille","lat":43.283517,"lon":5.38108,"is_reserved":false,"is_disabled":false,"rental_uris":{"android":"levelo://app?vid=88e6c915-73c7-49d2-a0da-65969d967e6b","ios":"levelo://app?vid=88e6c915-73c7-49d2-a0da-65969d967e6b"},"vehicle_type_id":"4","last_reported":1761419229,"current_range_meters":11600,"station_id":"ce4bh412rcd13ifvqdr0","pricing_plan_id":"cebpf4jnsgd1na2vs0mg"},{"bike_id":"8be6a47c-9542-4fed-8109-f6d91a0f2b3f","system_id":"levelo_inurba_marseille","lat":43.29174,"lon":5.37161,"is_reserved":false,"is_disabled":false,"rental_uris":{"android":"levelo://app?vid=8be6a47c-9542-4fed-8109-f6d91a0f2b3f","ios":"levelo://app?vid=8be6a47c-9542-4fed-8109-f6d91a0f2b3f"},"vehicle_type_id":"4","last_reported":1761419229,"current_range_meters":11600,"station_id":"ce4bha92rcd13ifvqeh0","pricing_plan_id":"cebpf4jnsgd1na2vs0mg"},{"bike_id":"27db6b6d-ff59-443e-88a4-523ae9c90b2e","system_id":"levelo_inurba_marseille","lat":43.34156,"lon":5.40897,"is_reserved":false,"is_disabled":false,"rental_uris":{"android":"levelo://app?vid=27db6b6d-ff59-443e-88a4-523ae9c90b2e","ios":"levelo://app?vid=27db6b6d-ff59-443e-88a4-523ae9c90b2e"},"vehicle_type_id":"4","last_reported":1761419229,"current_range_meters":11600,"station_id":"ce4bhqh2rcd13ifvqhlg","pricing_plan_id":"cebpf4jnsgd1na2vs0mg"},{"bike_id":"43117888-69d1-4bc6-a73a-697554e4a08e","system_id":"levelo_inurba_marseille","lat":43.252526,"lon":5.378083,"is_reserved":false,"is_disabled":false,"rental_uris":{"android":"levelo://app?vid=43117888-69d1-4bc6-a73a-697554e4a08e","ios":"levelo://app?vid=43117888-69d1-4bc6-a73a-697554e4a08e"},"vehicle_type_id":"4","last_reported":1761419229,"current_range_meters":12000,"station_id":"","pricing_plan_id":"cebpf4jnsgd1na2vs0mg"},{"bike_id":"d39642bc-d475-4b07-ad73-13fd4f591a24","system_id":"levelo_inurba_marseille","lat":43.29433,"lon":5.39756,"is_reserved":false,"is_disabled":false,"rental_uris":{"android":"levelo://app?vid=d39642bc-d475-4b07-ad73-13fd4f591a24","ios":"levelo://app?vid=d39642bc-d475-4b07-ad73-13fd4f591a24"},"vehicle_type_id":"4","last_reported":1761419229,"current_range_meters":12000,"station_id":"ce4bh3h2rcd13ifvqdo0","pricing_plan_id":"cebpf4jnsgd1na2vs0mg"},{"bike_id":"40f49102-db4f-402e-ac41-38ea9e38d111","system_id":"levelo_inurba_marseille","lat":43.29199,"lon":5.39327,"is_reserved":false,"is_disabled":false,"rental_uris":{"android":"levelo://app?vid=40f49102-db4f-402e-ac41-38ea9e38d111","ios":"levelo://app?vid=40f49102-db4f-402e-ac41-38ea9e38d111"},"vehicle_type_id":"4","last_reported":1761419229,"current_range_meters":12000,"station_id":"ce4bh192rcd13ifvqdd0","pricing_plan_id":"cebpf4jnsgd1na2vs0mg"},{"bike_id":"8e92164c-deff-4fbd-9f4e-43ff81933572","system_id":"levelo_inurba_marseille","lat":43.29832,"lon":5.42011,"is_reserved":false,"is_disabled":false,"rental_uris":{"android":"levelo://app?vid=8e92164c-deff-4fbd-9f4e-43ff81933572","ios":"levelo://app?vid=8e92164c-deff-4fbd-9f4e-43ff81933572"},"vehicle_type_id":"4","last_reported":1761419229,"current_range_meters":12000,"station_id":"","pricing_plan_id":"cebpf4jnsgd1na2vs0mg"},{"bike_id":"c9f77e6f-0601-4ca6-bbcc-b44404cdcac3","system_id":"levelo_inurba_marseille","lat":43.290306,"lon":5.386492,"is_reserved":false,"is_disabled":false,"rental_uris":{"android":"levelo://app?vid=c9f77e6f-0601-4ca6-bbcc-b44404cdcac3","ios":"levelo://app?vid=c9f77e6f-0601-4ca6-bbcc-b44404cdcac3"},"vehicle_type_id":"4","last_reported":1761419229,"current_range_meters":12400,"station_id":"ce4bh4p2rcd13ifvqe0g","pricing_plan_id":"cebpf4jnsgd1na2vs0mg"},{"bike_id":"cd26ab16-3e3e-43ea-a563-05ea7a953084","system_id":"levelo_inurba_marseille","lat":43.31202,"lon":5.36731,"is_reserved":false,"is_disabled":false,"rental_uris":{"android":"levelo://app?vid=cd26ab16-3e3e-43ea-a563-05ea7a953084","ios":"levelo://app?vid=cd26ab16-3e3e-43ea-a563-05ea7a953084"},"vehicle_type_id":"4","last_reported":1761419229,"current_range_meters":12400,"station_id":"","pricing_plan_id":"cebpf4jnsgd1na2vs0mg"},{"bike_id":"dab36927-4328-48fa-bffb-145a737de07e","system_id":"levelo_inurba_marseille","lat":43.30831,"lon":5.4353,"is_reserved":false,"is_disabled":true,"rental_uris":{"android":"levelo://app?vid=dab36927-4328-48fa-bffb-145a737de07e","ios":"levelo://app?vid=dab36927-4328-48fa-bffb-145a737de07e"},"vehicle_type_id":"4","last_reported":1761419229,"current_range_meters":12800,"station_id":"ce4bhph2rcd13ifvqheg","pricing_plan_id":"cebpf4jnsgd1na2vs0mg"},{"bike_id":"5b91766d-91d0-4602-8be6-6a369c10831e","system_id":"levelo_inurba_marseille","lat":43.23798,"lon":5.36621,"is_reserved":false,"is_disabled":false,"rental_uris":{"android":"levelo://app?vid=5b91766d-91d0-4602-8be6-6a369c10831e","ios":"levelo://app?vid=5b91766d-91d0-4602-8be6-6a369c10831e"},"vehicle_type_id":"4","last_reported":1761419229,"current_range_meters":12800,"station_id":"st_d3nk18o9ro0c73en2l3g","pricing_plan_id":"cebpf4jnsgd1na2vs0mg"},{"bike_id":"5334db16-532d-447f-bed6-9cfa8d288895","system_id":"levelo_inurba_marseille","lat":43.25383,"lon":5.41406,"is_reserved":false,"is_disabled":false,"rental_uris":{"android":"levelo://app?vid=5334db16-532d-447f-bed6-9cfa8d288895","ios":"levelo://app?vid=5334db16-532d-447f-bed6-9cfa8d288895"},"vehicle_type_id":"4","last_reported":1761419229,"current_range_meters":12800,"station_id":"","pricing_plan_id":"cebpf4jnsgd1na2vs0mg"},{"bike_id":"bd1cf25a-484a-47f9-a8c0-9861aa4ae758","system_id":"levelo_inurba_marseille","lat":43.24692,"lon":5.38141,"is_reserved":false,"is_disabled":false,"rental_uris":{"android":"levelo://app?vid=bd1cf25a-484a-47f9-a8c0-9861aa4ae758","ios":"levelo://app?vid=bd1cf25a-484a-47f9-a8c0-9861aa4ae758"},"vehicle_type_id":"4","last_reported":1761419229,"current_range_meters":12800,"station_id":"ce4bhih2rcd13ifvqfr0","pricing_plan_id":"cebpf4jnsgd1na2vs0mg"},{"bike_id":"46a5aa77-d4a5-4c81-b11e-149a4d9ebef9","system_id":"levelo_inurba_marseille","lat":43.30156,"lon":5.39847,"is_reserved":false,"is_disabled":false,"rental_uris":{"android":"levelo://app?vid=46a5aa77-d4a5-4c81-b11e-149a4d9ebef9","ios":"levelo://app?vid=46a5aa77-d4a5-4c81-b11e-149a4d9ebef9"},"vehicle_type_id":"4","last_reported":1761419229,"current_range_meters":12800,"station_id":"ce4bh0h2rcd13ifvqd40","pricing_plan_id":"cebpf4jnsgd1na2vs0mg"},{"bike_id":"52cc822f-d815-4aa7-9109-f69dbe32103d","system_id":"levelo_inurba_marseille","lat":43.29235,"lon":5.38459,"is_reserved":false,"is_disabled":false,"rental_uris":{"android":"levelo://app?vid=52cc822f-d815-4aa7-9109-f69dbe32103d","ios":"levelo://app?vid=52cc822f-d815-4aa7-9109-f69dbe32103d"},"vehicle_type_id":"4","last_reported":1761419229,"current_range_meters":12800,"station_id":"ce4bh692rcd13ifvqea0","pricing_plan_id":"cebpf4jnsgd1na2vs0mg"},{"bike_id":"8c35a7e4-8378-4fdf-b42f-02e88b6199ca","system_id":"levelo_inurba_marseille","lat":43.32095,"lon":5.36765,"is_reserved":false,"is_disabled":false,"rental_uris":{"android":"levelo://app?vid=8c35a7e4-8378-4fdf-b42f-02e88b6199ca","ios":"levelo://app?vid=8c35a7e4-8378-4fdf-b42f-02e88b6199ca"},"vehicle_type_id":"4","last_reported":1761419229,"current_range_meters":12800,"station_id":"ce4bhrh2rcd13ifvqhug","pricing_plan_id":"cebpf4jnsgd1na2vs0mg"},{"bike_id":"55962998-e3c1-42fd-bec4-434711902904","system_id":"levelo_inurba_marseille","lat":43.31339,"lon":5.40557,"is_reserved":false,"is_disabled":false,"rental_uris":{"android":"levelo://app?vid=55962998-e3c1-42fd-bec4-434711902904","ios":"levelo://app?vid=55962998-e3c1-42fd-bec4-434711902904"},"vehicle_type_id":"4","last_reported":1761419229,"current_range_meters":12800,"station_id":"","pricing_plan_id":"cebpf4jnsgd1na2vs0mg"},{"bike_id":"e4a28ac3-7be6-4882-8f1a-0bc98d87914e","system_id":"levelo_inurba_marseille","lat":43.26573,"lon":5.39011,"is_reserved":false,"is_disabled":false,"rental_uris":{"android":"levelo://app?vid=e4a28ac3-7be6-4882-8f1a-0bc98d87914e","ios":"levelo://app?vid=e4a28ac3-7be6-4882-8f1a-0bc98d87914e"},"vehicle_type_id":"4","last_reported":1761419229,"current_range_meters":12800,"station_id":"ce4bhe12rcd13ifvqf30","pricing_plan_id":"cebpf4jnsgd1na2vs0mg"},{"bike_id":"79d0da37-84bd-47cc-8f16-7c1b2b586f49","system_id":"levelo_inurba_marseille","lat":43.31686,"lon":5.40474,"is_reserved":false,"is_disabled":false,"rental_uris":{"android":"levelo://app?vid=79d0da37-84bd-47cc-8f16-7c1b2b586f49","ios":"levelo://app?vid=79d0da37-84bd-47cc-8f16-7c1b2b586f49"},"vehicle_type_id":"4","last_reported":1761419229,"current_range_meters":12800,"station_id":"ce4bh012rcd13ifvqd00","pricing_plan_id":"cebpf4jnsgd1na2vs0mg"},{"bike_id":"ce13fcb5-c965-4906-b221-b9612cd0fdf5","system_id":"levelo_inurba_marseille","lat":43.27573,"lon":5.38417,"is_reserved":false,"is_disabled":false,"rental_uris":{"android":"levelo://app?vid=ce13fcb5-c965-4906-b221-b9612cd0fdf5","ios":"levelo://app?vid=ce13fcb5-c965-4906-b221-b9612cd0fdf5"},"vehicle_type_id":"4","last_reported":1761419229,"current_range_meters":13600,"station_id":"ce4bhh92rcd13ifvqfi0","pricing_plan_id":"cebpf4jnsgd1na2vs0mg"},{"bike_id":"ea451013-7326-4e7f-a478-90ef18eee2b0","system_id":"levelo_inurba_marseille","lat":43.31701,"lon":5.40477,"is_reserved":false,"is_disabled":false,"rental_uris":{"android":"levelo://app?vid=ea451013-7326-4e7f-a478-90ef18eee2b0","ios":"levelo://app?vid=ea451013-7326-4e7f-a478-90ef18eee2b0"},"vehicle_type_id":"4","last_reported":1761419229,"current_range_meters":13600,"station_id":"ce4bh012rcd13ifvqd00","pricing_plan_id":"cebpf4jnsgd1na2vs0mg"},{"bike_id":"07c5f6f8-eb39-4207-819b-ff5fa443c777","system_id":"levelo_inurba_marseille","lat":43.290344,"lon":5.375675,"is_reserved":false,"is_disabled":false,"rental_uris":{"android":"levelo://app?vid=07c5f6f8-eb39-4207-819b-ff5fa443c777","ios":"levelo://app?vid=07c5f6f8-eb39-4207-819b-ff5fa443c777"},"vehicle_type_id":"4","last_reported":1761419229,"current_range_meters":13600,"station_id":"ce4bh692rcd13ifvqe90","pricing_plan_id":"cebpf4jnsgd1na2vs0mg"},{"bike_id":"0485a4fb-ac16-4e97-825e-e88c05f67438","system_id":"levelo_inurba_marseille","lat":43.282693,"lon":5.350527,"is_reserved":false,"is_disabled":false,"rental_uris":{"android":"levelo://app?vid=0485a4fb-ac16-4e97-825e-e88c05f67438","ios":"levelo://app?vid=0485a4fb-ac16-4e97-825e-e88c05f67438"},"vehicle_type_id":"4","last_reported":1761419229,"current_range_meters":14000,"station_id":"ce4bhbp2rcd13ifvqerg","pricing_plan_id":"cebpf4jnsgd1na2vs0mg"},{"bike_id":"aad8920f-23d6-4a17-84f6-d3ef1915d691","system_id":"levelo_inurba_marseille","lat":43.32366,"lon":5.38886,"is_reserved":false,"is_disabled":false,"rental_uris":{"android":"levelo://app?vid=aad8920f-23d6-4a17-84f6-d3ef1915d691","ios":"levelo://app?vid=aad8920f-23d6-4a17-84f6-d3ef1915d691"},"vehicle_type_id":"4","last_reported":1761419229,"current_range_meters":14000,"station_id":"ce4bhqp2rcd13ifvqhog","pricing_plan_id":"cebpf4jnsgd1na2vs0mg"},{"bike_id":"f9ad92a9-3ce1-4bd3-a291-d1791b8302a9","system_id":"levelo_inurba_marseille","lat":43.29171,"lon":5.37165,"is_reserved":false,"is_disabled":false,"rental_uris":{"android":"levelo://app?vid=f9ad92a9-3ce1-4bd3-a291-d1791b8302a9","ios":"levelo://app?vid=f9ad92a9-3ce1-4bd3-a291-d1791b8302a9"},"vehicle_type_id":"4","last_reported":1761419229,"current_range_meters":14000,"station_id":"ce4bha92rcd13ifvqeh0","pricing_plan_id":"cebpf4jnsgd1na2vs0mg"},{"bike_id":"1a8a4bd1-ee63-4b53-836d-d34ac5fae822","system_id":"levelo_inurba_marseille","lat":43.29531,"lon":5.38546,"is_reserved":false,"is_disabled":false,"rental_uris":{"android":"levelo://app?vid=1a8a4bd1-ee63-4b53-836d-d34ac5fae822","ios":"levelo://app?vid=1a8a4bd1-ee63-4b53-836d-d34ac5fae822"},"vehicle_type_id":"4","last_reported":1761419229,"current_range_meters":14400,"station_id":"ce4bgih2rcd13ifvqba0","pricing_plan_id":"cebpf4jnsgd1na2vs0mg"},{"bike_id":"856e142f-bc05-4738-a75f-30441de6bce3","system_id":"levelo_inurba_marseille","lat":43.31267,"lon":5.36842,"is_reserved":false,"is_disabled":false,"rental_uris":{"android":"levelo://app?vid=856e142f-bc05-4738-a75f-30441de6bce3","ios":"levelo://app?vid=856e142f-bc05-4738-a75f-30441de6bce3"},"vehicle_type_id":"4","last_reported":1761419229,"current_range_meters":14400,"station_id":"ce4bgl92rcd13ifvqbq0","pricing_plan_id":"cebpf4jnsgd1na2vs0mg"},{"bike_id":"ddd172c2-72dd-48f9-8c30-ca85638c0e62","system_id":"levelo_inurba_marseille","lat":43.28714,"lon":5.36084,"is_reserved":false,"is_disabled":false,"rental_uris":{"android":"levelo://app?vid=ddd172c2-72dd-48f9-8c30-ca85638c0e62","ios":"levelo://app?vid=ddd172c2-72dd-48f9-8c30-ca85638c0e62"},"vehicle_type_id":"4","last_reported":1761419229,"current_range_meters":14400,"station_id":"cki0cbj6b192h4jlfktg","pricing_plan_id":"cebpf4jnsgd1na2vs0mg"},{"bike_id":"5d077c87-b5d7-42e0-9d50-27ce5720ec9b","system_id":"levelo_inurba_marseille","lat":43.29447,"lon":5.39754,"is_reserved":false,"is_disabled":false,"rental_uris":{"android":"levelo://app?vid=5d077c87-b5d7-42e0-9d50-27ce5720ec9b","ios":"levelo://app?vid=5d077c87-b5d7-42e0-9d50-27ce5720ec9b"},"vehicle_type_id":"4","last_reported":1761419229,"current_range_meters":14400,"station_id":"ce4bh3h2rcd13ifvqdo0","pricing_plan_id":"cebpf4jnsgd1na2vs0mg"},{"bike_id":"a1f0d8aa-65d4-4d46-b2fe-8bd8add1ab50","system_id":"levelo_inurba_marseille","lat":43.29522,"lon":5.39034,"is_reserved":false,"is_disabled":false,"rental_uris":{"android":"levelo://app?vid=a1f0d8aa-65d4-4d46-b2fe-8bd8add1ab50","ios":"levelo://app?vid=a1f0d8aa-65d4-4d46-b2fe-8bd8add1ab50"},"vehicle_type_id":"4","last_reported":1761419229,"current_range_meters":14400,"station_id":"ce4bh3p2rcd13ifvqdp0","pricing_plan_id":"cebpf4jnsgd1na2vs0mg"},{"bike_id":"8757a1cd-f2bd-4daf-8705-c8be0e110b30","system_id":"levelo_inurba_marseille","lat":43.290655,"lon":5.371561,"is_reserved":false,"is_disabled":false,"rental_uris":{"android":"levelo://app?vid=8757a1cd-f2bd-4daf-8705-c8be0e110b30","ios":"levelo://app?vid=8757a1cd-f2bd-4daf-8705-c8be0e110b30"},"vehicle_type_id":"4","last_reported":1761419229,"current_range_meters":14400,"station_id":"ce4bh5p2rcd13ifvqe4g","pricing_plan_id":"cebpf4jnsgd1na2vs0mg"},{"bike_id":"24093db0-197a-4f9a-b931-0897dd93a25d","system_id":"levelo_inurba_marseille","lat":43.24662,"lon":5.38178,"is_reserved":false,"is_disabled":false,"rental_uris":{"android":"levelo://app?vid=24093db0-197a-4f9a-b931-0897dd93a25d","ios":"levelo://app?vid=24093db0-197a-4f9a-b931-0897dd93a25d"},"vehicle_type_id":"4","last_reported":1761419229,"current_range_meters":14400,"station_id":"ce4bhih2rcd13ifvqfr0","pricing_plan_id":"cebpf4jnsgd1na2vs0mg"},{"bike_id":"26c6914f-5d31-4b10-9322-43b7c1a8ff16","system_id":"levelo_inurba_marseille","lat":43.296283,"lon":5.377126,"is_reserved":false,"is_disabled":false,"rental_uris":{"android":"levelo://app?vid=26c6914f-5d31-4b10-9322-43b7c1a8ff16","ios":"levelo://app?vid=26c6914f-5d31-4b10-9322-43b7c1a8ff16"},"vehicle_type_id":"4","last_reported":1761419229,"current_range_meters":14400,"station_id":"ce4bh0p2rcd13ifvqd80","pricing_plan_id":"cebpf4jnsgd1na2vs0mg"},{"bike_id":"d3145067-3ca0-4e72-b01a-ef78c0959aad","system_id":"levelo_inurba_marseille","lat":43.3024,"lon":5.40068,"is_reserved":false,"is_disabled":true,"rental_uris":{"android":"levelo://app?vid=d3145067-3ca0-4e72-b01a-ef78c0959aad","ios":"levelo://app?vid=d3145067-3ca0-4e72-b01a-ef78c0959aad"},"vehicle_type_id":"4","last_reported":1761419229,"current_range_meters":14400,"station_id":"ce4bgvh2rcd13ifvqcs0","pricing_plan_id":"cebpf4jnsgd1na2vs0mg"},{"bike_id":"53159dd3-0584-4bf2-8811-c264770f3d56","system_id":"levelo_inurba_marseille","lat":43.29517,"lon":5.39048,"is_reserved":false,"is_disabled":false,"rental_uris":{"android":"levelo://app?vid=53159dd3-0584-4bf2-8811-c264770f3d56","ios":"levelo://app?vid=53159dd3-0584-4bf2-8811-c264770f3d56"},"vehicle_type_id":"4","last_reported":1761419229,"current_range_meters":14800,"station_id":"ce4bh3p2rcd13ifvqdp0","pricing_plan_id":"cebpf4jnsgd1na2vs0mg"},{"bike_id":"51f6b392-8d0d-41b5-9bf6-76a949608beb","system_id":"levelo_inurba_marseille","lat":43.25343,"lon":5.42138,"is_reserved":false,"is_disabled":false,"rental_uris":{"android":"levelo://app?vid=51f6b392-8d0d-41b5-9bf6-76a949608beb","ios":"levelo://app?vid=51f6b392-8d0d-41b5-9bf6-76a949608beb"},"vehicle_type_id":"4","last_reported":1761419229,"current_range_meters":14800,"station_id":"st_d2m65c5bi1j21697t3ng","pricing_plan_id":"cebpf4jnsgd1na2vs0mg"},{"bike_id":"d0d97312-c0ce-4e35-b465-0113c6bd0b31","system_id":"levelo_inurba_marseille","lat":43.23971,"lon":5.36627,"is_reserved":false,"is_disabled":false,"rental_uris":{"android":"levelo://app?vid=d0d97312-c0ce-4e35-b465-0113c6bd0b31","ios":"levelo://app?vid=d0d97312-c0ce-4e35-b465-0113c6bd0b31"},"vehicle_type_id":"4","last_reported":1761419229,"current_range_meters":14800,"station_id":"ce4bhi12rcd13ifvqfp0","pricing_plan_id":"cebpf4jnsgd1na2vs0mg"},{"bike_id":"086e41c1-adb0-475d-8d23-b2b1b1afd76a","system_id":"levelo_inurba_marseille","lat":43.26223,"lon":5.40446,"is_reserved":false,"is_disabled":false,"rental_uris":{"android":"levelo://app?vid=086e41c1-adb0-475d-8d23-b2b1b1afd76a","ios":"levelo://app?vid=086e41c1-adb0-475d-8d23-b2b1b1afd76a"},"vehicle_type_id":"4","last_reported":1761419229,"current_range_meters":15200,"station_id":"ce4bhmh2rcd13ifvqgmg","pricing_plan_id":"cebpf4jnsgd1na2vs0mg"},{"bike_id":"87343782-7fbe-407f-9e2c-5a512f9371a6","system_id":"levelo_inurba_marseille","lat":43.29262,"lon":5.38447,"is_reserved":false,"is_disabled":false,"rental_uris":{"android":"levelo://app?vid=87343782-7fbe-407f-9e2c-5a512f9371a6","ios":"levelo://app?vid=87343782-7fbe-407f-9e2c-5a512f9371a6"},"vehicle_type_id":"4","last_reported":1761419229,"current_range_meters":15200,"station_id":"ce4bh692rcd13ifvqea0","pricing_plan_id":"cebpf4jnsgd1na2vs0mg"},{"bike_id":"f7fdace1-b57b-40b2-a658-1b64b6a3cebb","system_id":"levelo_inurba_marseille","lat":43.275947,"lon":5.384125,"is_reserved":false,"is_disabled":false,"rental_uris":{"android":"levelo://app?vid=f7fdace1-b57b-40b2-a658-1b64b6a3cebb","ios":"levelo://app?vid=f7fdace1-b57b-40b2-a658-1b64b6a3cebb"},"vehicle_type_id":"4","last_reported":1761419229,"current_range_meters":15200,"station_id":"ce4bhh92rcd13ifvqfi0","pricing_plan_id":"cebpf4jnsgd1na2vs0mg"},{"bike_id":"05fdd635-c7dc-48e9-9da1-ac81a4c458a2","system_id":"levelo_inurba_marseille","lat":43.295107,"lon":5.388655,"is_reserved":false,"is_disabled":false,"rental_uris":{"android":"levelo://app?vid=05fdd635-c7dc-48e9-9da1-ac81a4c458a2","ios":"levelo://app?vid=05fdd635-c7dc-48e9-9da1-ac81a4c458a2"},"vehicle_type_id":"4","last_reported":1761419229,"current_range_meters":15200,"station_id":"ce4bh3p2rcd13ifvqdp0","pricing_plan_id":"cebpf4jnsgd1na2vs0mg"},{"bike_id":"1019884c-a520-4da5-bda9-f19d9e58a14d","system_id":"levelo_inurba_marseille","lat":43.29256,"lon":5.38436,"is_reserved":false,"is_disabled":false,"rental_uris":{"android":"levelo://app?vid=1019884c-a520-4da5-bda9-f19d9e58a14d","ios":"levelo://app?vid=1019884c-a520-4da5-bda9-f19d9e58a14d"},"vehicle_type_id":"4","last_reported":1761419229,"current_range_meters":15200,"station_id":"ce4bh692rcd13ifvqea0","pricing_plan_id":"cebpf4jnsgd1na2vs0mg"},{"bike_id":"c7be9bb5-2c84-460f-93ee-aec500e6e828","system_id":"levelo_inurba_marseille","lat":43.26956,"lon":5.38639,"is_reserved":false,"is_disabled":false,"rental_uris":{"android":"levelo://app?vid=c7be9bb5-2c84-460f-93ee-aec500e6e828","ios":"levelo://app?vid=c7be9bb5-2c84-460f-93ee-aec500e6e828"},"vehicle_type_id":"4","last_reported":1761419229,"current_range_meters":16000,"station_id":"ce4bhh92rcd13ifvqfh0","pricing_plan_id":"cebpf4jnsgd1na2vs0mg"},{"bike_id":"40fed290-3dea-4c73-bf2e-af05de8161fd","system_id":"levelo_inurba_marseille","lat":43.32111,"lon":5.36746,"is_reserved":false,"is_disabled":false,"rental_uris":{"android":"levelo://app?vid=40fed290-3dea-4c73-bf2e-af05de8161fd","ios":"levelo://app?vid=40fed290-3dea-4c73-bf2e-af05de8161fd"},"vehicle_type_id":"4","last_reported":1761419229,"current_range_meters":16000,"station_id":"ce4bhrh2rcd13ifvqhug","pricing_plan_id":"cebpf4jnsgd1na2vs0mg"},{"bike_id":"ab097f15-aad4-45c1-872b-28a77488204a","system_id":"levelo_inurba_marseille","lat":43.29899,"lon":5.43657,"is_reserved":false,"is_disabled":false,"rental_uris":{"android":"levelo://app?vid=ab097f15-aad4-45c1-872b-28a77488204a","ios":"levelo://app?vid=ab097f15-aad4-45c1-872b-28a77488204a"},"vehicle_type_id":"4","last_reported":1761419229,"current_range_meters":16000,"station_id":"ce4bhpp2rcd13ifvqhfg","pricing_plan_id":"cebpf4jnsgd1na2vs0mg"},{"bike_id":"59e0e55d-ae93-4c8a-989c-120e6e17d539","system_id":"levelo_inurba_marseille","lat":43.23063,"lon":5.35498,"is_reserved":false,"is_disabled":false,"rental_uris":{"android":"levelo://app?vid=59e0e55d-ae93-4c8a-989c-120e6e17d539","ios":"levelo://app?vid=59e0e55d-ae93-4c8a-989c-120e6e17d539"},"vehicle_type_id":"4","last_reported":1761419229,"current_range_meters":16000,"station_id":"cpo3342slgdg3j2ifvpg","pricing_plan_id":"cebpf4jnsgd1na2vs0mg"},{"bike_id":"875ed736-33ec-4fd9-9ccc-07f69a3506cb","system_id":"levelo_inurba_marseille","lat":43.24545,"lon":5.39514,"is_reserved":false,"is_disabled":false,"rental_uris":{"android":"levelo://app?vid=875ed736-33ec-4fd9-9ccc-07f69a3506cb","ios":"levelo://app?vid=875ed736-33ec-4fd9-9ccc-07f69a3506cb"},"vehicle_type_id":"4","last_reported":1761419229,"current_range_meters":16000,"station_id":"ce4bhlp2rcd13ifvqgjg","pricing_plan_id":"cebpf4jnsgd1na2vs0mg"},{"bike_id":"02253b20-9787-436b-aee3-53935d1c1839","system_id":"levelo_inurba_marseille","lat":43.23192,"lon":5.35544,"is_reserved":false,"is_disabled":false,"rental_uris":{"android":"levelo://app?vid=02253b20-9787-436b-aee3-53935d1c1839","ios":"levelo://app?vid=02253b20-9787-436b-aee3-53935d1c1839"},"vehicle_type_id":"4","last_reported":1761419229,"current_range_meters":16000,"station_id":"ce4bhu92rcd13ifvqi70","pricing_plan_id":"cebpf4jnsgd1na2vs0mg"},{"bike_id":"3ad4d97d-497f-4447-841e-5d883753625f","system_id":"levelo_inurba_marseille","lat":43.28283,"lon":5.35076,"is_reserved":false,"is_disabled":false,"rental_uris":{"android":"levelo://app?vid=3ad4d97d-497f-4447-841e-5d883753625f","ios":"levelo://app?vid=3ad4d97d-497f-4447-841e-5d883753625f"},"vehicle_type_id":"4","last_reported":1761419229,"current_range_meters":16400,"station_id":"ce4bhbp2rcd13ifvqerg","pricing_plan_id":"cebpf4jnsgd1na2vs0mg"},{"bike_id":"e42e3f31-fbf7-4040-bb41-121a08b42ff8","system_id":"levelo_inurba_marseille","lat":43.29242,"lon":5.38448,"is_reserved":false,"is_disabled":false,"rental_uris":{"android":"levelo://app?vid=e42e3f31-fbf7-4040-bb41-121a08b42ff8","ios":"levelo://app?vid=e42e3f31-fbf7-4040-bb41-121a08b42ff8"},"vehicle_type_id":"4","last_reported":1761419229,"current_range_meters":16400,"station_id":"ce4bh692rcd13ifvqea0","pricing_plan_id":"cebpf4jnsgd1na2vs0mg"},{"bike_id":"e3c37ef6-fc8d-40f6-aaa7-3e531d410441","system_id":"levelo_inurba_marseille","lat":43.3373,"lon":5.39176,"is_reserved":false,"is_disabled":false,"rental_uris":{"android":"levelo://app?vid=e3c37ef6-fc8d-40f6-aaa7-3e531d410441","ios":"levelo://app?vid=e3c37ef6-fc8d-40f6-aaa7-3e531d410441"},"vehicle_type_id":"4","last_reported":1761419229,"current_range_meters":16400,"station_id":"ce4bhr92rcd13ifvqhsg","pricing_plan_id":"cebpf4jnsgd1na2vs0mg"},{"bike_id":"a6f0ed19-8042-4fbc-83cb-73ce2f11e459","system_id":"levelo_inurba_marseille","lat":43.32111,"lon":5.36764,"is_reserved":false,"is_disabled":false,"rental_uris":{"android":"levelo://app?vid=a6f0ed19-8042-4fbc-83cb-73ce2f11e459","ios":"levelo://app?vid=a6f0ed19-8042-4fbc-83cb-73ce2f11e459"},"vehicle_type_id":"4","last_reported":1761419229,"current_range_meters":16400,"station_id":"ce4bhrh2rcd13ifvqhug","pricing_plan_id":"cebpf4jnsgd1na2vs0mg"},{"bike_id":"2dd98e6f-9b04-409b-bcdc-47a93c2397d4","system_id":"levelo_inurba_marseille","lat":43.29267,"lon":5.38436,"is_reserved":false,"is_disabled":false,"rental_uris":{"android":"levelo://app?vid=2dd98e6f-9b04-409b-bcdc-47a93c2397d4","ios":"levelo://app?vid=2dd98e6f-9b04-409b-bcdc-47a93c2397d4"},"vehicle_type_id":"4","last_reported":1761419229,"current_range_meters":16400,"station_id":"ce4bh692rcd13ifvqea0","pricing_plan_id":"cebpf4jnsgd1na2vs0mg"},{"bike_id":"4e6c87d1-da28-4498-bb0e-a6399cc88e21","system_id":"levelo_inurba_marseille","lat":43.29532,"lon":5.3904,"is_reserved":false,"is_disabled":false,"rental_uris":{"android":"levelo://app?vid=4e6c87d1-da28-4498-bb0e-a6399cc88e21","ios":"levelo://app?vid=4e6c87d1-da28-4498-bb0e-a6399cc88e21"},"vehicle_type_id":"4","last_reported":1761419229,"current_range_meters":16400,"station_id":"ce4bh3p2rcd13ifvqdp0","pricing_plan_id":"cebpf4jnsgd1na2vs0mg"},{"bike_id":"57b2114c-449f-4063-b3fa-9cdb1665b6ea","system_id":"levelo_inurba_marseille","lat":43.2926,"lon":5.38446,"is_reserved":false,"is_disabled":false,"rental_uris":{"android":"levelo://app?vid=57b2114c-449f-4063-b3fa-9cdb1665b6ea","ios":"levelo://app?vid=57b2114c-449f-4063-b3fa-9cdb1665b6ea"},"vehicle_type_id":"4","last_reported":1761419229,"current_range_meters":16800,"station_id":"ce4bh692rcd13ifvqea0","pricing_plan_id":"cebpf4jnsgd1na2vs0mg"},{"bike_id":"c0b81f28-bbba-4247-a74b-c55a34b31846","system_id":"levelo_inurba_marseille","lat":43.33258,"lon":5.41086,"is_reserved":false,"is_disabled":false,"rental_uris":{"android":"levelo://app?vid=c0b81f28-bbba-4247-a74b-c55a34b31846","ios":"levelo://app?vid=c0b81f28-bbba-4247-a74b-c55a34b31846"},"vehicle_type_id":"4","last_reported":1761419229,"current_range_meters":16800,"station_id":"","pricing_plan_id":"cebpf4jnsgd1na2vs0mg"},{"bike_id":"29b38a45-3e07-40c1-b8b1-5f85b487711f","system_id":"levelo_inurba_marseille","lat":43.3126,"lon":5.4042,"is_reserved":false,"is_disabled":false,"rental_uris":{"android":"levelo://app?vid=29b38a45-3e07-40c1-b8b1-5f85b487711f","ios":"levelo://app?vid=29b38a45-3e07-40c1-b8b1-5f85b487711f"},"vehicle_type_id":"4","last_reported":1761419229,"current_range_meters":16800,"station_id":"","pricing_plan_id":"cebpf4jnsgd1na2vs0mg"},{"bike_id":"cbcdd39f-b16b-4830-bef7-1f20f112a7de","system_id":"levelo_inurba_marseille","lat":43.319954,"lon":5.381525,"is_reserved":false,"is_disabled":false,"rental_uris":{"android":"levelo://app?vid=cbcdd39f-b16b-4830-bef7-1f20f112a7de","ios":"levelo://app?vid=cbcdd39f-b16b-4830-bef7-1f20f112a7de"},"vehicle_type_id":"4","last_reported":1761419229,"current_range_meters":16800,"station_id":"ce4bhr12rcd13ifvqhpg","pricing_plan_id":"cebpf4jnsgd1na2vs0mg"},{"bike_id":"e4746a2d-9cd3-46c8-bf0e-3a10fdb16ced","system_id":"levelo_inurba_marseille","lat":43.3236,"lon":5.367,"is_reserved":false,"is_disabled":false,"rental_uris":{"android":"levelo://app?vid=e4746a2d-9cd3-46c8-bf0e-3a10fdb16ced","ios":"levelo://app?vid=e4746a2d-9cd3-46c8-bf0e-3a10fdb16ced"},"vehicle_type_id":"4","last_reported":1761419229,"current_range_meters":16800,"station_id":"","pricing_plan_id":"cebpf4jnsgd1na2vs0mg"},{"bike_id":"bb83db8b-b855-451d-beac-82da61e13651","system_id":"levelo_inurba_marseille","lat":43.27919,"lon":5.39588,"is_reserved":false,"is_disabled":false,"rental_uris":{"android":"levelo://app?vid=bb83db8b-b855-451d-beac-82da61e13651","ios":"levelo://app?vid=bb83db8b-b855-451d-beac-82da61e13651"},"vehicle_type_id":"4","last_reported":1761419229,"current_range_meters":16800,"station_id":"ce4bhf92rcd13ifvqf40","pricing_plan_id":"cebpf4jnsgd1na2vs0mg"},{"bike_id":"c69d4c2d-625b-473b-af89-aa65c5f14748","system_id":"levelo_inurba_marseille","lat":43.2751,"lon":5.42463,"is_reserved":false,"is_disabled":false,"rental_uris":{"android":"levelo://app?vid=c69d4c2d-625b-473b-af89-aa65c5f14748","ios":"levelo://app?vid=c69d4c2d-625b-473b-af89-aa65c5f14748"},"vehicle_type_id":"4","last_reported":1761419229,"current_range_meters":16800,"station_id":"ce4bhn92rcd13ifvqgrg","pricing_plan_id":"cebpf4jnsgd1na2vs0mg"},{"bike_id":"bf526c33-28dd-4a6a-a10d-b02e3c57c12e","system_id":"levelo_inurba_marseille","lat":43.23961,"lon":5.36627,"is_reserved":false,"is_disabled":false,"rental_uris":{"android":"levelo://app?vid=bf526c33-28dd-4a6a-a10d-b02e3c57c12e","ios":"levelo://app?vid=bf526c33-28dd-4a6a-a10d-b02e3c57c12e"},"vehicle_type_id":"4","last_reported":1761419229,"current_range_meters":16800,"station_id":"ce4bhi12rcd13ifvqfp0","pricing_plan_id":"cebpf4jnsgd1na2vs0mg"},{"bike_id":"3350306d-35d3-41fe-adc2-ac14237ca743","system_id":"levelo_inurba_marseille","lat":43.2902,"lon":5.38646,"is_reserved":false,"is_disabled":false,"rental_uris":{"android":"levelo://app?vid=3350306d-35d3-41fe-adc2-ac14237ca743","ios":"levelo://app?vid=3350306d-35d3-41fe-adc2-ac14237ca743"},"vehicle_type_id":"4","last_reported":1761419229,"current_range_meters":16800,"station_id":"ce4bh4p2rcd13ifvqe0g","pricing_plan_id":"cebpf4jnsgd1na2vs0mg"},{"bike_id":"e5bd73c9-d2fd-429b-a719-e50033314cf7","system_id":"levelo_inurba_marseille","lat":43.22572,"lon":5.4163,"is_reserved":false,"is_disabled":false,"rental_uris":{"android":"levelo://app?vid=e5bd73c9-d2fd-429b-a719-e50033314cf7","ios":"levelo://app?vid=e5bd73c9-d2fd-429b-a719-e50033314cf7"},"vehicle_type_id":"4","last_reported":1761419229,"current_range_meters":16800,"station_id":"st_d2o4gvlbi1j2169b742g","pricing_plan_id":"cebpf4jnsgd1na2vs0mg"},{"bike_id":"e2d5f06f-e8a2-401e-8db9-4779455f1c26","system_id":"levelo_inurba_marseille","lat":43.30261,"lon":5.40078,"is_reserved":false,"is_disabled":false,"rental_uris":{"android":"levelo://app?vid=e2d5f06f-e8a2-401e-8db9-4779455f1c26","ios":"levelo://app?vid=e2d5f06f-e8a2-401e-8db9-4779455f1c26"},"vehicle_type_id":"4","last_reported":1761419229,"current_range_meters":16800,"station_id":"ce4bgvh2rcd13ifvqcs0","pricing_plan_id":"cebpf4jnsgd1na2vs0mg"},{"bike_id":"eb8f1097-9ea9-4dc4-9675-2dbbbd562dba","system_id":"levelo_inurba_marseille","lat":43.29801,"lon":5.39339,"is_reserved":false,"is_disabled":false,"rental_uris":{"android":"levelo://app?vid=eb8f1097-9ea9-4dc4-9675-2dbbbd562dba","ios":"levelo://app?vid=eb8f1097-9ea9-4dc4-9675-2dbbbd562dba"},"vehicle_type_id":"4","last_reported":1761419229,"current_range_meters":17200,"station_id":"chh1huq6cuj3fo74tm60","pricing_plan_id":"cebpf4jnsgd1na2vs0mg"},{"bike_id":"0b771776-5ee2-43bf-adc9-2dbbdc56f4f7","system_id":"levelo_inurba_marseille","lat":43.30323,"lon":5.40429,"is_reserved":false,"is_disabled":false,"rental_uris":{"android":"levelo://app?vid=0b771776-5ee2-43bf-adc9-2dbbdc56f4f7","ios":"levelo://app?vid=0b771776-5ee2-43bf-adc9-2dbbdc56f4f7"},"vehicle_type_id":"4","last_reported":1761419229,"current_range_meters":17200,"station_id":"ce4bh012rcd13ifvqd10","pricing_plan_id":"cebpf4jnsgd1na2vs0mg"},{"bike_id":"fee45d91-b0d7-4f51-9508-622f183fc05d","system_id":"levelo_inurba_marseille","lat":43.2465,"lon":5.3889,"is_reserved":false,"is_disabled":false,"rental_uris":{"android":"levelo://app?vid=fee45d91-b0d7-4f51-9508-622f183fc05d","ios":"levelo://app?vid=fee45d91-b0d7-4f51-9508-622f183fc05d"},"vehicle_type_id":"4","last_reported":1761419229,"current_range_meters":17200,"station_id":"ce4bhg12rcd13ifvqf60","pricing_plan_id":"cebpf4jnsgd1na2vs0mg"},{"bike_id":"41d45b45-3a52-4b5a-b2b3-1e62d5490ada","system_id":"levelo_inurba_marseille","lat":43.28534,"lon":5.44103,"is_reserved":false,"is_disabled":false,"rental_uris":{"android":"levelo://app?vid=41d45b45-3a52-4b5a-b2b3-1e62d5490ada","ios":"levelo://app?vid=41d45b45-3a52-4b5a-b2b3-1e62d5490ada"},"vehicle_type_id":"4","last_reported":1761419229,"current_range_meters":17200,"station_id":"st_d3j3df2ikq2c7380ej80","pricing_plan_id":"cebpf4jnsgd1na2vs0mg"},{"bike_id":"0602618b-7a2f-4699-9e38-e7e2087216bd","system_id":"levelo_inurba_marseille","lat":43.292302,"lon":5.400798,"is_reserved":false,"is_disabled":false,"rental_uris":{"android":"levelo://app?vid=0602618b-7a2f-4699-9e38-e7e2087216bd","ios":"levelo://app?vid=0602618b-7a2f-4699-9e38-e7e2087216bd"},"vehicle_type_id":"4","last_reported":1761419229,"current_range_meters":17200,"station_id":"ce4bh312rcd13ifvqdk0","pricing_plan_id":"cebpf4jnsgd1na2vs0mg"},{"bike_id":"f72a00f1-1fed-4f6c-b4b5-8473dfdb4606","system_id":"levelo_inurba_marseille","lat":43.29694,"lon":5.40372,"is_reserved":false,"is_disabled":false,"rental_uris":{"android":"levelo://app?vid=f72a00f1-1fed-4f6c-b4b5-8473dfdb4606","ios":"levelo://app?vid=f72a00f1-1fed-4f6c-b4b5-8473dfdb4606"},"vehicle_type_id":"4","last_reported":1761419229,"current_range_meters":17200,"station_id":"","pricing_plan_id":"cebpf4jnsgd1na2vs0mg"},{"bike_id":"e4ccce50-4824-4895-aa8c-033835526f23","system_id":"levelo_inurba_marseille","lat":43.318797,"lon":5.40007,"is_reserved":false,"is_disabled":false,"rental_uris":{"android":"levelo://app?vid=e4ccce50-4824-4895-aa8c-033835526f23","ios":"levelo://app?vid=e4ccce50-4824-4895-aa8c-033835526f23"},"vehicle_type_id":"4","last_reported":1761419229,"current_range_meters":17200,"station_id":"","pricing_plan_id":"cebpf4jnsgd1na2vs0mg"},{"bike_id":"8eb34b40-338c-47a0-9062-cbc5ed7b3c18","system_id":"levelo_inurba_marseille","lat":43.29509,"lon":5.37493,"is_reserved":false,"is_disabled":false,"rental_uris":{"android":"levelo://app?vid=8eb34b40-338c-47a0-9062-cbc5ed7b3c18","ios":"levelo://app?vid=8eb34b40-338c-47a0-9062-cbc5ed7b3c18"},"vehicle_type_id":"4","last_reported":1761419229,"current_range_meters":17200,"station_id":"ce4bgkp2rcd13ifvqbmg","pricing_plan_id":"cebpf4jnsgd1na2vs0mg"},{"bike_id":"6697719f-f377-4720-b91d-7acfbbc55ba3","system_id":"levelo_inurba_marseille","lat":43.28276,"lon":5.35065,"is_reserved":false,"is_disabled":false,"rental_uris":{"android":"levelo://app?vid=6697719f-f377-4720-b91d-7acfbbc55ba3","ios":"levelo://app?vid=6697719f-f377-4720-b91d-7acfbbc55ba3"},"vehicle_type_id":"4","last_reported":1761419229,"current_range_meters":17600,"station_id":"ce4bhbp2rcd13ifvqerg","pricing_plan_id":"cebpf4jnsgd1na2vs0mg"},{"bike_id":"79fb7be8-ec9c-47d7-93c3-28235a355420","system_id":"levelo_inurba_marseille","lat":43.31756,"lon":5.39018,"is_reserved":false,"is_disabled":false,"rental_uris":{"android":"levelo://app?vid=79fb7be8-ec9c-47d7-93c3-28235a355420","ios":"levelo://app?vid=79fb7be8-ec9c-47d7-93c3-28235a355420"},"vehicle_type_id":"4","last_reported":1761419229,"current_range_meters":17600,"station_id":"ce4bhqp2rcd13ifvqhng","pricing_plan_id":"cebpf4jnsgd1na2vs0mg"},{"bike_id":"466451aa-b2f3-4de9-be8f-5621dcd52422","system_id":"levelo_inurba_marseille","lat":43.26215,"lon":5.37461,"is_reserved":false,"is_disabled":false,"rental_uris":{"android":"levelo://app?vid=466451aa-b2f3-4de9-be8f-5621dcd52422","ios":"levelo://app?vid=466451aa-b2f3-4de9-be8f-5621dcd52422"},"vehicle_type_id":"4","last_reported":1761419229,"current_range_meters":17600,"station_id":"ce4bhgp2rcd13ifvqfc0","pricing_plan_id":"cebpf4jnsgd1na2vs0mg"},{"bike_id":"ae18170a-78e3-4226-bc11-18e23c871586","system_id":"levelo_inurba_marseille","lat":43.31687,"lon":5.40477,"is_reserved":false,"is_disabled":false,"rental_uris":{"android":"levelo://app?vid=ae18170a-78e3-4226-bc11-18e23c871586","ios":"levelo://app?vid=ae18170a-78e3-4226-bc11-18e23c871586"},"vehicle_type_id":"4","last_reported":1761419229,"current_range_meters":17600,"station_id":"ce4bh012rcd13ifvqd00","pricing_plan_id":"cebpf4jnsgd1na2vs0mg"},{"bike_id":"c6c9646d-f19a-4f50-a6b5-8ff3c417bbeb","system_id":"levelo_inurba_marseille","lat":43.292695,"lon":5.384366,"is_reserved":false,"is_disabled":false,"rental_uris":{"android":"levelo://app?vid=c6c9646d-f19a-4f50-a6b5-8ff3c417bbeb","ios":"levelo://app?vid=c6c9646d-f19a-4f50-a6b5-8ff3c417bbeb"},"vehicle_type_id":"4","last_reported":1761419229,"current_range_meters":17600,"station_id":"","pricing_plan_id":"cebpf4jnsgd1na2vs0mg"},{"bike_id":"c8d63622-c396-4562-993f-1d3bf2c29a2b","system_id":"levelo_inurba_marseille","lat":43.324982,"lon":5.366523,"is_reserved":false,"is_disabled":false,"rental_uris":{"android":"levelo://app?vid=c8d63622-c396-4562-993f-1d3bf2c29a2b","ios":"levelo://app?vid=c8d63622-c396-4562-993f-1d3bf2c29a2b"},"vehicle_type_id":"4","last_reported":1761419229,"current_range_meters":17600,"station_id":"ce4bhs12rcd13ifvqhvg","pricing_plan_id":"cebpf4jnsgd1na2vs0mg"},{"bike_id":"67eb60ff-5d72-4790-8e11-e480b49cf7fe","system_id":"levelo_inurba_marseille","lat":43.28847,"lon":5.35843,"is_reserved":false,"is_disabled":false,"rental_uris":{"android":"levelo://app?vid=67eb60ff-5d72-4790-8e11-e480b49cf7fe","ios":"levelo://app?vid=67eb60ff-5d72-4790-8e11-e480b49cf7fe"},"vehicle_type_id":"4","last_reported":1761419229,"current_range_meters":17600,"station_id":"ce4bhb12rcd13ifvqem0","pricing_plan_id":"cebpf4jnsgd1na2vs0mg"},{"bike_id":"3da36b46-32f0-4723-8f3b-8cba39a84287","system_id":"levelo_inurba_marseille","lat":43.24407,"lon":5.3704,"is_reserved":false,"is_disabled":false,"rental_uris":{"android":"levelo://app?vid=3da36b46-32f0-4723-8f3b-8cba39a84287","ios":"levelo://app?vid=3da36b46-32f0-4723-8f3b-8cba39a84287"},"vehicle_type_id":"4","last_reported":1761419229,"current_range_meters":17600,"station_id":"ce4bhhh2rcd13ifvqfk0","pricing_plan_id":"cebpf4jnsgd1na2vs0mg"},{"bike_id":"9b254f1d-c72f-4ebe-bccb-f3fb76115e19","system_id":"levelo_inurba_marseille","lat":43.24679,"lon":5.38146,"is_reserved":false,"is_disabled":false,"rental_uris":{"android":"levelo://app?vid=9b254f1d-c72f-4ebe-bccb-f3fb76115e19","ios":"levelo://app?vid=9b254f1d-c72f-4ebe-bccb-f3fb76115e19"},"vehicle_type_id":"4","last_reported":1761419229,"current_range_meters":17600,"station_id":"ce4bhih2rcd13ifvqfr0","pricing_plan_id":"cebpf4jnsgd1na2vs0mg"},{"bike_id":"3286c9ca-e41a-4a35-9c40-64d815b47d66","system_id":"levelo_inurba_marseille","lat":43.31683,"lon":5.40475,"is_reserved":false,"is_disabled":false,"rental_uris":{"android":"levelo://app?vid=3286c9ca-e41a-4a35-9c40-64d815b47d66","ios":"levelo://app?vid=3286c9ca-e41a-4a35-9c40-64d815b47d66"},"vehicle_type_id":"4","last_reported":1761419229,"current_range_meters":17600,"station_id":"ce4bh012rcd13ifvqd00","pricing_plan_id":"cebpf4jnsgd1na2vs0mg"},{"bike_id":"933e9118-252f-425b-94a4-2d2542195565","system_id":"levelo_inurba_marseille","lat":43.31694,"lon":5.40473,"is_reserved":false,"is_disabled":false,"rental_uris":{"android":"levelo://app?vid=933e9118-252f-425b-94a4-2d2542195565","ios":"levelo://app?vid=933e9118-252f-425b-94a4-2d2542195565"},"vehicle_type_id":"4","last_reported":1761419229,"current_range_meters":18000,"station_id":"ce4bh012rcd13ifvqd00","pricing_plan_id":"cebpf4jnsgd1na2vs0mg"},{"bike_id":"97533c45-dda9-4e95-a5e5-85a688cc8872","system_id":"levelo_inurba_marseille","lat":43.2892,"lon":5.38402,"is_reserved":false,"is_disabled":false,"rental_uris":{"android":"levelo://app?vid=97533c45-dda9-4e95-a5e5-85a688cc8872","ios":"levelo://app?vid=97533c45-dda9-4e95-a5e5-85a688cc8872"},"vehicle_type_id":"4","last_reported":1761419229,"current_range_meters":18000,"station_id":"ce4bh612rcd13ifvqe6g","pricing_plan_id":"cebpf4jnsgd1na2vs0mg"},{"bike_id":"14f2119b-07cd-4fc8-be12-d51071618c9e","system_id":"levelo_inurba_marseille","lat":43.2396,"lon":5.36634,"is_reserved":false,"is_disabled":false,"rental_uris":{"android":"levelo://app?vid=14f2119b-07cd-4fc8-be12-d51071618c9e","ios":"levelo://app?vid=14f2119b-07cd-4fc8-be12-d51071618c9e"},"vehicle_type_id":"4","last_reported":1761419229,"current_range_meters":18000,"station_id":"ce4bhi12rcd13ifvqfp0","pricing_plan_id":"cebpf4jnsgd1na2vs0mg"},{"bike_id":"fa08e28b-7f09-480c-bd91-a9b57f77a9e1","system_id":"levelo_inurba_marseille","lat":43.30419,"lon":5.38902,"is_reserved":false,"is_disabled":false,"rental_uris":{"android":"levelo://app?vid=fa08e28b-7f09-480c-bd91-a9b57f77a9e1","ios":"levelo://app?vid=fa08e28b-7f09-480c-bd91-a9b57f77a9e1"},"vehicle_type_id":"4","last_reported":1761419229,"current_range_meters":18000,"station_id":"ce4bgk12rcd13ifvqbi0","pricing_plan_id":"cebpf4jnsgd1na2vs0mg"},{"bike_id":"de5cece4-6186-4ccb-b70e-a25e8bd3fc86","system_id":"levelo_inurba_marseille","lat":43.337444,"lon":5.374475,"is_reserved":false,"is_disabled":false,"rental_uris":{"android":"levelo://app?vid=de5cece4-6186-4ccb-b70e-a25e8bd3fc86","ios":"levelo://app?vid=de5cece4-6186-4ccb-b70e-a25e8bd3fc86"},"vehicle_type_id":"4","last_reported":1761419229,"current_range_meters":18000,"station_id":"","pricing_plan_id":"cebpf4jnsgd1na2vs0mg"},{"bike_id":"21bdcc57-733f-425b-bd24-99c799d60436","system_id":"levelo_inurba_marseille","lat":43.27391,"lon":5.36266,"is_reserved":false,"is_disabled":false,"rental_uris":{"android":"levelo://app?vid=21bdcc57-733f-425b-bd24-99c799d60436","ios":"levelo://app?vid=21bdcc57-733f-425b-bd24-99c799d60436"},"vehicle_type_id":"4","last_reported":1761419229,"current_range_meters":18800,"station_id":"ce4bhbh2rcd13ifvqeo0","pricing_plan_id":"cebpf4jnsgd1na2vs0mg"},{"bike_id":"40d4cbd0-43ca-4289-ac47-80de67abc25a","system_id":"levelo_inurba_marseille","lat":43.26208,"lon":5.37443,"is_reserved":false,"is_disabled":false,"rental_uris":{"android":"levelo://app?vid=40d4cbd0-43ca-4289-ac47-80de67abc25a","ios":"levelo://app?vid=40d4cbd0-43ca-4289-ac47-80de67abc25a"},"vehicle_type_id":"4","last_reported":1761419229,"current_range_meters":18800,"station_id":"ce4bhgp2rcd13ifvqfc0","pricing_plan_id":"cebpf4jnsgd1na2vs0mg"},{"bike_id":"b4e2286f-e767-4f4e-93cc-a4e520a081c3","system_id":"levelo_inurba_marseille","lat":43.29602,"lon":5.37722,"is_reserved":false,"is_disabled":false,"rental_uris":{"android":"levelo://app?vid=b4e2286f-e767-4f4e-93cc-a4e520a081c3","ios":"levelo://app?vid=b4e2286f-e767-4f4e-93cc-a4e520a081c3"},"vehicle_type_id":"4","last_reported":1761419229,"current_range_meters":18800,"station_id":"ce4bgi92rcd13ifvqb90","pricing_plan_id":"cebpf4jnsgd1na2vs0mg"},{"bike_id":"13ec8735-ee84-4700-933e-f44b246bd2fe","system_id":"levelo_inurba_marseille","lat":43.29196,"lon":5.39336,"is_reserved":false,"is_disabled":false,"rental_uris":{"android":"levelo://app?vid=13ec8735-ee84-4700-933e-f44b246bd2fe","ios":"levelo://app?vid=13ec8735-ee84-4700-933e-f44b246bd2fe"},"vehicle_type_id":"4","last_reported":1761419229,"current_range_meters":18800,"station_id":"ce4bh192rcd13ifvqdd0","pricing_plan_id":"cebpf4jnsgd1na2vs0mg"},{"bike_id":"8847af5d-c1ad-4d8d-a5c1-273c3b41c105","system_id":"levelo_inurba_marseille","lat":43.32246,"lon":5.419676,"is_reserved":false,"is_disabled":false,"rental_uris":{"android":"levelo://app?vid=8847af5d-c1ad-4d8d-a5c1-273c3b41c105","ios":"levelo://app?vid=8847af5d-c1ad-4d8d-a5c1-273c3b41c105"},"vehicle_type_id":"4","last_reported":1761419229,"current_range_meters":18800,"station_id":"","pricing_plan_id":"cebpf4jnsgd1na2vs0mg"},{"bike_id":"c22eac92-baa7-4895-833d-9b502fcfd605","system_id":"levelo_inurba_marseille","lat":43.291021,"lon":5.381398,"is_reserved":false,"is_disabled":false,"rental_uris":{"android":"levelo://app?vid=c22eac92-baa7-4895-833d-9b502fcfd605","ios":"levelo://app?vid=c22eac92-baa7-4895-833d-9b502fcfd605"},"vehicle_type_id":"4","last_reported":1761419229,"current_range_meters":18800,"station_id":"ce4bh512rcd13ifvqe2g","pricing_plan_id":"cebpf4jnsgd1na2vs0mg"},{"bike_id":"46b0db6c-35c8-470b-a45d-db7e7afa9bfd","system_id":"levelo_inurba_marseille","lat":43.28423,"lon":5.37521,"is_reserved":false,"is_disabled":true,"rental_uris":{"android":"levelo://app?vid=46b0db6c-35c8-470b-a45d-db7e7afa9bfd","ios":"levelo://app?vid=46b0db6c-35c8-470b-a45d-db7e7afa9bfd"},"vehicle_type_id":"4","last_reported":1761419229,"current_range_meters":18800,"station_id":"ce4bh412rcd13ifvqds0","pricing_plan_id":"cebpf4jnsgd1na2vs0mg"},{"bike_id":"7a1877e8-1310-4142-900d-3cea9a2ef65f","system_id":"levelo_inurba_marseille","lat":43.29501,"lon":5.43302,"is_reserved":false,"is_disabled":false,"rental_uris":{"android":"levelo://app?vid=7a1877e8-1310-4142-900d-3cea9a2ef65f","ios":"levelo://app?vid=7a1877e8-1310-4142-900d-3cea9a2ef65f"},"vehicle_type_id":"4","last_reported":1761419229,"current_range_meters":18800,"station_id":"st_d3j5ugp08ojc73fj9d10","pricing_plan_id":"cebpf4jnsgd1na2vs0mg"},{"bike_id":"d2baae2c-7183-4875-a33e-ff83bc980382","system_id":"levelo_inurba_marseille","lat":43.2925,"lon":5.38445,"is_reserved":false,"is_disabled":false,"rental_uris":{"android":"levelo://app?vid=d2baae2c-7183-4875-a33e-ff83bc980382","ios":"levelo://app?vid=d2baae2c-7183-4875-a33e-ff83bc980382"},"vehicle_type_id":"4","last_reported":1761419229,"current_range_meters":18800,"station_id":"ce4bh692rcd13ifvqea0","pricing_plan_id":"cebpf4jnsgd1na2vs0mg"},{"bike_id":"f759c46e-a067-48f5-aacc-2b66dddb836a","system_id":"levelo_inurba_marseille","lat":43.307354,"lon":5.424479,"is_reserved":false,"is_disabled":false,"rental_uris":{"android":"levelo://app?vid=f759c46e-a067-48f5-aacc-2b66dddb836a","ios":"levelo://app?vid=f759c46e-a067-48f5-aacc-2b66dddb836a"},"vehicle_type_id":"4","last_reported":1761419229,"current_range_meters":18800,"station_id":"st_cvj6ca6bvosntc0bfgr0","pricing_plan_id":"cebpf4jnsgd1na2vs0mg"},{"bike_id":"64b75b4a-3497-4861-8cc2-90dd62cd9f5e","system_id":"levelo_inurba_marseille","lat":43.29497,"lon":5.43305,"is_reserved":false,"is_disabled":false,"rental_uris":{"android":"levelo://app?vid=64b75b4a-3497-4861-8cc2-90dd62cd9f5e","ios":"levelo://app?vid=64b75b4a-3497-4861-8cc2-90dd62cd9f5e"},"vehicle_type_id":"4","last_reported":1761419229,"current_range_meters":18800,"station_id":"st_d3j5ugp08ojc73fj9d10","pricing_plan_id":"cebpf4jnsgd1na2vs0mg"},{"bike_id":"ee321285-8f41-4298-8555-d3988119dd73","system_id":"levelo_inurba_marseille","lat":43.255091,"lon":5.376515,"is_reserved":false,"is_disabled":false,"rental_uris":{"android":"levelo://app?vid=ee321285-8f41-4298-8555-d3988119dd73","ios":"levelo://app?vid=ee321285-8f41-4298-8555-d3988119dd73"},"vehicle_type_id":"4","last_reported":1761419229,"current_range_meters":18800,"station_id":"ce4bhh12rcd13ifvqff0","pricing_plan_id":"cebpf4jnsgd1na2vs0mg"},{"bike_id":"67f8857f-0853-46d2-b9ef-96c5ce2639bc","system_id":"levelo_inurba_marseille","lat":43.23051,"lon":5.355,"is_reserved":false,"is_disabled":false,"rental_uris":{"android":"levelo://app?vid=67f8857f-0853-46d2-b9ef-96c5ce2639bc","ios":"levelo://app?vid=67f8857f-0853-46d2-b9ef-96c5ce2639bc"},"vehicle_type_id":"4","last_reported":1761419229,"current_range_meters":18800,"station_id":"cpo3342slgdg3j2ifvpg","pricing_plan_id":"cebpf4jnsgd1na2vs0mg"},{"bike_id":"e5aafa61-e384-4c69-800b-fe726c41fdc6","system_id":"levelo_inurba_marseille","lat":43.29962,"lon":5.38487,"is_reserved":false,"is_disabled":true,"rental_uris":{"android":"levelo://app?vid=e5aafa61-e384-4c69-800b-fe726c41fdc6","ios":"levelo://app?vid=e5aafa61-e384-4c69-800b-fe726c41fdc6"},"vehicle_type_id":"4","last_reported":1761419229,"current_range_meters":18800,"station_id":"ce4bgj92rcd13ifvqbd0","pricing_plan_id":"cebpf4jnsgd1na2vs0mg"},{"bike_id":"ef09e573-81f5-4d76-ae21-445bf25f7f26","system_id":"levelo_inurba_marseille","lat":43.29255,"lon":5.38445,"is_reserved":false,"is_disabled":false,"rental_uris":{"android":"levelo://app?vid=ef09e573-81f5-4d76-ae21-445bf25f7f26","ios":"levelo://app?vid=ef09e573-81f5-4d76-ae21-445bf25f7f26"},"vehicle_type_id":"4","last_reported":1761419229,"current_range_meters":18800,"station_id":"ce4bh692rcd13ifvqea0","pricing_plan_id":"cebpf4jnsgd1na2vs0mg"},{"bike_id":"f181bc0b-308d-41b2-9f0b-58c3dcbc3df6","system_id":"levelo_inurba_marseille","lat":43.31693,"lon":5.40463,"is_reserved":false,"is_disabled":false,"rental_uris":{"android":"levelo://app?vid=f181bc0b-308d-41b2-9f0b-58c3dcbc3df6","ios":"levelo://app?vid=f181bc0b-308d-41b2-9f0b-58c3dcbc3df6"},"vehicle_type_id":"4","last_reported":1761419229,"current_range_meters":19200,"station_id":"ce4bh012rcd13ifvqd00","pricing_plan_id":"cebpf4jnsgd1na2vs0mg"},{"bike_id":"be2aa8cb-51ca-4381-bc53-dca73d27e1ab","system_id":"levelo_inurba_marseille","lat":43.290222,"lon":5.386279,"is_reserved":false,"is_disabled":false,"rental_uris":{"android":"levelo://app?vid=be2aa8cb-51ca-4381-bc53-dca73d27e1ab","ios":"levelo://app?vid=be2aa8cb-51ca-4381-bc53-dca73d27e1ab"},"vehicle_type_id":"4","last_reported":1761419229,"current_range_meters":19200,"station_id":"ce4bh4p2rcd13ifvqe0g","pricing_plan_id":"cebpf4jnsgd1na2vs0mg"},{"bike_id":"72760127-c5c9-4c49-a253-e7e879fb7a2d","system_id":"levelo_inurba_marseille","lat":43.31677,"lon":5.40475,"is_reserved":false,"is_disabled":false,"rental_uris":{"android":"levelo://app?vid=72760127-c5c9-4c49-a253-e7e879fb7a2d","ios":"levelo://app?vid=72760127-c5c9-4c49-a253-e7e879fb7a2d"},"vehicle_type_id":"4","last_reported":1761419229,"current_range_meters":19200,"station_id":"ce4bh012rcd13ifvqd00","pricing_plan_id":"cebpf4jnsgd1na2vs0mg"},{"bike_id":"a70a5c56-54da-4a9c-92ae-4bd04c5f57d9","system_id":"levelo_inurba_marseille","lat":43.29902,"lon":5.43745,"is_reserved":false,"is_disabled":false,"rental_uris":{"android":"levelo://app?vid=a70a5c56-54da-4a9c-92ae-4bd04c5f57d9","ios":"levelo://app?vid=a70a5c56-54da-4a9c-92ae-4bd04c5f57d9"},"vehicle_type_id":"4","last_reported":1761419229,"current_range_meters":19200,"station_id":"","pricing_plan_id":"cebpf4jnsgd1na2vs0mg"},{"bike_id":"317107fa-306d-4b8d-9380-a16cd06486ce","system_id":"levelo_inurba_marseille","lat":43.28455,"lon":5.35879,"is_reserved":false,"is_disabled":true,"rental_uris":{"android":"levelo://app?vid=317107fa-306d-4b8d-9380-a16cd06486ce","ios":"levelo://app?vid=317107fa-306d-4b8d-9380-a16cd06486ce"},"vehicle_type_id":"4","last_reported":1761419229,"current_range_meters":19200,"station_id":"ce4bhah2rcd13ifvqei0","pricing_plan_id":"cebpf4jnsgd1na2vs0mg"},{"bike_id":"23507683-cf68-4d1f-b83d-21c27ef2d56d","system_id":"levelo_inurba_marseille","lat":43.29247,"lon":5.38444,"is_reserved":false,"is_disabled":false,"rental_uris":{"android":"levelo://app?vid=23507683-cf68-4d1f-b83d-21c27ef2d56d","ios":"levelo://app?vid=23507683-cf68-4d1f-b83d-21c27ef2d56d"},"vehicle_type_id":"4","last_reported":1761419229,"current_range_meters":19200,"station_id":"ce4bh692rcd13ifvqea0","pricing_plan_id":"cebpf4jnsgd1na2vs0mg"},{"bike_id":"80217ae4-d52f-4124-9eb9-89e2673a8180","system_id":"levelo_inurba_marseille","lat":43.27813,"lon":5.40712,"is_reserved":false,"is_disabled":false,"rental_uris":{"android":"levelo://app?vid=80217ae4-d52f-4124-9eb9-89e2673a8180","ios":"levelo://app?vid=80217ae4-d52f-4124-9eb9-89e2673a8180"},"vehicle_type_id":"4","last_reported":1761419229,"current_range_meters":19200,"station_id":"ce4bhnh2rcd13ifvqgtg","pricing_plan_id":"cebpf4jnsgd1na2vs0mg"},{"bike_id":"69dd92f7-10e3-4e60-b138-8a28ac8eb8b2","system_id":"levelo_inurba_marseille","lat":43.298981,"lon":5.371823,"is_reserved":false,"is_disabled":false,"rental_uris":{"android":"levelo://app?vid=69dd92f7-10e3-4e60-b138-8a28ac8eb8b2","ios":"levelo://app?vid=69dd92f7-10e3-4e60-b138-8a28ac8eb8b2"},"vehicle_type_id":"4","last_reported":1761419229,"current_range_meters":19200,"station_id":"ce4bh4p2rcd13ifvqe0g","pricing_plan_id":"cebpf4jnsgd1na2vs0mg"},{"bike_id":"bd669768-3f06-4c56-83c6-18e704beb8c4","system_id":"levelo_inurba_marseille","lat":43.284153,"lon":5.349926,"is_reserved":false,"is_disabled":false,"rental_uris":{"android":"levelo://app?vid=bd669768-3f06-4c56-83c6-18e704beb8c4","ios":"levelo://app?vid=bd669768-3f06-4c56-83c6-18e704beb8c4"},"vehicle_type_id":"4","last_reported":1761419229,"current_range_meters":19200,"station_id":"ce4bhbh2rcd13ifvqepg","pricing_plan_id":"cebpf4jnsgd1na2vs0mg"},{"bike_id":"993a35d3-11b2-4323-925b-d0f476d40f75","system_id":"levelo_inurba_marseille","lat":43.2846,"lon":5.35885,"is_reserved":false,"is_disabled":false,"rental_uris":{"android":"levelo://app?vid=993a35d3-11b2-4323-925b-d0f476d40f75","ios":"levelo://app?vid=993a35d3-11b2-4323-925b-d0f476d40f75"},"vehicle_type_id":"4","last_reported":1761419229,"current_range_meters":19200,"station_id":"ce4bhah2rcd13ifvqei0","pricing_plan_id":"cebpf4jnsgd1na2vs0mg"},{"bike_id":"dee22454-5611-4deb-bdb7-26965d542792","system_id":"levelo_inurba_marseille","lat":43.29799,"lon":5.40403,"is_reserved":false,"is_disabled":false,"rental_uris":{"android":"levelo://app?vid=dee22454-5611-4deb-bdb7-26965d542792","ios":"levelo://app?vid=dee22454-5611-4deb-bdb7-26965d542792"},"vehicle_type_id":"4","last_reported":1761419229,"current_range_meters":19200,"station_id":"ce4bh112rcd13ifvqd90","pricing_plan_id":"cebpf4jnsgd1na2vs0mg"},{"bike_id":"6e657b51-8f8f-416e-8282-e3166f038ce2","system_id":"levelo_inurba_marseille","lat":43.28134,"lon":5.37839,"is_reserved":false,"is_disabled":false,"rental_uris":{"android":"levelo://app?vid=6e657b51-8f8f-416e-8282-e3166f038ce2","ios":"levelo://app?vid=6e657b51-8f8f-416e-8282-e3166f038ce2"},"vehicle_type_id":"4","last_reported":1761419229,"current_range_meters":19200,"station_id":"ce4bha12rcd13ifvqee0","pricing_plan_id":"cebpf4jnsgd1na2vs0mg"},{"bike_id":"c124d4a0-9e47-48ec-ad7a-ea36eb6e5d35","system_id":"levelo_inurba_marseille","lat":43.243916,"lon":5.370543,"is_reserved":false,"is_disabled":false,"rental_uris":{"android":"levelo://app?vid=c124d4a0-9e47-48ec-ad7a-ea36eb6e5d35","ios":"levelo://app?vid=c124d4a0-9e47-48ec-ad7a-ea36eb6e5d35"},"vehicle_type_id":"4","last_reported":1761419229,"current_range_meters":19200,"station_id":"ce4bhhh2rcd13ifvqfk0","pricing_plan_id":"cebpf4jnsgd1na2vs0mg"},{"bike_id":"eb0d9e20-fe6c-486a-9aa2-e7330d4e9d8e","system_id":"levelo_inurba_marseille","lat":43.239656,"lon":5.366313,"is_reserved":false,"is_disabled":false,"rental_uris":{"android":"levelo://app?vid=eb0d9e20-fe6c-486a-9aa2-e7330d4e9d8e","ios":"levelo://app?vid=eb0d9e20-fe6c-486a-9aa2-e7330d4e9d8e"},"vehicle_type_id":"4","last_reported":1761419229,"current_range_meters":19600,"station_id":"ce4bhi12rcd13ifvqfp0","pricing_plan_id":"cebpf4jnsgd1na2vs0mg"},{"bike_id":"af9e12e7-38b8-459b-8665-a09998ee41f3","system_id":"levelo_inurba_marseille","lat":43.24664,"lon":5.38855,"is_reserved":false,"is_disabled":false,"rental_uris":{"android":"levelo://app?vid=af9e12e7-38b8-459b-8665-a09998ee41f3","ios":"levelo://app?vid=af9e12e7-38b8-459b-8665-a09998ee41f3"},"vehicle_type_id":"4","last_reported":1761419229,"current_range_meters":19600,"station_id":"ce4bhg12rcd13ifvqf60","pricing_plan_id":"cebpf4jnsgd1na2vs0mg"},{"bike_id":"22448999-2d5c-41a9-8bf4-9cabf639221a","system_id":"levelo_inurba_marseille","lat":43.27815,"lon":5.3924,"is_reserved":false,"is_disabled":false,"rental_uris":{"android":"levelo://app?vid=22448999-2d5c-41a9-8bf4-9cabf639221a","ios":"levelo://app?vid=22448999-2d5c-41a9-8bf4-9cabf639221a"},"vehicle_type_id":"4","last_reported":1761419229,"current_range_meters":19600,"station_id":"","pricing_plan_id":"cebpf4jnsgd1na2vs0mg"},{"bike_id":"03066392-0d25-4174-8a09-d2927fc1a45a","system_id":"levelo_inurba_marseille","lat":43.31697,"lon":5.40471,"is_reserved":false,"is_disabled":false,"rental_uris":{"android":"levelo://app?vid=03066392-0d25-4174-8a09-d2927fc1a45a","ios":"levelo://app?vid=03066392-0d25-4174-8a09-d2927fc1a45a"},"vehicle_type_id":"4","last_reported":1761419229,"current_range_meters":19600,"station_id":"ce4bh012rcd13ifvqd00","pricing_plan_id":"cebpf4jnsgd1na2vs0mg"},{"bike_id":"1eac0aa7-2b82-4118-bb70-4582cf563475","system_id":"levelo_inurba_marseille","lat":43.28538,"lon":5.48354,"is_reserved":false,"is_disabled":false,"rental_uris":{"android":"levelo://app?vid=1eac0aa7-2b82-4118-bb70-4582cf563475","ios":"levelo://app?vid=1eac0aa7-2b82-4118-bb70-4582cf563475"},"vehicle_type_id":"4","last_reported":1761419229,"current_range_meters":19600,"station_id":"st_d3svhcjqgbts73a3dn0g","pricing_plan_id":"cebpf4jnsgd1na2vs0mg"},{"bike_id":"cabe88d3-3629-4519-a770-a69d60736c2d","system_id":"levelo_inurba_marseille","lat":43.31682,"lon":5.40476,"is_reserved":false,"is_disabled":false,"rental_uris":{"android":"levelo://app?vid=cabe88d3-3629-4519-a770-a69d60736c2d","ios":"levelo://app?vid=cabe88d3-3629-4519-a770-a69d60736c2d"},"vehicle_type_id":"4","last_reported":1761419229,"current_range_meters":19600,"station_id":"ce4bh012rcd13ifvqd00","pricing_plan_id":"cebpf4jnsgd1na2vs0mg"},{"bike_id":"61e78593-5057-4a6e-8cae-3f9023632801","system_id":"levelo_inurba_marseille","lat":43.30906,"lon":5.37185,"is_reserved":false,"is_disabled":false,"rental_uris":{"android":"levelo://app?vid=61e78593-5057-4a6e-8cae-3f9023632801","ios":"levelo://app?vid=61e78593-5057-4a6e-8cae-3f9023632801"},"vehicle_type_id":"4","last_reported":1761419229,"current_range_meters":19600,"station_id":"ce4bguh2rcd13ifvqckg","pricing_plan_id":"cebpf4jnsgd1na2vs0mg"},{"bike_id":"1cbfacf2-ae83-44de-a82f-044bd09b85d3","system_id":"levelo_inurba_marseille","lat":43.29253,"lon":5.38436,"is_reserved":false,"is_disabled":false,"rental_uris":{"android":"levelo://app?vid=1cbfacf2-ae83-44de-a82f-044bd09b85d3","ios":"levelo://app?vid=1cbfacf2-ae83-44de-a82f-044bd09b85d3"},"vehicle_type_id":"4","last_reported":1761419229,"current_range_meters":19600,"station_id":"ce4bh692rcd13ifvqea0","pricing_plan_id":"cebpf4jnsgd1na2vs0mg"},{"bike_id":"1bdab5fc-b3c9-4a9f-ad11-e7f8becb7475","system_id":"levelo_inurba_marseille","lat":43.30952,"lon":5.37193,"is_reserved":false,"is_disabled":false,"rental_uris":{"android":"levelo://app?vid=1bdab5fc-b3c9-4a9f-ad11-e7f8becb7475","ios":"levelo://app?vid=1bdab5fc-b3c9-4a9f-ad11-e7f8becb7475"},"vehicle_type_id":"4","last_reported":1761419229,"current_range_meters":19600,"station_id":"ce4bguh2rcd13ifvqckg","pricing_plan_id":"cebpf4jnsgd1na2vs0mg"},{"bike_id":"59497fb5-8b19-4487-9ef6-f449be4a4a41","system_id":"levelo_inurba_marseille","lat":43.27577,"lon":5.38421,"is_reserved":false,"is_disabled":false,"rental_uris":{"android":"levelo://app?vid=59497fb5-8b19-4487-9ef6-f449be4a4a41","ios":"levelo://app?vid=59497fb5-8b19-4487-9ef6-f449be4a4a41"},"vehicle_type_id":"4","last_reported":1761419229,"current_range_meters":19600,"station_id":"ce4bhh92rcd13ifvqfi0","pricing_plan_id":"cebpf4jnsgd1na2vs0mg"},{"bike_id":"2cf59662-b367-4ccf-ac37-e5bafb3fa161","system_id":"levelo_inurba_marseille","lat":43.28841,"lon":5.39335,"is_reserved":false,"is_disabled":false,"rental_uris":{"android":"levelo://app?vid=2cf59662-b367-4ccf-ac37-e5bafb3fa161","ios":"levelo://app?vid=2cf59662-b367-4ccf-ac37-e5bafb3fa161"},"vehicle_type_id":"4","last_reported":1761419229,"current_range_meters":20000,"station_id":"ce4bh2p2rcd13ifvqdi0","pricing_plan_id":"cebpf4jnsgd1na2vs0mg"},{"bike_id":"d8f27cd0-2cf4-458e-98e6-abe3a5fde865","system_id":"levelo_inurba_marseille","lat":43.29561,"lon":5.39958,"is_reserved":false,"is_disabled":false,"rental_uris":{"android":"levelo://app?vid=d8f27cd0-2cf4-458e-98e6-abe3a5fde865","ios":"levelo://app?vid=d8f27cd0-2cf4-458e-98e6-abe3a5fde865"},"vehicle_type_id":"4","last_reported":1761419229,"current_range_meters":20000,"station_id":"ce4bh312rcd13ifvqdj0","pricing_plan_id":"cebpf4jnsgd1na2vs0mg"},{"bike_id":"baa57e56-2f0e-44dd-aeea-569f2cdff5bf","system_id":"levelo_inurba_marseille","lat":43.28659,"lon":5.38668,"is_reserved":false,"is_disabled":false,"rental_uris":{"android":"levelo://app?vid=baa57e56-2f0e-44dd-aeea-569f2cdff5bf","ios":"levelo://app?vid=baa57e56-2f0e-44dd-aeea-569f2cdff5bf"},"vehicle_type_id":"4","last_reported":1761419229,"current_range_meters":20000,"station_id":"ce4bh492rcd13ifvqdug","pricing_plan_id":"cebpf4jnsgd1na2vs0mg"},{"bike_id":"53619b52-f6a4-4a36-9715-aa47e9e64dbc","system_id":"levelo_inurba_marseille","lat":43.2926,"lon":5.384382,"is_reserved":false,"is_disabled":true,"rental_uris":{"android":"levelo://app?vid=53619b52-f6a4-4a36-9715-aa47e9e64dbc","ios":"levelo://app?vid=53619b52-f6a4-4a36-9715-aa47e9e64dbc"},"vehicle_type_id":"4","last_reported":1761419229,"current_range_meters":20000,"station_id":"ce4bh692rcd13ifvqea0","pricing_plan_id":"cebpf4jnsgd1na2vs0mg"},{"bike_id":"2e62dbda-1ba0-4974-b0e3-b04e88769465","system_id":"levelo_inurba_marseille","lat":43.32022,"lon":5.38166,"is_reserved":false,"is_disabled":false,"rental_uris":{"android":"levelo://app?vid=2e62dbda-1ba0-4974-b0e3-b04e88769465","ios":"levelo://app?vid=2e62dbda-1ba0-4974-b0e3-b04e88769465"},"vehicle_type_id":"4","last_reported":1761419229,"current_range_meters":20000,"station_id":"ce4bhr12rcd13ifvqhpg","pricing_plan_id":"cebpf4jnsgd1na2vs0mg"},{"bike_id":"fbc99ffc-95d7-4f91-88fd-2a250a3bade1","system_id":"levelo_inurba_marseille","lat":43.29277,"lon":5.38431,"is_reserved":false,"is_disabled":false,"rental_uris":{"android":"levelo://app?vid=fbc99ffc-95d7-4f91-88fd-2a250a3bade1","ios":"levelo://app?vid=fbc99ffc-95d7-4f91-88fd-2a250a3bade1"},"vehicle_type_id":"4","last_reported":1761419229,"current_range_meters":20000,"station_id":"ce4bh692rcd13ifvqea0","pricing_plan_id":"cebpf4jnsgd1na2vs0mg"},{"bike_id":"27b401ab-3e87-4a45-938a-47fa9aacc226","system_id":"levelo_inurba_marseille","lat":43.31688,"lon":5.40477,"is_reserved":false,"is_disabled":false,"rental_uris":{"android":"levelo://app?vid=27b401ab-3e87-4a45-938a-47fa9aacc226","ios":"levelo://app?vid=27b401ab-3e87-4a45-938a-47fa9aacc226"},"vehicle_type_id":"4","last_reported":1761419229,"current_range_meters":20000,"station_id":"ce4bh012rcd13ifvqd00","pricing_plan_id":"cebpf4jnsgd1na2vs0mg"},{"bike_id":"2d05c3f4-b99a-41b5-b740-342644ef2e1f","system_id":"levelo_inurba_marseille","lat":43.2929,"lon":5.40882,"is_reserved":false,"is_disabled":false,"rental_uris":{"android":"levelo://app?vid=2d05c3f4-b99a-41b5-b740-342644ef2e1f","ios":"levelo://app?vid=2d05c3f4-b99a-41b5-b740-342644ef2e1f"},"vehicle_type_id":"4","last_reported":1761419229,"current_range_meters":20000,"station_id":"ce4bh192rcd13ifvqdc0","pricing_plan_id":"cebpf4jnsgd1na2vs0mg"},{"bike_id":"50e51876-bc17-4c20-bf7b-7bb9fa41209a","system_id":"levelo_inurba_marseille","lat":43.29545,"lon":5.39392,"is_reserved":false,"is_disabled":false,"rental_uris":{"android":"levelo://app?vid=50e51876-bc17-4c20-bf7b-7bb9fa41209a","ios":"levelo://app?vid=50e51876-bc17-4c20-bf7b-7bb9fa41209a"},"vehicle_type_id":"4","last_reported":1761419229,"current_range_meters":20000,"station_id":"ce4bh292rcd13ifvqdf0","pricing_plan_id":"cebpf4jnsgd1na2vs0mg"},{"bike_id":"42cb9341-f763-4839-9a72-1b7aee82bcfe","system_id":"levelo_inurba_marseille","lat":43.29257,"lon":5.38445,"is_reserved":false,"is_disabled":false,"rental_uris":{"android":"levelo://app?vid=42cb9341-f763-4839-9a72-1b7aee82bcfe","ios":"levelo://app?vid=42cb9341-f763-4839-9a72-1b7aee82bcfe"},"vehicle_type_id":"4","last_reported":1761419229,"current_range_meters":20000,"station_id":"ce4bh692rcd13ifvqea0","pricing_plan_id":"cebpf4jnsgd1na2vs0mg"},{"bike_id":"78cb146c-8419-4eac-84e3-17ba6690796d","system_id":"levelo_inurba_marseille","lat":43.29988,"lon":5.38494,"is_reserved":false,"is_disabled":false,"rental_uris":{"android":"levelo://app?vid=78cb146c-8419-4eac-84e3-17ba6690796d","ios":"levelo://app?vid=78cb146c-8419-4eac-84e3-17ba6690796d"},"vehicle_type_id":"4","last_reported":1761419229,"current_range_meters":20000,"station_id":"ce4bgj92rcd13ifvqbd0","pricing_plan_id":"cebpf4jnsgd1na2vs0mg"},{"bike_id":"ad166e8d-320f-47c2-bfd9-9e014a946d21","system_id":"levelo_inurba_marseille","lat":43.27792,"lon":5.40651,"is_reserved":false,"is_disabled":true,"rental_uris":{"android":"levelo://app?vid=ad166e8d-320f-47c2-bfd9-9e014a946d21","ios":"levelo://app?vid=ad166e8d-320f-47c2-bfd9-9e014a946d21"},"vehicle_type_id":"4","last_reported":1761419229,"current_range_meters":20000,"station_id":"","pricing_plan_id":"cebpf4jnsgd1na2vs0mg"},{"bike_id":"54850593-7fd8-4619-8465-79f579a765e0","system_id":"levelo_inurba_marseille","lat":43.29607,"lon":5.37726,"is_reserved":false,"is_disabled":false,"rental_uris":{"android":"levelo://app?vid=54850593-7fd8-4619-8465-79f579a765e0","ios":"levelo://app?vid=54850593-7fd8-4619-8465-79f579a765e0"},"vehicle_type_id":"4","last_reported":1761419229,"current_range_meters":20400,"station_id":"ce4bgi92rcd13ifvqb90","pricing_plan_id":"cebpf4jnsgd1na2vs0mg"},