{"last_updated":1703182069,"ttl":30,"version":"2.2","data":{"bikes":[{"bike_id":"9c4bed50-4c08-46fb-9163-9ec5afa45ff6","system_id":"levelo_inurba_marseille","lat":43.31341,"lon":5.367098,"is_reserved":false,"is_disabled":false,"rental_uris":{"android":"levelo://app?vid=9c4bed50-4c08-46fb-9163-9ec5afa45ff6","ios":"levelo://app?vid=9c4bed50-4c08-46fb-9163-9ec5afa45ff6"},"vehicle_type_id":"4","last_reported":1703182069,"current_range_meters":0,"station_id":"ce4bgr92rcd13ifvqc6g","pricing_plan_id":"free"},{"bike_id":"07cc452e-daaf-44dd-a3c9-fce851d1c5b2","system_id":"levelo_inurba_marseille","lat":43.31486,"lon":5.3731,"is_reserved":false,"is_disabled":false,"rental_uris":{"android":"levelo://app?vid=07cc452e-daaf-44dd-a3c9-fce851d1c5b2","ios":"levelo://app?vid=07cc452e-daaf-44dd-a3c9-fce851d1c5b2"},"vehicle_type_id":"4","last_reported":1703182069,"current_range_meters":29200,"station_id":"ce4bgt12rcd13ifvqcd0","pricing_plan_id":"free"},{"bike_id":"54fd0f51-0eaa-4b41-9049-c6571d7cfb82","system_id":"levelo_inurba_marseille","lat":43.3054,"lon":5.37271,"is_reserved":false,"is_disabled":false,"rental_uris":{"android":"levelo://app?vid=54fd0f51-0eaa-4b41-9049-c6571d7cfb82","ios":"levelo://app?vid=54fd0f51-0eaa-4b41-9049-c6571d7cfb82"},"vehicle_type_id":"4","last_reported":1703182069,"current_range_meters":0,"station_id":"","pricing_plan_id":"free"},{"bike_id":"8b5e7889-e14e-4571-85f2-b07023ace39e","system_id":"levelo_inurba_marseille","lat":43.317075,"lon":5.377367,"is_reserved":false,"is_disabled":false,"rental_uris":{"android":"levelo://app?vid=8b5e7889-e14e-4571-85f2-b07023ace39e","ios":"levelo://app?vid=8b5e7889-e14e-4571-85f2-b07023ace39e"},"vehicle_type_id":"4","last_reported":1703182069,"current_range_meters":31200,"station_id":"ce4bgth2rcd13ifvqch0","pricing_plan_id":"free"},{"bike_id":"6c662160-2878-403e-9cb2-748204edb49f","system_id":"levelo_inurba_marseille","lat":43.315395,"lon":5.38027,"is_reserved":false,"is_disabled":false,"rental_uris":{"android":"levelo://app?vid=6c662160-2878-403e-9cb2-748204edb49f","ios":"levelo://app?vid=6c662160-2878-403e-9cb2-748204edb49f"},"vehicle_type_id":"4","last_reported":1703182069,"current_range_meters":7200,"station_id":"ce4bhsp2rcd13ifvqi50","pricing_plan_id":"free"},{"bike_id":"ef9a3983-7d23-4fe0-8033-80a1b0d05357","system_id":"levelo_inurba_marseille","lat":43.301939,"lon":5.366286,"is_reserved":false,"is_disabled":false,"rental_uris":{"android":"levelo://app?vid=ef9a3983-7d23-4fe0-8033-80a1b0d05357","ios":"levelo://app?vid=ef9a3983-7d23-4fe0-8033-80a1b0d05357"},"vehicle_type_id":"4","last_reported":1703182069,"current_range_meters":9200,"station_id":"ce4bgrh2rcd13ifvqc8g","pricing_plan_id":"free"},{"bike_id":"f910cafb-5a2a-44af-9c68-6475cfc27648","system_id":"levelo_inurba_marseille","lat":43.301939,"lon":5.366286,"is_reserved":false,"is_disabled":false,"rental_uris":{"android":"levelo://app?vid=f910cafb-5a2a-44af-9c68-6475cfc27648","ios":"levelo://app?vid=f910cafb-5a2a-44af-9c68-6475cfc27648"},"vehicle_type_id":"4","last_reported":1703182069,"current_range_meters":22400,"station_id":"ce4bgrh2rcd13ifvqc8g","pricing_plan_id":"free"},{"bike_id":"bd572cde-3b41-4808-bd9e-7ec087173495","system_id":"levelo_inurba_marseille","lat":43.301939,"lon":5.366286,"is_reserved":false,"is_disabled":false,"rental_uris":{"android":"levelo://app?vid=bd572cde-3b41-4808-bd9e-7ec087173495","ios":"levelo://app?vid=bd572cde-3b41-4808-bd9e-7ec087173495"},"vehicle_type_id":"4","last_reported":1703182069,"current_range_meters":19200,"station_id":"ce4bgrh2rcd13ifvqc8g","pricing_plan_id":"free"},{"bike_id":"26e4b55d-4243-4287-9e88-fbeda384b486","system_id":"levelo_inurba_marseille","lat":43.310865,"lon":5.38191,"is_reserved":false,"is_disabled":false,"rental_uris":{"android":"levelo://app?vid=26e4b55d-4243-4287-9e88-fbeda384b486","ios":"levelo://app?vid=26e4b55d-4243-4287-9e88-fbeda384b486"},"vehicle_type_id":"4","last_reported":1703182069,"current_range_meters":13200,"station_id":"","pricing_plan_id":"free"},{"bike_id":"0f29f9fc-ade1-445d-ba8d-4631c9525c9b","system_id":"levelo_inurba_marseille","lat":43.30636,"lon":5.37995,"is_reserved":false,"is_disabled":false,"rental_uris":{"android":"levelo://app?vid=0f29f9fc-ade1-445d-ba8d-4631c9525c9b","ios":"levelo://app?vid=0f29f9fc-ade1-445d-ba8d-4631c9525c9b"},"vehicle_type_id":"4","last_reported":1703182069,"current_range_meters":0,"station_id":"","pricing_plan_id":"free"},{"bike_id":"5ec516c0-180e-4218-8acb-08ec9cc0eddb","system_id":"levelo_inurba_marseille","lat":43.308012,"lon":5.381511,"is_reserved":false,"is_disabled":false,"rental_uris":{"android":"levelo://app?vid=5ec516c0-180e-4218-8acb-08ec9cc0eddb","ios":"levelo://app?vid=5ec516c0-180e-4218-8acb-08ec9cc0eddb"},"vehicle_type_id":"4","last_reported":1703182069,"current_range_meters":17600,"station_id":"ce4bgt12rcd13ifvqce0","pricing_plan_id":"free"},{"bike_id":"597ce743-9765-4d6f-8b75-19e9246ecf31","system_id":"levelo_inurba_marseille","lat":43.304606,"lon":5.379026,"is_reserved":false,"is_disabled":false,"rental_uris":{"android":"levelo://app?vid=597ce743-9765-4d6f-8b75-19e9246ecf31","ios":"levelo://app?vid=597ce743-9765-4d6f-8b75-19e9246ecf31"},"vehicle_type_id":"4","last_reported":1703182069,"current_range_meters":0,"station_id":"ce4bgup2rcd13ifvqcn0","pricing_plan_id":"free"},{"bike_id":"4334f9cc-ce9d-4e8c-8677-fdf243b76fd4","system_id":"levelo_inurba_marseille","lat":43.30143,"lon":5.37413,"is_reserved":false,"is_disabled":false,"rental_uris":{"android":"levelo://app?vid=4334f9cc-ce9d-4e8c-8677-fdf243b76fd4","ios":"levelo://app?vid=4334f9cc-ce9d-4e8c-8677-fdf243b76fd4"},"vehicle_type_id":"4","last_reported":1703182069,"current_range_meters":12400,"station_id":"ce4bgs92rcd13ifvqcc0","pricing_plan_id":"free"},{"bike_id":"dc0f6af5-c02c-4610-baea-e5c6ca16f530","system_id":"levelo_inurba_marseille","lat":43.31998,"lon":5.38147,"is_reserved":false,"is_disabled":false,"rental_uris":{"android":"levelo://app?vid=dc0f6af5-c02c-4610-baea-e5c6ca16f530","ios":"levelo://app?vid=dc0f6af5-c02c-4610-baea-e5c6ca16f530"},"vehicle_type_id":"4","last_reported":1703182069,"current_range_meters":31200,"station_id":"ce4bhr12rcd13ifvqhpg","pricing_plan_id":"free"},{"bike_id":"0effb7f6-23e5-4f02-a1eb-80bdf14a191a","system_id":"levelo_inurba_marseille","lat":43.319957,"lon":5.381513,"is_reserved":false,"is_disabled":false,"rental_uris":{"android":"levelo://app?vid=0effb7f6-23e5-4f02-a1eb-80bdf14a191a","ios":"levelo://app?vid=0effb7f6-23e5-4f02-a1eb-80bdf14a191a"},"vehicle_type_id":"4","last_reported":1703182069,"current_range_meters":31200,"station_id":"ce4bhr12rcd13ifvqhpg","pricing_plan_id":"free"},{"bike_id":"51360f23-00df-4b8c-b369-faeb35be788d","system_id":"levelo_inurba_marseille","lat":43.319935,"lon":5.381699,"is_reserved":false,"is_disabled":false,"rental_uris":{"android":"levelo://app?vid=51360f23-00df-4b8c-b369-faeb35be788d","ios":"levelo://app?vid=51360f23-00df-4b8c-b369-faeb35be788d"},"vehicle_type_id":"4","last_reported":1703182069,"current_range_meters":30400,"station_id":"ce4bhr12rcd13ifvqhpg","pricing_plan_id":"free"},{"bike_id":"af0ab532-e26f-41d4-b9ce-17ae08ae4cee","system_id":"levelo_inurba_marseille","lat":43.320005,"lon":5.381601,"is_reserved":false,"is_disabled":false,"rental_uris":{"android":"levelo://app?vid=af0ab532-e26f-41d4-b9ce-17ae08ae4cee","ios":"levelo://app?vid=af0ab532-e26f-41d4-b9ce-17ae08ae4cee"},"vehicle_type_id":"4","last_reported":1703182069,"current_range_meters":9600,"station_id":"ce4bhr12rcd13ifvqhpg","pricing_plan_id":"free"},{"bike_id":"12db53f8-c3cb-4b94-8066-e0627a813243","system_id":"levelo_inurba_marseille","lat":43.298037,"lon":5.381066,"is_reserved":false,"is_disabled":false,"rental_uris":{"android":"levelo://app?vid=12db53f8-c3cb-4b94-8066-e0627a813243","ios":"levelo://app?vid=12db53f8-c3cb-4b94-8066-e0627a813243"},"vehicle_type_id":"4","last_reported":1703182069,"current_range_meters":0,"station_id":"ce4bgip2rcd13ifvqbb0","pricing_plan_id":"free"},{"bike_id":"500571ea-4fba-4810-9e11-0fd87d0b12b3","system_id":"levelo_inurba_marseille","lat":43.319935,"lon":5.381699,"is_reserved":false,"is_disabled":false,"rental_uris":{"android":"levelo://app?vid=500571ea-4fba-4810-9e11-0fd87d0b12b3","ios":"levelo://app?vid=500571ea-4fba-4810-9e11-0fd87d0b12b3"},"vehicle_type_id":"4","last_reported":1703182069,"current_range_meters":30000,"station_id":"ce4bhr12rcd13ifvqhpg","pricing_plan_id":"free"},{"bike_id":"70cc2353-bcf7-46df-bddc-5af9652aabec","system_id":"levelo_inurba_marseille","lat":43.313571,"lon":5.384829,"is_reserved":false,"is_disabled":false,"rental_uris":{"android":"levelo://app?vid=70cc2353-bcf7-46df-bddc-5af9652aabec","ios":"levelo://app?vid=70cc2353-bcf7-46df-bddc-5af9652aabec"},"vehicle_type_id":"4","last_reported":1703182069,"current_range_meters":6800,"station_id":"ce4bgt92rcd13ifvqcf0","pricing_plan_id":"free"},{"bike_id":"c2b48dfd-0893-4d7d-a920-91924f344d2d","system_id":"levelo_inurba_marseille","lat":43.313571,"lon":5.384829,"is_reserved":false,"is_disabled":false,"rental_uris":{"android":"levelo://app?vid=c2b48dfd-0893-4d7d-a920-91924f344d2d","ios":"levelo://app?vid=c2b48dfd-0893-4d7d-a920-91924f344d2d"},"vehicle_type_id":"4","last_reported":1703182069,"current_range_meters":22400,"station_id":"ce4bgt92rcd13ifvqcf0","pricing_plan_id":"free"},{"bike_id":"091a14ca-6f20-494f-9f75-c68f992b1c89","system_id":"levelo_inurba_marseille","lat":43.313571,"lon":5.384829,"is_reserved":false,"is_disabled":false,"rental_uris":{"android":"levelo://app?vid=091a14ca-6f20-494f-9f75-c68f992b1c89","ios":"levelo://app?vid=091a14ca-6f20-494f-9f75-c68f992b1c89"},"vehicle_type_id":"4","last_reported":1703182069,"current_range_meters":7200,"station_id":"ce4bgt92rcd13ifvqcf0","pricing_plan_id":"free"},{"bike_id":"c98f0cb4-f0bb-4907-a6fa-8ffd0d03fc45","system_id":"levelo_inurba_marseille","lat":43.299222,"lon":5.365554,"is_reserved":false,"is_disabled":false,"rental_uris":{"android":"levelo://app?vid=c98f0cb4-f0bb-4907-a6fa-8ffd0d03fc45","ios":"levelo://app?vid=c98f0cb4-f0bb-4907-a6fa-8ffd0d03fc45"},"vehicle_type_id":"4","last_reported":1703182069,"current_range_meters":16400,"station_id":"ce4bgm92rcd13ifvqbr0","pricing_plan_id":"free"},{"bike_id":"55a60ba7-ad00-4c4f-9c23-14a5dfeeea63","system_id":"levelo_inurba_marseille","lat":43.299724,"lon":5.371829,"is_reserved":false,"is_disabled":false,"rental_uris":{"android":"levelo://app?vid=55a60ba7-ad00-4c4f-9c23-14a5dfeeea63","ios":"levelo://app?vid=55a60ba7-ad00-4c4f-9c23-14a5dfeeea63"},"vehicle_type_id":"4","last_reported":1703182069,"current_range_meters":8800,"station_id":"ce4bgr92rcd13ifvqc7g","pricing_plan_id":"free"},{"bike_id":"69afb9b0-80ee-47f7-8c3a-b84a249c8b81","system_id":"levelo_inurba_marseille","lat":43.305364,"lon":5.384119,"is_reserved":false,"is_disabled":false,"rental_uris":{"android":"levelo://app?vid=69afb9b0-80ee-47f7-8c3a-b84a249c8b81","ios":"levelo://app?vid=69afb9b0-80ee-47f7-8c3a-b84a249c8b81"},"vehicle_type_id":"4","last_reported":1703182069,"current_range_meters":12400,"station_id":"ce4bgg92rcd13ifvqb30","pricing_plan_id":"free"},{"bike_id":"5fd47bbd-9bb4-46f7-b852-dfb73150a340","system_id":"levelo_inurba_marseille","lat":43.305364,"lon":5.384119,"is_reserved":false,"is_disabled":false,"rental_uris":{"android":"levelo://app?vid=5fd47bbd-9bb4-46f7-b852-dfb73150a340","ios":"levelo://app?vid=5fd47bbd-9bb4-46f7-b852-dfb73150a340"},"vehicle_type_id":"4","last_reported":1703182069,"current_range_meters":9600,"station_id":"ce4bgg92rcd13ifvqb30","pricing_plan_id":"free"},{"bike_id":"f1c0c3e9-ac08-4a1d-882e-5abea29e8414","system_id":"levelo_inurba_marseille","lat":43.298433,"lon":5.362774,"is_reserved":false,"is_disabled":false,"rental_uris":{"android":"levelo://app?vid=f1c0c3e9-ac08-4a1d-882e-5abea29e8414","ios":"levelo://app?vid=f1c0c3e9-ac08-4a1d-882e-5abea29e8414"},"vehicle_type_id":"4","last_reported":1703182069,"current_range_meters":6400,"station_id":"ce4bgpp2rcd13ifvqc3g","pricing_plan_id":"free"},{"bike_id":"1fda0edb-38f7-4d6a-894f-a5823b83f39b","system_id":"levelo_inurba_marseille","lat":43.311722,"lon":5.387247,"is_reserved":false,"is_disabled":false,"rental_uris":{"android":"levelo://app?vid=1fda0edb-38f7-4d6a-894f-a5823b83f39b","ios":"levelo://app?vid=1fda0edb-38f7-4d6a-894f-a5823b83f39b"},"vehicle_type_id":"4","last_reported":1703182069,"current_range_meters":5200,"station_id":"ce4bgv12rcd13ifvqcp0","pricing_plan_id":"free"},{"bike_id":"a5ee5ce1-bc8a-4c5e-b9c0-0ff67ccad8b1","system_id":"levelo_inurba_marseille","lat":43.31182,"lon":5.38712,"is_reserved":false,"is_disabled":false,"rental_uris":{"android":"levelo://app?vid=a5ee5ce1-bc8a-4c5e-b9c0-0ff67ccad8b1","ios":"levelo://app?vid=a5ee5ce1-bc8a-4c5e-b9c0-0ff67ccad8b1"},"vehicle_type_id":"4","last_reported":1703182069,"current_range_meters":20000,"station_id":"ce4bgv12rcd13ifvqcp0","pricing_plan_id":"free"},{"bike_id":"ea3d6535-9903-482d-8e51-eb2cc7984a88","system_id":"levelo_inurba_marseille","lat":43.299243,"lon":5.374807,"is_reserved":false,"is_disabled":false,"rental_uris":{"android":"levelo://app?vid=ea3d6535-9903-482d-8e51-eb2cc7984a88","ios":"levelo://app?vid=ea3d6535-9903-482d-8e51-eb2cc7984a88"},"vehicle_type_id":"4","last_reported":1703182069,"current_range_meters":23600,"station_id":"ce4bgjh2rcd13ifvqbg0","pricing_plan_id":"free"},{"bike_id":"684d6e0a-50a4-4598-9c03-491cf9751ee3","system_id":"levelo_inurba_marseille","lat":43.299243,"lon":5.37481,"is_reserved":false,"is_disabled":false,"rental_uris":{"android":"levelo://app?vid=684d6e0a-50a4-4598-9c03-491cf9751ee3","ios":"levelo://app?vid=684d6e0a-50a4-4598-9c03-491cf9751ee3"},"vehicle_type_id":"4","last_reported":1703182069,"current_range_meters":23200,"station_id":"ce4bgjh2rcd13ifvqbg0","pricing_plan_id":"free"},{"bike_id":"0cdbd0f0-d3c9-4a82-8c6d-6ffa03bfbf25","system_id":"levelo_inurba_marseille","lat":43.326937,"lon":5.373183,"is_reserved":false,"is_disabled":false,"rental_uris":{"android":"levelo://app?vid=0cdbd0f0-d3c9-4a82-8c6d-6ffa03bfbf25","ios":"levelo://app?vid=0cdbd0f0-d3c9-4a82-8c6d-6ffa03bfbf25"},"vehicle_type_id":"4","last_reported":1703182069,"current_range_meters":19600,"station_id":"","pricing_plan_id":"free"},{"bike_id":"2d0ccb8c-a8f7-4ee9-8463-316526ef0ad5","system_id":"levelo_inurba_marseille","lat":43.322872,"lon":5.382756,"is_reserved":false,"is_disabled":false,"rental_uris":{"android":"levelo://app?vid=2d0ccb8c-a8f7-4ee9-8463-316526ef0ad5","ios":"levelo://app?vid=2d0ccb8c-a8f7-4ee9-8463-316526ef0ad5"},"vehicle_type_id":"4","last_reported":1703182069,"current_range_meters":32000,"station_id":"ce4bhr12rcd13ifvqhqg","pricing_plan_id":"free"},{"bike_id":"b58c4005-ed15-40ec-b249-38d0c39e7d3b","system_id":"levelo_inurba_marseille","lat":43.322872,"lon":5.382756,"is_reserved":false,"is_disabled":false,"rental_uris":{"android":"levelo://app?vid=b58c4005-ed15-40ec-b249-38d0c39e7d3b","ios":"levelo://app?vid=b58c4005-ed15-40ec-b249-38d0c39e7d3b"},"vehicle_type_id":"4","last_reported":1703182069,"current_range_meters":12800,"station_id":"ce4bhr12rcd13ifvqhqg","pricing_plan_id":"free"},{"bike_id":"f6678c52-8fdb-46d8-969e-3297a365c131","system_id":"levelo_inurba_marseille","lat":43.322872,"lon":5.382756,"is_reserved":false,"is_disabled":false,"rental_uris":{"android":"levelo://app?vid=f6678c52-8fdb-46d8-969e-3297a365c131","ios":"levelo://app?vid=f6678c52-8fdb-46d8-969e-3297a365c131"},"vehicle_type_id":"4","last_reported":1703182069,"current_range_meters":28000,"station_id":"ce4bhr12rcd13ifvqhqg","pricing_plan_id":"free"},{"bike_id":"e299beb3-acc1-46fa-9fec-22d2fe5e6b13","system_id":"levelo_inurba_marseille","lat":43.32831,"lon":5.36678,"is_reserved":false,"is_disabled":false,"rental_uris":{"android":"levelo://app?vid=e299beb3-acc1-46fa-9fec-22d2fe5e6b13","ios":"levelo://app?vid=e299beb3-acc1-46fa-9fec-22d2fe5e6b13"},"vehicle_type_id":"4","last_reported":1703182069,"current_range_meters":21600,"station_id":"ce4bhs92rcd13ifvqi0g","pricing_plan_id":"free"},{"bike_id":"c5cae810-39cc-4218-86e0-83a8342df03b","system_id":"levelo_inurba_marseille","lat":43.328371,"lon":5.366909,"is_reserved":false,"is_disabled":false,"rental_uris":{"android":"levelo://app?vid=c5cae810-39cc-4218-86e0-83a8342df03b","ios":"levelo://app?vid=c5cae810-39cc-4218-86e0-83a8342df03b"},"vehicle_type_id":"4","last_reported":1703182069,"current_range_meters":12400,"station_id":"ce4bhs92rcd13ifvqi0g","pricing_plan_id":"free"},{"bike_id":"e64ca15b-b414-43a7-a46d-412b7a25b66a","system_id":"levelo_inurba_marseille","lat":43.297163,"lon":5.365866,"is_reserved":false,"is_disabled":false,"rental_uris":{"android":"levelo://app?vid=e64ca15b-b414-43a7-a46d-412b7a25b66a","ios":"levelo://app?vid=e64ca15b-b414-43a7-a46d-412b7a25b66a"},"vehicle_type_id":"4","last_reported":1703182069,"current_range_meters":12400,"station_id":"ce4bgn12rcd13ifvqbt0","pricing_plan_id":"free"},{"bike_id":"e7027500-2244-43c2-82b0-d64c2aef5766","system_id":"levelo_inurba_marseille","lat":43.297163,"lon":5.365866,"is_reserved":false,"is_disabled":false,"rental_uris":{"android":"levelo://app?vid=e7027500-2244-43c2-82b0-d64c2aef5766","ios":"levelo://app?vid=e7027500-2244-43c2-82b0-d64c2aef5766"},"vehicle_type_id":"4","last_reported":1703182069,"current_range_meters":18000,"station_id":"ce4bgn12rcd13ifvqbt0","pricing_plan_id":"free"},{"bike_id":"220dbcc5-f9b9-4ec1-a000-a1e02fed0e9b","system_id":"levelo_inurba_marseille","lat":43.29588,"lon":5.36788,"is_reserved":false,"is_disabled":false,"rental_uris":{"android":"levelo://app?vid=220dbcc5-f9b9-4ec1-a000-a1e02fed0e9b","ios":"levelo://app?vid=220dbcc5-f9b9-4ec1-a000-a1e02fed0e9b"},"vehicle_type_id":"4","last_reported":1703182069,"current_range_meters":24000,"station_id":"ce4bgph2rcd13ifvqc2g","pricing_plan_id":"free"},{"bike_id":"83cbb170-12ff-4562-a00b-8928f67d5257","system_id":"levelo_inurba_marseille","lat":43.29573,"lon":5.367355,"is_reserved":false,"is_disabled":false,"rental_uris":{"android":"levelo://app?vid=83cbb170-12ff-4562-a00b-8928f67d5257","ios":"levelo://app?vid=83cbb170-12ff-4562-a00b-8928f67d5257"},"vehicle_type_id":"4","last_reported":1703182069,"current_range_meters":15200,"station_id":"ce4bgph2rcd13ifvqc2g","pricing_plan_id":"free"},{"bike_id":"2c50c63c-664d-4c11-be9e-9a31438da5a4","system_id":"levelo_inurba_marseille","lat":43.296921,"lon":5.376579,"is_reserved":false,"is_disabled":false,"rental_uris":{"android":"levelo://app?vid=2c50c63c-664d-4c11-be9e-9a31438da5a4","ios":"levelo://app?vid=2c50c63c-664d-4c11-be9e-9a31438da5a4"},"vehicle_type_id":"4","last_reported":1703182069,"current_range_meters":1200,"station_id":"ce4bgkh2rcd13ifvqbl0","pricing_plan_id":"free"},{"bike_id":"c3d7bd2b-e4cb-4948-bd6c-58421df1994a","system_id":"levelo_inurba_marseille","lat":43.309454,"lon":5.390296,"is_reserved":false,"is_disabled":false,"rental_uris":{"android":"levelo://app?vid=c3d7bd2b-e4cb-4948-bd6c-58421df1994a","ios":"levelo://app?vid=c3d7bd2b-e4cb-4948-bd6c-58421df1994a"},"vehicle_type_id":"4","last_reported":1703182069,"current_range_meters":0,"station_id":"","pricing_plan_id":"free"},{"bike_id":"68d03ee6-eb27-4b00-b4e5-13f14fc5595c","system_id":"levelo_inurba_marseille","lat":43.299028,"lon":5.381509,"is_reserved":false,"is_disabled":false,"rental_uris":{"android":"levelo://app?vid=68d03ee6-eb27-4b00-b4e5-13f14fc5595c","ios":"levelo://app?vid=68d03ee6-eb27-4b00-b4e5-13f14fc5595c"},"vehicle_type_id":"4","last_reported":1703182069,"current_range_meters":21600,"station_id":"ce4bgj12rcd13ifvqbc0","pricing_plan_id":"free"},{"bike_id":"04ca680c-0493-4f1b-9ef8-db1e704523dd","system_id":"levelo_inurba_marseille","lat":43.31758,"lon":5.39006,"is_reserved":false,"is_disabled":false,"rental_uris":{"android":"levelo://app?vid=04ca680c-0493-4f1b-9ef8-db1e704523dd","ios":"levelo://app?vid=04ca680c-0493-4f1b-9ef8-db1e704523dd"},"vehicle_type_id":"4","last_reported":1703182069,"current_range_meters":24400,"station_id":"ce4bhqp2rcd13ifvqhng","pricing_plan_id":"free"},{"bike_id":"834b9782-39e8-4602-8b8d-ea95026281ec","system_id":"levelo_inurba_marseille","lat":43.31764,"lon":5.39008,"is_reserved":false,"is_disabled":false,"rental_uris":{"android":"levelo://app?vid=834b9782-39e8-4602-8b8d-ea95026281ec","ios":"levelo://app?vid=834b9782-39e8-4602-8b8d-ea95026281ec"},"vehicle_type_id":"4","last_reported":1703182069,"current_range_meters":3200,"station_id":"ce4bhqp2rcd13ifvqhng","pricing_plan_id":"free"},{"bike_id":"7b89b0ee-9ba8-4aaf-8663-348001241aa8","system_id":"levelo_inurba_marseille","lat":43.317557,"lon":5.390173,"is_reserved":false,"is_disabled":false,"rental_uris":{"android":"levelo://app?vid=7b89b0ee-9ba8-4aaf-8663-348001241aa8","ios":"levelo://app?vid=7b89b0ee-9ba8-4aaf-8663-348001241aa8"},"vehicle_type_id":"4","last_reported":1703182069,"current_range_meters":26000,"station_id":"ce4bhqp2rcd13ifvqhng","pricing_plan_id":"free"},{"bike_id":"53d02047-2fc2-4d30-88b2-583fd58923ab","system_id":"levelo_inurba_marseille","lat":43.317557,"lon":5.390173,"is_reserved":false,"is_disabled":false,"rental_uris":{"android":"levelo://app?vid=53d02047-2fc2-4d30-88b2-583fd58923ab","ios":"levelo://app?vid=53d02047-2fc2-4d30-88b2-583fd58923ab"},"vehicle_type_id":"4","last_reported":1703182069,"current_range_meters":8800,"station_id":"ce4bhqp2rcd13ifvqhng","pricing_plan_id":"free"},{"bike_id":"085e0075-2732-47ec-8031-4240c90cd639","system_id":"levelo_inurba_marseille","lat":43.317557,"lon":5.390173,"is_reserved":false,"is_disabled":false,"rental_uris":{"android":"levelo://app?vid=085e0075-2732-47ec-8031-4240c90cd639","ios":"levelo://app?vid=085e0075-2732-47ec-8031-4240c90cd639"},"vehicle_type_id":"4","last_reported":1703182069,"current_range_meters":26800,"station_id":"ce4bhqp2rcd13ifvqhng","pricing_plan_id":"free"},{"bike_id":"e456f5e2-0eb2-4e69-a951-c88c201037f7","system_id":"levelo_inurba_marseille","lat":43.304274,"lon":5.388873,"is_reserved":false,"is_disabled":false,"rental_uris":{"android":"levelo://app?vid=e456f5e2-0eb2-4e69-a951-c88c201037f7","ios":"levelo://app?vid=e456f5e2-0eb2-4e69-a951-c88c201037f7"},"vehicle_type_id":"4","last_reported":1703182069,"current_range_meters":20800,"station_id":"ce4bgk12rcd13ifvqbi0","pricing_plan_id":"free"},{"bike_id":"643936f6-317f-4bfd-8acc-5657bde26ef1","system_id":"levelo_inurba_marseille","lat":43.304274,"lon":5.388873,"is_reserved":false,"is_disabled":false,"rental_uris":{"android":"levelo://app?vid=643936f6-317f-4bfd-8acc-5657bde26ef1","ios":"levelo://app?vid=643936f6-317f-4bfd-8acc-5657bde26ef1"},"vehicle_type_id":"4","last_reported":1703182069,"current_range_meters":10000,"station_id":"ce4bgk12rcd13ifvqbi0","pricing_plan_id":"free"},{"bike_id":"b75d7b4e-f976-42aa-b80c-9fc9404f574c","system_id":"levelo_inurba_marseille","lat":43.304274,"lon":5.388873,"is_reserved":false,"is_disabled":false,"rental_uris":{"android":"levelo://app?vid=b75d7b4e-f976-42aa-b80c-9fc9404f574c","ios":"levelo://app?vid=b75d7b4e-f976-42aa-b80c-9fc9404f574c"},"vehicle_type_id":"4","last_reported":1703182069,"current_range_meters":8800,"station_id":"ce4bgk12rcd13ifvqbi0","pricing_plan_id":"free"},{"bike_id":"2e17b167-c31f-4024-8566-41c9efa5bbc1","system_id":"levelo_inurba_marseille","lat":43.295279,"lon":5.375048,"is_reserved":false,"is_disabled":false,"rental_uris":{"android":"levelo://app?vid=2e17b167-c31f-4024-8566-41c9efa5bbc1","ios":"levelo://app?vid=2e17b167-c31f-4024-8566-41c9efa5bbc1"},"vehicle_type_id":"4","last_reported":1703182069,"current_range_meters":12400,"station_id":"ce4bgkp2rcd13ifvqbmg","pricing_plan_id":"free"},{"bike_id":"2ed194e5-ee02-4f73-bff2-ecfb7878281c","system_id":"levelo_inurba_marseille","lat":43.29973,"lon":5.38493,"is_reserved":false,"is_disabled":false,"rental_uris":{"android":"levelo://app?vid=2ed194e5-ee02-4f73-bff2-ecfb7878281c","ios":"levelo://app?vid=2ed194e5-ee02-4f73-bff2-ecfb7878281c"},"vehicle_type_id":"4","last_reported":1703182069,"current_range_meters":0,"station_id":"ce4bgj92rcd13ifvqbd0","pricing_plan_id":"free"},{"bike_id":"082d8f05-0000-475f-834f-93542749cbd1","system_id":"levelo_inurba_marseille","lat":43.299717,"lon":5.384845,"is_reserved":false,"is_disabled":false,"rental_uris":{"android":"levelo://app?vid=082d8f05-0000-475f-834f-93542749cbd1","ios":"levelo://app?vid=082d8f05-0000-475f-834f-93542749cbd1"},"vehicle_type_id":"4","last_reported":1703182069,"current_range_meters":15200,"station_id":"ce4bgj92rcd13ifvqbd0","pricing_plan_id":"free"},{"bike_id":"17c65f05-d32a-4147-b0d3-7670043a0e9a","system_id":"levelo_inurba_marseille","lat":43.299717,"lon":5.384845,"is_reserved":false,"is_disabled":false,"rental_uris":{"android":"levelo://app?vid=17c65f05-d32a-4147-b0d3-7670043a0e9a","ios":"levelo://app?vid=17c65f05-d32a-4147-b0d3-7670043a0e9a"},"vehicle_type_id":"4","last_reported":1703182069,"current_range_meters":5600,"station_id":"ce4bgj92rcd13ifvqbd0","pricing_plan_id":"free"},{"bike_id":"1378810b-812d-44e5-847a-1b7aeb90e4c4","system_id":"levelo_inurba_marseille","lat":43.29652,"lon":5.37946,"is_reserved":false,"is_disabled":false,"rental_uris":{"android":"levelo://app?vid=1378810b-812d-44e5-847a-1b7aeb90e4c4","ios":"levelo://app?vid=1378810b-812d-44e5-847a-1b7aeb90e4c4"},"vehicle_type_id":"4","last_reported":1703182069,"current_range_meters":16000,"station_id":"","pricing_plan_id":"free"},{"bike_id":"fa6788e3-7fb3-45dc-999e-75db12008c8b","system_id":"levelo_inurba_marseille","lat":43.295279,"lon":5.375048,"is_reserved":false,"is_disabled":false,"rental_uris":{"android":"levelo://app?vid=fa6788e3-7fb3-45dc-999e-75db12008c8b","ios":"levelo://app?vid=fa6788e3-7fb3-45dc-999e-75db12008c8b"},"vehicle_type_id":"4","last_reported":1703182069,"current_range_meters":11200,"station_id":"ce4bgkp2rcd13ifvqbmg","pricing_plan_id":"free"},{"bike_id":"4ec7f9ee-3059-4281-9f08-dc41f2a9f5d0","system_id":"levelo_inurba_marseille","lat":43.32362,"lon":5.38881,"is_reserved":false,"is_disabled":false,"rental_uris":{"android":"levelo://app?vid=4ec7f9ee-3059-4281-9f08-dc41f2a9f5d0","ios":"levelo://app?vid=4ec7f9ee-3059-4281-9f08-dc41f2a9f5d0"},"vehicle_type_id":"4","last_reported":1703182069,"current_range_meters":7600,"station_id":"ce4bhqp2rcd13ifvqhog","pricing_plan_id":"free"},{"bike_id":"7825f2e2-5dc0-48bf-9610-bf0be308ff43","system_id":"levelo_inurba_marseille","lat":43.32365,"lon":5.38884,"is_reserved":false,"is_disabled":false,"rental_uris":{"android":"levelo://app?vid=7825f2e2-5dc0-48bf-9610-bf0be308ff43","ios":"levelo://app?vid=7825f2e2-5dc0-48bf-9610-bf0be308ff43"},"vehicle_type_id":"4","last_reported":1703182069,"current_range_meters":1600,"station_id":"ce4bhqp2rcd13ifvqhog","pricing_plan_id":"free"},{"bike_id":"a127c068-9924-4ad6-bd22-24e833289439","system_id":"levelo_inurba_marseille","lat":43.29601,"lon":5.381084,"is_reserved":false,"is_disabled":false,"rental_uris":{"android":"levelo://app?vid=a127c068-9924-4ad6-bd22-24e833289439","ios":"levelo://app?vid=a127c068-9924-4ad6-bd22-24e833289439"},"vehicle_type_id":"4","last_reported":1703182069,"current_range_meters":7600,"station_id":"ce4bgl12rcd13ifvqbo0","pricing_plan_id":"free"},{"bike_id":"ab105203-d02e-4d41-b58a-b712d1b38e94","system_id":"levelo_inurba_marseille","lat":43.292749,"lon":5.368402,"is_reserved":false,"is_disabled":false,"rental_uris":{"android":"levelo://app?vid=ab105203-d02e-4d41-b58a-b712d1b38e94","ios":"levelo://app?vid=ab105203-d02e-4d41-b58a-b712d1b38e94"},"vehicle_type_id":"4","last_reported":1703182069,"current_range_meters":4400,"station_id":"ce4bhbp2rcd13ifvqesg","pricing_plan_id":"free"},{"bike_id":"350a4221-f8a8-4c09-b70e-b032a96afd60","system_id":"levelo_inurba_marseille","lat":43.292749,"lon":5.368402,"is_reserved":false,"is_disabled":false,"rental_uris":{"android":"levelo://app?vid=350a4221-f8a8-4c09-b70e-b032a96afd60","ios":"levelo://app?vid=350a4221-f8a8-4c09-b70e-b032a96afd60"},"vehicle_type_id":"4","last_reported":1703182069,"current_range_meters":4800,"station_id":"ce4bhbp2rcd13ifvqesg","pricing_plan_id":"free"},{"bike_id":"305d1bd6-2d10-4e24-aadc-231f8fcf97a8","system_id":"levelo_inurba_marseille","lat":43.300852,"lon":5.390859,"is_reserved":false,"is_disabled":false,"rental_uris":{"android":"levelo://app?vid=305d1bd6-2d10-4e24-aadc-231f8fcf97a8","ios":"levelo://app?vid=305d1bd6-2d10-4e24-aadc-231f8fcf97a8"},"vehicle_type_id":"4","last_reported":1703182069,"current_range_meters":5200,"station_id":"ce4bh192rcd13ifvqdb0","pricing_plan_id":"free"},{"bike_id":"b92d8c08-4834-44b1-858c-d7cabc5a10f3","system_id":"levelo_inurba_marseille","lat":43.29265,"lon":5.37628,"is_reserved":false,"is_disabled":false,"rental_uris":{"android":"levelo://app?vid=b92d8c08-4834-44b1-858c-d7cabc5a10f3","ios":"levelo://app?vid=b92d8c08-4834-44b1-858c-d7cabc5a10f3"},"vehicle_type_id":"4","last_reported":1703182069,"current_range_meters":26400,"station_id":"","pricing_plan_id":"free"},{"bike_id":"e2cd3274-80e1-44d0-b122-63a88b800651","system_id":"levelo_inurba_marseille","lat":43.29873,"lon":5.38907,"is_reserved":false,"is_disabled":false,"rental_uris":{"android":"levelo://app?vid=e2cd3274-80e1-44d0-b122-63a88b800651","ios":"levelo://app?vid=e2cd3274-80e1-44d0-b122-63a88b800651"},"vehicle_type_id":"4","last_reported":1703182069,"current_range_meters":10000,"station_id":"","pricing_plan_id":"free"},{"bike_id":"b34f0d70-77d2-443c-a8fb-02e9f1fe175d","system_id":"levelo_inurba_marseille","lat":43.29864,"lon":5.38901,"is_reserved":false,"is_disabled":false,"rental_uris":{"android":"levelo://app?vid=b34f0d70-77d2-443c-a8fb-02e9f1fe175d","ios":"levelo://app?vid=b34f0d70-77d2-443c-a8fb-02e9f1fe175d"},"vehicle_type_id":"4","last_reported":1703182069,"current_range_meters":7200,"station_id":"","pricing_plan_id":"free"},{"bike_id":"702dbdb3-0fbb-40c1-9eb1-4205b4cd6fef","system_id":"levelo_inurba_marseille","lat":43.291994,"lon":5.357886,"is_reserved":false,"is_disabled":false,"rental_uris":{"android":"levelo://app?vid=702dbdb3-0fbb-40c1-9eb1-4205b4cd6fef","ios":"levelo://app?vid=702dbdb3-0fbb-40c1-9eb1-4205b4cd6fef"},"vehicle_type_id":"4","last_reported":1703182069,"current_range_meters":4400,"station_id":"ce4bhb12rcd13ifvqel0","pricing_plan_id":"free"},{"bike_id":"50dd1120-ea14-451c-8149-30a0f8235931","system_id":"levelo_inurba_marseille","lat":43.291994,"lon":5.357886,"is_reserved":false,"is_disabled":false,"rental_uris":{"android":"levelo://app?vid=50dd1120-ea14-451c-8149-30a0f8235931","ios":"levelo://app?vid=50dd1120-ea14-451c-8149-30a0f8235931"},"vehicle_type_id":"4","last_reported":1703182069,"current_range_meters":9200,"station_id":"ce4bhb12rcd13ifvqel0","pricing_plan_id":"free"},{"bike_id":"5501c9f9-3ace-440b-8a06-d94092bc0135","system_id":"levelo_inurba_marseille","lat":43.291994,"lon":5.357886,"is_reserved":false,"is_disabled":false,"rental_uris":{"android":"levelo://app?vid=5501c9f9-3ace-440b-8a06-d94092bc0135","ios":"levelo://app?vid=5501c9f9-3ace-440b-8a06-d94092bc0135"},"vehicle_type_id":"4","last_reported":1703182069,"current_range_meters":1600,"station_id":"ce4bhb12rcd13ifvqel0","pricing_plan_id":"free"},{"bike_id":"434d14e8-130f-405b-8158-613dd2934d56","system_id":"levelo_inurba_marseille","lat":43.313291,"lon":5.396838,"is_reserved":false,"is_disabled":false,"rental_uris":{"android":"levelo://app?vid=434d14e8-130f-405b-8158-613dd2934d56","ios":"levelo://app?vid=434d14e8-130f-405b-8158-613dd2934d56"},"vehicle_type_id":"4","last_reported":1703182069,"current_range_meters":9600,"station_id":"ce4bgvp2rcd13ifvqcu0","pricing_plan_id":"free"},{"bike_id":"e15180be-0f1e-4dc8-acdb-8d6edc541f43","system_id":"levelo_inurba_marseille","lat":43.313291,"lon":5.396838,"is_reserved":false,"is_disabled":false,"rental_uris":{"android":"levelo://app?vid=e15180be-0f1e-4dc8-acdb-8d6edc541f43","ios":"levelo://app?vid=e15180be-0f1e-4dc8-acdb-8d6edc541f43"},"vehicle_type_id":"4","last_reported":1703182069,"current_range_meters":19200,"station_id":"ce4bgvp2rcd13ifvqcu0","pricing_plan_id":"free"},{"bike_id":"ac77afa4-1f35-4885-948a-c5c1dba40854","system_id":"levelo_inurba_marseille","lat":43.313291,"lon":5.396838,"is_reserved":false,"is_disabled":false,"rental_uris":{"android":"levelo://app?vid=ac77afa4-1f35-4885-948a-c5c1dba40854","ios":"levelo://app?vid=ac77afa4-1f35-4885-948a-c5c1dba40854"},"vehicle_type_id":"4","last_reported":1703182069,"current_range_meters":8400,"station_id":"ce4bgvp2rcd13ifvqcu0","pricing_plan_id":"free"},{"bike_id":"546eb82c-759f-49a4-8332-ee80778bfa77","system_id":"levelo_inurba_marseille","lat":43.313291,"lon":5.396838,"is_reserved":false,"is_disabled":false,"rental_uris":{"android":"levelo://app?vid=546eb82c-759f-49a4-8332-ee80778bfa77","ios":"levelo://app?vid=546eb82c-759f-49a4-8332-ee80778bfa77"},"vehicle_type_id":"4","last_reported":1703182069,"current_range_meters":13600,"station_id":"ce4bgvp2rcd13ifvqcu0","pricing_plan_id":"free"},{"bike_id":"45f99cda-befa-42ee-a2ee-ea05b8e79130","system_id":"levelo_inurba_marseille","lat":43.313291,"lon":5.396838,"is_reserved":false,"is_disabled":false,"rental_uris":{"android":"levelo://app?vid=45f99cda-befa-42ee-a2ee-ea05b8e79130","ios":"levelo://app?vid=45f99cda-befa-42ee-a2ee-ea05b8e79130"},"vehicle_type_id":"4","last_reported":1703182069,"current_range_meters":9600,"station_id":"ce4bgvp2rcd13ifvqcu0","pricing_plan_id":"free"},{"bike_id":"1509a640-caa2-474c-af59-5a2373d66749","system_id":"levelo_inurba_marseille","lat":43.309047,"lon":5.396551,"is_reserved":false,"is_disabled":false,"rental_uris":{"android":"levelo://app?vid=1509a640-caa2-474c-af59-5a2373d66749","ios":"levelo://app?vid=1509a640-caa2-474c-af59-5a2373d66749"},"vehicle_type_id":"4","last_reported":1703182069,"current_range_meters":5600,"station_id":"ce4bh012rcd13ifvqcv0","pricing_plan_id":"free"},{"bike_id":"7600b465-ae55-430f-a74a-3301103ebfcf","system_id":"levelo_inurba_marseille","lat":43.313291,"lon":5.396838,"is_reserved":false,"is_disabled":false,"rental_uris":{"android":"levelo://app?vid=7600b465-ae55-430f-a74a-3301103ebfcf","ios":"levelo://app?vid=7600b465-ae55-430f-a74a-3301103ebfcf"},"vehicle_type_id":"4","last_reported":1703182069,"current_range_meters":13600,"station_id":"ce4bgvp2rcd13ifvqcu0","pricing_plan_id":"free"},{"bike_id":"af9b85fb-d8f1-432f-844b-fe2bedb6a277","system_id":"levelo_inurba_marseille","lat":43.309047,"lon":5.396551,"is_reserved":false,"is_disabled":false,"rental_uris":{"android":"levelo://app?vid=af9b85fb-d8f1-432f-844b-fe2bedb6a277","ios":"levelo://app?vid=af9b85fb-d8f1-432f-844b-fe2bedb6a277"},"vehicle_type_id":"4","last_reported":1703182069,"current_range_meters":23200,"station_id":"ce4bh012rcd13ifvqcv0","pricing_plan_id":"free"},{"bike_id":"dadec077-0df0-4e3f-a2e2-94987a23d35f","system_id":"levelo_inurba_marseille","lat":43.313291,"lon":5.396838,"is_reserved":false,"is_disabled":false,"rental_uris":{"android":"levelo://app?vid=dadec077-0df0-4e3f-a2e2-94987a23d35f","ios":"levelo://app?vid=dadec077-0df0-4e3f-a2e2-94987a23d35f"},"vehicle_type_id":"4","last_reported":1703182069,"current_range_meters":24000,"station_id":"ce4bgvp2rcd13ifvqcu0","pricing_plan_id":"free"},{"bike_id":"569df881-44aa-4fb0-bd43-e2c14ad0998e","system_id":"levelo_inurba_marseille","lat":43.309038,"lon":5.396546,"is_reserved":false,"is_disabled":false,"rental_uris":{"android":"levelo://app?vid=569df881-44aa-4fb0-bd43-e2c14ad0998e","ios":"levelo://app?vid=569df881-44aa-4fb0-bd43-e2c14ad0998e"},"vehicle_type_id":"4","last_reported":1703182069,"current_range_meters":0,"station_id":"ce4bh012rcd13ifvqcv0","pricing_plan_id":"free"},{"bike_id":"335c67a9-f15d-4288-81d0-a2c52e14f9f6","system_id":"levelo_inurba_marseille","lat":43.290779,"lon":5.371482,"is_reserved":false,"is_disabled":false,"rental_uris":{"android":"levelo://app?vid=335c67a9-f15d-4288-81d0-a2c52e14f9f6","ios":"levelo://app?vid=335c67a9-f15d-4288-81d0-a2c52e14f9f6"},"vehicle_type_id":"4","last_reported":1703182069,"current_range_meters":19600,"station_id":"ce4bh5p2rcd13ifvqe4g","pricing_plan_id":"free"},{"bike_id":"5deea38c-bc74-471e-a793-bf593c84d9b5","system_id":"levelo_inurba_marseille","lat":43.290631,"lon":5.359244,"is_reserved":false,"is_disabled":false,"rental_uris":{"android":"levelo://app?vid=5deea38c-bc74-471e-a793-bf593c84d9b5","ios":"levelo://app?vid=5deea38c-bc74-471e-a793-bf593c84d9b5"},"vehicle_type_id":"4","last_reported":1703182069,"current_range_meters":22400,"station_id":"ce4bha92rcd13ifvqeg0","pricing_plan_id":"free"},{"bike_id":"76a1b509-3633-49c7-9e34-2e5245e0640d","system_id":"levelo_inurba_marseille","lat":43.289184,"lon":5.366408,"is_reserved":false,"is_disabled":false,"rental_uris":{"android":"levelo://app?vid=76a1b509-3633-49c7-9e34-2e5245e0640d","ios":"levelo://app?vid=76a1b509-3633-49c7-9e34-2e5245e0640d"},"vehicle_type_id":"4","last_reported":1703182069,"current_range_meters":20800,"station_id":"ce4bhap2rcd13ifvqek0","pricing_plan_id":"free"},{"bike_id":"deb53a65-5fc5-45a5-8b69-417dc04f1d73","system_id":"levelo_inurba_marseille","lat":43.289184,"lon":5.366408,"is_reserved":false,"is_disabled":false,"rental_uris":{"android":"levelo://app?vid=deb53a65-5fc5-45a5-8b69-417dc04f1d73","ios":"levelo://app?vid=deb53a65-5fc5-45a5-8b69-417dc04f1d73"},"vehicle_type_id":"4","last_reported":1703182069,"current_range_meters":18000,"station_id":"ce4bhap2rcd13ifvqek0","pricing_plan_id":"free"},{"bike_id":"f0475dab-654c-491c-9123-c27dfcc88efb","system_id":"levelo_inurba_marseille","lat":43.289468,"lon":5.363719,"is_reserved":false,"is_disabled":false,"rental_uris":{"android":"levelo://app?vid=f0475dab-654c-491c-9123-c27dfcc88efb","ios":"levelo://app?vid=f0475dab-654c-491c-9123-c27dfcc88efb"},"vehicle_type_id":"4","last_reported":1703182069,"current_range_meters":24800,"station_id":"ce4bhc92rcd13ifvqetg","pricing_plan_id":"free"},{"bike_id":"3557436a-4538-4d8c-9cbc-19bcaeb45837","system_id":"levelo_inurba_marseille","lat":43.289184,"lon":5.366408,"is_reserved":false,"is_disabled":false,"rental_uris":{"android":"levelo://app?vid=3557436a-4538-4d8c-9cbc-19bcaeb45837","ios":"levelo://app?vid=3557436a-4538-4d8c-9cbc-19bcaeb45837"},"vehicle_type_id":"4","last_reported":1703182069,"current_range_meters":12000,"station_id":"ce4bhap2rcd13ifvqek0","pricing_plan_id":"free"},{"bike_id":"3dc90588-a7cc-4138-9e5c-85f4d5568cb0","system_id":"levelo_inurba_marseille","lat":43.2904,"lon":5.3769,"is_reserved":false,"is_disabled":false,"rental_uris":{"android":"levelo://app?vid=3dc90588-a7cc-4138-9e5c-85f4d5568cb0","ios":"levelo://app?vid=3dc90588-a7cc-4138-9e5c-85f4d5568cb0"},"vehicle_type_id":"4","last_reported":1703182069,"current_range_meters":0,"station_id":"","pricing_plan_id":"free"},{"bike_id":"e48f0a0c-1154-4e50-bd24-ab8ba67a0d55","system_id":"levelo_inurba_marseille","lat":43.289468,"lon":5.363719,"is_reserved":false,"is_disabled":false,"rental_uris":{"android":"levelo://app?vid=e48f0a0c-1154-4e50-bd24-ab8ba67a0d55","ios":"levelo://app?vid=e48f0a0c-1154-4e50-bd24-ab8ba67a0d55"},"vehicle_type_id":"4","last_reported":1703182069,"current_range_meters":15200,"station_id":"ce4bhc92rcd13ifvqetg","pricing_plan_id":"free"},{"bike_id":"fe04619a-837f-4215-99fb-c7797369a2b1","system_id":"levelo_inurba_marseille","lat":43.330442,"lon":5.389148,"is_reserved":false,"is_disabled":false,"rental_uris":{"android":"levelo://app?vid=fe04619a-837f-4215-99fb-c7797369a2b1","ios":"levelo://app?vid=fe04619a-837f-4215-99fb-c7797369a2b1"},"vehicle_type_id":"4","last_reported":1703182069,"current_range_meters":20800,"station_id":"ce4bhr92rcd13ifvqhrg","pricing_plan_id":"free"},{"bike_id":"a5b77b93-f538-44b3-a8ee-8d6067f5e7ed","system_id":"levelo_inurba_marseille","lat":43.30255,"lon":5.39679,"is_reserved":false,"is_disabled":false,"rental_uris":{"android":"levelo://app?vid=a5b77b93-f538-44b3-a8ee-8d6067f5e7ed","ios":"levelo://app?vid=a5b77b93-f538-44b3-a8ee-8d6067f5e7ed"},"vehicle_type_id":"4","last_reported":1703182069,"current_range_meters":0,"station_id":"","pricing_plan_id":"free"},{"bike_id":"65d5eb63-b667-4df5-bbec-c08a27162df3","system_id":"levelo_inurba_marseille","lat":43.290103,"lon":5.356114,"is_reserved":false,"is_disabled":false,"rental_uris":{"android":"levelo://app?vid=65d5eb63-b667-4df5-bbec-c08a27162df3","ios":"levelo://app?vid=65d5eb63-b667-4df5-bbec-c08a27162df3"},"vehicle_type_id":"4","last_reported":1703182069,"current_range_meters":20000,"station_id":"ce4bhb92rcd13ifvqen0","pricing_plan_id":"free"},{"bike_id":"b6183fe8-f804-4533-b829-a7def76a2b3d","system_id":"levelo_inurba_marseille","lat":43.297815,"lon":5.393548,"is_reserved":false,"is_disabled":false,"rental_uris":{"android":"levelo://app?vid=b6183fe8-f804-4533-b829-a7def76a2b3d","ios":"levelo://app?vid=b6183fe8-f804-4533-b829-a7def76a2b3d"},"vehicle_type_id":"4","last_reported":1703182069,"current_range_meters":7600,"station_id":"chh1huq6cuj3fo74tm60","pricing_plan_id":"free"},{"bike_id":"c2f6fc4c-a62a-4295-99ac-ec2328fc8587","system_id":"levelo_inurba_marseille","lat":43.29775,"lon":5.39334,"is_reserved":false,"is_disabled":false,"rental_uris":{"android":"levelo://app?vid=c2f6fc4c-a62a-4295-99ac-ec2328fc8587","ios":"levelo://app?vid=c2f6fc4c-a62a-4295-99ac-ec2328fc8587"},"vehicle_type_id":"4","last_reported":1703182069,"current_range_meters":14400,"station_id":"chh1huq6cuj3fo74tm60","pricing_plan_id":"free"},{"bike_id":"8bbe8020-f1d8-45e5-ad30-ced36700a6e6","system_id":"levelo_inurba_marseille","lat":43.295169,"lon":5.390426,"is_reserved":false,"is_disabled":false,"rental_uris":{"android":"levelo://app?vid=8bbe8020-f1d8-45e5-ad30-ced36700a6e6","ios":"levelo://app?vid=8bbe8020-f1d8-45e5-ad30-ced36700a6e6"},"vehicle_type_id":"4","last_reported":1703182069,"current_range_meters":0,"station_id":"ce4bh3p2rcd13ifvqdp0","pricing_plan_id":"free"},{"bike_id":"4a65139b-2613-4e85-bae9-cf20b5ab0465","system_id":"levelo_inurba_marseille","lat":43.29773,"lon":5.39338,"is_reserved":false,"is_disabled":false,"rental_uris":{"android":"levelo://app?vid=4a65139b-2613-4e85-bae9-cf20b5ab0465","ios":"levelo://app?vid=4a65139b-2613-4e85-bae9-cf20b5ab0465"},"vehicle_type_id":"4","last_reported":1703182069,"current_range_meters":2800,"station_id":"chh1huq6cuj3fo74tm60","pricing_plan_id":"free"},{"bike_id":"6bc6fff3-7e36-4e49-b74b-f1b8618f9a2d","system_id":"levelo_inurba_marseille","lat":43.289743,"lon":5.378304,"is_reserved":false,"is_disabled":false,"rental_uris":{"android":"levelo://app?vid=6bc6fff3-7e36-4e49-b74b-f1b8618f9a2d","ios":"levelo://app?vid=6bc6fff3-7e36-4e49-b74b-f1b8618f9a2d"},"vehicle_type_id":"4","last_reported":1703182069,"current_range_meters":10400,"station_id":"ce4bh9p2rcd13ifvqed0","pricing_plan_id":"free"},{"bike_id":"f4a073ce-290e-488e-9dc4-47f525b2c1e9","system_id":"levelo_inurba_marseille","lat":43.28856,"lon":5.358371,"is_reserved":false,"is_disabled":false,"rental_uris":{"android":"levelo://app?vid=f4a073ce-290e-488e-9dc4-47f525b2c1e9","ios":"levelo://app?vid=f4a073ce-290e-488e-9dc4-47f525b2c1e9"},"vehicle_type_id":"4","last_reported":1703182069,"current_range_meters":0,"station_id":"ce4bhb12rcd13ifvqem0","pricing_plan_id":"free"},{"bike_id":"5c81a891-9f9f-45af-8799-b5e5314532fa","system_id":"levelo_inurba_marseille","lat":43.33752,"lon":5.37457,"is_reserved":false,"is_disabled":false,"rental_uris":{"android":"levelo://app?vid=5c81a891-9f9f-45af-8799-b5e5314532fa","ios":"levelo://app?vid=5c81a891-9f9f-45af-8799-b5e5314532fa"},"vehicle_type_id":"4","last_reported":1703182069,"current_range_meters":26800,"station_id":"","pricing_plan_id":"free"},{"bike_id":"7c460f08-bfcb-4707-8b32-419264b57ee6","system_id":"levelo_inurba_marseille","lat":43.33758,"lon":5.37451,"is_reserved":false,"is_disabled":false,"rental_uris":{"android":"levelo://app?vid=7c460f08-bfcb-4707-8b32-419264b57ee6","ios":"levelo://app?vid=7c460f08-bfcb-4707-8b32-419264b57ee6"},"vehicle_type_id":"4","last_reported":1703182069,"current_range_meters":26400,"station_id":"","pricing_plan_id":"free"},{"bike_id":"fe11a1ae-09a9-4be3-a255-98f73222b6c3","system_id":"levelo_inurba_marseille","lat":43.33759,"lon":5.37458,"is_reserved":false,"is_disabled":false,"rental_uris":{"android":"levelo://app?vid=fe11a1ae-09a9-4be3-a255-98f73222b6c3","ios":"levelo://app?vid=fe11a1ae-09a9-4be3-a255-98f73222b6c3"},"vehicle_type_id":"4","last_reported":1703182069,"current_range_meters":26800,"station_id":"","pricing_plan_id":"free"},{"bike_id":"3be16c03-3924-4add-b3b8-ee14479ec937","system_id":"levelo_inurba_marseille","lat":43.337682,"lon":5.374735,"is_reserved":false,"is_disabled":false,"rental_uris":{"android":"levelo://app?vid=3be16c03-3924-4add-b3b8-ee14479ec937","ios":"levelo://app?vid=3be16c03-3924-4add-b3b8-ee14479ec937"},"vehicle_type_id":"4","last_reported":1703182069,"current_range_meters":0,"station_id":"","pricing_plan_id":"free"},{"bike_id":"9ce1b2e9-900f-47f3-bdd0-72fb2f633c89","system_id":"levelo_inurba_marseille","lat":43.301117,"lon":5.398795,"is_reserved":false,"is_disabled":false,"rental_uris":{"android":"levelo://app?vid=9ce1b2e9-900f-47f3-bdd0-72fb2f633c89","ios":"levelo://app?vid=9ce1b2e9-900f-47f3-bdd0-72fb2f633c89"},"vehicle_type_id":"4","last_reported":1703182069,"current_range_meters":0,"station_id":"ce4bh0h2rcd13ifvqd40","pricing_plan_id":"free"},{"bike_id":"1c1559a1-191e-474c-b647-1cd8ca18117d","system_id":"levelo_inurba_marseille","lat":43.301117,"lon":5.398795,"is_reserved":false,"is_disabled":false,"rental_uris":{"android":"levelo://app?vid=1c1559a1-191e-474c-b647-1cd8ca18117d","ios":"levelo://app?vid=1c1559a1-191e-474c-b647-1cd8ca18117d"},"vehicle_type_id":"4","last_reported":1703182069,"current_range_meters":800,"station_id":"ce4bh0h2rcd13ifvqd40","pricing_plan_id":"free"},{"bike_id":"caf667f9-6a72-46ab-9f57-9d8cb007530f","system_id":"levelo_inurba_marseille","lat":43.3113,"lon":5.4023,"is_reserved":false,"is_disabled":false,"rental_uris":{"android":"levelo://app?vid=caf667f9-6a72-46ab-9f57-9d8cb007530f","ios":"levelo://app?vid=caf667f9-6a72-46ab-9f57-9d8cb007530f"},"vehicle_type_id":"4","last_reported":1703182069,"current_range_meters":2000,"station_id":"","pricing_plan_id":"free"},{"bike_id":"f282119c-8307-46d0-aa95-db3f21cc3f9d","system_id":"levelo_inurba_marseille","lat":43.30132,"lon":5.39869,"is_reserved":false,"is_disabled":false,"rental_uris":{"android":"levelo://app?vid=f282119c-8307-46d0-aa95-db3f21cc3f9d","ios":"levelo://app?vid=f282119c-8307-46d0-aa95-db3f21cc3f9d"},"vehicle_type_id":"4","last_reported":1703182069,"current_range_meters":0,"station_id":"ce4bh0h2rcd13ifvqd40","pricing_plan_id":"free"},{"bike_id":"88b93662-7666-40db-8f91-c83754121d78","system_id":"levelo_inurba_marseille","lat":43.28727,"lon":5.36078,"is_reserved":false,"is_disabled":false,"rental_uris":{"android":"levelo://app?vid=88b93662-7666-40db-8f91-c83754121d78","ios":"levelo://app?vid=88b93662-7666-40db-8f91-c83754121d78"},"vehicle_type_id":"4","last_reported":1703182069,"current_range_meters":27600,"station_id":"cki0cbj6b192h4jlfktg","pricing_plan_id":"free"},{"bike_id":"0099098c-7acf-437b-8aec-93641d47fce7","system_id":"levelo_inurba_marseille","lat":43.298681,"lon":5.397225,"is_reserved":false,"is_disabled":false,"rental_uris":{"android":"levelo://app?vid=0099098c-7acf-437b-8aec-93641d47fce7","ios":"levelo://app?vid=0099098c-7acf-437b-8aec-93641d47fce7"},"vehicle_type_id":"4","last_reported":1703182069,"current_range_meters":11200,"station_id":"ce4bh0h2rcd13ifvqd50","pricing_plan_id":"free"},{"bike_id":"b84ee6d2-9475-4ab9-b55b-a3aba73b9645","system_id":"levelo_inurba_marseille","lat":43.298681,"lon":5.397225,"is_reserved":false,"is_disabled":false,"rental_uris":{"android":"levelo://app?vid=b84ee6d2-9475-4ab9-b55b-a3aba73b9645","ios":"levelo://app?vid=b84ee6d2-9475-4ab9-b55b-a3aba73b9645"},"vehicle_type_id":"4","last_reported":1703182069,"current_range_meters":14800,"station_id":"ce4bh0h2rcd13ifvqd50","pricing_plan_id":"free"},{"bike_id":"a96b6b94-efb1-4357-a5ac-d7d9e034cee8","system_id":"levelo_inurba_marseille","lat":43.286591,"lon":5.363346,"is_reserved":false,"is_disabled":false,"rental_uris":{"android":"levelo://app?vid=a96b6b94-efb1-4357-a5ac-d7d9e034cee8","ios":"levelo://app?vid=a96b6b94-efb1-4357-a5ac-d7d9e034cee8"},"vehicle_type_id":"4","last_reported":1703182069,"current_range_meters":13200,"station_id":"ce4bhah2rcd13ifvqej0","pricing_plan_id":"free"},{"bike_id":"852757be-8278-474c-9c80-771101831317","system_id":"levelo_inurba_marseille","lat":43.295196,"lon":5.39397,"is_reserved":false,"is_disabled":false,"rental_uris":{"android":"levelo://app?vid=852757be-8278-474c-9c80-771101831317","ios":"levelo://app?vid=852757be-8278-474c-9c80-771101831317"},"vehicle_type_id":"4","last_reported":1703182069,"current_range_meters":16400,"station_id":"ce4bh292rcd13ifvqdf0","pricing_plan_id":"free"},{"bike_id":"8abd1ef1-d924-4e29-87ba-a2d3639d4931","system_id":"levelo_inurba_marseille","lat":43.298681,"lon":5.397225,"is_reserved":false,"is_disabled":false,"rental_uris":{"android":"levelo://app?vid=8abd1ef1-d924-4e29-87ba-a2d3639d4931","ios":"levelo://app?vid=8abd1ef1-d924-4e29-87ba-a2d3639d4931"},"vehicle_type_id":"4","last_reported":1703182069,"current_range_meters":3600,"station_id":"ce4bh0h2rcd13ifvqd50","pricing_plan_id":"free"},{"bike_id":"87a9ad39-e145-43aa-a71b-519b7f43fb37","system_id":"levelo_inurba_marseille","lat":43.295196,"lon":5.39397,"is_reserved":false,"is_disabled":false,"rental_uris":{"android":"levelo://app?vid=87a9ad39-e145-43aa-a71b-519b7f43fb37","ios":"levelo://app?vid=87a9ad39-e145-43aa-a71b-519b7f43fb37"},"vehicle_type_id":"4","last_reported":1703182069,"current_range_meters":22800,"station_id":"ce4bh292rcd13ifvqdf0","pricing_plan_id":"free"},{"bike_id":"f11aad09-3cd8-4066-bf90-2c607e14adf8","system_id":"levelo_inurba_marseille","lat":43.302759,"lon":5.400793,"is_reserved":false,"is_disabled":false,"rental_uris":{"android":"levelo://app?vid=f11aad09-3cd8-4066-bf90-2c607e14adf8","ios":"levelo://app?vid=f11aad09-3cd8-4066-bf90-2c607e14adf8"},"vehicle_type_id":"4","last_reported":1703182069,"current_range_meters":17600,"station_id":"ce4bgvh2rcd13ifvqcs0","pricing_plan_id":"free"},{"bike_id":"ad5443a6-f5c2-4fef-b6b8-2cd603498464","system_id":"levelo_inurba_marseille","lat":43.302759,"lon":5.400793,"is_reserved":false,"is_disabled":false,"rental_uris":{"android":"levelo://app?vid=ad5443a6-f5c2-4fef-b6b8-2cd603498464","ios":"levelo://app?vid=ad5443a6-f5c2-4fef-b6b8-2cd603498464"},"vehicle_type_id":"4","last_reported":1703182069,"current_range_meters":18800,"station_id":"ce4bgvh2rcd13ifvqcs0","pricing_plan_id":"free"},{"bike_id":"4d882ab1-2188-4a1b-93c0-ea8a8c1f82e2","system_id":"levelo_inurba_marseille","lat":43.286039,"lon":5.370679,"is_reserved":false,"is_disabled":false,"rental_uris":{"android":"levelo://app?vid=4d882ab1-2188-4a1b-93c0-ea8a8c1f82e2","ios":"levelo://app?vid=4d882ab1-2188-4a1b-93c0-ea8a8c1f82e2"},"vehicle_type_id":"4","last_reported":1703182069,"current_range_meters":22400,"station_id":"ce4bht12rcd13ifvqi60","pricing_plan_id":"free"},{"bike_id":"657b4d30-11c4-4174-ae70-5f17e3ee8719","system_id":"levelo_inurba_marseille","lat":43.286039,"lon":5.370679,"is_reserved":false,"is_disabled":false,"rental_uris":{"android":"levelo://app?vid=657b4d30-11c4-4174-ae70-5f17e3ee8719","ios":"levelo://app?vid=657b4d30-11c4-4174-ae70-5f17e3ee8719"},"vehicle_type_id":"4","last_reported":1703182069,"current_range_meters":25200,"station_id":"ce4bht12rcd13ifvqi60","pricing_plan_id":"free"},{"bike_id":"6c51907d-9b52-4986-bc4a-49eca6ddcb97","system_id":"levelo_inurba_marseille","lat":43.286039,"lon":5.370679,"is_reserved":false,"is_disabled":false,"rental_uris":{"android":"levelo://app?vid=6c51907d-9b52-4986-bc4a-49eca6ddcb97","ios":"levelo://app?vid=6c51907d-9b52-4986-bc4a-49eca6ddcb97"},"vehicle_type_id":"4","last_reported":1703182069,"current_range_meters":25600,"station_id":"ce4bht12rcd13ifvqi60","pricing_plan_id":"free"},{"bike_id":"983ef4bd-15ac-4651-8cde-3bd14abec0b1","system_id":"levelo_inurba_marseille","lat":43.286065,"lon":5.370662,"is_reserved":false,"is_disabled":false,"rental_uris":{"android":"levelo://app?vid=983ef4bd-15ac-4651-8cde-3bd14abec0b1","ios":"levelo://app?vid=983ef4bd-15ac-4651-8cde-3bd14abec0b1"},"vehicle_type_id":"4","last_reported":1703182069,"current_range_meters":0,"station_id":"ce4bht12rcd13ifvqi60","pricing_plan_id":"free"},{"bike_id":"f5380b7d-3d1f-45b4-961d-26091cd25d74","system_id":"levelo_inurba_marseille","lat":43.287185,"lon":5.379373,"is_reserved":false,"is_disabled":false,"rental_uris":{"android":"levelo://app?vid=f5380b7d-3d1f-45b4-961d-26091cd25d74","ios":"levelo://app?vid=f5380b7d-3d1f-45b4-961d-26091cd25d74"},"vehicle_type_id":"4","last_reported":1703182069,"current_range_meters":14400,"station_id":"ce4bh9p2rcd13ifvqec0","pricing_plan_id":"free"},{"bike_id":"606337c8-a392-4b6d-8c42-462be910a793","system_id":"levelo_inurba_marseille","lat":43.316821,"lon":5.404737,"is_reserved":false,"is_disabled":false,"rental_uris":{"android":"levelo://app?vid=606337c8-a392-4b6d-8c42-462be910a793","ios":"levelo://app?vid=606337c8-a392-4b6d-8c42-462be910a793"},"vehicle_type_id":"4","last_reported":1703182069,"current_range_meters":2400,"station_id":"ce4bh012rcd13ifvqd00","pricing_plan_id":"free"},{"bike_id":"0d32a2a8-aaa3-45cd-9bbf-c8fa61f4679d","system_id":"levelo_inurba_marseille","lat":43.316828,"lon":5.404723,"is_reserved":false,"is_disabled":false,"rental_uris":{"android":"levelo://app?vid=0d32a2a8-aaa3-45cd-9bbf-c8fa61f4679d","ios":"levelo://app?vid=0d32a2a8-aaa3-45cd-9bbf-c8fa61f4679d"},"vehicle_type_id":"4","last_reported":1703182069,"current_range_meters":4000,"station_id":"ce4bh012rcd13ifvqd00","pricing_plan_id":"free"},{"bike_id":"c5d6bcfa-7438-4440-9c12-82769d446d4a","system_id":"levelo_inurba_marseille","lat":43.294314,"lon":5.397498,"is_reserved":false,"is_disabled":false,"rental_uris":{"android":"levelo://app?vid=c5d6bcfa-7438-4440-9c12-82769d446d4a","ios":"levelo://app?vid=c5d6bcfa-7438-4440-9c12-82769d446d4a"},"vehicle_type_id":"4","last_reported":1703182069,"current_range_meters":8800,"station_id":"ce4bh3h2rcd13ifvqdo0","pricing_plan_id":"free"},{"bike_id":"678dc117-b484-48de-b728-ec87e95fccf0","system_id":"levelo_inurba_marseille","lat":43.284549,"lon":5.358884,"is_reserved":false,"is_disabled":false,"rental_uris":{"android":"levelo://app?vid=678dc117-b484-48de-b728-ec87e95fccf0","ios":"levelo://app?vid=678dc117-b484-48de-b728-ec87e95fccf0"},"vehicle_type_id":"4","last_reported":1703182069,"current_range_meters":0,"station_id":"ce4bhah2rcd13ifvqei0","pricing_plan_id":"free"},{"bike_id":"6ff04264-9a3e-40d0-a5a0-0dd19192d783","system_id":"levelo_inurba_marseille","lat":43.294314,"lon":5.397498,"is_reserved":false,"is_disabled":false,"rental_uris":{"android":"levelo://app?vid=6ff04264-9a3e-40d0-a5a0-0dd19192d783","ios":"levelo://app?vid=6ff04264-9a3e-40d0-a5a0-0dd19192d783"},"vehicle_type_id":"4","last_reported":1703182069,"current_range_meters":5600,"station_id":"ce4bh3h2rcd13ifvqdo0","pricing_plan_id":"free"},{"bike_id":"8538e6dd-dbef-4a5a-a119-9a857fd021ad","system_id":"levelo_inurba_marseille","lat":43.33218,"lon":5.397067,"is_reserved":false,"is_disabled":false,"rental_uris":{"android":"levelo://app?vid=8538e6dd-dbef-4a5a-a119-9a857fd021ad","ios":"levelo://app?vid=8538e6dd-dbef-4a5a-a119-9a857fd021ad"},"vehicle_type_id":"4","last_reported":1703182069,"current_range_meters":0,"station_id":"","pricing_plan_id":"free"},{"bike_id":"7b984439-cb32-4660-92fa-ddb202f970df","system_id":"levelo_inurba_marseille","lat":43.295713,"lon":5.399639,"is_reserved":false,"is_disabled":false,"rental_uris":{"android":"levelo://app?vid=7b984439-cb32-4660-92fa-ddb202f970df","ios":"levelo://app?vid=7b984439-cb32-4660-92fa-ddb202f970df"},"vehicle_type_id":"4","last_reported":1703182069,"current_range_meters":6000,"station_id":"ce4bh312rcd13ifvqdj0","pricing_plan_id":"free"},{"bike_id":"cd1b7da2-e98d-49e1-b784-31b8a8249c76","system_id":"levelo_inurba_marseille","lat":43.286595,"lon":5.386795,"is_reserved":false,"is_disabled":false,"rental_uris":{"android":"levelo://app?vid=cd1b7da2-e98d-49e1-b784-31b8a8249c76","ios":"levelo://app?vid=cd1b7da2-e98d-49e1-b784-31b8a8249c76"},"vehicle_type_id":"4","last_reported":1703182069,"current_range_meters":8000,"station_id":"ce4bh492rcd13ifvqdug","pricing_plan_id":"free"},{"bike_id":"473f13c8-d78a-4aca-99ff-51736d85102c","system_id":"levelo_inurba_marseille","lat":43.286595,"lon":5.386795,"is_reserved":false,"is_disabled":false,"rental_uris":{"android":"levelo://app?vid=473f13c8-d78a-4aca-99ff-51736d85102c","ios":"levelo://app?vid=473f13c8-d78a-4aca-99ff-51736d85102c"},"vehicle_type_id":"4","last_reported":1703182069,"current_range_meters":6800,"station_id":"ce4bh492rcd13ifvqdug","pricing_plan_id":"free"},{"bike_id":"dfdadb00-295f-4147-bb7b-992e830130a9","system_id":"levelo_inurba_marseille","lat":43.32331,"lon":5.40618,"is_reserved":false,"is_disabled":false,"rental_uris":{"android":"levelo://app?vid=dfdadb00-295f-4147-bb7b-992e830130a9","ios":"levelo://app?vid=dfdadb00-295f-4147-bb7b-992e830130a9"},"vehicle_type_id":"4","last_reported":1703182069,"current_range_meters":31200,"station_id":"ce4bhq92rcd13ifvqhjg","pricing_plan_id":"free"},{"bike_id":"d56a2764-677e-4209-adfa-b8c19fb45def","system_id":"levelo_inurba_marseille","lat":43.32339,"lon":5.4062,"is_reserved":false,"is_disabled":false,"rental_uris":{"android":"levelo://app?vid=d56a2764-677e-4209-adfa-b8c19fb45def","ios":"levelo://app?vid=d56a2764-677e-4209-adfa-b8c19fb45def"},"vehicle_type_id":"4","last_reported":1703182069,"current_range_meters":17200,"station_id":"ce4bhq92rcd13ifvqhjg","pricing_plan_id":"free"},{"bike_id":"e9ddef10-18a5-4bb6-892a-e814694b246c","system_id":"levelo_inurba_marseille","lat":43.283494,"lon":5.380945,"is_reserved":false,"is_disabled":false,"rental_uris":{"android":"levelo://app?vid=e9ddef10-18a5-4bb6-892a-e814694b246c","ios":"levelo://app?vid=e9ddef10-18a5-4bb6-892a-e814694b246c"},"vehicle_type_id":"4","last_reported":1703182069,"current_range_meters":1200,"station_id":"ce4bh412rcd13ifvqdr0","pricing_plan_id":"free"},{"bike_id":"0f42eedd-bd33-445f-91fc-4e7504a96eb4","system_id":"levelo_inurba_marseille","lat":43.32422,"lon":5.407068,"is_reserved":false,"is_disabled":false,"rental_uris":{"android":"levelo://app?vid=0f42eedd-bd33-445f-91fc-4e7504a96eb4","ios":"levelo://app?vid=0f42eedd-bd33-445f-91fc-4e7504a96eb4"},"vehicle_type_id":"4","last_reported":1703182069,"current_range_meters":16400,"station_id":"","pricing_plan_id":"free"},{"bike_id":"b279b95b-5521-4694-8a5e-0a6675ec400e","system_id":"levelo_inurba_marseille","lat":43.292724,"lon":5.401131,"is_reserved":false,"is_disabled":false,"rental_uris":{"android":"levelo://app?vid=b279b95b-5521-4694-8a5e-0a6675ec400e","ios":"levelo://app?vid=b279b95b-5521-4694-8a5e-0a6675ec400e"},"vehicle_type_id":"4","last_reported":1703182069,"current_range_meters":18800,"station_id":"ce4bh312rcd13ifvqdk0","pricing_plan_id":"free"},{"bike_id":"71831734-59ef-4e24-b86b-90ac9c7b9a70","system_id":"levelo_inurba_marseille","lat":43.292724,"lon":5.401131,"is_reserved":false,"is_disabled":false,"rental_uris":{"android":"levelo://app?vid=71831734-59ef-4e24-b86b-90ac9c7b9a70","ios":"levelo://app?vid=71831734-59ef-4e24-b86b-90ac9c7b9a70"},"vehicle_type_id":"4","last_reported":1703182069,"current_range_meters":6800,"station_id":"ce4bh312rcd13ifvqdk0","pricing_plan_id":"free"},{"bike_id":"1dd39f99-ff83-4b4e-8cf2-421cfe7ff0b7","system_id":"levelo_inurba_marseille","lat":43.292724,"lon":5.401131,"is_reserved":false,"is_disabled":false,"rental_uris":{"android":"levelo://app?vid=1dd39f99-ff83-4b4e-8cf2-421cfe7ff0b7","ios":"levelo://app?vid=1dd39f99-ff83-4b4e-8cf2-421cfe7ff0b7"},"vehicle_type_id":"4","last_reported":1703182069,"current_range_meters":4000,"station_id":"ce4bh312rcd13ifvqdk0","pricing_plan_id":"free"},{"bike_id":"31c602b8-b2f4-44cc-9abd-5fcc8a98728b","system_id":"levelo_inurba_marseille","lat":43.280382,"lon":5.369291,"is_reserved":false,"is_disabled":false,"rental_uris":{"android":"levelo://app?vid=31c602b8-b2f4-44cc-9abd-5fcc8a98728b","ios":"levelo://app?vid=31c602b8-b2f4-44cc-9abd-5fcc8a98728b"},"vehicle_type_id":"4","last_reported":1703182069,"current_range_meters":9200,"station_id":"ce4bha12rcd13ifvqef0","pricing_plan_id":"free"},{"bike_id":"4981f2c4-d667-457e-805c-36f81932423d","system_id":"levelo_inurba_marseille","lat":43.28039,"lon":5.369297,"is_reserved":false,"is_disabled":false,"rental_uris":{"android":"levelo://app?vid=4981f2c4-d667-457e-805c-36f81932423d","ios":"levelo://app?vid=4981f2c4-d667-457e-805c-36f81932423d"},"vehicle_type_id":"4","last_reported":1703182069,"current_range_meters":6800,"station_id":"ce4bha12rcd13ifvqef0","pricing_plan_id":"free"},{"bike_id":"65cc50fe-2134-4b29-bb15-9a4245357cdd","system_id":"levelo_inurba_marseille","lat":43.280382,"lon":5.369291,"is_reserved":false,"is_disabled":false,"rental_uris":{"android":"levelo://app?vid=65cc50fe-2134-4b29-bb15-9a4245357cdd","ios":"levelo://app?vid=65cc50fe-2134-4b29-bb15-9a4245357cdd"},"vehicle_type_id":"4","last_reported":1703182069,"current_range_meters":20000,"station_id":"ce4bha12rcd13ifvqef0","pricing_plan_id":"free"},{"bike_id":"d11657ed-4460-4729-bc20-5752a9ec9139","system_id":"levelo_inurba_marseille","lat":43.283502,"lon":5.386471,"is_reserved":false,"is_disabled":false,"rental_uris":{"android":"levelo://app?vid=d11657ed-4460-4729-bc20-5752a9ec9139","ios":"levelo://app?vid=d11657ed-4460-4729-bc20-5752a9ec9139"},"vehicle_type_id":"4","last_reported":1703182069,"current_range_meters":28400,"station_id":"ce4bh492rcd13ifvqdvg","pricing_plan_id":"free"},{"bike_id":"37ff4418-af64-4938-bcdf-d7868cf65984","system_id":"levelo_inurba_marseille","lat":43.282744,"lon":5.350533,"is_reserved":false,"is_disabled":false,"rental_uris":{"android":"levelo://app?vid=37ff4418-af64-4938-bcdf-d7868cf65984","ios":"levelo://app?vid=37ff4418-af64-4938-bcdf-d7868cf65984"},"vehicle_type_id":"4","last_reported":1703182069,"current_range_meters":24800,"station_id":"ce4bhbp2rcd13ifvqerg","pricing_plan_id":"free"},{"bike_id":"bf7dfc0e-301f-4b51-a6cb-fdffbd71b980","system_id":"levelo_inurba_marseille","lat":43.28039,"lon":5.369297,"is_reserved":false,"is_disabled":false,"rental_uris":{"android":"levelo://app?vid=bf7dfc0e-301f-4b51-a6cb-fdffbd71b980","ios":"levelo://app?vid=bf7dfc0e-301f-4b51-a6cb-fdffbd71b980"},"vehicle_type_id":"4","last_reported":1703182069,"current_range_meters":21600,"station_id":"ce4bha12rcd13ifvqef0","pricing_plan_id":"free"},{"bike_id":"63402adb-16dc-44dd-b9fc-eeb0b5bb4641","system_id":"levelo_inurba_marseille","lat":43.28039,"lon":5.369297,"is_reserved":false,"is_disabled":false,"rental_uris":{"android":"levelo://app?vid=63402adb-16dc-44dd-b9fc-eeb0b5bb4641","ios":"levelo://app?vid=63402adb-16dc-44dd-b9fc-eeb0b5bb4641"},"vehicle_type_id":"4","last_reported":1703182069,"current_range_meters":6000,"station_id":"ce4bha12rcd13ifvqef0","pricing_plan_id":"free"},{"bike_id":"44fe96b0-8f97-4fef-8d7c-38ccdc806e82","system_id":"levelo_inurba_marseille","lat":43.290423,"lon":5.39948,"is_reserved":false,"is_disabled":false,"rental_uris":{"android":"levelo://app?vid=44fe96b0-8f97-4fef-8d7c-38ccdc806e82","ios":"levelo://app?vid=44fe96b0-8f97-4fef-8d7c-38ccdc806e82"},"vehicle_type_id":"4","last_reported":1703182069,"current_range_meters":31200,"station_id":"ce4bh392rcd13ifvqdm0","pricing_plan_id":"free"},{"bike_id":"9e8f906e-a2c1-4a8f-aa7e-d271fade0311","system_id":"levelo_inurba_marseille","lat":43.29053,"lon":5.399657,"is_reserved":false,"is_disabled":false,"rental_uris":{"android":"levelo://app?vid=9e8f906e-a2c1-4a8f-aa7e-d271fade0311","ios":"levelo://app?vid=9e8f906e-a2c1-4a8f-aa7e-d271fade0311"},"vehicle_type_id":"4","last_reported":1703182069,"current_range_meters":27600,"station_id":"ce4bh392rcd13ifvqdm0","pricing_plan_id":"free"},{"bike_id":"94770004-d04a-4259-85f1-553934346a03","system_id":"levelo_inurba_marseille","lat":43.29048,"lon":5.3997,"is_reserved":false,"is_disabled":false,"rental_uris":{"android":"levelo://app?vid=94770004-d04a-4259-85f1-553934346a03","ios":"levelo://app?vid=94770004-d04a-4259-85f1-553934346a03"},"vehicle_type_id":"4","last_reported":1703182069,"current_range_meters":25600,"station_id":"ce4bh392rcd13ifvqdm0","pricing_plan_id":"free"},{"bike_id":"d064424a-b904-4cdc-9d11-d5e766323e85","system_id":"levelo_inurba_marseille","lat":43.29047,"lon":5.39969,"is_reserved":false,"is_disabled":false,"rental_uris":{"android":"levelo://app?vid=d064424a-b904-4cdc-9d11-d5e766323e85","ios":"levelo://app?vid=d064424a-b904-4cdc-9d11-d5e766323e85"},"vehicle_type_id":"4","last_reported":1703182069,"current_range_meters":21600,"station_id":"ce4bh392rcd13ifvqdm0","pricing_plan_id":"free"},{"bike_id":"a9651818-efff-4ca6-97b2-5ba89b0b7c2d","system_id":"levelo_inurba_marseille","lat":43.290321,"lon":5.399512,"is_reserved":false,"is_disabled":false,"rental_uris":{"android":"levelo://app?vid=a9651818-efff-4ca6-97b2-5ba89b0b7c2d","ios":"levelo://app?vid=a9651818-efff-4ca6-97b2-5ba89b0b7c2d"},"vehicle_type_id":"4","last_reported":1703182069,"current_range_meters":28400,"station_id":"ce4bh392rcd13ifvqdm0","pricing_plan_id":"free"},{"bike_id":"d031ea3b-712e-4582-87db-7d3dcc577bf1","system_id":"levelo_inurba_marseille","lat":43.290329,"lon":5.399536,"is_reserved":false,"is_disabled":false,"rental_uris":{"android":"levelo://app?vid=d031ea3b-712e-4582-87db-7d3dcc577bf1","ios":"levelo://app?vid=d031ea3b-712e-4582-87db-7d3dcc577bf1"},"vehicle_type_id":"4","last_reported":1703182069,"current_range_meters":0,"station_id":"ce4bh392rcd13ifvqdm0","pricing_plan_id":"free"},{"bike_id":"86376a3c-9c2d-464c-b55d-bd101373ebdc","system_id":"levelo_inurba_marseille","lat":43.29035,"lon":5.39963,"is_reserved":false,"is_disabled":false,"rental_uris":{"android":"levelo://app?vid=86376a3c-9c2d-464c-b55d-bd101373ebdc","ios":"levelo://app?vid=86376a3c-9c2d-464c-b55d-bd101373ebdc"},"vehicle_type_id":"4","last_reported":1703182069,"current_range_meters":30800,"station_id":"ce4bh392rcd13ifvqdm0","pricing_plan_id":"free"},{"bike_id":"ad872cbe-dcb3-4c9c-bf81-611e08a41a1d","system_id":"levelo_inurba_marseille","lat":43.290242,"lon":5.39957,"is_reserved":false,"is_disabled":false,"rental_uris":{"android":"levelo://app?vid=ad872cbe-dcb3-4c9c-bf81-611e08a41a1d","ios":"levelo://app?vid=ad872cbe-dcb3-4c9c-bf81-611e08a41a1d"},"vehicle_type_id":"4","last_reported":1703182069,"current_range_meters":24400,"station_id":"","pricing_plan_id":"free"},{"bike_id":"bc601e55-e020-4fa8-b32a-2ed78dfbafc6","system_id":"levelo_inurba_marseille","lat":43.281044,"lon":5.378308,"is_reserved":false,"is_disabled":false,"rental_uris":{"android":"levelo://app?vid=bc601e55-e020-4fa8-b32a-2ed78dfbafc6","ios":"levelo://app?vid=bc601e55-e020-4fa8-b32a-2ed78dfbafc6"},"vehicle_type_id":"4","last_reported":1703182069,"current_range_meters":16400,"station_id":"ce4bha12rcd13ifvqee0","pricing_plan_id":"free"},{"bike_id":"3cb12bfc-ce99-4b90-a574-22942c87fb93","system_id":"levelo_inurba_marseille","lat":43.290229,"lon":5.399671,"is_reserved":false,"is_disabled":false,"rental_uris":{"android":"levelo://app?vid=3cb12bfc-ce99-4b90-a574-22942c87fb93","ios":"levelo://app?vid=3cb12bfc-ce99-4b90-a574-22942c87fb93"},"vehicle_type_id":"4","last_reported":1703182069,"current_range_meters":24400,"station_id":"","pricing_plan_id":"free"},{"bike_id":"084fd27b-6409-406e-9b7e-8bf9149172ea","system_id":"levelo_inurba_marseille","lat":43.281044,"lon":5.378308,"is_reserved":false,"is_disabled":false,"rental_uris":{"android":"levelo://app?vid=084fd27b-6409-406e-9b7e-8bf9149172ea","ios":"levelo://app?vid=084fd27b-6409-406e-9b7e-8bf9149172ea"},"vehicle_type_id":"4","last_reported":1703182069,"current_range_meters":18400,"station_id":"ce4bha12rcd13ifvqee0","pricing_plan_id":"free"},{"bike_id":"96405a7b-715e-469c-b170-60287cab0d3c","system_id":"levelo_inurba_marseille","lat":43.296237,"lon":5.405997,"is_reserved":false,"is_disabled":false,"rental_uris":{"android":"levelo://app?vid=96405a7b-715e-469c-b170-60287cab0d3c","ios":"levelo://app?vid=96405a7b-715e-469c-b170-60287cab0d3c"},"vehicle_type_id":"4","last_reported":1703182069,"current_range_meters":7200,"station_id":"ce4bh0h2rcd13ifvqd60","pricing_plan_id":"free"},{"bike_id":"9766a77c-eb12-47e7-a70c-e7d712da4164","system_id":"levelo_inurba_marseille","lat":43.28573,"lon":5.394992,"is_reserved":false,"is_disabled":false,"rental_uris":{"android":"levelo://app?vid=9766a77c-eb12-47e7-a70c-e7d712da4164","ios":"levelo://app?vid=9766a77c-eb12-47e7-a70c-e7d712da4164"},"vehicle_type_id":"4","last_reported":1703182069,"current_range_meters":15200,"station_id":"ce4bh292rcd13ifvqdg0","pricing_plan_id":"free"},{"bike_id":"b6a180ae-e9aa-45a3-8b91-d7ec12096070","system_id":"levelo_inurba_marseille","lat":43.304188,"lon":5.412904,"is_reserved":false,"is_disabled":false,"rental_uris":{"android":"levelo://app?vid=b6a180ae-e9aa-45a3-8b91-d7ec12096070","ios":"levelo://app?vid=b6a180ae-e9aa-45a3-8b91-d7ec12096070"},"vehicle_type_id":"4","last_reported":1703182069,"current_range_meters":0,"station_id":"ce4bhop2rcd13ifvqh8g","pricing_plan_id":"free"},{"bike_id":"f58fd3f7-cbbb-4814-9c7e-f0ac0e949866","system_id":"levelo_inurba_marseille","lat":43.304188,"lon":5.412904,"is_reserved":false,"is_disabled":false,"rental_uris":{"android":"levelo://app?vid=f58fd3f7-cbbb-4814-9c7e-f0ac0e949866","ios":"levelo://app?vid=f58fd3f7-cbbb-4814-9c7e-f0ac0e949866"},"vehicle_type_id":"4","last_reported":1703182069,"current_range_meters":22400,"station_id":"ce4bhop2rcd13ifvqh8g","pricing_plan_id":"free"},{"bike_id":"7cea78e2-7479-4b91-822e-2103f42e34ca","system_id":"levelo_inurba_marseille","lat":43.27903,"lon":5.38009,"is_reserved":false,"is_disabled":false,"rental_uris":{"android":"levelo://app?vid=7cea78e2-7479-4b91-822e-2103f42e34ca","ios":"levelo://app?vid=7cea78e2-7479-4b91-822e-2103f42e34ca"},"vehicle_type_id":"4","last_reported":1703182069,"current_range_meters":8800,"station_id":"ce4bhf92rcd13ifvqf50","pricing_plan_id":"free"},{"bike_id":"5a51ed0f-836b-4f43-b481-1cf923b2ed4d","system_id":"levelo_inurba_marseille","lat":43.279087,"lon":5.380114,"is_reserved":false,"is_disabled":false,"rental_uris":{"android":"levelo://app?vid=5a51ed0f-836b-4f43-b481-1cf923b2ed4d","ios":"levelo://app?vid=5a51ed0f-836b-4f43-b481-1cf923b2ed4d"},"vehicle_type_id":"4","last_reported":1703182069,"current_range_meters":27600,"station_id":"ce4bhf92rcd13ifvqf50","pricing_plan_id":"free"},{"bike_id":"7f302279-6c81-430d-b83b-d444e2cd8d7d","system_id":"levelo_inurba_marseille","lat":43.27899,"lon":5.38021,"is_reserved":false,"is_disabled":false,"rental_uris":{"android":"levelo://app?vid=7f302279-6c81-430d-b83b-d444e2cd8d7d","ios":"levelo://app?vid=7f302279-6c81-430d-b83b-d444e2cd8d7d"},"vehicle_type_id":"4","last_reported":1703182069,"current_range_meters":17200,"station_id":"ce4bhf92rcd13ifvqf50","pricing_plan_id":"free"},{"bike_id":"964f780d-7ab4-4d6e-a70c-05c234b938c3","system_id":"levelo_inurba_marseille","lat":43.287154,"lon":5.399979,"is_reserved":false,"is_disabled":false,"rental_uris":{"android":"levelo://app?vid=964f780d-7ab4-4d6e-a70c-05c234b938c3","ios":"levelo://app?vid=964f780d-7ab4-4d6e-a70c-05c234b938c3"},"vehicle_type_id":"4","last_reported":1703182069,"current_range_meters":9200,"station_id":"ce4bho92rcd13ifvqh3g","pricing_plan_id":"free"},{"bike_id":"ae044a41-2648-4176-8b69-d7d9333fdaee","system_id":"levelo_inurba_marseille","lat":43.287154,"lon":5.399979,"is_reserved":false,"is_disabled":false,"rental_uris":{"android":"levelo://app?vid=ae044a41-2648-4176-8b69-d7d9333fdaee","ios":"levelo://app?vid=ae044a41-2648-4176-8b69-d7d9333fdaee"},"vehicle_type_id":"4","last_reported":1703182069,"current_range_meters":21600,"station_id":"ce4bho92rcd13ifvqh3g","pricing_plan_id":"free"},{"bike_id":"fb7438b1-f59d-4f23-8650-874c38006e96","system_id":"levelo_inurba_marseille","lat":43.287154,"lon":5.399979,"is_reserved":false,"is_disabled":false,"rental_uris":{"android":"levelo://app?vid=fb7438b1-f59d-4f23-8650-874c38006e96","ios":"levelo://app?vid=fb7438b1-f59d-4f23-8650-874c38006e96"},"vehicle_type_id":"4","last_reported":1703182069,"current_range_meters":10400,"station_id":"ce4bho92rcd13ifvqh3g","pricing_plan_id":"free"},{"bike_id":"a464aa3c-b69d-44e7-aa68-f0c6782a6079","system_id":"levelo_inurba_marseille","lat":43.320045,"lon":5.415048,"is_reserved":false,"is_disabled":false,"rental_uris":{"android":"levelo://app?vid=a464aa3c-b69d-44e7-aa68-f0c6782a6079","ios":"levelo://app?vid=a464aa3c-b69d-44e7-aa68-f0c6782a6079"},"vehicle_type_id":"4","last_reported":1703182069,"current_range_meters":23600,"station_id":"ce4bhq92rcd13ifvqhkg","pricing_plan_id":"free"},{"bike_id":"16c5a5ba-42c8-4267-8e40-5e0d42084b2f","system_id":"levelo_inurba_marseille","lat":43.279742,"lon":5.38744,"is_reserved":false,"is_disabled":false,"rental_uris":{"android":"levelo://app?vid=16c5a5ba-42c8-4267-8e40-5e0d42084b2f","ios":"levelo://app?vid=16c5a5ba-42c8-4267-8e40-5e0d42084b2f"},"vehicle_type_id":"4","last_reported":1703182069,"current_range_meters":25200,"station_id":"ce4bhg12rcd13ifvqf80","pricing_plan_id":"free"},{"bike_id":"3a0bbb21-6fb9-4264-930e-8c567dbb0f4c","system_id":"levelo_inurba_marseille","lat":43.292569,"lon":5.409107,"is_reserved":false,"is_disabled":false,"rental_uris":{"android":"levelo://app?vid=3a0bbb21-6fb9-4264-930e-8c567dbb0f4c","ios":"levelo://app?vid=3a0bbb21-6fb9-4264-930e-8c567dbb0f4c"},"vehicle_type_id":"4","last_reported":1703182069,"current_range_meters":15200,"station_id":"ce4bh192rcd13ifvqdc0","pricing_plan_id":"free"},{"bike_id":"73a4c45f-a923-4b18-946d-c257f503290b","system_id":"levelo_inurba_marseille","lat":43.325233,"lon":5.414318,"is_reserved":false,"is_disabled":false,"rental_uris":{"android":"levelo://app?vid=73a4c45f-a923-4b18-946d-c257f503290b","ios":"levelo://app?vid=73a4c45f-a923-4b18-946d-c257f503290b"},"vehicle_type_id":"4","last_reported":1703182069,"current_range_meters":12000,"station_id":"ce4bhq12rcd13ifvqhhg","pricing_plan_id":"free"},{"bike_id":"2a474107-c955-4058-bcc9-a70af6be9de7","system_id":"levelo_inurba_marseille","lat":43.280784,"lon":5.396622,"is_reserved":false,"is_disabled":false,"rental_uris":{"android":"levelo://app?vid=2a474107-c955-4058-bcc9-a70af6be9de7","ios":"levelo://app?vid=2a474107-c955-4058-bcc9-a70af6be9de7"},"vehicle_type_id":"4","last_reported":1703182069,"current_range_meters":13200,"station_id":"ce4bho12rcd13ifvqh2g","pricing_plan_id":"free"},{"bike_id":"ff1859db-c325-4be0-bc8c-cd5cf58b96c7","system_id":"levelo_inurba_marseille","lat":43.280784,"lon":5.396622,"is_reserved":false,"is_disabled":false,"rental_uris":{"android":"levelo://app?vid=ff1859db-c325-4be0-bc8c-cd5cf58b96c7","ios":"levelo://app?vid=ff1859db-c325-4be0-bc8c-cd5cf58b96c7"},"vehicle_type_id":"4","last_reported":1703182069,"current_range_meters":27600,"station_id":"ce4bho12rcd13ifvqh2g","pricing_plan_id":"free"},{"bike_id":"000d3c34-cabd-4bb1-8e18-db23430167a5","system_id":"levelo_inurba_marseille","lat":43.280784,"lon":5.396622,"is_reserved":false,"is_disabled":false,"rental_uris":{"android":"levelo://app?vid=000d3c34-cabd-4bb1-8e18-db23430167a5","ios":"levelo://app?vid=000d3c34-cabd-4bb1-8e18-db23430167a5"},"vehicle_type_id":"4","last_reported":1703182069,"current_range_meters":8000,"station_id":"ce4bho12rcd13ifvqh2g","pricing_plan_id":"free"},{"bike_id":"5dc355b4-d3d5-4543-b62e-d13182f0e2eb","system_id":"levelo_inurba_marseille","lat":43.303837,"lon":5.418724,"is_reserved":false,"is_disabled":false,"rental_uris":{"android":"levelo://app?vid=5dc355b4-d3d5-4543-b62e-d13182f0e2eb","ios":"levelo://app?vid=5dc355b4-d3d5-4543-b62e-d13182f0e2eb"},"vehicle_type_id":"4","last_reported":1703182069,"current_range_meters":22400,"station_id":"ce4bhop2rcd13ifvqh7g","pricing_plan_id":"free"},{"bike_id":"e10cc150-4041-48d5-aaa1-023406c60c29","system_id":"levelo_inurba_marseille","lat":43.273613,"lon":5.362705,"is_reserved":false,"is_disabled":false,"rental_uris":{"android":"levelo://app?vid=e10cc150-4041-48d5-aaa1-023406c60c29","ios":"levelo://app?vid=e10cc150-4041-48d5-aaa1-023406c60c29"},"vehicle_type_id":"4","last_reported":1703182069,"current_range_meters":14800,"station_id":"ce4bhbh2rcd13ifvqeo0","pricing_plan_id":"free"},{"bike_id":"db97d23b-b358-42c7-9b7c-756cec040fbb","system_id":"levelo_inurba_marseille","lat":43.317121,"lon":5.423936,"is_reserved":false,"is_disabled":false,"rental_uris":{"android":"levelo://app?vid=db97d23b-b358-42c7-9b7c-756cec040fbb","ios":"levelo://app?vid=db97d23b-b358-42c7-9b7c-756cec040fbb"},"vehicle_type_id":"4","last_reported":1703182069,"current_range_meters":30400,"station_id":"ce4bhp92rcd13ifvqhbg","pricing_plan_id":"free"},{"bike_id":"7ada0439-e02f-43f4-a65c-6cdbad12b2d5","system_id":"levelo_inurba_marseille","lat":43.317121,"lon":5.423936,"is_reserved":false,"is_disabled":false,"rental_uris":{"android":"levelo://app?vid=7ada0439-e02f-43f4-a65c-6cdbad12b2d5","ios":"levelo://app?vid=7ada0439-e02f-43f4-a65c-6cdbad12b2d5"},"vehicle_type_id":"4","last_reported":1703182069,"current_range_meters":28400,"station_id":"ce4bhp92rcd13ifvqhbg","pricing_plan_id":"free"},{"bike_id":"bcbcdef0-9276-4658-8897-3869267f4732","system_id":"levelo_inurba_marseille","lat":43.273125,"lon":5.390731,"is_reserved":false,"is_disabled":false,"rental_uris":{"android":"levelo://app?vid=bcbcdef0-9276-4658-8897-3869267f4732","ios":"levelo://app?vid=bcbcdef0-9276-4658-8897-3869267f4732"},"vehicle_type_id":"4","last_reported":1703182069,"current_range_meters":10000,"station_id":"ce4bhgp2rcd13ifvqfe0","pricing_plan_id":"free"},{"bike_id":"99dae9dd-74e1-4422-85fd-fc757383a71f","system_id":"levelo_inurba_marseille","lat":43.274099,"lon":5.394019,"is_reserved":false,"is_disabled":false,"rental_uris":{"android":"levelo://app?vid=99dae9dd-74e1-4422-85fd-fc757383a71f","ios":"levelo://app?vid=99dae9dd-74e1-4422-85fd-fc757383a71f"},"vehicle_type_id":"4","last_reported":1703182069,"current_range_meters":16800,"station_id":"ce4bhdp2rcd13ifvqf20","pricing_plan_id":"free"},{"bike_id":"b689c040-bdd9-4439-a29d-b1918c63fc3b","system_id":"levelo_inurba_marseille","lat":43.273125,"lon":5.390731,"is_reserved":false,"is_disabled":false,"rental_uris":{"android":"levelo://app?vid=b689c040-bdd9-4439-a29d-b1918c63fc3b","ios":"levelo://app?vid=b689c040-bdd9-4439-a29d-b1918c63fc3b"},"vehicle_type_id":"4","last_reported":1703182069,"current_range_meters":20800,"station_id":"ce4bhgp2rcd13ifvqfe0","pricing_plan_id":"free"},{"bike_id":"0454933a-5656-4345-852e-0e25afae89fb","system_id":"levelo_inurba_marseille","lat":43.295523,"lon":5.422926,"is_reserved":false,"is_disabled":false,"rental_uris":{"android":"levelo://app?vid=0454933a-5656-4345-852e-0e25afae89fb","ios":"levelo://app?vid=0454933a-5656-4345-852e-0e25afae89fb"},"vehicle_type_id":"4","last_reported":1703182069,"current_range_meters":30000,"station_id":"ce4bhph2rcd13ifvqhdg","pricing_plan_id":"free"},{"bike_id":"96484c65-8dd7-4167-a438-a7d837c6b7a7","system_id":"levelo_inurba_marseille","lat":43.295523,"lon":5.422926,"is_reserved":false,"is_disabled":false,"rental_uris":{"android":"levelo://app?vid=96484c65-8dd7-4167-a438-a7d837c6b7a7","ios":"levelo://app?vid=96484c65-8dd7-4167-a438-a7d837c6b7a7"},"vehicle_type_id":"4","last_reported":1703182069,"current_range_meters":32000,"station_id":"ce4bhph2rcd13ifvqhdg","pricing_plan_id":"free"},{"bike_id":"e0e5d280-f520-4390-a9f0-9b877fedb54e","system_id":"levelo_inurba_marseille","lat":43.295523,"lon":5.422926,"is_reserved":false,"is_disabled":false,"rental_uris":{"android":"levelo://app?vid=e0e5d280-f520-4390-a9f0-9b877fedb54e","ios":"levelo://app?vid=e0e5d280-f520-4390-a9f0-9b877fedb54e"},"vehicle_type_id":"4","last_reported":1703182069,"current_range_meters":21200,"station_id":"ce4bhph2rcd13ifvqhdg","pricing_plan_id":"free"},{"bike_id":"bc96446b-31f5-4313-822f-625edd6d0b52","system_id":"levelo_inurba_marseille","lat":43.295523,"lon":5.422926,"is_reserved":false,"is_disabled":false,"rental_uris":{"android":"levelo://app?vid=bc96446b-31f5-4313-822f-625edd6d0b52","ios":"levelo://app?vid=bc96446b-31f5-4313-822f-625edd6d0b52"},"vehicle_type_id":"4","last_reported":1703182069,"current_range_meters":27600,"station_id":"ce4bhph2rcd13ifvqhdg","pricing_plan_id":"free"},{"bike_id":"7b50e92c-923d-47a0-98cd-9b6ef12b5315","system_id":"levelo_inurba_marseille","lat":43.295523,"lon":5.422926,"is_reserved":false,"is_disabled":false,"rental_uris":{"android":"levelo://app?vid=7b50e92c-923d-47a0-98cd-9b6ef12b5315","ios":"levelo://app?vid=7b50e92c-923d-47a0-98cd-9b6ef12b5315"},"vehicle_type_id":"4","last_reported":1703182069,"current_range_meters":26000,"station_id":"ce4bhph2rcd13ifvqhdg","pricing_plan_id":"free"},{"bike_id":"218ca4ab-a316-43a6-87cd-acfc23cd8e62","system_id":"levelo_inurba_marseille","lat":43.295523,"lon":5.422926,"is_reserved":false,"is_disabled":false,"rental_uris":{"android":"levelo://app?vid=218ca4ab-a316-43a6-87cd-acfc23cd8e62","ios":"levelo://app?vid=218ca4ab-a316-43a6-87cd-acfc23cd8e62"},"vehicle_type_id":"4","last_reported":1703182069,"current_range_meters":22000,"station_id":"ce4bhph2rcd13ifvqhdg","pricing_plan_id":"free"},{"bike_id":"be334bea-da2e-4fb5-87e7-8f65eb7a0b67","system_id":"levelo_inurba_marseille","lat":43.295523,"lon":5.422926,"is_reserved":false,"is_disabled":false,"rental_uris":{"android":"levelo://app?vid=be334bea-da2e-4fb5-87e7-8f65eb7a0b67","ios":"levelo://app?vid=be334bea-da2e-4fb5-87e7-8f65eb7a0b67"},"vehicle_type_id":"4","last_reported":1703182069,"current_range_meters":16400,"station_id":"ce4bhph2rcd13ifvqhdg","pricing_plan_id":"free"},{"bike_id":"b55db1a0-b820-479b-9929-7610c21584c5","system_id":"levelo_inurba_marseille","lat":43.295511,"lon":5.422926,"is_reserved":false,"is_disabled":false,"rental_uris":{"android":"levelo://app?vid=b55db1a0-b820-479b-9929-7610c21584c5","ios":"levelo://app?vid=b55db1a0-b820-479b-9929-7610c21584c5"},"vehicle_type_id":"4","last_reported":1703182069,"current_range_meters":25600,"station_id":"ce4bhph2rcd13ifvqhdg","pricing_plan_id":"free"},{"bike_id":"7d800ac1-1b26-47dd-97c6-49cd89d9ab11","system_id":"levelo_inurba_marseille","lat":43.295511,"lon":5.422926,"is_reserved":false,"is_disabled":false,"rental_uris":{"android":"levelo://app?vid=7d800ac1-1b26-47dd-97c6-49cd89d9ab11","ios":"levelo://app?vid=7d800ac1-1b26-47dd-97c6-49cd89d9ab11"},"vehicle_type_id":"4","last_reported":1703182069,"current_range_meters":15200,"station_id":"ce4bhph2rcd13ifvqhdg","pricing_plan_id":"free"},{"bike_id":"9449eb80-d18a-481d-bf00-b32c1d52c065","system_id":"levelo_inurba_marseille","lat":43.295523,"lon":5.422926,"is_reserved":false,"is_disabled":false,"rental_uris":{"android":"levelo://app?vid=9449eb80-d18a-481d-bf00-b32c1d52c065","ios":"levelo://app?vid=9449eb80-d18a-481d-bf00-b32c1d52c065"},"vehicle_type_id":"4","last_reported":1703182069,"current_range_meters":7600,"station_id":"ce4bhph2rcd13ifvqhdg","pricing_plan_id":"free"},{"bike_id":"3f69bb1f-f352-43e6-95f0-af68fbb2a276","system_id":"levelo_inurba_marseille","lat":43.295511,"lon":5.422926,"is_reserved":false,"is_disabled":false,"rental_uris":{"android":"levelo://app?vid=3f69bb1f-f352-43e6-95f0-af68fbb2a276","ios":"levelo://app?vid=3f69bb1f-f352-43e6-95f0-af68fbb2a276"},"vehicle_type_id":"4","last_reported":1703182069,"current_range_meters":22800,"station_id":"ce4bhph2rcd13ifvqhdg","pricing_plan_id":"free"},{"bike_id":"23d13786-8601-4dce-a424-5d4a35dea444","system_id":"levelo_inurba_marseille","lat":43.295511,"lon":5.422926,"is_reserved":false,"is_disabled":false,"rental_uris":{"android":"levelo://app?vid=23d13786-8601-4dce-a424-5d4a35dea444","ios":"levelo://app?vid=23d13786-8601-4dce-a424-5d4a35dea444"},"vehicle_type_id":"4","last_reported":1703182069,"current_range_meters":18800,"station_id":"ce4bhph2rcd13ifvqhdg","pricing_plan_id":"free"},{"bike_id":"a80c78b0-54bd-4c06-a456-7ff9cb5fb92c","system_id":"levelo_inurba_marseille","lat":43.295523,"lon":5.422926,"is_reserved":false,"is_disabled":false,"rental_uris":{"android":"levelo://app?vid=a80c78b0-54bd-4c06-a456-7ff9cb5fb92c","ios":"levelo://app?vid=a80c78b0-54bd-4c06-a456-7ff9cb5fb92c"},"vehicle_type_id":"4","last_reported":1703182069,"current_range_meters":12400,"station_id":"ce4bhph2rcd13ifvqhdg","pricing_plan_id":"free"},{"bike_id":"de5695fa-c307-4330-a044-54d219fe24c0","system_id":"levelo_inurba_marseille","lat":43.295511,"lon":5.422926,"is_reserved":false,"is_disabled":false,"rental_uris":{"android":"levelo://app?vid=de5695fa-c307-4330-a044-54d219fe24c0","ios":"levelo://app?vid=de5695fa-c307-4330-a044-54d219fe24c0"},"vehicle_type_id":"4","last_reported":1703182069,"current_range_meters":4400,"station_id":"ce4bhph2rcd13ifvqhdg","pricing_plan_id":"free"},{"bike_id":"2478081d-9d2d-4404-8ef8-5d0de6360f99","system_id":"levelo_inurba_marseille","lat":43.295511,"lon":5.422926,"is_reserved":false,"is_disabled":false,"rental_uris":{"android":"levelo://app?vid=2478081d-9d2d-4404-8ef8-5d0de6360f99","ios":"levelo://app?vid=2478081d-9d2d-4404-8ef8-5d0de6360f99"},"vehicle_type_id":"4","last_reported":1703182069,"current_range_meters":9200,"station_id":"ce4bhph2rcd13ifvqhdg","pricing_plan_id":"free"},{"bike_id":"ddc116a7-beab-4d15-9d1e-d1d89e77aa33","system_id":"levelo_inurba_marseille","lat":43.265714,"lon":5.372891,"is_reserved":false,"is_disabled":false,"rental_uris":{"android":"levelo://app?vid=ddc116a7-beab-4d15-9d1e-d1d89e77aa33","ios":"levelo://app?vid=ddc116a7-beab-4d15-9d1e-d1d89e77aa33"},"vehicle_type_id":"4","last_reported":1703182069,"current_range_meters":5200,"station_id":"ce4bhg12rcd13ifvqf70","pricing_plan_id":"free"},{"bike_id":"f372f264-ab3a-473b-a0f4-acf003357915","system_id":"levelo_inurba_marseille","lat":43.265714,"lon":5.372891,"is_reserved":false,"is_disabled":false,"rental_uris":{"android":"levelo://app?vid=f372f264-ab3a-473b-a0f4-acf003357915","ios":"levelo://app?vid=f372f264-ab3a-473b-a0f4-acf003357915"},"vehicle_type_id":"4","last_reported":1703182069,"current_range_meters":23600,"station_id":"ce4bhg12rcd13ifvqf70","pricing_plan_id":"free"},{"bike_id":"57a7d671-dfda-4301-b34c-9843199a6119","system_id":"levelo_inurba_marseille","lat":43.27991,"lon":5.41659,"is_reserved":false,"is_disabled":false,"rental_uris":{"android":"levelo://app?vid=57a7d671-dfda-4301-b34c-9843199a6119","ios":"levelo://app?vid=57a7d671-dfda-4301-b34c-9843199a6119"},"vehicle_type_id":"4","last_reported":1703182069,"current_range_meters":0,"station_id":"ce4bho12rcd13ifvqh1g","pricing_plan_id":"free"},{"bike_id":"73c210fb-a655-4271-85b4-334effb9941b","system_id":"levelo_inurba_marseille","lat":43.27996,"lon":5.416624,"is_reserved":false,"is_disabled":false,"rental_uris":{"android":"levelo://app?vid=73c210fb-a655-4271-85b4-334effb9941b","ios":"levelo://app?vid=73c210fb-a655-4271-85b4-334effb9941b"},"vehicle_type_id":"4","last_reported":1703182069,"current_range_meters":9200,"station_id":"ce4bho12rcd13ifvqh1g","pricing_plan_id":"free"},{"bike_id":"1ef10e16-a0a4-4730-8c00-aa6b929dcb3d","system_id":"levelo_inurba_marseille","lat":43.265714,"lon":5.372891,"is_reserved":false,"is_disabled":false,"rental_uris":{"android":"levelo://app?vid=1ef10e16-a0a4-4730-8c00-aa6b929dcb3d","ios":"levelo://app?vid=1ef10e16-a0a4-4730-8c00-aa6b929dcb3d"},"vehicle_type_id":"4","last_reported":1703182069,"current_range_meters":5200,"station_id":"ce4bhg12rcd13ifvqf70","pricing_plan_id":"free"},{"bike_id":"07fbdce5-f320-4d5e-bc74-1034c54d7f61","system_id":"levelo_inurba_marseille","lat":43.308051,"lon":5.43527,"is_reserved":false,"is_disabled":false,"rental_uris":{"android":"levelo://app?vid=07fbdce5-f320-4d5e-bc74-1034c54d7f61","ios":"levelo://app?vid=07fbdce5-f320-4d5e-bc74-1034c54d7f61"},"vehicle_type_id":"4","last_reported":1703182069,"current_range_meters":31600,"station_id":"ce4bhph2rcd13ifvqheg","pricing_plan_id":"free"},{"bike_id":"9a91c593-84eb-47bc-a6eb-531a4db53380","system_id":"levelo_inurba_marseille","lat":43.308051,"lon":5.43527,"is_reserved":false,"is_disabled":false,"rental_uris":{"android":"levelo://app?vid=9a91c593-84eb-47bc-a6eb-531a4db53380","ios":"levelo://app?vid=9a91c593-84eb-47bc-a6eb-531a4db53380"},"vehicle_type_id":"4","last_reported":1703182069,"current_range_meters":32000,"station_id":"ce4bhph2rcd13ifvqheg","pricing_plan_id":"free"},{"bike_id":"53f54b99-3c65-4ab1-a202-f0b748e237d9","system_id":"levelo_inurba_marseille","lat":43.308051,"lon":5.43527,"is_reserved":false,"is_disabled":false,"rental_uris":{"android":"levelo://app?vid=53f54b99-3c65-4ab1-a202-f0b748e237d9","ios":"levelo://app?vid=53f54b99-3c65-4ab1-a202-f0b748e237d9"},"vehicle_type_id":"4","last_reported":1703182069,"current_range_meters":0,"station_id":"ce4bhph2rcd13ifvqheg","pricing_plan_id":"free"},{"bike_id":"83e5d364-2b0b-427e-9bda-21ed177e7ba6","system_id":"levelo_inurba_marseille","lat":43.26944,"lon":5.40244,"is_reserved":false,"is_disabled":false,"rental_uris":{"android":"levelo://app?vid=83e5d364-2b0b-427e-9bda-21ed177e7ba6","ios":"levelo://app?vid=83e5d364-2b0b-427e-9bda-21ed177e7ba6"},"vehicle_type_id":"4","last_reported":1703182069,"current_range_meters":22800,"station_id":"cjm6bp8fraef2m0cb0m0","pricing_plan_id":"free"},{"bike_id":"b4f6fef1-df14-4aba-aacf-1366fa16c609","system_id":"levelo_inurba_marseille","lat":43.26949,"lon":5.40262,"is_reserved":false,"is_disabled":false,"rental_uris":{"android":"levelo://app?vid=b4f6fef1-df14-4aba-aacf-1366fa16c609","ios":"levelo://app?vid=b4f6fef1-df14-4aba-aacf-1366fa16c609"},"vehicle_type_id":"4","last_reported":1703182069,"current_range_meters":16000,"station_id":"cjm6bp8fraef2m0cb0m0","pricing_plan_id":"free"},{"bike_id":"56874854-692d-4d9c-82a9-b6ca4904d248","system_id":"levelo_inurba_marseille","lat":43.26935,"lon":5.40259,"is_reserved":false,"is_disabled":false,"rental_uris":{"android":"levelo://app?vid=56874854-692d-4d9c-82a9-b6ca4904d248","ios":"levelo://app?vid=56874854-692d-4d9c-82a9-b6ca4904d248"},"vehicle_type_id":"4","last_reported":1703182069,"current_range_meters":0,"station_id":"cjm6bp8fraef2m0cb0m0","pricing_plan_id":"free"},{"bike_id":"821dba84-3267-4d46-a7c5-e6bc16d7ffd4","system_id":"levelo_inurba_marseille","lat":43.261782,"lon":5.374515,"is_reserved":false,"is_disabled":false,"rental_uris":{"android":"levelo://app?vid=821dba84-3267-4d46-a7c5-e6bc16d7ffd4","ios":"levelo://app?vid=821dba84-3267-4d46-a7c5-e6bc16d7ffd4"},"vehicle_type_id":"4","last_reported":1703182069,"current_range_meters":7600,"station_id":"ce4bhgp2rcd13ifvqfc0","pricing_plan_id":"free"},{"bike_id":"4a736e51-e49e-496f-92a8-610cbe61235d","system_id":"levelo_inurba_marseille","lat":43.261782,"lon":5.374515,"is_reserved":false,"is_disabled":false,"rental_uris":{"android":"levelo://app?vid=4a736e51-e49e-496f-92a8-610cbe61235d","ios":"levelo://app?vid=4a736e51-e49e-496f-92a8-610cbe61235d"},"vehicle_type_id":"4","last_reported":1703182069,"current_range_meters":13200,"station_id":"ce4bhgp2rcd13ifvqfc0","pricing_plan_id":"free"},{"bike_id":"2b0cb903-ceb5-4fc0-aee5-2ed1d5e17f75","system_id":"levelo_inurba_marseille","lat":43.261782,"lon":5.374515,"is_reserved":false,"is_disabled":false,"rental_uris":{"android":"levelo://app?vid=2b0cb903-ceb5-4fc0-aee5-2ed1d5e17f75","ios":"levelo://app?vid=2b0cb903-ceb5-4fc0-aee5-2ed1d5e17f75"},"vehicle_type_id":"4","last_reported":1703182069,"current_range_meters":27600,"station_id":"ce4bhgp2rcd13ifvqfc0","pricing_plan_id":"free"},{"bike_id":"f9bd8812-361b-4cf8-a08f-c5df49e9a80a","system_id":"levelo_inurba_marseille","lat":43.31711,"lon":5.43705,"is_reserved":false,"is_disabled":false,"rental_uris":{"android":"levelo://app?vid=f9bd8812-361b-4cf8-a08f-c5df49e9a80a","ios":"levelo://app?vid=f9bd8812-361b-4cf8-a08f-c5df49e9a80a"},"vehicle_type_id":"4","last_reported":1703182069,"current_range_meters":19200,"station_id":"ce4bhp92rcd13ifvqhcg","pricing_plan_id":"free"},{"bike_id":"2e62984b-8771-47f8-8e36-d6a6f38059c0","system_id":"levelo_inurba_marseille","lat":43.317104,"lon":5.436818,"is_reserved":false,"is_disabled":false,"rental_uris":{"android":"levelo://app?vid=2e62984b-8771-47f8-8e36-d6a6f38059c0","ios":"levelo://app?vid=2e62984b-8771-47f8-8e36-d6a6f38059c0"},"vehicle_type_id":"4","last_reported":1703182069,"current_range_meters":28400,"station_id":"ce4bhp92rcd13ifvqhcg","pricing_plan_id":"free"},{"bike_id":"6f9b29e1-774b-45e7-abca-18d7537fa578","system_id":"levelo_inurba_marseille","lat":43.31713,"lon":5.43709,"is_reserved":false,"is_disabled":false,"rental_uris":{"android":"levelo://app?vid=6f9b29e1-774b-45e7-abca-18d7537fa578","ios":"levelo://app?vid=6f9b29e1-774b-45e7-abca-18d7537fa578"},"vehicle_type_id":"4","last_reported":1703182069,"current_range_meters":25600,"station_id":"ce4bhp92rcd13ifvqhcg","pricing_plan_id":"free"},{"bike_id":"2d6427c7-a10a-4b24-b0a5-95d867c65295","system_id":"levelo_inurba_marseille","lat":43.317104,"lon":5.436818,"is_reserved":false,"is_disabled":false,"rental_uris":{"android":"levelo://app?vid=2d6427c7-a10a-4b24-b0a5-95d867c65295","ios":"levelo://app?vid=2d6427c7-a10a-4b24-b0a5-95d867c65295"},"vehicle_type_id":"4","last_reported":1703182069,"current_range_meters":22000,"station_id":"ce4bhp92rcd13ifvqhcg","pricing_plan_id":"free"},{"bike_id":"56adf3c8-c8d4-4438-805b-e2423bf864eb","system_id":"levelo_inurba_marseille","lat":43.26202,"lon":5.379299,"is_reserved":false,"is_disabled":false,"rental_uris":{"android":"levelo://app?vid=56adf3c8-c8d4-4438-805b-e2423bf864eb","ios":"levelo://app?vid=56adf3c8-c8d4-4438-805b-e2423bf864eb"},"vehicle_type_id":"4","last_reported":1703182069,"current_range_meters":25600,"station_id":"ce4bhjp2rcd13ifvqg90","pricing_plan_id":"free"},{"bike_id":"fea80754-0ed8-4101-9df0-e35e99a4821b","system_id":"levelo_inurba_marseille","lat":43.271368,"lon":5.40928,"is_reserved":false,"is_disabled":false,"rental_uris":{"android":"levelo://app?vid=fea80754-0ed8-4101-9df0-e35e99a4821b","ios":"levelo://app?vid=fea80754-0ed8-4101-9df0-e35e99a4821b"},"vehicle_type_id":"4","last_reported":1703182069,"current_range_meters":27600,"station_id":"ce4bhl12rcd13ifvqgf0","pricing_plan_id":"free"},{"bike_id":"7f08588c-f917-4516-862b-5fad0fa7ae17","system_id":"levelo_inurba_marseille","lat":43.271388,"lon":5.409269,"is_reserved":false,"is_disabled":false,"rental_uris":{"android":"levelo://app?vid=7f08588c-f917-4516-862b-5fad0fa7ae17","ios":"levelo://app?vid=7f08588c-f917-4516-862b-5fad0fa7ae17"},"vehicle_type_id":"4","last_reported":1703182069,"current_range_meters":3600,"station_id":"ce4bhl12rcd13ifvqgf0","pricing_plan_id":"free"},{"bike_id":"d6809aac-581e-42c4-875b-a9e38525a4ff","system_id":"levelo_inurba_marseille","lat":43.2651,"lon":5.39469,"is_reserved":false,"is_disabled":false,"rental_uris":{"android":"levelo://app?vid=d6809aac-581e-42c4-875b-a9e38525a4ff","ios":"levelo://app?vid=d6809aac-581e-42c4-875b-a9e38525a4ff"},"vehicle_type_id":"4","last_reported":1703182069,"current_range_meters":10400,"station_id":"ce4bhi12rcd13ifvqfq0","pricing_plan_id":"free"},{"bike_id":"8202d3ab-8ece-40c4-ae8f-4debe2725aee","system_id":"levelo_inurba_marseille","lat":43.2651,"lon":5.39469,"is_reserved":false,"is_disabled":false,"rental_uris":{"android":"levelo://app?vid=8202d3ab-8ece-40c4-ae8f-4debe2725aee","ios":"levelo://app?vid=8202d3ab-8ece-40c4-ae8f-4debe2725aee"},"vehicle_type_id":"4","last_reported":1703182069,"current_range_meters":24400,"station_id":"ce4bhi12rcd13ifvqfq0","pricing_plan_id":"free"},{"bike_id":"6b6c7129-48d9-4ed5-8d5a-18cea8a21166","system_id":"levelo_inurba_marseille","lat":43.2651,"lon":5.39469,"is_reserved":false,"is_disabled":false,"rental_uris":{"android":"levelo://app?vid=6b6c7129-48d9-4ed5-8d5a-18cea8a21166","ios":"levelo://app?vid=6b6c7129-48d9-4ed5-8d5a-18cea8a21166"},"vehicle_type_id":"4","last_reported":1703182069,"current_range_meters":12000,"station_id":"ce4bhi12rcd13ifvqfq0","pricing_plan_id":"free"},{"bike_id":"89859879-2644-4079-b6f8-de3a1c54f853","system_id":"levelo_inurba_marseille","lat":43.2651,"lon":5.39469,"is_reserved":false,"is_disabled":false,"rental_uris":{"android":"levelo://app?vid=89859879-2644-4079-b6f8-de3a1c54f853","ios":"levelo://app?vid=89859879-2644-4079-b6f8-de3a1c54f853"},"vehicle_type_id":"4","last_reported":1703182069,"current_range_meters":16000,"station_id":"ce4bhi12rcd13ifvqfq0","pricing_plan_id":"free"},{"bike_id":"77cc4bb4-f051-43ca-adab-d924c1cfe35b","system_id":"levelo_inurba_marseille","lat":43.2651,"lon":5.39469,"is_reserved":false,"is_disabled":false,"rental_uris":{"android":"levelo://app?vid=77cc4bb4-f051-43ca-adab-d924c1cfe35b","ios":"levelo://app?vid=77cc4bb4-f051-43ca-adab-d924c1cfe35b"},"vehicle_type_id":"4","last_reported":1703182069,"current_range_meters":23200,"station_id":"ce4bhi12rcd13ifvqfq0","pricing_plan_id":"free"},{"bike_id":"9bc11cf7-d766-47fb-a2ac-1ffa731b216c","system_id":"levelo_inurba_marseille","lat":43.298768,"lon":5.43643,"is_reserved":false,"is_disabled":false,"rental_uris":{"android":"levelo://app?vid=9bc11cf7-d766-47fb-a2ac-1ffa731b216c","ios":"levelo://app?vid=9bc11cf7-d766-47fb-a2ac-1ffa731b216c"},"vehicle_type_id":"4","last_reported":1703182069,"current_range_meters":31200,"station_id":"ce4bhpp2rcd13ifvqhfg","pricing_plan_id":"free"},{"bike_id":"7410f272-74ba-4f01-a016-a1b5f00b4c40","system_id":"levelo_inurba_marseille","lat":43.298768,"lon":5.43643,"is_reserved":false,"is_disabled":false,"rental_uris":{"android":"levelo://app?vid=7410f272-74ba-4f01-a016-a1b5f00b4c40","ios":"levelo://app?vid=7410f272-74ba-4f01-a016-a1b5f00b4c40"},"vehicle_type_id":"4","last_reported":1703182069,"current_range_meters":26800,"station_id":"ce4bhpp2rcd13ifvqhfg","pricing_plan_id":"free"},{"bike_id":"e10a2be6-93ee-4890-b116-7b9f107ee0ab","system_id":"levelo_inurba_marseille","lat":43.281548,"lon":5.42643,"is_reserved":false,"is_disabled":false,"rental_uris":{"android":"levelo://app?vid=e10a2be6-93ee-4890-b116-7b9f107ee0ab","ios":"levelo://app?vid=e10a2be6-93ee-4890-b116-7b9f107ee0ab"},"vehicle_type_id":"4","last_reported":1703182069,"current_range_meters":20000,"station_id":"ce4bhnh2rcd13ifvqgug","pricing_plan_id":"free"},{"bike_id":"8642978e-eb6b-4fb7-b66e-b24c69cf7eed","system_id":"levelo_inurba_marseille","lat":43.2607,"lon":5.393983,"is_reserved":false,"is_disabled":false,"rental_uris":{"android":"levelo://app?vid=8642978e-eb6b-4fb7-b66e-b24c69cf7eed","ios":"levelo://app?vid=8642978e-eb6b-4fb7-b66e-b24c69cf7eed"},"vehicle_type_id":"4","last_reported":1703182069,"current_range_meters":4800,"station_id":"ce4bhh92rcd13ifvqfj0","pricing_plan_id":"free"},{"bike_id":"dec2afc1-cb0f-4751-8485-0988c5a5ccaa","system_id":"levelo_inurba_marseille","lat":43.26064,"lon":5.394,"is_reserved":false,"is_disabled":false,"rental_uris":{"android":"levelo://app?vid=dec2afc1-cb0f-4751-8485-0988c5a5ccaa","ios":"levelo://app?vid=dec2afc1-cb0f-4751-8485-0988c5a5ccaa"},"vehicle_type_id":"4","last_reported":1703182069,"current_range_meters":19200,"station_id":"ce4bhh92rcd13ifvqfj0","pricing_plan_id":"free"},{"bike_id":"522b55ee-8a84-4e2c-ba67-00be95d022db","system_id":"levelo_inurba_marseille","lat":43.2607,"lon":5.393983,"is_reserved":false,"is_disabled":false,"rental_uris":{"android":"levelo://app?vid=522b55ee-8a84-4e2c-ba67-00be95d022db","ios":"levelo://app?vid=522b55ee-8a84-4e2c-ba67-00be95d022db"},"vehicle_type_id":"4","last_reported":1703182069,"current_range_meters":27200,"station_id":"ce4bhh92rcd13ifvqfj0","pricing_plan_id":"free"},{"bike_id":"c22eec67-2f51-42d4-b562-710f7a65cdcc","system_id":"levelo_inurba_marseille","lat":43.2607,"lon":5.393983,"is_reserved":false,"is_disabled":false,"rental_uris":{"android":"levelo://app?vid=c22eec67-2f51-42d4-b562-710f7a65cdcc","ios":"levelo://app?vid=c22eec67-2f51-42d4-b562-710f7a65cdcc"},"vehicle_type_id":"4","last_reported":1703182069,"current_range_meters":24800,"station_id":"ce4bhh92rcd13ifvqfj0","pricing_plan_id":"free"},{"bike_id":"25d2fc2d-047e-4f81-a046-77f3a327c2fd","system_id":"levelo_inurba_marseille","lat":43.25823,"lon":5.3944,"is_reserved":false,"is_disabled":false,"rental_uris":{"android":"levelo://app?vid=25d2fc2d-047e-4f81-a046-77f3a327c2fd","ios":"levelo://app?vid=25d2fc2d-047e-4f81-a046-77f3a327c2fd"},"vehicle_type_id":"4","last_reported":1703182069,"current_range_meters":29600,"station_id":"ce4bhip2rcd13ifvqft0","pricing_plan_id":"free"},{"bike_id":"1362dd25-0853-4266-9539-033a52059d82","system_id":"levelo_inurba_marseille","lat":43.258195,"lon":5.39427,"is_reserved":false,"is_disabled":false,"rental_uris":{"android":"levelo://app?vid=1362dd25-0853-4266-9539-033a52059d82","ios":"levelo://app?vid=1362dd25-0853-4266-9539-033a52059d82"},"vehicle_type_id":"4","last_reported":1703182069,"current_range_meters":2800,"station_id":"ce4bhip2rcd13ifvqft0","pricing_plan_id":"free"},