{"last_updated":1748552984,"ttl":60,"version":"2.2","data":{"bikes":[{"bike_id":"55d42eeb-6b71-4987-a0f2-3d758b10d43e","system_id":"levelo_inurba_marseille","lat":43.33771,"lon":5.37424,"is_reserved":false,"is_disabled":true,"rental_uris":{"android":"levelo://app?vid=55d42eeb-6b71-4987-a0f2-3d758b10d43e","ios":"levelo://app?vid=55d42eeb-6b71-4987-a0f2-3d758b10d43e"},"vehicle_type_id":"4","last_reported":1748552985,"current_range_meters":0,"station_id":"","pricing_plan_id":"cebpf4jnsgd1na2vs0mg"},{"bike_id":"b0e2300b-cafc-4d59-b30f-70aae6a0084c","system_id":"levelo_inurba_marseille","lat":43.30047,"lon":5.40184,"is_reserved":false,"is_disabled":true,"rental_uris":{"android":"levelo://app?vid=b0e2300b-cafc-4d59-b30f-70aae6a0084c","ios":"levelo://app?vid=b0e2300b-cafc-4d59-b30f-70aae6a0084c"},"vehicle_type_id":"4","last_reported":1748552985,"current_range_meters":0,"station_id":"","pricing_plan_id":"cebpf4jnsgd1na2vs0mg"},{"bike_id":"b7fe4621-b706-42f0-9085-4811142f84e8","system_id":"levelo_inurba_marseille","lat":43.337499,"lon":5.374469,"is_reserved":false,"is_disabled":true,"rental_uris":{"android":"levelo://app?vid=b7fe4621-b706-42f0-9085-4811142f84e8","ios":"levelo://app?vid=b7fe4621-b706-42f0-9085-4811142f84e8"},"vehicle_type_id":"4","last_reported":1748552985,"current_range_meters":0,"station_id":"","pricing_plan_id":"cebpf4jnsgd1na2vs0mg"},{"bike_id":"026ed65d-07ee-4955-b98a-dcd4f8ac417e","system_id":"levelo_inurba_marseille","lat":43.217848,"lon":5.345822,"is_reserved":false,"is_disabled":true,"rental_uris":{"android":"levelo://app?vid=026ed65d-07ee-4955-b98a-dcd4f8ac417e","ios":"levelo://app?vid=026ed65d-07ee-4955-b98a-dcd4f8ac417e"},"vehicle_type_id":"4","last_reported":1748552985,"current_range_meters":0,"station_id":"","pricing_plan_id":"cebpf4jnsgd1na2vs0mg"},{"bike_id":"ad402f0f-3192-410c-afac-8cf064a40c6d","system_id":"levelo_inurba_marseille","lat":43.337444,"lon":5.374475,"is_reserved":false,"is_disabled":true,"rental_uris":{"android":"levelo://app?vid=ad402f0f-3192-410c-afac-8cf064a40c6d","ios":"levelo://app?vid=ad402f0f-3192-410c-afac-8cf064a40c6d"},"vehicle_type_id":"4","last_reported":1748552985,"current_range_meters":0,"station_id":"","pricing_plan_id":"cebpf4jnsgd1na2vs0mg"},{"bike_id":"64fceeed-f4e8-40df-995a-9a2b05abc560","system_id":"levelo_inurba_marseille","lat":43.32536,"lon":5.42984,"is_reserved":false,"is_disabled":true,"rental_uris":{"android":"levelo://app?vid=64fceeed-f4e8-40df-995a-9a2b05abc560","ios":"levelo://app?vid=64fceeed-f4e8-40df-995a-9a2b05abc560"},"vehicle_type_id":"4","last_reported":1748552985,"current_range_meters":0,"station_id":"","pricing_plan_id":"cebpf4jnsgd1na2vs0mg"},{"bike_id":"905911a0-7b6f-416a-b65c-aec34d47998b","system_id":"levelo_inurba_marseille","lat":43.29766,"lon":5.38108,"is_reserved":false,"is_disabled":true,"rental_uris":{"android":"levelo://app?vid=905911a0-7b6f-416a-b65c-aec34d47998b","ios":"levelo://app?vid=905911a0-7b6f-416a-b65c-aec34d47998b"},"vehicle_type_id":"4","last_reported":1748552985,"current_range_meters":0,"station_id":"","pricing_plan_id":"cebpf4jnsgd1na2vs0mg"},{"bike_id":"80dc1064-d63f-4a22-ad21-d8abd70986c0","system_id":"levelo_inurba_marseille","lat":43.337471,"lon":5.374742,"is_reserved":false,"is_disabled":true,"rental_uris":{"android":"levelo://app?vid=80dc1064-d63f-4a22-ad21-d8abd70986c0","ios":"levelo://app?vid=80dc1064-d63f-4a22-ad21-d8abd70986c0"},"vehicle_type_id":"4","last_reported":1748552985,"current_range_meters":0,"station_id":"","pricing_plan_id":"cebpf4jnsgd1na2vs0mg"},{"bike_id":"528e54e0-df6b-40ef-9929-2e4f1ee5a533","system_id":"levelo_inurba_marseille","lat":43.29415,"lon":5.38209,"is_reserved":false,"is_disabled":true,"rental_uris":{"android":"levelo://app?vid=528e54e0-df6b-40ef-9929-2e4f1ee5a533","ios":"levelo://app?vid=528e54e0-df6b-40ef-9929-2e4f1ee5a533"},"vehicle_type_id":"4","last_reported":1748552985,"current_range_meters":0,"station_id":"","pricing_plan_id":"cebpf4jnsgd1na2vs0mg"},{"bike_id":"2c08f058-11cb-4c96-b63a-5cf20fe05e84","system_id":"levelo_inurba_marseille","lat":43.301363,"lon":5.387826,"is_reserved":false,"is_disabled":true,"rental_uris":{"android":"levelo://app?vid=2c08f058-11cb-4c96-b63a-5cf20fe05e84","ios":"levelo://app?vid=2c08f058-11cb-4c96-b63a-5cf20fe05e84"},"vehicle_type_id":"4","last_reported":1748552985,"current_range_meters":0,"station_id":"","pricing_plan_id":"cebpf4jnsgd1na2vs0mg"},{"bike_id":"987b70df-a246-4bbc-966b-0c7b3f4b7350","system_id":"levelo_inurba_marseille","lat":43.2823,"lon":5.39048,"is_reserved":false,"is_disabled":true,"rental_uris":{"android":"levelo://app?vid=987b70df-a246-4bbc-966b-0c7b3f4b7350","ios":"levelo://app?vid=987b70df-a246-4bbc-966b-0c7b3f4b7350"},"vehicle_type_id":"4","last_reported":1748552985,"current_range_meters":0,"station_id":"","pricing_plan_id":"cebpf4jnsgd1na2vs0mg"},{"bike_id":"2fd7e160-685c-4858-b57b-dcaef27a8e94","system_id":"levelo_inurba_marseille","lat":43.230331,"lon":5.401847,"is_reserved":false,"is_disabled":true,"rental_uris":{"android":"levelo://app?vid=2fd7e160-685c-4858-b57b-dcaef27a8e94","ios":"levelo://app?vid=2fd7e160-685c-4858-b57b-dcaef27a8e94"},"vehicle_type_id":"4","last_reported":1748552985,"current_range_meters":0,"station_id":"","pricing_plan_id":"cebpf4jnsgd1na2vs0mg"},{"bike_id":"b5184c25-2ec4-40a9-9de8-7bcbfdd7a4de","system_id":"levelo_inurba_marseille","lat":43.30147,"lon":5.38788,"is_reserved":false,"is_disabled":true,"rental_uris":{"android":"levelo://app?vid=b5184c25-2ec4-40a9-9de8-7bcbfdd7a4de","ios":"levelo://app?vid=b5184c25-2ec4-40a9-9de8-7bcbfdd7a4de"},"vehicle_type_id":"4","last_reported":1748552985,"current_range_meters":0,"station_id":"ce4bghh2rcd13ifvqb60","pricing_plan_id":"cebpf4jnsgd1na2vs0mg"},{"bike_id":"3ad424e1-24eb-42a2-af8c-9897cf930002","system_id":"levelo_inurba_marseille","lat":43.3095,"lon":5.39042,"is_reserved":false,"is_disabled":true,"rental_uris":{"android":"levelo://app?vid=3ad424e1-24eb-42a2-af8c-9897cf930002","ios":"levelo://app?vid=3ad424e1-24eb-42a2-af8c-9897cf930002"},"vehicle_type_id":"4","last_reported":1748552985,"current_range_meters":0,"station_id":"ce4bgup2rcd13ifvqco0","pricing_plan_id":"cebpf4jnsgd1na2vs0mg"},{"bike_id":"0c85def2-060b-49d7-8401-a891af724a60","system_id":"levelo_inurba_marseille","lat":43.30326,"lon":5.40449,"is_reserved":false,"is_disabled":true,"rental_uris":{"android":"levelo://app?vid=0c85def2-060b-49d7-8401-a891af724a60","ios":"levelo://app?vid=0c85def2-060b-49d7-8401-a891af724a60"},"vehicle_type_id":"4","last_reported":1748552985,"current_range_meters":0,"station_id":"ce4bh012rcd13ifvqd10","pricing_plan_id":"cebpf4jnsgd1na2vs0mg"},{"bike_id":"b4ede379-e0ad-4cd1-b8e8-ff7560c1a51f","system_id":"levelo_inurba_marseille","lat":43.29574,"lon":5.39976,"is_reserved":false,"is_disabled":true,"rental_uris":{"android":"levelo://app?vid=b4ede379-e0ad-4cd1-b8e8-ff7560c1a51f","ios":"levelo://app?vid=b4ede379-e0ad-4cd1-b8e8-ff7560c1a51f"},"vehicle_type_id":"4","last_reported":1748552985,"current_range_meters":0,"station_id":"ce4bh312rcd13ifvqdj0","pricing_plan_id":"cebpf4jnsgd1na2vs0mg"},{"bike_id":"2f104c0a-d87c-46d8-9cef-4762eeb06f7a","system_id":"levelo_inurba_marseille","lat":43.28344,"lon":5.38101,"is_reserved":false,"is_disabled":false,"rental_uris":{"android":"levelo://app?vid=2f104c0a-d87c-46d8-9cef-4762eeb06f7a","ios":"levelo://app?vid=2f104c0a-d87c-46d8-9cef-4762eeb06f7a"},"vehicle_type_id":"4","last_reported":1748552985,"current_range_meters":0,"station_id":"ce4bh412rcd13ifvqdr0","pricing_plan_id":"cebpf4jnsgd1na2vs0mg"},{"bike_id":"74d03a7f-e646-4519-9f75-ee5a39fcc825","system_id":"levelo_inurba_marseille","lat":43.30377,"lon":5.42473,"is_reserved":false,"is_disabled":true,"rental_uris":{"android":"levelo://app?vid=74d03a7f-e646-4519-9f75-ee5a39fcc825","ios":"levelo://app?vid=74d03a7f-e646-4519-9f75-ee5a39fcc825"},"vehicle_type_id":"4","last_reported":1748552985,"current_range_meters":0,"station_id":"ce4bhoh2rcd13ifvqh6g","pricing_plan_id":"cebpf4jnsgd1na2vs0mg"},{"bike_id":"cd018a14-e83d-4d40-ac42-b66ab9d8e9cc","system_id":"levelo_inurba_marseille","lat":43.2252,"lon":5.34827,"is_reserved":false,"is_disabled":true,"rental_uris":{"android":"levelo://app?vid=cd018a14-e83d-4d40-ac42-b66ab9d8e9cc","ios":"levelo://app?vid=cd018a14-e83d-4d40-ac42-b66ab9d8e9cc"},"vehicle_type_id":"4","last_reported":1748552985,"current_range_meters":0,"station_id":"st_cvj5dfep6f1abm77gieg","pricing_plan_id":"cebpf4jnsgd1na2vs0mg"},{"bike_id":"d2109634-a7ba-474f-9ad6-fb422b2ced0d","system_id":"levelo_inurba_marseille","lat":43.29628,"lon":5.40603,"is_reserved":false,"is_disabled":true,"rental_uris":{"android":"levelo://app?vid=d2109634-a7ba-474f-9ad6-fb422b2ced0d","ios":"levelo://app?vid=d2109634-a7ba-474f-9ad6-fb422b2ced0d"},"vehicle_type_id":"4","last_reported":1748552985,"current_range_meters":400,"station_id":"ce4bh0h2rcd13ifvqd60","pricing_plan_id":"cebpf4jnsgd1na2vs0mg"},{"bike_id":"f11a842d-278f-49f9-8736-632cefbdfb29","system_id":"levelo_inurba_marseille","lat":43.26196,"lon":5.37445,"is_reserved":false,"is_disabled":true,"rental_uris":{"android":"levelo://app?vid=f11a842d-278f-49f9-8736-632cefbdfb29","ios":"levelo://app?vid=f11a842d-278f-49f9-8736-632cefbdfb29"},"vehicle_type_id":"4","last_reported":1748552985,"current_range_meters":400,"station_id":"ce4bhgp2rcd13ifvqfc0","pricing_plan_id":"cebpf4jnsgd1na2vs0mg"},{"bike_id":"180e4da0-00a9-4461-bfd1-11630824fb3b","system_id":"levelo_inurba_marseille","lat":43.2433,"lon":5.40161,"is_reserved":false,"is_disabled":true,"rental_uris":{"android":"levelo://app?vid=180e4da0-00a9-4461-bfd1-11630824fb3b","ios":"levelo://app?vid=180e4da0-00a9-4461-bfd1-11630824fb3b"},"vehicle_type_id":"4","last_reported":1748552985,"current_range_meters":800,"station_id":"","pricing_plan_id":"cebpf4jnsgd1na2vs0mg"},{"bike_id":"7e22a4ad-aa6a-4564-8893-818170ce5a91","system_id":"levelo_inurba_marseille","lat":43.30776,"lon":5.37655,"is_reserved":false,"is_disabled":true,"rental_uris":{"android":"levelo://app?vid=7e22a4ad-aa6a-4564-8893-818170ce5a91","ios":"levelo://app?vid=7e22a4ad-aa6a-4564-8893-818170ce5a91"},"vehicle_type_id":"4","last_reported":1748552985,"current_range_meters":800,"station_id":"ce4bgv92rcd13ifvqcq0","pricing_plan_id":"cebpf4jnsgd1na2vs0mg"},{"bike_id":"12d82717-493b-4e9e-a776-4cc57c58f0e1","system_id":"levelo_inurba_marseille","lat":43.26691,"lon":5.38255,"is_reserved":false,"is_disabled":true,"rental_uris":{"android":"levelo://app?vid=12d82717-493b-4e9e-a776-4cc57c58f0e1","ios":"levelo://app?vid=12d82717-493b-4e9e-a776-4cc57c58f0e1"},"vehicle_type_id":"4","last_reported":1748552985,"current_range_meters":800,"station_id":"ce4bhg92rcd13ifvqf90","pricing_plan_id":"cebpf4jnsgd1na2vs0mg"},{"bike_id":"df590a99-4cdb-483d-aef3-66c696169aac","system_id":"levelo_inurba_marseille","lat":43.27854,"lon":5.39198,"is_reserved":false,"is_disabled":true,"rental_uris":{"android":"levelo://app?vid=df590a99-4cdb-483d-aef3-66c696169aac","ios":"levelo://app?vid=df590a99-4cdb-483d-aef3-66c696169aac"},"vehicle_type_id":"4","last_reported":1748552985,"current_range_meters":800,"station_id":"ce4bhjp2rcd13ifvqga0","pricing_plan_id":"cebpf4jnsgd1na2vs0mg"},{"bike_id":"5215640d-2fd5-4a51-af38-ba665e8ec76a","system_id":"levelo_inurba_marseille","lat":43.3261,"lon":5.43058,"is_reserved":false,"is_disabled":true,"rental_uris":{"android":"levelo://app?vid=5215640d-2fd5-4a51-af38-ba665e8ec76a","ios":"levelo://app?vid=5215640d-2fd5-4a51-af38-ba665e8ec76a"},"vehicle_type_id":"4","last_reported":1748552985,"current_range_meters":1200,"station_id":"","pricing_plan_id":"cebpf4jnsgd1na2vs0mg"},{"bike_id":"0f265ce4-d8bb-4ee7-990f-abbf9b8888a7","system_id":"levelo_inurba_marseille","lat":43.282333,"lon":5.390577,"is_reserved":false,"is_disabled":true,"rental_uris":{"android":"levelo://app?vid=0f265ce4-d8bb-4ee7-990f-abbf9b8888a7","ios":"levelo://app?vid=0f265ce4-d8bb-4ee7-990f-abbf9b8888a7"},"vehicle_type_id":"4","last_reported":1748552985,"current_range_meters":1200,"station_id":"","pricing_plan_id":"cebpf4jnsgd1na2vs0mg"},{"bike_id":"75435207-d5c5-489c-957b-eebe9d141ea3","system_id":"levelo_inurba_marseille","lat":43.29604,"lon":5.38095,"is_reserved":false,"is_disabled":true,"rental_uris":{"android":"levelo://app?vid=75435207-d5c5-489c-957b-eebe9d141ea3","ios":"levelo://app?vid=75435207-d5c5-489c-957b-eebe9d141ea3"},"vehicle_type_id":"4","last_reported":1748552985,"current_range_meters":1200,"station_id":"ce4bgl12rcd13ifvqbo0","pricing_plan_id":"cebpf4jnsgd1na2vs0mg"},{"bike_id":"b6248d4e-41a2-4ad7-baa6-b6867dc99581","system_id":"levelo_inurba_marseille","lat":43.27148,"lon":5.40994,"is_reserved":false,"is_disabled":true,"rental_uris":{"android":"levelo://app?vid=b6248d4e-41a2-4ad7-baa6-b6867dc99581","ios":"levelo://app?vid=b6248d4e-41a2-4ad7-baa6-b6867dc99581"},"vehicle_type_id":"4","last_reported":1748552985,"current_range_meters":1200,"station_id":"ce4bhl12rcd13ifvqgf0","pricing_plan_id":"cebpf4jnsgd1na2vs0mg"},{"bike_id":"c78e008b-f54f-4f74-8dea-ed955ad18073","system_id":"levelo_inurba_marseille","lat":43.29631,"lon":5.37717,"is_reserved":false,"is_disabled":true,"rental_uris":{"android":"levelo://app?vid=c78e008b-f54f-4f74-8dea-ed955ad18073","ios":"levelo://app?vid=c78e008b-f54f-4f74-8dea-ed955ad18073"},"vehicle_type_id":"4","last_reported":1748552985,"current_range_meters":1600,"station_id":"ce4bgi92rcd13ifvqb90","pricing_plan_id":"cebpf4jnsgd1na2vs0mg"},{"bike_id":"9524270e-2107-4300-b943-fed3e7d3b4e9","system_id":"levelo_inurba_marseille","lat":43.3014,"lon":5.37412,"is_reserved":false,"is_disabled":true,"rental_uris":{"android":"levelo://app?vid=9524270e-2107-4300-b943-fed3e7d3b4e9","ios":"levelo://app?vid=9524270e-2107-4300-b943-fed3e7d3b4e9"},"vehicle_type_id":"4","last_reported":1748552985,"current_range_meters":1600,"station_id":"ce4bgs92rcd13ifvqcc0","pricing_plan_id":"cebpf4jnsgd1na2vs0mg"},{"bike_id":"66f450a3-35bb-4dec-85be-3968f9f1cd22","system_id":"levelo_inurba_marseille","lat":43.26957,"lon":5.38604,"is_reserved":false,"is_disabled":true,"rental_uris":{"android":"levelo://app?vid=66f450a3-35bb-4dec-85be-3968f9f1cd22","ios":"levelo://app?vid=66f450a3-35bb-4dec-85be-3968f9f1cd22"},"vehicle_type_id":"4","last_reported":1748552985,"current_range_meters":1600,"station_id":"ce4bhh92rcd13ifvqfh0","pricing_plan_id":"cebpf4jnsgd1na2vs0mg"},{"bike_id":"ee868192-5c15-4843-ac7a-4bf077e9c22d","system_id":"levelo_inurba_marseille","lat":43.32577,"lon":5.43078,"is_reserved":false,"is_disabled":true,"rental_uris":{"android":"levelo://app?vid=ee868192-5c15-4843-ac7a-4bf077e9c22d","ios":"levelo://app?vid=ee868192-5c15-4843-ac7a-4bf077e9c22d"},"vehicle_type_id":"4","last_reported":1748552985,"current_range_meters":2000,"station_id":"","pricing_plan_id":"cebpf4jnsgd1na2vs0mg"},{"bike_id":"9b3d8eaf-a6e8-413c-82ed-ffe0fd06e2e5","system_id":"levelo_inurba_marseille","lat":43.28709,"lon":5.39978,"is_reserved":false,"is_disabled":true,"rental_uris":{"android":"levelo://app?vid=9b3d8eaf-a6e8-413c-82ed-ffe0fd06e2e5","ios":"levelo://app?vid=9b3d8eaf-a6e8-413c-82ed-ffe0fd06e2e5"},"vehicle_type_id":"4","last_reported":1748552985,"current_range_meters":2000,"station_id":"ce4bho92rcd13ifvqh3g","pricing_plan_id":"cebpf4jnsgd1na2vs0mg"},{"bike_id":"d90baf97-e6b3-4c48-bcd2-63bc44243da4","system_id":"levelo_inurba_marseille","lat":43.21646,"lon":5.34292,"is_reserved":false,"is_disabled":false,"rental_uris":{"android":"levelo://app?vid=d90baf97-e6b3-4c48-bcd2-63bc44243da4","ios":"levelo://app?vid=d90baf97-e6b3-4c48-bcd2-63bc44243da4"},"vehicle_type_id":"4","last_reported":1748552985,"current_range_meters":2800,"station_id":"","pricing_plan_id":"cebpf4jnsgd1na2vs0mg"},{"bike_id":"429c391d-4190-42c1-8c72-88821b1427ba","system_id":"levelo_inurba_marseille","lat":43.30935,"lon":5.4015,"is_reserved":false,"is_disabled":false,"rental_uris":{"android":"levelo://app?vid=429c391d-4190-42c1-8c72-88821b1427ba","ios":"levelo://app?vid=429c391d-4190-42c1-8c72-88821b1427ba"},"vehicle_type_id":"4","last_reported":1748552985,"current_range_meters":2800,"station_id":"ce4bgvp2rcd13ifvqct0","pricing_plan_id":"cebpf4jnsgd1na2vs0mg"},{"bike_id":"6dca6c89-73ea-4dbe-b105-0d5b1094ffe0","system_id":"levelo_inurba_marseille","lat":43.30645,"lon":5.401,"is_reserved":false,"is_disabled":false,"rental_uris":{"android":"levelo://app?vid=6dca6c89-73ea-4dbe-b105-0d5b1094ffe0","ios":"levelo://app?vid=6dca6c89-73ea-4dbe-b105-0d5b1094ffe0"},"vehicle_type_id":"4","last_reported":1748552985,"current_range_meters":3200,"station_id":"ce4bh112rcd13ifvqda0","pricing_plan_id":"cebpf4jnsgd1na2vs0mg"},{"bike_id":"71e3e370-f75e-4211-9f41-8fb2c4bb4596","system_id":"levelo_inurba_marseille","lat":43.29282,"lon":5.40115,"is_reserved":false,"is_disabled":false,"rental_uris":{"android":"levelo://app?vid=71e3e370-f75e-4211-9f41-8fb2c4bb4596","ios":"levelo://app?vid=71e3e370-f75e-4211-9f41-8fb2c4bb4596"},"vehicle_type_id":"4","last_reported":1748552985,"current_range_meters":3200,"station_id":"ce4bh312rcd13ifvqdk0","pricing_plan_id":"cebpf4jnsgd1na2vs0mg"},{"bike_id":"2bbc8f96-494a-403d-84fd-aeed200bce39","system_id":"levelo_inurba_marseille","lat":43.29282,"lon":5.40111,"is_reserved":false,"is_disabled":false,"rental_uris":{"android":"levelo://app?vid=2bbc8f96-494a-403d-84fd-aeed200bce39","ios":"levelo://app?vid=2bbc8f96-494a-403d-84fd-aeed200bce39"},"vehicle_type_id":"4","last_reported":1748552985,"current_range_meters":3200,"station_id":"ce4bh312rcd13ifvqdk0","pricing_plan_id":"cebpf4jnsgd1na2vs0mg"},{"bike_id":"e4cf96f7-9b4d-4e4c-a9f6-1ab4ab98919b","system_id":"levelo_inurba_marseille","lat":43.289823,"lon":5.381516,"is_reserved":false,"is_disabled":false,"rental_uris":{"android":"levelo://app?vid=e4cf96f7-9b4d-4e4c-a9f6-1ab4ab98919b","ios":"levelo://app?vid=e4cf96f7-9b4d-4e4c-a9f6-1ab4ab98919b"},"vehicle_type_id":"4","last_reported":1748552985,"current_range_meters":3600,"station_id":"ce4bgkh2rcd13ifvqbk0","pricing_plan_id":"cebpf4jnsgd1na2vs0mg"},{"bike_id":"deaadfab-36af-472a-b846-ed8c4808d579","system_id":"levelo_inurba_marseille","lat":43.286688,"lon":5.386653,"is_reserved":false,"is_disabled":false,"rental_uris":{"android":"levelo://app?vid=deaadfab-36af-472a-b846-ed8c4808d579","ios":"levelo://app?vid=deaadfab-36af-472a-b846-ed8c4808d579"},"vehicle_type_id":"4","last_reported":1748552985,"current_range_meters":3600,"station_id":"ce4bh492rcd13ifvqdug","pricing_plan_id":"cebpf4jnsgd1na2vs0mg"},{"bike_id":"34657a29-ba1d-400b-8ef9-379f65dff4b4","system_id":"levelo_inurba_marseille","lat":43.287,"lon":5.39987,"is_reserved":false,"is_disabled":false,"rental_uris":{"android":"levelo://app?vid=34657a29-ba1d-400b-8ef9-379f65dff4b4","ios":"levelo://app?vid=34657a29-ba1d-400b-8ef9-379f65dff4b4"},"vehicle_type_id":"4","last_reported":1748552985,"current_range_meters":3600,"station_id":"ce4bho92rcd13ifvqh3g","pricing_plan_id":"cebpf4jnsgd1na2vs0mg"},{"bike_id":"3f0441b1-6cb6-41fd-b679-f454d34b2118","system_id":"levelo_inurba_marseille","lat":43.21199,"lon":5.35063,"is_reserved":false,"is_disabled":false,"rental_uris":{"android":"levelo://app?vid=3f0441b1-6cb6-41fd-b679-f454d34b2118","ios":"levelo://app?vid=3f0441b1-6cb6-41fd-b679-f454d34b2118"},"vehicle_type_id":"4","last_reported":1748552985,"current_range_meters":3600,"station_id":"st_cvj6sg6p6f1abm77japg","pricing_plan_id":"cebpf4jnsgd1na2vs0mg"},{"bike_id":"5838f425-c610-4291-afc9-11f5b6241c4b","system_id":"levelo_inurba_marseille","lat":43.29796,"lon":5.38935,"is_reserved":false,"is_disabled":false,"rental_uris":{"android":"levelo://app?vid=5838f425-c610-4291-afc9-11f5b6241c4b","ios":"levelo://app?vid=5838f425-c610-4291-afc9-11f5b6241c4b"},"vehicle_type_id":"4","last_reported":1748552985,"current_range_meters":4000,"station_id":"","pricing_plan_id":"cebpf4jnsgd1na2vs0mg"},{"bike_id":"6d7cfdcd-f061-4eee-b4e5-78d9b6729328","system_id":"levelo_inurba_marseille","lat":43.32998,"lon":5.43842,"is_reserved":false,"is_disabled":false,"rental_uris":{"android":"levelo://app?vid=6d7cfdcd-f061-4eee-b4e5-78d9b6729328","ios":"levelo://app?vid=6d7cfdcd-f061-4eee-b4e5-78d9b6729328"},"vehicle_type_id":"4","last_reported":1748552985,"current_range_meters":4400,"station_id":"","pricing_plan_id":"cebpf4jnsgd1na2vs0mg"},{"bike_id":"9a869239-5672-4a55-9235-38d7bbe8293b","system_id":"levelo_inurba_marseille","lat":43.32581,"lon":5.43043,"is_reserved":false,"is_disabled":false,"rental_uris":{"android":"levelo://app?vid=9a869239-5672-4a55-9235-38d7bbe8293b","ios":"levelo://app?vid=9a869239-5672-4a55-9235-38d7bbe8293b"},"vehicle_type_id":"4","last_reported":1748552985,"current_range_meters":4400,"station_id":"","pricing_plan_id":"cebpf4jnsgd1na2vs0mg"},{"bike_id":"b285fb1b-6c34-40e0-9288-6425549f53b8","system_id":"levelo_inurba_marseille","lat":43.24549,"lon":5.3952,"is_reserved":false,"is_disabled":false,"rental_uris":{"android":"levelo://app?vid=b285fb1b-6c34-40e0-9288-6425549f53b8","ios":"levelo://app?vid=b285fb1b-6c34-40e0-9288-6425549f53b8"},"vehicle_type_id":"4","last_reported":1748552985,"current_range_meters":4400,"station_id":"ce4bhlp2rcd13ifvqgjg","pricing_plan_id":"cebpf4jnsgd1na2vs0mg"},{"bike_id":"c0c5027f-c041-4b12-acfa-e6b17680071b","system_id":"levelo_inurba_marseille","lat":43.23802,"lon":5.43556,"is_reserved":false,"is_disabled":false,"rental_uris":{"android":"levelo://app?vid=c0c5027f-c041-4b12-acfa-e6b17680071b","ios":"levelo://app?vid=c0c5027f-c041-4b12-acfa-e6b17680071b"},"vehicle_type_id":"4","last_reported":1748552985,"current_range_meters":4800,"station_id":"","pricing_plan_id":"cebpf4jnsgd1na2vs0mg"},{"bike_id":"61cb7497-2560-42fc-a7fe-b90ddb3b6509","system_id":"levelo_inurba_marseille","lat":43.30463,"lon":5.37903,"is_reserved":false,"is_disabled":false,"rental_uris":{"android":"levelo://app?vid=61cb7497-2560-42fc-a7fe-b90ddb3b6509","ios":"levelo://app?vid=61cb7497-2560-42fc-a7fe-b90ddb3b6509"},"vehicle_type_id":"4","last_reported":1748552985,"current_range_meters":4800,"station_id":"ce4bgup2rcd13ifvqcn0","pricing_plan_id":"cebpf4jnsgd1na2vs0mg"},{"bike_id":"c7bc6995-4c38-4a70-b117-01ee0b4daaf4","system_id":"levelo_inurba_marseille","lat":43.309309,"lon":5.401353,"is_reserved":false,"is_disabled":false,"rental_uris":{"android":"levelo://app?vid=c7bc6995-4c38-4a70-b117-01ee0b4daaf4","ios":"levelo://app?vid=c7bc6995-4c38-4a70-b117-01ee0b4daaf4"},"vehicle_type_id":"4","last_reported":1748552985,"current_range_meters":4800,"station_id":"ce4bgvp2rcd13ifvqct0","pricing_plan_id":"cebpf4jnsgd1na2vs0mg"},{"bike_id":"86eafb4a-6c23-41b7-aed8-7cb95bb4de47","system_id":"levelo_inurba_marseille","lat":43.29201,"lon":5.39305,"is_reserved":false,"is_disabled":false,"rental_uris":{"android":"levelo://app?vid=86eafb4a-6c23-41b7-aed8-7cb95bb4de47","ios":"levelo://app?vid=86eafb4a-6c23-41b7-aed8-7cb95bb4de47"},"vehicle_type_id":"4","last_reported":1748552985,"current_range_meters":4800,"station_id":"ce4bh192rcd13ifvqdd0","pricing_plan_id":"cebpf4jnsgd1na2vs0mg"},{"bike_id":"7bc7d243-ed5b-4c60-8e63-df4e7708939c","system_id":"levelo_inurba_marseille","lat":43.30374,"lon":5.42483,"is_reserved":false,"is_disabled":false,"rental_uris":{"android":"levelo://app?vid=7bc7d243-ed5b-4c60-8e63-df4e7708939c","ios":"levelo://app?vid=7bc7d243-ed5b-4c60-8e63-df4e7708939c"},"vehicle_type_id":"4","last_reported":1748552985,"current_range_meters":4800,"station_id":"ce4bhoh2rcd13ifvqh6g","pricing_plan_id":"cebpf4jnsgd1na2vs0mg"},{"bike_id":"f81caeb3-03b6-4eeb-9c29-b567943e81a5","system_id":"levelo_inurba_marseille","lat":43.32508,"lon":5.36563,"is_reserved":false,"is_disabled":false,"rental_uris":{"android":"levelo://app?vid=f81caeb3-03b6-4eeb-9c29-b567943e81a5","ios":"levelo://app?vid=f81caeb3-03b6-4eeb-9c29-b567943e81a5"},"vehicle_type_id":"4","last_reported":1748552985,"current_range_meters":5600,"station_id":"","pricing_plan_id":"cebpf4jnsgd1na2vs0mg"},{"bike_id":"388f5059-7747-4b6f-9dbf-b30692b2a751","system_id":"levelo_inurba_marseille","lat":43.29279,"lon":5.40176,"is_reserved":false,"is_disabled":false,"rental_uris":{"android":"levelo://app?vid=388f5059-7747-4b6f-9dbf-b30692b2a751","ios":"levelo://app?vid=388f5059-7747-4b6f-9dbf-b30692b2a751"},"vehicle_type_id":"4","last_reported":1748552985,"current_range_meters":5600,"station_id":"","pricing_plan_id":"cebpf4jnsgd1na2vs0mg"},{"bike_id":"6ef4fbf9-2a89-4e85-8894-06b8dd577669","system_id":"levelo_inurba_marseille","lat":43.304352,"lon":5.388928,"is_reserved":false,"is_disabled":false,"rental_uris":{"android":"levelo://app?vid=6ef4fbf9-2a89-4e85-8894-06b8dd577669","ios":"levelo://app?vid=6ef4fbf9-2a89-4e85-8894-06b8dd577669"},"vehicle_type_id":"4","last_reported":1748552985,"current_range_meters":5600,"station_id":"ce4bgk12rcd13ifvqbi0","pricing_plan_id":"cebpf4jnsgd1na2vs0mg"},{"bike_id":"f29698d3-08b1-42e6-8d21-9d9ba668ac1a","system_id":"levelo_inurba_marseille","lat":43.25105,"lon":5.4032,"is_reserved":false,"is_disabled":false,"rental_uris":{"android":"levelo://app?vid=f29698d3-08b1-42e6-8d21-9d9ba668ac1a","ios":"levelo://app?vid=f29698d3-08b1-42e6-8d21-9d9ba668ac1a"},"vehicle_type_id":"4","last_reported":1748552985,"current_range_meters":5600,"station_id":"ce4bhlh2rcd13ifvqgig","pricing_plan_id":"cebpf4jnsgd1na2vs0mg"},{"bike_id":"119c7c38-f3ab-4f59-97b4-c8f46a504142","system_id":"levelo_inurba_marseille","lat":43.299085,"lon":5.436585,"is_reserved":false,"is_disabled":false,"rental_uris":{"android":"levelo://app?vid=119c7c38-f3ab-4f59-97b4-c8f46a504142","ios":"levelo://app?vid=119c7c38-f3ab-4f59-97b4-c8f46a504142"},"vehicle_type_id":"4","last_reported":1748552985,"current_range_meters":5600,"station_id":"ce4bhpp2rcd13ifvqhfg","pricing_plan_id":"cebpf4jnsgd1na2vs0mg"},{"bike_id":"1eed49fb-ce64-4ebd-9903-7d87835a2ccf","system_id":"levelo_inurba_marseille","lat":43.29771,"lon":5.45988,"is_reserved":false,"is_disabled":false,"rental_uris":{"android":"levelo://app?vid=1eed49fb-ce64-4ebd-9903-7d87835a2ccf","ios":"levelo://app?vid=1eed49fb-ce64-4ebd-9903-7d87835a2ccf"},"vehicle_type_id":"4","last_reported":1748552985,"current_range_meters":6000,"station_id":"","pricing_plan_id":"cebpf4jnsgd1na2vs0mg"},{"bike_id":"2a0682f8-0ba4-4e21-9326-7a5912220f6c","system_id":"levelo_inurba_marseille","lat":43.31167,"lon":5.38717,"is_reserved":false,"is_disabled":false,"rental_uris":{"android":"levelo://app?vid=2a0682f8-0ba4-4e21-9326-7a5912220f6c","ios":"levelo://app?vid=2a0682f8-0ba4-4e21-9326-7a5912220f6c"},"vehicle_type_id":"4","last_reported":1748552985,"current_range_meters":6000,"station_id":"ce4bgv12rcd13ifvqcp0","pricing_plan_id":"cebpf4jnsgd1na2vs0mg"},{"bike_id":"21269a47-fc82-4c15-9854-941f461a9d86","system_id":"levelo_inurba_marseille","lat":43.24816,"lon":5.37452,"is_reserved":false,"is_disabled":false,"rental_uris":{"android":"levelo://app?vid=21269a47-fc82-4c15-9854-941f461a9d86","ios":"levelo://app?vid=21269a47-fc82-4c15-9854-941f461a9d86"},"vehicle_type_id":"4","last_reported":1748552985,"current_range_meters":6000,"station_id":"ce4bhgh2rcd13ifvqfb0","pricing_plan_id":"cebpf4jnsgd1na2vs0mg"},{"bike_id":"23c85c8e-4c43-4b2c-9f21-d3b371c82943","system_id":"levelo_inurba_marseille","lat":43.21755,"lon":5.34599,"is_reserved":false,"is_disabled":false,"rental_uris":{"android":"levelo://app?vid=23c85c8e-4c43-4b2c-9f21-d3b371c82943","ios":"levelo://app?vid=23c85c8e-4c43-4b2c-9f21-d3b371c82943"},"vehicle_type_id":"4","last_reported":1748552985,"current_range_meters":6000,"station_id":"st_cvj6r9ubvosntc0bgbag","pricing_plan_id":"cebpf4jnsgd1na2vs0mg"},{"bike_id":"7f6b38d0-dcd2-4848-86a0-7b44e451f43f","system_id":"levelo_inurba_marseille","lat":43.27698,"lon":5.4154,"is_reserved":false,"is_disabled":false,"rental_uris":{"android":"levelo://app?vid=7f6b38d0-dcd2-4848-86a0-7b44e451f43f","ios":"levelo://app?vid=7f6b38d0-dcd2-4848-86a0-7b44e451f43f"},"vehicle_type_id":"4","last_reported":1748552985,"current_range_meters":6400,"station_id":"","pricing_plan_id":"cebpf4jnsgd1na2vs0mg"},{"bike_id":"bf106879-ecde-48b6-8ced-379454d46ddc","system_id":"levelo_inurba_marseille","lat":43.26553,"lon":5.37265,"is_reserved":false,"is_disabled":false,"rental_uris":{"android":"levelo://app?vid=bf106879-ecde-48b6-8ced-379454d46ddc","ios":"levelo://app?vid=bf106879-ecde-48b6-8ced-379454d46ddc"},"vehicle_type_id":"4","last_reported":1748552985,"current_range_meters":6400,"station_id":"ce4bhg12rcd13ifvqf70","pricing_plan_id":"cebpf4jnsgd1na2vs0mg"},{"bike_id":"c1c51125-b169-41b9-b7df-e87ff78b4aea","system_id":"levelo_inurba_marseille","lat":43.26239,"lon":5.40447,"is_reserved":false,"is_disabled":false,"rental_uris":{"android":"levelo://app?vid=c1c51125-b169-41b9-b7df-e87ff78b4aea","ios":"levelo://app?vid=c1c51125-b169-41b9-b7df-e87ff78b4aea"},"vehicle_type_id":"4","last_reported":1748552985,"current_range_meters":6400,"station_id":"ce4bhmh2rcd13ifvqgmg","pricing_plan_id":"cebpf4jnsgd1na2vs0mg"},{"bike_id":"7bf4d299-9fa6-42bb-baf8-03d560d5bd9f","system_id":"levelo_inurba_marseille","lat":43.28442,"lon":5.39206,"is_reserved":false,"is_disabled":false,"rental_uris":{"android":"levelo://app?vid=7bf4d299-9fa6-42bb-baf8-03d560d5bd9f","ios":"levelo://app?vid=7bf4d299-9fa6-42bb-baf8-03d560d5bd9f"},"vehicle_type_id":"4","last_reported":1748552985,"current_range_meters":6400,"station_id":"ce4bhoh2rcd13ifvqh5g","pricing_plan_id":"cebpf4jnsgd1na2vs0mg"},{"bike_id":"c4aecc45-8546-4776-b131-6366dc7b0921","system_id":"levelo_inurba_marseille","lat":43.29416,"lon":5.38628,"is_reserved":false,"is_disabled":false,"rental_uris":{"android":"levelo://app?vid=c4aecc45-8546-4776-b131-6366dc7b0921","ios":"levelo://app?vid=c4aecc45-8546-4776-b131-6366dc7b0921"},"vehicle_type_id":"4","last_reported":1748552985,"current_range_meters":6800,"station_id":"ce4bh2h2rcd13ifvqdh0","pricing_plan_id":"cebpf4jnsgd1na2vs0mg"},{"bike_id":"c006505c-40ec-4dbb-8fb7-e9d75b9aa51f","system_id":"levelo_inurba_marseille","lat":43.331536,"lon":5.381651,"is_reserved":false,"is_disabled":false,"rental_uris":{"android":"levelo://app?vid=c006505c-40ec-4dbb-8fb7-e9d75b9aa51f","ios":"levelo://app?vid=c006505c-40ec-4dbb-8fb7-e9d75b9aa51f"},"vehicle_type_id":"4","last_reported":1748552985,"current_range_meters":7200,"station_id":"","pricing_plan_id":"cebpf4jnsgd1na2vs0mg"},{"bike_id":"7ad6fa5f-df46-4408-be3a-66a4244a5a34","system_id":"levelo_inurba_marseille","lat":43.26562,"lon":5.40319,"is_reserved":false,"is_disabled":false,"rental_uris":{"android":"levelo://app?vid=7ad6fa5f-df46-4408-be3a-66a4244a5a34","ios":"levelo://app?vid=7ad6fa5f-df46-4408-be3a-66a4244a5a34"},"vehicle_type_id":"4","last_reported":1748552985,"current_range_meters":7200,"station_id":"","pricing_plan_id":"cebpf4jnsgd1na2vs0mg"},{"bike_id":"2f650bb1-6027-4191-83d2-16315820a0a7","system_id":"levelo_inurba_marseille","lat":43.29999,"lon":5.37347,"is_reserved":false,"is_disabled":false,"rental_uris":{"android":"levelo://app?vid=2f650bb1-6027-4191-83d2-16315820a0a7","ios":"levelo://app?vid=2f650bb1-6027-4191-83d2-16315820a0a7"},"vehicle_type_id":"4","last_reported":1748552985,"current_range_meters":7200,"station_id":"","pricing_plan_id":"cebpf4jnsgd1na2vs0mg"},{"bike_id":"b0813d94-af54-4487-9355-54c660a8b884","system_id":"levelo_inurba_marseille","lat":43.3032,"lon":5.4043,"is_reserved":false,"is_disabled":false,"rental_uris":{"android":"levelo://app?vid=b0813d94-af54-4487-9355-54c660a8b884","ios":"levelo://app?vid=b0813d94-af54-4487-9355-54c660a8b884"},"vehicle_type_id":"4","last_reported":1748552985,"current_range_meters":7200,"station_id":"ce4bh012rcd13ifvqd10","pricing_plan_id":"cebpf4jnsgd1na2vs0mg"},{"bike_id":"e0739275-b76a-45f6-bbc5-0ee384cde139","system_id":"levelo_inurba_marseille","lat":43.298683,"lon":5.397209,"is_reserved":false,"is_disabled":false,"rental_uris":{"android":"levelo://app?vid=e0739275-b76a-45f6-bbc5-0ee384cde139","ios":"levelo://app?vid=e0739275-b76a-45f6-bbc5-0ee384cde139"},"vehicle_type_id":"4","last_reported":1748552985,"current_range_meters":7200,"station_id":"ce4bh0h2rcd13ifvqd50","pricing_plan_id":"cebpf4jnsgd1na2vs0mg"},{"bike_id":"22771043-09b1-43eb-91e0-5c845144e1e3","system_id":"levelo_inurba_marseille","lat":43.277028,"lon":5.408486,"is_reserved":false,"is_disabled":false,"rental_uris":{"android":"levelo://app?vid=22771043-09b1-43eb-91e0-5c845144e1e3","ios":"levelo://app?vid=22771043-09b1-43eb-91e0-5c845144e1e3"},"vehicle_type_id":"4","last_reported":1748552985,"current_range_meters":8000,"station_id":"","pricing_plan_id":"cebpf4jnsgd1na2vs0mg"},{"bike_id":"d6217c7c-b8c1-4915-8444-2122bbbe5983","system_id":"levelo_inurba_marseille","lat":43.29587,"lon":5.38107,"is_reserved":false,"is_disabled":false,"rental_uris":{"android":"levelo://app?vid=d6217c7c-b8c1-4915-8444-2122bbbe5983","ios":"levelo://app?vid=d6217c7c-b8c1-4915-8444-2122bbbe5983"},"vehicle_type_id":"4","last_reported":1748552985,"current_range_meters":8000,"station_id":"ce4bgl12rcd13ifvqbo0","pricing_plan_id":"cebpf4jnsgd1na2vs0mg"},{"bike_id":"439c2428-01fc-4528-992a-e5af19ad7cb7","system_id":"levelo_inurba_marseille","lat":43.31357,"lon":5.3849,"is_reserved":false,"is_disabled":false,"rental_uris":{"android":"levelo://app?vid=439c2428-01fc-4528-992a-e5af19ad7cb7","ios":"levelo://app?vid=439c2428-01fc-4528-992a-e5af19ad7cb7"},"vehicle_type_id":"4","last_reported":1748552985,"current_range_meters":8000,"station_id":"ce4bgt92rcd13ifvqcf0","pricing_plan_id":"cebpf4jnsgd1na2vs0mg"},{"bike_id":"6ad5c3ef-6839-4e1c-9425-30e460d8bcf4","system_id":"levelo_inurba_marseille","lat":43.31173,"lon":5.38714,"is_reserved":false,"is_disabled":false,"rental_uris":{"android":"levelo://app?vid=6ad5c3ef-6839-4e1c-9425-30e460d8bcf4","ios":"levelo://app?vid=6ad5c3ef-6839-4e1c-9425-30e460d8bcf4"},"vehicle_type_id":"4","last_reported":1748552985,"current_range_meters":8000,"station_id":"ce4bgv12rcd13ifvqcp0","pricing_plan_id":"cebpf4jnsgd1na2vs0mg"},{"bike_id":"0b7cc989-d94a-40b3-81ea-f37020314baa","system_id":"levelo_inurba_marseille","lat":43.3107,"lon":5.38363,"is_reserved":false,"is_disabled":false,"rental_uris":{"android":"levelo://app?vid=0b7cc989-d94a-40b3-81ea-f37020314baa","ios":"levelo://app?vid=0b7cc989-d94a-40b3-81ea-f37020314baa"},"vehicle_type_id":"4","last_reported":1748552985,"current_range_meters":8000,"station_id":"ce4bgv92rcd13ifvqcr0","pricing_plan_id":"cebpf4jnsgd1na2vs0mg"},{"bike_id":"49a2055a-20f4-49a7-9c2e-034a27e01ac8","system_id":"levelo_inurba_marseille","lat":43.3107,"lon":5.38354,"is_reserved":false,"is_disabled":false,"rental_uris":{"android":"levelo://app?vid=49a2055a-20f4-49a7-9c2e-034a27e01ac8","ios":"levelo://app?vid=49a2055a-20f4-49a7-9c2e-034a27e01ac8"},"vehicle_type_id":"4","last_reported":1748552985,"current_range_meters":8000,"station_id":"ce4bgv92rcd13ifvqcr0","pricing_plan_id":"cebpf4jnsgd1na2vs0mg"},{"bike_id":"beacab1e-99ca-454b-9ea8-48d8221cb545","system_id":"levelo_inurba_marseille","lat":43.30887,"lon":5.39659,"is_reserved":false,"is_disabled":false,"rental_uris":{"android":"levelo://app?vid=beacab1e-99ca-454b-9ea8-48d8221cb545","ios":"levelo://app?vid=beacab1e-99ca-454b-9ea8-48d8221cb545"},"vehicle_type_id":"4","last_reported":1748552985,"current_range_meters":8000,"station_id":"ce4bh012rcd13ifvqcv0","pricing_plan_id":"cebpf4jnsgd1na2vs0mg"},{"bike_id":"7a3dd02f-ba0c-4105-8451-9d6b1c3f1adb","system_id":"levelo_inurba_marseille","lat":43.27429,"lon":5.39416,"is_reserved":false,"is_disabled":false,"rental_uris":{"android":"levelo://app?vid=7a3dd02f-ba0c-4105-8451-9d6b1c3f1adb","ios":"levelo://app?vid=7a3dd02f-ba0c-4105-8451-9d6b1c3f1adb"},"vehicle_type_id":"4","last_reported":1748552985,"current_range_meters":8000,"station_id":"ce4bhdp2rcd13ifvqf20","pricing_plan_id":"cebpf4jnsgd1na2vs0mg"},{"bike_id":"70f5207e-5560-4751-a24b-8914af8480d6","system_id":"levelo_inurba_marseille","lat":43.27992,"lon":5.40003,"is_reserved":false,"is_disabled":false,"rental_uris":{"android":"levelo://app?vid=70f5207e-5560-4751-a24b-8914af8480d6","ios":"levelo://app?vid=70f5207e-5560-4751-a24b-8914af8480d6"},"vehicle_type_id":"4","last_reported":1748552985,"current_range_meters":8000,"station_id":"ce4bho92rcd13ifvqh4g","pricing_plan_id":"cebpf4jnsgd1na2vs0mg"},{"bike_id":"7c6e48ab-b87e-4e89-9339-a1a2992e6797","system_id":"levelo_inurba_marseille","lat":43.26115,"lon":5.41465,"is_reserved":false,"is_disabled":false,"rental_uris":{"android":"levelo://app?vid=7c6e48ab-b87e-4e89-9339-a1a2992e6797","ios":"levelo://app?vid=7c6e48ab-b87e-4e89-9339-a1a2992e6797"},"vehicle_type_id":"4","last_reported":1748552985,"current_range_meters":8400,"station_id":"","pricing_plan_id":"cebpf4jnsgd1na2vs0mg"},{"bike_id":"b9ae16bc-ec39-406e-9e42-55cba52b28fe","system_id":"levelo_inurba_marseille","lat":43.260225,"lon":5.417351,"is_reserved":false,"is_disabled":false,"rental_uris":{"android":"levelo://app?vid=b9ae16bc-ec39-406e-9e42-55cba52b28fe","ios":"levelo://app?vid=b9ae16bc-ec39-406e-9e42-55cba52b28fe"},"vehicle_type_id":"4","last_reported":1748552985,"current_range_meters":8400,"station_id":"","pricing_plan_id":"cebpf4jnsgd1na2vs0mg"},{"bike_id":"50d66d3b-39c6-407f-827d-7a081d5f594b","system_id":"levelo_inurba_marseille","lat":43.29917,"lon":5.38139,"is_reserved":false,"is_disabled":false,"rental_uris":{"android":"levelo://app?vid=50d66d3b-39c6-407f-827d-7a081d5f594b","ios":"levelo://app?vid=50d66d3b-39c6-407f-827d-7a081d5f594b"},"vehicle_type_id":"4","last_reported":1748552985,"current_range_meters":8400,"station_id":"ce4bgj12rcd13ifvqbc0","pricing_plan_id":"cebpf4jnsgd1na2vs0mg"},{"bike_id":"6eaba58f-4bdd-4083-9a68-84e00e73c1ce","system_id":"levelo_inurba_marseille","lat":43.2679,"lon":5.39412,"is_reserved":false,"is_disabled":false,"rental_uris":{"android":"levelo://app?vid=6eaba58f-4bdd-4083-9a68-84e00e73c1ce","ios":"levelo://app?vid=6eaba58f-4bdd-4083-9a68-84e00e73c1ce"},"vehicle_type_id":"4","last_reported":1748552985,"current_range_meters":8400,"station_id":"ce4bhh12rcd13ifvqfg0","pricing_plan_id":"cebpf4jnsgd1na2vs0mg"},{"bike_id":"047bbed6-33d9-4486-b038-6c0f2513bd98","system_id":"levelo_inurba_marseille","lat":43.2468,"lon":5.38145,"is_reserved":false,"is_disabled":false,"rental_uris":{"android":"levelo://app?vid=047bbed6-33d9-4486-b038-6c0f2513bd98","ios":"levelo://app?vid=047bbed6-33d9-4486-b038-6c0f2513bd98"},"vehicle_type_id":"4","last_reported":1748552985,"current_range_meters":8400,"station_id":"ce4bhih2rcd13ifvqfr0","pricing_plan_id":"cebpf4jnsgd1na2vs0mg"},{"bike_id":"41393039-4fda-48a5-9a5c-403ea21fcbd1","system_id":"levelo_inurba_marseille","lat":43.27053,"lon":5.40257,"is_reserved":false,"is_disabled":false,"rental_uris":{"android":"levelo://app?vid=41393039-4fda-48a5-9a5c-403ea21fcbd1","ios":"levelo://app?vid=41393039-4fda-48a5-9a5c-403ea21fcbd1"},"vehicle_type_id":"4","last_reported":1748552985,"current_range_meters":8400,"station_id":"ce4bhk92rcd13ifvqgc0","pricing_plan_id":"cebpf4jnsgd1na2vs0mg"},{"bike_id":"8c869018-c2f1-47df-8e3b-e48407b32a24","system_id":"levelo_inurba_marseille","lat":43.27184,"lon":5.40996,"is_reserved":false,"is_disabled":false,"rental_uris":{"android":"levelo://app?vid=8c869018-c2f1-47df-8e3b-e48407b32a24","ios":"levelo://app?vid=8c869018-c2f1-47df-8e3b-e48407b32a24"},"vehicle_type_id":"4","last_reported":1748552985,"current_range_meters":8400,"station_id":"ce4bhl12rcd13ifvqgf0","pricing_plan_id":"cebpf4jnsgd1na2vs0mg"},{"bike_id":"80a9aa3e-173d-4651-b862-1e5b5ce21064","system_id":"levelo_inurba_marseille","lat":43.31704,"lon":5.37733,"is_reserved":false,"is_disabled":false,"rental_uris":{"android":"levelo://app?vid=80a9aa3e-173d-4651-b862-1e5b5ce21064","ios":"levelo://app?vid=80a9aa3e-173d-4651-b862-1e5b5ce21064"},"vehicle_type_id":"4","last_reported":1748552985,"current_range_meters":8800,"station_id":"ce4bgth2rcd13ifvqch0","pricing_plan_id":"cebpf4jnsgd1na2vs0mg"},{"bike_id":"7af5a8f8-fa58-409f-8b62-5dcbaaef7811","system_id":"levelo_inurba_marseille","lat":43.30473,"lon":5.37908,"is_reserved":false,"is_disabled":false,"rental_uris":{"android":"levelo://app?vid=7af5a8f8-fa58-409f-8b62-5dcbaaef7811","ios":"levelo://app?vid=7af5a8f8-fa58-409f-8b62-5dcbaaef7811"},"vehicle_type_id":"4","last_reported":1748552985,"current_range_meters":8800,"station_id":"ce4bgup2rcd13ifvqcn0","pricing_plan_id":"cebpf4jnsgd1na2vs0mg"},{"bike_id":"d3f92fd6-293c-4ace-9e82-475ffd1b302b","system_id":"levelo_inurba_marseille","lat":43.31337,"lon":5.39682,"is_reserved":false,"is_disabled":false,"rental_uris":{"android":"levelo://app?vid=d3f92fd6-293c-4ace-9e82-475ffd1b302b","ios":"levelo://app?vid=d3f92fd6-293c-4ace-9e82-475ffd1b302b"},"vehicle_type_id":"4","last_reported":1748552985,"current_range_meters":8800,"station_id":"ce4bgvp2rcd13ifvqcu0","pricing_plan_id":"cebpf4jnsgd1na2vs0mg"},{"bike_id":"fa95038c-e406-48a0-9775-4648d76dc7f5","system_id":"levelo_inurba_marseille","lat":43.29018,"lon":5.3815,"is_reserved":false,"is_disabled":false,"rental_uris":{"android":"levelo://app?vid=fa95038c-e406-48a0-9775-4648d76dc7f5","ios":"levelo://app?vid=fa95038c-e406-48a0-9775-4648d76dc7f5"},"vehicle_type_id":"4","last_reported":1748552985,"current_range_meters":8800,"station_id":"ce4bh4p2rcd13ifvqe1g","pricing_plan_id":"cebpf4jnsgd1na2vs0mg"},{"bike_id":"fa6c8914-a372-4ee3-8403-f3f52f1267f2","system_id":"levelo_inurba_marseille","lat":43.25826,"lon":5.39438,"is_reserved":false,"is_disabled":false,"rental_uris":{"android":"levelo://app?vid=fa6c8914-a372-4ee3-8403-f3f52f1267f2","ios":"levelo://app?vid=fa6c8914-a372-4ee3-8403-f3f52f1267f2"},"vehicle_type_id":"4","last_reported":1748552985,"current_range_meters":8800,"station_id":"ce4bhip2rcd13ifvqft0","pricing_plan_id":"cebpf4jnsgd1na2vs0mg"},{"bike_id":"b0a4a1f4-5eb5-441d-96f5-db6c0bedb617","system_id":"levelo_inurba_marseille","lat":43.34144,"lon":5.40904,"is_reserved":false,"is_disabled":false,"rental_uris":{"android":"levelo://app?vid=b0a4a1f4-5eb5-441d-96f5-db6c0bedb617","ios":"levelo://app?vid=b0a4a1f4-5eb5-441d-96f5-db6c0bedb617"},"vehicle_type_id":"4","last_reported":1748552985,"current_range_meters":8800,"station_id":"ce4bhqh2rcd13ifvqhlg","pricing_plan_id":"cebpf4jnsgd1na2vs0mg"},{"bike_id":"41d1c689-7882-4f1f-b65b-db3009a22424","system_id":"levelo_inurba_marseille","lat":43.29521,"lon":5.39398,"is_reserved":false,"is_disabled":false,"rental_uris":{"android":"levelo://app?vid=41d1c689-7882-4f1f-b65b-db3009a22424","ios":"levelo://app?vid=41d1c689-7882-4f1f-b65b-db3009a22424"},"vehicle_type_id":"4","last_reported":1748552985,"current_range_meters":9200,"station_id":"ce4bh292rcd13ifvqdf0","pricing_plan_id":"cebpf4jnsgd1na2vs0mg"},{"bike_id":"a2154496-1b9b-4632-99b7-d791c6dfa100","system_id":"levelo_inurba_marseille","lat":43.283428,"lon":5.381003,"is_reserved":false,"is_disabled":false,"rental_uris":{"android":"levelo://app?vid=a2154496-1b9b-4632-99b7-d791c6dfa100","ios":"levelo://app?vid=a2154496-1b9b-4632-99b7-d791c6dfa100"},"vehicle_type_id":"4","last_reported":1748552985,"current_range_meters":9200,"station_id":"ce4bh412rcd13ifvqdr0","pricing_plan_id":"cebpf4jnsgd1na2vs0mg"},{"bike_id":"956b6fae-56c8-4855-84db-9daa41ff5836","system_id":"levelo_inurba_marseille","lat":43.24547,"lon":5.3952,"is_reserved":false,"is_disabled":false,"rental_uris":{"android":"levelo://app?vid=956b6fae-56c8-4855-84db-9daa41ff5836","ios":"levelo://app?vid=956b6fae-56c8-4855-84db-9daa41ff5836"},"vehicle_type_id":"4","last_reported":1748552985,"current_range_meters":9200,"station_id":"ce4bhlp2rcd13ifvqgjg","pricing_plan_id":"cebpf4jnsgd1na2vs0mg"},{"bike_id":"f293ba09-4b7e-4261-9c45-5e8e5f6ff81c","system_id":"levelo_inurba_marseille","lat":43.304007,"lon":5.42494,"is_reserved":false,"is_disabled":false,"rental_uris":{"android":"levelo://app?vid=f293ba09-4b7e-4261-9c45-5e8e5f6ff81c","ios":"levelo://app?vid=f293ba09-4b7e-4261-9c45-5e8e5f6ff81c"},"vehicle_type_id":"4","last_reported":1748552985,"current_range_meters":9200,"station_id":"ce4bhoh2rcd13ifvqh6g","pricing_plan_id":"cebpf4jnsgd1na2vs0mg"},{"bike_id":"9ab8fa2d-474b-4978-9b5c-3ede20e04fe3","system_id":"levelo_inurba_marseille","lat":43.303121,"lon":5.368992,"is_reserved":false,"is_disabled":false,"rental_uris":{"android":"levelo://app?vid=9ab8fa2d-474b-4978-9b5c-3ede20e04fe3","ios":"levelo://app?vid=9ab8fa2d-474b-4978-9b5c-3ede20e04fe3"},"vehicle_type_id":"4","last_reported":1748552985,"current_range_meters":9600,"station_id":"ce4bgqh2rcd13ifvqc5g","pricing_plan_id":"cebpf4jnsgd1na2vs0mg"},{"bike_id":"0752394c-3de6-4b80-80b7-647ff0c48dbd","system_id":"levelo_inurba_marseille","lat":43.30806,"lon":5.38146,"is_reserved":false,"is_disabled":false,"rental_uris":{"android":"levelo://app?vid=0752394c-3de6-4b80-80b7-647ff0c48dbd","ios":"levelo://app?vid=0752394c-3de6-4b80-80b7-647ff0c48dbd"},"vehicle_type_id":"4","last_reported":1748552985,"current_range_meters":9600,"station_id":"ce4bgt12rcd13ifvqce0","pricing_plan_id":"cebpf4jnsgd1na2vs0mg"},{"bike_id":"8236599d-d86d-403c-bf15-8c3f7f0ff5aa","system_id":"levelo_inurba_marseille","lat":43.30931,"lon":5.37223,"is_reserved":false,"is_disabled":false,"rental_uris":{"android":"levelo://app?vid=8236599d-d86d-403c-bf15-8c3f7f0ff5aa","ios":"levelo://app?vid=8236599d-d86d-403c-bf15-8c3f7f0ff5aa"},"vehicle_type_id":"4","last_reported":1748552985,"current_range_meters":9600,"station_id":"ce4bguh2rcd13ifvqckg","pricing_plan_id":"cebpf4jnsgd1na2vs0mg"},{"bike_id":"294b1dda-9734-42a0-8ea1-99377c201681","system_id":"levelo_inurba_marseille","lat":43.306444,"lon":5.401026,"is_reserved":false,"is_disabled":false,"rental_uris":{"android":"levelo://app?vid=294b1dda-9734-42a0-8ea1-99377c201681","ios":"levelo://app?vid=294b1dda-9734-42a0-8ea1-99377c201681"},"vehicle_type_id":"4","last_reported":1748552985,"current_range_meters":9600,"station_id":"ce4bh112rcd13ifvqda0","pricing_plan_id":"cebpf4jnsgd1na2vs0mg"},{"bike_id":"39d84839-f3e2-40d8-b4b9-447e7386cff3","system_id":"levelo_inurba_marseille","lat":43.29251,"lon":5.38438,"is_reserved":false,"is_disabled":false,"rental_uris":{"android":"levelo://app?vid=39d84839-f3e2-40d8-b4b9-447e7386cff3","ios":"levelo://app?vid=39d84839-f3e2-40d8-b4b9-447e7386cff3"},"vehicle_type_id":"4","last_reported":1748552985,"current_range_meters":9600,"station_id":"ce4bh692rcd13ifvqea0","pricing_plan_id":"cebpf4jnsgd1na2vs0mg"},{"bike_id":"4535deae-d81b-4bd4-820f-8ed9ec14aebc","system_id":"levelo_inurba_marseille","lat":43.27205,"lon":5.39181,"is_reserved":false,"is_disabled":false,"rental_uris":{"android":"levelo://app?vid=4535deae-d81b-4bd4-820f-8ed9ec14aebc","ios":"levelo://app?vid=4535deae-d81b-4bd4-820f-8ed9ec14aebc"},"vehicle_type_id":"4","last_reported":1748552985,"current_range_meters":9600,"station_id":"ce4bhhp2rcd13ifvqfm0","pricing_plan_id":"cebpf4jnsgd1na2vs0mg"},{"bike_id":"4ea88853-b4fa-4fac-a8f7-58a125e5feca","system_id":"levelo_inurba_marseille","lat":43.27824,"lon":5.40718,"is_reserved":false,"is_disabled":false,"rental_uris":{"android":"levelo://app?vid=4ea88853-b4fa-4fac-a8f7-58a125e5feca","ios":"levelo://app?vid=4ea88853-b4fa-4fac-a8f7-58a125e5feca"},"vehicle_type_id":"4","last_reported":1748552985,"current_range_meters":9600,"station_id":"ce4bhnh2rcd13ifvqgtg","pricing_plan_id":"cebpf4jnsgd1na2vs0mg"},{"bike_id":"0e009545-9acc-491d-b143-22cbd0096db4","system_id":"levelo_inurba_marseille","lat":43.33832,"lon":5.39244,"is_reserved":false,"is_disabled":false,"rental_uris":{"android":"levelo://app?vid=0e009545-9acc-491d-b143-22cbd0096db4","ios":"levelo://app?vid=0e009545-9acc-491d-b143-22cbd0096db4"},"vehicle_type_id":"4","last_reported":1748552985,"current_range_meters":10000,"station_id":"","pricing_plan_id":"cebpf4jnsgd1na2vs0mg"},{"bike_id":"42dca157-bdb0-4361-8022-7979135f94aa","system_id":"levelo_inurba_marseille","lat":43.2857,"lon":5.36556,"is_reserved":false,"is_disabled":false,"rental_uris":{"android":"levelo://app?vid=42dca157-bdb0-4361-8022-7979135f94aa","ios":"levelo://app?vid=42dca157-bdb0-4361-8022-7979135f94aa"},"vehicle_type_id":"4","last_reported":1748552985,"current_range_meters":10000,"station_id":"","pricing_plan_id":"cebpf4jnsgd1na2vs0mg"},{"bike_id":"c3708d46-6d3f-473e-a7dd-aaed7b1ccfcb","system_id":"levelo_inurba_marseille","lat":43.28108,"lon":5.37832,"is_reserved":false,"is_disabled":false,"rental_uris":{"android":"levelo://app?vid=c3708d46-6d3f-473e-a7dd-aaed7b1ccfcb","ios":"levelo://app?vid=c3708d46-6d3f-473e-a7dd-aaed7b1ccfcb"},"vehicle_type_id":"4","last_reported":1748552985,"current_range_meters":10000,"station_id":"ce4bha12rcd13ifvqee0","pricing_plan_id":"cebpf4jnsgd1na2vs0mg"},{"bike_id":"538c4a44-0f41-4b28-a69e-ed9660784b20","system_id":"levelo_inurba_marseille","lat":43.2621,"lon":5.3744,"is_reserved":false,"is_disabled":false,"rental_uris":{"android":"levelo://app?vid=538c4a44-0f41-4b28-a69e-ed9660784b20","ios":"levelo://app?vid=538c4a44-0f41-4b28-a69e-ed9660784b20"},"vehicle_type_id":"4","last_reported":1748552985,"current_range_meters":10000,"station_id":"ce4bhgp2rcd13ifvqfc0","pricing_plan_id":"cebpf4jnsgd1na2vs0mg"},{"bike_id":"e0393923-479a-4036-862e-6c5b2c77fd1e","system_id":"levelo_inurba_marseille","lat":43.26208,"lon":5.37931,"is_reserved":false,"is_disabled":false,"rental_uris":{"android":"levelo://app?vid=e0393923-479a-4036-862e-6c5b2c77fd1e","ios":"levelo://app?vid=e0393923-479a-4036-862e-6c5b2c77fd1e"},"vehicle_type_id":"4","last_reported":1748552985,"current_range_meters":10000,"station_id":"ce4bhjp2rcd13ifvqg90","pricing_plan_id":"cebpf4jnsgd1na2vs0mg"},{"bike_id":"279a10e7-e84b-43fd-983f-0a5dd993c8a0","system_id":"levelo_inurba_marseille","lat":43.28155,"lon":5.42649,"is_reserved":false,"is_disabled":false,"rental_uris":{"android":"levelo://app?vid=279a10e7-e84b-43fd-983f-0a5dd993c8a0","ios":"levelo://app?vid=279a10e7-e84b-43fd-983f-0a5dd993c8a0"},"vehicle_type_id":"4","last_reported":1748552985,"current_range_meters":10000,"station_id":"ce4bhnh2rcd13ifvqgug","pricing_plan_id":"cebpf4jnsgd1na2vs0mg"},{"bike_id":"9556e00f-0a2c-43a2-a169-1bc9ec3d89e1","system_id":"levelo_inurba_marseille","lat":43.29982,"lon":5.38474,"is_reserved":false,"is_disabled":false,"rental_uris":{"android":"levelo://app?vid=9556e00f-0a2c-43a2-a169-1bc9ec3d89e1","ios":"levelo://app?vid=9556e00f-0a2c-43a2-a169-1bc9ec3d89e1"},"vehicle_type_id":"4","last_reported":1748552985,"current_range_meters":10800,"station_id":"ce4bgj92rcd13ifvqbd0","pricing_plan_id":"cebpf4jnsgd1na2vs0mg"},{"bike_id":"6d9e0cbd-d07a-4260-a03f-018b88e3475e","system_id":"levelo_inurba_marseille","lat":43.30238,"lon":5.40047,"is_reserved":false,"is_disabled":false,"rental_uris":{"android":"levelo://app?vid=6d9e0cbd-d07a-4260-a03f-018b88e3475e","ios":"levelo://app?vid=6d9e0cbd-d07a-4260-a03f-018b88e3475e"},"vehicle_type_id":"4","last_reported":1748552985,"current_range_meters":10800,"station_id":"ce4bgvh2rcd13ifvqcs0","pricing_plan_id":"cebpf4jnsgd1na2vs0mg"},{"bike_id":"f8bc173a-daa9-4ce4-a9bf-8100197dee35","system_id":"levelo_inurba_marseille","lat":43.313276,"lon":5.396886,"is_reserved":false,"is_disabled":false,"rental_uris":{"android":"levelo://app?vid=f8bc173a-daa9-4ce4-a9bf-8100197dee35","ios":"levelo://app?vid=f8bc173a-daa9-4ce4-a9bf-8100197dee35"},"vehicle_type_id":"4","last_reported":1748552985,"current_range_meters":10800,"station_id":"ce4bgvp2rcd13ifvqcu0","pricing_plan_id":"cebpf4jnsgd1na2vs0mg"},{"bike_id":"dc77ed57-3919-4471-9468-9212c032a498","system_id":"levelo_inurba_marseille","lat":43.2901,"lon":5.3863,"is_reserved":false,"is_disabled":false,"rental_uris":{"android":"levelo://app?vid=dc77ed57-3919-4471-9468-9212c032a498","ios":"levelo://app?vid=dc77ed57-3919-4471-9468-9212c032a498"},"vehicle_type_id":"4","last_reported":1748552985,"current_range_meters":10800,"station_id":"ce4bh4p2rcd13ifvqe0g","pricing_plan_id":"cebpf4jnsgd1na2vs0mg"},{"bike_id":"621ad574-cf13-42e9-88fe-990f32a07f08","system_id":"levelo_inurba_marseille","lat":43.29038,"lon":5.37559,"is_reserved":false,"is_disabled":false,"rental_uris":{"android":"levelo://app?vid=621ad574-cf13-42e9-88fe-990f32a07f08","ios":"levelo://app?vid=621ad574-cf13-42e9-88fe-990f32a07f08"},"vehicle_type_id":"4","last_reported":1748552985,"current_range_meters":10800,"station_id":"ce4bh692rcd13ifvqe90","pricing_plan_id":"cebpf4jnsgd1na2vs0mg"},{"bike_id":"9645fd54-db8d-4cf3-9341-8f046247c936","system_id":"levelo_inurba_marseille","lat":43.26564,"lon":5.38995,"is_reserved":false,"is_disabled":false,"rental_uris":{"android":"levelo://app?vid=9645fd54-db8d-4cf3-9341-8f046247c936","ios":"levelo://app?vid=9645fd54-db8d-4cf3-9341-8f046247c936"},"vehicle_type_id":"4","last_reported":1748552985,"current_range_meters":10800,"station_id":"ce4bhe12rcd13ifvqf30","pricing_plan_id":"cebpf4jnsgd1na2vs0mg"},{"bike_id":"5ef514fb-a79d-44da-ba12-32147b104089","system_id":"levelo_inurba_marseille","lat":43.24665,"lon":5.38162,"is_reserved":false,"is_disabled":false,"rental_uris":{"android":"levelo://app?vid=5ef514fb-a79d-44da-ba12-32147b104089","ios":"levelo://app?vid=5ef514fb-a79d-44da-ba12-32147b104089"},"vehicle_type_id":"4","last_reported":1748552985,"current_range_meters":10800,"station_id":"ce4bhih2rcd13ifvqfr0","pricing_plan_id":"cebpf4jnsgd1na2vs0mg"},{"bike_id":"6d47f846-5bcf-454b-9012-776b91cd9b1f","system_id":"levelo_inurba_marseille","lat":43.27176,"lon":5.40992,"is_reserved":false,"is_disabled":false,"rental_uris":{"android":"levelo://app?vid=6d47f846-5bcf-454b-9012-776b91cd9b1f","ios":"levelo://app?vid=6d47f846-5bcf-454b-9012-776b91cd9b1f"},"vehicle_type_id":"4","last_reported":1748552985,"current_range_meters":10800,"station_id":"ce4bhl12rcd13ifvqgf0","pricing_plan_id":"cebpf4jnsgd1na2vs0mg"},{"bike_id":"6497f928-b492-441b-adb0-b2293f76870d","system_id":"levelo_inurba_marseille","lat":43.24556,"lon":5.39526,"is_reserved":false,"is_disabled":false,"rental_uris":{"android":"levelo://app?vid=6497f928-b492-441b-adb0-b2293f76870d","ios":"levelo://app?vid=6497f928-b492-441b-adb0-b2293f76870d"},"vehicle_type_id":"4","last_reported":1748552985,"current_range_meters":10800,"station_id":"ce4bhlp2rcd13ifvqgjg","pricing_plan_id":"cebpf4jnsgd1na2vs0mg"},{"bike_id":"ab9b5c10-e492-474c-bbc4-7e92c0302cfc","system_id":"levelo_inurba_marseille","lat":43.28702,"lon":5.39982,"is_reserved":false,"is_disabled":false,"rental_uris":{"android":"levelo://app?vid=ab9b5c10-e492-474c-bbc4-7e92c0302cfc","ios":"levelo://app?vid=ab9b5c10-e492-474c-bbc4-7e92c0302cfc"},"vehicle_type_id":"4","last_reported":1748552985,"current_range_meters":10800,"station_id":"ce4bho92rcd13ifvqh3g","pricing_plan_id":"cebpf4jnsgd1na2vs0mg"},{"bike_id":"73fb63f9-0010-4c84-8571-9f51f77b0953","system_id":"levelo_inurba_marseille","lat":43.28,"lon":5.40007,"is_reserved":false,"is_disabled":false,"rental_uris":{"android":"levelo://app?vid=73fb63f9-0010-4c84-8571-9f51f77b0953","ios":"levelo://app?vid=73fb63f9-0010-4c84-8571-9f51f77b0953"},"vehicle_type_id":"4","last_reported":1748552985,"current_range_meters":10800,"station_id":"ce4bho92rcd13ifvqh4g","pricing_plan_id":"cebpf4jnsgd1na2vs0mg"},{"bike_id":"b0f67d6d-3250-42ef-8f19-4e74e6760f9a","system_id":"levelo_inurba_marseille","lat":43.34407,"lon":5.38136,"is_reserved":false,"is_disabled":false,"rental_uris":{"android":"levelo://app?vid=b0f67d6d-3250-42ef-8f19-4e74e6760f9a","ios":"levelo://app?vid=b0f67d6d-3250-42ef-8f19-4e74e6760f9a"},"vehicle_type_id":"4","last_reported":1748552985,"current_range_meters":11200,"station_id":"","pricing_plan_id":"cebpf4jnsgd1na2vs0mg"},{"bike_id":"8783a4d9-7afa-413c-a972-a6bf8b9e9340","system_id":"levelo_inurba_marseille","lat":43.31327,"lon":5.39699,"is_reserved":false,"is_disabled":false,"rental_uris":{"android":"levelo://app?vid=8783a4d9-7afa-413c-a972-a6bf8b9e9340","ios":"levelo://app?vid=8783a4d9-7afa-413c-a972-a6bf8b9e9340"},"vehicle_type_id":"4","last_reported":1748552985,"current_range_meters":11200,"station_id":"ce4bgvp2rcd13ifvqcu0","pricing_plan_id":"cebpf4jnsgd1na2vs0mg"},{"bike_id":"572f964a-6e64-4c5e-b089-ce909a800028","system_id":"levelo_inurba_marseille","lat":43.29275,"lon":5.4011,"is_reserved":false,"is_disabled":false,"rental_uris":{"android":"levelo://app?vid=572f964a-6e64-4c5e-b089-ce909a800028","ios":"levelo://app?vid=572f964a-6e64-4c5e-b089-ce909a800028"},"vehicle_type_id":"4","last_reported":1748552985,"current_range_meters":11200,"station_id":"ce4bh312rcd13ifvqdk0","pricing_plan_id":"cebpf4jnsgd1na2vs0mg"},{"bike_id":"09903d18-0a4a-47b8-b680-8a828784967e","system_id":"levelo_inurba_marseille","lat":43.29033,"lon":5.39952,"is_reserved":false,"is_disabled":false,"rental_uris":{"android":"levelo://app?vid=09903d18-0a4a-47b8-b680-8a828784967e","ios":"levelo://app?vid=09903d18-0a4a-47b8-b680-8a828784967e"},"vehicle_type_id":"4","last_reported":1748552985,"current_range_meters":11200,"station_id":"ce4bh392rcd13ifvqdm0","pricing_plan_id":"cebpf4jnsgd1na2vs0mg"},{"bike_id":"d2efc7ef-e8cf-48f9-9e09-ac995bd4b4ef","system_id":"levelo_inurba_marseille","lat":43.28464,"lon":5.38385,"is_reserved":false,"is_disabled":false,"rental_uris":{"android":"levelo://app?vid=d2efc7ef-e8cf-48f9-9e09-ac995bd4b4ef","ios":"levelo://app?vid=d2efc7ef-e8cf-48f9-9e09-ac995bd4b4ef"},"vehicle_type_id":"4","last_reported":1748552985,"current_range_meters":11200,"station_id":"ce4bh512rcd13ifvqe3g","pricing_plan_id":"cebpf4jnsgd1na2vs0mg"},{"bike_id":"d4fc9cf1-6680-4d0d-81cd-f9c12a476ab1","system_id":"levelo_inurba_marseille","lat":43.24801,"lon":5.37443,"is_reserved":false,"is_disabled":false,"rental_uris":{"android":"levelo://app?vid=d4fc9cf1-6680-4d0d-81cd-f9c12a476ab1","ios":"levelo://app?vid=d4fc9cf1-6680-4d0d-81cd-f9c12a476ab1"},"vehicle_type_id":"4","last_reported":1748552985,"current_range_meters":11200,"station_id":"ce4bhgh2rcd13ifvqfb0","pricing_plan_id":"cebpf4jnsgd1na2vs0mg"},{"bike_id":"d1096873-14b6-4783-a074-41ed382fc392","system_id":"levelo_inurba_marseille","lat":43.24823,"lon":5.37447,"is_reserved":false,"is_disabled":false,"rental_uris":{"android":"levelo://app?vid=d1096873-14b6-4783-a074-41ed382fc392","ios":"levelo://app?vid=d1096873-14b6-4783-a074-41ed382fc392"},"vehicle_type_id":"4","last_reported":1748552985,"current_range_meters":11200,"station_id":"ce4bhgh2rcd13ifvqfb0","pricing_plan_id":"cebpf4jnsgd1na2vs0mg"},{"bike_id":"3dd4a18c-41d4-4025-b01f-0cc722640ae3","system_id":"levelo_inurba_marseille","lat":43.27816,"lon":5.40699,"is_reserved":false,"is_disabled":false,"rental_uris":{"android":"levelo://app?vid=3dd4a18c-41d4-4025-b01f-0cc722640ae3","ios":"levelo://app?vid=3dd4a18c-41d4-4025-b01f-0cc722640ae3"},"vehicle_type_id":"4","last_reported":1748552985,"current_range_meters":11200,"station_id":"ce4bhnh2rcd13ifvqgtg","pricing_plan_id":"cebpf4jnsgd1na2vs0mg"},{"bike_id":"f794aef5-99dc-4499-b1ca-44ab1e7b6ef4","system_id":"levelo_inurba_marseille","lat":43.31706,"lon":5.43707,"is_reserved":false,"is_disabled":false,"rental_uris":{"android":"levelo://app?vid=f794aef5-99dc-4499-b1ca-44ab1e7b6ef4","ios":"levelo://app?vid=f794aef5-99dc-4499-b1ca-44ab1e7b6ef4"},"vehicle_type_id":"4","last_reported":1748552985,"current_range_meters":11200,"station_id":"ce4bhp92rcd13ifvqhcg","pricing_plan_id":"cebpf4jnsgd1na2vs0mg"},{"bike_id":"fc703e3d-4a8e-4404-88f1-4c82d56173f8","system_id":"levelo_inurba_marseille","lat":43.30799,"lon":5.43532,"is_reserved":false,"is_disabled":false,"rental_uris":{"android":"levelo://app?vid=fc703e3d-4a8e-4404-88f1-4c82d56173f8","ios":"levelo://app?vid=fc703e3d-4a8e-4404-88f1-4c82d56173f8"},"vehicle_type_id":"4","last_reported":1748552985,"current_range_meters":11200,"station_id":"ce4bhph2rcd13ifvqheg","pricing_plan_id":"cebpf4jnsgd1na2vs0mg"},{"bike_id":"90e765d3-71bc-4949-957b-9e99d7615076","system_id":"levelo_inurba_marseille","lat":43.25601,"lon":5.40521,"is_reserved":false,"is_disabled":false,"rental_uris":{"android":"levelo://app?vid=90e765d3-71bc-4949-957b-9e99d7615076","ios":"levelo://app?vid=90e765d3-71bc-4949-957b-9e99d7615076"},"vehicle_type_id":"4","last_reported":1748552985,"current_range_meters":11600,"station_id":"","pricing_plan_id":"cebpf4jnsgd1na2vs0mg"},{"bike_id":"8f2cb8f8-e0a4-404e-920a-449581fe2533","system_id":"levelo_inurba_marseille","lat":43.30462,"lon":5.37902,"is_reserved":false,"is_disabled":false,"rental_uris":{"android":"levelo://app?vid=8f2cb8f8-e0a4-404e-920a-449581fe2533","ios":"levelo://app?vid=8f2cb8f8-e0a4-404e-920a-449581fe2533"},"vehicle_type_id":"4","last_reported":1748552985,"current_range_meters":11600,"station_id":"ce4bgup2rcd13ifvqcn0","pricing_plan_id":"cebpf4jnsgd1na2vs0mg"},{"bike_id":"a8230de5-34c0-444f-a9cb-eb048c8a377c","system_id":"levelo_inurba_marseille","lat":43.31069,"lon":5.38329,"is_reserved":false,"is_disabled":false,"rental_uris":{"android":"levelo://app?vid=a8230de5-34c0-444f-a9cb-eb048c8a377c","ios":"levelo://app?vid=a8230de5-34c0-444f-a9cb-eb048c8a377c"},"vehicle_type_id":"4","last_reported":1748552985,"current_range_meters":11600,"station_id":"ce4bgv92rcd13ifvqcr0","pricing_plan_id":"cebpf4jnsgd1na2vs0mg"},{"bike_id":"47ce111d-da00-44e1-bb4b-5c32f8d4730e","system_id":"levelo_inurba_marseille","lat":43.29035,"lon":5.38643,"is_reserved":false,"is_disabled":false,"rental_uris":{"android":"levelo://app?vid=47ce111d-da00-44e1-bb4b-5c32f8d4730e","ios":"levelo://app?vid=47ce111d-da00-44e1-bb4b-5c32f8d4730e"},"vehicle_type_id":"4","last_reported":1748552985,"current_range_meters":11600,"station_id":"ce4bh4p2rcd13ifvqe0g","pricing_plan_id":"cebpf4jnsgd1na2vs0mg"},{"bike_id":"707f61c6-5327-4a6b-a127-a32ea832dc05","system_id":"levelo_inurba_marseille","lat":43.24388,"lon":5.37035,"is_reserved":false,"is_disabled":false,"rental_uris":{"android":"levelo://app?vid=707f61c6-5327-4a6b-a127-a32ea832dc05","ios":"levelo://app?vid=707f61c6-5327-4a6b-a127-a32ea832dc05"},"vehicle_type_id":"4","last_reported":1748552985,"current_range_meters":11600,"station_id":"ce4bhhh2rcd13ifvqfk0","pricing_plan_id":"cebpf4jnsgd1na2vs0mg"},{"bike_id":"60eacffb-1805-477b-8dea-d4ba95a915da","system_id":"levelo_inurba_marseille","lat":43.28443,"lon":5.39178,"is_reserved":false,"is_disabled":false,"rental_uris":{"android":"levelo://app?vid=60eacffb-1805-477b-8dea-d4ba95a915da","ios":"levelo://app?vid=60eacffb-1805-477b-8dea-d4ba95a915da"},"vehicle_type_id":"4","last_reported":1748552985,"current_range_meters":11600,"station_id":"ce4bhoh2rcd13ifvqh5g","pricing_plan_id":"cebpf4jnsgd1na2vs0mg"},{"bike_id":"d4f1fc23-8207-42c2-bd4d-e7c9bec8c86d","system_id":"levelo_inurba_marseille","lat":43.28433,"lon":5.39189,"is_reserved":false,"is_disabled":false,"rental_uris":{"android":"levelo://app?vid=d4f1fc23-8207-42c2-bd4d-e7c9bec8c86d","ios":"levelo://app?vid=d4f1fc23-8207-42c2-bd4d-e7c9bec8c86d"},"vehicle_type_id":"4","last_reported":1748552985,"current_range_meters":11600,"station_id":"ce4bhoh2rcd13ifvqh5g","pricing_plan_id":"cebpf4jnsgd1na2vs0mg"},{"bike_id":"f5733814-9732-4748-bcc9-3b2fac8e1564","system_id":"levelo_inurba_marseille","lat":43.31256,"lon":5.37829,"is_reserved":false,"is_disabled":false,"rental_uris":{"android":"levelo://app?vid=f5733814-9732-4748-bcc9-3b2fac8e1564","ios":"levelo://app?vid=f5733814-9732-4748-bcc9-3b2fac8e1564"},"vehicle_type_id":"4","last_reported":1748552985,"current_range_meters":12000,"station_id":"","pricing_plan_id":"cebpf4jnsgd1na2vs0mg"},{"bike_id":"5a602ebc-01e5-4014-a60b-18ca57920b57","system_id":"levelo_inurba_marseille","lat":43.29534,"lon":5.39035,"is_reserved":false,"is_disabled":false,"rental_uris":{"android":"levelo://app?vid=5a602ebc-01e5-4014-a60b-18ca57920b57","ios":"levelo://app?vid=5a602ebc-01e5-4014-a60b-18ca57920b57"},"vehicle_type_id":"4","last_reported":1748552985,"current_range_meters":12000,"station_id":"ce4bh3p2rcd13ifvqdp0","pricing_plan_id":"cebpf4jnsgd1na2vs0mg"},{"bike_id":"6df048b1-b400-44e3-98b5-b9feb6ceddd4","system_id":"levelo_inurba_marseille","lat":43.29023,"lon":5.38609,"is_reserved":false,"is_disabled":false,"rental_uris":{"android":"levelo://app?vid=6df048b1-b400-44e3-98b5-b9feb6ceddd4","ios":"levelo://app?vid=6df048b1-b400-44e3-98b5-b9feb6ceddd4"},"vehicle_type_id":"4","last_reported":1748552985,"current_range_meters":12000,"station_id":"ce4bh4p2rcd13ifvqe0g","pricing_plan_id":"cebpf4jnsgd1na2vs0mg"},{"bike_id":"f96d3350-c5bf-4b21-add4-93ecfdb5e9e5","system_id":"levelo_inurba_marseille","lat":43.26566,"lon":5.37308,"is_reserved":false,"is_disabled":false,"rental_uris":{"android":"levelo://app?vid=f96d3350-c5bf-4b21-add4-93ecfdb5e9e5","ios":"levelo://app?vid=f96d3350-c5bf-4b21-add4-93ecfdb5e9e5"},"vehicle_type_id":"4","last_reported":1748552985,"current_range_meters":12000,"station_id":"ce4bhg12rcd13ifvqf70","pricing_plan_id":"cebpf4jnsgd1na2vs0mg"},{"bike_id":"a426f99b-d34a-41bf-bbda-59f7dfd6939b","system_id":"levelo_inurba_marseille","lat":43.255796,"lon":5.382262,"is_reserved":false,"is_disabled":false,"rental_uris":{"android":"levelo://app?vid=a426f99b-d34a-41bf-bbda-59f7dfd6939b","ios":"levelo://app?vid=a426f99b-d34a-41bf-bbda-59f7dfd6939b"},"vehicle_type_id":"4","last_reported":1748552985,"current_range_meters":12000,"station_id":"ce501612rcd8frsf0b60","pricing_plan_id":"cebpf4jnsgd1na2vs0mg"},{"bike_id":"e9cda520-c6f4-465d-ad7f-8c059b3dc45a","system_id":"levelo_inurba_marseille","lat":43.313967,"lon":5.383993,"is_reserved":false,"is_disabled":false,"rental_uris":{"android":"levelo://app?vid=e9cda520-c6f4-465d-ad7f-8c059b3dc45a","ios":"levelo://app?vid=e9cda520-c6f4-465d-ad7f-8c059b3dc45a"},"vehicle_type_id":"4","last_reported":1748552985,"current_range_meters":12400,"station_id":"","pricing_plan_id":"cebpf4jnsgd1na2vs0mg"},{"bike_id":"9106b7cd-70ae-456d-906e-062a4ff9165b","system_id":"levelo_inurba_marseille","lat":43.330236,"lon":5.394374,"is_reserved":false,"is_disabled":false,"rental_uris":{"android":"levelo://app?vid=9106b7cd-70ae-456d-906e-062a4ff9165b","ios":"levelo://app?vid=9106b7cd-70ae-456d-906e-062a4ff9165b"},"vehicle_type_id":"4","last_reported":1748552985,"current_range_meters":12400,"station_id":"","pricing_plan_id":"cebpf4jnsgd1na2vs0mg"},{"bike_id":"639aa8f8-b5ac-4d1e-8ab0-2fdcb890e06f","system_id":"levelo_inurba_marseille","lat":43.30141,"lon":5.3877,"is_reserved":false,"is_disabled":false,"rental_uris":{"android":"levelo://app?vid=639aa8f8-b5ac-4d1e-8ab0-2fdcb890e06f","ios":"levelo://app?vid=639aa8f8-b5ac-4d1e-8ab0-2fdcb890e06f"},"vehicle_type_id":"4","last_reported":1748552985,"current_range_meters":12400,"station_id":"ce4bghh2rcd13ifvqb60","pricing_plan_id":"cebpf4jnsgd1na2vs0mg"},{"bike_id":"78a98bee-5aef-42b7-b47a-604c9e14b1c7","system_id":"levelo_inurba_marseille","lat":43.29939,"lon":5.36556,"is_reserved":false,"is_disabled":false,"rental_uris":{"android":"levelo://app?vid=78a98bee-5aef-42b7-b47a-604c9e14b1c7","ios":"levelo://app?vid=78a98bee-5aef-42b7-b47a-604c9e14b1c7"},"vehicle_type_id":"4","last_reported":1748552985,"current_range_meters":12400,"station_id":"ce4bgm92rcd13ifvqbr0","pricing_plan_id":"cebpf4jnsgd1na2vs0mg"},{"bike_id":"4c1fbfbe-a1cd-4417-88c4-cf88d3dc7ef4","system_id":"levelo_inurba_marseille","lat":43.29419,"lon":5.38636,"is_reserved":false,"is_disabled":false,"rental_uris":{"android":"levelo://app?vid=4c1fbfbe-a1cd-4417-88c4-cf88d3dc7ef4","ios":"levelo://app?vid=4c1fbfbe-a1cd-4417-88c4-cf88d3dc7ef4"},"vehicle_type_id":"4","last_reported":1748552985,"current_range_meters":12400,"station_id":"ce4bh2h2rcd13ifvqdh0","pricing_plan_id":"cebpf4jnsgd1na2vs0mg"},{"bike_id":"243329ec-61f4-47d0-ac7f-0dbb82dc38af","system_id":"levelo_inurba_marseille","lat":43.260516,"lon":5.375336,"is_reserved":false,"is_disabled":false,"rental_uris":{"android":"levelo://app?vid=243329ec-61f4-47d0-ac7f-0dbb82dc38af","ios":"levelo://app?vid=243329ec-61f4-47d0-ac7f-0dbb82dc38af"},"vehicle_type_id":"4","last_reported":1748552985,"current_range_meters":12400,"station_id":"ce4bhgh2rcd13ifvqfa0","pricing_plan_id":"cebpf4jnsgd1na2vs0mg"},{"bike_id":"7c209d7a-d994-4b8a-8099-b3d1d83e6d6f","system_id":"levelo_inurba_marseille","lat":43.27837,"lon":5.40697,"is_reserved":false,"is_disabled":false,"rental_uris":{"android":"levelo://app?vid=7c209d7a-d994-4b8a-8099-b3d1d83e6d6f","ios":"levelo://app?vid=7c209d7a-d994-4b8a-8099-b3d1d83e6d6f"},"vehicle_type_id":"4","last_reported":1748552985,"current_range_meters":12400,"station_id":"ce4bhnh2rcd13ifvqgtg","pricing_plan_id":"cebpf4jnsgd1na2vs0mg"},{"bike_id":"bdbee15d-3458-4da8-8553-de9903cf45df","system_id":"levelo_inurba_marseille","lat":43.28432,"lon":5.39185,"is_reserved":false,"is_disabled":false,"rental_uris":{"android":"levelo://app?vid=bdbee15d-3458-4da8-8553-de9903cf45df","ios":"levelo://app?vid=bdbee15d-3458-4da8-8553-de9903cf45df"},"vehicle_type_id":"4","last_reported":1748552985,"current_range_meters":12400,"station_id":"ce4bhoh2rcd13ifvqh5g","pricing_plan_id":"cebpf4jnsgd1na2vs0mg"},{"bike_id":"da279776-c099-4cdd-acd3-f802ffed4965","system_id":"levelo_inurba_marseille","lat":43.29562,"lon":5.42283,"is_reserved":false,"is_disabled":false,"rental_uris":{"android":"levelo://app?vid=da279776-c099-4cdd-acd3-f802ffed4965","ios":"levelo://app?vid=da279776-c099-4cdd-acd3-f802ffed4965"},"vehicle_type_id":"4","last_reported":1748552985,"current_range_meters":12400,"station_id":"ce4bhph2rcd13ifvqhdg","pricing_plan_id":"cebpf4jnsgd1na2vs0mg"},{"bike_id":"978e8fd3-01a7-4b79-b825-32f6f7ed896f","system_id":"levelo_inurba_marseille","lat":43.29581,"lon":5.36718,"is_reserved":false,"is_disabled":false,"rental_uris":{"android":"levelo://app?vid=978e8fd3-01a7-4b79-b825-32f6f7ed896f","ios":"levelo://app?vid=978e8fd3-01a7-4b79-b825-32f6f7ed896f"},"vehicle_type_id":"4","last_reported":1748552985,"current_range_meters":12800,"station_id":"ce4bgph2rcd13ifvqc2g","pricing_plan_id":"cebpf4jnsgd1na2vs0mg"},{"bike_id":"f33a84f0-8de7-4604-a40b-b332dd61010e","system_id":"levelo_inurba_marseille","lat":43.28698,"lon":5.37394,"is_reserved":false,"is_disabled":false,"rental_uris":{"android":"levelo://app?vid=f33a84f0-8de7-4604-a40b-b332dd61010e","ios":"levelo://app?vid=f33a84f0-8de7-4604-a40b-b332dd61010e"},"vehicle_type_id":"4","last_reported":1748552985,"current_range_meters":12800,"station_id":"ce4bh3p2rcd13ifvqdq0","pricing_plan_id":"cebpf4jnsgd1na2vs0mg"},{"bike_id":"643d9ec4-a211-4357-bc47-ec3750d591ab","system_id":"levelo_inurba_marseille","lat":43.29028,"lon":5.38159,"is_reserved":false,"is_disabled":false,"rental_uris":{"android":"levelo://app?vid=643d9ec4-a211-4357-bc47-ec3750d591ab","ios":"levelo://app?vid=643d9ec4-a211-4357-bc47-ec3750d591ab"},"vehicle_type_id":"4","last_reported":1748552985,"current_range_meters":12800,"station_id":"ce4bh4p2rcd13ifvqe1g","pricing_plan_id":"cebpf4jnsgd1na2vs0mg"},{"bike_id":"d2194095-52f0-44b2-9c32-a4332a95867e","system_id":"levelo_inurba_marseille","lat":43.27067,"lon":5.40252,"is_reserved":false,"is_disabled":false,"rental_uris":{"android":"levelo://app?vid=d2194095-52f0-44b2-9c32-a4332a95867e","ios":"levelo://app?vid=d2194095-52f0-44b2-9c32-a4332a95867e"},"vehicle_type_id":"4","last_reported":1748552985,"current_range_meters":12800,"station_id":"ce4bhk92rcd13ifvqgc0","pricing_plan_id":"cebpf4jnsgd1na2vs0mg"},{"bike_id":"747224c9-7e52-4c58-9390-d943c4f5446c","system_id":"levelo_inurba_marseille","lat":43.271807,"lon":5.410007,"is_reserved":false,"is_disabled":false,"rental_uris":{"android":"levelo://app?vid=747224c9-7e52-4c58-9390-d943c4f5446c","ios":"levelo://app?vid=747224c9-7e52-4c58-9390-d943c4f5446c"},"vehicle_type_id":"4","last_reported":1748552985,"current_range_meters":12800,"station_id":"ce4bhl12rcd13ifvqgf0","pricing_plan_id":"cebpf4jnsgd1na2vs0mg"},{"bike_id":"dddeb80d-3057-46be-833d-4a0c2415e343","system_id":"levelo_inurba_marseille","lat":43.32,"lon":5.38136,"is_reserved":false,"is_disabled":false,"rental_uris":{"android":"levelo://app?vid=dddeb80d-3057-46be-833d-4a0c2415e343","ios":"levelo://app?vid=dddeb80d-3057-46be-833d-4a0c2415e343"},"vehicle_type_id":"4","last_reported":1748552985,"current_range_meters":12800,"station_id":"ce4bhr12rcd13ifvqhpg","pricing_plan_id":"cebpf4jnsgd1na2vs0mg"},{"bike_id":"bb17936d-1700-43a4-aef9-ba7d9c739c2e","system_id":"levelo_inurba_marseille","lat":43.2979,"lon":5.39344,"is_reserved":false,"is_disabled":false,"rental_uris":{"android":"levelo://app?vid=bb17936d-1700-43a4-aef9-ba7d9c739c2e","ios":"levelo://app?vid=bb17936d-1700-43a4-aef9-ba7d9c739c2e"},"vehicle_type_id":"4","last_reported":1748552985,"current_range_meters":12800,"station_id":"chh1huq6cuj3fo74tm60","pricing_plan_id":"cebpf4jnsgd1na2vs0mg"},{"bike_id":"5ebcab2d-592d-446c-bba6-9706c8bc4b45","system_id":"levelo_inurba_marseille","lat":43.31396,"lon":5.36684,"is_reserved":false,"is_disabled":false,"rental_uris":{"android":"levelo://app?vid=5ebcab2d-592d-446c-bba6-9706c8bc4b45","ios":"levelo://app?vid=5ebcab2d-592d-446c-bba6-9706c8bc4b45"},"vehicle_type_id":"4","last_reported":1748552985,"current_range_meters":13600,"station_id":"","pricing_plan_id":"cebpf4jnsgd1na2vs0mg"},{"bike_id":"34eb00e4-e6d0-4454-8f52-93505af99ee5","system_id":"levelo_inurba_marseille","lat":43.3257,"lon":5.43081,"is_reserved":false,"is_disabled":false,"rental_uris":{"android":"levelo://app?vid=34eb00e4-e6d0-4454-8f52-93505af99ee5","ios":"levelo://app?vid=34eb00e4-e6d0-4454-8f52-93505af99ee5"},"vehicle_type_id":"4","last_reported":1748552985,"current_range_meters":13600,"station_id":"","pricing_plan_id":"cebpf4jnsgd1na2vs0mg"},{"bike_id":"c6c73e6f-bb08-45e8-99a5-201e9b0fef1c","system_id":"levelo_inurba_marseille","lat":43.310728,"lon":5.383518,"is_reserved":false,"is_disabled":false,"rental_uris":{"android":"levelo://app?vid=c6c73e6f-bb08-45e8-99a5-201e9b0fef1c","ios":"levelo://app?vid=c6c73e6f-bb08-45e8-99a5-201e9b0fef1c"},"vehicle_type_id":"4","last_reported":1748552985,"current_range_meters":13600,"station_id":"ce4bgv92rcd13ifvqcr0","pricing_plan_id":"cebpf4jnsgd1na2vs0mg"},{"bike_id":"89527f10-1804-4136-9f29-4b4553047a6c","system_id":"levelo_inurba_marseille","lat":43.310711,"lon":5.383584,"is_reserved":false,"is_disabled":false,"rental_uris":{"android":"levelo://app?vid=89527f10-1804-4136-9f29-4b4553047a6c","ios":"levelo://app?vid=89527f10-1804-4136-9f29-4b4553047a6c"},"vehicle_type_id":"4","last_reported":1748552985,"current_range_meters":13600,"station_id":"ce4bgv92rcd13ifvqcr0","pricing_plan_id":"cebpf4jnsgd1na2vs0mg"},{"bike_id":"1f2a01b8-b93f-4324-a758-9c2746973048","system_id":"levelo_inurba_marseille","lat":43.30214,"lon":5.39461,"is_reserved":false,"is_disabled":false,"rental_uris":{"android":"levelo://app?vid=1f2a01b8-b93f-4324-a758-9c2746973048","ios":"levelo://app?vid=1f2a01b8-b93f-4324-a758-9c2746973048"},"vehicle_type_id":"4","last_reported":1748552985,"current_range_meters":13600,"station_id":"ce4bh0p2rcd13ifvqd70","pricing_plan_id":"cebpf4jnsgd1na2vs0mg"},{"bike_id":"e7192470-fe54-473d-9ed4-afba302bb325","system_id":"levelo_inurba_marseille","lat":43.290239,"lon":5.381295,"is_reserved":false,"is_disabled":false,"rental_uris":{"android":"levelo://app?vid=e7192470-fe54-473d-9ed4-afba302bb325","ios":"levelo://app?vid=e7192470-fe54-473d-9ed4-afba302bb325"},"vehicle_type_id":"4","last_reported":1748552985,"current_range_meters":13600,"station_id":"ce4bh4p2rcd13ifvqe1g","pricing_plan_id":"cebpf4jnsgd1na2vs0mg"},{"bike_id":"48e26ea8-1795-4299-a1c4-724bbc46d8d5","system_id":"levelo_inurba_marseille","lat":43.289371,"lon":5.366469,"is_reserved":false,"is_disabled":false,"rental_uris":{"android":"levelo://app?vid=48e26ea8-1795-4299-a1c4-724bbc46d8d5","ios":"levelo://app?vid=48e26ea8-1795-4299-a1c4-724bbc46d8d5"},"vehicle_type_id":"4","last_reported":1748552985,"current_range_meters":13600,"station_id":"ce4bhap2rcd13ifvqek0","pricing_plan_id":"cebpf4jnsgd1na2vs0mg"},{"bike_id":"1be21534-ca7b-4f38-8bff-a7515afc85f6","system_id":"levelo_inurba_marseille","lat":43.24805,"lon":5.37452,"is_reserved":false,"is_disabled":false,"rental_uris":{"android":"levelo://app?vid=1be21534-ca7b-4f38-8bff-a7515afc85f6","ios":"levelo://app?vid=1be21534-ca7b-4f38-8bff-a7515afc85f6"},"vehicle_type_id":"4","last_reported":1748552985,"current_range_meters":13600,"station_id":"ce4bhgh2rcd13ifvqfb0","pricing_plan_id":"cebpf4jnsgd1na2vs0mg"},{"bike_id":"9ea03317-be92-4c71-b53f-9f67f03878b8","system_id":"levelo_inurba_marseille","lat":43.26501,"lon":5.39537,"is_reserved":false,"is_disabled":false,"rental_uris":{"android":"levelo://app?vid=9ea03317-be92-4c71-b53f-9f67f03878b8","ios":"levelo://app?vid=9ea03317-be92-4c71-b53f-9f67f03878b8"},"vehicle_type_id":"4","last_reported":1748552985,"current_range_meters":13600,"station_id":"ce4bhi12rcd13ifvqfq0","pricing_plan_id":"cebpf4jnsgd1na2vs0mg"},{"bike_id":"1f0967f2-40df-414f-a33b-49d952671d16","system_id":"levelo_inurba_marseille","lat":43.24075,"lon":5.37752,"is_reserved":false,"is_disabled":false,"rental_uris":{"android":"levelo://app?vid=1f0967f2-40df-414f-a33b-49d952671d16","ios":"levelo://app?vid=1f0967f2-40df-414f-a33b-49d952671d16"},"vehicle_type_id":"4","last_reported":1748552985,"current_range_meters":13600,"station_id":"ce4bhnp2rcd13ifvqgvg","pricing_plan_id":"cebpf4jnsgd1na2vs0mg"},{"bike_id":"6cddb488-bc63-402f-9ae9-4b2b965663c6","system_id":"levelo_inurba_marseille","lat":43.280786,"lon":5.396452,"is_reserved":false,"is_disabled":false,"rental_uris":{"android":"levelo://app?vid=6cddb488-bc63-402f-9ae9-4b2b965663c6","ios":"levelo://app?vid=6cddb488-bc63-402f-9ae9-4b2b965663c6"},"vehicle_type_id":"4","last_reported":1748552985,"current_range_meters":13600,"station_id":"ce4bho12rcd13ifvqh2g","pricing_plan_id":"cebpf4jnsgd1na2vs0mg"},{"bike_id":"25f58006-0670-4b9b-9a5d-81321b2ee4c3","system_id":"levelo_inurba_marseille","lat":43.28698,"lon":5.400315,"is_reserved":false,"is_disabled":false,"rental_uris":{"android":"levelo://app?vid=25f58006-0670-4b9b-9a5d-81321b2ee4c3","ios":"levelo://app?vid=25f58006-0670-4b9b-9a5d-81321b2ee4c3"},"vehicle_type_id":"4","last_reported":1748552985,"current_range_meters":13600,"station_id":"ce4bho92rcd13ifvqh3g","pricing_plan_id":"cebpf4jnsgd1na2vs0mg"},{"bike_id":"e044c9db-ce02-4ecf-bf86-8eaa46f9c414","system_id":"levelo_inurba_marseille","lat":43.25715,"lon":5.39141,"is_reserved":false,"is_disabled":false,"rental_uris":{"android":"levelo://app?vid=e044c9db-ce02-4ecf-bf86-8eaa46f9c414","ios":"levelo://app?vid=e044c9db-ce02-4ecf-bf86-8eaa46f9c414"},"vehicle_type_id":"4","last_reported":1748552985,"current_range_meters":14000,"station_id":"","pricing_plan_id":"cebpf4jnsgd1na2vs0mg"},{"bike_id":"b85906c2-3d48-4e1a-bc20-d824599ad8d9","system_id":"levelo_inurba_marseille","lat":43.29917,"lon":5.38151,"is_reserved":false,"is_disabled":false,"rental_uris":{"android":"levelo://app?vid=b85906c2-3d48-4e1a-bc20-d824599ad8d9","ios":"levelo://app?vid=b85906c2-3d48-4e1a-bc20-d824599ad8d9"},"vehicle_type_id":"4","last_reported":1748552985,"current_range_meters":14000,"station_id":"ce4bgj12rcd13ifvqbc0","pricing_plan_id":"cebpf4jnsgd1na2vs0mg"},{"bike_id":"41d7891f-eb13-4d0d-95d6-205e27d65967","system_id":"levelo_inurba_marseille","lat":43.30168,"lon":5.381,"is_reserved":false,"is_disabled":false,"rental_uris":{"android":"levelo://app?vid=41d7891f-eb13-4d0d-95d6-205e27d65967","ios":"levelo://app?vid=41d7891f-eb13-4d0d-95d6-205e27d65967"},"vehicle_type_id":"4","last_reported":1748552985,"current_range_meters":14000,"station_id":"ce4bgjp2rcd13ifvqbh0","pricing_plan_id":"cebpf4jnsgd1na2vs0mg"},{"bike_id":"33845ede-2073-4f2d-be0b-d31fd4bd6863","system_id":"levelo_inurba_marseille","lat":43.31305,"lon":5.396842,"is_reserved":false,"is_disabled":false,"rental_uris":{"android":"levelo://app?vid=33845ede-2073-4f2d-be0b-d31fd4bd6863","ios":"levelo://app?vid=33845ede-2073-4f2d-be0b-d31fd4bd6863"},"vehicle_type_id":"4","last_reported":1748552985,"current_range_meters":14000,"station_id":"ce4bgvp2rcd13ifvqcu0","pricing_plan_id":"cebpf4jnsgd1na2vs0mg"},{"bike_id":"c7976280-845b-4c77-bb3e-bc4afeb3150a","system_id":"levelo_inurba_marseille","lat":43.29421,"lon":5.38632,"is_reserved":false,"is_disabled":false,"rental_uris":{"android":"levelo://app?vid=c7976280-845b-4c77-bb3e-bc4afeb3150a","ios":"levelo://app?vid=c7976280-845b-4c77-bb3e-bc4afeb3150a"},"vehicle_type_id":"4","last_reported":1748552985,"current_range_meters":14000,"station_id":"ce4bh2h2rcd13ifvqdh0","pricing_plan_id":"cebpf4jnsgd1na2vs0mg"},{"bike_id":"1a3bfc78-a7fb-4188-bf74-224057e3d99e","system_id":"levelo_inurba_marseille","lat":43.29101,"lon":5.38127,"is_reserved":false,"is_disabled":false,"rental_uris":{"android":"levelo://app?vid=1a3bfc78-a7fb-4188-bf74-224057e3d99e","ios":"levelo://app?vid=1a3bfc78-a7fb-4188-bf74-224057e3d99e"},"vehicle_type_id":"4","last_reported":1748552985,"current_range_meters":14000,"station_id":"ce4bh512rcd13ifvqe2g","pricing_plan_id":"cebpf4jnsgd1na2vs0mg"},{"bike_id":"134eef33-1501-4122-adc4-f3348faba4a2","system_id":"levelo_inurba_marseille","lat":43.27081,"lon":5.38863,"is_reserved":false,"is_disabled":false,"rental_uris":{"android":"levelo://app?vid=134eef33-1501-4122-adc4-f3348faba4a2","ios":"levelo://app?vid=134eef33-1501-4122-adc4-f3348faba4a2"},"vehicle_type_id":"4","last_reported":1748552985,"current_range_meters":14000,"station_id":"ce4bhgh2rcd13ifvqfb0","pricing_plan_id":"cebpf4jnsgd1na2vs0mg"},{"bike_id":"e22389ce-d4fb-4700-9f41-b20a5b9cd3f2","system_id":"levelo_inurba_marseille","lat":43.287022,"lon":5.399798,"is_reserved":false,"is_disabled":false,"rental_uris":{"android":"levelo://app?vid=e22389ce-d4fb-4700-9f41-b20a5b9cd3f2","ios":"levelo://app?vid=e22389ce-d4fb-4700-9f41-b20a5b9cd3f2"},"vehicle_type_id":"4","last_reported":1748552985,"current_range_meters":14000,"station_id":"ce4bho92rcd13ifvqh3g","pricing_plan_id":"cebpf4jnsgd1na2vs0mg"},{"bike_id":"c81bbe6e-138d-4fd7-ab74-b00b6263d429","system_id":"levelo_inurba_marseille","lat":43.28259,"lon":5.39067,"is_reserved":false,"is_disabled":false,"rental_uris":{"android":"levelo://app?vid=c81bbe6e-138d-4fd7-ab74-b00b6263d429","ios":"levelo://app?vid=c81bbe6e-138d-4fd7-ab74-b00b6263d429"},"vehicle_type_id":"4","last_reported":1748552985,"current_range_meters":14400,"station_id":"","pricing_plan_id":"cebpf4jnsgd1na2vs0mg"},{"bike_id":"9eec7d16-f118-48f0-8071-eb3853c7b225","system_id":"levelo_inurba_marseille","lat":43.25637,"lon":5.40501,"is_reserved":false,"is_disabled":false,"rental_uris":{"android":"levelo://app?vid=9eec7d16-f118-48f0-8071-eb3853c7b225","ios":"levelo://app?vid=9eec7d16-f118-48f0-8071-eb3853c7b225"},"vehicle_type_id":"4","last_reported":1748552985,"current_range_meters":14400,"station_id":"","pricing_plan_id":"cebpf4jnsgd1na2vs0mg"},{"bike_id":"1b48d84c-054e-452e-b2de-5412bf97d73d","system_id":"levelo_inurba_marseille","lat":43.30432,"lon":5.39749,"is_reserved":false,"is_disabled":false,"rental_uris":{"android":"levelo://app?vid=1b48d84c-054e-452e-b2de-5412bf97d73d","ios":"levelo://app?vid=1b48d84c-054e-452e-b2de-5412bf97d73d"},"vehicle_type_id":"4","last_reported":1748552985,"current_range_meters":14400,"station_id":"ce4bh092rcd13ifvqd20","pricing_plan_id":"cebpf4jnsgd1na2vs0mg"},{"bike_id":"947a8699-965b-4b0c-85e5-fa9d88893463","system_id":"levelo_inurba_marseille","lat":43.306329,"lon":5.400746,"is_reserved":false,"is_disabled":false,"rental_uris":{"android":"levelo://app?vid=947a8699-965b-4b0c-85e5-fa9d88893463","ios":"levelo://app?vid=947a8699-965b-4b0c-85e5-fa9d88893463"},"vehicle_type_id":"4","last_reported":1748552985,"current_range_meters":14400,"station_id":"ce4bh112rcd13ifvqda0","pricing_plan_id":"cebpf4jnsgd1na2vs0mg"},{"bike_id":"b37f8861-bc0b-4ee6-bf32-9b4615bbc573","system_id":"levelo_inurba_marseille","lat":43.28475,"lon":5.38414,"is_reserved":false,"is_disabled":false,"rental_uris":{"android":"levelo://app?vid=b37f8861-bc0b-4ee6-bf32-9b4615bbc573","ios":"levelo://app?vid=b37f8861-bc0b-4ee6-bf32-9b4615bbc573"},"vehicle_type_id":"4","last_reported":1748552985,"current_range_meters":14400,"station_id":"ce4bh512rcd13ifvqe3g","pricing_plan_id":"cebpf4jnsgd1na2vs0mg"},{"bike_id":"765378e2-59d4-471d-96a5-e6ee4f9f4602","system_id":"levelo_inurba_marseille","lat":43.26051,"lon":5.39382,"is_reserved":false,"is_disabled":false,"rental_uris":{"android":"levelo://app?vid=765378e2-59d4-471d-96a5-e6ee4f9f4602","ios":"levelo://app?vid=765378e2-59d4-471d-96a5-e6ee4f9f4602"},"vehicle_type_id":"4","last_reported":1748552985,"current_range_meters":14400,"station_id":"ce4bhh92rcd13ifvqfj0","pricing_plan_id":"cebpf4jnsgd1na2vs0mg"},{"bike_id":"947c7989-8ab6-4f39-88a8-aa9ee93abed9","system_id":"levelo_inurba_marseille","lat":43.30648,"lon":5.40094,"is_reserved":false,"is_disabled":false,"rental_uris":{"android":"levelo://app?vid=947c7989-8ab6-4f39-88a8-aa9ee93abed9","ios":"levelo://app?vid=947c7989-8ab6-4f39-88a8-aa9ee93abed9"},"vehicle_type_id":"4","last_reported":1748552985,"current_range_meters":14800,"station_id":"ce4bh112rcd13ifvqda0","pricing_plan_id":"cebpf4jnsgd1na2vs0mg"},{"bike_id":"a1ebab3e-8b37-4907-a0cb-6dab147cbf5d","system_id":"levelo_inurba_marseille","lat":43.28691,"lon":5.37378,"is_reserved":false,"is_disabled":false,"rental_uris":{"android":"levelo://app?vid=a1ebab3e-8b37-4907-a0cb-6dab147cbf5d","ios":"levelo://app?vid=a1ebab3e-8b37-4907-a0cb-6dab147cbf5d"},"vehicle_type_id":"4","last_reported":1748552985,"current_range_meters":14800,"station_id":"ce4bh3p2rcd13ifvqdq0","pricing_plan_id":"cebpf4jnsgd1na2vs0mg"},{"bike_id":"fa7a6931-eb34-4c2c-9de5-2dd24d5be8a8","system_id":"levelo_inurba_marseille","lat":43.28461,"lon":5.35891,"is_reserved":false,"is_disabled":false,"rental_uris":{"android":"levelo://app?vid=fa7a6931-eb34-4c2c-9de5-2dd24d5be8a8","ios":"levelo://app?vid=fa7a6931-eb34-4c2c-9de5-2dd24d5be8a8"},"vehicle_type_id":"4","last_reported":1748552985,"current_range_meters":14800,"station_id":"ce4bhah2rcd13ifvqei0","pricing_plan_id":"cebpf4jnsgd1na2vs0mg"},{"bike_id":"94d74484-c00f-4773-98b4-43f5ef9035c3","system_id":"levelo_inurba_marseille","lat":43.26201,"lon":5.40403,"is_reserved":false,"is_disabled":false,"rental_uris":{"android":"levelo://app?vid=94d74484-c00f-4773-98b4-43f5ef9035c3","ios":"levelo://app?vid=94d74484-c00f-4773-98b4-43f5ef9035c3"},"vehicle_type_id":"4","last_reported":1748552985,"current_range_meters":14800,"station_id":"ce4bhmh2rcd13ifvqgmg","pricing_plan_id":"cebpf4jnsgd1na2vs0mg"},{"bike_id":"344a866c-ee19-4181-b338-3c16d43ff6f2","system_id":"levelo_inurba_marseille","lat":43.33723,"lon":5.39182,"is_reserved":false,"is_disabled":false,"rental_uris":{"android":"levelo://app?vid=344a866c-ee19-4181-b338-3c16d43ff6f2","ios":"levelo://app?vid=344a866c-ee19-4181-b338-3c16d43ff6f2"},"vehicle_type_id":"4","last_reported":1748552985,"current_range_meters":14800,"station_id":"ce4bhr92rcd13ifvqhsg","pricing_plan_id":"cebpf4jnsgd1na2vs0mg"},{"bike_id":"d041ba9b-b157-420b-92de-857f860b4947","system_id":"levelo_inurba_marseille","lat":43.28229,"lon":5.39034,"is_reserved":false,"is_disabled":false,"rental_uris":{"android":"levelo://app?vid=d041ba9b-b157-420b-92de-857f860b4947","ios":"levelo://app?vid=d041ba9b-b157-420b-92de-857f860b4947"},"vehicle_type_id":"4","last_reported":1748552985,"current_range_meters":15200,"station_id":"","pricing_plan_id":"cebpf4jnsgd1na2vs0mg"},{"bike_id":"ece14277-a1e5-45de-b872-3b5401b47b8b","system_id":"levelo_inurba_marseille","lat":43.30886,"lon":5.37184,"is_reserved":false,"is_disabled":false,"rental_uris":{"android":"levelo://app?vid=ece14277-a1e5-45de-b872-3b5401b47b8b","ios":"levelo://app?vid=ece14277-a1e5-45de-b872-3b5401b47b8b"},"vehicle_type_id":"4","last_reported":1748552985,"current_range_meters":15200,"station_id":"ce4bguh2rcd13ifvqckg","pricing_plan_id":"cebpf4jnsgd1na2vs0mg"},{"bike_id":"b2a6a94f-562b-430d-968b-557e39b40e29","system_id":"levelo_inurba_marseille","lat":43.31086,"lon":5.38344,"is_reserved":false,"is_disabled":false,"rental_uris":{"android":"levelo://app?vid=b2a6a94f-562b-430d-968b-557e39b40e29","ios":"levelo://app?vid=b2a6a94f-562b-430d-968b-557e39b40e29"},"vehicle_type_id":"4","last_reported":1748552985,"current_range_meters":15200,"station_id":"ce4bgv92rcd13ifvqcr0","pricing_plan_id":"cebpf4jnsgd1na2vs0mg"},{"bike_id":"a7056755-4e96-4192-81b8-b0f1d3393217","system_id":"levelo_inurba_marseille","lat":43.24388,"lon":5.37055,"is_reserved":false,"is_disabled":false,"rental_uris":{"android":"levelo://app?vid=a7056755-4e96-4192-81b8-b0f1d3393217","ios":"levelo://app?vid=a7056755-4e96-4192-81b8-b0f1d3393217"},"vehicle_type_id":"4","last_reported":1748552985,"current_range_meters":15200,"station_id":"ce4bhhh2rcd13ifvqfk0","pricing_plan_id":"cebpf4jnsgd1na2vs0mg"},{"bike_id":"b9cf60ac-8d8b-4d57-9445-677dba669cfe","system_id":"levelo_inurba_marseille","lat":43.25586,"lon":5.38235,"is_reserved":false,"is_disabled":false,"rental_uris":{"android":"levelo://app?vid=b9cf60ac-8d8b-4d57-9445-677dba669cfe","ios":"levelo://app?vid=b9cf60ac-8d8b-4d57-9445-677dba669cfe"},"vehicle_type_id":"4","last_reported":1748552985,"current_range_meters":15200,"station_id":"ce4bhih2rcd13ifvqfs0","pricing_plan_id":"cebpf4jnsgd1na2vs0mg"},{"bike_id":"7d4ba91c-7a7a-4535-9018-7a0082a8e326","system_id":"levelo_inurba_marseille","lat":43.27944,"lon":5.41046,"is_reserved":false,"is_disabled":false,"rental_uris":{"android":"levelo://app?vid=7d4ba91c-7a7a-4535-9018-7a0082a8e326","ios":"levelo://app?vid=7d4ba91c-7a7a-4535-9018-7a0082a8e326"},"vehicle_type_id":"4","last_reported":1748552985,"current_range_meters":15200,"station_id":"ce4bhnp2rcd13ifvqh0g","pricing_plan_id":"cebpf4jnsgd1na2vs0mg"},{"bike_id":"7243d7c8-02f5-4392-89cf-8c360e846d55","system_id":"levelo_inurba_marseille","lat":43.25278,"lon":5.37825,"is_reserved":false,"is_disabled":false,"rental_uris":{"android":"levelo://app?vid=7243d7c8-02f5-4392-89cf-8c360e846d55","ios":"levelo://app?vid=7243d7c8-02f5-4392-89cf-8c360e846d55"},"vehicle_type_id":"4","last_reported":1748552985,"current_range_meters":16000,"station_id":"","pricing_plan_id":"cebpf4jnsgd1na2vs0mg"},{"bike_id":"4b0d450b-2531-4067-a316-5078545512a9","system_id":"levelo_inurba_marseille","lat":43.29617,"lon":5.38093,"is_reserved":false,"is_disabled":false,"rental_uris":{"android":"levelo://app?vid=4b0d450b-2531-4067-a316-5078545512a9","ios":"levelo://app?vid=4b0d450b-2531-4067-a316-5078545512a9"},"vehicle_type_id":"4","last_reported":1748552985,"current_range_meters":16000,"station_id":"ce4bgl12rcd13ifvqbo0","pricing_plan_id":"cebpf4jnsgd1na2vs0mg"},{"bike_id":"9b8c8665-ef63-45c8-aff5-1c0f6a4a89f7","system_id":"levelo_inurba_marseille","lat":43.31088,"lon":5.38363,"is_reserved":false,"is_disabled":false,"rental_uris":{"android":"levelo://app?vid=9b8c8665-ef63-45c8-aff5-1c0f6a4a89f7","ios":"levelo://app?vid=9b8c8665-ef63-45c8-aff5-1c0f6a4a89f7"},"vehicle_type_id":"4","last_reported":1748552985,"current_range_meters":16000,"station_id":"ce4bgv92rcd13ifvqcr0","pricing_plan_id":"cebpf4jnsgd1na2vs0mg"},{"bike_id":"9fe1e697-36ec-421f-b0be-031c2f5ed7f3","system_id":"levelo_inurba_marseille","lat":43.33795,"lon":5.37427,"is_reserved":false,"is_disabled":false,"rental_uris":{"android":"levelo://app?vid=9fe1e697-36ec-421f-b0be-031c2f5ed7f3","ios":"levelo://app?vid=9fe1e697-36ec-421f-b0be-031c2f5ed7f3"},"vehicle_type_id":"4","last_reported":1748552985,"current_range_meters":16400,"station_id":"","pricing_plan_id":"cebpf4jnsgd1na2vs0mg"},{"bike_id":"9e077e27-33c0-4331-96cc-ce43f93f1c2b","system_id":"levelo_inurba_marseille","lat":43.267315,"lon":5.372088,"is_reserved":false,"is_disabled":false,"rental_uris":{"android":"levelo://app?vid=9e077e27-33c0-4331-96cc-ce43f93f1c2b","ios":"levelo://app?vid=9e077e27-33c0-4331-96cc-ce43f93f1c2b"},"vehicle_type_id":"4","last_reported":1748552985,"current_range_meters":16400,"station_id":"","pricing_plan_id":"cebpf4jnsgd1na2vs0mg"},{"bike_id":"a511d578-129f-44e0-a573-a31884933e6b","system_id":"levelo_inurba_marseille","lat":43.27515,"lon":5.4093,"is_reserved":false,"is_disabled":false,"rental_uris":{"android":"levelo://app?vid=a511d578-129f-44e0-a573-a31884933e6b","ios":"levelo://app?vid=a511d578-129f-44e0-a573-a31884933e6b"},"vehicle_type_id":"4","last_reported":1748552985,"current_range_meters":16400,"station_id":"","pricing_plan_id":"cebpf4jnsgd1na2vs0mg"},{"bike_id":"15dd6021-2eac-4959-9ad2-8e3d6ee93833","system_id":"levelo_inurba_marseille","lat":43.30434,"lon":5.38887,"is_reserved":false,"is_disabled":false,"rental_uris":{"android":"levelo://app?vid=15dd6021-2eac-4959-9ad2-8e3d6ee93833","ios":"levelo://app?vid=15dd6021-2eac-4959-9ad2-8e3d6ee93833"},"vehicle_type_id":"4","last_reported":1748552985,"current_range_meters":16400,"station_id":"ce4bgk12rcd13ifvqbi0","pricing_plan_id":"cebpf4jnsgd1na2vs0mg"},{"bike_id":"1332a20e-ca24-4c75-921e-e6e14530fe23","system_id":"levelo_inurba_marseille","lat":43.31067,"lon":5.38349,"is_reserved":false,"is_disabled":false,"rental_uris":{"android":"levelo://app?vid=1332a20e-ca24-4c75-921e-e6e14530fe23","ios":"levelo://app?vid=1332a20e-ca24-4c75-921e-e6e14530fe23"},"vehicle_type_id":"4","last_reported":1748552985,"current_range_meters":16400,"station_id":"ce4bgv92rcd13ifvqcr0","pricing_plan_id":"cebpf4jnsgd1na2vs0mg"},{"bike_id":"18b13977-375c-4da1-b1e8-2b0d0ef9b74a","system_id":"levelo_inurba_marseille","lat":43.302251,"lon":5.39474,"is_reserved":false,"is_disabled":false,"rental_uris":{"android":"levelo://app?vid=18b13977-375c-4da1-b1e8-2b0d0ef9b74a","ios":"levelo://app?vid=18b13977-375c-4da1-b1e8-2b0d0ef9b74a"},"vehicle_type_id":"4","last_reported":1748552985,"current_range_meters":16800,"station_id":"ce4bh0p2rcd13ifvqd70","pricing_plan_id":"cebpf4jnsgd1na2vs0mg"},{"bike_id":"13bed428-c03a-4684-8d63-d182e8dca0c1","system_id":"levelo_inurba_marseille","lat":43.29422,"lon":5.38615,"is_reserved":false,"is_disabled":false,"rental_uris":{"android":"levelo://app?vid=13bed428-c03a-4684-8d63-d182e8dca0c1","ios":"levelo://app?vid=13bed428-c03a-4684-8d63-d182e8dca0c1"},"vehicle_type_id":"4","last_reported":1748552985,"current_range_meters":16800,"station_id":"ce4bh2h2rcd13ifvqdh0","pricing_plan_id":"cebpf4jnsgd1na2vs0mg"},{"bike_id":"9c1a94e8-d480-4370-be72-0693c2dc19a1","system_id":"levelo_inurba_marseille","lat":43.292585,"lon":5.38449,"is_reserved":false,"is_disabled":false,"rental_uris":{"android":"levelo://app?vid=9c1a94e8-d480-4370-be72-0693c2dc19a1","ios":"levelo://app?vid=9c1a94e8-d480-4370-be72-0693c2dc19a1"},"vehicle_type_id":"4","last_reported":1748552985,"current_range_meters":16800,"station_id":"ce4bh692rcd13ifvqea0","pricing_plan_id":"cebpf4jnsgd1na2vs0mg"},{"bike_id":"45fe38e3-f8b0-4003-b3b2-7f189c52b654","system_id":"levelo_inurba_marseille","lat":43.27923,"lon":5.39577,"is_reserved":false,"is_disabled":false,"rental_uris":{"android":"levelo://app?vid=45fe38e3-f8b0-4003-b3b2-7f189c52b654","ios":"levelo://app?vid=45fe38e3-f8b0-4003-b3b2-7f189c52b654"},"vehicle_type_id":"4","last_reported":1748552985,"current_range_meters":16800,"station_id":"ce4bhf92rcd13ifvqf40","pricing_plan_id":"cebpf4jnsgd1na2vs0mg"},{"bike_id":"9b063145-9892-46c1-b082-bfb3171bdc92","system_id":"levelo_inurba_marseille","lat":43.27209,"lon":5.39184,"is_reserved":false,"is_disabled":false,"rental_uris":{"android":"levelo://app?vid=9b063145-9892-46c1-b082-bfb3171bdc92","ios":"levelo://app?vid=9b063145-9892-46c1-b082-bfb3171bdc92"},"vehicle_type_id":"4","last_reported":1748552985,"current_range_meters":16800,"station_id":"ce4bhhp2rcd13ifvqfm0","pricing_plan_id":"cebpf4jnsgd1na2vs0mg"},{"bike_id":"827f1f16-377c-4cca-b56c-dd915c49ebe2","system_id":"levelo_inurba_marseille","lat":43.25825,"lon":5.39431,"is_reserved":false,"is_disabled":false,"rental_uris":{"android":"levelo://app?vid=827f1f16-377c-4cca-b56c-dd915c49ebe2","ios":"levelo://app?vid=827f1f16-377c-4cca-b56c-dd915c49ebe2"},"vehicle_type_id":"4","last_reported":1748552985,"current_range_meters":16800,"station_id":"ce4bhip2rcd13ifvqft0","pricing_plan_id":"cebpf4jnsgd1na2vs0mg"},{"bike_id":"2236b6c0-f763-40f5-8e40-14b379518f91","system_id":"levelo_inurba_marseille","lat":43.246208,"lon":5.39303,"is_reserved":false,"is_disabled":false,"rental_uris":{"android":"levelo://app?vid=2236b6c0-f763-40f5-8e40-14b379518f91","ios":"levelo://app?vid=2236b6c0-f763-40f5-8e40-14b379518f91"},"vehicle_type_id":"4","last_reported":1748552985,"current_range_meters":17200,"station_id":"","pricing_plan_id":"cebpf4jnsgd1na2vs0mg"},{"bike_id":"d6446272-c8e8-41e6-8cb0-b8626f3d724b","system_id":"levelo_inurba_marseille","lat":43.30948,"lon":5.39028,"is_reserved":false,"is_disabled":false,"rental_uris":{"android":"levelo://app?vid=d6446272-c8e8-41e6-8cb0-b8626f3d724b","ios":"levelo://app?vid=d6446272-c8e8-41e6-8cb0-b8626f3d724b"},"vehicle_type_id":"4","last_reported":1748552985,"current_range_meters":17200,"station_id":"ce4bgup2rcd13ifvqco0","pricing_plan_id":"cebpf4jnsgd1na2vs0mg"},{"bike_id":"07a859cc-1cff-40ca-b1c6-288543a3ee14","system_id":"levelo_inurba_marseille","lat":43.29421,"lon":5.38626,"is_reserved":false,"is_disabled":false,"rental_uris":{"android":"levelo://app?vid=07a859cc-1cff-40ca-b1c6-288543a3ee14","ios":"levelo://app?vid=07a859cc-1cff-40ca-b1c6-288543a3ee14"},"vehicle_type_id":"4","last_reported":1748552985,"current_range_meters":17200,"station_id":"ce4bh2h2rcd13ifvqdh0","pricing_plan_id":"cebpf4jnsgd1na2vs0mg"},{"bike_id":"f88bbe6c-a209-4a57-9ca5-e7a013dcb932","system_id":"levelo_inurba_marseille","lat":43.29579,"lon":5.39975,"is_reserved":false,"is_disabled":false,"rental_uris":{"android":"levelo://app?vid=f88bbe6c-a209-4a57-9ca5-e7a013dcb932","ios":"levelo://app?vid=f88bbe6c-a209-4a57-9ca5-e7a013dcb932"},"vehicle_type_id":"4","last_reported":1748552985,"current_range_meters":17200,"station_id":"ce4bh312rcd13ifvqdj0","pricing_plan_id":"cebpf4jnsgd1na2vs0mg"},{"bike_id":"460510bd-7e2b-4b3e-9d45-a676b67b391f","system_id":"levelo_inurba_marseille","lat":43.29032,"lon":5.38645,"is_reserved":false,"is_disabled":false,"rental_uris":{"android":"levelo://app?vid=460510bd-7e2b-4b3e-9d45-a676b67b391f","ios":"levelo://app?vid=460510bd-7e2b-4b3e-9d45-a676b67b391f"},"vehicle_type_id":"4","last_reported":1748552985,"current_range_meters":17200,"station_id":"ce4bh4p2rcd13ifvqe0g","pricing_plan_id":"cebpf4jnsgd1na2vs0mg"},{"bike_id":"8050d716-3382-493f-9869-f23f395e9533","system_id":"levelo_inurba_marseille","lat":43.2872,"lon":5.37942,"is_reserved":false,"is_disabled":false,"rental_uris":{"android":"levelo://app?vid=8050d716-3382-493f-9869-f23f395e9533","ios":"levelo://app?vid=8050d716-3382-493f-9869-f23f395e9533"},"vehicle_type_id":"4","last_reported":1748552985,"current_range_meters":17200,"station_id":"ce4bh9p2rcd13ifvqec0","pricing_plan_id":"cebpf4jnsgd1na2vs0mg"},{"bike_id":"5136fe86-b4e4-4ca4-8fbe-d5b7d8a48e43","system_id":"levelo_inurba_marseille","lat":43.27034,"lon":5.40278,"is_reserved":false,"is_disabled":false,"rental_uris":{"android":"levelo://app?vid=5136fe86-b4e4-4ca4-8fbe-d5b7d8a48e43","ios":"levelo://app?vid=5136fe86-b4e4-4ca4-8fbe-d5b7d8a48e43"},"vehicle_type_id":"4","last_reported":1748552985,"current_range_meters":17200,"station_id":"ce4bhk92rcd13ifvqgc0","pricing_plan_id":"cebpf4jnsgd1na2vs0mg"},{"bike_id":"b08361b1-e7ec-4a5b-8edb-7c4c7ccf8a2b","system_id":"levelo_inurba_marseille","lat":43.32112,"lon":5.36767,"is_reserved":false,"is_disabled":false,"rental_uris":{"android":"levelo://app?vid=b08361b1-e7ec-4a5b-8edb-7c4c7ccf8a2b","ios":"levelo://app?vid=b08361b1-e7ec-4a5b-8edb-7c4c7ccf8a2b"},"vehicle_type_id":"4","last_reported":1748552985,"current_range_meters":17200,"station_id":"ce4bhrh2rcd13ifvqhug","pricing_plan_id":"cebpf4jnsgd1na2vs0mg"},{"bike_id":"fd7ad8b5-d599-4a91-b59b-ac2aa9cb4f73","system_id":"levelo_inurba_marseille","lat":43.27145,"lon":5.40022,"is_reserved":false,"is_disabled":false,"rental_uris":{"android":"levelo://app?vid=fd7ad8b5-d599-4a91-b59b-ac2aa9cb4f73","ios":"levelo://app?vid=fd7ad8b5-d599-4a91-b59b-ac2aa9cb4f73"},"vehicle_type_id":"4","last_reported":1748552985,"current_range_meters":17600,"station_id":"","pricing_plan_id":"cebpf4jnsgd1na2vs0mg"},{"bike_id":"d6d1ada7-d095-4848-a9c7-71d520f6d868","system_id":"levelo_inurba_marseille","lat":43.299666,"lon":5.384894,"is_reserved":false,"is_disabled":false,"rental_uris":{"android":"levelo://app?vid=d6d1ada7-d095-4848-a9c7-71d520f6d868","ios":"levelo://app?vid=d6d1ada7-d095-4848-a9c7-71d520f6d868"},"vehicle_type_id":"4","last_reported":1748552985,"current_range_meters":17600,"station_id":"","pricing_plan_id":"cebpf4jnsgd1na2vs0mg"},{"bike_id":"b18036e4-cdbb-441f-a4f1-99c9cdbece34","system_id":"levelo_inurba_marseille","lat":43.2942,"lon":5.3861,"is_reserved":false,"is_disabled":false,"rental_uris":{"android":"levelo://app?vid=b18036e4-cdbb-441f-a4f1-99c9cdbece34","ios":"levelo://app?vid=b18036e4-cdbb-441f-a4f1-99c9cdbece34"},"vehicle_type_id":"4","last_reported":1748552985,"current_range_meters":17600,"station_id":"","pricing_plan_id":"cebpf4jnsgd1na2vs0mg"},