{"last_updated":1734182194,"ttl":60,"version":"2.2","data":{"bikes":[{"bike_id":"45c22bfb-3859-46ca-bbdd-b43970628095","system_id":"levelo_inurba_marseille","lat":43.23196,"lon":5.39996,"is_reserved":false,"is_disabled":false,"rental_uris":{"android":"levelo://app?vid=45c22bfb-3859-46ca-bbdd-b43970628095","ios":"levelo://app?vid=45c22bfb-3859-46ca-bbdd-b43970628095"},"vehicle_type_id":"4","last_reported":1734182195,"current_range_meters":22000,"station_id":"ce4bhn12rcd13ifvqgqg","pricing_plan_id":"cebpf4jnsgd1na2vs0mg"},{"bike_id":"3e5d99b9-1aaf-48b9-b5fb-fb7a0b5b1ba5","system_id":"levelo_inurba_marseille","lat":43.29035,"lon":5.39232,"is_reserved":false,"is_disabled":true,"rental_uris":{"android":"levelo://app?vid=3e5d99b9-1aaf-48b9-b5fb-fb7a0b5b1ba5","ios":"levelo://app?vid=3e5d99b9-1aaf-48b9-b5fb-fb7a0b5b1ba5"},"vehicle_type_id":"4","last_reported":1734182195,"current_range_meters":0,"station_id":"","pricing_plan_id":"cebpf4jnsgd1na2vs0mg"},{"bike_id":"070c0347-a6c0-4c09-97eb-b827f7adc81e","system_id":"levelo_inurba_marseille","lat":43.24644,"lon":5.38902,"is_reserved":false,"is_disabled":false,"rental_uris":{"android":"levelo://app?vid=070c0347-a6c0-4c09-97eb-b827f7adc81e","ios":"levelo://app?vid=070c0347-a6c0-4c09-97eb-b827f7adc81e"},"vehicle_type_id":"4","last_reported":1734182195,"current_range_meters":38400,"station_id":"ce4bhg12rcd13ifvqf60","pricing_plan_id":"cebpf4jnsgd1na2vs0mg"},{"bike_id":"e979fa91-f21d-48b3-9d03-e7130f953ddb","system_id":"levelo_inurba_marseille","lat":43.23193,"lon":5.35554,"is_reserved":false,"is_disabled":false,"rental_uris":{"android":"levelo://app?vid=e979fa91-f21d-48b3-9d03-e7130f953ddb","ios":"levelo://app?vid=e979fa91-f21d-48b3-9d03-e7130f953ddb"},"vehicle_type_id":"4","last_reported":1734182195,"current_range_meters":18000,"station_id":"ce4bhu92rcd13ifvqi70","pricing_plan_id":"cebpf4jnsgd1na2vs0mg"},{"bike_id":"548b71d6-57f8-4fef-ad05-d9f3c9d122d8","system_id":"levelo_inurba_marseille","lat":43.23143,"lon":5.43718,"is_reserved":false,"is_disabled":false,"rental_uris":{"android":"levelo://app?vid=548b71d6-57f8-4fef-ad05-d9f3c9d122d8","ios":"levelo://app?vid=548b71d6-57f8-4fef-ad05-d9f3c9d122d8"},"vehicle_type_id":"4","last_reported":1734182195,"current_range_meters":30800,"station_id":"ce4bhmp2rcd13ifvqgog","pricing_plan_id":"cebpf4jnsgd1na2vs0mg"},{"bike_id":"0f5e18f1-bfd1-4c84-8638-1e7bc8dced86","system_id":"levelo_inurba_marseille","lat":43.290615,"lon":5.381223,"is_reserved":false,"is_disabled":false,"rental_uris":{"android":"levelo://app?vid=0f5e18f1-bfd1-4c84-8638-1e7bc8dced86","ios":"levelo://app?vid=0f5e18f1-bfd1-4c84-8638-1e7bc8dced86"},"vehicle_type_id":"4","last_reported":1734182195,"current_range_meters":36400,"station_id":"ce4bh512rcd13ifvqe2g","pricing_plan_id":"cebpf4jnsgd1na2vs0mg"},{"bike_id":"0062dd31-cd0f-45b0-be29-6f981fa2a365","system_id":"levelo_inurba_marseille","lat":43.29191,"lon":5.35805,"is_reserved":false,"is_disabled":false,"rental_uris":{"android":"levelo://app?vid=0062dd31-cd0f-45b0-be29-6f981fa2a365","ios":"levelo://app?vid=0062dd31-cd0f-45b0-be29-6f981fa2a365"},"vehicle_type_id":"4","last_reported":1734182195,"current_range_meters":34000,"station_id":"ce4bhb12rcd13ifvqel0","pricing_plan_id":"cebpf4jnsgd1na2vs0mg"},{"bike_id":"35642114-ba9f-4cd0-9d6f-a2edaa6e597b","system_id":"levelo_inurba_marseille","lat":43.30459,"lon":5.37896,"is_reserved":false,"is_disabled":false,"rental_uris":{"android":"levelo://app?vid=35642114-ba9f-4cd0-9d6f-a2edaa6e597b","ios":"levelo://app?vid=35642114-ba9f-4cd0-9d6f-a2edaa6e597b"},"vehicle_type_id":"4","last_reported":1734182195,"current_range_meters":13600,"station_id":"ce4bgup2rcd13ifvqcn0","pricing_plan_id":"cebpf4jnsgd1na2vs0mg"},{"bike_id":"e3e2c755-2983-4a51-89a6-24322fb4142f","system_id":"levelo_inurba_marseille","lat":43.25003,"lon":5.38913,"is_reserved":false,"is_disabled":false,"rental_uris":{"android":"levelo://app?vid=e3e2c755-2983-4a51-89a6-24322fb4142f","ios":"levelo://app?vid=e3e2c755-2983-4a51-89a6-24322fb4142f"},"vehicle_type_id":"4","last_reported":1734182195,"current_range_meters":22800,"station_id":"ce4bhgp2rcd13ifvqfd0","pricing_plan_id":"cebpf4jnsgd1na2vs0mg"},{"bike_id":"efe077df-31a7-4436-941f-2dae1b72b731","system_id":"levelo_inurba_marseille","lat":43.24384,"lon":5.37049,"is_reserved":false,"is_disabled":false,"rental_uris":{"android":"levelo://app?vid=efe077df-31a7-4436-941f-2dae1b72b731","ios":"levelo://app?vid=efe077df-31a7-4436-941f-2dae1b72b731"},"vehicle_type_id":"4","last_reported":1734182195,"current_range_meters":14400,"station_id":"ce4bhhh2rcd13ifvqfk0","pricing_plan_id":"cebpf4jnsgd1na2vs0mg"},{"bike_id":"0e6971e9-c558-4b8e-8f60-6b2ff20a0b4e","system_id":"levelo_inurba_marseille","lat":43.27055,"lon":5.40267,"is_reserved":false,"is_disabled":false,"rental_uris":{"android":"levelo://app?vid=0e6971e9-c558-4b8e-8f60-6b2ff20a0b4e","ios":"levelo://app?vid=0e6971e9-c558-4b8e-8f60-6b2ff20a0b4e"},"vehicle_type_id":"4","last_reported":1734182195,"current_range_meters":14000,"station_id":"ce4bhk92rcd13ifvqgc0","pricing_plan_id":"cebpf4jnsgd1na2vs0mg"},{"bike_id":"12b41851-cbb7-4429-867e-d2fc3a956599","system_id":"levelo_inurba_marseille","lat":43.24803,"lon":5.37454,"is_reserved":false,"is_disabled":false,"rental_uris":{"android":"levelo://app?vid=12b41851-cbb7-4429-867e-d2fc3a956599","ios":"levelo://app?vid=12b41851-cbb7-4429-867e-d2fc3a956599"},"vehicle_type_id":"4","last_reported":1734182195,"current_range_meters":8800,"station_id":"ce4bhgh2rcd13ifvqfb0","pricing_plan_id":"cebpf4jnsgd1na2vs0mg"},{"bike_id":"78fceda4-04cc-49af-b826-31345f6ea759","system_id":"levelo_inurba_marseille","lat":43.29977,"lon":5.38499,"is_reserved":false,"is_disabled":false,"rental_uris":{"android":"levelo://app?vid=78fceda4-04cc-49af-b826-31345f6ea759","ios":"levelo://app?vid=78fceda4-04cc-49af-b826-31345f6ea759"},"vehicle_type_id":"4","last_reported":1734182195,"current_range_meters":18000,"station_id":"ce4bgj92rcd13ifvqbd0","pricing_plan_id":"cebpf4jnsgd1na2vs0mg"},{"bike_id":"92911da1-35ed-4153-b20b-4efa12b925ae","system_id":"levelo_inurba_marseille","lat":43.29973,"lon":5.37182,"is_reserved":false,"is_disabled":false,"rental_uris":{"android":"levelo://app?vid=92911da1-35ed-4153-b20b-4efa12b925ae","ios":"levelo://app?vid=92911da1-35ed-4153-b20b-4efa12b925ae"},"vehicle_type_id":"4","last_reported":1734182195,"current_range_meters":24000,"station_id":"ce4bgr92rcd13ifvqc7g","pricing_plan_id":"cebpf4jnsgd1na2vs0mg"},{"bike_id":"c7b061a9-1121-45e7-84c9-388975827d47","system_id":"levelo_inurba_marseille","lat":43.29959,"lon":5.38508,"is_reserved":false,"is_disabled":true,"rental_uris":{"android":"levelo://app?vid=c7b061a9-1121-45e7-84c9-388975827d47","ios":"levelo://app?vid=c7b061a9-1121-45e7-84c9-388975827d47"},"vehicle_type_id":"4","last_reported":1734182195,"current_range_meters":17200,"station_id":"ce4bgj92rcd13ifvqbd0","pricing_plan_id":"cebpf4jnsgd1na2vs0mg"},{"bike_id":"80e5c1e3-8d27-43e3-9451-b00f65b301df","system_id":"levelo_inurba_marseille","lat":43.23191,"lon":5.35566,"is_reserved":false,"is_disabled":false,"rental_uris":{"android":"levelo://app?vid=80e5c1e3-8d27-43e3-9451-b00f65b301df","ios":"levelo://app?vid=80e5c1e3-8d27-43e3-9451-b00f65b301df"},"vehicle_type_id":"4","last_reported":1734182195,"current_range_meters":38800,"station_id":"ce4bhu92rcd13ifvqi70","pricing_plan_id":"cebpf4jnsgd1na2vs0mg"},{"bike_id":"496b9119-850a-49b3-bf98-295bb079ca7c","system_id":"levelo_inurba_marseille","lat":43.28192,"lon":5.44598,"is_reserved":false,"is_disabled":false,"rental_uris":{"android":"levelo://app?vid=496b9119-850a-49b3-bf98-295bb079ca7c","ios":"levelo://app?vid=496b9119-850a-49b3-bf98-295bb079ca7c"},"vehicle_type_id":"4","last_reported":1734182195,"current_range_meters":9600,"station_id":"","pricing_plan_id":"cebpf4jnsgd1na2vs0mg"},{"bike_id":"057c20b7-bf34-40df-bd6f-93a11afceebe","system_id":"levelo_inurba_marseille","lat":43.27993,"lon":5.41663,"is_reserved":false,"is_disabled":false,"rental_uris":{"android":"levelo://app?vid=057c20b7-bf34-40df-bd6f-93a11afceebe","ios":"levelo://app?vid=057c20b7-bf34-40df-bd6f-93a11afceebe"},"vehicle_type_id":"4","last_reported":1734182195,"current_range_meters":38000,"station_id":"ce4bho12rcd13ifvqh1g","pricing_plan_id":"cebpf4jnsgd1na2vs0mg"},{"bike_id":"88f2033b-7e30-4fec-967e-f2db67085ede","system_id":"levelo_inurba_marseille","lat":43.34128,"lon":5.40905,"is_reserved":false,"is_disabled":false,"rental_uris":{"android":"levelo://app?vid=88f2033b-7e30-4fec-967e-f2db67085ede","ios":"levelo://app?vid=88f2033b-7e30-4fec-967e-f2db67085ede"},"vehicle_type_id":"4","last_reported":1734182195,"current_range_meters":38800,"station_id":"ce4bhqh2rcd13ifvqhlg","pricing_plan_id":"cebpf4jnsgd1na2vs0mg"},{"bike_id":"16a469e4-ec81-4d89-978c-63cc0dbfdb0b","system_id":"levelo_inurba_marseille","lat":43.24994,"lon":5.38932,"is_reserved":false,"is_disabled":false,"rental_uris":{"android":"levelo://app?vid=16a469e4-ec81-4d89-978c-63cc0dbfdb0b","ios":"levelo://app?vid=16a469e4-ec81-4d89-978c-63cc0dbfdb0b"},"vehicle_type_id":"4","last_reported":1734182195,"current_range_meters":16000,"station_id":"ce4bhgp2rcd13ifvqfd0","pricing_plan_id":"cebpf4jnsgd1na2vs0mg"},{"bike_id":"14a28f16-bca2-46c1-a938-c9ea642ba479","system_id":"levelo_inurba_marseille","lat":43.30585,"lon":5.39354,"is_reserved":false,"is_disabled":false,"rental_uris":{"android":"levelo://app?vid=14a28f16-bca2-46c1-a938-c9ea642ba479","ios":"levelo://app?vid=14a28f16-bca2-46c1-a938-c9ea642ba479"},"vehicle_type_id":"4","last_reported":1734182195,"current_range_meters":28400,"station_id":"ce4bh0p2rcd13ifvqd80","pricing_plan_id":"cebpf4jnsgd1na2vs0mg"},{"bike_id":"d5c89c1f-3bad-4af2-9449-e04c277a4696","system_id":"levelo_inurba_marseille","lat":43.29965,"lon":5.41332,"is_reserved":false,"is_disabled":true,"rental_uris":{"android":"levelo://app?vid=d5c89c1f-3bad-4af2-9449-e04c277a4696","ios":"levelo://app?vid=d5c89c1f-3bad-4af2-9449-e04c277a4696"},"vehicle_type_id":"4","last_reported":1734182195,"current_range_meters":38800,"station_id":"ce4bhp12rcd13ifvqh9g","pricing_plan_id":"cebpf4jnsgd1na2vs0mg"},{"bike_id":"aacca1c6-64dd-4994-93c0-0a19812b0aef","system_id":"levelo_inurba_marseille","lat":43.281022,"lon":5.3783,"is_reserved":false,"is_disabled":false,"rental_uris":{"android":"levelo://app?vid=aacca1c6-64dd-4994-93c0-0a19812b0aef","ios":"levelo://app?vid=aacca1c6-64dd-4994-93c0-0a19812b0aef"},"vehicle_type_id":"4","last_reported":1734182195,"current_range_meters":28400,"station_id":"ce4bha12rcd13ifvqee0","pricing_plan_id":"cebpf4jnsgd1na2vs0mg"},{"bike_id":"5dcb142e-3766-4e2c-b1fe-c9ebbc5d3c50","system_id":"levelo_inurba_marseille","lat":43.32,"lon":5.38165,"is_reserved":false,"is_disabled":false,"rental_uris":{"android":"levelo://app?vid=5dcb142e-3766-4e2c-b1fe-c9ebbc5d3c50","ios":"levelo://app?vid=5dcb142e-3766-4e2c-b1fe-c9ebbc5d3c50"},"vehicle_type_id":"4","last_reported":1734182195,"current_range_meters":38800,"station_id":"ce4bhr12rcd13ifvqhpg","pricing_plan_id":"cebpf4jnsgd1na2vs0mg"},{"bike_id":"861d1a1b-c380-4d3c-a924-e0c08e4efb49","system_id":"levelo_inurba_marseille","lat":43.28856,"lon":5.3585,"is_reserved":false,"is_disabled":true,"rental_uris":{"android":"levelo://app?vid=861d1a1b-c380-4d3c-a924-e0c08e4efb49","ios":"levelo://app?vid=861d1a1b-c380-4d3c-a924-e0c08e4efb49"},"vehicle_type_id":"4","last_reported":1734182195,"current_range_meters":1200,"station_id":"ce4bhb12rcd13ifvqem0","pricing_plan_id":"cebpf4jnsgd1na2vs0mg"},{"bike_id":"a7b8257e-8dd8-4089-b34c-9c18012a63d0","system_id":"levelo_inurba_marseille","lat":43.23137,"lon":5.43671,"is_reserved":false,"is_disabled":false,"rental_uris":{"android":"levelo://app?vid=a7b8257e-8dd8-4089-b34c-9c18012a63d0","ios":"levelo://app?vid=a7b8257e-8dd8-4089-b34c-9c18012a63d0"},"vehicle_type_id":"4","last_reported":1734182195,"current_range_meters":24000,"station_id":"ce4bhmp2rcd13ifvqgog","pricing_plan_id":"cebpf4jnsgd1na2vs0mg"},{"bike_id":"ba838ee3-c54d-4ede-b6cd-d1685e40e5d7","system_id":"levelo_inurba_marseille","lat":43.23191,"lon":5.39979,"is_reserved":false,"is_disabled":false,"rental_uris":{"android":"levelo://app?vid=ba838ee3-c54d-4ede-b6cd-d1685e40e5d7","ios":"levelo://app?vid=ba838ee3-c54d-4ede-b6cd-d1685e40e5d7"},"vehicle_type_id":"4","last_reported":1734182195,"current_range_meters":27200,"station_id":"ce4bhn12rcd13ifvqgqg","pricing_plan_id":"cebpf4jnsgd1na2vs0mg"},{"bike_id":"61d61022-7266-42d2-824f-90cfb73d7765","system_id":"levelo_inurba_marseille","lat":43.23048,"lon":5.35518,"is_reserved":false,"is_disabled":false,"rental_uris":{"android":"levelo://app?vid=61d61022-7266-42d2-824f-90cfb73d7765","ios":"levelo://app?vid=61d61022-7266-42d2-824f-90cfb73d7765"},"vehicle_type_id":"4","last_reported":1734182195,"current_range_meters":16800,"station_id":"cpo3342slgdg3j2ifvpg","pricing_plan_id":"cebpf4jnsgd1na2vs0mg"},{"bike_id":"595ce88a-34cb-4990-9769-b15c51d16d43","system_id":"levelo_inurba_marseille","lat":43.29303,"lon":5.36816,"is_reserved":false,"is_disabled":true,"rental_uris":{"android":"levelo://app?vid=595ce88a-34cb-4990-9769-b15c51d16d43","ios":"levelo://app?vid=595ce88a-34cb-4990-9769-b15c51d16d43"},"vehicle_type_id":"4","last_reported":1734182195,"current_range_meters":0,"station_id":"ce4bhbp2rcd13ifvqesg","pricing_plan_id":"cebpf4jnsgd1na2vs0mg"},{"bike_id":"b897c0d5-6084-4c29-b1fe-22561f2e81a4","system_id":"levelo_inurba_marseille","lat":43.30183,"lon":5.3664,"is_reserved":false,"is_disabled":false,"rental_uris":{"android":"levelo://app?vid=b897c0d5-6084-4c29-b1fe-22561f2e81a4","ios":"levelo://app?vid=b897c0d5-6084-4c29-b1fe-22561f2e81a4"},"vehicle_type_id":"4","last_reported":1734182195,"current_range_meters":24800,"station_id":"ce4bgrh2rcd13ifvqc8g","pricing_plan_id":"cebpf4jnsgd1na2vs0mg"},{"bike_id":"39150f96-8312-4f6f-8995-2c9e1e8f0798","system_id":"levelo_inurba_marseille","lat":43.25493,"lon":5.37647,"is_reserved":false,"is_disabled":false,"rental_uris":{"android":"levelo://app?vid=39150f96-8312-4f6f-8995-2c9e1e8f0798","ios":"levelo://app?vid=39150f96-8312-4f6f-8995-2c9e1e8f0798"},"vehicle_type_id":"4","last_reported":1734182195,"current_range_meters":37600,"station_id":"ce4bhh12rcd13ifvqff0","pricing_plan_id":"cebpf4jnsgd1na2vs0mg"},{"bike_id":"89276e2c-cf12-42cd-94d6-ea25c23de3f8","system_id":"levelo_inurba_marseille","lat":43.3031,"lon":5.36883,"is_reserved":false,"is_disabled":false,"rental_uris":{"android":"levelo://app?vid=89276e2c-cf12-42cd-94d6-ea25c23de3f8","ios":"levelo://app?vid=89276e2c-cf12-42cd-94d6-ea25c23de3f8"},"vehicle_type_id":"4","last_reported":1734182195,"current_range_meters":38800,"station_id":"ce4bgqh2rcd13ifvqc5g","pricing_plan_id":"cebpf4jnsgd1na2vs0mg"},{"bike_id":"6096a327-73d1-4c04-99a6-02637963dee7","system_id":"levelo_inurba_marseille","lat":43.23147,"lon":5.43726,"is_reserved":false,"is_disabled":false,"rental_uris":{"android":"levelo://app?vid=6096a327-73d1-4c04-99a6-02637963dee7","ios":"levelo://app?vid=6096a327-73d1-4c04-99a6-02637963dee7"},"vehicle_type_id":"4","last_reported":1734182195,"current_range_meters":36000,"station_id":"ce4bhmp2rcd13ifvqgog","pricing_plan_id":"cebpf4jnsgd1na2vs0mg"},{"bike_id":"4fcbc983-6f02-4c3c-8352-f29d7735eab7","system_id":"levelo_inurba_marseille","lat":43.29613,"lon":5.37712,"is_reserved":false,"is_disabled":false,"rental_uris":{"android":"levelo://app?vid=4fcbc983-6f02-4c3c-8352-f29d7735eab7","ios":"levelo://app?vid=4fcbc983-6f02-4c3c-8352-f29d7735eab7"},"vehicle_type_id":"4","last_reported":1734182195,"current_range_meters":36400,"station_id":"ce4bgi92rcd13ifvqb90","pricing_plan_id":"cebpf4jnsgd1na2vs0mg"},{"bike_id":"ff4dd77c-9815-4ceb-84fd-29a29009fea2","system_id":"levelo_inurba_marseille","lat":43.2861,"lon":5.37065,"is_reserved":false,"is_disabled":false,"rental_uris":{"android":"levelo://app?vid=ff4dd77c-9815-4ceb-84fd-29a29009fea2","ios":"levelo://app?vid=ff4dd77c-9815-4ceb-84fd-29a29009fea2"},"vehicle_type_id":"4","last_reported":1734182195,"current_range_meters":36400,"station_id":"ce4bht12rcd13ifvqi60","pricing_plan_id":"cebpf4jnsgd1na2vs0mg"},{"bike_id":"adb72e6c-6128-4ddc-a92d-faae4fed7a1d","system_id":"levelo_inurba_marseille","lat":43.30203,"lon":5.39469,"is_reserved":false,"is_disabled":false,"rental_uris":{"android":"levelo://app?vid=adb72e6c-6128-4ddc-a92d-faae4fed7a1d","ios":"levelo://app?vid=adb72e6c-6128-4ddc-a92d-faae4fed7a1d"},"vehicle_type_id":"4","last_reported":1734182195,"current_range_meters":33600,"station_id":"ce4bh0p2rcd13ifvqd70","pricing_plan_id":"cebpf4jnsgd1na2vs0mg"},{"bike_id":"374b8c78-c612-482d-b5db-7451c70d7b3b","system_id":"levelo_inurba_marseille","lat":43.30547,"lon":5.36541,"is_reserved":false,"is_disabled":false,"rental_uris":{"android":"levelo://app?vid=374b8c78-c612-482d-b5db-7451c70d7b3b","ios":"levelo://app?vid=374b8c78-c612-482d-b5db-7451c70d7b3b"},"vehicle_type_id":"4","last_reported":1734182195,"current_range_meters":24800,"station_id":"ce4bgs12rcd13ifvqcag","pricing_plan_id":"cebpf4jnsgd1na2vs0mg"},{"bike_id":"78dbdccf-cd83-4aaa-aac2-c42bb3e8d303","system_id":"levelo_inurba_marseille","lat":43.27368,"lon":5.36245,"is_reserved":false,"is_disabled":false,"rental_uris":{"android":"levelo://app?vid=78dbdccf-cd83-4aaa-aac2-c42bb3e8d303","ios":"levelo://app?vid=78dbdccf-cd83-4aaa-aac2-c42bb3e8d303"},"vehicle_type_id":"4","last_reported":1734182195,"current_range_meters":34800,"station_id":"ce4bhbh2rcd13ifvqeo0","pricing_plan_id":"cebpf4jnsgd1na2vs0mg"},{"bike_id":"edaea664-24e0-4d6c-aa7a-497f5c5f88f6","system_id":"levelo_inurba_marseille","lat":43.27002,"lon":5.39147,"is_reserved":false,"is_disabled":true,"rental_uris":{"android":"levelo://app?vid=edaea664-24e0-4d6c-aa7a-497f5c5f88f6","ios":"levelo://app?vid=edaea664-24e0-4d6c-aa7a-497f5c5f88f6"},"vehicle_type_id":"4","last_reported":1734182195,"current_range_meters":0,"station_id":"","pricing_plan_id":"cebpf4jnsgd1na2vs0mg"},{"bike_id":"2484138c-ef32-42cb-bb51-1a9e6e94adba","system_id":"levelo_inurba_marseille","lat":43.246937,"lon":5.389282,"is_reserved":false,"is_disabled":false,"rental_uris":{"android":"levelo://app?vid=2484138c-ef32-42cb-bb51-1a9e6e94adba","ios":"levelo://app?vid=2484138c-ef32-42cb-bb51-1a9e6e94adba"},"vehicle_type_id":"4","last_reported":1734182195,"current_range_meters":15200,"station_id":"ce4bhg12rcd13ifvqf60","pricing_plan_id":"cebpf4jnsgd1na2vs0mg"},{"bike_id":"66331cc1-d263-487f-86ec-bf9d2260ae21","system_id":"levelo_inurba_marseille","lat":43.25866,"lon":5.39901,"is_reserved":false,"is_disabled":false,"rental_uris":{"android":"levelo://app?vid=66331cc1-d263-487f-86ec-bf9d2260ae21","ios":"levelo://app?vid=66331cc1-d263-487f-86ec-bf9d2260ae21"},"vehicle_type_id":"4","last_reported":1734182195,"current_range_meters":38800,"station_id":"ce4bhl92rcd13ifvqghg","pricing_plan_id":"cebpf4jnsgd1na2vs0mg"},{"bike_id":"6bfacb51-2580-4ccf-9aa3-c8ac17392142","system_id":"levelo_inurba_marseille","lat":43.33603,"lon":5.41033,"is_reserved":false,"is_disabled":false,"rental_uris":{"android":"levelo://app?vid=6bfacb51-2580-4ccf-9aa3-c8ac17392142","ios":"levelo://app?vid=6bfacb51-2580-4ccf-9aa3-c8ac17392142"},"vehicle_type_id":"4","last_reported":1734182195,"current_range_meters":38400,"station_id":"ce4bhqh2rcd13ifvqhmg","pricing_plan_id":"cebpf4jnsgd1na2vs0mg"},{"bike_id":"75d005f1-a104-4287-b501-1002db049ee7","system_id":"levelo_inurba_marseille","lat":43.33725,"lon":5.39203,"is_reserved":false,"is_disabled":false,"rental_uris":{"android":"levelo://app?vid=75d005f1-a104-4287-b501-1002db049ee7","ios":"levelo://app?vid=75d005f1-a104-4287-b501-1002db049ee7"},"vehicle_type_id":"4","last_reported":1734182195,"current_range_meters":38800,"station_id":"ce4bhr92rcd13ifvqhsg","pricing_plan_id":"cebpf4jnsgd1na2vs0mg"},{"bike_id":"0e066a96-d74a-460e-9d52-6137584f7b42","system_id":"levelo_inurba_marseille","lat":43.31492,"lon":5.37306,"is_reserved":false,"is_disabled":false,"rental_uris":{"android":"levelo://app?vid=0e066a96-d74a-460e-9d52-6137584f7b42","ios":"levelo://app?vid=0e066a96-d74a-460e-9d52-6137584f7b42"},"vehicle_type_id":"4","last_reported":1734182195,"current_range_meters":8400,"station_id":"ce4bgt12rcd13ifvqcd0","pricing_plan_id":"cebpf4jnsgd1na2vs0mg"},{"bike_id":"4fe5b802-6d4a-478f-80f7-e4f6837b7ef9","system_id":"levelo_inurba_marseille","lat":43.26942,"lon":5.40249,"is_reserved":false,"is_disabled":true,"rental_uris":{"android":"levelo://app?vid=4fe5b802-6d4a-478f-80f7-e4f6837b7ef9","ios":"levelo://app?vid=4fe5b802-6d4a-478f-80f7-e4f6837b7ef9"},"vehicle_type_id":"4","last_reported":1734182195,"current_range_meters":0,"station_id":"cjm6bp8fraef2m0cb0m0","pricing_plan_id":"cebpf4jnsgd1na2vs0mg"},{"bike_id":"30b7f7b0-cffb-44e8-9e23-86428fe1183d","system_id":"levelo_inurba_marseille","lat":43.23071,"lon":5.35495,"is_reserved":false,"is_disabled":false,"rental_uris":{"android":"levelo://app?vid=30b7f7b0-cffb-44e8-9e23-86428fe1183d","ios":"levelo://app?vid=30b7f7b0-cffb-44e8-9e23-86428fe1183d"},"vehicle_type_id":"4","last_reported":1734182195,"current_range_meters":34800,"station_id":"cpo3342slgdg3j2ifvpg","pricing_plan_id":"cebpf4jnsgd1na2vs0mg"},{"bike_id":"477c947b-8b78-4c54-bfa3-469a23410093","system_id":"levelo_inurba_marseille","lat":43.25819,"lon":5.39436,"is_reserved":false,"is_disabled":false,"rental_uris":{"android":"levelo://app?vid=477c947b-8b78-4c54-bfa3-469a23410093","ios":"levelo://app?vid=477c947b-8b78-4c54-bfa3-469a23410093"},"vehicle_type_id":"4","last_reported":1734182195,"current_range_meters":32000,"station_id":"ce4bhip2rcd13ifvqft0","pricing_plan_id":"cebpf4jnsgd1na2vs0mg"},{"bike_id":"0aeafd43-76dd-4c4c-89ac-f53a24f3e150","system_id":"levelo_inurba_marseille","lat":43.308867,"lon":5.368373,"is_reserved":false,"is_disabled":false,"rental_uris":{"android":"levelo://app?vid=0aeafd43-76dd-4c4c-89ac-f53a24f3e150","ios":"levelo://app?vid=0aeafd43-76dd-4c4c-89ac-f53a24f3e150"},"vehicle_type_id":"4","last_reported":1734182195,"current_range_meters":30000,"station_id":"ce4bgn92rcd13ifvqbvg","pricing_plan_id":"cebpf4jnsgd1na2vs0mg"},{"bike_id":"fe82721e-a1a0-4e44-a36d-eb22073144b8","system_id":"levelo_inurba_marseille","lat":43.30525,"lon":5.3672,"is_reserved":false,"is_disabled":false,"rental_uris":{"android":"levelo://app?vid=fe82721e-a1a0-4e44-a36d-eb22073144b8","ios":"levelo://app?vid=fe82721e-a1a0-4e44-a36d-eb22073144b8"},"vehicle_type_id":"4","last_reported":1734182195,"current_range_meters":37600,"station_id":"ce4bgrp2rcd13ifvqc9g","pricing_plan_id":"cebpf4jnsgd1na2vs0mg"},{"bike_id":"8e007359-119a-498e-b947-7b6e65b5185e","system_id":"levelo_inurba_marseille","lat":43.30783,"lon":5.37659,"is_reserved":false,"is_disabled":false,"rental_uris":{"android":"levelo://app?vid=8e007359-119a-498e-b947-7b6e65b5185e","ios":"levelo://app?vid=8e007359-119a-498e-b947-7b6e65b5185e"},"vehicle_type_id":"4","last_reported":1734182195,"current_range_meters":20400,"station_id":"ce4bgv92rcd13ifvqcq0","pricing_plan_id":"cebpf4jnsgd1na2vs0mg"},{"bike_id":"f20a6ae7-eae3-48f0-aad5-7bf0d8740fbb","system_id":"levelo_inurba_marseille","lat":43.29619,"lon":5.3774,"is_reserved":false,"is_disabled":false,"rental_uris":{"android":"levelo://app?vid=f20a6ae7-eae3-48f0-aad5-7bf0d8740fbb","ios":"levelo://app?vid=f20a6ae7-eae3-48f0-aad5-7bf0d8740fbb"},"vehicle_type_id":"4","last_reported":1734182195,"current_range_meters":3200,"station_id":"ce4bgi92rcd13ifvqb90","pricing_plan_id":"cebpf4jnsgd1na2vs0mg"},{"bike_id":"d9834bc1-0a12-45ef-b703-48b43f237533","system_id":"levelo_inurba_marseille","lat":43.27051,"lon":5.40259,"is_reserved":false,"is_disabled":false,"rental_uris":{"android":"levelo://app?vid=d9834bc1-0a12-45ef-b703-48b43f237533","ios":"levelo://app?vid=d9834bc1-0a12-45ef-b703-48b43f237533"},"vehicle_type_id":"4","last_reported":1734182195,"current_range_meters":24000,"station_id":"ce4bhk92rcd13ifvqgc0","pricing_plan_id":"cebpf4jnsgd1na2vs0mg"},{"bike_id":"773210ee-d19a-4226-90f8-e420da4ce6bd","system_id":"levelo_inurba_marseille","lat":43.30237,"lon":5.401,"is_reserved":false,"is_disabled":false,"rental_uris":{"android":"levelo://app?vid=773210ee-d19a-4226-90f8-e420da4ce6bd","ios":"levelo://app?vid=773210ee-d19a-4226-90f8-e420da4ce6bd"},"vehicle_type_id":"4","last_reported":1734182195,"current_range_meters":38800,"station_id":"ce4bgvh2rcd13ifvqcs0","pricing_plan_id":"cebpf4jnsgd1na2vs0mg"},{"bike_id":"eaac3b54-d489-45fe-9f7c-40072c8522d9","system_id":"levelo_inurba_marseille","lat":43.24995,"lon":5.38936,"is_reserved":false,"is_disabled":false,"rental_uris":{"android":"levelo://app?vid=eaac3b54-d489-45fe-9f7c-40072c8522d9","ios":"levelo://app?vid=eaac3b54-d489-45fe-9f7c-40072c8522d9"},"vehicle_type_id":"4","last_reported":1734182195,"current_range_meters":12400,"station_id":"ce4bhgp2rcd13ifvqfd0","pricing_plan_id":"cebpf4jnsgd1na2vs0mg"},{"bike_id":"ee12c1d4-76e3-43ba-a7d3-8e72c56f0b4e","system_id":"levelo_inurba_marseille","lat":43.27318,"lon":5.39077,"is_reserved":false,"is_disabled":false,"rental_uris":{"android":"levelo://app?vid=ee12c1d4-76e3-43ba-a7d3-8e72c56f0b4e","ios":"levelo://app?vid=ee12c1d4-76e3-43ba-a7d3-8e72c56f0b4e"},"vehicle_type_id":"4","last_reported":1734182195,"current_range_meters":38800,"station_id":"ce4bhgp2rcd13ifvqfe0","pricing_plan_id":"cebpf4jnsgd1na2vs0mg"},{"bike_id":"9ad311dd-c450-4f09-933a-ef53d4559dc3","system_id":"levelo_inurba_marseille","lat":43.26978,"lon":5.39879,"is_reserved":false,"is_disabled":false,"rental_uris":{"android":"levelo://app?vid=9ad311dd-c450-4f09-933a-ef53d4559dc3","ios":"levelo://app?vid=9ad311dd-c450-4f09-933a-ef53d4559dc3"},"vehicle_type_id":"4","last_reported":1734182195,"current_range_meters":26800,"station_id":"","pricing_plan_id":"cebpf4jnsgd1na2vs0mg"},{"bike_id":"fd910433-2801-4559-9b54-94fea46239e5","system_id":"levelo_inurba_marseille","lat":43.24386,"lon":5.37057,"is_reserved":false,"is_disabled":false,"rental_uris":{"android":"levelo://app?vid=fd910433-2801-4559-9b54-94fea46239e5","ios":"levelo://app?vid=fd910433-2801-4559-9b54-94fea46239e5"},"vehicle_type_id":"4","last_reported":1734182195,"current_range_meters":26800,"station_id":"ce4bhhh2rcd13ifvqfk0","pricing_plan_id":"cebpf4jnsgd1na2vs0mg"},{"bike_id":"3787bba6-8a43-4277-afd7-a70b2fecfb32","system_id":"levelo_inurba_marseille","lat":43.27259,"lon":5.39266,"is_reserved":false,"is_disabled":false,"rental_uris":{"android":"levelo://app?vid=3787bba6-8a43-4277-afd7-a70b2fecfb32","ios":"levelo://app?vid=3787bba6-8a43-4277-afd7-a70b2fecfb32"},"vehicle_type_id":"4","last_reported":1734182195,"current_range_meters":38800,"station_id":"ce4bhgp2rcd13ifvqfe0","pricing_plan_id":"cebpf4jnsgd1na2vs0mg"},{"bike_id":"dedac0f7-8eb8-4442-83cc-8ca040e2eb9b","system_id":"levelo_inurba_marseille","lat":43.2682,"lon":5.39413,"is_reserved":false,"is_disabled":false,"rental_uris":{"android":"levelo://app?vid=dedac0f7-8eb8-4442-83cc-8ca040e2eb9b","ios":"levelo://app?vid=dedac0f7-8eb8-4442-83cc-8ca040e2eb9b"},"vehicle_type_id":"4","last_reported":1734182195,"current_range_meters":27600,"station_id":"ce4bhh12rcd13ifvqfg0","pricing_plan_id":"cebpf4jnsgd1na2vs0mg"},{"bike_id":"af67ac53-ba21-4ff0-8334-95679e9ff2cc","system_id":"levelo_inurba_marseille","lat":43.278805,"lon":5.388003,"is_reserved":false,"is_disabled":true,"rental_uris":{"android":"levelo://app?vid=af67ac53-ba21-4ff0-8334-95679e9ff2cc","ios":"levelo://app?vid=af67ac53-ba21-4ff0-8334-95679e9ff2cc"},"vehicle_type_id":"4","last_reported":1734182195,"current_range_meters":2000,"station_id":"","pricing_plan_id":"cebpf4jnsgd1na2vs0mg"},{"bike_id":"c1ae412a-6681-4523-b320-819c39a2e95e","system_id":"levelo_inurba_marseille","lat":43.29784,"lon":5.38123,"is_reserved":false,"is_disabled":false,"rental_uris":{"android":"levelo://app?vid=c1ae412a-6681-4523-b320-819c39a2e95e","ios":"levelo://app?vid=c1ae412a-6681-4523-b320-819c39a2e95e"},"vehicle_type_id":"4","last_reported":1734182195,"current_range_meters":23200,"station_id":"ce4bgip2rcd13ifvqbb0","pricing_plan_id":"cebpf4jnsgd1na2vs0mg"},{"bike_id":"5cac85f5-7b28-4c5b-8dc5-274dfb12f0da","system_id":"levelo_inurba_marseille","lat":43.27208,"lon":5.39177,"is_reserved":false,"is_disabled":false,"rental_uris":{"android":"levelo://app?vid=5cac85f5-7b28-4c5b-8dc5-274dfb12f0da","ios":"levelo://app?vid=5cac85f5-7b28-4c5b-8dc5-274dfb12f0da"},"vehicle_type_id":"4","last_reported":1734182195,"current_range_meters":2800,"station_id":"ce4bhhp2rcd13ifvqfm0","pricing_plan_id":"cebpf4jnsgd1na2vs0mg"},{"bike_id":"ab977c89-d51a-423a-9e4d-467cf8b297c0","system_id":"levelo_inurba_marseille","lat":43.29898,"lon":5.38149,"is_reserved":false,"is_disabled":false,"rental_uris":{"android":"levelo://app?vid=ab977c89-d51a-423a-9e4d-467cf8b297c0","ios":"levelo://app?vid=ab977c89-d51a-423a-9e4d-467cf8b297c0"},"vehicle_type_id":"4","last_reported":1734182195,"current_range_meters":12400,"station_id":"ce4bgj12rcd13ifvqbc0","pricing_plan_id":"cebpf4jnsgd1na2vs0mg"},{"bike_id":"0232408d-292c-41d3-b181-663261afd040","system_id":"levelo_inurba_marseille","lat":43.27458,"lon":5.40944,"is_reserved":false,"is_disabled":false,"rental_uris":{"android":"levelo://app?vid=0232408d-292c-41d3-b181-663261afd040","ios":"levelo://app?vid=0232408d-292c-41d3-b181-663261afd040"},"vehicle_type_id":"4","last_reported":1734182195,"current_range_meters":34000,"station_id":"","pricing_plan_id":"cebpf4jnsgd1na2vs0mg"},{"bike_id":"6eb5cb1e-9fdc-4164-ab08-e973c0173fb8","system_id":"levelo_inurba_marseille","lat":43.30908,"lon":5.36847,"is_reserved":false,"is_disabled":false,"rental_uris":{"android":"levelo://app?vid=6eb5cb1e-9fdc-4164-ab08-e973c0173fb8","ios":"levelo://app?vid=6eb5cb1e-9fdc-4164-ab08-e973c0173fb8"},"vehicle_type_id":"4","last_reported":1734182195,"current_range_meters":36800,"station_id":"ce4bgn92rcd13ifvqbvg","pricing_plan_id":"cebpf4jnsgd1na2vs0mg"},{"bike_id":"9b4b0523-bd2e-4c02-8a7f-68d17a5c480c","system_id":"levelo_inurba_marseille","lat":43.32532,"lon":5.4144,"is_reserved":false,"is_disabled":false,"rental_uris":{"android":"levelo://app?vid=9b4b0523-bd2e-4c02-8a7f-68d17a5c480c","ios":"levelo://app?vid=9b4b0523-bd2e-4c02-8a7f-68d17a5c480c"},"vehicle_type_id":"4","last_reported":1734182195,"current_range_meters":38800,"station_id":"ce4bhq12rcd13ifvqhhg","pricing_plan_id":"cebpf4jnsgd1na2vs0mg"},{"bike_id":"9f96e465-cc1f-4885-bb41-a321fd7e7ec9","system_id":"levelo_inurba_marseille","lat":43.296303,"lon":5.377098,"is_reserved":false,"is_disabled":false,"rental_uris":{"android":"levelo://app?vid=9f96e465-cc1f-4885-bb41-a321fd7e7ec9","ios":"levelo://app?vid=9f96e465-cc1f-4885-bb41-a321fd7e7ec9"},"vehicle_type_id":"4","last_reported":1734182195,"current_range_meters":18800,"station_id":"ce4bgi92rcd13ifvqb90","pricing_plan_id":"cebpf4jnsgd1na2vs0mg"},{"bike_id":"d65fcea9-51ba-41f0-86fd-e798dfdd6f09","system_id":"levelo_inurba_marseille","lat":43.28694,"lon":5.38312,"is_reserved":false,"is_disabled":true,"rental_uris":{"android":"levelo://app?vid=d65fcea9-51ba-41f0-86fd-e798dfdd6f09","ios":"levelo://app?vid=d65fcea9-51ba-41f0-86fd-e798dfdd6f09"},"vehicle_type_id":"4","last_reported":1734182195,"current_range_meters":0,"station_id":"","pricing_plan_id":"cebpf4jnsgd1na2vs0mg"},{"bike_id":"30b09c14-5db6-4bdd-8ec0-8d8fd355bef3","system_id":"levelo_inurba_marseille","lat":43.29857,"lon":5.39761,"is_reserved":false,"is_disabled":true,"rental_uris":{"android":"levelo://app?vid=30b09c14-5db6-4bdd-8ec0-8d8fd355bef3","ios":"levelo://app?vid=30b09c14-5db6-4bdd-8ec0-8d8fd355bef3"},"vehicle_type_id":"4","last_reported":1734182195,"current_range_meters":37600,"station_id":"ce4bh0h2rcd13ifvqd50","pricing_plan_id":"cebpf4jnsgd1na2vs0mg"},{"bike_id":"e5007d7d-30da-4cfd-a7f0-3df2adfbe187","system_id":"levelo_inurba_marseille","lat":43.29768,"lon":5.38956,"is_reserved":false,"is_disabled":false,"rental_uris":{"android":"levelo://app?vid=e5007d7d-30da-4cfd-a7f0-3df2adfbe187","ios":"levelo://app?vid=e5007d7d-30da-4cfd-a7f0-3df2adfbe187"},"vehicle_type_id":"4","last_reported":1734182195,"current_range_meters":17200,"station_id":"","pricing_plan_id":"cebpf4jnsgd1na2vs0mg"},{"bike_id":"621d72ce-78e0-4f2a-accb-0f59590e0fa4","system_id":"levelo_inurba_marseille","lat":43.30171,"lon":5.38087,"is_reserved":false,"is_disabled":false,"rental_uris":{"android":"levelo://app?vid=621d72ce-78e0-4f2a-accb-0f59590e0fa4","ios":"levelo://app?vid=621d72ce-78e0-4f2a-accb-0f59590e0fa4"},"vehicle_type_id":"4","last_reported":1734182195,"current_range_meters":25600,"station_id":"ce4bgjp2rcd13ifvqbh0","pricing_plan_id":"cebpf4jnsgd1na2vs0mg"},{"bike_id":"64203de9-e72b-4d66-9a84-7a315c7ed37f","system_id":"levelo_inurba_marseille","lat":43.29417,"lon":5.37419,"is_reserved":false,"is_disabled":true,"rental_uris":{"android":"levelo://app?vid=64203de9-e72b-4d66-9a84-7a315c7ed37f","ios":"levelo://app?vid=64203de9-e72b-4d66-9a84-7a315c7ed37f"},"vehicle_type_id":"4","last_reported":1734182195,"current_range_meters":0,"station_id":"","pricing_plan_id":"cebpf4jnsgd1na2vs0mg"},{"bike_id":"c57e844e-4943-4d95-9f12-5b17297921b4","system_id":"levelo_inurba_marseille","lat":43.31226,"lon":5.36853,"is_reserved":false,"is_disabled":false,"rental_uris":{"android":"levelo://app?vid=c57e844e-4943-4d95-9f12-5b17297921b4","ios":"levelo://app?vid=c57e844e-4943-4d95-9f12-5b17297921b4"},"vehicle_type_id":"4","last_reported":1734182195,"current_range_meters":38800,"station_id":"ce4bgl92rcd13ifvqbq0","pricing_plan_id":"cebpf4jnsgd1na2vs0mg"},{"bike_id":"13977599-4871-43d8-8cf8-a8edcde954a2","system_id":"levelo_inurba_marseille","lat":43.31486,"lon":5.37307,"is_reserved":false,"is_disabled":false,"rental_uris":{"android":"levelo://app?vid=13977599-4871-43d8-8cf8-a8edcde954a2","ios":"levelo://app?vid=13977599-4871-43d8-8cf8-a8edcde954a2"},"vehicle_type_id":"4","last_reported":1734182195,"current_range_meters":38800,"station_id":"ce4bgt12rcd13ifvqcd0","pricing_plan_id":"cebpf4jnsgd1na2vs0mg"},{"bike_id":"32b3ab64-a883-4c97-8ffb-5291b83c1855","system_id":"levelo_inurba_marseille","lat":43.29516,"lon":5.39053,"is_reserved":true,"is_disabled":false,"rental_uris":{"android":"levelo://app?vid=32b3ab64-a883-4c97-8ffb-5291b83c1855","ios":"levelo://app?vid=32b3ab64-a883-4c97-8ffb-5291b83c1855"},"vehicle_type_id":"4","last_reported":1734182195,"current_range_meters":28000,"station_id":"ce4bh3p2rcd13ifvqdp0","pricing_plan_id":"cebpf4jnsgd1na2vs0mg"},{"bike_id":"8f3ac92d-1651-4772-899e-a1e56620faea","system_id":"levelo_inurba_marseille","lat":43.2396,"lon":5.36626,"is_reserved":false,"is_disabled":false,"rental_uris":{"android":"levelo://app?vid=8f3ac92d-1651-4772-899e-a1e56620faea","ios":"levelo://app?vid=8f3ac92d-1651-4772-899e-a1e56620faea"},"vehicle_type_id":"4","last_reported":1734182195,"current_range_meters":34000,"station_id":"ce4bhi12rcd13ifvqfp0","pricing_plan_id":"cebpf4jnsgd1na2vs0mg"},{"bike_id":"9e537004-7250-4650-9370-76464cbe54e8","system_id":"levelo_inurba_marseille","lat":43.24178,"lon":5.39735,"is_reserved":false,"is_disabled":false,"rental_uris":{"android":"levelo://app?vid=9e537004-7250-4650-9370-76464cbe54e8","ios":"levelo://app?vid=9e537004-7250-4650-9370-76464cbe54e8"},"vehicle_type_id":"4","last_reported":1734182195,"current_range_meters":36800,"station_id":"ce4bhn12rcd13ifvqgpg","pricing_plan_id":"cebpf4jnsgd1na2vs0mg"},{"bike_id":"4adfc6f9-8ab1-44bf-aeb3-06e3d13e3df0","system_id":"levelo_inurba_marseille","lat":43.28938,"lon":5.39633,"is_reserved":false,"is_disabled":false,"rental_uris":{"android":"levelo://app?vid=4adfc6f9-8ab1-44bf-aeb3-06e3d13e3df0","ios":"levelo://app?vid=4adfc6f9-8ab1-44bf-aeb3-06e3d13e3df0"},"vehicle_type_id":"4","last_reported":1734182195,"current_range_meters":14400,"station_id":"ce4bh3h2rcd13ifvqdn0","pricing_plan_id":"cebpf4jnsgd1na2vs0mg"},{"bike_id":"6f9ded0b-b0f0-4763-8a9f-3b4a533a2c57","system_id":"levelo_inurba_marseille","lat":43.29895,"lon":5.43671,"is_reserved":false,"is_disabled":false,"rental_uris":{"android":"levelo://app?vid=6f9ded0b-b0f0-4763-8a9f-3b4a533a2c57","ios":"levelo://app?vid=6f9ded0b-b0f0-4763-8a9f-3b4a533a2c57"},"vehicle_type_id":"4","last_reported":1734182195,"current_range_meters":38000,"station_id":"ce4bhpp2rcd13ifvqhfg","pricing_plan_id":"cebpf4jnsgd1na2vs0mg"},{"bike_id":"cee47e0b-683d-4e61-8f41-f6f65194c574","system_id":"levelo_inurba_marseille","lat":43.27206,"lon":5.39184,"is_reserved":false,"is_disabled":false,"rental_uris":{"android":"levelo://app?vid=cee47e0b-683d-4e61-8f41-f6f65194c574","ios":"levelo://app?vid=cee47e0b-683d-4e61-8f41-f6f65194c574"},"vehicle_type_id":"4","last_reported":1734182195,"current_range_meters":18800,"station_id":"ce4bhhp2rcd13ifvqfm0","pricing_plan_id":"cebpf4jnsgd1na2vs0mg"},{"bike_id":"07154a6e-1aad-4b6f-8cd5-49a1da2b8e24","system_id":"levelo_inurba_marseille","lat":43.2317,"lon":5.43704,"is_reserved":false,"is_disabled":false,"rental_uris":{"android":"levelo://app?vid=07154a6e-1aad-4b6f-8cd5-49a1da2b8e24","ios":"levelo://app?vid=07154a6e-1aad-4b6f-8cd5-49a1da2b8e24"},"vehicle_type_id":"4","last_reported":1734182195,"current_range_meters":28400,"station_id":"ce4bhmp2rcd13ifvqgog","pricing_plan_id":"cebpf4jnsgd1na2vs0mg"},{"bike_id":"14ff2da1-a7f3-48bc-a7a7-b38a492b14bd","system_id":"levelo_inurba_marseille","lat":43.28131,"lon":5.36905,"is_reserved":false,"is_disabled":false,"rental_uris":{"android":"levelo://app?vid=14ff2da1-a7f3-48bc-a7a7-b38a492b14bd","ios":"levelo://app?vid=14ff2da1-a7f3-48bc-a7a7-b38a492b14bd"},"vehicle_type_id":"4","last_reported":1734182195,"current_range_meters":36400,"station_id":"ce4bha12rcd13ifvqef0","pricing_plan_id":"cebpf4jnsgd1na2vs0mg"},{"bike_id":"1b6993b6-94af-4f4c-928f-c1023bb0af28","system_id":"levelo_inurba_marseille","lat":43.29027,"lon":5.37565,"is_reserved":false,"is_disabled":false,"rental_uris":{"android":"levelo://app?vid=1b6993b6-94af-4f4c-928f-c1023bb0af28","ios":"levelo://app?vid=1b6993b6-94af-4f4c-928f-c1023bb0af28"},"vehicle_type_id":"4","last_reported":1734182195,"current_range_meters":19200,"station_id":"ce4bh692rcd13ifvqe90","pricing_plan_id":"cebpf4jnsgd1na2vs0mg"},{"bike_id":"818ef841-d8c0-4c92-9c0c-4a12654cda95","system_id":"levelo_inurba_marseille","lat":43.30567,"lon":5.37239,"is_reserved":false,"is_disabled":false,"rental_uris":{"android":"levelo://app?vid=818ef841-d8c0-4c92-9c0c-4a12654cda95","ios":"levelo://app?vid=818ef841-d8c0-4c92-9c0c-4a12654cda95"},"vehicle_type_id":"4","last_reported":1734182195,"current_range_meters":26000,"station_id":"ce4bgqh2rcd13ifvqc4g","pricing_plan_id":"cebpf4jnsgd1na2vs0mg"},{"bike_id":"664d6005-4580-4ca8-932f-b988dee2de19","system_id":"levelo_inurba_marseille","lat":43.26777,"lon":5.3942,"is_reserved":false,"is_disabled":false,"rental_uris":{"android":"levelo://app?vid=664d6005-4580-4ca8-932f-b988dee2de19","ios":"levelo://app?vid=664d6005-4580-4ca8-932f-b988dee2de19"},"vehicle_type_id":"4","last_reported":1734182195,"current_range_meters":4400,"station_id":"ce4bhh12rcd13ifvqfg0","pricing_plan_id":"cebpf4jnsgd1na2vs0mg"},{"bike_id":"f6d985e1-2a8f-40cd-af24-0eaf0c120cd1","system_id":"levelo_inurba_marseille","lat":43.29765,"lon":5.371,"is_reserved":false,"is_disabled":false,"rental_uris":{"android":"levelo://app?vid=f6d985e1-2a8f-40cd-af24-0eaf0c120cd1","ios":"levelo://app?vid=f6d985e1-2a8f-40cd-af24-0eaf0c120cd1"},"vehicle_type_id":"4","last_reported":1734182195,"current_range_meters":12000,"station_id":"ce4bgop2rcd13ifvqc1g","pricing_plan_id":"cebpf4jnsgd1na2vs0mg"},{"bike_id":"2f2b0523-99c1-4a4c-871b-4ed266236d4b","system_id":"levelo_inurba_marseille","lat":43.29786,"lon":5.37118,"is_reserved":false,"is_disabled":false,"rental_uris":{"android":"levelo://app?vid=2f2b0523-99c1-4a4c-871b-4ed266236d4b","ios":"levelo://app?vid=2f2b0523-99c1-4a4c-871b-4ed266236d4b"},"vehicle_type_id":"4","last_reported":1734182195,"current_range_meters":14400,"station_id":"ce4bgop2rcd13ifvqc1g","pricing_plan_id":"cebpf4jnsgd1na2vs0mg"},{"bike_id":"b840ac17-8d85-44e5-b7e6-ff2b1798dd19","system_id":"levelo_inurba_marseille","lat":43.2803,"lon":5.36942,"is_reserved":false,"is_disabled":false,"rental_uris":{"android":"levelo://app?vid=b840ac17-8d85-44e5-b7e6-ff2b1798dd19","ios":"levelo://app?vid=b840ac17-8d85-44e5-b7e6-ff2b1798dd19"},"vehicle_type_id":"4","last_reported":1734182195,"current_range_meters":38000,"station_id":"ce4bha12rcd13ifvqef0","pricing_plan_id":"cebpf4jnsgd1na2vs0mg"},{"bike_id":"f5fd42bb-ee05-4bb3-a88a-3cdb1ac1d3ea","system_id":"levelo_inurba_marseille","lat":43.25823,"lon":5.39434,"is_reserved":false,"is_disabled":false,"rental_uris":{"android":"levelo://app?vid=f5fd42bb-ee05-4bb3-a88a-3cdb1ac1d3ea","ios":"levelo://app?vid=f5fd42bb-ee05-4bb3-a88a-3cdb1ac1d3ea"},"vehicle_type_id":"4","last_reported":1734182195,"current_range_meters":38800,"station_id":"ce4bhip2rcd13ifvqft0","pricing_plan_id":"cebpf4jnsgd1na2vs0mg"},{"bike_id":"a939e225-ade4-48f3-b87b-553eea6bcd4a","system_id":"levelo_inurba_marseille","lat":43.28347,"lon":5.38113,"is_reserved":true,"is_disabled":false,"rental_uris":{"android":"levelo://app?vid=a939e225-ade4-48f3-b87b-553eea6bcd4a","ios":"levelo://app?vid=a939e225-ade4-48f3-b87b-553eea6bcd4a"},"vehicle_type_id":"4","last_reported":1734182195,"current_range_meters":38000,"station_id":"ce4bh412rcd13ifvqdr0","pricing_plan_id":"cebpf4jnsgd1na2vs0mg"},{"bike_id":"c2225488-e3c7-4359-8de3-f02af04421c8","system_id":"levelo_inurba_marseille","lat":43.297087,"lon":5.376841,"is_reserved":false,"is_disabled":false,"rental_uris":{"android":"levelo://app?vid=c2225488-e3c7-4359-8de3-f02af04421c8","ios":"levelo://app?vid=c2225488-e3c7-4359-8de3-f02af04421c8"},"vehicle_type_id":"4","last_reported":1734182195,"current_range_meters":37600,"station_id":"ce4bgkh2rcd13ifvqbl0","pricing_plan_id":"cebpf4jnsgd1na2vs0mg"},{"bike_id":"28fc90b9-3e7b-4c11-b6c2-40d95902dadd","system_id":"levelo_inurba_marseille","lat":43.22951,"lon":5.35353,"is_reserved":false,"is_disabled":false,"rental_uris":{"android":"levelo://app?vid=28fc90b9-3e7b-4c11-b6c2-40d95902dadd","ios":"levelo://app?vid=28fc90b9-3e7b-4c11-b6c2-40d95902dadd"},"vehicle_type_id":"4","last_reported":1734182195,"current_range_meters":38800,"station_id":"cpo3532slgdg3j2ikp40","pricing_plan_id":"cebpf4jnsgd1na2vs0mg"},{"bike_id":"c5f43db4-45bc-418e-bac1-46135460304e","system_id":"levelo_inurba_marseille","lat":43.30414,"lon":5.41291,"is_reserved":false,"is_disabled":false,"rental_uris":{"android":"levelo://app?vid=c5f43db4-45bc-418e-bac1-46135460304e","ios":"levelo://app?vid=c5f43db4-45bc-418e-bac1-46135460304e"},"vehicle_type_id":"4","last_reported":1734182195,"current_range_meters":30800,"station_id":"","pricing_plan_id":"cebpf4jnsgd1na2vs0mg"},{"bike_id":"4eee0287-d5a0-4e03-bd5c-6e6e7f9c2f84","system_id":"levelo_inurba_marseille","lat":43.279685,"lon":5.387535,"is_reserved":false,"is_disabled":false,"rental_uris":{"android":"levelo://app?vid=4eee0287-d5a0-4e03-bd5c-6e6e7f9c2f84","ios":"levelo://app?vid=4eee0287-d5a0-4e03-bd5c-6e6e7f9c2f84"},"vehicle_type_id":"4","last_reported":1734182195,"current_range_meters":38800,"station_id":"ce4bhg12rcd13ifvqf80","pricing_plan_id":"cebpf4jnsgd1na2vs0mg"},{"bike_id":"6aadc0dd-d854-4c08-9c03-8083806fe54c","system_id":"levelo_inurba_marseille","lat":43.27367,"lon":5.36261,"is_reserved":false,"is_disabled":false,"rental_uris":{"android":"levelo://app?vid=6aadc0dd-d854-4c08-9c03-8083806fe54c","ios":"levelo://app?vid=6aadc0dd-d854-4c08-9c03-8083806fe54c"},"vehicle_type_id":"4","last_reported":1734182195,"current_range_meters":38800,"station_id":"ce4bhbh2rcd13ifvqeo0","pricing_plan_id":"cebpf4jnsgd1na2vs0mg"},{"bike_id":"eb1496f4-67ed-47fd-8660-60023378367f","system_id":"levelo_inurba_marseille","lat":43.294212,"lon":5.374322,"is_reserved":false,"is_disabled":true,"rental_uris":{"android":"levelo://app?vid=eb1496f4-67ed-47fd-8660-60023378367f","ios":"levelo://app?vid=eb1496f4-67ed-47fd-8660-60023378367f"},"vehicle_type_id":"4","last_reported":1734182195,"current_range_meters":0,"station_id":"","pricing_plan_id":"cebpf4jnsgd1na2vs0mg"},{"bike_id":"31c7c931-55e2-482c-9ee5-63e523f58659","system_id":"levelo_inurba_marseille","lat":43.2999,"lon":5.37187,"is_reserved":false,"is_disabled":false,"rental_uris":{"android":"levelo://app?vid=31c7c931-55e2-482c-9ee5-63e523f58659","ios":"levelo://app?vid=31c7c931-55e2-482c-9ee5-63e523f58659"},"vehicle_type_id":"4","last_reported":1734182195,"current_range_meters":38800,"station_id":"ce4bgr92rcd13ifvqc7g","pricing_plan_id":"cebpf4jnsgd1na2vs0mg"},{"bike_id":"faf7cbfc-5a3b-4c27-83a7-aaa310de447c","system_id":"levelo_inurba_marseille","lat":43.27226,"lon":5.39194,"is_reserved":false,"is_disabled":false,"rental_uris":{"android":"levelo://app?vid=faf7cbfc-5a3b-4c27-83a7-aaa310de447c","ios":"levelo://app?vid=faf7cbfc-5a3b-4c27-83a7-aaa310de447c"},"vehicle_type_id":"4","last_reported":1734182195,"current_range_meters":38000,"station_id":"ce4bhhp2rcd13ifvqfm0","pricing_plan_id":"cebpf4jnsgd1na2vs0mg"},{"bike_id":"a2e3bf37-f1e5-4b35-adeb-0da3e0fe69d3","system_id":"levelo_inurba_marseille","lat":43.2863,"lon":5.386167,"is_reserved":false,"is_disabled":true,"rental_uris":{"android":"levelo://app?vid=a2e3bf37-f1e5-4b35-adeb-0da3e0fe69d3","ios":"levelo://app?vid=a2e3bf37-f1e5-4b35-adeb-0da3e0fe69d3"},"vehicle_type_id":"4","last_reported":1734182195,"current_range_meters":0,"station_id":"","pricing_plan_id":"cebpf4jnsgd1na2vs0mg"},{"bike_id":"63a3568d-a09d-4108-832f-3e1a717e22e9","system_id":"levelo_inurba_marseille","lat":43.3171,"lon":5.43711,"is_reserved":false,"is_disabled":false,"rental_uris":{"android":"levelo://app?vid=63a3568d-a09d-4108-832f-3e1a717e22e9","ios":"levelo://app?vid=63a3568d-a09d-4108-832f-3e1a717e22e9"},"vehicle_type_id":"4","last_reported":1734182195,"current_range_meters":28800,"station_id":"ce4bhp92rcd13ifvqhcg","pricing_plan_id":"cebpf4jnsgd1na2vs0mg"},{"bike_id":"7598c6ce-cf6e-4fb0-841c-5c5c2ee94d30","system_id":"levelo_inurba_marseille","lat":43.23152,"lon":5.43716,"is_reserved":false,"is_disabled":false,"rental_uris":{"android":"levelo://app?vid=7598c6ce-cf6e-4fb0-841c-5c5c2ee94d30","ios":"levelo://app?vid=7598c6ce-cf6e-4fb0-841c-5c5c2ee94d30"},"vehicle_type_id":"4","last_reported":1734182195,"current_range_meters":30800,"station_id":"ce4bhmp2rcd13ifvqgog","pricing_plan_id":"cebpf4jnsgd1na2vs0mg"},{"bike_id":"e9fb4c62-7ef5-419f-8461-09e5b0d9f96c","system_id":"levelo_inurba_marseille","lat":43.30874,"lon":5.37203,"is_reserved":false,"is_disabled":false,"rental_uris":{"android":"levelo://app?vid=e9fb4c62-7ef5-419f-8461-09e5b0d9f96c","ios":"levelo://app?vid=e9fb4c62-7ef5-419f-8461-09e5b0d9f96c"},"vehicle_type_id":"4","last_reported":1734182195,"current_range_meters":31200,"station_id":"ce4bguh2rcd13ifvqckg","pricing_plan_id":"cebpf4jnsgd1na2vs0mg"},{"bike_id":"ec927667-9164-479a-b446-395f55c955bb","system_id":"levelo_inurba_marseille","lat":43.22914,"lon":5.35376,"is_reserved":false,"is_disabled":false,"rental_uris":{"android":"levelo://app?vid=ec927667-9164-479a-b446-395f55c955bb","ios":"levelo://app?vid=ec927667-9164-479a-b446-395f55c955bb"},"vehicle_type_id":"4","last_reported":1734182195,"current_range_meters":38800,"station_id":"cpo3532slgdg3j2ikp40","pricing_plan_id":"cebpf4jnsgd1na2vs0mg"},{"bike_id":"23da8d2b-06c4-4399-92fc-c81ae6a0511c","system_id":"levelo_inurba_marseille","lat":43.33718,"lon":5.39179,"is_reserved":false,"is_disabled":false,"rental_uris":{"android":"levelo://app?vid=23da8d2b-06c4-4399-92fc-c81ae6a0511c","ios":"levelo://app?vid=23da8d2b-06c4-4399-92fc-c81ae6a0511c"},"vehicle_type_id":"4","last_reported":1734182195,"current_range_meters":24800,"station_id":"ce4bhr92rcd13ifvqhsg","pricing_plan_id":"cebpf4jnsgd1na2vs0mg"},{"bike_id":"75309d62-31ad-4799-9f50-95f09798eef2","system_id":"levelo_inurba_marseille","lat":43.30441,"lon":5.37912,"is_reserved":false,"is_disabled":false,"rental_uris":{"android":"levelo://app?vid=75309d62-31ad-4799-9f50-95f09798eef2","ios":"levelo://app?vid=75309d62-31ad-4799-9f50-95f09798eef2"},"vehicle_type_id":"4","last_reported":1734182195,"current_range_meters":12400,"station_id":"ce4bgup2rcd13ifvqcn0","pricing_plan_id":"cebpf4jnsgd1na2vs0mg"},{"bike_id":"e171553a-d499-40c6-b158-4c1c9a0d09dc","system_id":"levelo_inurba_marseille","lat":43.27193,"lon":5.40991,"is_reserved":false,"is_disabled":false,"rental_uris":{"android":"levelo://app?vid=e171553a-d499-40c6-b158-4c1c9a0d09dc","ios":"levelo://app?vid=e171553a-d499-40c6-b158-4c1c9a0d09dc"},"vehicle_type_id":"4","last_reported":1734182195,"current_range_meters":38800,"station_id":"ce4bhl12rcd13ifvqgf0","pricing_plan_id":"cebpf4jnsgd1na2vs0mg"},{"bike_id":"323fc36b-d4e2-4f07-bcea-9760bec11142","system_id":"levelo_inurba_marseille","lat":43.32656,"lon":5.40996,"is_reserved":false,"is_disabled":true,"rental_uris":{"android":"levelo://app?vid=323fc36b-d4e2-4f07-bcea-9760bec11142","ios":"levelo://app?vid=323fc36b-d4e2-4f07-bcea-9760bec11142"},"vehicle_type_id":"4","last_reported":1734182195,"current_range_meters":2000,"station_id":"ce4bhpp2rcd13ifvqhgg","pricing_plan_id":"cebpf4jnsgd1na2vs0mg"},{"bike_id":"d0f616d3-4e1b-4801-b6b7-5762445f0e8a","system_id":"levelo_inurba_marseille","lat":43.2586,"lon":5.39899,"is_reserved":false,"is_disabled":false,"rental_uris":{"android":"levelo://app?vid=d0f616d3-4e1b-4801-b6b7-5762445f0e8a","ios":"levelo://app?vid=d0f616d3-4e1b-4801-b6b7-5762445f0e8a"},"vehicle_type_id":"4","last_reported":1734182195,"current_range_meters":3600,"station_id":"ce4bhl92rcd13ifvqghg","pricing_plan_id":"cebpf4jnsgd1na2vs0mg"},{"bike_id":"a02bce7c-288c-46c0-a9fd-8aa8e0178c35","system_id":"levelo_inurba_marseille","lat":43.23184,"lon":5.35578,"is_reserved":false,"is_disabled":false,"rental_uris":{"android":"levelo://app?vid=a02bce7c-288c-46c0-a9fd-8aa8e0178c35","ios":"levelo://app?vid=a02bce7c-288c-46c0-a9fd-8aa8e0178c35"},"vehicle_type_id":"4","last_reported":1734182195,"current_range_meters":24400,"station_id":"ce4bhu92rcd13ifvqi70","pricing_plan_id":"cebpf4jnsgd1na2vs0mg"},{"bike_id":"f1a06ee4-1d14-4634-9311-99ca126b78ec","system_id":"levelo_inurba_marseille","lat":43.23962,"lon":5.36632,"is_reserved":false,"is_disabled":true,"rental_uris":{"android":"levelo://app?vid=f1a06ee4-1d14-4634-9311-99ca126b78ec","ios":"levelo://app?vid=f1a06ee4-1d14-4634-9311-99ca126b78ec"},"vehicle_type_id":"4","last_reported":1734182195,"current_range_meters":1600,"station_id":"ce4bhi12rcd13ifvqfp0","pricing_plan_id":"cebpf4jnsgd1na2vs0mg"},{"bike_id":"026eac8f-1877-4181-bac3-28bf4f63c4e7","system_id":"levelo_inurba_marseille","lat":43.29265,"lon":5.36859,"is_reserved":false,"is_disabled":false,"rental_uris":{"android":"levelo://app?vid=026eac8f-1877-4181-bac3-28bf4f63c4e7","ios":"levelo://app?vid=026eac8f-1877-4181-bac3-28bf4f63c4e7"},"vehicle_type_id":"4","last_reported":1734182195,"current_range_meters":29600,"station_id":"ce4bhbp2rcd13ifvqesg","pricing_plan_id":"cebpf4jnsgd1na2vs0mg"},{"bike_id":"807c66ce-b746-48c3-bf88-07717a49aec6","system_id":"levelo_inurba_marseille","lat":43.29966,"lon":5.37184,"is_reserved":false,"is_disabled":false,"rental_uris":{"android":"levelo://app?vid=807c66ce-b746-48c3-bf88-07717a49aec6","ios":"levelo://app?vid=807c66ce-b746-48c3-bf88-07717a49aec6"},"vehicle_type_id":"4","last_reported":1734182195,"current_range_meters":39200,"station_id":"ce4bgr92rcd13ifvqc7g","pricing_plan_id":"cebpf4jnsgd1na2vs0mg"},{"bike_id":"0d5b1b0c-54d0-463e-8e32-441120da14e0","system_id":"levelo_inurba_marseille","lat":43.26943,"lon":5.40248,"is_reserved":false,"is_disabled":false,"rental_uris":{"android":"levelo://app?vid=0d5b1b0c-54d0-463e-8e32-441120da14e0","ios":"levelo://app?vid=0d5b1b0c-54d0-463e-8e32-441120da14e0"},"vehicle_type_id":"4","last_reported":1734182195,"current_range_meters":22800,"station_id":"cjm6bp8fraef2m0cb0m0","pricing_plan_id":"cebpf4jnsgd1na2vs0mg"},{"bike_id":"ac28ff4c-48d6-495a-9486-eac4ab35d1a1","system_id":"levelo_inurba_marseille","lat":43.24386,"lon":5.3706,"is_reserved":false,"is_disabled":false,"rental_uris":{"android":"levelo://app?vid=ac28ff4c-48d6-495a-9486-eac4ab35d1a1","ios":"levelo://app?vid=ac28ff4c-48d6-495a-9486-eac4ab35d1a1"},"vehicle_type_id":"4","last_reported":1734182195,"current_range_meters":17600,"station_id":"ce4bhhh2rcd13ifvqfk0","pricing_plan_id":"cebpf4jnsgd1na2vs0mg"},{"bike_id":"7691eeb5-458b-415d-8b8b-0369bf8ed1f5","system_id":"levelo_inurba_marseille","lat":43.27371,"lon":5.36259,"is_reserved":false,"is_disabled":false,"rental_uris":{"android":"levelo://app?vid=7691eeb5-458b-415d-8b8b-0369bf8ed1f5","ios":"levelo://app?vid=7691eeb5-458b-415d-8b8b-0369bf8ed1f5"},"vehicle_type_id":"4","last_reported":1734182195,"current_range_meters":39200,"station_id":"ce4bhbh2rcd13ifvqeo0","pricing_plan_id":"cebpf4jnsgd1na2vs0mg"},{"bike_id":"6347dac2-3384-4d85-977c-86b023f83fa8","system_id":"levelo_inurba_marseille","lat":43.31061,"lon":5.40094,"is_reserved":false,"is_disabled":false,"rental_uris":{"android":"levelo://app?vid=6347dac2-3384-4d85-977c-86b023f83fa8","ios":"levelo://app?vid=6347dac2-3384-4d85-977c-86b023f83fa8"},"vehicle_type_id":"4","last_reported":1734182195,"current_range_meters":36400,"station_id":"","pricing_plan_id":"cebpf4jnsgd1na2vs0mg"},{"bike_id":"24b14d49-2139-4f68-bb53-71e90dbfaf01","system_id":"levelo_inurba_marseille","lat":43.27997,"lon":5.40029,"is_reserved":false,"is_disabled":false,"rental_uris":{"android":"levelo://app?vid=24b14d49-2139-4f68-bb53-71e90dbfaf01","ios":"levelo://app?vid=24b14d49-2139-4f68-bb53-71e90dbfaf01"},"vehicle_type_id":"4","last_reported":1734182195,"current_range_meters":34000,"station_id":"ce4bho92rcd13ifvqh4g","pricing_plan_id":"cebpf4jnsgd1na2vs0mg"},{"bike_id":"c51154b5-1034-4fc0-8fac-d1d2e91dba39","system_id":"levelo_inurba_marseille","lat":43.23057,"lon":5.35494,"is_reserved":false,"is_disabled":false,"rental_uris":{"android":"levelo://app?vid=c51154b5-1034-4fc0-8fac-d1d2e91dba39","ios":"levelo://app?vid=c51154b5-1034-4fc0-8fac-d1d2e91dba39"},"vehicle_type_id":"4","last_reported":1734182195,"current_range_meters":11200,"station_id":"cpo3342slgdg3j2ifvpg","pricing_plan_id":"cebpf4jnsgd1na2vs0mg"},{"bike_id":"9898497d-08a8-4f3f-896d-f939d7b3fae3","system_id":"levelo_inurba_marseille","lat":43.2973,"lon":5.37681,"is_reserved":false,"is_disabled":false,"rental_uris":{"android":"levelo://app?vid=9898497d-08a8-4f3f-896d-f939d7b3fae3","ios":"levelo://app?vid=9898497d-08a8-4f3f-896d-f939d7b3fae3"},"vehicle_type_id":"4","last_reported":1734182195,"current_range_meters":27600,"station_id":"ce4bgkh2rcd13ifvqbl0","pricing_plan_id":"cebpf4jnsgd1na2vs0mg"},{"bike_id":"b5205575-de41-469c-8bf4-268796ad09be","system_id":"levelo_inurba_marseille","lat":43.25505,"lon":5.37675,"is_reserved":false,"is_disabled":false,"rental_uris":{"android":"levelo://app?vid=b5205575-de41-469c-8bf4-268796ad09be","ios":"levelo://app?vid=b5205575-de41-469c-8bf4-268796ad09be"},"vehicle_type_id":"4","last_reported":1734182195,"current_range_meters":38800,"station_id":"ce4bhh12rcd13ifvqff0","pricing_plan_id":"cebpf4jnsgd1na2vs0mg"},{"bike_id":"abe250a1-3d26-47a1-bae8-73bf3354b17a","system_id":"levelo_inurba_marseille","lat":43.27199,"lon":5.4099,"is_reserved":false,"is_disabled":false,"rental_uris":{"android":"levelo://app?vid=abe250a1-3d26-47a1-bae8-73bf3354b17a","ios":"levelo://app?vid=abe250a1-3d26-47a1-bae8-73bf3354b17a"},"vehicle_type_id":"4","last_reported":1734182195,"current_range_meters":10800,"station_id":"ce4bhl12rcd13ifvqgf0","pricing_plan_id":"cebpf4jnsgd1na2vs0mg"},{"bike_id":"99e26cec-8339-42d0-8312-81471c898891","system_id":"levelo_inurba_marseille","lat":43.30433,"lon":5.38895,"is_reserved":false,"is_disabled":false,"rental_uris":{"android":"levelo://app?vid=99e26cec-8339-42d0-8312-81471c898891","ios":"levelo://app?vid=99e26cec-8339-42d0-8312-81471c898891"},"vehicle_type_id":"4","last_reported":1734182195,"current_range_meters":8000,"station_id":"ce4bgk12rcd13ifvqbi0","pricing_plan_id":"cebpf4jnsgd1na2vs0mg"},{"bike_id":"ce9f2ae6-d005-47e2-a1b4-8674b1b9254b","system_id":"levelo_inurba_marseille","lat":43.30153,"lon":5.38078,"is_reserved":false,"is_disabled":false,"rental_uris":{"android":"levelo://app?vid=ce9f2ae6-d005-47e2-a1b4-8674b1b9254b","ios":"levelo://app?vid=ce9f2ae6-d005-47e2-a1b4-8674b1b9254b"},"vehicle_type_id":"4","last_reported":1734182195,"current_range_meters":38400,"station_id":"ce4bgjp2rcd13ifvqbh0","pricing_plan_id":"cebpf4jnsgd1na2vs0mg"},{"bike_id":"b62e50dd-f184-45c8-bbe1-5f69a12c37ff","system_id":"levelo_inurba_marseille","lat":43.2737,"lon":5.36253,"is_reserved":false,"is_disabled":false,"rental_uris":{"android":"levelo://app?vid=b62e50dd-f184-45c8-bbe1-5f69a12c37ff","ios":"levelo://app?vid=b62e50dd-f184-45c8-bbe1-5f69a12c37ff"},"vehicle_type_id":"4","last_reported":1734182195,"current_range_meters":26800,"station_id":"ce4bhbh2rcd13ifvqeo0","pricing_plan_id":"cebpf4jnsgd1na2vs0mg"},{"bike_id":"bad09c18-7711-41ee-bbb5-b5fd34fb1d4d","system_id":"levelo_inurba_marseille","lat":43.27181,"lon":5.41,"is_reserved":false,"is_disabled":false,"rental_uris":{"android":"levelo://app?vid=bad09c18-7711-41ee-bbb5-b5fd34fb1d4d","ios":"levelo://app?vid=bad09c18-7711-41ee-bbb5-b5fd34fb1d4d"},"vehicle_type_id":"4","last_reported":1734182195,"current_range_meters":38800,"station_id":"ce4bhl12rcd13ifvqgf0","pricing_plan_id":"cebpf4jnsgd1na2vs0mg"},{"bike_id":"d2a0b895-cddb-4c91-8025-52871ff8256e","system_id":"levelo_inurba_marseille","lat":43.3223,"lon":5.38964,"is_reserved":false,"is_disabled":true,"rental_uris":{"android":"levelo://app?vid=d2a0b895-cddb-4c91-8025-52871ff8256e","ios":"levelo://app?vid=d2a0b895-cddb-4c91-8025-52871ff8256e"},"vehicle_type_id":"4","last_reported":1734182195,"current_range_meters":38800,"station_id":"","pricing_plan_id":"cebpf4jnsgd1na2vs0mg"},{"bike_id":"230afc32-7ba2-4059-abdb-94c32ddf25db","system_id":"levelo_inurba_marseille","lat":43.27663,"lon":5.38883,"is_reserved":false,"is_disabled":false,"rental_uris":{"android":"levelo://app?vid=230afc32-7ba2-4059-abdb-94c32ddf25db","ios":"levelo://app?vid=230afc32-7ba2-4059-abdb-94c32ddf25db"},"vehicle_type_id":"4","last_reported":1734182195,"current_range_meters":28800,"station_id":"ce4bhi12rcd13ifvqfo0","pricing_plan_id":"cebpf4jnsgd1na2vs0mg"},{"bike_id":"75506391-a12b-4ce2-997a-eff08551addc","system_id":"levelo_inurba_marseille","lat":43.23077,"lon":5.35508,"is_reserved":false,"is_disabled":false,"rental_uris":{"android":"levelo://app?vid=75506391-a12b-4ce2-997a-eff08551addc","ios":"levelo://app?vid=75506391-a12b-4ce2-997a-eff08551addc"},"vehicle_type_id":"4","last_reported":1734182195,"current_range_meters":36400,"station_id":"cpo3342slgdg3j2ifvpg","pricing_plan_id":"cebpf4jnsgd1na2vs0mg"},{"bike_id":"73ef44c6-d42a-4ef5-af47-542e7073a722","system_id":"levelo_inurba_marseille","lat":43.25498,"lon":5.37653,"is_reserved":false,"is_disabled":false,"rental_uris":{"android":"levelo://app?vid=73ef44c6-d42a-4ef5-af47-542e7073a722","ios":"levelo://app?vid=73ef44c6-d42a-4ef5-af47-542e7073a722"},"vehicle_type_id":"4","last_reported":1734182195,"current_range_meters":39200,"station_id":"ce4bhh12rcd13ifvqff0","pricing_plan_id":"cebpf4jnsgd1na2vs0mg"},{"bike_id":"e7670056-028a-4ad6-a74c-f8db7e8100e8","system_id":"levelo_inurba_marseille","lat":43.29354,"lon":5.37881,"is_reserved":false,"is_disabled":false,"rental_uris":{"android":"levelo://app?vid=e7670056-028a-4ad6-a74c-f8db7e8100e8","ios":"levelo://app?vid=e7670056-028a-4ad6-a74c-f8db7e8100e8"},"vehicle_type_id":"4","last_reported":1734182195,"current_range_meters":30400,"station_id":"ce4bgjh2rcd13ifvqbf0","pricing_plan_id":"cebpf4jnsgd1na2vs0mg"},{"bike_id":"587d1534-49c1-4e4a-a940-83a47fcf998c","system_id":"levelo_inurba_marseille","lat":43.29302,"lon":5.36851,"is_reserved":false,"is_disabled":false,"rental_uris":{"android":"levelo://app?vid=587d1534-49c1-4e4a-a940-83a47fcf998c","ios":"levelo://app?vid=587d1534-49c1-4e4a-a940-83a47fcf998c"},"vehicle_type_id":"4","last_reported":1734182195,"current_range_meters":28000,"station_id":"ce4bhbp2rcd13ifvqesg","pricing_plan_id":"cebpf4jnsgd1na2vs0mg"},{"bike_id":"6a81d341-07b6-4b20-abc2-b5abdb2485ee","system_id":"levelo_inurba_marseille","lat":43.27205,"lon":5.39173,"is_reserved":false,"is_disabled":false,"rental_uris":{"android":"levelo://app?vid=6a81d341-07b6-4b20-abc2-b5abdb2485ee","ios":"levelo://app?vid=6a81d341-07b6-4b20-abc2-b5abdb2485ee"},"vehicle_type_id":"4","last_reported":1734182195,"current_range_meters":37600,"station_id":"ce4bhhp2rcd13ifvqfm0","pricing_plan_id":"cebpf4jnsgd1na2vs0mg"},{"bike_id":"f0688521-339d-4b11-98b4-8b413dfcdc75","system_id":"levelo_inurba_marseille","lat":43.30238,"lon":5.40083,"is_reserved":false,"is_disabled":false,"rental_uris":{"android":"levelo://app?vid=f0688521-339d-4b11-98b4-8b413dfcdc75","ios":"levelo://app?vid=f0688521-339d-4b11-98b4-8b413dfcdc75"},"vehicle_type_id":"4","last_reported":1734182195,"current_range_meters":20400,"station_id":"ce4bgvh2rcd13ifvqcs0","pricing_plan_id":"cebpf4jnsgd1na2vs0mg"},{"bike_id":"f904cd96-fc2a-412b-9242-eeb4bca49e2a","system_id":"levelo_inurba_marseille","lat":43.29914,"lon":5.38128,"is_reserved":false,"is_disabled":false,"rental_uris":{"android":"levelo://app?vid=f904cd96-fc2a-412b-9242-eeb4bca49e2a","ios":"levelo://app?vid=f904cd96-fc2a-412b-9242-eeb4bca49e2a"},"vehicle_type_id":"4","last_reported":1734182195,"current_range_meters":25600,"station_id":"ce4bgj12rcd13ifvqbc0","pricing_plan_id":"cebpf4jnsgd1na2vs0mg"},{"bike_id":"c75bddd8-53e9-48da-b5b5-42395c8f7395","system_id":"levelo_inurba_marseille","lat":43.33741,"lon":5.3919,"is_reserved":false,"is_disabled":false,"rental_uris":{"android":"levelo://app?vid=c75bddd8-53e9-48da-b5b5-42395c8f7395","ios":"levelo://app?vid=c75bddd8-53e9-48da-b5b5-42395c8f7395"},"vehicle_type_id":"4","last_reported":1734182195,"current_range_meters":38400,"station_id":"ce4bhr92rcd13ifvqhsg","pricing_plan_id":"cebpf4jnsgd1na2vs0mg"},{"bike_id":"be3d60a6-6fb6-4cc8-81d6-6fe96ff5ee23","system_id":"levelo_inurba_marseille","lat":43.23063,"lon":5.355,"is_reserved":false,"is_disabled":false,"rental_uris":{"android":"levelo://app?vid=be3d60a6-6fb6-4cc8-81d6-6fe96ff5ee23","ios":"levelo://app?vid=be3d60a6-6fb6-4cc8-81d6-6fe96ff5ee23"},"vehicle_type_id":"4","last_reported":1734182195,"current_range_meters":35600,"station_id":"cpo3342slgdg3j2ifvpg","pricing_plan_id":"cebpf4jnsgd1na2vs0mg"},{"bike_id":"69ac9efb-2c6d-4530-a746-1163eb200e85","system_id":"levelo_inurba_marseille","lat":43.2927,"lon":5.36845,"is_reserved":false,"is_disabled":false,"rental_uris":{"android":"levelo://app?vid=69ac9efb-2c6d-4530-a746-1163eb200e85","ios":"levelo://app?vid=69ac9efb-2c6d-4530-a746-1163eb200e85"},"vehicle_type_id":"4","last_reported":1734182195,"current_range_meters":16800,"station_id":"ce4bhbp2rcd13ifvqesg","pricing_plan_id":"cebpf4jnsgd1na2vs0mg"},{"bike_id":"f5f2dda6-a2d0-42c5-ac2b-1ec14572f19e","system_id":"levelo_inurba_marseille","lat":43.2678,"lon":5.39439,"is_reserved":false,"is_disabled":false,"rental_uris":{"android":"levelo://app?vid=f5f2dda6-a2d0-42c5-ac2b-1ec14572f19e","ios":"levelo://app?vid=f5f2dda6-a2d0-42c5-ac2b-1ec14572f19e"},"vehicle_type_id":"4","last_reported":1734182195,"current_range_meters":37600,"station_id":"ce4bhh12rcd13ifvqfg0","pricing_plan_id":"cebpf4jnsgd1na2vs0mg"},{"bike_id":"31ecb75b-0a33-4c2a-bd79-07750823ce13","system_id":"levelo_inurba_marseille","lat":43.23186,"lon":5.39986,"is_reserved":false,"is_disabled":false,"rental_uris":{"android":"levelo://app?vid=31ecb75b-0a33-4c2a-bd79-07750823ce13","ios":"levelo://app?vid=31ecb75b-0a33-4c2a-bd79-07750823ce13"},"vehicle_type_id":"4","last_reported":1734182195,"current_range_meters":38800,"station_id":"ce4bhn12rcd13ifvqgqg","pricing_plan_id":"cebpf4jnsgd1na2vs0mg"},{"bike_id":"fd1d6366-cf9f-4720-bfed-437d147382a8","system_id":"levelo_inurba_marseille","lat":43.2502,"lon":5.3892,"is_reserved":false,"is_disabled":false,"rental_uris":{"android":"levelo://app?vid=fd1d6366-cf9f-4720-bfed-437d147382a8","ios":"levelo://app?vid=fd1d6366-cf9f-4720-bfed-437d147382a8"},"vehicle_type_id":"4","last_reported":1734182195,"current_range_meters":38800,"station_id":"ce4bhgp2rcd13ifvqfd0","pricing_plan_id":"cebpf4jnsgd1na2vs0mg"},{"bike_id":"9fee3077-b6c4-4fb9-a670-d22c832b1afb","system_id":"levelo_inurba_marseille","lat":43.27988,"lon":5.41689,"is_reserved":false,"is_disabled":false,"rental_uris":{"android":"levelo://app?vid=9fee3077-b6c4-4fb9-a670-d22c832b1afb","ios":"levelo://app?vid=9fee3077-b6c4-4fb9-a670-d22c832b1afb"},"vehicle_type_id":"4","last_reported":1734182195,"current_range_meters":38800,"station_id":"ce4bho12rcd13ifvqh1g","pricing_plan_id":"cebpf4jnsgd1na2vs0mg"},{"bike_id":"9332f19c-96e3-47ac-8807-c5c2384614c0","system_id":"levelo_inurba_marseille","lat":43.23058,"lon":5.35546,"is_reserved":false,"is_disabled":false,"rental_uris":{"android":"levelo://app?vid=9332f19c-96e3-47ac-8807-c5c2384614c0","ios":"levelo://app?vid=9332f19c-96e3-47ac-8807-c5c2384614c0"},"vehicle_type_id":"4","last_reported":1734182195,"current_range_meters":36400,"station_id":"cpo3342slgdg3j2ifvpg","pricing_plan_id":"cebpf4jnsgd1na2vs0mg"},{"bike_id":"380c9a62-9355-46ea-aba6-5d39cd47ad4b","system_id":"levelo_inurba_marseille","lat":43.31375,"lon":5.40618,"is_reserved":false,"is_disabled":true,"rental_uris":{"android":"levelo://app?vid=380c9a62-9355-46ea-aba6-5d39cd47ad4b","ios":"levelo://app?vid=380c9a62-9355-46ea-aba6-5d39cd47ad4b"},"vehicle_type_id":"4","last_reported":1734182195,"current_range_meters":0,"station_id":"","pricing_plan_id":"cebpf4jnsgd1na2vs0mg"},{"bike_id":"dc382634-aed8-493e-8590-bf7f7a19747b","system_id":"levelo_inurba_marseille","lat":43.27347,"lon":5.39078,"is_reserved":false,"is_disabled":false,"rental_uris":{"android":"levelo://app?vid=dc382634-aed8-493e-8590-bf7f7a19747b","ios":"levelo://app?vid=dc382634-aed8-493e-8590-bf7f7a19747b"},"vehicle_type_id":"4","last_reported":1734182195,"current_range_meters":37600,"station_id":"ce4bhgp2rcd13ifvqfe0","pricing_plan_id":"cebpf4jnsgd1na2vs0mg"},{"bike_id":"a9250eca-9ff2-490e-a251-a270e0b6d4b5","system_id":"levelo_inurba_marseille","lat":43.29582,"lon":5.37508,"is_reserved":false,"is_disabled":false,"rental_uris":{"android":"levelo://app?vid=a9250eca-9ff2-490e-a251-a270e0b6d4b5","ios":"levelo://app?vid=a9250eca-9ff2-490e-a251-a270e0b6d4b5"},"vehicle_type_id":"4","last_reported":1734182195,"current_range_meters":14000,"station_id":"ce4bgh92rcd13ifvqb50","pricing_plan_id":"cebpf4jnsgd1na2vs0mg"},{"bike_id":"091bdc4c-19b5-460d-8ab6-f71e518c7c9a","system_id":"levelo_inurba_marseille","lat":43.32657,"lon":5.40994,"is_reserved":false,"is_disabled":false,"rental_uris":{"android":"levelo://app?vid=091bdc4c-19b5-460d-8ab6-f71e518c7c9a","ios":"levelo://app?vid=091bdc4c-19b5-460d-8ab6-f71e518c7c9a"},"vehicle_type_id":"4","last_reported":1734182195,"current_range_meters":38800,"station_id":"ce4bhpp2rcd13ifvqhgg","pricing_plan_id":"cebpf4jnsgd1na2vs0mg"},{"bike_id":"fda2c63f-1fe2-4d00-8d20-2677f78c6a20","system_id":"levelo_inurba_marseille","lat":43.260223,"lon":5.37556,"is_reserved":false,"is_disabled":false,"rental_uris":{"android":"levelo://app?vid=fda2c63f-1fe2-4d00-8d20-2677f78c6a20","ios":"levelo://app?vid=fda2c63f-1fe2-4d00-8d20-2677f78c6a20"},"vehicle_type_id":"4","last_reported":1734182195,"current_range_meters":27200,"station_id":"ce4bhgh2rcd13ifvqfa0","pricing_plan_id":"cebpf4jnsgd1na2vs0mg"},{"bike_id":"ca59d865-1951-4846-a717-a349b9e50e7c","system_id":"levelo_inurba_marseille","lat":43.27613,"lon":5.3611,"is_reserved":false,"is_disabled":true,"rental_uris":{"android":"levelo://app?vid=ca59d865-1951-4846-a717-a349b9e50e7c","ios":"levelo://app?vid=ca59d865-1951-4846-a717-a349b9e50e7c"},"vehicle_type_id":"4","last_reported":1734182195,"current_range_meters":36800,"station_id":"ce4bgj92rcd13ifvqbe0","pricing_plan_id":"cebpf4jnsgd1na2vs0mg"},{"bike_id":"118d448b-5f01-4d3c-ae60-b729695d0c56","system_id":"levelo_inurba_marseille","lat":43.2738,"lon":5.3626,"is_reserved":false,"is_disabled":false,"rental_uris":{"android":"levelo://app?vid=118d448b-5f01-4d3c-ae60-b729695d0c56","ios":"levelo://app?vid=118d448b-5f01-4d3c-ae60-b729695d0c56"},"vehicle_type_id":"4","last_reported":1734182195,"current_range_meters":37600,"station_id":"ce4bhbh2rcd13ifvqeo0","pricing_plan_id":"cebpf4jnsgd1na2vs0mg"},{"bike_id":"283ec910-2b59-4ffd-bbff-9867d116f826","system_id":"levelo_inurba_marseille","lat":43.337444,"lon":5.374475,"is_reserved":false,"is_disabled":true,"rental_uris":{"android":"levelo://app?vid=283ec910-2b59-4ffd-bbff-9867d116f826","ios":"levelo://app?vid=283ec910-2b59-4ffd-bbff-9867d116f826"},"vehicle_type_id":"4","last_reported":1734182195,"current_range_meters":0,"station_id":"","pricing_plan_id":"cebpf4jnsgd1na2vs0mg"},{"bike_id":"78322935-ced8-4fc5-99d4-b8696bce838d","system_id":"levelo_inurba_marseille","lat":43.27949,"lon":5.41031,"is_reserved":false,"is_disabled":false,"rental_uris":{"android":"levelo://app?vid=78322935-ced8-4fc5-99d4-b8696bce838d","ios":"levelo://app?vid=78322935-ced8-4fc5-99d4-b8696bce838d"},"vehicle_type_id":"4","last_reported":1734182195,"current_range_meters":34000,"station_id":"ce4bhnp2rcd13ifvqh0g","pricing_plan_id":"cebpf4jnsgd1na2vs0mg"},{"bike_id":"9c526aef-86e3-4b34-92cc-0221b9d7446a","system_id":"levelo_inurba_marseille","lat":43.2677,"lon":5.39431,"is_reserved":false,"is_disabled":false,"rental_uris":{"android":"levelo://app?vid=9c526aef-86e3-4b34-92cc-0221b9d7446a","ios":"levelo://app?vid=9c526aef-86e3-4b34-92cc-0221b9d7446a"},"vehicle_type_id":"4","last_reported":1734182195,"current_range_meters":39200,"station_id":"ce4bhh12rcd13ifvqfg0","pricing_plan_id":"cebpf4jnsgd1na2vs0mg"},{"bike_id":"f7194110-d0fc-4673-b613-d407c940eeb4","system_id":"levelo_inurba_marseille","lat":43.24386,"lon":5.3706,"is_reserved":false,"is_disabled":false,"rental_uris":{"android":"levelo://app?vid=f7194110-d0fc-4673-b613-d407c940eeb4","ios":"levelo://app?vid=f7194110-d0fc-4673-b613-d407c940eeb4"},"vehicle_type_id":"4","last_reported":1734182195,"current_range_meters":32400,"station_id":"ce4bhhh2rcd13ifvqfk0","pricing_plan_id":"cebpf4jnsgd1na2vs0mg"},{"bike_id":"c6234abb-f24f-4e51-8203-a434dd5a5cf7","system_id":"levelo_inurba_marseille","lat":43.27167,"lon":5.41017,"is_reserved":false,"is_disabled":false,"rental_uris":{"android":"levelo://app?vid=c6234abb-f24f-4e51-8203-a434dd5a5cf7","ios":"levelo://app?vid=c6234abb-f24f-4e51-8203-a434dd5a5cf7"},"vehicle_type_id":"4","last_reported":1734182195,"current_range_meters":38400,"station_id":"ce4bhl12rcd13ifvqgf0","pricing_plan_id":"cebpf4jnsgd1na2vs0mg"},{"bike_id":"6e6a004b-462d-4b03-aeaa-2611256f0d89","system_id":"levelo_inurba_marseille","lat":43.28115,"lon":5.38944,"is_reserved":false,"is_disabled":true,"rental_uris":{"android":"levelo://app?vid=6e6a004b-462d-4b03-aeaa-2611256f0d89","ios":"levelo://app?vid=6e6a004b-462d-4b03-aeaa-2611256f0d89"},"vehicle_type_id":"4","last_reported":1734182195,"current_range_meters":0,"station_id":"","pricing_plan_id":"cebpf4jnsgd1na2vs0mg"},{"bike_id":"735cf19f-b67c-44a5-bb2d-cb05eb1081e7","system_id":"levelo_inurba_marseille","lat":43.29366,"lon":5.37039,"is_reserved":false,"is_disabled":false,"rental_uris":{"android":"levelo://app?vid=735cf19f-b67c-44a5-bb2d-cb05eb1081e7","ios":"levelo://app?vid=735cf19f-b67c-44a5-bb2d-cb05eb1081e7"},"vehicle_type_id":"4","last_reported":1734182195,"current_range_meters":38800,"station_id":"ce4bgh92rcd13ifvqb40","pricing_plan_id":"cebpf4jnsgd1na2vs0mg"},{"bike_id":"a3b8ec3c-ac14-4c0f-8df3-2b82f2e62846","system_id":"levelo_inurba_marseille","lat":43.28072,"lon":5.3966,"is_reserved":false,"is_disabled":false,"rental_uris":{"android":"levelo://app?vid=a3b8ec3c-ac14-4c0f-8df3-2b82f2e62846","ios":"levelo://app?vid=a3b8ec3c-ac14-4c0f-8df3-2b82f2e62846"},"vehicle_type_id":"4","last_reported":1734182195,"current_range_meters":9200,"station_id":"ce4bho12rcd13ifvqh2g","pricing_plan_id":"cebpf4jnsgd1na2vs0mg"},{"bike_id":"6666abf9-47c2-42a4-9451-283e2fa4d06e","system_id":"levelo_inurba_marseille","lat":43.30354,"lon":5.41887,"is_reserved":false,"is_disabled":false,"rental_uris":{"android":"levelo://app?vid=6666abf9-47c2-42a4-9451-283e2fa4d06e","ios":"levelo://app?vid=6666abf9-47c2-42a4-9451-283e2fa4d06e"},"vehicle_type_id":"4","last_reported":1734182195,"current_range_meters":38800,"station_id":"ce4bhop2rcd13ifvqh7g","pricing_plan_id":"cebpf4jnsgd1na2vs0mg"},{"bike_id":"c3848dd6-dc25-44d4-8c07-ff3e79d88df9","system_id":"levelo_inurba_marseille","lat":43.30193,"lon":5.38082,"is_reserved":false,"is_disabled":false,"rental_uris":{"android":"levelo://app?vid=c3848dd6-dc25-44d4-8c07-ff3e79d88df9","ios":"levelo://app?vid=c3848dd6-dc25-44d4-8c07-ff3e79d88df9"},"vehicle_type_id":"4","last_reported":1734182195,"current_range_meters":37600,"station_id":"","pricing_plan_id":"cebpf4jnsgd1na2vs0mg"},{"bike_id":"a9825185-3001-4d8d-9f3b-ed652af29296","system_id":"levelo_inurba_marseille","lat":43.28615,"lon":5.37063,"is_reserved":false,"is_disabled":false,"rental_uris":{"android":"levelo://app?vid=a9825185-3001-4d8d-9f3b-ed652af29296","ios":"levelo://app?vid=a9825185-3001-4d8d-9f3b-ed652af29296"},"vehicle_type_id":"4","last_reported":1734182195,"current_range_meters":38800,"station_id":"ce4bht12rcd13ifvqi60","pricing_plan_id":"cebpf4jnsgd1na2vs0mg"},{"bike_id":"7cdef2b1-67a8-4b34-9480-10ae189d8858","system_id":"levelo_inurba_marseille","lat":43.28612,"lon":5.35108,"is_reserved":false,"is_disabled":false,"rental_uris":{"android":"levelo://app?vid=7cdef2b1-67a8-4b34-9480-10ae189d8858","ios":"levelo://app?vid=7cdef2b1-67a8-4b34-9480-10ae189d8858"},"vehicle_type_id":"4","last_reported":1734182195,"current_range_meters":22800,"station_id":"ce4bhch2rcd13ifvqeug","pricing_plan_id":"cebpf4jnsgd1na2vs0mg"},{"bike_id":"1536d859-8531-4d78-87ee-c9b02f5fc438","system_id":"levelo_inurba_marseille","lat":43.23064,"lon":5.35498,"is_reserved":false,"is_disabled":false,"rental_uris":{"android":"levelo://app?vid=1536d859-8531-4d78-87ee-c9b02f5fc438","ios":"levelo://app?vid=1536d859-8531-4d78-87ee-c9b02f5fc438"},"vehicle_type_id":"4","last_reported":1734182195,"current_range_meters":16800,"station_id":"cpo3342slgdg3j2ifvpg","pricing_plan_id":"cebpf4jnsgd1na2vs0mg"},{"bike_id":"702fe746-2950-4d83-96ad-da74f787e42f","system_id":"levelo_inurba_marseille","lat":43.25864,"lon":5.39898,"is_reserved":false,"is_disabled":false,"rental_uris":{"android":"levelo://app?vid=702fe746-2950-4d83-96ad-da74f787e42f","ios":"levelo://app?vid=702fe746-2950-4d83-96ad-da74f787e42f"},"vehicle_type_id":"4","last_reported":1734182195,"current_range_meters":36800,"station_id":"ce4bhl92rcd13ifvqghg","pricing_plan_id":"cebpf4jnsgd1na2vs0mg"},{"bike_id":"36d7c386-6a20-46e1-acb5-f8a59c63fcd3","system_id":"levelo_inurba_marseille","lat":43.29227,"lon":5.36068,"is_reserved":false,"is_disabled":false,"rental_uris":{"android":"levelo://app?vid=36d7c386-6a20-46e1-acb5-f8a59c63fcd3","ios":"levelo://app?vid=36d7c386-6a20-46e1-acb5-f8a59c63fcd3"},"vehicle_type_id":"4","last_reported":1734182195,"current_range_meters":29600,"station_id":"ce4bhbh2rcd13ifvqeqg","pricing_plan_id":"cebpf4jnsgd1na2vs0mg"},{"bike_id":"7965bd8b-65b9-4460-9e65-36f253ebc53b","system_id":"levelo_inurba_marseille","lat":43.32047,"lon":5.41532,"is_reserved":false,"is_disabled":false,"rental_uris":{"android":"levelo://app?vid=7965bd8b-65b9-4460-9e65-36f253ebc53b","ios":"levelo://app?vid=7965bd8b-65b9-4460-9e65-36f253ebc53b"},"vehicle_type_id":"4","last_reported":1734182195,"current_range_meters":19600,"station_id":"ce4bhq92rcd13ifvqhkg","pricing_plan_id":"cebpf4jnsgd1na2vs0mg"},{"bike_id":"6779e3b6-1567-4f73-8060-06dd2a9b0744","system_id":"levelo_inurba_marseille","lat":43.30674,"lon":5.37396,"is_reserved":false,"is_disabled":false,"rental_uris":{"android":"levelo://app?vid=6779e3b6-1567-4f73-8060-06dd2a9b0744","ios":"levelo://app?vid=6779e3b6-1567-4f73-8060-06dd2a9b0744"},"vehicle_type_id":"4","last_reported":1734182195,"current_range_meters":19600,"station_id":"","pricing_plan_id":"cebpf4jnsgd1na2vs0mg"},{"bike_id":"e5192aff-1008-4e7e-b82a-23b5df79d920","system_id":"levelo_inurba_marseille","lat":43.29559,"lon":5.42293,"is_reserved":false,"is_disabled":false,"rental_uris":{"android":"levelo://app?vid=e5192aff-1008-4e7e-b82a-23b5df79d920","ios":"levelo://app?vid=e5192aff-1008-4e7e-b82a-23b5df79d920"},"vehicle_type_id":"4","last_reported":1734182195,"current_range_meters":38000,"station_id":"ce4bhph2rcd13ifvqhdg","pricing_plan_id":"cebpf4jnsgd1na2vs0mg"},{"bike_id":"04f74f3a-620d-4cfe-a925-05d9d082937d","system_id":"levelo_inurba_marseille","lat":43.27988,"lon":5.41663,"is_reserved":false,"is_disabled":false,"rental_uris":{"android":"levelo://app?vid=04f74f3a-620d-4cfe-a925-05d9d082937d","ios":"levelo://app?vid=04f74f3a-620d-4cfe-a925-05d9d082937d"},"vehicle_type_id":"4","last_reported":1734182195,"current_range_meters":33200,"station_id":"ce4bho12rcd13ifvqh1g","pricing_plan_id":"cebpf4jnsgd1na2vs0mg"},{"bike_id":"07aaffff-6c5a-4390-a6e5-b91a437396ec","system_id":"levelo_inurba_marseille","lat":43.24167,"lon":5.36394,"is_reserved":false,"is_disabled":false,"rental_uris":{"android":"levelo://app?vid=07aaffff-6c5a-4390-a6e5-b91a437396ec","ios":"levelo://app?vid=07aaffff-6c5a-4390-a6e5-b91a437396ec"},"vehicle_type_id":"4","last_reported":1734182195,"current_range_meters":10800,"station_id":"cpo36qri1sfpv3e86is0","pricing_plan_id":"cebpf4jnsgd1na2vs0mg"},{"bike_id":"a5589391-a7e4-412b-9a87-f917b2322580","system_id":"levelo_inurba_marseille","lat":43.23047,"lon":5.35521,"is_reserved":false,"is_disabled":false,"rental_uris":{"android":"levelo://app?vid=a5589391-a7e4-412b-9a87-f917b2322580","ios":"levelo://app?vid=a5589391-a7e4-412b-9a87-f917b2322580"},"vehicle_type_id":"4","last_reported":1734182195,"current_range_meters":36000,"station_id":"cpo3342slgdg3j2ifvpg","pricing_plan_id":"cebpf4jnsgd1na2vs0mg"},{"bike_id":"94cb59f0-d33f-441e-8ccd-84870df561ff","system_id":"levelo_inurba_marseille","lat":43.24387,"lon":5.37055,"is_reserved":false,"is_disabled":true,"rental_uris":{"android":"levelo://app?vid=94cb59f0-d33f-441e-8ccd-84870df561ff","ios":"levelo://app?vid=94cb59f0-d33f-441e-8ccd-84870df561ff"},"vehicle_type_id":"4","last_reported":1734182195,"current_range_meters":1600,"station_id":"ce4bhhh2rcd13ifvqfk0","pricing_plan_id":"cebpf4jnsgd1na2vs0mg"},{"bike_id":"94526188-bec8-4cef-a618-fd69bb9b0e90","system_id":"levelo_inurba_marseille","lat":43.30904,"lon":5.40126,"is_reserved":false,"is_disabled":false,"rental_uris":{"android":"levelo://app?vid=94526188-bec8-4cef-a618-fd69bb9b0e90","ios":"levelo://app?vid=94526188-bec8-4cef-a618-fd69bb9b0e90"},"vehicle_type_id":"4","last_reported":1734182195,"current_range_meters":26000,"station_id":"ce4bgvp2rcd13ifvqct0","pricing_plan_id":"cebpf4jnsgd1na2vs0mg"},{"bike_id":"a8f0de7b-1973-4f72-99a5-213e7b2f08d7","system_id":"levelo_inurba_marseille","lat":43.27367,"lon":5.3626,"is_reserved":false,"is_disabled":false,"rental_uris":{"android":"levelo://app?vid=a8f0de7b-1973-4f72-99a5-213e7b2f08d7","ios":"levelo://app?vid=a8f0de7b-1973-4f72-99a5-213e7b2f08d7"},"vehicle_type_id":"4","last_reported":1734182195,"current_range_meters":39200,"station_id":"ce4bhbh2rcd13ifvqeo0","pricing_plan_id":"cebpf4jnsgd1na2vs0mg"},{"bike_id":"afc65c7e-2df0-479e-8802-76edad43706a","system_id":"levelo_inurba_marseille","lat":43.26153,"lon":5.37985,"is_reserved":false,"is_disabled":false,"rental_uris":{"android":"levelo://app?vid=afc65c7e-2df0-479e-8802-76edad43706a","ios":"levelo://app?vid=afc65c7e-2df0-479e-8802-76edad43706a"},"vehicle_type_id":"4","last_reported":1734182195,"current_range_meters":25200,"station_id":"ce4bhjp2rcd13ifvqg90","pricing_plan_id":"cebpf4jnsgd1na2vs0mg"},{"bike_id":"3dc50e8c-f733-4683-9332-0b952d0f6631","system_id":"levelo_inurba_marseille","lat":43.24998,"lon":5.38933,"is_reserved":false,"is_disabled":true,"rental_uris":{"android":"levelo://app?vid=3dc50e8c-f733-4683-9332-0b952d0f6631","ios":"levelo://app?vid=3dc50e8c-f733-4683-9332-0b952d0f6631"},"vehicle_type_id":"4","last_reported":1734182195,"current_range_meters":8400,"station_id":"ce4bhgp2rcd13ifvqfd0","pricing_plan_id":"cebpf4jnsgd1na2vs0mg"},{"bike_id":"23591bd6-f78e-4c44-82c3-eef005ef902b","system_id":"levelo_inurba_marseille","lat":43.2757,"lon":5.38428,"is_reserved":false,"is_disabled":false,"rental_uris":{"android":"levelo://app?vid=23591bd6-f78e-4c44-82c3-eef005ef902b","ios":"levelo://app?vid=23591bd6-f78e-4c44-82c3-eef005ef902b"},"vehicle_type_id":"4","last_reported":1734182195,"current_range_meters":32800,"station_id":"ce4bhh92rcd13ifvqfi0","pricing_plan_id":"cebpf4jnsgd1na2vs0mg"},{"bike_id":"728c852f-194a-429b-a101-cd93c2ffb5b3","system_id":"levelo_inurba_marseille","lat":43.31388,"lon":5.37391,"is_reserved":false,"is_disabled":false,"rental_uris":{"android":"levelo://app?vid=728c852f-194a-429b-a101-cd93c2ffb5b3","ios":"levelo://app?vid=728c852f-194a-429b-a101-cd93c2ffb5b3"},"vehicle_type_id":"4","last_reported":1734182195,"current_range_meters":19200,"station_id":"","pricing_plan_id":"cebpf4jnsgd1na2vs0mg"},{"bike_id":"ca3bf6a0-806c-4046-b219-bbea4c2ba646","system_id":"levelo_inurba_marseille","lat":43.23194,"lon":5.35548,"is_reserved":false,"is_disabled":false,"rental_uris":{"android":"levelo://app?vid=ca3bf6a0-806c-4046-b219-bbea4c2ba646","ios":"levelo://app?vid=ca3bf6a0-806c-4046-b219-bbea4c2ba646"},"vehicle_type_id":"4","last_reported":1734182195,"current_range_meters":38800,"station_id":"ce4bhu92rcd13ifvqi70","pricing_plan_id":"cebpf4jnsgd1na2vs0mg"},{"bike_id":"e92b53be-0a79-44c0-8c0f-b198c7a21d46","system_id":"levelo_inurba_marseille","lat":43.32364,"lon":5.38887,"is_reserved":false,"is_disabled":false,"rental_uris":{"android":"levelo://app?vid=e92b53be-0a79-44c0-8c0f-b198c7a21d46","ios":"levelo://app?vid=e92b53be-0a79-44c0-8c0f-b198c7a21d46"},"vehicle_type_id":"4","last_reported":1734182195,"current_range_meters":28400,"station_id":"ce4bhqp2rcd13ifvqhog","pricing_plan_id":"cebpf4jnsgd1na2vs0mg"},{"bike_id":"aa1b3a04-57a6-47e0-afe1-081f8b9d47fa","system_id":"levelo_inurba_marseille","lat":43.22925,"lon":5.35373,"is_reserved":false,"is_disabled":false,"rental_uris":{"android":"levelo://app?vid=aa1b3a04-57a6-47e0-afe1-081f8b9d47fa","ios":"levelo://app?vid=aa1b3a04-57a6-47e0-afe1-081f8b9d47fa"},"vehicle_type_id":"4","last_reported":1734182195,"current_range_meters":5600,"station_id":"cpo3532slgdg3j2ikp40","pricing_plan_id":"cebpf4jnsgd1na2vs0mg"},{"bike_id":"46b2fdec-0870-4ae2-84dc-b1f57512351e","system_id":"levelo_inurba_marseille","lat":43.337444,"lon":5.374475,"is_reserved":false,"is_disabled":true,"rental_uris":{"android":"levelo://app?vid=46b2fdec-0870-4ae2-84dc-b1f57512351e","ios":"levelo://app?vid=46b2fdec-0870-4ae2-84dc-b1f57512351e"},"vehicle_type_id":"4","last_reported":1734182195,"current_range_meters":0,"station_id":"","pricing_plan_id":"cebpf4jnsgd1na2vs0mg"},{"bike_id":"e07f8927-8121-4133-911c-f4fdbcb240cf","system_id":"levelo_inurba_marseille","lat":43.337679,"lon":5.374467,"is_reserved":false,"is_disabled":true,"rental_uris":{"android":"levelo://app?vid=e07f8927-8121-4133-911c-f4fdbcb240cf","ios":"levelo://app?vid=e07f8927-8121-4133-911c-f4fdbcb240cf"},"vehicle_type_id":"4","last_reported":1734182195,"current_range_meters":33600,"station_id":"","pricing_plan_id":"cebpf4jnsgd1na2vs0mg"},{"bike_id":"2d1621ab-e817-4a31-b19b-22c30129ac2e","system_id":"levelo_inurba_marseille","lat":43.27984,"lon":5.41656,"is_reserved":false,"is_disabled":false,"rental_uris":{"android":"levelo://app?vid=2d1621ab-e817-4a31-b19b-22c30129ac2e","ios":"levelo://app?vid=2d1621ab-e817-4a31-b19b-22c30129ac2e"},"vehicle_type_id":"4","last_reported":1734182195,"current_range_meters":16800,"station_id":"ce4bho12rcd13ifvqh1g","pricing_plan_id":"cebpf4jnsgd1na2vs0mg"},{"bike_id":"89440fa6-6e76-4b7b-9c20-d51a32533c5a","system_id":"levelo_inurba_marseille","lat":43.27363,"lon":5.36261,"is_reserved":false,"is_disabled":false,"rental_uris":{"android":"levelo://app?vid=89440fa6-6e76-4b7b-9c20-d51a32533c5a","ios":"levelo://app?vid=89440fa6-6e76-4b7b-9c20-d51a32533c5a"},"vehicle_type_id":"4","last_reported":1734182195,"current_range_meters":39200,"station_id":"ce4bhbh2rcd13ifvqeo0","pricing_plan_id":"cebpf4jnsgd1na2vs0mg"},{"bike_id":"f9e6bb9b-5af9-41b4-94d6-1a9a9891f123","system_id":"levelo_inurba_marseille","lat":43.24642,"lon":5.38894,"is_reserved":false,"is_disabled":false,"rental_uris":{"android":"levelo://app?vid=f9e6bb9b-5af9-41b4-94d6-1a9a9891f123","ios":"levelo://app?vid=f9e6bb9b-5af9-41b4-94d6-1a9a9891f123"},"vehicle_type_id":"4","last_reported":1734182195,"current_range_meters":24400,"station_id":"ce4bhg12rcd13ifvqf60","pricing_plan_id":"cebpf4jnsgd1na2vs0mg"},{"bike_id":"ada6d03a-ccf8-4688-b4bc-a3c7bbf8c3cf","system_id":"levelo_inurba_marseille","lat":43.2847,"lon":5.35885,"is_reserved":false,"is_disabled":false,"rental_uris":{"android":"levelo://app?vid=ada6d03a-ccf8-4688-b4bc-a3c7bbf8c3cf","ios":"levelo://app?vid=ada6d03a-ccf8-4688-b4bc-a3c7bbf8c3cf"},"vehicle_type_id":"4","last_reported":1734182195,"current_range_meters":38000,"station_id":"ce4bhah2rcd13ifvqei0","pricing_plan_id":"cebpf4jnsgd1na2vs0mg"},{"bike_id":"59a4a5bc-f1ff-498c-8471-40a7bf183aa7","system_id":"levelo_inurba_marseille","lat":43.231948,"lon":5.35556,"is_reserved":false,"is_disabled":false,"rental_uris":{"android":"levelo://app?vid=59a4a5bc-f1ff-498c-8471-40a7bf183aa7","ios":"levelo://app?vid=59a4a5bc-f1ff-498c-8471-40a7bf183aa7"},"vehicle_type_id":"4","last_reported":1734182195,"current_range_meters":20400,"station_id":"ce4bhu92rcd13ifvqi70","pricing_plan_id":"cebpf4jnsgd1na2vs0mg"},{"bike_id":"5f11fdd9-45f0-4d70-8224-eef136d43616","system_id":"levelo_inurba_marseille","lat":43.27174,"lon":5.41004,"is_reserved":false,"is_disabled":false,"rental_uris":{"android":"levelo://app?vid=5f11fdd9-45f0-4d70-8224-eef136d43616","ios":"levelo://app?vid=5f11fdd9-45f0-4d70-8224-eef136d43616"},"vehicle_type_id":"4","last_reported":1734182195,"current_range_meters":33600,"station_id":"ce4bhl12rcd13ifvqgf0","pricing_plan_id":"cebpf4jnsgd1na2vs0mg"},{"bike_id":"550a6645-adcd-428f-b265-13b37828399c","system_id":"levelo_inurba_marseille","lat":43.28414,"lon":5.34998,"is_reserved":false,"is_disabled":true,"rental_uris":{"android":"levelo://app?vid=550a6645-adcd-428f-b265-13b37828399c","ios":"levelo://app?vid=550a6645-adcd-428f-b265-13b37828399c"},"vehicle_type_id":"4","last_reported":1734182195,"current_range_meters":400,"station_id":"ce4bhbh2rcd13ifvqepg","pricing_plan_id":"cebpf4jnsgd1na2vs0mg"},{"bike_id":"0824056f-e3ee-4e73-b960-77e0514e3efe","system_id":"levelo_inurba_marseille","lat":43.32481,"lon":5.3657,"is_reserved":false,"is_disabled":false,"rental_uris":{"android":"levelo://app?vid=0824056f-e3ee-4e73-b960-77e0514e3efe","ios":"levelo://app?vid=0824056f-e3ee-4e73-b960-77e0514e3efe"},"vehicle_type_id":"4","last_reported":1734182195,"current_range_meters":14800,"station_id":"ce4bhs12rcd13ifvqhvg","pricing_plan_id":"cebpf4jnsgd1na2vs0mg"},{"bike_id":"2448f112-093b-44a4-8c49-c482af2ba024","system_id":"levelo_inurba_marseille","lat":43.2306,"lon":5.35479,"is_reserved":false,"is_disabled":false,"rental_uris":{"android":"levelo://app?vid=2448f112-093b-44a4-8c49-c482af2ba024","ios":"levelo://app?vid=2448f112-093b-44a4-8c49-c482af2ba024"},"vehicle_type_id":"4","last_reported":1734182195,"current_range_meters":22000,"station_id":"cpo3342slgdg3j2ifvpg","pricing_plan_id":"cebpf4jnsgd1na2vs0mg"},{"bike_id":"eff6214a-e327-44ef-b149-b0c14110902c","system_id":"levelo_inurba_marseille","lat":43.301575,"lon":5.380807,"is_reserved":false,"is_disabled":false,"rental_uris":{"android":"levelo://app?vid=eff6214a-e327-44ef-b149-b0c14110902c","ios":"levelo://app?vid=eff6214a-e327-44ef-b149-b0c14110902c"},"vehicle_type_id":"4","last_reported":1734182195,"current_range_meters":38800,"station_id":"ce4bgjp2rcd13ifvqbh0","pricing_plan_id":"cebpf4jnsgd1na2vs0mg"},{"bike_id":"c4eb3e13-bf4d-4e8c-93e8-3afb85802dde","system_id":"levelo_inurba_marseille","lat":43.23185,"lon":5.39983,"is_reserved":false,"is_disabled":false,"rental_uris":{"android":"levelo://app?vid=c4eb3e13-bf4d-4e8c-93e8-3afb85802dde","ios":"levelo://app?vid=c4eb3e13-bf4d-4e8c-93e8-3afb85802dde"},"vehicle_type_id":"4","last_reported":1734182195,"current_range_meters":16400,"station_id":"ce4bhn12rcd13ifvqgqg","pricing_plan_id":"cebpf4jnsgd1na2vs0mg"},{"bike_id":"d214c25f-242c-440b-993d-cd644c655be6","system_id":"levelo_inurba_marseille","lat":43.23054,"lon":5.35515,"is_reserved":false,"is_disabled":false,"rental_uris":{"android":"levelo://app?vid=d214c25f-242c-440b-993d-cd644c655be6","ios":"levelo://app?vid=d214c25f-242c-440b-993d-cd644c655be6"},"vehicle_type_id":"4","last_reported":1734182195,"current_range_meters":30000,"station_id":"cpo3342slgdg3j2ifvpg","pricing_plan_id":"cebpf4jnsgd1na2vs0mg"},{"bike_id":"6f56edec-47f3-4089-9c04-11e42d2f2a26","system_id":"levelo_inurba_marseille","lat":43.3053,"lon":5.36718,"is_reserved":false,"is_disabled":false,"rental_uris":{"android":"levelo://app?vid=6f56edec-47f3-4089-9c04-11e42d2f2a26","ios":"levelo://app?vid=6f56edec-47f3-4089-9c04-11e42d2f2a26"},"vehicle_type_id":"4","last_reported":1734182195,"current_range_meters":35600,"station_id":"ce4bgrp2rcd13ifvqc9g","pricing_plan_id":"cebpf4jnsgd1na2vs0mg"},{"bike_id":"fc315e8c-5385-4421-a8bf-7043d3c38160","system_id":"levelo_inurba_marseille","lat":43.308951,"lon":5.396397,"is_reserved":false,"is_disabled":false,"rental_uris":{"android":"levelo://app?vid=fc315e8c-5385-4421-a8bf-7043d3c38160","ios":"levelo://app?vid=fc315e8c-5385-4421-a8bf-7043d3c38160"},"vehicle_type_id":"4","last_reported":1734182195,"current_range_meters":9600,"station_id":"ce4bh012rcd13ifvqcv0","pricing_plan_id":"cebpf4jnsgd1na2vs0mg"},{"bike_id":"6d05f7ba-808a-4403-b1f3-f8483fec843c","system_id":"levelo_inurba_marseille","lat":43.231877,"lon":5.355606,"is_reserved":false,"is_disabled":false,"rental_uris":{"android":"levelo://app?vid=6d05f7ba-808a-4403-b1f3-f8483fec843c","ios":"levelo://app?vid=6d05f7ba-808a-4403-b1f3-f8483fec843c"},"vehicle_type_id":"4","last_reported":1734182195,"current_range_meters":22400,"station_id":"ce4bhu92rcd13ifvqi70","pricing_plan_id":"cebpf4jnsgd1na2vs0mg"},{"bike_id":"a0b89159-70a1-4f4a-b88f-d6f74fb0338c","system_id":"levelo_inurba_marseille","lat":43.30459,"lon":5.37902,"is_reserved":false,"is_disabled":false,"rental_uris":{"android":"levelo://app?vid=a0b89159-70a1-4f4a-b88f-d6f74fb0338c","ios":"levelo://app?vid=a0b89159-70a1-4f4a-b88f-d6f74fb0338c"},"vehicle_type_id":"4","last_reported":1734182195,"current_range_meters":23200,"station_id":"ce4bgup2rcd13ifvqcn0","pricing_plan_id":"cebpf4jnsgd1na2vs0mg"},{"bike_id":"4737abd7-9d7a-452d-984b-247a80029d41","system_id":"levelo_inurba_marseille","lat":43.27206,"lon":5.39182,"is_reserved":false,"is_disabled":false,"rental_uris":{"android":"levelo://app?vid=4737abd7-9d7a-452d-984b-247a80029d41","ios":"levelo://app?vid=4737abd7-9d7a-452d-984b-247a80029d41"},"vehicle_type_id":"4","last_reported":1734182195,"current_range_meters":30800,"station_id":"ce4bhhp2rcd13ifvqfm0","pricing_plan_id":"cebpf4jnsgd1na2vs0mg"},{"bike_id":"4edd5eab-2f45-4682-81a9-86b845ac48d4","system_id":"levelo_inurba_marseille","lat":43.28413,"lon":5.34998,"is_reserved":false,"is_disabled":false,"rental_uris":{"android":"levelo://app?vid=4edd5eab-2f45-4682-81a9-86b845ac48d4","ios":"levelo://app?vid=4edd5eab-2f45-4682-81a9-86b845ac48d4"},"vehicle_type_id":"4","last_reported":1734182195,"current_range_meters":4400,"station_id":"ce4bhbh2rcd13ifvqepg","pricing_plan_id":"cebpf4jnsgd1na2vs0mg"},{"bike_id":"a5397efa-629d-4917-8594-0532aea74fe2","system_id":"levelo_inurba_marseille","lat":43.28468,"lon":5.35909,"is_reserved":false,"is_disabled":true,"rental_uris":{"android":"levelo://app?vid=a5397efa-629d-4917-8594-0532aea74fe2","ios":"levelo://app?vid=a5397efa-629d-4917-8594-0532aea74fe2"},"vehicle_type_id":"4","last_reported":1734182195,"current_range_meters":12000,"station_id":"ce4bhah2rcd13ifvqei0","pricing_plan_id":"cebpf4jnsgd1na2vs0mg"},{"bike_id":"8dc6ba3b-eadd-4bf8-84a4-63fd959b82ac","system_id":"levelo_inurba_marseille","lat":43.27317,"lon":5.39095,"is_reserved":false,"is_disabled":false,"rental_uris":{"android":"levelo://app?vid=8dc6ba3b-eadd-4bf8-84a4-63fd959b82ac","ios":"levelo://app?vid=8dc6ba3b-eadd-4bf8-84a4-63fd959b82ac"},"vehicle_type_id":"4","last_reported":1734182195,"current_range_meters":27600,"station_id":"ce4bhgp2rcd13ifvqfe0","pricing_plan_id":"cebpf4jnsgd1na2vs0mg"},{"bike_id":"d5b302aa-3c79-4213-a248-a81ed420b89b","system_id":"levelo_inurba_marseille","lat":43.24388,"lon":5.37058,"is_reserved":false,"is_disabled":false,"rental_uris":{"android":"levelo://app?vid=d5b302aa-3c79-4213-a248-a81ed420b89b","ios":"levelo://app?vid=d5b302aa-3c79-4213-a248-a81ed420b89b"},"vehicle_type_id":"4","last_reported":1734182195,"current_range_meters":6800,"station_id":"ce4bhhh2rcd13ifvqfk0","pricing_plan_id":"cebpf4jnsgd1na2vs0mg"},{"bike_id":"9c8c1480-9ffa-4086-913c-c2125a6eb848","system_id":"levelo_inurba_marseille","lat":43.22933,"lon":5.35377,"is_reserved":false,"is_disabled":false,"rental_uris":{"android":"levelo://app?vid=9c8c1480-9ffa-4086-913c-c2125a6eb848","ios":"levelo://app?vid=9c8c1480-9ffa-4086-913c-c2125a6eb848"},"vehicle_type_id":"4","last_reported":1734182195,"current_range_meters":28000,"station_id":"cpo3532slgdg3j2ikp40","pricing_plan_id":"cebpf4jnsgd1na2vs0mg"},{"bike_id":"bcf74671-8c62-40b9-aa07-77db84144656","system_id":"levelo_inurba_marseille","lat":43.21994,"lon":5.34622,"is_reserved":false,"is_disabled":false,"rental_uris":{"android":"levelo://app?vid=bcf74671-8c62-40b9-aa07-77db84144656","ios":"levelo://app?vid=bcf74671-8c62-40b9-aa07-77db84144656"},"vehicle_type_id":"4","last_reported":1734182195,"current_range_meters":25200,"station_id":"cpo3532slgdg3j2ikp40","pricing_plan_id":"cebpf4jnsgd1na2vs0mg"},{"bike_id":"5e7d6ff5-442e-4736-a6a1-2833041cb2f3","system_id":"levelo_inurba_marseille","lat":43.2802,"lon":5.36953,"is_reserved":false,"is_disabled":false,"rental_uris":{"android":"levelo://app?vid=5e7d6ff5-442e-4736-a6a1-2833041cb2f3","ios":"levelo://app?vid=5e7d6ff5-442e-4736-a6a1-2833041cb2f3"},"vehicle_type_id":"4","last_reported":1734182195,"current_range_meters":9600,"station_id":"ce4bha12rcd13ifvqef0","pricing_plan_id":"cebpf4jnsgd1na2vs0mg"},{"bike_id":"a8e64c22-66a2-4f25-bf2f-fb3eb6acebc1","system_id":"levelo_inurba_marseille","lat":43.29848,"lon":5.36292,"is_reserved":false,"is_disabled":false,"rental_uris":{"android":"levelo://app?vid=a8e64c22-66a2-4f25-bf2f-fb3eb6acebc1","ios":"levelo://app?vid=a8e64c22-66a2-4f25-bf2f-fb3eb6acebc1"},"vehicle_type_id":"4","last_reported":1734182195,"current_range_meters":36800,"station_id":"ce4bgpp2rcd13ifvqc3g","pricing_plan_id":"cebpf4jnsgd1na2vs0mg"},{"bike_id":"bbfae43d-1d15-4d73-842a-e7269bb01cc3","system_id":"levelo_inurba_marseille","lat":43.23149,"lon":5.43724,"is_reserved":false,"is_disabled":false,"rental_uris":{"android":"levelo://app?vid=bbfae43d-1d15-4d73-842a-e7269bb01cc3","ios":"levelo://app?vid=bbfae43d-1d15-4d73-842a-e7269bb01cc3"},"vehicle_type_id":"4","last_reported":1734182195,"current_range_meters":14400,"station_id":"ce4bhmp2rcd13ifvqgog","pricing_plan_id":"cebpf4jnsgd1na2vs0mg"},{"bike_id":"be1f9cc3-0822-4a4b-8350-1fbc88eba4c2","system_id":"levelo_inurba_marseille","lat":43.28419,"lon":5.34975,"is_reserved":false,"is_disabled":true,"rental_uris":{"android":"levelo://app?vid=be1f9cc3-0822-4a4b-8350-1fbc88eba4c2","ios":"levelo://app?vid=be1f9cc3-0822-4a4b-8350-1fbc88eba4c2"},"vehicle_type_id":"4","last_reported":1734182195,"current_range_meters":800,"station_id":"ce4bhbh2rcd13ifvqepg","pricing_plan_id":"cebpf4jnsgd1na2vs0mg"},{"bike_id":"9d5f11ae-e28b-41c9-9497-65a3dd46a68e","system_id":"levelo_inurba_marseille","lat":43.29486,"lon":5.3747,"is_reserved":false,"is_disabled":false,"rental_uris":{"android":"levelo://app?vid=9d5f11ae-e28b-41c9-9497-65a3dd46a68e","ios":"levelo://app?vid=9d5f11ae-e28b-41c9-9497-65a3dd46a68e"},"vehicle_type_id":"4","last_reported":1734182195,"current_range_meters":34000,"station_id":"","pricing_plan_id":"cebpf4jnsgd1na2vs0mg"},{"bike_id":"a49c8a43-6aa0-466a-aafc-992b9b807122","system_id":"levelo_inurba_marseille","lat":43.2415,"lon":5.36445,"is_reserved":false,"is_disabled":false,"rental_uris":{"android":"levelo://app?vid=a49c8a43-6aa0-466a-aafc-992b9b807122","ios":"levelo://app?vid=a49c8a43-6aa0-466a-aafc-992b9b807122"},"vehicle_type_id":"4","last_reported":1734182195,"current_range_meters":36000,"station_id":"cpo36qri1sfpv3e86is0","pricing_plan_id":"cebpf4jnsgd1na2vs0mg"},{"bike_id":"8674da7b-bf49-4a0e-825e-fd06ad2640e9","system_id":"levelo_inurba_marseille","lat":43.26213,"lon":5.37445,"is_reserved":false,"is_disabled":false,"rental_uris":{"android":"levelo://app?vid=8674da7b-bf49-4a0e-825e-fd06ad2640e9","ios":"levelo://app?vid=8674da7b-bf49-4a0e-825e-fd06ad2640e9"},"vehicle_type_id":"4","last_reported":1734182195,"current_range_meters":16800,"station_id":"ce4bhgp2rcd13ifvqfc0","pricing_plan_id":"cebpf4jnsgd1na2vs0mg"},{"bike_id":"fa23f5ed-073a-4bbe-8ac6-8e0b3f714056","system_id":"levelo_inurba_marseille","lat":43.3044,"lon":5.37934,"is_reserved":false,"is_disabled":false,"rental_uris":{"android":"levelo://app?vid=fa23f5ed-073a-4bbe-8ac6-8e0b3f714056","ios":"levelo://app?vid=fa23f5ed-073a-4bbe-8ac6-8e0b3f714056"},"vehicle_type_id":"4","last_reported":1734182195,"current_range_meters":38800,"station_id":"ce4bgup2rcd13ifvqcn0","pricing_plan_id":"cebpf4jnsgd1na2vs0mg"},{"bike_id":"ebcf25ce-7700-48c9-8b71-99e6f7a4bdfc","system_id":"levelo_inurba_marseille","lat":43.284462,"lon":5.392079,"is_reserved":false,"is_disabled":false,"rental_uris":{"android":"levelo://app?vid=ebcf25ce-7700-48c9-8b71-99e6f7a4bdfc","ios":"levelo://app?vid=ebcf25ce-7700-48c9-8b71-99e6f7a4bdfc"},"vehicle_type_id":"4","last_reported":1734182195,"current_range_meters":11200,"station_id":"ce4bhoh2rcd13ifvqh5g","pricing_plan_id":"cebpf4jnsgd1na2vs0mg"},{"bike_id":"a85711e9-848e-45e4-8d6d-4099b9649fdb","system_id":"levelo_inurba_marseille","lat":43.24807,"lon":5.37453,"is_reserved":false,"is_disabled":false,"rental_uris":{"android":"levelo://app?vid=a85711e9-848e-45e4-8d6d-4099b9649fdb","ios":"levelo://app?vid=a85711e9-848e-45e4-8d6d-4099b9649fdb"},"vehicle_type_id":"4","last_reported":1734182195,"current_range_meters":21600,"station_id":"ce4bhgh2rcd13ifvqfb0","pricing_plan_id":"cebpf4jnsgd1na2vs0mg"},{"bike_id":"ac32ff4c-480d-4149-b03d-1b87a60e454a","system_id":"levelo_inurba_marseille","lat":43.28267,"lon":5.3506,"is_reserved":false,"is_disabled":false,"rental_uris":{"android":"levelo://app?vid=ac32ff4c-480d-4149-b03d-1b87a60e454a","ios":"levelo://app?vid=ac32ff4c-480d-4149-b03d-1b87a60e454a"},"vehicle_type_id":"4","last_reported":1734182195,"current_range_meters":33600,"station_id":"ce4bhbp2rcd13ifvqerg","pricing_plan_id":"cebpf4jnsgd1na2vs0mg"},{"bike_id":"69d51b9b-80ef-4d48-9a7a-3ece6e989f15","system_id":"levelo_inurba_marseille","lat":43.23182,"lon":5.3998,"is_reserved":false,"is_disabled":false,"rental_uris":{"android":"levelo://app?vid=69d51b9b-80ef-4d48-9a7a-3ece6e989f15","ios":"levelo://app?vid=69d51b9b-80ef-4d48-9a7a-3ece6e989f15"},"vehicle_type_id":"4","last_reported":1734182195,"current_range_meters":22400,"station_id":"ce4bhn12rcd13ifvqgqg","pricing_plan_id":"cebpf4jnsgd1na2vs0mg"},{"bike_id":"8fc37d7c-60fa-46fb-9d18-76c5524994e8","system_id":"levelo_inurba_marseille","lat":43.29521,"lon":5.37509,"is_reserved":false,"is_disabled":true,"rental_uris":{"android":"levelo://app?vid=8fc37d7c-60fa-46fb-9d18-76c5524994e8","ios":"levelo://app?vid=8fc37d7c-60fa-46fb-9d18-76c5524994e8"},"vehicle_type_id":"4","last_reported":1734182195,"current_range_meters":38800,"station_id":"ce4bgkp2rcd13ifvqbmg","pricing_plan_id":"cebpf4jnsgd1na2vs0mg"},{"bike_id":"60f3031c-7743-44dc-b91d-151f4319c1b9","system_id":"levelo_inurba_marseille","lat":43.29885,"lon":5.43657,"is_reserved":false,"is_disabled":false,"rental_uris":{"android":"levelo://app?vid=60f3031c-7743-44dc-b91d-151f4319c1b9","ios":"levelo://app?vid=60f3031c-7743-44dc-b91d-151f4319c1b9"},"vehicle_type_id":"4","last_reported":1734182195,"current_range_meters":38800,"station_id":"ce4bhpp2rcd13ifvqhfg","pricing_plan_id":"cebpf4jnsgd1na2vs0mg"},{"bike_id":"48b39c2a-46c2-4c03-9fb1-51e5cd2a396b","system_id":"levelo_inurba_marseille","lat":43.26941,"lon":5.40253,"is_reserved":false,"is_disabled":false,"rental_uris":{"android":"levelo://app?vid=48b39c2a-46c2-4c03-9fb1-51e5cd2a396b","ios":"levelo://app?vid=48b39c2a-46c2-4c03-9fb1-51e5cd2a396b"},