{"last_updated":1750345830,"ttl":60,"version":"2.2","data":{"bikes":[{"bike_id":"3da29fb8-fc97-44c6-b9ac-31dd456b2fd4","system_id":"levelo_inurba_marseille","lat":43.33771,"lon":5.37424,"is_reserved":false,"is_disabled":true,"rental_uris":{"android":"levelo://app?vid=3da29fb8-fc97-44c6-b9ac-31dd456b2fd4","ios":"levelo://app?vid=3da29fb8-fc97-44c6-b9ac-31dd456b2fd4"},"vehicle_type_id":"4","last_reported":1750345830,"current_range_meters":0,"station_id":"","pricing_plan_id":"cebpf4jnsgd1na2vs0mg"},{"bike_id":"01861ad8-a8d7-4be6-816e-651927c87584","system_id":"levelo_inurba_marseille","lat":43.33751,"lon":5.37456,"is_reserved":false,"is_disabled":true,"rental_uris":{"android":"levelo://app?vid=01861ad8-a8d7-4be6-816e-651927c87584","ios":"levelo://app?vid=01861ad8-a8d7-4be6-816e-651927c87584"},"vehicle_type_id":"4","last_reported":1750345830,"current_range_meters":0,"station_id":"","pricing_plan_id":"cebpf4jnsgd1na2vs0mg"},{"bike_id":"dbfce7a3-3423-4296-b193-a177dea644ac","system_id":"levelo_inurba_marseille","lat":43.272841,"lon":5.416155,"is_reserved":false,"is_disabled":true,"rental_uris":{"android":"levelo://app?vid=dbfce7a3-3423-4296-b193-a177dea644ac","ios":"levelo://app?vid=dbfce7a3-3423-4296-b193-a177dea644ac"},"vehicle_type_id":"4","last_reported":1750345830,"current_range_meters":0,"station_id":"","pricing_plan_id":"cebpf4jnsgd1na2vs0mg"},{"bike_id":"eff675e9-75ca-47c9-bd95-5090bc060d4f","system_id":"levelo_inurba_marseille","lat":43.34075,"lon":5.36094,"is_reserved":false,"is_disabled":true,"rental_uris":{"android":"levelo://app?vid=eff675e9-75ca-47c9-bd95-5090bc060d4f","ios":"levelo://app?vid=eff675e9-75ca-47c9-bd95-5090bc060d4f"},"vehicle_type_id":"4","last_reported":1750345830,"current_range_meters":0,"station_id":"","pricing_plan_id":"cebpf4jnsgd1na2vs0mg"},{"bike_id":"d2bd57c8-6b64-48db-ad24-5398eb3fd9d6","system_id":"levelo_inurba_marseille","lat":43.337444,"lon":5.374475,"is_reserved":false,"is_disabled":true,"rental_uris":{"android":"levelo://app?vid=d2bd57c8-6b64-48db-ad24-5398eb3fd9d6","ios":"levelo://app?vid=d2bd57c8-6b64-48db-ad24-5398eb3fd9d6"},"vehicle_type_id":"4","last_reported":1750345830,"current_range_meters":0,"station_id":"","pricing_plan_id":"cebpf4jnsgd1na2vs0mg"},{"bike_id":"62a493c7-4534-4419-ad43-0582de34a72a","system_id":"levelo_inurba_marseille","lat":43.21366,"lon":5.355183,"is_reserved":false,"is_disabled":true,"rental_uris":{"android":"levelo://app?vid=62a493c7-4534-4419-ad43-0582de34a72a","ios":"levelo://app?vid=62a493c7-4534-4419-ad43-0582de34a72a"},"vehicle_type_id":"4","last_reported":1750345830,"current_range_meters":0,"station_id":"","pricing_plan_id":"cebpf4jnsgd1na2vs0mg"},{"bike_id":"b9e37238-9abe-4b8b-b932-edaee33a7e59","system_id":"levelo_inurba_marseille","lat":43.27463,"lon":5.39033,"is_reserved":false,"is_disabled":true,"rental_uris":{"android":"levelo://app?vid=b9e37238-9abe-4b8b-b932-edaee33a7e59","ios":"levelo://app?vid=b9e37238-9abe-4b8b-b932-edaee33a7e59"},"vehicle_type_id":"4","last_reported":1750345830,"current_range_meters":0,"station_id":"","pricing_plan_id":"cebpf4jnsgd1na2vs0mg"},{"bike_id":"8ad9234e-001a-4549-8bba-9baf2ef98804","system_id":"levelo_inurba_marseille","lat":43.2689,"lon":5.39883,"is_reserved":false,"is_disabled":true,"rental_uris":{"android":"levelo://app?vid=8ad9234e-001a-4549-8bba-9baf2ef98804","ios":"levelo://app?vid=8ad9234e-001a-4549-8bba-9baf2ef98804"},"vehicle_type_id":"4","last_reported":1750345830,"current_range_meters":0,"station_id":"","pricing_plan_id":"cebpf4jnsgd1na2vs0mg"},{"bike_id":"47196f00-388f-4b3b-a4de-3dba126cd107","system_id":"levelo_inurba_marseille","lat":43.24355,"lon":5.41181,"is_reserved":false,"is_disabled":true,"rental_uris":{"android":"levelo://app?vid=47196f00-388f-4b3b-a4de-3dba126cd107","ios":"levelo://app?vid=47196f00-388f-4b3b-a4de-3dba126cd107"},"vehicle_type_id":"4","last_reported":1750345830,"current_range_meters":0,"station_id":"","pricing_plan_id":"cebpf4jnsgd1na2vs0mg"},{"bike_id":"4fa45ca6-f376-4694-b527-69a47b552011","system_id":"levelo_inurba_marseille","lat":43.28313,"lon":5.38996,"is_reserved":false,"is_disabled":true,"rental_uris":{"android":"levelo://app?vid=4fa45ca6-f376-4694-b527-69a47b552011","ios":"levelo://app?vid=4fa45ca6-f376-4694-b527-69a47b552011"},"vehicle_type_id":"4","last_reported":1750345830,"current_range_meters":0,"station_id":"","pricing_plan_id":"cebpf4jnsgd1na2vs0mg"},{"bike_id":"d6609b4f-333b-43c1-9ebe-8726f5e76e88","system_id":"levelo_inurba_marseille","lat":43.337444,"lon":5.374475,"is_reserved":false,"is_disabled":true,"rental_uris":{"android":"levelo://app?vid=d6609b4f-333b-43c1-9ebe-8726f5e76e88","ios":"levelo://app?vid=d6609b4f-333b-43c1-9ebe-8726f5e76e88"},"vehicle_type_id":"4","last_reported":1750345830,"current_range_meters":0,"station_id":"","pricing_plan_id":"cebpf4jnsgd1na2vs0mg"},{"bike_id":"57c83ce1-960e-466a-b6c5-d93bc130c53a","system_id":"levelo_inurba_marseille","lat":43.24891,"lon":5.39001,"is_reserved":false,"is_disabled":true,"rental_uris":{"android":"levelo://app?vid=57c83ce1-960e-466a-b6c5-d93bc130c53a","ios":"levelo://app?vid=57c83ce1-960e-466a-b6c5-d93bc130c53a"},"vehicle_type_id":"4","last_reported":1750345830,"current_range_meters":0,"station_id":"","pricing_plan_id":"cebpf4jnsgd1na2vs0mg"},{"bike_id":"23c8ff65-75f8-4f46-aaab-55f3b13518ba","system_id":"levelo_inurba_marseille","lat":43.2996,"lon":5.38494,"is_reserved":false,"is_disabled":true,"rental_uris":{"android":"levelo://app?vid=23c8ff65-75f8-4f46-aaab-55f3b13518ba","ios":"levelo://app?vid=23c8ff65-75f8-4f46-aaab-55f3b13518ba"},"vehicle_type_id":"4","last_reported":1750345830,"current_range_meters":0,"station_id":"ce4bgj92rcd13ifvqbd0","pricing_plan_id":"cebpf4jnsgd1na2vs0mg"},{"bike_id":"2147a5a8-bc4b-4ee5-a286-0cc564657b69","system_id":"levelo_inurba_marseille","lat":43.28461,"lon":5.38433,"is_reserved":false,"is_disabled":true,"rental_uris":{"android":"levelo://app?vid=2147a5a8-bc4b-4ee5-a286-0cc564657b69","ios":"levelo://app?vid=2147a5a8-bc4b-4ee5-a286-0cc564657b69"},"vehicle_type_id":"4","last_reported":1750345830,"current_range_meters":0,"station_id":"ce4bh512rcd13ifvqe3g","pricing_plan_id":"cebpf4jnsgd1na2vs0mg"},{"bike_id":"e5b80e95-5886-4c2b-8f0b-dfb63dd82be2","system_id":"levelo_inurba_marseille","lat":43.28456,"lon":5.35895,"is_reserved":false,"is_disabled":true,"rental_uris":{"android":"levelo://app?vid=e5b80e95-5886-4c2b-8f0b-dfb63dd82be2","ios":"levelo://app?vid=e5b80e95-5886-4c2b-8f0b-dfb63dd82be2"},"vehicle_type_id":"4","last_reported":1750345830,"current_range_meters":0,"station_id":"ce4bhah2rcd13ifvqei0","pricing_plan_id":"cebpf4jnsgd1na2vs0mg"},{"bike_id":"3de62681-0ccc-4fa4-94fd-5633fe9190b4","system_id":"levelo_inurba_marseille","lat":43.28927,"lon":5.36644,"is_reserved":false,"is_disabled":true,"rental_uris":{"android":"levelo://app?vid=3de62681-0ccc-4fa4-94fd-5633fe9190b4","ios":"levelo://app?vid=3de62681-0ccc-4fa4-94fd-5633fe9190b4"},"vehicle_type_id":"4","last_reported":1750345830,"current_range_meters":0,"station_id":"ce4bhap2rcd13ifvqek0","pricing_plan_id":"cebpf4jnsgd1na2vs0mg"},{"bike_id":"f5ad619e-f17e-43c8-b8cd-663d67133d1b","system_id":"levelo_inurba_marseille","lat":43.284099,"lon":5.349905,"is_reserved":false,"is_disabled":true,"rental_uris":{"android":"levelo://app?vid=f5ad619e-f17e-43c8-b8cd-663d67133d1b","ios":"levelo://app?vid=f5ad619e-f17e-43c8-b8cd-663d67133d1b"},"vehicle_type_id":"4","last_reported":1750345830,"current_range_meters":0,"station_id":"ce4bhbh2rcd13ifvqepg","pricing_plan_id":"cebpf4jnsgd1na2vs0mg"},{"bike_id":"4a08a65f-b966-4c23-acad-7ad95b6c4cbd","system_id":"levelo_inurba_marseille","lat":43.28612,"lon":5.35103,"is_reserved":false,"is_disabled":true,"rental_uris":{"android":"levelo://app?vid=4a08a65f-b966-4c23-acad-7ad95b6c4cbd","ios":"levelo://app?vid=4a08a65f-b966-4c23-acad-7ad95b6c4cbd"},"vehicle_type_id":"4","last_reported":1750345830,"current_range_meters":0,"station_id":"ce4bhch2rcd13ifvqeug","pricing_plan_id":"cebpf4jnsgd1na2vs0mg"},{"bike_id":"56b211be-86b3-44c3-8f04-78345f44fa04","system_id":"levelo_inurba_marseille","lat":43.28632,"lon":5.35115,"is_reserved":false,"is_disabled":true,"rental_uris":{"android":"levelo://app?vid=56b211be-86b3-44c3-8f04-78345f44fa04","ios":"levelo://app?vid=56b211be-86b3-44c3-8f04-78345f44fa04"},"vehicle_type_id":"4","last_reported":1750345830,"current_range_meters":0,"station_id":"ce4bhch2rcd13ifvqeug","pricing_plan_id":"cebpf4jnsgd1na2vs0mg"},{"bike_id":"b1b21f7f-63a2-4876-a8ff-aeabead3c053","system_id":"levelo_inurba_marseille","lat":43.23148,"lon":5.43703,"is_reserved":false,"is_disabled":true,"rental_uris":{"android":"levelo://app?vid=b1b21f7f-63a2-4876-a8ff-aeabead3c053","ios":"levelo://app?vid=b1b21f7f-63a2-4876-a8ff-aeabead3c053"},"vehicle_type_id":"4","last_reported":1750345830,"current_range_meters":0,"station_id":"ce4bhmp2rcd13ifvqgog","pricing_plan_id":"cebpf4jnsgd1na2vs0mg"},{"bike_id":"26b3ff76-101f-4251-ab64-e53344c3642d","system_id":"levelo_inurba_marseille","lat":43.28147,"lon":5.42654,"is_reserved":false,"is_disabled":true,"rental_uris":{"android":"levelo://app?vid=26b3ff76-101f-4251-ab64-e53344c3642d","ios":"levelo://app?vid=26b3ff76-101f-4251-ab64-e53344c3642d"},"vehicle_type_id":"4","last_reported":1750345830,"current_range_meters":0,"station_id":"ce4bhnh2rcd13ifvqgug","pricing_plan_id":"cebpf4jnsgd1na2vs0mg"},{"bike_id":"d600dcc7-8a55-43fa-90a4-da588cbae671","system_id":"levelo_inurba_marseille","lat":43.30375,"lon":5.42479,"is_reserved":false,"is_disabled":true,"rental_uris":{"android":"levelo://app?vid=d600dcc7-8a55-43fa-90a4-da588cbae671","ios":"levelo://app?vid=d600dcc7-8a55-43fa-90a4-da588cbae671"},"vehicle_type_id":"4","last_reported":1750345830,"current_range_meters":0,"station_id":"ce4bhoh2rcd13ifvqh6g","pricing_plan_id":"cebpf4jnsgd1na2vs0mg"},{"bike_id":"98bd3186-df87-4811-9803-0527da526e51","system_id":"levelo_inurba_marseille","lat":43.29898,"lon":5.43667,"is_reserved":false,"is_disabled":true,"rental_uris":{"android":"levelo://app?vid=98bd3186-df87-4811-9803-0527da526e51","ios":"levelo://app?vid=98bd3186-df87-4811-9803-0527da526e51"},"vehicle_type_id":"4","last_reported":1750345830,"current_range_meters":0,"station_id":"ce4bhpp2rcd13ifvqhfg","pricing_plan_id":"cebpf4jnsgd1na2vs0mg"},{"bike_id":"651764ad-d4f4-48d6-bd2b-a7c85472281b","system_id":"levelo_inurba_marseille","lat":43.31761,"lon":5.39,"is_reserved":false,"is_disabled":true,"rental_uris":{"android":"levelo://app?vid=651764ad-d4f4-48d6-bd2b-a7c85472281b","ios":"levelo://app?vid=651764ad-d4f4-48d6-bd2b-a7c85472281b"},"vehicle_type_id":"4","last_reported":1750345830,"current_range_meters":0,"station_id":"ce4bhqp2rcd13ifvqhng","pricing_plan_id":"cebpf4jnsgd1na2vs0mg"},{"bike_id":"3bbb3ce5-c63f-42a2-b2a1-470bb9065f9e","system_id":"levelo_inurba_marseille","lat":43.21196,"lon":5.35062,"is_reserved":false,"is_disabled":true,"rental_uris":{"android":"levelo://app?vid=3bbb3ce5-c63f-42a2-b2a1-470bb9065f9e","ios":"levelo://app?vid=3bbb3ce5-c63f-42a2-b2a1-470bb9065f9e"},"vehicle_type_id":"4","last_reported":1750345830,"current_range_meters":0,"station_id":"st_cvj6sg6p6f1abm77japg","pricing_plan_id":"cebpf4jnsgd1na2vs0mg"},{"bike_id":"3af1020d-5cca-4da4-ba60-dcacd727d863","system_id":"levelo_inurba_marseille","lat":43.30008,"lon":5.38503,"is_reserved":false,"is_disabled":true,"rental_uris":{"android":"levelo://app?vid=3af1020d-5cca-4da4-ba60-dcacd727d863","ios":"levelo://app?vid=3af1020d-5cca-4da4-ba60-dcacd727d863"},"vehicle_type_id":"4","last_reported":1750345830,"current_range_meters":400,"station_id":"ce4bgj92rcd13ifvqbd0","pricing_plan_id":"cebpf4jnsgd1na2vs0mg"},{"bike_id":"703dd916-8687-4975-ae5c-ea3772cc7f12","system_id":"levelo_inurba_marseille","lat":43.29519,"lon":5.39027,"is_reserved":false,"is_disabled":true,"rental_uris":{"android":"levelo://app?vid=703dd916-8687-4975-ae5c-ea3772cc7f12","ios":"levelo://app?vid=703dd916-8687-4975-ae5c-ea3772cc7f12"},"vehicle_type_id":"4","last_reported":1750345830,"current_range_meters":400,"station_id":"ce4bh3p2rcd13ifvqdp0","pricing_plan_id":"cebpf4jnsgd1na2vs0mg"},{"bike_id":"b5d5293a-9d79-454b-8138-9b5bad8e3180","system_id":"levelo_inurba_marseille","lat":43.28929,"lon":5.38405,"is_reserved":false,"is_disabled":true,"rental_uris":{"android":"levelo://app?vid=b5d5293a-9d79-454b-8138-9b5bad8e3180","ios":"levelo://app?vid=b5d5293a-9d79-454b-8138-9b5bad8e3180"},"vehicle_type_id":"4","last_reported":1750345830,"current_range_meters":400,"station_id":"ce4bh612rcd13ifvqe6g","pricing_plan_id":"cebpf4jnsgd1na2vs0mg"},{"bike_id":"32d55e80-ceda-4026-baa1-e3b96cec02cb","system_id":"levelo_inurba_marseille","lat":43.25413,"lon":5.37563,"is_reserved":false,"is_disabled":true,"rental_uris":{"android":"levelo://app?vid=32d55e80-ceda-4026-baa1-e3b96cec02cb","ios":"levelo://app?vid=32d55e80-ceda-4026-baa1-e3b96cec02cb"},"vehicle_type_id":"4","last_reported":1750345830,"current_range_meters":800,"station_id":"","pricing_plan_id":"cebpf4jnsgd1na2vs0mg"},{"bike_id":"dabc6c41-b12b-4140-9777-01447687696b","system_id":"levelo_inurba_marseille","lat":43.29785,"lon":5.37323,"is_reserved":false,"is_disabled":true,"rental_uris":{"android":"levelo://app?vid=dabc6c41-b12b-4140-9777-01447687696b","ios":"levelo://app?vid=dabc6c41-b12b-4140-9777-01447687696b"},"vehicle_type_id":"4","last_reported":1750345830,"current_range_meters":800,"station_id":"","pricing_plan_id":"cebpf4jnsgd1na2vs0mg"},{"bike_id":"3515ca02-36d1-4932-9ee5-b56400abda42","system_id":"levelo_inurba_marseille","lat":43.29364,"lon":5.37829,"is_reserved":false,"is_disabled":true,"rental_uris":{"android":"levelo://app?vid=3515ca02-36d1-4932-9ee5-b56400abda42","ios":"levelo://app?vid=3515ca02-36d1-4932-9ee5-b56400abda42"},"vehicle_type_id":"4","last_reported":1750345830,"current_range_meters":800,"station_id":"ce4bgjh2rcd13ifvqbf0","pricing_plan_id":"cebpf4jnsgd1na2vs0mg"},{"bike_id":"fb7f0fca-328c-4590-8315-5fcf92aa068d","system_id":"levelo_inurba_marseille","lat":43.29368,"lon":5.37832,"is_reserved":false,"is_disabled":true,"rental_uris":{"android":"levelo://app?vid=fb7f0fca-328c-4590-8315-5fcf92aa068d","ios":"levelo://app?vid=fb7f0fca-328c-4590-8315-5fcf92aa068d"},"vehicle_type_id":"4","last_reported":1750345830,"current_range_meters":800,"station_id":"ce4bgjh2rcd13ifvqbf0","pricing_plan_id":"cebpf4jnsgd1na2vs0mg"},{"bike_id":"3c63c1b2-ee66-47c5-9746-1eeb101b0078","system_id":"levelo_inurba_marseille","lat":43.22931,"lon":5.35376,"is_reserved":false,"is_disabled":true,"rental_uris":{"android":"levelo://app?vid=3c63c1b2-ee66-47c5-9746-1eeb101b0078","ios":"levelo://app?vid=3c63c1b2-ee66-47c5-9746-1eeb101b0078"},"vehicle_type_id":"4","last_reported":1750345830,"current_range_meters":800,"station_id":"cpo3532slgdg3j2ikp40","pricing_plan_id":"cebpf4jnsgd1na2vs0mg"},{"bike_id":"d4b2375e-15c2-4b2f-a628-6d423b46231b","system_id":"levelo_inurba_marseille","lat":43.24255,"lon":5.41127,"is_reserved":false,"is_disabled":true,"rental_uris":{"android":"levelo://app?vid=d4b2375e-15c2-4b2f-a628-6d423b46231b","ios":"levelo://app?vid=d4b2375e-15c2-4b2f-a628-6d423b46231b"},"vehicle_type_id":"4","last_reported":1750345830,"current_range_meters":1200,"station_id":"","pricing_plan_id":"cebpf4jnsgd1na2vs0mg"},{"bike_id":"64b8b83e-503a-4015-b7c1-3bd9b6c0bb97","system_id":"levelo_inurba_marseille","lat":43.30316,"lon":5.45161,"is_reserved":false,"is_disabled":true,"rental_uris":{"android":"levelo://app?vid=64b8b83e-503a-4015-b7c1-3bd9b6c0bb97","ios":"levelo://app?vid=64b8b83e-503a-4015-b7c1-3bd9b6c0bb97"},"vehicle_type_id":"4","last_reported":1750345830,"current_range_meters":1200,"station_id":"","pricing_plan_id":"cebpf4jnsgd1na2vs0mg"},{"bike_id":"551a2c03-f58e-4882-8df7-4fb2e1182a11","system_id":"levelo_inurba_marseille","lat":43.29253,"lon":5.3845,"is_reserved":false,"is_disabled":true,"rental_uris":{"android":"levelo://app?vid=551a2c03-f58e-4882-8df7-4fb2e1182a11","ios":"levelo://app?vid=551a2c03-f58e-4882-8df7-4fb2e1182a11"},"vehicle_type_id":"4","last_reported":1750345830,"current_range_meters":1200,"station_id":"ce4bh692rcd13ifvqea0","pricing_plan_id":"cebpf4jnsgd1na2vs0mg"},{"bike_id":"b3e89d1d-7eb4-40b3-a2e1-ea7613e71819","system_id":"levelo_inurba_marseille","lat":43.29291,"lon":5.37454,"is_reserved":false,"is_disabled":true,"rental_uris":{"android":"levelo://app?vid=b3e89d1d-7eb4-40b3-a2e1-ea7613e71819","ios":"levelo://app?vid=b3e89d1d-7eb4-40b3-a2e1-ea7613e71819"},"vehicle_type_id":"4","last_reported":1750345830,"current_range_meters":1600,"station_id":"ce4bgi12rcd13ifvqb70","pricing_plan_id":"cebpf4jnsgd1na2vs0mg"},{"bike_id":"d8e54add-ecad-4219-bf84-ee2a058da904","system_id":"levelo_inurba_marseille","lat":43.31168,"lon":5.38716,"is_reserved":false,"is_disabled":true,"rental_uris":{"android":"levelo://app?vid=d8e54add-ecad-4219-bf84-ee2a058da904","ios":"levelo://app?vid=d8e54add-ecad-4219-bf84-ee2a058da904"},"vehicle_type_id":"4","last_reported":1750345830,"current_range_meters":1600,"station_id":"ce4bgv12rcd13ifvqcp0","pricing_plan_id":"cebpf4jnsgd1na2vs0mg"},{"bike_id":"4971b07a-0d3d-4079-9c5e-e822862c31e1","system_id":"levelo_inurba_marseille","lat":43.292725,"lon":5.401225,"is_reserved":false,"is_disabled":true,"rental_uris":{"android":"levelo://app?vid=4971b07a-0d3d-4079-9c5e-e822862c31e1","ios":"levelo://app?vid=4971b07a-0d3d-4079-9c5e-e822862c31e1"},"vehicle_type_id":"4","last_reported":1750345830,"current_range_meters":1600,"station_id":"ce4bh312rcd13ifvqdk0","pricing_plan_id":"cebpf4jnsgd1na2vs0mg"},{"bike_id":"34231f89-7770-4d57-bb89-8175fb355914","system_id":"levelo_inurba_marseille","lat":43.25082,"lon":5.39524,"is_reserved":false,"is_disabled":false,"rental_uris":{"android":"levelo://app?vid=34231f89-7770-4d57-bb89-8175fb355914","ios":"levelo://app?vid=34231f89-7770-4d57-bb89-8175fb355914"},"vehicle_type_id":"4","last_reported":1750345830,"current_range_meters":2800,"station_id":"ce4bhm12rcd13ifvqgkg","pricing_plan_id":"cebpf4jnsgd1na2vs0mg"},{"bike_id":"ec01be80-b228-49a9-bb2c-57dc2fb1f199","system_id":"levelo_inurba_marseille","lat":43.27261,"lon":5.40963,"is_reserved":false,"is_disabled":false,"rental_uris":{"android":"levelo://app?vid=ec01be80-b228-49a9-bb2c-57dc2fb1f199","ios":"levelo://app?vid=ec01be80-b228-49a9-bb2c-57dc2fb1f199"},"vehicle_type_id":"4","last_reported":1750345830,"current_range_meters":3200,"station_id":"","pricing_plan_id":"cebpf4jnsgd1na2vs0mg"},{"bike_id":"79617192-0047-45c1-a2ae-56863b6e6b17","system_id":"levelo_inurba_marseille","lat":43.29719,"lon":5.37695,"is_reserved":false,"is_disabled":false,"rental_uris":{"android":"levelo://app?vid=79617192-0047-45c1-a2ae-56863b6e6b17","ios":"levelo://app?vid=79617192-0047-45c1-a2ae-56863b6e6b17"},"vehicle_type_id":"4","last_reported":1750345830,"current_range_meters":3200,"station_id":"ce4bgkh2rcd13ifvqbl0","pricing_plan_id":"cebpf4jnsgd1na2vs0mg"},{"bike_id":"25c23b39-100c-40b0-984b-a9ccedafbb68","system_id":"levelo_inurba_marseille","lat":43.30308,"lon":5.36894,"is_reserved":false,"is_disabled":false,"rental_uris":{"android":"levelo://app?vid=25c23b39-100c-40b0-984b-a9ccedafbb68","ios":"levelo://app?vid=25c23b39-100c-40b0-984b-a9ccedafbb68"},"vehicle_type_id":"4","last_reported":1750345830,"current_range_meters":3200,"station_id":"ce4bgqh2rcd13ifvqc5g","pricing_plan_id":"cebpf4jnsgd1na2vs0mg"},{"bike_id":"93e4d4b7-e41c-45b5-8d2d-2d710017b92a","system_id":"levelo_inurba_marseille","lat":43.29525,"lon":5.42274,"is_reserved":false,"is_disabled":false,"rental_uris":{"android":"levelo://app?vid=93e4d4b7-e41c-45b5-8d2d-2d710017b92a","ios":"levelo://app?vid=93e4d4b7-e41c-45b5-8d2d-2d710017b92a"},"vehicle_type_id":"4","last_reported":1750345830,"current_range_meters":3200,"station_id":"ce4bhph2rcd13ifvqhdg","pricing_plan_id":"cebpf4jnsgd1na2vs0mg"},{"bike_id":"d2874325-b8a4-494a-844f-8778f283e164","system_id":"levelo_inurba_marseille","lat":43.30323,"lon":5.40436,"is_reserved":false,"is_disabled":false,"rental_uris":{"android":"levelo://app?vid=d2874325-b8a4-494a-844f-8778f283e164","ios":"levelo://app?vid=d2874325-b8a4-494a-844f-8778f283e164"},"vehicle_type_id":"4","last_reported":1750345830,"current_range_meters":3600,"station_id":"ce4bh012rcd13ifvqd10","pricing_plan_id":"cebpf4jnsgd1na2vs0mg"},{"bike_id":"cc8783bf-9198-4f78-9ef5-af734ee21790","system_id":"levelo_inurba_marseille","lat":43.3111,"lon":5.37765,"is_reserved":false,"is_disabled":false,"rental_uris":{"android":"levelo://app?vid=cc8783bf-9198-4f78-9ef5-af734ee21790","ios":"levelo://app?vid=cc8783bf-9198-4f78-9ef5-af734ee21790"},"vehicle_type_id":"4","last_reported":1750345830,"current_range_meters":4000,"station_id":"ce4bgt92rcd13ifvqcg0","pricing_plan_id":"cebpf4jnsgd1na2vs0mg"},{"bike_id":"4040eba4-17d2-4c0d-b211-4479836f72d4","system_id":"levelo_inurba_marseille","lat":43.25863,"lon":5.39901,"is_reserved":false,"is_disabled":false,"rental_uris":{"android":"levelo://app?vid=4040eba4-17d2-4c0d-b211-4479836f72d4","ios":"levelo://app?vid=4040eba4-17d2-4c0d-b211-4479836f72d4"},"vehicle_type_id":"4","last_reported":1750345830,"current_range_meters":4000,"station_id":"ce4bhl92rcd13ifvqghg","pricing_plan_id":"cebpf4jnsgd1na2vs0mg"},{"bike_id":"f88bcc9f-02b1-43c4-a763-ed59dbe46ff0","system_id":"levelo_inurba_marseille","lat":43.29016,"lon":5.38137,"is_reserved":false,"is_disabled":false,"rental_uris":{"android":"levelo://app?vid=f88bcc9f-02b1-43c4-a763-ed59dbe46ff0","ios":"levelo://app?vid=f88bcc9f-02b1-43c4-a763-ed59dbe46ff0"},"vehicle_type_id":"4","last_reported":1750345830,"current_range_meters":4400,"station_id":"ce4bh4p2rcd13ifvqe1g","pricing_plan_id":"cebpf4jnsgd1na2vs0mg"},{"bike_id":"4490e40b-912a-4f17-9ff9-a18cb8222cb5","system_id":"levelo_inurba_marseille","lat":43.28151,"lon":5.42632,"is_reserved":false,"is_disabled":false,"rental_uris":{"android":"levelo://app?vid=4490e40b-912a-4f17-9ff9-a18cb8222cb5","ios":"levelo://app?vid=4490e40b-912a-4f17-9ff9-a18cb8222cb5"},"vehicle_type_id":"4","last_reported":1750345830,"current_range_meters":4800,"station_id":"ce4bhnh2rcd13ifvqgug","pricing_plan_id":"cebpf4jnsgd1na2vs0mg"},{"bike_id":"188924e8-0966-4b73-b3b6-c997cf5e86c4","system_id":"levelo_inurba_marseille","lat":43.23065,"lon":5.35492,"is_reserved":false,"is_disabled":false,"rental_uris":{"android":"levelo://app?vid=188924e8-0966-4b73-b3b6-c997cf5e86c4","ios":"levelo://app?vid=188924e8-0966-4b73-b3b6-c997cf5e86c4"},"vehicle_type_id":"4","last_reported":1750345830,"current_range_meters":4800,"station_id":"cpo3342slgdg3j2ifvpg","pricing_plan_id":"cebpf4jnsgd1na2vs0mg"},{"bike_id":"ca7fa57f-9755-4c17-a606-9f6a51e32ebf","system_id":"levelo_inurba_marseille","lat":43.30391,"lon":5.38128,"is_reserved":false,"is_disabled":false,"rental_uris":{"android":"levelo://app?vid=ca7fa57f-9755-4c17-a606-9f6a51e32ebf","ios":"levelo://app?vid=ca7fa57f-9755-4c17-a606-9f6a51e32ebf"},"vehicle_type_id":"4","last_reported":1750345830,"current_range_meters":5600,"station_id":"","pricing_plan_id":"cebpf4jnsgd1na2vs0mg"},{"bike_id":"fe9f0b73-9819-4feb-b41d-82be4281b970","system_id":"levelo_inurba_marseille","lat":43.32078,"lon":5.40117,"is_reserved":false,"is_disabled":false,"rental_uris":{"android":"levelo://app?vid=fe9f0b73-9819-4feb-b41d-82be4281b970","ios":"levelo://app?vid=fe9f0b73-9819-4feb-b41d-82be4281b970"},"vehicle_type_id":"4","last_reported":1750345830,"current_range_meters":6000,"station_id":"","pricing_plan_id":"cebpf4jnsgd1na2vs0mg"},{"bike_id":"2af59a1e-66e0-493b-97ae-caa355a6673b","system_id":"levelo_inurba_marseille","lat":43.29778,"lon":5.37102,"is_reserved":false,"is_disabled":false,"rental_uris":{"android":"levelo://app?vid=2af59a1e-66e0-493b-97ae-caa355a6673b","ios":"levelo://app?vid=2af59a1e-66e0-493b-97ae-caa355a6673b"},"vehicle_type_id":"4","last_reported":1750345830,"current_range_meters":6000,"station_id":"ce4bgop2rcd13ifvqc1g","pricing_plan_id":"cebpf4jnsgd1na2vs0mg"},{"bike_id":"23f3feed-e6a0-4a28-bf48-8571d41ec480","system_id":"levelo_inurba_marseille","lat":43.31544,"lon":5.37477,"is_reserved":false,"is_disabled":false,"rental_uris":{"android":"levelo://app?vid=23f3feed-e6a0-4a28-bf48-8571d41ec480","ios":"levelo://app?vid=23f3feed-e6a0-4a28-bf48-8571d41ec480"},"vehicle_type_id":"4","last_reported":1750345830,"current_range_meters":6400,"station_id":"","pricing_plan_id":"cebpf4jnsgd1na2vs0mg"},{"bike_id":"de0f7c2b-5974-4035-a240-8ed367c0e3f3","system_id":"levelo_inurba_marseille","lat":43.31948,"lon":5.37645,"is_reserved":false,"is_disabled":false,"rental_uris":{"android":"levelo://app?vid=de0f7c2b-5974-4035-a240-8ed367c0e3f3","ios":"levelo://app?vid=de0f7c2b-5974-4035-a240-8ed367c0e3f3"},"vehicle_type_id":"4","last_reported":1750345830,"current_range_meters":6400,"station_id":"","pricing_plan_id":"cebpf4jnsgd1na2vs0mg"},{"bike_id":"6640517b-d519-4976-be62-00401593ee25","system_id":"levelo_inurba_marseille","lat":43.33091,"lon":5.38093,"is_reserved":false,"is_disabled":false,"rental_uris":{"android":"levelo://app?vid=6640517b-d519-4976-be62-00401593ee25","ios":"levelo://app?vid=6640517b-d519-4976-be62-00401593ee25"},"vehicle_type_id":"4","last_reported":1750345830,"current_range_meters":6400,"station_id":"","pricing_plan_id":"cebpf4jnsgd1na2vs0mg"},{"bike_id":"5758f02d-ab77-4076-9ccd-2538e67f35b9","system_id":"levelo_inurba_marseille","lat":43.30141,"lon":5.37982,"is_reserved":false,"is_disabled":false,"rental_uris":{"android":"levelo://app?vid=5758f02d-ab77-4076-9ccd-2538e67f35b9","ios":"levelo://app?vid=5758f02d-ab77-4076-9ccd-2538e67f35b9"},"vehicle_type_id":"4","last_reported":1750345830,"current_range_meters":6800,"station_id":"","pricing_plan_id":"cebpf4jnsgd1na2vs0mg"},{"bike_id":"189869da-b3cc-4133-ab2b-5cbe6a6b609e","system_id":"levelo_inurba_marseille","lat":43.30417,"lon":5.38887,"is_reserved":false,"is_disabled":false,"rental_uris":{"android":"levelo://app?vid=189869da-b3cc-4133-ab2b-5cbe6a6b609e","ios":"levelo://app?vid=189869da-b3cc-4133-ab2b-5cbe6a6b609e"},"vehicle_type_id":"4","last_reported":1750345830,"current_range_meters":6800,"station_id":"ce4bgk12rcd13ifvqbi0","pricing_plan_id":"cebpf4jnsgd1na2vs0mg"},{"bike_id":"0791cc26-80df-4588-ae78-879f8436f0b3","system_id":"levelo_inurba_marseille","lat":43.29873,"lon":5.39734,"is_reserved":false,"is_disabled":false,"rental_uris":{"android":"levelo://app?vid=0791cc26-80df-4588-ae78-879f8436f0b3","ios":"levelo://app?vid=0791cc26-80df-4588-ae78-879f8436f0b3"},"vehicle_type_id":"4","last_reported":1750345830,"current_range_meters":6800,"station_id":"ce4bh0h2rcd13ifvqd50","pricing_plan_id":"cebpf4jnsgd1na2vs0mg"},{"bike_id":"c20b6bc0-e509-4284-a0ed-416898f0e8a5","system_id":"levelo_inurba_marseille","lat":43.27495,"lon":5.42445,"is_reserved":false,"is_disabled":false,"rental_uris":{"android":"levelo://app?vid=c20b6bc0-e509-4284-a0ed-416898f0e8a5","ios":"levelo://app?vid=c20b6bc0-e509-4284-a0ed-416898f0e8a5"},"vehicle_type_id":"4","last_reported":1750345830,"current_range_meters":6800,"station_id":"ce4bhn92rcd13ifvqgrg","pricing_plan_id":"cebpf4jnsgd1na2vs0mg"},{"bike_id":"62f26a18-ea8f-426e-b015-3c7f70140b72","system_id":"levelo_inurba_marseille","lat":43.29869,"lon":5.3974,"is_reserved":false,"is_disabled":false,"rental_uris":{"android":"levelo://app?vid=62f26a18-ea8f-426e-b015-3c7f70140b72","ios":"levelo://app?vid=62f26a18-ea8f-426e-b015-3c7f70140b72"},"vehicle_type_id":"4","last_reported":1750345830,"current_range_meters":7200,"station_id":"ce4bh0h2rcd13ifvqd50","pricing_plan_id":"cebpf4jnsgd1na2vs0mg"},{"bike_id":"24467f2f-63e2-4208-bbae-ef2803d456c8","system_id":"levelo_inurba_marseille","lat":43.2465,"lon":5.38891,"is_reserved":false,"is_disabled":false,"rental_uris":{"android":"levelo://app?vid=24467f2f-63e2-4208-bbae-ef2803d456c8","ios":"levelo://app?vid=24467f2f-63e2-4208-bbae-ef2803d456c8"},"vehicle_type_id":"4","last_reported":1750345830,"current_range_meters":7200,"station_id":"ce4bhg12rcd13ifvqf60","pricing_plan_id":"cebpf4jnsgd1na2vs0mg"},{"bike_id":"db36f56e-fe5c-47eb-811d-82071741e9f6","system_id":"levelo_inurba_marseille","lat":43.282654,"lon":5.350605,"is_reserved":false,"is_disabled":false,"rental_uris":{"android":"levelo://app?vid=db36f56e-fe5c-47eb-811d-82071741e9f6","ios":"levelo://app?vid=db36f56e-fe5c-47eb-811d-82071741e9f6"},"vehicle_type_id":"4","last_reported":1750345830,"current_range_meters":8000,"station_id":"","pricing_plan_id":"cebpf4jnsgd1na2vs0mg"},{"bike_id":"15726170-4d9c-4c13-a3c0-3d05a3042026","system_id":"levelo_inurba_marseille","lat":43.29257,"lon":5.40903,"is_reserved":false,"is_disabled":false,"rental_uris":{"android":"levelo://app?vid=15726170-4d9c-4c13-a3c0-3d05a3042026","ios":"levelo://app?vid=15726170-4d9c-4c13-a3c0-3d05a3042026"},"vehicle_type_id":"4","last_reported":1750345830,"current_range_meters":8000,"station_id":"ce4bh192rcd13ifvqdc0","pricing_plan_id":"cebpf4jnsgd1na2vs0mg"},{"bike_id":"4b8da722-ee9e-48a4-a5e5-3a8a10364708","system_id":"levelo_inurba_marseille","lat":43.31237,"lon":5.37792,"is_reserved":false,"is_disabled":false,"rental_uris":{"android":"levelo://app?vid=4b8da722-ee9e-48a4-a5e5-3a8a10364708","ios":"levelo://app?vid=4b8da722-ee9e-48a4-a5e5-3a8a10364708"},"vehicle_type_id":"4","last_reported":1750345830,"current_range_meters":8400,"station_id":"","pricing_plan_id":"cebpf4jnsgd1na2vs0mg"},{"bike_id":"3518210a-6d90-482f-a11b-11cb7c94acd1","system_id":"levelo_inurba_marseille","lat":43.26469,"lon":5.39199,"is_reserved":false,"is_disabled":false,"rental_uris":{"android":"levelo://app?vid=3518210a-6d90-482f-a11b-11cb7c94acd1","ios":"levelo://app?vid=3518210a-6d90-482f-a11b-11cb7c94acd1"},"vehicle_type_id":"4","last_reported":1750345830,"current_range_meters":8400,"station_id":"","pricing_plan_id":"cebpf4jnsgd1na2vs0mg"},{"bike_id":"c2bf99dc-e685-40f6-a96d-b0634603f1ea","system_id":"levelo_inurba_marseille","lat":43.292753,"lon":5.368435,"is_reserved":false,"is_disabled":false,"rental_uris":{"android":"levelo://app?vid=c2bf99dc-e685-40f6-a96d-b0634603f1ea","ios":"levelo://app?vid=c2bf99dc-e685-40f6-a96d-b0634603f1ea"},"vehicle_type_id":"4","last_reported":1750345830,"current_range_meters":8400,"station_id":"ce4bh612rcd13ifvqe6g","pricing_plan_id":"cebpf4jnsgd1na2vs0mg"},{"bike_id":"c6869a3e-7b7c-4e26-9776-f8ca0762639e","system_id":"levelo_inurba_marseille","lat":43.25857,"lon":5.39905,"is_reserved":false,"is_disabled":false,"rental_uris":{"android":"levelo://app?vid=c6869a3e-7b7c-4e26-9776-f8ca0762639e","ios":"levelo://app?vid=c6869a3e-7b7c-4e26-9776-f8ca0762639e"},"vehicle_type_id":"4","last_reported":1750345830,"current_range_meters":8400,"station_id":"ce4bhl92rcd13ifvqghg","pricing_plan_id":"cebpf4jnsgd1na2vs0mg"},{"bike_id":"2358ff71-0fba-4463-807b-142f260e4c66","system_id":"levelo_inurba_marseille","lat":43.28079,"lon":5.39647,"is_reserved":false,"is_disabled":false,"rental_uris":{"android":"levelo://app?vid=2358ff71-0fba-4463-807b-142f260e4c66","ios":"levelo://app?vid=2358ff71-0fba-4463-807b-142f260e4c66"},"vehicle_type_id":"4","last_reported":1750345830,"current_range_meters":8400,"station_id":"ce4bho12rcd13ifvqh2g","pricing_plan_id":"cebpf4jnsgd1na2vs0mg"},{"bike_id":"ead68fe4-0659-4c4c-9691-419faa320cfe","system_id":"levelo_inurba_marseille","lat":43.32354,"lon":5.36758,"is_reserved":false,"is_disabled":false,"rental_uris":{"android":"levelo://app?vid=ead68fe4-0659-4c4c-9691-419faa320cfe","ios":"levelo://app?vid=ead68fe4-0659-4c4c-9691-419faa320cfe"},"vehicle_type_id":"4","last_reported":1750345830,"current_range_meters":8400,"station_id":"ce4bhsh2rcd13ifvqi2g","pricing_plan_id":"cebpf4jnsgd1na2vs0mg"},{"bike_id":"4fcfde36-a72d-41b0-9e2b-9e410bd2fef0","system_id":"levelo_inurba_marseille","lat":43.30289,"lon":5.37702,"is_reserved":false,"is_disabled":false,"rental_uris":{"android":"levelo://app?vid=4fcfde36-a72d-41b0-9e2b-9e410bd2fef0","ios":"levelo://app?vid=4fcfde36-a72d-41b0-9e2b-9e410bd2fef0"},"vehicle_type_id":"4","last_reported":1750345830,"current_range_meters":8800,"station_id":"ce4bguh2rcd13ifvqcj0","pricing_plan_id":"cebpf4jnsgd1na2vs0mg"},{"bike_id":"0dedb6f6-6801-483b-bfb8-9cd4533d158f","system_id":"levelo_inurba_marseille","lat":43.3116,"lon":5.38093,"is_reserved":false,"is_disabled":false,"rental_uris":{"android":"levelo://app?vid=0dedb6f6-6801-483b-bfb8-9cd4533d158f","ios":"levelo://app?vid=0dedb6f6-6801-483b-bfb8-9cd4533d158f"},"vehicle_type_id":"4","last_reported":1750345830,"current_range_meters":9200,"station_id":"","pricing_plan_id":"cebpf4jnsgd1na2vs0mg"},{"bike_id":"acd1f096-ddb3-45be-8fff-6ec6f08bcda3","system_id":"levelo_inurba_marseille","lat":43.302997,"lon":5.391613,"is_reserved":false,"is_disabled":false,"rental_uris":{"android":"levelo://app?vid=acd1f096-ddb3-45be-8fff-6ec6f08bcda3","ios":"levelo://app?vid=acd1f096-ddb3-45be-8fff-6ec6f08bcda3"},"vehicle_type_id":"4","last_reported":1750345830,"current_range_meters":9200,"station_id":"ce4bgkh2rcd13ifvqbk0","pricing_plan_id":"cebpf4jnsgd1na2vs0mg"},{"bike_id":"0e8dfeab-f700-4fce-87c2-39469e9f30f4","system_id":"levelo_inurba_marseille","lat":43.29257,"lon":5.40895,"is_reserved":false,"is_disabled":false,"rental_uris":{"android":"levelo://app?vid=0e8dfeab-f700-4fce-87c2-39469e9f30f4","ios":"levelo://app?vid=0e8dfeab-f700-4fce-87c2-39469e9f30f4"},"vehicle_type_id":"4","last_reported":1750345830,"current_range_meters":9200,"station_id":"ce4bh192rcd13ifvqdc0","pricing_plan_id":"cebpf4jnsgd1na2vs0mg"},{"bike_id":"fb619193-029d-457c-88a2-fc5e95fe1af9","system_id":"levelo_inurba_marseille","lat":43.292233,"lon":5.360613,"is_reserved":false,"is_disabled":false,"rental_uris":{"android":"levelo://app?vid=fb619193-029d-457c-88a2-fc5e95fe1af9","ios":"levelo://app?vid=fb619193-029d-457c-88a2-fc5e95fe1af9"},"vehicle_type_id":"4","last_reported":1750345830,"current_range_meters":9200,"station_id":"ce4bhbh2rcd13ifvqeqg","pricing_plan_id":"cebpf4jnsgd1na2vs0mg"},{"bike_id":"8157647b-2312-412e-a389-12bdabca6e8c","system_id":"levelo_inurba_marseille","lat":43.2813,"lon":5.37788,"is_reserved":false,"is_disabled":false,"rental_uris":{"android":"levelo://app?vid=8157647b-2312-412e-a389-12bdabca6e8c","ios":"levelo://app?vid=8157647b-2312-412e-a389-12bdabca6e8c"},"vehicle_type_id":"4","last_reported":1750345830,"current_range_meters":9600,"station_id":"ce4bha12rcd13ifvqee0","pricing_plan_id":"cebpf4jnsgd1na2vs0mg"},{"bike_id":"cc1683c5-3acb-434e-8922-197abddd82dd","system_id":"levelo_inurba_marseille","lat":43.289379,"lon":5.36642,"is_reserved":false,"is_disabled":false,"rental_uris":{"android":"levelo://app?vid=cc1683c5-3acb-434e-8922-197abddd82dd","ios":"levelo://app?vid=cc1683c5-3acb-434e-8922-197abddd82dd"},"vehicle_type_id":"4","last_reported":1750345830,"current_range_meters":9600,"station_id":"ce4bhap2rcd13ifvqek0","pricing_plan_id":"cebpf4jnsgd1na2vs0mg"},{"bike_id":"268aafb4-1331-426c-97bc-a7d6564caeb6","system_id":"levelo_inurba_marseille","lat":43.32933,"lon":5.37919,"is_reserved":false,"is_disabled":false,"rental_uris":{"android":"levelo://app?vid=268aafb4-1331-426c-97bc-a7d6564caeb6","ios":"levelo://app?vid=268aafb4-1331-426c-97bc-a7d6564caeb6"},"vehicle_type_id":"4","last_reported":1750345830,"current_range_meters":10000,"station_id":"","pricing_plan_id":"cebpf4jnsgd1na2vs0mg"},{"bike_id":"4e19da38-6461-47ff-a0c2-54c6e0d66498","system_id":"levelo_inurba_marseille","lat":43.28266,"lon":5.35073,"is_reserved":false,"is_disabled":false,"rental_uris":{"android":"levelo://app?vid=4e19da38-6461-47ff-a0c2-54c6e0d66498","ios":"levelo://app?vid=4e19da38-6461-47ff-a0c2-54c6e0d66498"},"vehicle_type_id":"4","last_reported":1750345830,"current_range_meters":10000,"station_id":"ce4bhbp2rcd13ifvqerg","pricing_plan_id":"cebpf4jnsgd1na2vs0mg"},{"bike_id":"197368d2-aec0-4973-b634-b2bc02bf6398","system_id":"levelo_inurba_marseille","lat":43.28271,"lon":5.35082,"is_reserved":false,"is_disabled":false,"rental_uris":{"android":"levelo://app?vid=197368d2-aec0-4973-b634-b2bc02bf6398","ios":"levelo://app?vid=197368d2-aec0-4973-b634-b2bc02bf6398"},"vehicle_type_id":"4","last_reported":1750345830,"current_range_meters":10000,"station_id":"ce4bhbp2rcd13ifvqerg","pricing_plan_id":"cebpf4jnsgd1na2vs0mg"},{"bike_id":"2e84c174-c769-49f6-9e32-4421d18e652a","system_id":"levelo_inurba_marseille","lat":43.26695,"lon":5.3823,"is_reserved":false,"is_disabled":false,"rental_uris":{"android":"levelo://app?vid=2e84c174-c769-49f6-9e32-4421d18e652a","ios":"levelo://app?vid=2e84c174-c769-49f6-9e32-4421d18e652a"},"vehicle_type_id":"4","last_reported":1750345830,"current_range_meters":10000,"station_id":"ce4bhg92rcd13ifvqf90","pricing_plan_id":"cebpf4jnsgd1na2vs0mg"},{"bike_id":"41427841-d839-40c1-81bd-45e69072b2cd","system_id":"levelo_inurba_marseille","lat":43.22495,"lon":5.3478,"is_reserved":false,"is_disabled":false,"rental_uris":{"android":"levelo://app?vid=41427841-d839-40c1-81bd-45e69072b2cd","ios":"levelo://app?vid=41427841-d839-40c1-81bd-45e69072b2cd"},"vehicle_type_id":"4","last_reported":1750345830,"current_range_meters":10000,"station_id":"st_cvj5dfep6f1abm77gieg","pricing_plan_id":"cebpf4jnsgd1na2vs0mg"},{"bike_id":"6a53e087-6d78-49e7-9371-4b3f4ef2c2ab","system_id":"levelo_inurba_marseille","lat":43.302194,"lon":5.394688,"is_reserved":false,"is_disabled":false,"rental_uris":{"android":"levelo://app?vid=6a53e087-6d78-49e7-9371-4b3f4ef2c2ab","ios":"levelo://app?vid=6a53e087-6d78-49e7-9371-4b3f4ef2c2ab"},"vehicle_type_id":"4","last_reported":1750345830,"current_range_meters":10800,"station_id":"ce4bh0p2rcd13ifvqd70","pricing_plan_id":"cebpf4jnsgd1na2vs0mg"},{"bike_id":"16919fdc-c86e-4b2d-9c0f-5ab3141acf86","system_id":"levelo_inurba_marseille","lat":43.28422,"lon":5.34986,"is_reserved":false,"is_disabled":false,"rental_uris":{"android":"levelo://app?vid=16919fdc-c86e-4b2d-9c0f-5ab3141acf86","ios":"levelo://app?vid=16919fdc-c86e-4b2d-9c0f-5ab3141acf86"},"vehicle_type_id":"4","last_reported":1750345830,"current_range_meters":10800,"station_id":"ce4bhbh2rcd13ifvqepg","pricing_plan_id":"cebpf4jnsgd1na2vs0mg"},{"bike_id":"ea967898-2e06-4fe3-9a27-c663bcb9c48d","system_id":"levelo_inurba_marseille","lat":43.28266,"lon":5.35067,"is_reserved":false,"is_disabled":false,"rental_uris":{"android":"levelo://app?vid=ea967898-2e06-4fe3-9a27-c663bcb9c48d","ios":"levelo://app?vid=ea967898-2e06-4fe3-9a27-c663bcb9c48d"},"vehicle_type_id":"4","last_reported":1750345830,"current_range_meters":10800,"station_id":"ce4bhbp2rcd13ifvqerg","pricing_plan_id":"cebpf4jnsgd1na2vs0mg"},{"bike_id":"3eb9992a-e24a-4ed3-bd44-5e035e6e973e","system_id":"levelo_inurba_marseille","lat":43.31283,"lon":5.37849,"is_reserved":false,"is_disabled":false,"rental_uris":{"android":"levelo://app?vid=3eb9992a-e24a-4ed3-bd44-5e035e6e973e","ios":"levelo://app?vid=3eb9992a-e24a-4ed3-bd44-5e035e6e973e"},"vehicle_type_id":"4","last_reported":1750345830,"current_range_meters":11200,"station_id":"","pricing_plan_id":"cebpf4jnsgd1na2vs0mg"},{"bike_id":"f025e0b0-8595-426c-b214-cb9b74c5fcfd","system_id":"levelo_inurba_marseille","lat":43.322,"lon":5.40574,"is_reserved":false,"is_disabled":false,"rental_uris":{"android":"levelo://app?vid=f025e0b0-8595-426c-b214-cb9b74c5fcfd","ios":"levelo://app?vid=f025e0b0-8595-426c-b214-cb9b74c5fcfd"},"vehicle_type_id":"4","last_reported":1750345830,"current_range_meters":11200,"station_id":"","pricing_plan_id":"cebpf4jnsgd1na2vs0mg"},{"bike_id":"534efeb1-9846-4aee-8130-df4d28e740dd","system_id":"levelo_inurba_marseille","lat":43.298225,"lon":5.416232,"is_reserved":false,"is_disabled":false,"rental_uris":{"android":"levelo://app?vid=534efeb1-9846-4aee-8130-df4d28e740dd","ios":"levelo://app?vid=534efeb1-9846-4aee-8130-df4d28e740dd"},"vehicle_type_id":"4","last_reported":1750345830,"current_range_meters":11200,"station_id":"","pricing_plan_id":"cebpf4jnsgd1na2vs0mg"},{"bike_id":"56fdfc4e-979c-4ed5-9885-57018d76de79","system_id":"levelo_inurba_marseille","lat":43.29352,"lon":5.42838,"is_reserved":false,"is_disabled":false,"rental_uris":{"android":"levelo://app?vid=56fdfc4e-979c-4ed5-9885-57018d76de79","ios":"levelo://app?vid=56fdfc4e-979c-4ed5-9885-57018d76de79"},"vehicle_type_id":"4","last_reported":1750345830,"current_range_meters":11200,"station_id":"","pricing_plan_id":"cebpf4jnsgd1na2vs0mg"},{"bike_id":"138bc670-e0d5-4005-bd39-04ef93247ec9","system_id":"levelo_inurba_marseille","lat":43.301389,"lon":5.374221,"is_reserved":false,"is_disabled":false,"rental_uris":{"android":"levelo://app?vid=138bc670-e0d5-4005-bd39-04ef93247ec9","ios":"levelo://app?vid=138bc670-e0d5-4005-bd39-04ef93247ec9"},"vehicle_type_id":"4","last_reported":1750345830,"current_range_meters":11200,"station_id":"ce4bgs92rcd13ifvqcc0","pricing_plan_id":"cebpf4jnsgd1na2vs0mg"},{"bike_id":"22b43b45-26b6-447c-9a75-f535ac2268d1","system_id":"levelo_inurba_marseille","lat":43.2841,"lon":5.35023,"is_reserved":false,"is_disabled":false,"rental_uris":{"android":"levelo://app?vid=22b43b45-26b6-447c-9a75-f535ac2268d1","ios":"levelo://app?vid=22b43b45-26b6-447c-9a75-f535ac2268d1"},"vehicle_type_id":"4","last_reported":1750345830,"current_range_meters":11200,"station_id":"ce4bhbh2rcd13ifvqepg","pricing_plan_id":"cebpf4jnsgd1na2vs0mg"},{"bike_id":"addaf401-f527-467f-9c53-3aa0fd7c69d6","system_id":"levelo_inurba_marseille","lat":43.24808,"lon":5.37457,"is_reserved":false,"is_disabled":false,"rental_uris":{"android":"levelo://app?vid=addaf401-f527-467f-9c53-3aa0fd7c69d6","ios":"levelo://app?vid=addaf401-f527-467f-9c53-3aa0fd7c69d6"},"vehicle_type_id":"4","last_reported":1750345830,"current_range_meters":11200,"station_id":"ce4bhgh2rcd13ifvqfb0","pricing_plan_id":"cebpf4jnsgd1na2vs0mg"},{"bike_id":"b8b1baf3-d74c-4b4b-98ac-203ef1e2c7f0","system_id":"levelo_inurba_marseille","lat":43.23061,"lon":5.35492,"is_reserved":false,"is_disabled":false,"rental_uris":{"android":"levelo://app?vid=b8b1baf3-d74c-4b4b-98ac-203ef1e2c7f0","ios":"levelo://app?vid=b8b1baf3-d74c-4b4b-98ac-203ef1e2c7f0"},"vehicle_type_id":"4","last_reported":1750345830,"current_range_meters":11200,"station_id":"cpo3342slgdg3j2ifvpg","pricing_plan_id":"cebpf4jnsgd1na2vs0mg"},{"bike_id":"6d9576a5-cb1c-4708-9646-c0cb01350f45","system_id":"levelo_inurba_marseille","lat":43.272066,"lon":5.391823,"is_reserved":false,"is_disabled":false,"rental_uris":{"android":"levelo://app?vid=6d9576a5-cb1c-4708-9646-c0cb01350f45","ios":"levelo://app?vid=6d9576a5-cb1c-4708-9646-c0cb01350f45"},"vehicle_type_id":"4","last_reported":1750345830,"current_range_meters":11600,"station_id":"","pricing_plan_id":"cebpf4jnsgd1na2vs0mg"},{"bike_id":"170a0ef0-f308-473a-bac0-8a7854e1cdd7","system_id":"levelo_inurba_marseille","lat":43.28667,"lon":5.37354,"is_reserved":false,"is_disabled":false,"rental_uris":{"android":"levelo://app?vid=170a0ef0-f308-473a-bac0-8a7854e1cdd7","ios":"levelo://app?vid=170a0ef0-f308-473a-bac0-8a7854e1cdd7"},"vehicle_type_id":"4","last_reported":1750345830,"current_range_meters":11600,"station_id":"ce4bh3p2rcd13ifvqdq0","pricing_plan_id":"cebpf4jnsgd1na2vs0mg"},{"bike_id":"20679d64-e343-476e-96d5-2dbf56e54a98","system_id":"levelo_inurba_marseille","lat":43.28414,"lon":5.34987,"is_reserved":false,"is_disabled":false,"rental_uris":{"android":"levelo://app?vid=20679d64-e343-476e-96d5-2dbf56e54a98","ios":"levelo://app?vid=20679d64-e343-476e-96d5-2dbf56e54a98"},"vehicle_type_id":"4","last_reported":1750345830,"current_range_meters":11600,"station_id":"ce4bhbh2rcd13ifvqepg","pricing_plan_id":"cebpf4jnsgd1na2vs0mg"},{"bike_id":"3f740256-c4dd-4c99-9dd7-4545fd16128e","system_id":"levelo_inurba_marseille","lat":43.24163,"lon":5.36395,"is_reserved":false,"is_disabled":false,"rental_uris":{"android":"levelo://app?vid=3f740256-c4dd-4c99-9dd7-4545fd16128e","ios":"levelo://app?vid=3f740256-c4dd-4c99-9dd7-4545fd16128e"},"vehicle_type_id":"4","last_reported":1750345830,"current_range_meters":11600,"station_id":"cpo36qri1sfpv3e86is0","pricing_plan_id":"cebpf4jnsgd1na2vs0mg"},{"bike_id":"5e2dc650-aa22-49a3-af2c-39fc7e8ca812","system_id":"levelo_inurba_marseille","lat":43.31328,"lon":5.39706,"is_reserved":false,"is_disabled":false,"rental_uris":{"android":"levelo://app?vid=5e2dc650-aa22-49a3-af2c-39fc7e8ca812","ios":"levelo://app?vid=5e2dc650-aa22-49a3-af2c-39fc7e8ca812"},"vehicle_type_id":"4","last_reported":1750345830,"current_range_meters":12000,"station_id":"ce4bgvp2rcd13ifvqcu0","pricing_plan_id":"cebpf4jnsgd1na2vs0mg"},{"bike_id":"d6c8cc77-3cf5-4614-92f7-f843e1f78ac1","system_id":"levelo_inurba_marseille","lat":43.28613,"lon":5.351,"is_reserved":false,"is_disabled":false,"rental_uris":{"android":"levelo://app?vid=d6c8cc77-3cf5-4614-92f7-f843e1f78ac1","ios":"levelo://app?vid=d6c8cc77-3cf5-4614-92f7-f843e1f78ac1"},"vehicle_type_id":"4","last_reported":1750345830,"current_range_meters":12000,"station_id":"ce4bhch2rcd13ifvqeug","pricing_plan_id":"cebpf4jnsgd1na2vs0mg"},{"bike_id":"a5a9ef4d-fd4f-43ce-b834-ffffaf794f91","system_id":"levelo_inurba_marseille","lat":43.285547,"lon":5.387383,"is_reserved":false,"is_disabled":false,"rental_uris":{"android":"levelo://app?vid=a5a9ef4d-fd4f-43ce-b834-ffffaf794f91","ios":"levelo://app?vid=a5a9ef4d-fd4f-43ce-b834-ffffaf794f91"},"vehicle_type_id":"4","last_reported":1750345830,"current_range_meters":12000,"station_id":"ce4bhoh2rcd13ifvqh5g","pricing_plan_id":"cebpf4jnsgd1na2vs0mg"},{"bike_id":"37d5c7e1-02a3-480a-b3de-03f16c868ba1","system_id":"levelo_inurba_marseille","lat":43.31708,"lon":5.4371,"is_reserved":false,"is_disabled":false,"rental_uris":{"android":"levelo://app?vid=37d5c7e1-02a3-480a-b3de-03f16c868ba1","ios":"levelo://app?vid=37d5c7e1-02a3-480a-b3de-03f16c868ba1"},"vehicle_type_id":"4","last_reported":1750345830,"current_range_meters":12000,"station_id":"ce4bhp92rcd13ifvqhcg","pricing_plan_id":"cebpf4jnsgd1na2vs0mg"},{"bike_id":"9979b36c-100b-455e-a9e7-5633f9e5bd10","system_id":"levelo_inurba_marseille","lat":43.30593,"lon":5.3936,"is_reserved":false,"is_disabled":false,"rental_uris":{"android":"levelo://app?vid=9979b36c-100b-455e-a9e7-5633f9e5bd10","ios":"levelo://app?vid=9979b36c-100b-455e-a9e7-5633f9e5bd10"},"vehicle_type_id":"4","last_reported":1750345830,"current_range_meters":12400,"station_id":"ce4bh0p2rcd13ifvqd80","pricing_plan_id":"cebpf4jnsgd1na2vs0mg"},{"bike_id":"402d4091-0fc1-485d-8942-d2ac7fe3d4c3","system_id":"levelo_inurba_marseille","lat":43.26193,"lon":5.37447,"is_reserved":false,"is_disabled":false,"rental_uris":{"android":"levelo://app?vid=402d4091-0fc1-485d-8942-d2ac7fe3d4c3","ios":"levelo://app?vid=402d4091-0fc1-485d-8942-d2ac7fe3d4c3"},"vehicle_type_id":"4","last_reported":1750345830,"current_range_meters":12400,"station_id":"ce4bhgp2rcd13ifvqfc0","pricing_plan_id":"cebpf4jnsgd1na2vs0mg"},{"bike_id":"ac2384ad-a0da-47da-a8d0-a1bc051d8279","system_id":"levelo_inurba_marseille","lat":43.28158,"lon":5.4264,"is_reserved":false,"is_disabled":false,"rental_uris":{"android":"levelo://app?vid=ac2384ad-a0da-47da-a8d0-a1bc051d8279","ios":"levelo://app?vid=ac2384ad-a0da-47da-a8d0-a1bc051d8279"},"vehicle_type_id":"4","last_reported":1750345830,"current_range_meters":12400,"station_id":"ce4bhnh2rcd13ifvqgug","pricing_plan_id":"cebpf4jnsgd1na2vs0mg"},{"bike_id":"2c555767-5c9b-4c10-a745-6bbf5ccfa066","system_id":"levelo_inurba_marseille","lat":43.25385,"lon":5.37629,"is_reserved":false,"is_disabled":false,"rental_uris":{"android":"levelo://app?vid=2c555767-5c9b-4c10-a745-6bbf5ccfa066","ios":"levelo://app?vid=2c555767-5c9b-4c10-a745-6bbf5ccfa066"},"vehicle_type_id":"4","last_reported":1750345830,"current_range_meters":12800,"station_id":"","pricing_plan_id":"cebpf4jnsgd1na2vs0mg"},{"bike_id":"f22a4e09-6ce2-4dce-83b5-b13a30ff5f77","system_id":"levelo_inurba_marseille","lat":43.30245,"lon":5.38627,"is_reserved":false,"is_disabled":false,"rental_uris":{"android":"levelo://app?vid=f22a4e09-6ce2-4dce-83b5-b13a30ff5f77","ios":"levelo://app?vid=f22a4e09-6ce2-4dce-83b5-b13a30ff5f77"},"vehicle_type_id":"4","last_reported":1750345830,"current_range_meters":12800,"station_id":"","pricing_plan_id":"cebpf4jnsgd1na2vs0mg"},{"bike_id":"3dca6aba-747d-4bb1-80c2-1f2e751cd877","system_id":"levelo_inurba_marseille","lat":43.29575,"lon":5.36734,"is_reserved":false,"is_disabled":false,"rental_uris":{"android":"levelo://app?vid=3dca6aba-747d-4bb1-80c2-1f2e751cd877","ios":"levelo://app?vid=3dca6aba-747d-4bb1-80c2-1f2e751cd877"},"vehicle_type_id":"4","last_reported":1750345830,"current_range_meters":12800,"station_id":"ce4bgph2rcd13ifvqc2g","pricing_plan_id":"cebpf4jnsgd1na2vs0mg"},{"bike_id":"5733090c-a4ae-4cd8-bb6c-6d4b8f16fac8","system_id":"levelo_inurba_marseille","lat":43.28694,"lon":5.39977,"is_reserved":false,"is_disabled":false,"rental_uris":{"android":"levelo://app?vid=5733090c-a4ae-4cd8-bb6c-6d4b8f16fac8","ios":"levelo://app?vid=5733090c-a4ae-4cd8-bb6c-6d4b8f16fac8"},"vehicle_type_id":"4","last_reported":1750345830,"current_range_meters":12800,"station_id":"ce4bho92rcd13ifvqh3g","pricing_plan_id":"cebpf4jnsgd1na2vs0mg"},{"bike_id":"120313ea-a70f-48d0-90eb-072fcb2d4cd7","system_id":"levelo_inurba_marseille","lat":43.33733,"lon":5.39195,"is_reserved":false,"is_disabled":false,"rental_uris":{"android":"levelo://app?vid=120313ea-a70f-48d0-90eb-072fcb2d4cd7","ios":"levelo://app?vid=120313ea-a70f-48d0-90eb-072fcb2d4cd7"},"vehicle_type_id":"4","last_reported":1750345830,"current_range_meters":12800,"station_id":"ce4bhr92rcd13ifvqhsg","pricing_plan_id":"cebpf4jnsgd1na2vs0mg"},{"bike_id":"df77b6d2-6834-4a44-a94b-20f11853c902","system_id":"levelo_inurba_marseille","lat":43.28413,"lon":5.35008,"is_reserved":false,"is_disabled":false,"rental_uris":{"android":"levelo://app?vid=df77b6d2-6834-4a44-a94b-20f11853c902","ios":"levelo://app?vid=df77b6d2-6834-4a44-a94b-20f11853c902"},"vehicle_type_id":"4","last_reported":1750345830,"current_range_meters":13600,"station_id":"ce4bhbh2rcd13ifvqepg","pricing_plan_id":"cebpf4jnsgd1na2vs0mg"},{"bike_id":"2490ec38-766c-440e-b325-615cafbe951b","system_id":"levelo_inurba_marseille","lat":43.23191,"lon":5.35555,"is_reserved":false,"is_disabled":false,"rental_uris":{"android":"levelo://app?vid=2490ec38-766c-440e-b325-615cafbe951b","ios":"levelo://app?vid=2490ec38-766c-440e-b325-615cafbe951b"},"vehicle_type_id":"4","last_reported":1750345830,"current_range_meters":13600,"station_id":"ce4bhu92rcd13ifvqi70","pricing_plan_id":"cebpf4jnsgd1na2vs0mg"},{"bike_id":"4e843060-018f-4f9f-97c4-3e11f372dca1","system_id":"levelo_inurba_marseille","lat":43.24749,"lon":5.41195,"is_reserved":false,"is_disabled":false,"rental_uris":{"android":"levelo://app?vid=4e843060-018f-4f9f-97c4-3e11f372dca1","ios":"levelo://app?vid=4e843060-018f-4f9f-97c4-3e11f372dca1"},"vehicle_type_id":"4","last_reported":1750345830,"current_range_meters":14000,"station_id":"","pricing_plan_id":"cebpf4jnsgd1na2vs0mg"},{"bike_id":"70083776-afc4-42b4-8ebe-95815720e050","system_id":"levelo_inurba_marseille","lat":43.28403,"lon":5.35001,"is_reserved":false,"is_disabled":false,"rental_uris":{"android":"levelo://app?vid=70083776-afc4-42b4-8ebe-95815720e050","ios":"levelo://app?vid=70083776-afc4-42b4-8ebe-95815720e050"},"vehicle_type_id":"4","last_reported":1750345830,"current_range_meters":14000,"station_id":"ce4bhbh2rcd13ifvqepg","pricing_plan_id":"cebpf4jnsgd1na2vs0mg"},{"bike_id":"f74eeff8-eb0d-48ed-bf97-c9fb72f6e800","system_id":"levelo_inurba_marseille","lat":43.32047,"lon":5.41542,"is_reserved":false,"is_disabled":false,"rental_uris":{"android":"levelo://app?vid=f74eeff8-eb0d-48ed-bf97-c9fb72f6e800","ios":"levelo://app?vid=f74eeff8-eb0d-48ed-bf97-c9fb72f6e800"},"vehicle_type_id":"4","last_reported":1750345830,"current_range_meters":14000,"station_id":"ce4bhq92rcd13ifvqhkg","pricing_plan_id":"cebpf4jnsgd1na2vs0mg"},{"bike_id":"ca22fa2e-c6e3-4f47-bb16-6f7833f5306c","system_id":"levelo_inurba_marseille","lat":43.28403,"lon":5.34991,"is_reserved":false,"is_disabled":false,"rental_uris":{"android":"levelo://app?vid=ca22fa2e-c6e3-4f47-bb16-6f7833f5306c","ios":"levelo://app?vid=ca22fa2e-c6e3-4f47-bb16-6f7833f5306c"},"vehicle_type_id":"4","last_reported":1750345830,"current_range_meters":14400,"station_id":"ce4bhbh2rcd13ifvqepg","pricing_plan_id":"cebpf4jnsgd1na2vs0mg"},{"bike_id":"5ccf4f16-6d66-4df7-8bb2-28d7149f1768","system_id":"levelo_inurba_marseille","lat":43.2749,"lon":5.42452,"is_reserved":false,"is_disabled":false,"rental_uris":{"android":"levelo://app?vid=5ccf4f16-6d66-4df7-8bb2-28d7149f1768","ios":"levelo://app?vid=5ccf4f16-6d66-4df7-8bb2-28d7149f1768"},"vehicle_type_id":"4","last_reported":1750345830,"current_range_meters":14400,"station_id":"ce4bhn92rcd13ifvqgrg","pricing_plan_id":"cebpf4jnsgd1na2vs0mg"},{"bike_id":"1b339c82-5349-48cb-ae7a-28cd2fb02394","system_id":"levelo_inurba_marseille","lat":43.27493,"lon":5.42451,"is_reserved":false,"is_disabled":false,"rental_uris":{"android":"levelo://app?vid=1b339c82-5349-48cb-ae7a-28cd2fb02394","ios":"levelo://app?vid=1b339c82-5349-48cb-ae7a-28cd2fb02394"},"vehicle_type_id":"4","last_reported":1750345830,"current_range_meters":14400,"station_id":"ce4bhn92rcd13ifvqgrg","pricing_plan_id":"cebpf4jnsgd1na2vs0mg"},{"bike_id":"1cd4ff2d-22c3-4293-b5b9-f417c2ced4fc","system_id":"levelo_inurba_marseille","lat":43.29894,"lon":5.43671,"is_reserved":false,"is_disabled":false,"rental_uris":{"android":"levelo://app?vid=1cd4ff2d-22c3-4293-b5b9-f417c2ced4fc","ios":"levelo://app?vid=1cd4ff2d-22c3-4293-b5b9-f417c2ced4fc"},"vehicle_type_id":"4","last_reported":1750345830,"current_range_meters":14400,"station_id":"ce4bhpp2rcd13ifvqhfg","pricing_plan_id":"cebpf4jnsgd1na2vs0mg"},{"bike_id":"5df7ac8f-605a-408a-b800-817ab0479d44","system_id":"levelo_inurba_marseille","lat":43.27366,"lon":5.36242,"is_reserved":false,"is_disabled":false,"rental_uris":{"android":"levelo://app?vid=5df7ac8f-605a-408a-b800-817ab0479d44","ios":"levelo://app?vid=5df7ac8f-605a-408a-b800-817ab0479d44"},"vehicle_type_id":"4","last_reported":1750345830,"current_range_meters":14800,"station_id":"ce4bhbh2rcd13ifvqeo0","pricing_plan_id":"cebpf4jnsgd1na2vs0mg"},{"bike_id":"af8f3a10-5a16-49ff-ad4f-e3f95e27a0ba","system_id":"levelo_inurba_marseille","lat":43.28413,"lon":5.34988,"is_reserved":false,"is_disabled":false,"rental_uris":{"android":"levelo://app?vid=af8f3a10-5a16-49ff-ad4f-e3f95e27a0ba","ios":"levelo://app?vid=af8f3a10-5a16-49ff-ad4f-e3f95e27a0ba"},"vehicle_type_id":"4","last_reported":1750345830,"current_range_meters":14800,"station_id":"ce4bhbh2rcd13ifvqepg","pricing_plan_id":"cebpf4jnsgd1na2vs0mg"},{"bike_id":"2474747c-358c-4b47-bc91-3aa97484f766","system_id":"levelo_inurba_marseille","lat":43.28246,"lon":5.35084,"is_reserved":false,"is_disabled":false,"rental_uris":{"android":"levelo://app?vid=2474747c-358c-4b47-bc91-3aa97484f766","ios":"levelo://app?vid=2474747c-358c-4b47-bc91-3aa97484f766"},"vehicle_type_id":"4","last_reported":1750345830,"current_range_meters":14800,"station_id":"ce4bhbp2rcd13ifvqerg","pricing_plan_id":"cebpf4jnsgd1na2vs0mg"},{"bike_id":"37a3b9f5-e3a5-4d2a-90d7-962a4f76cc56","system_id":"levelo_inurba_marseille","lat":43.28257,"lon":5.35086,"is_reserved":false,"is_disabled":false,"rental_uris":{"android":"levelo://app?vid=37a3b9f5-e3a5-4d2a-90d7-962a4f76cc56","ios":"levelo://app?vid=37a3b9f5-e3a5-4d2a-90d7-962a4f76cc56"},"vehicle_type_id":"4","last_reported":1750345830,"current_range_meters":15200,"station_id":"ce4bhbp2rcd13ifvqerg","pricing_plan_id":"cebpf4jnsgd1na2vs0mg"},{"bike_id":"5bbee1f5-af5c-4154-bb1b-9070432a82b5","system_id":"levelo_inurba_marseille","lat":43.28611,"lon":5.35102,"is_reserved":false,"is_disabled":false,"rental_uris":{"android":"levelo://app?vid=5bbee1f5-af5c-4154-bb1b-9070432a82b5","ios":"levelo://app?vid=5bbee1f5-af5c-4154-bb1b-9070432a82b5"},"vehicle_type_id":"4","last_reported":1750345830,"current_range_meters":16000,"station_id":"ce4bhch2rcd13ifvqeug","pricing_plan_id":"cebpf4jnsgd1na2vs0mg"},{"bike_id":"1c42ec38-6034-414d-bebb-27dbe0045cd5","system_id":"levelo_inurba_marseille","lat":43.26027,"lon":5.37551,"is_reserved":false,"is_disabled":false,"rental_uris":{"android":"levelo://app?vid=1c42ec38-6034-414d-bebb-27dbe0045cd5","ios":"levelo://app?vid=1c42ec38-6034-414d-bebb-27dbe0045cd5"},"vehicle_type_id":"4","last_reported":1750345830,"current_range_meters":16000,"station_id":"ce4bhgh2rcd13ifvqfa0","pricing_plan_id":"cebpf4jnsgd1na2vs0mg"},{"bike_id":"dc39e9df-7330-4303-9cdd-6bb46e47798c","system_id":"levelo_inurba_marseille","lat":43.23067,"lon":5.35496,"is_reserved":false,"is_disabled":false,"rental_uris":{"android":"levelo://app?vid=dc39e9df-7330-4303-9cdd-6bb46e47798c","ios":"levelo://app?vid=dc39e9df-7330-4303-9cdd-6bb46e47798c"},"vehicle_type_id":"4","last_reported":1750345830,"current_range_meters":16000,"station_id":"cpo3342slgdg3j2ifvpg","pricing_plan_id":"cebpf4jnsgd1na2vs0mg"},{"bike_id":"5c17f474-67ea-463c-abb4-6621c8a461db","system_id":"levelo_inurba_marseille","lat":43.28423,"lon":5.34997,"is_reserved":false,"is_disabled":false,"rental_uris":{"android":"levelo://app?vid=5c17f474-67ea-463c-abb4-6621c8a461db","ios":"levelo://app?vid=5c17f474-67ea-463c-abb4-6621c8a461db"},"vehicle_type_id":"4","last_reported":1750345830,"current_range_meters":16400,"station_id":"ce4bhbh2rcd13ifvqepg","pricing_plan_id":"cebpf4jnsgd1na2vs0mg"},{"bike_id":"54bbaa15-050c-4526-b172-09f06af97620","system_id":"levelo_inurba_marseille","lat":43.28414,"lon":5.35005,"is_reserved":false,"is_disabled":false,"rental_uris":{"android":"levelo://app?vid=54bbaa15-050c-4526-b172-09f06af97620","ios":"levelo://app?vid=54bbaa15-050c-4526-b172-09f06af97620"},"vehicle_type_id":"4","last_reported":1750345830,"current_range_meters":16400,"station_id":"ce4bhbh2rcd13ifvqepg","pricing_plan_id":"cebpf4jnsgd1na2vs0mg"},{"bike_id":"a9a99511-61a8-4890-8915-7e87b20c150d","system_id":"levelo_inurba_marseille","lat":43.28255,"lon":5.35083,"is_reserved":false,"is_disabled":false,"rental_uris":{"android":"levelo://app?vid=a9a99511-61a8-4890-8915-7e87b20c150d","ios":"levelo://app?vid=a9a99511-61a8-4890-8915-7e87b20c150d"},"vehicle_type_id":"4","last_reported":1750345830,"current_range_meters":16400,"station_id":"ce4bhbp2rcd13ifvqerg","pricing_plan_id":"cebpf4jnsgd1na2vs0mg"},{"bike_id":"bb4fa477-3216-4255-8f5d-39c0fa3f0ece","system_id":"levelo_inurba_marseille","lat":43.30241,"lon":5.40063,"is_reserved":false,"is_disabled":false,"rental_uris":{"android":"levelo://app?vid=bb4fa477-3216-4255-8f5d-39c0fa3f0ece","ios":"levelo://app?vid=bb4fa477-3216-4255-8f5d-39c0fa3f0ece"},"vehicle_type_id":"4","last_reported":1750345830,"current_range_meters":16800,"station_id":"ce4bgvh2rcd13ifvqcs0","pricing_plan_id":"cebpf4jnsgd1na2vs0mg"},{"bike_id":"fe75accb-bd3a-4946-b9b9-4541e6661814","system_id":"levelo_inurba_marseille","lat":43.27377,"lon":5.36254,"is_reserved":false,"is_disabled":false,"rental_uris":{"android":"levelo://app?vid=fe75accb-bd3a-4946-b9b9-4541e6661814","ios":"levelo://app?vid=fe75accb-bd3a-4946-b9b9-4541e6661814"},"vehicle_type_id":"4","last_reported":1750345830,"current_range_meters":16800,"station_id":"ce4bhbh2rcd13ifvqeo0","pricing_plan_id":"cebpf4jnsgd1na2vs0mg"},{"bike_id":"4447f6d0-e11d-4e77-b2aa-3af0cbdb515f","system_id":"levelo_inurba_marseille","lat":43.2841,"lon":5.34988,"is_reserved":false,"is_disabled":false,"rental_uris":{"android":"levelo://app?vid=4447f6d0-e11d-4e77-b2aa-3af0cbdb515f","ios":"levelo://app?vid=4447f6d0-e11d-4e77-b2aa-3af0cbdb515f"},"vehicle_type_id":"4","last_reported":1750345830,"current_range_meters":16800,"station_id":"ce4bhbh2rcd13ifvqepg","pricing_plan_id":"cebpf4jnsgd1na2vs0mg"},{"bike_id":"c08ce5b0-7b02-4204-a925-87c16aedeea6","system_id":"levelo_inurba_marseille","lat":43.28257,"lon":5.35081,"is_reserved":false,"is_disabled":false,"rental_uris":{"android":"levelo://app?vid=c08ce5b0-7b02-4204-a925-87c16aedeea6","ios":"levelo://app?vid=c08ce5b0-7b02-4204-a925-87c16aedeea6"},"vehicle_type_id":"4","last_reported":1750345830,"current_range_meters":16800,"station_id":"ce4bhbp2rcd13ifvqerg","pricing_plan_id":"cebpf4jnsgd1na2vs0mg"},{"bike_id":"e3546a1e-8b30-4e13-835e-c4e72ed1e705","system_id":"levelo_inurba_marseille","lat":43.28254,"lon":5.35082,"is_reserved":false,"is_disabled":false,"rental_uris":{"android":"levelo://app?vid=e3546a1e-8b30-4e13-835e-c4e72ed1e705","ios":"levelo://app?vid=e3546a1e-8b30-4e13-835e-c4e72ed1e705"},"vehicle_type_id":"4","last_reported":1750345830,"current_range_meters":16800,"station_id":"ce4bhbp2rcd13ifvqerg","pricing_plan_id":"cebpf4jnsgd1na2vs0mg"},{"bike_id":"adaeb88f-f9fe-467d-a342-0c5166479803","system_id":"levelo_inurba_marseille","lat":43.28612,"lon":5.351,"is_reserved":false,"is_disabled":false,"rental_uris":{"android":"levelo://app?vid=adaeb88f-f9fe-467d-a342-0c5166479803","ios":"levelo://app?vid=adaeb88f-f9fe-467d-a342-0c5166479803"},"vehicle_type_id":"4","last_reported":1750345830,"current_range_meters":16800,"station_id":"ce4bhch2rcd13ifvqeug","pricing_plan_id":"cebpf4jnsgd1na2vs0mg"},{"bike_id":"90b16cae-cb1b-43e3-bbae-1c8bccde67e7","system_id":"levelo_inurba_marseille","lat":43.23056,"lon":5.35492,"is_reserved":false,"is_disabled":false,"rental_uris":{"android":"levelo://app?vid=90b16cae-cb1b-43e3-bbae-1c8bccde67e7","ios":"levelo://app?vid=90b16cae-cb1b-43e3-bbae-1c8bccde67e7"},"vehicle_type_id":"4","last_reported":1750345830,"current_range_meters":16800,"station_id":"cpo3342slgdg3j2ifvpg","pricing_plan_id":"cebpf4jnsgd1na2vs0mg"},{"bike_id":"23705e57-f5a3-40f7-945a-01e3b08e1763","system_id":"levelo_inurba_marseille","lat":43.28936,"lon":5.36347,"is_reserved":false,"is_disabled":false,"rental_uris":{"android":"levelo://app?vid=23705e57-f5a3-40f7-945a-01e3b08e1763","ios":"levelo://app?vid=23705e57-f5a3-40f7-945a-01e3b08e1763"},"vehicle_type_id":"4","last_reported":1750345830,"current_range_meters":17200,"station_id":"","pricing_plan_id":"cebpf4jnsgd1na2vs0mg"},{"bike_id":"c304f243-9bde-4081-8c7d-0a682e72fec9","system_id":"levelo_inurba_marseille","lat":43.30142,"lon":5.3809,"is_reserved":false,"is_disabled":false,"rental_uris":{"android":"levelo://app?vid=c304f243-9bde-4081-8c7d-0a682e72fec9","ios":"levelo://app?vid=c304f243-9bde-4081-8c7d-0a682e72fec9"},"vehicle_type_id":"4","last_reported":1750345830,"current_range_meters":17200,"station_id":"ce4bgjp2rcd13ifvqbh0","pricing_plan_id":"cebpf4jnsgd1na2vs0mg"},{"bike_id":"3d2f2a75-eb87-440a-abba-046f40efac5f","system_id":"levelo_inurba_marseille","lat":43.29284,"lon":5.40129,"is_reserved":false,"is_disabled":false,"rental_uris":{"android":"levelo://app?vid=3d2f2a75-eb87-440a-abba-046f40efac5f","ios":"levelo://app?vid=3d2f2a75-eb87-440a-abba-046f40efac5f"},"vehicle_type_id":"4","last_reported":1750345830,"current_range_meters":17200,"station_id":"ce4bh312rcd13ifvqdk0","pricing_plan_id":"cebpf4jnsgd1na2vs0mg"},{"bike_id":"bae8d7db-8cfd-4cec-a975-665b0c8785e2","system_id":"levelo_inurba_marseille","lat":43.28256,"lon":5.35077,"is_reserved":false,"is_disabled":false,"rental_uris":{"android":"levelo://app?vid=bae8d7db-8cfd-4cec-a975-665b0c8785e2","ios":"levelo://app?vid=bae8d7db-8cfd-4cec-a975-665b0c8785e2"},"vehicle_type_id":"4","last_reported":1750345830,"current_range_meters":17200,"station_id":"ce4bhbp2rcd13ifvqerg","pricing_plan_id":"cebpf4jnsgd1na2vs0mg"},{"bike_id":"b49078b9-0b0d-43d0-9db3-f29bef9faa31","system_id":"levelo_inurba_marseille","lat":43.28441,"lon":5.39197,"is_reserved":false,"is_disabled":false,"rental_uris":{"android":"levelo://app?vid=b49078b9-0b0d-43d0-9db3-f29bef9faa31","ios":"levelo://app?vid=b49078b9-0b0d-43d0-9db3-f29bef9faa31"},"vehicle_type_id":"4","last_reported":1750345830,"current_range_meters":17200,"station_id":"ce4bhoh2rcd13ifvqh5g","pricing_plan_id":"cebpf4jnsgd1na2vs0mg"},{"bike_id":"7e65b096-aa08-41c8-9b2a-e94078d8b578","system_id":"levelo_inurba_marseille","lat":43.21188,"lon":5.35065,"is_reserved":false,"is_disabled":false,"rental_uris":{"android":"levelo://app?vid=7e65b096-aa08-41c8-9b2a-e94078d8b578","ios":"levelo://app?vid=7e65b096-aa08-41c8-9b2a-e94078d8b578"},"vehicle_type_id":"4","last_reported":1750345830,"current_range_meters":17200,"station_id":"st_cvj6sg6p6f1abm77japg","pricing_plan_id":"cebpf4jnsgd1na2vs0mg"},{"bike_id":"4ce5b165-f22d-40cf-abd3-1cb294861955","system_id":"levelo_inurba_marseille","lat":43.21189,"lon":5.35078,"is_reserved":false,"is_disabled":false,"rental_uris":{"android":"levelo://app?vid=4ce5b165-f22d-40cf-abd3-1cb294861955","ios":"levelo://app?vid=4ce5b165-f22d-40cf-abd3-1cb294861955"},"vehicle_type_id":"4","last_reported":1750345830,"current_range_meters":17600,"station_id":"","pricing_plan_id":"cebpf4jnsgd1na2vs0mg"},{"bike_id":"ddd64ad8-2943-4b92-abbf-415a9064e534","system_id":"levelo_inurba_marseille","lat":43.30425,"lon":5.38889,"is_reserved":false,"is_disabled":false,"rental_uris":{"android":"levelo://app?vid=ddd64ad8-2943-4b92-abbf-415a9064e534","ios":"levelo://app?vid=ddd64ad8-2943-4b92-abbf-415a9064e534"},"vehicle_type_id":"4","last_reported":1750345830,"current_range_meters":17600,"station_id":"ce4bgk12rcd13ifvqbi0","pricing_plan_id":"cebpf4jnsgd1na2vs0mg"},{"bike_id":"eb367c74-3b5d-42a4-b398-ad1473025584","system_id":"levelo_inurba_marseille","lat":43.284179,"lon":5.349941,"is_reserved":false,"is_disabled":false,"rental_uris":{"android":"levelo://app?vid=eb367c74-3b5d-42a4-b398-ad1473025584","ios":"levelo://app?vid=eb367c74-3b5d-42a4-b398-ad1473025584"},"vehicle_type_id":"4","last_reported":1750345830,"current_range_meters":17600,"station_id":"ce4bhbh2rcd13ifvqepg","pricing_plan_id":"cebpf4jnsgd1na2vs0mg"},{"bike_id":"784efc61-b1c0-4015-bd86-20f443ceb29d","system_id":"levelo_inurba_marseille","lat":43.23971,"lon":5.36621,"is_reserved":false,"is_disabled":false,"rental_uris":{"android":"levelo://app?vid=784efc61-b1c0-4015-bd86-20f443ceb29d","ios":"levelo://app?vid=784efc61-b1c0-4015-bd86-20f443ceb29d"},"vehicle_type_id":"4","last_reported":1750345830,"current_range_meters":17600,"station_id":"ce4bhi12rcd13ifvqfp0","pricing_plan_id":"cebpf4jnsgd1na2vs0mg"},{"bike_id":"b4c66569-0ea3-43b5-b965-7c6e84fa05ca","system_id":"levelo_inurba_marseille","lat":43.242302,"lon":5.397039,"is_reserved":false,"is_disabled":false,"rental_uris":{"android":"levelo://app?vid=b4c66569-0ea3-43b5-b965-7c6e84fa05ca","ios":"levelo://app?vid=b4c66569-0ea3-43b5-b965-7c6e84fa05ca"},"vehicle_type_id":"4","last_reported":1750345830,"current_range_meters":17600,"station_id":"ce4bhn12rcd13ifvqgpg","pricing_plan_id":"cebpf4jnsgd1na2vs0mg"},{"bike_id":"02446148-c9f7-4f78-b18f-149730da9a75","system_id":"levelo_inurba_marseille","lat":43.231975,"lon":5.355548,"is_reserved":false,"is_disabled":false,"rental_uris":{"android":"levelo://app?vid=02446148-c9f7-4f78-b18f-149730da9a75","ios":"levelo://app?vid=02446148-c9f7-4f78-b18f-149730da9a75"},"vehicle_type_id":"4","last_reported":1750345830,"current_range_meters":17600,"station_id":"ce4bhu92rcd13ifvqi70","pricing_plan_id":"cebpf4jnsgd1na2vs0mg"},{"bike_id":"cd7b0b57-8150-414f-91c1-32bef26799e3","system_id":"levelo_inurba_marseille","lat":43.2953,"lon":5.39387,"is_reserved":false,"is_disabled":false,"rental_uris":{"android":"levelo://app?vid=cd7b0b57-8150-414f-91c1-32bef26799e3","ios":"levelo://app?vid=cd7b0b57-8150-414f-91c1-32bef26799e3"},"vehicle_type_id":"4","last_reported":1750345830,"current_range_meters":18000,"station_id":"ce4bh292rcd13ifvqdf0","pricing_plan_id":"cebpf4jnsgd1na2vs0mg"},{"bike_id":"0ed46b6c-d132-49e5-b257-9e1e9cc9a834","system_id":"levelo_inurba_marseille","lat":43.284022,"lon":5.375089,"is_reserved":false,"is_disabled":false,"rental_uris":{"android":"levelo://app?vid=0ed46b6c-d132-49e5-b257-9e1e9cc9a834","ios":"levelo://app?vid=0ed46b6c-d132-49e5-b257-9e1e9cc9a834"},"vehicle_type_id":"4","last_reported":1750345830,"current_range_meters":18000,"station_id":"ce4bh3p2rcd13ifvqdq0","pricing_plan_id":"cebpf4jnsgd1na2vs0mg"},{"bike_id":"1407bf08-a5e0-44ff-aeec-2dc019e36f3a","system_id":"levelo_inurba_marseille","lat":43.28855,"lon":5.35852,"is_reserved":false,"is_disabled":false,"rental_uris":{"android":"levelo://app?vid=1407bf08-a5e0-44ff-aeec-2dc019e36f3a","ios":"levelo://app?vid=1407bf08-a5e0-44ff-aeec-2dc019e36f3a"},"vehicle_type_id":"4","last_reported":1750345830,"current_range_meters":18000,"station_id":"ce4bhb12rcd13ifvqem0","pricing_plan_id":"cebpf4jnsgd1na2vs0mg"},{"bike_id":"cc34d586-b82f-4a34-8fa6-12192bd50232","system_id":"levelo_inurba_marseille","lat":43.2841,"lon":5.35003,"is_reserved":false,"is_disabled":false,"rental_uris":{"android":"levelo://app?vid=cc34d586-b82f-4a34-8fa6-12192bd50232","ios":"levelo://app?vid=cc34d586-b82f-4a34-8fa6-12192bd50232"},"vehicle_type_id":"4","last_reported":1750345830,"current_range_meters":18000,"station_id":"ce4bhbh2rcd13ifvqepg","pricing_plan_id":"cebpf4jnsgd1na2vs0mg"},{"bike_id":"e154d079-393b-4995-aca2-ee20f36ae3b1","system_id":"levelo_inurba_marseille","lat":43.25495,"lon":5.37648,"is_reserved":false,"is_disabled":false,"rental_uris":{"android":"levelo://app?vid=e154d079-393b-4995-aca2-ee20f36ae3b1","ios":"levelo://app?vid=e154d079-393b-4995-aca2-ee20f36ae3b1"},"vehicle_type_id":"4","last_reported":1750345830,"current_range_meters":18000,"station_id":"ce4bhh12rcd13ifvqff0","pricing_plan_id":"cebpf4jnsgd1na2vs0mg"},{"bike_id":"31f6d8c2-c2ea-4de5-a424-ab0128b0004e","system_id":"levelo_inurba_marseille","lat":43.26066,"lon":5.39397,"is_reserved":false,"is_disabled":false,"rental_uris":{"android":"levelo://app?vid=31f6d8c2-c2ea-4de5-a424-ab0128b0004e","ios":"levelo://app?vid=31f6d8c2-c2ea-4de5-a424-ab0128b0004e"},"vehicle_type_id":"4","last_reported":1750345830,"current_range_meters":18000,"station_id":"ce4bhh92rcd13ifvqfj0","pricing_plan_id":"cebpf4jnsgd1na2vs0mg"},{"bike_id":"53f86949-cae5-49ad-a73d-e164ce331e00","system_id":"levelo_inurba_marseille","lat":43.24194,"lon":5.39723,"is_reserved":false,"is_disabled":false,"rental_uris":{"android":"levelo://app?vid=53f86949-cae5-49ad-a73d-e164ce331e00","ios":"levelo://app?vid=53f86949-cae5-49ad-a73d-e164ce331e00"},"vehicle_type_id":"4","last_reported":1750345830,"current_range_meters":18000,"station_id":"ce4bhn12rcd13ifvqgpg","pricing_plan_id":"cebpf4jnsgd1na2vs0mg"},{"bike_id":"f219f496-f14b-4f7e-ba22-0c4f344af7bb","system_id":"levelo_inurba_marseille","lat":43.27514,"lon":5.42404,"is_reserved":false,"is_disabled":false,"rental_uris":{"android":"levelo://app?vid=f219f496-f14b-4f7e-ba22-0c4f344af7bb","ios":"levelo://app?vid=f219f496-f14b-4f7e-ba22-0c4f344af7bb"},"vehicle_type_id":"4","last_reported":1750345830,"current_range_meters":18000,"station_id":"ce4bhn92rcd13ifvqgrg","pricing_plan_id":"cebpf4jnsgd1na2vs0mg"},{"bike_id":"35bded69-a819-4dd0-b127-2a413aded4ba","system_id":"levelo_inurba_marseille","lat":43.31724,"lon":5.42396,"is_reserved":false,"is_disabled":false,"rental_uris":{"android":"levelo://app?vid=35bded69-a819-4dd0-b127-2a413aded4ba","ios":"levelo://app?vid=35bded69-a819-4dd0-b127-2a413aded4ba"},"vehicle_type_id":"4","last_reported":1750345830,"current_range_meters":18000,"station_id":"ce4bhp92rcd13ifvqhbg","pricing_plan_id":"cebpf4jnsgd1na2vs0mg"},{"bike_id":"f4dd3eb1-7e82-4c26-b698-3c2a1ed42096","system_id":"levelo_inurba_marseille","lat":43.23185,"lon":5.35551,"is_reserved":false,"is_disabled":false,"rental_uris":{"android":"levelo://app?vid=f4dd3eb1-7e82-4c26-b698-3c2a1ed42096","ios":"levelo://app?vid=f4dd3eb1-7e82-4c26-b698-3c2a1ed42096"},"vehicle_type_id":"4","last_reported":1750345830,"current_range_meters":18000,"station_id":"ce4bhu92rcd13ifvqi70","pricing_plan_id":"cebpf4jnsgd1na2vs0mg"},{"bike_id":"fef39bef-1b21-4d4a-a49d-538b66c9a37d","system_id":"levelo_inurba_marseille","lat":43.24161,"lon":5.36397,"is_reserved":false,"is_disabled":false,"rental_uris":{"android":"levelo://app?vid=fef39bef-1b21-4d4a-a49d-538b66c9a37d","ios":"levelo://app?vid=fef39bef-1b21-4d4a-a49d-538b66c9a37d"},"vehicle_type_id":"4","last_reported":1750345830,"current_range_meters":18000,"station_id":"cpo36qri1sfpv3e86is0","pricing_plan_id":"cebpf4jnsgd1na2vs0mg"},{"bike_id":"f138f97c-9184-4423-8851-43001f2097b7","system_id":"levelo_inurba_marseille","lat":43.21205,"lon":5.35059,"is_reserved":false,"is_disabled":false,"rental_uris":{"android":"levelo://app?vid=f138f97c-9184-4423-8851-43001f2097b7","ios":"levelo://app?vid=f138f97c-9184-4423-8851-43001f2097b7"},"vehicle_type_id":"4","last_reported":1750345830,"current_range_meters":18000,"station_id":"st_cvj6sg6p6f1abm77japg","pricing_plan_id":"cebpf4jnsgd1na2vs0mg"},{"bike_id":"f5035d12-6f6d-499b-8c76-01bbb6677f60","system_id":"levelo_inurba_marseille","lat":43.3131,"lon":5.37528,"is_reserved":false,"is_disabled":false,"rental_uris":{"android":"levelo://app?vid=f5035d12-6f6d-499b-8c76-01bbb6677f60","ios":"levelo://app?vid=f5035d12-6f6d-499b-8c76-01bbb6677f60"},"vehicle_type_id":"4","last_reported":1750345830,"current_range_meters":18800,"station_id":"","pricing_plan_id":"cebpf4jnsgd1na2vs0mg"},{"bike_id":"7fb8f777-502e-4027-8e9f-d463bb7373be","system_id":"levelo_inurba_marseille","lat":43.29655,"lon":5.38012,"is_reserved":false,"is_disabled":false,"rental_uris":{"android":"levelo://app?vid=7fb8f777-502e-4027-8e9f-d463bb7373be","ios":"levelo://app?vid=7fb8f777-502e-4027-8e9f-d463bb7373be"},"vehicle_type_id":"4","last_reported":1750345830,"current_range_meters":18800,"station_id":"","pricing_plan_id":"cebpf4jnsgd1na2vs0mg"},{"bike_id":"650dfdbc-4825-47e6-ad0c-e18215952ca4","system_id":"levelo_inurba_marseille","lat":43.27368,"lon":5.36256,"is_reserved":false,"is_disabled":false,"rental_uris":{"android":"levelo://app?vid=650dfdbc-4825-47e6-ad0c-e18215952ca4","ios":"levelo://app?vid=650dfdbc-4825-47e6-ad0c-e18215952ca4"},"vehicle_type_id":"4","last_reported":1750345830,"current_range_meters":18800,"station_id":"ce4bhbh2rcd13ifvqeo0","pricing_plan_id":"cebpf4jnsgd1na2vs0mg"},{"bike_id":"27970314-2047-48cf-8f5a-47edda0d779f","system_id":"levelo_inurba_marseille","lat":43.28401,"lon":5.34996,"is_reserved":false,"is_disabled":false,"rental_uris":{"android":"levelo://app?vid=27970314-2047-48cf-8f5a-47edda0d779f","ios":"levelo://app?vid=27970314-2047-48cf-8f5a-47edda0d779f"},"vehicle_type_id":"4","last_reported":1750345830,"current_range_meters":18800,"station_id":"ce4bhbh2rcd13ifvqepg","pricing_plan_id":"cebpf4jnsgd1na2vs0mg"},{"bike_id":"e363306f-53a7-42d8-a215-bdbce499e1dd","system_id":"levelo_inurba_marseille","lat":43.28404,"lon":5.35007,"is_reserved":false,"is_disabled":false,"rental_uris":{"android":"levelo://app?vid=e363306f-53a7-42d8-a215-bdbce499e1dd","ios":"levelo://app?vid=e363306f-53a7-42d8-a215-bdbce499e1dd"},"vehicle_type_id":"4","last_reported":1750345830,"current_range_meters":18800,"station_id":"ce4bhbh2rcd13ifvqepg","pricing_plan_id":"cebpf4jnsgd1na2vs0mg"},{"bike_id":"379bb214-369c-4f14-afd6-64f4e8e28f06","system_id":"levelo_inurba_marseille","lat":43.28255,"lon":5.35074,"is_reserved":false,"is_disabled":false,"rental_uris":{"android":"levelo://app?vid=379bb214-369c-4f14-afd6-64f4e8e28f06","ios":"levelo://app?vid=379bb214-369c-4f14-afd6-64f4e8e28f06"},"vehicle_type_id":"4","last_reported":1750345830,"current_range_meters":18800,"station_id":"ce4bhbp2rcd13ifvqerg","pricing_plan_id":"cebpf4jnsgd1na2vs0mg"},{"bike_id":"261a658f-71d3-458e-bd96-e98a429eba85","system_id":"levelo_inurba_marseille","lat":43.26568,"lon":5.39025,"is_reserved":false,"is_disabled":false,"rental_uris":{"android":"levelo://app?vid=261a658f-71d3-458e-bd96-e98a429eba85","ios":"levelo://app?vid=261a658f-71d3-458e-bd96-e98a429eba85"},"vehicle_type_id":"4","last_reported":1750345830,"current_range_meters":18800,"station_id":"ce4bhe12rcd13ifvqf30","pricing_plan_id":"cebpf4jnsgd1na2vs0mg"},{"bike_id":"3a06ea61-5f09-46f6-a5a2-127a13779e66","system_id":"levelo_inurba_marseille","lat":43.23185,"lon":5.3998,"is_reserved":false,"is_disabled":false,"rental_uris":{"android":"levelo://app?vid=3a06ea61-5f09-46f6-a5a2-127a13779e66","ios":"levelo://app?vid=3a06ea61-5f09-46f6-a5a2-127a13779e66"},"vehicle_type_id":"4","last_reported":1750345830,"current_range_meters":18800,"station_id":"ce4bhn12rcd13ifvqgqg","pricing_plan_id":"cebpf4jnsgd1na2vs0mg"},{"bike_id":"474fe8de-6467-4685-b711-e41603c5f858","system_id":"levelo_inurba_marseille","lat":43.28809,"lon":5.35255,"is_reserved":false,"is_disabled":false,"rental_uris":{"android":"levelo://app?vid=474fe8de-6467-4685-b711-e41603c5f858","ios":"levelo://app?vid=474fe8de-6467-4685-b711-e41603c5f858"},"vehicle_type_id":"4","last_reported":1750345830,"current_range_meters":19200,"station_id":"","pricing_plan_id":"cebpf4jnsgd1na2vs0mg"},{"bike_id":"dd7df7b7-8188-40e7-9f90-0d046215185e","system_id":"levelo_inurba_marseille","lat":43.29255,"lon":5.40915,"is_reserved":false,"is_disabled":false,"rental_uris":{"android":"levelo://app?vid=dd7df7b7-8188-40e7-9f90-0d046215185e","ios":"levelo://app?vid=dd7df7b7-8188-40e7-9f90-0d046215185e"},"vehicle_type_id":"4","last_reported":1750345830,"current_range_meters":19200,"station_id":"ce4bh192rcd13ifvqdc0","pricing_plan_id":"cebpf4jnsgd1na2vs0mg"},{"bike_id":"104b1bd5-55a1-4d5b-96b5-b484f607ce6d","system_id":"levelo_inurba_marseille","lat":43.28933,"lon":5.36636,"is_reserved":false,"is_disabled":false,"rental_uris":{"android":"levelo://app?vid=104b1bd5-55a1-4d5b-96b5-b484f607ce6d","ios":"levelo://app?vid=104b1bd5-55a1-4d5b-96b5-b484f607ce6d"},"vehicle_type_id":"4","last_reported":1750345830,"current_range_meters":19200,"station_id":"ce4bhap2rcd13ifvqek0","pricing_plan_id":"cebpf4jnsgd1na2vs0mg"},{"bike_id":"d4c4bb36-02dd-4270-afd8-8909dbb361be","system_id":"levelo_inurba_marseille","lat":43.28415,"lon":5.34984,"is_reserved":false,"is_disabled":false,"rental_uris":{"android":"levelo://app?vid=d4c4bb36-02dd-4270-afd8-8909dbb361be","ios":"levelo://app?vid=d4c4bb36-02dd-4270-afd8-8909dbb361be"},"vehicle_type_id":"4","last_reported":1750345830,"current_range_meters":19200,"station_id":"ce4bhbh2rcd13ifvqepg","pricing_plan_id":"cebpf4jnsgd1na2vs0mg"},{"bike_id":"f49178b3-2bab-4011-bc44-3aaa355e0564","system_id":"levelo_inurba_marseille","lat":43.284119,"lon":5.349957,"is_reserved":false,"is_disabled":false,"rental_uris":{"android":"levelo://app?vid=f49178b3-2bab-4011-bc44-3aaa355e0564","ios":"levelo://app?vid=f49178b3-2bab-4011-bc44-3aaa355e0564"},"vehicle_type_id":"4","last_reported":1750345830,"current_range_meters":19200,"station_id":"ce4bhbh2rcd13ifvqepg","pricing_plan_id":"cebpf4jnsgd1na2vs0mg"},{"bike_id":"3939df6a-c644-4caf-9fc0-3fbc572e8f68","system_id":"levelo_inurba_marseille","lat":43.2824,"lon":5.35081,"is_reserved":false,"is_disabled":false,"rental_uris":{"android":"levelo://app?vid=3939df6a-c644-4caf-9fc0-3fbc572e8f68","ios":"levelo://app?vid=3939df6a-c644-4caf-9fc0-3fbc572e8f68"},"vehicle_type_id":"4","last_reported":1750345830,"current_range_meters":19200,"station_id":"ce4bhbp2rcd13ifvqerg","pricing_plan_id":"cebpf4jnsgd1na2vs0mg"},{"bike_id":"5fd3b9b5-a9a6-4143-8f5e-8e826c127288","system_id":"levelo_inurba_marseille","lat":43.28256,"lon":5.35073,"is_reserved":false,"is_disabled":false,"rental_uris":{"android":"levelo://app?vid=5fd3b9b5-a9a6-4143-8f5e-8e826c127288","ios":"levelo://app?vid=5fd3b9b5-a9a6-4143-8f5e-8e826c127288"},"vehicle_type_id":"4","last_reported":1750345830,"current_range_meters":19200,"station_id":"ce4bhbp2rcd13ifvqerg","pricing_plan_id":"cebpf4jnsgd1na2vs0mg"},{"bike_id":"51c204c9-f369-4478-8f21-7aba47062406","system_id":"levelo_inurba_marseille","lat":43.26509,"lon":5.39077,"is_reserved":false,"is_disabled":false,"rental_uris":{"android":"levelo://app?vid=51c204c9-f369-4478-8f21-7aba47062406","ios":"levelo://app?vid=51c204c9-f369-4478-8f21-7aba47062406"},"vehicle_type_id":"4","last_reported":1750345830,"current_range_meters":19200,"station_id":"ce4bhe12rcd13ifvqf30","pricing_plan_id":"cebpf4jnsgd1na2vs0mg"},{"bike_id":"e17fa418-1a03-4493-b8fb-b937788d83b7","system_id":"levelo_inurba_marseille","lat":43.24168,"lon":5.36398,"is_reserved":false,"is_disabled":false,"rental_uris":{"android":"levelo://app?vid=e17fa418-1a03-4493-b8fb-b937788d83b7","ios":"levelo://app?vid=e17fa418-1a03-4493-b8fb-b937788d83b7"},"vehicle_type_id":"4","last_reported":1750345830,"current_range_meters":19200,"station_id":"cpo36qri1sfpv3e86is0","pricing_plan_id":"cebpf4jnsgd1na2vs0mg"},{"bike_id":"32c8c1a1-a0e7-4a63-a191-fe37a5f45194","system_id":"levelo_inurba_marseille","lat":43.21191,"lon":5.35074,"is_reserved":false,"is_disabled":false,"rental_uris":{"android":"levelo://app?vid=32c8c1a1-a0e7-4a63-a191-fe37a5f45194","ios":"levelo://app?vid=32c8c1a1-a0e7-4a63-a191-fe37a5f45194"},"vehicle_type_id":"4","last_reported":1750345830,"current_range_meters":19200,"station_id":"st_cvj6sg6p6f1abm77japg","pricing_plan_id":"cebpf4jnsgd1na2vs0mg"},{"bike_id":"693e9efe-9913-423f-9e4b-28c2f1ac2dfe","system_id":"levelo_inurba_marseille","lat":43.29795,"lon":5.38091,"is_reserved":false,"is_disabled":false,"rental_uris":{"android":"levelo://app?vid=693e9efe-9913-423f-9e4b-28c2f1ac2dfe","ios":"levelo://app?vid=693e9efe-9913-423f-9e4b-28c2f1ac2dfe"},"vehicle_type_id":"4","last_reported":1750345830,"current_range_meters":19600,"station_id":"ce4bgip2rcd13ifvqbb0","pricing_plan_id":"cebpf4jnsgd1na2vs0mg"},{"bike_id":"ac2612a7-e735-40b5-99e1-074a7c84cea3","system_id":"levelo_inurba_marseille","lat":43.30257,"lon":5.40084,"is_reserved":false,"is_disabled":false,"rental_uris":{"android":"levelo://app?vid=ac2612a7-e735-40b5-99e1-074a7c84cea3","ios":"levelo://app?vid=ac2612a7-e735-40b5-99e1-074a7c84cea3"},"vehicle_type_id":"4","last_reported":1750345830,"current_range_meters":19600,"station_id":"ce4bgvh2rcd13ifvqcs0","pricing_plan_id":"cebpf4jnsgd1na2vs0mg"},{"bike_id":"dd9996b7-7f20-405f-ad1a-dd42492c72af","system_id":"levelo_inurba_marseille","lat":43.28252,"lon":5.35074,"is_reserved":false,"is_disabled":false,"rental_uris":{"android":"levelo://app?vid=dd9996b7-7f20-405f-ad1a-dd42492c72af","ios":"levelo://app?vid=dd9996b7-7f20-405f-ad1a-dd42492c72af"},"vehicle_type_id":"4","last_reported":1750345830,"current_range_meters":19600,"station_id":"ce4bhbp2rcd13ifvqerg","pricing_plan_id":"cebpf4jnsgd1na2vs0mg"},{"bike_id":"0acd3c1a-dbb3-49c1-92b0-eaf6eb0789a0","system_id":"levelo_inurba_marseille","lat":43.28255,"lon":5.35068,"is_reserved":false,"is_disabled":false,"rental_uris":{"android":"levelo://app?vid=0acd3c1a-dbb3-49c1-92b0-eaf6eb0789a0","ios":"levelo://app?vid=0acd3c1a-dbb3-49c1-92b0-eaf6eb0789a0"},"vehicle_type_id":"4","last_reported":1750345830,"current_range_meters":19600,"station_id":"ce4bhbp2rcd13ifvqerg","pricing_plan_id":"cebpf4jnsgd1na2vs0mg"},{"bike_id":"72ace9d9-c92b-49de-aef1-08296e13698c","system_id":"levelo_inurba_marseille","lat":43.28614,"lon":5.35087,"is_reserved":false,"is_disabled":false,"rental_uris":{"android":"levelo://app?vid=72ace9d9-c92b-49de-aef1-08296e13698c","ios":"levelo://app?vid=72ace9d9-c92b-49de-aef1-08296e13698c"},"vehicle_type_id":"4","last_reported":1750345830,"current_range_meters":19600,"station_id":"ce4bhch2rcd13ifvqeug","pricing_plan_id":"cebpf4jnsgd1na2vs0mg"},{"bike_id":"e0222858-fdee-4e3d-a517-1dd356051947","system_id":"levelo_inurba_marseille","lat":43.24401,"lon":5.37111,"is_reserved":false,"is_disabled":false,"rental_uris":{"android":"levelo://app?vid=e0222858-fdee-4e3d-a517-1dd356051947","ios":"levelo://app?vid=e0222858-fdee-4e3d-a517-1dd356051947"},"vehicle_type_id":"4","last_reported":1750345830,"current_range_meters":19600,"station_id":"ce4bhhh2rcd13ifvqfk0","pricing_plan_id":"cebpf4jnsgd1na2vs0mg"},{"bike_id":"c7e2377f-a68b-4904-9439-974c50915359","system_id":"levelo_inurba_marseille","lat":43.27206,"lon":5.40993,"is_reserved":false,"is_disabled":false,"rental_uris":{"android":"levelo://app?vid=c7e2377f-a68b-4904-9439-974c50915359","ios":"levelo://app?vid=c7e2377f-a68b-4904-9439-974c50915359"},"vehicle_type_id":"4","last_reported":1750345830,"current_range_meters":19600,"station_id":"ce4bhl12rcd13ifvqgf0","pricing_plan_id":"cebpf4jnsgd1na2vs0mg"},{"bike_id":"cb136834-438f-4a52-9688-81aeccd6172f","system_id":"levelo_inurba_marseille","lat":43.30884,"lon":5.39642,"is_reserved":false,"is_disabled":false,"rental_uris":{"android":"levelo://app?vid=cb136834-438f-4a52-9688-81aeccd6172f","ios":"levelo://app?vid=cb136834-438f-4a52-9688-81aeccd6172f"},"vehicle_type_id":"4","last_reported":1750345830,"current_range_meters":20000,"station_id":"ce4bh012rcd13ifvqcv0","pricing_plan_id":"cebpf4jnsgd1na2vs0mg"},{"bike_id":"0d14d1a7-e3ac-4a84-b6db-ba1d24ce372f","system_id":"levelo_inurba_marseille","lat":43.28934,"lon":5.3963,"is_reserved":false,"is_disabled":false,"rental_uris":{"android":"levelo://app?vid=0d14d1a7-e3ac-4a84-b6db-ba1d24ce372f","ios":"levelo://app?vid=0d14d1a7-e3ac-4a84-b6db-ba1d24ce372f"},"vehicle_type_id":"4","last_reported":1750345830,"current_range_meters":20000,"station_id":"ce4bh3h2rcd13ifvqdn0","pricing_plan_id":"cebpf4jnsgd1na2vs0mg"},{"bike_id":"ddf3dbba-1550-4c31-8c37-0dbf5c5e83b8","system_id":"levelo_inurba_marseille","lat":43.28476,"lon":5.38414,"is_reserved":false,"is_disabled":false,"rental_uris":{"android":"levelo://app?vid=ddf3dbba-1550-4c31-8c37-0dbf5c5e83b8","ios":"levelo://app?vid=ddf3dbba-1550-4c31-8c37-0dbf5c5e83b8"},"vehicle_type_id":"4","last_reported":1750345830,"current_range_meters":20000,"station_id":"ce4bh512rcd13ifvqe3g","pricing_plan_id":"cebpf4jnsgd1na2vs0mg"},{"bike_id":"6246db46-b045-4c48-8d1a-61a555580290","system_id":"levelo_inurba_marseille","lat":43.2826,"lon":5.3507,"is_reserved":false,"is_disabled":false,"rental_uris":{"android":"levelo://app?vid=6246db46-b045-4c48-8d1a-61a555580290","ios":"levelo://app?vid=6246db46-b045-4c48-8d1a-61a555580290"},"vehicle_type_id":"4","last_reported":1750345830,"current_range_meters":20000,"station_id":"ce4bhbp2rcd13ifvqerg","pricing_plan_id":"cebpf4jnsgd1na2vs0mg"},{"bike_id":"b984307d-92ed-4266-95fb-9b5f0088eafe","system_id":"levelo_inurba_marseille","lat":43.28261,"lon":5.35088,"is_reserved":false,"is_disabled":false,"rental_uris":{"android":"levelo://app?vid=b984307d-92ed-4266-95fb-9b5f0088eafe","ios":"levelo://app?vid=b984307d-92ed-4266-95fb-9b5f0088eafe"},"vehicle_type_id":"4","last_reported":1750345830,"current_range_meters":20000,"station_id":"ce4bhbp2rcd13ifvqerg","pricing_plan_id":"cebpf4jnsgd1na2vs0mg"},{"bike_id":"ecd8659f-8ec6-4ef0-a12a-cea90acf4ef0","system_id":"levelo_inurba_marseille","lat":43.24182,"lon":5.39718,"is_reserved":false,"is_disabled":false,"rental_uris":{"android":"levelo://app?vid=ecd8659f-8ec6-4ef0-a12a-cea90acf4ef0","ios":"levelo://app?vid=ecd8659f-8ec6-4ef0-a12a-cea90acf4ef0"},"vehicle_type_id":"4","last_reported":1750345830,"current_range_meters":20000,"station_id":"ce4bhn12rcd13ifvqgpg","pricing_plan_id":"cebpf4jnsgd1na2vs0mg"},{"bike_id":"dbc2a7cc-8a08-4c57-a247-f4de8034bb7f","system_id":"levelo_inurba_marseille","lat":43.243481,"lon":5.369557,"is_reserved":false,"is_disabled":false,"rental_uris":{"android":"levelo://app?vid=dbc2a7cc-8a08-4c57-a247-f4de8034bb7f","ios":"levelo://app?vid=dbc2a7cc-8a08-4c57-a247-f4de8034bb7f"},"vehicle_type_id":"4","last_reported":1750345830,"current_range_meters":20000,"station_id":"cpo36qri1sfpv3e86is0","pricing_plan_id":"cebpf4jnsgd1na2vs0mg"},{"bike_id":"a7ef4ef5-2b98-4af7-a775-fd80e48d08f7","system_id":"levelo_inurba_marseille","lat":43.24165,"lon":5.36394,"is_reserved":false,"is_disabled":false,"rental_uris":{"android":"levelo://app?vid=a7ef4ef5-2b98-4af7-a775-fd80e48d08f7","ios":"levelo://app?vid=a7ef4ef5-2b98-4af7-a775-fd80e48d08f7"},"vehicle_type_id":"4","last_reported":1750345830,"current_range_meters":20000,"station_id":"cpo36qri1sfpv3e86is0","pricing_plan_id":"cebpf4jnsgd1na2vs0mg"},{"bike_id":"dc540ba2-fb63-45eb-b83a-1826fb3d30b7","system_id":"levelo_inurba_marseille","lat":43.24609,"lon":5.39277,"is_reserved":false,"is_disabled":false,"rental_uris":{"android":"levelo://app?vid=dc540ba2-fb63-45eb-b83a-1826fb3d30b7","ios":"levelo://app?vid=dc540ba2-fb63-45eb-b83a-1826fb3d30b7"},"vehicle_type_id":"4","last_reported":1750345830,"current_range_meters":20400,"station_id":"","pricing_plan_id":"cebpf4jnsgd1na2vs0mg"},{"bike_id":"d902f454-e65a-43f4-acf4-db6c4f6ecb7a","system_id":"levelo_inurba_marseille","lat":43.29704,"lon":5.37694,"is_reserved":false,"is_disabled":false,"rental_uris":{"android":"levelo://app?vid=d902f454-e65a-43f4-acf4-db6c4f6ecb7a","ios":"levelo://app?vid=d902f454-e65a-43f4-acf4-db6c4f6ecb7a"},"vehicle_type_id":"4","last_reported":1750345830,"current_range_meters":20400,"station_id":"ce4bgkh2rcd13ifvqbl0","pricing_plan_id":"cebpf4jnsgd1na2vs0mg"},{"bike_id":"f2a20466-3034-49d3-a0e5-97c550b25dd5","system_id":"levelo_inurba_marseille","lat":43.30638,"lon":5.40092,"is_reserved":false,"is_disabled":false,"rental_uris":{"android":"levelo://app?vid=f2a20466-3034-49d3-a0e5-97c550b25dd5","ios":"levelo://app?vid=f2a20466-3034-49d3-a0e5-97c550b25dd5"},"vehicle_type_id":"4","last_reported":1750345830,"current_range_meters":20400,"station_id":"ce4bh112rcd13ifvqda0","pricing_plan_id":"cebpf4jnsgd1na2vs0mg"},{"bike_id":"07d8b321-d214-4edd-85a7-5f155142adca","system_id":"levelo_inurba_marseille","lat":43.29256,"lon":5.40904,"is_reserved":false,"is_disabled":false,"rental_uris":{"android":"levelo://app?vid=07d8b321-d214-4edd-85a7-5f155142adca","ios":"levelo://app?vid=07d8b321-d214-4edd-85a7-5f155142adca"},"vehicle_type_id":"4","last_reported":1750345830,"current_range_meters":20400,"station_id":"ce4bh192rcd13ifvqdc0","pricing_plan_id":"cebpf4jnsgd1na2vs0mg"},{"bike_id":"88fad92b-88d9-42ec-a71b-4f6b84af3f5e","system_id":"levelo_inurba_marseille","lat":43.28406,"lon":5.35015,"is_reserved":false,"is_disabled":false,"rental_uris":{"android":"levelo://app?vid=88fad92b-88d9-42ec-a71b-4f6b84af3f5e","ios":"levelo://app?vid=88fad92b-88d9-42ec-a71b-4f6b84af3f5e"},"vehicle_type_id":"4","last_reported":1750345830,"current_range_meters":20400,"station_id":"ce4bhbh2rcd13ifvqepg","pricing_plan_id":"cebpf4jnsgd1na2vs0mg"},{"bike_id":"a1687005-d6a6-41d3-b60e-c23a83102fc3","system_id":"levelo_inurba_marseille","lat":43.28414,"lon":5.34988,"is_reserved":false,"is_disabled":false,"rental_uris":{"android":"levelo://app?vid=a1687005-d6a6-41d3-b60e-c23a83102fc3","ios":"levelo://app?vid=a1687005-d6a6-41d3-b60e-c23a83102fc3"},"vehicle_type_id":"4","last_reported":1750345830,"current_range_meters":20400,"station_id":"ce4bhbh2rcd13ifvqepg","pricing_plan_id":"cebpf4jnsgd1na2vs0mg"},{"bike_id":"67aefb54-5c14-44fc-8e8e-35858567d4ac","system_id":"levelo_inurba_marseille","lat":43.2826,"lon":5.35087,"is_reserved":false,"is_disabled":false,"rental_uris":{"android":"levelo://app?vid=67aefb54-5c14-44fc-8e8e-35858567d4ac","ios":"levelo://app?vid=67aefb54-5c14-44fc-8e8e-35858567d4ac"},"vehicle_type_id":"4","last_reported":1750345830,"current_range_meters":20400,"station_id":"ce4bhbp2rcd13ifvqerg","pricing_plan_id":"cebpf4jnsgd1na2vs0mg"},{"bike_id":"d995dacb-8051-4fc6-aa29-27460090e377","system_id":"levelo_inurba_marseille","lat":43.28149,"lon":5.42646,"is_reserved":false,"is_disabled":false,"rental_uris":{"android":"levelo://app?vid=d995dacb-8051-4fc6-aa29-27460090e377","ios":"levelo://app?vid=d995dacb-8051-4fc6-aa29-27460090e377"},"vehicle_type_id":"4","last_reported":1750345830,"current_range_meters":20400,"station_id":"ce4bhnh2rcd13ifvqgug","pricing_plan_id":"cebpf4jnsgd1na2vs0mg"},{"bike_id":"af60eb08-1e96-43fd-b432-01be338e448b","system_id":"levelo_inurba_marseille","lat":43.32038,"lon":5.41552,"is_reserved":false,"is_disabled":false,"rental_uris":{"android":"levelo://app?vid=af60eb08-1e96-43fd-b432-01be338e448b","ios":"levelo://app?vid=af60eb08-1e96-43fd-b432-01be338e448b"},"vehicle_type_id":"4","last_reported":1750345830,"current_range_meters":20400,"station_id":"ce4bhq92rcd13ifvqhkg","pricing_plan_id":"cebpf4jnsgd1na2vs0mg"},{"bike_id":"3a85e3ec-a262-4f94-afb6-98de5e632949","system_id":"levelo_inurba_marseille","lat":43.293304,"lon":5.370808,"is_reserved":false,"is_disabled":false,"rental_uris":{"android":"levelo://app?vid=3a85e3ec-a262-4f94-afb6-98de5e632949","ios":"levelo://app?vid=3a85e3ec-a262-4f94-afb6-98de5e632949"},"vehicle_type_id":"4","last_reported":1750345830,"current_range_meters":20800,"station_id":"","pricing_plan_id":"cebpf4jnsgd1na2vs0mg"},{"bike_id":"5631932b-e2aa-4ebf-8291-5ca3a502e250","system_id":"levelo_inurba_marseille","lat":43.24969,"lon":5.38774,"is_reserved":false,"is_disabled":false,"rental_uris":{"android":"levelo://app?vid=5631932b-e2aa-4ebf-8291-5ca3a502e250","ios":"levelo://app?vid=5631932b-e2aa-4ebf-8291-5ca3a502e250"},"vehicle_type_id":"4","last_reported":1750345830,"current_range_meters":20800,"station_id":"","pricing_plan_id":"cebpf4jnsgd1na2vs0mg"},{"bike_id":"4f3d14f0-f78a-4a36-825a-7fc0097a41ad","system_id":"levelo_inurba_marseille","lat":43.289185,"lon":5.384,"is_reserved":false,"is_disabled":false,"rental_uris":{"android":"levelo://app?vid=4f3d14f0-f78a-4a36-825a-7fc0097a41ad","ios":"levelo://app?vid=4f3d14f0-f78a-4a36-825a-7fc0097a41ad"},"vehicle_type_id":"4","last_reported":1750345830,"current_range_meters":20800,"station_id":"ce4bh612rcd13ifvqe6g","pricing_plan_id":"cebpf4jnsgd1na2vs0mg"},{"bike_id":"48dbabf6-3c3a-4985-9c6a-1a32fe42d9ed","system_id":"levelo_inurba_marseille","lat":43.28437,"lon":5.35025,"is_reserved":false,"is_disabled":false,"rental_uris":{"android":"levelo://app?vid=48dbabf6-3c3a-4985-9c6a-1a32fe42d9ed","ios":"levelo://app?vid=48dbabf6-3c3a-4985-9c6a-1a32fe42d9ed"},"vehicle_type_id":"4","last_reported":1750345830,"current_range_meters":20800,"station_id":"ce4bhbh2rcd13ifvqepg","pricing_plan_id":"cebpf4jnsgd1na2vs0mg"},{"bike_id":"57aae8f5-c164-4bd6-8f18-80c32aace04f","system_id":"levelo_inurba_marseille","lat":43.28259,"lon":5.35057,"is_reserved":false,"is_disabled":false,"rental_uris":{"android":"levelo://app?vid=57aae8f5-c164-4bd6-8f18-80c32aace04f","ios":"levelo://app?vid=57aae8f5-c164-4bd6-8f18-80c32aace04f"},"vehicle_type_id":"4","last_reported":1750345830,"current_range_meters":20800,"station_id":"ce4bhbp2rcd13ifvqerg","pricing_plan_id":"cebpf4jnsgd1na2vs0mg"},{"bike_id":"3d6b18e4-b579-42ef-9830-3715cd0eddae","system_id":"levelo_inurba_marseille","lat":43.24806,"lon":5.37455,"is_reserved":false,"is_disabled":false,"rental_uris":{"android":"levelo://app?vid=3d6b18e4-b579-42ef-9830-3715cd0eddae","ios":"levelo://app?vid=3d6b18e4-b579-42ef-9830-3715cd0eddae"},"vehicle_type_id":"4","last_reported":1750345830,"current_range_meters":20800,"station_id":"ce4bhgh2rcd13ifvqfb0","pricing_plan_id":"cebpf4jnsgd1na2vs0mg"},{"bike_id":"8ff0b513-3e97-4fe2-b124-ac09bc263165","system_id":"levelo_inurba_marseille","lat":43.30793,"lon":5.43531,"is_reserved":false,"is_disabled":false,"rental_uris":{"android":"levelo://app?vid=8ff0b513-3e97-4fe2-b124-ac09bc263165","ios":"levelo://app?vid=8ff0b513-3e97-4fe2-b124-ac09bc263165"},"vehicle_type_id":"4","last_reported":1750345830,"current_range_meters":20800,"station_id":"ce4bhph2rcd13ifvqheg","pricing_plan_id":"cebpf4jnsgd1na2vs0mg"},{"bike_id":"4ddd4f40-c68c-4cc8-8538-e6dd4b127ff4","system_id":"levelo_inurba_marseille","lat":43.21761,"lon":5.34589,"is_reserved":false,"is_disabled":false,"rental_uris":{"android":"levelo://app?vid=4ddd4f40-c68c-4cc8-8538-e6dd4b127ff4","ios":"levelo://app?vid=4ddd4f40-c68c-4cc8-8538-e6dd4b127ff4"},"vehicle_type_id":"4","last_reported":1750345830,"current_range_meters":20800,"station_id":"st_cvj6r9ubvosntc0bgbag","pricing_plan_id":"cebpf4jnsgd1na2vs0mg"},{"bike_id":"204afd8f-d13a-468d-a59c-e2db9671fff1","system_id":"levelo_inurba_marseille","lat":43.244262,"lon":5.371079,"is_reserved":false,"is_disabled":false,"rental_uris":{"android":"levelo://app?vid=204afd8f-d13a-468d-a59c-e2db9671fff1","ios":"levelo://app?vid=204afd8f-d13a-468d-a59c-e2db9671fff1"},"vehicle_type_id":"4","last_reported":1750345830,"current_range_meters":21600,"station_id":"","pricing_plan_id":"cebpf4jnsgd1na2vs0mg"},{"bike_id":"06391670-b52d-4230-b506-923507272945","system_id":"levelo_inurba_marseille","lat":43.30134,"lon":5.37425,"is_reserved":false,"is_disabled":false,"rental_uris":{"android":"levelo://app?vid=06391670-b52d-4230-b506-923507272945","ios":"levelo://app?vid=06391670-b52d-4230-b506-923507272945"},"vehicle_type_id":"4","last_reported":1750345830,"current_range_meters":21600,"station_id":"ce4bgs92rcd13ifvqcc0","pricing_plan_id":"cebpf4jnsgd1na2vs0mg"},{"bike_id":"ca9795cd-6b68-4015-8341-64814c2c51fa","system_id":"levelo_inurba_marseille","lat":43.305804,"lon":5.393133,"is_reserved":false,"is_disabled":false,"rental_uris":{"android":"levelo://app?vid=ca9795cd-6b68-4015-8341-64814c2c51fa","ios":"levelo://app?vid=ca9795cd-6b68-4015-8341-64814c2c51fa"},"vehicle_type_id":"4","last_reported":1750345830,"current_range_meters":21600,"station_id":"ce4bh012rcd13ifvqcv0","pricing_plan_id":"cebpf4jnsgd1na2vs0mg"},{"bike_id":"766058cd-7024-437a-9de7-5108cd8a1e8f","system_id":"levelo_inurba_marseille","lat":43.28854,"lon":5.35848,"is_reserved":false,"is_disabled":false,"rental_uris":{"android":"levelo://app?vid=766058cd-7024-437a-9de7-5108cd8a1e8f","ios":"levelo://app?vid=766058cd-7024-437a-9de7-5108cd8a1e8f"},"vehicle_type_id":"4","last_reported":1750345830,"current_range_meters":21600,"station_id":"ce4bhb12rcd13ifvqem0","pricing_plan_id":"cebpf4jnsgd1na2vs0mg"},{"bike_id":"bd27fe72-6fbc-453f-8b77-bee10ab3b13c","system_id":"levelo_inurba_marseille","lat":43.29531,"lon":5.42346,"is_reserved":false,"is_disabled":false,"rental_uris":{"android":"levelo://app?vid=bd27fe72-6fbc-453f-8b77-bee10ab3b13c","ios":"levelo://app?vid=bd27fe72-6fbc-453f-8b77-bee10ab3b13c"},"vehicle_type_id":"4","last_reported":1750345830,"current_range_meters":21600,"station_id":"ce4bhph2rcd13ifvqhdg","pricing_plan_id":"cebpf4jnsgd1na2vs0mg"},{"bike_id":"5dd50dfd-5b4c-4710-89b0-806a2a180a5d","system_id":"levelo_inurba_marseille","lat":43.24166,"lon":5.36397,"is_reserved":false,"is_disabled":false,"rental_uris":{"android":"levelo://app?vid=5dd50dfd-5b4c-4710-89b0-806a2a180a5d","ios":"levelo://app?vid=5dd50dfd-5b4c-4710-89b0-806a2a180a5d"},"vehicle_type_id":"4","last_reported":1750345830,"current_range_meters":21600,"station_id":"cpo36qri1sfpv3e86is0","pricing_plan_id":"cebpf4jnsgd1na2vs0mg"},{"bike_id":"0ba0ae07-9e68-4775-ad60-b0ae73d89021","system_id":"levelo_inurba_marseille","lat":43.27377,"lon":5.3626,"is_reserved":false,"is_disabled":false,"rental_uris":{"android":"levelo://app?vid=0ba0ae07-9e68-4775-ad60-b0ae73d89021","ios":"levelo://app?vid=0ba0ae07-9e68-4775-ad60-b0ae73d89021"},"vehicle_type_id":"4","last_reported":1750345830,"current_range_meters":22000,"station_id":"ce4bhbh2rcd13ifvqeo0","pricing_plan_id":"cebpf4jnsgd1na2vs0mg"},{"bike_id":"df082621-230f-43fe-98f5-4e85922eb149","system_id":"levelo_inurba_marseille","lat":43.28415,"lon":5.34998,"is_reserved":false,"is_disabled":false,"rental_uris":{"android":"levelo://app?vid=df082621-230f-43fe-98f5-4e85922eb149","ios":"levelo://app?vid=df082621-230f-43fe-98f5-4e85922eb149"},"vehicle_type_id":"4","last_reported":1750345830,"current_range_meters":22000,"station_id":"ce4bhbh2rcd13ifvqepg","pricing_plan_id":"cebpf4jnsgd1na2vs0mg"},{"bike_id":"9b8a919b-44fc-4209-809e-24f7f790bb96","system_id":"levelo_inurba_marseille","lat":43.2548,"lon":5.37675,"is_reserved":false,"is_disabled":false,"rental_uris":{"android":"levelo://app?vid=9b8a919b-44fc-4209-809e-24f7f790bb96","ios":"levelo://app?vid=9b8a919b-44fc-4209-809e-24f7f790bb96"},"vehicle_type_id":"4","last_reported":1750345830,"current_range_meters":22000,"station_id":"ce4bhh12rcd13ifvqff0","pricing_plan_id":"cebpf4jnsgd1na2vs0mg"},{"bike_id":"a4ff1886-948f-489c-b8f8-527cff5591b8","system_id":"levelo_inurba_marseille","lat":43.29599,"lon":5.381,"is_reserved":false,"is_disabled":false,"rental_uris":{"android":"levelo://app?vid=a4ff1886-948f-489c-b8f8-527cff5591b8","ios":"levelo://app?vid=a4ff1886-948f-489c-b8f8-527cff5591b8"},"vehicle_type_id":"4","last_reported":1750345830,"current_range_meters":22400,"station_id":"","pricing_plan_id":"cebpf4jnsgd1na2vs0mg"},{"bike_id":"7291e4bc-af30-420d-9da2-5904f39f2981","system_id":"levelo_inurba_marseille","lat":43.331408,"lon":5.413875,"is_reserved":false,"is_disabled":false,"rental_uris":{"android":"levelo://app?vid=7291e4bc-af30-420d-9da2-5904f39f2981","ios":"levelo://app?vid=7291e4bc-af30-420d-9da2-5904f39f2981"},"vehicle_type_id":"4","last_reported":1750345830,"current_range_meters":22400,"station_id":"","pricing_plan_id":"cebpf4jnsgd1na2vs0mg"},{"bike_id":"e8aea5b1-993d-43f3-96f1-279e50250b82","system_id":"levelo_inurba_marseille","lat":43.28409,"lon":5.34998,"is_reserved":false,"is_disabled":false,"rental_uris":{"android":"levelo://app?vid=e8aea5b1-993d-43f3-96f1-279e50250b82","ios":"levelo://app?vid=e8aea5b1-993d-43f3-96f1-279e50250b82"},"vehicle_type_id":"4","last_reported":1750345830,"current_range_meters":22400,"station_id":"ce4bhbh2rcd13ifvqepg","pricing_plan_id":"cebpf4jnsgd1na2vs0mg"},