{"last_updated":1746468715,"ttl":60,"version":"2.2","data":{"bikes":[{"bike_id":"b6d8ce50-f007-4720-b93c-1383bd2cb3eb","system_id":"levelo_inurba_marseille","lat":43.28497,"lon":5.38579,"is_reserved":false,"is_disabled":false,"rental_uris":{"android":"levelo://app?vid=b6d8ce50-f007-4720-b93c-1383bd2cb3eb","ios":"levelo://app?vid=b6d8ce50-f007-4720-b93c-1383bd2cb3eb"},"vehicle_type_id":"4","last_reported":1746468716,"current_range_meters":2800,"station_id":"ce4bh8p2rcd13ifvqeb0","pricing_plan_id":"cebpf4jnsgd1na2vs0mg"},{"bike_id":"e89f9da8-e104-4bda-b821-6af6fa13f513","system_id":"levelo_inurba_marseille","lat":43.28479,"lon":5.38552,"is_reserved":false,"is_disabled":false,"rental_uris":{"android":"levelo://app?vid=e89f9da8-e104-4bda-b821-6af6fa13f513","ios":"levelo://app?vid=e89f9da8-e104-4bda-b821-6af6fa13f513"},"vehicle_type_id":"4","last_reported":1746468716,"current_range_meters":2000,"station_id":"ce4bh8p2rcd13ifvqeb0","pricing_plan_id":"cebpf4jnsgd1na2vs0mg"},{"bike_id":"5dc39ee0-6c30-426f-8b2c-91a6ce9c4ebb","system_id":"levelo_inurba_marseille","lat":43.3176,"lon":5.39023,"is_reserved":false,"is_disabled":false,"rental_uris":{"android":"levelo://app?vid=5dc39ee0-6c30-426f-8b2c-91a6ce9c4ebb","ios":"levelo://app?vid=5dc39ee0-6c30-426f-8b2c-91a6ce9c4ebb"},"vehicle_type_id":"4","last_reported":1746468716,"current_range_meters":2800,"station_id":"ce4bhqp2rcd13ifvqhng","pricing_plan_id":"cebpf4jnsgd1na2vs0mg"},{"bike_id":"4cbcc192-ac6a-4b8f-9974-533f3d26db63","system_id":"levelo_inurba_marseille","lat":43.31062,"lon":5.38364,"is_reserved":false,"is_disabled":false,"rental_uris":{"android":"levelo://app?vid=4cbcc192-ac6a-4b8f-9974-533f3d26db63","ios":"levelo://app?vid=4cbcc192-ac6a-4b8f-9974-533f3d26db63"},"vehicle_type_id":"4","last_reported":1746468716,"current_range_meters":2800,"station_id":"ce4bgv92rcd13ifvqcr0","pricing_plan_id":"cebpf4jnsgd1na2vs0mg"},{"bike_id":"71e7add7-6f43-45e2-892b-dc756527adcf","system_id":"levelo_inurba_marseille","lat":43.31076,"lon":5.38349,"is_reserved":false,"is_disabled":false,"rental_uris":{"android":"levelo://app?vid=71e7add7-6f43-45e2-892b-dc756527adcf","ios":"levelo://app?vid=71e7add7-6f43-45e2-892b-dc756527adcf"},"vehicle_type_id":"4","last_reported":1746468716,"current_range_meters":2800,"station_id":"ce4bgv92rcd13ifvqcr0","pricing_plan_id":"cebpf4jnsgd1na2vs0mg"},{"bike_id":"75b58de9-988a-4e8e-ad19-330f5eb4f611","system_id":"levelo_inurba_marseille","lat":43.29033,"lon":5.38141,"is_reserved":false,"is_disabled":false,"rental_uris":{"android":"levelo://app?vid=75b58de9-988a-4e8e-ad19-330f5eb4f611","ios":"levelo://app?vid=75b58de9-988a-4e8e-ad19-330f5eb4f611"},"vehicle_type_id":"4","last_reported":1746468716,"current_range_meters":2800,"station_id":"ce4bh4p2rcd13ifvqe1g","pricing_plan_id":"cebpf4jnsgd1na2vs0mg"},{"bike_id":"ee931f74-c945-4d42-9401-20cdfa16d42e","system_id":"levelo_inurba_marseille","lat":43.31012,"lon":5.37101,"is_reserved":false,"is_disabled":false,"rental_uris":{"android":"levelo://app?vid=ee931f74-c945-4d42-9401-20cdfa16d42e","ios":"levelo://app?vid=ee931f74-c945-4d42-9401-20cdfa16d42e"},"vehicle_type_id":"4","last_reported":1746468716,"current_range_meters":3200,"station_id":"","pricing_plan_id":"cebpf4jnsgd1na2vs0mg"},{"bike_id":"3cdb31d1-0871-49ad-9f40-984e5117d907","system_id":"levelo_inurba_marseille","lat":43.31885,"lon":5.40732,"is_reserved":false,"is_disabled":false,"rental_uris":{"android":"levelo://app?vid=3cdb31d1-0871-49ad-9f40-984e5117d907","ios":"levelo://app?vid=3cdb31d1-0871-49ad-9f40-984e5117d907"},"vehicle_type_id":"4","last_reported":1746468716,"current_range_meters":3200,"station_id":"ce4bhq12rcd13ifvqhig","pricing_plan_id":"cebpf4jnsgd1na2vs0mg"},{"bike_id":"995fd239-99f9-411a-b968-30b3b7f39d10","system_id":"levelo_inurba_marseille","lat":43.301162,"lon":5.400877,"is_reserved":false,"is_disabled":false,"rental_uris":{"android":"levelo://app?vid=995fd239-99f9-411a-b968-30b3b7f39d10","ios":"levelo://app?vid=995fd239-99f9-411a-b968-30b3b7f39d10"},"vehicle_type_id":"4","last_reported":1746468716,"current_range_meters":3200,"station_id":"ce4bgvh2rcd13ifvqcs0","pricing_plan_id":"cebpf4jnsgd1na2vs0mg"},{"bike_id":"2319f4ac-21e5-4e53-b749-05af18762993","system_id":"levelo_inurba_marseille","lat":43.27946,"lon":5.41047,"is_reserved":false,"is_disabled":false,"rental_uris":{"android":"levelo://app?vid=2319f4ac-21e5-4e53-b749-05af18762993","ios":"levelo://app?vid=2319f4ac-21e5-4e53-b749-05af18762993"},"vehicle_type_id":"4","last_reported":1746468716,"current_range_meters":3200,"station_id":"ce4bhnp2rcd13ifvqh0g","pricing_plan_id":"cebpf4jnsgd1na2vs0mg"},{"bike_id":"8d4864b2-caa6-48e4-8410-27a260c7b0f6","system_id":"levelo_inurba_marseille","lat":43.30943,"lon":5.39042,"is_reserved":false,"is_disabled":false,"rental_uris":{"android":"levelo://app?vid=8d4864b2-caa6-48e4-8410-27a260c7b0f6","ios":"levelo://app?vid=8d4864b2-caa6-48e4-8410-27a260c7b0f6"},"vehicle_type_id":"4","last_reported":1746468716,"current_range_meters":3200,"station_id":"ce4bgup2rcd13ifvqco0","pricing_plan_id":"cebpf4jnsgd1na2vs0mg"},{"bike_id":"99be9464-4c06-4da3-a3cb-f1ee03e9ffed","system_id":"levelo_inurba_marseille","lat":43.29567,"lon":5.39974,"is_reserved":false,"is_disabled":false,"rental_uris":{"android":"levelo://app?vid=99be9464-4c06-4da3-a3cb-f1ee03e9ffed","ios":"levelo://app?vid=99be9464-4c06-4da3-a3cb-f1ee03e9ffed"},"vehicle_type_id":"4","last_reported":1746468716,"current_range_meters":2800,"station_id":"ce4bh312rcd13ifvqdj0","pricing_plan_id":"cebpf4jnsgd1na2vs0mg"},{"bike_id":"b0618e22-0162-49b7-bb9b-eca27568a86a","system_id":"levelo_inurba_marseille","lat":43.28154,"lon":5.42644,"is_reserved":false,"is_disabled":false,"rental_uris":{"android":"levelo://app?vid=b0618e22-0162-49b7-bb9b-eca27568a86a","ios":"levelo://app?vid=b0618e22-0162-49b7-bb9b-eca27568a86a"},"vehicle_type_id":"4","last_reported":1746468716,"current_range_meters":3200,"station_id":"ce4bhnh2rcd13ifvqgug","pricing_plan_id":"cebpf4jnsgd1na2vs0mg"},{"bike_id":"7fc3e211-a885-4adc-acc2-af60890d4b00","system_id":"levelo_inurba_marseille","lat":43.312504,"lon":5.381276,"is_reserved":false,"is_disabled":false,"rental_uris":{"android":"levelo://app?vid=7fc3e211-a885-4adc-acc2-af60890d4b00","ios":"levelo://app?vid=7fc3e211-a885-4adc-acc2-af60890d4b00"},"vehicle_type_id":"4","last_reported":1746468716,"current_range_meters":3600,"station_id":"ce4bgt92rcd13ifvqcf0","pricing_plan_id":"cebpf4jnsgd1na2vs0mg"},{"bike_id":"bee007fb-70ba-4589-9877-5906f96feee1","system_id":"levelo_inurba_marseille","lat":43.33022,"lon":5.39043,"is_reserved":false,"is_disabled":false,"rental_uris":{"android":"levelo://app?vid=bee007fb-70ba-4589-9877-5906f96feee1","ios":"levelo://app?vid=bee007fb-70ba-4589-9877-5906f96feee1"},"vehicle_type_id":"4","last_reported":1746468716,"current_range_meters":3600,"station_id":"ce4bhr92rcd13ifvqhrg","pricing_plan_id":"cebpf4jnsgd1na2vs0mg"},{"bike_id":"9570b0db-0092-4c86-8f2a-24e2979bc002","system_id":"levelo_inurba_marseille","lat":43.294025,"lon":5.386437,"is_reserved":false,"is_disabled":false,"rental_uris":{"android":"levelo://app?vid=9570b0db-0092-4c86-8f2a-24e2979bc002","ios":"levelo://app?vid=9570b0db-0092-4c86-8f2a-24e2979bc002"},"vehicle_type_id":"4","last_reported":1746468716,"current_range_meters":3600,"station_id":"ce4bh2h2rcd13ifvqdh0","pricing_plan_id":"cebpf4jnsgd1na2vs0mg"},{"bike_id":"65c09dc6-cd62-4351-a9ff-1ada1b22f307","system_id":"levelo_inurba_marseille","lat":43.28401,"lon":5.37512,"is_reserved":false,"is_disabled":false,"rental_uris":{"android":"levelo://app?vid=65c09dc6-cd62-4351-a9ff-1ada1b22f307","ios":"levelo://app?vid=65c09dc6-cd62-4351-a9ff-1ada1b22f307"},"vehicle_type_id":"4","last_reported":1746468716,"current_range_meters":3600,"station_id":"ce4bh412rcd13ifvqds0","pricing_plan_id":"cebpf4jnsgd1na2vs0mg"},{"bike_id":"b8731797-68f2-4b8f-91ee-3e1c755cdaff","system_id":"levelo_inurba_marseille","lat":43.28845,"lon":5.39303,"is_reserved":false,"is_disabled":false,"rental_uris":{"android":"levelo://app?vid=b8731797-68f2-4b8f-91ee-3e1c755cdaff","ios":"levelo://app?vid=b8731797-68f2-4b8f-91ee-3e1c755cdaff"},"vehicle_type_id":"4","last_reported":1746468716,"current_range_meters":3600,"station_id":"ce4bh2p2rcd13ifvqdi0","pricing_plan_id":"cebpf4jnsgd1na2vs0mg"},{"bike_id":"133b8e33-2941-4c92-8a26-8bb7d11b81a0","system_id":"levelo_inurba_marseille","lat":43.28357,"lon":5.38646,"is_reserved":false,"is_disabled":false,"rental_uris":{"android":"levelo://app?vid=133b8e33-2941-4c92-8a26-8bb7d11b81a0","ios":"levelo://app?vid=133b8e33-2941-4c92-8a26-8bb7d11b81a0"},"vehicle_type_id":"4","last_reported":1746468716,"current_range_meters":3600,"station_id":"ce4bh492rcd13ifvqdvg","pricing_plan_id":"cebpf4jnsgd1na2vs0mg"},{"bike_id":"960c41b9-c30c-4cf7-89be-584d875ee18d","system_id":"levelo_inurba_marseille","lat":43.27836,"lon":5.39201,"is_reserved":false,"is_disabled":false,"rental_uris":{"android":"levelo://app?vid=960c41b9-c30c-4cf7-89be-584d875ee18d","ios":"levelo://app?vid=960c41b9-c30c-4cf7-89be-584d875ee18d"},"vehicle_type_id":"4","last_reported":1746468716,"current_range_meters":4000,"station_id":"ce4bhjp2rcd13ifvqga0","pricing_plan_id":"cebpf4jnsgd1na2vs0mg"},{"bike_id":"96a25dfe-6a4f-4c8e-9e46-69a232ce80f0","system_id":"levelo_inurba_marseille","lat":43.27955,"lon":5.38736,"is_reserved":false,"is_disabled":false,"rental_uris":{"android":"levelo://app?vid=96a25dfe-6a4f-4c8e-9e46-69a232ce80f0","ios":"levelo://app?vid=96a25dfe-6a4f-4c8e-9e46-69a232ce80f0"},"vehicle_type_id":"4","last_reported":1746468716,"current_range_meters":4000,"station_id":"ce4bhg12rcd13ifvqf80","pricing_plan_id":"cebpf4jnsgd1na2vs0mg"},{"bike_id":"e080a43d-a8b3-4a70-9ed0-c058c452f99f","system_id":"levelo_inurba_marseille","lat":43.30417,"lon":5.41285,"is_reserved":false,"is_disabled":false,"rental_uris":{"android":"levelo://app?vid=e080a43d-a8b3-4a70-9ed0-c058c452f99f","ios":"levelo://app?vid=e080a43d-a8b3-4a70-9ed0-c058c452f99f"},"vehicle_type_id":"4","last_reported":1746468716,"current_range_meters":4400,"station_id":"ce4bhop2rcd13ifvqh8g","pricing_plan_id":"cebpf4jnsgd1na2vs0mg"},{"bike_id":"6fd409dd-934c-49e9-adab-e6e56e37cbae","system_id":"levelo_inurba_marseille","lat":43.27621,"lon":5.36106,"is_reserved":false,"is_disabled":false,"rental_uris":{"android":"levelo://app?vid=6fd409dd-934c-49e9-adab-e6e56e37cbae","ios":"levelo://app?vid=6fd409dd-934c-49e9-adab-e6e56e37cbae"},"vehicle_type_id":"4","last_reported":1746468716,"current_range_meters":4400,"station_id":"ce4bgj92rcd13ifvqbe0","pricing_plan_id":"cebpf4jnsgd1na2vs0mg"},{"bike_id":"ae64843c-94ef-4d38-9018-ec483b7c6141","system_id":"levelo_inurba_marseille","lat":43.30812,"lon":5.3815,"is_reserved":false,"is_disabled":false,"rental_uris":{"android":"levelo://app?vid=ae64843c-94ef-4d38-9018-ec483b7c6141","ios":"levelo://app?vid=ae64843c-94ef-4d38-9018-ec483b7c6141"},"vehicle_type_id":"4","last_reported":1746468716,"current_range_meters":4400,"station_id":"ce4bgt12rcd13ifvqce0","pricing_plan_id":"cebpf4jnsgd1na2vs0mg"},{"bike_id":"b2ccdc84-94c3-42d1-a780-adcca95f1f06","system_id":"levelo_inurba_marseille","lat":43.2997,"lon":5.3848,"is_reserved":false,"is_disabled":true,"rental_uris":{"android":"levelo://app?vid=b2ccdc84-94c3-42d1-a780-adcca95f1f06","ios":"levelo://app?vid=b2ccdc84-94c3-42d1-a780-adcca95f1f06"},"vehicle_type_id":"4","last_reported":1746468716,"current_range_meters":4400,"station_id":"ce4bgj92rcd13ifvqbd0","pricing_plan_id":"cebpf4jnsgd1na2vs0mg"},{"bike_id":"9064d971-3a4c-4284-ab13-670f9e6ead80","system_id":"levelo_inurba_marseille","lat":43.238737,"lon":5.365152,"is_reserved":false,"is_disabled":false,"rental_uris":{"android":"levelo://app?vid=9064d971-3a4c-4284-ab13-670f9e6ead80","ios":"levelo://app?vid=9064d971-3a4c-4284-ab13-670f9e6ead80"},"vehicle_type_id":"4","last_reported":1746468716,"current_range_meters":4800,"station_id":"ce4bhi12rcd13ifvqfp0","pricing_plan_id":"cebpf4jnsgd1na2vs0mg"},{"bike_id":"7117aeb7-99df-42d6-84ac-a77e8d903453","system_id":"levelo_inurba_marseille","lat":43.311867,"lon":5.386603,"is_reserved":false,"is_disabled":false,"rental_uris":{"android":"levelo://app?vid=7117aeb7-99df-42d6-84ac-a77e8d903453","ios":"levelo://app?vid=7117aeb7-99df-42d6-84ac-a77e8d903453"},"vehicle_type_id":"4","last_reported":1746468716,"current_range_meters":4800,"station_id":"","pricing_plan_id":"cebpf4jnsgd1na2vs0mg"},{"bike_id":"ba3cf347-4c34-43ce-a258-e1c180db58cf","system_id":"levelo_inurba_marseille","lat":43.28102,"lon":5.37839,"is_reserved":false,"is_disabled":false,"rental_uris":{"android":"levelo://app?vid=ba3cf347-4c34-43ce-a258-e1c180db58cf","ios":"levelo://app?vid=ba3cf347-4c34-43ce-a258-e1c180db58cf"},"vehicle_type_id":"4","last_reported":1746468716,"current_range_meters":4800,"station_id":"ce4bha12rcd13ifvqee0","pricing_plan_id":"cebpf4jnsgd1na2vs0mg"},{"bike_id":"75e8ec7b-b97d-4041-ba4c-e6403b45949f","system_id":"levelo_inurba_marseille","lat":43.23965,"lon":5.36632,"is_reserved":false,"is_disabled":false,"rental_uris":{"android":"levelo://app?vid=75e8ec7b-b97d-4041-ba4c-e6403b45949f","ios":"levelo://app?vid=75e8ec7b-b97d-4041-ba4c-e6403b45949f"},"vehicle_type_id":"4","last_reported":1746468716,"current_range_meters":4800,"station_id":"ce4bhi12rcd13ifvqfp0","pricing_plan_id":"cebpf4jnsgd1na2vs0mg"},{"bike_id":"d5a08cd8-80f3-4d73-a767-85b4d1a2a7a1","system_id":"levelo_inurba_marseille","lat":43.31356,"lon":5.38489,"is_reserved":false,"is_disabled":false,"rental_uris":{"android":"levelo://app?vid=d5a08cd8-80f3-4d73-a767-85b4d1a2a7a1","ios":"levelo://app?vid=d5a08cd8-80f3-4d73-a767-85b4d1a2a7a1"},"vehicle_type_id":"4","last_reported":1746468716,"current_range_meters":4800,"station_id":"ce4bgt92rcd13ifvqcf0","pricing_plan_id":"cebpf4jnsgd1na2vs0mg"},{"bike_id":"9560e695-2cb4-4bfb-b95c-1c8364f718f8","system_id":"levelo_inurba_marseille","lat":43.25821,"lon":5.39433,"is_reserved":false,"is_disabled":false,"rental_uris":{"android":"levelo://app?vid=9560e695-2cb4-4bfb-b95c-1c8364f718f8","ios":"levelo://app?vid=9560e695-2cb4-4bfb-b95c-1c8364f718f8"},"vehicle_type_id":"4","last_reported":1746468716,"current_range_meters":4800,"station_id":"ce4bhip2rcd13ifvqft0","pricing_plan_id":"cebpf4jnsgd1na2vs0mg"},{"bike_id":"404f6b56-6c33-4aa5-81c5-b1c9984a7488","system_id":"levelo_inurba_marseille","lat":43.30407,"lon":5.41291,"is_reserved":false,"is_disabled":false,"rental_uris":{"android":"levelo://app?vid=404f6b56-6c33-4aa5-81c5-b1c9984a7488","ios":"levelo://app?vid=404f6b56-6c33-4aa5-81c5-b1c9984a7488"},"vehicle_type_id":"4","last_reported":1746468716,"current_range_meters":5600,"station_id":"ce4bhop2rcd13ifvqh8g","pricing_plan_id":"cebpf4jnsgd1na2vs0mg"},{"bike_id":"48571257-d602-45f4-b230-e599403ddb72","system_id":"levelo_inurba_marseille","lat":43.27417,"lon":5.39411,"is_reserved":false,"is_disabled":false,"rental_uris":{"android":"levelo://app?vid=48571257-d602-45f4-b230-e599403ddb72","ios":"levelo://app?vid=48571257-d602-45f4-b230-e599403ddb72"},"vehicle_type_id":"4","last_reported":1746468716,"current_range_meters":5600,"station_id":"ce4bhdp2rcd13ifvqf20","pricing_plan_id":"cebpf4jnsgd1na2vs0mg"},{"bike_id":"63023295-2bb8-4711-85b0-f96f9f2426de","system_id":"levelo_inurba_marseille","lat":43.308891,"lon":5.396486,"is_reserved":false,"is_disabled":false,"rental_uris":{"android":"levelo://app?vid=63023295-2bb8-4711-85b0-f96f9f2426de","ios":"levelo://app?vid=63023295-2bb8-4711-85b0-f96f9f2426de"},"vehicle_type_id":"4","last_reported":1746468716,"current_range_meters":5600,"station_id":"ce4bh012rcd13ifvqcv0","pricing_plan_id":"cebpf4jnsgd1na2vs0mg"},{"bike_id":"7c596fa2-27b5-4910-a330-101e00592c5c","system_id":"levelo_inurba_marseille","lat":43.31289,"lon":5.38467,"is_reserved":false,"is_disabled":false,"rental_uris":{"android":"levelo://app?vid=7c596fa2-27b5-4910-a330-101e00592c5c","ios":"levelo://app?vid=7c596fa2-27b5-4910-a330-101e00592c5c"},"vehicle_type_id":"4","last_reported":1746468716,"current_range_meters":5600,"station_id":"","pricing_plan_id":"cebpf4jnsgd1na2vs0mg"},{"bike_id":"71e8079a-0ad3-433c-8750-7f561b0ab694","system_id":"levelo_inurba_marseille","lat":43.295207,"lon":5.394044,"is_reserved":false,"is_disabled":false,"rental_uris":{"android":"levelo://app?vid=71e8079a-0ad3-433c-8750-7f561b0ab694","ios":"levelo://app?vid=71e8079a-0ad3-433c-8750-7f561b0ab694"},"vehicle_type_id":"4","last_reported":1746468716,"current_range_meters":5600,"station_id":"ce4bh292rcd13ifvqdf0","pricing_plan_id":"cebpf4jnsgd1na2vs0mg"},{"bike_id":"19cc5d4a-3669-481b-add7-2079b93dcf06","system_id":"levelo_inurba_marseille","lat":43.2794,"lon":5.41035,"is_reserved":false,"is_disabled":false,"rental_uris":{"android":"levelo://app?vid=19cc5d4a-3669-481b-add7-2079b93dcf06","ios":"levelo://app?vid=19cc5d4a-3669-481b-add7-2079b93dcf06"},"vehicle_type_id":"4","last_reported":1746468716,"current_range_meters":6400,"station_id":"ce4bhnp2rcd13ifvqh0g","pricing_plan_id":"cebpf4jnsgd1na2vs0mg"},{"bike_id":"97c6fc84-974f-4d67-8f98-efc26945f433","system_id":"levelo_inurba_marseille","lat":43.31367,"lon":5.38503,"is_reserved":false,"is_disabled":false,"rental_uris":{"android":"levelo://app?vid=97c6fc84-974f-4d67-8f98-efc26945f433","ios":"levelo://app?vid=97c6fc84-974f-4d67-8f98-efc26945f433"},"vehicle_type_id":"4","last_reported":1746468716,"current_range_meters":6000,"station_id":"ce4bgt92rcd13ifvqcf0","pricing_plan_id":"cebpf4jnsgd1na2vs0mg"},{"bike_id":"8f913ac3-0241-41f4-a9f5-46fb364f2b5f","system_id":"levelo_inurba_marseille","lat":43.26216,"lon":5.37433,"is_reserved":false,"is_disabled":false,"rental_uris":{"android":"levelo://app?vid=8f913ac3-0241-41f4-a9f5-46fb364f2b5f","ios":"levelo://app?vid=8f913ac3-0241-41f4-a9f5-46fb364f2b5f"},"vehicle_type_id":"4","last_reported":1746468716,"current_range_meters":6000,"station_id":"ce4bhgp2rcd13ifvqfc0","pricing_plan_id":"cebpf4jnsgd1na2vs0mg"},{"bike_id":"d6c5f92c-e52a-4dcc-bdb2-8d922d87acd4","system_id":"levelo_inurba_marseille","lat":43.31075,"lon":5.3835,"is_reserved":false,"is_disabled":false,"rental_uris":{"android":"levelo://app?vid=d6c5f92c-e52a-4dcc-bdb2-8d922d87acd4","ios":"levelo://app?vid=d6c5f92c-e52a-4dcc-bdb2-8d922d87acd4"},"vehicle_type_id":"4","last_reported":1746468716,"current_range_meters":6000,"station_id":"ce4bgv92rcd13ifvqcr0","pricing_plan_id":"cebpf4jnsgd1na2vs0mg"},{"bike_id":"1bfa9887-8fe6-45e6-b145-63228229ecea","system_id":"levelo_inurba_marseille","lat":43.258017,"lon":5.39431,"is_reserved":false,"is_disabled":false,"rental_uris":{"android":"levelo://app?vid=1bfa9887-8fe6-45e6-b145-63228229ecea","ios":"levelo://app?vid=1bfa9887-8fe6-45e6-b145-63228229ecea"},"vehicle_type_id":"4","last_reported":1746468716,"current_range_meters":6000,"station_id":"ce4bhip2rcd13ifvqft0","pricing_plan_id":"cebpf4jnsgd1na2vs0mg"},{"bike_id":"0da5e898-9252-4787-895c-d01f49642262","system_id":"levelo_inurba_marseille","lat":43.29255,"lon":5.40913,"is_reserved":false,"is_disabled":false,"rental_uris":{"android":"levelo://app?vid=0da5e898-9252-4787-895c-d01f49642262","ios":"levelo://app?vid=0da5e898-9252-4787-895c-d01f49642262"},"vehicle_type_id":"4","last_reported":1746468716,"current_range_meters":6000,"station_id":"ce4bh192rcd13ifvqdc0","pricing_plan_id":"cebpf4jnsgd1na2vs0mg"},{"bike_id":"997c4680-b289-409f-90c6-ae733b7de5c3","system_id":"levelo_inurba_marseille","lat":43.26687,"lon":5.38276,"is_reserved":false,"is_disabled":false,"rental_uris":{"android":"levelo://app?vid=997c4680-b289-409f-90c6-ae733b7de5c3","ios":"levelo://app?vid=997c4680-b289-409f-90c6-ae733b7de5c3"},"vehicle_type_id":"4","last_reported":1746468716,"current_range_meters":5600,"station_id":"ce4bhg92rcd13ifvqf90","pricing_plan_id":"cebpf4jnsgd1na2vs0mg"},{"bike_id":"15a6b90c-4c80-4873-913b-34b430ffecae","system_id":"levelo_inurba_marseille","lat":43.280357,"lon":5.36954,"is_reserved":false,"is_disabled":false,"rental_uris":{"android":"levelo://app?vid=15a6b90c-4c80-4873-913b-34b430ffecae","ios":"levelo://app?vid=15a6b90c-4c80-4873-913b-34b430ffecae"},"vehicle_type_id":"4","last_reported":1746468716,"current_range_meters":6400,"station_id":"ce4bha12rcd13ifvqef0","pricing_plan_id":"cebpf4jnsgd1na2vs0mg"},{"bike_id":"2f51ff5b-9e12-4b6c-9106-9df85a9d5650","system_id":"levelo_inurba_marseille","lat":43.30134,"lon":5.37403,"is_reserved":false,"is_disabled":true,"rental_uris":{"android":"levelo://app?vid=2f51ff5b-9e12-4b6c-9106-9df85a9d5650","ios":"levelo://app?vid=2f51ff5b-9e12-4b6c-9106-9df85a9d5650"},"vehicle_type_id":"4","last_reported":1746468716,"current_range_meters":6400,"station_id":"ce4bgs92rcd13ifvqcc0","pricing_plan_id":"cebpf4jnsgd1na2vs0mg"},{"bike_id":"c8ce680c-b09a-4cf0-8be4-5202ca392a5a","system_id":"levelo_inurba_marseille","lat":43.320932,"lon":5.367291,"is_reserved":false,"is_disabled":false,"rental_uris":{"android":"levelo://app?vid=c8ce680c-b09a-4cf0-8be4-5202ca392a5a","ios":"levelo://app?vid=c8ce680c-b09a-4cf0-8be4-5202ca392a5a"},"vehicle_type_id":"4","last_reported":1746468716,"current_range_meters":6400,"station_id":"ce4bhs12rcd13ifvqhvg","pricing_plan_id":"cebpf4jnsgd1na2vs0mg"},{"bike_id":"29ad1899-be93-42f3-84fd-82b218a91657","system_id":"levelo_inurba_marseille","lat":43.30749,"lon":5.40063,"is_reserved":false,"is_disabled":false,"rental_uris":{"android":"levelo://app?vid=29ad1899-be93-42f3-84fd-82b218a91657","ios":"levelo://app?vid=29ad1899-be93-42f3-84fd-82b218a91657"},"vehicle_type_id":"4","last_reported":1746468716,"current_range_meters":6400,"station_id":"","pricing_plan_id":"cebpf4jnsgd1na2vs0mg"},{"bike_id":"0aaab185-1839-4a36-80a2-f4c1c5199386","system_id":"levelo_inurba_marseille","lat":43.25828,"lon":5.39431,"is_reserved":false,"is_disabled":false,"rental_uris":{"android":"levelo://app?vid=0aaab185-1839-4a36-80a2-f4c1c5199386","ios":"levelo://app?vid=0aaab185-1839-4a36-80a2-f4c1c5199386"},"vehicle_type_id":"4","last_reported":1746468716,"current_range_meters":6400,"station_id":"ce4bhip2rcd13ifvqft0","pricing_plan_id":"cebpf4jnsgd1na2vs0mg"},{"bike_id":"ff2d6c5b-eb5b-46af-b8ad-3dc885f952ff","system_id":"levelo_inurba_marseille","lat":43.312255,"lon":5.368625,"is_reserved":false,"is_disabled":false,"rental_uris":{"android":"levelo://app?vid=ff2d6c5b-eb5b-46af-b8ad-3dc885f952ff","ios":"levelo://app?vid=ff2d6c5b-eb5b-46af-b8ad-3dc885f952ff"},"vehicle_type_id":"4","last_reported":1746468716,"current_range_meters":6400,"station_id":"ce4bgl92rcd13ifvqbq0","pricing_plan_id":"cebpf4jnsgd1na2vs0mg"},{"bike_id":"f0e6d485-d9ae-4cc0-a438-3fa86a31cf9a","system_id":"levelo_inurba_marseille","lat":43.28343,"lon":5.38106,"is_reserved":false,"is_disabled":false,"rental_uris":{"android":"levelo://app?vid=f0e6d485-d9ae-4cc0-a438-3fa86a31cf9a","ios":"levelo://app?vid=f0e6d485-d9ae-4cc0-a438-3fa86a31cf9a"},"vehicle_type_id":"4","last_reported":1746468716,"current_range_meters":6400,"station_id":"ce4bh412rcd13ifvqdr0","pricing_plan_id":"cebpf4jnsgd1na2vs0mg"},{"bike_id":"81df4a71-e4fa-48d7-ae22-6276288f70f4","system_id":"levelo_inurba_marseille","lat":43.308868,"lon":5.396562,"is_reserved":false,"is_disabled":false,"rental_uris":{"android":"levelo://app?vid=81df4a71-e4fa-48d7-ae22-6276288f70f4","ios":"levelo://app?vid=81df4a71-e4fa-48d7-ae22-6276288f70f4"},"vehicle_type_id":"4","last_reported":1746468716,"current_range_meters":6400,"station_id":"ce4bh012rcd13ifvqcv0","pricing_plan_id":"cebpf4jnsgd1na2vs0mg"},{"bike_id":"f4ca87a9-0ee4-43d4-a4ef-d1c59641d1dd","system_id":"levelo_inurba_marseille","lat":43.2572,"lon":5.41114,"is_reserved":false,"is_disabled":false,"rental_uris":{"android":"levelo://app?vid=f4ca87a9-0ee4-43d4-a4ef-d1c59641d1dd","ios":"levelo://app?vid=f4ca87a9-0ee4-43d4-a4ef-d1c59641d1dd"},"vehicle_type_id":"4","last_reported":1746468716,"current_range_meters":7200,"station_id":"ce4bhkp2rcd13ifvqgd0","pricing_plan_id":"cebpf4jnsgd1na2vs0mg"},{"bike_id":"66b646b3-6352-44bb-9bfb-21570512e3e5","system_id":"levelo_inurba_marseille","lat":43.2811,"lon":5.40394,"is_reserved":false,"is_disabled":false,"rental_uris":{"android":"levelo://app?vid=66b646b3-6352-44bb-9bfb-21570512e3e5","ios":"levelo://app?vid=66b646b3-6352-44bb-9bfb-21570512e3e5"},"vehicle_type_id":"4","last_reported":1746468716,"current_range_meters":6800,"station_id":"","pricing_plan_id":"cebpf4jnsgd1na2vs0mg"},{"bike_id":"43d1142c-ff09-44fc-a2d6-c02855edaac2","system_id":"levelo_inurba_marseille","lat":43.30415,"lon":5.41284,"is_reserved":false,"is_disabled":false,"rental_uris":{"android":"levelo://app?vid=43d1142c-ff09-44fc-a2d6-c02855edaac2","ios":"levelo://app?vid=43d1142c-ff09-44fc-a2d6-c02855edaac2"},"vehicle_type_id":"4","last_reported":1746468716,"current_range_meters":6800,"station_id":"ce4bhop2rcd13ifvqh8g","pricing_plan_id":"cebpf4jnsgd1na2vs0mg"},{"bike_id":"83a47503-dc53-468c-9421-a7e565de23fa","system_id":"levelo_inurba_marseille","lat":43.31376,"lon":5.38502,"is_reserved":false,"is_disabled":false,"rental_uris":{"android":"levelo://app?vid=83a47503-dc53-468c-9421-a7e565de23fa","ios":"levelo://app?vid=83a47503-dc53-468c-9421-a7e565de23fa"},"vehicle_type_id":"4","last_reported":1746468716,"current_range_meters":6800,"station_id":"ce4bgt92rcd13ifvqcf0","pricing_plan_id":"cebpf4jnsgd1na2vs0mg"},{"bike_id":"52ea25dd-6a04-4ff0-9cde-37ffb4d6b85f","system_id":"levelo_inurba_marseille","lat":43.30214,"lon":5.40042,"is_reserved":false,"is_disabled":false,"rental_uris":{"android":"levelo://app?vid=52ea25dd-6a04-4ff0-9cde-37ffb4d6b85f","ios":"levelo://app?vid=52ea25dd-6a04-4ff0-9cde-37ffb4d6b85f"},"vehicle_type_id":"4","last_reported":1746468716,"current_range_meters":6800,"station_id":"","pricing_plan_id":"cebpf4jnsgd1na2vs0mg"},{"bike_id":"26dd9f4d-ce9e-4365-b279-fc9c56040cc4","system_id":"levelo_inurba_marseille","lat":43.32365,"lon":5.36741,"is_reserved":false,"is_disabled":false,"rental_uris":{"android":"levelo://app?vid=26dd9f4d-ce9e-4365-b279-fc9c56040cc4","ios":"levelo://app?vid=26dd9f4d-ce9e-4365-b279-fc9c56040cc4"},"vehicle_type_id":"4","last_reported":1746468716,"current_range_meters":6800,"station_id":"ce4bhsh2rcd13ifvqi2g","pricing_plan_id":"cebpf4jnsgd1na2vs0mg"},{"bike_id":"7ade92bd-408e-4427-962d-c2839a4a4592","system_id":"levelo_inurba_marseille","lat":43.289352,"lon":5.366446,"is_reserved":false,"is_disabled":false,"rental_uris":{"android":"levelo://app?vid=7ade92bd-408e-4427-962d-c2839a4a4592","ios":"levelo://app?vid=7ade92bd-408e-4427-962d-c2839a4a4592"},"vehicle_type_id":"4","last_reported":1746468716,"current_range_meters":6800,"station_id":"ce4bhap2rcd13ifvqek0","pricing_plan_id":"cebpf4jnsgd1na2vs0mg"},{"bike_id":"166de21a-1eaa-4ce0-9264-4ae8fc142ae9","system_id":"levelo_inurba_marseille","lat":43.26558,"lon":5.37278,"is_reserved":false,"is_disabled":false,"rental_uris":{"android":"levelo://app?vid=166de21a-1eaa-4ce0-9264-4ae8fc142ae9","ios":"levelo://app?vid=166de21a-1eaa-4ce0-9264-4ae8fc142ae9"},"vehicle_type_id":"4","last_reported":1746468716,"current_range_meters":6800,"station_id":"ce4bhg12rcd13ifvqf70","pricing_plan_id":"cebpf4jnsgd1na2vs0mg"},{"bike_id":"73df1579-b551-490c-ba44-df10e53690d9","system_id":"levelo_inurba_marseille","lat":43.28838,"lon":5.35851,"is_reserved":false,"is_disabled":false,"rental_uris":{"android":"levelo://app?vid=73df1579-b551-490c-ba44-df10e53690d9","ios":"levelo://app?vid=73df1579-b551-490c-ba44-df10e53690d9"},"vehicle_type_id":"4","last_reported":1746468716,"current_range_meters":7200,"station_id":"ce4bhb12rcd13ifvqem0","pricing_plan_id":"cebpf4jnsgd1na2vs0mg"},{"bike_id":"53893666-2cad-470e-b0c7-ff8d70e6c4c5","system_id":"levelo_inurba_marseille","lat":43.24787,"lon":5.37446,"is_reserved":false,"is_disabled":false,"rental_uris":{"android":"levelo://app?vid=53893666-2cad-470e-b0c7-ff8d70e6c4c5","ios":"levelo://app?vid=53893666-2cad-470e-b0c7-ff8d70e6c4c5"},"vehicle_type_id":"4","last_reported":1746468716,"current_range_meters":7200,"station_id":"ce4bhgh2rcd13ifvqfb0","pricing_plan_id":"cebpf4jnsgd1na2vs0mg"},{"bike_id":"c9f3ac56-b4b0-44c4-92dd-4e3ce171d71a","system_id":"levelo_inurba_marseille","lat":43.33019,"lon":5.41933,"is_reserved":false,"is_disabled":false,"rental_uris":{"android":"levelo://app?vid=c9f3ac56-b4b0-44c4-92dd-4e3ce171d71a","ios":"levelo://app?vid=c9f3ac56-b4b0-44c4-92dd-4e3ce171d71a"},"vehicle_type_id":"4","last_reported":1746468716,"current_range_meters":7200,"station_id":"","pricing_plan_id":"cebpf4jnsgd1na2vs0mg"},{"bike_id":"72ce879e-d715-493f-958a-46f9c7d119d9","system_id":"levelo_inurba_marseille","lat":43.33119,"lon":5.382415,"is_reserved":false,"is_disabled":false,"rental_uris":{"android":"levelo://app?vid=72ce879e-d715-493f-958a-46f9c7d119d9","ios":"levelo://app?vid=72ce879e-d715-493f-958a-46f9c7d119d9"},"vehicle_type_id":"4","last_reported":1746468716,"current_range_meters":7200,"station_id":"","pricing_plan_id":"cebpf4jnsgd1na2vs0mg"},{"bike_id":"c7569f25-9bc2-4a7b-94d5-25bad92fcfaa","system_id":"levelo_inurba_marseille","lat":43.279209,"lon":5.382679,"is_reserved":false,"is_disabled":false,"rental_uris":{"android":"levelo://app?vid=c7569f25-9bc2-4a7b-94d5-25bad92fcfaa","ios":"levelo://app?vid=c7569f25-9bc2-4a7b-94d5-25bad92fcfaa"},"vehicle_type_id":"4","last_reported":1746468716,"current_range_meters":7200,"station_id":"","pricing_plan_id":"cebpf4jnsgd1na2vs0mg"},{"bike_id":"78a790c2-3f6f-4aa4-88f1-6ea9b9866c8c","system_id":"levelo_inurba_marseille","lat":43.29195,"lon":5.39324,"is_reserved":false,"is_disabled":false,"rental_uris":{"android":"levelo://app?vid=78a790c2-3f6f-4aa4-88f1-6ea9b9866c8c","ios":"levelo://app?vid=78a790c2-3f6f-4aa4-88f1-6ea9b9866c8c"},"vehicle_type_id":"4","last_reported":1746468716,"current_range_meters":6800,"station_id":"ce4bh192rcd13ifvqdd0","pricing_plan_id":"cebpf4jnsgd1na2vs0mg"},{"bike_id":"3f03faa1-aab4-4cbb-9b60-c64d1d19096f","system_id":"levelo_inurba_marseille","lat":43.27908,"lon":5.3801,"is_reserved":false,"is_disabled":false,"rental_uris":{"android":"levelo://app?vid=3f03faa1-aab4-4cbb-9b60-c64d1d19096f","ios":"levelo://app?vid=3f03faa1-aab4-4cbb-9b60-c64d1d19096f"},"vehicle_type_id":"4","last_reported":1746468716,"current_range_meters":7200,"station_id":"ce4bhf92rcd13ifvqf50","pricing_plan_id":"cebpf4jnsgd1na2vs0mg"},{"bike_id":"2c488c66-db1f-4eb1-b8a8-65da619378ac","system_id":"levelo_inurba_marseille","lat":43.29898,"lon":5.38109,"is_reserved":false,"is_disabled":true,"rental_uris":{"android":"levelo://app?vid=2c488c66-db1f-4eb1-b8a8-65da619378ac","ios":"levelo://app?vid=2c488c66-db1f-4eb1-b8a8-65da619378ac"},"vehicle_type_id":"4","last_reported":1746468716,"current_range_meters":7200,"station_id":"ce4bgj12rcd13ifvqbc0","pricing_plan_id":"cebpf4jnsgd1na2vs0mg"},{"bike_id":"42aa9ea8-a4f7-495c-93e7-b66ee48e97d6","system_id":"levelo_inurba_marseille","lat":43.24813,"lon":5.374613,"is_reserved":false,"is_disabled":false,"rental_uris":{"android":"levelo://app?vid=42aa9ea8-a4f7-495c-93e7-b66ee48e97d6","ios":"levelo://app?vid=42aa9ea8-a4f7-495c-93e7-b66ee48e97d6"},"vehicle_type_id":"4","last_reported":1746468716,"current_range_meters":7200,"station_id":"ce4bhgh2rcd13ifvqfb0","pricing_plan_id":"cebpf4jnsgd1na2vs0mg"},{"bike_id":"efbe61bb-593f-4344-b327-968918c89c57","system_id":"levelo_inurba_marseille","lat":43.28431,"lon":5.39213,"is_reserved":false,"is_disabled":false,"rental_uris":{"android":"levelo://app?vid=efbe61bb-593f-4344-b327-968918c89c57","ios":"levelo://app?vid=efbe61bb-593f-4344-b327-968918c89c57"},"vehicle_type_id":"4","last_reported":1746468716,"current_range_meters":8000,"station_id":"ce4bhoh2rcd13ifvqh5g","pricing_plan_id":"cebpf4jnsgd1na2vs0mg"},{"bike_id":"f4058794-639c-4973-ab5d-8009a25ee731","system_id":"levelo_inurba_marseille","lat":43.23968,"lon":5.36619,"is_reserved":false,"is_disabled":false,"rental_uris":{"android":"levelo://app?vid=f4058794-639c-4973-ab5d-8009a25ee731","ios":"levelo://app?vid=f4058794-639c-4973-ab5d-8009a25ee731"},"vehicle_type_id":"4","last_reported":1746468716,"current_range_meters":8000,"station_id":"ce4bhi12rcd13ifvqfp0","pricing_plan_id":"cebpf4jnsgd1na2vs0mg"},{"bike_id":"1ca65341-6a39-4af0-b84d-782a4841e080","system_id":"levelo_inurba_marseille","lat":43.28467,"lon":5.38413,"is_reserved":false,"is_disabled":false,"rental_uris":{"android":"levelo://app?vid=1ca65341-6a39-4af0-b84d-782a4841e080","ios":"levelo://app?vid=1ca65341-6a39-4af0-b84d-782a4841e080"},"vehicle_type_id":"4","last_reported":1746468716,"current_range_meters":7200,"station_id":"ce4bh512rcd13ifvqe3g","pricing_plan_id":"cebpf4jnsgd1na2vs0mg"},{"bike_id":"0ef2db6d-b905-4967-af12-894c991d5ae2","system_id":"levelo_inurba_marseille","lat":43.31319,"lon":5.39704,"is_reserved":false,"is_disabled":false,"rental_uris":{"android":"levelo://app?vid=0ef2db6d-b905-4967-af12-894c991d5ae2","ios":"levelo://app?vid=0ef2db6d-b905-4967-af12-894c991d5ae2"},"vehicle_type_id":"4","last_reported":1746468716,"current_range_meters":8000,"station_id":"ce4bgvp2rcd13ifvqcu0","pricing_plan_id":"cebpf4jnsgd1na2vs0mg"},{"bike_id":"10d563a4-424a-4a44-88bc-065a04b5247a","system_id":"levelo_inurba_marseille","lat":43.2174,"lon":5.34608,"is_reserved":false,"is_disabled":true,"rental_uris":{"android":"levelo://app?vid=10d563a4-424a-4a44-88bc-065a04b5247a","ios":"levelo://app?vid=10d563a4-424a-4a44-88bc-065a04b5247a"},"vehicle_type_id":"4","last_reported":1746468716,"current_range_meters":8000,"station_id":"","pricing_plan_id":"cebpf4jnsgd1na2vs0mg"},{"bike_id":"f50255d7-e268-486c-9b1a-cbfbc53879a8","system_id":"levelo_inurba_marseille","lat":43.28564,"lon":5.39497,"is_reserved":false,"is_disabled":false,"rental_uris":{"android":"levelo://app?vid=f50255d7-e268-486c-9b1a-cbfbc53879a8","ios":"levelo://app?vid=f50255d7-e268-486c-9b1a-cbfbc53879a8"},"vehicle_type_id":"4","last_reported":1746468716,"current_range_meters":8000,"station_id":"ce4bh292rcd13ifvqdg0","pricing_plan_id":"cebpf4jnsgd1na2vs0mg"},{"bike_id":"3fe14760-50d4-43a8-b058-218490851f16","system_id":"levelo_inurba_marseille","lat":43.28839,"lon":5.35849,"is_reserved":false,"is_disabled":false,"rental_uris":{"android":"levelo://app?vid=3fe14760-50d4-43a8-b058-218490851f16","ios":"levelo://app?vid=3fe14760-50d4-43a8-b058-218490851f16"},"vehicle_type_id":"4","last_reported":1746468716,"current_range_meters":8400,"station_id":"ce4bhb12rcd13ifvqem0","pricing_plan_id":"cebpf4jnsgd1na2vs0mg"},{"bike_id":"3ef3f82b-f44c-4d3c-a690-2602cf85f9de","system_id":"levelo_inurba_marseille","lat":43.28462,"lon":5.3588,"is_reserved":false,"is_disabled":false,"rental_uris":{"android":"levelo://app?vid=3ef3f82b-f44c-4d3c-a690-2602cf85f9de","ios":"levelo://app?vid=3ef3f82b-f44c-4d3c-a690-2602cf85f9de"},"vehicle_type_id":"4","last_reported":1746468716,"current_range_meters":8400,"station_id":"ce4bhah2rcd13ifvqei0","pricing_plan_id":"cebpf4jnsgd1na2vs0mg"},{"bike_id":"5c7249a3-596f-4101-8dbd-1087a1f3b438","system_id":"levelo_inurba_marseille","lat":43.231897,"lon":5.355579,"is_reserved":false,"is_disabled":false,"rental_uris":{"android":"levelo://app?vid=5c7249a3-596f-4101-8dbd-1087a1f3b438","ios":"levelo://app?vid=5c7249a3-596f-4101-8dbd-1087a1f3b438"},"vehicle_type_id":"4","last_reported":1746468716,"current_range_meters":8800,"station_id":"ce4bhu92rcd13ifvqi70","pricing_plan_id":"cebpf4jnsgd1na2vs0mg"},{"bike_id":"82ab0e1e-9e22-4b08-9286-ebd5681cc3ae","system_id":"levelo_inurba_marseille","lat":43.28472,"lon":5.38424,"is_reserved":false,"is_disabled":false,"rental_uris":{"android":"levelo://app?vid=82ab0e1e-9e22-4b08-9286-ebd5681cc3ae","ios":"levelo://app?vid=82ab0e1e-9e22-4b08-9286-ebd5681cc3ae"},"vehicle_type_id":"4","last_reported":1746468716,"current_range_meters":8800,"station_id":"ce4bh512rcd13ifvqe3g","pricing_plan_id":"cebpf4jnsgd1na2vs0mg"},{"bike_id":"d08e881c-4ac2-413a-af9c-5ff0285ab7f6","system_id":"levelo_inurba_marseille","lat":43.279422,"lon":5.410434,"is_reserved":false,"is_disabled":false,"rental_uris":{"android":"levelo://app?vid=d08e881c-4ac2-413a-af9c-5ff0285ab7f6","ios":"levelo://app?vid=d08e881c-4ac2-413a-af9c-5ff0285ab7f6"},"vehicle_type_id":"4","last_reported":1746468716,"current_range_meters":8800,"station_id":"ce4bhnp2rcd13ifvqh0g","pricing_plan_id":"cebpf4jnsgd1na2vs0mg"},{"bike_id":"1cfa4349-2605-4904-b6ff-a5cd9e08fa01","system_id":"levelo_inurba_marseille","lat":43.29106,"lon":5.38147,"is_reserved":false,"is_disabled":true,"rental_uris":{"android":"levelo://app?vid=1cfa4349-2605-4904-b6ff-a5cd9e08fa01","ios":"levelo://app?vid=1cfa4349-2605-4904-b6ff-a5cd9e08fa01"},"vehicle_type_id":"4","last_reported":1746468716,"current_range_meters":8800,"station_id":"ce4bh512rcd13ifvqe2g","pricing_plan_id":"cebpf4jnsgd1na2vs0mg"},{"bike_id":"24ad7713-4fd3-4a86-84c7-79e511b83c0f","system_id":"levelo_inurba_marseille","lat":43.3031,"lon":5.36882,"is_reserved":false,"is_disabled":false,"rental_uris":{"android":"levelo://app?vid=24ad7713-4fd3-4a86-84c7-79e511b83c0f","ios":"levelo://app?vid=24ad7713-4fd3-4a86-84c7-79e511b83c0f"},"vehicle_type_id":"4","last_reported":1746468716,"current_range_meters":8800,"station_id":"ce4bgqh2rcd13ifvqc5g","pricing_plan_id":"cebpf4jnsgd1na2vs0mg"},{"bike_id":"6fb08950-ad37-4af7-a8db-859c537ae643","system_id":"levelo_inurba_marseille","lat":43.24179,"lon":5.39734,"is_reserved":false,"is_disabled":false,"rental_uris":{"android":"levelo://app?vid=6fb08950-ad37-4af7-a8db-859c537ae643","ios":"levelo://app?vid=6fb08950-ad37-4af7-a8db-859c537ae643"},"vehicle_type_id":"4","last_reported":1746468716,"current_range_meters":8800,"station_id":"ce4bhn12rcd13ifvqgpg","pricing_plan_id":"cebpf4jnsgd1na2vs0mg"},{"bike_id":"27927e1e-5c20-45bd-baec-36eae91cc014","system_id":"levelo_inurba_marseille","lat":43.289441,"lon":5.363906,"is_reserved":false,"is_disabled":false,"rental_uris":{"android":"levelo://app?vid=27927e1e-5c20-45bd-baec-36eae91cc014","ios":"levelo://app?vid=27927e1e-5c20-45bd-baec-36eae91cc014"},"vehicle_type_id":"4","last_reported":1746468716,"current_range_meters":8800,"station_id":"ce4bhc92rcd13ifvqetg","pricing_plan_id":"cebpf4jnsgd1na2vs0mg"},{"bike_id":"c304d7aa-7266-4966-94f2-a7fb8b2b3508","system_id":"levelo_inurba_marseille","lat":43.29003,"lon":5.35614,"is_reserved":false,"is_disabled":false,"rental_uris":{"android":"levelo://app?vid=c304d7aa-7266-4966-94f2-a7fb8b2b3508","ios":"levelo://app?vid=c304d7aa-7266-4966-94f2-a7fb8b2b3508"},"vehicle_type_id":"4","last_reported":1746468716,"current_range_meters":8800,"station_id":"ce4bhb92rcd13ifvqen0","pricing_plan_id":"cebpf4jnsgd1na2vs0mg"},{"bike_id":"f9c5064d-a35d-4058-8f34-62f0bcdae474","system_id":"levelo_inurba_marseille","lat":43.29984,"lon":5.38493,"is_reserved":false,"is_disabled":false,"rental_uris":{"android":"levelo://app?vid=f9c5064d-a35d-4058-8f34-62f0bcdae474","ios":"levelo://app?vid=f9c5064d-a35d-4058-8f34-62f0bcdae474"},"vehicle_type_id":"4","last_reported":1746468716,"current_range_meters":9200,"station_id":"ce4bgj92rcd13ifvqbd0","pricing_plan_id":"cebpf4jnsgd1na2vs0mg"},{"bike_id":"a3a17c24-7403-4075-bfd3-58bc4cd1ab2b","system_id":"levelo_inurba_marseille","lat":43.26966,"lon":5.38615,"is_reserved":false,"is_disabled":false,"rental_uris":{"android":"levelo://app?vid=a3a17c24-7403-4075-bfd3-58bc4cd1ab2b","ios":"levelo://app?vid=a3a17c24-7403-4075-bfd3-58bc4cd1ab2b"},"vehicle_type_id":"4","last_reported":1746468716,"current_range_meters":9200,"station_id":"ce4bhh92rcd13ifvqfh0","pricing_plan_id":"cebpf4jnsgd1na2vs0mg"},{"bike_id":"f131957c-d6a1-4e12-819e-4a478b071dc3","system_id":"levelo_inurba_marseille","lat":43.29002,"lon":5.35609,"is_reserved":false,"is_disabled":false,"rental_uris":{"android":"levelo://app?vid=f131957c-d6a1-4e12-819e-4a478b071dc3","ios":"levelo://app?vid=f131957c-d6a1-4e12-819e-4a478b071dc3"},"vehicle_type_id":"4","last_reported":1746468716,"current_range_meters":8800,"station_id":"ce4bhb92rcd13ifvqen0","pricing_plan_id":"cebpf4jnsgd1na2vs0mg"},{"bike_id":"b73c5f22-57c3-42fb-a428-749049909d64","system_id":"levelo_inurba_marseille","lat":43.27953,"lon":5.41038,"is_reserved":false,"is_disabled":false,"rental_uris":{"android":"levelo://app?vid=b73c5f22-57c3-42fb-a428-749049909d64","ios":"levelo://app?vid=b73c5f22-57c3-42fb-a428-749049909d64"},"vehicle_type_id":"4","last_reported":1746468716,"current_range_meters":9200,"station_id":"ce4bhnp2rcd13ifvqh0g","pricing_plan_id":"cebpf4jnsgd1na2vs0mg"},{"bike_id":"71ba9074-483d-4762-aa8c-1fef44a5db20","system_id":"levelo_inurba_marseille","lat":43.24803,"lon":5.37453,"is_reserved":false,"is_disabled":false,"rental_uris":{"android":"levelo://app?vid=71ba9074-483d-4762-aa8c-1fef44a5db20","ios":"levelo://app?vid=71ba9074-483d-4762-aa8c-1fef44a5db20"},"vehicle_type_id":"4","last_reported":1746468716,"current_range_meters":9200,"station_id":"ce4bhgh2rcd13ifvqfb0","pricing_plan_id":"cebpf4jnsgd1na2vs0mg"},{"bike_id":"2306010e-85bf-4d9b-a6bc-107f35580834","system_id":"levelo_inurba_marseille","lat":43.258273,"lon":5.39431,"is_reserved":false,"is_disabled":false,"rental_uris":{"android":"levelo://app?vid=2306010e-85bf-4d9b-a6bc-107f35580834","ios":"levelo://app?vid=2306010e-85bf-4d9b-a6bc-107f35580834"},"vehicle_type_id":"4","last_reported":1746468716,"current_range_meters":9200,"station_id":"ce4bhip2rcd13ifvqft0","pricing_plan_id":"cebpf4jnsgd1na2vs0mg"},{"bike_id":"a105130d-2c0b-47d7-ad9e-26b35e0360b8","system_id":"levelo_inurba_marseille","lat":43.23954,"lon":5.36629,"is_reserved":false,"is_disabled":false,"rental_uris":{"android":"levelo://app?vid=a105130d-2c0b-47d7-ad9e-26b35e0360b8","ios":"levelo://app?vid=a105130d-2c0b-47d7-ad9e-26b35e0360b8"},"vehicle_type_id":"4","last_reported":1746468716,"current_range_meters":9600,"station_id":"ce4bhi12rcd13ifvqfp0","pricing_plan_id":"cebpf4jnsgd1na2vs0mg"},{"bike_id":"bda5329c-0ca8-4429-8276-953c6ccd9961","system_id":"levelo_inurba_marseille","lat":43.279978,"lon":5.416622,"is_reserved":false,"is_disabled":false,"rental_uris":{"android":"levelo://app?vid=bda5329c-0ca8-4429-8276-953c6ccd9961","ios":"levelo://app?vid=bda5329c-0ca8-4429-8276-953c6ccd9961"},"vehicle_type_id":"4","last_reported":1746468716,"current_range_meters":9600,"station_id":"ce4bho12rcd13ifvqh1g","pricing_plan_id":"cebpf4jnsgd1na2vs0mg"},{"bike_id":"a716294c-4088-49e6-8788-1d16d6a1b364","system_id":"levelo_inurba_marseille","lat":43.25725,"lon":5.41116,"is_reserved":false,"is_disabled":false,"rental_uris":{"android":"levelo://app?vid=a716294c-4088-49e6-8788-1d16d6a1b364","ios":"levelo://app?vid=a716294c-4088-49e6-8788-1d16d6a1b364"},"vehicle_type_id":"4","last_reported":1746468716,"current_range_meters":9200,"station_id":"ce4bhkp2rcd13ifvqgd0","pricing_plan_id":"cebpf4jnsgd1na2vs0mg"},{"bike_id":"50e5bc6f-83da-44cf-9206-a46ba71944d5","system_id":"levelo_inurba_marseille","lat":43.29263,"lon":5.40903,"is_reserved":false,"is_disabled":false,"rental_uris":{"android":"levelo://app?vid=50e5bc6f-83da-44cf-9206-a46ba71944d5","ios":"levelo://app?vid=50e5bc6f-83da-44cf-9206-a46ba71944d5"},"vehicle_type_id":"4","last_reported":1746468716,"current_range_meters":9600,"station_id":"ce4bh192rcd13ifvqdc0","pricing_plan_id":"cebpf4jnsgd1na2vs0mg"},{"bike_id":"482344f1-460c-48ea-83dd-01b9a385e5cf","system_id":"levelo_inurba_marseille","lat":43.30671,"lon":5.36859,"is_reserved":false,"is_disabled":false,"rental_uris":{"android":"levelo://app?vid=482344f1-460c-48ea-83dd-01b9a385e5cf","ios":"levelo://app?vid=482344f1-460c-48ea-83dd-01b9a385e5cf"},"vehicle_type_id":"4","last_reported":1746468716,"current_range_meters":9600,"station_id":"","pricing_plan_id":"cebpf4jnsgd1na2vs0mg"},{"bike_id":"fae68246-fd4c-46e4-9e15-1aa7dc590465","system_id":"levelo_inurba_marseille","lat":43.27843,"lon":5.392,"is_reserved":false,"is_disabled":false,"rental_uris":{"android":"levelo://app?vid=fae68246-fd4c-46e4-9e15-1aa7dc590465","ios":"levelo://app?vid=fae68246-fd4c-46e4-9e15-1aa7dc590465"},"vehicle_type_id":"4","last_reported":1746468716,"current_range_meters":9600,"station_id":"ce4bhjp2rcd13ifvqga0","pricing_plan_id":"cebpf4jnsgd1na2vs0mg"},{"bike_id":"4191b636-d2e0-4742-a5c7-c68898f50195","system_id":"levelo_inurba_marseille","lat":43.28105,"lon":5.3783,"is_reserved":false,"is_disabled":false,"rental_uris":{"android":"levelo://app?vid=4191b636-d2e0-4742-a5c7-c68898f50195","ios":"levelo://app?vid=4191b636-d2e0-4742-a5c7-c68898f50195"},"vehicle_type_id":"4","last_reported":1746468716,"current_range_meters":9600,"station_id":"ce4bha12rcd13ifvqee0","pricing_plan_id":"cebpf4jnsgd1na2vs0mg"},{"bike_id":"7558cf6c-bd95-4494-a701-ebdbc98c93de","system_id":"levelo_inurba_marseille","lat":43.27831,"lon":5.39207,"is_reserved":false,"is_disabled":false,"rental_uris":{"android":"levelo://app?vid=7558cf6c-bd95-4494-a701-ebdbc98c93de","ios":"levelo://app?vid=7558cf6c-bd95-4494-a701-ebdbc98c93de"},"vehicle_type_id":"4","last_reported":1746468716,"current_range_meters":9200,"station_id":"ce4bhjp2rcd13ifvqga0","pricing_plan_id":"cebpf4jnsgd1na2vs0mg"},{"bike_id":"58b10c05-4f26-42a8-867b-b313cf96d889","system_id":"levelo_inurba_marseille","lat":43.31353,"lon":5.38502,"is_reserved":false,"is_disabled":false,"rental_uris":{"android":"levelo://app?vid=58b10c05-4f26-42a8-867b-b313cf96d889","ios":"levelo://app?vid=58b10c05-4f26-42a8-867b-b313cf96d889"},"vehicle_type_id":"4","last_reported":1746468716,"current_range_meters":9600,"station_id":"ce4bgt92rcd13ifvqcf0","pricing_plan_id":"cebpf4jnsgd1na2vs0mg"},{"bike_id":"04b4674b-4434-40e5-9e75-4a7229750edd","system_id":"levelo_inurba_marseille","lat":43.27943,"lon":5.41018,"is_reserved":false,"is_disabled":false,"rental_uris":{"android":"levelo://app?vid=04b4674b-4434-40e5-9e75-4a7229750edd","ios":"levelo://app?vid=04b4674b-4434-40e5-9e75-4a7229750edd"},"vehicle_type_id":"4","last_reported":1746468716,"current_range_meters":10000,"station_id":"ce4bhnp2rcd13ifvqh0g","pricing_plan_id":"cebpf4jnsgd1na2vs0mg"},{"bike_id":"90728acd-507e-4586-8514-7150be18c1a3","system_id":"levelo_inurba_marseille","lat":43.31999,"lon":5.38154,"is_reserved":false,"is_disabled":true,"rental_uris":{"android":"levelo://app?vid=90728acd-507e-4586-8514-7150be18c1a3","ios":"levelo://app?vid=90728acd-507e-4586-8514-7150be18c1a3"},"vehicle_type_id":"4","last_reported":1746468716,"current_range_meters":10000,"station_id":"ce4bhr12rcd13ifvqhpg","pricing_plan_id":"cebpf4jnsgd1na2vs0mg"},{"bike_id":"49025aa8-be22-4c5b-9828-9316f76aa0d7","system_id":"levelo_inurba_marseille","lat":43.28661,"lon":5.36353,"is_reserved":false,"is_disabled":false,"rental_uris":{"android":"levelo://app?vid=49025aa8-be22-4c5b-9828-9316f76aa0d7","ios":"levelo://app?vid=49025aa8-be22-4c5b-9828-9316f76aa0d7"},"vehicle_type_id":"4","last_reported":1746468716,"current_range_meters":10000,"station_id":"ce4bhah2rcd13ifvqej0","pricing_plan_id":"cebpf4jnsgd1na2vs0mg"},{"bike_id":"11c25ba9-4478-42fa-8076-e8dee04aef55","system_id":"levelo_inurba_marseille","lat":43.28365,"lon":5.38638,"is_reserved":false,"is_disabled":false,"rental_uris":{"android":"levelo://app?vid=11c25ba9-4478-42fa-8076-e8dee04aef55","ios":"levelo://app?vid=11c25ba9-4478-42fa-8076-e8dee04aef55"},"vehicle_type_id":"4","last_reported":1746468716,"current_range_meters":9600,"station_id":"ce4bh492rcd13ifvqdvg","pricing_plan_id":"cebpf4jnsgd1na2vs0mg"},{"bike_id":"4bdbfa2a-ffc0-4860-819c-6326869a5a0f","system_id":"levelo_inurba_marseille","lat":43.28722,"lon":5.36089,"is_reserved":false,"is_disabled":false,"rental_uris":{"android":"levelo://app?vid=4bdbfa2a-ffc0-4860-819c-6326869a5a0f","ios":"levelo://app?vid=4bdbfa2a-ffc0-4860-819c-6326869a5a0f"},"vehicle_type_id":"4","last_reported":1746468716,"current_range_meters":10000,"station_id":"cki0cbj6b192h4jlfktg","pricing_plan_id":"cebpf4jnsgd1na2vs0mg"},{"bike_id":"902a616a-fcb6-4040-ac49-5f2be08d2436","system_id":"levelo_inurba_marseille","lat":43.29225,"lon":5.36062,"is_reserved":false,"is_disabled":false,"rental_uris":{"android":"levelo://app?vid=902a616a-fcb6-4040-ac49-5f2be08d2436","ios":"levelo://app?vid=902a616a-fcb6-4040-ac49-5f2be08d2436"},"vehicle_type_id":"4","last_reported":1746468716,"current_range_meters":10000,"station_id":"ce4bhbh2rcd13ifvqeqg","pricing_plan_id":"cebpf4jnsgd1na2vs0mg"},{"bike_id":"29bd3bd2-3fab-48ad-a3e3-29bb6dca5240","system_id":"levelo_inurba_marseille","lat":43.31165,"lon":5.38718,"is_reserved":false,"is_disabled":false,"rental_uris":{"android":"levelo://app?vid=29bd3bd2-3fab-48ad-a3e3-29bb6dca5240","ios":"levelo://app?vid=29bd3bd2-3fab-48ad-a3e3-29bb6dca5240"},"vehicle_type_id":"4","last_reported":1746468716,"current_range_meters":10000,"station_id":"ce4bgv12rcd13ifvqcp0","pricing_plan_id":"cebpf4jnsgd1na2vs0mg"},{"bike_id":"64052c71-5c21-4794-9241-efc68fac1ccc","system_id":"levelo_inurba_marseille","lat":43.32469,"lon":5.36568,"is_reserved":false,"is_disabled":false,"rental_uris":{"android":"levelo://app?vid=64052c71-5c21-4794-9241-efc68fac1ccc","ios":"levelo://app?vid=64052c71-5c21-4794-9241-efc68fac1ccc"},"vehicle_type_id":"4","last_reported":1746468716,"current_range_meters":10000,"station_id":"ce4bhs12rcd13ifvqhvg","pricing_plan_id":"cebpf4jnsgd1na2vs0mg"},{"bike_id":"a50309b7-cc78-4472-b453-153ce5f4c314","system_id":"levelo_inurba_marseille","lat":43.29895,"lon":5.43669,"is_reserved":false,"is_disabled":false,"rental_uris":{"android":"levelo://app?vid=a50309b7-cc78-4472-b453-153ce5f4c314","ios":"levelo://app?vid=a50309b7-cc78-4472-b453-153ce5f4c314"},"vehicle_type_id":"4","last_reported":1746468716,"current_range_meters":10000,"station_id":"ce4bhpp2rcd13ifvqhfg","pricing_plan_id":"cebpf4jnsgd1na2vs0mg"},{"bike_id":"7eb76794-d8a7-4aaa-b8d0-ab0316a9c90c","system_id":"levelo_inurba_marseille","lat":43.29,"lon":5.35613,"is_reserved":false,"is_disabled":false,"rental_uris":{"android":"levelo://app?vid=7eb76794-d8a7-4aaa-b8d0-ab0316a9c90c","ios":"levelo://app?vid=7eb76794-d8a7-4aaa-b8d0-ab0316a9c90c"},"vehicle_type_id":"4","last_reported":1746468716,"current_range_meters":10000,"station_id":"ce4bhb92rcd13ifvqen0","pricing_plan_id":"cebpf4jnsgd1na2vs0mg"},{"bike_id":"1a82a0e9-f369-4d01-ae50-ae98884bab48","system_id":"levelo_inurba_marseille","lat":43.330778,"lon":5.387074,"is_reserved":false,"is_disabled":false,"rental_uris":{"android":"levelo://app?vid=1a82a0e9-f369-4d01-ae50-ae98884bab48","ios":"levelo://app?vid=1a82a0e9-f369-4d01-ae50-ae98884bab48"},"vehicle_type_id":"4","last_reported":1746468716,"current_range_meters":10000,"station_id":"","pricing_plan_id":"cebpf4jnsgd1na2vs0mg"},{"bike_id":"9fc13afb-e947-475e-b143-9f3ee51b87b5","system_id":"levelo_inurba_marseille","lat":43.30299,"lon":5.39208,"is_reserved":false,"is_disabled":true,"rental_uris":{"android":"levelo://app?vid=9fc13afb-e947-475e-b143-9f3ee51b87b5","ios":"levelo://app?vid=9fc13afb-e947-475e-b143-9f3ee51b87b5"},"vehicle_type_id":"4","last_reported":1746468716,"current_range_meters":10800,"station_id":"ce4bgkh2rcd13ifvqbk0","pricing_plan_id":"cebpf4jnsgd1na2vs0mg"},{"bike_id":"02235f25-174f-4e5d-bce9-a59804091448","system_id":"levelo_inurba_marseille","lat":43.31339,"lon":5.38515,"is_reserved":false,"is_disabled":true,"rental_uris":{"android":"levelo://app?vid=02235f25-174f-4e5d-bce9-a59804091448","ios":"levelo://app?vid=02235f25-174f-4e5d-bce9-a59804091448"},"vehicle_type_id":"4","last_reported":1746468716,"current_range_meters":10800,"station_id":"ce4bgt92rcd13ifvqcf0","pricing_plan_id":"cebpf4jnsgd1na2vs0mg"},{"bike_id":"13a33661-336b-40d3-8177-5933c619331c","system_id":"levelo_inurba_marseille","lat":43.2869,"lon":5.373853,"is_reserved":false,"is_disabled":false,"rental_uris":{"android":"levelo://app?vid=13a33661-336b-40d3-8177-5933c619331c","ios":"levelo://app?vid=13a33661-336b-40d3-8177-5933c619331c"},"vehicle_type_id":"4","last_reported":1746468716,"current_range_meters":10800,"station_id":"ce4bh3p2rcd13ifvqdq0","pricing_plan_id":"cebpf4jnsgd1na2vs0mg"},{"bike_id":"24eeb213-7862-4331-ac98-78c221426aae","system_id":"levelo_inurba_marseille","lat":43.23963,"lon":5.36633,"is_reserved":false,"is_disabled":false,"rental_uris":{"android":"levelo://app?vid=24eeb213-7862-4331-ac98-78c221426aae","ios":"levelo://app?vid=24eeb213-7862-4331-ac98-78c221426aae"},"vehicle_type_id":"4","last_reported":1746468716,"current_range_meters":10800,"station_id":"ce4bhi12rcd13ifvqfp0","pricing_plan_id":"cebpf4jnsgd1na2vs0mg"},{"bike_id":"2fe6439e-7c6f-4bea-ae3f-c9ce667fb761","system_id":"levelo_inurba_marseille","lat":43.29873,"lon":5.39734,"is_reserved":false,"is_disabled":false,"rental_uris":{"android":"levelo://app?vid=2fe6439e-7c6f-4bea-ae3f-c9ce667fb761","ios":"levelo://app?vid=2fe6439e-7c6f-4bea-ae3f-c9ce667fb761"},"vehicle_type_id":"4","last_reported":1746468716,"current_range_meters":10800,"station_id":"ce4bh0h2rcd13ifvqd50","pricing_plan_id":"cebpf4jnsgd1na2vs0mg"},{"bike_id":"9198adf5-bde6-4533-9813-67f1a1c58777","system_id":"levelo_inurba_marseille","lat":43.30423,"lon":5.39734,"is_reserved":false,"is_disabled":false,"rental_uris":{"android":"levelo://app?vid=9198adf5-bde6-4533-9813-67f1a1c58777","ios":"levelo://app?vid=9198adf5-bde6-4533-9813-67f1a1c58777"},"vehicle_type_id":"4","last_reported":1746468716,"current_range_meters":10800,"station_id":"ce4bh092rcd13ifvqd20","pricing_plan_id":"cebpf4jnsgd1na2vs0mg"},{"bike_id":"b7a57e5a-8bcc-4c45-b33d-0598833cad9e","system_id":"levelo_inurba_marseille","lat":43.29868,"lon":5.38912,"is_reserved":false,"is_disabled":false,"rental_uris":{"android":"levelo://app?vid=b7a57e5a-8bcc-4c45-b33d-0598833cad9e","ios":"levelo://app?vid=b7a57e5a-8bcc-4c45-b33d-0598833cad9e"},"vehicle_type_id":"4","last_reported":1746468716,"current_range_meters":10800,"station_id":"ce4bh392rcd13ifvqdl0","pricing_plan_id":"cebpf4jnsgd1na2vs0mg"},{"bike_id":"f82049e3-5c32-4d4c-9676-8e8bc50b105c","system_id":"levelo_inurba_marseille","lat":43.31171,"lon":5.38716,"is_reserved":false,"is_disabled":false,"rental_uris":{"android":"levelo://app?vid=f82049e3-5c32-4d4c-9676-8e8bc50b105c","ios":"levelo://app?vid=f82049e3-5c32-4d4c-9676-8e8bc50b105c"},"vehicle_type_id":"4","last_reported":1746468716,"current_range_meters":10800,"station_id":"ce4bgv12rcd13ifvqcp0","pricing_plan_id":"cebpf4jnsgd1na2vs0mg"},{"bike_id":"d1aa6e5d-6beb-440c-afb6-1d488c12e5a1","system_id":"levelo_inurba_marseille","lat":43.32081,"lon":5.36762,"is_reserved":false,"is_disabled":false,"rental_uris":{"android":"levelo://app?vid=d1aa6e5d-6beb-440c-afb6-1d488c12e5a1","ios":"levelo://app?vid=d1aa6e5d-6beb-440c-afb6-1d488c12e5a1"},"vehicle_type_id":"4","last_reported":1746468716,"current_range_meters":10800,"station_id":"ce4bhrh2rcd13ifvqhug","pricing_plan_id":"cebpf4jnsgd1na2vs0mg"},{"bike_id":"5c52396a-d969-4e28-859c-bb4abb609f3f","system_id":"levelo_inurba_marseille","lat":43.31221,"lon":5.36885,"is_reserved":false,"is_disabled":false,"rental_uris":{"android":"levelo://app?vid=5c52396a-d969-4e28-859c-bb4abb609f3f","ios":"levelo://app?vid=5c52396a-d969-4e28-859c-bb4abb609f3f"},"vehicle_type_id":"4","last_reported":1746468716,"current_range_meters":10800,"station_id":"ce4bgl92rcd13ifvqbq0","pricing_plan_id":"cebpf4jnsgd1na2vs0mg"},{"bike_id":"fbda12d9-6999-44a5-a236-2a288c2ac07c","system_id":"levelo_inurba_marseille","lat":43.24069,"lon":5.37764,"is_reserved":false,"is_disabled":false,"rental_uris":{"android":"levelo://app?vid=fbda12d9-6999-44a5-a236-2a288c2ac07c","ios":"levelo://app?vid=fbda12d9-6999-44a5-a236-2a288c2ac07c"},"vehicle_type_id":"4","last_reported":1746468716,"current_range_meters":11200,"station_id":"ce4bhnp2rcd13ifvqgvg","pricing_plan_id":"cebpf4jnsgd1na2vs0mg"},{"bike_id":"75249291-d4eb-4e76-b4a6-7c82bb4d8cd7","system_id":"levelo_inurba_marseille","lat":43.25103,"lon":5.40325,"is_reserved":false,"is_disabled":false,"rental_uris":{"android":"levelo://app?vid=75249291-d4eb-4e76-b4a6-7c82bb4d8cd7","ios":"levelo://app?vid=75249291-d4eb-4e76-b4a6-7c82bb4d8cd7"},"vehicle_type_id":"4","last_reported":1746468716,"current_range_meters":11200,"station_id":"ce4bhlh2rcd13ifvqgig","pricing_plan_id":"cebpf4jnsgd1na2vs0mg"},{"bike_id":"13fcfc94-37a5-49a8-a177-77725e8512b6","system_id":"levelo_inurba_marseille","lat":43.30458,"lon":5.379,"is_reserved":false,"is_disabled":true,"rental_uris":{"android":"levelo://app?vid=13fcfc94-37a5-49a8-a177-77725e8512b6","ios":"levelo://app?vid=13fcfc94-37a5-49a8-a177-77725e8512b6"},"vehicle_type_id":"4","last_reported":1746468716,"current_range_meters":11200,"station_id":"ce4bgup2rcd13ifvqcn0","pricing_plan_id":"cebpf4jnsgd1na2vs0mg"},{"bike_id":"0010e622-574e-4fb4-ab24-e71d9ba6cdb6","system_id":"levelo_inurba_marseille","lat":43.27563,"lon":5.38443,"is_reserved":false,"is_disabled":false,"rental_uris":{"android":"levelo://app?vid=0010e622-574e-4fb4-ab24-e71d9ba6cdb6","ios":"levelo://app?vid=0010e622-574e-4fb4-ab24-e71d9ba6cdb6"},"vehicle_type_id":"4","last_reported":1746468716,"current_range_meters":10800,"station_id":"ce4bhh92rcd13ifvqfi0","pricing_plan_id":"cebpf4jnsgd1na2vs0mg"},{"bike_id":"63a15020-6909-43f9-8614-e2fa8f24fa11","system_id":"levelo_inurba_marseille","lat":43.31353,"lon":5.38504,"is_reserved":false,"is_disabled":false,"rental_uris":{"android":"levelo://app?vid=63a15020-6909-43f9-8614-e2fa8f24fa11","ios":"levelo://app?vid=63a15020-6909-43f9-8614-e2fa8f24fa11"},"vehicle_type_id":"4","last_reported":1746468716,"current_range_meters":11200,"station_id":"ce4bgt92rcd13ifvqcf0","pricing_plan_id":"cebpf4jnsgd1na2vs0mg"},{"bike_id":"c0da2ce7-fdff-4d59-9bba-a10f93fd4b6b","system_id":"levelo_inurba_marseille","lat":43.29025,"lon":5.38648,"is_reserved":false,"is_disabled":false,"rental_uris":{"android":"levelo://app?vid=c0da2ce7-fdff-4d59-9bba-a10f93fd4b6b","ios":"levelo://app?vid=c0da2ce7-fdff-4d59-9bba-a10f93fd4b6b"},"vehicle_type_id":"4","last_reported":1746468716,"current_range_meters":11200,"station_id":"ce4bh4p2rcd13ifvqe0g","pricing_plan_id":"cebpf4jnsgd1na2vs0mg"},{"bike_id":"9e7a993c-a26b-4198-8617-d467ef5c906e","system_id":"levelo_inurba_marseille","lat":43.28025,"lon":5.3695,"is_reserved":false,"is_disabled":false,"rental_uris":{"android":"levelo://app?vid=9e7a993c-a26b-4198-8617-d467ef5c906e","ios":"levelo://app?vid=9e7a993c-a26b-4198-8617-d467ef5c906e"},"vehicle_type_id":"4","last_reported":1746468716,"current_range_meters":11200,"station_id":"ce4bha12rcd13ifvqef0","pricing_plan_id":"cebpf4jnsgd1na2vs0mg"},{"bike_id":"4508f0fd-5995-4d46-9a60-43e3b3a35920","system_id":"levelo_inurba_marseille","lat":43.28931,"lon":5.36405,"is_reserved":false,"is_disabled":false,"rental_uris":{"android":"levelo://app?vid=4508f0fd-5995-4d46-9a60-43e3b3a35920","ios":"levelo://app?vid=4508f0fd-5995-4d46-9a60-43e3b3a35920"},"vehicle_type_id":"4","last_reported":1746468716,"current_range_meters":11200,"station_id":"ce4bhc92rcd13ifvqetg","pricing_plan_id":"cebpf4jnsgd1na2vs0mg"},{"bike_id":"f9cec597-af13-4a8a-be1d-b7cf54819d4d","system_id":"levelo_inurba_marseille","lat":43.28952,"lon":5.40734,"is_reserved":false,"is_disabled":false,"rental_uris":{"android":"levelo://app?vid=f9cec597-af13-4a8a-be1d-b7cf54819d4d","ios":"levelo://app?vid=f9cec597-af13-4a8a-be1d-b7cf54819d4d"},"vehicle_type_id":"4","last_reported":1746468716,"current_range_meters":11600,"station_id":"","pricing_plan_id":"cebpf4jnsgd1na2vs0mg"},{"bike_id":"4567db42-a456-48b6-bc7d-8dd13247fcc0","system_id":"levelo_inurba_marseille","lat":43.27947,"lon":5.41038,"is_reserved":false,"is_disabled":false,"rental_uris":{"android":"levelo://app?vid=4567db42-a456-48b6-bc7d-8dd13247fcc0","ios":"levelo://app?vid=4567db42-a456-48b6-bc7d-8dd13247fcc0"},"vehicle_type_id":"4","last_reported":1746468716,"current_range_meters":11600,"station_id":"ce4bhnp2rcd13ifvqh0g","pricing_plan_id":"cebpf4jnsgd1na2vs0mg"},{"bike_id":"02284b43-41a4-4f85-bb3a-eff03bc40081","system_id":"levelo_inurba_marseille","lat":43.27916,"lon":5.39576,"is_reserved":false,"is_disabled":false,"rental_uris":{"android":"levelo://app?vid=02284b43-41a4-4f85-bb3a-eff03bc40081","ios":"levelo://app?vid=02284b43-41a4-4f85-bb3a-eff03bc40081"},"vehicle_type_id":"4","last_reported":1746468716,"current_range_meters":11600,"station_id":"ce4bhf92rcd13ifvqf40","pricing_plan_id":"cebpf4jnsgd1na2vs0mg"},{"bike_id":"1a56d2e1-6609-455c-8523-959d44394069","system_id":"levelo_inurba_marseille","lat":43.30301,"lon":5.39222,"is_reserved":false,"is_disabled":true,"rental_uris":{"android":"levelo://app?vid=1a56d2e1-6609-455c-8523-959d44394069","ios":"levelo://app?vid=1a56d2e1-6609-455c-8523-959d44394069"},"vehicle_type_id":"4","last_reported":1746468716,"current_range_meters":12000,"station_id":"ce4bgkh2rcd13ifvqbk0","pricing_plan_id":"cebpf4jnsgd1na2vs0mg"},{"bike_id":"48d1a623-5e08-404d-89cc-f076c785ec8a","system_id":"levelo_inurba_marseille","lat":43.28464,"lon":5.35883,"is_reserved":false,"is_disabled":false,"rental_uris":{"android":"levelo://app?vid=48d1a623-5e08-404d-89cc-f076c785ec8a","ios":"levelo://app?vid=48d1a623-5e08-404d-89cc-f076c785ec8a"},"vehicle_type_id":"4","last_reported":1746468716,"current_range_meters":12000,"station_id":"ce4bhah2rcd13ifvqei0","pricing_plan_id":"cebpf4jnsgd1na2vs0mg"},{"bike_id":"3f1af3da-fb0a-4710-81c3-ab3f4de86ca6","system_id":"levelo_inurba_marseille","lat":43.2953,"lon":5.39034,"is_reserved":false,"is_disabled":false,"rental_uris":{"android":"levelo://app?vid=3f1af3da-fb0a-4710-81c3-ab3f4de86ca6","ios":"levelo://app?vid=3f1af3da-fb0a-4710-81c3-ab3f4de86ca6"},"vehicle_type_id":"4","last_reported":1746468716,"current_range_meters":11600,"station_id":"ce4bh3p2rcd13ifvqdp0","pricing_plan_id":"cebpf4jnsgd1na2vs0mg"},{"bike_id":"46515b8e-2c91-48c1-8869-455cffd3d0b7","system_id":"levelo_inurba_marseille","lat":43.27953,"lon":5.41036,"is_reserved":false,"is_disabled":false,"rental_uris":{"android":"levelo://app?vid=46515b8e-2c91-48c1-8869-455cffd3d0b7","ios":"levelo://app?vid=46515b8e-2c91-48c1-8869-455cffd3d0b7"},"vehicle_type_id":"4","last_reported":1746468716,"current_range_meters":12000,"station_id":"ce4bhnp2rcd13ifvqh0g","pricing_plan_id":"cebpf4jnsgd1na2vs0mg"},{"bike_id":"bd0f5d5e-963b-4fe6-aa82-9fc047b0ac51","system_id":"levelo_inurba_marseille","lat":43.299042,"lon":5.388155,"is_reserved":false,"is_disabled":false,"rental_uris":{"android":"levelo://app?vid=bd0f5d5e-963b-4fe6-aa82-9fc047b0ac51","ios":"levelo://app?vid=bd0f5d5e-963b-4fe6-aa82-9fc047b0ac51"},"vehicle_type_id":"4","last_reported":1746468716,"current_range_meters":12000,"station_id":"","pricing_plan_id":"cebpf4jnsgd1na2vs0mg"},{"bike_id":"35cca3ff-b676-44f8-83bf-0bcd68166c9e","system_id":"levelo_inurba_marseille","lat":43.2841,"lon":5.34987,"is_reserved":false,"is_disabled":false,"rental_uris":{"android":"levelo://app?vid=35cca3ff-b676-44f8-83bf-0bcd68166c9e","ios":"levelo://app?vid=35cca3ff-b676-44f8-83bf-0bcd68166c9e"},"vehicle_type_id":"4","last_reported":1746468716,"current_range_meters":12000,"station_id":"ce4bhbh2rcd13ifvqepg","pricing_plan_id":"cebpf4jnsgd1na2vs0mg"},{"bike_id":"62bfa9fa-531f-4d2b-9e57-eb50b2d48c8c","system_id":"levelo_inurba_marseille","lat":43.2429,"lon":5.38015,"is_reserved":false,"is_disabled":false,"rental_uris":{"android":"levelo://app?vid=62bfa9fa-531f-4d2b-9e57-eb50b2d48c8c","ios":"levelo://app?vid=62bfa9fa-531f-4d2b-9e57-eb50b2d48c8c"},"vehicle_type_id":"4","last_reported":1746468716,"current_range_meters":12000,"station_id":"","pricing_plan_id":"cebpf4jnsgd1na2vs0mg"},{"bike_id":"5b8d1337-a035-4531-8ae9-843647d6f95e","system_id":"levelo_inurba_marseille","lat":43.23186,"lon":5.39975,"is_reserved":false,"is_disabled":false,"rental_uris":{"android":"levelo://app?vid=5b8d1337-a035-4531-8ae9-843647d6f95e","ios":"levelo://app?vid=5b8d1337-a035-4531-8ae9-843647d6f95e"},"vehicle_type_id":"4","last_reported":1746468716,"current_range_meters":12400,"station_id":"ce4bhn12rcd13ifvqgqg","pricing_plan_id":"cebpf4jnsgd1na2vs0mg"},{"bike_id":"a1ff4c5d-3224-4414-99bd-72d6694faa85","system_id":"levelo_inurba_marseille","lat":43.29083,"lon":5.37166,"is_reserved":false,"is_disabled":false,"rental_uris":{"android":"levelo://app?vid=a1ff4c5d-3224-4414-99bd-72d6694faa85","ios":"levelo://app?vid=a1ff4c5d-3224-4414-99bd-72d6694faa85"},"vehicle_type_id":"4","last_reported":1746468716,"current_range_meters":12400,"station_id":"ce4bh5p2rcd13ifvqe4g","pricing_plan_id":"cebpf4jnsgd1na2vs0mg"},{"bike_id":"cb289085-4416-4790-ae72-a9a1f9ad1abc","system_id":"levelo_inurba_marseille","lat":43.29293,"lon":5.37468,"is_reserved":false,"is_disabled":false,"rental_uris":{"android":"levelo://app?vid=cb289085-4416-4790-ae72-a9a1f9ad1abc","ios":"levelo://app?vid=cb289085-4416-4790-ae72-a9a1f9ad1abc"},"vehicle_type_id":"4","last_reported":1746468716,"current_range_meters":12400,"station_id":"ce4bgi12rcd13ifvqb70","pricing_plan_id":"cebpf4jnsgd1na2vs0mg"},{"bike_id":"9d8f73eb-df09-4699-86a7-d631e2319093","system_id":"levelo_inurba_marseille","lat":43.26269,"lon":5.37434,"is_reserved":false,"is_disabled":false,"rental_uris":{"android":"levelo://app?vid=9d8f73eb-df09-4699-86a7-d631e2319093","ios":"levelo://app?vid=9d8f73eb-df09-4699-86a7-d631e2319093"},"vehicle_type_id":"4","last_reported":1746468716,"current_range_meters":12400,"station_id":"","pricing_plan_id":"cebpf4jnsgd1na2vs0mg"},{"bike_id":"5d8fc772-973c-461b-b3a9-235d32616ea7","system_id":"levelo_inurba_marseille","lat":43.27565,"lon":5.38432,"is_reserved":false,"is_disabled":false,"rental_uris":{"android":"levelo://app?vid=5d8fc772-973c-461b-b3a9-235d32616ea7","ios":"levelo://app?vid=5d8fc772-973c-461b-b3a9-235d32616ea7"},"vehicle_type_id":"4","last_reported":1746468716,"current_range_meters":12400,"station_id":"ce4bhh92rcd13ifvqfi0","pricing_plan_id":"cebpf4jnsgd1na2vs0mg"},{"bike_id":"1b54f95f-3de7-4283-8d08-e3af834d1f4c","system_id":"levelo_inurba_marseille","lat":43.28704,"lon":5.39987,"is_reserved":false,"is_disabled":false,"rental_uris":{"android":"levelo://app?vid=1b54f95f-3de7-4283-8d08-e3af834d1f4c","ios":"levelo://app?vid=1b54f95f-3de7-4283-8d08-e3af834d1f4c"},"vehicle_type_id":"4","last_reported":1746468716,"current_range_meters":12400,"station_id":"ce4bho92rcd13ifvqh3g","pricing_plan_id":"cebpf4jnsgd1na2vs0mg"},{"bike_id":"68986711-a52e-4816-b7b2-570a507cb4fe","system_id":"levelo_inurba_marseille","lat":43.26552,"lon":5.37284,"is_reserved":false,"is_disabled":false,"rental_uris":{"android":"levelo://app?vid=68986711-a52e-4816-b7b2-570a507cb4fe","ios":"levelo://app?vid=68986711-a52e-4816-b7b2-570a507cb4fe"},"vehicle_type_id":"4","last_reported":1746468716,"current_range_meters":12800,"station_id":"ce4bhg12rcd13ifvqf70","pricing_plan_id":"cebpf4jnsgd1na2vs0mg"},{"bike_id":"f6dc6928-d43e-41dd-8980-86bcd00e317f","system_id":"levelo_inurba_marseille","lat":43.29627,"lon":5.40593,"is_reserved":false,"is_disabled":false,"rental_uris":{"android":"levelo://app?vid=f6dc6928-d43e-41dd-8980-86bcd00e317f","ios":"levelo://app?vid=f6dc6928-d43e-41dd-8980-86bcd00e317f"},"vehicle_type_id":"4","last_reported":1746468716,"current_range_meters":12400,"station_id":"ce4bh0h2rcd13ifvqd60","pricing_plan_id":"cebpf4jnsgd1na2vs0mg"},{"bike_id":"0cb139c7-ebfc-4316-b1f8-0830598824b5","system_id":"levelo_inurba_marseille","lat":43.29782,"lon":5.39375,"is_reserved":false,"is_disabled":true,"rental_uris":{"android":"levelo://app?vid=0cb139c7-ebfc-4316-b1f8-0830598824b5","ios":"levelo://app?vid=0cb139c7-ebfc-4316-b1f8-0830598824b5"},"vehicle_type_id":"4","last_reported":1746468716,"current_range_meters":12800,"station_id":"chh1huq6cuj3fo74tm60","pricing_plan_id":"cebpf4jnsgd1na2vs0mg"},{"bike_id":"b60c17f5-436e-489e-8f3c-790e6084ac64","system_id":"levelo_inurba_marseille","lat":43.211949,"lon":5.350863,"is_reserved":false,"is_disabled":false,"rental_uris":{"android":"levelo://app?vid=b60c17f5-436e-489e-8f3c-790e6084ac64","ios":"levelo://app?vid=b60c17f5-436e-489e-8f3c-790e6084ac64"},"vehicle_type_id":"4","last_reported":1746468716,"current_range_meters":13600,"station_id":"st_cvj6sg6p6f1abm77japg","pricing_plan_id":"cebpf4jnsgd1na2vs0mg"},{"bike_id":"95cb813b-9266-44b9-a68b-7aa79bf3eb36","system_id":"levelo_inurba_marseille","lat":43.32666,"lon":5.40983,"is_reserved":false,"is_disabled":true,"rental_uris":{"android":"levelo://app?vid=95cb813b-9266-44b9-a68b-7aa79bf3eb36","ios":"levelo://app?vid=95cb813b-9266-44b9-a68b-7aa79bf3eb36"},"vehicle_type_id":"4","last_reported":1746468716,"current_range_meters":13600,"station_id":"ce4bhpp2rcd13ifvqhgg","pricing_plan_id":"cebpf4jnsgd1na2vs0mg"},{"bike_id":"97b9ba58-35c5-4c40-b739-31df9cdf858c","system_id":"levelo_inurba_marseille","lat":43.29688,"lon":5.36629,"is_reserved":false,"is_disabled":false,"rental_uris":{"android":"levelo://app?vid=97b9ba58-35c5-4c40-b739-31df9cdf858c","ios":"levelo://app?vid=97b9ba58-35c5-4c40-b739-31df9cdf858c"},"vehicle_type_id":"4","last_reported":1746468716,"current_range_meters":12800,"station_id":"ce4bgn12rcd13ifvqbt0","pricing_plan_id":"cebpf4jnsgd1na2vs0mg"},{"bike_id":"0c377d9d-9a3a-47a7-9944-6039314b5e15","system_id":"levelo_inurba_marseille","lat":43.24583,"lon":5.40501,"is_reserved":false,"is_disabled":false,"rental_uris":{"android":"levelo://app?vid=0c377d9d-9a3a-47a7-9944-6039314b5e15","ios":"levelo://app?vid=0c377d9d-9a3a-47a7-9944-6039314b5e15"},"vehicle_type_id":"4","last_reported":1746468716,"current_range_meters":13600,"station_id":"","pricing_plan_id":"cebpf4jnsgd1na2vs0mg"},{"bike_id":"05a84f69-0592-442a-b098-6253d0b70e9e","system_id":"levelo_inurba_marseille","lat":43.30013,"lon":5.37223,"is_reserved":false,"is_disabled":false,"rental_uris":{"android":"levelo://app?vid=05a84f69-0592-442a-b098-6253d0b70e9e","ios":"levelo://app?vid=05a84f69-0592-442a-b098-6253d0b70e9e"},"vehicle_type_id":"4","last_reported":1746468716,"current_range_meters":13600,"station_id":"","pricing_plan_id":"cebpf4jnsgd1na2vs0mg"},{"bike_id":"422384e3-5b65-425e-af9a-69c8dfb04ce3","system_id":"levelo_inurba_marseille","lat":43.23964,"lon":5.366312,"is_reserved":false,"is_disabled":false,"rental_uris":{"android":"levelo://app?vid=422384e3-5b65-425e-af9a-69c8dfb04ce3","ios":"levelo://app?vid=422384e3-5b65-425e-af9a-69c8dfb04ce3"},"vehicle_type_id":"4","last_reported":1746468716,"current_range_meters":13600,"station_id":"ce4bhi12rcd13ifvqfp0","pricing_plan_id":"cebpf4jnsgd1na2vs0mg"},{"bike_id":"41aaa1ed-a708-4a9a-b5aa-450e891d24b0","system_id":"levelo_inurba_marseille","lat":43.26562,"lon":5.39018,"is_reserved":false,"is_disabled":true,"rental_uris":{"android":"levelo://app?vid=41aaa1ed-a708-4a9a-b5aa-450e891d24b0","ios":"levelo://app?vid=41aaa1ed-a708-4a9a-b5aa-450e891d24b0"},"vehicle_type_id":"4","last_reported":1746468716,"current_range_meters":13600,"station_id":"ce4bhe12rcd13ifvqf30","pricing_plan_id":"cebpf4jnsgd1na2vs0mg"},{"bike_id":"3fe64674-c146-4136-8521-692c55739e60","system_id":"levelo_inurba_marseille","lat":43.28934,"lon":5.36629,"is_reserved":false,"is_disabled":false,"rental_uris":{"android":"levelo://app?vid=3fe64674-c146-4136-8521-692c55739e60","ios":"levelo://app?vid=3fe64674-c146-4136-8521-692c55739e60"},"vehicle_type_id":"4","last_reported":1746468716,"current_range_meters":14000,"station_id":"ce4bhap2rcd13ifvqek0","pricing_plan_id":"cebpf4jnsgd1na2vs0mg"},{"bike_id":"79df2d56-8431-46eb-b7c1-70def8f2661b","system_id":"levelo_inurba_marseille","lat":43.2905,"lon":5.3796,"is_reserved":false,"is_disabled":false,"rental_uris":{"android":"levelo://app?vid=79df2d56-8431-46eb-b7c1-70def8f2661b","ios":"levelo://app?vid=79df2d56-8431-46eb-b7c1-70def8f2661b"},"vehicle_type_id":"4","last_reported":1746468716,"current_range_meters":14000,"station_id":"","pricing_plan_id":"cebpf4jnsgd1na2vs0mg"},{"bike_id":"a365a858-40b3-4eca-9aa6-9eeff1f558a2","system_id":"levelo_inurba_marseille","lat":43.29001,"lon":5.35605,"is_reserved":false,"is_disabled":false,"rental_uris":{"android":"levelo://app?vid=a365a858-40b3-4eca-9aa6-9eeff1f558a2","ios":"levelo://app?vid=a365a858-40b3-4eca-9aa6-9eeff1f558a2"},"vehicle_type_id":"4","last_reported":1746468716,"current_range_meters":14000,"station_id":"ce4bhb92rcd13ifvqen0","pricing_plan_id":"cebpf4jnsgd1na2vs0mg"},{"bike_id":"a46b5721-597c-404e-8ddb-3ba6469f967d","system_id":"levelo_inurba_marseille","lat":43.23187,"lon":5.35569,"is_reserved":false,"is_disabled":false,"rental_uris":{"android":"levelo://app?vid=a46b5721-597c-404e-8ddb-3ba6469f967d","ios":"levelo://app?vid=a46b5721-597c-404e-8ddb-3ba6469f967d"},"vehicle_type_id":"4","last_reported":1746468716,"current_range_meters":14000,"station_id":"ce4bhu92rcd13ifvqi70","pricing_plan_id":"cebpf4jnsgd1na2vs0mg"},{"bike_id":"f9c3d6fb-f805-4b18-8f66-4fd739daf610","system_id":"levelo_inurba_marseille","lat":43.25117,"lon":5.39511,"is_reserved":false,"is_disabled":false,"rental_uris":{"android":"levelo://app?vid=f9c3d6fb-f805-4b18-8f66-4fd739daf610","ios":"levelo://app?vid=f9c3d6fb-f805-4b18-8f66-4fd739daf610"},"vehicle_type_id":"4","last_reported":1746468716,"current_range_meters":14000,"station_id":"ce4bhm12rcd13ifvqgkg","pricing_plan_id":"cebpf4jnsgd1na2vs0mg"},{"bike_id":"b3b2931b-5838-49ef-9b19-ef69371939b7","system_id":"levelo_inurba_marseille","lat":43.26938,"lon":5.40268,"is_reserved":false,"is_disabled":false,"rental_uris":{"android":"levelo://app?vid=b3b2931b-5838-49ef-9b19-ef69371939b7","ios":"levelo://app?vid=b3b2931b-5838-49ef-9b19-ef69371939b7"},"vehicle_type_id":"4","last_reported":1746468716,"current_range_meters":14000,"station_id":"cjm6bp8fraef2m0cb0m0","pricing_plan_id":"cebpf4jnsgd1na2vs0mg"},{"bike_id":"d8c7214a-4140-4015-bc25-f1947c2f5293","system_id":"levelo_inurba_marseille","lat":43.27968,"lon":5.38738,"is_reserved":false,"is_disabled":false,"rental_uris":{"android":"levelo://app?vid=d8c7214a-4140-4015-bc25-f1947c2f5293","ios":"levelo://app?vid=d8c7214a-4140-4015-bc25-f1947c2f5293"},"vehicle_type_id":"4","last_reported":1746468716,"current_range_meters":14000,"station_id":"ce4bhg12rcd13ifvqf80","pricing_plan_id":"cebpf4jnsgd1na2vs0mg"},{"bike_id":"c216528b-7ab2-4caa-b370-34747a47de9b","system_id":"levelo_inurba_marseille","lat":43.29881,"lon":5.39732,"is_reserved":false,"is_disabled":false,"rental_uris":{"android":"levelo://app?vid=c216528b-7ab2-4caa-b370-34747a47de9b","ios":"levelo://app?vid=c216528b-7ab2-4caa-b370-34747a47de9b"},"vehicle_type_id":"4","last_reported":1746468716,"current_range_meters":14000,"station_id":"ce4bh0h2rcd13ifvqd50","pricing_plan_id":"cebpf4jnsgd1na2vs0mg"},{"bike_id":"c1f1dcdb-6a6f-48b8-8e9c-e9445d805c8c","system_id":"levelo_inurba_marseille","lat":43.2593,"lon":5.4092,"is_reserved":false,"is_disabled":false,"rental_uris":{"android":"levelo://app?vid=c1f1dcdb-6a6f-48b8-8e9c-e9445d805c8c","ios":"levelo://app?vid=c1f1dcdb-6a6f-48b8-8e9c-e9445d805c8c"},"vehicle_type_id":"4","last_reported":1746468716,"current_range_meters":14400,"station_id":"ce4bhm92rcd13ifvqglg","pricing_plan_id":"cebpf4jnsgd1na2vs0mg"},{"bike_id":"28f78fd0-e7b8-43bc-a782-58f5943c1294","system_id":"levelo_inurba_marseille","lat":43.31352,"lon":5.38504,"is_reserved":false,"is_disabled":false,"rental_uris":{"android":"levelo://app?vid=28f78fd0-e7b8-43bc-a782-58f5943c1294","ios":"levelo://app?vid=28f78fd0-e7b8-43bc-a782-58f5943c1294"},"vehicle_type_id":"4","last_reported":1746468716,"current_range_meters":14400,"station_id":"ce4bgt92rcd13ifvqcf0","pricing_plan_id":"cebpf4jnsgd1na2vs0mg"},{"bike_id":"979e0397-c76c-49f5-97c5-dca9f05b2d67","system_id":"levelo_inurba_marseille","lat":43.31281,"lon":5.38412,"is_reserved":false,"is_disabled":false,"rental_uris":{"android":"levelo://app?vid=979e0397-c76c-49f5-97c5-dca9f05b2d67","ios":"levelo://app?vid=979e0397-c76c-49f5-97c5-dca9f05b2d67"},"vehicle_type_id":"4","last_reported":1746468716,"current_range_meters":14400,"station_id":"","pricing_plan_id":"cebpf4jnsgd1na2vs0mg"},{"bike_id":"bed8b2e2-9081-4268-a85a-38ae2353028f","system_id":"levelo_inurba_marseille","lat":43.278118,"lon":5.40707,"is_reserved":false,"is_disabled":false,"rental_uris":{"android":"levelo://app?vid=bed8b2e2-9081-4268-a85a-38ae2353028f","ios":"levelo://app?vid=bed8b2e2-9081-4268-a85a-38ae2353028f"},"vehicle_type_id":"4","last_reported":1746468716,"current_range_meters":14400,"station_id":"ce4bhnh2rcd13ifvqgtg","pricing_plan_id":"cebpf4jnsgd1na2vs0mg"},{"bike_id":"9e8165ce-7187-47bf-96c5-86a087f543d1","system_id":"levelo_inurba_marseille","lat":43.3042,"lon":5.41285,"is_reserved":false,"is_disabled":false,"rental_uris":{"android":"levelo://app?vid=9e8165ce-7187-47bf-96c5-86a087f543d1","ios":"levelo://app?vid=9e8165ce-7187-47bf-96c5-86a087f543d1"},"vehicle_type_id":"4","last_reported":1746468716,"current_range_meters":14400,"station_id":"ce4bhop2rcd13ifvqh8g","pricing_plan_id":"cebpf4jnsgd1na2vs0mg"},{"bike_id":"db607aba-0db6-423b-a818-c23224727203","system_id":"levelo_inurba_marseille","lat":43.23149,"lon":5.43689,"is_reserved":false,"is_disabled":false,"rental_uris":{"android":"levelo://app?vid=db607aba-0db6-423b-a818-c23224727203","ios":"levelo://app?vid=db607aba-0db6-423b-a818-c23224727203"},"vehicle_type_id":"4","last_reported":1746468716,"current_range_meters":14400,"station_id":"ce4bhmp2rcd13ifvqgog","pricing_plan_id":"cebpf4jnsgd1na2vs0mg"},{"bike_id":"311ec4e0-482e-4b83-a693-e6b86a1abb04","system_id":"levelo_inurba_marseille","lat":43.33146,"lon":5.41391,"is_reserved":false,"is_disabled":false,"rental_uris":{"android":"levelo://app?vid=311ec4e0-482e-4b83-a693-e6b86a1abb04","ios":"levelo://app?vid=311ec4e0-482e-4b83-a693-e6b86a1abb04"},"vehicle_type_id":"4","last_reported":1746468716,"current_range_meters":14400,"station_id":"","pricing_plan_id":"cebpf4jnsgd1na2vs0mg"},{"bike_id":"f3468dfe-718a-401d-99a4-2c32968a5383","system_id":"levelo_inurba_marseille","lat":43.28854,"lon":5.39313,"is_reserved":false,"is_disabled":false,"rental_uris":{"android":"levelo://app?vid=f3468dfe-718a-401d-99a4-2c32968a5383","ios":"levelo://app?vid=f3468dfe-718a-401d-99a4-2c32968a5383"},"vehicle_type_id":"4","last_reported":1746468716,"current_range_meters":14400,"station_id":"ce4bh2p2rcd13ifvqdi0","pricing_plan_id":"cebpf4jnsgd1na2vs0mg"},{"bike_id":"f6a6f2b5-282b-4071-b814-010a1708f04a","system_id":"levelo_inurba_marseille","lat":43.27366,"lon":5.36252,"is_reserved":false,"is_disabled":false,"rental_uris":{"android":"levelo://app?vid=f6a6f2b5-282b-4071-b814-010a1708f04a","ios":"levelo://app?vid=f6a6f2b5-282b-4071-b814-010a1708f04a"},"vehicle_type_id":"4","last_reported":1746468716,"current_range_meters":14800,"station_id":"ce4bhbh2rcd13ifvqeo0","pricing_plan_id":"cebpf4jnsgd1na2vs0mg"},{"bike_id":"d52e0514-b71a-4fb7-b114-b86ddcad0040","system_id":"levelo_inurba_marseille","lat":43.26211,"lon":5.37442,"is_reserved":false,"is_disabled":false,"rental_uris":{"android":"levelo://app?vid=d52e0514-b71a-4fb7-b114-b86ddcad0040","ios":"levelo://app?vid=d52e0514-b71a-4fb7-b114-b86ddcad0040"},"vehicle_type_id":"4","last_reported":1746468716,"current_range_meters":14800,"station_id":"ce4bhgp2rcd13ifvqfc0","pricing_plan_id":"cebpf4jnsgd1na2vs0mg"},{"bike_id":"6e7e8af8-44ae-4cb7-a7ed-e07603537da6","system_id":"levelo_inurba_marseille","lat":43.30149,"lon":5.37421,"is_reserved":false,"is_disabled":false,"rental_uris":{"android":"levelo://app?vid=6e7e8af8-44ae-4cb7-a7ed-e07603537da6","ios":"levelo://app?vid=6e7e8af8-44ae-4cb7-a7ed-e07603537da6"},"vehicle_type_id":"4","last_reported":1746468716,"current_range_meters":14400,"station_id":"ce4bgs92rcd13ifvqcc0","pricing_plan_id":"cebpf4jnsgd1na2vs0mg"},{"bike_id":"7e7dc147-9fb8-4df0-905e-a56344049728","system_id":"levelo_inurba_marseille","lat":43.29025,"lon":5.38655,"is_reserved":false,"is_disabled":true,"rental_uris":{"android":"levelo://app?vid=7e7dc147-9fb8-4df0-905e-a56344049728","ios":"levelo://app?vid=7e7dc147-9fb8-4df0-905e-a56344049728"},"vehicle_type_id":"4","last_reported":1746468716,"current_range_meters":14800,"station_id":"ce4bh4p2rcd13ifvqe0g","pricing_plan_id":"cebpf4jnsgd1na2vs0mg"},{"bike_id":"9c2aa1ce-6a1f-43b6-a80a-38697c469b6e","system_id":"levelo_inurba_marseille","lat":43.322577,"lon":5.412773,"is_reserved":false,"is_disabled":false,"rental_uris":{"android":"levelo://app?vid=9c2aa1ce-6a1f-43b6-a80a-38697c469b6e","ios":"levelo://app?vid=9c2aa1ce-6a1f-43b6-a80a-38697c469b6e"},"vehicle_type_id":"4","last_reported":1746468716,"current_range_meters":15200,"station_id":"","pricing_plan_id":"cebpf4jnsgd1na2vs0mg"},{"bike_id":"44d1a496-4f16-46a6-b178-f49cec17003e","system_id":"levelo_inurba_marseille","lat":43.27192,"lon":5.40983,"is_reserved":false,"is_disabled":false,"rental_uris":{"android":"levelo://app?vid=44d1a496-4f16-46a6-b178-f49cec17003e","ios":"levelo://app?vid=44d1a496-4f16-46a6-b178-f49cec17003e"},"vehicle_type_id":"4","last_reported":1746468716,"current_range_meters":15200,"station_id":"ce4bhl12rcd13ifvqgf0","pricing_plan_id":"cebpf4jnsgd1na2vs0mg"},{"bike_id":"9efbe516-2088-4e9b-93f7-04cfce669567","system_id":"levelo_inurba_marseille","lat":43.29947,"lon":5.38332,"is_reserved":false,"is_disabled":false,"rental_uris":{"android":"levelo://app?vid=9efbe516-2088-4e9b-93f7-04cfce669567","ios":"levelo://app?vid=9efbe516-2088-4e9b-93f7-04cfce669567"},"vehicle_type_id":"4","last_reported":1746468716,"current_range_meters":15200,"station_id":"","pricing_plan_id":"cebpf4jnsgd1na2vs0mg"},{"bike_id":"a5c91ca3-c7a1-48d5-862a-4b6bc7979c62","system_id":"levelo_inurba_marseille","lat":43.305302,"lon":5.384324,"is_reserved":false,"is_disabled":false,"rental_uris":{"android":"levelo://app?vid=a5c91ca3-c7a1-48d5-862a-4b6bc7979c62","ios":"levelo://app?vid=a5c91ca3-c7a1-48d5-862a-4b6bc7979c62"},"vehicle_type_id":"4","last_reported":1746468716,"current_range_meters":15200,"station_id":"ce4bhsp2rcd13ifvqi50","pricing_plan_id":"cebpf4jnsgd1na2vs0mg"},{"bike_id":"e72cbe9a-e56c-4e92-adf2-be011d29f87c","system_id":"levelo_inurba_marseille","lat":43.27367,"lon":5.36261,"is_reserved":false,"is_disabled":false,"rental_uris":{"android":"levelo://app?vid=e72cbe9a-e56c-4e92-adf2-be011d29f87c","ios":"levelo://app?vid=e72cbe9a-e56c-4e92-adf2-be011d29f87c"},"vehicle_type_id":"4","last_reported":1746468716,"current_range_meters":15200,"station_id":"ce4bhbh2rcd13ifvqeo0","pricing_plan_id":"cebpf4jnsgd1na2vs0mg"},{"bike_id":"4b7d17b0-4f46-4350-bf29-aea81a062aa3","system_id":"levelo_inurba_marseille","lat":43.2737,"lon":5.36255,"is_reserved":false,"is_disabled":false,"rental_uris":{"android":"levelo://app?vid=4b7d17b0-4f46-4350-bf29-aea81a062aa3","ios":"levelo://app?vid=4b7d17b0-4f46-4350-bf29-aea81a062aa3"},"vehicle_type_id":"4","last_reported":1746468716,"current_range_meters":15200,"station_id":"ce4bhbh2rcd13ifvqeo0","pricing_plan_id":"cebpf4jnsgd1na2vs0mg"},{"bike_id":"96d94293-32b1-403c-a8fb-648542e57e0f","system_id":"levelo_inurba_marseille","lat":43.24995,"lon":5.38929,"is_reserved":false,"is_disabled":false,"rental_uris":{"android":"levelo://app?vid=96d94293-32b1-403c-a8fb-648542e57e0f","ios":"levelo://app?vid=96d94293-32b1-403c-a8fb-648542e57e0f"},"vehicle_type_id":"4","last_reported":1746468716,"current_range_meters":15200,"station_id":"ce4bhgp2rcd13ifvqfd0","pricing_plan_id":"cebpf4jnsgd1na2vs0mg"},{"bike_id":"ff2b98d6-2c5c-4803-9e7a-d8d83df6ad4f","system_id":"levelo_inurba_marseille","lat":43.29035,"lon":5.35936,"is_reserved":false,"is_disabled":false,"rental_uris":{"android":"levelo://app?vid=ff2b98d6-2c5c-4803-9e7a-d8d83df6ad4f","ios":"levelo://app?vid=ff2b98d6-2c5c-4803-9e7a-d8d83df6ad4f"},"vehicle_type_id":"4","last_reported":1746468716,"current_range_meters":14800,"station_id":"ce4bha92rcd13ifvqeg0","pricing_plan_id":"cebpf4jnsgd1na2vs0mg"},{"bike_id":"f34397f9-bd45-4195-84e2-d56cbfad184c","system_id":"levelo_inurba_marseille","lat":43.29786,"lon":5.37088,"is_reserved":false,"is_disabled":false,"rental_uris":{"android":"levelo://app?vid=f34397f9-bd45-4195-84e2-d56cbfad184c","ios":"levelo://app?vid=f34397f9-bd45-4195-84e2-d56cbfad184c"},"vehicle_type_id":"4","last_reported":1746468716,"current_range_meters":15200,"station_id":"ce4bgop2rcd13ifvqc1g","pricing_plan_id":"cebpf4jnsgd1na2vs0mg"},{"bike_id":"c7baa094-cbb5-4375-91f0-204b606e5abc","system_id":"levelo_inurba_marseille","lat":43.30155,"lon":5.39632,"is_reserved":false,"is_disabled":false,"rental_uris":{"android":"levelo://app?vid=c7baa094-cbb5-4375-91f0-204b606e5abc","ios":"levelo://app?vid=c7baa094-cbb5-4375-91f0-204b606e5abc"},"vehicle_type_id":"4","last_reported":1746468716,"current_range_meters":15200,"station_id":"ce4bh392rcd13ifvqdl0","pricing_plan_id":"cebpf4jnsgd1na2vs0mg"},{"bike_id":"bbcedc57-97c4-42f8-bcce-3ad2c531c1f1","system_id":"levelo_inurba_marseille","lat":43.26802,"lon":5.40264,"is_reserved":false,"is_disabled":false,"rental_uris":{"android":"levelo://app?vid=bbcedc57-97c4-42f8-bcce-3ad2c531c1f1","ios":"levelo://app?vid=bbcedc57-97c4-42f8-bcce-3ad2c531c1f1"},"vehicle_type_id":"4","last_reported":1746468716,"current_range_meters":16000,"station_id":"ce501612rcd8frsf0b60","pricing_plan_id":"cebpf4jnsgd1na2vs0mg"},{"bike_id":"a9b776fd-8c75-4a84-9622-cbf119a44ad6","system_id":"levelo_inurba_marseille","lat":43.28849,"lon":5.35847,"is_reserved":false,"is_disabled":false,"rental_uris":{"android":"levelo://app?vid=a9b776fd-8c75-4a84-9622-cbf119a44ad6","ios":"levelo://app?vid=a9b776fd-8c75-4a84-9622-cbf119a44ad6"},"vehicle_type_id":"4","last_reported":1746468716,"current_range_meters":16000,"station_id":"ce4bhb12rcd13ifvqem0","pricing_plan_id":"cebpf4jnsgd1na2vs0mg"},{"bike_id":"c9592205-9409-4f74-aed1-7c4141a58caa","system_id":"levelo_inurba_marseille","lat":43.27149,"lon":5.36364,"is_reserved":false,"is_disabled":false,"rental_uris":{"android":"levelo://app?vid=c9592205-9409-4f74-aed1-7c4141a58caa","ios":"levelo://app?vid=c9592205-9409-4f74-aed1-7c4141a58caa"},"vehicle_type_id":"4","last_reported":1746468716,"current_range_meters":16000,"station_id":"","pricing_plan_id":"cebpf4jnsgd1na2vs0mg"},{"bike_id":"8dac27be-a00b-4425-aba9-9ad4ebb57a63","system_id":"levelo_inurba_marseille","lat":43.286784,"lon":5.386806,"is_reserved":false,"is_disabled":true,"rental_uris":{"android":"levelo://app?vid=8dac27be-a00b-4425-aba9-9ad4ebb57a63","ios":"levelo://app?vid=8dac27be-a00b-4425-aba9-9ad4ebb57a63"},"vehicle_type_id":"4","last_reported":1746468716,"current_range_meters":16000,"station_id":"ce4bh492rcd13ifvqdug","pricing_plan_id":"cebpf4jnsgd1na2vs0mg"},{"bike_id":"858bed88-3c9c-4c60-b913-cfc9a1021309","system_id":"levelo_inurba_marseille","lat":43.31758,"lon":5.39006,"is_reserved":false,"is_disabled":true,"rental_uris":{"android":"levelo://app?vid=858bed88-3c9c-4c60-b913-cfc9a1021309","ios":"levelo://app?vid=858bed88-3c9c-4c60-b913-cfc9a1021309"},"vehicle_type_id":"4","last_reported":1746468716,"current_range_meters":16000,"station_id":"ce4bhqp2rcd13ifvqhng","pricing_plan_id":"cebpf4jnsgd1na2vs0mg"},{"bike_id":"a9b78ccc-48f0-4502-b89e-0369c4bf7b0b","system_id":"levelo_inurba_marseille","lat":43.23178,"lon":5.39986,"is_reserved":false,"is_disabled":false,"rental_uris":{"android":"levelo://app?vid=a9b78ccc-48f0-4502-b89e-0369c4bf7b0b","ios":"levelo://app?vid=a9b78ccc-48f0-4502-b89e-0369c4bf7b0b"},"vehicle_type_id":"4","last_reported":1746468716,"current_range_meters":16000,"station_id":"ce4bhn12rcd13ifvqgqg","pricing_plan_id":"cebpf4jnsgd1na2vs0mg"},{"bike_id":"a585eaa8-7b08-4c52-a6f5-31ebe06d1de5","system_id":"levelo_inurba_marseille","lat":43.23156,"lon":5.43707,"is_reserved":false,"is_disabled":false,"rental_uris":{"android":"levelo://app?vid=a585eaa8-7b08-4c52-a6f5-31ebe06d1de5","ios":"levelo://app?vid=a585eaa8-7b08-4c52-a6f5-31ebe06d1de5"},"vehicle_type_id":"4","last_reported":1746468716,"current_range_meters":15200,"station_id":"ce4bhmp2rcd13ifvqgog","pricing_plan_id":"cebpf4jnsgd1na2vs0mg"},{"bike_id":"51bfff36-2c60-475a-86b4-41c006e26828","system_id":"levelo_inurba_marseille","lat":43.27835,"lon":5.392,"is_reserved":false,"is_disabled":false,"rental_uris":{"android":"levelo://app?vid=51bfff36-2c60-475a-86b4-41c006e26828","ios":"levelo://app?vid=51bfff36-2c60-475a-86b4-41c006e26828"},"vehicle_type_id":"4","last_reported":1746468716,"current_range_meters":16400,"station_id":"ce4bhjp2rcd13ifvqga0","pricing_plan_id":"cebpf4jnsgd1na2vs0mg"},{"bike_id":"4ded04a0-056f-4149-a7e3-2271a2e7fba0","system_id":"levelo_inurba_marseille","lat":43.23965,"lon":5.36629,"is_reserved":false,"is_disabled":false,"rental_uris":{"android":"levelo://app?vid=4ded04a0-056f-4149-a7e3-2271a2e7fba0","ios":"levelo://app?vid=4ded04a0-056f-4149-a7e3-2271a2e7fba0"},"vehicle_type_id":"4","last_reported":1746468716,"current_range_meters":16400,"station_id":"ce4bhi12rcd13ifvqfp0","pricing_plan_id":"cebpf4jnsgd1na2vs0mg"},{"bike_id":"5a7d2749-ecbc-4351-94f2-8339d95d4c06","system_id":"levelo_inurba_marseille","lat":43.3154,"lon":5.38035,"is_reserved":false,"is_disabled":false,"rental_uris":{"android":"levelo://app?vid=5a7d2749-ecbc-4351-94f2-8339d95d4c06","ios":"levelo://app?vid=5a7d2749-ecbc-4351-94f2-8339d95d4c06"},"vehicle_type_id":"4","last_reported":1746468716,"current_range_meters":16400,"station_id":"ce4bhsp2rcd13ifvqi50","pricing_plan_id":"cebpf4jnsgd1na2vs0mg"},{"bike_id":"0550c4a9-fee9-4f8c-a769-63a0e76b25ea","system_id":"levelo_inurba_marseille","lat":43.24541,"lon":5.39511,"is_reserved":false,"is_disabled":false,"rental_uris":{"android":"levelo://app?vid=0550c4a9-fee9-4f8c-a769-63a0e76b25ea","ios":"levelo://app?vid=0550c4a9-fee9-4f8c-a769-63a0e76b25ea"},"vehicle_type_id":"4","last_reported":1746468716,"current_range_meters":16400,"station_id":"ce4bhlp2rcd13ifvqgjg","pricing_plan_id":"cebpf4jnsgd1na2vs0mg"},{"bike_id":"44c2bfb7-3fdc-4727-8072-840b49e408d0","system_id":"levelo_inurba_marseille","lat":43.27822,"lon":5.4067,"is_reserved":false,"is_disabled":false,"rental_uris":{"android":"levelo://app?vid=44c2bfb7-3fdc-4727-8072-840b49e408d0","ios":"levelo://app?vid=44c2bfb7-3fdc-4727-8072-840b49e408d0"},"vehicle_type_id":"4","last_reported":1746468716,"current_range_meters":16400,"station_id":"ce4bhnh2rcd13ifvqgtg","pricing_plan_id":"cebpf4jnsgd1na2vs0mg"},{"bike_id":"7ca09d8d-51db-4057-abe2-e9c1bdbcdfac","system_id":"levelo_inurba_marseille","lat":43.22914,"lon":5.35382,"is_reserved":false,"is_disabled":true,"rental_uris":{"android":"levelo://app?vid=7ca09d8d-51db-4057-abe2-e9c1bdbcdfac","ios":"levelo://app?vid=7ca09d8d-51db-4057-abe2-e9c1bdbcdfac"},"vehicle_type_id":"4","last_reported":1746468716,"current_range_meters":16400,"station_id":"cpo3532slgdg3j2ikp40","pricing_plan_id":"cebpf4jnsgd1na2vs0mg"},{"bike_id":"5b234779-1003-41e8-850d-32edea3ea4bc","system_id":"levelo_inurba_marseille","lat":43.28151,"lon":5.42637,"is_reserved":false,"is_disabled":false,"rental_uris":{"android":"levelo://app?vid=5b234779-1003-41e8-850d-32edea3ea4bc","ios":"levelo://app?vid=5b234779-1003-41e8-850d-32edea3ea4bc"},"vehicle_type_id":"4","last_reported":1746468716,"current_range_meters":16400,"station_id":"ce4bhnh2rcd13ifvqgug","pricing_plan_id":"cebpf4jnsgd1na2vs0mg"},{"bike_id":"21775e69-04f5-440c-b39e-fc24776c213a","system_id":"levelo_inurba_marseille","lat":43.28936,"lon":5.36643,"is_reserved":false,"is_disabled":false,"rental_uris":{"android":"levelo://app?vid=21775e69-04f5-440c-b39e-fc24776c213a","ios":"levelo://app?vid=21775e69-04f5-440c-b39e-fc24776c213a"},"vehicle_type_id":"4","last_reported":1746468716,"current_range_meters":16800,"station_id":"ce4bhap2rcd13ifvqek0","pricing_plan_id":"cebpf4jnsgd1na2vs0mg"},{"bike_id":"4b316028-8f5c-4f2f-8d5c-44bd43218f10","system_id":"levelo_inurba_marseille","lat":43.28717,"lon":5.37942,"is_reserved":false,"is_disabled":false,"rental_uris":{"android":"levelo://app?vid=4b316028-8f5c-4f2f-8d5c-44bd43218f10","ios":"levelo://app?vid=4b316028-8f5c-4f2f-8d5c-44bd43218f10"},"vehicle_type_id":"4","last_reported":1746468716,"current_range_meters":16400,"station_id":"ce4bh9p2rcd13ifvqec0","pricing_plan_id":"cebpf4jnsgd1na2vs0mg"},{"bike_id":"c08a3962-ba17-4177-94a7-b9d259bbd356","system_id":"levelo_inurba_marseille","lat":43.259254,"lon":5.398607,"is_reserved":false,"is_disabled":false,"rental_uris":{"android":"levelo://app?vid=c08a3962-ba17-4177-94a7-b9d259bbd356","ios":"levelo://app?vid=c08a3962-ba17-4177-94a7-b9d259bbd356"},"vehicle_type_id":"4","last_reported":1746468716,"current_range_meters":16800,"station_id":"ce4bhl92rcd13ifvqghg","pricing_plan_id":"cebpf4jnsgd1na2vs0mg"},{"bike_id":"99097e50-dd2e-47c3-a879-f48655baf4d9","system_id":"levelo_inurba_marseille","lat":43.2459,"lon":5.40828,"is_reserved":false,"is_disabled":false,"rental_uris":{"android":"levelo://app?vid=99097e50-dd2e-47c3-a879-f48655baf4d9","ios":"levelo://app?vid=99097e50-dd2e-47c3-a879-f48655baf4d9"},"vehicle_type_id":"4","last_reported":1746468716,"current_range_meters":16800,"station_id":"","pricing_plan_id":"cebpf4jnsgd1na2vs0mg"},{"bike_id":"e3bb4c0a-ea28-4d8b-a92a-340ecfdd5f1d","system_id":"levelo_inurba_marseille","lat":43.31045,"lon":5.375562,"is_reserved":false,"is_disabled":false,"rental_uris":{"android":"levelo://app?vid=e3bb4c0a-ea28-4d8b-a92a-340ecfdd5f1d","ios":"levelo://app?vid=e3bb4c0a-ea28-4d8b-a92a-340ecfdd5f1d"},"vehicle_type_id":"4","last_reported":1746468716,"current_range_meters":16800,"station_id":"","pricing_plan_id":"cebpf4jnsgd1na2vs0mg"},{"bike_id":"a768d16b-ccba-4977-b9ae-df69e8683bd3","system_id":"levelo_inurba_marseille","lat":43.31364,"lon":5.38494,"is_reserved":false,"is_disabled":false,"rental_uris":{"android":"levelo://app?vid=a768d16b-ccba-4977-b9ae-df69e8683bd3","ios":"levelo://app?vid=a768d16b-ccba-4977-b9ae-df69e8683bd3"},"vehicle_type_id":"4","last_reported":1746468716,"current_range_meters":16400,"station_id":"ce4bgt92rcd13ifvqcf0","pricing_plan_id":"cebpf4jnsgd1na2vs0mg"},{"bike_id":"144c51af-426b-42d7-b56e-922177862b14","system_id":"levelo_inurba_marseille","lat":43.31078,"lon":5.38346,"is_reserved":false,"is_disabled":false,"rental_uris":{"android":"levelo://app?vid=144c51af-426b-42d7-b56e-922177862b14","ios":"levelo://app?vid=144c51af-426b-42d7-b56e-922177862b14"},"vehicle_type_id":"4","last_reported":1746468716,"current_range_meters":16800,"station_id":"ce4bgv92rcd13ifvqcr0","pricing_plan_id":"cebpf4jnsgd1na2vs0mg"},{"bike_id":"bfb768d4-db43-4db8-8659-afeb33dd4edd","system_id":"levelo_inurba_marseille","lat":43.3076,"lon":5.42453,"is_reserved":false,"is_disabled":false,"rental_uris":{"android":"levelo://app?vid=bfb768d4-db43-4db8-8659-afeb33dd4edd","ios":"levelo://app?vid=bfb768d4-db43-4db8-8659-afeb33dd4edd"},"vehicle_type_id":"4","last_reported":1746468716,"current_range_meters":16800,"station_id":"st_cvj6ca6bvosntc0bfgr0","pricing_plan_id":"cebpf4jnsgd1na2vs0mg"},{"bike_id":"1e95a8fa-adb0-4976-961e-3e8bdd36e5b5","system_id":"levelo_inurba_marseille","lat":43.296286,"lon":5.377174,"is_reserved":false,"is_disabled":false,"rental_uris":{"android":"levelo://app?vid=1e95a8fa-adb0-4976-961e-3e8bdd36e5b5","ios":"levelo://app?vid=1e95a8fa-adb0-4976-961e-3e8bdd36e5b5"},"vehicle_type_id":"4","last_reported":1746468716,"current_range_meters":16800,"station_id":"ce4bgi92rcd13ifvqb90","pricing_plan_id":"cebpf4jnsgd1na2vs0mg"},{"bike_id":"7f366af6-564a-4edd-a242-dba0334e2f67","system_id":"levelo_inurba_marseille","lat":43.28855,"lon":5.3931,"is_reserved":false,"is_disabled":false,"rental_uris":{"android":"levelo://app?vid=7f366af6-564a-4edd-a242-dba0334e2f67","ios":"levelo://app?vid=7f366af6-564a-4edd-a242-dba0334e2f67"},"vehicle_type_id":"4","last_reported":1746468716,"current_range_meters":16400,"station_id":"ce4bh2p2rcd13ifvqdi0","pricing_plan_id":"cebpf4jnsgd1na2vs0mg"},{"bike_id":"3f84d55c-f7b3-443f-a8ba-1f83ba8291a2","system_id":"levelo_inurba_marseille","lat":43.21197,"lon":5.35077,"is_reserved":false,"is_disabled":false,"rental_uris":{"android":"levelo://app?vid=3f84d55c-f7b3-443f-a8ba-1f83ba8291a2","ios":"levelo://app?vid=3f84d55c-f7b3-443f-a8ba-1f83ba8291a2"},"vehicle_type_id":"4","last_reported":1746468716,"current_range_meters":16800,"station_id":"st_cvj6sg6p6f1abm77japg","pricing_plan_id":"cebpf4jnsgd1na2vs0mg"},{"bike_id":"51deaff6-11c6-47e1-bf83-b8a707ddab2a","system_id":"levelo_inurba_marseille","lat":43.28412,"lon":5.34976,"is_reserved":false,"is_disabled":false,"rental_uris":{"android":"levelo://app?vid=51deaff6-11c6-47e1-bf83-b8a707ddab2a","ios":"levelo://app?vid=51deaff6-11c6-47e1-bf83-b8a707ddab2a"},"vehicle_type_id":"4","last_reported":1746468716,"current_range_meters":16800,"station_id":"ce4bhbh2rcd13ifvqepg","pricing_plan_id":"cebpf4jnsgd1na2vs0mg"},{"bike_id":"9203a8a7-4635-4f5e-8fd4-f0608d912165","system_id":"levelo_inurba_marseille","lat":43.30429,"lon":5.39745,"is_reserved":false,"is_disabled":false,"rental_uris":{"android":"levelo://app?vid=9203a8a7-4635-4f5e-8fd4-f0608d912165","ios":"levelo://app?vid=9203a8a7-4635-4f5e-8fd4-f0608d912165"},"vehicle_type_id":"4","last_reported":1746468716,"current_range_meters":17200,"station_id":"ce4bh092rcd13ifvqd20","pricing_plan_id":"cebpf4jnsgd1na2vs0mg"},{"bike_id":"62abd1a7-7a0b-4601-b7d9-44b92d8d2d1e","system_id":"levelo_inurba_marseille","lat":43.28105,"lon":5.37839,"is_reserved":false,"is_disabled":false,"rental_uris":{"android":"levelo://app?vid=62abd1a7-7a0b-4601-b7d9-44b92d8d2d1e","ios":"levelo://app?vid=62abd1a7-7a0b-4601-b7d9-44b92d8d2d1e"},"vehicle_type_id":"4","last_reported":1746468716,"current_range_meters":17200,"station_id":"ce4bha12rcd13ifvqee0","pricing_plan_id":"cebpf4jnsgd1na2vs0mg"},{"bike_id":"d9766e1c-c799-4d16-aa57-1d47be3d5579","system_id":"levelo_inurba_marseille","lat":43.326639,"lon":5.404284,"is_reserved":false,"is_disabled":false,"rental_uris":{"android":"levelo://app?vid=d9766e1c-c799-4d16-aa57-1d47be3d5579","ios":"levelo://app?vid=d9766e1c-c799-4d16-aa57-1d47be3d5579"},"vehicle_type_id":"4","last_reported":1746468716,"current_range_meters":17200,"station_id":"","pricing_plan_id":"cebpf4jnsgd1na2vs0mg"},{"bike_id":"9f21081b-8a48-476a-8229-0a1a4ab4504e","system_id":"levelo_inurba_marseille","lat":43.29226,"lon":5.36063,"is_reserved":false,"is_disabled":false,"rental_uris":{"android":"levelo://app?vid=9f21081b-8a48-476a-8229-0a1a4ab4504e","ios":"levelo://app?vid=9f21081b-8a48-476a-8229-0a1a4ab4504e"},"vehicle_type_id":"4","last_reported":1746468716,"current_range_meters":17200,"station_id":"ce4bhbh2rcd13ifvqeqg","pricing_plan_id":"cebpf4jnsgd1na2vs0mg"},{"bike_id":"c9dc81af-061d-468d-8681-3d9cca8fb98b","system_id":"levelo_inurba_marseille","lat":43.29793,"lon":5.40406,"is_reserved":false,"is_disabled":false,"rental_uris":{"android":"levelo://app?vid=c9dc81af-061d-468d-8681-3d9cca8fb98b","ios":"levelo://app?vid=c9dc81af-061d-468d-8681-3d9cca8fb98b"},"vehicle_type_id":"4","last_reported":1746468716,"current_range_meters":17200,"station_id":"ce4bh112rcd13ifvqd90","pricing_plan_id":"cebpf4jnsgd1na2vs0mg"},{"bike_id":"5987d684-ebbc-4e3b-9225-d827a0b9ff39","system_id":"levelo_inurba_marseille","lat":43.239626,"lon":5.366434,"is_reserved":false,"is_disabled":false,"rental_uris":{"android":"levelo://app?vid=5987d684-ebbc-4e3b-9225-d827a0b9ff39","ios":"levelo://app?vid=5987d684-ebbc-4e3b-9225-d827a0b9ff39"},"vehicle_type_id":"4","last_reported":1746468716,"current_range_meters":17200,"station_id":"ce4bhi12rcd13ifvqfp0","pricing_plan_id":"cebpf4jnsgd1na2vs0mg"},{"bike_id":"d3abf60f-138d-4950-87e7-cbce26cf6659","system_id":"levelo_inurba_marseille","lat":43.28092,"lon":5.37832,"is_reserved":false,"is_disabled":false,"rental_uris":{"android":"levelo://app?vid=d3abf60f-138d-4950-87e7-cbce26cf6659","ios":"levelo://app?vid=d3abf60f-138d-4950-87e7-cbce26cf6659"},"vehicle_type_id":"4","last_reported":1746468716,"current_range_meters":16800,"station_id":"ce4bha12rcd13ifvqee0","pricing_plan_id":"cebpf4jnsgd1na2vs0mg"},{"bike_id":"8cc64fbf-2e58-4ac1-af85-a1c80329c809","system_id":"levelo_inurba_marseille","lat":43.3042,"lon":5.39747,"is_reserved":false,"is_disabled":false,"rental_uris":{"android":"levelo://app?vid=8cc64fbf-2e58-4ac1-af85-a1c80329c809","ios":"levelo://app?vid=8cc64fbf-2e58-4ac1-af85-a1c80329c809"},"vehicle_type_id":"4","last_reported":1746468716,"current_range_meters":17200,"station_id":"ce4bh092rcd13ifvqd20","pricing_plan_id":"cebpf4jnsgd1na2vs0mg"},{"bike_id":"7d74f6e3-15c1-421e-a4d1-156fb7a7e964","system_id":"levelo_inurba_marseille","lat":43.29712,"lon":5.366147,"is_reserved":false,"is_disabled":false,"rental_uris":{"android":"levelo://app?vid=7d74f6e3-15c1-421e-a4d1-156fb7a7e964","ios":"levelo://app?vid=7d74f6e3-15c1-421e-a4d1-156fb7a7e964"},"vehicle_type_id":"4","last_reported":1746468716,"current_range_meters":17600,"station_id":"ce4bgn12rcd13ifvqbt0","pricing_plan_id":"cebpf4jnsgd1na2vs0mg"},{"bike_id":"fbfacbf9-7d0d-4224-9907-85b6492888e4","system_id":"levelo_inurba_marseille","lat":43.27615,"lon":5.36113,"is_reserved":false,"is_disabled":false,"rental_uris":{"android":"levelo://app?vid=fbfacbf9-7d0d-4224-9907-85b6492888e4","ios":"levelo://app?vid=fbfacbf9-7d0d-4224-9907-85b6492888e4"},"vehicle_type_id":"4","last_reported":1746468716,"current_range_meters":17600,"station_id":"ce4bgj92rcd13ifvqbe0","pricing_plan_id":"cebpf4jnsgd1na2vs0mg"},