{"last_updated":1684076783,"ttl":30,"version":"2.2","data":{"bikes":[{"bike_id":"e6987441-362a-40f3-92bc-e5f9ecf6b8a9","system_id":"levelo_inurba_marseille","lat":43.31341,"lon":5.367098,"is_reserved":false,"is_disabled":false,"rental_uris":{"android":"levelo://app?vid=e6987441-362a-40f3-92bc-e5f9ecf6b8a9","ios":"levelo://app?vid=e6987441-362a-40f3-92bc-e5f9ecf6b8a9"},"vehicle_type_id":"4","last_reported":1684076784,"current_range_meters":31200,"station_id":"ce4bgr92rcd13ifvqc6g","pricing_plan_id":"free"},{"bike_id":"24abea9d-acff-40a0-8816-0a2f4e1dca42","system_id":"levelo_inurba_marseille","lat":43.31341,"lon":5.367098,"is_reserved":false,"is_disabled":false,"rental_uris":{"android":"levelo://app?vid=24abea9d-acff-40a0-8816-0a2f4e1dca42","ios":"levelo://app?vid=24abea9d-acff-40a0-8816-0a2f4e1dca42"},"vehicle_type_id":"4","last_reported":1684076784,"current_range_meters":31600,"station_id":"ce4bgr92rcd13ifvqc6g","pricing_plan_id":"free"},{"bike_id":"78639281-da9b-4878-980b-0e688644d586","system_id":"levelo_inurba_marseille","lat":43.31197,"lon":5.36782,"is_reserved":false,"is_disabled":false,"rental_uris":{"android":"levelo://app?vid=78639281-da9b-4878-980b-0e688644d586","ios":"levelo://app?vid=78639281-da9b-4878-980b-0e688644d586"},"vehicle_type_id":"4","last_reported":1684076784,"current_range_meters":31200,"station_id":"","pricing_plan_id":"free"},{"bike_id":"ad3f168f-f100-47cf-9f3c-42c40ee79028","system_id":"levelo_inurba_marseille","lat":43.314811,"lon":5.373103,"is_reserved":false,"is_disabled":false,"rental_uris":{"android":"levelo://app?vid=ad3f168f-f100-47cf-9f3c-42c40ee79028","ios":"levelo://app?vid=ad3f168f-f100-47cf-9f3c-42c40ee79028"},"vehicle_type_id":"4","last_reported":1684076784,"current_range_meters":22400,"station_id":"ce4bgt12rcd13ifvqcd0","pricing_plan_id":"free"},{"bike_id":"ef42665b-7a58-430a-a09b-24ad7325a98d","system_id":"levelo_inurba_marseille","lat":43.30588,"lon":5.36563,"is_reserved":false,"is_disabled":false,"rental_uris":{"android":"levelo://app?vid=ef42665b-7a58-430a-a09b-24ad7325a98d","ios":"levelo://app?vid=ef42665b-7a58-430a-a09b-24ad7325a98d"},"vehicle_type_id":"4","last_reported":1684076784,"current_range_meters":11600,"station_id":"","pricing_plan_id":"free"},{"bike_id":"b3de2d04-feb4-43b7-99d8-00f433ec2048","system_id":"levelo_inurba_marseille","lat":43.305989,"lon":5.37225,"is_reserved":false,"is_disabled":false,"rental_uris":{"android":"levelo://app?vid=b3de2d04-feb4-43b7-99d8-00f433ec2048","ios":"levelo://app?vid=b3de2d04-feb4-43b7-99d8-00f433ec2048"},"vehicle_type_id":"4","last_reported":1684076784,"current_range_meters":19600,"station_id":"ce4bgqh2rcd13ifvqc4g","pricing_plan_id":"free"},{"bike_id":"151d50bc-3aee-48d5-9527-783274464e00","system_id":"levelo_inurba_marseille","lat":43.31203,"lon":5.37774,"is_reserved":false,"is_disabled":false,"rental_uris":{"android":"levelo://app?vid=151d50bc-3aee-48d5-9527-783274464e00","ios":"levelo://app?vid=151d50bc-3aee-48d5-9527-783274464e00"},"vehicle_type_id":"4","last_reported":1684076784,"current_range_meters":8400,"station_id":"","pricing_plan_id":"free"},{"bike_id":"3e940e9e-3e94-4c89-87ba-501bbdb23fb7","system_id":"levelo_inurba_marseille","lat":43.315289,"lon":5.380349,"is_reserved":false,"is_disabled":false,"rental_uris":{"android":"levelo://app?vid=3e940e9e-3e94-4c89-87ba-501bbdb23fb7","ios":"levelo://app?vid=3e940e9e-3e94-4c89-87ba-501bbdb23fb7"},"vehicle_type_id":"4","last_reported":1684076784,"current_range_meters":27600,"station_id":"ce4bhsp2rcd13ifvqi50","pricing_plan_id":"free"},{"bike_id":"2677b3ad-b20f-4911-bacc-dc9f34fa9d3d","system_id":"levelo_inurba_marseille","lat":43.315289,"lon":5.380349,"is_reserved":false,"is_disabled":false,"rental_uris":{"android":"levelo://app?vid=2677b3ad-b20f-4911-bacc-dc9f34fa9d3d","ios":"levelo://app?vid=2677b3ad-b20f-4911-bacc-dc9f34fa9d3d"},"vehicle_type_id":"4","last_reported":1684076784,"current_range_meters":7600,"station_id":"ce4bhsp2rcd13ifvqi50","pricing_plan_id":"free"},{"bike_id":"a6b67982-cdbd-4cb4-935f-0c7e64856e4c","system_id":"levelo_inurba_marseille","lat":43.315289,"lon":5.380349,"is_reserved":false,"is_disabled":false,"rental_uris":{"android":"levelo://app?vid=a6b67982-cdbd-4cb4-935f-0c7e64856e4c","ios":"levelo://app?vid=a6b67982-cdbd-4cb4-935f-0c7e64856e4c"},"vehicle_type_id":"4","last_reported":1684076784,"current_range_meters":10000,"station_id":"ce4bhsp2rcd13ifvqi50","pricing_plan_id":"free"},{"bike_id":"a2133e39-564e-45ae-92e6-76406705e910","system_id":"levelo_inurba_marseille","lat":43.315289,"lon":5.380349,"is_reserved":false,"is_disabled":false,"rental_uris":{"android":"levelo://app?vid=a2133e39-564e-45ae-92e6-76406705e910","ios":"levelo://app?vid=a2133e39-564e-45ae-92e6-76406705e910"},"vehicle_type_id":"4","last_reported":1684076784,"current_range_meters":1200,"station_id":"ce4bhsp2rcd13ifvqi50","pricing_plan_id":"free"},{"bike_id":"4615f0de-9e62-4239-90b7-f7d89ac2b872","system_id":"levelo_inurba_marseille","lat":43.301939,"lon":5.366286,"is_reserved":false,"is_disabled":false,"rental_uris":{"android":"levelo://app?vid=4615f0de-9e62-4239-90b7-f7d89ac2b872","ios":"levelo://app?vid=4615f0de-9e62-4239-90b7-f7d89ac2b872"},"vehicle_type_id":"4","last_reported":1684076784,"current_range_meters":30400,"station_id":"ce4bgrh2rcd13ifvqc8g","pricing_plan_id":"free"},{"bike_id":"6fdec487-2938-4675-9be8-675394215490","system_id":"levelo_inurba_marseille","lat":43.304606,"lon":5.379026,"is_reserved":false,"is_disabled":false,"rental_uris":{"android":"levelo://app?vid=6fdec487-2938-4675-9be8-675394215490","ios":"levelo://app?vid=6fdec487-2938-4675-9be8-675394215490"},"vehicle_type_id":"4","last_reported":1684076784,"current_range_meters":28400,"station_id":"ce4bgup2rcd13ifvqcn0","pricing_plan_id":"free"},{"bike_id":"16903008-2a3e-4b1f-b108-71718606ebd1","system_id":"levelo_inurba_marseille","lat":43.304606,"lon":5.379026,"is_reserved":false,"is_disabled":false,"rental_uris":{"android":"levelo://app?vid=16903008-2a3e-4b1f-b108-71718606ebd1","ios":"levelo://app?vid=16903008-2a3e-4b1f-b108-71718606ebd1"},"vehicle_type_id":"4","last_reported":1684076784,"current_range_meters":16800,"station_id":"ce4bgup2rcd13ifvqcn0","pricing_plan_id":"free"},{"bike_id":"6b476d42-83c7-4ae1-9ddf-7bcc423848e5","system_id":"levelo_inurba_marseille","lat":43.304606,"lon":5.379026,"is_reserved":false,"is_disabled":false,"rental_uris":{"android":"levelo://app?vid=6b476d42-83c7-4ae1-9ddf-7bcc423848e5","ios":"levelo://app?vid=6b476d42-83c7-4ae1-9ddf-7bcc423848e5"},"vehicle_type_id":"4","last_reported":1684076784,"current_range_meters":28000,"station_id":"ce4bgup2rcd13ifvqcn0","pricing_plan_id":"free"},{"bike_id":"854e7bb6-ec05-4961-9273-221326f275dc","system_id":"levelo_inurba_marseille","lat":43.30155,"lon":5.374195,"is_reserved":false,"is_disabled":false,"rental_uris":{"android":"levelo://app?vid=854e7bb6-ec05-4961-9273-221326f275dc","ios":"levelo://app?vid=854e7bb6-ec05-4961-9273-221326f275dc"},"vehicle_type_id":"4","last_reported":1684076784,"current_range_meters":17600,"station_id":"ce4bgs92rcd13ifvqcc0","pricing_plan_id":"free"},{"bike_id":"a06595ea-4675-48ce-9119-4d7f2f3fee42","system_id":"levelo_inurba_marseille","lat":43.30143,"lon":5.37412,"is_reserved":false,"is_disabled":false,"rental_uris":{"android":"levelo://app?vid=a06595ea-4675-48ce-9119-4d7f2f3fee42","ios":"levelo://app?vid=a06595ea-4675-48ce-9119-4d7f2f3fee42"},"vehicle_type_id":"4","last_reported":1684076784,"current_range_meters":25200,"station_id":"ce4bgs92rcd13ifvqcc0","pricing_plan_id":"free"},{"bike_id":"d34d964a-7acc-4ea2-a5af-128f7c8df9b8","system_id":"levelo_inurba_marseille","lat":43.31354,"lon":5.38497,"is_reserved":false,"is_disabled":false,"rental_uris":{"android":"levelo://app?vid=d34d964a-7acc-4ea2-a5af-128f7c8df9b8","ios":"levelo://app?vid=d34d964a-7acc-4ea2-a5af-128f7c8df9b8"},"vehicle_type_id":"4","last_reported":1684076784,"current_range_meters":2000,"station_id":"ce4bgt92rcd13ifvqcf0","pricing_plan_id":"free"},{"bike_id":"cbd50b8b-552d-4f43-85dd-48a70e556978","system_id":"levelo_inurba_marseille","lat":43.298433,"lon":5.362774,"is_reserved":false,"is_disabled":false,"rental_uris":{"android":"levelo://app?vid=cbd50b8b-552d-4f43-85dd-48a70e556978","ios":"levelo://app?vid=cbd50b8b-552d-4f43-85dd-48a70e556978"},"vehicle_type_id":"4","last_reported":1684076784,"current_range_meters":5200,"station_id":"ce4bgpp2rcd13ifvqc3g","pricing_plan_id":"free"},{"bike_id":"2f96f4b7-d3f1-4b87-b98f-caf50ba6d13d","system_id":"levelo_inurba_marseille","lat":43.32761,"lon":5.36688,"is_reserved":false,"is_disabled":false,"rental_uris":{"android":"levelo://app?vid=2f96f4b7-d3f1-4b87-b98f-caf50ba6d13d","ios":"levelo://app?vid=2f96f4b7-d3f1-4b87-b98f-caf50ba6d13d"},"vehicle_type_id":"4","last_reported":1684076784,"current_range_meters":7200,"station_id":"","pricing_plan_id":"free"},{"bike_id":"b449a4e4-2b40-420f-9a30-3bbbb718557f","system_id":"levelo_inurba_marseille","lat":43.328371,"lon":5.366912,"is_reserved":false,"is_disabled":false,"rental_uris":{"android":"levelo://app?vid=b449a4e4-2b40-420f-9a30-3bbbb718557f","ios":"levelo://app?vid=b449a4e4-2b40-420f-9a30-3bbbb718557f"},"vehicle_type_id":"4","last_reported":1684076784,"current_range_meters":16000,"station_id":"ce4bhs92rcd13ifvqi0g","pricing_plan_id":"free"},{"bike_id":"34c470f1-ed41-47d6-8d65-5c286939ee04","system_id":"levelo_inurba_marseille","lat":43.328371,"lon":5.366912,"is_reserved":false,"is_disabled":false,"rental_uris":{"android":"levelo://app?vid=34c470f1-ed41-47d6-8d65-5c286939ee04","ios":"levelo://app?vid=34c470f1-ed41-47d6-8d65-5c286939ee04"},"vehicle_type_id":"4","last_reported":1684076784,"current_range_meters":16000,"station_id":"ce4bhs92rcd13ifvqi0g","pricing_plan_id":"free"},{"bike_id":"8b551262-3438-4831-9812-be7a47f77893","system_id":"levelo_inurba_marseille","lat":43.328371,"lon":5.366909,"is_reserved":false,"is_disabled":false,"rental_uris":{"android":"levelo://app?vid=8b551262-3438-4831-9812-be7a47f77893","ios":"levelo://app?vid=8b551262-3438-4831-9812-be7a47f77893"},"vehicle_type_id":"4","last_reported":1684076784,"current_range_meters":29600,"station_id":"ce4bhs92rcd13ifvqi0g","pricing_plan_id":"free"},{"bike_id":"3f1ee445-79dc-4a77-99ec-f861244bce43","system_id":"levelo_inurba_marseille","lat":43.32827,"lon":5.36688,"is_reserved":false,"is_disabled":false,"rental_uris":{"android":"levelo://app?vid=3f1ee445-79dc-4a77-99ec-f861244bce43","ios":"levelo://app?vid=3f1ee445-79dc-4a77-99ec-f861244bce43"},"vehicle_type_id":"4","last_reported":1684076784,"current_range_meters":20400,"station_id":"ce4bhs92rcd13ifvqi0g","pricing_plan_id":"free"},{"bike_id":"aaca5fdf-1dee-4b81-aa4f-2d7102ec2d0c","system_id":"levelo_inurba_marseille","lat":43.32827,"lon":5.36682,"is_reserved":false,"is_disabled":false,"rental_uris":{"android":"levelo://app?vid=aaca5fdf-1dee-4b81-aa4f-2d7102ec2d0c","ios":"levelo://app?vid=aaca5fdf-1dee-4b81-aa4f-2d7102ec2d0c"},"vehicle_type_id":"4","last_reported":1684076784,"current_range_meters":18800,"station_id":"ce4bhs92rcd13ifvqi0g","pricing_plan_id":"free"},{"bike_id":"acb3285f-1a59-4939-bacf-1321efdfa740","system_id":"levelo_inurba_marseille","lat":43.32827,"lon":5.36682,"is_reserved":false,"is_disabled":false,"rental_uris":{"android":"levelo://app?vid=acb3285f-1a59-4939-bacf-1321efdfa740","ios":"levelo://app?vid=acb3285f-1a59-4939-bacf-1321efdfa740"},"vehicle_type_id":"4","last_reported":1684076784,"current_range_meters":23600,"station_id":"ce4bhs92rcd13ifvqi0g","pricing_plan_id":"free"},{"bike_id":"ad50fbdc-6818-49a3-976a-84468e8cc53b","system_id":"levelo_inurba_marseille","lat":43.328371,"lon":5.366912,"is_reserved":false,"is_disabled":false,"rental_uris":{"android":"levelo://app?vid=ad50fbdc-6818-49a3-976a-84468e8cc53b","ios":"levelo://app?vid=ad50fbdc-6818-49a3-976a-84468e8cc53b"},"vehicle_type_id":"4","last_reported":1684076784,"current_range_meters":31200,"station_id":"ce4bhs92rcd13ifvqi0g","pricing_plan_id":"free"},{"bike_id":"5bc79a87-8c51-4256-972d-10ecdbdb6305","system_id":"levelo_inurba_marseille","lat":43.328371,"lon":5.366912,"is_reserved":false,"is_disabled":false,"rental_uris":{"android":"levelo://app?vid=5bc79a87-8c51-4256-972d-10ecdbdb6305","ios":"levelo://app?vid=5bc79a87-8c51-4256-972d-10ecdbdb6305"},"vehicle_type_id":"4","last_reported":1684076784,"current_range_meters":14800,"station_id":"ce4bhs92rcd13ifvqi0g","pricing_plan_id":"free"},{"bike_id":"98fc616f-05d8-4d1d-9c58-d04644bf4fef","system_id":"levelo_inurba_marseille","lat":43.328371,"lon":5.366912,"is_reserved":false,"is_disabled":false,"rental_uris":{"android":"levelo://app?vid=98fc616f-05d8-4d1d-9c58-d04644bf4fef","ios":"levelo://app?vid=98fc616f-05d8-4d1d-9c58-d04644bf4fef"},"vehicle_type_id":"4","last_reported":1684076784,"current_range_meters":28400,"station_id":"ce4bhs92rcd13ifvqi0g","pricing_plan_id":"free"},{"bike_id":"ef619222-d86f-4984-a46f-cda033f9cc5b","system_id":"levelo_inurba_marseille","lat":43.328371,"lon":5.366912,"is_reserved":false,"is_disabled":false,"rental_uris":{"android":"levelo://app?vid=ef619222-d86f-4984-a46f-cda033f9cc5b","ios":"levelo://app?vid=ef619222-d86f-4984-a46f-cda033f9cc5b"},"vehicle_type_id":"4","last_reported":1684076784,"current_range_meters":29600,"station_id":"ce4bhs92rcd13ifvqi0g","pricing_plan_id":"free"},{"bike_id":"216acc05-cd3c-4a35-b67b-82ab6e8e46bc","system_id":"levelo_inurba_marseille","lat":43.32831,"lon":5.36686,"is_reserved":false,"is_disabled":false,"rental_uris":{"android":"levelo://app?vid=216acc05-cd3c-4a35-b67b-82ab6e8e46bc","ios":"levelo://app?vid=216acc05-cd3c-4a35-b67b-82ab6e8e46bc"},"vehicle_type_id":"4","last_reported":1684076784,"current_range_meters":15200,"station_id":"ce4bhs92rcd13ifvqi0g","pricing_plan_id":"free"},{"bike_id":"439e171b-885c-4b84-971d-3c43043903d7","system_id":"levelo_inurba_marseille","lat":43.328371,"lon":5.366912,"is_reserved":false,"is_disabled":false,"rental_uris":{"android":"levelo://app?vid=439e171b-885c-4b84-971d-3c43043903d7","ios":"levelo://app?vid=439e171b-885c-4b84-971d-3c43043903d7"},"vehicle_type_id":"4","last_reported":1684076784,"current_range_meters":23200,"station_id":"ce4bhs92rcd13ifvqi0g","pricing_plan_id":"free"},{"bike_id":"f7e16b9b-dda5-4bba-9d80-00bc064f0f46","system_id":"levelo_inurba_marseille","lat":43.32834,"lon":5.36689,"is_reserved":false,"is_disabled":false,"rental_uris":{"android":"levelo://app?vid=f7e16b9b-dda5-4bba-9d80-00bc064f0f46","ios":"levelo://app?vid=f7e16b9b-dda5-4bba-9d80-00bc064f0f46"},"vehicle_type_id":"4","last_reported":1684076784,"current_range_meters":13600,"station_id":"ce4bhs92rcd13ifvqi0g","pricing_plan_id":"free"},{"bike_id":"19dbfe5d-9e77-4915-8c62-a8b2b75c629f","system_id":"levelo_inurba_marseille","lat":43.29697,"lon":5.3661,"is_reserved":false,"is_disabled":false,"rental_uris":{"android":"levelo://app?vid=19dbfe5d-9e77-4915-8c62-a8b2b75c629f","ios":"levelo://app?vid=19dbfe5d-9e77-4915-8c62-a8b2b75c629f"},"vehicle_type_id":"4","last_reported":1684076784,"current_range_meters":3600,"station_id":"","pricing_plan_id":"free"},{"bike_id":"f7e661a4-ed19-477c-9944-f889529f1864","system_id":"levelo_inurba_marseille","lat":43.296921,"lon":5.376579,"is_reserved":false,"is_disabled":false,"rental_uris":{"android":"levelo://app?vid=f7e661a4-ed19-477c-9944-f889529f1864","ios":"levelo://app?vid=f7e661a4-ed19-477c-9944-f889529f1864"},"vehicle_type_id":"4","last_reported":1684076784,"current_range_meters":16800,"station_id":"ce4bgkh2rcd13ifvqbl0","pricing_plan_id":"free"},{"bike_id":"d1ed32b8-4076-471f-8c41-3241413fcb9f","system_id":"levelo_inurba_marseille","lat":43.296921,"lon":5.376579,"is_reserved":false,"is_disabled":false,"rental_uris":{"android":"levelo://app?vid=d1ed32b8-4076-471f-8c41-3241413fcb9f","ios":"levelo://app?vid=d1ed32b8-4076-471f-8c41-3241413fcb9f"},"vehicle_type_id":"4","last_reported":1684076784,"current_range_meters":24400,"station_id":"ce4bgkh2rcd13ifvqbl0","pricing_plan_id":"free"},{"bike_id":"eebaa2ca-3635-455f-aca6-6dd6fc6c04b2","system_id":"levelo_inurba_marseille","lat":43.29713,"lon":5.37698,"is_reserved":false,"is_disabled":false,"rental_uris":{"android":"levelo://app?vid=eebaa2ca-3635-455f-aca6-6dd6fc6c04b2","ios":"levelo://app?vid=eebaa2ca-3635-455f-aca6-6dd6fc6c04b2"},"vehicle_type_id":"4","last_reported":1684076784,"current_range_meters":7600,"station_id":"","pricing_plan_id":"free"},{"bike_id":"06046919-e756-4586-8a42-b08b921fe2c9","system_id":"levelo_inurba_marseille","lat":43.309589,"lon":5.390258,"is_reserved":false,"is_disabled":false,"rental_uris":{"android":"levelo://app?vid=06046919-e756-4586-8a42-b08b921fe2c9","ios":"levelo://app?vid=06046919-e756-4586-8a42-b08b921fe2c9"},"vehicle_type_id":"4","last_reported":1684076784,"current_range_meters":2000,"station_id":"ce4bgup2rcd13ifvqco0","pricing_plan_id":"free"},{"bike_id":"54fe13f6-975a-43d1-8a62-d1899bc1799c","system_id":"levelo_inurba_marseille","lat":43.309589,"lon":5.390258,"is_reserved":false,"is_disabled":false,"rental_uris":{"android":"levelo://app?vid=54fe13f6-975a-43d1-8a62-d1899bc1799c","ios":"levelo://app?vid=54fe13f6-975a-43d1-8a62-d1899bc1799c"},"vehicle_type_id":"4","last_reported":1684076784,"current_range_meters":16400,"station_id":"ce4bgup2rcd13ifvqco0","pricing_plan_id":"free"},{"bike_id":"bde97fd2-e10a-4769-91be-c8dc06a44d5c","system_id":"levelo_inurba_marseille","lat":43.309589,"lon":5.390258,"is_reserved":false,"is_disabled":false,"rental_uris":{"android":"levelo://app?vid=bde97fd2-e10a-4769-91be-c8dc06a44d5c","ios":"levelo://app?vid=bde97fd2-e10a-4769-91be-c8dc06a44d5c"},"vehicle_type_id":"4","last_reported":1684076784,"current_range_meters":27200,"station_id":"ce4bgup2rcd13ifvqco0","pricing_plan_id":"free"},{"bike_id":"6b77c43c-960d-417c-8233-25f3afef3740","system_id":"levelo_inurba_marseille","lat":43.317557,"lon":5.390173,"is_reserved":false,"is_disabled":false,"rental_uris":{"android":"levelo://app?vid=6b77c43c-960d-417c-8233-25f3afef3740","ios":"levelo://app?vid=6b77c43c-960d-417c-8233-25f3afef3740"},"vehicle_type_id":"4","last_reported":1684076784,"current_range_meters":26400,"station_id":"ce4bhqp2rcd13ifvqhng","pricing_plan_id":"free"},{"bike_id":"7e101d88-7926-4513-a08a-b2a6fdb92c65","system_id":"levelo_inurba_marseille","lat":43.31757,"lon":5.39015,"is_reserved":false,"is_disabled":false,"rental_uris":{"android":"levelo://app?vid=7e101d88-7926-4513-a08a-b2a6fdb92c65","ios":"levelo://app?vid=7e101d88-7926-4513-a08a-b2a6fdb92c65"},"vehicle_type_id":"4","last_reported":1684076784,"current_range_meters":24800,"station_id":"ce4bhqp2rcd13ifvqhng","pricing_plan_id":"free"},{"bike_id":"2e4072c4-97ae-412f-891d-364f103e5e6c","system_id":"levelo_inurba_marseille","lat":43.31758,"lon":5.39017,"is_reserved":false,"is_disabled":false,"rental_uris":{"android":"levelo://app?vid=2e4072c4-97ae-412f-891d-364f103e5e6c","ios":"levelo://app?vid=2e4072c4-97ae-412f-891d-364f103e5e6c"},"vehicle_type_id":"4","last_reported":1684076784,"current_range_meters":31200,"station_id":"ce4bhqp2rcd13ifvqhng","pricing_plan_id":"free"},{"bike_id":"50b54e64-655a-48d1-a7cc-04966a5cff84","system_id":"levelo_inurba_marseille","lat":43.317557,"lon":5.390173,"is_reserved":false,"is_disabled":false,"rental_uris":{"android":"levelo://app?vid=50b54e64-655a-48d1-a7cc-04966a5cff84","ios":"levelo://app?vid=50b54e64-655a-48d1-a7cc-04966a5cff84"},"vehicle_type_id":"4","last_reported":1684076784,"current_range_meters":12400,"station_id":"ce4bhqp2rcd13ifvqhng","pricing_plan_id":"free"},{"bike_id":"4bca6dab-d89c-4659-af83-558644b096a0","system_id":"levelo_inurba_marseille","lat":43.3176,"lon":5.39018,"is_reserved":false,"is_disabled":false,"rental_uris":{"android":"levelo://app?vid=4bca6dab-d89c-4659-af83-558644b096a0","ios":"levelo://app?vid=4bca6dab-d89c-4659-af83-558644b096a0"},"vehicle_type_id":"4","last_reported":1684076784,"current_range_meters":24800,"station_id":"ce4bhqp2rcd13ifvqhng","pricing_plan_id":"free"},{"bike_id":"71162d97-d928-44dd-a6b4-6c1112ce1a30","system_id":"levelo_inurba_marseille","lat":43.295279,"lon":5.375048,"is_reserved":false,"is_disabled":false,"rental_uris":{"android":"levelo://app?vid=71162d97-d928-44dd-a6b4-6c1112ce1a30","ios":"levelo://app?vid=71162d97-d928-44dd-a6b4-6c1112ce1a30"},"vehicle_type_id":"4","last_reported":1684076784,"current_range_meters":1200,"station_id":"ce4bgkp2rcd13ifvqbmg","pricing_plan_id":"free"},{"bike_id":"98d43089-ff1e-40ee-a123-f18e174ce1c4","system_id":"levelo_inurba_marseille","lat":43.31455,"lon":5.39226,"is_reserved":false,"is_disabled":false,"rental_uris":{"android":"levelo://app?vid=98d43089-ff1e-40ee-a123-f18e174ce1c4","ios":"levelo://app?vid=98d43089-ff1e-40ee-a123-f18e174ce1c4"},"vehicle_type_id":"4","last_reported":1684076784,"current_range_meters":0,"station_id":"","pricing_plan_id":"free"},{"bike_id":"fe546c02-eed2-43c2-b7a2-5265cef21243","system_id":"levelo_inurba_marseille","lat":43.299724,"lon":5.384848,"is_reserved":false,"is_disabled":false,"rental_uris":{"android":"levelo://app?vid=fe546c02-eed2-43c2-b7a2-5265cef21243","ios":"levelo://app?vid=fe546c02-eed2-43c2-b7a2-5265cef21243"},"vehicle_type_id":"4","last_reported":1684076784,"current_range_meters":400,"station_id":"ce4bgj92rcd13ifvqbd0","pricing_plan_id":"free"},{"bike_id":"206579a6-b3b3-4a17-aeea-3f22fa744507","system_id":"levelo_inurba_marseille","lat":43.295279,"lon":5.375048,"is_reserved":false,"is_disabled":false,"rental_uris":{"android":"levelo://app?vid=206579a6-b3b3-4a17-aeea-3f22fa744507","ios":"levelo://app?vid=206579a6-b3b3-4a17-aeea-3f22fa744507"},"vehicle_type_id":"4","last_reported":1684076784,"current_range_meters":0,"station_id":"ce4bgkp2rcd13ifvqbmg","pricing_plan_id":"free"},{"bike_id":"6f6b02ce-a50b-443a-a31d-aed834771e7b","system_id":"levelo_inurba_marseille","lat":43.31441,"lon":5.39281,"is_reserved":false,"is_disabled":false,"rental_uris":{"android":"levelo://app?vid=6f6b02ce-a50b-443a-a31d-aed834771e7b","ios":"levelo://app?vid=6f6b02ce-a50b-443a-a31d-aed834771e7b"},"vehicle_type_id":"4","last_reported":1684076784,"current_range_meters":1600,"station_id":"","pricing_plan_id":"free"},{"bike_id":"fa4ea154-df04-45bf-b47c-cb3992a9e516","system_id":"levelo_inurba_marseille","lat":43.292749,"lon":5.368402,"is_reserved":false,"is_disabled":false,"rental_uris":{"android":"levelo://app?vid=fa4ea154-df04-45bf-b47c-cb3992a9e516","ios":"levelo://app?vid=fa4ea154-df04-45bf-b47c-cb3992a9e516"},"vehicle_type_id":"4","last_reported":1684076784,"current_range_meters":4000,"station_id":"ce4bhbp2rcd13ifvqesg","pricing_plan_id":"free"},{"bike_id":"0e4df320-6e59-4e64-b51b-69eb3eec319d","system_id":"levelo_inurba_marseille","lat":43.293009,"lon":5.374584,"is_reserved":false,"is_disabled":false,"rental_uris":{"android":"levelo://app?vid=0e4df320-6e59-4e64-b51b-69eb3eec319d","ios":"levelo://app?vid=0e4df320-6e59-4e64-b51b-69eb3eec319d"},"vehicle_type_id":"4","last_reported":1684076784,"current_range_meters":12400,"station_id":"ce4bgi12rcd13ifvqb70","pricing_plan_id":"free"},{"bike_id":"edbf7d5b-9d7c-4b2e-b8b7-13ea544f2fa8","system_id":"levelo_inurba_marseille","lat":43.293009,"lon":5.374584,"is_reserved":false,"is_disabled":false,"rental_uris":{"android":"levelo://app?vid=edbf7d5b-9d7c-4b2e-b8b7-13ea544f2fa8","ios":"levelo://app?vid=edbf7d5b-9d7c-4b2e-b8b7-13ea544f2fa8"},"vehicle_type_id":"4","last_reported":1684076784,"current_range_meters":14800,"station_id":"ce4bgi12rcd13ifvqb70","pricing_plan_id":"free"},{"bike_id":"82c009d2-12be-40c6-965a-9a1df9572547","system_id":"levelo_inurba_marseille","lat":43.293009,"lon":5.374584,"is_reserved":false,"is_disabled":false,"rental_uris":{"android":"levelo://app?vid=82c009d2-12be-40c6-965a-9a1df9572547","ios":"levelo://app?vid=82c009d2-12be-40c6-965a-9a1df9572547"},"vehicle_type_id":"4","last_reported":1684076784,"current_range_meters":14400,"station_id":"ce4bgi12rcd13ifvqb70","pricing_plan_id":"free"},{"bike_id":"a54109d9-2624-4117-87e2-5869a0cc94bb","system_id":"levelo_inurba_marseille","lat":43.293009,"lon":5.374584,"is_reserved":false,"is_disabled":false,"rental_uris":{"android":"levelo://app?vid=a54109d9-2624-4117-87e2-5869a0cc94bb","ios":"levelo://app?vid=a54109d9-2624-4117-87e2-5869a0cc94bb"},"vehicle_type_id":"4","last_reported":1684076784,"current_range_meters":21600,"station_id":"ce4bgi12rcd13ifvqb70","pricing_plan_id":"free"},{"bike_id":"7e68c841-131e-46d7-9565-f231b4390634","system_id":"levelo_inurba_marseille","lat":43.293009,"lon":5.374584,"is_reserved":false,"is_disabled":false,"rental_uris":{"android":"levelo://app?vid=7e68c841-131e-46d7-9565-f231b4390634","ios":"levelo://app?vid=7e68c841-131e-46d7-9565-f231b4390634"},"vehicle_type_id":"4","last_reported":1684076784,"current_range_meters":20800,"station_id":"ce4bgi12rcd13ifvqb70","pricing_plan_id":"free"},{"bike_id":"c6379713-090d-44c9-9f38-29fe3ae134f3","system_id":"levelo_inurba_marseille","lat":43.293009,"lon":5.374584,"is_reserved":false,"is_disabled":false,"rental_uris":{"android":"levelo://app?vid=c6379713-090d-44c9-9f38-29fe3ae134f3","ios":"levelo://app?vid=c6379713-090d-44c9-9f38-29fe3ae134f3"},"vehicle_type_id":"4","last_reported":1684076784,"current_range_meters":8800,"station_id":"ce4bgi12rcd13ifvqb70","pricing_plan_id":"free"},{"bike_id":"5f806108-1a93-4324-9025-ef3858c0ae4b","system_id":"levelo_inurba_marseille","lat":43.29286,"lon":5.3746,"is_reserved":false,"is_disabled":false,"rental_uris":{"android":"levelo://app?vid=5f806108-1a93-4324-9025-ef3858c0ae4b","ios":"levelo://app?vid=5f806108-1a93-4324-9025-ef3858c0ae4b"},"vehicle_type_id":"4","last_reported":1684076784,"current_range_meters":30400,"station_id":"ce4bgi12rcd13ifvqb70","pricing_plan_id":"free"},{"bike_id":"877297ce-585c-4d29-9642-a4f84360d933","system_id":"levelo_inurba_marseille","lat":43.293009,"lon":5.374584,"is_reserved":false,"is_disabled":false,"rental_uris":{"android":"levelo://app?vid=877297ce-585c-4d29-9642-a4f84360d933","ios":"levelo://app?vid=877297ce-585c-4d29-9642-a4f84360d933"},"vehicle_type_id":"4","last_reported":1684076784,"current_range_meters":8400,"station_id":"ce4bgi12rcd13ifvqb70","pricing_plan_id":"free"},{"bike_id":"598db84e-8f66-4b9a-bdb5-f4009d52b579","system_id":"levelo_inurba_marseille","lat":43.298764,"lon":5.388973,"is_reserved":false,"is_disabled":false,"rental_uris":{"android":"levelo://app?vid=598db84e-8f66-4b9a-bdb5-f4009d52b579","ios":"levelo://app?vid=598db84e-8f66-4b9a-bdb5-f4009d52b579"},"vehicle_type_id":"4","last_reported":1684076784,"current_range_meters":0,"station_id":"ce4bh392rcd13ifvqdl0","pricing_plan_id":"free"},{"bike_id":"119f8f13-de39-4258-b20f-f556b27a7eb9","system_id":"levelo_inurba_marseille","lat":43.291675,"lon":5.371583,"is_reserved":false,"is_disabled":false,"rental_uris":{"android":"levelo://app?vid=119f8f13-de39-4258-b20f-f556b27a7eb9","ios":"levelo://app?vid=119f8f13-de39-4258-b20f-f556b27a7eb9"},"vehicle_type_id":"4","last_reported":1684076784,"current_range_meters":5600,"station_id":"ce4bha92rcd13ifvqeh0","pricing_plan_id":"free"},{"bike_id":"771ad37c-a04f-4c90-87db-a63dfe5597a1","system_id":"levelo_inurba_marseille","lat":43.298764,"lon":5.388973,"is_reserved":false,"is_disabled":false,"rental_uris":{"android":"levelo://app?vid=771ad37c-a04f-4c90-87db-a63dfe5597a1","ios":"levelo://app?vid=771ad37c-a04f-4c90-87db-a63dfe5597a1"},"vehicle_type_id":"4","last_reported":1684076784,"current_range_meters":17200,"station_id":"ce4bh392rcd13ifvqdl0","pricing_plan_id":"free"},{"bike_id":"bb6859d8-3143-49bb-a727-481e433512cb","system_id":"levelo_inurba_marseille","lat":43.291675,"lon":5.371583,"is_reserved":false,"is_disabled":false,"rental_uris":{"android":"levelo://app?vid=bb6859d8-3143-49bb-a727-481e433512cb","ios":"levelo://app?vid=bb6859d8-3143-49bb-a727-481e433512cb"},"vehicle_type_id":"4","last_reported":1684076784,"current_range_meters":2800,"station_id":"ce4bha92rcd13ifvqeh0","pricing_plan_id":"free"},{"bike_id":"ee595600-a878-4f96-9d1c-37ea5d76f40e","system_id":"levelo_inurba_marseille","lat":43.291675,"lon":5.371583,"is_reserved":false,"is_disabled":false,"rental_uris":{"android":"levelo://app?vid=ee595600-a878-4f96-9d1c-37ea5d76f40e","ios":"levelo://app?vid=ee595600-a878-4f96-9d1c-37ea5d76f40e"},"vehicle_type_id":"4","last_reported":1684076784,"current_range_meters":12400,"station_id":"ce4bha92rcd13ifvqeh0","pricing_plan_id":"free"},{"bike_id":"1d73eae5-be5c-40b8-83ab-add89ce2e928","system_id":"levelo_inurba_marseille","lat":43.29199,"lon":5.35809,"is_reserved":false,"is_disabled":false,"rental_uris":{"android":"levelo://app?vid=1d73eae5-be5c-40b8-83ab-add89ce2e928","ios":"levelo://app?vid=1d73eae5-be5c-40b8-83ab-add89ce2e928"},"vehicle_type_id":"4","last_reported":1684076784,"current_range_meters":23600,"station_id":"","pricing_plan_id":"free"},{"bike_id":"66564c55-80ab-4f49-8ad3-9450bc9ac163","system_id":"levelo_inurba_marseille","lat":43.29193,"lon":5.35796,"is_reserved":false,"is_disabled":false,"rental_uris":{"android":"levelo://app?vid=66564c55-80ab-4f49-8ad3-9450bc9ac163","ios":"levelo://app?vid=66564c55-80ab-4f49-8ad3-9450bc9ac163"},"vehicle_type_id":"4","last_reported":1684076784,"current_range_meters":7600,"station_id":"","pricing_plan_id":"free"},{"bike_id":"f8fa7db8-aaaf-4f98-b627-6635aac8a434","system_id":"levelo_inurba_marseille","lat":43.313291,"lon":5.396838,"is_reserved":false,"is_disabled":false,"rental_uris":{"android":"levelo://app?vid=f8fa7db8-aaaf-4f98-b627-6635aac8a434","ios":"levelo://app?vid=f8fa7db8-aaaf-4f98-b627-6635aac8a434"},"vehicle_type_id":"4","last_reported":1684076784,"current_range_meters":0,"station_id":"ce4bgvp2rcd13ifvqcu0","pricing_plan_id":"free"},{"bike_id":"fe29c6fe-7d3a-4366-ac64-a4af52cf0db9","system_id":"levelo_inurba_marseille","lat":43.29529,"lon":5.385581,"is_reserved":false,"is_disabled":false,"rental_uris":{"android":"levelo://app?vid=fe29c6fe-7d3a-4366-ac64-a4af52cf0db9","ios":"levelo://app?vid=fe29c6fe-7d3a-4366-ac64-a4af52cf0db9"},"vehicle_type_id":"4","last_reported":1684076784,"current_range_meters":0,"station_id":"ce4bgih2rcd13ifvqba0","pricing_plan_id":"free"},{"bike_id":"ebc3daa6-1708-4759-ab8c-c596ed111d57","system_id":"levelo_inurba_marseille","lat":43.294153,"lon":5.386305,"is_reserved":false,"is_disabled":false,"rental_uris":{"android":"levelo://app?vid=ebc3daa6-1708-4759-ab8c-c596ed111d57","ios":"levelo://app?vid=ebc3daa6-1708-4759-ab8c-c596ed111d57"},"vehicle_type_id":"4","last_reported":1684076784,"current_range_meters":1600,"station_id":"ce4bh2h2rcd13ifvqdh0","pricing_plan_id":"free"},{"bike_id":"9f129774-36e1-42f1-8229-a7c2be11d89e","system_id":"levelo_inurba_marseille","lat":43.30487,"lon":5.39702,"is_reserved":false,"is_disabled":false,"rental_uris":{"android":"levelo://app?vid=9f129774-36e1-42f1-8229-a7c2be11d89e","ios":"levelo://app?vid=9f129774-36e1-42f1-8229-a7c2be11d89e"},"vehicle_type_id":"4","last_reported":1684076784,"current_range_meters":15200,"station_id":"","pricing_plan_id":"free"},{"bike_id":"e1b596dc-9b30-4bf3-8a68-a73b45d3ccfb","system_id":"levelo_inurba_marseille","lat":43.289184,"lon":5.366408,"is_reserved":false,"is_disabled":false,"rental_uris":{"android":"levelo://app?vid=e1b596dc-9b30-4bf3-8a68-a73b45d3ccfb","ios":"levelo://app?vid=e1b596dc-9b30-4bf3-8a68-a73b45d3ccfb"},"vehicle_type_id":"4","last_reported":1684076784,"current_range_meters":28400,"station_id":"ce4bhap2rcd13ifvqek0","pricing_plan_id":"free"},{"bike_id":"f78bbfff-9a3a-4611-a21f-417a7bbd44ce","system_id":"levelo_inurba_marseille","lat":43.304296,"lon":5.397513,"is_reserved":false,"is_disabled":false,"rental_uris":{"android":"levelo://app?vid=f78bbfff-9a3a-4611-a21f-417a7bbd44ce","ios":"levelo://app?vid=f78bbfff-9a3a-4611-a21f-417a7bbd44ce"},"vehicle_type_id":"4","last_reported":1684076784,"current_range_meters":12400,"station_id":"ce4bh092rcd13ifvqd20","pricing_plan_id":"free"},{"bike_id":"f4c7a092-a69e-4ff1-a1ff-a7c991070727","system_id":"levelo_inurba_marseille","lat":43.304274,"lon":5.397513,"is_reserved":false,"is_disabled":false,"rental_uris":{"android":"levelo://app?vid=f4c7a092-a69e-4ff1-a1ff-a7c991070727","ios":"levelo://app?vid=f4c7a092-a69e-4ff1-a1ff-a7c991070727"},"vehicle_type_id":"4","last_reported":1684076784,"current_range_meters":12400,"station_id":"ce4bh092rcd13ifvqd20","pricing_plan_id":"free"},{"bike_id":"2c6fc505-f326-4830-8390-fa36ddb9c739","system_id":"levelo_inurba_marseille","lat":43.292642,"lon":5.384254,"is_reserved":false,"is_disabled":false,"rental_uris":{"android":"levelo://app?vid=2c6fc505-f326-4830-8390-fa36ddb9c739","ios":"levelo://app?vid=2c6fc505-f326-4830-8390-fa36ddb9c739"},"vehicle_type_id":"4","last_reported":1684076784,"current_range_meters":17200,"station_id":"ce4bh692rcd13ifvqea0","pricing_plan_id":"free"},{"bike_id":"b6115e54-eff3-46c8-8422-8ae926c70ede","system_id":"levelo_inurba_marseille","lat":43.304296,"lon":5.397513,"is_reserved":false,"is_disabled":false,"rental_uris":{"android":"levelo://app?vid=b6115e54-eff3-46c8-8422-8ae926c70ede","ios":"levelo://app?vid=b6115e54-eff3-46c8-8422-8ae926c70ede"},"vehicle_type_id":"4","last_reported":1684076784,"current_range_meters":19600,"station_id":"ce4bh092rcd13ifvqd20","pricing_plan_id":"free"},{"bike_id":"f3562043-b80d-45e3-967d-ba21f94bef01","system_id":"levelo_inurba_marseille","lat":43.33038,"lon":5.3892,"is_reserved":false,"is_disabled":false,"rental_uris":{"android":"levelo://app?vid=f3562043-b80d-45e3-967d-ba21f94bef01","ios":"levelo://app?vid=f3562043-b80d-45e3-967d-ba21f94bef01"},"vehicle_type_id":"4","last_reported":1684076784,"current_range_meters":30800,"station_id":"ce4bhr92rcd13ifvqhrg","pricing_plan_id":"free"},{"bike_id":"45267953-7b14-4eb9-9ce6-09c9bf50dfb4","system_id":"levelo_inurba_marseille","lat":43.33041,"lon":5.38919,"is_reserved":false,"is_disabled":false,"rental_uris":{"android":"levelo://app?vid=45267953-7b14-4eb9-9ce6-09c9bf50dfb4","ios":"levelo://app?vid=45267953-7b14-4eb9-9ce6-09c9bf50dfb4"},"vehicle_type_id":"4","last_reported":1684076784,"current_range_meters":26000,"station_id":"ce4bhr92rcd13ifvqhrg","pricing_plan_id":"free"},{"bike_id":"9b34a26f-1256-4b06-a2cd-2e6177e89d22","system_id":"levelo_inurba_marseille","lat":43.33042,"lon":5.38918,"is_reserved":false,"is_disabled":false,"rental_uris":{"android":"levelo://app?vid=9b34a26f-1256-4b06-a2cd-2e6177e89d22","ios":"levelo://app?vid=9b34a26f-1256-4b06-a2cd-2e6177e89d22"},"vehicle_type_id":"4","last_reported":1684076784,"current_range_meters":23200,"station_id":"ce4bhr92rcd13ifvqhrg","pricing_plan_id":"free"},{"bike_id":"8db239b7-7ade-4c80-a0b8-f12159ac4669","system_id":"levelo_inurba_marseille","lat":43.33041,"lon":5.3892,"is_reserved":false,"is_disabled":false,"rental_uris":{"android":"levelo://app?vid=8db239b7-7ade-4c80-a0b8-f12159ac4669","ios":"levelo://app?vid=8db239b7-7ade-4c80-a0b8-f12159ac4669"},"vehicle_type_id":"4","last_reported":1684076784,"current_range_meters":16000,"station_id":"ce4bhr92rcd13ifvqhrg","pricing_plan_id":"free"},{"bike_id":"f06c3db4-7889-4c18-99f8-d1db674ac9f6","system_id":"levelo_inurba_marseille","lat":43.33044,"lon":5.38916,"is_reserved":false,"is_disabled":false,"rental_uris":{"android":"levelo://app?vid=f06c3db4-7889-4c18-99f8-d1db674ac9f6","ios":"levelo://app?vid=f06c3db4-7889-4c18-99f8-d1db674ac9f6"},"vehicle_type_id":"4","last_reported":1684076784,"current_range_meters":4800,"station_id":"ce4bhr92rcd13ifvqhrg","pricing_plan_id":"free"},{"bike_id":"0fb4d325-74eb-443b-8cb7-a76ae945caea","system_id":"levelo_inurba_marseille","lat":43.33043,"lon":5.38918,"is_reserved":false,"is_disabled":false,"rental_uris":{"android":"levelo://app?vid=0fb4d325-74eb-443b-8cb7-a76ae945caea","ios":"levelo://app?vid=0fb4d325-74eb-443b-8cb7-a76ae945caea"},"vehicle_type_id":"4","last_reported":1684076784,"current_range_meters":14400,"station_id":"ce4bhr92rcd13ifvqhrg","pricing_plan_id":"free"},{"bike_id":"716f196f-bdac-4a6a-9628-97caa9d0581b","system_id":"levelo_inurba_marseille","lat":43.33043,"lon":5.38919,"is_reserved":false,"is_disabled":false,"rental_uris":{"android":"levelo://app?vid=716f196f-bdac-4a6a-9628-97caa9d0581b","ios":"levelo://app?vid=716f196f-bdac-4a6a-9628-97caa9d0581b"},"vehicle_type_id":"4","last_reported":1684076784,"current_range_meters":8800,"station_id":"ce4bhr92rcd13ifvqhrg","pricing_plan_id":"free"},{"bike_id":"d9c65fb5-b538-43a6-8b06-cce8ee9f5b2a","system_id":"levelo_inurba_marseille","lat":43.33042,"lon":5.38921,"is_reserved":false,"is_disabled":false,"rental_uris":{"android":"levelo://app?vid=d9c65fb5-b538-43a6-8b06-cce8ee9f5b2a","ios":"levelo://app?vid=d9c65fb5-b538-43a6-8b06-cce8ee9f5b2a"},"vehicle_type_id":"4","last_reported":1684076784,"current_range_meters":25200,"station_id":"ce4bhr92rcd13ifvqhrg","pricing_plan_id":"free"},{"bike_id":"b8d0a2d7-4443-405c-9e1e-71d351b2ac12","system_id":"levelo_inurba_marseille","lat":43.33041,"lon":5.38923,"is_reserved":false,"is_disabled":false,"rental_uris":{"android":"levelo://app?vid=b8d0a2d7-4443-405c-9e1e-71d351b2ac12","ios":"levelo://app?vid=b8d0a2d7-4443-405c-9e1e-71d351b2ac12"},"vehicle_type_id":"4","last_reported":1684076784,"current_range_meters":17600,"station_id":"ce4bhr92rcd13ifvqhrg","pricing_plan_id":"free"},{"bike_id":"99d11ff8-cd4f-4243-907c-822c17bc769b","system_id":"levelo_inurba_marseille","lat":43.33042,"lon":5.38922,"is_reserved":false,"is_disabled":false,"rental_uris":{"android":"levelo://app?vid=99d11ff8-cd4f-4243-907c-822c17bc769b","ios":"levelo://app?vid=99d11ff8-cd4f-4243-907c-822c17bc769b"},"vehicle_type_id":"4","last_reported":1684076784,"current_range_meters":16400,"station_id":"ce4bhr92rcd13ifvqhrg","pricing_plan_id":"free"},{"bike_id":"754ef565-0150-4f0d-8c0d-a8a5d6927613","system_id":"levelo_inurba_marseille","lat":43.33044,"lon":5.38922,"is_reserved":false,"is_disabled":false,"rental_uris":{"android":"levelo://app?vid=754ef565-0150-4f0d-8c0d-a8a5d6927613","ios":"levelo://app?vid=754ef565-0150-4f0d-8c0d-a8a5d6927613"},"vehicle_type_id":"4","last_reported":1684076784,"current_range_meters":14400,"station_id":"ce4bhr92rcd13ifvqhrg","pricing_plan_id":"free"},{"bike_id":"f6d8f679-e0ff-49da-a8ab-6bae6795f18b","system_id":"levelo_inurba_marseille","lat":43.33046,"lon":5.38921,"is_reserved":false,"is_disabled":false,"rental_uris":{"android":"levelo://app?vid=f6d8f679-e0ff-49da-a8ab-6bae6795f18b","ios":"levelo://app?vid=f6d8f679-e0ff-49da-a8ab-6bae6795f18b"},"vehicle_type_id":"4","last_reported":1684076784,"current_range_meters":400,"station_id":"ce4bhr92rcd13ifvqhrg","pricing_plan_id":"free"},{"bike_id":"26950bfc-ba12-4a32-879a-c9b201d7588b","system_id":"levelo_inurba_marseille","lat":43.30262,"lon":5.39687,"is_reserved":false,"is_disabled":false,"rental_uris":{"android":"levelo://app?vid=26950bfc-ba12-4a32-879a-c9b201d7588b","ios":"levelo://app?vid=26950bfc-ba12-4a32-879a-c9b201d7588b"},"vehicle_type_id":"4","last_reported":1684076784,"current_range_meters":27200,"station_id":"ce4bh092rcd13ifvqd20","pricing_plan_id":"free"},{"bike_id":"dc0692ec-341e-479a-8203-e6c1224b7166","system_id":"levelo_inurba_marseille","lat":43.29002,"lon":5.3561,"is_reserved":false,"is_disabled":false,"rental_uris":{"android":"levelo://app?vid=dc0692ec-341e-479a-8203-e6c1224b7166","ios":"levelo://app?vid=dc0692ec-341e-479a-8203-e6c1224b7166"},"vehicle_type_id":"4","last_reported":1684076784,"current_range_meters":22400,"station_id":"ce4bhb92rcd13ifvqen0","pricing_plan_id":"free"},{"bike_id":"025a111e-8034-4251-b947-adfd2e935216","system_id":"levelo_inurba_marseille","lat":43.289962,"lon":5.355723,"is_reserved":false,"is_disabled":false,"rental_uris":{"android":"levelo://app?vid=025a111e-8034-4251-b947-adfd2e935216","ios":"levelo://app?vid=025a111e-8034-4251-b947-adfd2e935216"},"vehicle_type_id":"4","last_reported":1684076784,"current_range_meters":1200,"station_id":"","pricing_plan_id":"free"},{"bike_id":"cad193f2-44f3-4b2a-bd83-5b224084ecef","system_id":"levelo_inurba_marseille","lat":43.29791,"lon":5.39329,"is_reserved":false,"is_disabled":false,"rental_uris":{"android":"levelo://app?vid=cad193f2-44f3-4b2a-bd83-5b224084ecef","ios":"levelo://app?vid=cad193f2-44f3-4b2a-bd83-5b224084ecef"},"vehicle_type_id":"4","last_reported":1684076784,"current_range_meters":25600,"station_id":"ce4bh212rcd13ifvqde0","pricing_plan_id":"free"},{"bike_id":"a2bef077-d945-4982-86b8-339a331f238e","system_id":"levelo_inurba_marseille","lat":43.289743,"lon":5.378304,"is_reserved":false,"is_disabled":false,"rental_uris":{"android":"levelo://app?vid=a2bef077-d945-4982-86b8-339a331f238e","ios":"levelo://app?vid=a2bef077-d945-4982-86b8-339a331f238e"},"vehicle_type_id":"4","last_reported":1684076784,"current_range_meters":20000,"station_id":"ce4bh9p2rcd13ifvqed0","pricing_plan_id":"free"},{"bike_id":"f2fa2ea6-09c6-4ef9-9b5d-a700ac93eca2","system_id":"levelo_inurba_marseille","lat":43.295169,"lon":5.390426,"is_reserved":false,"is_disabled":false,"rental_uris":{"android":"levelo://app?vid=f2fa2ea6-09c6-4ef9-9b5d-a700ac93eca2","ios":"levelo://app?vid=f2fa2ea6-09c6-4ef9-9b5d-a700ac93eca2"},"vehicle_type_id":"4","last_reported":1684076784,"current_range_meters":12000,"station_id":"ce4bh3p2rcd13ifvqdp0","pricing_plan_id":"free"},{"bike_id":"86af5032-7031-4096-bcc7-ce74a60948c8","system_id":"levelo_inurba_marseille","lat":43.295169,"lon":5.390426,"is_reserved":false,"is_disabled":false,"rental_uris":{"android":"levelo://app?vid=86af5032-7031-4096-bcc7-ce74a60948c8","ios":"levelo://app?vid=86af5032-7031-4096-bcc7-ce74a60948c8"},"vehicle_type_id":"4","last_reported":1684076784,"current_range_meters":0,"station_id":"ce4bh3p2rcd13ifvqdp0","pricing_plan_id":"free"},{"bike_id":"16c01dbe-40a9-4a7f-ba2f-d2d35fd0aa17","system_id":"levelo_inurba_marseille","lat":43.295169,"lon":5.390426,"is_reserved":false,"is_disabled":false,"rental_uris":{"android":"levelo://app?vid=16c01dbe-40a9-4a7f-ba2f-d2d35fd0aa17","ios":"levelo://app?vid=16c01dbe-40a9-4a7f-ba2f-d2d35fd0aa17"},"vehicle_type_id":"4","last_reported":1684076784,"current_range_meters":0,"station_id":"ce4bh3p2rcd13ifvqdp0","pricing_plan_id":"free"},{"bike_id":"878703be-e1ff-49e1-822e-35146bedbf99","system_id":"levelo_inurba_marseille","lat":43.2901,"lon":5.381269,"is_reserved":false,"is_disabled":false,"rental_uris":{"android":"levelo://app?vid=878703be-e1ff-49e1-822e-35146bedbf99","ios":"levelo://app?vid=878703be-e1ff-49e1-822e-35146bedbf99"},"vehicle_type_id":"4","last_reported":1684076784,"current_range_meters":17600,"station_id":"ce4bh4p2rcd13ifvqe1g","pricing_plan_id":"free"},{"bike_id":"a6a6c21b-2f5b-4fbc-ae41-e9bd11c80839","system_id":"levelo_inurba_marseille","lat":43.29008,"lon":5.3813,"is_reserved":false,"is_disabled":false,"rental_uris":{"android":"levelo://app?vid=a6a6c21b-2f5b-4fbc-ae41-e9bd11c80839","ios":"levelo://app?vid=a6a6c21b-2f5b-4fbc-ae41-e9bd11c80839"},"vehicle_type_id":"4","last_reported":1684076784,"current_range_meters":16400,"station_id":"ce4bh4p2rcd13ifvqe1g","pricing_plan_id":"free"},{"bike_id":"235bfca5-3523-4573-9b75-a1fadb68ed6a","system_id":"levelo_inurba_marseille","lat":43.337328,"lon":5.374538,"is_reserved":false,"is_disabled":false,"rental_uris":{"android":"levelo://app?vid=235bfca5-3523-4573-9b75-a1fadb68ed6a","ios":"levelo://app?vid=235bfca5-3523-4573-9b75-a1fadb68ed6a"},"vehicle_type_id":"4","last_reported":1684076784,"current_range_meters":27200,"station_id":"ce4bhah2rcd13ifvqei0","pricing_plan_id":"free"},{"bike_id":"5b3ce0e7-ddde-4f08-9689-05c27b8dd4cc","system_id":"levelo_inurba_marseille","lat":43.337436,"lon":5.374627,"is_reserved":false,"is_disabled":false,"rental_uris":{"android":"levelo://app?vid=5b3ce0e7-ddde-4f08-9689-05c27b8dd4cc","ios":"levelo://app?vid=5b3ce0e7-ddde-4f08-9689-05c27b8dd4cc"},"vehicle_type_id":"4","last_reported":1684076784,"current_range_meters":27600,"station_id":"ce4bhnp2rcd13ifvqgvg","pricing_plan_id":"free"},{"bike_id":"add5f874-e8d3-42d2-8dd5-3374246db2cf","system_id":"levelo_inurba_marseille","lat":43.33747,"lon":5.37444,"is_reserved":false,"is_disabled":false,"rental_uris":{"android":"levelo://app?vid=add5f874-e8d3-42d2-8dd5-3374246db2cf","ios":"levelo://app?vid=add5f874-e8d3-42d2-8dd5-3374246db2cf"},"vehicle_type_id":"4","last_reported":1684076784,"current_range_meters":30000,"station_id":"","pricing_plan_id":"free"},{"bike_id":"6a189226-a063-4950-b3ee-0c40718a3f3b","system_id":"levelo_inurba_marseille","lat":43.33762,"lon":5.3744,"is_reserved":false,"is_disabled":false,"rental_uris":{"android":"levelo://app?vid=6a189226-a063-4950-b3ee-0c40718a3f3b","ios":"levelo://app?vid=6a189226-a063-4950-b3ee-0c40718a3f3b"},"vehicle_type_id":"4","last_reported":1684076784,"current_range_meters":30800,"station_id":"","pricing_plan_id":"free"},{"bike_id":"59500e5e-42e1-4910-bbe9-55957a26ca9d","system_id":"levelo_inurba_marseille","lat":43.30639,"lon":5.401,"is_reserved":false,"is_disabled":false,"rental_uris":{"android":"levelo://app?vid=59500e5e-42e1-4910-bbe9-55957a26ca9d","ios":"levelo://app?vid=59500e5e-42e1-4910-bbe9-55957a26ca9d"},"vehicle_type_id":"4","last_reported":1684076784,"current_range_meters":9600,"station_id":"","pricing_plan_id":"free"},{"bike_id":"333c4366-014f-42f8-b20f-2662fb8963d5","system_id":"levelo_inurba_marseille","lat":43.301117,"lon":5.398795,"is_reserved":false,"is_disabled":false,"rental_uris":{"android":"levelo://app?vid=333c4366-014f-42f8-b20f-2662fb8963d5","ios":"levelo://app?vid=333c4366-014f-42f8-b20f-2662fb8963d5"},"vehicle_type_id":"4","last_reported":1684076784,"current_range_meters":6400,"station_id":"ce4bh0h2rcd13ifvqd40","pricing_plan_id":"free"},{"bike_id":"c9643672-fea2-477d-ba81-7c032b4f2aeb","system_id":"levelo_inurba_marseille","lat":43.301117,"lon":5.398795,"is_reserved":false,"is_disabled":false,"rental_uris":{"android":"levelo://app?vid=c9643672-fea2-477d-ba81-7c032b4f2aeb","ios":"levelo://app?vid=c9643672-fea2-477d-ba81-7c032b4f2aeb"},"vehicle_type_id":"4","last_reported":1684076784,"current_range_meters":2800,"station_id":"ce4bh0h2rcd13ifvqd40","pricing_plan_id":"free"},{"bike_id":"02f23dca-0bb8-4b52-bd39-72855e1548ff","system_id":"levelo_inurba_marseille","lat":43.286593,"lon":5.363346,"is_reserved":false,"is_disabled":false,"rental_uris":{"android":"levelo://app?vid=02f23dca-0bb8-4b52-bd39-72855e1548ff","ios":"levelo://app?vid=02f23dca-0bb8-4b52-bd39-72855e1548ff"},"vehicle_type_id":"4","last_reported":1684076784,"current_range_meters":14400,"station_id":"ce4bhah2rcd13ifvqej0","pricing_plan_id":"free"},{"bike_id":"5c3d2485-2e22-42d6-9119-d45261c8a047","system_id":"levelo_inurba_marseille","lat":43.290345,"lon":5.38646,"is_reserved":false,"is_disabled":false,"rental_uris":{"android":"levelo://app?vid=5c3d2485-2e22-42d6-9119-d45261c8a047","ios":"levelo://app?vid=5c3d2485-2e22-42d6-9119-d45261c8a047"},"vehicle_type_id":"4","last_reported":1684076784,"current_range_meters":18000,"station_id":"ce4bh4p2rcd13ifvqe0g","pricing_plan_id":"free"},{"bike_id":"eabe6089-c77d-4e8a-a61a-ccd4c14974d7","system_id":"levelo_inurba_marseille","lat":43.28824,"lon":5.3527,"is_reserved":false,"is_disabled":false,"rental_uris":{"android":"levelo://app?vid=eabe6089-c77d-4e8a-a61a-ccd4c14974d7","ios":"levelo://app?vid=eabe6089-c77d-4e8a-a61a-ccd4c14974d7"},"vehicle_type_id":"4","last_reported":1684076784,"current_range_meters":22400,"station_id":"ce4bhbh2rcd13ifvqepg","pricing_plan_id":"free"},{"bike_id":"65577923-bf0a-4809-b486-3c309a4d940a","system_id":"levelo_inurba_marseille","lat":43.286039,"lon":5.370679,"is_reserved":false,"is_disabled":false,"rental_uris":{"android":"levelo://app?vid=65577923-bf0a-4809-b486-3c309a4d940a","ios":"levelo://app?vid=65577923-bf0a-4809-b486-3c309a4d940a"},"vehicle_type_id":"4","last_reported":1684076784,"current_range_meters":18000,"station_id":"ce4bht12rcd13ifvqi60","pricing_plan_id":"free"},{"bike_id":"1668ffd1-3672-4462-9ad7-f04c0b69b1b1","system_id":"levelo_inurba_marseille","lat":43.286039,"lon":5.370679,"is_reserved":false,"is_disabled":false,"rental_uris":{"android":"levelo://app?vid=1668ffd1-3672-4462-9ad7-f04c0b69b1b1","ios":"levelo://app?vid=1668ffd1-3672-4462-9ad7-f04c0b69b1b1"},"vehicle_type_id":"4","last_reported":1684076784,"current_range_meters":14000,"station_id":"ce4bht12rcd13ifvqi60","pricing_plan_id":"free"},{"bike_id":"4836d6a8-1acf-42aa-a2c9-035b5e0acf9a","system_id":"levelo_inurba_marseille","lat":43.287185,"lon":5.379373,"is_reserved":false,"is_disabled":false,"rental_uris":{"android":"levelo://app?vid=4836d6a8-1acf-42aa-a2c9-035b5e0acf9a","ios":"levelo://app?vid=4836d6a8-1acf-42aa-a2c9-035b5e0acf9a"},"vehicle_type_id":"4","last_reported":1684076784,"current_range_meters":4800,"station_id":"ce4bh9p2rcd13ifvqec0","pricing_plan_id":"free"},{"bike_id":"904bd602-207a-4b26-9d34-bf4a9416676c","system_id":"levelo_inurba_marseille","lat":43.316517,"lon":5.404375,"is_reserved":false,"is_disabled":false,"rental_uris":{"android":"levelo://app?vid=904bd602-207a-4b26-9d34-bf4a9416676c","ios":"levelo://app?vid=904bd602-207a-4b26-9d34-bf4a9416676c"},"vehicle_type_id":"4","last_reported":1684076784,"current_range_meters":17600,"station_id":"ce4bh012rcd13ifvqd00","pricing_plan_id":"free"},{"bike_id":"9a0b402f-fc78-4450-8eb3-b9adf18e4e63","system_id":"levelo_inurba_marseille","lat":43.284538,"lon":5.358657,"is_reserved":false,"is_disabled":false,"rental_uris":{"android":"levelo://app?vid=9a0b402f-fc78-4450-8eb3-b9adf18e4e63","ios":"levelo://app?vid=9a0b402f-fc78-4450-8eb3-b9adf18e4e63"},"vehicle_type_id":"4","last_reported":1684076784,"current_range_meters":5200,"station_id":"ce4bhah2rcd13ifvqei0","pricing_plan_id":"free"},{"bike_id":"f9f07417-7c74-4413-bd13-8aeb27615cc3","system_id":"levelo_inurba_marseille","lat":43.284534,"lon":5.358662,"is_reserved":false,"is_disabled":false,"rental_uris":{"android":"levelo://app?vid=f9f07417-7c74-4413-bd13-8aeb27615cc3","ios":"levelo://app?vid=f9f07417-7c74-4413-bd13-8aeb27615cc3"},"vehicle_type_id":"4","last_reported":1684076784,"current_range_meters":29200,"station_id":"ce4bhah2rcd13ifvqei0","pricing_plan_id":"free"},{"bike_id":"146fb8d2-ad37-4d91-9a41-19e8638e4560","system_id":"levelo_inurba_marseille","lat":43.284534,"lon":5.358662,"is_reserved":false,"is_disabled":false,"rental_uris":{"android":"levelo://app?vid=146fb8d2-ad37-4d91-9a41-19e8638e4560","ios":"levelo://app?vid=146fb8d2-ad37-4d91-9a41-19e8638e4560"},"vehicle_type_id":"4","last_reported":1684076784,"current_range_meters":3200,"station_id":"ce4bhah2rcd13ifvqei0","pricing_plan_id":"free"},{"bike_id":"f3ab2412-a434-4f99-81a1-dc58f472dee0","system_id":"levelo_inurba_marseille","lat":43.284534,"lon":5.358662,"is_reserved":false,"is_disabled":false,"rental_uris":{"android":"levelo://app?vid=f3ab2412-a434-4f99-81a1-dc58f472dee0","ios":"levelo://app?vid=f3ab2412-a434-4f99-81a1-dc58f472dee0"},"vehicle_type_id":"4","last_reported":1684076784,"current_range_meters":29600,"station_id":"ce4bhah2rcd13ifvqei0","pricing_plan_id":"free"},{"bike_id":"64ad4ec4-515d-4a11-931c-1116c62134f1","system_id":"levelo_inurba_marseille","lat":43.285848,"lon":5.350787,"is_reserved":false,"is_disabled":false,"rental_uris":{"android":"levelo://app?vid=64ad4ec4-515d-4a11-931c-1116c62134f1","ios":"levelo://app?vid=64ad4ec4-515d-4a11-931c-1116c62134f1"},"vehicle_type_id":"4","last_reported":1684076784,"current_range_meters":24000,"station_id":"ce4bhch2rcd13ifvqeug","pricing_plan_id":"free"},{"bike_id":"2bd45963-5306-46f5-bf2e-f850950dfc85","system_id":"levelo_inurba_marseille","lat":43.28621,"lon":5.35103,"is_reserved":false,"is_disabled":false,"rental_uris":{"android":"levelo://app?vid=2bd45963-5306-46f5-bf2e-f850950dfc85","ios":"levelo://app?vid=2bd45963-5306-46f5-bf2e-f850950dfc85"},"vehicle_type_id":"4","last_reported":1684076784,"current_range_meters":18800,"station_id":"","pricing_plan_id":"free"},{"bike_id":"bdb5962b-0958-452f-87b1-dd80e182330b","system_id":"levelo_inurba_marseille","lat":43.285848,"lon":5.350787,"is_reserved":false,"is_disabled":false,"rental_uris":{"android":"levelo://app?vid=bdb5962b-0958-452f-87b1-dd80e182330b","ios":"levelo://app?vid=bdb5962b-0958-452f-87b1-dd80e182330b"},"vehicle_type_id":"4","last_reported":1684076784,"current_range_meters":2800,"station_id":"ce4bhch2rcd13ifvqeug","pricing_plan_id":"free"},{"bike_id":"05db418d-397f-4be1-99be-121d95a49d92","system_id":"levelo_inurba_marseille","lat":43.285848,"lon":5.350787,"is_reserved":false,"is_disabled":false,"rental_uris":{"android":"levelo://app?vid=05db418d-397f-4be1-99be-121d95a49d92","ios":"levelo://app?vid=05db418d-397f-4be1-99be-121d95a49d92"},"vehicle_type_id":"4","last_reported":1684076784,"current_range_meters":17600,"station_id":"ce4bhch2rcd13ifvqeug","pricing_plan_id":"free"},{"bike_id":"a28d3398-8a3c-4e41-8ca1-917cc399cd22","system_id":"levelo_inurba_marseille","lat":43.285848,"lon":5.350787,"is_reserved":false,"is_disabled":false,"rental_uris":{"android":"levelo://app?vid=a28d3398-8a3c-4e41-8ca1-917cc399cd22","ios":"levelo://app?vid=a28d3398-8a3c-4e41-8ca1-917cc399cd22"},"vehicle_type_id":"4","last_reported":1684076784,"current_range_meters":31200,"station_id":"ce4bhch2rcd13ifvqeug","pricing_plan_id":"free"},{"bike_id":"e8b3347f-b54d-4622-b95b-8c6b458bdb10","system_id":"levelo_inurba_marseille","lat":43.285848,"lon":5.350787,"is_reserved":false,"is_disabled":false,"rental_uris":{"android":"levelo://app?vid=e8b3347f-b54d-4622-b95b-8c6b458bdb10","ios":"levelo://app?vid=e8b3347f-b54d-4622-b95b-8c6b458bdb10"},"vehicle_type_id":"4","last_reported":1684076784,"current_range_meters":18000,"station_id":"ce4bhch2rcd13ifvqeug","pricing_plan_id":"free"},{"bike_id":"557fb934-9e23-49d0-b13b-3524ef0e6730","system_id":"levelo_inurba_marseille","lat":43.28618,"lon":5.35096,"is_reserved":false,"is_disabled":false,"rental_uris":{"android":"levelo://app?vid=557fb934-9e23-49d0-b13b-3524ef0e6730","ios":"levelo://app?vid=557fb934-9e23-49d0-b13b-3524ef0e6730"},"vehicle_type_id":"4","last_reported":1684076784,"current_range_meters":16000,"station_id":"","pricing_plan_id":"free"},{"bike_id":"63c47e95-3ac5-442a-8511-74e0a27953d0","system_id":"levelo_inurba_marseille","lat":43.285848,"lon":5.350787,"is_reserved":false,"is_disabled":false,"rental_uris":{"android":"levelo://app?vid=63c47e95-3ac5-442a-8511-74e0a27953d0","ios":"levelo://app?vid=63c47e95-3ac5-442a-8511-74e0a27953d0"},"vehicle_type_id":"4","last_reported":1684076784,"current_range_meters":14000,"station_id":"ce4bhch2rcd13ifvqeug","pricing_plan_id":"free"},{"bike_id":"000d53d9-40f7-4622-9d87-84f3d939043b","system_id":"levelo_inurba_marseille","lat":43.285856,"lon":5.350771,"is_reserved":false,"is_disabled":false,"rental_uris":{"android":"levelo://app?vid=000d53d9-40f7-4622-9d87-84f3d939043b","ios":"levelo://app?vid=000d53d9-40f7-4622-9d87-84f3d939043b"},"vehicle_type_id":"4","last_reported":1684076784,"current_range_meters":25200,"station_id":"ce4bhch2rcd13ifvqeug","pricing_plan_id":"free"},{"bike_id":"00e77349-fab1-4e61-8bfe-fa70c56aa04b","system_id":"levelo_inurba_marseille","lat":43.285848,"lon":5.350787,"is_reserved":false,"is_disabled":false,"rental_uris":{"android":"levelo://app?vid=00e77349-fab1-4e61-8bfe-fa70c56aa04b","ios":"levelo://app?vid=00e77349-fab1-4e61-8bfe-fa70c56aa04b"},"vehicle_type_id":"4","last_reported":1684076784,"current_range_meters":25600,"station_id":"ce4bhch2rcd13ifvqeug","pricing_plan_id":"free"},{"bike_id":"a7b93beb-52d4-49ad-b877-6819567f34a0","system_id":"levelo_inurba_marseille","lat":43.28614,"lon":5.35102,"is_reserved":false,"is_disabled":false,"rental_uris":{"android":"levelo://app?vid=a7b93beb-52d4-49ad-b877-6819567f34a0","ios":"levelo://app?vid=a7b93beb-52d4-49ad-b877-6819567f34a0"},"vehicle_type_id":"4","last_reported":1684076784,"current_range_meters":30000,"station_id":"","pricing_plan_id":"free"},{"bike_id":"f6969433-8df9-4b5a-ad01-44012df2a5de","system_id":"levelo_inurba_marseille","lat":43.286138,"lon":5.351017,"is_reserved":false,"is_disabled":false,"rental_uris":{"android":"levelo://app?vid=f6969433-8df9-4b5a-ad01-44012df2a5de","ios":"levelo://app?vid=f6969433-8df9-4b5a-ad01-44012df2a5de"},"vehicle_type_id":"4","last_reported":1684076784,"current_range_meters":14400,"station_id":"ce4bhbp2rcd13ifvqerg","pricing_plan_id":"free"},{"bike_id":"9b74fd4c-eba6-4a11-9701-0b48edc26835","system_id":"levelo_inurba_marseille","lat":43.28613,"lon":5.35103,"is_reserved":false,"is_disabled":false,"rental_uris":{"android":"levelo://app?vid=9b74fd4c-eba6-4a11-9701-0b48edc26835","ios":"levelo://app?vid=9b74fd4c-eba6-4a11-9701-0b48edc26835"},"vehicle_type_id":"4","last_reported":1684076784,"current_range_meters":4800,"station_id":"","pricing_plan_id":"free"},{"bike_id":"75f03dbf-01f5-4855-9158-4992b12adee1","system_id":"levelo_inurba_marseille","lat":43.28613,"lon":5.35101,"is_reserved":false,"is_disabled":false,"rental_uris":{"android":"levelo://app?vid=75f03dbf-01f5-4855-9158-4992b12adee1","ios":"levelo://app?vid=75f03dbf-01f5-4855-9158-4992b12adee1"},"vehicle_type_id":"4","last_reported":1684076784,"current_range_meters":3200,"station_id":"","pricing_plan_id":"free"},{"bike_id":"1da3e0de-2d2b-43c1-9d1b-0ba7b480dbd9","system_id":"levelo_inurba_marseille","lat":43.28611,"lon":5.35102,"is_reserved":false,"is_disabled":false,"rental_uris":{"android":"levelo://app?vid=1da3e0de-2d2b-43c1-9d1b-0ba7b480dbd9","ios":"levelo://app?vid=1da3e0de-2d2b-43c1-9d1b-0ba7b480dbd9"},"vehicle_type_id":"4","last_reported":1684076784,"current_range_meters":18400,"station_id":"","pricing_plan_id":"free"},{"bike_id":"3ba8cbee-75d5-4623-980c-ad0ad6a10f83","system_id":"levelo_inurba_marseille","lat":43.2861,"lon":5.35104,"is_reserved":false,"is_disabled":false,"rental_uris":{"android":"levelo://app?vid=3ba8cbee-75d5-4623-980c-ad0ad6a10f83","ios":"levelo://app?vid=3ba8cbee-75d5-4623-980c-ad0ad6a10f83"},"vehicle_type_id":"4","last_reported":1684076784,"current_range_meters":24000,"station_id":"","pricing_plan_id":"free"},{"bike_id":"47d48109-5992-4dc9-8791-db29539163ad","system_id":"levelo_inurba_marseille","lat":43.2861,"lon":5.35102,"is_reserved":false,"is_disabled":false,"rental_uris":{"android":"levelo://app?vid=47d48109-5992-4dc9-8791-db29539163ad","ios":"levelo://app?vid=47d48109-5992-4dc9-8791-db29539163ad"},"vehicle_type_id":"4","last_reported":1684076784,"current_range_meters":5200,"station_id":"","pricing_plan_id":"free"},{"bike_id":"310f4e96-956e-4473-a323-a282982c8505","system_id":"levelo_inurba_marseille","lat":43.28609,"lon":5.35102,"is_reserved":false,"is_disabled":false,"rental_uris":{"android":"levelo://app?vid=310f4e96-956e-4473-a323-a282982c8505","ios":"levelo://app?vid=310f4e96-956e-4473-a323-a282982c8505"},"vehicle_type_id":"4","last_reported":1684076784,"current_range_meters":7200,"station_id":"","pricing_plan_id":"free"},{"bike_id":"bc3dbb85-99a8-4bce-99a9-f9aa83904534","system_id":"levelo_inurba_marseille","lat":43.295601,"lon":5.399211,"is_reserved":false,"is_disabled":false,"rental_uris":{"android":"levelo://app?vid=bc3dbb85-99a8-4bce-99a9-f9aa83904534","ios":"levelo://app?vid=bc3dbb85-99a8-4bce-99a9-f9aa83904534"},"vehicle_type_id":"4","last_reported":1684076784,"current_range_meters":20000,"station_id":"ce4bhh12rcd13ifvqff0","pricing_plan_id":"free"},{"bike_id":"f8906a5a-b79e-41a7-af08-0ffab96b4778","system_id":"levelo_inurba_marseille","lat":43.29567,"lon":5.39984,"is_reserved":false,"is_disabled":false,"rental_uris":{"android":"levelo://app?vid=f8906a5a-b79e-41a7-af08-0ffab96b4778","ios":"levelo://app?vid=f8906a5a-b79e-41a7-af08-0ffab96b4778"},"vehicle_type_id":"4","last_reported":1684076784,"current_range_meters":3600,"station_id":"ce4bh312rcd13ifvqdj0","pricing_plan_id":"free"},{"bike_id":"cf3486d6-a089-43c1-9fa0-d2698fe31d7f","system_id":"levelo_inurba_marseille","lat":43.295713,"lon":5.399639,"is_reserved":false,"is_disabled":false,"rental_uris":{"android":"levelo://app?vid=cf3486d6-a089-43c1-9fa0-d2698fe31d7f","ios":"levelo://app?vid=cf3486d6-a089-43c1-9fa0-d2698fe31d7f"},"vehicle_type_id":"4","last_reported":1684076784,"current_range_meters":8800,"station_id":"ce4bh312rcd13ifvqdj0","pricing_plan_id":"free"},{"bike_id":"619ee0d6-e94d-4f26-93e8-541d0865877d","system_id":"levelo_inurba_marseille","lat":43.323464,"lon":5.406297,"is_reserved":false,"is_disabled":false,"rental_uris":{"android":"levelo://app?vid=619ee0d6-e94d-4f26-93e8-541d0865877d","ios":"levelo://app?vid=619ee0d6-e94d-4f26-93e8-541d0865877d"},"vehicle_type_id":"4","last_reported":1684076784,"current_range_meters":28000,"station_id":"ce4bhq92rcd13ifvqhjg","pricing_plan_id":"free"},{"bike_id":"42b7c839-a23d-42ab-8ada-de4dd187b248","system_id":"levelo_inurba_marseille","lat":43.33728,"lon":5.39187,"is_reserved":false,"is_disabled":false,"rental_uris":{"android":"levelo://app?vid=42b7c839-a23d-42ab-8ada-de4dd187b248","ios":"levelo://app?vid=42b7c839-a23d-42ab-8ada-de4dd187b248"},"vehicle_type_id":"4","last_reported":1684076784,"current_range_meters":3200,"station_id":"ce4bhr92rcd13ifvqhsg","pricing_plan_id":"free"},{"bike_id":"ba7aa913-9040-4670-8e19-c182538420d2","system_id":"levelo_inurba_marseille","lat":43.31922,"lon":5.40805,"is_reserved":false,"is_disabled":false,"rental_uris":{"android":"levelo://app?vid=ba7aa913-9040-4670-8e19-c182538420d2","ios":"levelo://app?vid=ba7aa913-9040-4670-8e19-c182538420d2"},"vehicle_type_id":"4","last_reported":1684076784,"current_range_meters":20000,"station_id":"ce4bhq12rcd13ifvqhig","pricing_plan_id":"free"},{"bike_id":"d9f2d682-95b4-465a-b9bf-8876ccdf9f71","system_id":"levelo_inurba_marseille","lat":43.288501,"lon":5.393087,"is_reserved":false,"is_disabled":false,"rental_uris":{"android":"levelo://app?vid=d9f2d682-95b4-465a-b9bf-8876ccdf9f71","ios":"levelo://app?vid=d9f2d682-95b4-465a-b9bf-8876ccdf9f71"},"vehicle_type_id":"4","last_reported":1684076784,"current_range_meters":17600,"station_id":"ce4bh2p2rcd13ifvqdi0","pricing_plan_id":"free"},{"bike_id":"ea3d71b5-3524-4e70-a4df-6c8bacc38ce1","system_id":"levelo_inurba_marseille","lat":43.288501,"lon":5.393087,"is_reserved":false,"is_disabled":false,"rental_uris":{"android":"levelo://app?vid=ea3d71b5-3524-4e70-a4df-6c8bacc38ce1","ios":"levelo://app?vid=ea3d71b5-3524-4e70-a4df-6c8bacc38ce1"},"vehicle_type_id":"4","last_reported":1684076784,"current_range_meters":12800,"station_id":"ce4bh2p2rcd13ifvqdi0","pricing_plan_id":"free"},{"bike_id":"802456b4-f5fc-4d14-93d6-849c12f57f19","system_id":"levelo_inurba_marseille","lat":43.28432,"lon":5.35,"is_reserved":false,"is_disabled":false,"rental_uris":{"android":"levelo://app?vid=802456b4-f5fc-4d14-93d6-849c12f57f19","ios":"levelo://app?vid=802456b4-f5fc-4d14-93d6-849c12f57f19"},"vehicle_type_id":"4","last_reported":1684076784,"current_range_meters":24800,"station_id":"ce4bhbh2rcd13ifvqepg","pricing_plan_id":"free"},{"bike_id":"3c55e074-1749-498e-ad2f-42e17b1bc1c9","system_id":"levelo_inurba_marseille","lat":43.28432,"lon":5.34998,"is_reserved":false,"is_disabled":false,"rental_uris":{"android":"levelo://app?vid=3c55e074-1749-498e-ad2f-42e17b1bc1c9","ios":"levelo://app?vid=3c55e074-1749-498e-ad2f-42e17b1bc1c9"},"vehicle_type_id":"4","last_reported":1684076784,"current_range_meters":6400,"station_id":"ce4bhbh2rcd13ifvqepg","pricing_plan_id":"free"},{"bike_id":"0ad0bc72-f30b-484a-b752-637fe12e774d","system_id":"levelo_inurba_marseille","lat":43.288501,"lon":5.393087,"is_reserved":false,"is_disabled":false,"rental_uris":{"android":"levelo://app?vid=0ad0bc72-f30b-484a-b752-637fe12e774d","ios":"levelo://app?vid=0ad0bc72-f30b-484a-b752-637fe12e774d"},"vehicle_type_id":"4","last_reported":1684076784,"current_range_meters":21600,"station_id":"ce4bh2p2rcd13ifvqdi0","pricing_plan_id":"free"},{"bike_id":"4f42351a-8ddb-492c-aafc-6e6da096c697","system_id":"levelo_inurba_marseille","lat":43.28432,"lon":5.34994,"is_reserved":false,"is_disabled":false,"rental_uris":{"android":"levelo://app?vid=4f42351a-8ddb-492c-aafc-6e6da096c697","ios":"levelo://app?vid=4f42351a-8ddb-492c-aafc-6e6da096c697"},"vehicle_type_id":"4","last_reported":1684076784,"current_range_meters":29200,"station_id":"ce4bhbh2rcd13ifvqepg","pricing_plan_id":"free"},{"bike_id":"48a94556-3610-4f67-bd53-c8917a18eaa8","system_id":"levelo_inurba_marseille","lat":43.283498,"lon":5.380948,"is_reserved":false,"is_disabled":false,"rental_uris":{"android":"levelo://app?vid=48a94556-3610-4f67-bd53-c8917a18eaa8","ios":"levelo://app?vid=48a94556-3610-4f67-bd53-c8917a18eaa8"},"vehicle_type_id":"4","last_reported":1684076784,"current_range_meters":4400,"station_id":"ce4bh412rcd13ifvqdr0","pricing_plan_id":"free"},{"bike_id":"a00215d8-89cc-4084-8a85-008924ba8598","system_id":"levelo_inurba_marseille","lat":43.288497,"lon":5.393089,"is_reserved":false,"is_disabled":false,"rental_uris":{"android":"levelo://app?vid=a00215d8-89cc-4084-8a85-008924ba8598","ios":"levelo://app?vid=a00215d8-89cc-4084-8a85-008924ba8598"},"vehicle_type_id":"4","last_reported":1684076784,"current_range_meters":6800,"station_id":"ce4bh2p2rcd13ifvqdi0","pricing_plan_id":"free"},{"bike_id":"86e0845f-9aa9-4ddf-baae-38e4d42a8573","system_id":"levelo_inurba_marseille","lat":43.28429,"lon":5.34994,"is_reserved":false,"is_disabled":false,"rental_uris":{"android":"levelo://app?vid=86e0845f-9aa9-4ddf-baae-38e4d42a8573","ios":"levelo://app?vid=86e0845f-9aa9-4ddf-baae-38e4d42a8573"},"vehicle_type_id":"4","last_reported":1684076784,"current_range_meters":24000,"station_id":"ce4bhbh2rcd13ifvqepg","pricing_plan_id":"free"},{"bike_id":"d7586cbc-e77d-40c8-b696-8b274e28ee9c","system_id":"levelo_inurba_marseille","lat":43.28427,"lon":5.34997,"is_reserved":false,"is_disabled":false,"rental_uris":{"android":"levelo://app?vid=d7586cbc-e77d-40c8-b696-8b274e28ee9c","ios":"levelo://app?vid=d7586cbc-e77d-40c8-b696-8b274e28ee9c"},"vehicle_type_id":"4","last_reported":1684076784,"current_range_meters":28400,"station_id":"ce4bhbh2rcd13ifvqepg","pricing_plan_id":"free"},{"bike_id":"3f8484fd-2dc0-4f9b-b391-62a8259ca52c","system_id":"levelo_inurba_marseille","lat":43.28426,"lon":5.35,"is_reserved":false,"is_disabled":false,"rental_uris":{"android":"levelo://app?vid=3f8484fd-2dc0-4f9b-b391-62a8259ca52c","ios":"levelo://app?vid=3f8484fd-2dc0-4f9b-b391-62a8259ca52c"},"vehicle_type_id":"4","last_reported":1684076784,"current_range_meters":5600,"station_id":"ce4bhbh2rcd13ifvqepg","pricing_plan_id":"free"},{"bike_id":"bf5dd51b-d700-46f0-b9e0-7ccaa9e286e6","system_id":"levelo_inurba_marseille","lat":43.28427,"lon":5.34996,"is_reserved":false,"is_disabled":false,"rental_uris":{"android":"levelo://app?vid=bf5dd51b-d700-46f0-b9e0-7ccaa9e286e6","ios":"levelo://app?vid=bf5dd51b-d700-46f0-b9e0-7ccaa9e286e6"},"vehicle_type_id":"4","last_reported":1684076784,"current_range_meters":18000,"station_id":"ce4bhbh2rcd13ifvqepg","pricing_plan_id":"free"},{"bike_id":"15707081-bd63-41cc-bd2a-ebce6881ba59","system_id":"levelo_inurba_marseille","lat":43.28426,"lon":5.34997,"is_reserved":false,"is_disabled":false,"rental_uris":{"android":"levelo://app?vid=15707081-bd63-41cc-bd2a-ebce6881ba59","ios":"levelo://app?vid=15707081-bd63-41cc-bd2a-ebce6881ba59"},"vehicle_type_id":"4","last_reported":1684076784,"current_range_meters":16400,"station_id":"ce4bhbh2rcd13ifvqepg","pricing_plan_id":"free"},{"bike_id":"8115e081-1ffd-44ff-8923-ed5ac68553b8","system_id":"levelo_inurba_marseille","lat":43.28425,"lon":5.34995,"is_reserved":false,"is_disabled":false,"rental_uris":{"android":"levelo://app?vid=8115e081-1ffd-44ff-8923-ed5ac68553b8","ios":"levelo://app?vid=8115e081-1ffd-44ff-8923-ed5ac68553b8"},"vehicle_type_id":"4","last_reported":1684076784,"current_range_meters":11200,"station_id":"ce4bhbh2rcd13ifvqepg","pricing_plan_id":"free"},{"bike_id":"cfcf673e-9136-4182-bff1-e056089aa3a7","system_id":"levelo_inurba_marseille","lat":43.28425,"lon":5.34994,"is_reserved":false,"is_disabled":false,"rental_uris":{"android":"levelo://app?vid=cfcf673e-9136-4182-bff1-e056089aa3a7","ios":"levelo://app?vid=cfcf673e-9136-4182-bff1-e056089aa3a7"},"vehicle_type_id":"4","last_reported":1684076784,"current_range_meters":27600,"station_id":"ce4bhbh2rcd13ifvqepg","pricing_plan_id":"free"},{"bike_id":"6da5fc88-b09d-49b8-b914-40a7ec41d986","system_id":"levelo_inurba_marseille","lat":43.28424,"lon":5.34995,"is_reserved":false,"is_disabled":false,"rental_uris":{"android":"levelo://app?vid=6da5fc88-b09d-49b8-b914-40a7ec41d986","ios":"levelo://app?vid=6da5fc88-b09d-49b8-b914-40a7ec41d986"},"vehicle_type_id":"4","last_reported":1684076784,"current_range_meters":8800,"station_id":"ce4bhbh2rcd13ifvqepg","pricing_plan_id":"free"},{"bike_id":"9f4d5549-f8cc-4660-a038-674fe5327cf3","system_id":"levelo_inurba_marseille","lat":43.28424,"lon":5.34995,"is_reserved":false,"is_disabled":false,"rental_uris":{"android":"levelo://app?vid=9f4d5549-f8cc-4660-a038-674fe5327cf3","ios":"levelo://app?vid=9f4d5549-f8cc-4660-a038-674fe5327cf3"},"vehicle_type_id":"4","last_reported":1684076784,"current_range_meters":17600,"station_id":"ce4bhbh2rcd13ifvqepg","pricing_plan_id":"free"},{"bike_id":"61fb3247-f40f-4025-9be7-946c14d87310","system_id":"levelo_inurba_marseille","lat":43.28424,"lon":5.34993,"is_reserved":false,"is_disabled":false,"rental_uris":{"android":"levelo://app?vid=61fb3247-f40f-4025-9be7-946c14d87310","ios":"levelo://app?vid=61fb3247-f40f-4025-9be7-946c14d87310"},"vehicle_type_id":"4","last_reported":1684076784,"current_range_meters":25200,"station_id":"ce4bhbh2rcd13ifvqepg","pricing_plan_id":"free"},{"bike_id":"62060680-6764-4e1f-833a-ab72f12cbce4","system_id":"levelo_inurba_marseille","lat":43.284217,"lon":5.349697,"is_reserved":false,"is_disabled":false,"rental_uris":{"android":"levelo://app?vid=62060680-6764-4e1f-833a-ab72f12cbce4","ios":"levelo://app?vid=62060680-6764-4e1f-833a-ab72f12cbce4"},"vehicle_type_id":"4","last_reported":1684076784,"current_range_meters":31600,"station_id":"ce4bhbh2rcd13ifvqepg","pricing_plan_id":"free"},{"bike_id":"dcf9921c-3a06-480e-854f-02f0f48efcb6","system_id":"levelo_inurba_marseille","lat":43.28422,"lon":5.34997,"is_reserved":false,"is_disabled":false,"rental_uris":{"android":"levelo://app?vid=dcf9921c-3a06-480e-854f-02f0f48efcb6","ios":"levelo://app?vid=dcf9921c-3a06-480e-854f-02f0f48efcb6"},"vehicle_type_id":"4","last_reported":1684076784,"current_range_meters":31200,"station_id":"ce4bhbh2rcd13ifvqepg","pricing_plan_id":"free"},{"bike_id":"b377e307-90b4-4c46-98a0-67193b5de737","system_id":"levelo_inurba_marseille","lat":43.28422,"lon":5.34996,"is_reserved":false,"is_disabled":false,"rental_uris":{"android":"levelo://app?vid=b377e307-90b4-4c46-98a0-67193b5de737","ios":"levelo://app?vid=b377e307-90b4-4c46-98a0-67193b5de737"},"vehicle_type_id":"4","last_reported":1684076784,"current_range_meters":26400,"station_id":"ce4bhbh2rcd13ifvqepg","pricing_plan_id":"free"},{"bike_id":"0dd2b3a1-48e9-47b4-907b-180dddfee122","system_id":"levelo_inurba_marseille","lat":43.28422,"lon":5.34988,"is_reserved":false,"is_disabled":false,"rental_uris":{"android":"levelo://app?vid=0dd2b3a1-48e9-47b4-907b-180dddfee122","ios":"levelo://app?vid=0dd2b3a1-48e9-47b4-907b-180dddfee122"},"vehicle_type_id":"4","last_reported":1684076784,"current_range_meters":27600,"station_id":"ce4bhbh2rcd13ifvqepg","pricing_plan_id":"free"},{"bike_id":"f303f4ab-5af2-4189-ae23-91eaece09faa","system_id":"levelo_inurba_marseille","lat":43.28418,"lon":5.34995,"is_reserved":false,"is_disabled":false,"rental_uris":{"android":"levelo://app?vid=f303f4ab-5af2-4189-ae23-91eaece09faa","ios":"levelo://app?vid=f303f4ab-5af2-4189-ae23-91eaece09faa"},"vehicle_type_id":"4","last_reported":1684076784,"current_range_meters":31200,"station_id":"ce4bhbh2rcd13ifvqepg","pricing_plan_id":"free"},{"bike_id":"ce501f4f-19b6-4b01-a17c-3e9f99bed5d1","system_id":"levelo_inurba_marseille","lat":43.28415,"lon":5.34993,"is_reserved":false,"is_disabled":false,"rental_uris":{"android":"levelo://app?vid=ce501f4f-19b6-4b01-a17c-3e9f99bed5d1","ios":"levelo://app?vid=ce501f4f-19b6-4b01-a17c-3e9f99bed5d1"},"vehicle_type_id":"4","last_reported":1684076784,"current_range_meters":0,"station_id":"ce4bhbh2rcd13ifvqepg","pricing_plan_id":"free"},{"bike_id":"2945fd78-4a04-4f2e-9bda-4ab4da76ef42","system_id":"levelo_inurba_marseille","lat":43.284217,"lon":5.349697,"is_reserved":false,"is_disabled":false,"rental_uris":{"android":"levelo://app?vid=2945fd78-4a04-4f2e-9bda-4ab4da76ef42","ios":"levelo://app?vid=2945fd78-4a04-4f2e-9bda-4ab4da76ef42"},"vehicle_type_id":"4","last_reported":1684076784,"current_range_meters":31600,"station_id":"ce4bhbh2rcd13ifvqepg","pricing_plan_id":"free"},{"bike_id":"f318dc31-42f3-4ee8-b3cf-587fbee4ae00","system_id":"levelo_inurba_marseille","lat":43.284101,"lon":5.349742,"is_reserved":false,"is_disabled":false,"rental_uris":{"android":"levelo://app?vid=f318dc31-42f3-4ee8-b3cf-587fbee4ae00","ios":"levelo://app?vid=f318dc31-42f3-4ee8-b3cf-587fbee4ae00"},"vehicle_type_id":"4","last_reported":1684076784,"current_range_meters":17200,"station_id":"ce4bhbh2rcd13ifvqepg","pricing_plan_id":"free"},{"bike_id":"df849bad-23b9-4c11-9031-fa58883bec25","system_id":"levelo_inurba_marseille","lat":43.292724,"lon":5.401131,"is_reserved":false,"is_disabled":false,"rental_uris":{"android":"levelo://app?vid=df849bad-23b9-4c11-9031-fa58883bec25","ios":"levelo://app?vid=df849bad-23b9-4c11-9031-fa58883bec25"},"vehicle_type_id":"4","last_reported":1684076784,"current_range_meters":6800,"station_id":"ce4bh312rcd13ifvqdk0","pricing_plan_id":"free"},{"bike_id":"1c62084e-c70a-44a3-b30b-2abc2475ff00","system_id":"levelo_inurba_marseille","lat":43.28284,"lon":5.35078,"is_reserved":false,"is_disabled":false,"rental_uris":{"android":"levelo://app?vid=1c62084e-c70a-44a3-b30b-2abc2475ff00","ios":"levelo://app?vid=1c62084e-c70a-44a3-b30b-2abc2475ff00"},"vehicle_type_id":"4","last_reported":1684076784,"current_range_meters":18800,"station_id":"ce4bhbp2rcd13ifvqerg","pricing_plan_id":"free"},{"bike_id":"2fc505ce-c84b-42b7-a40e-a22dbfdb88bc","system_id":"levelo_inurba_marseille","lat":43.28276,"lon":5.35074,"is_reserved":false,"is_disabled":false,"rental_uris":{"android":"levelo://app?vid=2fc505ce-c84b-42b7-a40e-a22dbfdb88bc","ios":"levelo://app?vid=2fc505ce-c84b-42b7-a40e-a22dbfdb88bc"},"vehicle_type_id":"4","last_reported":1684076784,"current_range_meters":20400,"station_id":"ce4bhbp2rcd13ifvqerg","pricing_plan_id":"free"},{"bike_id":"e822d94a-c274-4f84-8075-549d338854f2","system_id":"levelo_inurba_marseille","lat":43.28276,"lon":5.35069,"is_reserved":false,"is_disabled":false,"rental_uris":{"android":"levelo://app?vid=e822d94a-c274-4f84-8075-549d338854f2","ios":"levelo://app?vid=e822d94a-c274-4f84-8075-549d338854f2"},"vehicle_type_id":"4","last_reported":1684076784,"current_range_meters":19200,"station_id":"ce4bhbp2rcd13ifvqerg","pricing_plan_id":"free"},{"bike_id":"c170996e-9f05-4fc2-b011-4fbaa8ce7642","system_id":"levelo_inurba_marseille","lat":43.282744,"lon":5.350533,"is_reserved":false,"is_disabled":false,"rental_uris":{"android":"levelo://app?vid=c170996e-9f05-4fc2-b011-4fbaa8ce7642","ios":"levelo://app?vid=c170996e-9f05-4fc2-b011-4fbaa8ce7642"},"vehicle_type_id":"4","last_reported":1684076784,"current_range_meters":800,"station_id":"ce4bhbp2rcd13ifvqerg","pricing_plan_id":"free"},{"bike_id":"6be47aff-67e9-462e-914c-e5797415be7a","system_id":"levelo_inurba_marseille","lat":43.282754,"lon":5.350519,"is_reserved":false,"is_disabled":false,"rental_uris":{"android":"levelo://app?vid=6be47aff-67e9-462e-914c-e5797415be7a","ios":"levelo://app?vid=6be47aff-67e9-462e-914c-e5797415be7a"},"vehicle_type_id":"4","last_reported":1684076784,"current_range_meters":19600,"station_id":"ce4bhbp2rcd13ifvqerg","pricing_plan_id":"free"},{"bike_id":"4d534387-d1f6-4032-bb66-10666aa434b9","system_id":"levelo_inurba_marseille","lat":43.282754,"lon":5.350519,"is_reserved":false,"is_disabled":false,"rental_uris":{"android":"levelo://app?vid=4d534387-d1f6-4032-bb66-10666aa434b9","ios":"levelo://app?vid=4d534387-d1f6-4032-bb66-10666aa434b9"},"vehicle_type_id":"4","last_reported":1684076784,"current_range_meters":11600,"station_id":"ce4bhbp2rcd13ifvqerg","pricing_plan_id":"free"},{"bike_id":"1f7d49eb-be00-40b1-abfa-d7acb086606c","system_id":"levelo_inurba_marseille","lat":43.283502,"lon":5.386471,"is_reserved":false,"is_disabled":false,"rental_uris":{"android":"levelo://app?vid=1f7d49eb-be00-40b1-abfa-d7acb086606c","ios":"levelo://app?vid=1f7d49eb-be00-40b1-abfa-d7acb086606c"},"vehicle_type_id":"4","last_reported":1684076784,"current_range_meters":0,"station_id":"ce4bh492rcd13ifvqdvg","pricing_plan_id":"free"},{"bike_id":"3892c4a2-1244-4198-9b9c-b3c22e3b69c7","system_id":"levelo_inurba_marseille","lat":43.282744,"lon":5.350533,"is_reserved":false,"is_disabled":false,"rental_uris":{"android":"levelo://app?vid=3892c4a2-1244-4198-9b9c-b3c22e3b69c7","ios":"levelo://app?vid=3892c4a2-1244-4198-9b9c-b3c22e3b69c7"},"vehicle_type_id":"4","last_reported":1684076784,"current_range_meters":8800,"station_id":"ce4bhbp2rcd13ifvqerg","pricing_plan_id":"free"},{"bike_id":"c617464b-56f1-453a-bf70-5e6ec2fdc8b9","system_id":"levelo_inurba_marseille","lat":43.28264,"lon":5.35068,"is_reserved":false,"is_disabled":false,"rental_uris":{"android":"levelo://app?vid=c617464b-56f1-453a-bf70-5e6ec2fdc8b9","ios":"levelo://app?vid=c617464b-56f1-453a-bf70-5e6ec2fdc8b9"},"vehicle_type_id":"4","last_reported":1684076784,"current_range_meters":14400,"station_id":"ce4bhbp2rcd13ifvqerg","pricing_plan_id":"free"},{"bike_id":"3e610bfa-a402-4fb3-8303-8f17ee9e440c","system_id":"levelo_inurba_marseille","lat":43.28039,"lon":5.369297,"is_reserved":false,"is_disabled":false,"rental_uris":{"android":"levelo://app?vid=3e610bfa-a402-4fb3-8303-8f17ee9e440c","ios":"levelo://app?vid=3e610bfa-a402-4fb3-8303-8f17ee9e440c"},"vehicle_type_id":"4","last_reported":1684076784,"current_range_meters":22400,"station_id":"ce4bha12rcd13ifvqef0","pricing_plan_id":"free"},{"bike_id":"4d14f77f-bab3-4d89-8302-7d8208d4ccef","system_id":"levelo_inurba_marseille","lat":43.28039,"lon":5.369297,"is_reserved":false,"is_disabled":false,"rental_uris":{"android":"levelo://app?vid=4d14f77f-bab3-4d89-8302-7d8208d4ccef","ios":"levelo://app?vid=4d14f77f-bab3-4d89-8302-7d8208d4ccef"},"vehicle_type_id":"4","last_reported":1684076784,"current_range_meters":4400,"station_id":"ce4bha12rcd13ifvqef0","pricing_plan_id":"free"},{"bike_id":"2d92a1a6-166b-48ce-8185-4218c97944cc","system_id":"levelo_inurba_marseille","lat":43.280382,"lon":5.369291,"is_reserved":false,"is_disabled":false,"rental_uris":{"android":"levelo://app?vid=2d92a1a6-166b-48ce-8185-4218c97944cc","ios":"levelo://app?vid=2d92a1a6-166b-48ce-8185-4218c97944cc"},"vehicle_type_id":"4","last_reported":1684076784,"current_range_meters":6400,"station_id":"ce4bha12rcd13ifvqef0","pricing_plan_id":"free"},{"bike_id":"b7fe639e-bd0b-445e-af10-e531c2b4b0c6","system_id":"levelo_inurba_marseille","lat":43.280382,"lon":5.369291,"is_reserved":false,"is_disabled":false,"rental_uris":{"android":"levelo://app?vid=b7fe639e-bd0b-445e-af10-e531c2b4b0c6","ios":"levelo://app?vid=b7fe639e-bd0b-445e-af10-e531c2b4b0c6"},"vehicle_type_id":"4","last_reported":1684076784,"current_range_meters":6000,"station_id":"ce4bha12rcd13ifvqef0","pricing_plan_id":"free"},{"bike_id":"74d1e32f-263d-4536-a983-0ab25dc9aec2","system_id":"levelo_inurba_marseille","lat":43.28039,"lon":5.369297,"is_reserved":false,"is_disabled":false,"rental_uris":{"android":"levelo://app?vid=74d1e32f-263d-4536-a983-0ab25dc9aec2","ios":"levelo://app?vid=74d1e32f-263d-4536-a983-0ab25dc9aec2"},"vehicle_type_id":"4","last_reported":1684076784,"current_range_meters":20000,"station_id":"ce4bha12rcd13ifvqef0","pricing_plan_id":"free"},{"bike_id":"60962d4c-bd67-4a6c-8036-97c2137599a3","system_id":"levelo_inurba_marseille","lat":43.288501,"lon":5.393087,"is_reserved":false,"is_disabled":false,"rental_uris":{"android":"levelo://app?vid=60962d4c-bd67-4a6c-8036-97c2137599a3","ios":"levelo://app?vid=60962d4c-bd67-4a6c-8036-97c2137599a3"},"vehicle_type_id":"4","last_reported":1684076784,"current_range_meters":24400,"station_id":"ce4bh2p2rcd13ifvqdi0","pricing_plan_id":"free"},{"bike_id":"78ba9105-c0fc-4d0a-b38f-ed750b21975b","system_id":"levelo_inurba_marseille","lat":43.28111,"lon":5.37845,"is_reserved":false,"is_disabled":false,"rental_uris":{"android":"levelo://app?vid=78ba9105-c0fc-4d0a-b38f-ed750b21975b","ios":"levelo://app?vid=78ba9105-c0fc-4d0a-b38f-ed750b21975b"},"vehicle_type_id":"4","last_reported":1684076784,"current_range_meters":5200,"station_id":"ce4bha12rcd13ifvqee0","pricing_plan_id":"free"},{"bike_id":"44c70703-de81-462c-9351-6cd3673aae0b","system_id":"levelo_inurba_marseille","lat":43.29041,"lon":5.399634,"is_reserved":false,"is_disabled":false,"rental_uris":{"android":"levelo://app?vid=44c70703-de81-462c-9351-6cd3673aae0b","ios":"levelo://app?vid=44c70703-de81-462c-9351-6cd3673aae0b"},"vehicle_type_id":"4","last_reported":1684076784,"current_range_meters":4400,"station_id":"ce4bh392rcd13ifvqdm0","pricing_plan_id":"free"},{"bike_id":"913dcde0-791d-4bfc-9f3f-ddd1ae9814c3","system_id":"levelo_inurba_marseille","lat":43.281044,"lon":5.378308,"is_reserved":false,"is_disabled":false,"rental_uris":{"android":"levelo://app?vid=913dcde0-791d-4bfc-9f3f-ddd1ae9814c3","ios":"levelo://app?vid=913dcde0-791d-4bfc-9f3f-ddd1ae9814c3"},"vehicle_type_id":"4","last_reported":1684076784,"current_range_meters":4800,"station_id":"ce4bha12rcd13ifvqee0","pricing_plan_id":"free"},{"bike_id":"8a74f256-6027-4c5a-b54f-4cd339beaec2","system_id":"levelo_inurba_marseille","lat":43.281044,"lon":5.378308,"is_reserved":false,"is_disabled":false,"rental_uris":{"android":"levelo://app?vid=8a74f256-6027-4c5a-b54f-4cd339beaec2","ios":"levelo://app?vid=8a74f256-6027-4c5a-b54f-4cd339beaec2"},"vehicle_type_id":"4","last_reported":1684076784,"current_range_meters":6000,"station_id":"ce4bha12rcd13ifvqee0","pricing_plan_id":"free"},{"bike_id":"d7e7840b-b21c-4a01-a15b-f80c34169996","system_id":"levelo_inurba_marseille","lat":43.284462,"lon":5.392121,"is_reserved":false,"is_disabled":false,"rental_uris":{"android":"levelo://app?vid=d7e7840b-b21c-4a01-a15b-f80c34169996","ios":"levelo://app?vid=d7e7840b-b21c-4a01-a15b-f80c34169996"},"vehicle_type_id":"4","last_reported":1684076784,"current_range_meters":0,"station_id":"ce4bhoh2rcd13ifvqh5g","pricing_plan_id":"free"},{"bike_id":"5fd83c42-a225-432f-8372-d628009f211e","system_id":"levelo_inurba_marseille","lat":43.284462,"lon":5.392121,"is_reserved":false,"is_disabled":false,"rental_uris":{"android":"levelo://app?vid=5fd83c42-a225-432f-8372-d628009f211e","ios":"levelo://app?vid=5fd83c42-a225-432f-8372-d628009f211e"},"vehicle_type_id":"4","last_reported":1684076784,"current_range_meters":16800,"station_id":"ce4bhoh2rcd13ifvqh5g","pricing_plan_id":"free"},{"bike_id":"8f750da9-8c01-4a11-bcd5-1a4410d70078","system_id":"levelo_inurba_marseille","lat":43.284462,"lon":5.392121,"is_reserved":false,"is_disabled":false,"rental_uris":{"android":"levelo://app?vid=8f750da9-8c01-4a11-bcd5-1a4410d70078","ios":"levelo://app?vid=8f750da9-8c01-4a11-bcd5-1a4410d70078"},"vehicle_type_id":"4","last_reported":1684076784,"current_range_meters":4000,"station_id":"ce4bhoh2rcd13ifvqh5g","pricing_plan_id":"free"},{"bike_id":"8d99bb42-31c6-4b87-b871-8ef82cfdd037","system_id":"levelo_inurba_marseille","lat":43.28706,"lon":5.39991,"is_reserved":false,"is_disabled":false,"rental_uris":{"android":"levelo://app?vid=8d99bb42-31c6-4b87-b871-8ef82cfdd037","ios":"levelo://app?vid=8d99bb42-31c6-4b87-b871-8ef82cfdd037"},"vehicle_type_id":"4","last_reported":1684076784,"current_range_meters":6800,"station_id":"ce4bho92rcd13ifvqh3g","pricing_plan_id":"free"},{"bike_id":"66019fe5-756c-47b0-b1ce-0d0abd3eeef5","system_id":"levelo_inurba_marseille","lat":43.287154,"lon":5.399979,"is_reserved":false,"is_disabled":false,"rental_uris":{"android":"levelo://app?vid=66019fe5-756c-47b0-b1ce-0d0abd3eeef5","ios":"levelo://app?vid=66019fe5-756c-47b0-b1ce-0d0abd3eeef5"},"vehicle_type_id":"4","last_reported":1684076784,"current_range_meters":24000,"station_id":"ce4bho92rcd13ifvqh3g","pricing_plan_id":"free"},{"bike_id":"f20bcf2f-5508-4175-81d2-8720c7275c4d","system_id":"levelo_inurba_marseille","lat":43.320045,"lon":5.415048,"is_reserved":false,"is_disabled":false,"rental_uris":{"android":"levelo://app?vid=f20bcf2f-5508-4175-81d2-8720c7275c4d","ios":"levelo://app?vid=f20bcf2f-5508-4175-81d2-8720c7275c4d"},"vehicle_type_id":"4","last_reported":1684076784,"current_range_meters":28000,"station_id":"ce4bhq92rcd13ifvqhkg","pricing_plan_id":"free"},{"bike_id":"aeba5add-d2e0-4b49-8ff7-3111541f844e","system_id":"levelo_inurba_marseille","lat":43.279742,"lon":5.38744,"is_reserved":false,"is_disabled":false,"rental_uris":{"android":"levelo://app?vid=aeba5add-d2e0-4b49-8ff7-3111541f844e","ios":"levelo://app?vid=aeba5add-d2e0-4b49-8ff7-3111541f844e"},"vehicle_type_id":"4","last_reported":1684076784,"current_range_meters":22400,"station_id":"ce4bhg12rcd13ifvqf80","pricing_plan_id":"free"},{"bike_id":"d3bc5b0f-fd88-40ae-ad12-586d54acbea8","system_id":"levelo_inurba_marseille","lat":43.279742,"lon":5.38744,"is_reserved":false,"is_disabled":false,"rental_uris":{"android":"levelo://app?vid=d3bc5b0f-fd88-40ae-ad12-586d54acbea8","ios":"levelo://app?vid=d3bc5b0f-fd88-40ae-ad12-586d54acbea8"},"vehicle_type_id":"4","last_reported":1684076784,"current_range_meters":24800,"station_id":"ce4bhg12rcd13ifvqf80","pricing_plan_id":"free"},{"bike_id":"3e0e00bb-9c7d-4286-8dcc-85412005b6d8","system_id":"levelo_inurba_marseille","lat":43.292571,"lon":5.409107,"is_reserved":false,"is_disabled":false,"rental_uris":{"android":"levelo://app?vid=3e0e00bb-9c7d-4286-8dcc-85412005b6d8","ios":"levelo://app?vid=3e0e00bb-9c7d-4286-8dcc-85412005b6d8"},"vehicle_type_id":"4","last_reported":1684076784,"current_range_meters":20800,"station_id":"ce4bh192rcd13ifvqdc0","pricing_plan_id":"free"},{"bike_id":"6dc7ea4d-c18f-4f67-b4f5-4da27236f7fa","system_id":"levelo_inurba_marseille","lat":43.292569,"lon":5.409107,"is_reserved":false,"is_disabled":false,"rental_uris":{"android":"levelo://app?vid=6dc7ea4d-c18f-4f67-b4f5-4da27236f7fa","ios":"levelo://app?vid=6dc7ea4d-c18f-4f67-b4f5-4da27236f7fa"},"vehicle_type_id":"4","last_reported":1684076784,"current_range_meters":23600,"station_id":"ce4bh192rcd13ifvqdc0","pricing_plan_id":"free"},{"bike_id":"378671d8-17b6-479c-8b9f-de4b3bcb309f","system_id":"levelo_inurba_marseille","lat":43.325233,"lon":5.414318,"is_reserved":false,"is_disabled":false,"rental_uris":{"android":"levelo://app?vid=378671d8-17b6-479c-8b9f-de4b3bcb309f","ios":"levelo://app?vid=378671d8-17b6-479c-8b9f-de4b3bcb309f"},"vehicle_type_id":"4","last_reported":1684076784,"current_range_meters":22000,"station_id":"ce4bhq12rcd13ifvqhhg","pricing_plan_id":"free"},{"bike_id":"3349175c-04cb-4d6b-83cf-7b66e840eea0","system_id":"levelo_inurba_marseille","lat":43.292569,"lon":5.409107,"is_reserved":false,"is_disabled":false,"rental_uris":{"android":"levelo://app?vid=3349175c-04cb-4d6b-83cf-7b66e840eea0","ios":"levelo://app?vid=3349175c-04cb-4d6b-83cf-7b66e840eea0"},"vehicle_type_id":"4","last_reported":1684076784,"current_range_meters":0,"station_id":"ce4bh192rcd13ifvqdc0","pricing_plan_id":"free"},{"bike_id":"10995590-0527-4248-a46b-522030684dd6","system_id":"levelo_inurba_marseille","lat":43.27621,"lon":5.36125,"is_reserved":false,"is_disabled":false,"rental_uris":{"android":"levelo://app?vid=10995590-0527-4248-a46b-522030684dd6","ios":"levelo://app?vid=10995590-0527-4248-a46b-522030684dd6"},"vehicle_type_id":"4","last_reported":1684076784,"current_range_meters":0,"station_id":"","pricing_plan_id":"free"},{"bike_id":"bda61168-a97a-4ad4-a4d2-b7645f351d18","system_id":"levelo_inurba_marseille","lat":43.27618,"lon":5.361009,"is_reserved":false,"is_disabled":false,"rental_uris":{"android":"levelo://app?vid=bda61168-a97a-4ad4-a4d2-b7645f351d18","ios":"levelo://app?vid=bda61168-a97a-4ad4-a4d2-b7645f351d18"},"vehicle_type_id":"4","last_reported":1684076784,"current_range_meters":24000,"station_id":"ce4bgj92rcd13ifvqbe0","pricing_plan_id":"free"},{"bike_id":"05b4535b-3b08-4a16-9da9-a953d780145c","system_id":"levelo_inurba_marseille","lat":43.325233,"lon":5.414318,"is_reserved":false,"is_disabled":false,"rental_uris":{"android":"levelo://app?vid=05b4535b-3b08-4a16-9da9-a953d780145c","ios":"levelo://app?vid=05b4535b-3b08-4a16-9da9-a953d780145c"},"vehicle_type_id":"4","last_reported":1684076784,"current_range_meters":31600,"station_id":"ce4bhq12rcd13ifvqhhg","pricing_plan_id":"free"},{"bike_id":"ea905930-4085-4f9d-b152-99063589202e","system_id":"levelo_inurba_marseille","lat":43.27618,"lon":5.361009,"is_reserved":false,"is_disabled":false,"rental_uris":{"android":"levelo://app?vid=ea905930-4085-4f9d-b152-99063589202e","ios":"levelo://app?vid=ea905930-4085-4f9d-b152-99063589202e"},"vehicle_type_id":"4","last_reported":1684076784,"current_range_meters":31600,"station_id":"ce4bgj92rcd13ifvqbe0","pricing_plan_id":"free"},{"bike_id":"72d1c47b-25f0-4500-a29b-04b3650a151e","system_id":"levelo_inurba_marseille","lat":43.32545,"lon":5.41441,"is_reserved":false,"is_disabled":false,"rental_uris":{"android":"levelo://app?vid=72d1c47b-25f0-4500-a29b-04b3650a151e","ios":"levelo://app?vid=72d1c47b-25f0-4500-a29b-04b3650a151e"},"vehicle_type_id":"4","last_reported":1684076784,"current_range_meters":30400,"station_id":"ce4bhq12rcd13ifvqhhg","pricing_plan_id":"free"},{"bike_id":"bf5b2fef-5f24-4a5d-a62a-fcc983a69cd0","system_id":"levelo_inurba_marseille","lat":43.276179,"lon":5.361009,"is_reserved":false,"is_disabled":false,"rental_uris":{"android":"levelo://app?vid=bf5b2fef-5f24-4a5d-a62a-fcc983a69cd0","ios":"levelo://app?vid=bf5b2fef-5f24-4a5d-a62a-fcc983a69cd0"},"vehicle_type_id":"4","last_reported":1684076784,"current_range_meters":13600,"station_id":"ce4bgj92rcd13ifvqbe0","pricing_plan_id":"free"},{"bike_id":"fe339c17-ba4f-4a4f-b350-940fbd81c43b","system_id":"levelo_inurba_marseille","lat":43.33336,"lon":5.40906,"is_reserved":false,"is_disabled":false,"rental_uris":{"android":"levelo://app?vid=fe339c17-ba4f-4a4f-b350-940fbd81c43b","ios":"levelo://app?vid=fe339c17-ba4f-4a4f-b350-940fbd81c43b"},"vehicle_type_id":"4","last_reported":1684076784,"current_range_meters":16800,"station_id":"","pricing_plan_id":"free"},{"bike_id":"b66a8a62-6037-4094-ae12-2e312d6c411e","system_id":"levelo_inurba_marseille","lat":43.280784,"lon":5.396622,"is_reserved":false,"is_disabled":false,"rental_uris":{"android":"levelo://app?vid=b66a8a62-6037-4094-ae12-2e312d6c411e","ios":"levelo://app?vid=b66a8a62-6037-4094-ae12-2e312d6c411e"},"vehicle_type_id":"4","last_reported":1684076784,"current_range_meters":25200,"station_id":"ce4bho12rcd13ifvqh2g","pricing_plan_id":"free"},{"bike_id":"088fdd3c-d983-4eb5-b25d-bc6d28c865e7","system_id":"levelo_inurba_marseille","lat":43.280784,"lon":5.396622,"is_reserved":false,"is_disabled":false,"rental_uris":{"android":"levelo://app?vid=088fdd3c-d983-4eb5-b25d-bc6d28c865e7","ios":"levelo://app?vid=088fdd3c-d983-4eb5-b25d-bc6d28c865e7"},"vehicle_type_id":"4","last_reported":1684076784,"current_range_meters":12800,"station_id":"ce4bho12rcd13ifvqh2g","pricing_plan_id":"free"},{"bike_id":"1a8cbf90-7489-4269-98a9-41bd4346c126","system_id":"levelo_inurba_marseille","lat":43.280784,"lon":5.396622,"is_reserved":false,"is_disabled":false,"rental_uris":{"android":"levelo://app?vid=1a8cbf90-7489-4269-98a9-41bd4346c126","ios":"levelo://app?vid=1a8cbf90-7489-4269-98a9-41bd4346c126"},"vehicle_type_id":"4","last_reported":1684076784,"current_range_meters":17600,"station_id":"ce4bho12rcd13ifvqh2g","pricing_plan_id":"free"},{"bike_id":"c9eb9d8e-e7b7-4166-9c2d-d0b3c485a7b3","system_id":"levelo_inurba_marseille","lat":43.273613,"lon":5.362705,"is_reserved":false,"is_disabled":false,"rental_uris":{"android":"levelo://app?vid=c9eb9d8e-e7b7-4166-9c2d-d0b3c485a7b3","ios":"levelo://app?vid=c9eb9d8e-e7b7-4166-9c2d-d0b3c485a7b3"},"vehicle_type_id":"4","last_reported":1684076784,"current_range_meters":11200,"station_id":"ce4bhbh2rcd13ifvqeo0","pricing_plan_id":"free"},{"bike_id":"e0024be8-9727-4f6c-98fa-1a00fcb3b511","system_id":"levelo_inurba_marseille","lat":43.27379,"lon":5.36251,"is_reserved":false,"is_disabled":false,"rental_uris":{"android":"levelo://app?vid=e0024be8-9727-4f6c-98fa-1a00fcb3b511","ios":"levelo://app?vid=e0024be8-9727-4f6c-98fa-1a00fcb3b511"},"vehicle_type_id":"4","last_reported":1684076784,"current_range_meters":6800,"station_id":"ce4bhbh2rcd13ifvqeo0","pricing_plan_id":"free"},{"bike_id":"bd982f41-81a7-4cd9-9d61-7012beb2327f","system_id":"levelo_inurba_marseille","lat":43.273613,"lon":5.362705,"is_reserved":false,"is_disabled":false,"rental_uris":{"android":"levelo://app?vid=bd982f41-81a7-4cd9-9d61-7012beb2327f","ios":"levelo://app?vid=bd982f41-81a7-4cd9-9d61-7012beb2327f"},"vehicle_type_id":"4","last_reported":1684076784,"current_range_meters":7600,"station_id":"ce4bhbh2rcd13ifvqeo0","pricing_plan_id":"free"},{"bike_id":"8491fd20-6cd9-40c1-97cd-62a2a07f15ab","system_id":"levelo_inurba_marseille","lat":43.27377,"lon":5.36256,"is_reserved":false,"is_disabled":false,"rental_uris":{"android":"levelo://app?vid=8491fd20-6cd9-40c1-97cd-62a2a07f15ab","ios":"levelo://app?vid=8491fd20-6cd9-40c1-97cd-62a2a07f15ab"},"vehicle_type_id":"4","last_reported":1684076784,"current_range_meters":16000,"station_id":"ce4bhbh2rcd13ifvqeo0","pricing_plan_id":"free"},{"bike_id":"8f23064d-3c35-46cf-a11f-b82593e8ced5","system_id":"levelo_inurba_marseille","lat":43.273613,"lon":5.362705,"is_reserved":false,"is_disabled":false,"rental_uris":{"android":"levelo://app?vid=8f23064d-3c35-46cf-a11f-b82593e8ced5","ios":"levelo://app?vid=8f23064d-3c35-46cf-a11f-b82593e8ced5"},"vehicle_type_id":"4","last_reported":1684076784,"current_range_meters":10800,"station_id":"ce4bhbh2rcd13ifvqeo0","pricing_plan_id":"free"},{"bike_id":"5685bba6-d21b-40a6-b289-78b00a3bee60","system_id":"levelo_inurba_marseille","lat":43.273613,"lon":5.362705,"is_reserved":false,"is_disabled":false,"rental_uris":{"android":"levelo://app?vid=5685bba6-d21b-40a6-b289-78b00a3bee60","ios":"levelo://app?vid=5685bba6-d21b-40a6-b289-78b00a3bee60"},"vehicle_type_id":"4","last_reported":1684076784,"current_range_meters":22000,"station_id":"ce4bhbh2rcd13ifvqeo0","pricing_plan_id":"free"},{"bike_id":"968cc73a-e0d8-42eb-af13-650d935426ae","system_id":"levelo_inurba_marseille","lat":43.273609,"lon":5.362708,"is_reserved":false,"is_disabled":false,"rental_uris":{"android":"levelo://app?vid=968cc73a-e0d8-42eb-af13-650d935426ae","ios":"levelo://app?vid=968cc73a-e0d8-42eb-af13-650d935426ae"},"vehicle_type_id":"4","last_reported":1684076784,"current_range_meters":16000,"station_id":"ce4bhbh2rcd13ifvqeo0","pricing_plan_id":"free"},{"bike_id":"4e12f93b-e75a-478c-a074-5961c64cc8b8","system_id":"levelo_inurba_marseille","lat":43.273613,"lon":5.362705,"is_reserved":false,"is_disabled":false,"rental_uris":{"android":"levelo://app?vid=4e12f93b-e75a-478c-a074-5961c64cc8b8","ios":"levelo://app?vid=4e12f93b-e75a-478c-a074-5961c64cc8b8"},"vehicle_type_id":"4","last_reported":1684076784,"current_range_meters":13200,"station_id":"ce4bhbh2rcd13ifvqeo0","pricing_plan_id":"free"},{"bike_id":"fcb5d969-5972-45a1-a83f-d52b2054a0ae","system_id":"levelo_inurba_marseille","lat":43.273613,"lon":5.362705,"is_reserved":false,"is_disabled":false,"rental_uris":{"android":"levelo://app?vid=fcb5d969-5972-45a1-a83f-d52b2054a0ae","ios":"levelo://app?vid=fcb5d969-5972-45a1-a83f-d52b2054a0ae"},"vehicle_type_id":"4","last_reported":1684076784,"current_range_meters":8400,"station_id":"ce4bhbh2rcd13ifvqeo0","pricing_plan_id":"free"},{"bike_id":"c653b768-c405-4b75-9549-b11a0920e36e","system_id":"levelo_inurba_marseille","lat":43.273613,"lon":5.362705,"is_reserved":false,"is_disabled":false,"rental_uris":{"android":"levelo://app?vid=c653b768-c405-4b75-9549-b11a0920e36e","ios":"levelo://app?vid=c653b768-c405-4b75-9549-b11a0920e36e"},"vehicle_type_id":"4","last_reported":1684076784,"current_range_meters":31600,"station_id":"ce4bhbh2rcd13ifvqeo0","pricing_plan_id":"free"},{"bike_id":"10e88439-7230-4a4e-9298-037313e9d9ee","system_id":"levelo_inurba_marseille","lat":43.273613,"lon":5.362705,"is_reserved":false,"is_disabled":false,"rental_uris":{"android":"levelo://app?vid=10e88439-7230-4a4e-9298-037313e9d9ee","ios":"levelo://app?vid=10e88439-7230-4a4e-9298-037313e9d9ee"},"vehicle_type_id":"4","last_reported":1684076784,"current_range_meters":31200,"station_id":"ce4bhbh2rcd13ifvqeo0","pricing_plan_id":"free"},{"bike_id":"5a2b32f7-9c46-4d48-8fbb-2b41d9e270bf","system_id":"levelo_inurba_marseille","lat":43.273613,"lon":5.362705,"is_reserved":false,"is_disabled":false,"rental_uris":{"android":"levelo://app?vid=5a2b32f7-9c46-4d48-8fbb-2b41d9e270bf","ios":"levelo://app?vid=5a2b32f7-9c46-4d48-8fbb-2b41d9e270bf"},"vehicle_type_id":"4","last_reported":1684076784,"current_range_meters":31600,"station_id":"ce4bhbh2rcd13ifvqeo0","pricing_plan_id":"free"},{"bike_id":"f34bec67-7449-4ccc-b585-ecc591167f11","system_id":"levelo_inurba_marseille","lat":43.273609,"lon":5.362708,"is_reserved":false,"is_disabled":false,"rental_uris":{"android":"levelo://app?vid=f34bec67-7449-4ccc-b585-ecc591167f11","ios":"levelo://app?vid=f34bec67-7449-4ccc-b585-ecc591167f11"},"vehicle_type_id":"4","last_reported":1684076784,"current_range_meters":10400,"station_id":"ce4bhbh2rcd13ifvqeo0","pricing_plan_id":"free"},{"bike_id":"3ad91ac5-7610-4021-91a6-d99b6925f2f6","system_id":"levelo_inurba_marseille","lat":43.273609,"lon":5.362708,"is_reserved":false,"is_disabled":false,"rental_uris":{"android":"levelo://app?vid=3ad91ac5-7610-4021-91a6-d99b6925f2f6","ios":"levelo://app?vid=3ad91ac5-7610-4021-91a6-d99b6925f2f6"},"vehicle_type_id":"4","last_reported":1684076784,"current_range_meters":10800,"station_id":"ce4bhbh2rcd13ifvqeo0","pricing_plan_id":"free"},{"bike_id":"17a62d4e-500c-439b-9e71-182067c6f630","system_id":"levelo_inurba_marseille","lat":43.273609,"lon":5.362708,"is_reserved":false,"is_disabled":false,"rental_uris":{"android":"levelo://app?vid=17a62d4e-500c-439b-9e71-182067c6f630","ios":"levelo://app?vid=17a62d4e-500c-439b-9e71-182067c6f630"},"vehicle_type_id":"4","last_reported":1684076784,"current_range_meters":30000,"station_id":"ce4bhbh2rcd13ifvqeo0","pricing_plan_id":"free"},{"bike_id":"41c75578-7ec3-42cc-ac55-c8ef34a21b11","system_id":"levelo_inurba_marseille","lat":43.273613,"lon":5.362705,"is_reserved":false,"is_disabled":false,"rental_uris":{"android":"levelo://app?vid=41c75578-7ec3-42cc-ac55-c8ef34a21b11","ios":"levelo://app?vid=41c75578-7ec3-42cc-ac55-c8ef34a21b11"},"vehicle_type_id":"4","last_reported":1684076784,"current_range_meters":26800,"station_id":"ce4bhbh2rcd13ifvqeo0","pricing_plan_id":"free"},{"bike_id":"7fc28012-b5f7-44d0-aa83-dd2bd2a4b712","system_id":"levelo_inurba_marseille","lat":43.273609,"lon":5.362708,"is_reserved":false,"is_disabled":false,"rental_uris":{"android":"levelo://app?vid=7fc28012-b5f7-44d0-aa83-dd2bd2a4b712","ios":"levelo://app?vid=7fc28012-b5f7-44d0-aa83-dd2bd2a4b712"},"vehicle_type_id":"4","last_reported":1684076784,"current_range_meters":31600,"station_id":"ce4bhbh2rcd13ifvqeo0","pricing_plan_id":"free"},{"bike_id":"1cc4fb19-cc9c-4e1a-b2c7-5ac07077891d","system_id":"levelo_inurba_marseille","lat":43.273609,"lon":5.362708,"is_reserved":false,"is_disabled":false,"rental_uris":{"android":"levelo://app?vid=1cc4fb19-cc9c-4e1a-b2c7-5ac07077891d","ios":"levelo://app?vid=1cc4fb19-cc9c-4e1a-b2c7-5ac07077891d"},"vehicle_type_id":"4","last_reported":1684076784,"current_range_meters":8800,"station_id":"ce4bhbh2rcd13ifvqeo0","pricing_plan_id":"free"},{"bike_id":"fbb26628-dca5-45e5-82de-a07bbcfecdd0","system_id":"levelo_inurba_marseille","lat":43.273609,"lon":5.362708,"is_reserved":false,"is_disabled":false,"rental_uris":{"android":"levelo://app?vid=fbb26628-dca5-45e5-82de-a07bbcfecdd0","ios":"levelo://app?vid=fbb26628-dca5-45e5-82de-a07bbcfecdd0"},"vehicle_type_id":"4","last_reported":1684076784,"current_range_meters":3600,"station_id":"ce4bhbh2rcd13ifvqeo0","pricing_plan_id":"free"},{"bike_id":"b674ea9f-7828-4b35-b5b3-5bf7741185c0","system_id":"levelo_inurba_marseille","lat":43.273613,"lon":5.362705,"is_reserved":false,"is_disabled":false,"rental_uris":{"android":"levelo://app?vid=b674ea9f-7828-4b35-b5b3-5bf7741185c0","ios":"levelo://app?vid=b674ea9f-7828-4b35-b5b3-5bf7741185c0"},"vehicle_type_id":"4","last_reported":1684076784,"current_range_meters":14000,"station_id":"ce4bhbh2rcd13ifvqeo0","pricing_plan_id":"free"},