{"last_updated":1736276835,"ttl":60,"version":"2.2","data":{"bikes":[{"bike_id":"89421f62-06fd-4b68-bcb1-b94fd7ea6d26","system_id":"levelo_inurba_marseille","lat":43.32339,"lon":5.38921,"is_reserved":false,"is_disabled":false,"rental_uris":{"android":"levelo://app?vid=89421f62-06fd-4b68-bcb1-b94fd7ea6d26","ios":"levelo://app?vid=89421f62-06fd-4b68-bcb1-b94fd7ea6d26"},"vehicle_type_id":"4","last_reported":1736276835,"current_range_meters":22000,"station_id":"ce4bhqp2rcd13ifvqhog","pricing_plan_id":"cebpf4jnsgd1na2vs0mg"},{"bike_id":"e5028c33-9f8e-4ac3-a14c-e67e8c232bdb","system_id":"levelo_inurba_marseille","lat":43.27819,"lon":5.40704,"is_reserved":false,"is_disabled":false,"rental_uris":{"android":"levelo://app?vid=e5028c33-9f8e-4ac3-a14c-e67e8c232bdb","ios":"levelo://app?vid=e5028c33-9f8e-4ac3-a14c-e67e8c232bdb"},"vehicle_type_id":"4","last_reported":1736276835,"current_range_meters":29600,"station_id":"ce4bhnh2rcd13ifvqgtg","pricing_plan_id":"cebpf4jnsgd1na2vs0mg"},{"bike_id":"f7a0935c-a901-4c48-8ba1-718524acd46d","system_id":"levelo_inurba_marseille","lat":43.31693,"lon":5.43688,"is_reserved":false,"is_disabled":false,"rental_uris":{"android":"levelo://app?vid=f7a0935c-a901-4c48-8ba1-718524acd46d","ios":"levelo://app?vid=f7a0935c-a901-4c48-8ba1-718524acd46d"},"vehicle_type_id":"4","last_reported":1736276835,"current_range_meters":18800,"station_id":"ce4bhp92rcd13ifvqhcg","pricing_plan_id":"cebpf4jnsgd1na2vs0mg"},{"bike_id":"1c2c3464-8b3a-4eab-9fdd-fd6c6e2d5657","system_id":"levelo_inurba_marseille","lat":43.286863,"lon":5.386576,"is_reserved":false,"is_disabled":false,"rental_uris":{"android":"levelo://app?vid=1c2c3464-8b3a-4eab-9fdd-fd6c6e2d5657","ios":"levelo://app?vid=1c2c3464-8b3a-4eab-9fdd-fd6c6e2d5657"},"vehicle_type_id":"4","last_reported":1736276835,"current_range_meters":38800,"station_id":"ce4bh492rcd13ifvqdug","pricing_plan_id":"cebpf4jnsgd1na2vs0mg"},{"bike_id":"a3e1a7c1-a955-433f-9559-57d67fb5adf7","system_id":"levelo_inurba_marseille","lat":43.24166,"lon":5.39736,"is_reserved":false,"is_disabled":false,"rental_uris":{"android":"levelo://app?vid=a3e1a7c1-a955-433f-9559-57d67fb5adf7","ios":"levelo://app?vid=a3e1a7c1-a955-433f-9559-57d67fb5adf7"},"vehicle_type_id":"4","last_reported":1736276835,"current_range_meters":14800,"station_id":"ce4bhn12rcd13ifvqgpg","pricing_plan_id":"cebpf4jnsgd1na2vs0mg"},{"bike_id":"eab2a828-9ecc-4dfb-9a1c-1f671724e4c8","system_id":"levelo_inurba_marseille","lat":43.3169,"lon":5.43711,"is_reserved":false,"is_disabled":false,"rental_uris":{"android":"levelo://app?vid=eab2a828-9ecc-4dfb-9a1c-1f671724e4c8","ios":"levelo://app?vid=eab2a828-9ecc-4dfb-9a1c-1f671724e4c8"},"vehicle_type_id":"4","last_reported":1736276835,"current_range_meters":38800,"station_id":"ce4bhp92rcd13ifvqhcg","pricing_plan_id":"cebpf4jnsgd1na2vs0mg"},{"bike_id":"e8f7458c-cf19-43d7-a972-43547ad9fe30","system_id":"levelo_inurba_marseille","lat":43.27201,"lon":5.41,"is_reserved":false,"is_disabled":true,"rental_uris":{"android":"levelo://app?vid=e8f7458c-cf19-43d7-a972-43547ad9fe30","ios":"levelo://app?vid=e8f7458c-cf19-43d7-a972-43547ad9fe30"},"vehicle_type_id":"4","last_reported":1736276835,"current_range_meters":2000,"station_id":"ce4bhl12rcd13ifvqgf0","pricing_plan_id":"cebpf4jnsgd1na2vs0mg"},{"bike_id":"05a2c15a-fb68-455c-8082-fdf747a62fe7","system_id":"levelo_inurba_marseille","lat":43.278161,"lon":5.407168,"is_reserved":false,"is_disabled":false,"rental_uris":{"android":"levelo://app?vid=05a2c15a-fb68-455c-8082-fdf747a62fe7","ios":"levelo://app?vid=05a2c15a-fb68-455c-8082-fdf747a62fe7"},"vehicle_type_id":"4","last_reported":1736276835,"current_range_meters":38400,"station_id":"ce4bhnh2rcd13ifvqgtg","pricing_plan_id":"cebpf4jnsgd1na2vs0mg"},{"bike_id":"2d8e34d9-b80c-45b2-a371-14e66d0ae48a","system_id":"levelo_inurba_marseille","lat":43.24173,"lon":5.39743,"is_reserved":false,"is_disabled":false,"rental_uris":{"android":"levelo://app?vid=2d8e34d9-b80c-45b2-a371-14e66d0ae48a","ios":"levelo://app?vid=2d8e34d9-b80c-45b2-a371-14e66d0ae48a"},"vehicle_type_id":"4","last_reported":1736276835,"current_range_meters":39200,"station_id":"ce4bhn12rcd13ifvqgpg","pricing_plan_id":"cebpf4jnsgd1na2vs0mg"},{"bike_id":"50533a2c-4234-479f-b2ab-d80d5f4d8494","system_id":"levelo_inurba_marseille","lat":43.29282,"lon":5.38441,"is_reserved":false,"is_disabled":false,"rental_uris":{"android":"levelo://app?vid=50533a2c-4234-479f-b2ab-d80d5f4d8494","ios":"levelo://app?vid=50533a2c-4234-479f-b2ab-d80d5f4d8494"},"vehicle_type_id":"4","last_reported":1736276835,"current_range_meters":31200,"station_id":"ce4bh692rcd13ifvqea0","pricing_plan_id":"cebpf4jnsgd1na2vs0mg"},{"bike_id":"3fd4e529-bf86-415d-b820-50c8dbc3ecb7","system_id":"levelo_inurba_marseille","lat":43.28672,"lon":5.36354,"is_reserved":false,"is_disabled":false,"rental_uris":{"android":"levelo://app?vid=3fd4e529-bf86-415d-b820-50c8dbc3ecb7","ios":"levelo://app?vid=3fd4e529-bf86-415d-b820-50c8dbc3ecb7"},"vehicle_type_id":"4","last_reported":1736276835,"current_range_meters":39200,"station_id":"ce4bhah2rcd13ifvqej0","pricing_plan_id":"cebpf4jnsgd1na2vs0mg"},{"bike_id":"2e3020fc-739e-484f-aff1-968aa18f2ac1","system_id":"levelo_inurba_marseille","lat":43.28004,"lon":5.41653,"is_reserved":false,"is_disabled":true,"rental_uris":{"android":"levelo://app?vid=2e3020fc-739e-484f-aff1-968aa18f2ac1","ios":"levelo://app?vid=2e3020fc-739e-484f-aff1-968aa18f2ac1"},"vehicle_type_id":"4","last_reported":1736276835,"current_range_meters":34800,"station_id":"ce4bho12rcd13ifvqh1g","pricing_plan_id":"cebpf4jnsgd1na2vs0mg"},{"bike_id":"22aeee33-08de-466f-bae7-e296da21c0b1","system_id":"levelo_inurba_marseille","lat":43.29572,"lon":5.37523,"is_reserved":false,"is_disabled":false,"rental_uris":{"android":"levelo://app?vid=22aeee33-08de-466f-bae7-e296da21c0b1","ios":"levelo://app?vid=22aeee33-08de-466f-bae7-e296da21c0b1"},"vehicle_type_id":"4","last_reported":1736276835,"current_range_meters":24400,"station_id":"ce4bgh92rcd13ifvqb50","pricing_plan_id":"cebpf4jnsgd1na2vs0mg"},{"bike_id":"da9a84dd-c39a-4e61-9406-d47ee58fc258","system_id":"levelo_inurba_marseille","lat":43.27814,"lon":5.40721,"is_reserved":false,"is_disabled":false,"rental_uris":{"android":"levelo://app?vid=da9a84dd-c39a-4e61-9406-d47ee58fc258","ios":"levelo://app?vid=da9a84dd-c39a-4e61-9406-d47ee58fc258"},"vehicle_type_id":"4","last_reported":1736276835,"current_range_meters":27600,"station_id":"ce4bhnh2rcd13ifvqgtg","pricing_plan_id":"cebpf4jnsgd1na2vs0mg"},{"bike_id":"57ce50fa-515e-4bf7-b5be-1c2cb14b05a4","system_id":"levelo_inurba_marseille","lat":43.2862,"lon":5.35098,"is_reserved":false,"is_disabled":false,"rental_uris":{"android":"levelo://app?vid=57ce50fa-515e-4bf7-b5be-1c2cb14b05a4","ios":"levelo://app?vid=57ce50fa-515e-4bf7-b5be-1c2cb14b05a4"},"vehicle_type_id":"4","last_reported":1736276835,"current_range_meters":10800,"station_id":"ce4bhch2rcd13ifvqeug","pricing_plan_id":"cebpf4jnsgd1na2vs0mg"},{"bike_id":"f40c61d5-5f88-4986-b505-6ff60266c6d0","system_id":"levelo_inurba_marseille","lat":43.28002,"lon":5.40014,"is_reserved":false,"is_disabled":false,"rental_uris":{"android":"levelo://app?vid=f40c61d5-5f88-4986-b505-6ff60266c6d0","ios":"levelo://app?vid=f40c61d5-5f88-4986-b505-6ff60266c6d0"},"vehicle_type_id":"4","last_reported":1736276835,"current_range_meters":30800,"station_id":"ce4bho92rcd13ifvqh4g","pricing_plan_id":"cebpf4jnsgd1na2vs0mg"},{"bike_id":"8b7b03a4-76c0-429d-86c4-2cba528f75db","system_id":"levelo_inurba_marseille","lat":43.323675,"lon":5.388795,"is_reserved":false,"is_disabled":true,"rental_uris":{"android":"levelo://app?vid=8b7b03a4-76c0-429d-86c4-2cba528f75db","ios":"levelo://app?vid=8b7b03a4-76c0-429d-86c4-2cba528f75db"},"vehicle_type_id":"4","last_reported":1736276835,"current_range_meters":0,"station_id":"ce4bhqp2rcd13ifvqhog","pricing_plan_id":"cebpf4jnsgd1na2vs0mg"},{"bike_id":"3dcc1c8e-6db9-4000-a7ee-f1b5b658ee7a","system_id":"levelo_inurba_marseille","lat":43.2717,"lon":5.40992,"is_reserved":false,"is_disabled":false,"rental_uris":{"android":"levelo://app?vid=3dcc1c8e-6db9-4000-a7ee-f1b5b658ee7a","ios":"levelo://app?vid=3dcc1c8e-6db9-4000-a7ee-f1b5b658ee7a"},"vehicle_type_id":"4","last_reported":1736276835,"current_range_meters":38800,"station_id":"ce4bhl12rcd13ifvqgf0","pricing_plan_id":"cebpf4jnsgd1na2vs0mg"},{"bike_id":"e1d67e76-e9ef-43a5-b307-2704c03519b0","system_id":"levelo_inurba_marseille","lat":43.28938,"lon":5.39696,"is_reserved":false,"is_disabled":false,"rental_uris":{"android":"levelo://app?vid=e1d67e76-e9ef-43a5-b307-2704c03519b0","ios":"levelo://app?vid=e1d67e76-e9ef-43a5-b307-2704c03519b0"},"vehicle_type_id":"4","last_reported":1736276835,"current_range_meters":22400,"station_id":"","pricing_plan_id":"cebpf4jnsgd1na2vs0mg"},{"bike_id":"ad34d3c3-f703-46ca-92c3-8e056f95de84","system_id":"levelo_inurba_marseille","lat":43.2846,"lon":5.35886,"is_reserved":false,"is_disabled":false,"rental_uris":{"android":"levelo://app?vid=ad34d3c3-f703-46ca-92c3-8e056f95de84","ios":"levelo://app?vid=ad34d3c3-f703-46ca-92c3-8e056f95de84"},"vehicle_type_id":"4","last_reported":1736276835,"current_range_meters":12400,"station_id":"ce4bhah2rcd13ifvqei0","pricing_plan_id":"cebpf4jnsgd1na2vs0mg"},{"bike_id":"0f2cd1e2-9305-49c2-a840-192d1b810e9e","system_id":"levelo_inurba_marseille","lat":43.27206,"lon":5.3917,"is_reserved":false,"is_disabled":true,"rental_uris":{"android":"levelo://app?vid=0f2cd1e2-9305-49c2-a840-192d1b810e9e","ios":"levelo://app?vid=0f2cd1e2-9305-49c2-a840-192d1b810e9e"},"vehicle_type_id":"4","last_reported":1736276835,"current_range_meters":0,"station_id":"ce4bhhp2rcd13ifvqfm0","pricing_plan_id":"cebpf4jnsgd1na2vs0mg"},{"bike_id":"f9af2b24-9bf6-497f-b409-d490cf2de712","system_id":"levelo_inurba_marseille","lat":43.2862,"lon":5.35105,"is_reserved":false,"is_disabled":false,"rental_uris":{"android":"levelo://app?vid=f9af2b24-9bf6-497f-b409-d490cf2de712","ios":"levelo://app?vid=f9af2b24-9bf6-497f-b409-d490cf2de712"},"vehicle_type_id":"4","last_reported":1736276835,"current_range_meters":30800,"station_id":"ce4bhch2rcd13ifvqeug","pricing_plan_id":"cebpf4jnsgd1na2vs0mg"},{"bike_id":"8a4c045a-dd75-4b08-85b8-01a9f1b5d499","system_id":"levelo_inurba_marseille","lat":43.310728,"lon":5.383552,"is_reserved":false,"is_disabled":false,"rental_uris":{"android":"levelo://app?vid=8a4c045a-dd75-4b08-85b8-01a9f1b5d499","ios":"levelo://app?vid=8a4c045a-dd75-4b08-85b8-01a9f1b5d499"},"vehicle_type_id":"4","last_reported":1736276835,"current_range_meters":21600,"station_id":"ce4bgv92rcd13ifvqcr0","pricing_plan_id":"cebpf4jnsgd1na2vs0mg"},{"bike_id":"463865ff-6d38-4efc-9f59-5412be3f230e","system_id":"levelo_inurba_marseille","lat":43.3172,"lon":5.4368,"is_reserved":false,"is_disabled":false,"rental_uris":{"android":"levelo://app?vid=463865ff-6d38-4efc-9f59-5412be3f230e","ios":"levelo://app?vid=463865ff-6d38-4efc-9f59-5412be3f230e"},"vehicle_type_id":"4","last_reported":1736276835,"current_range_meters":28400,"station_id":"ce4bhp92rcd13ifvqhcg","pricing_plan_id":"cebpf4jnsgd1na2vs0mg"},{"bike_id":"8e69fd07-fa50-4941-a1e0-41e0e871c852","system_id":"levelo_inurba_marseille","lat":43.28428,"lon":5.37519,"is_reserved":false,"is_disabled":false,"rental_uris":{"android":"levelo://app?vid=8e69fd07-fa50-4941-a1e0-41e0e871c852","ios":"levelo://app?vid=8e69fd07-fa50-4941-a1e0-41e0e871c852"},"vehicle_type_id":"4","last_reported":1736276835,"current_range_meters":8000,"station_id":"ce4bh412rcd13ifvqds0","pricing_plan_id":"cebpf4jnsgd1na2vs0mg"},{"bike_id":"e234c05e-ad7c-4a80-b77e-0f5f2642c720","system_id":"levelo_inurba_marseille","lat":43.28466,"lon":5.35876,"is_reserved":false,"is_disabled":false,"rental_uris":{"android":"levelo://app?vid=e234c05e-ad7c-4a80-b77e-0f5f2642c720","ios":"levelo://app?vid=e234c05e-ad7c-4a80-b77e-0f5f2642c720"},"vehicle_type_id":"4","last_reported":1736276835,"current_range_meters":24000,"station_id":"ce4bhah2rcd13ifvqei0","pricing_plan_id":"cebpf4jnsgd1na2vs0mg"},{"bike_id":"c023aed8-c4af-47de-bf55-7ec6cfb1c879","system_id":"levelo_inurba_marseille","lat":43.2618,"lon":5.37461,"is_reserved":false,"is_disabled":true,"rental_uris":{"android":"levelo://app?vid=c023aed8-c4af-47de-bf55-7ec6cfb1c879","ios":"levelo://app?vid=c023aed8-c4af-47de-bf55-7ec6cfb1c879"},"vehicle_type_id":"4","last_reported":1736276835,"current_range_meters":26800,"station_id":"ce4bhgp2rcd13ifvqfc0","pricing_plan_id":"cebpf4jnsgd1na2vs0mg"},{"bike_id":"85a69695-8910-4e9b-be2e-1c4e4b65a0e7","system_id":"levelo_inurba_marseille","lat":43.24648,"lon":5.38908,"is_reserved":false,"is_disabled":false,"rental_uris":{"android":"levelo://app?vid=85a69695-8910-4e9b-be2e-1c4e4b65a0e7","ios":"levelo://app?vid=85a69695-8910-4e9b-be2e-1c4e4b65a0e7"},"vehicle_type_id":"4","last_reported":1736276835,"current_range_meters":15200,"station_id":"ce4bhg12rcd13ifvqf60","pricing_plan_id":"cebpf4jnsgd1na2vs0mg"},{"bike_id":"f5477bd9-ae2b-4f4a-90d2-43e1d2905a20","system_id":"levelo_inurba_marseille","lat":43.28415,"lon":5.34984,"is_reserved":false,"is_disabled":false,"rental_uris":{"android":"levelo://app?vid=f5477bd9-ae2b-4f4a-90d2-43e1d2905a20","ios":"levelo://app?vid=f5477bd9-ae2b-4f4a-90d2-43e1d2905a20"},"vehicle_type_id":"4","last_reported":1736276835,"current_range_meters":17600,"station_id":"ce4bhbh2rcd13ifvqepg","pricing_plan_id":"cebpf4jnsgd1na2vs0mg"},{"bike_id":"ad036647-e9f4-4246-953d-37ee6601db50","system_id":"levelo_inurba_marseille","lat":43.24666,"lon":5.38168,"is_reserved":false,"is_disabled":false,"rental_uris":{"android":"levelo://app?vid=ad036647-e9f4-4246-953d-37ee6601db50","ios":"levelo://app?vid=ad036647-e9f4-4246-953d-37ee6601db50"},"vehicle_type_id":"4","last_reported":1736276835,"current_range_meters":15200,"station_id":"ce4bhih2rcd13ifvqfr0","pricing_plan_id":"cebpf4jnsgd1na2vs0mg"},{"bike_id":"d74fc36d-2f1d-494c-b9e6-e714c99e8537","system_id":"levelo_inurba_marseille","lat":43.26548,"lon":5.37288,"is_reserved":false,"is_disabled":false,"rental_uris":{"android":"levelo://app?vid=d74fc36d-2f1d-494c-b9e6-e714c99e8537","ios":"levelo://app?vid=d74fc36d-2f1d-494c-b9e6-e714c99e8537"},"vehicle_type_id":"4","last_reported":1736276835,"current_range_meters":28000,"station_id":"ce4bhg12rcd13ifvqf70","pricing_plan_id":"cebpf4jnsgd1na2vs0mg"},{"bike_id":"dfcf855f-5812-4baf-aa89-8e83805791f7","system_id":"levelo_inurba_marseille","lat":43.27568,"lon":5.38419,"is_reserved":false,"is_disabled":false,"rental_uris":{"android":"levelo://app?vid=dfcf855f-5812-4baf-aa89-8e83805791f7","ios":"levelo://app?vid=dfcf855f-5812-4baf-aa89-8e83805791f7"},"vehicle_type_id":"4","last_reported":1736276835,"current_range_meters":22800,"station_id":"ce4bhh92rcd13ifvqfi0","pricing_plan_id":"cebpf4jnsgd1na2vs0mg"},{"bike_id":"83d61421-4a96-4675-8cf7-7779890541e6","system_id":"levelo_inurba_marseille","lat":43.31529,"lon":5.38035,"is_reserved":false,"is_disabled":false,"rental_uris":{"android":"levelo://app?vid=83d61421-4a96-4675-8cf7-7779890541e6","ios":"levelo://app?vid=83d61421-4a96-4675-8cf7-7779890541e6"},"vehicle_type_id":"4","last_reported":1736276835,"current_range_meters":21600,"station_id":"ce4bhsp2rcd13ifvqi50","pricing_plan_id":"cebpf4jnsgd1na2vs0mg"},{"bike_id":"7ed6b1d7-c625-4660-be93-79f682be3518","system_id":"levelo_inurba_marseille","lat":43.29421,"lon":5.38621,"is_reserved":false,"is_disabled":false,"rental_uris":{"android":"levelo://app?vid=7ed6b1d7-c625-4660-be93-79f682be3518","ios":"levelo://app?vid=7ed6b1d7-c625-4660-be93-79f682be3518"},"vehicle_type_id":"4","last_reported":1736276835,"current_range_meters":8800,"station_id":"ce4bh2h2rcd13ifvqdh0","pricing_plan_id":"cebpf4jnsgd1na2vs0mg"},{"bike_id":"768fa00c-c45b-478f-a2ea-6fa433e8cb75","system_id":"levelo_inurba_marseille","lat":43.2884,"lon":5.35829,"is_reserved":false,"is_disabled":false,"rental_uris":{"android":"levelo://app?vid=768fa00c-c45b-478f-a2ea-6fa433e8cb75","ios":"levelo://app?vid=768fa00c-c45b-478f-a2ea-6fa433e8cb75"},"vehicle_type_id":"4","last_reported":1736276835,"current_range_meters":17200,"station_id":"ce4bhb12rcd13ifvqem0","pricing_plan_id":"cebpf4jnsgd1na2vs0mg"},{"bike_id":"c736efc7-bdd4-4760-a57b-96851815e95f","system_id":"levelo_inurba_marseille","lat":43.26509,"lon":5.39535,"is_reserved":false,"is_disabled":true,"rental_uris":{"android":"levelo://app?vid=c736efc7-bdd4-4760-a57b-96851815e95f","ios":"levelo://app?vid=c736efc7-bdd4-4760-a57b-96851815e95f"},"vehicle_type_id":"4","last_reported":1736276835,"current_range_meters":38800,"station_id":"ce4bhi12rcd13ifvqfq0","pricing_plan_id":"cebpf4jnsgd1na2vs0mg"},{"bike_id":"a1ceaab5-cc98-4739-8fba-923512224dcf","system_id":"levelo_inurba_marseille","lat":43.23195,"lon":5.35561,"is_reserved":false,"is_disabled":false,"rental_uris":{"android":"levelo://app?vid=a1ceaab5-cc98-4739-8fba-923512224dcf","ios":"levelo://app?vid=a1ceaab5-cc98-4739-8fba-923512224dcf"},"vehicle_type_id":"4","last_reported":1736276835,"current_range_meters":38400,"station_id":"ce4bhu92rcd13ifvqi70","pricing_plan_id":"cebpf4jnsgd1na2vs0mg"},{"bike_id":"0071a927-f6f8-433a-a051-21a458c8608f","system_id":"levelo_inurba_marseille","lat":43.27175,"lon":5.40993,"is_reserved":false,"is_disabled":false,"rental_uris":{"android":"levelo://app?vid=0071a927-f6f8-433a-a051-21a458c8608f","ios":"levelo://app?vid=0071a927-f6f8-433a-a051-21a458c8608f"},"vehicle_type_id":"4","last_reported":1736276835,"current_range_meters":27600,"station_id":"ce4bhl12rcd13ifvqgf0","pricing_plan_id":"cebpf4jnsgd1na2vs0mg"},{"bike_id":"c3b15153-f019-432b-89af-f6657ff93fcd","system_id":"levelo_inurba_marseille","lat":43.30128,"lon":5.39847,"is_reserved":false,"is_disabled":false,"rental_uris":{"android":"levelo://app?vid=c3b15153-f019-432b-89af-f6657ff93fcd","ios":"levelo://app?vid=c3b15153-f019-432b-89af-f6657ff93fcd"},"vehicle_type_id":"4","last_reported":1736276835,"current_range_meters":22800,"station_id":"ce4bh0h2rcd13ifvqd40","pricing_plan_id":"cebpf4jnsgd1na2vs0mg"},{"bike_id":"98e4abe9-268b-4ebe-b8a0-9d17e1060cf4","system_id":"levelo_inurba_marseille","lat":43.32114,"lon":5.36788,"is_reserved":false,"is_disabled":false,"rental_uris":{"android":"levelo://app?vid=98e4abe9-268b-4ebe-b8a0-9d17e1060cf4","ios":"levelo://app?vid=98e4abe9-268b-4ebe-b8a0-9d17e1060cf4"},"vehicle_type_id":"4","last_reported":1736276835,"current_range_meters":36400,"station_id":"ce4bhrh2rcd13ifvqhug","pricing_plan_id":"cebpf4jnsgd1na2vs0mg"},{"bike_id":"b02c5e1b-44bc-486c-aa66-e8402792b071","system_id":"levelo_inurba_marseille","lat":43.29532,"lon":5.37502,"is_reserved":false,"is_disabled":false,"rental_uris":{"android":"levelo://app?vid=b02c5e1b-44bc-486c-aa66-e8402792b071","ios":"levelo://app?vid=b02c5e1b-44bc-486c-aa66-e8402792b071"},"vehicle_type_id":"4","last_reported":1736276835,"current_range_meters":8400,"station_id":"ce4bgkp2rcd13ifvqbmg","pricing_plan_id":"cebpf4jnsgd1na2vs0mg"},{"bike_id":"0d869571-702b-474e-9734-e51fa36b8db2","system_id":"levelo_inurba_marseille","lat":43.2913,"lon":5.39406,"is_reserved":false,"is_disabled":true,"rental_uris":{"android":"levelo://app?vid=0d869571-702b-474e-9734-e51fa36b8db2","ios":"levelo://app?vid=0d869571-702b-474e-9734-e51fa36b8db2"},"vehicle_type_id":"4","last_reported":1736276835,"current_range_meters":6800,"station_id":"ce4bh192rcd13ifvqdd0","pricing_plan_id":"cebpf4jnsgd1na2vs0mg"},{"bike_id":"7a34df60-2503-49fa-822d-c7c5dd034ec8","system_id":"levelo_inurba_marseille","lat":43.30883,"lon":5.39657,"is_reserved":false,"is_disabled":false,"rental_uris":{"android":"levelo://app?vid=7a34df60-2503-49fa-822d-c7c5dd034ec8","ios":"levelo://app?vid=7a34df60-2503-49fa-822d-c7c5dd034ec8"},"vehicle_type_id":"4","last_reported":1736276835,"current_range_meters":7200,"station_id":"ce4bh012rcd13ifvqcv0","pricing_plan_id":"cebpf4jnsgd1na2vs0mg"},{"bike_id":"003d47ad-9be5-4fa8-8662-0abae250cfa3","system_id":"levelo_inurba_marseille","lat":43.28364,"lon":5.38613,"is_reserved":false,"is_disabled":false,"rental_uris":{"android":"levelo://app?vid=003d47ad-9be5-4fa8-8662-0abae250cfa3","ios":"levelo://app?vid=003d47ad-9be5-4fa8-8662-0abae250cfa3"},"vehicle_type_id":"4","last_reported":1736276835,"current_range_meters":10800,"station_id":"ce4bh492rcd13ifvqdvg","pricing_plan_id":"cebpf4jnsgd1na2vs0mg"},{"bike_id":"0079d866-b8cf-45d6-8ac0-e126338796da","system_id":"levelo_inurba_marseille","lat":43.30353,"lon":5.4188,"is_reserved":false,"is_disabled":false,"rental_uris":{"android":"levelo://app?vid=0079d866-b8cf-45d6-8ac0-e126338796da","ios":"levelo://app?vid=0079d866-b8cf-45d6-8ac0-e126338796da"},"vehicle_type_id":"4","last_reported":1736276835,"current_range_meters":10000,"station_id":"ce4bhop2rcd13ifvqh7g","pricing_plan_id":"cebpf4jnsgd1na2vs0mg"},{"bike_id":"34f17d68-67b5-4e00-a8b7-6a5a5cebf574","system_id":"levelo_inurba_marseille","lat":43.3043,"lon":5.38879,"is_reserved":false,"is_disabled":false,"rental_uris":{"android":"levelo://app?vid=34f17d68-67b5-4e00-a8b7-6a5a5cebf574","ios":"levelo://app?vid=34f17d68-67b5-4e00-a8b7-6a5a5cebf574"},"vehicle_type_id":"4","last_reported":1736276835,"current_range_meters":24800,"station_id":"ce4bgk12rcd13ifvqbi0","pricing_plan_id":"cebpf4jnsgd1na2vs0mg"},{"bike_id":"cbac9c83-6f47-4597-8c7b-a621040c9482","system_id":"levelo_inurba_marseille","lat":43.26037,"lon":5.37553,"is_reserved":false,"is_disabled":false,"rental_uris":{"android":"levelo://app?vid=cbac9c83-6f47-4597-8c7b-a621040c9482","ios":"levelo://app?vid=cbac9c83-6f47-4597-8c7b-a621040c9482"},"vehicle_type_id":"4","last_reported":1736276835,"current_range_meters":38800,"station_id":"ce4bhgh2rcd13ifvqfa0","pricing_plan_id":"cebpf4jnsgd1na2vs0mg"},{"bike_id":"08698c13-6c57-4d07-86db-8ad7cac48b52","system_id":"levelo_inurba_marseille","lat":43.28941,"lon":5.39621,"is_reserved":false,"is_disabled":false,"rental_uris":{"android":"levelo://app?vid=08698c13-6c57-4d07-86db-8ad7cac48b52","ios":"levelo://app?vid=08698c13-6c57-4d07-86db-8ad7cac48b52"},"vehicle_type_id":"4","last_reported":1736276835,"current_range_meters":9600,"station_id":"ce4bh3h2rcd13ifvqdn0","pricing_plan_id":"cebpf4jnsgd1na2vs0mg"},{"bike_id":"481dcfd6-79ef-4437-8ed1-d9f087425086","system_id":"levelo_inurba_marseille","lat":43.24389,"lon":5.37059,"is_reserved":false,"is_disabled":false,"rental_uris":{"android":"levelo://app?vid=481dcfd6-79ef-4437-8ed1-d9f087425086","ios":"levelo://app?vid=481dcfd6-79ef-4437-8ed1-d9f087425086"},"vehicle_type_id":"4","last_reported":1736276835,"current_range_meters":33600,"station_id":"ce4bhhh2rcd13ifvqfk0","pricing_plan_id":"cebpf4jnsgd1na2vs0mg"},{"bike_id":"4f1ef750-2e4b-4992-a976-9cd83f145c67","system_id":"levelo_inurba_marseille","lat":43.3021,"lon":5.39463,"is_reserved":false,"is_disabled":false,"rental_uris":{"android":"levelo://app?vid=4f1ef750-2e4b-4992-a976-9cd83f145c67","ios":"levelo://app?vid=4f1ef750-2e4b-4992-a976-9cd83f145c67"},"vehicle_type_id":"4","last_reported":1736276835,"current_range_meters":38400,"station_id":"ce4bh0p2rcd13ifvqd70","pricing_plan_id":"cebpf4jnsgd1na2vs0mg"},{"bike_id":"5cf5d467-316b-44fa-8fb8-856da6a44a4c","system_id":"levelo_inurba_marseille","lat":43.24666,"lon":5.37787,"is_reserved":false,"is_disabled":true,"rental_uris":{"android":"levelo://app?vid=5cf5d467-316b-44fa-8fb8-856da6a44a4c","ios":"levelo://app?vid=5cf5d467-316b-44fa-8fb8-856da6a44a4c"},"vehicle_type_id":"4","last_reported":1736276835,"current_range_meters":0,"station_id":"","pricing_plan_id":"cebpf4jnsgd1na2vs0mg"},{"bike_id":"37557093-6491-4690-b370-7a12c47f238b","system_id":"levelo_inurba_marseille","lat":43.279445,"lon":5.41035,"is_reserved":false,"is_disabled":false,"rental_uris":{"android":"levelo://app?vid=37557093-6491-4690-b370-7a12c47f238b","ios":"levelo://app?vid=37557093-6491-4690-b370-7a12c47f238b"},"vehicle_type_id":"4","last_reported":1736276835,"current_range_meters":8000,"station_id":"ce4bhnp2rcd13ifvqh0g","pricing_plan_id":"cebpf4jnsgd1na2vs0mg"},{"bike_id":"fb626543-fffa-441a-8223-2a132a99f0ab","system_id":"levelo_inurba_marseille","lat":43.29429,"lon":5.38637,"is_reserved":false,"is_disabled":false,"rental_uris":{"android":"levelo://app?vid=fb626543-fffa-441a-8223-2a132a99f0ab","ios":"levelo://app?vid=fb626543-fffa-441a-8223-2a132a99f0ab"},"vehicle_type_id":"4","last_reported":1736276835,"current_range_meters":22400,"station_id":"ce4bh2h2rcd13ifvqdh0","pricing_plan_id":"cebpf4jnsgd1na2vs0mg"},{"bike_id":"85ed6942-4f7b-4590-8c76-8ff1ed7d236b","system_id":"levelo_inurba_marseille","lat":43.29305,"lon":5.37161,"is_reserved":false,"is_disabled":false,"rental_uris":{"android":"levelo://app?vid=85ed6942-4f7b-4590-8c76-8ff1ed7d236b","ios":"levelo://app?vid=85ed6942-4f7b-4590-8c76-8ff1ed7d236b"},"vehicle_type_id":"4","last_reported":1736276835,"current_range_meters":8800,"station_id":"ce4bgh92rcd13ifvqb40","pricing_plan_id":"cebpf4jnsgd1na2vs0mg"},{"bike_id":"4c79f864-3da8-4813-a506-a9595819fe25","system_id":"levelo_inurba_marseille","lat":43.25874,"lon":5.39904,"is_reserved":false,"is_disabled":false,"rental_uris":{"android":"levelo://app?vid=4c79f864-3da8-4813-a506-a9595819fe25","ios":"levelo://app?vid=4c79f864-3da8-4813-a506-a9595819fe25"},"vehicle_type_id":"4","last_reported":1736276835,"current_range_meters":39200,"station_id":"ce4bhl92rcd13ifvqghg","pricing_plan_id":"cebpf4jnsgd1na2vs0mg"},{"bike_id":"840e3f90-17d0-4c94-88a0-c5120c40cdea","system_id":"levelo_inurba_marseille","lat":43.25723,"lon":5.41112,"is_reserved":false,"is_disabled":true,"rental_uris":{"android":"levelo://app?vid=840e3f90-17d0-4c94-88a0-c5120c40cdea","ios":"levelo://app?vid=840e3f90-17d0-4c94-88a0-c5120c40cdea"},"vehicle_type_id":"4","last_reported":1736276835,"current_range_meters":38800,"station_id":"ce4bhkp2rcd13ifvqgd0","pricing_plan_id":"cebpf4jnsgd1na2vs0mg"},{"bike_id":"18989a28-842c-4216-9b41-9977ee09c012","system_id":"levelo_inurba_marseille","lat":43.27177,"lon":5.40995,"is_reserved":false,"is_disabled":false,"rental_uris":{"android":"levelo://app?vid=18989a28-842c-4216-9b41-9977ee09c012","ios":"levelo://app?vid=18989a28-842c-4216-9b41-9977ee09c012"},"vehicle_type_id":"4","last_reported":1736276835,"current_range_meters":30400,"station_id":"ce4bhl12rcd13ifvqgf0","pricing_plan_id":"cebpf4jnsgd1na2vs0mg"},{"bike_id":"2f68cdef-bffc-4037-b844-7b9747e6cb93","system_id":"levelo_inurba_marseille","lat":43.24393,"lon":5.37029,"is_reserved":false,"is_disabled":false,"rental_uris":{"android":"levelo://app?vid=2f68cdef-bffc-4037-b844-7b9747e6cb93","ios":"levelo://app?vid=2f68cdef-bffc-4037-b844-7b9747e6cb93"},"vehicle_type_id":"4","last_reported":1736276835,"current_range_meters":38000,"station_id":"ce4bhhh2rcd13ifvqfk0","pricing_plan_id":"cebpf4jnsgd1na2vs0mg"},{"bike_id":"90f8216f-fbb9-4598-9bab-eadf2338867f","system_id":"levelo_inurba_marseille","lat":43.23969,"lon":5.3662,"is_reserved":false,"is_disabled":false,"rental_uris":{"android":"levelo://app?vid=90f8216f-fbb9-4598-9bab-eadf2338867f","ios":"levelo://app?vid=90f8216f-fbb9-4598-9bab-eadf2338867f"},"vehicle_type_id":"4","last_reported":1736276835,"current_range_meters":28000,"station_id":"ce4bhi12rcd13ifvqfp0","pricing_plan_id":"cebpf4jnsgd1na2vs0mg"},{"bike_id":"faba2462-b482-454d-9b9e-a4b3b379992b","system_id":"levelo_inurba_marseille","lat":43.24174,"lon":5.39719,"is_reserved":false,"is_disabled":false,"rental_uris":{"android":"levelo://app?vid=faba2462-b482-454d-9b9e-a4b3b379992b","ios":"levelo://app?vid=faba2462-b482-454d-9b9e-a4b3b379992b"},"vehicle_type_id":"4","last_reported":1736276835,"current_range_meters":10000,"station_id":"ce4bhn12rcd13ifvqgpg","pricing_plan_id":"cebpf4jnsgd1na2vs0mg"},{"bike_id":"e17ac5d8-0dad-428c-8e18-f61456c149f3","system_id":"levelo_inurba_marseille","lat":43.28458,"lon":5.35891,"is_reserved":false,"is_disabled":false,"rental_uris":{"android":"levelo://app?vid=e17ac5d8-0dad-428c-8e18-f61456c149f3","ios":"levelo://app?vid=e17ac5d8-0dad-428c-8e18-f61456c149f3"},"vehicle_type_id":"4","last_reported":1736276835,"current_range_meters":22400,"station_id":"ce4bhah2rcd13ifvqei0","pricing_plan_id":"cebpf4jnsgd1na2vs0mg"},{"bike_id":"f315f1f6-15a6-45f1-b66d-ebc071343df0","system_id":"levelo_inurba_marseille","lat":43.29372,"lon":5.37837,"is_reserved":false,"is_disabled":true,"rental_uris":{"android":"levelo://app?vid=f315f1f6-15a6-45f1-b66d-ebc071343df0","ios":"levelo://app?vid=f315f1f6-15a6-45f1-b66d-ebc071343df0"},"vehicle_type_id":"4","last_reported":1736276835,"current_range_meters":36000,"station_id":"ce4bgjh2rcd13ifvqbf0","pricing_plan_id":"cebpf4jnsgd1na2vs0mg"},{"bike_id":"e9fafa5e-362c-4044-9f54-41c4003bb2dc","system_id":"levelo_inurba_marseille","lat":43.2816,"lon":5.426433,"is_reserved":false,"is_disabled":false,"rental_uris":{"android":"levelo://app?vid=e9fafa5e-362c-4044-9f54-41c4003bb2dc","ios":"levelo://app?vid=e9fafa5e-362c-4044-9f54-41c4003bb2dc"},"vehicle_type_id":"4","last_reported":1736276835,"current_range_meters":6800,"station_id":"ce4bhnh2rcd13ifvqgug","pricing_plan_id":"cebpf4jnsgd1na2vs0mg"},{"bike_id":"502b9a2d-7119-4752-a288-d02d6d3527f6","system_id":"levelo_inurba_marseille","lat":43.28454,"lon":5.35896,"is_reserved":false,"is_disabled":false,"rental_uris":{"android":"levelo://app?vid=502b9a2d-7119-4752-a288-d02d6d3527f6","ios":"levelo://app?vid=502b9a2d-7119-4752-a288-d02d6d3527f6"},"vehicle_type_id":"4","last_reported":1736276835,"current_range_meters":28800,"station_id":"ce4bhah2rcd13ifvqei0","pricing_plan_id":"cebpf4jnsgd1na2vs0mg"},{"bike_id":"d2392be7-0be5-4263-83f7-96f41f2903ee","system_id":"levelo_inurba_marseille","lat":43.2731,"lon":5.39079,"is_reserved":false,"is_disabled":false,"rental_uris":{"android":"levelo://app?vid=d2392be7-0be5-4263-83f7-96f41f2903ee","ios":"levelo://app?vid=d2392be7-0be5-4263-83f7-96f41f2903ee"},"vehicle_type_id":"4","last_reported":1736276835,"current_range_meters":23200,"station_id":"ce4bhgp2rcd13ifvqfe0","pricing_plan_id":"cebpf4jnsgd1na2vs0mg"},{"bike_id":"186bc04a-e627-48ec-bc84-8b718f462832","system_id":"levelo_inurba_marseille","lat":43.26501,"lon":5.39554,"is_reserved":false,"is_disabled":false,"rental_uris":{"android":"levelo://app?vid=186bc04a-e627-48ec-bc84-8b718f462832","ios":"levelo://app?vid=186bc04a-e627-48ec-bc84-8b718f462832"},"vehicle_type_id":"4","last_reported":1736276835,"current_range_meters":12400,"station_id":"ce4bhi12rcd13ifvqfq0","pricing_plan_id":"cebpf4jnsgd1na2vs0mg"},{"bike_id":"de77c04a-e189-4114-8dcf-0064c4147977","system_id":"levelo_inurba_marseille","lat":43.30425,"lon":5.41279,"is_reserved":false,"is_disabled":false,"rental_uris":{"android":"levelo://app?vid=de77c04a-e189-4114-8dcf-0064c4147977","ios":"levelo://app?vid=de77c04a-e189-4114-8dcf-0064c4147977"},"vehicle_type_id":"4","last_reported":1736276835,"current_range_meters":27200,"station_id":"ce4bhop2rcd13ifvqh8g","pricing_plan_id":"cebpf4jnsgd1na2vs0mg"},{"bike_id":"bc86f23c-4371-4721-b514-43c753cee659","system_id":"levelo_inurba_marseille","lat":43.27994,"lon":5.40017,"is_reserved":false,"is_disabled":false,"rental_uris":{"android":"levelo://app?vid=bc86f23c-4371-4721-b514-43c753cee659","ios":"levelo://app?vid=bc86f23c-4371-4721-b514-43c753cee659"},"vehicle_type_id":"4","last_reported":1736276835,"current_range_meters":39200,"station_id":"ce4bho92rcd13ifvqh4g","pricing_plan_id":"cebpf4jnsgd1na2vs0mg"},{"bike_id":"ccefbdf4-df27-4947-9b01-eba3707af800","system_id":"levelo_inurba_marseille","lat":43.295377,"lon":5.385515,"is_reserved":false,"is_disabled":true,"rental_uris":{"android":"levelo://app?vid=ccefbdf4-df27-4947-9b01-eba3707af800","ios":"levelo://app?vid=ccefbdf4-df27-4947-9b01-eba3707af800"},"vehicle_type_id":"4","last_reported":1736276835,"current_range_meters":19200,"station_id":"ce4bgih2rcd13ifvqba0","pricing_plan_id":"cebpf4jnsgd1na2vs0mg"},{"bike_id":"ea60edce-76ab-4155-8e79-99022a30bcac","system_id":"levelo_inurba_marseille","lat":43.29552,"lon":5.42279,"is_reserved":false,"is_disabled":false,"rental_uris":{"android":"levelo://app?vid=ea60edce-76ab-4155-8e79-99022a30bcac","ios":"levelo://app?vid=ea60edce-76ab-4155-8e79-99022a30bcac"},"vehicle_type_id":"4","last_reported":1736276835,"current_range_meters":13600,"station_id":"ce4bhph2rcd13ifvqhdg","pricing_plan_id":"cebpf4jnsgd1na2vs0mg"},{"bike_id":"2770d7cf-3d1a-4284-becc-2f7fdad0329c","system_id":"levelo_inurba_marseille","lat":43.31086,"lon":5.42429,"is_reserved":false,"is_disabled":false,"rental_uris":{"android":"levelo://app?vid=2770d7cf-3d1a-4284-becc-2f7fdad0329c","ios":"levelo://app?vid=2770d7cf-3d1a-4284-becc-2f7fdad0329c"},"vehicle_type_id":"4","last_reported":1736276835,"current_range_meters":15200,"station_id":"ce4bhp92rcd13ifvqhag","pricing_plan_id":"cebpf4jnsgd1na2vs0mg"},{"bike_id":"cbd2e76c-881c-4903-85d5-3e956be06ddd","system_id":"levelo_inurba_marseille","lat":43.29804,"lon":5.40398,"is_reserved":false,"is_disabled":false,"rental_uris":{"android":"levelo://app?vid=cbd2e76c-881c-4903-85d5-3e956be06ddd","ios":"levelo://app?vid=cbd2e76c-881c-4903-85d5-3e956be06ddd"},"vehicle_type_id":"4","last_reported":1736276835,"current_range_meters":20800,"station_id":"ce4bh112rcd13ifvqd90","pricing_plan_id":"cebpf4jnsgd1na2vs0mg"},{"bike_id":"a7827cfa-8502-4643-8e7f-86c61f000c35","system_id":"levelo_inurba_marseille","lat":43.29563,"lon":5.37502,"is_reserved":false,"is_disabled":false,"rental_uris":{"android":"levelo://app?vid=a7827cfa-8502-4643-8e7f-86c61f000c35","ios":"levelo://app?vid=a7827cfa-8502-4643-8e7f-86c61f000c35"},"vehicle_type_id":"4","last_reported":1736276835,"current_range_meters":30800,"station_id":"ce4bgh92rcd13ifvqb50","pricing_plan_id":"cebpf4jnsgd1na2vs0mg"},{"bike_id":"b13965eb-7a3e-487c-8f4f-1d2936af4009","system_id":"levelo_inurba_marseille","lat":43.25823,"lon":5.39433,"is_reserved":false,"is_disabled":true,"rental_uris":{"android":"levelo://app?vid=b13965eb-7a3e-487c-8f4f-1d2936af4009","ios":"levelo://app?vid=b13965eb-7a3e-487c-8f4f-1d2936af4009"},"vehicle_type_id":"4","last_reported":1736276835,"current_range_meters":2000,"station_id":"ce4bhip2rcd13ifvqft0","pricing_plan_id":"cebpf4jnsgd1na2vs0mg"},{"bike_id":"2caa7ff0-56a0-4a66-805c-847ccd11c31b","system_id":"levelo_inurba_marseille","lat":43.313319,"lon":5.396897,"is_reserved":false,"is_disabled":false,"rental_uris":{"android":"levelo://app?vid=2caa7ff0-56a0-4a66-805c-847ccd11c31b","ios":"levelo://app?vid=2caa7ff0-56a0-4a66-805c-847ccd11c31b"},"vehicle_type_id":"4","last_reported":1736276835,"current_range_meters":38800,"station_id":"ce4bgvp2rcd13ifvqcu0","pricing_plan_id":"cebpf4jnsgd1na2vs0mg"},{"bike_id":"7ed041a4-7bdf-4f3c-bce0-af2e72da1242","system_id":"levelo_inurba_marseille","lat":43.25579,"lon":5.38244,"is_reserved":false,"is_disabled":false,"rental_uris":{"android":"levelo://app?vid=7ed041a4-7bdf-4f3c-bce0-af2e72da1242","ios":"levelo://app?vid=7ed041a4-7bdf-4f3c-bce0-af2e72da1242"},"vehicle_type_id":"4","last_reported":1736276835,"current_range_meters":8000,"station_id":"ce4bhih2rcd13ifvqfs0","pricing_plan_id":"cebpf4jnsgd1na2vs0mg"},{"bike_id":"3ad0f3ed-1061-459e-b238-515ecfd1abd9","system_id":"levelo_inurba_marseille","lat":43.30788,"lon":5.37654,"is_reserved":false,"is_disabled":false,"rental_uris":{"android":"levelo://app?vid=3ad0f3ed-1061-459e-b238-515ecfd1abd9","ios":"levelo://app?vid=3ad0f3ed-1061-459e-b238-515ecfd1abd9"},"vehicle_type_id":"4","last_reported":1736276835,"current_range_meters":30400,"station_id":"ce4bgv92rcd13ifvqcq0","pricing_plan_id":"cebpf4jnsgd1na2vs0mg"},{"bike_id":"637c9e25-6ec5-4d5c-9ec9-ed6c73dcb821","system_id":"levelo_inurba_marseille","lat":43.31696,"lon":5.37752,"is_reserved":false,"is_disabled":false,"rental_uris":{"android":"levelo://app?vid=637c9e25-6ec5-4d5c-9ec9-ed6c73dcb821","ios":"levelo://app?vid=637c9e25-6ec5-4d5c-9ec9-ed6c73dcb821"},"vehicle_type_id":"4","last_reported":1736276835,"current_range_meters":34800,"station_id":"ce4bgth2rcd13ifvqch0","pricing_plan_id":"cebpf4jnsgd1na2vs0mg"},{"bike_id":"348e1602-1bb0-4b51-9ba3-012118339c74","system_id":"levelo_inurba_marseille","lat":43.27177,"lon":5.40981,"is_reserved":false,"is_disabled":false,"rental_uris":{"android":"levelo://app?vid=348e1602-1bb0-4b51-9ba3-012118339c74","ios":"levelo://app?vid=348e1602-1bb0-4b51-9ba3-012118339c74"},"vehicle_type_id":"4","last_reported":1736276835,"current_range_meters":36000,"station_id":"ce4bhl12rcd13ifvqgf0","pricing_plan_id":"cebpf4jnsgd1na2vs0mg"},{"bike_id":"b02fab9b-85e2-4691-a949-9c3558950865","system_id":"levelo_inurba_marseille","lat":43.3133,"lon":5.39691,"is_reserved":false,"is_disabled":false,"rental_uris":{"android":"levelo://app?vid=b02fab9b-85e2-4691-a949-9c3558950865","ios":"levelo://app?vid=b02fab9b-85e2-4691-a949-9c3558950865"},"vehicle_type_id":"4","last_reported":1736276835,"current_range_meters":38400,"station_id":"ce4bgvp2rcd13ifvqcu0","pricing_plan_id":"cebpf4jnsgd1na2vs0mg"},{"bike_id":"ba876bff-f8d3-4db4-bba8-7ff8a127b48c","system_id":"levelo_inurba_marseille","lat":43.30525,"lon":5.36699,"is_reserved":false,"is_disabled":false,"rental_uris":{"android":"levelo://app?vid=ba876bff-f8d3-4db4-bba8-7ff8a127b48c","ios":"levelo://app?vid=ba876bff-f8d3-4db4-bba8-7ff8a127b48c"},"vehicle_type_id":"4","last_reported":1736276835,"current_range_meters":32000,"station_id":"ce4bgrp2rcd13ifvqc9g","pricing_plan_id":"cebpf4jnsgd1na2vs0mg"},{"bike_id":"5671a7cc-1094-4b46-906d-b97f733ad9e2","system_id":"levelo_inurba_marseille","lat":43.303136,"lon":5.404444,"is_reserved":false,"is_disabled":true,"rental_uris":{"android":"levelo://app?vid=5671a7cc-1094-4b46-906d-b97f733ad9e2","ios":"levelo://app?vid=5671a7cc-1094-4b46-906d-b97f733ad9e2"},"vehicle_type_id":"4","last_reported":1736276835,"current_range_meters":36400,"station_id":"ce4bh012rcd13ifvqd10","pricing_plan_id":"cebpf4jnsgd1na2vs0mg"},{"bike_id":"05de648b-4c99-4669-8044-95c3072ef585","system_id":"levelo_inurba_marseille","lat":43.26804,"lon":5.40269,"is_reserved":false,"is_disabled":true,"rental_uris":{"android":"levelo://app?vid=05de648b-4c99-4669-8044-95c3072ef585","ios":"levelo://app?vid=05de648b-4c99-4669-8044-95c3072ef585"},"vehicle_type_id":"4","last_reported":1736276835,"current_range_meters":400,"station_id":"ce501612rcd8frsf0b60","pricing_plan_id":"cebpf4jnsgd1na2vs0mg"},{"bike_id":"dc827cf3-29ff-45c8-810d-dbeb1b03f06e","system_id":"levelo_inurba_marseille","lat":43.28667,"lon":5.38675,"is_reserved":false,"is_disabled":false,"rental_uris":{"android":"levelo://app?vid=dc827cf3-29ff-45c8-810d-dbeb1b03f06e","ios":"levelo://app?vid=dc827cf3-29ff-45c8-810d-dbeb1b03f06e"},"vehicle_type_id":"4","last_reported":1736276835,"current_range_meters":32000,"station_id":"ce4bh492rcd13ifvqdug","pricing_plan_id":"cebpf4jnsgd1na2vs0mg"},{"bike_id":"005c2044-0c78-410b-b1cd-e1e9feaa0e05","system_id":"levelo_inurba_marseille","lat":43.2396,"lon":5.36641,"is_reserved":false,"is_disabled":false,"rental_uris":{"android":"levelo://app?vid=005c2044-0c78-410b-b1cd-e1e9feaa0e05","ios":"levelo://app?vid=005c2044-0c78-410b-b1cd-e1e9feaa0e05"},"vehicle_type_id":"4","last_reported":1736276835,"current_range_meters":17200,"station_id":"ce4bhi12rcd13ifvqfp0","pricing_plan_id":"cebpf4jnsgd1na2vs0mg"},{"bike_id":"db190856-6440-4075-89bd-6bb8e507459d","system_id":"levelo_inurba_marseille","lat":43.23962,"lon":5.36623,"is_reserved":false,"is_disabled":false,"rental_uris":{"android":"levelo://app?vid=db190856-6440-4075-89bd-6bb8e507459d","ios":"levelo://app?vid=db190856-6440-4075-89bd-6bb8e507459d"},"vehicle_type_id":"4","last_reported":1736276835,"current_range_meters":12000,"station_id":"ce4bhi12rcd13ifvqfp0","pricing_plan_id":"cebpf4jnsgd1na2vs0mg"},{"bike_id":"431f7dcc-a585-40c5-bbb3-8421b61e410e","system_id":"levelo_inurba_marseille","lat":43.29543,"lon":5.37493,"is_reserved":false,"is_disabled":false,"rental_uris":{"android":"levelo://app?vid=431f7dcc-a585-40c5-bbb3-8421b61e410e","ios":"levelo://app?vid=431f7dcc-a585-40c5-bbb3-8421b61e410e"},"vehicle_type_id":"4","last_reported":1736276835,"current_range_meters":16800,"station_id":"ce4bgkp2rcd13ifvqbmg","pricing_plan_id":"cebpf4jnsgd1na2vs0mg"},{"bike_id":"b0f664cb-2757-4491-bb9b-7e3c8155ca32","system_id":"levelo_inurba_marseille","lat":43.26507,"lon":5.39553,"is_reserved":false,"is_disabled":true,"rental_uris":{"android":"levelo://app?vid=b0f664cb-2757-4491-bb9b-7e3c8155ca32","ios":"levelo://app?vid=b0f664cb-2757-4491-bb9b-7e3c8155ca32"},"vehicle_type_id":"4","last_reported":1736276835,"current_range_meters":1600,"station_id":"ce4bhi12rcd13ifvqfq0","pricing_plan_id":"cebpf4jnsgd1na2vs0mg"},{"bike_id":"f978b948-6b87-4400-9603-341a57575ca1","system_id":"levelo_inurba_marseille","lat":43.29897,"lon":5.39723,"is_reserved":false,"is_disabled":false,"rental_uris":{"android":"levelo://app?vid=f978b948-6b87-4400-9603-341a57575ca1","ios":"levelo://app?vid=f978b948-6b87-4400-9603-341a57575ca1"},"vehicle_type_id":"4","last_reported":1736276835,"current_range_meters":38400,"station_id":"ce4bh0h2rcd13ifvqd50","pricing_plan_id":"cebpf4jnsgd1na2vs0mg"},{"bike_id":"94ae9d8d-339e-41f5-bf14-1e9df4322647","system_id":"levelo_inurba_marseille","lat":43.27494,"lon":5.42445,"is_reserved":false,"is_disabled":true,"rental_uris":{"android":"levelo://app?vid=94ae9d8d-339e-41f5-bf14-1e9df4322647","ios":"levelo://app?vid=94ae9d8d-339e-41f5-bf14-1e9df4322647"},"vehicle_type_id":"4","last_reported":1736276835,"current_range_meters":35600,"station_id":"ce4bhn92rcd13ifvqgrg","pricing_plan_id":"cebpf4jnsgd1na2vs0mg"},{"bike_id":"6a595de3-0911-46a9-bdbf-4cca5437105e","system_id":"levelo_inurba_marseille","lat":43.23198,"lon":5.35549,"is_reserved":false,"is_disabled":false,"rental_uris":{"android":"levelo://app?vid=6a595de3-0911-46a9-bdbf-4cca5437105e","ios":"levelo://app?vid=6a595de3-0911-46a9-bdbf-4cca5437105e"},"vehicle_type_id":"4","last_reported":1736276835,"current_range_meters":14800,"station_id":"ce4bhu92rcd13ifvqi70","pricing_plan_id":"cebpf4jnsgd1na2vs0mg"},{"bike_id":"641d8acc-50b2-4173-ab23-c70f2a11d28e","system_id":"levelo_inurba_marseille","lat":43.28153,"lon":5.42634,"is_reserved":false,"is_disabled":true,"rental_uris":{"android":"levelo://app?vid=641d8acc-50b2-4173-ab23-c70f2a11d28e","ios":"levelo://app?vid=641d8acc-50b2-4173-ab23-c70f2a11d28e"},"vehicle_type_id":"4","last_reported":1736276835,"current_range_meters":22800,"station_id":"ce4bhnh2rcd13ifvqgug","pricing_plan_id":"cebpf4jnsgd1na2vs0mg"},{"bike_id":"71070e26-a9d7-4eae-99da-f42f1907a4db","system_id":"levelo_inurba_marseille","lat":43.27566,"lon":5.3843,"is_reserved":false,"is_disabled":false,"rental_uris":{"android":"levelo://app?vid=71070e26-a9d7-4eae-99da-f42f1907a4db","ios":"levelo://app?vid=71070e26-a9d7-4eae-99da-f42f1907a4db"},"vehicle_type_id":"4","last_reported":1736276835,"current_range_meters":26800,"station_id":"ce4bhh92rcd13ifvqfi0","pricing_plan_id":"cebpf4jnsgd1na2vs0mg"},{"bike_id":"15e503f5-1d52-42d6-a98f-33a61fd8b554","system_id":"levelo_inurba_marseille","lat":43.28463,"lon":5.35896,"is_reserved":false,"is_disabled":true,"rental_uris":{"android":"levelo://app?vid=15e503f5-1d52-42d6-a98f-33a61fd8b554","ios":"levelo://app?vid=15e503f5-1d52-42d6-a98f-33a61fd8b554"},"vehicle_type_id":"4","last_reported":1736276835,"current_range_meters":14800,"station_id":"ce4bhah2rcd13ifvqei0","pricing_plan_id":"cebpf4jnsgd1na2vs0mg"},{"bike_id":"0a8dd276-fc4a-4f8f-bde0-54d24bf32246","system_id":"levelo_inurba_marseille","lat":43.30902,"lon":5.37186,"is_reserved":false,"is_disabled":false,"rental_uris":{"android":"levelo://app?vid=0a8dd276-fc4a-4f8f-bde0-54d24bf32246","ios":"levelo://app?vid=0a8dd276-fc4a-4f8f-bde0-54d24bf32246"},"vehicle_type_id":"4","last_reported":1736276835,"current_range_meters":27200,"station_id":"ce4bguh2rcd13ifvqckg","pricing_plan_id":"cebpf4jnsgd1na2vs0mg"},{"bike_id":"906ba4c5-6d28-4c00-a902-e1e32b51eb2d","system_id":"levelo_inurba_marseille","lat":43.31362,"lon":5.38486,"is_reserved":false,"is_disabled":false,"rental_uris":{"android":"levelo://app?vid=906ba4c5-6d28-4c00-a902-e1e32b51eb2d","ios":"levelo://app?vid=906ba4c5-6d28-4c00-a902-e1e32b51eb2d"},"vehicle_type_id":"4","last_reported":1736276835,"current_range_meters":11200,"station_id":"ce4bgt92rcd13ifvqcf0","pricing_plan_id":"cebpf4jnsgd1na2vs0mg"},{"bike_id":"44ab28fa-0b3d-469d-97ff-06319e1159ef","system_id":"levelo_inurba_marseille","lat":43.23963,"lon":5.36627,"is_reserved":false,"is_disabled":false,"rental_uris":{"android":"levelo://app?vid=44ab28fa-0b3d-469d-97ff-06319e1159ef","ios":"levelo://app?vid=44ab28fa-0b3d-469d-97ff-06319e1159ef"},"vehicle_type_id":"4","last_reported":1736276835,"current_range_meters":18000,"station_id":"ce4bhi12rcd13ifvqfp0","pricing_plan_id":"cebpf4jnsgd1na2vs0mg"},{"bike_id":"69c7396c-74f8-401e-a258-4da369f2c9e4","system_id":"levelo_inurba_marseille","lat":43.29524,"lon":5.38534,"is_reserved":false,"is_disabled":false,"rental_uris":{"android":"levelo://app?vid=69c7396c-74f8-401e-a258-4da369f2c9e4","ios":"levelo://app?vid=69c7396c-74f8-401e-a258-4da369f2c9e4"},"vehicle_type_id":"4","last_reported":1736276835,"current_range_meters":8400,"station_id":"ce4bgih2rcd13ifvqba0","pricing_plan_id":"cebpf4jnsgd1na2vs0mg"},{"bike_id":"e19ad727-da2c-46eb-ac93-1c81937e8468","system_id":"levelo_inurba_marseille","lat":43.27575,"lon":5.3841,"is_reserved":false,"is_disabled":false,"rental_uris":{"android":"levelo://app?vid=e19ad727-da2c-46eb-ac93-1c81937e8468","ios":"levelo://app?vid=e19ad727-da2c-46eb-ac93-1c81937e8468"},"vehicle_type_id":"4","last_reported":1736276835,"current_range_meters":38800,"station_id":"ce4bhh92rcd13ifvqfi0","pricing_plan_id":"cebpf4jnsgd1na2vs0mg"},{"bike_id":"51e34471-1ea6-4d80-be28-eba4c2317bfd","system_id":"levelo_inurba_marseille","lat":43.29806,"lon":5.38078,"is_reserved":false,"is_disabled":false,"rental_uris":{"android":"levelo://app?vid=51e34471-1ea6-4d80-be28-eba4c2317bfd","ios":"levelo://app?vid=51e34471-1ea6-4d80-be28-eba4c2317bfd"},"vehicle_type_id":"4","last_reported":1736276835,"current_range_meters":38800,"station_id":"ce4bgip2rcd13ifvqbb0","pricing_plan_id":"cebpf4jnsgd1na2vs0mg"},{"bike_id":"21979858-6bd4-4623-93e3-10a15afddce5","system_id":"levelo_inurba_marseille","lat":43.292991,"lon":5.374633,"is_reserved":false,"is_disabled":true,"rental_uris":{"android":"levelo://app?vid=21979858-6bd4-4623-93e3-10a15afddce5","ios":"levelo://app?vid=21979858-6bd4-4623-93e3-10a15afddce5"},"vehicle_type_id":"4","last_reported":1736276835,"current_range_meters":35200,"station_id":"ce4bh5p2rcd13ifvqe4g","pricing_plan_id":"cebpf4jnsgd1na2vs0mg"},{"bike_id":"6d88bbf0-f428-4bd4-ab8a-2ee8d5e7c74e","system_id":"levelo_inurba_marseille","lat":43.23068,"lon":5.35498,"is_reserved":false,"is_disabled":false,"rental_uris":{"android":"levelo://app?vid=6d88bbf0-f428-4bd4-ab8a-2ee8d5e7c74e","ios":"levelo://app?vid=6d88bbf0-f428-4bd4-ab8a-2ee8d5e7c74e"},"vehicle_type_id":"4","last_reported":1736276835,"current_range_meters":37600,"station_id":"cpo3342slgdg3j2ifvpg","pricing_plan_id":"cebpf4jnsgd1na2vs0mg"},{"bike_id":"167c24b2-cea6-4450-aa93-c6475e41dac0","system_id":"levelo_inurba_marseille","lat":43.28218,"lon":5.39064,"is_reserved":false,"is_disabled":false,"rental_uris":{"android":"levelo://app?vid=167c24b2-cea6-4450-aa93-c6475e41dac0","ios":"levelo://app?vid=167c24b2-cea6-4450-aa93-c6475e41dac0"},"vehicle_type_id":"4","last_reported":1736276835,"current_range_meters":17600,"station_id":"","pricing_plan_id":"cebpf4jnsgd1na2vs0mg"},{"bike_id":"fc28be46-23fe-4f09-821c-8a3bd21ca77c","system_id":"levelo_inurba_marseille","lat":43.25584,"lon":5.38236,"is_reserved":false,"is_disabled":false,"rental_uris":{"android":"levelo://app?vid=fc28be46-23fe-4f09-821c-8a3bd21ca77c","ios":"levelo://app?vid=fc28be46-23fe-4f09-821c-8a3bd21ca77c"},"vehicle_type_id":"4","last_reported":1736276835,"current_range_meters":38800,"station_id":"ce4bhih2rcd13ifvqfs0","pricing_plan_id":"cebpf4jnsgd1na2vs0mg"},{"bike_id":"35e45831-c909-4823-af61-85bba9e6a503","system_id":"levelo_inurba_marseille","lat":43.27958,"lon":5.38742,"is_reserved":false,"is_disabled":false,"rental_uris":{"android":"levelo://app?vid=35e45831-c909-4823-af61-85bba9e6a503","ios":"levelo://app?vid=35e45831-c909-4823-af61-85bba9e6a503"},"vehicle_type_id":"4","last_reported":1736276835,"current_range_meters":36000,"station_id":"ce4bhg12rcd13ifvqf80","pricing_plan_id":"cebpf4jnsgd1na2vs0mg"},{"bike_id":"deb36ac4-7454-4248-a70d-1d87c937e94b","system_id":"levelo_inurba_marseille","lat":43.30918,"lon":5.39651,"is_reserved":false,"is_disabled":false,"rental_uris":{"android":"levelo://app?vid=deb36ac4-7454-4248-a70d-1d87c937e94b","ios":"levelo://app?vid=deb36ac4-7454-4248-a70d-1d87c937e94b"},"vehicle_type_id":"4","last_reported":1736276835,"current_range_meters":38400,"station_id":"ce4bh012rcd13ifvqcv0","pricing_plan_id":"cebpf4jnsgd1na2vs0mg"},{"bike_id":"23ac0030-6b23-4f36-98cf-157e343285b1","system_id":"levelo_inurba_marseille","lat":43.28909,"lon":5.38381,"is_reserved":false,"is_disabled":false,"rental_uris":{"android":"levelo://app?vid=23ac0030-6b23-4f36-98cf-157e343285b1","ios":"levelo://app?vid=23ac0030-6b23-4f36-98cf-157e343285b1"},"vehicle_type_id":"4","last_reported":1736276835,"current_range_meters":26800,"station_id":"ce4bh612rcd13ifvqe6g","pricing_plan_id":"cebpf4jnsgd1na2vs0mg"},{"bike_id":"bce7eb3c-fcc5-4102-a74e-d0167d307166","system_id":"levelo_inurba_marseille","lat":43.30149,"lon":5.39884,"is_reserved":false,"is_disabled":false,"rental_uris":{"android":"levelo://app?vid=bce7eb3c-fcc5-4102-a74e-d0167d307166","ios":"levelo://app?vid=bce7eb3c-fcc5-4102-a74e-d0167d307166"},"vehicle_type_id":"4","last_reported":1736276835,"current_range_meters":12800,"station_id":"ce4bh0h2rcd13ifvqd40","pricing_plan_id":"cebpf4jnsgd1na2vs0mg"},{"bike_id":"f41e5a84-60d4-4405-a079-ae68e2ca0368","system_id":"levelo_inurba_marseille","lat":43.29527,"lon":5.39044,"is_reserved":false,"is_disabled":false,"rental_uris":{"android":"levelo://app?vid=f41e5a84-60d4-4405-a079-ae68e2ca0368","ios":"levelo://app?vid=f41e5a84-60d4-4405-a079-ae68e2ca0368"},"vehicle_type_id":"4","last_reported":1736276835,"current_range_meters":38800,"station_id":"ce4bh3p2rcd13ifvqdp0","pricing_plan_id":"cebpf4jnsgd1na2vs0mg"},{"bike_id":"d0f7f7c9-5d11-43e5-ac3d-598fa4404ec8","system_id":"levelo_inurba_marseille","lat":43.23184,"lon":5.39979,"is_reserved":false,"is_disabled":false,"rental_uris":{"android":"levelo://app?vid=d0f7f7c9-5d11-43e5-ac3d-598fa4404ec8","ios":"levelo://app?vid=d0f7f7c9-5d11-43e5-ac3d-598fa4404ec8"},"vehicle_type_id":"4","last_reported":1736276835,"current_range_meters":22000,"station_id":"ce4bhn12rcd13ifvqgqg","pricing_plan_id":"cebpf4jnsgd1na2vs0mg"},{"bike_id":"22aff5ba-aa9a-4941-a8d3-4d2161121597","system_id":"levelo_inurba_marseille","lat":43.29276,"lon":5.38443,"is_reserved":false,"is_disabled":false,"rental_uris":{"android":"levelo://app?vid=22aff5ba-aa9a-4941-a8d3-4d2161121597","ios":"levelo://app?vid=22aff5ba-aa9a-4941-a8d3-4d2161121597"},"vehicle_type_id":"4","last_reported":1736276835,"current_range_meters":36000,"station_id":"ce4bh692rcd13ifvqea0","pricing_plan_id":"cebpf4jnsgd1na2vs0mg"},{"bike_id":"7cb6f5cc-452f-419e-9da1-f27fcae37391","system_id":"levelo_inurba_marseille","lat":43.28666,"lon":5.36347,"is_reserved":false,"is_disabled":false,"rental_uris":{"android":"levelo://app?vid=7cb6f5cc-452f-419e-9da1-f27fcae37391","ios":"levelo://app?vid=7cb6f5cc-452f-419e-9da1-f27fcae37391"},"vehicle_type_id":"4","last_reported":1736276835,"current_range_meters":38800,"station_id":"ce4bhah2rcd13ifvqej0","pricing_plan_id":"cebpf4jnsgd1na2vs0mg"},{"bike_id":"50a70b43-ca32-43ff-9906-da0b3bc2183f","system_id":"levelo_inurba_marseille","lat":43.31759,"lon":5.39014,"is_reserved":false,"is_disabled":false,"rental_uris":{"android":"levelo://app?vid=50a70b43-ca32-43ff-9906-da0b3bc2183f","ios":"levelo://app?vid=50a70b43-ca32-43ff-9906-da0b3bc2183f"},"vehicle_type_id":"4","last_reported":1736276835,"current_range_meters":20000,"station_id":"ce4bhqp2rcd13ifvqhng","pricing_plan_id":"cebpf4jnsgd1na2vs0mg"},{"bike_id":"0c0eb178-d1bc-40aa-b0f9-b00378fa5781","system_id":"levelo_inurba_marseille","lat":43.29419,"lon":5.38644,"is_reserved":false,"is_disabled":false,"rental_uris":{"android":"levelo://app?vid=0c0eb178-d1bc-40aa-b0f9-b00378fa5781","ios":"levelo://app?vid=0c0eb178-d1bc-40aa-b0f9-b00378fa5781"},"vehicle_type_id":"4","last_reported":1736276835,"current_range_meters":6000,"station_id":"ce4bh2h2rcd13ifvqdh0","pricing_plan_id":"cebpf4jnsgd1na2vs0mg"},{"bike_id":"257c7a47-4074-4a91-b13c-b76f6fa570cc","system_id":"levelo_inurba_marseille","lat":43.25581,"lon":5.38233,"is_reserved":false,"is_disabled":false,"rental_uris":{"android":"levelo://app?vid=257c7a47-4074-4a91-b13c-b76f6fa570cc","ios":"levelo://app?vid=257c7a47-4074-4a91-b13c-b76f6fa570cc"},"vehicle_type_id":"4","last_reported":1736276835,"current_range_meters":30400,"station_id":"ce4bhih2rcd13ifvqfs0","pricing_plan_id":"cebpf4jnsgd1na2vs0mg"},{"bike_id":"cdfea266-e5fd-4018-a292-1ba3701f72dd","system_id":"levelo_inurba_marseille","lat":43.254938,"lon":5.376469,"is_reserved":false,"is_disabled":false,"rental_uris":{"android":"levelo://app?vid=cdfea266-e5fd-4018-a292-1ba3701f72dd","ios":"levelo://app?vid=cdfea266-e5fd-4018-a292-1ba3701f72dd"},"vehicle_type_id":"4","last_reported":1736276835,"current_range_meters":30800,"station_id":"ce4bhh12rcd13ifvqff0","pricing_plan_id":"cebpf4jnsgd1na2vs0mg"},{"bike_id":"67d1058b-5c38-4a0a-aa24-783a66cd9fd3","system_id":"levelo_inurba_marseille","lat":43.30418,"lon":5.41284,"is_reserved":false,"is_disabled":false,"rental_uris":{"android":"levelo://app?vid=67d1058b-5c38-4a0a-aa24-783a66cd9fd3","ios":"levelo://app?vid=67d1058b-5c38-4a0a-aa24-783a66cd9fd3"},"vehicle_type_id":"4","last_reported":1736276835,"current_range_meters":38800,"station_id":"ce4bhop2rcd13ifvqh8g","pricing_plan_id":"cebpf4jnsgd1na2vs0mg"},{"bike_id":"d17d631b-7434-4c3f-a667-cb43ae2fd84f","system_id":"levelo_inurba_marseille","lat":43.28864,"lon":5.35865,"is_reserved":false,"is_disabled":false,"rental_uris":{"android":"levelo://app?vid=d17d631b-7434-4c3f-a667-cb43ae2fd84f","ios":"levelo://app?vid=d17d631b-7434-4c3f-a667-cb43ae2fd84f"},"vehicle_type_id":"4","last_reported":1736276835,"current_range_meters":23200,"station_id":"ce4bhb12rcd13ifvqem0","pricing_plan_id":"cebpf4jnsgd1na2vs0mg"},{"bike_id":"cf55238d-3e2d-485d-8238-c5609593f49b","system_id":"levelo_inurba_marseille","lat":43.26688,"lon":5.38283,"is_reserved":false,"is_disabled":true,"rental_uris":{"android":"levelo://app?vid=cf55238d-3e2d-485d-8238-c5609593f49b","ios":"levelo://app?vid=cf55238d-3e2d-485d-8238-c5609593f49b"},"vehicle_type_id":"4","last_reported":1736276835,"current_range_meters":25200,"station_id":"ce4bhg92rcd13ifvqf90","pricing_plan_id":"cebpf4jnsgd1na2vs0mg"},{"bike_id":"336be5b4-41be-4c93-8b79-276dcd225506","system_id":"levelo_inurba_marseille","lat":43.29213,"lon":5.3605,"is_reserved":false,"is_disabled":true,"rental_uris":{"android":"levelo://app?vid=336be5b4-41be-4c93-8b79-276dcd225506","ios":"levelo://app?vid=336be5b4-41be-4c93-8b79-276dcd225506"},"vehicle_type_id":"4","last_reported":1736276835,"current_range_meters":28800,"station_id":"ce4bhbh2rcd13ifvqeqg","pricing_plan_id":"cebpf4jnsgd1na2vs0mg"},{"bike_id":"ce06806b-38da-4646-9a68-f6af7ea19f03","system_id":"levelo_inurba_marseille","lat":43.29422,"lon":5.38628,"is_reserved":false,"is_disabled":false,"rental_uris":{"android":"levelo://app?vid=ce06806b-38da-4646-9a68-f6af7ea19f03","ios":"levelo://app?vid=ce06806b-38da-4646-9a68-f6af7ea19f03"},"vehicle_type_id":"4","last_reported":1736276835,"current_range_meters":15200,"station_id":"ce4bh2h2rcd13ifvqdh0","pricing_plan_id":"cebpf4jnsgd1na2vs0mg"},{"bike_id":"92cbc96a-33cd-427b-8a84-a680d4494411","system_id":"levelo_inurba_marseille","lat":43.30878,"lon":5.39651,"is_reserved":false,"is_disabled":false,"rental_uris":{"android":"levelo://app?vid=92cbc96a-33cd-427b-8a84-a680d4494411","ios":"levelo://app?vid=92cbc96a-33cd-427b-8a84-a680d4494411"},"vehicle_type_id":"4","last_reported":1736276835,"current_range_meters":3600,"station_id":"ce4bh012rcd13ifvqcv0","pricing_plan_id":"cebpf4jnsgd1na2vs0mg"},{"bike_id":"2a2b31c0-4ca9-4dd9-b09d-487e973cff77","system_id":"levelo_inurba_marseille","lat":43.31997,"lon":5.38158,"is_reserved":false,"is_disabled":false,"rental_uris":{"android":"levelo://app?vid=2a2b31c0-4ca9-4dd9-b09d-487e973cff77","ios":"levelo://app?vid=2a2b31c0-4ca9-4dd9-b09d-487e973cff77"},"vehicle_type_id":"4","last_reported":1736276835,"current_range_meters":36000,"station_id":"ce4bhr12rcd13ifvqhpg","pricing_plan_id":"cebpf4jnsgd1na2vs0mg"},{"bike_id":"3b09c87e-cbc2-4176-bc1b-1b93a39221ad","system_id":"levelo_inurba_marseille","lat":43.330247,"lon":5.390332,"is_reserved":false,"is_disabled":false,"rental_uris":{"android":"levelo://app?vid=3b09c87e-cbc2-4176-bc1b-1b93a39221ad","ios":"levelo://app?vid=3b09c87e-cbc2-4176-bc1b-1b93a39221ad"},"vehicle_type_id":"4","last_reported":1736276835,"current_range_meters":36000,"station_id":"ce4bhr92rcd13ifvqhrg","pricing_plan_id":"cebpf4jnsgd1na2vs0mg"},{"bike_id":"fcd2c318-5c55-45fd-b389-48b39f003420","system_id":"levelo_inurba_marseille","lat":43.29532,"lon":5.38546,"is_reserved":false,"is_disabled":false,"rental_uris":{"android":"levelo://app?vid=fcd2c318-5c55-45fd-b389-48b39f003420","ios":"levelo://app?vid=fcd2c318-5c55-45fd-b389-48b39f003420"},"vehicle_type_id":"4","last_reported":1736276835,"current_range_meters":34000,"station_id":"ce4bgih2rcd13ifvqba0","pricing_plan_id":"cebpf4jnsgd1na2vs0mg"},{"bike_id":"df077b29-9b94-4cf8-8e96-a48fc869efd7","system_id":"levelo_inurba_marseille","lat":43.29015,"lon":5.38121,"is_reserved":false,"is_disabled":false,"rental_uris":{"android":"levelo://app?vid=df077b29-9b94-4cf8-8e96-a48fc869efd7","ios":"levelo://app?vid=df077b29-9b94-4cf8-8e96-a48fc869efd7"},"vehicle_type_id":"4","last_reported":1736276835,"current_range_meters":20000,"station_id":"ce4bh4p2rcd13ifvqe1g","pricing_plan_id":"cebpf4jnsgd1na2vs0mg"},{"bike_id":"12195799-3bdd-4f45-bf33-c82043eac899","system_id":"levelo_inurba_marseille","lat":43.31885,"lon":5.40725,"is_reserved":false,"is_disabled":false,"rental_uris":{"android":"levelo://app?vid=12195799-3bdd-4f45-bf33-c82043eac899","ios":"levelo://app?vid=12195799-3bdd-4f45-bf33-c82043eac899"},"vehicle_type_id":"4","last_reported":1736276835,"current_range_meters":34000,"station_id":"ce4bhq12rcd13ifvqhig","pricing_plan_id":"cebpf4jnsgd1na2vs0mg"},{"bike_id":"e9fd63eb-105d-49d2-9427-6a6693a1ea03","system_id":"levelo_inurba_marseille","lat":43.29433,"lon":5.38601,"is_reserved":false,"is_disabled":false,"rental_uris":{"android":"levelo://app?vid=e9fd63eb-105d-49d2-9427-6a6693a1ea03","ios":"levelo://app?vid=e9fd63eb-105d-49d2-9427-6a6693a1ea03"},"vehicle_type_id":"4","last_reported":1736276835,"current_range_meters":27600,"station_id":"ce4bh2h2rcd13ifvqdh0","pricing_plan_id":"cebpf4jnsgd1na2vs0mg"},{"bike_id":"9571ed17-4581-4658-b5b9-d5fdfdd8240b","system_id":"levelo_inurba_marseille","lat":43.29021,"lon":5.38631,"is_reserved":false,"is_disabled":false,"rental_uris":{"android":"levelo://app?vid=9571ed17-4581-4658-b5b9-d5fdfdd8240b","ios":"levelo://app?vid=9571ed17-4581-4658-b5b9-d5fdfdd8240b"},"vehicle_type_id":"4","last_reported":1736276835,"current_range_meters":24400,"station_id":"ce4bh4p2rcd13ifvqe0g","pricing_plan_id":"cebpf4jnsgd1na2vs0mg"},{"bike_id":"a4dec33a-3574-46ab-bf07-5ce5a74a1fd6","system_id":"levelo_inurba_marseille","lat":43.28619,"lon":5.35094,"is_reserved":false,"is_disabled":false,"rental_uris":{"android":"levelo://app?vid=a4dec33a-3574-46ab-bf07-5ce5a74a1fd6","ios":"levelo://app?vid=a4dec33a-3574-46ab-bf07-5ce5a74a1fd6"},"vehicle_type_id":"4","last_reported":1736276835,"current_range_meters":29600,"station_id":"ce4bhch2rcd13ifvqeug","pricing_plan_id":"cebpf4jnsgd1na2vs0mg"},{"bike_id":"1ab3c24e-721d-44a5-82f0-e7490a066076","system_id":"levelo_inurba_marseille","lat":43.25864,"lon":5.39901,"is_reserved":false,"is_disabled":false,"rental_uris":{"android":"levelo://app?vid=1ab3c24e-721d-44a5-82f0-e7490a066076","ios":"levelo://app?vid=1ab3c24e-721d-44a5-82f0-e7490a066076"},"vehicle_type_id":"4","last_reported":1736276835,"current_range_meters":27600,"station_id":"ce4bhl92rcd13ifvqghg","pricing_plan_id":"cebpf4jnsgd1na2vs0mg"},{"bike_id":"f3d1f244-18c3-434d-87c1-4500012e65af","system_id":"levelo_inurba_marseille","lat":43.337444,"lon":5.374475,"is_reserved":false,"is_disabled":false,"rental_uris":{"android":"levelo://app?vid=f3d1f244-18c3-434d-87c1-4500012e65af","ios":"levelo://app?vid=f3d1f244-18c3-434d-87c1-4500012e65af"},"vehicle_type_id":"4","last_reported":1736276835,"current_range_meters":26800,"station_id":"","pricing_plan_id":"cebpf4jnsgd1na2vs0mg"},{"bike_id":"d650c34d-2a26-4ee3-bb18-21bdfdc944db","system_id":"levelo_inurba_marseille","lat":43.24072,"lon":5.37764,"is_reserved":false,"is_disabled":false,"rental_uris":{"android":"levelo://app?vid=d650c34d-2a26-4ee3-bb18-21bdfdc944db","ios":"levelo://app?vid=d650c34d-2a26-4ee3-bb18-21bdfdc944db"},"vehicle_type_id":"4","last_reported":1736276835,"current_range_meters":27600,"station_id":"ce4bhnp2rcd13ifvqgvg","pricing_plan_id":"cebpf4jnsgd1na2vs0mg"},{"bike_id":"ddd4468a-dab6-4d1a-a590-08ccd8c8d91a","system_id":"levelo_inurba_marseille","lat":43.29089,"lon":5.37397,"is_reserved":false,"is_disabled":false,"rental_uris":{"android":"levelo://app?vid=ddd4468a-dab6-4d1a-a590-08ccd8c8d91a","ios":"levelo://app?vid=ddd4468a-dab6-4d1a-a590-08ccd8c8d91a"},"vehicle_type_id":"4","last_reported":1736276835,"current_range_meters":38800,"station_id":"","pricing_plan_id":"cebpf4jnsgd1na2vs0mg"},{"bike_id":"30add41c-1c89-4c0e-8350-e2c7f794d882","system_id":"levelo_inurba_marseille","lat":43.2857,"lon":5.39489,"is_reserved":false,"is_disabled":false,"rental_uris":{"android":"levelo://app?vid=30add41c-1c89-4c0e-8350-e2c7f794d882","ios":"levelo://app?vid=30add41c-1c89-4c0e-8350-e2c7f794d882"},"vehicle_type_id":"4","last_reported":1736276835,"current_range_meters":3600,"station_id":"ce4bh292rcd13ifvqdg0","pricing_plan_id":"cebpf4jnsgd1na2vs0mg"},{"bike_id":"39a66161-6256-4a44-9ff8-9ec79f8478c8","system_id":"levelo_inurba_marseille","lat":43.28623,"lon":5.35094,"is_reserved":false,"is_disabled":false,"rental_uris":{"android":"levelo://app?vid=39a66161-6256-4a44-9ff8-9ec79f8478c8","ios":"levelo://app?vid=39a66161-6256-4a44-9ff8-9ec79f8478c8"},"vehicle_type_id":"4","last_reported":1736276835,"current_range_meters":20000,"station_id":"ce4bhch2rcd13ifvqeug","pricing_plan_id":"cebpf4jnsgd1na2vs0mg"},{"bike_id":"b39644bc-bc3d-44b9-9efd-ad39a82efd47","system_id":"levelo_inurba_marseille","lat":43.29201,"lon":5.39327,"is_reserved":false,"is_disabled":false,"rental_uris":{"android":"levelo://app?vid=b39644bc-bc3d-44b9-9efd-ad39a82efd47","ios":"levelo://app?vid=b39644bc-bc3d-44b9-9efd-ad39a82efd47"},"vehicle_type_id":"4","last_reported":1736276835,"current_range_meters":28000,"station_id":"ce4bh192rcd13ifvqdd0","pricing_plan_id":"cebpf4jnsgd1na2vs0mg"},{"bike_id":"d45d0089-5e8c-41ac-a04c-9866c8dc94cc","system_id":"levelo_inurba_marseille","lat":43.23202,"lon":5.35544,"is_reserved":false,"is_disabled":false,"rental_uris":{"android":"levelo://app?vid=d45d0089-5e8c-41ac-a04c-9866c8dc94cc","ios":"levelo://app?vid=d45d0089-5e8c-41ac-a04c-9866c8dc94cc"},"vehicle_type_id":"4","last_reported":1736276835,"current_range_meters":38400,"station_id":"ce4bhu92rcd13ifvqi70","pricing_plan_id":"cebpf4jnsgd1na2vs0mg"},{"bike_id":"62bba582-f76b-42f4-8f20-438f3c4cd87e","system_id":"levelo_inurba_marseille","lat":43.24074,"lon":5.37762,"is_reserved":false,"is_disabled":false,"rental_uris":{"android":"levelo://app?vid=62bba582-f76b-42f4-8f20-438f3c4cd87e","ios":"levelo://app?vid=62bba582-f76b-42f4-8f20-438f3c4cd87e"},"vehicle_type_id":"4","last_reported":1736276835,"current_range_meters":8800,"station_id":"ce4bhnp2rcd13ifvqgvg","pricing_plan_id":"cebpf4jnsgd1na2vs0mg"},{"bike_id":"39e7aa34-fa02-4a93-8bb8-d590a62a01c4","system_id":"levelo_inurba_marseille","lat":43.27326,"lon":5.39071,"is_reserved":false,"is_disabled":false,"rental_uris":{"android":"levelo://app?vid=39e7aa34-fa02-4a93-8bb8-d590a62a01c4","ios":"levelo://app?vid=39e7aa34-fa02-4a93-8bb8-d590a62a01c4"},"vehicle_type_id":"4","last_reported":1736276835,"current_range_meters":9600,"station_id":"ce4bhgp2rcd13ifvqfe0","pricing_plan_id":"cebpf4jnsgd1na2vs0mg"},{"bike_id":"aa33a53e-f806-43a8-ad7e-8e2bd9644426","system_id":"levelo_inurba_marseille","lat":43.32345,"lon":5.40629,"is_reserved":false,"is_disabled":true,"rental_uris":{"android":"levelo://app?vid=aa33a53e-f806-43a8-ad7e-8e2bd9644426","ios":"levelo://app?vid=aa33a53e-f806-43a8-ad7e-8e2bd9644426"},"vehicle_type_id":"4","last_reported":1736276835,"current_range_meters":0,"station_id":"ce4bhq92rcd13ifvqhjg","pricing_plan_id":"cebpf4jnsgd1na2vs0mg"},{"bike_id":"0badc7c1-e770-46b9-b393-54a03ecdf3e3","system_id":"levelo_inurba_marseille","lat":43.29903,"lon":5.43677,"is_reserved":false,"is_disabled":false,"rental_uris":{"android":"levelo://app?vid=0badc7c1-e770-46b9-b393-54a03ecdf3e3","ios":"levelo://app?vid=0badc7c1-e770-46b9-b393-54a03ecdf3e3"},"vehicle_type_id":"4","last_reported":1736276835,"current_range_meters":22400,"station_id":"ce4bhpp2rcd13ifvqhfg","pricing_plan_id":"cebpf4jnsgd1na2vs0mg"},{"bike_id":"28706a8a-e4d8-40e9-a34b-f308bb4cb4ca","system_id":"levelo_inurba_marseille","lat":43.31332,"lon":5.397,"is_reserved":false,"is_disabled":false,"rental_uris":{"android":"levelo://app?vid=28706a8a-e4d8-40e9-a34b-f308bb4cb4ca","ios":"levelo://app?vid=28706a8a-e4d8-40e9-a34b-f308bb4cb4ca"},"vehicle_type_id":"4","last_reported":1736276835,"current_range_meters":38800,"station_id":"ce4bgvp2rcd13ifvqcu0","pricing_plan_id":"cebpf4jnsgd1na2vs0mg"},{"bike_id":"72e0e536-26f1-4692-9d71-00df2072ae44","system_id":"levelo_inurba_marseille","lat":43.24663,"lon":5.38166,"is_reserved":false,"is_disabled":false,"rental_uris":{"android":"levelo://app?vid=72e0e536-26f1-4692-9d71-00df2072ae44","ios":"levelo://app?vid=72e0e536-26f1-4692-9d71-00df2072ae44"},"vehicle_type_id":"4","last_reported":1736276835,"current_range_meters":18800,"station_id":"ce4bhih2rcd13ifvqfr0","pricing_plan_id":"cebpf4jnsgd1na2vs0mg"},{"bike_id":"be457d0e-e951-4c20-92b5-c162743063cd","system_id":"levelo_inurba_marseille","lat":43.33022,"lon":5.39033,"is_reserved":false,"is_disabled":false,"rental_uris":{"android":"levelo://app?vid=be457d0e-e951-4c20-92b5-c162743063cd","ios":"levelo://app?vid=be457d0e-e951-4c20-92b5-c162743063cd"},"vehicle_type_id":"4","last_reported":1736276835,"current_range_meters":16000,"station_id":"ce4bhr92rcd13ifvqhrg","pricing_plan_id":"cebpf4jnsgd1na2vs0mg"},{"bike_id":"77177f8a-71d5-4e1a-868f-582664cef4f6","system_id":"levelo_inurba_marseille","lat":43.30142,"lon":5.37405,"is_reserved":false,"is_disabled":true,"rental_uris":{"android":"levelo://app?vid=77177f8a-71d5-4e1a-868f-582664cef4f6","ios":"levelo://app?vid=77177f8a-71d5-4e1a-868f-582664cef4f6"},"vehicle_type_id":"4","last_reported":1736276835,"current_range_meters":38000,"station_id":"ce4bgs92rcd13ifvqcc0","pricing_plan_id":"cebpf4jnsgd1na2vs0mg"},{"bike_id":"29b409e8-56b7-4545-bd31-7cccb03ccf63","system_id":"levelo_inurba_marseille","lat":43.24543,"lon":5.39526,"is_reserved":false,"is_disabled":false,"rental_uris":{"android":"levelo://app?vid=29b409e8-56b7-4545-bd31-7cccb03ccf63","ios":"levelo://app?vid=29b409e8-56b7-4545-bd31-7cccb03ccf63"},"vehicle_type_id":"4","last_reported":1736276835,"current_range_meters":11600,"station_id":"ce4bhlp2rcd13ifvqgjg","pricing_plan_id":"cebpf4jnsgd1na2vs0mg"},{"bike_id":"9dd7c924-2fb1-4e0a-b668-1a43fa961ead","system_id":"levelo_inurba_marseille","lat":43.29029,"lon":5.38627,"is_reserved":false,"is_disabled":false,"rental_uris":{"android":"levelo://app?vid=9dd7c924-2fb1-4e0a-b668-1a43fa961ead","ios":"levelo://app?vid=9dd7c924-2fb1-4e0a-b668-1a43fa961ead"},"vehicle_type_id":"4","last_reported":1736276835,"current_range_meters":13600,"station_id":"ce4bh4p2rcd13ifvqe0g","pricing_plan_id":"cebpf4jnsgd1na2vs0mg"},{"bike_id":"5c990a4a-e037-4e8b-85a8-64502868377c","system_id":"levelo_inurba_marseille","lat":43.33023,"lon":5.39029,"is_reserved":false,"is_disabled":false,"rental_uris":{"android":"levelo://app?vid=5c990a4a-e037-4e8b-85a8-64502868377c","ios":"levelo://app?vid=5c990a4a-e037-4e8b-85a8-64502868377c"},"vehicle_type_id":"4","last_reported":1736276835,"current_range_meters":24400,"station_id":"ce4bhr92rcd13ifvqhrg","pricing_plan_id":"cebpf4jnsgd1na2vs0mg"},{"bike_id":"68485783-d7db-481e-81b0-ca5c3e3b32d4","system_id":"levelo_inurba_marseille","lat":43.33028,"lon":5.39033,"is_reserved":false,"is_disabled":false,"rental_uris":{"android":"levelo://app?vid=68485783-d7db-481e-81b0-ca5c3e3b32d4","ios":"levelo://app?vid=68485783-d7db-481e-81b0-ca5c3e3b32d4"},"vehicle_type_id":"4","last_reported":1736276835,"current_range_meters":30000,"station_id":"ce4bhr92rcd13ifvqhrg","pricing_plan_id":"cebpf4jnsgd1na2vs0mg"},{"bike_id":"d9d0ffde-9391-45f7-87f2-b2eb55ddba18","system_id":"levelo_inurba_marseille","lat":43.29634,"lon":5.37153,"is_reserved":false,"is_disabled":false,"rental_uris":{"android":"levelo://app?vid=d9d0ffde-9391-45f7-87f2-b2eb55ddba18","ios":"levelo://app?vid=d9d0ffde-9391-45f7-87f2-b2eb55ddba18"},"vehicle_type_id":"4","last_reported":1736276835,"current_range_meters":39200,"station_id":"ce4bgnh2rcd13ifvqc0g","pricing_plan_id":"cebpf4jnsgd1na2vs0mg"},{"bike_id":"313349d9-1783-4ba7-b29a-91b53ef61ebd","system_id":"levelo_inurba_marseille","lat":43.30151,"lon":5.37416,"is_reserved":false,"is_disabled":false,"rental_uris":{"android":"levelo://app?vid=313349d9-1783-4ba7-b29a-91b53ef61ebd","ios":"levelo://app?vid=313349d9-1783-4ba7-b29a-91b53ef61ebd"},"vehicle_type_id":"4","last_reported":1736276835,"current_range_meters":8400,"station_id":"ce4bgs92rcd13ifvqcc0","pricing_plan_id":"cebpf4jnsgd1na2vs0mg"},{"bike_id":"4063b34e-f483-4c10-bdad-a759b3d89011","system_id":"levelo_inurba_marseille","lat":43.27818,"lon":5.40727,"is_reserved":false,"is_disabled":false,"rental_uris":{"android":"levelo://app?vid=4063b34e-f483-4c10-bdad-a759b3d89011","ios":"levelo://app?vid=4063b34e-f483-4c10-bdad-a759b3d89011"},"vehicle_type_id":"4","last_reported":1736276835,"current_range_meters":11600,"station_id":"ce4bhnh2rcd13ifvqgtg","pricing_plan_id":"cebpf4jnsgd1na2vs0mg"},{"bike_id":"1e4b11b9-aef6-4e3d-9c15-1a4a39f3f31a","system_id":"levelo_inurba_marseille","lat":43.29777,"lon":5.38107,"is_reserved":false,"is_disabled":true,"rental_uris":{"android":"levelo://app?vid=1e4b11b9-aef6-4e3d-9c15-1a4a39f3f31a","ios":"levelo://app?vid=1e4b11b9-aef6-4e3d-9c15-1a4a39f3f31a"},"vehicle_type_id":"4","last_reported":1736276835,"current_range_meters":37600,"station_id":"ce4bgip2rcd13ifvqbb0","pricing_plan_id":"cebpf4jnsgd1na2vs0mg"},{"bike_id":"b611d04a-68fa-4e69-89f5-f5abfb42c0c2","system_id":"levelo_inurba_marseille","lat":43.27369,"lon":5.36256,"is_reserved":false,"is_disabled":false,"rental_uris":{"android":"levelo://app?vid=b611d04a-68fa-4e69-89f5-f5abfb42c0c2","ios":"levelo://app?vid=b611d04a-68fa-4e69-89f5-f5abfb42c0c2"},"vehicle_type_id":"4","last_reported":1736276835,"current_range_meters":23200,"station_id":"ce4bhbh2rcd13ifvqeo0","pricing_plan_id":"cebpf4jnsgd1na2vs0mg"},{"bike_id":"3f86cc4e-c4fd-40a8-a7f2-03738bc004c2","system_id":"levelo_inurba_marseille","lat":43.28463,"lon":5.35888,"is_reserved":false,"is_disabled":false,"rental_uris":{"android":"levelo://app?vid=3f86cc4e-c4fd-40a8-a7f2-03738bc004c2","ios":"levelo://app?vid=3f86cc4e-c4fd-40a8-a7f2-03738bc004c2"},"vehicle_type_id":"4","last_reported":1736276835,"current_range_meters":38800,"station_id":"ce4bhah2rcd13ifvqei0","pricing_plan_id":"cebpf4jnsgd1na2vs0mg"},{"bike_id":"7e91820d-8e4f-4b88-8c4a-b1a3aa4e0c45","system_id":"levelo_inurba_marseille","lat":43.28493,"lon":5.38418,"is_reserved":false,"is_disabled":false,"rental_uris":{"android":"levelo://app?vid=7e91820d-8e4f-4b88-8c4a-b1a3aa4e0c45","ios":"levelo://app?vid=7e91820d-8e4f-4b88-8c4a-b1a3aa4e0c45"},"vehicle_type_id":"4","last_reported":1736276835,"current_range_meters":10000,"station_id":"ce4bh512rcd13ifvqe3g","pricing_plan_id":"cebpf4jnsgd1na2vs0mg"},{"bike_id":"bbf998ea-d252-4590-8711-16d78ff4b07c","system_id":"levelo_inurba_marseille","lat":43.24638,"lon":5.38907,"is_reserved":false,"is_disabled":false,"rental_uris":{"android":"levelo://app?vid=bbf998ea-d252-4590-8711-16d78ff4b07c","ios":"levelo://app?vid=bbf998ea-d252-4590-8711-16d78ff4b07c"},"vehicle_type_id":"4","last_reported":1736276835,"current_range_meters":25200,"station_id":"ce4bhg12rcd13ifvqf60","pricing_plan_id":"cebpf4jnsgd1na2vs0mg"},{"bike_id":"2c889d84-bd42-411e-9527-b3215cc58e68","system_id":"levelo_inurba_marseille","lat":43.27949,"lon":5.41055,"is_reserved":false,"is_disabled":false,"rental_uris":{"android":"levelo://app?vid=2c889d84-bd42-411e-9527-b3215cc58e68","ios":"levelo://app?vid=2c889d84-bd42-411e-9527-b3215cc58e68"},"vehicle_type_id":"4","last_reported":1736276835,"current_range_meters":18000,"station_id":"ce4bhnp2rcd13ifvqh0g","pricing_plan_id":"cebpf4jnsgd1na2vs0mg"},{"bike_id":"88a5d56b-c33b-4490-b029-7dac920ab5f6","system_id":"levelo_inurba_marseille","lat":43.26567,"lon":5.39007,"is_reserved":false,"is_disabled":false,"rental_uris":{"android":"levelo://app?vid=88a5d56b-c33b-4490-b029-7dac920ab5f6","ios":"levelo://app?vid=88a5d56b-c33b-4490-b029-7dac920ab5f6"},"vehicle_type_id":"4","last_reported":1736276835,"current_range_meters":30000,"station_id":"ce4bhe12rcd13ifvqf30","pricing_plan_id":"cebpf4jnsgd1na2vs0mg"},{"bike_id":"a1636fab-9524-448f-9592-7b78001284dc","system_id":"levelo_inurba_marseille","lat":43.24072,"lon":5.37763,"is_reserved":false,"is_disabled":false,"rental_uris":{"android":"levelo://app?vid=a1636fab-9524-448f-9592-7b78001284dc","ios":"levelo://app?vid=a1636fab-9524-448f-9592-7b78001284dc"},"vehicle_type_id":"4","last_reported":1736276835,"current_range_meters":32400,"station_id":"ce4bhnp2rcd13ifvqgvg","pricing_plan_id":"cebpf4jnsgd1na2vs0mg"},{"bike_id":"1f3279ad-7688-4d1e-817a-428a5253b908","system_id":"levelo_inurba_marseille","lat":43.313057,"lon":5.397093,"is_reserved":false,"is_disabled":false,"rental_uris":{"android":"levelo://app?vid=1f3279ad-7688-4d1e-817a-428a5253b908","ios":"levelo://app?vid=1f3279ad-7688-4d1e-817a-428a5253b908"},"vehicle_type_id":"4","last_reported":1736276835,"current_range_meters":33200,"station_id":"ce4bgvp2rcd13ifvqcu0","pricing_plan_id":"cebpf4jnsgd1na2vs0mg"},{"bike_id":"545b15d6-1fe4-4802-847a-664daaa3d930","system_id":"levelo_inurba_marseille","lat":43.28105,"lon":5.37852,"is_reserved":false,"is_disabled":false,"rental_uris":{"android":"levelo://app?vid=545b15d6-1fe4-4802-847a-664daaa3d930","ios":"levelo://app?vid=545b15d6-1fe4-4802-847a-664daaa3d930"},"vehicle_type_id":"4","last_reported":1736276835,"current_range_meters":28000,"station_id":"ce4bha12rcd13ifvqee0","pricing_plan_id":"cebpf4jnsgd1na2vs0mg"},{"bike_id":"bc2873b0-9774-491c-a2de-b95e350f7bdb","system_id":"levelo_inurba_marseille","lat":43.2777,"lon":5.39908,"is_reserved":false,"is_disabled":true,"rental_uris":{"android":"levelo://app?vid=bc2873b0-9774-491c-a2de-b95e350f7bdb","ios":"levelo://app?vid=bc2873b0-9774-491c-a2de-b95e350f7bdb"},"vehicle_type_id":"4","last_reported":1736276835,"current_range_meters":1600,"station_id":"","pricing_plan_id":"cebpf4jnsgd1na2vs0mg"},{"bike_id":"49597cf1-abfa-471b-b4d2-12244bfc9378","system_id":"levelo_inurba_marseille","lat":43.29868,"lon":5.39729,"is_reserved":false,"is_disabled":false,"rental_uris":{"android":"levelo://app?vid=49597cf1-abfa-471b-b4d2-12244bfc9378","ios":"levelo://app?vid=49597cf1-abfa-471b-b4d2-12244bfc9378"},"vehicle_type_id":"4","last_reported":1736276835,"current_range_meters":38800,"station_id":"ce4bh0h2rcd13ifvqd50","pricing_plan_id":"cebpf4jnsgd1na2vs0mg"},{"bike_id":"74942fe7-3e6e-4a0f-84df-8d76dcc310a7","system_id":"levelo_inurba_marseille","lat":43.29557,"lon":5.42295,"is_reserved":false,"is_disabled":false,"rental_uris":{"android":"levelo://app?vid=74942fe7-3e6e-4a0f-84df-8d76dcc310a7","ios":"levelo://app?vid=74942fe7-3e6e-4a0f-84df-8d76dcc310a7"},"vehicle_type_id":"4","last_reported":1736276835,"current_range_meters":4400,"station_id":"ce4bhph2rcd13ifvqhdg","pricing_plan_id":"cebpf4jnsgd1na2vs0mg"},{"bike_id":"68be9509-c3a4-4487-b991-edca668a1f0a","system_id":"levelo_inurba_marseille","lat":43.29531,"lon":5.3855,"is_reserved":false,"is_disabled":false,"rental_uris":{"android":"levelo://app?vid=68be9509-c3a4-4487-b991-edca668a1f0a","ios":"levelo://app?vid=68be9509-c3a4-4487-b991-edca668a1f0a"},"vehicle_type_id":"4","last_reported":1736276835,"current_range_meters":24800,"station_id":"ce4bgih2rcd13ifvqba0","pricing_plan_id":"cebpf4jnsgd1na2vs0mg"},{"bike_id":"1e297576-65d7-4d7e-82e0-d872b833f39a","system_id":"levelo_inurba_marseille","lat":43.30908,"lon":5.36867,"is_reserved":false,"is_disabled":false,"rental_uris":{"android":"levelo://app?vid=1e297576-65d7-4d7e-82e0-d872b833f39a","ios":"levelo://app?vid=1e297576-65d7-4d7e-82e0-d872b833f39a"},"vehicle_type_id":"4","last_reported":1736276835,"current_range_meters":24400,"station_id":"ce4bgn92rcd13ifvqbvg","pricing_plan_id":"cebpf4jnsgd1na2vs0mg"},{"bike_id":"dc05b672-3694-44a5-80f7-8b52b23fe0ed","system_id":"levelo_inurba_marseille","lat":43.25579,"lon":5.38243,"is_reserved":false,"is_disabled":false,"rental_uris":{"android":"levelo://app?vid=dc05b672-3694-44a5-80f7-8b52b23fe0ed","ios":"levelo://app?vid=dc05b672-3694-44a5-80f7-8b52b23fe0ed"},"vehicle_type_id":"4","last_reported":1736276835,"current_range_meters":38800,"station_id":"ce4bhih2rcd13ifvqfs0","pricing_plan_id":"cebpf4jnsgd1na2vs0mg"},{"bike_id":"f3068faf-6ea3-45c0-943e-8f5eb9fecb3c","system_id":"levelo_inurba_marseille","lat":43.23967,"lon":5.36639,"is_reserved":false,"is_disabled":false,"rental_uris":{"android":"levelo://app?vid=f3068faf-6ea3-45c0-943e-8f5eb9fecb3c","ios":"levelo://app?vid=f3068faf-6ea3-45c0-943e-8f5eb9fecb3c"},"vehicle_type_id":"4","last_reported":1736276835,"current_range_meters":36800,"station_id":"ce4bhi12rcd13ifvqfp0","pricing_plan_id":"cebpf4jnsgd1na2vs0mg"},{"bike_id":"fbdc4d02-f882-4e9f-bc5f-687fa31eabeb","system_id":"levelo_inurba_marseille","lat":43.29448,"lon":5.39759,"is_reserved":false,"is_disabled":false,"rental_uris":{"android":"levelo://app?vid=fbdc4d02-f882-4e9f-bc5f-687fa31eabeb","ios":"levelo://app?vid=fbdc4d02-f882-4e9f-bc5f-687fa31eabeb"},"vehicle_type_id":"4","last_reported":1736276835,"current_range_meters":38800,"station_id":"ce4bh3h2rcd13ifvqdo0","pricing_plan_id":"cebpf4jnsgd1na2vs0mg"},{"bike_id":"23a66e3f-8e17-4ad8-b689-a42d7cb5191e","system_id":"levelo_inurba_marseille","lat":43.27845,"lon":5.39254,"is_reserved":false,"is_disabled":true,"rental_uris":{"android":"levelo://app?vid=23a66e3f-8e17-4ad8-b689-a42d7cb5191e","ios":"levelo://app?vid=23a66e3f-8e17-4ad8-b689-a42d7cb5191e"},"vehicle_type_id":"4","last_reported":1736276835,"current_range_meters":4400,"station_id":"","pricing_plan_id":"cebpf4jnsgd1na2vs0mg"},{"bike_id":"2937c8f0-6f06-4c7f-8240-41ad44bc55fa","system_id":"levelo_inurba_marseille","lat":43.23192,"lon":5.39992,"is_reserved":false,"is_disabled":false,"rental_uris":{"android":"levelo://app?vid=2937c8f0-6f06-4c7f-8240-41ad44bc55fa","ios":"levelo://app?vid=2937c8f0-6f06-4c7f-8240-41ad44bc55fa"},"vehicle_type_id":"4","last_reported":1736276835,"current_range_meters":9200,"station_id":"ce4bhn12rcd13ifvqgqg","pricing_plan_id":"cebpf4jnsgd1na2vs0mg"},{"bike_id":"34c643ba-9c32-48fb-b7a4-58a073ebe667","system_id":"levelo_inurba_marseille","lat":43.29643,"lon":5.40598,"is_reserved":false,"is_disabled":true,"rental_uris":{"android":"levelo://app?vid=34c643ba-9c32-48fb-b7a4-58a073ebe667","ios":"levelo://app?vid=34c643ba-9c32-48fb-b7a4-58a073ebe667"},"vehicle_type_id":"4","last_reported":1736276835,"current_range_meters":1200,"station_id":"ce4bh0h2rcd13ifvqd60","pricing_plan_id":"cebpf4jnsgd1na2vs0mg"},{"bike_id":"c67f86a7-d1e6-4e2d-a762-5d292001711c","system_id":"levelo_inurba_marseille","lat":43.3302,"lon":5.39046,"is_reserved":false,"is_disabled":true,"rental_uris":{"android":"levelo://app?vid=c67f86a7-d1e6-4e2d-a762-5d292001711c","ios":"levelo://app?vid=c67f86a7-d1e6-4e2d-a762-5d292001711c"},"vehicle_type_id":"4","last_reported":1736276835,"current_range_meters":0,"station_id":"ce4bhr92rcd13ifvqhrg","pricing_plan_id":"cebpf4jnsgd1na2vs0mg"},{"bike_id":"a922db1a-e7f7-468d-bd9f-ba12b812c160","system_id":"levelo_inurba_marseille","lat":43.28859,"lon":5.39328,"is_reserved":false,"is_disabled":false,"rental_uris":{"android":"levelo://app?vid=a922db1a-e7f7-468d-bd9f-ba12b812c160","ios":"levelo://app?vid=a922db1a-e7f7-468d-bd9f-ba12b812c160"},"vehicle_type_id":"4","last_reported":1736276835,"current_range_meters":15200,"station_id":"ce4bh2p2rcd13ifvqdi0","pricing_plan_id":"cebpf4jnsgd1na2vs0mg"},{"bike_id":"d52248ca-d40f-450b-806c-47c244ff74b1","system_id":"levelo_inurba_marseille","lat":43.29311,"lon":5.37176,"is_reserved":false,"is_disabled":false,"rental_uris":{"android":"levelo://app?vid=d52248ca-d40f-450b-806c-47c244ff74b1","ios":"levelo://app?vid=d52248ca-d40f-450b-806c-47c244ff74b1"},"vehicle_type_id":"4","last_reported":1736276835,"current_range_meters":10800,"station_id":"ce4bgh92rcd13ifvqb40","pricing_plan_id":"cebpf4jnsgd1na2vs0mg"},{"bike_id":"6cb2454f-e31a-4981-a1bc-e8425a6d5cb8","system_id":"levelo_inurba_marseille","lat":43.2926,"lon":5.40913,"is_reserved":false,"is_disabled":false,"rental_uris":{"android":"levelo://app?vid=6cb2454f-e31a-4981-a1bc-e8425a6d5cb8","ios":"levelo://app?vid=6cb2454f-e31a-4981-a1bc-e8425a6d5cb8"},"vehicle_type_id":"4","last_reported":1736276835,"current_range_meters":8000,"station_id":"ce4bh192rcd13ifvqdc0","pricing_plan_id":"cebpf4jnsgd1na2vs0mg"},{"bike_id":"7aa41521-9d76-43a4-9fd6-4aec97edcc53","system_id":"levelo_inurba_marseille","lat":43.317153,"lon":5.437133,"is_reserved":false,"is_disabled":false,"rental_uris":{"android":"levelo://app?vid=7aa41521-9d76-43a4-9fd6-4aec97edcc53","ios":"levelo://app?vid=7aa41521-9d76-43a4-9fd6-4aec97edcc53"},"vehicle_type_id":"4","last_reported":1736276835,"current_range_meters":26000,"station_id":"ce4bhp92rcd13ifvqhcg","pricing_plan_id":"cebpf4jnsgd1na2vs0mg"},{"bike_id":"b4c92795-30bd-48f5-b0ae-1c8ac5115428","system_id":"levelo_inurba_marseille","lat":43.28853,"lon":5.35859,"is_reserved":false,"is_disabled":false,"rental_uris":{"android":"levelo://app?vid=b4c92795-30bd-48f5-b0ae-1c8ac5115428","ios":"levelo://app?vid=b4c92795-30bd-48f5-b0ae-1c8ac5115428"},"vehicle_type_id":"4","last_reported":1736276835,"current_range_meters":39200,"station_id":"ce4bhb12rcd13ifvqem0","pricing_plan_id":"cebpf4jnsgd1na2vs0mg"},{"bike_id":"d014f699-d84d-436b-b3bf-8c059d18ea89","system_id":"levelo_inurba_marseille","lat":43.2291,"lon":5.35401,"is_reserved":false,"is_disabled":false,"rental_uris":{"android":"levelo://app?vid=d014f699-d84d-436b-b3bf-8c059d18ea89","ios":"levelo://app?vid=d014f699-d84d-436b-b3bf-8c059d18ea89"},"vehicle_type_id":"4","last_reported":1736276835,"current_range_meters":7200,"station_id":"cpo3532slgdg3j2ikp40","pricing_plan_id":"cebpf4jnsgd1na2vs0mg"},{"bike_id":"85db0274-aa0a-4f9a-b691-02cfca5d3623","system_id":"levelo_inurba_marseille","lat":43.29854,"lon":5.36284,"is_reserved":false,"is_disabled":false,"rental_uris":{"android":"levelo://app?vid=85db0274-aa0a-4f9a-b691-02cfca5d3623","ios":"levelo://app?vid=85db0274-aa0a-4f9a-b691-02cfca5d3623"},"vehicle_type_id":"4","last_reported":1736276835,"current_range_meters":39200,"station_id":"ce4bgpp2rcd13ifvqc3g","pricing_plan_id":"cebpf4jnsgd1na2vs0mg"},{"bike_id":"8fa8b7f9-1a9a-4b12-8f46-a00de1a280d3","system_id":"levelo_inurba_marseille","lat":43.28417,"lon":5.34978,"is_reserved":false,"is_disabled":false,"rental_uris":{"android":"levelo://app?vid=8fa8b7f9-1a9a-4b12-8f46-a00de1a280d3","ios":"levelo://app?vid=8fa8b7f9-1a9a-4b12-8f46-a00de1a280d3"},"vehicle_type_id":"4","last_reported":1736276835,"current_range_meters":26800,"station_id":"ce4bhbh2rcd13ifvqepg","pricing_plan_id":"cebpf4jnsgd1na2vs0mg"},{"bike_id":"955387a8-4a47-4691-946f-78754c88504b","system_id":"levelo_inurba_marseille","lat":43.23201,"lon":5.35556,"is_reserved":false,"is_disabled":false,"rental_uris":{"android":"levelo://app?vid=955387a8-4a47-4691-946f-78754c88504b","ios":"levelo://app?vid=955387a8-4a47-4691-946f-78754c88504b"},"vehicle_type_id":"4","last_reported":1736276835,"current_range_meters":36000,"station_id":"ce4bhu92rcd13ifvqi70","pricing_plan_id":"cebpf4jnsgd1na2vs0mg"},{"bike_id":"ef72cdb4-465d-4178-b952-49906f159c48","system_id":"levelo_inurba_marseille","lat":43.28156,"lon":5.42625,"is_reserved":false,"is_disabled":false,"rental_uris":{"android":"levelo://app?vid=ef72cdb4-465d-4178-b952-49906f159c48","ios":"levelo://app?vid=ef72cdb4-465d-4178-b952-49906f159c48"},"vehicle_type_id":"4","last_reported":1736276835,"current_range_meters":35600,"station_id":"ce4bhnh2rcd13ifvqgug","pricing_plan_id":"cebpf4jnsgd1na2vs0mg"},{"bike_id":"85c233a5-ad6d-4af1-866c-c8c7aa0fe22f","system_id":"levelo_inurba_marseille","lat":43.279428,"lon":5.410495,"is_reserved":false,"is_disabled":false,"rental_uris":{"android":"levelo://app?vid=85c233a5-ad6d-4af1-866c-c8c7aa0fe22f","ios":"levelo://app?vid=85c233a5-ad6d-4af1-866c-c8c7aa0fe22f"},"vehicle_type_id":"4","last_reported":1736276835,"current_range_meters":19600,"station_id":"ce4bhnp2rcd13ifvqh0g","pricing_plan_id":"cebpf4jnsgd1na2vs0mg"},{"bike_id":"f949af9a-2683-4ec9-b4bf-168b31b3bcb2","system_id":"levelo_inurba_marseille","lat":43.24656,"lon":5.38907,"is_reserved":false,"is_disabled":false,"rental_uris":{"android":"levelo://app?vid=f949af9a-2683-4ec9-b4bf-168b31b3bcb2","ios":"levelo://app?vid=f949af9a-2683-4ec9-b4bf-168b31b3bcb2"},"vehicle_type_id":"4","last_reported":1736276835,"current_range_meters":17600,"station_id":"ce4bhg12rcd13ifvqf60","pricing_plan_id":"cebpf4jnsgd1na2vs0mg"},{"bike_id":"fca90e5a-922d-42ef-a0cf-05559f03df72","system_id":"levelo_inurba_marseille","lat":43.28703,"lon":5.37386,"is_reserved":false,"is_disabled":false,"rental_uris":{"android":"levelo://app?vid=fca90e5a-922d-42ef-a0cf-05559f03df72","ios":"levelo://app?vid=fca90e5a-922d-42ef-a0cf-05559f03df72"},"vehicle_type_id":"4","last_reported":1736276835,"current_range_meters":35600,"station_id":"ce4bh3p2rcd13ifvqdq0","pricing_plan_id":"cebpf4jnsgd1na2vs0mg"},{"bike_id":"de06af8b-af0f-4f6f-87ba-de29a59b5256","system_id":"levelo_inurba_marseille","lat":43.29776,"lon":5.37087,"is_reserved":false,"is_disabled":false,"rental_uris":{"android":"levelo://app?vid=de06af8b-af0f-4f6f-87ba-de29a59b5256","ios":"levelo://app?vid=de06af8b-af0f-4f6f-87ba-de29a59b5256"},"vehicle_type_id":"4","last_reported":1736276835,"current_range_meters":24400,"station_id":"ce4bgop2rcd13ifvqc1g","pricing_plan_id":"cebpf4jnsgd1na2vs0mg"},{"bike_id":"0d4725d0-36d1-4cbd-a1ff-fc5a4377788d","system_id":"levelo_inurba_marseille","lat":43.29009,"lon":5.3561,"is_reserved":false,"is_disabled":false,"rental_uris":{"android":"levelo://app?vid=0d4725d0-36d1-4cbd-a1ff-fc5a4377788d","ios":"levelo://app?vid=0d4725d0-36d1-4cbd-a1ff-fc5a4377788d"},"vehicle_type_id":"4","last_reported":1736276835,"current_range_meters":38000,"station_id":"ce4bhb92rcd13ifvqen0","pricing_plan_id":"cebpf4jnsgd1na2vs0mg"},{"bike_id":"55a3ae12-3083-4bf6-9e0b-d26fb13e6239","system_id":"levelo_inurba_marseille","lat":43.2957,"lon":5.37529,"is_reserved":false,"is_disabled":false,"rental_uris":{"android":"levelo://app?vid=55a3ae12-3083-4bf6-9e0b-d26fb13e6239","ios":"levelo://app?vid=55a3ae12-3083-4bf6-9e0b-d26fb13e6239"},"vehicle_type_id":"4","last_reported":1736276835,"current_range_meters":26800,"station_id":"ce4bgh92rcd13ifvqb50","pricing_plan_id":"cebpf4jnsgd1na2vs0mg"},{"bike_id":"a344e607-2212-45d5-b6de-a9033a6aa79f","system_id":"levelo_inurba_marseille","lat":43.26212,"lon":5.37927,"is_reserved":false,"is_disabled":false,"rental_uris":{"android":"levelo://app?vid=a344e607-2212-45d5-b6de-a9033a6aa79f","ios":"levelo://app?vid=a344e607-2212-45d5-b6de-a9033a6aa79f"},"vehicle_type_id":"4","last_reported":1736276835,"current_range_meters":38000,"station_id":"ce4bhjp2rcd13ifvqg90","pricing_plan_id":"cebpf4jnsgd1na2vs0mg"},{"bike_id":"b5b67869-f06d-4d65-8b50-e23c241a7aa3","system_id":"levelo_inurba_marseille","lat":43.31759,"lon":5.39011,"is_reserved":false,"is_disabled":false,"rental_uris":{"android":"levelo://app?vid=b5b67869-f06d-4d65-8b50-e23c241a7aa3","ios":"levelo://app?vid=b5b67869-f06d-4d65-8b50-e23c241a7aa3"},"vehicle_type_id":"4","last_reported":1736276835,"current_range_meters":11200,"station_id":"ce4bhqp2rcd13ifvqhng","pricing_plan_id":"cebpf4jnsgd1na2vs0mg"},{"bike_id":"f2b105ed-be0d-4ac6-bafd-03128617722d","system_id":"levelo_inurba_marseille","lat":43.29415,"lon":5.38626,"is_reserved":false,"is_disabled":false,"rental_uris":{"android":"levelo://app?vid=f2b105ed-be0d-4ac6-bafd-03128617722d","ios":"levelo://app?vid=f2b105ed-be0d-4ac6-bafd-03128617722d"},"vehicle_type_id":"4","last_reported":1736276835,"current_range_meters":6800,"station_id":"ce4bh2h2rcd13ifvqdh0","pricing_plan_id":"cebpf4jnsgd1na2vs0mg"},{"bike_id":"2cac112a-19df-44f0-8ce7-3be7bf881544","system_id":"levelo_inurba_marseille","lat":43.28264,"lon":5.35084,"is_reserved":false,"is_disabled":false,"rental_uris":{"android":"levelo://app?vid=2cac112a-19df-44f0-8ce7-3be7bf881544","ios":"levelo://app?vid=2cac112a-19df-44f0-8ce7-3be7bf881544"},"vehicle_type_id":"4","last_reported":1736276835,"current_range_meters":18800,"station_id":"ce4bhbp2rcd13ifvqerg","pricing_plan_id":"cebpf4jnsgd1na2vs0mg"},{"bike_id":"ebef3c2c-525d-4acb-b33c-022596666309","system_id":"levelo_inurba_marseille","lat":43.308,"lon":5.4351,"is_reserved":false,"is_disabled":true,"rental_uris":{"android":"levelo://app?vid=ebef3c2c-525d-4acb-b33c-022596666309","ios":"levelo://app?vid=ebef3c2c-525d-4acb-b33c-022596666309"},"vehicle_type_id":"4","last_reported":1736276835,"current_range_meters":2000,"station_id":"ce4bhph2rcd13ifvqheg","pricing_plan_id":"cebpf4jnsgd1na2vs0mg"},{"bike_id":"9ffd1383-c063-4a30-8241-8f49262f43a3","system_id":"levelo_inurba_marseille","lat":43.28857,"lon":5.35859,"is_reserved":false,"is_disabled":false,"rental_uris":{"android":"levelo://app?vid=9ffd1383-c063-4a30-8241-8f49262f43a3","ios":"levelo://app?vid=9ffd1383-c063-4a30-8241-8f49262f43a3"},"vehicle_type_id":"4","last_reported":1736276835,"current_range_meters":33200,"station_id":"ce4bhb12rcd13ifvqem0","pricing_plan_id":"cebpf4jnsgd1na2vs0mg"},{"bike_id":"578dc93c-9cb6-44e9-9674-3bdc3e25afad","system_id":"levelo_inurba_marseille","lat":43.30799,"lon":5.43523,"is_reserved":false,"is_disabled":false,"rental_uris":{"android":"levelo://app?vid=578dc93c-9cb6-44e9-9674-3bdc3e25afad","ios":"levelo://app?vid=578dc93c-9cb6-44e9-9674-3bdc3e25afad"},"vehicle_type_id":"4","last_reported":1736276835,"current_range_meters":22400,"station_id":"ce4bhph2rcd13ifvqheg","pricing_plan_id":"cebpf4jnsgd1na2vs0mg"},{"bike_id":"a0f6036a-5401-4667-beb1-c12911e1f446","system_id":"levelo_inurba_marseille","lat":43.28729,"lon":5.36088,"is_reserved":false,"is_disabled":false,"rental_uris":{"android":"levelo://app?vid=a0f6036a-5401-4667-beb1-c12911e1f446","ios":"levelo://app?vid=a0f6036a-5401-4667-beb1-c12911e1f446"},"vehicle_type_id":"4","last_reported":1736276835,"current_range_meters":22400,"station_id":"cki0cbj6b192h4jlfktg","pricing_plan_id":"cebpf4jnsgd1na2vs0mg"},{"bike_id":"4349e322-e54f-4a7c-8de9-2ce06a16918d","system_id":"levelo_inurba_marseille","lat":43.279523,"lon":5.410481,"is_reserved":false,"is_disabled":false,"rental_uris":{"android":"levelo://app?vid=4349e322-e54f-4a7c-8de9-2ce06a16918d","ios":"levelo://app?vid=4349e322-e54f-4a7c-8de9-2ce06a16918d"},"vehicle_type_id":"4","last_reported":1736276835,"current_range_meters":38800,"station_id":"ce4bhnp2rcd13ifvqh0g","pricing_plan_id":"cebpf4jnsgd1na2vs0mg"},{"bike_id":"41fdbc2b-0c94-4370-8c01-0a942709cc9f","system_id":"levelo_inurba_marseille","lat":43.29261,"lon":5.40919,"is_reserved":false,"is_disabled":false,"rental_uris":{"android":"levelo://app?vid=41fdbc2b-0c94-4370-8c01-0a942709cc9f","ios":"levelo://app?vid=41fdbc2b-0c94-4370-8c01-0a942709cc9f"},"vehicle_type_id":"4","last_reported":1736276835,"current_range_meters":38800,"station_id":"ce4bh192rcd13ifvqdc0","pricing_plan_id":"cebpf4jnsgd1na2vs0mg"},{"bike_id":"8d601397-a46c-42b4-b4d4-5570414bbfdc","system_id":"levelo_inurba_marseille","lat":43.31704,"lon":5.40462,"is_reserved":false,"is_disabled":true,"rental_uris":{"android":"levelo://app?vid=8d601397-a46c-42b4-b4d4-5570414bbfdc","ios":"levelo://app?vid=8d601397-a46c-42b4-b4d4-5570414bbfdc"},"vehicle_type_id":"4","last_reported":1736276835,"current_range_meters":31200,"station_id":"ce4bh012rcd13ifvqd00","pricing_plan_id":"cebpf4jnsgd1na2vs0mg"},{"bike_id":"c5cd14ba-a894-4df6-9c35-21af1d022402","system_id":"levelo_inurba_marseille","lat":43.29539,"lon":5.38538,"is_reserved":false,"is_disabled":false,"rental_uris":{"android":"levelo://app?vid=c5cd14ba-a894-4df6-9c35-21af1d022402","ios":"levelo://app?vid=c5cd14ba-a894-4df6-9c35-21af1d022402"},"vehicle_type_id":"4","last_reported":1736276835,"current_range_meters":30000,"station_id":"ce4bgih2rcd13ifvqba0","pricing_plan_id":"cebpf4jnsgd1na2vs0mg"},{"bike_id":"ae33dd79-a240-45f4-9d20-b18857443945","system_id":"levelo_inurba_marseille","lat":43.28685,"lon":5.387,"is_reserved":false,"is_disabled":false,"rental_uris":{"android":"levelo://app?vid=ae33dd79-a240-45f4-9d20-b18857443945","ios":"levelo://app?vid=ae33dd79-a240-45f4-9d20-b18857443945"},"vehicle_type_id":"4","last_reported":1736276835,"current_range_meters":32800,"station_id":"ce4bh492rcd13ifvqdug","pricing_plan_id":"cebpf4jnsgd1na2vs0mg"},{"bike_id":"07e6a187-707a-422d-b02c-d2c25576bb8c","system_id":"levelo_inurba_marseille","lat":43.32364,"lon":5.3888,"is_reserved":false,"is_disabled":false,"rental_uris":{"android":"levelo://app?vid=07e6a187-707a-422d-b02c-d2c25576bb8c","ios":"levelo://app?vid=07e6a187-707a-422d-b02c-d2c25576bb8c"},"vehicle_type_id":"4","last_reported":1736276835,"current_range_meters":14800,"station_id":"ce4bhqp2rcd13ifvqhog","pricing_plan_id":"cebpf4jnsgd1na2vs0mg"},{"bike_id":"d26d2a2b-6b23-4fc3-b931-56527ca935bc","system_id":"levelo_inurba_marseille","lat":43.317489,"lon":5.390064,"is_reserved":false,"is_disabled":false,"rental_uris":{"android":"levelo://app?vid=d26d2a2b-6b23-4fc3-b931-56527ca935bc","ios":"levelo://app?vid=d26d2a2b-6b23-4fc3-b931-56527ca935bc"},"vehicle_type_id":"4","last_reported":1736276835,"current_range_meters":18000,"station_id":"ce4bhqp2rcd13ifvqhng","pricing_plan_id":"cebpf4jnsgd1na2vs0mg"},{"bike_id":"51bc5de6-4fe5-4b26-87ea-d151c6fb650f","system_id":"levelo_inurba_marseille","lat":43.31356,"lon":5.39692,"is_reserved":false,"is_disabled":false,"rental_uris":{"android":"levelo://app?vid=51bc5de6-4fe5-4b26-87ea-d151c6fb650f","ios":"levelo://app?vid=51bc5de6-4fe5-4b26-87ea-d151c6fb650f"},"vehicle_type_id":"4","last_reported":1736276835,"current_range_meters":38400,"station_id":"ce4bgvp2rcd13ifvqcu0","pricing_plan_id":"cebpf4jnsgd1na2vs0mg"},{"bike_id":"1ef18e5f-6acf-4c4d-ba3a-8b6e0b65fd2b","system_id":"levelo_inurba_marseille","lat":43.29415,"lon":5.38625,"is_reserved":false,"is_disabled":false,"rental_uris":{"android":"levelo://app?vid=1ef18e5f-6acf-4c4d-ba3a-8b6e0b65fd2b","ios":"levelo://app?vid=1ef18e5f-6acf-4c4d-ba3a-8b6e0b65fd2b"},"vehicle_type_id":"4","last_reported":1736276835,"current_range_meters":39200,"station_id":"ce4bh2h2rcd13ifvqdh0","pricing_plan_id":"cebpf4jnsgd1na2vs0mg"},{"bike_id":"d704f0fd-27ed-49f5-b823-6db11240c9d1","system_id":"levelo_inurba_marseille","lat":43.31073,"lon":5.38345,"is_reserved":false,"is_disabled":true,"rental_uris":{"android":"levelo://app?vid=d704f0fd-27ed-49f5-b823-6db11240c9d1","ios":"levelo://app?vid=d704f0fd-27ed-49f5-b823-6db11240c9d1"},"vehicle_type_id":"4","last_reported":1736276835,"current_range_meters":0,"station_id":"ce4bgv92rcd13ifvqcr0","pricing_plan_id":"cebpf4jnsgd1na2vs0mg"},{"bike_id":"f1c7b037-13e3-459c-9d81-21d887669959","system_id":"levelo_inurba_marseille","lat":43.23178,"lon":5.3999,"is_reserved":false,"is_disabled":false,"rental_uris":{"android":"levelo://app?vid=f1c7b037-13e3-459c-9d81-21d887669959","ios":"levelo://app?vid=f1c7b037-13e3-459c-9d81-21d887669959"},"vehicle_type_id":"4","last_reported":1736276835,"current_range_meters":8000,"station_id":"ce4bhn12rcd13ifvqgqg","pricing_plan_id":"cebpf4jnsgd1na2vs0mg"},{"bike_id":"aad4a535-b699-4598-8dc1-ecd244317ca1","system_id":"levelo_inurba_marseille","lat":43.23185,"lon":5.39991,"is_reserved":false,"is_disabled":false,"rental_uris":{"android":"levelo://app?vid=aad4a535-b699-4598-8dc1-ecd244317ca1","ios":"levelo://app?vid=aad4a535-b699-4598-8dc1-ecd244317ca1"},"vehicle_type_id":"4","last_reported":1736276835,"current_range_meters":8000,"station_id":"ce4bhn12rcd13ifvqgqg","pricing_plan_id":"cebpf4jnsgd1na2vs0mg"},{"bike_id":"c8d85fd6-0574-4450-8d8b-c4f78c874e02","system_id":"levelo_inurba_marseille","lat":43.281015,"lon":5.378445,"is_reserved":false,"is_disabled":false,"rental_uris":{"android":"levelo://app?vid=c8d85fd6-0574-4450-8d8b-c4f78c874e02","ios":"levelo://app?vid=c8d85fd6-0574-4450-8d8b-c4f78c874e02"},"vehicle_type_id":"4","last_reported":1736276835,"current_range_meters":26000,"station_id":"ce4bha12rcd13ifvqee0","pricing_plan_id":"cebpf4jnsgd1na2vs0mg"},{"bike_id":"45240bf9-d842-4925-be79-2fb2035f0d5c","system_id":"levelo_inurba_marseille","lat":43.29877,"lon":5.38909,"is_reserved":false,"is_disabled":false,"rental_uris":{"android":"levelo://app?vid=45240bf9-d842-4925-be79-2fb2035f0d5c","ios":"levelo://app?vid=45240bf9-d842-4925-be79-2fb2035f0d5c"},"vehicle_type_id":"4","last_reported":1736276835,"current_range_meters":6400,"station_id":"ce4bh392rcd13ifvqdl0","pricing_plan_id":"cebpf4jnsgd1na2vs0mg"},{"bike_id":"2a75ae41-e300-40b0-b264-03221db0148f","system_id":"levelo_inurba_marseille","lat":43.3089,"lon":5.39661,"is_reserved":false,"is_disabled":false,"rental_uris":{"android":"levelo://app?vid=2a75ae41-e300-40b0-b264-03221db0148f","ios":"levelo://app?vid=2a75ae41-e300-40b0-b264-03221db0148f"},"vehicle_type_id":"4","last_reported":1736276835,"current_range_meters":38800,"station_id":"ce4bh012rcd13ifvqcv0","pricing_plan_id":"cebpf4jnsgd1na2vs0mg"},{"bike_id":"b210e670-04e4-4c2c-8f2a-43a3063e68eb","system_id":"levelo_inurba_marseille","lat":43.24,"lon":5.37697,"is_reserved":false,"is_disabled":true,"rental_uris":{"android":"levelo://app?vid=b210e670-04e4-4c2c-8f2a-43a3063e68eb","ios":"levelo://app?vid=b210e670-04e4-4c2c-8f2a-43a3063e68eb"},"vehicle_type_id":"4","last_reported":1736276835,"current_range_meters":37600,"station_id":"","pricing_plan_id":"cebpf4jnsgd1na2vs0mg"},{"bike_id":"9f774c7f-5fb0-42c9-a788-72b08fc48690","system_id":"levelo_inurba_marseille","lat":43.25086,"lon":5.39517,"is_reserved":false,"is_disabled":false,"rental_uris":{"android":"levelo://app?vid=9f774c7f-5fb0-42c9-a788-72b08fc48690","ios":"levelo://app?vid=9f774c7f-5fb0-42c9-a788-72b08fc48690"},"vehicle_type_id":"4","last_reported":1736276835,"current_range_meters":38800,"station_id":"ce4bhm12rcd13ifvqgkg","pricing_plan_id":"cebpf4jnsgd1na2vs0mg"},{"bike_id":"ecc8374c-b8cb-4853-8d6e-d7257dc123a6","system_id":"levelo_inurba_marseille","lat":43.296342,"lon":5.406003,"is_reserved":false,"is_disabled":true,"rental_uris":{"android":"levelo://app?vid=ecc8374c-b8cb-4853-8d6e-d7257dc123a6","ios":"levelo://app?vid=ecc8374c-b8cb-4853-8d6e-d7257dc123a6"},"vehicle_type_id":"4","last_reported":1736276835,"current_range_meters":0,"station_id":"ce4bh0h2rcd13ifvqd60","pricing_plan_id":"cebpf4jnsgd1na2vs0mg"},{"bike_id":"409610f0-67cd-450d-b16d-13a17a0dffbc","system_id":"levelo_inurba_marseille","lat":43.30538,"lon":5.36709,"is_reserved":false,"is_disabled":false,"rental_uris":{"android":"levelo://app?vid=409610f0-67cd-450d-b16d-13a17a0dffbc","ios":"levelo://app?vid=409610f0-67cd-450d-b16d-13a17a0dffbc"},"vehicle_type_id":"4","last_reported":1736276835,"current_range_meters":39200,"station_id":"ce4bgrp2rcd13ifvqc9g","pricing_plan_id":"cebpf4jnsgd1na2vs0mg"},{"bike_id":"da2f3e9d-d8fb-42cb-b0a1-a43a14c55907","system_id":"levelo_inurba_marseille","lat":43.29255,"lon":5.38448,"is_reserved":false,"is_disabled":false,"rental_uris":{"android":"levelo://app?vid=da2f3e9d-d8fb-42cb-b0a1-a43a14c55907","ios":"levelo://app?vid=da2f3e9d-d8fb-42cb-b0a1-a43a14c55907"},"vehicle_type_id":"4","last_reported":1736276835,"current_range_meters":38800,"station_id":"ce4bh692rcd13ifvqea0","pricing_plan_id":"cebpf4jnsgd1na2vs0mg"},