{"last_updated":1701986818,"ttl":30,"version":"2.2","data":{"bikes":[{"bike_id":"37d58810-4b33-4ef4-9e8f-10318d87dda8","system_id":"levelo_inurba_marseille","lat":43.312239,"lon":5.368562,"is_reserved":false,"is_disabled":false,"rental_uris":{"android":"levelo://app?vid=37d58810-4b33-4ef4-9e8f-10318d87dda8","ios":"levelo://app?vid=37d58810-4b33-4ef4-9e8f-10318d87dda8"},"vehicle_type_id":"4","last_reported":1701986818,"current_range_meters":25200,"station_id":"ce4bgl92rcd13ifvqbq0","pricing_plan_id":"free"},{"bike_id":"875d891c-0604-4921-9551-5b451b2265da","system_id":"levelo_inurba_marseille","lat":43.309039,"lon":5.371797,"is_reserved":false,"is_disabled":false,"rental_uris":{"android":"levelo://app?vid=875d891c-0604-4921-9551-5b451b2265da","ios":"levelo://app?vid=875d891c-0604-4921-9551-5b451b2265da"},"vehicle_type_id":"4","last_reported":1701986818,"current_range_meters":30400,"station_id":"ce4bguh2rcd13ifvqckg","pricing_plan_id":"free"},{"bike_id":"8e5d581f-90c9-45e1-b572-a416c8f7bec0","system_id":"levelo_inurba_marseille","lat":43.31318,"lon":5.37751,"is_reserved":false,"is_disabled":false,"rental_uris":{"android":"levelo://app?vid=8e5d581f-90c9-45e1-b572-a416c8f7bec0","ios":"levelo://app?vid=8e5d581f-90c9-45e1-b572-a416c8f7bec0"},"vehicle_type_id":"4","last_reported":1701986818,"current_range_meters":30400,"station_id":"","pricing_plan_id":"free"},{"bike_id":"cee300f5-9136-4996-80b3-cc6416e93dcf","system_id":"levelo_inurba_marseille","lat":43.305989,"lon":5.37225,"is_reserved":false,"is_disabled":false,"rental_uris":{"android":"levelo://app?vid=cee300f5-9136-4996-80b3-cc6416e93dcf","ios":"levelo://app?vid=cee300f5-9136-4996-80b3-cc6416e93dcf"},"vehicle_type_id":"4","last_reported":1701986818,"current_range_meters":22800,"station_id":"ce4bgqh2rcd13ifvqc4g","pricing_plan_id":"free"},{"bike_id":"0eb5a278-e086-41a0-a96c-1f4bfddd9341","system_id":"levelo_inurba_marseille","lat":43.31124,"lon":5.37764,"is_reserved":false,"is_disabled":false,"rental_uris":{"android":"levelo://app?vid=0eb5a278-e086-41a0-a96c-1f4bfddd9341","ios":"levelo://app?vid=0eb5a278-e086-41a0-a96c-1f4bfddd9341"},"vehicle_type_id":"4","last_reported":1701986818,"current_range_meters":5600,"station_id":"ce4bgt92rcd13ifvqcg0","pricing_plan_id":"free"},{"bike_id":"adf146c5-e4e1-4668-9a33-042940925130","system_id":"levelo_inurba_marseille","lat":43.31351,"lon":5.37909,"is_reserved":false,"is_disabled":false,"rental_uris":{"android":"levelo://app?vid=adf146c5-e4e1-4668-9a33-042940925130","ios":"levelo://app?vid=adf146c5-e4e1-4668-9a33-042940925130"},"vehicle_type_id":"4","last_reported":1701986818,"current_range_meters":1200,"station_id":"","pricing_plan_id":"free"},{"bike_id":"e88c74d0-ed17-4eb0-89d3-d28ca5a3a033","system_id":"levelo_inurba_marseille","lat":43.31529,"lon":5.38026,"is_reserved":false,"is_disabled":false,"rental_uris":{"android":"levelo://app?vid=e88c74d0-ed17-4eb0-89d3-d28ca5a3a033","ios":"levelo://app?vid=e88c74d0-ed17-4eb0-89d3-d28ca5a3a033"},"vehicle_type_id":"4","last_reported":1701986818,"current_range_meters":29200,"station_id":"ce4bhsp2rcd13ifvqi50","pricing_plan_id":"free"},{"bike_id":"63133364-316e-458e-b234-bbd4926c63fc","system_id":"levelo_inurba_marseille","lat":43.32186,"lon":5.37493,"is_reserved":false,"is_disabled":false,"rental_uris":{"android":"levelo://app?vid=63133364-316e-458e-b234-bbd4926c63fc","ios":"levelo://app?vid=63133364-316e-458e-b234-bbd4926c63fc"},"vehicle_type_id":"4","last_reported":1701986818,"current_range_meters":28400,"station_id":"","pricing_plan_id":"free"},{"bike_id":"1ea60f58-75f7-4484-b705-1156df4b02ad","system_id":"levelo_inurba_marseille","lat":43.30284,"lon":5.373375,"is_reserved":false,"is_disabled":false,"rental_uris":{"android":"levelo://app?vid=1ea60f58-75f7-4484-b705-1156df4b02ad","ios":"levelo://app?vid=1ea60f58-75f7-4484-b705-1156df4b02ad"},"vehicle_type_id":"4","last_reported":1701986818,"current_range_meters":4000,"station_id":"","pricing_plan_id":"free"},{"bike_id":"6555d424-cf98-452e-80c7-7b40ac7521bf","system_id":"levelo_inurba_marseille","lat":43.32483,"lon":5.36565,"is_reserved":false,"is_disabled":false,"rental_uris":{"android":"levelo://app?vid=6555d424-cf98-452e-80c7-7b40ac7521bf","ios":"levelo://app?vid=6555d424-cf98-452e-80c7-7b40ac7521bf"},"vehicle_type_id":"4","last_reported":1701986818,"current_range_meters":6000,"station_id":"ce4bhs12rcd13ifvqhvg","pricing_plan_id":"free"},{"bike_id":"938d4f4e-6ae3-4f8b-ad33-55bd87c15249","system_id":"levelo_inurba_marseille","lat":43.301429,"lon":5.37413,"is_reserved":false,"is_disabled":false,"rental_uris":{"android":"levelo://app?vid=938d4f4e-6ae3-4f8b-ad33-55bd87c15249","ios":"levelo://app?vid=938d4f4e-6ae3-4f8b-ad33-55bd87c15249"},"vehicle_type_id":"4","last_reported":1701986818,"current_range_meters":27200,"station_id":"ce4bgs92rcd13ifvqcc0","pricing_plan_id":"free"},{"bike_id":"cb473838-747e-47ca-b07a-3dc20b15e156","system_id":"levelo_inurba_marseille","lat":43.319935,"lon":5.381699,"is_reserved":false,"is_disabled":false,"rental_uris":{"android":"levelo://app?vid=cb473838-747e-47ca-b07a-3dc20b15e156","ios":"levelo://app?vid=cb473838-747e-47ca-b07a-3dc20b15e156"},"vehicle_type_id":"4","last_reported":1701986818,"current_range_meters":24000,"station_id":"ce4bhr12rcd13ifvqhpg","pricing_plan_id":"free"},{"bike_id":"a88cf5d7-0e4d-4efb-83ba-895743ae7648","system_id":"levelo_inurba_marseille","lat":43.319935,"lon":5.381699,"is_reserved":false,"is_disabled":false,"rental_uris":{"android":"levelo://app?vid=a88cf5d7-0e4d-4efb-83ba-895743ae7648","ios":"levelo://app?vid=a88cf5d7-0e4d-4efb-83ba-895743ae7648"},"vehicle_type_id":"4","last_reported":1701986818,"current_range_meters":18400,"station_id":"ce4bhr12rcd13ifvqhpg","pricing_plan_id":"free"},{"bike_id":"8e6bcc22-26a3-4f21-b99e-ec3014f3e345","system_id":"levelo_inurba_marseille","lat":43.31993,"lon":5.38149,"is_reserved":false,"is_disabled":false,"rental_uris":{"android":"levelo://app?vid=8e6bcc22-26a3-4f21-b99e-ec3014f3e345","ios":"levelo://app?vid=8e6bcc22-26a3-4f21-b99e-ec3014f3e345"},"vehicle_type_id":"4","last_reported":1701986818,"current_range_meters":16800,"station_id":"ce4bhr12rcd13ifvqhpg","pricing_plan_id":"free"},{"bike_id":"9ee0ef7a-8d9c-4d78-8ae5-64e12b708d26","system_id":"levelo_inurba_marseille","lat":43.319997,"lon":5.381594,"is_reserved":false,"is_disabled":false,"rental_uris":{"android":"levelo://app?vid=9ee0ef7a-8d9c-4d78-8ae5-64e12b708d26","ios":"levelo://app?vid=9ee0ef7a-8d9c-4d78-8ae5-64e12b708d26"},"vehicle_type_id":"4","last_reported":1701986818,"current_range_meters":0,"station_id":"ce4bhr12rcd13ifvqhpg","pricing_plan_id":"free"},{"bike_id":"63c1eefd-b6f0-4962-b5ed-fdc3bf1e1828","system_id":"levelo_inurba_marseille","lat":43.302784,"lon":5.377158,"is_reserved":false,"is_disabled":false,"rental_uris":{"android":"levelo://app?vid=63c1eefd-b6f0-4962-b5ed-fdc3bf1e1828","ios":"levelo://app?vid=63c1eefd-b6f0-4962-b5ed-fdc3bf1e1828"},"vehicle_type_id":"4","last_reported":1701986818,"current_range_meters":25600,"station_id":"ce4bguh2rcd13ifvqcj0","pricing_plan_id":"free"},{"bike_id":"a49b99ee-38eb-49b5-978d-00cf198fff08","system_id":"levelo_inurba_marseille","lat":43.299648,"lon":5.366311,"is_reserved":false,"is_disabled":false,"rental_uris":{"android":"levelo://app?vid=a49b99ee-38eb-49b5-978d-00cf198fff08","ios":"levelo://app?vid=a49b99ee-38eb-49b5-978d-00cf198fff08"},"vehicle_type_id":"4","last_reported":1701986818,"current_range_meters":22000,"station_id":"","pricing_plan_id":"free"},{"bike_id":"4ba259c5-cade-4953-ba34-7388a38c155c","system_id":"levelo_inurba_marseille","lat":43.313571,"lon":5.384829,"is_reserved":false,"is_disabled":false,"rental_uris":{"android":"levelo://app?vid=4ba259c5-cade-4953-ba34-7388a38c155c","ios":"levelo://app?vid=4ba259c5-cade-4953-ba34-7388a38c155c"},"vehicle_type_id":"4","last_reported":1701986818,"current_range_meters":1600,"station_id":"ce4bgt92rcd13ifvqcf0","pricing_plan_id":"free"},{"bike_id":"1947bbf5-0d1b-484b-bf63-5f1037b090a0","system_id":"levelo_inurba_marseille","lat":43.311722,"lon":5.387247,"is_reserved":false,"is_disabled":false,"rental_uris":{"android":"levelo://app?vid=1947bbf5-0d1b-484b-bf63-5f1037b090a0","ios":"levelo://app?vid=1947bbf5-0d1b-484b-bf63-5f1037b090a0"},"vehicle_type_id":"4","last_reported":1701986818,"current_range_meters":27600,"station_id":"ce4bgv12rcd13ifvqcp0","pricing_plan_id":"free"},{"bike_id":"a0bb6b50-ce39-4ef2-970b-a54e9e526e67","system_id":"levelo_inurba_marseille","lat":43.297794,"lon":5.370888,"is_reserved":false,"is_disabled":false,"rental_uris":{"android":"levelo://app?vid=a0bb6b50-ce39-4ef2-970b-a54e9e526e67","ios":"levelo://app?vid=a0bb6b50-ce39-4ef2-970b-a54e9e526e67"},"vehicle_type_id":"4","last_reported":1701986818,"current_range_meters":15600,"station_id":"ce4bgop2rcd13ifvqc1g","pricing_plan_id":"free"},{"bike_id":"adbe893a-1544-41cb-b3ef-2a0918716582","system_id":"levelo_inurba_marseille","lat":43.297774,"lon":5.370875,"is_reserved":false,"is_disabled":false,"rental_uris":{"android":"levelo://app?vid=adbe893a-1544-41cb-b3ef-2a0918716582","ios":"levelo://app?vid=adbe893a-1544-41cb-b3ef-2a0918716582"},"vehicle_type_id":"4","last_reported":1701986818,"current_range_meters":800,"station_id":"ce4bgop2rcd13ifvqc1g","pricing_plan_id":"free"},{"bike_id":"0d54d094-e0f1-40b0-976d-4597098b5ddc","system_id":"levelo_inurba_marseille","lat":43.322872,"lon":5.382756,"is_reserved":false,"is_disabled":false,"rental_uris":{"android":"levelo://app?vid=0d54d094-e0f1-40b0-976d-4597098b5ddc","ios":"levelo://app?vid=0d54d094-e0f1-40b0-976d-4597098b5ddc"},"vehicle_type_id":"4","last_reported":1701986818,"current_range_meters":13200,"station_id":"ce4bhr12rcd13ifvqhqg","pricing_plan_id":"free"},{"bike_id":"3dcd4a73-468d-493a-bf11-93ceddd109f8","system_id":"levelo_inurba_marseille","lat":43.322872,"lon":5.382756,"is_reserved":false,"is_disabled":false,"rental_uris":{"android":"levelo://app?vid=3dcd4a73-468d-493a-bf11-93ceddd109f8","ios":"levelo://app?vid=3dcd4a73-468d-493a-bf11-93ceddd109f8"},"vehicle_type_id":"4","last_reported":1701986818,"current_range_meters":29600,"station_id":"ce4bhr12rcd13ifvqhqg","pricing_plan_id":"free"},{"bike_id":"ef08f774-2713-46c7-ac61-11066468225e","system_id":"levelo_inurba_marseille","lat":43.29687,"lon":5.36774,"is_reserved":false,"is_disabled":false,"rental_uris":{"android":"levelo://app?vid=ef08f774-2713-46c7-ac61-11066468225e","ios":"levelo://app?vid=ef08f774-2713-46c7-ac61-11066468225e"},"vehicle_type_id":"4","last_reported":1701986818,"current_range_meters":24800,"station_id":"ce4bgph2rcd13ifvqc2g","pricing_plan_id":"free"},{"bike_id":"92dc65d6-6823-4de3-93d4-056f738f090c","system_id":"levelo_inurba_marseille","lat":43.316538,"lon":5.38954,"is_reserved":false,"is_disabled":false,"rental_uris":{"android":"levelo://app?vid=92dc65d6-6823-4de3-93d4-056f738f090c","ios":"levelo://app?vid=92dc65d6-6823-4de3-93d4-056f738f090c"},"vehicle_type_id":"4","last_reported":1701986818,"current_range_meters":4000,"station_id":"","pricing_plan_id":"free"},{"bike_id":"1f5993cf-49cd-4da7-97ba-ebbd6644812e","system_id":"levelo_inurba_marseille","lat":43.309589,"lon":5.390258,"is_reserved":false,"is_disabled":false,"rental_uris":{"android":"levelo://app?vid=1f5993cf-49cd-4da7-97ba-ebbd6644812e","ios":"levelo://app?vid=1f5993cf-49cd-4da7-97ba-ebbd6644812e"},"vehicle_type_id":"4","last_reported":1701986818,"current_range_meters":13600,"station_id":"ce4bgup2rcd13ifvqco0","pricing_plan_id":"free"},{"bike_id":"a637fd1f-8255-48b3-ab4e-fdbeac609cd7","system_id":"levelo_inurba_marseille","lat":43.309589,"lon":5.390258,"is_reserved":false,"is_disabled":false,"rental_uris":{"android":"levelo://app?vid=a637fd1f-8255-48b3-ab4e-fdbeac609cd7","ios":"levelo://app?vid=a637fd1f-8255-48b3-ab4e-fdbeac609cd7"},"vehicle_type_id":"4","last_reported":1701986818,"current_range_meters":16400,"station_id":"ce4bgup2rcd13ifvqco0","pricing_plan_id":"free"},{"bike_id":"6d11c81f-88d9-45d6-af69-b8850631500f","system_id":"levelo_inurba_marseille","lat":43.304274,"lon":5.388873,"is_reserved":false,"is_disabled":false,"rental_uris":{"android":"levelo://app?vid=6d11c81f-88d9-45d6-af69-b8850631500f","ios":"levelo://app?vid=6d11c81f-88d9-45d6-af69-b8850631500f"},"vehicle_type_id":"4","last_reported":1701986818,"current_range_meters":2800,"station_id":"ce4bgk12rcd13ifvqbi0","pricing_plan_id":"free"},{"bike_id":"66bb48eb-af2b-4072-b612-30933040ea73","system_id":"levelo_inurba_marseille","lat":43.304278,"lon":5.388868,"is_reserved":false,"is_disabled":false,"rental_uris":{"android":"levelo://app?vid=66bb48eb-af2b-4072-b612-30933040ea73","ios":"levelo://app?vid=66bb48eb-af2b-4072-b612-30933040ea73"},"vehicle_type_id":"4","last_reported":1701986818,"current_range_meters":5600,"station_id":"ce4bgk12rcd13ifvqbi0","pricing_plan_id":"free"},{"bike_id":"54689f6a-d2b0-47aa-9dce-840e0b73072a","system_id":"levelo_inurba_marseille","lat":43.304274,"lon":5.388873,"is_reserved":false,"is_disabled":false,"rental_uris":{"android":"levelo://app?vid=54689f6a-d2b0-47aa-9dce-840e0b73072a","ios":"levelo://app?vid=54689f6a-d2b0-47aa-9dce-840e0b73072a"},"vehicle_type_id":"4","last_reported":1701986818,"current_range_meters":25200,"station_id":"ce4bgk12rcd13ifvqbi0","pricing_plan_id":"free"},{"bike_id":"d23dcc0a-abfe-4795-b2df-643eabe8964a","system_id":"levelo_inurba_marseille","lat":43.33069,"lon":5.37117,"is_reserved":false,"is_disabled":false,"rental_uris":{"android":"levelo://app?vid=d23dcc0a-abfe-4795-b2df-643eabe8964a","ios":"levelo://app?vid=d23dcc0a-abfe-4795-b2df-643eabe8964a"},"vehicle_type_id":"4","last_reported":1701986818,"current_range_meters":0,"station_id":"","pricing_plan_id":"free"},{"bike_id":"479c85dd-ba3f-4a12-8ddd-073c2bfaf8aa","system_id":"levelo_inurba_marseille","lat":43.29608,"lon":5.37709,"is_reserved":false,"is_disabled":false,"rental_uris":{"android":"levelo://app?vid=479c85dd-ba3f-4a12-8ddd-073c2bfaf8aa","ios":"levelo://app?vid=479c85dd-ba3f-4a12-8ddd-073c2bfaf8aa"},"vehicle_type_id":"4","last_reported":1701986818,"current_range_meters":0,"station_id":"ce4bgi92rcd13ifvqb90","pricing_plan_id":"free"},{"bike_id":"a1146276-33b3-469b-ad9a-5ac347dde538","system_id":"levelo_inurba_marseille","lat":43.295279,"lon":5.375048,"is_reserved":false,"is_disabled":false,"rental_uris":{"android":"levelo://app?vid=a1146276-33b3-469b-ad9a-5ac347dde538","ios":"levelo://app?vid=a1146276-33b3-469b-ad9a-5ac347dde538"},"vehicle_type_id":"4","last_reported":1701986818,"current_range_meters":0,"station_id":"ce4bgkp2rcd13ifvqbmg","pricing_plan_id":"free"},{"bike_id":"9db19592-c22f-40a6-911f-50326361d04d","system_id":"levelo_inurba_marseille","lat":43.317557,"lon":5.390173,"is_reserved":false,"is_disabled":false,"rental_uris":{"android":"levelo://app?vid=9db19592-c22f-40a6-911f-50326361d04d","ios":"levelo://app?vid=9db19592-c22f-40a6-911f-50326361d04d"},"vehicle_type_id":"4","last_reported":1701986818,"current_range_meters":25200,"station_id":"ce4bhqp2rcd13ifvqhng","pricing_plan_id":"free"},{"bike_id":"7579423d-f3b8-4e7f-be59-2ba9da91b549","system_id":"levelo_inurba_marseille","lat":43.314223,"lon":5.393878,"is_reserved":false,"is_disabled":false,"rental_uris":{"android":"levelo://app?vid=7579423d-f3b8-4e7f-be59-2ba9da91b549","ios":"levelo://app?vid=7579423d-f3b8-4e7f-be59-2ba9da91b549"},"vehicle_type_id":"4","last_reported":1701986818,"current_range_meters":7200,"station_id":"","pricing_plan_id":"free"},{"bike_id":"4a9985e8-66f6-46ae-853f-28c2e2dc79a6","system_id":"levelo_inurba_marseille","lat":43.300852,"lon":5.390859,"is_reserved":false,"is_disabled":false,"rental_uris":{"android":"levelo://app?vid=4a9985e8-66f6-46ae-853f-28c2e2dc79a6","ios":"levelo://app?vid=4a9985e8-66f6-46ae-853f-28c2e2dc79a6"},"vehicle_type_id":"4","last_reported":1701986818,"current_range_meters":10400,"station_id":"ce4bh192rcd13ifvqdb0","pricing_plan_id":"free"},{"bike_id":"4c317e05-c9c6-4da7-ac5c-0e5276dfb345","system_id":"levelo_inurba_marseille","lat":43.2988,"lon":5.38926,"is_reserved":false,"is_disabled":false,"rental_uris":{"android":"levelo://app?vid=4c317e05-c9c6-4da7-ac5c-0e5276dfb345","ios":"levelo://app?vid=4c317e05-c9c6-4da7-ac5c-0e5276dfb345"},"vehicle_type_id":"4","last_reported":1701986818,"current_range_meters":2800,"station_id":"ce4bh392rcd13ifvqdl0","pricing_plan_id":"free"},{"bike_id":"7f4c006f-68fd-4ff6-b95a-ac2bacbfa026","system_id":"levelo_inurba_marseille","lat":43.29194,"lon":5.35809,"is_reserved":false,"is_disabled":false,"rental_uris":{"android":"levelo://app?vid=7f4c006f-68fd-4ff6-b95a-ac2bacbfa026","ios":"levelo://app?vid=7f4c006f-68fd-4ff6-b95a-ac2bacbfa026"},"vehicle_type_id":"4","last_reported":1701986818,"current_range_meters":4800,"station_id":"ce4bhb12rcd13ifvqel0","pricing_plan_id":"free"},{"bike_id":"402666bd-ab7f-44c3-a6a5-bd73fc74f492","system_id":"levelo_inurba_marseille","lat":43.31325,"lon":5.39691,"is_reserved":false,"is_disabled":false,"rental_uris":{"android":"levelo://app?vid=402666bd-ab7f-44c3-a6a5-bd73fc74f492","ios":"levelo://app?vid=402666bd-ab7f-44c3-a6a5-bd73fc74f492"},"vehicle_type_id":"4","last_reported":1701986818,"current_range_meters":0,"station_id":"ce4bgvp2rcd13ifvqcu0","pricing_plan_id":"free"},{"bike_id":"3814f3b5-cafa-4033-bb67-ed20152de6b0","system_id":"levelo_inurba_marseille","lat":43.31325,"lon":5.39692,"is_reserved":false,"is_disabled":false,"rental_uris":{"android":"levelo://app?vid=3814f3b5-cafa-4033-bb67-ed20152de6b0","ios":"levelo://app?vid=3814f3b5-cafa-4033-bb67-ed20152de6b0"},"vehicle_type_id":"4","last_reported":1701986818,"current_range_meters":400,"station_id":"ce4bgvp2rcd13ifvqcu0","pricing_plan_id":"free"},{"bike_id":"5cc46180-f859-423b-b402-0af92ab53d05","system_id":"levelo_inurba_marseille","lat":43.31326,"lon":5.39692,"is_reserved":false,"is_disabled":false,"rental_uris":{"android":"levelo://app?vid=5cc46180-f859-423b-b402-0af92ab53d05","ios":"levelo://app?vid=5cc46180-f859-423b-b402-0af92ab53d05"},"vehicle_type_id":"4","last_reported":1701986818,"current_range_meters":0,"station_id":"ce4bgvp2rcd13ifvqcu0","pricing_plan_id":"free"},{"bike_id":"df5d5068-3213-475c-896a-cc5dcaa7efe9","system_id":"levelo_inurba_marseille","lat":43.309038,"lon":5.396546,"is_reserved":false,"is_disabled":false,"rental_uris":{"android":"levelo://app?vid=df5d5068-3213-475c-896a-cc5dcaa7efe9","ios":"levelo://app?vid=df5d5068-3213-475c-896a-cc5dcaa7efe9"},"vehicle_type_id":"4","last_reported":1701986818,"current_range_meters":9200,"station_id":"ce4bh012rcd13ifvqcv0","pricing_plan_id":"free"},{"bike_id":"b3412777-7088-4d0a-87b2-d83a274275be","system_id":"levelo_inurba_marseille","lat":43.290624,"lon":5.359245,"is_reserved":false,"is_disabled":false,"rental_uris":{"android":"levelo://app?vid=b3412777-7088-4d0a-87b2-d83a274275be","ios":"levelo://app?vid=b3412777-7088-4d0a-87b2-d83a274275be"},"vehicle_type_id":"4","last_reported":1701986818,"current_range_meters":25600,"station_id":"ce4bha92rcd13ifvqeg0","pricing_plan_id":"free"},{"bike_id":"cb058ab4-7e9e-489c-946c-01a03fc44765","system_id":"levelo_inurba_marseille","lat":43.290327,"lon":5.375711,"is_reserved":false,"is_disabled":false,"rental_uris":{"android":"levelo://app?vid=cb058ab4-7e9e-489c-946c-01a03fc44765","ios":"levelo://app?vid=cb058ab4-7e9e-489c-946c-01a03fc44765"},"vehicle_type_id":"4","last_reported":1701986818,"current_range_meters":21200,"station_id":"ce4bh692rcd13ifvqe90","pricing_plan_id":"free"},{"bike_id":"35167050-f909-4250-a110-df5bedfb0a40","system_id":"levelo_inurba_marseille","lat":43.29425,"lon":5.38646,"is_reserved":false,"is_disabled":false,"rental_uris":{"android":"levelo://app?vid=35167050-f909-4250-a110-df5bedfb0a40","ios":"levelo://app?vid=35167050-f909-4250-a110-df5bedfb0a40"},"vehicle_type_id":"4","last_reported":1701986818,"current_range_meters":4400,"station_id":"","pricing_plan_id":"free"},{"bike_id":"6b143fd5-fd51-43e4-b147-b19a835874c2","system_id":"levelo_inurba_marseille","lat":43.289427,"lon":5.36398,"is_reserved":false,"is_disabled":false,"rental_uris":{"android":"levelo://app?vid=6b143fd5-fd51-43e4-b147-b19a835874c2","ios":"levelo://app?vid=6b143fd5-fd51-43e4-b147-b19a835874c2"},"vehicle_type_id":"4","last_reported":1701986818,"current_range_meters":16800,"station_id":"ce4bhc92rcd13ifvqetg","pricing_plan_id":"free"},{"bike_id":"f4ee06d1-a79e-4860-86a5-3e4a793d90e1","system_id":"levelo_inurba_marseille","lat":43.290161,"lon":5.375651,"is_reserved":false,"is_disabled":false,"rental_uris":{"android":"levelo://app?vid=f4ee06d1-a79e-4860-86a5-3e4a793d90e1","ios":"levelo://app?vid=f4ee06d1-a79e-4860-86a5-3e4a793d90e1"},"vehicle_type_id":"4","last_reported":1701986818,"current_range_meters":19600,"station_id":"","pricing_plan_id":"free"},{"bike_id":"a02a1b20-1fb1-4951-988a-77389649024d","system_id":"levelo_inurba_marseille","lat":43.289259,"lon":5.366364,"is_reserved":false,"is_disabled":false,"rental_uris":{"android":"levelo://app?vid=a02a1b20-1fb1-4951-988a-77389649024d","ios":"levelo://app?vid=a02a1b20-1fb1-4951-988a-77389649024d"},"vehicle_type_id":"4","last_reported":1701986818,"current_range_meters":18400,"station_id":"","pricing_plan_id":"free"},{"bike_id":"6eac4274-6113-45a4-a95a-4cfcba48f6ca","system_id":"levelo_inurba_marseille","lat":43.290104,"lon":5.356111,"is_reserved":false,"is_disabled":false,"rental_uris":{"android":"levelo://app?vid=6eac4274-6113-45a4-a95a-4cfcba48f6ca","ios":"levelo://app?vid=6eac4274-6113-45a4-a95a-4cfcba48f6ca"},"vehicle_type_id":"4","last_reported":1701986818,"current_range_meters":19600,"station_id":"ce4bhb92rcd13ifvqen0","pricing_plan_id":"free"},{"bike_id":"a37c94cb-2692-4870-a620-d20244d8459e","system_id":"levelo_inurba_marseille","lat":43.295169,"lon":5.390426,"is_reserved":false,"is_disabled":false,"rental_uris":{"android":"levelo://app?vid=a37c94cb-2692-4870-a620-d20244d8459e","ios":"levelo://app?vid=a37c94cb-2692-4870-a620-d20244d8459e"},"vehicle_type_id":"4","last_reported":1701986818,"current_range_meters":9200,"station_id":"ce4bh3p2rcd13ifvqdp0","pricing_plan_id":"free"},{"bike_id":"840a7844-c22c-4cee-ac46-1ae5ed206096","system_id":"levelo_inurba_marseille","lat":43.295169,"lon":5.390426,"is_reserved":false,"is_disabled":false,"rental_uris":{"android":"levelo://app?vid=840a7844-c22c-4cee-ac46-1ae5ed206096","ios":"levelo://app?vid=840a7844-c22c-4cee-ac46-1ae5ed206096"},"vehicle_type_id":"4","last_reported":1701986818,"current_range_meters":13200,"station_id":"ce4bh3p2rcd13ifvqdp0","pricing_plan_id":"free"},{"bike_id":"d93bb26c-e688-484b-ae16-efcfaa74bb11","system_id":"levelo_inurba_marseille","lat":43.28861,"lon":5.35844,"is_reserved":false,"is_disabled":false,"rental_uris":{"android":"levelo://app?vid=d93bb26c-e688-484b-ae16-efcfaa74bb11","ios":"levelo://app?vid=d93bb26c-e688-484b-ae16-efcfaa74bb11"},"vehicle_type_id":"4","last_reported":1701986818,"current_range_meters":20000,"station_id":"ce4bhb12rcd13ifvqem0","pricing_plan_id":"free"},{"bike_id":"108696cb-6bfa-4400-aa7a-ab44a5402b00","system_id":"levelo_inurba_marseille","lat":43.288558,"lon":5.358635,"is_reserved":false,"is_disabled":false,"rental_uris":{"android":"levelo://app?vid=108696cb-6bfa-4400-aa7a-ab44a5402b00","ios":"levelo://app?vid=108696cb-6bfa-4400-aa7a-ab44a5402b00"},"vehicle_type_id":"4","last_reported":1701986818,"current_range_meters":26400,"station_id":"","pricing_plan_id":"free"},{"bike_id":"bb650316-3ae9-4184-9961-b66a4b4f2fcd","system_id":"levelo_inurba_marseille","lat":43.28855,"lon":5.35859,"is_reserved":false,"is_disabled":false,"rental_uris":{"android":"levelo://app?vid=bb650316-3ae9-4184-9961-b66a4b4f2fcd","ios":"levelo://app?vid=bb650316-3ae9-4184-9961-b66a4b4f2fcd"},"vehicle_type_id":"4","last_reported":1701986818,"current_range_meters":13200,"station_id":"ce4bhb12rcd13ifvqem0","pricing_plan_id":"free"},{"bike_id":"3940c5bb-9072-4e68-81c3-8e2a71ebbbbb","system_id":"levelo_inurba_marseille","lat":43.28725,"lon":5.36091,"is_reserved":false,"is_disabled":false,"rental_uris":{"android":"levelo://app?vid=3940c5bb-9072-4e68-81c3-8e2a71ebbbbb","ios":"levelo://app?vid=3940c5bb-9072-4e68-81c3-8e2a71ebbbbb"},"vehicle_type_id":"4","last_reported":1701986818,"current_range_meters":18800,"station_id":"cki0cbj6b192h4jlfktg","pricing_plan_id":"free"},{"bike_id":"41b37be4-557a-46fc-b825-91f9e7e482f1","system_id":"levelo_inurba_marseille","lat":43.28722,"lon":5.360912,"is_reserved":false,"is_disabled":false,"rental_uris":{"android":"levelo://app?vid=41b37be4-557a-46fc-b825-91f9e7e482f1","ios":"levelo://app?vid=41b37be4-557a-46fc-b825-91f9e7e482f1"},"vehicle_type_id":"4","last_reported":1701986818,"current_range_meters":24400,"station_id":"cki0cbj6b192h4jlfktg","pricing_plan_id":"free"},{"bike_id":"fc95b9e8-4706-4d61-9b73-00ee748d1ccc","system_id":"levelo_inurba_marseille","lat":43.28722,"lon":5.36088,"is_reserved":false,"is_disabled":false,"rental_uris":{"android":"levelo://app?vid=fc95b9e8-4706-4d61-9b73-00ee748d1ccc","ios":"levelo://app?vid=fc95b9e8-4706-4d61-9b73-00ee748d1ccc"},"vehicle_type_id":"4","last_reported":1701986818,"current_range_meters":3600,"station_id":"cki0cbj6b192h4jlfktg","pricing_plan_id":"free"},{"bike_id":"f06f2d09-fb33-42c6-ad15-a379d932971a","system_id":"levelo_inurba_marseille","lat":43.286961,"lon":5.373785,"is_reserved":false,"is_disabled":false,"rental_uris":{"android":"levelo://app?vid=f06f2d09-fb33-42c6-ad15-a379d932971a","ios":"levelo://app?vid=f06f2d09-fb33-42c6-ad15-a379d932971a"},"vehicle_type_id":"4","last_reported":1701986818,"current_range_meters":17600,"station_id":"ce4bh3p2rcd13ifvqdq0","pricing_plan_id":"free"},{"bike_id":"8c3b6769-7b96-49d9-bf01-dd39198c1403","system_id":"levelo_inurba_marseille","lat":43.286961,"lon":5.373785,"is_reserved":false,"is_disabled":false,"rental_uris":{"android":"levelo://app?vid=8c3b6769-7b96-49d9-bf01-dd39198c1403","ios":"levelo://app?vid=8c3b6769-7b96-49d9-bf01-dd39198c1403"},"vehicle_type_id":"4","last_reported":1701986818,"current_range_meters":17600,"station_id":"ce4bh3p2rcd13ifvqdq0","pricing_plan_id":"free"},{"bike_id":"9771dfd8-017b-477e-9f38-39c8dec9c905","system_id":"levelo_inurba_marseille","lat":43.286039,"lon":5.370679,"is_reserved":false,"is_disabled":false,"rental_uris":{"android":"levelo://app?vid=9771dfd8-017b-477e-9f38-39c8dec9c905","ios":"levelo://app?vid=9771dfd8-017b-477e-9f38-39c8dec9c905"},"vehicle_type_id":"4","last_reported":1701986818,"current_range_meters":31200,"station_id":"ce4bht12rcd13ifvqi60","pricing_plan_id":"free"},{"bike_id":"b9368d4f-73ed-4565-b2ae-63aeb9262fc6","system_id":"levelo_inurba_marseille","lat":43.31696,"lon":5.4047,"is_reserved":false,"is_disabled":false,"rental_uris":{"android":"levelo://app?vid=b9368d4f-73ed-4565-b2ae-63aeb9262fc6","ios":"levelo://app?vid=b9368d4f-73ed-4565-b2ae-63aeb9262fc6"},"vehicle_type_id":"4","last_reported":1701986818,"current_range_meters":18800,"station_id":"","pricing_plan_id":"free"},{"bike_id":"156af62e-b5d4-46eb-866f-2eaa0403442a","system_id":"levelo_inurba_marseille","lat":43.291994,"lon":5.392907,"is_reserved":false,"is_disabled":false,"rental_uris":{"android":"levelo://app?vid=156af62e-b5d4-46eb-866f-2eaa0403442a","ios":"levelo://app?vid=156af62e-b5d4-46eb-866f-2eaa0403442a"},"vehicle_type_id":"4","last_reported":1701986818,"current_range_meters":0,"station_id":"ce4bh192rcd13ifvqdd0","pricing_plan_id":"free"},{"bike_id":"557f27d4-4580-4278-b89b-6beff88eead5","system_id":"levelo_inurba_marseille","lat":43.284534,"lon":5.358662,"is_reserved":false,"is_disabled":false,"rental_uris":{"android":"levelo://app?vid=557f27d4-4580-4278-b89b-6beff88eead5","ios":"levelo://app?vid=557f27d4-4580-4278-b89b-6beff88eead5"},"vehicle_type_id":"4","last_reported":1701986818,"current_range_meters":3200,"station_id":"ce4bhah2rcd13ifvqei0","pricing_plan_id":"free"},{"bike_id":"8838f47b-1a16-4978-8cdb-bcc179cef39a","system_id":"levelo_inurba_marseille","lat":43.284538,"lon":5.358657,"is_reserved":false,"is_disabled":false,"rental_uris":{"android":"levelo://app?vid=8838f47b-1a16-4978-8cdb-bcc179cef39a","ios":"levelo://app?vid=8838f47b-1a16-4978-8cdb-bcc179cef39a"},"vehicle_type_id":"4","last_reported":1701986818,"current_range_meters":8800,"station_id":"ce4bhah2rcd13ifvqei0","pricing_plan_id":"free"},{"bike_id":"0acce19b-c622-4789-b816-980312ed3692","system_id":"levelo_inurba_marseille","lat":43.284538,"lon":5.358657,"is_reserved":false,"is_disabled":false,"rental_uris":{"android":"levelo://app?vid=0acce19b-c622-4789-b816-980312ed3692","ios":"levelo://app?vid=0acce19b-c622-4789-b816-980312ed3692"},"vehicle_type_id":"4","last_reported":1701986818,"current_range_meters":18000,"station_id":"ce4bhah2rcd13ifvqei0","pricing_plan_id":"free"},{"bike_id":"fb8129b0-fe0a-4869-8c36-05e027179d11","system_id":"levelo_inurba_marseille","lat":43.284534,"lon":5.358662,"is_reserved":false,"is_disabled":false,"rental_uris":{"android":"levelo://app?vid=fb8129b0-fe0a-4869-8c36-05e027179d11","ios":"levelo://app?vid=fb8129b0-fe0a-4869-8c36-05e027179d11"},"vehicle_type_id":"4","last_reported":1701986818,"current_range_meters":21200,"station_id":"ce4bhah2rcd13ifvqei0","pricing_plan_id":"free"},{"bike_id":"2b715313-a8a9-4433-9018-d854945294a0","system_id":"levelo_inurba_marseille","lat":43.284538,"lon":5.358657,"is_reserved":false,"is_disabled":false,"rental_uris":{"android":"levelo://app?vid=2b715313-a8a9-4433-9018-d854945294a0","ios":"levelo://app?vid=2b715313-a8a9-4433-9018-d854945294a0"},"vehicle_type_id":"4","last_reported":1701986818,"current_range_meters":17200,"station_id":"ce4bhah2rcd13ifvqei0","pricing_plan_id":"free"},{"bike_id":"6f3805da-607e-4644-a872-a570d4d7529e","system_id":"levelo_inurba_marseille","lat":43.284538,"lon":5.358657,"is_reserved":false,"is_disabled":false,"rental_uris":{"android":"levelo://app?vid=6f3805da-607e-4644-a872-a570d4d7529e","ios":"levelo://app?vid=6f3805da-607e-4644-a872-a570d4d7529e"},"vehicle_type_id":"4","last_reported":1701986818,"current_range_meters":25600,"station_id":"ce4bhah2rcd13ifvqei0","pricing_plan_id":"free"},{"bike_id":"5ce1b9ad-31ec-4a12-9b28-023af262f1a8","system_id":"levelo_inurba_marseille","lat":43.284538,"lon":5.358657,"is_reserved":false,"is_disabled":false,"rental_uris":{"android":"levelo://app?vid=5ce1b9ad-31ec-4a12-9b28-023af262f1a8","ios":"levelo://app?vid=5ce1b9ad-31ec-4a12-9b28-023af262f1a8"},"vehicle_type_id":"4","last_reported":1701986818,"current_range_meters":12000,"station_id":"ce4bhah2rcd13ifvqei0","pricing_plan_id":"free"},{"bike_id":"d87f5c7f-42a9-4831-80dd-8319fb667d06","system_id":"levelo_inurba_marseille","lat":43.294314,"lon":5.397498,"is_reserved":false,"is_disabled":false,"rental_uris":{"android":"levelo://app?vid=d87f5c7f-42a9-4831-80dd-8319fb667d06","ios":"levelo://app?vid=d87f5c7f-42a9-4831-80dd-8319fb667d06"},"vehicle_type_id":"4","last_reported":1701986818,"current_range_meters":30400,"station_id":"ce4bh3h2rcd13ifvqdo0","pricing_plan_id":"free"},{"bike_id":"15169293-4511-4f9b-bd76-b3e5d467311c","system_id":"levelo_inurba_marseille","lat":43.28616,"lon":5.35094,"is_reserved":false,"is_disabled":false,"rental_uris":{"android":"levelo://app?vid=15169293-4511-4f9b-bd76-b3e5d467311c","ios":"levelo://app?vid=15169293-4511-4f9b-bd76-b3e5d467311c"},"vehicle_type_id":"4","last_reported":1701986818,"current_range_meters":28000,"station_id":"ce4bhch2rcd13ifvqeug","pricing_plan_id":"free"},{"bike_id":"2ba6b11c-58c9-4871-940e-d125223acf18","system_id":"levelo_inurba_marseille","lat":43.295713,"lon":5.399639,"is_reserved":false,"is_disabled":false,"rental_uris":{"android":"levelo://app?vid=2ba6b11c-58c9-4871-940e-d125223acf18","ios":"levelo://app?vid=2ba6b11c-58c9-4871-940e-d125223acf18"},"vehicle_type_id":"4","last_reported":1701986818,"current_range_meters":23600,"station_id":"ce4bh312rcd13ifvqdj0","pricing_plan_id":"free"},{"bike_id":"06070a5a-4b04-4262-80e6-ef3153c54cac","system_id":"levelo_inurba_marseille","lat":43.319179,"lon":5.407725,"is_reserved":false,"is_disabled":false,"rental_uris":{"android":"levelo://app?vid=06070a5a-4b04-4262-80e6-ef3153c54cac","ios":"levelo://app?vid=06070a5a-4b04-4262-80e6-ef3153c54cac"},"vehicle_type_id":"4","last_reported":1701986818,"current_range_meters":23200,"station_id":"ce4bhq12rcd13ifvqhig","pricing_plan_id":"free"},{"bike_id":"b77d28e4-5c0e-4a7f-b184-8b5c352d6957","system_id":"levelo_inurba_marseille","lat":43.319179,"lon":5.407725,"is_reserved":false,"is_disabled":false,"rental_uris":{"android":"levelo://app?vid=b77d28e4-5c0e-4a7f-b184-8b5c352d6957","ios":"levelo://app?vid=b77d28e4-5c0e-4a7f-b184-8b5c352d6957"},"vehicle_type_id":"4","last_reported":1701986818,"current_range_meters":12000,"station_id":"ce4bhq12rcd13ifvqhig","pricing_plan_id":"free"},{"bike_id":"6a3c4b4d-605d-42e5-8bff-fbe7793f19d5","system_id":"levelo_inurba_marseille","lat":43.323464,"lon":5.406297,"is_reserved":false,"is_disabled":false,"rental_uris":{"android":"levelo://app?vid=6a3c4b4d-605d-42e5-8bff-fbe7793f19d5","ios":"levelo://app?vid=6a3c4b4d-605d-42e5-8bff-fbe7793f19d5"},"vehicle_type_id":"4","last_reported":1701986818,"current_range_meters":28000,"station_id":"ce4bhq92rcd13ifvqhjg","pricing_plan_id":"free"},{"bike_id":"35437a3b-546d-4804-a96b-f2464a7a3e3e","system_id":"levelo_inurba_marseille","lat":43.323464,"lon":5.406297,"is_reserved":false,"is_disabled":false,"rental_uris":{"android":"levelo://app?vid=35437a3b-546d-4804-a96b-f2464a7a3e3e","ios":"levelo://app?vid=35437a3b-546d-4804-a96b-f2464a7a3e3e"},"vehicle_type_id":"4","last_reported":1701986818,"current_range_meters":6400,"station_id":"ce4bhq92rcd13ifvqhjg","pricing_plan_id":"free"},{"bike_id":"56ac9cc9-bb61-47d5-bb32-c23299a9fd93","system_id":"levelo_inurba_marseille","lat":43.32252,"lon":5.40689,"is_reserved":false,"is_disabled":false,"rental_uris":{"android":"levelo://app?vid=56ac9cc9-bb61-47d5-bb32-c23299a9fd93","ios":"levelo://app?vid=56ac9cc9-bb61-47d5-bb32-c23299a9fd93"},"vehicle_type_id":"4","last_reported":1701986818,"current_range_meters":26400,"station_id":"","pricing_plan_id":"free"},{"bike_id":"d2fac119-da81-4cde-ae6f-96eb05c75055","system_id":"levelo_inurba_marseille","lat":43.288501,"lon":5.393087,"is_reserved":false,"is_disabled":false,"rental_uris":{"android":"levelo://app?vid=d2fac119-da81-4cde-ae6f-96eb05c75055","ios":"levelo://app?vid=d2fac119-da81-4cde-ae6f-96eb05c75055"},"vehicle_type_id":"4","last_reported":1701986818,"current_range_meters":4000,"station_id":"ce4bh2p2rcd13ifvqdi0","pricing_plan_id":"free"},{"bike_id":"ac423c55-57d8-416c-bcb9-f17d21effabb","system_id":"levelo_inurba_marseille","lat":43.283494,"lon":5.380945,"is_reserved":false,"is_disabled":false,"rental_uris":{"android":"levelo://app?vid=ac423c55-57d8-416c-bcb9-f17d21effabb","ios":"levelo://app?vid=ac423c55-57d8-416c-bcb9-f17d21effabb"},"vehicle_type_id":"4","last_reported":1701986818,"current_range_meters":2400,"station_id":"ce4bh412rcd13ifvqdr0","pricing_plan_id":"free"},{"bike_id":"9fb1f085-61d3-40d3-97fd-85c9d1b9cddb","system_id":"levelo_inurba_marseille","lat":43.288501,"lon":5.393087,"is_reserved":false,"is_disabled":false,"rental_uris":{"android":"levelo://app?vid=9fb1f085-61d3-40d3-97fd-85c9d1b9cddb","ios":"levelo://app?vid=9fb1f085-61d3-40d3-97fd-85c9d1b9cddb"},"vehicle_type_id":"4","last_reported":1701986818,"current_range_meters":1200,"station_id":"ce4bh2p2rcd13ifvqdi0","pricing_plan_id":"free"},{"bike_id":"f4367223-a6b4-482a-8f45-158534ec2273","system_id":"levelo_inurba_marseille","lat":43.283498,"lon":5.380948,"is_reserved":false,"is_disabled":false,"rental_uris":{"android":"levelo://app?vid=f4367223-a6b4-482a-8f45-158534ec2273","ios":"levelo://app?vid=f4367223-a6b4-482a-8f45-158534ec2273"},"vehicle_type_id":"4","last_reported":1701986818,"current_range_meters":800,"station_id":"ce4bh412rcd13ifvqdr0","pricing_plan_id":"free"},{"bike_id":"b14202d5-353e-4d2d-9f1f-51e564c4f2c5","system_id":"levelo_inurba_marseille","lat":43.284219,"lon":5.3497,"is_reserved":false,"is_disabled":false,"rental_uris":{"android":"levelo://app?vid=b14202d5-353e-4d2d-9f1f-51e564c4f2c5","ios":"levelo://app?vid=b14202d5-353e-4d2d-9f1f-51e564c4f2c5"},"vehicle_type_id":"4","last_reported":1701986818,"current_range_meters":27200,"station_id":"ce4bhbh2rcd13ifvqepg","pricing_plan_id":"free"},{"bike_id":"7bcb7c48-2b8f-45f5-84c9-6c48103d9b03","system_id":"levelo_inurba_marseille","lat":43.289363,"lon":5.396322,"is_reserved":false,"is_disabled":false,"rental_uris":{"android":"levelo://app?vid=7bcb7c48-2b8f-45f5-84c9-6c48103d9b03","ios":"levelo://app?vid=7bcb7c48-2b8f-45f5-84c9-6c48103d9b03"},"vehicle_type_id":"4","last_reported":1701986818,"current_range_meters":1600,"station_id":"ce4bh3h2rcd13ifvqdn0","pricing_plan_id":"free"},{"bike_id":"7be425a0-a30e-4b9c-96f5-dfbd1180f150","system_id":"levelo_inurba_marseille","lat":43.289363,"lon":5.396322,"is_reserved":false,"is_disabled":false,"rental_uris":{"android":"levelo://app?vid=7be425a0-a30e-4b9c-96f5-dfbd1180f150","ios":"levelo://app?vid=7be425a0-a30e-4b9c-96f5-dfbd1180f150"},"vehicle_type_id":"4","last_reported":1701986818,"current_range_meters":8800,"station_id":"ce4bh3h2rcd13ifvqdn0","pricing_plan_id":"free"},{"bike_id":"45b4fb5f-e9cb-47bd-aa81-2a32e02cf332","system_id":"levelo_inurba_marseille","lat":43.292724,"lon":5.401131,"is_reserved":false,"is_disabled":false,"rental_uris":{"android":"levelo://app?vid=45b4fb5f-e9cb-47bd-aa81-2a32e02cf332","ios":"levelo://app?vid=45b4fb5f-e9cb-47bd-aa81-2a32e02cf332"},"vehicle_type_id":"4","last_reported":1701986818,"current_range_meters":22000,"station_id":"ce4bh312rcd13ifvqdk0","pricing_plan_id":"free"},{"bike_id":"3645baaa-d7a9-44bb-87c4-86326156ac0d","system_id":"levelo_inurba_marseille","lat":43.283502,"lon":5.386471,"is_reserved":false,"is_disabled":false,"rental_uris":{"android":"levelo://app?vid=3645baaa-d7a9-44bb-87c4-86326156ac0d","ios":"levelo://app?vid=3645baaa-d7a9-44bb-87c4-86326156ac0d"},"vehicle_type_id":"4","last_reported":1701986818,"current_range_meters":12000,"station_id":"ce4bh492rcd13ifvqdvg","pricing_plan_id":"free"},{"bike_id":"2464d8e8-2b44-4c5b-b558-3288ccee4e57","system_id":"levelo_inurba_marseille","lat":43.280382,"lon":5.369291,"is_reserved":false,"is_disabled":false,"rental_uris":{"android":"levelo://app?vid=2464d8e8-2b44-4c5b-b558-3288ccee4e57","ios":"levelo://app?vid=2464d8e8-2b44-4c5b-b558-3288ccee4e57"},"vehicle_type_id":"4","last_reported":1701986818,"current_range_meters":9200,"station_id":"ce4bha12rcd13ifvqef0","pricing_plan_id":"free"},{"bike_id":"180af9dc-1240-4ff0-a87e-0b143dac80b7","system_id":"levelo_inurba_marseille","lat":43.280382,"lon":5.369291,"is_reserved":false,"is_disabled":false,"rental_uris":{"android":"levelo://app?vid=180af9dc-1240-4ff0-a87e-0b143dac80b7","ios":"levelo://app?vid=180af9dc-1240-4ff0-a87e-0b143dac80b7"},"vehicle_type_id":"4","last_reported":1701986818,"current_range_meters":26400,"station_id":"ce4bha12rcd13ifvqef0","pricing_plan_id":"free"},{"bike_id":"a0f00fd8-2894-4307-8c72-776b5bfefc29","system_id":"levelo_inurba_marseille","lat":43.283502,"lon":5.386471,"is_reserved":false,"is_disabled":false,"rental_uris":{"android":"levelo://app?vid=a0f00fd8-2894-4307-8c72-776b5bfefc29","ios":"levelo://app?vid=a0f00fd8-2894-4307-8c72-776b5bfefc29"},"vehicle_type_id":"4","last_reported":1701986818,"current_range_meters":6000,"station_id":"ce4bh492rcd13ifvqdvg","pricing_plan_id":"free"},{"bike_id":"ad15ea27-1504-4e07-95cd-eee7555456ea","system_id":"levelo_inurba_marseille","lat":43.29041,"lon":5.399634,"is_reserved":false,"is_disabled":false,"rental_uris":{"android":"levelo://app?vid=ad15ea27-1504-4e07-95cd-eee7555456ea","ios":"levelo://app?vid=ad15ea27-1504-4e07-95cd-eee7555456ea"},"vehicle_type_id":"4","last_reported":1701986818,"current_range_meters":8000,"station_id":"ce4bh392rcd13ifvqdm0","pricing_plan_id":"free"},{"bike_id":"901972e0-4166-4556-ba06-1a2ce7276cbf","system_id":"levelo_inurba_marseille","lat":43.296263,"lon":5.40601,"is_reserved":false,"is_disabled":false,"rental_uris":{"android":"levelo://app?vid=901972e0-4166-4556-ba06-1a2ce7276cbf","ios":"levelo://app?vid=901972e0-4166-4556-ba06-1a2ce7276cbf"},"vehicle_type_id":"4","last_reported":1701986818,"current_range_meters":17600,"station_id":"ce4bh0h2rcd13ifvqd60","pricing_plan_id":"free"},{"bike_id":"00550c78-3ba0-4892-8a93-139dcf53216b","system_id":"levelo_inurba_marseille","lat":43.296263,"lon":5.40601,"is_reserved":false,"is_disabled":false,"rental_uris":{"android":"levelo://app?vid=00550c78-3ba0-4892-8a93-139dcf53216b","ios":"levelo://app?vid=00550c78-3ba0-4892-8a93-139dcf53216b"},"vehicle_type_id":"4","last_reported":1701986818,"current_range_meters":14400,"station_id":"ce4bh0h2rcd13ifvqd60","pricing_plan_id":"free"},{"bike_id":"fc50f882-8adf-492c-9f3a-25ce353f59d9","system_id":"levelo_inurba_marseille","lat":43.281044,"lon":5.378308,"is_reserved":false,"is_disabled":false,"rental_uris":{"android":"levelo://app?vid=fc50f882-8adf-492c-9f3a-25ce353f59d9","ios":"levelo://app?vid=fc50f882-8adf-492c-9f3a-25ce353f59d9"},"vehicle_type_id":"4","last_reported":1701986818,"current_range_meters":6000,"station_id":"ce4bha12rcd13ifvqee0","pricing_plan_id":"free"},{"bike_id":"68bf0473-2937-406c-955b-5f92ae61d953","system_id":"levelo_inurba_marseille","lat":43.281044,"lon":5.378308,"is_reserved":false,"is_disabled":false,"rental_uris":{"android":"levelo://app?vid=68bf0473-2937-406c-955b-5f92ae61d953","ios":"levelo://app?vid=68bf0473-2937-406c-955b-5f92ae61d953"},"vehicle_type_id":"4","last_reported":1701986818,"current_range_meters":16800,"station_id":"ce4bha12rcd13ifvqee0","pricing_plan_id":"free"},{"bike_id":"1458272f-37ff-47f6-baca-67428831d895","system_id":"levelo_inurba_marseille","lat":43.284462,"lon":5.392121,"is_reserved":false,"is_disabled":false,"rental_uris":{"android":"levelo://app?vid=1458272f-37ff-47f6-baca-67428831d895","ios":"levelo://app?vid=1458272f-37ff-47f6-baca-67428831d895"},"vehicle_type_id":"4","last_reported":1701986818,"current_range_meters":26800,"station_id":"ce4bhoh2rcd13ifvqh5g","pricing_plan_id":"free"},{"bike_id":"43532f18-fd38-4041-884d-515c14b82ab9","system_id":"levelo_inurba_marseille","lat":43.284462,"lon":5.392121,"is_reserved":false,"is_disabled":false,"rental_uris":{"android":"levelo://app?vid=43532f18-fd38-4041-884d-515c14b82ab9","ios":"levelo://app?vid=43532f18-fd38-4041-884d-515c14b82ab9"},"vehicle_type_id":"4","last_reported":1701986818,"current_range_meters":18400,"station_id":"ce4bhoh2rcd13ifvqh5g","pricing_plan_id":"free"},{"bike_id":"916a7912-188f-4842-a3fd-ab528a439fc9","system_id":"levelo_inurba_marseille","lat":43.284462,"lon":5.392121,"is_reserved":false,"is_disabled":false,"rental_uris":{"android":"levelo://app?vid=916a7912-188f-4842-a3fd-ab528a439fc9","ios":"levelo://app?vid=916a7912-188f-4842-a3fd-ab528a439fc9"},"vehicle_type_id":"4","last_reported":1701986818,"current_range_meters":26800,"station_id":"ce4bhoh2rcd13ifvqh5g","pricing_plan_id":"free"},{"bike_id":"d28a975c-526b-4d6e-9073-56d4d1a9946d","system_id":"levelo_inurba_marseille","lat":43.28573,"lon":5.394992,"is_reserved":false,"is_disabled":false,"rental_uris":{"android":"levelo://app?vid=d28a975c-526b-4d6e-9073-56d4d1a9946d","ios":"levelo://app?vid=d28a975c-526b-4d6e-9073-56d4d1a9946d"},"vehicle_type_id":"4","last_reported":1701986818,"current_range_meters":20000,"station_id":"ce4bh292rcd13ifvqdg0","pricing_plan_id":"free"},{"bike_id":"5479ec44-6531-4cd2-a31f-eaf7df8a408e","system_id":"levelo_inurba_marseille","lat":43.28573,"lon":5.394992,"is_reserved":false,"is_disabled":false,"rental_uris":{"android":"levelo://app?vid=5479ec44-6531-4cd2-a31f-eaf7df8a408e","ios":"levelo://app?vid=5479ec44-6531-4cd2-a31f-eaf7df8a408e"},"vehicle_type_id":"4","last_reported":1701986818,"current_range_meters":29600,"station_id":"ce4bh292rcd13ifvqdg0","pricing_plan_id":"free"},{"bike_id":"338318f6-96af-43b4-88ec-e30e199b49d2","system_id":"levelo_inurba_marseille","lat":43.326605,"lon":5.409903,"is_reserved":false,"is_disabled":false,"rental_uris":{"android":"levelo://app?vid=338318f6-96af-43b4-88ec-e30e199b49d2","ios":"levelo://app?vid=338318f6-96af-43b4-88ec-e30e199b49d2"},"vehicle_type_id":"4","last_reported":1701986818,"current_range_meters":16400,"station_id":"ce4bhpp2rcd13ifvqhgg","pricing_plan_id":"free"},{"bike_id":"070a260d-ecc1-46d1-afab-6774750cd900","system_id":"levelo_inurba_marseille","lat":43.326605,"lon":5.409903,"is_reserved":false,"is_disabled":false,"rental_uris":{"android":"levelo://app?vid=070a260d-ecc1-46d1-afab-6774750cd900","ios":"levelo://app?vid=070a260d-ecc1-46d1-afab-6774750cd900"},"vehicle_type_id":"4","last_reported":1701986818,"current_range_meters":19600,"station_id":"ce4bhpp2rcd13ifvqhgg","pricing_plan_id":"free"},{"bike_id":"007ece92-3b42-48b4-98ce-373a6b07a5c6","system_id":"levelo_inurba_marseille","lat":43.3042,"lon":5.41281,"is_reserved":false,"is_disabled":false,"rental_uris":{"android":"levelo://app?vid=007ece92-3b42-48b4-98ce-373a6b07a5c6","ios":"levelo://app?vid=007ece92-3b42-48b4-98ce-373a6b07a5c6"},"vehicle_type_id":"4","last_reported":1701986818,"current_range_meters":11600,"station_id":"ce4bhop2rcd13ifvqh8g","pricing_plan_id":"free"},{"bike_id":"40886dac-922c-488e-a1b8-2b9e5309c12c","system_id":"levelo_inurba_marseille","lat":43.287154,"lon":5.399979,"is_reserved":false,"is_disabled":false,"rental_uris":{"android":"levelo://app?vid=40886dac-922c-488e-a1b8-2b9e5309c12c","ios":"levelo://app?vid=40886dac-922c-488e-a1b8-2b9e5309c12c"},"vehicle_type_id":"4","last_reported":1701986818,"current_range_meters":23200,"station_id":"ce4bho92rcd13ifvqh3g","pricing_plan_id":"free"},{"bike_id":"bf9c0286-54ca-458d-a58a-9d0d9c0353fb","system_id":"levelo_inurba_marseille","lat":43.279087,"lon":5.380114,"is_reserved":false,"is_disabled":false,"rental_uris":{"android":"levelo://app?vid=bf9c0286-54ca-458d-a58a-9d0d9c0353fb","ios":"levelo://app?vid=bf9c0286-54ca-458d-a58a-9d0d9c0353fb"},"vehicle_type_id":"4","last_reported":1701986818,"current_range_meters":30000,"station_id":"ce4bhf92rcd13ifvqf50","pricing_plan_id":"free"},{"bike_id":"8c9e37cd-a21f-4610-ba44-61dda4ed517f","system_id":"levelo_inurba_marseille","lat":43.287154,"lon":5.399979,"is_reserved":false,"is_disabled":false,"rental_uris":{"android":"levelo://app?vid=8c9e37cd-a21f-4610-ba44-61dda4ed517f","ios":"levelo://app?vid=8c9e37cd-a21f-4610-ba44-61dda4ed517f"},"vehicle_type_id":"4","last_reported":1701986818,"current_range_meters":5600,"station_id":"ce4bho92rcd13ifvqh3g","pricing_plan_id":"free"},{"bike_id":"f2fa6a46-fde5-4056-9b06-5ada6b70e389","system_id":"levelo_inurba_marseille","lat":43.287154,"lon":5.399979,"is_reserved":false,"is_disabled":false,"rental_uris":{"android":"levelo://app?vid=f2fa6a46-fde5-4056-9b06-5ada6b70e389","ios":"levelo://app?vid=f2fa6a46-fde5-4056-9b06-5ada6b70e389"},"vehicle_type_id":"4","last_reported":1701986818,"current_range_meters":11600,"station_id":"ce4bho92rcd13ifvqh3g","pricing_plan_id":"free"},{"bike_id":"e8661d93-4ce8-45ce-82fd-6b5aea7e962e","system_id":"levelo_inurba_marseille","lat":43.287154,"lon":5.399979,"is_reserved":false,"is_disabled":false,"rental_uris":{"android":"levelo://app?vid=e8661d93-4ce8-45ce-82fd-6b5aea7e962e","ios":"levelo://app?vid=e8661d93-4ce8-45ce-82fd-6b5aea7e962e"},"vehicle_type_id":"4","last_reported":1701986818,"current_range_meters":4800,"station_id":"ce4bho92rcd13ifvqh3g","pricing_plan_id":"free"},{"bike_id":"ee3e59d1-bec3-45e8-a372-3c7ed861c1f7","system_id":"levelo_inurba_marseille","lat":43.292571,"lon":5.409107,"is_reserved":false,"is_disabled":false,"rental_uris":{"android":"levelo://app?vid=ee3e59d1-bec3-45e8-a372-3c7ed861c1f7","ios":"levelo://app?vid=ee3e59d1-bec3-45e8-a372-3c7ed861c1f7"},"vehicle_type_id":"4","last_reported":1701986818,"current_range_meters":17200,"station_id":"ce4bh192rcd13ifvqdc0","pricing_plan_id":"free"},{"bike_id":"ada80be2-5af2-491f-86a4-67cd93153724","system_id":"levelo_inurba_marseille","lat":43.292569,"lon":5.409107,"is_reserved":false,"is_disabled":false,"rental_uris":{"android":"levelo://app?vid=ada80be2-5af2-491f-86a4-67cd93153724","ios":"levelo://app?vid=ada80be2-5af2-491f-86a4-67cd93153724"},"vehicle_type_id":"4","last_reported":1701986818,"current_range_meters":9600,"station_id":"ce4bh192rcd13ifvqdc0","pricing_plan_id":"free"},{"bike_id":"8fb042a7-bc38-4a4b-bd74-88529f6638c4","system_id":"levelo_inurba_marseille","lat":43.27618,"lon":5.361009,"is_reserved":false,"is_disabled":false,"rental_uris":{"android":"levelo://app?vid=8fb042a7-bc38-4a4b-bd74-88529f6638c4","ios":"levelo://app?vid=8fb042a7-bc38-4a4b-bd74-88529f6638c4"},"vehicle_type_id":"4","last_reported":1701986818,"current_range_meters":23600,"station_id":"ce4bgj92rcd13ifvqbe0","pricing_plan_id":"free"},{"bike_id":"604dfced-5a83-4705-9884-9dbeff2c9ad7","system_id":"levelo_inurba_marseille","lat":43.280784,"lon":5.396622,"is_reserved":false,"is_disabled":false,"rental_uris":{"android":"levelo://app?vid=604dfced-5a83-4705-9884-9dbeff2c9ad7","ios":"levelo://app?vid=604dfced-5a83-4705-9884-9dbeff2c9ad7"},"vehicle_type_id":"4","last_reported":1701986818,"current_range_meters":5200,"station_id":"ce4bho12rcd13ifvqh2g","pricing_plan_id":"free"},{"bike_id":"cf28e55e-951a-4b0e-80ed-914fb42c100f","system_id":"levelo_inurba_marseille","lat":43.280784,"lon":5.396622,"is_reserved":false,"is_disabled":false,"rental_uris":{"android":"levelo://app?vid=cf28e55e-951a-4b0e-80ed-914fb42c100f","ios":"levelo://app?vid=cf28e55e-951a-4b0e-80ed-914fb42c100f"},"vehicle_type_id":"4","last_reported":1701986818,"current_range_meters":14800,"station_id":"ce4bho12rcd13ifvqh2g","pricing_plan_id":"free"},{"bike_id":"13eb386d-7fb6-4894-88fd-e0e22c17c157","system_id":"levelo_inurba_marseille","lat":43.280784,"lon":5.396622,"is_reserved":false,"is_disabled":false,"rental_uris":{"android":"levelo://app?vid=13eb386d-7fb6-4894-88fd-e0e22c17c157","ios":"levelo://app?vid=13eb386d-7fb6-4894-88fd-e0e22c17c157"},"vehicle_type_id":"4","last_reported":1701986818,"current_range_meters":30000,"station_id":"ce4bho12rcd13ifvqh2g","pricing_plan_id":"free"},{"bike_id":"21353717-0ebc-4941-8111-34c7a0b5fb53","system_id":"levelo_inurba_marseille","lat":43.28076,"lon":5.3966,"is_reserved":false,"is_disabled":false,"rental_uris":{"android":"levelo://app?vid=21353717-0ebc-4941-8111-34c7a0b5fb53","ios":"levelo://app?vid=21353717-0ebc-4941-8111-34c7a0b5fb53"},"vehicle_type_id":"4","last_reported":1701986818,"current_range_meters":22000,"station_id":"ce4bho12rcd13ifvqh2g","pricing_plan_id":"free"},{"bike_id":"12b2362a-40a6-49e8-87c0-09e1a3c5fc7a","system_id":"levelo_inurba_marseille","lat":43.275625,"lon":5.384392,"is_reserved":false,"is_disabled":false,"rental_uris":{"android":"levelo://app?vid=12b2362a-40a6-49e8-87c0-09e1a3c5fc7a","ios":"levelo://app?vid=12b2362a-40a6-49e8-87c0-09e1a3c5fc7a"},"vehicle_type_id":"4","last_reported":1701986818,"current_range_meters":6000,"station_id":"ce4bhh92rcd13ifvqfi0","pricing_plan_id":"free"},{"bike_id":"6051ecfd-6abd-429f-bfcd-65d61cf505e9","system_id":"levelo_inurba_marseille","lat":43.336134,"lon":5.410341,"is_reserved":false,"is_disabled":false,"rental_uris":{"android":"levelo://app?vid=6051ecfd-6abd-429f-bfcd-65d61cf505e9","ios":"levelo://app?vid=6051ecfd-6abd-429f-bfcd-65d61cf505e9"},"vehicle_type_id":"4","last_reported":1701986818,"current_range_meters":5600,"station_id":"ce4bhqh2rcd13ifvqhmg","pricing_plan_id":"free"},{"bike_id":"ef3344aa-2bd3-4696-b46b-ffe4fc8bf41c","system_id":"levelo_inurba_marseille","lat":43.275625,"lon":5.384392,"is_reserved":false,"is_disabled":false,"rental_uris":{"android":"levelo://app?vid=ef3344aa-2bd3-4696-b46b-ffe4fc8bf41c","ios":"levelo://app?vid=ef3344aa-2bd3-4696-b46b-ffe4fc8bf41c"},"vehicle_type_id":"4","last_reported":1701986818,"current_range_meters":7600,"station_id":"ce4bhh92rcd13ifvqfi0","pricing_plan_id":"free"},{"bike_id":"ac48d04c-c813-4dcb-8013-15216c7aa7de","system_id":"levelo_inurba_marseille","lat":43.340804,"lon":5.410219,"is_reserved":false,"is_disabled":false,"rental_uris":{"android":"levelo://app?vid=ac48d04c-c813-4dcb-8013-15216c7aa7de","ios":"levelo://app?vid=ac48d04c-c813-4dcb-8013-15216c7aa7de"},"vehicle_type_id":"4","last_reported":1701986818,"current_range_meters":18400,"station_id":"ce4bhqh2rcd13ifvqhlg","pricing_plan_id":"free"},{"bike_id":"e7e35992-3a3d-448e-9a9c-48870975c082","system_id":"levelo_inurba_marseille","lat":43.340804,"lon":5.410219,"is_reserved":false,"is_disabled":false,"rental_uris":{"android":"levelo://app?vid=e7e35992-3a3d-448e-9a9c-48870975c082","ios":"levelo://app?vid=e7e35992-3a3d-448e-9a9c-48870975c082"},"vehicle_type_id":"4","last_reported":1701986818,"current_range_meters":27600,"station_id":"ce4bhqh2rcd13ifvqhlg","pricing_plan_id":"free"},{"bike_id":"61bb0224-965f-4c21-a250-31b9bd6bed1d","system_id":"levelo_inurba_marseille","lat":43.27321,"lon":5.39101,"is_reserved":false,"is_disabled":false,"rental_uris":{"android":"levelo://app?vid=61bb0224-965f-4c21-a250-31b9bd6bed1d","ios":"levelo://app?vid=61bb0224-965f-4c21-a250-31b9bd6bed1d"},"vehicle_type_id":"4","last_reported":1701986818,"current_range_meters":5600,"station_id":"ce4bhgp2rcd13ifvqfe0","pricing_plan_id":"free"},{"bike_id":"e3075fcd-346f-410c-a96d-aca2f86f78f0","system_id":"levelo_inurba_marseille","lat":43.274103,"lon":5.394016,"is_reserved":false,"is_disabled":false,"rental_uris":{"android":"levelo://app?vid=e3075fcd-346f-410c-a96d-aca2f86f78f0","ios":"levelo://app?vid=e3075fcd-346f-410c-a96d-aca2f86f78f0"},"vehicle_type_id":"4","last_reported":1701986818,"current_range_meters":25600,"station_id":"ce4bhdp2rcd13ifvqf20","pricing_plan_id":"free"},{"bike_id":"77e2df1b-d75a-48fe-a6ad-744dfbe91f1d","system_id":"levelo_inurba_marseille","lat":43.27214,"lon":5.3925,"is_reserved":false,"is_disabled":false,"rental_uris":{"android":"levelo://app?vid=77e2df1b-d75a-48fe-a6ad-744dfbe91f1d","ios":"levelo://app?vid=77e2df1b-d75a-48fe-a6ad-744dfbe91f1d"},"vehicle_type_id":"4","last_reported":1701986818,"current_range_meters":8000,"station_id":"","pricing_plan_id":"free"},{"bike_id":"8b31974b-a6d6-4174-94cf-24462dd4f80b","system_id":"levelo_inurba_marseille","lat":43.278128,"lon":5.407195,"is_reserved":false,"is_disabled":false,"rental_uris":{"android":"levelo://app?vid=8b31974b-a6d6-4174-94cf-24462dd4f80b","ios":"levelo://app?vid=8b31974b-a6d6-4174-94cf-24462dd4f80b"},"vehicle_type_id":"4","last_reported":1701986818,"current_range_meters":6000,"station_id":"ce4bhnh2rcd13ifvqgtg","pricing_plan_id":"free"},{"bike_id":"2eb7b164-467e-49b0-a554-29c177f95c2a","system_id":"levelo_inurba_marseille","lat":43.2781,"lon":5.40708,"is_reserved":false,"is_disabled":false,"rental_uris":{"android":"levelo://app?vid=2eb7b164-467e-49b0-a554-29c177f95c2a","ios":"levelo://app?vid=2eb7b164-467e-49b0-a554-29c177f95c2a"},"vehicle_type_id":"4","last_reported":1701986818,"current_range_meters":16400,"station_id":"ce4bhnh2rcd13ifvqgtg","pricing_plan_id":"free"},{"bike_id":"507fa7b2-2766-4bb9-8380-8e4477bc99ac","system_id":"levelo_inurba_marseille","lat":43.278128,"lon":5.407195,"is_reserved":false,"is_disabled":false,"rental_uris":{"android":"levelo://app?vid=507fa7b2-2766-4bb9-8380-8e4477bc99ac","ios":"levelo://app?vid=507fa7b2-2766-4bb9-8380-8e4477bc99ac"},"vehicle_type_id":"4","last_reported":1701986818,"current_range_meters":4400,"station_id":"ce4bhnh2rcd13ifvqgtg","pricing_plan_id":"free"},{"bike_id":"8e3ed466-32b5-40fb-9e63-efc51e8e36c0","system_id":"levelo_inurba_marseille","lat":43.278128,"lon":5.407195,"is_reserved":false,"is_disabled":false,"rental_uris":{"android":"levelo://app?vid=8e3ed466-32b5-40fb-9e63-efc51e8e36c0","ios":"levelo://app?vid=8e3ed466-32b5-40fb-9e63-efc51e8e36c0"},"vehicle_type_id":"4","last_reported":1701986818,"current_range_meters":22400,"station_id":"ce4bhnh2rcd13ifvqgtg","pricing_plan_id":"free"},{"bike_id":"7b84562b-f023-458e-9f63-22f52b26a915","system_id":"levelo_inurba_marseille","lat":43.278128,"lon":5.407195,"is_reserved":false,"is_disabled":false,"rental_uris":{"android":"levelo://app?vid=7b84562b-f023-458e-9f63-22f52b26a915","ios":"levelo://app?vid=7b84562b-f023-458e-9f63-22f52b26a915"},"vehicle_type_id":"4","last_reported":1701986818,"current_range_meters":31200,"station_id":"ce4bhnh2rcd13ifvqgtg","pricing_plan_id":"free"},{"bike_id":"56e1faa4-f404-40c0-8c46-fdaefc68de0f","system_id":"levelo_inurba_marseille","lat":43.27946,"lon":5.41037,"is_reserved":false,"is_disabled":false,"rental_uris":{"android":"levelo://app?vid=56e1faa4-f404-40c0-8c46-fdaefc68de0f","ios":"levelo://app?vid=56e1faa4-f404-40c0-8c46-fdaefc68de0f"},"vehicle_type_id":"4","last_reported":1701986818,"current_range_meters":20400,"station_id":"ce4bhnp2rcd13ifvqh0g","pricing_plan_id":"free"},{"bike_id":"7c98996b-84bf-4cb7-a399-61f0c30c115d","system_id":"levelo_inurba_marseille","lat":43.27944,"lon":5.41038,"is_reserved":false,"is_disabled":false,"rental_uris":{"android":"levelo://app?vid=7c98996b-84bf-4cb7-a399-61f0c30c115d","ios":"levelo://app?vid=7c98996b-84bf-4cb7-a399-61f0c30c115d"},"vehicle_type_id":"4","last_reported":1701986818,"current_range_meters":16800,"station_id":"ce4bhnp2rcd13ifvqh0g","pricing_plan_id":"free"},{"bike_id":"3b7ae579-9a62-4391-a4bb-a12e03705875","system_id":"levelo_inurba_marseille","lat":43.27947,"lon":5.410465,"is_reserved":false,"is_disabled":false,"rental_uris":{"android":"levelo://app?vid=3b7ae579-9a62-4391-a4bb-a12e03705875","ios":"levelo://app?vid=3b7ae579-9a62-4391-a4bb-a12e03705875"},"vehicle_type_id":"4","last_reported":1701986818,"current_range_meters":16800,"station_id":"ce4bhnp2rcd13ifvqh0g","pricing_plan_id":"free"},{"bike_id":"7582634b-331e-48b7-ba6b-383c527989f4","system_id":"levelo_inurba_marseille","lat":43.269319,"lon":5.389397,"is_reserved":false,"is_disabled":false,"rental_uris":{"android":"levelo://app?vid=7582634b-331e-48b7-ba6b-383c527989f4","ios":"levelo://app?vid=7582634b-331e-48b7-ba6b-383c527989f4"},"vehicle_type_id":"4","last_reported":1701986818,"current_range_meters":17200,"station_id":"ce4bhhh2rcd13ifvqfl0","pricing_plan_id":"free"},{"bike_id":"dffd642e-6acf-43e9-84fd-33fa89f52c00","system_id":"levelo_inurba_marseille","lat":43.27902,"lon":5.41219,"is_reserved":false,"is_disabled":false,"rental_uris":{"android":"levelo://app?vid=dffd642e-6acf-43e9-84fd-33fa89f52c00","ios":"levelo://app?vid=dffd642e-6acf-43e9-84fd-33fa89f52c00"},"vehicle_type_id":"4","last_reported":1701986818,"current_range_meters":13600,"station_id":"","pricing_plan_id":"free"},{"bike_id":"c3e1a85a-f0ec-4402-aae7-a79f7120b679","system_id":"levelo_inurba_marseille","lat":43.26681,"lon":5.382694,"is_reserved":false,"is_disabled":false,"rental_uris":{"android":"levelo://app?vid=c3e1a85a-f0ec-4402-aae7-a79f7120b679","ios":"levelo://app?vid=c3e1a85a-f0ec-4402-aae7-a79f7120b679"},"vehicle_type_id":"4","last_reported":1701986818,"current_range_meters":29200,"station_id":"ce4bhg92rcd13ifvqf90","pricing_plan_id":"free"},{"bike_id":"5c62f0fe-2a68-4f0e-8c5e-1c3be35b64ff","system_id":"levelo_inurba_marseille","lat":43.29171,"lon":5.42786,"is_reserved":false,"is_disabled":false,"rental_uris":{"android":"levelo://app?vid=5c62f0fe-2a68-4f0e-8c5e-1c3be35b64ff","ios":"levelo://app?vid=5c62f0fe-2a68-4f0e-8c5e-1c3be35b64ff"},"vehicle_type_id":"4","last_reported":1701986818,"current_range_meters":13600,"station_id":"","pricing_plan_id":"free"},{"bike_id":"54a872c2-8d5d-4dfc-a41d-b6b52c171ee4","system_id":"levelo_inurba_marseille","lat":43.267966,"lon":5.393976,"is_reserved":false,"is_disabled":false,"rental_uris":{"android":"levelo://app?vid=54a872c2-8d5d-4dfc-a41d-b6b52c171ee4","ios":"levelo://app?vid=54a872c2-8d5d-4dfc-a41d-b6b52c171ee4"},"vehicle_type_id":"4","last_reported":1701986818,"current_range_meters":18400,"station_id":"ce4bhh12rcd13ifvqfg0","pricing_plan_id":"free"},{"bike_id":"3b1cd462-728f-44f1-b5cf-b3916b351ca9","system_id":"levelo_inurba_marseille","lat":43.308051,"lon":5.43527,"is_reserved":false,"is_disabled":false,"rental_uris":{"android":"levelo://app?vid=3b1cd462-728f-44f1-b5cf-b3916b351ca9","ios":"levelo://app?vid=3b1cd462-728f-44f1-b5cf-b3916b351ca9"},"vehicle_type_id":"4","last_reported":1701986818,"current_range_meters":8000,"station_id":"ce4bhph2rcd13ifvqheg","pricing_plan_id":"free"},{"bike_id":"9c166d58-4f4c-4cc4-92b0-a73f43b65e2c","system_id":"levelo_inurba_marseille","lat":43.2694,"lon":5.40254,"is_reserved":false,"is_disabled":false,"rental_uris":{"android":"levelo://app?vid=9c166d58-4f4c-4cc4-92b0-a73f43b65e2c","ios":"levelo://app?vid=9c166d58-4f4c-4cc4-92b0-a73f43b65e2c"},"vehicle_type_id":"4","last_reported":1701986818,"current_range_meters":12800,"station_id":"cjm6bp8fraef2m0cb0m0","pricing_plan_id":"free"},{"bike_id":"4ab17c24-bb98-44ee-a9d1-87a19aec2843","system_id":"levelo_inurba_marseille","lat":43.26942,"lon":5.40261,"is_reserved":false,"is_disabled":false,"rental_uris":{"android":"levelo://app?vid=4ab17c24-bb98-44ee-a9d1-87a19aec2843","ios":"levelo://app?vid=4ab17c24-bb98-44ee-a9d1-87a19aec2843"},"vehicle_type_id":"4","last_reported":1701986818,"current_range_meters":23200,"station_id":"cjm6bp8fraef2m0cb0m0","pricing_plan_id":"free"},{"bike_id":"f2e5d013-6edb-494d-8e09-78d711cf04a7","system_id":"levelo_inurba_marseille","lat":43.317104,"lon":5.436818,"is_reserved":false,"is_disabled":false,"rental_uris":{"android":"levelo://app?vid=f2e5d013-6edb-494d-8e09-78d711cf04a7","ios":"levelo://app?vid=f2e5d013-6edb-494d-8e09-78d711cf04a7"},"vehicle_type_id":"4","last_reported":1701986818,"current_range_meters":18800,"station_id":"ce4bhp92rcd13ifvqhcg","pricing_plan_id":"free"},{"bike_id":"d2ec8962-9e85-4cdd-9ded-420338983c94","system_id":"levelo_inurba_marseille","lat":43.26182,"lon":5.37444,"is_reserved":false,"is_disabled":false,"rental_uris":{"android":"levelo://app?vid=d2ec8962-9e85-4cdd-9ded-420338983c94","ios":"levelo://app?vid=d2ec8962-9e85-4cdd-9ded-420338983c94"},"vehicle_type_id":"4","last_reported":1701986818,"current_range_meters":14000,"station_id":"ce4bhgp2rcd13ifvqfc0","pricing_plan_id":"free"},{"bike_id":"837003b0-2b49-4f38-9ab9-fca5b462f5a3","system_id":"levelo_inurba_marseille","lat":43.26181,"lon":5.37444,"is_reserved":false,"is_disabled":false,"rental_uris":{"android":"levelo://app?vid=837003b0-2b49-4f38-9ab9-fca5b462f5a3","ios":"levelo://app?vid=837003b0-2b49-4f38-9ab9-fca5b462f5a3"},"vehicle_type_id":"4","last_reported":1701986818,"current_range_meters":28400,"station_id":"ce4bhgp2rcd13ifvqfc0","pricing_plan_id":"free"},{"bike_id":"b351af1f-10d3-4ab4-a43d-e8e87c37bc23","system_id":"levelo_inurba_marseille","lat":43.262012,"lon":5.379307,"is_reserved":false,"is_disabled":false,"rental_uris":{"android":"levelo://app?vid=b351af1f-10d3-4ab4-a43d-e8e87c37bc23","ios":"levelo://app?vid=b351af1f-10d3-4ab4-a43d-e8e87c37bc23"},"vehicle_type_id":"4","last_reported":1701986818,"current_range_meters":4800,"station_id":"ce4bhjp2rcd13ifvqg90","pricing_plan_id":"free"},{"bike_id":"c5bd1d69-a92d-4172-a7f3-6c88766eaa3a","system_id":"levelo_inurba_marseille","lat":43.271368,"lon":5.40928,"is_reserved":false,"is_disabled":false,"rental_uris":{"android":"levelo://app?vid=c5bd1d69-a92d-4172-a7f3-6c88766eaa3a","ios":"levelo://app?vid=c5bd1d69-a92d-4172-a7f3-6c88766eaa3a"},"vehicle_type_id":"4","last_reported":1701986818,"current_range_meters":8800,"station_id":"ce4bhl12rcd13ifvqgf0","pricing_plan_id":"free"},{"bike_id":"ed3d39e3-16d0-4193-b5f3-7d15fa62181e","system_id":"levelo_inurba_marseille","lat":43.262012,"lon":5.379307,"is_reserved":false,"is_disabled":false,"rental_uris":{"android":"levelo://app?vid=ed3d39e3-16d0-4193-b5f3-7d15fa62181e","ios":"levelo://app?vid=ed3d39e3-16d0-4193-b5f3-7d15fa62181e"},"vehicle_type_id":"4","last_reported":1701986818,"current_range_meters":28400,"station_id":"ce4bhjp2rcd13ifvqg90","pricing_plan_id":"free"},{"bike_id":"50b57549-b3da-4393-86c8-d9ab04bd4183","system_id":"levelo_inurba_marseille","lat":43.26202,"lon":5.379299,"is_reserved":false,"is_disabled":false,"rental_uris":{"android":"levelo://app?vid=50b57549-b3da-4393-86c8-d9ab04bd4183","ios":"levelo://app?vid=50b57549-b3da-4393-86c8-d9ab04bd4183"},"vehicle_type_id":"4","last_reported":1701986818,"current_range_meters":24400,"station_id":"ce4bhjp2rcd13ifvqg90","pricing_plan_id":"free"},{"bike_id":"007df34f-7724-4dff-aa9a-49c212a14799","system_id":"levelo_inurba_marseille","lat":43.271368,"lon":5.40928,"is_reserved":false,"is_disabled":false,"rental_uris":{"android":"levelo://app?vid=007df34f-7724-4dff-aa9a-49c212a14799","ios":"levelo://app?vid=007df34f-7724-4dff-aa9a-49c212a14799"},"vehicle_type_id":"4","last_reported":1701986818,"current_range_meters":10000,"station_id":"ce4bhl12rcd13ifvqgf0","pricing_plan_id":"free"},{"bike_id":"8a8bc4d6-0029-4fbf-9728-a692a0316877","system_id":"levelo_inurba_marseille","lat":43.27438,"lon":5.41504,"is_reserved":false,"is_disabled":false,"rental_uris":{"android":"levelo://app?vid=8a8bc4d6-0029-4fbf-9728-a692a0316877","ios":"levelo://app?vid=8a8bc4d6-0029-4fbf-9728-a692a0316877"},"vehicle_type_id":"4","last_reported":1701986818,"current_range_meters":2400,"station_id":"","pricing_plan_id":"free"},{"bike_id":"ca4db8a8-5b98-4b78-bc3d-514f38028a3d","system_id":"levelo_inurba_marseille","lat":43.298768,"lon":5.43643,"is_reserved":false,"is_disabled":false,"rental_uris":{"android":"levelo://app?vid=ca4db8a8-5b98-4b78-bc3d-514f38028a3d","ios":"levelo://app?vid=ca4db8a8-5b98-4b78-bc3d-514f38028a3d"},"vehicle_type_id":"4","last_reported":1701986818,"current_range_meters":30400,"station_id":"ce4bhpp2rcd13ifvqhfg","pricing_plan_id":"free"},{"bike_id":"4f68f183-a711-4386-a731-e8ea8e2f115e","system_id":"levelo_inurba_marseille","lat":43.298768,"lon":5.43643,"is_reserved":false,"is_disabled":false,"rental_uris":{"android":"levelo://app?vid=4f68f183-a711-4386-a731-e8ea8e2f115e","ios":"levelo://app?vid=4f68f183-a711-4386-a731-e8ea8e2f115e"},"vehicle_type_id":"4","last_reported":1701986818,"current_range_meters":26400,"station_id":"ce4bhpp2rcd13ifvqhfg","pricing_plan_id":"free"},{"bike_id":"83e2018e-7127-4415-8bbf-2e347a9c6750","system_id":"levelo_inurba_marseille","lat":43.298959,"lon":5.436618,"is_reserved":false,"is_disabled":false,"rental_uris":{"android":"levelo://app?vid=83e2018e-7127-4415-8bbf-2e347a9c6750","ios":"levelo://app?vid=83e2018e-7127-4415-8bbf-2e347a9c6750"},"vehicle_type_id":"4","last_reported":1701986818,"current_range_meters":6400,"station_id":"ce4bhpp2rcd13ifvqhfg","pricing_plan_id":"free"},{"bike_id":"0a3af9fe-4495-4765-a364-07e789cdace4","system_id":"levelo_inurba_marseille","lat":43.298768,"lon":5.43643,"is_reserved":false,"is_disabled":false,"rental_uris":{"android":"levelo://app?vid=0a3af9fe-4495-4765-a364-07e789cdace4","ios":"levelo://app?vid=0a3af9fe-4495-4765-a364-07e789cdace4"},"vehicle_type_id":"4","last_reported":1701986818,"current_range_meters":28800,"station_id":"ce4bhpp2rcd13ifvqhfg","pricing_plan_id":"free"},{"bike_id":"81e4ce4f-798f-4faa-b87d-f1187fb850ed","system_id":"levelo_inurba_marseille","lat":43.281548,"lon":5.42643,"is_reserved":false,"is_disabled":false,"rental_uris":{"android":"levelo://app?vid=81e4ce4f-798f-4faa-b87d-f1187fb850ed","ios":"levelo://app?vid=81e4ce4f-798f-4faa-b87d-f1187fb850ed"},"vehicle_type_id":"4","last_reported":1701986818,"current_range_meters":22400,"station_id":"ce4bhnh2rcd13ifvqgug","pricing_plan_id":"free"},{"bike_id":"fee59bde-6126-4a98-a3e0-c862515d1a23","system_id":"levelo_inurba_marseille","lat":43.281548,"lon":5.42643,"is_reserved":false,"is_disabled":false,"rental_uris":{"android":"levelo://app?vid=fee59bde-6126-4a98-a3e0-c862515d1a23","ios":"levelo://app?vid=fee59bde-6126-4a98-a3e0-c862515d1a23"},"vehicle_type_id":"4","last_reported":1701986818,"current_range_meters":28800,"station_id":"ce4bhnh2rcd13ifvqgug","pricing_plan_id":"free"},{"bike_id":"6c4a4127-c4de-4571-99d2-c4e93580765c","system_id":"levelo_inurba_marseille","lat":43.281548,"lon":5.42643,"is_reserved":false,"is_disabled":false,"rental_uris":{"android":"levelo://app?vid=6c4a4127-c4de-4571-99d2-c4e93580765c","ios":"levelo://app?vid=6c4a4127-c4de-4571-99d2-c4e93580765c"},"vehicle_type_id":"4","last_reported":1701986818,"current_range_meters":24400,"station_id":"ce4bhnh2rcd13ifvqgug","pricing_plan_id":"free"},{"bike_id":"ba7ddf79-ff50-4f5c-8fc6-82d165f47152","system_id":"levelo_inurba_marseille","lat":43.28156,"lon":5.42655,"is_reserved":false,"is_disabled":false,"rental_uris":{"android":"levelo://app?vid=ba7ddf79-ff50-4f5c-8fc6-82d165f47152","ios":"levelo://app?vid=ba7ddf79-ff50-4f5c-8fc6-82d165f47152"},"vehicle_type_id":"4","last_reported":1701986818,"current_range_meters":6400,"station_id":"ce4bhnh2rcd13ifvqgug","pricing_plan_id":"free"},{"bike_id":"9e2f9286-5e34-44f1-a6f3-6024bb861c7a","system_id":"levelo_inurba_marseille","lat":43.258224,"lon":5.394369,"is_reserved":false,"is_disabled":false,"rental_uris":{"android":"levelo://app?vid=9e2f9286-5e34-44f1-a6f3-6024bb861c7a","ios":"levelo://app?vid=9e2f9286-5e34-44f1-a6f3-6024bb861c7a"},"vehicle_type_id":"4","last_reported":1701986818,"current_range_meters":8800,"station_id":"ce4bhip2rcd13ifvqft0","pricing_plan_id":"free"},{"bike_id":"1aa8b663-7302-4e11-9288-674d603dc997","system_id":"levelo_inurba_marseille","lat":43.258224,"lon":5.394369,"is_reserved":false,"is_disabled":false,"rental_uris":{"android":"levelo://app?vid=1aa8b663-7302-4e11-9288-674d603dc997","ios":"levelo://app?vid=1aa8b663-7302-4e11-9288-674d603dc997"},"vehicle_type_id":"4","last_reported":1701986818,"current_range_meters":0,"station_id":"ce4bhip2rcd13ifvqft0","pricing_plan_id":"free"},{"bike_id":"73dc9d83-7366-4cba-a66f-edab57dc1251","system_id":"levelo_inurba_marseille","lat":43.25933,"lon":5.40916,"is_reserved":false,"is_disabled":false,"rental_uris":{"android":"levelo://app?vid=73dc9d83-7366-4cba-a66f-edab57dc1251","ios":"levelo://app?vid=73dc9d83-7366-4cba-a66f-edab57dc1251"},"vehicle_type_id":"4","last_reported":1701986818,"current_range_meters":400,"station_id":"ce4bhm92rcd13ifvqglg","pricing_plan_id":"free"},{"bike_id":"ea6f15d6-03ac-476d-a535-2e7d3b9eaeef","system_id":"levelo_inurba_marseille","lat":43.257079,"lon":5.411051,"is_reserved":false,"is_disabled":false,"rental_uris":{"android":"levelo://app?vid=ea6f15d6-03ac-476d-a535-2e7d3b9eaeef","ios":"levelo://app?vid=ea6f15d6-03ac-476d-a535-2e7d3b9eaeef"},"vehicle_type_id":"4","last_reported":1701986818,"current_range_meters":400,"station_id":"ce4bhkp2rcd13ifvqgd0","pricing_plan_id":"free"},{"bike_id":"5e28afdb-366a-4ee2-bf4c-72dd44305a45","system_id":"levelo_inurba_marseille","lat":43.257079,"lon":5.411051,"is_reserved":false,"is_disabled":false,"rental_uris":{"android":"levelo://app?vid=5e28afdb-366a-4ee2-bf4c-72dd44305a45","ios":"levelo://app?vid=5e28afdb-366a-4ee2-bf4c-72dd44305a45"},"vehicle_type_id":"4","last_reported":1701986818,"current_range_meters":14000,"station_id":"ce4bhkp2rcd13ifvqgd0","pricing_plan_id":"free"},{"bike_id":"ddf2951b-2b04-424f-9ef1-6d8217c9e48c","system_id":"levelo_inurba_marseille","lat":43.250009,"lon":5.389195,"is_reserved":false,"is_disabled":false,"rental_uris":{"android":"levelo://app?vid=ddf2951b-2b04-424f-9ef1-6d8217c9e48c","ios":"levelo://app?vid=ddf2951b-2b04-424f-9ef1-6d8217c9e48c"},"vehicle_type_id":"4","last_reported":1701986818,"current_range_meters":22400,"station_id":"ce4bhgp2rcd13ifvqfd0","pricing_plan_id":"free"},{"bike_id":"430e7c59-7257-45c0-9a36-bfaa9a147960","system_id":"levelo_inurba_marseille","lat":43.2479,"lon":5.374457,"is_reserved":false,"is_disabled":false,"rental_uris":{"android":"levelo://app?vid=430e7c59-7257-45c0-9a36-bfaa9a147960","ios":"levelo://app?vid=430e7c59-7257-45c0-9a36-bfaa9a147960"},"vehicle_type_id":"4","last_reported":1701986818,"current_range_meters":25600,"station_id":"ce4bhgh2rcd13ifvqfb0","pricing_plan_id":"free"},{"bike_id":"5d2ccc17-fc28-4bfa-bbef-893d88a59d6a","system_id":"levelo_inurba_marseille","lat":43.250966,"lon":5.395186,"is_reserved":false,"is_disabled":false,"rental_uris":{"android":"levelo://app?vid=5d2ccc17-fc28-4bfa-bbef-893d88a59d6a","ios":"levelo://app?vid=5d2ccc17-fc28-4bfa-bbef-893d88a59d6a"},"vehicle_type_id":"4","last_reported":1701986818,"current_range_meters":0,"station_id":"ce4bhm12rcd13ifvqgkg","pricing_plan_id":"free"},{"bike_id":"a9ec3d81-27a1-4b73-89c9-916b572e4e8d","system_id":"levelo_inurba_marseille","lat":43.250966,"lon":5.395186,"is_reserved":false,"is_disabled":false,"rental_uris":{"android":"levelo://app?vid=a9ec3d81-27a1-4b73-89c9-916b572e4e8d","ios":"levelo://app?vid=a9ec3d81-27a1-4b73-89c9-916b572e4e8d"},"vehicle_type_id":"4","last_reported":1701986818,"current_range_meters":1600,"station_id":"ce4bhm12rcd13ifvqgkg","pricing_plan_id":"free"},{"bike_id":"09ca0e3d-8993-4c85-ba97-10ce4be56981","system_id":"levelo_inurba_marseille","lat":43.25102,"lon":5.403214,"is_reserved":false,"is_disabled":false,"rental_uris":{"android":"levelo://app?vid=09ca0e3d-8993-4c85-ba97-10ce4be56981","ios":"levelo://app?vid=09ca0e3d-8993-4c85-ba97-10ce4be56981"},"vehicle_type_id":"4","last_reported":1701986818,"current_range_meters":15200,"station_id":"ce4bhlh2rcd13ifvqgig","pricing_plan_id":"free"},{"bike_id":"5687050d-4f5d-4497-8e79-c625c38b49e9","system_id":"levelo_inurba_marseille","lat":43.25102,"lon":5.403214,"is_reserved":false,"is_disabled":false,"rental_uris":{"android":"levelo://app?vid=5687050d-4f5d-4497-8e79-c625c38b49e9","ios":"levelo://app?vid=5687050d-4f5d-4497-8e79-c625c38b49e9"},"vehicle_type_id":"4","last_reported":1701986818,"current_range_meters":2800,"station_id":"ce4bhlh2rcd13ifvqgig","pricing_plan_id":"free"},{"bike_id":"c7303482-c17d-43b2-a7e0-2e7052a872dd","system_id":"levelo_inurba_marseille","lat":43.25102,"lon":5.403214,"is_reserved":false,"is_disabled":false,"rental_uris":{"android":"levelo://app?vid=c7303482-c17d-43b2-a7e0-2e7052a872dd","ios":"levelo://app?vid=c7303482-c17d-43b2-a7e0-2e7052a872dd"},"vehicle_type_id":"4","last_reported":1701986818,"current_range_meters":27600,"station_id":"ce4bhlh2rcd13ifvqgig","pricing_plan_id":"free"},{"bike_id":"f7f51e6e-9c15-46fe-b836-b68a20a1226c","system_id":"levelo_inurba_marseille","lat":43.243884,"lon":5.370736,"is_reserved":false,"is_disabled":false,"rental_uris":{"android":"levelo://app?vid=f7f51e6e-9c15-46fe-b836-b68a20a1226c","ios":"levelo://app?vid=f7f51e6e-9c15-46fe-b836-b68a20a1226c"},"vehicle_type_id":"4","last_reported":1701986818,"current_range_meters":26400,"station_id":"ce4bhhh2rcd13ifvqfk0","pricing_plan_id":"free"},{"bike_id":"a7292fcb-39d7-4f0e-a527-a2b413cdcb9d","system_id":"levelo_inurba_marseille","lat":43.245581,"lon":5.395069,"is_reserved":false,"is_disabled":false,"rental_uris":{"android":"levelo://app?vid=a7292fcb-39d7-4f0e-a527-a2b413cdcb9d","ios":"levelo://app?vid=a7292fcb-39d7-4f0e-a527-a2b413cdcb9d"},"vehicle_type_id":"4","last_reported":1701986818,"current_range_meters":24400,"station_id":"ce4bhlp2rcd13ifvqgjg","pricing_plan_id":"free"},{"bike_id":"2f056394-a08e-4cc5-a179-5bd62c626144","system_id":"levelo_inurba_marseille","lat":43.240623,"lon":5.377642,"is_reserved":false,"is_disabled":false,"rental_uris":{"android":"levelo://app?vid=2f056394-a08e-4cc5-a179-5bd62c626144","ios":"levelo://app?vid=2f056394-a08e-4cc5-a179-5bd62c626144"},"vehicle_type_id":"4","last_reported":1701986818,"current_range_meters":10800,"station_id":"ce4bhnp2rcd13ifvqgvg","pricing_plan_id":"free"},{"bike_id":"8b59b500-ecc8-4962-8958-689a83bb1e67","system_id":"levelo_inurba_marseille","lat":43.240623,"lon":5.377642,"is_reserved":false,"is_disabled":false,"rental_uris":{"android":"levelo://app?vid=8b59b500-ecc8-4962-8958-689a83bb1e67","ios":"levelo://app?vid=8b59b500-ecc8-4962-8958-689a83bb1e67"},"vehicle_type_id":"4","last_reported":1701986818,"current_range_meters":30400,"station_id":"ce4bhnp2rcd13ifvqgvg","pricing_plan_id":"free"},{"bike_id":"6d82a544-a3b0-4d5e-a3a6-f2d5528df140","system_id":"levelo_inurba_marseille","lat":43.240623,"lon":5.377642,"is_reserved":false,"is_disabled":false,"rental_uris":{"android":"levelo://app?vid=6d82a544-a3b0-4d5e-a3a6-f2d5528df140","ios":"levelo://app?vid=6d82a544-a3b0-4d5e-a3a6-f2d5528df140"},"vehicle_type_id":"4","last_reported":1701986818,"current_range_meters":30000,"station_id":"ce4bhnp2rcd13ifvqgvg","pricing_plan_id":"free"},{"bike_id":"7ece5855-fe49-46dd-ba3f-2d015925612a","system_id":"levelo_inurba_marseille","lat":43.239588,"lon":5.366238,"is_reserved":false,"is_disabled":false,"rental_uris":{"android":"levelo://app?vid=7ece5855-fe49-46dd-ba3f-2d015925612a","ios":"levelo://app?vid=7ece5855-fe49-46dd-ba3f-2d015925612a"},"vehicle_type_id":"4","last_reported":1701986818,"current_range_meters":30000,"station_id":"ce4bhi12rcd13ifvqfp0","pricing_plan_id":"free"},{"bike_id":"f783bc5f-fe0d-4beb-a11a-942c585a0037","system_id":"levelo_inurba_marseille","lat":43.231919,"lon":5.355532,"is_reserved":false,"is_disabled":false,"rental_uris":{"android":"levelo://app?vid=f783bc5f-fe0d-4beb-a11a-942c585a0037","ios":"levelo://app?vid=f783bc5f-fe0d-4beb-a11a-942c585a0037"},"vehicle_type_id":"4","last_reported":1701986818,"current_range_meters":2400,"station_id":"ce4bhu92rcd13ifvqi70","pricing_plan_id":"free"},{"bike_id":"7fb0f437-2534-4c82-a071-a834d78df9bc","system_id":"levelo_inurba_marseille","lat":43.231919,"lon":5.355532,"is_reserved":false,"is_disabled":false,"rental_uris":{"android":"levelo://app?vid=7fb0f437-2534-4c82-a071-a834d78df9bc","ios":"levelo://app?vid=7fb0f437-2534-4c82-a071-a834d78df9bc"},"vehicle_type_id":"4","last_reported":1701986818,"current_range_meters":0,"station_id":"ce4bhu92rcd13ifvqi70","pricing_plan_id":"free"},{"bike_id":"db8ee247-5c27-465c-9667-2bac338a063a","system_id":"levelo_inurba_marseille","lat":43.231794,"lon":5.400052,"is_reserved":false,"is_disabled":false,"rental_uris":{"android":"levelo://app?vid=db8ee247-5c27-465c-9667-2bac338a063a","ios":"levelo://app?vid=db8ee247-5c27-465c-9667-2bac338a063a"},"vehicle_type_id":"4","last_reported":1701986818,"current_range_meters":20400,"station_id":"ce4bhn12rcd13ifvqgqg","pricing_plan_id":"free"},{"bike_id":"6c4620c0-0d4d-493f-9950-4fd3c4457696","system_id":"levelo_inurba_marseille","lat":43.231794,"lon":5.400052,"is_reserved":false,"is_disabled":false,"rental_uris":{"android":"levelo://app?vid=6c4620c0-0d4d-493f-9950-4fd3c4457696","ios":"levelo://app?vid=6c4620c0-0d4d-493f-9950-4fd3c4457696"},"vehicle_type_id":"4","last_reported":1701986818,"current_range_meters":31200,"station_id":"ce4bhn12rcd13ifvqgqg","pricing_plan_id":"free"},{"bike_id":"be845917-f52e-4a9f-83ff-909546a09332","system_id":"levelo_inurba_marseille","lat":43.231794,"lon":5.400052,"is_reserved":false,"is_disabled":false,"rental_uris":{"android":"levelo://app?vid=be845917-f52e-4a9f-83ff-909546a09332","ios":"levelo://app?vid=be845917-f52e-4a9f-83ff-909546a09332"},"vehicle_type_id":"4","last_reported":1701986818,"current_range_meters":31200,"station_id":"ce4bhn12rcd13ifvqgqg","pricing_plan_id":"free"},{"bike_id":"51bd0e75-103f-4c34-a127-bc9329dc93a4","system_id":"levelo_inurba_marseille","lat":43.231794,"lon":5.400052,"is_reserved":false,"is_disabled":false,"rental_uris":{"android":"levelo://app?vid=51bd0e75-103f-4c34-a127-bc9329dc93a4","ios":"levelo://app?vid=51bd0e75-103f-4c34-a127-bc9329dc93a4"},"vehicle_type_id":"4","last_reported":1701986818,"current_range_meters":14800,"station_id":"ce4bhn12rcd13ifvqgqg","pricing_plan_id":"free"}]}}