{"last_updated":1751033408,"ttl":60,"version":"2.2","data":{"bikes":[{"bike_id":"3da29fb8-fc97-44c6-b9ac-31dd456b2fd4","system_id":"levelo_inurba_marseille","lat":43.33771,"lon":5.37424,"is_reserved":false,"is_disabled":true,"rental_uris":{"android":"levelo://app?vid=3da29fb8-fc97-44c6-b9ac-31dd456b2fd4","ios":"levelo://app?vid=3da29fb8-fc97-44c6-b9ac-31dd456b2fd4"},"vehicle_type_id":"4","last_reported":1751033408,"current_range_meters":0,"station_id":"","pricing_plan_id":"cebpf4jnsgd1na2vs0mg"},{"bike_id":"01861ad8-a8d7-4be6-816e-651927c87584","system_id":"levelo_inurba_marseille","lat":43.33751,"lon":5.37456,"is_reserved":false,"is_disabled":true,"rental_uris":{"android":"levelo://app?vid=01861ad8-a8d7-4be6-816e-651927c87584","ios":"levelo://app?vid=01861ad8-a8d7-4be6-816e-651927c87584"},"vehicle_type_id":"4","last_reported":1751033408,"current_range_meters":0,"station_id":"","pricing_plan_id":"cebpf4jnsgd1na2vs0mg"},{"bike_id":"a147e67d-e0b1-425e-bbda-ae9524df353e","system_id":"levelo_inurba_marseille","lat":43.337541,"lon":5.374577,"is_reserved":false,"is_disabled":true,"rental_uris":{"android":"levelo://app?vid=a147e67d-e0b1-425e-bbda-ae9524df353e","ios":"levelo://app?vid=a147e67d-e0b1-425e-bbda-ae9524df353e"},"vehicle_type_id":"4","last_reported":1751033408,"current_range_meters":0,"station_id":"","pricing_plan_id":"cebpf4jnsgd1na2vs0mg"},{"bike_id":"d7ab0e84-3bbe-4115-b0ab-ab05a5f13dfd","system_id":"levelo_inurba_marseille","lat":43.33038,"lon":5.41047,"is_reserved":false,"is_disabled":true,"rental_uris":{"android":"levelo://app?vid=d7ab0e84-3bbe-4115-b0ab-ab05a5f13dfd","ios":"levelo://app?vid=d7ab0e84-3bbe-4115-b0ab-ab05a5f13dfd"},"vehicle_type_id":"4","last_reported":1751033408,"current_range_meters":0,"station_id":"","pricing_plan_id":"cebpf4jnsgd1na2vs0mg"},{"bike_id":"2c5ab5ef-6e3c-47bf-9405-4e96ff645858","system_id":"levelo_inurba_marseille","lat":43.34021,"lon":5.42903,"is_reserved":false,"is_disabled":true,"rental_uris":{"android":"levelo://app?vid=2c5ab5ef-6e3c-47bf-9405-4e96ff645858","ios":"levelo://app?vid=2c5ab5ef-6e3c-47bf-9405-4e96ff645858"},"vehicle_type_id":"4","last_reported":1751033408,"current_range_meters":0,"station_id":"","pricing_plan_id":"cebpf4jnsgd1na2vs0mg"},{"bike_id":"67a5051a-b32e-408a-8389-c22b54eb81f6","system_id":"levelo_inurba_marseille","lat":43.33029,"lon":5.45587,"is_reserved":false,"is_disabled":true,"rental_uris":{"android":"levelo://app?vid=67a5051a-b32e-408a-8389-c22b54eb81f6","ios":"levelo://app?vid=67a5051a-b32e-408a-8389-c22b54eb81f6"},"vehicle_type_id":"4","last_reported":1751033408,"current_range_meters":0,"station_id":"","pricing_plan_id":"cebpf4jnsgd1na2vs0mg"},{"bike_id":"4d064f95-6dcb-4234-9e98-7c70fbb74351","system_id":"levelo_inurba_marseille","lat":43.337444,"lon":5.374475,"is_reserved":false,"is_disabled":true,"rental_uris":{"android":"levelo://app?vid=4d064f95-6dcb-4234-9e98-7c70fbb74351","ios":"levelo://app?vid=4d064f95-6dcb-4234-9e98-7c70fbb74351"},"vehicle_type_id":"4","last_reported":1751033408,"current_range_meters":0,"station_id":"","pricing_plan_id":"cebpf4jnsgd1na2vs0mg"},{"bike_id":"446c66be-a677-44c2-9116-79a23398a824","system_id":"levelo_inurba_marseille","lat":43.27605,"lon":5.43194,"is_reserved":false,"is_disabled":true,"rental_uris":{"android":"levelo://app?vid=446c66be-a677-44c2-9116-79a23398a824","ios":"levelo://app?vid=446c66be-a677-44c2-9116-79a23398a824"},"vehicle_type_id":"4","last_reported":1751033408,"current_range_meters":0,"station_id":"","pricing_plan_id":"cebpf4jnsgd1na2vs0mg"},{"bike_id":"2315c627-494e-41a8-a12f-403d40de57ef","system_id":"levelo_inurba_marseille","lat":43.30129,"lon":5.40334,"is_reserved":false,"is_disabled":true,"rental_uris":{"android":"levelo://app?vid=2315c627-494e-41a8-a12f-403d40de57ef","ios":"levelo://app?vid=2315c627-494e-41a8-a12f-403d40de57ef"},"vehicle_type_id":"4","last_reported":1751033408,"current_range_meters":0,"station_id":"","pricing_plan_id":"cebpf4jnsgd1na2vs0mg"},{"bike_id":"d6609b4f-333b-43c1-9ebe-8726f5e76e88","system_id":"levelo_inurba_marseille","lat":43.337444,"lon":5.374475,"is_reserved":false,"is_disabled":true,"rental_uris":{"android":"levelo://app?vid=d6609b4f-333b-43c1-9ebe-8726f5e76e88","ios":"levelo://app?vid=d6609b4f-333b-43c1-9ebe-8726f5e76e88"},"vehicle_type_id":"4","last_reported":1751033408,"current_range_meters":0,"station_id":"","pricing_plan_id":"cebpf4jnsgd1na2vs0mg"},{"bike_id":"14903f35-1eaf-4a5d-86c3-23007b361999","system_id":"levelo_inurba_marseille","lat":43.27064,"lon":5.42274,"is_reserved":false,"is_disabled":true,"rental_uris":{"android":"levelo://app?vid=14903f35-1eaf-4a5d-86c3-23007b361999","ios":"levelo://app?vid=14903f35-1eaf-4a5d-86c3-23007b361999"},"vehicle_type_id":"4","last_reported":1751033408,"current_range_meters":0,"station_id":"","pricing_plan_id":"cebpf4jnsgd1na2vs0mg"},{"bike_id":"bf027107-0fe5-47a2-8fef-6473f83bb647","system_id":"levelo_inurba_marseille","lat":43.32916,"lon":5.36412,"is_reserved":false,"is_disabled":true,"rental_uris":{"android":"levelo://app?vid=bf027107-0fe5-47a2-8fef-6473f83bb647","ios":"levelo://app?vid=bf027107-0fe5-47a2-8fef-6473f83bb647"},"vehicle_type_id":"4","last_reported":1751033408,"current_range_meters":0,"station_id":"","pricing_plan_id":"cebpf4jnsgd1na2vs0mg"},{"bike_id":"b17b6606-336a-4606-9b65-af139c49de26","system_id":"levelo_inurba_marseille","lat":43.25666,"lon":5.42718,"is_reserved":false,"is_disabled":true,"rental_uris":{"android":"levelo://app?vid=b17b6606-336a-4606-9b65-af139c49de26","ios":"levelo://app?vid=b17b6606-336a-4606-9b65-af139c49de26"},"vehicle_type_id":"4","last_reported":1751033408,"current_range_meters":0,"station_id":"","pricing_plan_id":"cebpf4jnsgd1na2vs0mg"},{"bike_id":"9d3724b1-0dc8-4689-9d6a-55005a9503cb","system_id":"levelo_inurba_marseille","lat":43.28606,"lon":5.42806,"is_reserved":false,"is_disabled":true,"rental_uris":{"android":"levelo://app?vid=9d3724b1-0dc8-4689-9d6a-55005a9503cb","ios":"levelo://app?vid=9d3724b1-0dc8-4689-9d6a-55005a9503cb"},"vehicle_type_id":"4","last_reported":1751033408,"current_range_meters":0,"station_id":"","pricing_plan_id":"cebpf4jnsgd1na2vs0mg"},{"bike_id":"ce774a04-a4be-4eca-a30f-78eb921955bd","system_id":"levelo_inurba_marseille","lat":43.338663,"lon":5.355728,"is_reserved":false,"is_disabled":true,"rental_uris":{"android":"levelo://app?vid=ce774a04-a4be-4eca-a30f-78eb921955bd","ios":"levelo://app?vid=ce774a04-a4be-4eca-a30f-78eb921955bd"},"vehicle_type_id":"4","last_reported":1751033408,"current_range_meters":0,"station_id":"","pricing_plan_id":"cebpf4jnsgd1na2vs0mg"},{"bike_id":"d3927187-4c24-4136-8212-488c21e07e1d","system_id":"levelo_inurba_marseille","lat":43.29294,"lon":5.37182,"is_reserved":false,"is_disabled":true,"rental_uris":{"android":"levelo://app?vid=d3927187-4c24-4136-8212-488c21e07e1d","ios":"levelo://app?vid=d3927187-4c24-4136-8212-488c21e07e1d"},"vehicle_type_id":"4","last_reported":1751033408,"current_range_meters":0,"station_id":"ce4bgh92rcd13ifvqb40","pricing_plan_id":"cebpf4jnsgd1na2vs0mg"},{"bike_id":"dd61be76-5242-4885-9c92-84fc55987a3e","system_id":"levelo_inurba_marseille","lat":43.29597,"lon":5.38101,"is_reserved":false,"is_disabled":true,"rental_uris":{"android":"levelo://app?vid=dd61be76-5242-4885-9c92-84fc55987a3e","ios":"levelo://app?vid=dd61be76-5242-4885-9c92-84fc55987a3e"},"vehicle_type_id":"4","last_reported":1751033408,"current_range_meters":0,"station_id":"ce4bgl12rcd13ifvqbo0","pricing_plan_id":"cebpf4jnsgd1na2vs0mg"},{"bike_id":"71f9c342-7f40-49f2-9870-ae6f336254f1","system_id":"levelo_inurba_marseille","lat":43.29032,"lon":5.39982,"is_reserved":false,"is_disabled":true,"rental_uris":{"android":"levelo://app?vid=71f9c342-7f40-49f2-9870-ae6f336254f1","ios":"levelo://app?vid=71f9c342-7f40-49f2-9870-ae6f336254f1"},"vehicle_type_id":"4","last_reported":1751033408,"current_range_meters":0,"station_id":"ce4bh392rcd13ifvqdm0","pricing_plan_id":"cebpf4jnsgd1na2vs0mg"},{"bike_id":"10b45913-bca5-4606-bbb7-c67b78fb88df","system_id":"levelo_inurba_marseille","lat":43.28491,"lon":5.38544,"is_reserved":false,"is_disabled":true,"rental_uris":{"android":"levelo://app?vid=10b45913-bca5-4606-bbb7-c67b78fb88df","ios":"levelo://app?vid=10b45913-bca5-4606-bbb7-c67b78fb88df"},"vehicle_type_id":"4","last_reported":1751033408,"current_range_meters":0,"station_id":"ce4bh8p2rcd13ifvqeb0","pricing_plan_id":"cebpf4jnsgd1na2vs0mg"},{"bike_id":"15b87761-e98c-42a2-ae9b-8ceae4b41df0","system_id":"levelo_inurba_marseille","lat":43.28855,"lon":5.35851,"is_reserved":false,"is_disabled":true,"rental_uris":{"android":"levelo://app?vid=15b87761-e98c-42a2-ae9b-8ceae4b41df0","ios":"levelo://app?vid=15b87761-e98c-42a2-ae9b-8ceae4b41df0"},"vehicle_type_id":"4","last_reported":1751033408,"current_range_meters":0,"station_id":"ce4bhb12rcd13ifvqem0","pricing_plan_id":"cebpf4jnsgd1na2vs0mg"},{"bike_id":"8fe1f3e8-7eb6-49a6-a353-5f40b4ee42b6","system_id":"levelo_inurba_marseille","lat":43.29228,"lon":5.36054,"is_reserved":false,"is_disabled":true,"rental_uris":{"android":"levelo://app?vid=8fe1f3e8-7eb6-49a6-a353-5f40b4ee42b6","ios":"levelo://app?vid=8fe1f3e8-7eb6-49a6-a353-5f40b4ee42b6"},"vehicle_type_id":"4","last_reported":1751033408,"current_range_meters":0,"station_id":"ce4bhbh2rcd13ifvqeqg","pricing_plan_id":"cebpf4jnsgd1na2vs0mg"},{"bike_id":"ce978ad4-a39f-485c-a263-71d9898d7829","system_id":"levelo_inurba_marseille","lat":43.28617,"lon":5.35112,"is_reserved":false,"is_disabled":true,"rental_uris":{"android":"levelo://app?vid=ce978ad4-a39f-485c-a263-71d9898d7829","ios":"levelo://app?vid=ce978ad4-a39f-485c-a263-71d9898d7829"},"vehicle_type_id":"4","last_reported":1751033408,"current_range_meters":0,"station_id":"ce4bhch2rcd13ifvqeug","pricing_plan_id":"cebpf4jnsgd1na2vs0mg"},{"bike_id":"271a5da5-4035-470a-ba7c-aa58268e9930","system_id":"levelo_inurba_marseille","lat":43.21741,"lon":5.34606,"is_reserved":false,"is_disabled":true,"rental_uris":{"android":"levelo://app?vid=271a5da5-4035-470a-ba7c-aa58268e9930","ios":"levelo://app?vid=271a5da5-4035-470a-ba7c-aa58268e9930"},"vehicle_type_id":"4","last_reported":1751033408,"current_range_meters":0,"station_id":"ce4bhgh2rcd13ifvqfb0","pricing_plan_id":"cebpf4jnsgd1na2vs0mg"},{"bike_id":"20e4f874-adbc-40f6-a2bf-569411955939","system_id":"levelo_inurba_marseille","lat":43.2679,"lon":5.39411,"is_reserved":false,"is_disabled":true,"rental_uris":{"android":"levelo://app?vid=20e4f874-adbc-40f6-a2bf-569411955939","ios":"levelo://app?vid=20e4f874-adbc-40f6-a2bf-569411955939"},"vehicle_type_id":"4","last_reported":1751033408,"current_range_meters":0,"station_id":"ce4bhh12rcd13ifvqfg0","pricing_plan_id":"cebpf4jnsgd1na2vs0mg"},{"bike_id":"9431e6c3-3522-4f59-b298-51c831bc0a2c","system_id":"levelo_inurba_marseille","lat":43.26954,"lon":5.38631,"is_reserved":false,"is_disabled":true,"rental_uris":{"android":"levelo://app?vid=9431e6c3-3522-4f59-b298-51c831bc0a2c","ios":"levelo://app?vid=9431e6c3-3522-4f59-b298-51c831bc0a2c"},"vehicle_type_id":"4","last_reported":1751033408,"current_range_meters":0,"station_id":"ce4bhh92rcd13ifvqfh0","pricing_plan_id":"cebpf4jnsgd1na2vs0mg"},{"bike_id":"b1db417f-5bde-4e4b-8d2b-319905d7b686","system_id":"levelo_inurba_marseille","lat":43.25105,"lon":5.40337,"is_reserved":false,"is_disabled":true,"rental_uris":{"android":"levelo://app?vid=b1db417f-5bde-4e4b-8d2b-319905d7b686","ios":"levelo://app?vid=b1db417f-5bde-4e4b-8d2b-319905d7b686"},"vehicle_type_id":"4","last_reported":1751033408,"current_range_meters":0,"station_id":"ce4bhlh2rcd13ifvqgig","pricing_plan_id":"cebpf4jnsgd1na2vs0mg"},{"bike_id":"be0eb6d6-7d0b-434b-bfdf-dc812bd192cb","system_id":"levelo_inurba_marseille","lat":43.32358,"lon":5.36759,"is_reserved":false,"is_disabled":true,"rental_uris":{"android":"levelo://app?vid=be0eb6d6-7d0b-434b-bfdf-dc812bd192cb","ios":"levelo://app?vid=be0eb6d6-7d0b-434b-bfdf-dc812bd192cb"},"vehicle_type_id":"4","last_reported":1751033408,"current_range_meters":0,"station_id":"ce4bhsh2rcd13ifvqi2g","pricing_plan_id":"cebpf4jnsgd1na2vs0mg"},{"bike_id":"ae838b2e-74e1-4ab3-b3f8-d1208753850a","system_id":"levelo_inurba_marseille","lat":43.23188,"lon":5.35533,"is_reserved":false,"is_disabled":true,"rental_uris":{"android":"levelo://app?vid=ae838b2e-74e1-4ab3-b3f8-d1208753850a","ios":"levelo://app?vid=ae838b2e-74e1-4ab3-b3f8-d1208753850a"},"vehicle_type_id":"4","last_reported":1751033408,"current_range_meters":0,"station_id":"ce4bhu92rcd13ifvqi70","pricing_plan_id":"cebpf4jnsgd1na2vs0mg"},{"bike_id":"a1ae4fee-cbeb-43dc-a969-5827f87e448d","system_id":"levelo_inurba_marseille","lat":43.38402,"lon":5.36527,"is_reserved":false,"is_disabled":true,"rental_uris":{"android":"levelo://app?vid=a1ae4fee-cbeb-43dc-a969-5827f87e448d","ios":"levelo://app?vid=a1ae4fee-cbeb-43dc-a969-5827f87e448d"},"vehicle_type_id":"4","last_reported":1751033408,"current_range_meters":400,"station_id":"","pricing_plan_id":"cebpf4jnsgd1na2vs0mg"},{"bike_id":"0affcddd-58d0-4262-95bb-3840d92b9c9e","system_id":"levelo_inurba_marseille","lat":43.296,"lon":5.37726,"is_reserved":false,"is_disabled":true,"rental_uris":{"android":"levelo://app?vid=0affcddd-58d0-4262-95bb-3840d92b9c9e","ios":"levelo://app?vid=0affcddd-58d0-4262-95bb-3840d92b9c9e"},"vehicle_type_id":"4","last_reported":1751033408,"current_range_meters":400,"station_id":"ce4bgi92rcd13ifvqb90","pricing_plan_id":"cebpf4jnsgd1na2vs0mg"},{"bike_id":"3007d213-9868-4603-b5d1-fd45a506ca5a","system_id":"levelo_inurba_marseille","lat":43.29522,"lon":5.37499,"is_reserved":false,"is_disabled":true,"rental_uris":{"android":"levelo://app?vid=3007d213-9868-4603-b5d1-fd45a506ca5a","ios":"levelo://app?vid=3007d213-9868-4603-b5d1-fd45a506ca5a"},"vehicle_type_id":"4","last_reported":1751033408,"current_range_meters":400,"station_id":"ce4bgkp2rcd13ifvqbmg","pricing_plan_id":"cebpf4jnsgd1na2vs0mg"},{"bike_id":"1c2d98ce-6be6-4933-bfec-6a6d7b50fd7f","system_id":"levelo_inurba_marseille","lat":43.284094,"lon":5.349848,"is_reserved":false,"is_disabled":true,"rental_uris":{"android":"levelo://app?vid=1c2d98ce-6be6-4933-bfec-6a6d7b50fd7f","ios":"levelo://app?vid=1c2d98ce-6be6-4933-bfec-6a6d7b50fd7f"},"vehicle_type_id":"4","last_reported":1751033408,"current_range_meters":400,"station_id":"ce4bhbh2rcd13ifvqepg","pricing_plan_id":"cebpf4jnsgd1na2vs0mg"},{"bike_id":"fed1680d-f887-458f-a5fd-e3fdd34ed035","system_id":"levelo_inurba_marseille","lat":43.32665,"lon":5.4099,"is_reserved":false,"is_disabled":true,"rental_uris":{"android":"levelo://app?vid=fed1680d-f887-458f-a5fd-e3fdd34ed035","ios":"levelo://app?vid=fed1680d-f887-458f-a5fd-e3fdd34ed035"},"vehicle_type_id":"4","last_reported":1751033408,"current_range_meters":400,"station_id":"ce4bhpp2rcd13ifvqhgg","pricing_plan_id":"cebpf4jnsgd1na2vs0mg"},{"bike_id":"a75d4f69-38bf-4039-b046-6f30f16325af","system_id":"levelo_inurba_marseille","lat":43.34141,"lon":5.409,"is_reserved":false,"is_disabled":true,"rental_uris":{"android":"levelo://app?vid=a75d4f69-38bf-4039-b046-6f30f16325af","ios":"levelo://app?vid=a75d4f69-38bf-4039-b046-6f30f16325af"},"vehicle_type_id":"4","last_reported":1751033408,"current_range_meters":400,"station_id":"ce4bhqh2rcd13ifvqhlg","pricing_plan_id":"cebpf4jnsgd1na2vs0mg"},{"bike_id":"75b99ce5-98e2-480a-a889-073abbac7a3e","system_id":"levelo_inurba_marseille","lat":43.2932,"lon":5.37412,"is_reserved":false,"is_disabled":true,"rental_uris":{"android":"levelo://app?vid=75b99ce5-98e2-480a-a889-073abbac7a3e","ios":"levelo://app?vid=75b99ce5-98e2-480a-a889-073abbac7a3e"},"vehicle_type_id":"4","last_reported":1751033408,"current_range_meters":800,"station_id":"ce4bgi12rcd13ifvqb70","pricing_plan_id":"cebpf4jnsgd1na2vs0mg"},{"bike_id":"7253902b-c944-4da4-b5ab-0bb8b5af7535","system_id":"levelo_inurba_marseille","lat":43.29626,"lon":5.40595,"is_reserved":false,"is_disabled":true,"rental_uris":{"android":"levelo://app?vid=7253902b-c944-4da4-b5ab-0bb8b5af7535","ios":"levelo://app?vid=7253902b-c944-4da4-b5ab-0bb8b5af7535"},"vehicle_type_id":"4","last_reported":1751033408,"current_range_meters":800,"station_id":"ce4bh0h2rcd13ifvqd60","pricing_plan_id":"cebpf4jnsgd1na2vs0mg"},{"bike_id":"df3981c4-db46-4c68-b47f-4ca9e21b3d60","system_id":"levelo_inurba_marseille","lat":43.29884,"lon":5.38912,"is_reserved":false,"is_disabled":true,"rental_uris":{"android":"levelo://app?vid=df3981c4-db46-4c68-b47f-4ca9e21b3d60","ios":"levelo://app?vid=df3981c4-db46-4c68-b47f-4ca9e21b3d60"},"vehicle_type_id":"4","last_reported":1751033408,"current_range_meters":800,"station_id":"ce4bh392rcd13ifvqdl0","pricing_plan_id":"cebpf4jnsgd1na2vs0mg"},{"bike_id":"f99601b1-bc3c-4f11-9044-fb43a400927e","system_id":"levelo_inurba_marseille","lat":43.288483,"lon":5.358397,"is_reserved":false,"is_disabled":true,"rental_uris":{"android":"levelo://app?vid=f99601b1-bc3c-4f11-9044-fb43a400927e","ios":"levelo://app?vid=f99601b1-bc3c-4f11-9044-fb43a400927e"},"vehicle_type_id":"4","last_reported":1751033408,"current_range_meters":800,"station_id":"ce4bhb12rcd13ifvqem0","pricing_plan_id":"cebpf4jnsgd1na2vs0mg"},{"bike_id":"3bcb056d-77b9-4c1e-9972-570fa34052f6","system_id":"levelo_inurba_marseille","lat":43.241656,"lon":5.363912,"is_reserved":false,"is_disabled":false,"rental_uris":{"android":"levelo://app?vid=3bcb056d-77b9-4c1e-9972-570fa34052f6","ios":"levelo://app?vid=3bcb056d-77b9-4c1e-9972-570fa34052f6"},"vehicle_type_id":"4","last_reported":1751033408,"current_range_meters":800,"station_id":"cpo36qri1sfpv3e86is0","pricing_plan_id":"cebpf4jnsgd1na2vs0mg"},{"bike_id":"c6b35bab-0721-435b-aa82-453edb04b49b","system_id":"levelo_inurba_marseille","lat":43.29533,"lon":5.38537,"is_reserved":false,"is_disabled":true,"rental_uris":{"android":"levelo://app?vid=c6b35bab-0721-435b-aa82-453edb04b49b","ios":"levelo://app?vid=c6b35bab-0721-435b-aa82-453edb04b49b"},"vehicle_type_id":"4","last_reported":1751033408,"current_range_meters":1200,"station_id":"ce4bgih2rcd13ifvqba0","pricing_plan_id":"cebpf4jnsgd1na2vs0mg"},{"bike_id":"93fc7e3b-d618-4ebb-a824-980fe1a27e98","system_id":"levelo_inurba_marseille","lat":43.30296,"lon":5.39221,"is_reserved":false,"is_disabled":true,"rental_uris":{"android":"levelo://app?vid=93fc7e3b-d618-4ebb-a824-980fe1a27e98","ios":"levelo://app?vid=93fc7e3b-d618-4ebb-a824-980fe1a27e98"},"vehicle_type_id":"4","last_reported":1751033408,"current_range_meters":1200,"station_id":"ce4bgkh2rcd13ifvqbk0","pricing_plan_id":"cebpf4jnsgd1na2vs0mg"},{"bike_id":"63afe789-9367-440d-8695-6dbe7ac0e77b","system_id":"levelo_inurba_marseille","lat":43.30253,"lon":5.40077,"is_reserved":false,"is_disabled":true,"rental_uris":{"android":"levelo://app?vid=63afe789-9367-440d-8695-6dbe7ac0e77b","ios":"levelo://app?vid=63afe789-9367-440d-8695-6dbe7ac0e77b"},"vehicle_type_id":"4","last_reported":1751033408,"current_range_meters":1200,"station_id":"ce4bgvh2rcd13ifvqcs0","pricing_plan_id":"cebpf4jnsgd1na2vs0mg"},{"bike_id":"47bcb988-d4a3-4c5b-b861-f005f119c568","system_id":"levelo_inurba_marseille","lat":43.30203,"lon":5.39473,"is_reserved":false,"is_disabled":true,"rental_uris":{"android":"levelo://app?vid=47bcb988-d4a3-4c5b-b861-f005f119c568","ios":"levelo://app?vid=47bcb988-d4a3-4c5b-b861-f005f119c568"},"vehicle_type_id":"4","last_reported":1751033408,"current_range_meters":1200,"station_id":"ce4bh0p2rcd13ifvqd70","pricing_plan_id":"cebpf4jnsgd1na2vs0mg"},{"bike_id":"cacd41d0-dcec-47a6-8a0e-3f40ad367e45","system_id":"levelo_inurba_marseille","lat":43.28481,"lon":5.38554,"is_reserved":false,"is_disabled":true,"rental_uris":{"android":"levelo://app?vid=cacd41d0-dcec-47a6-8a0e-3f40ad367e45","ios":"levelo://app?vid=cacd41d0-dcec-47a6-8a0e-3f40ad367e45"},"vehicle_type_id":"4","last_reported":1751033408,"current_range_meters":1200,"station_id":"ce4bh8p2rcd13ifvqeb0","pricing_plan_id":"cebpf4jnsgd1na2vs0mg"},{"bike_id":"a29d3c73-b62e-48d9-bddc-f84527046c0c","system_id":"levelo_inurba_marseille","lat":43.24175,"lon":5.39719,"is_reserved":false,"is_disabled":true,"rental_uris":{"android":"levelo://app?vid=a29d3c73-b62e-48d9-bddc-f84527046c0c","ios":"levelo://app?vid=a29d3c73-b62e-48d9-bddc-f84527046c0c"},"vehicle_type_id":"4","last_reported":1751033408,"current_range_meters":1200,"station_id":"ce4bhn12rcd13ifvqgpg","pricing_plan_id":"cebpf4jnsgd1na2vs0mg"},{"bike_id":"66d75524-3330-43a5-961a-77b256cca145","system_id":"levelo_inurba_marseille","lat":43.29787,"lon":5.38096,"is_reserved":false,"is_disabled":true,"rental_uris":{"android":"levelo://app?vid=66d75524-3330-43a5-961a-77b256cca145","ios":"levelo://app?vid=66d75524-3330-43a5-961a-77b256cca145"},"vehicle_type_id":"4","last_reported":1751033408,"current_range_meters":1600,"station_id":"ce4bgip2rcd13ifvqbb0","pricing_plan_id":"cebpf4jnsgd1na2vs0mg"},{"bike_id":"e0d9db9a-976c-4c7a-9e56-709cac03fb56","system_id":"levelo_inurba_marseille","lat":43.28704,"lon":5.37391,"is_reserved":false,"is_disabled":true,"rental_uris":{"android":"levelo://app?vid=e0d9db9a-976c-4c7a-9e56-709cac03fb56","ios":"levelo://app?vid=e0d9db9a-976c-4c7a-9e56-709cac03fb56"},"vehicle_type_id":"4","last_reported":1751033408,"current_range_meters":1600,"station_id":"ce4bh3p2rcd13ifvqdq0","pricing_plan_id":"cebpf4jnsgd1na2vs0mg"},{"bike_id":"8ad7ec8d-5fe5-42cd-b004-f43cf574c47b","system_id":"levelo_inurba_marseille","lat":43.28483,"lon":5.38415,"is_reserved":false,"is_disabled":true,"rental_uris":{"android":"levelo://app?vid=8ad7ec8d-5fe5-42cd-b004-f43cf574c47b","ios":"levelo://app?vid=8ad7ec8d-5fe5-42cd-b004-f43cf574c47b"},"vehicle_type_id":"4","last_reported":1751033408,"current_range_meters":1600,"station_id":"ce4bh512rcd13ifvqe3g","pricing_plan_id":"cebpf4jnsgd1na2vs0mg"},{"bike_id":"70148024-c590-4dfb-97ce-2b8969c08b9a","system_id":"levelo_inurba_marseille","lat":43.28927,"lon":5.38405,"is_reserved":false,"is_disabled":true,"rental_uris":{"android":"levelo://app?vid=70148024-c590-4dfb-97ce-2b8969c08b9a","ios":"levelo://app?vid=70148024-c590-4dfb-97ce-2b8969c08b9a"},"vehicle_type_id":"4","last_reported":1751033408,"current_range_meters":1600,"station_id":"ce4bh612rcd13ifvqe6g","pricing_plan_id":"cebpf4jnsgd1na2vs0mg"},{"bike_id":"ecf2db81-448c-470c-aee5-61c8fc5a7f01","system_id":"levelo_inurba_marseille","lat":43.28977,"lon":5.37835,"is_reserved":false,"is_disabled":true,"rental_uris":{"android":"levelo://app?vid=ecf2db81-448c-470c-aee5-61c8fc5a7f01","ios":"levelo://app?vid=ecf2db81-448c-470c-aee5-61c8fc5a7f01"},"vehicle_type_id":"4","last_reported":1751033408,"current_range_meters":1600,"station_id":"ce4bh9p2rcd13ifvqed0","pricing_plan_id":"cebpf4jnsgd1na2vs0mg"},{"bike_id":"c07b1c11-656e-46a5-bd09-9f3931ab4465","system_id":"levelo_inurba_marseille","lat":43.28263,"lon":5.35055,"is_reserved":false,"is_disabled":true,"rental_uris":{"android":"levelo://app?vid=c07b1c11-656e-46a5-bd09-9f3931ab4465","ios":"levelo://app?vid=c07b1c11-656e-46a5-bd09-9f3931ab4465"},"vehicle_type_id":"4","last_reported":1751033408,"current_range_meters":1600,"station_id":"ce4bhbp2rcd13ifvqerg","pricing_plan_id":"cebpf4jnsgd1na2vs0mg"},{"bike_id":"64a4feee-ffc7-40e0-a71b-4b2b44b33d87","system_id":"levelo_inurba_marseille","lat":43.28615,"lon":5.35103,"is_reserved":false,"is_disabled":true,"rental_uris":{"android":"levelo://app?vid=64a4feee-ffc7-40e0-a71b-4b2b44b33d87","ios":"levelo://app?vid=64a4feee-ffc7-40e0-a71b-4b2b44b33d87"},"vehicle_type_id":"4","last_reported":1751033408,"current_range_meters":1600,"station_id":"ce4bhch2rcd13ifvqeug","pricing_plan_id":"cebpf4jnsgd1na2vs0mg"},{"bike_id":"3541c915-cc88-4338-9f58-bcd654b72385","system_id":"levelo_inurba_marseille","lat":43.27051,"lon":5.40266,"is_reserved":false,"is_disabled":false,"rental_uris":{"android":"levelo://app?vid=3541c915-cc88-4338-9f58-bcd654b72385","ios":"levelo://app?vid=3541c915-cc88-4338-9f58-bcd654b72385"},"vehicle_type_id":"4","last_reported":1751033408,"current_range_meters":1600,"station_id":"ce4bhk92rcd13ifvqgc0","pricing_plan_id":"cebpf4jnsgd1na2vs0mg"},{"bike_id":"a86d2f9f-83d8-4f17-8422-d08e982c4a2a","system_id":"levelo_inurba_marseille","lat":43.29753,"lon":5.44836,"is_reserved":false,"is_disabled":true,"rental_uris":{"android":"levelo://app?vid=a86d2f9f-83d8-4f17-8422-d08e982c4a2a","ios":"levelo://app?vid=a86d2f9f-83d8-4f17-8422-d08e982c4a2a"},"vehicle_type_id":"4","last_reported":1751033408,"current_range_meters":2000,"station_id":"","pricing_plan_id":"cebpf4jnsgd1na2vs0mg"},{"bike_id":"34f2dc8d-a1b6-4909-96d7-d0b34f3d34ae","system_id":"levelo_inurba_marseille","lat":43.30195,"lon":5.39472,"is_reserved":false,"is_disabled":true,"rental_uris":{"android":"levelo://app?vid=34f2dc8d-a1b6-4909-96d7-d0b34f3d34ae","ios":"levelo://app?vid=34f2dc8d-a1b6-4909-96d7-d0b34f3d34ae"},"vehicle_type_id":"4","last_reported":1751033408,"current_range_meters":2000,"station_id":"ce4bh0p2rcd13ifvqd70","pricing_plan_id":"cebpf4jnsgd1na2vs0mg"},{"bike_id":"d36fe63f-98fa-4983-ad95-f903ace42faf","system_id":"levelo_inurba_marseille","lat":43.28693,"lon":5.37405,"is_reserved":false,"is_disabled":true,"rental_uris":{"android":"levelo://app?vid=d36fe63f-98fa-4983-ad95-f903ace42faf","ios":"levelo://app?vid=d36fe63f-98fa-4983-ad95-f903ace42faf"},"vehicle_type_id":"4","last_reported":1751033408,"current_range_meters":2000,"station_id":"ce4bh3p2rcd13ifvqdq0","pricing_plan_id":"cebpf4jnsgd1na2vs0mg"},{"bike_id":"4a0fdc28-fe60-4b12-90f2-71e8e70c3738","system_id":"levelo_inurba_marseille","lat":43.28922,"lon":5.38384,"is_reserved":false,"is_disabled":true,"rental_uris":{"android":"levelo://app?vid=4a0fdc28-fe60-4b12-90f2-71e8e70c3738","ios":"levelo://app?vid=4a0fdc28-fe60-4b12-90f2-71e8e70c3738"},"vehicle_type_id":"4","last_reported":1751033408,"current_range_meters":2000,"station_id":"ce4bh612rcd13ifvqe6g","pricing_plan_id":"cebpf4jnsgd1na2vs0mg"},{"bike_id":"68f9ebbc-a0ff-4195-9762-5f672975ecc4","system_id":"levelo_inurba_marseille","lat":43.23966,"lon":5.36626,"is_reserved":false,"is_disabled":true,"rental_uris":{"android":"levelo://app?vid=68f9ebbc-a0ff-4195-9762-5f672975ecc4","ios":"levelo://app?vid=68f9ebbc-a0ff-4195-9762-5f672975ecc4"},"vehicle_type_id":"4","last_reported":1751033408,"current_range_meters":2000,"station_id":"ce4bhi12rcd13ifvqfp0","pricing_plan_id":"cebpf4jnsgd1na2vs0mg"},{"bike_id":"26a14eba-87a9-47b8-9607-30bd0042d428","system_id":"levelo_inurba_marseille","lat":43.314593,"lon":5.394359,"is_reserved":false,"is_disabled":false,"rental_uris":{"android":"levelo://app?vid=26a14eba-87a9-47b8-9607-30bd0042d428","ios":"levelo://app?vid=26a14eba-87a9-47b8-9607-30bd0042d428"},"vehicle_type_id":"4","last_reported":1751033408,"current_range_meters":2800,"station_id":"","pricing_plan_id":"cebpf4jnsgd1na2vs0mg"},{"bike_id":"3e5d0ae7-bac3-40ea-95d2-50ef1aae7bc7","system_id":"levelo_inurba_marseille","lat":43.26837,"lon":5.41569,"is_reserved":false,"is_disabled":false,"rental_uris":{"android":"levelo://app?vid=3e5d0ae7-bac3-40ea-95d2-50ef1aae7bc7","ios":"levelo://app?vid=3e5d0ae7-bac3-40ea-95d2-50ef1aae7bc7"},"vehicle_type_id":"4","last_reported":1751033408,"current_range_meters":2800,"station_id":"","pricing_plan_id":"cebpf4jnsgd1na2vs0mg"},{"bike_id":"2527627e-7d79-40e7-9d2c-593ecdab409d","system_id":"levelo_inurba_marseille","lat":43.29197,"lon":5.39322,"is_reserved":false,"is_disabled":false,"rental_uris":{"android":"levelo://app?vid=2527627e-7d79-40e7-9d2c-593ecdab409d","ios":"levelo://app?vid=2527627e-7d79-40e7-9d2c-593ecdab409d"},"vehicle_type_id":"4","last_reported":1751033408,"current_range_meters":2800,"station_id":"ce4bh192rcd13ifvqdd0","pricing_plan_id":"cebpf4jnsgd1na2vs0mg"},{"bike_id":"513716d1-c8db-4635-aebb-a33ebcdc456f","system_id":"levelo_inurba_marseille","lat":43.28105,"lon":5.3784,"is_reserved":false,"is_disabled":true,"rental_uris":{"android":"levelo://app?vid=513716d1-c8db-4635-aebb-a33ebcdc456f","ios":"levelo://app?vid=513716d1-c8db-4635-aebb-a33ebcdc456f"},"vehicle_type_id":"4","last_reported":1751033408,"current_range_meters":2800,"station_id":"ce4bha12rcd13ifvqee0","pricing_plan_id":"cebpf4jnsgd1na2vs0mg"},{"bike_id":"22005a57-d9e5-478a-ba72-6702e8c3e0df","system_id":"levelo_inurba_marseille","lat":43.28462,"lon":5.35881,"is_reserved":false,"is_disabled":false,"rental_uris":{"android":"levelo://app?vid=22005a57-d9e5-478a-ba72-6702e8c3e0df","ios":"levelo://app?vid=22005a57-d9e5-478a-ba72-6702e8c3e0df"},"vehicle_type_id":"4","last_reported":1751033408,"current_range_meters":2800,"station_id":"ce4bhah2rcd13ifvqei0","pricing_plan_id":"cebpf4jnsgd1na2vs0mg"},{"bike_id":"af112b62-19de-41d4-b8d7-e14d0172315d","system_id":"levelo_inurba_marseille","lat":43.326677,"lon":5.392643,"is_reserved":false,"is_disabled":false,"rental_uris":{"android":"levelo://app?vid=af112b62-19de-41d4-b8d7-e14d0172315d","ios":"levelo://app?vid=af112b62-19de-41d4-b8d7-e14d0172315d"},"vehicle_type_id":"4","last_reported":1751033408,"current_range_meters":3200,"station_id":"","pricing_plan_id":"cebpf4jnsgd1na2vs0mg"},{"bike_id":"7d5b7f9b-1501-4f7d-bc70-b588d87f91e0","system_id":"levelo_inurba_marseille","lat":43.307214,"lon":5.40318,"is_reserved":false,"is_disabled":false,"rental_uris":{"android":"levelo://app?vid=7d5b7f9b-1501-4f7d-bc70-b588d87f91e0","ios":"levelo://app?vid=7d5b7f9b-1501-4f7d-bc70-b588d87f91e0"},"vehicle_type_id":"4","last_reported":1751033408,"current_range_meters":3200,"station_id":"","pricing_plan_id":"cebpf4jnsgd1na2vs0mg"},{"bike_id":"0fedb3de-8887-4774-8cf8-6fc53546d288","system_id":"levelo_inurba_marseille","lat":43.30303,"lon":5.39215,"is_reserved":false,"is_disabled":false,"rental_uris":{"android":"levelo://app?vid=0fedb3de-8887-4774-8cf8-6fc53546d288","ios":"levelo://app?vid=0fedb3de-8887-4774-8cf8-6fc53546d288"},"vehicle_type_id":"4","last_reported":1751033408,"current_range_meters":3200,"station_id":"ce4bgkh2rcd13ifvqbk0","pricing_plan_id":"cebpf4jnsgd1na2vs0mg"},{"bike_id":"840f9b75-a89c-4668-b116-1dd7c7276d21","system_id":"levelo_inurba_marseille","lat":43.25088,"lon":5.39514,"is_reserved":false,"is_disabled":false,"rental_uris":{"android":"levelo://app?vid=840f9b75-a89c-4668-b116-1dd7c7276d21","ios":"levelo://app?vid=840f9b75-a89c-4668-b116-1dd7c7276d21"},"vehicle_type_id":"4","last_reported":1751033408,"current_range_meters":3200,"station_id":"ce4bhm12rcd13ifvqgkg","pricing_plan_id":"cebpf4jnsgd1na2vs0mg"},{"bike_id":"b9e038e0-9e32-46c4-8069-9f7264ee1441","system_id":"levelo_inurba_marseille","lat":43.29527,"lon":5.38542,"is_reserved":false,"is_disabled":false,"rental_uris":{"android":"levelo://app?vid=b9e038e0-9e32-46c4-8069-9f7264ee1441","ios":"levelo://app?vid=b9e038e0-9e32-46c4-8069-9f7264ee1441"},"vehicle_type_id":"4","last_reported":1751033408,"current_range_meters":3600,"station_id":"ce4bgih2rcd13ifvqba0","pricing_plan_id":"cebpf4jnsgd1na2vs0mg"},{"bike_id":"ef549b28-8b0e-4783-8428-91872903c66a","system_id":"levelo_inurba_marseille","lat":43.30436,"lon":5.39736,"is_reserved":false,"is_disabled":false,"rental_uris":{"android":"levelo://app?vid=ef549b28-8b0e-4783-8428-91872903c66a","ios":"levelo://app?vid=ef549b28-8b0e-4783-8428-91872903c66a"},"vehicle_type_id":"4","last_reported":1751033408,"current_range_meters":3600,"station_id":"ce4bh092rcd13ifvqd20","pricing_plan_id":"cebpf4jnsgd1na2vs0mg"},{"bike_id":"7ab0b880-bbd6-4aca-a2c1-e98746545961","system_id":"levelo_inurba_marseille","lat":43.29095,"lon":5.3814,"is_reserved":false,"is_disabled":false,"rental_uris":{"android":"levelo://app?vid=7ab0b880-bbd6-4aca-a2c1-e98746545961","ios":"levelo://app?vid=7ab0b880-bbd6-4aca-a2c1-e98746545961"},"vehicle_type_id":"4","last_reported":1751033408,"current_range_meters":3600,"station_id":"ce4bh512rcd13ifvqe2g","pricing_plan_id":"cebpf4jnsgd1na2vs0mg"},{"bike_id":"646404cf-52f2-455c-a961-4e8b21ea6c3e","system_id":"levelo_inurba_marseille","lat":43.3041,"lon":5.412813,"is_reserved":false,"is_disabled":false,"rental_uris":{"android":"levelo://app?vid=646404cf-52f2-455c-a961-4e8b21ea6c3e","ios":"levelo://app?vid=646404cf-52f2-455c-a961-4e8b21ea6c3e"},"vehicle_type_id":"4","last_reported":1751033408,"current_range_meters":3600,"station_id":"ce4bhop2rcd13ifvqh8g","pricing_plan_id":"cebpf4jnsgd1na2vs0mg"},{"bike_id":"9ce852fe-9449-4c16-b29b-642a7abdbbbf","system_id":"levelo_inurba_marseille","lat":43.273968,"lon":5.362157,"is_reserved":false,"is_disabled":false,"rental_uris":{"android":"levelo://app?vid=9ce852fe-9449-4c16-b29b-642a7abdbbbf","ios":"levelo://app?vid=9ce852fe-9449-4c16-b29b-642a7abdbbbf"},"vehicle_type_id":"4","last_reported":1751033408,"current_range_meters":4000,"station_id":"","pricing_plan_id":"cebpf4jnsgd1na2vs0mg"},{"bike_id":"c48b9f22-de08-4a16-b371-5e581e8b9236","system_id":"levelo_inurba_marseille","lat":43.28612,"lon":5.35104,"is_reserved":false,"is_disabled":false,"rental_uris":{"android":"levelo://app?vid=c48b9f22-de08-4a16-b371-5e581e8b9236","ios":"levelo://app?vid=c48b9f22-de08-4a16-b371-5e581e8b9236"},"vehicle_type_id":"4","last_reported":1751033408,"current_range_meters":4000,"station_id":"","pricing_plan_id":"cebpf4jnsgd1na2vs0mg"},{"bike_id":"781bf93b-3d9e-4991-ab87-5ee077f7194a","system_id":"levelo_inurba_marseille","lat":43.28419,"lon":5.34992,"is_reserved":false,"is_disabled":false,"rental_uris":{"android":"levelo://app?vid=781bf93b-3d9e-4991-ab87-5ee077f7194a","ios":"levelo://app?vid=781bf93b-3d9e-4991-ab87-5ee077f7194a"},"vehicle_type_id":"4","last_reported":1751033408,"current_range_meters":4000,"station_id":"ce4bhbh2rcd13ifvqepg","pricing_plan_id":"cebpf4jnsgd1na2vs0mg"},{"bike_id":"16f176c3-d794-47f6-a13b-6e10519d1cf6","system_id":"levelo_inurba_marseille","lat":43.29678,"lon":5.37277,"is_reserved":false,"is_disabled":false,"rental_uris":{"android":"levelo://app?vid=16f176c3-d794-47f6-a13b-6e10519d1cf6","ios":"levelo://app?vid=16f176c3-d794-47f6-a13b-6e10519d1cf6"},"vehicle_type_id":"4","last_reported":1751033408,"current_range_meters":4400,"station_id":"ce4bgk12rcd13ifvqbj0","pricing_plan_id":"cebpf4jnsgd1na2vs0mg"},{"bike_id":"7e16b432-c8df-44d1-ac00-e6a184542208","system_id":"levelo_inurba_marseille","lat":43.28264,"lon":5.35061,"is_reserved":false,"is_disabled":false,"rental_uris":{"android":"levelo://app?vid=7e16b432-c8df-44d1-ac00-e6a184542208","ios":"levelo://app?vid=7e16b432-c8df-44d1-ac00-e6a184542208"},"vehicle_type_id":"4","last_reported":1751033408,"current_range_meters":4400,"station_id":"ce4bhbp2rcd13ifvqerg","pricing_plan_id":"cebpf4jnsgd1na2vs0mg"},{"bike_id":"011b0d4e-f32e-4e04-befc-b5e1f4c48fb2","system_id":"levelo_inurba_marseille","lat":43.30373,"lon":5.42485,"is_reserved":false,"is_disabled":false,"rental_uris":{"android":"levelo://app?vid=011b0d4e-f32e-4e04-befc-b5e1f4c48fb2","ios":"levelo://app?vid=011b0d4e-f32e-4e04-befc-b5e1f4c48fb2"},"vehicle_type_id":"4","last_reported":1751033408,"current_range_meters":4400,"station_id":"ce4bhoh2rcd13ifvqh6g","pricing_plan_id":"cebpf4jnsgd1na2vs0mg"},{"bike_id":"a4287b01-a038-41fa-a160-e86f48b50440","system_id":"levelo_inurba_marseille","lat":43.30792,"lon":5.43528,"is_reserved":false,"is_disabled":false,"rental_uris":{"android":"levelo://app?vid=a4287b01-a038-41fa-a160-e86f48b50440","ios":"levelo://app?vid=a4287b01-a038-41fa-a160-e86f48b50440"},"vehicle_type_id":"4","last_reported":1751033408,"current_range_meters":4400,"station_id":"ce4bhph2rcd13ifvqheg","pricing_plan_id":"cebpf4jnsgd1na2vs0mg"},{"bike_id":"e4594e54-d1ce-4b3c-99c0-1bec67a21327","system_id":"levelo_inurba_marseille","lat":43.29897,"lon":5.38488,"is_reserved":false,"is_disabled":false,"rental_uris":{"android":"levelo://app?vid=e4594e54-d1ce-4b3c-99c0-1bec67a21327","ios":"levelo://app?vid=e4594e54-d1ce-4b3c-99c0-1bec67a21327"},"vehicle_type_id":"4","last_reported":1751033408,"current_range_meters":4800,"station_id":"","pricing_plan_id":"cebpf4jnsgd1na2vs0mg"},{"bike_id":"11477c87-be38-4367-bd66-80d6168f94f5","system_id":"levelo_inurba_marseille","lat":43.30584,"lon":5.36602,"is_reserved":false,"is_disabled":false,"rental_uris":{"android":"levelo://app?vid=11477c87-be38-4367-bd66-80d6168f94f5","ios":"levelo://app?vid=11477c87-be38-4367-bd66-80d6168f94f5"},"vehicle_type_id":"4","last_reported":1751033408,"current_range_meters":4800,"station_id":"ce4bgs12rcd13ifvqcag","pricing_plan_id":"cebpf4jnsgd1na2vs0mg"},{"bike_id":"2311ce92-3e99-4db8-8ef5-6d723827fa13","system_id":"levelo_inurba_marseille","lat":43.30548,"lon":5.36531,"is_reserved":false,"is_disabled":false,"rental_uris":{"android":"levelo://app?vid=2311ce92-3e99-4db8-8ef5-6d723827fa13","ios":"levelo://app?vid=2311ce92-3e99-4db8-8ef5-6d723827fa13"},"vehicle_type_id":"4","last_reported":1751033408,"current_range_meters":4800,"station_id":"ce4bgs12rcd13ifvqcag","pricing_plan_id":"cebpf4jnsgd1na2vs0mg"},{"bike_id":"03d773fb-2954-4708-823c-56e95b7920b5","system_id":"levelo_inurba_marseille","lat":43.29269,"lon":5.36841,"is_reserved":false,"is_disabled":false,"rental_uris":{"android":"levelo://app?vid=03d773fb-2954-4708-823c-56e95b7920b5","ios":"levelo://app?vid=03d773fb-2954-4708-823c-56e95b7920b5"},"vehicle_type_id":"4","last_reported":1751033408,"current_range_meters":4800,"station_id":"ce4bhbp2rcd13ifvqesg","pricing_plan_id":"cebpf4jnsgd1na2vs0mg"},{"bike_id":"01a5193e-628d-43c9-9da3-dc58291e2816","system_id":"levelo_inurba_marseille","lat":43.27203,"lon":5.39184,"is_reserved":false,"is_disabled":false,"rental_uris":{"android":"levelo://app?vid=01a5193e-628d-43c9-9da3-dc58291e2816","ios":"levelo://app?vid=01a5193e-628d-43c9-9da3-dc58291e2816"},"vehicle_type_id":"4","last_reported":1751033408,"current_range_meters":5600,"station_id":"ce4bhhp2rcd13ifvqfm0","pricing_plan_id":"cebpf4jnsgd1na2vs0mg"},{"bike_id":"12cda8f1-c49a-4ccb-bbb8-66d64d79be38","system_id":"levelo_inurba_marseille","lat":43.33714,"lon":5.39187,"is_reserved":false,"is_disabled":false,"rental_uris":{"android":"levelo://app?vid=12cda8f1-c49a-4ccb-bbb8-66d64d79be38","ios":"levelo://app?vid=12cda8f1-c49a-4ccb-bbb8-66d64d79be38"},"vehicle_type_id":"4","last_reported":1751033408,"current_range_meters":5600,"station_id":"ce4bhr92rcd13ifvqhsg","pricing_plan_id":"cebpf4jnsgd1na2vs0mg"},{"bike_id":"29ec4185-f87e-45a2-91e6-759a1d934b1c","system_id":"levelo_inurba_marseille","lat":43.21748,"lon":5.34607,"is_reserved":false,"is_disabled":false,"rental_uris":{"android":"levelo://app?vid=29ec4185-f87e-45a2-91e6-759a1d934b1c","ios":"levelo://app?vid=29ec4185-f87e-45a2-91e6-759a1d934b1c"},"vehicle_type_id":"4","last_reported":1751033408,"current_range_meters":5600,"station_id":"st_cvj6r9ubvosntc0bgbag","pricing_plan_id":"cebpf4jnsgd1na2vs0mg"},{"bike_id":"d3aa9c97-81b0-417b-a3eb-1cf5add54f4f","system_id":"levelo_inurba_marseille","lat":43.30494,"lon":5.36547,"is_reserved":false,"is_disabled":false,"rental_uris":{"android":"levelo://app?vid=d3aa9c97-81b0-417b-a3eb-1cf5add54f4f","ios":"levelo://app?vid=d3aa9c97-81b0-417b-a3eb-1cf5add54f4f"},"vehicle_type_id":"4","last_reported":1751033408,"current_range_meters":6000,"station_id":"","pricing_plan_id":"cebpf4jnsgd1na2vs0mg"},{"bike_id":"af9b4c69-ffc7-4fc8-8f22-1b001e5c1455","system_id":"levelo_inurba_marseille","lat":43.29159,"lon":5.374668,"is_reserved":false,"is_disabled":false,"rental_uris":{"android":"levelo://app?vid=af9b4c69-ffc7-4fc8-8f22-1b001e5c1455","ios":"levelo://app?vid=af9b4c69-ffc7-4fc8-8f22-1b001e5c1455"},"vehicle_type_id":"4","last_reported":1751033408,"current_range_meters":6000,"station_id":"ce4bh512rcd13ifvqe3g","pricing_plan_id":"cebpf4jnsgd1na2vs0mg"},{"bike_id":"fba30152-8ca4-48b9-a057-377b58f352f8","system_id":"levelo_inurba_marseille","lat":43.28713,"lon":5.3795,"is_reserved":false,"is_disabled":false,"rental_uris":{"android":"levelo://app?vid=fba30152-8ca4-48b9-a057-377b58f352f8","ios":"levelo://app?vid=fba30152-8ca4-48b9-a057-377b58f352f8"},"vehicle_type_id":"4","last_reported":1751033408,"current_range_meters":6000,"station_id":"ce4bh9p2rcd13ifvqec0","pricing_plan_id":"cebpf4jnsgd1na2vs0mg"},{"bike_id":"35f6dc7e-c608-4cba-90e3-6d4179800fad","system_id":"levelo_inurba_marseille","lat":43.28272,"lon":5.3508,"is_reserved":false,"is_disabled":false,"rental_uris":{"android":"levelo://app?vid=35f6dc7e-c608-4cba-90e3-6d4179800fad","ios":"levelo://app?vid=35f6dc7e-c608-4cba-90e3-6d4179800fad"},"vehicle_type_id":"4","last_reported":1751033408,"current_range_meters":6000,"station_id":"ce4bhbp2rcd13ifvqerg","pricing_plan_id":"cebpf4jnsgd1na2vs0mg"},{"bike_id":"b90b6a54-4a91-4ea9-899b-87c6033fc342","system_id":"levelo_inurba_marseille","lat":43.26205,"lon":5.37442,"is_reserved":false,"is_disabled":false,"rental_uris":{"android":"levelo://app?vid=b90b6a54-4a91-4ea9-899b-87c6033fc342","ios":"levelo://app?vid=b90b6a54-4a91-4ea9-899b-87c6033fc342"},"vehicle_type_id":"4","last_reported":1751033408,"current_range_meters":6000,"station_id":"ce4bhgp2rcd13ifvqfc0","pricing_plan_id":"cebpf4jnsgd1na2vs0mg"},{"bike_id":"e2f5b300-4a63-4778-aada-c29a8a0ea1e8","system_id":"levelo_inurba_marseille","lat":43.32819,"lon":5.39186,"is_reserved":false,"is_disabled":false,"rental_uris":{"android":"levelo://app?vid=e2f5b300-4a63-4778-aada-c29a8a0ea1e8","ios":"levelo://app?vid=e2f5b300-4a63-4778-aada-c29a8a0ea1e8"},"vehicle_type_id":"4","last_reported":1751033408,"current_range_meters":6400,"station_id":"","pricing_plan_id":"cebpf4jnsgd1na2vs0mg"},{"bike_id":"a98fd970-88ac-431a-90ba-3731e0931174","system_id":"levelo_inurba_marseille","lat":43.31349,"lon":5.38602,"is_reserved":false,"is_disabled":false,"rental_uris":{"android":"levelo://app?vid=a98fd970-88ac-431a-90ba-3731e0931174","ios":"levelo://app?vid=a98fd970-88ac-431a-90ba-3731e0931174"},"vehicle_type_id":"4","last_reported":1751033408,"current_range_meters":6400,"station_id":"","pricing_plan_id":"cebpf4jnsgd1na2vs0mg"},{"bike_id":"2671d61f-15a6-40a1-8059-4842d56ef757","system_id":"levelo_inurba_marseille","lat":43.30539,"lon":5.36561,"is_reserved":false,"is_disabled":false,"rental_uris":{"android":"levelo://app?vid=2671d61f-15a6-40a1-8059-4842d56ef757","ios":"levelo://app?vid=2671d61f-15a6-40a1-8059-4842d56ef757"},"vehicle_type_id":"4","last_reported":1751033408,"current_range_meters":6400,"station_id":"ce4bgs12rcd13ifvqcag","pricing_plan_id":"cebpf4jnsgd1na2vs0mg"},{"bike_id":"b92da513-ce57-42bf-bada-6432a5459ca1","system_id":"levelo_inurba_marseille","lat":43.29225,"lon":5.36061,"is_reserved":false,"is_disabled":false,"rental_uris":{"android":"levelo://app?vid=b92da513-ce57-42bf-bada-6432a5459ca1","ios":"levelo://app?vid=b92da513-ce57-42bf-bada-6432a5459ca1"},"vehicle_type_id":"4","last_reported":1751033408,"current_range_meters":6400,"station_id":"ce4bhbh2rcd13ifvqeqg","pricing_plan_id":"cebpf4jnsgd1na2vs0mg"},{"bike_id":"cdf0fbcb-7efa-4e68-8e6b-bc39b4884b3c","system_id":"levelo_inurba_marseille","lat":43.30593,"lon":5.39361,"is_reserved":false,"is_disabled":false,"rental_uris":{"android":"levelo://app?vid=cdf0fbcb-7efa-4e68-8e6b-bc39b4884b3c","ios":"levelo://app?vid=cdf0fbcb-7efa-4e68-8e6b-bc39b4884b3c"},"vehicle_type_id":"4","last_reported":1751033408,"current_range_meters":6800,"station_id":"ce4bh0p2rcd13ifvqd80","pricing_plan_id":"cebpf4jnsgd1na2vs0mg"},{"bike_id":"5a7b8c21-d198-4091-8cfd-a9dc381f1b15","system_id":"levelo_inurba_marseille","lat":43.28266,"lon":5.35059,"is_reserved":false,"is_disabled":false,"rental_uris":{"android":"levelo://app?vid=5a7b8c21-d198-4091-8cfd-a9dc381f1b15","ios":"levelo://app?vid=5a7b8c21-d198-4091-8cfd-a9dc381f1b15"},"vehicle_type_id":"4","last_reported":1751033408,"current_range_meters":6800,"station_id":"ce4bhbp2rcd13ifvqerg","pricing_plan_id":"cebpf4jnsgd1na2vs0mg"},{"bike_id":"e7e27476-e76c-49cc-ac92-d3385faef71b","system_id":"levelo_inurba_marseille","lat":43.225035,"lon":5.347871,"is_reserved":false,"is_disabled":false,"rental_uris":{"android":"levelo://app?vid=e7e27476-e76c-49cc-ac92-d3385faef71b","ios":"levelo://app?vid=e7e27476-e76c-49cc-ac92-d3385faef71b"},"vehicle_type_id":"4","last_reported":1751033408,"current_range_meters":6800,"station_id":"st_cvj5dfep6f1abm77gieg","pricing_plan_id":"cebpf4jnsgd1na2vs0mg"},{"bike_id":"20ea3718-6924-4153-a018-96529e9c1438","system_id":"levelo_inurba_marseille","lat":43.21746,"lon":5.34608,"is_reserved":false,"is_disabled":false,"rental_uris":{"android":"levelo://app?vid=20ea3718-6924-4153-a018-96529e9c1438","ios":"levelo://app?vid=20ea3718-6924-4153-a018-96529e9c1438"},"vehicle_type_id":"4","last_reported":1751033408,"current_range_meters":6800,"station_id":"st_cvj6r9ubvosntc0bgbag","pricing_plan_id":"cebpf4jnsgd1na2vs0mg"},{"bike_id":"a9d25cad-d480-4c75-aec5-3969f1a4e6c7","system_id":"levelo_inurba_marseille","lat":43.329328,"lon":5.390401,"is_reserved":false,"is_disabled":false,"rental_uris":{"android":"levelo://app?vid=a9d25cad-d480-4c75-aec5-3969f1a4e6c7","ios":"levelo://app?vid=a9d25cad-d480-4c75-aec5-3969f1a4e6c7"},"vehicle_type_id":"4","last_reported":1751033408,"current_range_meters":7200,"station_id":"","pricing_plan_id":"cebpf4jnsgd1na2vs0mg"},{"bike_id":"8367e431-cbc0-4786-96c7-3179e45c94af","system_id":"levelo_inurba_marseille","lat":43.282654,"lon":5.350619,"is_reserved":false,"is_disabled":false,"rental_uris":{"android":"levelo://app?vid=8367e431-cbc0-4786-96c7-3179e45c94af","ios":"levelo://app?vid=8367e431-cbc0-4786-96c7-3179e45c94af"},"vehicle_type_id":"4","last_reported":1751033408,"current_range_meters":7200,"station_id":"ce4bhbp2rcd13ifvqerg","pricing_plan_id":"cebpf4jnsgd1na2vs0mg"},{"bike_id":"d3c0a60c-bb9c-4a59-a432-ca85eacacc79","system_id":"levelo_inurba_marseille","lat":43.26194,"lon":5.37457,"is_reserved":false,"is_disabled":false,"rental_uris":{"android":"levelo://app?vid=d3c0a60c-bb9c-4a59-a432-ca85eacacc79","ios":"levelo://app?vid=d3c0a60c-bb9c-4a59-a432-ca85eacacc79"},"vehicle_type_id":"4","last_reported":1751033408,"current_range_meters":7200,"station_id":"ce4bhgp2rcd13ifvqfc0","pricing_plan_id":"cebpf4jnsgd1na2vs0mg"},{"bike_id":"d60113c8-3387-46de-adde-b2b1abf1350a","system_id":"levelo_inurba_marseille","lat":43.29955,"lon":5.41308,"is_reserved":false,"is_disabled":false,"rental_uris":{"android":"levelo://app?vid=d60113c8-3387-46de-adde-b2b1abf1350a","ios":"levelo://app?vid=d60113c8-3387-46de-adde-b2b1abf1350a"},"vehicle_type_id":"4","last_reported":1751033408,"current_range_meters":7200,"station_id":"ce4bhp12rcd13ifvqh9g","pricing_plan_id":"cebpf4jnsgd1na2vs0mg"},{"bike_id":"7ac2d6ad-16d3-463d-9f49-789f3bb8e5d0","system_id":"levelo_inurba_marseille","lat":43.33743,"lon":5.39146,"is_reserved":false,"is_disabled":false,"rental_uris":{"android":"levelo://app?vid=7ac2d6ad-16d3-463d-9f49-789f3bb8e5d0","ios":"levelo://app?vid=7ac2d6ad-16d3-463d-9f49-789f3bb8e5d0"},"vehicle_type_id":"4","last_reported":1751033408,"current_range_meters":7200,"station_id":"ce4bhr92rcd13ifvqhsg","pricing_plan_id":"cebpf4jnsgd1na2vs0mg"},{"bike_id":"44bda9ee-58ef-45f5-b6d1-79641c9922a9","system_id":"levelo_inurba_marseille","lat":43.30334,"lon":5.40412,"is_reserved":false,"is_disabled":false,"rental_uris":{"android":"levelo://app?vid=44bda9ee-58ef-45f5-b6d1-79641c9922a9","ios":"levelo://app?vid=44bda9ee-58ef-45f5-b6d1-79641c9922a9"},"vehicle_type_id":"4","last_reported":1751033408,"current_range_meters":8000,"station_id":"","pricing_plan_id":"cebpf4jnsgd1na2vs0mg"},{"bike_id":"30b388d0-c523-4876-9903-fd6ba9a1da9c","system_id":"levelo_inurba_marseille","lat":43.29699,"lon":5.36611,"is_reserved":false,"is_disabled":false,"rental_uris":{"android":"levelo://app?vid=30b388d0-c523-4876-9903-fd6ba9a1da9c","ios":"levelo://app?vid=30b388d0-c523-4876-9903-fd6ba9a1da9c"},"vehicle_type_id":"4","last_reported":1751033408,"current_range_meters":8000,"station_id":"ce4bgn12rcd13ifvqbt0","pricing_plan_id":"cebpf4jnsgd1na2vs0mg"},{"bike_id":"f25a74e0-5b99-46d2-94a4-b1a6a1cdb474","system_id":"levelo_inurba_marseille","lat":43.25015,"lon":5.38916,"is_reserved":false,"is_disabled":false,"rental_uris":{"android":"levelo://app?vid=f25a74e0-5b99-46d2-94a4-b1a6a1cdb474","ios":"levelo://app?vid=f25a74e0-5b99-46d2-94a4-b1a6a1cdb474"},"vehicle_type_id":"4","last_reported":1751033408,"current_range_meters":8000,"station_id":"ce4bhgp2rcd13ifvqfd0","pricing_plan_id":"cebpf4jnsgd1na2vs0mg"},{"bike_id":"94e84186-d780-461a-b647-8d1cf3f036ad","system_id":"levelo_inurba_marseille","lat":43.3163,"lon":5.37828,"is_reserved":false,"is_disabled":false,"rental_uris":{"android":"levelo://app?vid=94e84186-d780-461a-b647-8d1cf3f036ad","ios":"levelo://app?vid=94e84186-d780-461a-b647-8d1cf3f036ad"},"vehicle_type_id":"4","last_reported":1751033408,"current_range_meters":8400,"station_id":"","pricing_plan_id":"cebpf4jnsgd1na2vs0mg"},{"bike_id":"e2b1b81d-27e8-495b-9fce-5bef10a02ecf","system_id":"levelo_inurba_marseille","lat":43.27056,"lon":5.38815,"is_reserved":false,"is_disabled":false,"rental_uris":{"android":"levelo://app?vid=e2b1b81d-27e8-495b-9fce-5bef10a02ecf","ios":"levelo://app?vid=e2b1b81d-27e8-495b-9fce-5bef10a02ecf"},"vehicle_type_id":"4","last_reported":1751033408,"current_range_meters":8400,"station_id":"","pricing_plan_id":"cebpf4jnsgd1na2vs0mg"},{"bike_id":"a340d813-7b0c-4e75-8f35-5bcbd0ea1646","system_id":"levelo_inurba_marseille","lat":43.30528,"lon":5.367,"is_reserved":false,"is_disabled":false,"rental_uris":{"android":"levelo://app?vid=a340d813-7b0c-4e75-8f35-5bcbd0ea1646","ios":"levelo://app?vid=a340d813-7b0c-4e75-8f35-5bcbd0ea1646"},"vehicle_type_id":"4","last_reported":1751033408,"current_range_meters":8400,"station_id":"ce4bgrp2rcd13ifvqc9g","pricing_plan_id":"cebpf4jnsgd1na2vs0mg"},{"bike_id":"88371501-01d3-4378-b2bd-7521214192dd","system_id":"levelo_inurba_marseille","lat":43.28611,"lon":5.35082,"is_reserved":false,"is_disabled":false,"rental_uris":{"android":"levelo://app?vid=88371501-01d3-4378-b2bd-7521214192dd","ios":"levelo://app?vid=88371501-01d3-4378-b2bd-7521214192dd"},"vehicle_type_id":"4","last_reported":1751033408,"current_range_meters":8400,"station_id":"ce4bhch2rcd13ifvqeug","pricing_plan_id":"cebpf4jnsgd1na2vs0mg"},{"bike_id":"b37623c5-98c5-49b4-97c8-3fb0e612d294","system_id":"levelo_inurba_marseille","lat":43.26929,"lon":5.38917,"is_reserved":false,"is_disabled":false,"rental_uris":{"android":"levelo://app?vid=b37623c5-98c5-49b4-97c8-3fb0e612d294","ios":"levelo://app?vid=b37623c5-98c5-49b4-97c8-3fb0e612d294"},"vehicle_type_id":"4","last_reported":1751033408,"current_range_meters":8400,"station_id":"ce4bhhh2rcd13ifvqfl0","pricing_plan_id":"cebpf4jnsgd1na2vs0mg"},{"bike_id":"63259e90-c09d-49e0-9cbf-8970f95da02b","system_id":"levelo_inurba_marseille","lat":43.308176,"lon":5.432556,"is_reserved":false,"is_disabled":false,"rental_uris":{"android":"levelo://app?vid=63259e90-c09d-49e0-9cbf-8970f95da02b","ios":"levelo://app?vid=63259e90-c09d-49e0-9cbf-8970f95da02b"},"vehicle_type_id":"4","last_reported":1751033408,"current_range_meters":8400,"station_id":"ce4bhoh2rcd13ifvqh6g","pricing_plan_id":"cebpf4jnsgd1na2vs0mg"},{"bike_id":"f47876d7-9c85-474e-92c5-7a242e08b67c","system_id":"levelo_inurba_marseille","lat":43.30551,"lon":5.37553,"is_reserved":false,"is_disabled":false,"rental_uris":{"android":"levelo://app?vid=f47876d7-9c85-474e-92c5-7a242e08b67c","ios":"levelo://app?vid=f47876d7-9c85-474e-92c5-7a242e08b67c"},"vehicle_type_id":"4","last_reported":1751033408,"current_range_meters":8800,"station_id":"","pricing_plan_id":"cebpf4jnsgd1na2vs0mg"},{"bike_id":"1a3ccdb1-c9b5-4409-a391-ba2735026475","system_id":"levelo_inurba_marseille","lat":43.2934,"lon":5.403676,"is_reserved":false,"is_disabled":false,"rental_uris":{"android":"levelo://app?vid=1a3ccdb1-c9b5-4409-a391-ba2735026475","ios":"levelo://app?vid=1a3ccdb1-c9b5-4409-a391-ba2735026475"},"vehicle_type_id":"4","last_reported":1751033408,"current_range_meters":8800,"station_id":"ce4bh192rcd13ifvqdc0","pricing_plan_id":"cebpf4jnsgd1na2vs0mg"},{"bike_id":"3aa40a59-ea85-42f9-a53c-8fa633fc74f7","system_id":"levelo_inurba_marseille","lat":43.25496,"lon":5.37651,"is_reserved":false,"is_disabled":false,"rental_uris":{"android":"levelo://app?vid=3aa40a59-ea85-42f9-a53c-8fa633fc74f7","ios":"levelo://app?vid=3aa40a59-ea85-42f9-a53c-8fa633fc74f7"},"vehicle_type_id":"4","last_reported":1751033408,"current_range_meters":8800,"station_id":"ce4bhh12rcd13ifvqff0","pricing_plan_id":"cebpf4jnsgd1na2vs0mg"},{"bike_id":"f9f32e69-8e4d-412d-8436-da120bd31fff","system_id":"levelo_inurba_marseille","lat":43.24388,"lon":5.37062,"is_reserved":false,"is_disabled":false,"rental_uris":{"android":"levelo://app?vid=f9f32e69-8e4d-412d-8436-da120bd31fff","ios":"levelo://app?vid=f9f32e69-8e4d-412d-8436-da120bd31fff"},"vehicle_type_id":"4","last_reported":1751033408,"current_range_meters":8800,"station_id":"ce4bhhh2rcd13ifvqfk0","pricing_plan_id":"cebpf4jnsgd1na2vs0mg"},{"bike_id":"1c6b9780-5290-4c71-af5f-c513e73197fb","system_id":"levelo_inurba_marseille","lat":43.27995,"lon":5.40008,"is_reserved":false,"is_disabled":false,"rental_uris":{"android":"levelo://app?vid=1c6b9780-5290-4c71-af5f-c513e73197fb","ios":"levelo://app?vid=1c6b9780-5290-4c71-af5f-c513e73197fb"},"vehicle_type_id":"4","last_reported":1751033408,"current_range_meters":8800,"station_id":"ce4bho92rcd13ifvqh4g","pricing_plan_id":"cebpf4jnsgd1na2vs0mg"},{"bike_id":"761d85a7-9516-4714-8556-9f8392a9a96b","system_id":"levelo_inurba_marseille","lat":43.30375,"lon":5.42486,"is_reserved":false,"is_disabled":false,"rental_uris":{"android":"levelo://app?vid=761d85a7-9516-4714-8556-9f8392a9a96b","ios":"levelo://app?vid=761d85a7-9516-4714-8556-9f8392a9a96b"},"vehicle_type_id":"4","last_reported":1751033408,"current_range_meters":8800,"station_id":"ce4bhoh2rcd13ifvqh6g","pricing_plan_id":"cebpf4jnsgd1na2vs0mg"},{"bike_id":"6d31f048-d73c-41cc-b3c8-639d13f63e10","system_id":"levelo_inurba_marseille","lat":43.320578,"lon":5.415618,"is_reserved":false,"is_disabled":false,"rental_uris":{"android":"levelo://app?vid=6d31f048-d73c-41cc-b3c8-639d13f63e10","ios":"levelo://app?vid=6d31f048-d73c-41cc-b3c8-639d13f63e10"},"vehicle_type_id":"4","last_reported":1751033408,"current_range_meters":8800,"station_id":"ce4bhq92rcd13ifvqhkg","pricing_plan_id":"cebpf4jnsgd1na2vs0mg"},{"bike_id":"a8d020af-a517-43d3-a9f5-e1fd3a6f59ef","system_id":"levelo_inurba_marseille","lat":43.31759,"lon":5.390275,"is_reserved":false,"is_disabled":false,"rental_uris":{"android":"levelo://app?vid=a8d020af-a517-43d3-a9f5-e1fd3a6f59ef","ios":"levelo://app?vid=a8d020af-a517-43d3-a9f5-e1fd3a6f59ef"},"vehicle_type_id":"4","last_reported":1751033408,"current_range_meters":8800,"station_id":"ce4bhqp2rcd13ifvqhng","pricing_plan_id":"cebpf4jnsgd1na2vs0mg"},{"bike_id":"ca3bd576-9126-4dba-977f-9fec324d1c91","system_id":"levelo_inurba_marseille","lat":43.29002,"lon":5.35606,"is_reserved":false,"is_disabled":false,"rental_uris":{"android":"levelo://app?vid=ca3bd576-9126-4dba-977f-9fec324d1c91","ios":"levelo://app?vid=ca3bd576-9126-4dba-977f-9fec324d1c91"},"vehicle_type_id":"4","last_reported":1751033408,"current_range_meters":9200,"station_id":"ce4bhb92rcd13ifvqen0","pricing_plan_id":"cebpf4jnsgd1na2vs0mg"},{"bike_id":"c984e9a7-e1e2-4139-b56f-3e98a8e5939d","system_id":"levelo_inurba_marseille","lat":43.276673,"lon":5.38896,"is_reserved":false,"is_disabled":false,"rental_uris":{"android":"levelo://app?vid=c984e9a7-e1e2-4139-b56f-3e98a8e5939d","ios":"levelo://app?vid=c984e9a7-e1e2-4139-b56f-3e98a8e5939d"},"vehicle_type_id":"4","last_reported":1751033408,"current_range_meters":9200,"station_id":"ce4bhi12rcd13ifvqfo0","pricing_plan_id":"cebpf4jnsgd1na2vs0mg"},{"bike_id":"b3673efb-9fcd-49e7-bc5b-ddabc7692762","system_id":"levelo_inurba_marseille","lat":43.25578,"lon":5.3826,"is_reserved":false,"is_disabled":false,"rental_uris":{"android":"levelo://app?vid=b3673efb-9fcd-49e7-bc5b-ddabc7692762","ios":"levelo://app?vid=b3673efb-9fcd-49e7-bc5b-ddabc7692762"},"vehicle_type_id":"4","last_reported":1751033408,"current_range_meters":9200,"station_id":"ce4bhih2rcd13ifvqfs0","pricing_plan_id":"cebpf4jnsgd1na2vs0mg"},{"bike_id":"ec2d5728-9962-43e7-8b03-1359420b0dd3","system_id":"levelo_inurba_marseille","lat":43.30696,"lon":5.40325,"is_reserved":false,"is_disabled":false,"rental_uris":{"android":"levelo://app?vid=ec2d5728-9962-43e7-8b03-1359420b0dd3","ios":"levelo://app?vid=ec2d5728-9962-43e7-8b03-1359420b0dd3"},"vehicle_type_id":"4","last_reported":1751033408,"current_range_meters":9600,"station_id":"","pricing_plan_id":"cebpf4jnsgd1na2vs0mg"},{"bike_id":"4b8da722-ee9e-48a4-a5e5-3a8a10364708","system_id":"levelo_inurba_marseille","lat":43.312233,"lon":5.378244,"is_reserved":false,"is_disabled":false,"rental_uris":{"android":"levelo://app?vid=4b8da722-ee9e-48a4-a5e5-3a8a10364708","ios":"levelo://app?vid=4b8da722-ee9e-48a4-a5e5-3a8a10364708"},"vehicle_type_id":"4","last_reported":1751033408,"current_range_meters":9600,"station_id":"","pricing_plan_id":"cebpf4jnsgd1na2vs0mg"},{"bike_id":"bec0fced-d1e8-40f1-8b10-dadb17c0468a","system_id":"levelo_inurba_marseille","lat":43.299183,"lon":5.374688,"is_reserved":false,"is_disabled":false,"rental_uris":{"android":"levelo://app?vid=bec0fced-d1e8-40f1-8b10-dadb17c0468a","ios":"levelo://app?vid=bec0fced-d1e8-40f1-8b10-dadb17c0468a"},"vehicle_type_id":"4","last_reported":1751033408,"current_range_meters":9600,"station_id":"ce4bgjh2rcd13ifvqbg0","pricing_plan_id":"cebpf4jnsgd1na2vs0mg"},{"bike_id":"c859252b-58e8-4437-bbc9-b7047b570079","system_id":"levelo_inurba_marseille","lat":43.30598,"lon":5.3722,"is_reserved":false,"is_disabled":false,"rental_uris":{"android":"levelo://app?vid=c859252b-58e8-4437-bbc9-b7047b570079","ios":"levelo://app?vid=c859252b-58e8-4437-bbc9-b7047b570079"},"vehicle_type_id":"4","last_reported":1751033408,"current_range_meters":9600,"station_id":"ce4bgqh2rcd13ifvqc4g","pricing_plan_id":"cebpf4jnsgd1na2vs0mg"},{"bike_id":"032bb42c-4247-4614-98eb-a339fe7ab853","system_id":"levelo_inurba_marseille","lat":43.28262,"lon":5.35061,"is_reserved":false,"is_disabled":false,"rental_uris":{"android":"levelo://app?vid=032bb42c-4247-4614-98eb-a339fe7ab853","ios":"levelo://app?vid=032bb42c-4247-4614-98eb-a339fe7ab853"},"vehicle_type_id":"4","last_reported":1751033408,"current_range_meters":9600,"station_id":"ce4bhbp2rcd13ifvqerg","pricing_plan_id":"cebpf4jnsgd1na2vs0mg"},{"bike_id":"d4e177ad-79e4-456e-933f-1e1248bff5f2","system_id":"levelo_inurba_marseille","lat":43.27072,"lon":5.42274,"is_reserved":false,"is_disabled":false,"rental_uris":{"android":"levelo://app?vid=d4e177ad-79e4-456e-933f-1e1248bff5f2","ios":"levelo://app?vid=d4e177ad-79e4-456e-933f-1e1248bff5f2"},"vehicle_type_id":"4","last_reported":1751033408,"current_range_meters":9600,"station_id":"ce4bhk92rcd13ifvqgb0","pricing_plan_id":"cebpf4jnsgd1na2vs0mg"},{"bike_id":"e6aa43ed-9299-4f5c-b7aa-1e4edb6a90c1","system_id":"levelo_inurba_marseille","lat":43.27494,"lon":5.42446,"is_reserved":false,"is_disabled":false,"rental_uris":{"android":"levelo://app?vid=e6aa43ed-9299-4f5c-b7aa-1e4edb6a90c1","ios":"levelo://app?vid=e6aa43ed-9299-4f5c-b7aa-1e4edb6a90c1"},"vehicle_type_id":"4","last_reported":1751033408,"current_range_meters":9600,"station_id":"ce4bhn92rcd13ifvqgrg","pricing_plan_id":"cebpf4jnsgd1na2vs0mg"},{"bike_id":"bdee4145-fdcc-4fee-bf03-ffa3a6a5fef9","system_id":"levelo_inurba_marseille","lat":43.32115,"lon":5.36769,"is_reserved":false,"is_disabled":false,"rental_uris":{"android":"levelo://app?vid=bdee4145-fdcc-4fee-bf03-ffa3a6a5fef9","ios":"levelo://app?vid=bdee4145-fdcc-4fee-bf03-ffa3a6a5fef9"},"vehicle_type_id":"4","last_reported":1751033408,"current_range_meters":9600,"station_id":"ce4bhrh2rcd13ifvqhug","pricing_plan_id":"cebpf4jnsgd1na2vs0mg"},{"bike_id":"d2541864-294e-4fa8-8ed4-da3902bb58d5","system_id":"levelo_inurba_marseille","lat":43.22903,"lon":5.35405,"is_reserved":false,"is_disabled":false,"rental_uris":{"android":"levelo://app?vid=d2541864-294e-4fa8-8ed4-da3902bb58d5","ios":"levelo://app?vid=d2541864-294e-4fa8-8ed4-da3902bb58d5"},"vehicle_type_id":"4","last_reported":1751033408,"current_range_meters":9600,"station_id":"cpo3532slgdg3j2ikp40","pricing_plan_id":"cebpf4jnsgd1na2vs0mg"},{"bike_id":"6e333cad-8154-4d5d-9ce4-405ad8359f75","system_id":"levelo_inurba_marseille","lat":43.22933,"lon":5.35399,"is_reserved":false,"is_disabled":false,"rental_uris":{"android":"levelo://app?vid=6e333cad-8154-4d5d-9ce4-405ad8359f75","ios":"levelo://app?vid=6e333cad-8154-4d5d-9ce4-405ad8359f75"},"vehicle_type_id":"4","last_reported":1751033408,"current_range_meters":9600,"station_id":"cpo3532slgdg3j2ikp40","pricing_plan_id":"cebpf4jnsgd1na2vs0mg"},{"bike_id":"eb15694f-be70-4bd4-b934-4c638327d07a","system_id":"levelo_inurba_marseille","lat":43.29917,"lon":5.36474,"is_reserved":false,"is_disabled":false,"rental_uris":{"android":"levelo://app?vid=eb15694f-be70-4bd4-b934-4c638327d07a","ios":"levelo://app?vid=eb15694f-be70-4bd4-b934-4c638327d07a"},"vehicle_type_id":"4","last_reported":1751033408,"current_range_meters":10000,"station_id":"","pricing_plan_id":"cebpf4jnsgd1na2vs0mg"},{"bike_id":"9941fd3f-2cbb-41ab-82c9-c2184df03266","system_id":"levelo_inurba_marseille","lat":43.30141,"lon":5.3806,"is_reserved":false,"is_disabled":false,"rental_uris":{"android":"levelo://app?vid=9941fd3f-2cbb-41ab-82c9-c2184df03266","ios":"levelo://app?vid=9941fd3f-2cbb-41ab-82c9-c2184df03266"},"vehicle_type_id":"4","last_reported":1751033408,"current_range_meters":10000,"station_id":"ce4bgjp2rcd13ifvqbh0","pricing_plan_id":"cebpf4jnsgd1na2vs0mg"},{"bike_id":"6ad5263e-d327-4fdc-bb75-bde1162476d3","system_id":"levelo_inurba_marseille","lat":43.29076,"lon":5.37175,"is_reserved":false,"is_disabled":false,"rental_uris":{"android":"levelo://app?vid=6ad5263e-d327-4fdc-bb75-bde1162476d3","ios":"levelo://app?vid=6ad5263e-d327-4fdc-bb75-bde1162476d3"},"vehicle_type_id":"4","last_reported":1751033408,"current_range_meters":10000,"station_id":"ce4bh5p2rcd13ifvqe4g","pricing_plan_id":"cebpf4jnsgd1na2vs0mg"},{"bike_id":"a63021d1-c152-474e-a43a-9da51437190a","system_id":"levelo_inurba_marseille","lat":43.29245,"lon":5.38453,"is_reserved":false,"is_disabled":false,"rental_uris":{"android":"levelo://app?vid=a63021d1-c152-474e-a43a-9da51437190a","ios":"levelo://app?vid=a63021d1-c152-474e-a43a-9da51437190a"},"vehicle_type_id":"4","last_reported":1751033408,"current_range_meters":10000,"station_id":"ce4bh692rcd13ifvqea0","pricing_plan_id":"cebpf4jnsgd1na2vs0mg"},{"bike_id":"988069a9-2b9e-4f5c-a298-9f46162f4c55","system_id":"levelo_inurba_marseille","lat":43.29006,"lon":5.35611,"is_reserved":false,"is_disabled":false,"rental_uris":{"android":"levelo://app?vid=988069a9-2b9e-4f5c-a298-9f46162f4c55","ios":"levelo://app?vid=988069a9-2b9e-4f5c-a298-9f46162f4c55"},"vehicle_type_id":"4","last_reported":1751033408,"current_range_meters":10000,"station_id":"ce4bhb92rcd13ifvqen0","pricing_plan_id":"cebpf4jnsgd1na2vs0mg"},{"bike_id":"506d9da6-33ba-421b-be10-070c68a3cf99","system_id":"levelo_inurba_marseille","lat":43.28613,"lon":5.35104,"is_reserved":false,"is_disabled":false,"rental_uris":{"android":"levelo://app?vid=506d9da6-33ba-421b-be10-070c68a3cf99","ios":"levelo://app?vid=506d9da6-33ba-421b-be10-070c68a3cf99"},"vehicle_type_id":"4","last_reported":1751033408,"current_range_meters":10000,"station_id":"ce4bhch2rcd13ifvqeug","pricing_plan_id":"cebpf4jnsgd1na2vs0mg"},{"bike_id":"97422569-f573-4a47-9ca7-c2bdddce7e20","system_id":"levelo_inurba_marseille","lat":43.26794,"lon":5.39417,"is_reserved":false,"is_disabled":false,"rental_uris":{"android":"levelo://app?vid=97422569-f573-4a47-9ca7-c2bdddce7e20","ios":"levelo://app?vid=97422569-f573-4a47-9ca7-c2bdddce7e20"},"vehicle_type_id":"4","last_reported":1751033408,"current_range_meters":10000,"station_id":"ce4bhh12rcd13ifvqfg0","pricing_plan_id":"cebpf4jnsgd1na2vs0mg"},{"bike_id":"ffb03ad4-55be-4be9-9ffb-389d6066e70f","system_id":"levelo_inurba_marseille","lat":43.24387,"lon":5.37058,"is_reserved":false,"is_disabled":false,"rental_uris":{"android":"levelo://app?vid=ffb03ad4-55be-4be9-9ffb-389d6066e70f","ios":"levelo://app?vid=ffb03ad4-55be-4be9-9ffb-389d6066e70f"},"vehicle_type_id":"4","last_reported":1751033408,"current_range_meters":10000,"station_id":"ce4bhhh2rcd13ifvqfk0","pricing_plan_id":"cebpf4jnsgd1na2vs0mg"},{"bike_id":"0de175b1-ca58-421a-b0b3-1333a44f91b0","system_id":"levelo_inurba_marseille","lat":43.24075,"lon":5.37756,"is_reserved":false,"is_disabled":false,"rental_uris":{"android":"levelo://app?vid=0de175b1-ca58-421a-b0b3-1333a44f91b0","ios":"levelo://app?vid=0de175b1-ca58-421a-b0b3-1333a44f91b0"},"vehicle_type_id":"4","last_reported":1751033408,"current_range_meters":10000,"station_id":"ce4bhnp2rcd13ifvqgvg","pricing_plan_id":"cebpf4jnsgd1na2vs0mg"},{"bike_id":"38ee6c99-ed1c-4320-bb3c-b1d717388b30","system_id":"levelo_inurba_marseille","lat":43.229686,"lon":5.353897,"is_reserved":false,"is_disabled":false,"rental_uris":{"android":"levelo://app?vid=38ee6c99-ed1c-4320-bb3c-b1d717388b30","ios":"levelo://app?vid=38ee6c99-ed1c-4320-bb3c-b1d717388b30"},"vehicle_type_id":"4","last_reported":1751033408,"current_range_meters":10000,"station_id":"cpo3532slgdg3j2ikp40","pricing_plan_id":"cebpf4jnsgd1na2vs0mg"},{"bike_id":"3e6ddd3c-47c9-4057-bede-2b2d10eab3cb","system_id":"levelo_inurba_marseille","lat":43.286393,"lon":5.351297,"is_reserved":false,"is_disabled":false,"rental_uris":{"android":"levelo://app?vid=3e6ddd3c-47c9-4057-bede-2b2d10eab3cb","ios":"levelo://app?vid=3e6ddd3c-47c9-4057-bede-2b2d10eab3cb"},"vehicle_type_id":"4","last_reported":1751033408,"current_range_meters":10800,"station_id":"","pricing_plan_id":"cebpf4jnsgd1na2vs0mg"},{"bike_id":"768c0104-715f-4ae7-8bb0-ad9c0d98e622","system_id":"levelo_inurba_marseille","lat":43.31069,"lon":5.40089,"is_reserved":false,"is_disabled":false,"rental_uris":{"android":"levelo://app?vid=768c0104-715f-4ae7-8bb0-ad9c0d98e622","ios":"levelo://app?vid=768c0104-715f-4ae7-8bb0-ad9c0d98e622"},"vehicle_type_id":"4","last_reported":1751033408,"current_range_meters":10800,"station_id":"","pricing_plan_id":"cebpf4jnsgd1na2vs0mg"},{"bike_id":"7473393f-0dfe-440a-833e-d15eef19e0e9","system_id":"levelo_inurba_marseille","lat":43.29601,"lon":5.38095,"is_reserved":false,"is_disabled":false,"rental_uris":{"android":"levelo://app?vid=7473393f-0dfe-440a-833e-d15eef19e0e9","ios":"levelo://app?vid=7473393f-0dfe-440a-833e-d15eef19e0e9"},"vehicle_type_id":"4","last_reported":1751033408,"current_range_meters":10800,"station_id":"ce4bgl12rcd13ifvqbo0","pricing_plan_id":"cebpf4jnsgd1na2vs0mg"},{"bike_id":"735da967-6376-4e67-b57d-9cbc7b5466cc","system_id":"levelo_inurba_marseille","lat":43.30926,"lon":5.40142,"is_reserved":false,"is_disabled":false,"rental_uris":{"android":"levelo://app?vid=735da967-6376-4e67-b57d-9cbc7b5466cc","ios":"levelo://app?vid=735da967-6376-4e67-b57d-9cbc7b5466cc"},"vehicle_type_id":"4","last_reported":1751033408,"current_range_meters":10800,"station_id":"ce4bgvp2rcd13ifvqct0","pricing_plan_id":"cebpf4jnsgd1na2vs0mg"},{"bike_id":"18556229-5940-4e93-8046-f9e094ab2ee8","system_id":"levelo_inurba_marseille","lat":43.29083,"lon":5.38119,"is_reserved":false,"is_disabled":false,"rental_uris":{"android":"levelo://app?vid=18556229-5940-4e93-8046-f9e094ab2ee8","ios":"levelo://app?vid=18556229-5940-4e93-8046-f9e094ab2ee8"},"vehicle_type_id":"4","last_reported":1751033408,"current_range_meters":10800,"station_id":"ce4bh512rcd13ifvqe2g","pricing_plan_id":"cebpf4jnsgd1na2vs0mg"},{"bike_id":"b7d0d8a1-c5dd-4278-8b3b-f5786872fe32","system_id":"levelo_inurba_marseille","lat":43.321,"lon":5.36766,"is_reserved":false,"is_disabled":false,"rental_uris":{"android":"levelo://app?vid=b7d0d8a1-c5dd-4278-8b3b-f5786872fe32","ios":"levelo://app?vid=b7d0d8a1-c5dd-4278-8b3b-f5786872fe32"},"vehicle_type_id":"4","last_reported":1751033408,"current_range_meters":10800,"station_id":"ce4bhrh2rcd13ifvqhug","pricing_plan_id":"cebpf4jnsgd1na2vs0mg"},{"bike_id":"95795fbb-6952-43ab-88c1-6e5de6e232c2","system_id":"levelo_inurba_marseille","lat":43.28409,"lon":5.37527,"is_reserved":false,"is_disabled":false,"rental_uris":{"android":"levelo://app?vid=95795fbb-6952-43ab-88c1-6e5de6e232c2","ios":"levelo://app?vid=95795fbb-6952-43ab-88c1-6e5de6e232c2"},"vehicle_type_id":"4","last_reported":1751033408,"current_range_meters":11200,"station_id":"ce4bh412rcd13ifvqds0","pricing_plan_id":"cebpf4jnsgd1na2vs0mg"},{"bike_id":"f1299479-81e3-4dec-aa8e-bee1f5e5ecc7","system_id":"levelo_inurba_marseille","lat":43.2841,"lon":5.34999,"is_reserved":false,"is_disabled":false,"rental_uris":{"android":"levelo://app?vid=f1299479-81e3-4dec-aa8e-bee1f5e5ecc7","ios":"levelo://app?vid=f1299479-81e3-4dec-aa8e-bee1f5e5ecc7"},"vehicle_type_id":"4","last_reported":1751033408,"current_range_meters":11200,"station_id":"ce4bhbh2rcd13ifvqepg","pricing_plan_id":"cebpf4jnsgd1na2vs0mg"},{"bike_id":"886598f9-3bc7-4105-ab36-1a1f3d85005c","system_id":"levelo_inurba_marseille","lat":43.265,"lon":5.39537,"is_reserved":false,"is_disabled":false,"rental_uris":{"android":"levelo://app?vid=886598f9-3bc7-4105-ab36-1a1f3d85005c","ios":"levelo://app?vid=886598f9-3bc7-4105-ab36-1a1f3d85005c"},"vehicle_type_id":"4","last_reported":1751033408,"current_range_meters":11200,"station_id":"ce4bhi12rcd13ifvqfq0","pricing_plan_id":"cebpf4jnsgd1na2vs0mg"},{"bike_id":"d93518a7-acea-49d1-8b1d-66917831e25a","system_id":"levelo_inurba_marseille","lat":43.28416,"lon":5.39592,"is_reserved":false,"is_disabled":false,"rental_uris":{"android":"levelo://app?vid=d93518a7-acea-49d1-8b1d-66917831e25a","ios":"levelo://app?vid=d93518a7-acea-49d1-8b1d-66917831e25a"},"vehicle_type_id":"4","last_reported":1751033408,"current_range_meters":11600,"station_id":"","pricing_plan_id":"cebpf4jnsgd1na2vs0mg"},{"bike_id":"a9feb77f-bdf5-4d84-bc84-d3c3cd1a27da","system_id":"levelo_inurba_marseille","lat":43.29559,"lon":5.39981,"is_reserved":false,"is_disabled":false,"rental_uris":{"android":"levelo://app?vid=a9feb77f-bdf5-4d84-bc84-d3c3cd1a27da","ios":"levelo://app?vid=a9feb77f-bdf5-4d84-bc84-d3c3cd1a27da"},"vehicle_type_id":"4","last_reported":1751033408,"current_range_meters":11600,"station_id":"ce4bh312rcd13ifvqdj0","pricing_plan_id":"cebpf4jnsgd1na2vs0mg"},{"bike_id":"090e2353-2712-433d-9e3b-f469d6de2ebc","system_id":"levelo_inurba_marseille","lat":43.27383,"lon":5.36261,"is_reserved":false,"is_disabled":false,"rental_uris":{"android":"levelo://app?vid=090e2353-2712-433d-9e3b-f469d6de2ebc","ios":"levelo://app?vid=090e2353-2712-433d-9e3b-f469d6de2ebc"},"vehicle_type_id":"4","last_reported":1751033408,"current_range_meters":11600,"station_id":"ce4bhbh2rcd13ifvqeo0","pricing_plan_id":"cebpf4jnsgd1na2vs0mg"},{"bike_id":"055ba362-2451-437c-ba32-42d949ff4e41","system_id":"levelo_inurba_marseille","lat":43.28412,"lon":5.3498,"is_reserved":false,"is_disabled":false,"rental_uris":{"android":"levelo://app?vid=055ba362-2451-437c-ba32-42d949ff4e41","ios":"levelo://app?vid=055ba362-2451-437c-ba32-42d949ff4e41"},"vehicle_type_id":"4","last_reported":1751033408,"current_range_meters":11600,"station_id":"ce4bhbh2rcd13ifvqepg","pricing_plan_id":"cebpf4jnsgd1na2vs0mg"},{"bike_id":"df9d330a-cbd4-4597-b999-ed135ac2cc4e","system_id":"levelo_inurba_marseille","lat":43.28613,"lon":5.35096,"is_reserved":false,"is_disabled":false,"rental_uris":{"android":"levelo://app?vid=df9d330a-cbd4-4597-b999-ed135ac2cc4e","ios":"levelo://app?vid=df9d330a-cbd4-4597-b999-ed135ac2cc4e"},"vehicle_type_id":"4","last_reported":1751033408,"current_range_meters":11600,"station_id":"ce4bhch2rcd13ifvqeug","pricing_plan_id":"cebpf4jnsgd1na2vs0mg"},{"bike_id":"1ac664aa-f2a4-4b75-879f-dcb93272d133","system_id":"levelo_inurba_marseille","lat":43.2896,"lon":5.36394,"is_reserved":false,"is_disabled":false,"rental_uris":{"android":"levelo://app?vid=1ac664aa-f2a4-4b75-879f-dcb93272d133","ios":"levelo://app?vid=1ac664aa-f2a4-4b75-879f-dcb93272d133"},"vehicle_type_id":"4","last_reported":1751033408,"current_range_meters":12000,"station_id":"","pricing_plan_id":"cebpf4jnsgd1na2vs0mg"},{"bike_id":"058a06e6-c23f-4ac9-bba0-4a8b7ce30d9a","system_id":"levelo_inurba_marseille","lat":43.291962,"lon":5.358043,"is_reserved":false,"is_disabled":false,"rental_uris":{"android":"levelo://app?vid=058a06e6-c23f-4ac9-bba0-4a8b7ce30d9a","ios":"levelo://app?vid=058a06e6-c23f-4ac9-bba0-4a8b7ce30d9a"},"vehicle_type_id":"4","last_reported":1751033408,"current_range_meters":12000,"station_id":"ce4bgjp2rcd13ifvqbh0","pricing_plan_id":"cebpf4jnsgd1na2vs0mg"},{"bike_id":"1643776b-773e-467d-b078-65ac39facdb4","system_id":"levelo_inurba_marseille","lat":43.27362,"lon":5.36259,"is_reserved":false,"is_disabled":false,"rental_uris":{"android":"levelo://app?vid=1643776b-773e-467d-b078-65ac39facdb4","ios":"levelo://app?vid=1643776b-773e-467d-b078-65ac39facdb4"},"vehicle_type_id":"4","last_reported":1751033408,"current_range_meters":12000,"station_id":"ce4bhbh2rcd13ifvqeo0","pricing_plan_id":"cebpf4jnsgd1na2vs0mg"},{"bike_id":"21e2f95e-0365-4a55-8b35-4bc5f3b11e0d","system_id":"levelo_inurba_marseille","lat":43.243813,"lon":5.37066,"is_reserved":false,"is_disabled":false,"rental_uris":{"android":"levelo://app?vid=21e2f95e-0365-4a55-8b35-4bc5f3b11e0d","ios":"levelo://app?vid=21e2f95e-0365-4a55-8b35-4bc5f3b11e0d"},"vehicle_type_id":"4","last_reported":1751033408,"current_range_meters":12000,"station_id":"ce4bhhh2rcd13ifvqfk0","pricing_plan_id":"cebpf4jnsgd1na2vs0mg"},{"bike_id":"83aa87c0-8e40-4c89-b958-bb705a43fa3c","system_id":"levelo_inurba_marseille","lat":43.28073,"lon":5.39643,"is_reserved":false,"is_disabled":false,"rental_uris":{"android":"levelo://app?vid=83aa87c0-8e40-4c89-b958-bb705a43fa3c","ios":"levelo://app?vid=83aa87c0-8e40-4c89-b958-bb705a43fa3c"},"vehicle_type_id":"4","last_reported":1751033408,"current_range_meters":12000,"station_id":"ce4bho12rcd13ifvqh2g","pricing_plan_id":"cebpf4jnsgd1na2vs0mg"},{"bike_id":"5411ceed-5b44-4471-8f96-ed1f658c663c","system_id":"levelo_inurba_marseille","lat":43.31084,"lon":5.42441,"is_reserved":false,"is_disabled":false,"rental_uris":{"android":"levelo://app?vid=5411ceed-5b44-4471-8f96-ed1f658c663c","ios":"levelo://app?vid=5411ceed-5b44-4471-8f96-ed1f658c663c"},"vehicle_type_id":"4","last_reported":1751033408,"current_range_meters":12000,"station_id":"ce4bhp92rcd13ifvqhag","pricing_plan_id":"cebpf4jnsgd1na2vs0mg"},{"bike_id":"1c8ab180-05fd-405f-9922-b2b2c2d5142f","system_id":"levelo_inurba_marseille","lat":43.32087,"lon":5.36777,"is_reserved":false,"is_disabled":false,"rental_uris":{"android":"levelo://app?vid=1c8ab180-05fd-405f-9922-b2b2c2d5142f","ios":"levelo://app?vid=1c8ab180-05fd-405f-9922-b2b2c2d5142f"},"vehicle_type_id":"4","last_reported":1751033408,"current_range_meters":12000,"station_id":"ce4bhrh2rcd13ifvqhug","pricing_plan_id":"cebpf4jnsgd1na2vs0mg"},{"bike_id":"3f2e5038-cd5f-466d-9578-2783163f088e","system_id":"levelo_inurba_marseille","lat":43.320994,"lon":5.367713,"is_reserved":false,"is_disabled":false,"rental_uris":{"android":"levelo://app?vid=3f2e5038-cd5f-466d-9578-2783163f088e","ios":"levelo://app?vid=3f2e5038-cd5f-466d-9578-2783163f088e"},"vehicle_type_id":"4","last_reported":1751033408,"current_range_meters":12000,"station_id":"ce4bhrh2rcd13ifvqhug","pricing_plan_id":"cebpf4jnsgd1na2vs0mg"},{"bike_id":"a440f2f6-8cf8-4348-9ba1-e21002a18a07","system_id":"levelo_inurba_marseille","lat":43.32153,"lon":5.36765,"is_reserved":false,"is_disabled":false,"rental_uris":{"android":"levelo://app?vid=a440f2f6-8cf8-4348-9ba1-e21002a18a07","ios":"levelo://app?vid=a440f2f6-8cf8-4348-9ba1-e21002a18a07"},"vehicle_type_id":"4","last_reported":1751033408,"current_range_meters":12000,"station_id":"ce4bhrh2rcd13ifvqhug","pricing_plan_id":"cebpf4jnsgd1na2vs0mg"},{"bike_id":"2f750a90-a1cd-4b9b-83a7-f292339da213","system_id":"levelo_inurba_marseille","lat":43.31808,"lon":5.37479,"is_reserved":false,"is_disabled":false,"rental_uris":{"android":"levelo://app?vid=2f750a90-a1cd-4b9b-83a7-f292339da213","ios":"levelo://app?vid=2f750a90-a1cd-4b9b-83a7-f292339da213"},"vehicle_type_id":"4","last_reported":1751033408,"current_range_meters":12400,"station_id":"","pricing_plan_id":"cebpf4jnsgd1na2vs0mg"},{"bike_id":"0cf2e901-d53d-419c-8706-f2a161b60efa","system_id":"levelo_inurba_marseille","lat":43.28424,"lon":5.35,"is_reserved":false,"is_disabled":false,"rental_uris":{"android":"levelo://app?vid=0cf2e901-d53d-419c-8706-f2a161b60efa","ios":"levelo://app?vid=0cf2e901-d53d-419c-8706-f2a161b60efa"},"vehicle_type_id":"4","last_reported":1751033408,"current_range_meters":12400,"station_id":"ce4bhbh2rcd13ifvqepg","pricing_plan_id":"cebpf4jnsgd1na2vs0mg"},{"bike_id":"abc42f9d-2d11-40e0-86aa-4dedc6184e2b","system_id":"levelo_inurba_marseille","lat":43.25493,"lon":5.37648,"is_reserved":false,"is_disabled":false,"rental_uris":{"android":"levelo://app?vid=abc42f9d-2d11-40e0-86aa-4dedc6184e2b","ios":"levelo://app?vid=abc42f9d-2d11-40e0-86aa-4dedc6184e2b"},"vehicle_type_id":"4","last_reported":1751033408,"current_range_meters":12400,"station_id":"ce4bhh12rcd13ifvqff0","pricing_plan_id":"cebpf4jnsgd1na2vs0mg"},{"bike_id":"6ce1d5f9-8976-4540-9991-5efc749fc227","system_id":"levelo_inurba_marseille","lat":43.22932,"lon":5.35392,"is_reserved":false,"is_disabled":false,"rental_uris":{"android":"levelo://app?vid=6ce1d5f9-8976-4540-9991-5efc749fc227","ios":"levelo://app?vid=6ce1d5f9-8976-4540-9991-5efc749fc227"},"vehicle_type_id":"4","last_reported":1751033408,"current_range_meters":12400,"station_id":"cpo3532slgdg3j2ikp40","pricing_plan_id":"cebpf4jnsgd1na2vs0mg"},{"bike_id":"ee7c34ce-7425-48b3-a88d-5327d3f75df9","system_id":"levelo_inurba_marseille","lat":43.21182,"lon":5.35075,"is_reserved":false,"is_disabled":false,"rental_uris":{"android":"levelo://app?vid=ee7c34ce-7425-48b3-a88d-5327d3f75df9","ios":"levelo://app?vid=ee7c34ce-7425-48b3-a88d-5327d3f75df9"},"vehicle_type_id":"4","last_reported":1751033408,"current_range_meters":12800,"station_id":"","pricing_plan_id":"cebpf4jnsgd1na2vs0mg"},{"bike_id":"8f4bcd99-90da-4b6c-9cb5-578617f3977c","system_id":"levelo_inurba_marseille","lat":43.273774,"lon":5.362552,"is_reserved":false,"is_disabled":false,"rental_uris":{"android":"levelo://app?vid=8f4bcd99-90da-4b6c-9cb5-578617f3977c","ios":"levelo://app?vid=8f4bcd99-90da-4b6c-9cb5-578617f3977c"},"vehicle_type_id":"4","last_reported":1751033408,"current_range_meters":12800,"station_id":"","pricing_plan_id":"cebpf4jnsgd1na2vs0mg"},{"bike_id":"a9fe96de-80da-4abb-99dd-2814117943a6","system_id":"levelo_inurba_marseille","lat":43.26198,"lon":5.37441,"is_reserved":false,"is_disabled":false,"rental_uris":{"android":"levelo://app?vid=a9fe96de-80da-4abb-99dd-2814117943a6","ios":"levelo://app?vid=a9fe96de-80da-4abb-99dd-2814117943a6"},"vehicle_type_id":"4","last_reported":1751033408,"current_range_meters":12800,"station_id":"ce4bhgp2rcd13ifvqfc0","pricing_plan_id":"cebpf4jnsgd1na2vs0mg"},{"bike_id":"104d9a39-d4fe-4577-bd3e-dfa2a6c208e7","system_id":"levelo_inurba_marseille","lat":43.27208,"lon":5.40982,"is_reserved":false,"is_disabled":false,"rental_uris":{"android":"levelo://app?vid=104d9a39-d4fe-4577-bd3e-dfa2a6c208e7","ios":"levelo://app?vid=104d9a39-d4fe-4577-bd3e-dfa2a6c208e7"},"vehicle_type_id":"4","last_reported":1751033408,"current_range_meters":12800,"station_id":"ce4bhl12rcd13ifvqgf0","pricing_plan_id":"cebpf4jnsgd1na2vs0mg"},{"bike_id":"75122bd9-642d-4b8d-8bad-0a0918ecc837","system_id":"levelo_inurba_marseille","lat":43.31721,"lon":5.43706,"is_reserved":false,"is_disabled":false,"rental_uris":{"android":"levelo://app?vid=75122bd9-642d-4b8d-8bad-0a0918ecc837","ios":"levelo://app?vid=75122bd9-642d-4b8d-8bad-0a0918ecc837"},"vehicle_type_id":"4","last_reported":1751033408,"current_range_meters":12800,"station_id":"ce4bhp92rcd13ifvqhcg","pricing_plan_id":"cebpf4jnsgd1na2vs0mg"},{"bike_id":"e7c86b76-fec6-4d82-9589-044e8efa048a","system_id":"levelo_inurba_marseille","lat":43.32269,"lon":5.38295,"is_reserved":false,"is_disabled":false,"rental_uris":{"android":"levelo://app?vid=e7c86b76-fec6-4d82-9589-044e8efa048a","ios":"levelo://app?vid=e7c86b76-fec6-4d82-9589-044e8efa048a"},"vehicle_type_id":"4","last_reported":1751033408,"current_range_meters":12800,"station_id":"ce4bhr12rcd13ifvqhqg","pricing_plan_id":"cebpf4jnsgd1na2vs0mg"},{"bike_id":"53a30003-38b6-4d4d-a8c8-fc8f78697086","system_id":"levelo_inurba_marseille","lat":43.21751,"lon":5.34593,"is_reserved":false,"is_disabled":false,"rental_uris":{"android":"levelo://app?vid=53a30003-38b6-4d4d-a8c8-fc8f78697086","ios":"levelo://app?vid=53a30003-38b6-4d4d-a8c8-fc8f78697086"},"vehicle_type_id":"4","last_reported":1751033408,"current_range_meters":12800,"station_id":"st_cvj6r9ubvosntc0bgbag","pricing_plan_id":"cebpf4jnsgd1na2vs0mg"},{"bike_id":"918f9b2d-c2db-45f1-990c-b4fff80783d6","system_id":"levelo_inurba_marseille","lat":43.28192,"lon":5.36298,"is_reserved":false,"is_disabled":false,"rental_uris":{"android":"levelo://app?vid=918f9b2d-c2db-45f1-990c-b4fff80783d6","ios":"levelo://app?vid=918f9b2d-c2db-45f1-990c-b4fff80783d6"},"vehicle_type_id":"4","last_reported":1751033408,"current_range_meters":13600,"station_id":"","pricing_plan_id":"cebpf4jnsgd1na2vs0mg"},{"bike_id":"5a01ae6d-9064-484c-8d77-2d9e141e2313","system_id":"levelo_inurba_marseille","lat":43.2448,"lon":5.39002,"is_reserved":false,"is_disabled":false,"rental_uris":{"android":"levelo://app?vid=5a01ae6d-9064-484c-8d77-2d9e141e2313","ios":"levelo://app?vid=5a01ae6d-9064-484c-8d77-2d9e141e2313"},"vehicle_type_id":"4","last_reported":1751033408,"current_range_meters":13600,"station_id":"","pricing_plan_id":"cebpf4jnsgd1na2vs0mg"},{"bike_id":"8937e58e-5703-49d9-b2d6-6f0a04b19c36","system_id":"levelo_inurba_marseille","lat":43.28616,"lon":5.351,"is_reserved":false,"is_disabled":false,"rental_uris":{"android":"levelo://app?vid=8937e58e-5703-49d9-b2d6-6f0a04b19c36","ios":"levelo://app?vid=8937e58e-5703-49d9-b2d6-6f0a04b19c36"},"vehicle_type_id":"4","last_reported":1751033408,"current_range_meters":13600,"station_id":"ce4bhch2rcd13ifvqeug","pricing_plan_id":"cebpf4jnsgd1na2vs0mg"},{"bike_id":"ff6a4ca1-dc78-45e1-8a58-d9a681bbbcf3","system_id":"levelo_inurba_marseille","lat":43.30374,"lon":5.42488,"is_reserved":false,"is_disabled":false,"rental_uris":{"android":"levelo://app?vid=ff6a4ca1-dc78-45e1-8a58-d9a681bbbcf3","ios":"levelo://app?vid=ff6a4ca1-dc78-45e1-8a58-d9a681bbbcf3"},"vehicle_type_id":"4","last_reported":1751033408,"current_range_meters":13600,"station_id":"ce4bhoh2rcd13ifvqh6g","pricing_plan_id":"cebpf4jnsgd1na2vs0mg"},{"bike_id":"e5ae1fdd-ad1c-4e69-ac70-f715e6402e6b","system_id":"levelo_inurba_marseille","lat":43.27717,"lon":5.39871,"is_reserved":false,"is_disabled":false,"rental_uris":{"android":"levelo://app?vid=e5ae1fdd-ad1c-4e69-ac70-f715e6402e6b","ios":"levelo://app?vid=e5ae1fdd-ad1c-4e69-ac70-f715e6402e6b"},"vehicle_type_id":"4","last_reported":1751033408,"current_range_meters":14000,"station_id":"","pricing_plan_id":"cebpf4jnsgd1na2vs0mg"},{"bike_id":"0a39f426-fa5d-4aec-b8a1-b6398d967c9f","system_id":"levelo_inurba_marseille","lat":43.30531,"lon":5.38418,"is_reserved":false,"is_disabled":false,"rental_uris":{"android":"levelo://app?vid=0a39f426-fa5d-4aec-b8a1-b6398d967c9f","ios":"levelo://app?vid=0a39f426-fa5d-4aec-b8a1-b6398d967c9f"},"vehicle_type_id":"4","last_reported":1751033408,"current_range_meters":14000,"station_id":"ce4bgg92rcd13ifvqb30","pricing_plan_id":"cebpf4jnsgd1na2vs0mg"},{"bike_id":"a99c3609-49fc-4037-b75a-17d30d0231eb","system_id":"levelo_inurba_marseille","lat":43.29187,"lon":5.35797,"is_reserved":false,"is_disabled":false,"rental_uris":{"android":"levelo://app?vid=a99c3609-49fc-4037-b75a-17d30d0231eb","ios":"levelo://app?vid=a99c3609-49fc-4037-b75a-17d30d0231eb"},"vehicle_type_id":"4","last_reported":1751033408,"current_range_meters":14000,"station_id":"ce4bhb12rcd13ifvqel0","pricing_plan_id":"cebpf4jnsgd1na2vs0mg"},{"bike_id":"ec51710b-c3b5-43a0-9bd9-a9ccd1507f50","system_id":"levelo_inurba_marseille","lat":43.24661,"lon":5.38165,"is_reserved":false,"is_disabled":false,"rental_uris":{"android":"levelo://app?vid=ec51710b-c3b5-43a0-9bd9-a9ccd1507f50","ios":"levelo://app?vid=ec51710b-c3b5-43a0-9bd9-a9ccd1507f50"},"vehicle_type_id":"4","last_reported":1751033408,"current_range_meters":14000,"station_id":"ce4bhih2rcd13ifvqfr0","pricing_plan_id":"cebpf4jnsgd1na2vs0mg"},{"bike_id":"e66dec3b-ad20-4951-84dd-82136cf06aa9","system_id":"levelo_inurba_marseille","lat":43.32365,"lon":5.38883,"is_reserved":false,"is_disabled":false,"rental_uris":{"android":"levelo://app?vid=e66dec3b-ad20-4951-84dd-82136cf06aa9","ios":"levelo://app?vid=e66dec3b-ad20-4951-84dd-82136cf06aa9"},"vehicle_type_id":"4","last_reported":1751033408,"current_range_meters":14000,"station_id":"ce4bhqp2rcd13ifvqhog","pricing_plan_id":"cebpf4jnsgd1na2vs0mg"},{"bike_id":"9491bf9b-007c-4abd-8b71-00a9d9c6697f","system_id":"levelo_inurba_marseille","lat":43.22929,"lon":5.35375,"is_reserved":false,"is_disabled":false,"rental_uris":{"android":"levelo://app?vid=9491bf9b-007c-4abd-8b71-00a9d9c6697f","ios":"levelo://app?vid=9491bf9b-007c-4abd-8b71-00a9d9c6697f"},"vehicle_type_id":"4","last_reported":1751033408,"current_range_meters":14000,"station_id":"cpo3532slgdg3j2ikp40","pricing_plan_id":"cebpf4jnsgd1na2vs0mg"},{"bike_id":"5d4164c2-df8c-4cfb-a850-2f8f984d4e42","system_id":"levelo_inurba_marseille","lat":43.31512,"lon":5.37311,"is_reserved":false,"is_disabled":false,"rental_uris":{"android":"levelo://app?vid=5d4164c2-df8c-4cfb-a850-2f8f984d4e42","ios":"levelo://app?vid=5d4164c2-df8c-4cfb-a850-2f8f984d4e42"},"vehicle_type_id":"4","last_reported":1751033408,"current_range_meters":14400,"station_id":"ce4bgt12rcd13ifvqcd0","pricing_plan_id":"cebpf4jnsgd1na2vs0mg"},{"bike_id":"46fc1da8-b21e-49ec-9f51-bd3892d403d9","system_id":"levelo_inurba_marseille","lat":43.24163,"lon":5.36407,"is_reserved":false,"is_disabled":false,"rental_uris":{"android":"levelo://app?vid=46fc1da8-b21e-49ec-9f51-bd3892d403d9","ios":"levelo://app?vid=46fc1da8-b21e-49ec-9f51-bd3892d403d9"},"vehicle_type_id":"4","last_reported":1751033408,"current_range_meters":14400,"station_id":"cpo36qri1sfpv3e86is0","pricing_plan_id":"cebpf4jnsgd1na2vs0mg"},{"bike_id":"f0057ca2-de2d-4464-8902-068dc3677e00","system_id":"levelo_inurba_marseille","lat":43.21208,"lon":5.35077,"is_reserved":false,"is_disabled":false,"rental_uris":{"android":"levelo://app?vid=f0057ca2-de2d-4464-8902-068dc3677e00","ios":"levelo://app?vid=f0057ca2-de2d-4464-8902-068dc3677e00"},"vehicle_type_id":"4","last_reported":1751033408,"current_range_meters":14400,"station_id":"st_cvj6sg6p6f1abm77japg","pricing_plan_id":"cebpf4jnsgd1na2vs0mg"},{"bike_id":"197d0cdf-05a2-45b9-8304-30825f98dd77","system_id":"levelo_inurba_marseille","lat":43.28007,"lon":5.35666,"is_reserved":false,"is_disabled":false,"rental_uris":{"android":"levelo://app?vid=197d0cdf-05a2-45b9-8304-30825f98dd77","ios":"levelo://app?vid=197d0cdf-05a2-45b9-8304-30825f98dd77"},"vehicle_type_id":"4","last_reported":1751033408,"current_range_meters":14800,"station_id":"","pricing_plan_id":"cebpf4jnsgd1na2vs0mg"},{"bike_id":"bb69c1e1-7084-4be7-966a-57a7bcdfcb6c","system_id":"levelo_inurba_marseille","lat":43.24647,"lon":5.41652,"is_reserved":false,"is_disabled":false,"rental_uris":{"android":"levelo://app?vid=bb69c1e1-7084-4be7-966a-57a7bcdfcb6c","ios":"levelo://app?vid=bb69c1e1-7084-4be7-966a-57a7bcdfcb6c"},"vehicle_type_id":"4","last_reported":1751033408,"current_range_meters":14800,"station_id":"","pricing_plan_id":"cebpf4jnsgd1na2vs0mg"},{"bike_id":"db4d10f3-39ce-4ebb-8e7c-1e4008efc96e","system_id":"levelo_inurba_marseille","lat":43.29002,"lon":5.35611,"is_reserved":false,"is_disabled":false,"rental_uris":{"android":"levelo://app?vid=db4d10f3-39ce-4ebb-8e7c-1e4008efc96e","ios":"levelo://app?vid=db4d10f3-39ce-4ebb-8e7c-1e4008efc96e"},"vehicle_type_id":"4","last_reported":1751033408,"current_range_meters":14800,"station_id":"ce4bhb92rcd13ifvqen0","pricing_plan_id":"cebpf4jnsgd1na2vs0mg"},{"bike_id":"ec47028b-632e-499c-a722-9642110401eb","system_id":"levelo_inurba_marseille","lat":43.308,"lon":5.435274,"is_reserved":false,"is_disabled":false,"rental_uris":{"android":"levelo://app?vid=ec47028b-632e-499c-a722-9642110401eb","ios":"levelo://app?vid=ec47028b-632e-499c-a722-9642110401eb"},"vehicle_type_id":"4","last_reported":1751033408,"current_range_meters":14800,"station_id":"ce4bhph2rcd13ifvqheg","pricing_plan_id":"cebpf4jnsgd1na2vs0mg"},{"bike_id":"e0e97714-afa7-491c-88aa-28aff3f42372","system_id":"levelo_inurba_marseille","lat":43.28494,"lon":5.3854,"is_reserved":false,"is_disabled":false,"rental_uris":{"android":"levelo://app?vid=e0e97714-afa7-491c-88aa-28aff3f42372","ios":"levelo://app?vid=e0e97714-afa7-491c-88aa-28aff3f42372"},"vehicle_type_id":"4","last_reported":1751033408,"current_range_meters":15200,"station_id":"ce4bh8p2rcd13ifvqeb0","pricing_plan_id":"cebpf4jnsgd1na2vs0mg"},{"bike_id":"c0c1d407-6567-4e72-a363-97f37657b696","system_id":"levelo_inurba_marseille","lat":43.258953,"lon":5.37595,"is_reserved":false,"is_disabled":false,"rental_uris":{"android":"levelo://app?vid=c0c1d407-6567-4e72-a363-97f37657b696","ios":"levelo://app?vid=c0c1d407-6567-4e72-a363-97f37657b696"},"vehicle_type_id":"4","last_reported":1751033408,"current_range_meters":15200,"station_id":"ce4bhgh2rcd13ifvqfa0","pricing_plan_id":"cebpf4jnsgd1na2vs0mg"},{"bike_id":"f50e41bb-3641-43db-a534-5a1f3c50561d","system_id":"levelo_inurba_marseille","lat":43.25576,"lon":5.38237,"is_reserved":false,"is_disabled":false,"rental_uris":{"android":"levelo://app?vid=f50e41bb-3641-43db-a534-5a1f3c50561d","ios":"levelo://app?vid=f50e41bb-3641-43db-a534-5a1f3c50561d"},"vehicle_type_id":"4","last_reported":1751033408,"current_range_meters":15200,"station_id":"ce4bhih2rcd13ifvqfs0","pricing_plan_id":"cebpf4jnsgd1na2vs0mg"},{"bike_id":"3c3143db-eff2-43ab-93c6-7cc207b8a48b","system_id":"levelo_inurba_marseille","lat":43.306,"lon":5.39329,"is_reserved":false,"is_disabled":false,"rental_uris":{"android":"levelo://app?vid=3c3143db-eff2-43ab-93c6-7cc207b8a48b","ios":"levelo://app?vid=3c3143db-eff2-43ab-93c6-7cc207b8a48b"},"vehicle_type_id":"4","last_reported":1751033408,"current_range_meters":16000,"station_id":"","pricing_plan_id":"cebpf4jnsgd1na2vs0mg"},{"bike_id":"4759fde4-cbca-41eb-9283-5ecf53c87e55","system_id":"levelo_inurba_marseille","lat":43.28611,"lon":5.35106,"is_reserved":false,"is_disabled":false,"rental_uris":{"android":"levelo://app?vid=4759fde4-cbca-41eb-9283-5ecf53c87e55","ios":"levelo://app?vid=4759fde4-cbca-41eb-9283-5ecf53c87e55"},"vehicle_type_id":"4","last_reported":1751033408,"current_range_meters":16000,"station_id":"ce4bhch2rcd13ifvqeug","pricing_plan_id":"cebpf4jnsgd1na2vs0mg"},{"bike_id":"41de19e9-9992-4fb1-ab07-ea51b9ad8912","system_id":"levelo_inurba_marseille","lat":43.27901,"lon":5.38014,"is_reserved":false,"is_disabled":false,"rental_uris":{"android":"levelo://app?vid=41de19e9-9992-4fb1-ab07-ea51b9ad8912","ios":"levelo://app?vid=41de19e9-9992-4fb1-ab07-ea51b9ad8912"},"vehicle_type_id":"4","last_reported":1751033408,"current_range_meters":16000,"station_id":"ce4bhf92rcd13ifvqf50","pricing_plan_id":"cebpf4jnsgd1na2vs0mg"},{"bike_id":"da53a38e-a1fd-4a39-b5c6-f905bc0cf6c1","system_id":"levelo_inurba_marseille","lat":43.26678,"lon":5.38269,"is_reserved":false,"is_disabled":false,"rental_uris":{"android":"levelo://app?vid=da53a38e-a1fd-4a39-b5c6-f905bc0cf6c1","ios":"levelo://app?vid=da53a38e-a1fd-4a39-b5c6-f905bc0cf6c1"},"vehicle_type_id":"4","last_reported":1751033408,"current_range_meters":16000,"station_id":"ce4bhg92rcd13ifvqf90","pricing_plan_id":"cebpf4jnsgd1na2vs0mg"},{"bike_id":"7be9d13f-e351-4088-8de1-c3e988843820","system_id":"levelo_inurba_marseille","lat":43.25926,"lon":5.4089,"is_reserved":false,"is_disabled":false,"rental_uris":{"android":"levelo://app?vid=7be9d13f-e351-4088-8de1-c3e988843820","ios":"levelo://app?vid=7be9d13f-e351-4088-8de1-c3e988843820"},"vehicle_type_id":"4","last_reported":1751033408,"current_range_meters":16000,"station_id":"ce4bhm92rcd13ifvqglg","pricing_plan_id":"cebpf4jnsgd1na2vs0mg"},{"bike_id":"7dfc5216-abd2-4eb0-aa98-27c7a95c769d","system_id":"levelo_inurba_marseille","lat":43.2293,"lon":5.35391,"is_reserved":false,"is_disabled":false,"rental_uris":{"android":"levelo://app?vid=7dfc5216-abd2-4eb0-aa98-27c7a95c769d","ios":"levelo://app?vid=7dfc5216-abd2-4eb0-aa98-27c7a95c769d"},"vehicle_type_id":"4","last_reported":1751033408,"current_range_meters":16000,"station_id":"cpo3532slgdg3j2ikp40","pricing_plan_id":"cebpf4jnsgd1na2vs0mg"},{"bike_id":"834ea9c2-9ad0-4ddb-bd7d-21774b9745cd","system_id":"levelo_inurba_marseille","lat":43.225039,"lon":5.347871,"is_reserved":false,"is_disabled":false,"rental_uris":{"android":"levelo://app?vid=834ea9c2-9ad0-4ddb-bd7d-21774b9745cd","ios":"levelo://app?vid=834ea9c2-9ad0-4ddb-bd7d-21774b9745cd"},"vehicle_type_id":"4","last_reported":1751033408,"current_range_meters":16000,"station_id":"st_cvj5dfep6f1abm77gieg","pricing_plan_id":"cebpf4jnsgd1na2vs0mg"},{"bike_id":"e6ce70f7-9138-485c-a4db-2c9174614cff","system_id":"levelo_inurba_marseille","lat":43.31803,"lon":5.36895,"is_reserved":false,"is_disabled":false,"rental_uris":{"android":"levelo://app?vid=e6ce70f7-9138-485c-a4db-2c9174614cff","ios":"levelo://app?vid=e6ce70f7-9138-485c-a4db-2c9174614cff"},"vehicle_type_id":"4","last_reported":1751033408,"current_range_meters":16400,"station_id":"","pricing_plan_id":"cebpf4jnsgd1na2vs0mg"},{"bike_id":"52309789-4276-428f-b7d5-2ee130837971","system_id":"levelo_inurba_marseille","lat":43.29066,"lon":5.37149,"is_reserved":false,"is_disabled":false,"rental_uris":{"android":"levelo://app?vid=52309789-4276-428f-b7d5-2ee130837971","ios":"levelo://app?vid=52309789-4276-428f-b7d5-2ee130837971"},"vehicle_type_id":"4","last_reported":1751033408,"current_range_meters":16400,"station_id":"ce4bh5p2rcd13ifvqe4g","pricing_plan_id":"cebpf4jnsgd1na2vs0mg"},{"bike_id":"5a19e0dc-73c1-4bc6-8766-a333346342cc","system_id":"levelo_inurba_marseille","lat":43.27376,"lon":5.36257,"is_reserved":false,"is_disabled":false,"rental_uris":{"android":"levelo://app?vid=5a19e0dc-73c1-4bc6-8766-a333346342cc","ios":"levelo://app?vid=5a19e0dc-73c1-4bc6-8766-a333346342cc"},"vehicle_type_id":"4","last_reported":1751033408,"current_range_meters":16400,"station_id":"ce4bhbh2rcd13ifvqeo0","pricing_plan_id":"cebpf4jnsgd1na2vs0mg"},{"bike_id":"48d3b9c5-dda6-4097-85db-62f30a06d3cd","system_id":"levelo_inurba_marseille","lat":43.28611,"lon":5.35107,"is_reserved":false,"is_disabled":false,"rental_uris":{"android":"levelo://app?vid=48d3b9c5-dda6-4097-85db-62f30a06d3cd","ios":"levelo://app?vid=48d3b9c5-dda6-4097-85db-62f30a06d3cd"},"vehicle_type_id":"4","last_reported":1751033408,"current_range_meters":16400,"station_id":"ce4bhch2rcd13ifvqeug","pricing_plan_id":"cebpf4jnsgd1na2vs0mg"},{"bike_id":"bbc4a376-bee7-4ad5-a49a-1022d27c1489","system_id":"levelo_inurba_marseille","lat":43.32106,"lon":5.36791,"is_reserved":false,"is_disabled":false,"rental_uris":{"android":"levelo://app?vid=bbc4a376-bee7-4ad5-a49a-1022d27c1489","ios":"levelo://app?vid=bbc4a376-bee7-4ad5-a49a-1022d27c1489"},"vehicle_type_id":"4","last_reported":1751033408,"current_range_meters":16400,"station_id":"ce4bhrh2rcd13ifvqhug","pricing_plan_id":"cebpf4jnsgd1na2vs0mg"},{"bike_id":"815201a7-dbbe-4827-ab77-bd49f80ea5ee","system_id":"levelo_inurba_marseille","lat":43.29752,"lon":5.45998,"is_reserved":false,"is_disabled":false,"rental_uris":{"android":"levelo://app?vid=815201a7-dbbe-4827-ab77-bd49f80ea5ee","ios":"levelo://app?vid=815201a7-dbbe-4827-ab77-bd49f80ea5ee"},"vehicle_type_id":"4","last_reported":1751033408,"current_range_meters":16800,"station_id":"","pricing_plan_id":"cebpf4jnsgd1na2vs0mg"},{"bike_id":"1b39abf9-3a3f-4d80-915b-22905554f4a6","system_id":"levelo_inurba_marseille","lat":43.30132,"lon":5.36423,"is_reserved":false,"is_disabled":false,"rental_uris":{"android":"levelo://app?vid=1b39abf9-3a3f-4d80-915b-22905554f4a6","ios":"levelo://app?vid=1b39abf9-3a3f-4d80-915b-22905554f4a6"},"vehicle_type_id":"4","last_reported":1751033408,"current_range_meters":16800,"station_id":"","pricing_plan_id":"cebpf4jnsgd1na2vs0mg"},{"bike_id":"0f8cacae-de93-4327-8d12-f3527018c82d","system_id":"levelo_inurba_marseille","lat":43.28417,"lon":5.34994,"is_reserved":false,"is_disabled":false,"rental_uris":{"android":"levelo://app?vid=0f8cacae-de93-4327-8d12-f3527018c82d","ios":"levelo://app?vid=0f8cacae-de93-4327-8d12-f3527018c82d"},"vehicle_type_id":"4","last_reported":1751033408,"current_range_meters":16800,"station_id":"ce4bhbh2rcd13ifvqepg","pricing_plan_id":"cebpf4jnsgd1na2vs0mg"},{"bike_id":"596027ea-1fc1-4d39-b8ba-027eb6d77d9c","system_id":"levelo_inurba_marseille","lat":43.29283,"lon":5.368497,"is_reserved":false,"is_disabled":false,"rental_uris":{"android":"levelo://app?vid=596027ea-1fc1-4d39-b8ba-027eb6d77d9c","ios":"levelo://app?vid=596027ea-1fc1-4d39-b8ba-027eb6d77d9c"},"vehicle_type_id":"4","last_reported":1751033408,"current_range_meters":16800,"station_id":"ce4bhbp2rcd13ifvqesg","pricing_plan_id":"cebpf4jnsgd1na2vs0mg"},{"bike_id":"3c242868-d0cb-4a9f-9352-273cb6ca1118","system_id":"levelo_inurba_marseille","lat":43.27065,"lon":5.42286,"is_reserved":false,"is_disabled":false,"rental_uris":{"android":"levelo://app?vid=3c242868-d0cb-4a9f-9352-273cb6ca1118","ios":"levelo://app?vid=3c242868-d0cb-4a9f-9352-273cb6ca1118"},"vehicle_type_id":"4","last_reported":1751033408,"current_range_meters":16800,"station_id":"ce4bhk92rcd13ifvqgb0","pricing_plan_id":"cebpf4jnsgd1na2vs0mg"},{"bike_id":"0e0a90d1-2649-4523-b22b-8d16dc72bbe7","system_id":"levelo_inurba_marseille","lat":43.25867,"lon":5.39895,"is_reserved":false,"is_disabled":false,"rental_uris":{"android":"levelo://app?vid=0e0a90d1-2649-4523-b22b-8d16dc72bbe7","ios":"levelo://app?vid=0e0a90d1-2649-4523-b22b-8d16dc72bbe7"},"vehicle_type_id":"4","last_reported":1751033408,"current_range_meters":16800,"station_id":"ce4bhl92rcd13ifvqghg","pricing_plan_id":"cebpf4jnsgd1na2vs0mg"},{"bike_id":"935c8062-ae25-46e0-901d-4b81929b99b7","system_id":"levelo_inurba_marseille","lat":43.21751,"lon":5.34594,"is_reserved":false,"is_disabled":false,"rental_uris":{"android":"levelo://app?vid=935c8062-ae25-46e0-901d-4b81929b99b7","ios":"levelo://app?vid=935c8062-ae25-46e0-901d-4b81929b99b7"},"vehicle_type_id":"4","last_reported":1751033408,"current_range_meters":16800,"station_id":"st_cvj6r9ubvosntc0bgbag","pricing_plan_id":"cebpf4jnsgd1na2vs0mg"},{"bike_id":"ad7c4717-55a4-46c2-9f97-7e180e080972","system_id":"levelo_inurba_marseille","lat":43.30584,"lon":5.37207,"is_reserved":false,"is_disabled":false,"rental_uris":{"android":"levelo://app?vid=ad7c4717-55a4-46c2-9f97-7e180e080972","ios":"levelo://app?vid=ad7c4717-55a4-46c2-9f97-7e180e080972"},"vehicle_type_id":"4","last_reported":1751033408,"current_range_meters":17200,"station_id":"ce4bgqh2rcd13ifvqc4g","pricing_plan_id":"cebpf4jnsgd1na2vs0mg"},{"bike_id":"580eb19f-c025-473b-86d3-41a90b448296","system_id":"levelo_inurba_marseille","lat":43.28459,"lon":5.35879,"is_reserved":false,"is_disabled":false,"rental_uris":{"android":"levelo://app?vid=580eb19f-c025-473b-86d3-41a90b448296","ios":"levelo://app?vid=580eb19f-c025-473b-86d3-41a90b448296"},"vehicle_type_id":"4","last_reported":1751033408,"current_range_meters":17200,"station_id":"ce4bhah2rcd13ifvqei0","pricing_plan_id":"cebpf4jnsgd1na2vs0mg"},{"bike_id":"2f868f43-fb9f-4869-8cb4-cbdb8370d2f8","system_id":"levelo_inurba_marseille","lat":43.273783,"lon":5.362447,"is_reserved":false,"is_disabled":false,"rental_uris":{"android":"levelo://app?vid=2f868f43-fb9f-4869-8cb4-cbdb8370d2f8","ios":"levelo://app?vid=2f868f43-fb9f-4869-8cb4-cbdb8370d2f8"},"vehicle_type_id":"4","last_reported":1751033408,"current_range_meters":17200,"station_id":"ce4bhbh2rcd13ifvqeo0","pricing_plan_id":"cebpf4jnsgd1na2vs0mg"},{"bike_id":"af630729-122c-4fb6-9962-166ffc1b588d","system_id":"levelo_inurba_marseille","lat":43.28611,"lon":5.35104,"is_reserved":false,"is_disabled":false,"rental_uris":{"android":"levelo://app?vid=af630729-122c-4fb6-9962-166ffc1b588d","ios":"levelo://app?vid=af630729-122c-4fb6-9962-166ffc1b588d"},"vehicle_type_id":"4","last_reported":1751033408,"current_range_meters":17200,"station_id":"ce4bhch2rcd13ifvqeug","pricing_plan_id":"cebpf4jnsgd1na2vs0mg"},{"bike_id":"8e5b6e5d-213c-45bf-bc04-d7c364a0d41b","system_id":"levelo_inurba_marseille","lat":43.279152,"lon":5.380193,"is_reserved":false,"is_disabled":false,"rental_uris":{"android":"levelo://app?vid=8e5b6e5d-213c-45bf-bc04-d7c364a0d41b","ios":"levelo://app?vid=8e5b6e5d-213c-45bf-bc04-d7c364a0d41b"},"vehicle_type_id":"4","last_reported":1751033408,"current_range_meters":17200,"station_id":"ce4bhf92rcd13ifvqf50","pricing_plan_id":"cebpf4jnsgd1na2vs0mg"},