{"last_updated":1736932184,"ttl":60,"version":"2.2","data":{"bikes":[{"bike_id":"d8e0ebfb-153a-4c7a-9ef7-ef1b839adad9","system_id":"levelo_inurba_marseille","lat":43.30899,"lon":5.3685,"is_reserved":false,"is_disabled":false,"rental_uris":{"android":"levelo://app?vid=d8e0ebfb-153a-4c7a-9ef7-ef1b839adad9","ios":"levelo://app?vid=d8e0ebfb-153a-4c7a-9ef7-ef1b839adad9"},"vehicle_type_id":"4","last_reported":1736932184,"current_range_meters":19600,"station_id":"ce4bgn92rcd13ifvqbvg","pricing_plan_id":"cebpf4jnsgd1na2vs0mg"},{"bike_id":"e98c164a-78b3-4af4-ac93-be8184734fbd","system_id":"levelo_inurba_marseille","lat":43.30148,"lon":5.3741,"is_reserved":false,"is_disabled":false,"rental_uris":{"android":"levelo://app?vid=e98c164a-78b3-4af4-ac93-be8184734fbd","ios":"levelo://app?vid=e98c164a-78b3-4af4-ac93-be8184734fbd"},"vehicle_type_id":"4","last_reported":1736932184,"current_range_meters":16000,"station_id":"ce4bgs92rcd13ifvqcc0","pricing_plan_id":"cebpf4jnsgd1na2vs0mg"},{"bike_id":"1e0fe81e-e280-4593-80e7-d7d9caed8bb4","system_id":"levelo_inurba_marseille","lat":43.29803,"lon":5.38102,"is_reserved":false,"is_disabled":true,"rental_uris":{"android":"levelo://app?vid=1e0fe81e-e280-4593-80e7-d7d9caed8bb4","ios":"levelo://app?vid=1e0fe81e-e280-4593-80e7-d7d9caed8bb4"},"vehicle_type_id":"4","last_reported":1736932184,"current_range_meters":38800,"station_id":"ce4bgip2rcd13ifvqbb0","pricing_plan_id":"cebpf4jnsgd1na2vs0mg"},{"bike_id":"3bfa0ac1-21fc-4cf0-8611-33fa510f902d","system_id":"levelo_inurba_marseille","lat":43.24158,"lon":5.36399,"is_reserved":false,"is_disabled":false,"rental_uris":{"android":"levelo://app?vid=3bfa0ac1-21fc-4cf0-8611-33fa510f902d","ios":"levelo://app?vid=3bfa0ac1-21fc-4cf0-8611-33fa510f902d"},"vehicle_type_id":"4","last_reported":1736932184,"current_range_meters":9600,"station_id":"cpo36qri1sfpv3e86is0","pricing_plan_id":"cebpf4jnsgd1na2vs0mg"},{"bike_id":"459eda55-c02d-48e5-b482-24c6e37a8793","system_id":"levelo_inurba_marseille","lat":43.284527,"lon":5.391866,"is_reserved":false,"is_disabled":true,"rental_uris":{"android":"levelo://app?vid=459eda55-c02d-48e5-b482-24c6e37a8793","ios":"levelo://app?vid=459eda55-c02d-48e5-b482-24c6e37a8793"},"vehicle_type_id":"4","last_reported":1736932184,"current_range_meters":11600,"station_id":"ce4bhoh2rcd13ifvqh5g","pricing_plan_id":"cebpf4jnsgd1na2vs0mg"},{"bike_id":"89fcc9a4-94e9-40fd-96bc-65298ed41a65","system_id":"levelo_inurba_marseille","lat":43.3249,"lon":5.39488,"is_reserved":false,"is_disabled":false,"rental_uris":{"android":"levelo://app?vid=89fcc9a4-94e9-40fd-96bc-65298ed41a65","ios":"levelo://app?vid=89fcc9a4-94e9-40fd-96bc-65298ed41a65"},"vehicle_type_id":"4","last_reported":1736932184,"current_range_meters":34800,"station_id":"","pricing_plan_id":"cebpf4jnsgd1na2vs0mg"},{"bike_id":"a28fc936-0616-4037-9eb8-0efc7d54e7b3","system_id":"levelo_inurba_marseille","lat":43.30945,"lon":5.39034,"is_reserved":false,"is_disabled":false,"rental_uris":{"android":"levelo://app?vid=a28fc936-0616-4037-9eb8-0efc7d54e7b3","ios":"levelo://app?vid=a28fc936-0616-4037-9eb8-0efc7d54e7b3"},"vehicle_type_id":"4","last_reported":1736932184,"current_range_meters":38800,"station_id":"","pricing_plan_id":"cebpf4jnsgd1na2vs0mg"},{"bike_id":"78acd78e-cc51-4161-92cd-57f55c26c89f","system_id":"levelo_inurba_marseille","lat":43.29622,"lon":5.37717,"is_reserved":false,"is_disabled":false,"rental_uris":{"android":"levelo://app?vid=78acd78e-cc51-4161-92cd-57f55c26c89f","ios":"levelo://app?vid=78acd78e-cc51-4161-92cd-57f55c26c89f"},"vehicle_type_id":"4","last_reported":1736932184,"current_range_meters":26000,"station_id":"ce4bgi92rcd13ifvqb90","pricing_plan_id":"cebpf4jnsgd1na2vs0mg"},{"bike_id":"5bb5758f-37be-496e-ac0a-3712e6b43125","system_id":"levelo_inurba_marseille","lat":43.26195,"lon":5.37927,"is_reserved":false,"is_disabled":false,"rental_uris":{"android":"levelo://app?vid=5bb5758f-37be-496e-ac0a-3712e6b43125","ios":"levelo://app?vid=5bb5758f-37be-496e-ac0a-3712e6b43125"},"vehicle_type_id":"4","last_reported":1736932184,"current_range_meters":38800,"station_id":"ce4bhjp2rcd13ifvqg90","pricing_plan_id":"cebpf4jnsgd1na2vs0mg"},{"bike_id":"4fa358ca-b741-467a-a03f-b8033021b471","system_id":"levelo_inurba_marseille","lat":43.337563,"lon":5.374621,"is_reserved":false,"is_disabled":false,"rental_uris":{"android":"levelo://app?vid=4fa358ca-b741-467a-a03f-b8033021b471","ios":"levelo://app?vid=4fa358ca-b741-467a-a03f-b8033021b471"},"vehicle_type_id":"4","last_reported":1736932184,"current_range_meters":38800,"station_id":"","pricing_plan_id":"cebpf4jnsgd1na2vs0mg"},{"bike_id":"6c72276d-8e89-4c2f-8150-2735b7561b95","system_id":"levelo_inurba_marseille","lat":43.27502,"lon":5.42488,"is_reserved":false,"is_disabled":true,"rental_uris":{"android":"levelo://app?vid=6c72276d-8e89-4c2f-8150-2735b7561b95","ios":"levelo://app?vid=6c72276d-8e89-4c2f-8150-2735b7561b95"},"vehicle_type_id":"4","last_reported":1736932184,"current_range_meters":0,"station_id":"ce4bhn92rcd13ifvqgrg","pricing_plan_id":"cebpf4jnsgd1na2vs0mg"},{"bike_id":"af310017-df66-493e-a6f7-1677732dee81","system_id":"levelo_inurba_marseille","lat":43.30125,"lon":5.39859,"is_reserved":false,"is_disabled":false,"rental_uris":{"android":"levelo://app?vid=af310017-df66-493e-a6f7-1677732dee81","ios":"levelo://app?vid=af310017-df66-493e-a6f7-1677732dee81"},"vehicle_type_id":"4","last_reported":1736932184,"current_range_meters":18000,"station_id":"ce4bh0h2rcd13ifvqd40","pricing_plan_id":"cebpf4jnsgd1na2vs0mg"},{"bike_id":"58561980-f931-439e-9cf1-a81d5b3cfb84","system_id":"levelo_inurba_marseille","lat":43.30945,"lon":5.39038,"is_reserved":false,"is_disabled":false,"rental_uris":{"android":"levelo://app?vid=58561980-f931-439e-9cf1-a81d5b3cfb84","ios":"levelo://app?vid=58561980-f931-439e-9cf1-a81d5b3cfb84"},"vehicle_type_id":"4","last_reported":1736932184,"current_range_meters":33200,"station_id":"ce4bgup2rcd13ifvqco0","pricing_plan_id":"cebpf4jnsgd1na2vs0mg"},{"bike_id":"6cf1ef65-b448-4034-8c81-a102abe157e0","system_id":"levelo_inurba_marseille","lat":43.29739,"lon":5.3769,"is_reserved":false,"is_disabled":false,"rental_uris":{"android":"levelo://app?vid=6cf1ef65-b448-4034-8c81-a102abe157e0","ios":"levelo://app?vid=6cf1ef65-b448-4034-8c81-a102abe157e0"},"vehicle_type_id":"4","last_reported":1736932184,"current_range_meters":27200,"station_id":"ce4bgkh2rcd13ifvqbl0","pricing_plan_id":"cebpf4jnsgd1na2vs0mg"},{"bike_id":"424f756c-50eb-4f0c-b591-25a8e3420df9","system_id":"levelo_inurba_marseille","lat":43.26947,"lon":5.38634,"is_reserved":false,"is_disabled":false,"rental_uris":{"android":"levelo://app?vid=424f756c-50eb-4f0c-b591-25a8e3420df9","ios":"levelo://app?vid=424f756c-50eb-4f0c-b591-25a8e3420df9"},"vehicle_type_id":"4","last_reported":1736932184,"current_range_meters":18000,"station_id":"ce4bhh92rcd13ifvqfh0","pricing_plan_id":"cebpf4jnsgd1na2vs0mg"},{"bike_id":"de24f0eb-d07d-4b52-b35d-5a84aaa3df22","system_id":"levelo_inurba_marseille","lat":43.29185,"lon":5.36023,"is_reserved":false,"is_disabled":true,"rental_uris":{"android":"levelo://app?vid=de24f0eb-d07d-4b52-b35d-5a84aaa3df22","ios":"levelo://app?vid=de24f0eb-d07d-4b52-b35d-5a84aaa3df22"},"vehicle_type_id":"4","last_reported":1736932184,"current_range_meters":8400,"station_id":"","pricing_plan_id":"cebpf4jnsgd1na2vs0mg"},{"bike_id":"820401aa-6b5d-445d-88d7-5c01350bb21e","system_id":"levelo_inurba_marseille","lat":43.29726,"lon":5.37696,"is_reserved":false,"is_disabled":false,"rental_uris":{"android":"levelo://app?vid=820401aa-6b5d-445d-88d7-5c01350bb21e","ios":"levelo://app?vid=820401aa-6b5d-445d-88d7-5c01350bb21e"},"vehicle_type_id":"4","last_reported":1736932184,"current_range_meters":37600,"station_id":"ce4bgkh2rcd13ifvqbl0","pricing_plan_id":"cebpf4jnsgd1na2vs0mg"},{"bike_id":"b336eecc-71fb-4827-b601-9992e4d0e91e","system_id":"levelo_inurba_marseille","lat":43.3032,"lon":5.36911,"is_reserved":false,"is_disabled":false,"rental_uris":{"android":"levelo://app?vid=b336eecc-71fb-4827-b601-9992e4d0e91e","ios":"levelo://app?vid=b336eecc-71fb-4827-b601-9992e4d0e91e"},"vehicle_type_id":"4","last_reported":1736932184,"current_range_meters":8400,"station_id":"ce4bgqh2rcd13ifvqc5g","pricing_plan_id":"cebpf4jnsgd1na2vs0mg"},{"bike_id":"1546f697-d82b-4e5d-a850-a9023302096e","system_id":"levelo_inurba_marseille","lat":43.25,"lon":5.38928,"is_reserved":false,"is_disabled":false,"rental_uris":{"android":"levelo://app?vid=1546f697-d82b-4e5d-a850-a9023302096e","ios":"levelo://app?vid=1546f697-d82b-4e5d-a850-a9023302096e"},"vehicle_type_id":"4","last_reported":1736932184,"current_range_meters":38800,"station_id":"ce4bhgp2rcd13ifvqfd0","pricing_plan_id":"cebpf4jnsgd1na2vs0mg"},{"bike_id":"3a154d79-06d4-4814-bd52-2ebbe8926e69","system_id":"levelo_inurba_marseille","lat":43.29781,"lon":5.39356,"is_reserved":false,"is_disabled":true,"rental_uris":{"android":"levelo://app?vid=3a154d79-06d4-4814-bd52-2ebbe8926e69","ios":"levelo://app?vid=3a154d79-06d4-4814-bd52-2ebbe8926e69"},"vehicle_type_id":"4","last_reported":1736932184,"current_range_meters":33600,"station_id":"chh1huq6cuj3fo74tm60","pricing_plan_id":"cebpf4jnsgd1na2vs0mg"},{"bike_id":"a05bd889-5f47-4435-a653-f868055678ed","system_id":"levelo_inurba_marseille","lat":43.24996,"lon":5.38933,"is_reserved":false,"is_disabled":false,"rental_uris":{"android":"levelo://app?vid=a05bd889-5f47-4435-a653-f868055678ed","ios":"levelo://app?vid=a05bd889-5f47-4435-a653-f868055678ed"},"vehicle_type_id":"4","last_reported":1736932184,"current_range_meters":27600,"station_id":"ce4bhgp2rcd13ifvqfd0","pricing_plan_id":"cebpf4jnsgd1na2vs0mg"},{"bike_id":"5dc3dd3e-37d2-4dd0-b33d-d2f8ed1e3625","system_id":"levelo_inurba_marseille","lat":43.2593,"lon":5.40909,"is_reserved":false,"is_disabled":false,"rental_uris":{"android":"levelo://app?vid=5dc3dd3e-37d2-4dd0-b33d-d2f8ed1e3625","ios":"levelo://app?vid=5dc3dd3e-37d2-4dd0-b33d-d2f8ed1e3625"},"vehicle_type_id":"4","last_reported":1736932184,"current_range_meters":7200,"station_id":"ce4bhm92rcd13ifvqglg","pricing_plan_id":"cebpf4jnsgd1na2vs0mg"},{"bike_id":"f782effa-383e-4f2e-b501-262b4bc3a36b","system_id":"levelo_inurba_marseille","lat":43.26945,"lon":5.38635,"is_reserved":false,"is_disabled":false,"rental_uris":{"android":"levelo://app?vid=f782effa-383e-4f2e-b501-262b4bc3a36b","ios":"levelo://app?vid=f782effa-383e-4f2e-b501-262b4bc3a36b"},"vehicle_type_id":"4","last_reported":1736932184,"current_range_meters":4800,"station_id":"ce4bhh92rcd13ifvqfh0","pricing_plan_id":"cebpf4jnsgd1na2vs0mg"},{"bike_id":"3ed0d747-7afb-44c2-815b-60bebd87bdb3","system_id":"levelo_inurba_marseille","lat":43.27994,"lon":5.41663,"is_reserved":false,"is_disabled":false,"rental_uris":{"android":"levelo://app?vid=3ed0d747-7afb-44c2-815b-60bebd87bdb3","ios":"levelo://app?vid=3ed0d747-7afb-44c2-815b-60bebd87bdb3"},"vehicle_type_id":"4","last_reported":1736932184,"current_range_meters":4400,"station_id":"ce4bho12rcd13ifvqh1g","pricing_plan_id":"cebpf4jnsgd1na2vs0mg"},{"bike_id":"8724c44b-7b2f-45e5-94d4-51af5c7f440d","system_id":"levelo_inurba_marseille","lat":43.25724,"lon":5.41116,"is_reserved":false,"is_disabled":false,"rental_uris":{"android":"levelo://app?vid=8724c44b-7b2f-45e5-94d4-51af5c7f440d","ios":"levelo://app?vid=8724c44b-7b2f-45e5-94d4-51af5c7f440d"},"vehicle_type_id":"4","last_reported":1736932184,"current_range_meters":33600,"station_id":"ce4bhkp2rcd13ifvqgd0","pricing_plan_id":"cebpf4jnsgd1na2vs0mg"},{"bike_id":"ae5947c9-e1d7-47d4-aa65-2a6be661e306","system_id":"levelo_inurba_marseille","lat":43.25919,"lon":5.40893,"is_reserved":false,"is_disabled":false,"rental_uris":{"android":"levelo://app?vid=ae5947c9-e1d7-47d4-aa65-2a6be661e306","ios":"levelo://app?vid=ae5947c9-e1d7-47d4-aa65-2a6be661e306"},"vehicle_type_id":"4","last_reported":1736932184,"current_range_meters":30800,"station_id":"ce4bhm92rcd13ifvqglg","pricing_plan_id":"cebpf4jnsgd1na2vs0mg"},{"bike_id":"f967ea00-b8c0-4496-9bc6-6ae713525aac","system_id":"levelo_inurba_marseille","lat":43.24992,"lon":5.38926,"is_reserved":false,"is_disabled":false,"rental_uris":{"android":"levelo://app?vid=f967ea00-b8c0-4496-9bc6-6ae713525aac","ios":"levelo://app?vid=f967ea00-b8c0-4496-9bc6-6ae713525aac"},"vehicle_type_id":"4","last_reported":1736932184,"current_range_meters":30400,"station_id":"ce4bhgp2rcd13ifvqfd0","pricing_plan_id":"cebpf4jnsgd1na2vs0mg"},{"bike_id":"a7944b54-8c6a-4c3a-83b2-7d2789fe92ae","system_id":"levelo_inurba_marseille","lat":43.30947,"lon":5.39028,"is_reserved":false,"is_disabled":false,"rental_uris":{"android":"levelo://app?vid=a7944b54-8c6a-4c3a-83b2-7d2789fe92ae","ios":"levelo://app?vid=a7944b54-8c6a-4c3a-83b2-7d2789fe92ae"},"vehicle_type_id":"4","last_reported":1736932184,"current_range_meters":17200,"station_id":"ce4bgup2rcd13ifvqco0","pricing_plan_id":"cebpf4jnsgd1na2vs0mg"},{"bike_id":"cbdd97a4-499e-4a2f-9aef-de63b1e35fd4","system_id":"levelo_inurba_marseille","lat":43.23151,"lon":5.4371,"is_reserved":false,"is_disabled":false,"rental_uris":{"android":"levelo://app?vid=cbdd97a4-499e-4a2f-9aef-de63b1e35fd4","ios":"levelo://app?vid=cbdd97a4-499e-4a2f-9aef-de63b1e35fd4"},"vehicle_type_id":"4","last_reported":1736932184,"current_range_meters":8400,"station_id":"ce4bhmp2rcd13ifvqgog","pricing_plan_id":"cebpf4jnsgd1na2vs0mg"},{"bike_id":"77069253-49d0-44c4-8a59-9f12a4f26e74","system_id":"levelo_inurba_marseille","lat":43.28978,"lon":5.37833,"is_reserved":false,"is_disabled":false,"rental_uris":{"android":"levelo://app?vid=77069253-49d0-44c4-8a59-9f12a4f26e74","ios":"levelo://app?vid=77069253-49d0-44c4-8a59-9f12a4f26e74"},"vehicle_type_id":"4","last_reported":1736932184,"current_range_meters":38800,"station_id":"ce4bh9p2rcd13ifvqed0","pricing_plan_id":"cebpf4jnsgd1na2vs0mg"},{"bike_id":"dfa713cf-69f8-4168-8f5b-c3157347b85b","system_id":"levelo_inurba_marseille","lat":43.28169,"lon":5.42674,"is_reserved":false,"is_disabled":false,"rental_uris":{"android":"levelo://app?vid=dfa713cf-69f8-4168-8f5b-c3157347b85b","ios":"levelo://app?vid=dfa713cf-69f8-4168-8f5b-c3157347b85b"},"vehicle_type_id":"4","last_reported":1736932184,"current_range_meters":9600,"station_id":"ce4bhnh2rcd13ifvqgug","pricing_plan_id":"cebpf4jnsgd1na2vs0mg"},{"bike_id":"08956fb4-5437-4f39-a6d0-97d91183d02a","system_id":"levelo_inurba_marseille","lat":43.25938,"lon":5.409,"is_reserved":false,"is_disabled":false,"rental_uris":{"android":"levelo://app?vid=08956fb4-5437-4f39-a6d0-97d91183d02a","ios":"levelo://app?vid=08956fb4-5437-4f39-a6d0-97d91183d02a"},"vehicle_type_id":"4","last_reported":1736932184,"current_range_meters":34800,"station_id":"ce4bhm92rcd13ifvqglg","pricing_plan_id":"cebpf4jnsgd1na2vs0mg"},{"bike_id":"b5b35795-e161-424f-b97b-0ae8d9b8c970","system_id":"levelo_inurba_marseille","lat":43.29543,"lon":5.42289,"is_reserved":false,"is_disabled":false,"rental_uris":{"android":"levelo://app?vid=b5b35795-e161-424f-b97b-0ae8d9b8c970","ios":"levelo://app?vid=b5b35795-e161-424f-b97b-0ae8d9b8c970"},"vehicle_type_id":"4","last_reported":1736932184,"current_range_meters":37600,"station_id":"ce4bhph2rcd13ifvqhdg","pricing_plan_id":"cebpf4jnsgd1na2vs0mg"},{"bike_id":"a402044d-1041-4786-a63f-9d18af3bc82f","system_id":"levelo_inurba_marseille","lat":43.241669,"lon":5.363979,"is_reserved":false,"is_disabled":false,"rental_uris":{"android":"levelo://app?vid=a402044d-1041-4786-a63f-9d18af3bc82f","ios":"levelo://app?vid=a402044d-1041-4786-a63f-9d18af3bc82f"},"vehicle_type_id":"4","last_reported":1736932184,"current_range_meters":36800,"station_id":"cpo36qri1sfpv3e86is0","pricing_plan_id":"cebpf4jnsgd1na2vs0mg"},{"bike_id":"14f19800-e66e-4ddf-982a-615ebbb5bf9e","system_id":"levelo_inurba_marseille","lat":43.32544,"lon":5.41438,"is_reserved":false,"is_disabled":false,"rental_uris":{"android":"levelo://app?vid=14f19800-e66e-4ddf-982a-615ebbb5bf9e","ios":"levelo://app?vid=14f19800-e66e-4ddf-982a-615ebbb5bf9e"},"vehicle_type_id":"4","last_reported":1736932184,"current_range_meters":22400,"station_id":"ce4bhq12rcd13ifvqhhg","pricing_plan_id":"cebpf4jnsgd1na2vs0mg"},{"bike_id":"637a11cf-a2c7-4c9e-87c0-6e627bafd370","system_id":"levelo_inurba_marseille","lat":43.28988,"lon":5.35605,"is_reserved":false,"is_disabled":false,"rental_uris":{"android":"levelo://app?vid=637a11cf-a2c7-4c9e-87c0-6e627bafd370","ios":"levelo://app?vid=637a11cf-a2c7-4c9e-87c0-6e627bafd370"},"vehicle_type_id":"4","last_reported":1736932184,"current_range_meters":26800,"station_id":"ce4bhb92rcd13ifvqen0","pricing_plan_id":"cebpf4jnsgd1na2vs0mg"},{"bike_id":"902edfe6-251a-49fc-8548-2023567b8c62","system_id":"levelo_inurba_marseille","lat":43.30331,"lon":5.36905,"is_reserved":false,"is_disabled":false,"rental_uris":{"android":"levelo://app?vid=902edfe6-251a-49fc-8548-2023567b8c62","ios":"levelo://app?vid=902edfe6-251a-49fc-8548-2023567b8c62"},"vehicle_type_id":"4","last_reported":1736932184,"current_range_meters":22000,"station_id":"ce4bgqh2rcd13ifvqc5g","pricing_plan_id":"cebpf4jnsgd1na2vs0mg"},{"bike_id":"c59d8e01-448a-45bd-b30c-07d72b8d6b71","system_id":"levelo_inurba_marseille","lat":43.30258,"lon":5.37709,"is_reserved":false,"is_disabled":false,"rental_uris":{"android":"levelo://app?vid=c59d8e01-448a-45bd-b30c-07d72b8d6b71","ios":"levelo://app?vid=c59d8e01-448a-45bd-b30c-07d72b8d6b71"},"vehicle_type_id":"4","last_reported":1736932184,"current_range_meters":38800,"station_id":"ce4bguh2rcd13ifvqcj0","pricing_plan_id":"cebpf4jnsgd1na2vs0mg"},{"bike_id":"c8e997c0-8580-4d0f-8d9f-0766596381e1","system_id":"levelo_inurba_marseille","lat":43.33923,"lon":5.37592,"is_reserved":false,"is_disabled":true,"rental_uris":{"android":"levelo://app?vid=c8e997c0-8580-4d0f-8d9f-0766596381e1","ios":"levelo://app?vid=c8e997c0-8580-4d0f-8d9f-0766596381e1"},"vehicle_type_id":"4","last_reported":1736932184,"current_range_meters":0,"station_id":"","pricing_plan_id":"cebpf4jnsgd1na2vs0mg"},{"bike_id":"89ce75d5-1705-4525-a9ff-824dd44028cd","system_id":"levelo_inurba_marseille","lat":43.26933,"lon":5.38905,"is_reserved":false,"is_disabled":false,"rental_uris":{"android":"levelo://app?vid=89ce75d5-1705-4525-a9ff-824dd44028cd","ios":"levelo://app?vid=89ce75d5-1705-4525-a9ff-824dd44028cd"},"vehicle_type_id":"4","last_reported":1736932184,"current_range_meters":30000,"station_id":"ce4bhhh2rcd13ifvqfl0","pricing_plan_id":"cebpf4jnsgd1na2vs0mg"},{"bike_id":"a5685a4f-525f-4b28-b53e-c9f713b41963","system_id":"levelo_inurba_marseille","lat":43.26199,"lon":5.37922,"is_reserved":false,"is_disabled":false,"rental_uris":{"android":"levelo://app?vid=a5685a4f-525f-4b28-b53e-c9f713b41963","ios":"levelo://app?vid=a5685a4f-525f-4b28-b53e-c9f713b41963"},"vehicle_type_id":"4","last_reported":1736932184,"current_range_meters":38000,"station_id":"ce4bhjp2rcd13ifvqg90","pricing_plan_id":"cebpf4jnsgd1na2vs0mg"},{"bike_id":"bf771a3b-5bf0-4592-a3f7-46aa2f4d2292","system_id":"levelo_inurba_marseille","lat":43.24176,"lon":5.39723,"is_reserved":false,"is_disabled":false,"rental_uris":{"android":"levelo://app?vid=bf771a3b-5bf0-4592-a3f7-46aa2f4d2292","ios":"levelo://app?vid=bf771a3b-5bf0-4592-a3f7-46aa2f4d2292"},"vehicle_type_id":"4","last_reported":1736932184,"current_range_meters":19600,"station_id":"ce4bhn12rcd13ifvqgpg","pricing_plan_id":"cebpf4jnsgd1na2vs0mg"},{"bike_id":"344f68bc-66ee-418b-a34b-2df55687589e","system_id":"levelo_inurba_marseille","lat":43.29611,"lon":5.37715,"is_reserved":false,"is_disabled":false,"rental_uris":{"android":"levelo://app?vid=344f68bc-66ee-418b-a34b-2df55687589e","ios":"levelo://app?vid=344f68bc-66ee-418b-a34b-2df55687589e"},"vehicle_type_id":"4","last_reported":1736932184,"current_range_meters":17200,"station_id":"ce4bgi92rcd13ifvqb90","pricing_plan_id":"cebpf4jnsgd1na2vs0mg"},{"bike_id":"74f9b094-c6d4-4e6c-a72f-fba11a45f8f1","system_id":"levelo_inurba_marseille","lat":43.3108,"lon":5.42442,"is_reserved":false,"is_disabled":false,"rental_uris":{"android":"levelo://app?vid=74f9b094-c6d4-4e6c-a72f-fba11a45f8f1","ios":"levelo://app?vid=74f9b094-c6d4-4e6c-a72f-fba11a45f8f1"},"vehicle_type_id":"4","last_reported":1736932184,"current_range_meters":37600,"station_id":"ce4bhp92rcd13ifvqhag","pricing_plan_id":"cebpf4jnsgd1na2vs0mg"},{"bike_id":"cc63a642-f26c-43ca-8db6-148e92ca90e2","system_id":"levelo_inurba_marseille","lat":43.27438,"lon":5.39441,"is_reserved":false,"is_disabled":false,"rental_uris":{"android":"levelo://app?vid=cc63a642-f26c-43ca-8db6-148e92ca90e2","ios":"levelo://app?vid=cc63a642-f26c-43ca-8db6-148e92ca90e2"},"vehicle_type_id":"4","last_reported":1736932184,"current_range_meters":38800,"station_id":"ce4bhdp2rcd13ifvqf20","pricing_plan_id":"cebpf4jnsgd1na2vs0mg"},{"bike_id":"bd6fe96d-e94c-4a01-a63c-a94ddcdacba4","system_id":"levelo_inurba_marseille","lat":43.30951,"lon":5.3904,"is_reserved":false,"is_disabled":false,"rental_uris":{"android":"levelo://app?vid=bd6fe96d-e94c-4a01-a63c-a94ddcdacba4","ios":"levelo://app?vid=bd6fe96d-e94c-4a01-a63c-a94ddcdacba4"},"vehicle_type_id":"4","last_reported":1736932184,"current_range_meters":28000,"station_id":"ce4bgup2rcd13ifvqco0","pricing_plan_id":"cebpf4jnsgd1na2vs0mg"},{"bike_id":"88bd68a3-540b-4837-8a9e-61cb6c90bf70","system_id":"levelo_inurba_marseille","lat":43.29305,"lon":5.37459,"is_reserved":false,"is_disabled":false,"rental_uris":{"android":"levelo://app?vid=88bd68a3-540b-4837-8a9e-61cb6c90bf70","ios":"levelo://app?vid=88bd68a3-540b-4837-8a9e-61cb6c90bf70"},"vehicle_type_id":"4","last_reported":1736932184,"current_range_meters":30400,"station_id":"ce4bgi12rcd13ifvqb70","pricing_plan_id":"cebpf4jnsgd1na2vs0mg"},{"bike_id":"e4507b39-2b7b-4462-817d-d6a893ef1155","system_id":"levelo_inurba_marseille","lat":43.2991,"lon":5.37544,"is_reserved":false,"is_disabled":false,"rental_uris":{"android":"levelo://app?vid=e4507b39-2b7b-4462-817d-d6a893ef1155","ios":"levelo://app?vid=e4507b39-2b7b-4462-817d-d6a893ef1155"},"vehicle_type_id":"4","last_reported":1736932184,"current_range_meters":38800,"station_id":"","pricing_plan_id":"cebpf4jnsgd1na2vs0mg"},{"bike_id":"49780bcb-42bd-43a4-ac67-97ab73136957","system_id":"levelo_inurba_marseille","lat":43.32543,"lon":5.4144,"is_reserved":false,"is_disabled":false,"rental_uris":{"android":"levelo://app?vid=49780bcb-42bd-43a4-ac67-97ab73136957","ios":"levelo://app?vid=49780bcb-42bd-43a4-ac67-97ab73136957"},"vehicle_type_id":"4","last_reported":1736932184,"current_range_meters":38800,"station_id":"ce4bhq12rcd13ifvqhhg","pricing_plan_id":"cebpf4jnsgd1na2vs0mg"},{"bike_id":"e81ef256-d7a3-4c28-9bcc-58b1fdfe2d9d","system_id":"levelo_inurba_marseille","lat":43.25099,"lon":5.40345,"is_reserved":false,"is_disabled":false,"rental_uris":{"android":"levelo://app?vid=e81ef256-d7a3-4c28-9bcc-58b1fdfe2d9d","ios":"levelo://app?vid=e81ef256-d7a3-4c28-9bcc-58b1fdfe2d9d"},"vehicle_type_id":"4","last_reported":1736932184,"current_range_meters":38400,"station_id":"ce4bhlh2rcd13ifvqgig","pricing_plan_id":"cebpf4jnsgd1na2vs0mg"},{"bike_id":"db27b2af-171c-4aa7-b50e-e2ab13f4af0b","system_id":"levelo_inurba_marseille","lat":43.30527,"lon":5.3654,"is_reserved":false,"is_disabled":false,"rental_uris":{"android":"levelo://app?vid=db27b2af-171c-4aa7-b50e-e2ab13f4af0b","ios":"levelo://app?vid=db27b2af-171c-4aa7-b50e-e2ab13f4af0b"},"vehicle_type_id":"4","last_reported":1736932184,"current_range_meters":12800,"station_id":"ce4bgs12rcd13ifvqcag","pricing_plan_id":"cebpf4jnsgd1na2vs0mg"},{"bike_id":"a56bdbd1-df7d-41ba-9f3e-507b8a4b3e97","system_id":"levelo_inurba_marseille","lat":43.2962,"lon":5.37167,"is_reserved":false,"is_disabled":false,"rental_uris":{"android":"levelo://app?vid=a56bdbd1-df7d-41ba-9f3e-507b8a4b3e97","ios":"levelo://app?vid=a56bdbd1-df7d-41ba-9f3e-507b8a4b3e97"},"vehicle_type_id":"4","last_reported":1736932184,"current_range_meters":22400,"station_id":"ce4bgnh2rcd13ifvqc0g","pricing_plan_id":"cebpf4jnsgd1na2vs0mg"},{"bike_id":"cb35ccef-e6b2-4836-8492-7166dbbc38f6","system_id":"levelo_inurba_marseille","lat":43.2835,"lon":5.38102,"is_reserved":false,"is_disabled":false,"rental_uris":{"android":"levelo://app?vid=cb35ccef-e6b2-4836-8492-7166dbbc38f6","ios":"levelo://app?vid=cb35ccef-e6b2-4836-8492-7166dbbc38f6"},"vehicle_type_id":"4","last_reported":1736932184,"current_range_meters":35200,"station_id":"ce4bh412rcd13ifvqdr0","pricing_plan_id":"cebpf4jnsgd1na2vs0mg"},{"bike_id":"ed626f63-b68e-4689-918c-7d8199b25721","system_id":"levelo_inurba_marseille","lat":43.30129,"lon":5.39883,"is_reserved":false,"is_disabled":true,"rental_uris":{"android":"levelo://app?vid=ed626f63-b68e-4689-918c-7d8199b25721","ios":"levelo://app?vid=ed626f63-b68e-4689-918c-7d8199b25721"},"vehicle_type_id":"4","last_reported":1736932184,"current_range_meters":3600,"station_id":"ce4bh0h2rcd13ifvqd40","pricing_plan_id":"cebpf4jnsgd1na2vs0mg"},{"bike_id":"f8800adc-29e9-47fc-86f1-25a46dbbb4db","system_id":"levelo_inurba_marseille","lat":43.30522,"lon":5.3654,"is_reserved":false,"is_disabled":false,"rental_uris":{"android":"levelo://app?vid=f8800adc-29e9-47fc-86f1-25a46dbbb4db","ios":"levelo://app?vid=f8800adc-29e9-47fc-86f1-25a46dbbb4db"},"vehicle_type_id":"4","last_reported":1736932184,"current_range_meters":12000,"station_id":"ce4bgs12rcd13ifvqcag","pricing_plan_id":"cebpf4jnsgd1na2vs0mg"},{"bike_id":"192943ff-6579-4067-8b54-834fbf6d8760","system_id":"levelo_inurba_marseille","lat":43.27607,"lon":5.36219,"is_reserved":false,"is_disabled":false,"rental_uris":{"android":"levelo://app?vid=192943ff-6579-4067-8b54-834fbf6d8760","ios":"levelo://app?vid=192943ff-6579-4067-8b54-834fbf6d8760"},"vehicle_type_id":"4","last_reported":1736932184,"current_range_meters":38400,"station_id":"","pricing_plan_id":"cebpf4jnsgd1na2vs0mg"},{"bike_id":"fea1b24d-bbfb-474a-b028-8645483cd7e6","system_id":"levelo_inurba_marseille","lat":43.27381,"lon":5.36254,"is_reserved":false,"is_disabled":false,"rental_uris":{"android":"levelo://app?vid=fea1b24d-bbfb-474a-b028-8645483cd7e6","ios":"levelo://app?vid=fea1b24d-bbfb-474a-b028-8645483cd7e6"},"vehicle_type_id":"4","last_reported":1736932184,"current_range_meters":38000,"station_id":"ce4bhbh2rcd13ifvqeo0","pricing_plan_id":"cebpf4jnsgd1na2vs0mg"},{"bike_id":"1455126f-f41c-4f0c-a717-77bb0d641fab","system_id":"levelo_inurba_marseille","lat":43.28259,"lon":5.35081,"is_reserved":false,"is_disabled":false,"rental_uris":{"android":"levelo://app?vid=1455126f-f41c-4f0c-a717-77bb0d641fab","ios":"levelo://app?vid=1455126f-f41c-4f0c-a717-77bb0d641fab"},"vehicle_type_id":"4","last_reported":1736932184,"current_range_meters":38800,"station_id":"ce4bhbp2rcd13ifvqerg","pricing_plan_id":"cebpf4jnsgd1na2vs0mg"},{"bike_id":"98c9b57f-b727-44d5-ab39-539e4817921c","system_id":"levelo_inurba_marseille","lat":43.26677,"lon":5.38277,"is_reserved":false,"is_disabled":false,"rental_uris":{"android":"levelo://app?vid=98c9b57f-b727-44d5-ab39-539e4817921c","ios":"levelo://app?vid=98c9b57f-b727-44d5-ab39-539e4817921c"},"vehicle_type_id":"4","last_reported":1736932184,"current_range_meters":36000,"station_id":"ce4bhg92rcd13ifvqf90","pricing_plan_id":"cebpf4jnsgd1na2vs0mg"},{"bike_id":"eef6dc4b-7f43-4457-a154-1fbfcc0fa2e2","system_id":"levelo_inurba_marseille","lat":43.27069,"lon":5.4229,"is_reserved":false,"is_disabled":false,"rental_uris":{"android":"levelo://app?vid=eef6dc4b-7f43-4457-a154-1fbfcc0fa2e2","ios":"levelo://app?vid=eef6dc4b-7f43-4457-a154-1fbfcc0fa2e2"},"vehicle_type_id":"4","last_reported":1736932184,"current_range_meters":4800,"station_id":"ce4bhk92rcd13ifvqgb0","pricing_plan_id":"cebpf4jnsgd1na2vs0mg"},{"bike_id":"0ada6c01-b17d-4394-a9d3-60e5c6157127","system_id":"levelo_inurba_marseille","lat":43.31977,"lon":5.38139,"is_reserved":false,"is_disabled":false,"rental_uris":{"android":"levelo://app?vid=0ada6c01-b17d-4394-a9d3-60e5c6157127","ios":"levelo://app?vid=0ada6c01-b17d-4394-a9d3-60e5c6157127"},"vehicle_type_id":"4","last_reported":1736932184,"current_range_meters":38800,"station_id":"ce4bhr12rcd13ifvqhpg","pricing_plan_id":"cebpf4jnsgd1na2vs0mg"},{"bike_id":"90ef335c-c78d-4871-8cab-954334cad3cb","system_id":"levelo_inurba_marseille","lat":43.29609,"lon":5.38101,"is_reserved":false,"is_disabled":false,"rental_uris":{"android":"levelo://app?vid=90ef335c-c78d-4871-8cab-954334cad3cb","ios":"levelo://app?vid=90ef335c-c78d-4871-8cab-954334cad3cb"},"vehicle_type_id":"4","last_reported":1736932184,"current_range_meters":22000,"station_id":"ce4bgl12rcd13ifvqbo0","pricing_plan_id":"cebpf4jnsgd1na2vs0mg"},{"bike_id":"33599c56-d6e6-4e5d-9218-3b601dbbda24","system_id":"levelo_inurba_marseille","lat":43.3031,"lon":5.39205,"is_reserved":false,"is_disabled":true,"rental_uris":{"android":"levelo://app?vid=33599c56-d6e6-4e5d-9218-3b601dbbda24","ios":"levelo://app?vid=33599c56-d6e6-4e5d-9218-3b601dbbda24"},"vehicle_type_id":"4","last_reported":1736932184,"current_range_meters":6800,"station_id":"ce4bgkh2rcd13ifvqbk0","pricing_plan_id":"cebpf4jnsgd1na2vs0mg"},{"bike_id":"73f1c851-1049-430e-8368-87296464dcce","system_id":"levelo_inurba_marseille","lat":43.32474,"lon":5.3657,"is_reserved":false,"is_disabled":false,"rental_uris":{"android":"levelo://app?vid=73f1c851-1049-430e-8368-87296464dcce","ios":"levelo://app?vid=73f1c851-1049-430e-8368-87296464dcce"},"vehicle_type_id":"4","last_reported":1736932184,"current_range_meters":33600,"station_id":"ce4bhs12rcd13ifvqhvg","pricing_plan_id":"cebpf4jnsgd1na2vs0mg"},{"bike_id":"d05402f2-bf4f-4c1a-9fb5-31a4d01d8ec6","system_id":"levelo_inurba_marseille","lat":43.24541,"lon":5.39527,"is_reserved":false,"is_disabled":false,"rental_uris":{"android":"levelo://app?vid=d05402f2-bf4f-4c1a-9fb5-31a4d01d8ec6","ios":"levelo://app?vid=d05402f2-bf4f-4c1a-9fb5-31a4d01d8ec6"},"vehicle_type_id":"4","last_reported":1736932184,"current_range_meters":24400,"station_id":"ce4bhlp2rcd13ifvqgjg","pricing_plan_id":"cebpf4jnsgd1na2vs0mg"},{"bike_id":"4267cc24-d607-4392-83a8-56d37a3bc695","system_id":"levelo_inurba_marseille","lat":43.24066,"lon":5.37757,"is_reserved":false,"is_disabled":false,"rental_uris":{"android":"levelo://app?vid=4267cc24-d607-4392-83a8-56d37a3bc695","ios":"levelo://app?vid=4267cc24-d607-4392-83a8-56d37a3bc695"},"vehicle_type_id":"4","last_reported":1736932184,"current_range_meters":39200,"station_id":"ce4bhnp2rcd13ifvqgvg","pricing_plan_id":"cebpf4jnsgd1na2vs0mg"},{"bike_id":"6377c400-c699-4025-91a7-9171c60a83d0","system_id":"levelo_inurba_marseille","lat":43.3016,"lon":5.38094,"is_reserved":false,"is_disabled":false,"rental_uris":{"android":"levelo://app?vid=6377c400-c699-4025-91a7-9171c60a83d0","ios":"levelo://app?vid=6377c400-c699-4025-91a7-9171c60a83d0"},"vehicle_type_id":"4","last_reported":1736932184,"current_range_meters":22400,"station_id":"ce4bgjp2rcd13ifvqbh0","pricing_plan_id":"cebpf4jnsgd1na2vs0mg"},{"bike_id":"49a5d511-6df0-447a-a9bc-a0073be4fc02","system_id":"levelo_inurba_marseille","lat":43.29804,"lon":5.38092,"is_reserved":false,"is_disabled":false,"rental_uris":{"android":"levelo://app?vid=49a5d511-6df0-447a-a9bc-a0073be4fc02","ios":"levelo://app?vid=49a5d511-6df0-447a-a9bc-a0073be4fc02"},"vehicle_type_id":"4","last_reported":1736932184,"current_range_meters":27200,"station_id":"ce4bgip2rcd13ifvqbb0","pricing_plan_id":"cebpf4jnsgd1na2vs0mg"},{"bike_id":"28402812-2437-4cb5-805b-4b740e765b45","system_id":"levelo_inurba_marseille","lat":43.30544,"lon":5.36531,"is_reserved":false,"is_disabled":false,"rental_uris":{"android":"levelo://app?vid=28402812-2437-4cb5-805b-4b740e765b45","ios":"levelo://app?vid=28402812-2437-4cb5-805b-4b740e765b45"},"vehicle_type_id":"4","last_reported":1736932184,"current_range_meters":31200,"station_id":"ce4bgs12rcd13ifvqcag","pricing_plan_id":"cebpf4jnsgd1na2vs0mg"},{"bike_id":"a1a925c1-025a-4e52-b724-c9c5776b8317","system_id":"levelo_inurba_marseille","lat":43.25104,"lon":5.40326,"is_reserved":false,"is_disabled":false,"rental_uris":{"android":"levelo://app?vid=a1a925c1-025a-4e52-b724-c9c5776b8317","ios":"levelo://app?vid=a1a925c1-025a-4e52-b724-c9c5776b8317"},"vehicle_type_id":"4","last_reported":1736932184,"current_range_meters":38800,"station_id":"ce4bhlh2rcd13ifvqgig","pricing_plan_id":"cebpf4jnsgd1na2vs0mg"},{"bike_id":"19f7acec-050b-466a-8c17-db931b90e0ce","system_id":"levelo_inurba_marseille","lat":43.24537,"lon":5.39544,"is_reserved":false,"is_disabled":false,"rental_uris":{"android":"levelo://app?vid=19f7acec-050b-466a-8c17-db931b90e0ce","ios":"levelo://app?vid=19f7acec-050b-466a-8c17-db931b90e0ce"},"vehicle_type_id":"4","last_reported":1736932184,"current_range_meters":16800,"station_id":"ce4bhlp2rcd13ifvqgjg","pricing_plan_id":"cebpf4jnsgd1na2vs0mg"},{"bike_id":"2f7f8f97-233b-49c1-a73b-02bd22f3a824","system_id":"levelo_inurba_marseille","lat":43.2668,"lon":5.38268,"is_reserved":false,"is_disabled":false,"rental_uris":{"android":"levelo://app?vid=2f7f8f97-233b-49c1-a73b-02bd22f3a824","ios":"levelo://app?vid=2f7f8f97-233b-49c1-a73b-02bd22f3a824"},"vehicle_type_id":"4","last_reported":1736932184,"current_range_meters":38800,"station_id":"ce4bhg92rcd13ifvqf90","pricing_plan_id":"cebpf4jnsgd1na2vs0mg"},{"bike_id":"d37067bc-448b-4946-8300-5c477cf04cf2","system_id":"levelo_inurba_marseille","lat":43.30126,"lon":5.39896,"is_reserved":false,"is_disabled":true,"rental_uris":{"android":"levelo://app?vid=d37067bc-448b-4946-8300-5c477cf04cf2","ios":"levelo://app?vid=d37067bc-448b-4946-8300-5c477cf04cf2"},"vehicle_type_id":"4","last_reported":1736932184,"current_range_meters":27200,"station_id":"ce4bh0h2rcd13ifvqd40","pricing_plan_id":"cebpf4jnsgd1na2vs0mg"},{"bike_id":"7487d66f-aa39-4ab9-8aab-caf59f9b0af7","system_id":"levelo_inurba_marseille","lat":43.30099,"lon":5.39078,"is_reserved":false,"is_disabled":false,"rental_uris":{"android":"levelo://app?vid=7487d66f-aa39-4ab9-8aab-caf59f9b0af7","ios":"levelo://app?vid=7487d66f-aa39-4ab9-8aab-caf59f9b0af7"},"vehicle_type_id":"4","last_reported":1736932184,"current_range_meters":28000,"station_id":"ce4bh192rcd13ifvqdb0","pricing_plan_id":"cebpf4jnsgd1na2vs0mg"},{"bike_id":"2c839bfc-228b-4afd-9c45-0e54b8f36672","system_id":"levelo_inurba_marseille","lat":43.24644,"lon":5.38905,"is_reserved":false,"is_disabled":false,"rental_uris":{"android":"levelo://app?vid=2c839bfc-228b-4afd-9c45-0e54b8f36672","ios":"levelo://app?vid=2c839bfc-228b-4afd-9c45-0e54b8f36672"},"vehicle_type_id":"4","last_reported":1736932184,"current_range_meters":38000,"station_id":"ce4bhg12rcd13ifvqf60","pricing_plan_id":"cebpf4jnsgd1na2vs0mg"},{"bike_id":"755e5c0a-8de7-4ee5-9d4e-5ec609711170","system_id":"levelo_inurba_marseille","lat":43.29598,"lon":5.38111,"is_reserved":false,"is_disabled":true,"rental_uris":{"android":"levelo://app?vid=755e5c0a-8de7-4ee5-9d4e-5ec609711170","ios":"levelo://app?vid=755e5c0a-8de7-4ee5-9d4e-5ec609711170"},"vehicle_type_id":"4","last_reported":1736932184,"current_range_meters":27600,"station_id":"ce4bgl12rcd13ifvqbo0","pricing_plan_id":"cebpf4jnsgd1na2vs0mg"},{"bike_id":"96ccea46-02c2-4804-b27b-a98e43e1a3e5","system_id":"levelo_inurba_marseille","lat":43.30554,"lon":5.36547,"is_reserved":false,"is_disabled":false,"rental_uris":{"android":"levelo://app?vid=96ccea46-02c2-4804-b27b-a98e43e1a3e5","ios":"levelo://app?vid=96ccea46-02c2-4804-b27b-a98e43e1a3e5"},"vehicle_type_id":"4","last_reported":1736932184,"current_range_meters":19200,"station_id":"ce4bgs12rcd13ifvqcag","pricing_plan_id":"cebpf4jnsgd1na2vs0mg"},{"bike_id":"4539ed99-6a86-4336-b888-bbf8431dcf9d","system_id":"levelo_inurba_marseille","lat":43.25859,"lon":5.39899,"is_reserved":false,"is_disabled":false,"rental_uris":{"android":"levelo://app?vid=4539ed99-6a86-4336-b888-bbf8431dcf9d","ios":"levelo://app?vid=4539ed99-6a86-4336-b888-bbf8431dcf9d"},"vehicle_type_id":"4","last_reported":1736932184,"current_range_meters":30800,"station_id":"ce4bhl92rcd13ifvqghg","pricing_plan_id":"cebpf4jnsgd1na2vs0mg"},{"bike_id":"fa0f0594-5d1d-46eb-8344-bf961f94b942","system_id":"levelo_inurba_marseille","lat":43.30546,"lon":5.3653,"is_reserved":false,"is_disabled":false,"rental_uris":{"android":"levelo://app?vid=fa0f0594-5d1d-46eb-8344-bf961f94b942","ios":"levelo://app?vid=fa0f0594-5d1d-46eb-8344-bf961f94b942"},"vehicle_type_id":"4","last_reported":1736932184,"current_range_meters":18000,"station_id":"ce4bgs12rcd13ifvqcag","pricing_plan_id":"cebpf4jnsgd1na2vs0mg"},{"bike_id":"a15980ac-c225-4e68-8982-6cc8c4cbfd79","system_id":"levelo_inurba_marseille","lat":43.23188,"lon":5.35547,"is_reserved":false,"is_disabled":false,"rental_uris":{"android":"levelo://app?vid=a15980ac-c225-4e68-8982-6cc8c4cbfd79","ios":"levelo://app?vid=a15980ac-c225-4e68-8982-6cc8c4cbfd79"},"vehicle_type_id":"4","last_reported":1736932184,"current_range_meters":38400,"station_id":"ce4bhu92rcd13ifvqi70","pricing_plan_id":"cebpf4jnsgd1na2vs0mg"},{"bike_id":"c1e4c3f1-3e89-4762-b660-b562a1538ef0","system_id":"levelo_inurba_marseille","lat":43.25107,"lon":5.40341,"is_reserved":false,"is_disabled":false,"rental_uris":{"android":"levelo://app?vid=c1e4c3f1-3e89-4762-b660-b562a1538ef0","ios":"levelo://app?vid=c1e4c3f1-3e89-4762-b660-b562a1538ef0"},"vehicle_type_id":"4","last_reported":1736932184,"current_range_meters":38800,"station_id":"ce4bhlh2rcd13ifvqgig","pricing_plan_id":"cebpf4jnsgd1na2vs0mg"},{"bike_id":"90f9e942-4208-4cf9-8bd5-53cc21dd8c3e","system_id":"levelo_inurba_marseille","lat":43.30286,"lon":5.3767,"is_reserved":false,"is_disabled":false,"rental_uris":{"android":"levelo://app?vid=90f9e942-4208-4cf9-8bd5-53cc21dd8c3e","ios":"levelo://app?vid=90f9e942-4208-4cf9-8bd5-53cc21dd8c3e"},"vehicle_type_id":"4","last_reported":1736932184,"current_range_meters":30800,"station_id":"ce4bguh2rcd13ifvqcj0","pricing_plan_id":"cebpf4jnsgd1na2vs0mg"},{"bike_id":"4b37c332-2489-4d2c-95de-3216a96ba17e","system_id":"levelo_inurba_marseille","lat":43.3248,"lon":5.36557,"is_reserved":false,"is_disabled":false,"rental_uris":{"android":"levelo://app?vid=4b37c332-2489-4d2c-95de-3216a96ba17e","ios":"levelo://app?vid=4b37c332-2489-4d2c-95de-3216a96ba17e"},"vehicle_type_id":"4","last_reported":1736932184,"current_range_meters":22800,"station_id":"ce4bhs12rcd13ifvqhvg","pricing_plan_id":"cebpf4jnsgd1na2vs0mg"},{"bike_id":"5ff5140a-2a8f-4905-8712-eb67584199e2","system_id":"levelo_inurba_marseille","lat":43.23964,"lon":5.36629,"is_reserved":false,"is_disabled":false,"rental_uris":{"android":"levelo://app?vid=5ff5140a-2a8f-4905-8712-eb67584199e2","ios":"levelo://app?vid=5ff5140a-2a8f-4905-8712-eb67584199e2"},"vehicle_type_id":"4","last_reported":1736932184,"current_range_meters":26000,"station_id":"ce4bhi12rcd13ifvqfp0","pricing_plan_id":"cebpf4jnsgd1na2vs0mg"},{"bike_id":"b9eed55d-5ba6-4dc4-a632-72e01b758f7a","system_id":"levelo_inurba_marseille","lat":43.30543,"lon":5.3653,"is_reserved":false,"is_disabled":false,"rental_uris":{"android":"levelo://app?vid=b9eed55d-5ba6-4dc4-a632-72e01b758f7a","ios":"levelo://app?vid=b9eed55d-5ba6-4dc4-a632-72e01b758f7a"},"vehicle_type_id":"4","last_reported":1736932184,"current_range_meters":38800,"station_id":"ce4bgs12rcd13ifvqcag","pricing_plan_id":"cebpf4jnsgd1na2vs0mg"},{"bike_id":"ade37924-2114-4ba1-9b29-5d363346dd65","system_id":"levelo_inurba_marseille","lat":43.26933,"lon":5.38916,"is_reserved":false,"is_disabled":false,"rental_uris":{"android":"levelo://app?vid=ade37924-2114-4ba1-9b29-5d363346dd65","ios":"levelo://app?vid=ade37924-2114-4ba1-9b29-5d363346dd65"},"vehicle_type_id":"4","last_reported":1736932184,"current_range_meters":32000,"station_id":"ce4bhhh2rcd13ifvqfl0","pricing_plan_id":"cebpf4jnsgd1na2vs0mg"},{"bike_id":"ac93b4eb-0a30-4c23-8e23-ed807d8f13e8","system_id":"levelo_inurba_marseille","lat":43.27614,"lon":5.36119,"is_reserved":false,"is_disabled":false,"rental_uris":{"android":"levelo://app?vid=ac93b4eb-0a30-4c23-8e23-ed807d8f13e8","ios":"levelo://app?vid=ac93b4eb-0a30-4c23-8e23-ed807d8f13e8"},"vehicle_type_id":"4","last_reported":1736932184,"current_range_meters":39200,"station_id":"ce4bgj92rcd13ifvqbe0","pricing_plan_id":"cebpf4jnsgd1na2vs0mg"},{"bike_id":"51bb6953-dea8-4e82-96bf-52696267905f","system_id":"levelo_inurba_marseille","lat":43.23046,"lon":5.35511,"is_reserved":false,"is_disabled":false,"rental_uris":{"android":"levelo://app?vid=51bb6953-dea8-4e82-96bf-52696267905f","ios":"levelo://app?vid=51bb6953-dea8-4e82-96bf-52696267905f"},"vehicle_type_id":"4","last_reported":1736932184,"current_range_meters":5600,"station_id":"cpo3342slgdg3j2ifvpg","pricing_plan_id":"cebpf4jnsgd1na2vs0mg"},{"bike_id":"c6a41b3a-a7c4-4c32-9a9c-5597c68e3304","system_id":"levelo_inurba_marseille","lat":43.25123,"lon":5.40324,"is_reserved":false,"is_disabled":false,"rental_uris":{"android":"levelo://app?vid=c6a41b3a-a7c4-4c32-9a9c-5597c68e3304","ios":"levelo://app?vid=c6a41b3a-a7c4-4c32-9a9c-5597c68e3304"},"vehicle_type_id":"4","last_reported":1736932184,"current_range_meters":25600,"station_id":"ce4bhlh2rcd13ifvqgig","pricing_plan_id":"cebpf4jnsgd1na2vs0mg"},{"bike_id":"0c4dc621-e525-4719-883f-96a7d84144cd","system_id":"levelo_inurba_marseille","lat":43.302795,"lon":5.377095,"is_reserved":false,"is_disabled":false,"rental_uris":{"android":"levelo://app?vid=0c4dc621-e525-4719-883f-96a7d84144cd","ios":"levelo://app?vid=0c4dc621-e525-4719-883f-96a7d84144cd"},"vehicle_type_id":"4","last_reported":1736932184,"current_range_meters":38800,"station_id":"ce4bguh2rcd13ifvqcj0","pricing_plan_id":"cebpf4jnsgd1na2vs0mg"},{"bike_id":"c3fd4a15-54c7-4bf7-8e92-aec52d2a8162","system_id":"levelo_inurba_marseille","lat":43.2668,"lon":5.38264,"is_reserved":false,"is_disabled":false,"rental_uris":{"android":"levelo://app?vid=c3fd4a15-54c7-4bf7-8e92-aec52d2a8162","ios":"levelo://app?vid=c3fd4a15-54c7-4bf7-8e92-aec52d2a8162"},"vehicle_type_id":"4","last_reported":1736932184,"current_range_meters":33200,"station_id":"ce4bhg92rcd13ifvqf90","pricing_plan_id":"cebpf4jnsgd1na2vs0mg"},{"bike_id":"813b94f5-91fc-4a02-a543-a007fd71989a","system_id":"levelo_inurba_marseille","lat":43.30562,"lon":5.36532,"is_reserved":false,"is_disabled":false,"rental_uris":{"android":"levelo://app?vid=813b94f5-91fc-4a02-a543-a007fd71989a","ios":"levelo://app?vid=813b94f5-91fc-4a02-a543-a007fd71989a"},"vehicle_type_id":"4","last_reported":1736932184,"current_range_meters":38800,"station_id":"ce4bgs12rcd13ifvqcag","pricing_plan_id":"cebpf4jnsgd1na2vs0mg"},{"bike_id":"c4a8dadf-2d26-4438-8022-6780136cb89c","system_id":"levelo_inurba_marseille","lat":43.2761,"lon":5.36132,"is_reserved":false,"is_disabled":true,"rental_uris":{"android":"levelo://app?vid=c4a8dadf-2d26-4438-8022-6780136cb89c","ios":"levelo://app?vid=c4a8dadf-2d26-4438-8022-6780136cb89c"},"vehicle_type_id":"4","last_reported":1736932184,"current_range_meters":34000,"station_id":"ce4bgj92rcd13ifvqbe0","pricing_plan_id":"cebpf4jnsgd1na2vs0mg"},{"bike_id":"1a88b36a-bdcc-4ab6-a257-59715f73d204","system_id":"levelo_inurba_marseille","lat":43.26696,"lon":5.38219,"is_reserved":false,"is_disabled":false,"rental_uris":{"android":"levelo://app?vid=1a88b36a-bdcc-4ab6-a257-59715f73d204","ios":"levelo://app?vid=1a88b36a-bdcc-4ab6-a257-59715f73d204"},"vehicle_type_id":"4","last_reported":1736932184,"current_range_meters":24800,"station_id":"ce4bhg92rcd13ifvqf90","pricing_plan_id":"cebpf4jnsgd1na2vs0mg"},{"bike_id":"f6b5a21b-caca-4bab-9767-62a516c88435","system_id":"levelo_inurba_marseille","lat":43.246483,"lon":5.388941,"is_reserved":false,"is_disabled":false,"rental_uris":{"android":"levelo://app?vid=f6b5a21b-caca-4bab-9767-62a516c88435","ios":"levelo://app?vid=f6b5a21b-caca-4bab-9767-62a516c88435"},"vehicle_type_id":"4","last_reported":1736932184,"current_range_meters":38800,"station_id":"ce4bhg12rcd13ifvqf60","pricing_plan_id":"cebpf4jnsgd1na2vs0mg"},{"bike_id":"1ab3f322-8e8f-40bf-b46a-ad736fdeffee","system_id":"levelo_inurba_marseille","lat":43.23154,"lon":5.43738,"is_reserved":false,"is_disabled":false,"rental_uris":{"android":"levelo://app?vid=1ab3f322-8e8f-40bf-b46a-ad736fdeffee","ios":"levelo://app?vid=1ab3f322-8e8f-40bf-b46a-ad736fdeffee"},"vehicle_type_id":"4","last_reported":1736932184,"current_range_meters":38800,"station_id":"ce4bhmp2rcd13ifvqgog","pricing_plan_id":"cebpf4jnsgd1na2vs0mg"},{"bike_id":"b22753ad-0650-48ad-8cc2-56b467ba0b79","system_id":"levelo_inurba_marseille","lat":43.28721,"lon":5.37958,"is_reserved":false,"is_disabled":false,"rental_uris":{"android":"levelo://app?vid=b22753ad-0650-48ad-8cc2-56b467ba0b79","ios":"levelo://app?vid=b22753ad-0650-48ad-8cc2-56b467ba0b79"},"vehicle_type_id":"4","last_reported":1736932184,"current_range_meters":27200,"station_id":"ce4bh9p2rcd13ifvqec0","pricing_plan_id":"cebpf4jnsgd1na2vs0mg"},{"bike_id":"1aaa5e7a-c52b-4de0-b54a-8e59351b329d","system_id":"levelo_inurba_marseille","lat":43.27491,"lon":5.42451,"is_reserved":false,"is_disabled":false,"rental_uris":{"android":"levelo://app?vid=1aaa5e7a-c52b-4de0-b54a-8e59351b329d","ios":"levelo://app?vid=1aaa5e7a-c52b-4de0-b54a-8e59351b329d"},"vehicle_type_id":"4","last_reported":1736932184,"current_range_meters":10800,"station_id":"ce4bhn92rcd13ifvqgrg","pricing_plan_id":"cebpf4jnsgd1na2vs0mg"},{"bike_id":"7d7c456a-9cec-4962-9d23-1f9fd38c798d","system_id":"levelo_inurba_marseille","lat":43.24669,"lon":5.38138,"is_reserved":false,"is_disabled":false,"rental_uris":{"android":"levelo://app?vid=7d7c456a-9cec-4962-9d23-1f9fd38c798d","ios":"levelo://app?vid=7d7c456a-9cec-4962-9d23-1f9fd38c798d"},"vehicle_type_id":"4","last_reported":1736932184,"current_range_meters":23200,"station_id":"ce4bhih2rcd13ifvqfr0","pricing_plan_id":"cebpf4jnsgd1na2vs0mg"},{"bike_id":"53206026-addf-4a65-8fa0-3fc174184ef4","system_id":"levelo_inurba_marseille","lat":43.3177,"lon":5.38966,"is_reserved":false,"is_disabled":false,"rental_uris":{"android":"levelo://app?vid=53206026-addf-4a65-8fa0-3fc174184ef4","ios":"levelo://app?vid=53206026-addf-4a65-8fa0-3fc174184ef4"},"vehicle_type_id":"4","last_reported":1736932184,"current_range_meters":29600,"station_id":"ce4bhqp2rcd13ifvqhng","pricing_plan_id":"cebpf4jnsgd1na2vs0mg"},{"bike_id":"a56bdef2-14b8-4e02-b3bc-538917283971","system_id":"levelo_inurba_marseille","lat":43.25094,"lon":5.39509,"is_reserved":false,"is_disabled":false,"rental_uris":{"android":"levelo://app?vid=a56bdef2-14b8-4e02-b3bc-538917283971","ios":"levelo://app?vid=a56bdef2-14b8-4e02-b3bc-538917283971"},"vehicle_type_id":"4","last_reported":1736932184,"current_range_meters":28000,"station_id":"ce4bhm12rcd13ifvqgkg","pricing_plan_id":"cebpf4jnsgd1na2vs0mg"},{"bike_id":"595c43f9-e732-431c-b61a-7e3290289a54","system_id":"levelo_inurba_marseille","lat":43.30302,"lon":5.37713,"is_reserved":false,"is_disabled":false,"rental_uris":{"android":"levelo://app?vid=595c43f9-e732-431c-b61a-7e3290289a54","ios":"levelo://app?vid=595c43f9-e732-431c-b61a-7e3290289a54"},"vehicle_type_id":"4","last_reported":1736932184,"current_range_meters":38000,"station_id":"ce4bguh2rcd13ifvqcj0","pricing_plan_id":"cebpf4jnsgd1na2vs0mg"},{"bike_id":"f715cf70-da86-4eb8-be71-e08b36a5db0b","system_id":"levelo_inurba_marseille","lat":43.28936,"lon":5.39635,"is_reserved":false,"is_disabled":false,"rental_uris":{"android":"levelo://app?vid=f715cf70-da86-4eb8-be71-e08b36a5db0b","ios":"levelo://app?vid=f715cf70-da86-4eb8-be71-e08b36a5db0b"},"vehicle_type_id":"4","last_reported":1736932184,"current_range_meters":14800,"station_id":"ce4bh3h2rcd13ifvqdn0","pricing_plan_id":"cebpf4jnsgd1na2vs0mg"},{"bike_id":"82c1c406-afaa-46ff-815c-7ffaf8c8789c","system_id":"levelo_inurba_marseille","lat":43.2621,"lon":5.37442,"is_reserved":false,"is_disabled":false,"rental_uris":{"android":"levelo://app?vid=82c1c406-afaa-46ff-815c-7ffaf8c8789c","ios":"levelo://app?vid=82c1c406-afaa-46ff-815c-7ffaf8c8789c"},"vehicle_type_id":"4","last_reported":1736932184,"current_range_meters":12400,"station_id":"ce4bhgp2rcd13ifvqfc0","pricing_plan_id":"cebpf4jnsgd1na2vs0mg"},{"bike_id":"cf7d67e7-05dc-479d-b00e-982f8e1f9fd0","system_id":"levelo_inurba_marseille","lat":43.29609,"lon":5.38104,"is_reserved":false,"is_disabled":false,"rental_uris":{"android":"levelo://app?vid=cf7d67e7-05dc-479d-b00e-982f8e1f9fd0","ios":"levelo://app?vid=cf7d67e7-05dc-479d-b00e-982f8e1f9fd0"},"vehicle_type_id":"4","last_reported":1736932184,"current_range_meters":34000,"station_id":"ce4bgl12rcd13ifvqbo0","pricing_plan_id":"cebpf4jnsgd1na2vs0mg"},{"bike_id":"ccc7da13-289e-439d-ab93-522668fdf39a","system_id":"levelo_inurba_marseille","lat":43.3118,"lon":5.38716,"is_reserved":false,"is_disabled":false,"rental_uris":{"android":"levelo://app?vid=ccc7da13-289e-439d-ab93-522668fdf39a","ios":"levelo://app?vid=ccc7da13-289e-439d-ab93-522668fdf39a"},"vehicle_type_id":"4","last_reported":1736932184,"current_range_meters":16400,"station_id":"ce4bgv12rcd13ifvqcp0","pricing_plan_id":"cebpf4jnsgd1na2vs0mg"},{"bike_id":"b51b8509-c21e-40ac-802b-edd56e55cdd0","system_id":"levelo_inurba_marseille","lat":43.3036,"lon":5.41906,"is_reserved":false,"is_disabled":true,"rental_uris":{"android":"levelo://app?vid=b51b8509-c21e-40ac-802b-edd56e55cdd0","ios":"levelo://app?vid=b51b8509-c21e-40ac-802b-edd56e55cdd0"},"vehicle_type_id":"4","last_reported":1736932184,"current_range_meters":17200,"station_id":"ce4bhop2rcd13ifvqh7g","pricing_plan_id":"cebpf4jnsgd1na2vs0mg"},{"bike_id":"89802624-8b08-4794-a572-497e05fbe666","system_id":"levelo_inurba_marseille","lat":43.29322,"lon":5.37186,"is_reserved":false,"is_disabled":false,"rental_uris":{"android":"levelo://app?vid=89802624-8b08-4794-a572-497e05fbe666","ios":"levelo://app?vid=89802624-8b08-4794-a572-497e05fbe666"},"vehicle_type_id":"4","last_reported":1736932184,"current_range_meters":17200,"station_id":"ce4bgh92rcd13ifvqb40","pricing_plan_id":"cebpf4jnsgd1na2vs0mg"},{"bike_id":"393f2a4c-f92f-4c75-a253-e1e1fb37fb35","system_id":"levelo_inurba_marseille","lat":43.24072,"lon":5.37756,"is_reserved":false,"is_disabled":false,"rental_uris":{"android":"levelo://app?vid=393f2a4c-f92f-4c75-a253-e1e1fb37fb35","ios":"levelo://app?vid=393f2a4c-f92f-4c75-a253-e1e1fb37fb35"},"vehicle_type_id":"4","last_reported":1736932184,"current_range_meters":31200,"station_id":"ce4bhnp2rcd13ifvqgvg","pricing_plan_id":"cebpf4jnsgd1na2vs0mg"},{"bike_id":"041b27fe-f947-45fe-8459-73eedb41d5f5","system_id":"levelo_inurba_marseille","lat":43.23145,"lon":5.43706,"is_reserved":false,"is_disabled":false,"rental_uris":{"android":"levelo://app?vid=041b27fe-f947-45fe-8459-73eedb41d5f5","ios":"levelo://app?vid=041b27fe-f947-45fe-8459-73eedb41d5f5"},"vehicle_type_id":"4","last_reported":1736932184,"current_range_meters":27200,"station_id":"ce4bhmp2rcd13ifvqgog","pricing_plan_id":"cebpf4jnsgd1na2vs0mg"},{"bike_id":"30cc888a-fdf7-41aa-8fb2-d46ec5802ae1","system_id":"levelo_inurba_marseille","lat":43.32859,"lon":5.39986,"is_reserved":false,"is_disabled":true,"rental_uris":{"android":"levelo://app?vid=30cc888a-fdf7-41aa-8fb2-d46ec5802ae1","ios":"levelo://app?vid=30cc888a-fdf7-41aa-8fb2-d46ec5802ae1"},"vehicle_type_id":"4","last_reported":1736932184,"current_range_meters":0,"station_id":"","pricing_plan_id":"cebpf4jnsgd1na2vs0mg"},{"bike_id":"341e93f3-1ec5-467a-853c-df4e0eb9b641","system_id":"levelo_inurba_marseille","lat":43.27059,"lon":5.40267,"is_reserved":false,"is_disabled":true,"rental_uris":{"android":"levelo://app?vid=341e93f3-1ec5-467a-853c-df4e0eb9b641","ios":"levelo://app?vid=341e93f3-1ec5-467a-853c-df4e0eb9b641"},"vehicle_type_id":"4","last_reported":1736932184,"current_range_meters":28000,"station_id":"ce4bhk92rcd13ifvqgc0","pricing_plan_id":"cebpf4jnsgd1na2vs0mg"},{"bike_id":"991b1011-eecb-4699-ae1c-4a0e18058ae9","system_id":"levelo_inurba_marseille","lat":43.25929,"lon":5.40913,"is_reserved":false,"is_disabled":false,"rental_uris":{"android":"levelo://app?vid=991b1011-eecb-4699-ae1c-4a0e18058ae9","ios":"levelo://app?vid=991b1011-eecb-4699-ae1c-4a0e18058ae9"},"vehicle_type_id":"4","last_reported":1736932184,"current_range_meters":36000,"station_id":"ce4bhm92rcd13ifvqglg","pricing_plan_id":"cebpf4jnsgd1na2vs0mg"},{"bike_id":"a17342a0-9a1e-418c-854a-e9ac337cf990","system_id":"levelo_inurba_marseille","lat":43.31165,"lon":5.38727,"is_reserved":false,"is_disabled":false,"rental_uris":{"android":"levelo://app?vid=a17342a0-9a1e-418c-854a-e9ac337cf990","ios":"levelo://app?vid=a17342a0-9a1e-418c-854a-e9ac337cf990"},"vehicle_type_id":"4","last_reported":1736932184,"current_range_meters":20800,"station_id":"ce4bgv12rcd13ifvqcp0","pricing_plan_id":"cebpf4jnsgd1na2vs0mg"},{"bike_id":"13d8461e-0932-4011-b23f-f1f784c30a3e","system_id":"levelo_inurba_marseille","lat":43.2501,"lon":5.38906,"is_reserved":false,"is_disabled":true,"rental_uris":{"android":"levelo://app?vid=13d8461e-0932-4011-b23f-f1f784c30a3e","ios":"levelo://app?vid=13d8461e-0932-4011-b23f-f1f784c30a3e"},"vehicle_type_id":"4","last_reported":1736932184,"current_range_meters":38800,"station_id":"ce4bhgp2rcd13ifvqfd0","pricing_plan_id":"cebpf4jnsgd1na2vs0mg"},{"bike_id":"0adbfa65-465c-487a-8c44-6247250163c9","system_id":"levelo_inurba_marseille","lat":43.31228,"lon":5.36884,"is_reserved":false,"is_disabled":true,"rental_uris":{"android":"levelo://app?vid=0adbfa65-465c-487a-8c44-6247250163c9","ios":"levelo://app?vid=0adbfa65-465c-487a-8c44-6247250163c9"},"vehicle_type_id":"4","last_reported":1736932184,"current_range_meters":6400,"station_id":"ce4bgl92rcd13ifvqbq0","pricing_plan_id":"cebpf4jnsgd1na2vs0mg"},{"bike_id":"04deccb6-f313-44bf-8fcb-bffda4962049","system_id":"levelo_inurba_marseille","lat":43.27926,"lon":5.41042,"is_reserved":false,"is_disabled":false,"rental_uris":{"android":"levelo://app?vid=04deccb6-f313-44bf-8fcb-bffda4962049","ios":"levelo://app?vid=04deccb6-f313-44bf-8fcb-bffda4962049"},"vehicle_type_id":"4","last_reported":1736932184,"current_range_meters":27200,"station_id":"ce4bhnp2rcd13ifvqh0g","pricing_plan_id":"cebpf4jnsgd1na2vs0mg"},{"bike_id":"d8e3941b-0cae-4b8e-ae3c-c34a4b3b2c65","system_id":"levelo_inurba_marseille","lat":43.31991,"lon":5.38172,"is_reserved":false,"is_disabled":false,"rental_uris":{"android":"levelo://app?vid=d8e3941b-0cae-4b8e-ae3c-c34a4b3b2c65","ios":"levelo://app?vid=d8e3941b-0cae-4b8e-ae3c-c34a4b3b2c65"},"vehicle_type_id":"4","last_reported":1736932184,"current_range_meters":38800,"station_id":"ce4bhr12rcd13ifvqhpg","pricing_plan_id":"cebpf4jnsgd1na2vs0mg"},{"bike_id":"7c14d5c3-ce5a-4bd4-83e5-ff6c90da96df","system_id":"levelo_inurba_marseille","lat":43.28556,"lon":5.38391,"is_reserved":false,"is_disabled":true,"rental_uris":{"android":"levelo://app?vid=7c14d5c3-ce5a-4bd4-83e5-ff6c90da96df","ios":"levelo://app?vid=7c14d5c3-ce5a-4bd4-83e5-ff6c90da96df"},"vehicle_type_id":"4","last_reported":1736932184,"current_range_meters":800,"station_id":"","pricing_plan_id":"cebpf4jnsgd1na2vs0mg"},{"bike_id":"18cb3ed7-c217-41b7-a789-b2b720ef6eb0","system_id":"levelo_inurba_marseille","lat":43.26946,"lon":5.38651,"is_reserved":false,"is_disabled":false,"rental_uris":{"android":"levelo://app?vid=18cb3ed7-c217-41b7-a789-b2b720ef6eb0","ios":"levelo://app?vid=18cb3ed7-c217-41b7-a789-b2b720ef6eb0"},"vehicle_type_id":"4","last_reported":1736932184,"current_range_meters":33600,"station_id":"ce4bhh92rcd13ifvqfh0","pricing_plan_id":"cebpf4jnsgd1na2vs0mg"},{"bike_id":"fb51c046-9b95-427f-9f9f-1bb865f88d6b","system_id":"levelo_inurba_marseille","lat":43.32295,"lon":5.38272,"is_reserved":false,"is_disabled":false,"rental_uris":{"android":"levelo://app?vid=fb51c046-9b95-427f-9f9f-1bb865f88d6b","ios":"levelo://app?vid=fb51c046-9b95-427f-9f9f-1bb865f88d6b"},"vehicle_type_id":"4","last_reported":1736932184,"current_range_meters":27200,"station_id":"ce4bhr12rcd13ifvqhqg","pricing_plan_id":"cebpf4jnsgd1na2vs0mg"},{"bike_id":"c8948b73-94be-4a67-9530-7fd69a2bf1b0","system_id":"levelo_inurba_marseille","lat":43.24062,"lon":5.3771,"is_reserved":false,"is_disabled":false,"rental_uris":{"android":"levelo://app?vid=c8948b73-94be-4a67-9530-7fd69a2bf1b0","ios":"levelo://app?vid=c8948b73-94be-4a67-9530-7fd69a2bf1b0"},"vehicle_type_id":"4","last_reported":1736932184,"current_range_meters":33200,"station_id":"ce4bhnp2rcd13ifvqgvg","pricing_plan_id":"cebpf4jnsgd1na2vs0mg"},{"bike_id":"04687878-28f0-4113-b3ce-450990473717","system_id":"levelo_inurba_marseille","lat":43.30432,"lon":5.39809,"is_reserved":false,"is_disabled":false,"rental_uris":{"android":"levelo://app?vid=04687878-28f0-4113-b3ce-450990473717","ios":"levelo://app?vid=04687878-28f0-4113-b3ce-450990473717"},"vehicle_type_id":"4","last_reported":1736932184,"current_range_meters":18800,"station_id":"ce4bh092rcd13ifvqd20","pricing_plan_id":"cebpf4jnsgd1na2vs0mg"},{"bike_id":"54562beb-d62d-45a9-aee6-6ac8321e0e4a","system_id":"levelo_inurba_marseille","lat":43.29793,"lon":5.40414,"is_reserved":false,"is_disabled":false,"rental_uris":{"android":"levelo://app?vid=54562beb-d62d-45a9-aee6-6ac8321e0e4a","ios":"levelo://app?vid=54562beb-d62d-45a9-aee6-6ac8321e0e4a"},"vehicle_type_id":"4","last_reported":1736932184,"current_range_meters":37600,"station_id":"ce4bh112rcd13ifvqd90","pricing_plan_id":"cebpf4jnsgd1na2vs0mg"},{"bike_id":"1dc448a0-ee33-4a06-b8c4-96265dcf9cdd","system_id":"levelo_inurba_marseille","lat":43.32536,"lon":5.41472,"is_reserved":false,"is_disabled":false,"rental_uris":{"android":"levelo://app?vid=1dc448a0-ee33-4a06-b8c4-96265dcf9cdd","ios":"levelo://app?vid=1dc448a0-ee33-4a06-b8c4-96265dcf9cdd"},"vehicle_type_id":"4","last_reported":1736932184,"current_range_meters":37600,"station_id":"ce4bhq12rcd13ifvqhhg","pricing_plan_id":"cebpf4jnsgd1na2vs0mg"},{"bike_id":"733c84d1-b906-45a9-b7c5-d0ec2361f65c","system_id":"levelo_inurba_marseille","lat":43.24659,"lon":5.38183,"is_reserved":false,"is_disabled":false,"rental_uris":{"android":"levelo://app?vid=733c84d1-b906-45a9-b7c5-d0ec2361f65c","ios":"levelo://app?vid=733c84d1-b906-45a9-b7c5-d0ec2361f65c"},"vehicle_type_id":"4","last_reported":1736932184,"current_range_meters":13600,"station_id":"ce4bhih2rcd13ifvqfr0","pricing_plan_id":"cebpf4jnsgd1na2vs0mg"},{"bike_id":"a1cbf57f-0d37-4cde-a4f4-e53c7978be93","system_id":"levelo_inurba_marseille","lat":43.2607,"lon":5.39388,"is_reserved":false,"is_disabled":false,"rental_uris":{"android":"levelo://app?vid=a1cbf57f-0d37-4cde-a4f4-e53c7978be93","ios":"levelo://app?vid=a1cbf57f-0d37-4cde-a4f4-e53c7978be93"},"vehicle_type_id":"4","last_reported":1736932184,"current_range_meters":8000,"station_id":"ce4bhh92rcd13ifvqfj0","pricing_plan_id":"cebpf4jnsgd1na2vs0mg"},{"bike_id":"50d3ffcb-7d5e-4d8d-94e6-e66e41339271","system_id":"levelo_inurba_marseille","lat":43.24075,"lon":5.3776,"is_reserved":false,"is_disabled":false,"rental_uris":{"android":"levelo://app?vid=50d3ffcb-7d5e-4d8d-94e6-e66e41339271","ios":"levelo://app?vid=50d3ffcb-7d5e-4d8d-94e6-e66e41339271"},"vehicle_type_id":"4","last_reported":1736932184,"current_range_meters":26800,"station_id":"ce4bhnp2rcd13ifvqgvg","pricing_plan_id":"cebpf4jnsgd1na2vs0mg"},{"bike_id":"20b42ccb-0411-4ccb-9208-7ac954900656","system_id":"levelo_inurba_marseille","lat":43.3132,"lon":5.3674,"is_reserved":false,"is_disabled":false,"rental_uris":{"android":"levelo://app?vid=20b42ccb-0411-4ccb-9208-7ac954900656","ios":"levelo://app?vid=20b42ccb-0411-4ccb-9208-7ac954900656"},"vehicle_type_id":"4","last_reported":1736932184,"current_range_meters":8800,"station_id":"ce4bgr92rcd13ifvqc6g","pricing_plan_id":"cebpf4jnsgd1na2vs0mg"},{"bike_id":"58c7721e-ce13-4500-9751-72b146b2411f","system_id":"levelo_inurba_marseille","lat":43.3134,"lon":5.36733,"is_reserved":false,"is_disabled":false,"rental_uris":{"android":"levelo://app?vid=58c7721e-ce13-4500-9751-72b146b2411f","ios":"levelo://app?vid=58c7721e-ce13-4500-9751-72b146b2411f"},"vehicle_type_id":"4","last_reported":1736932184,"current_range_meters":30400,"station_id":"ce4bgr92rcd13ifvqc6g","pricing_plan_id":"cebpf4jnsgd1na2vs0mg"},{"bike_id":"a01de448-cffe-4357-8cb3-2d9c061a5f52","system_id":"levelo_inurba_marseille","lat":43.29307,"lon":5.37184,"is_reserved":false,"is_disabled":true,"rental_uris":{"android":"levelo://app?vid=a01de448-cffe-4357-8cb3-2d9c061a5f52","ios":"levelo://app?vid=a01de448-cffe-4357-8cb3-2d9c061a5f52"},"vehicle_type_id":"4","last_reported":1736932184,"current_range_meters":6000,"station_id":"ce4bgh92rcd13ifvqb40","pricing_plan_id":"cebpf4jnsgd1na2vs0mg"},{"bike_id":"ea740cd7-5d51-4d4c-8ecc-d36ef5573155","system_id":"levelo_inurba_marseille","lat":43.25581,"lon":5.38226,"is_reserved":false,"is_disabled":false,"rental_uris":{"android":"levelo://app?vid=ea740cd7-5d51-4d4c-8ecc-d36ef5573155","ios":"levelo://app?vid=ea740cd7-5d51-4d4c-8ecc-d36ef5573155"},"vehicle_type_id":"4","last_reported":1736932184,"current_range_meters":11200,"station_id":"ce4bhih2rcd13ifvqfs0","pricing_plan_id":"cebpf4jnsgd1na2vs0mg"},{"bike_id":"6e7fd2db-32f2-4a07-97be-2d499cc1e0ba","system_id":"levelo_inurba_marseille","lat":43.30309,"lon":5.39256,"is_reserved":false,"is_disabled":false,"rental_uris":{"android":"levelo://app?vid=6e7fd2db-32f2-4a07-97be-2d499cc1e0ba","ios":"levelo://app?vid=6e7fd2db-32f2-4a07-97be-2d499cc1e0ba"},"vehicle_type_id":"4","last_reported":1736932184,"current_range_meters":24000,"station_id":"ce4bgkh2rcd13ifvqbk0","pricing_plan_id":"cebpf4jnsgd1na2vs0mg"},{"bike_id":"57e14091-c14e-4979-a5fb-d74103e86ffe","system_id":"levelo_inurba_marseille","lat":43.26954,"lon":5.38634,"is_reserved":false,"is_disabled":false,"rental_uris":{"android":"levelo://app?vid=57e14091-c14e-4979-a5fb-d74103e86ffe","ios":"levelo://app?vid=57e14091-c14e-4979-a5fb-d74103e86ffe"},"vehicle_type_id":"4","last_reported":1736932184,"current_range_meters":33600,"station_id":"ce4bhh92rcd13ifvqfh0","pricing_plan_id":"cebpf4jnsgd1na2vs0mg"},{"bike_id":"144d2cc5-c4bb-4060-a212-90e29cfa4705","system_id":"levelo_inurba_marseille","lat":43.28714,"lon":5.39995,"is_reserved":false,"is_disabled":true,"rental_uris":{"android":"levelo://app?vid=144d2cc5-c4bb-4060-a212-90e29cfa4705","ios":"levelo://app?vid=144d2cc5-c4bb-4060-a212-90e29cfa4705"},"vehicle_type_id":"4","last_reported":1736932184,"current_range_meters":8800,"station_id":"ce4bho92rcd13ifvqh3g","pricing_plan_id":"cebpf4jnsgd1na2vs0mg"},{"bike_id":"5f23a61a-7e7d-465e-942d-98e84a6e0f49","system_id":"levelo_inurba_marseille","lat":43.248178,"lon":5.374548,"is_reserved":false,"is_disabled":false,"rental_uris":{"android":"levelo://app?vid=5f23a61a-7e7d-465e-942d-98e84a6e0f49","ios":"levelo://app?vid=5f23a61a-7e7d-465e-942d-98e84a6e0f49"},"vehicle_type_id":"4","last_reported":1736932184,"current_range_meters":30000,"station_id":"ce4bhgh2rcd13ifvqfb0","pricing_plan_id":"cebpf4jnsgd1na2vs0mg"},{"bike_id":"8d08fa75-e041-4b5c-90f2-d9e65958237e","system_id":"levelo_inurba_marseille","lat":43.26954,"lon":5.38629,"is_reserved":false,"is_disabled":false,"rental_uris":{"android":"levelo://app?vid=8d08fa75-e041-4b5c-90f2-d9e65958237e","ios":"levelo://app?vid=8d08fa75-e041-4b5c-90f2-d9e65958237e"},"vehicle_type_id":"4","last_reported":1736932184,"current_range_meters":38000,"station_id":"ce4bhh92rcd13ifvqfh0","pricing_plan_id":"cebpf4jnsgd1na2vs0mg"},{"bike_id":"198897f2-d98b-469d-9893-cf67a03acff7","system_id":"levelo_inurba_marseille","lat":43.2512,"lon":5.40328,"is_reserved":false,"is_disabled":false,"rental_uris":{"android":"levelo://app?vid=198897f2-d98b-469d-9893-cf67a03acff7","ios":"levelo://app?vid=198897f2-d98b-469d-9893-cf67a03acff7"},"vehicle_type_id":"4","last_reported":1736932184,"current_range_meters":19200,"station_id":"ce4bhlh2rcd13ifvqgig","pricing_plan_id":"cebpf4jnsgd1na2vs0mg"},{"bike_id":"b491ee22-5d70-441d-9304-4ae07b2974c0","system_id":"levelo_inurba_marseille","lat":43.25581,"lon":5.38234,"is_reserved":false,"is_disabled":false,"rental_uris":{"android":"levelo://app?vid=b491ee22-5d70-441d-9304-4ae07b2974c0","ios":"levelo://app?vid=b491ee22-5d70-441d-9304-4ae07b2974c0"},"vehicle_type_id":"4","last_reported":1736932184,"current_range_meters":37600,"station_id":"ce4bhih2rcd13ifvqfs0","pricing_plan_id":"cebpf4jnsgd1na2vs0mg"},{"bike_id":"82b8a09a-15c7-49de-9368-5c5aead156b1","system_id":"levelo_inurba_marseille","lat":43.26946,"lon":5.38647,"is_reserved":false,"is_disabled":false,"rental_uris":{"android":"levelo://app?vid=82b8a09a-15c7-49de-9368-5c5aead156b1","ios":"levelo://app?vid=82b8a09a-15c7-49de-9368-5c5aead156b1"},"vehicle_type_id":"4","last_reported":1736932184,"current_range_meters":38000,"station_id":"ce4bhh92rcd13ifvqfh0","pricing_plan_id":"cebpf4jnsgd1na2vs0mg"},{"bike_id":"701dfed4-da8a-492d-ab8b-26f7162d6cc2","system_id":"levelo_inurba_marseille","lat":43.29923,"lon":5.37498,"is_reserved":false,"is_disabled":false,"rental_uris":{"android":"levelo://app?vid=701dfed4-da8a-492d-ab8b-26f7162d6cc2","ios":"levelo://app?vid=701dfed4-da8a-492d-ab8b-26f7162d6cc2"},"vehicle_type_id":"4","last_reported":1736932184,"current_range_meters":37600,"station_id":"ce4bgjh2rcd13ifvqbg0","pricing_plan_id":"cebpf4jnsgd1na2vs0mg"},{"bike_id":"0bb787af-c506-4390-b3e4-3d6116cc8d06","system_id":"levelo_inurba_marseille","lat":43.31032,"lon":5.40059,"is_reserved":false,"is_disabled":false,"rental_uris":{"android":"levelo://app?vid=0bb787af-c506-4390-b3e4-3d6116cc8d06","ios":"levelo://app?vid=0bb787af-c506-4390-b3e4-3d6116cc8d06"},"vehicle_type_id":"4","last_reported":1736932184,"current_range_meters":12400,"station_id":"","pricing_plan_id":"cebpf4jnsgd1na2vs0mg"},{"bike_id":"ae6a24c6-71f9-417a-adfe-c09c90280637","system_id":"levelo_inurba_marseille","lat":43.26538,"lon":5.37315,"is_reserved":false,"is_disabled":false,"rental_uris":{"android":"levelo://app?vid=ae6a24c6-71f9-417a-adfe-c09c90280637","ios":"levelo://app?vid=ae6a24c6-71f9-417a-adfe-c09c90280637"},"vehicle_type_id":"4","last_reported":1736932184,"current_range_meters":38000,"station_id":"ce4bhg12rcd13ifvqf70","pricing_plan_id":"cebpf4jnsgd1na2vs0mg"},{"bike_id":"31ca8b0e-c72e-47d4-a59b-a2766db72931","system_id":"levelo_inurba_marseille","lat":43.284275,"lon":5.409275,"is_reserved":false,"is_disabled":true,"rental_uris":{"android":"levelo://app?vid=31ca8b0e-c72e-47d4-a59b-a2766db72931","ios":"levelo://app?vid=31ca8b0e-c72e-47d4-a59b-a2766db72931"},"vehicle_type_id":"4","last_reported":1736932184,"current_range_meters":30800,"station_id":"","pricing_plan_id":"cebpf4jnsgd1na2vs0mg"},{"bike_id":"f39bdb32-1fd4-440c-b419-7bf8a9cac768","system_id":"levelo_inurba_marseille","lat":43.27208,"lon":5.39181,"is_reserved":false,"is_disabled":false,"rental_uris":{"android":"levelo://app?vid=f39bdb32-1fd4-440c-b419-7bf8a9cac768","ios":"levelo://app?vid=f39bdb32-1fd4-440c-b419-7bf8a9cac768"},"vehicle_type_id":"4","last_reported":1736932184,"current_range_meters":36800,"station_id":"ce4bhhp2rcd13ifvqfm0","pricing_plan_id":"cebpf4jnsgd1na2vs0mg"},{"bike_id":"60c48e84-151f-4edd-83cd-789ff87c7f63","system_id":"levelo_inurba_marseille","lat":43.28699,"lon":5.37419,"is_reserved":false,"is_disabled":true,"rental_uris":{"android":"levelo://app?vid=60c48e84-151f-4edd-83cd-789ff87c7f63","ios":"levelo://app?vid=60c48e84-151f-4edd-83cd-789ff87c7f63"},"vehicle_type_id":"4","last_reported":1736932184,"current_range_meters":29600,"station_id":"ce4bh3p2rcd13ifvqdq0","pricing_plan_id":"cebpf4jnsgd1na2vs0mg"},{"bike_id":"697eca9a-2e89-4ffe-831c-9c1d7258fe89","system_id":"levelo_inurba_marseille","lat":43.29919,"lon":5.37503,"is_reserved":false,"is_disabled":false,"rental_uris":{"android":"levelo://app?vid=697eca9a-2e89-4ffe-831c-9c1d7258fe89","ios":"levelo://app?vid=697eca9a-2e89-4ffe-831c-9c1d7258fe89"},"vehicle_type_id":"4","last_reported":1736932184,"current_range_meters":38800,"station_id":"ce4bgjh2rcd13ifvqbg0","pricing_plan_id":"cebpf4jnsgd1na2vs0mg"},{"bike_id":"882b3779-be3e-4adb-b81b-335e1c6b4988","system_id":"levelo_inurba_marseille","lat":43.32532,"lon":5.41481,"is_reserved":false,"is_disabled":false,"rental_uris":{"android":"levelo://app?vid=882b3779-be3e-4adb-b81b-335e1c6b4988","ios":"levelo://app?vid=882b3779-be3e-4adb-b81b-335e1c6b4988"},"vehicle_type_id":"4","last_reported":1736932184,"current_range_meters":28400,"station_id":"ce4bhq12rcd13ifvqhhg","pricing_plan_id":"cebpf4jnsgd1na2vs0mg"},{"bike_id":"e05770dc-4ca5-42f6-8928-9e060772c93d","system_id":"levelo_inurba_marseille","lat":43.3237,"lon":5.38891,"is_reserved":false,"is_disabled":false,"rental_uris":{"android":"levelo://app?vid=e05770dc-4ca5-42f6-8928-9e060772c93d","ios":"levelo://app?vid=e05770dc-4ca5-42f6-8928-9e060772c93d"},"vehicle_type_id":"4","last_reported":1736932184,"current_range_meters":36800,"station_id":"ce4bhqp2rcd13ifvqhog","pricing_plan_id":"cebpf4jnsgd1na2vs0mg"},{"bike_id":"30915a88-97fd-42d8-834a-8aefde6ee3bf","system_id":"levelo_inurba_marseille","lat":43.29434,"lon":5.39762,"is_reserved":false,"is_disabled":false,"rental_uris":{"android":"levelo://app?vid=30915a88-97fd-42d8-834a-8aefde6ee3bf","ios":"levelo://app?vid=30915a88-97fd-42d8-834a-8aefde6ee3bf"},"vehicle_type_id":"4","last_reported":1736932184,"current_range_meters":20400,"station_id":"ce4bh3h2rcd13ifvqdo0","pricing_plan_id":"cebpf4jnsgd1na2vs0mg"},{"bike_id":"de05f028-7450-4792-8d5b-e268410faa9d","system_id":"levelo_inurba_marseille","lat":43.32102,"lon":5.36806,"is_reserved":false,"is_disabled":false,"rental_uris":{"android":"levelo://app?vid=de05f028-7450-4792-8d5b-e268410faa9d","ios":"levelo://app?vid=de05f028-7450-4792-8d5b-e268410faa9d"},"vehicle_type_id":"4","last_reported":1736932184,"current_range_meters":25600,"station_id":"ce4bhrh2rcd13ifvqhug","pricing_plan_id":"cebpf4jnsgd1na2vs0mg"},{"bike_id":"e8a7b18f-324f-4d29-886f-77b85b80b2c6","system_id":"levelo_inurba_marseille","lat":43.2407,"lon":5.37769,"is_reserved":false,"is_disabled":true,"rental_uris":{"android":"levelo://app?vid=e8a7b18f-324f-4d29-886f-77b85b80b2c6","ios":"levelo://app?vid=e8a7b18f-324f-4d29-886f-77b85b80b2c6"},"vehicle_type_id":"4","last_reported":1736932184,"current_range_meters":36400,"station_id":"ce4bhnp2rcd13ifvqgvg","pricing_plan_id":"cebpf4jnsgd1na2vs0mg"},{"bike_id":"b354b3ea-f7ff-42ac-a645-9e5cbfe3e2e2","system_id":"levelo_inurba_marseille","lat":43.305389,"lon":5.365607,"is_reserved":false,"is_disabled":false,"rental_uris":{"android":"levelo://app?vid=b354b3ea-f7ff-42ac-a645-9e5cbfe3e2e2","ios":"levelo://app?vid=b354b3ea-f7ff-42ac-a645-9e5cbfe3e2e2"},"vehicle_type_id":"4","last_reported":1736932184,"current_range_meters":38800,"station_id":"ce4bgs12rcd13ifvqcag","pricing_plan_id":"cebpf4jnsgd1na2vs0mg"},{"bike_id":"3ae7e6d3-b4dc-43b5-8724-b6e7587bf54e","system_id":"levelo_inurba_marseille","lat":43.28273,"lon":5.35081,"is_reserved":false,"is_disabled":false,"rental_uris":{"android":"levelo://app?vid=3ae7e6d3-b4dc-43b5-8724-b6e7587bf54e","ios":"levelo://app?vid=3ae7e6d3-b4dc-43b5-8724-b6e7587bf54e"},"vehicle_type_id":"4","last_reported":1736932184,"current_range_meters":22000,"station_id":"ce4bhbp2rcd13ifvqerg","pricing_plan_id":"cebpf4jnsgd1na2vs0mg"},{"bike_id":"20fac074-0402-43b0-8570-bcc0c51122b5","system_id":"levelo_inurba_marseille","lat":43.2693,"lon":5.38914,"is_reserved":false,"is_disabled":false,"rental_uris":{"android":"levelo://app?vid=20fac074-0402-43b0-8570-bcc0c51122b5","ios":"levelo://app?vid=20fac074-0402-43b0-8570-bcc0c51122b5"},"vehicle_type_id":"4","last_reported":1736932184,"current_range_meters":27600,"station_id":"ce4bhhh2rcd13ifvqfl0","pricing_plan_id":"cebpf4jnsgd1na2vs0mg"},{"bike_id":"99a69340-71fc-4dfb-925a-a4565909b697","system_id":"levelo_inurba_marseille","lat":43.24078,"lon":5.37756,"is_reserved":false,"is_disabled":false,"rental_uris":{"android":"levelo://app?vid=99a69340-71fc-4dfb-925a-a4565909b697","ios":"levelo://app?vid=99a69340-71fc-4dfb-925a-a4565909b697"},"vehicle_type_id":"4","last_reported":1736932184,"current_range_meters":36800,"station_id":"ce4bhnp2rcd13ifvqgvg","pricing_plan_id":"cebpf4jnsgd1na2vs0mg"},{"bike_id":"bb1b8994-2aee-473a-929f-c82dc8a7d2e7","system_id":"levelo_inurba_marseille","lat":43.29612,"lon":5.3811,"is_reserved":false,"is_disabled":false,"rental_uris":{"android":"levelo://app?vid=bb1b8994-2aee-473a-929f-c82dc8a7d2e7","ios":"levelo://app?vid=bb1b8994-2aee-473a-929f-c82dc8a7d2e7"},"vehicle_type_id":"4","last_reported":1736932184,"current_range_meters":16400,"station_id":"ce4bgl12rcd13ifvqbo0","pricing_plan_id":"cebpf4jnsgd1na2vs0mg"},{"bike_id":"dbe1eda4-ae8d-4de5-817d-b38e9991bc1d","system_id":"levelo_inurba_marseille","lat":43.30939,"lon":5.36863,"is_reserved":false,"is_disabled":false,"rental_uris":{"android":"levelo://app?vid=dbe1eda4-ae8d-4de5-817d-b38e9991bc1d","ios":"levelo://app?vid=dbe1eda4-ae8d-4de5-817d-b38e9991bc1d"},"vehicle_type_id":"4","last_reported":1736932184,"current_range_meters":36800,"station_id":"ce4bgn92rcd13ifvqbvg","pricing_plan_id":"cebpf4jnsgd1na2vs0mg"},{"bike_id":"0e7f9e14-9c47-48f3-a02a-73e83fcc5b57","system_id":"levelo_inurba_marseille","lat":43.29624,"lon":5.37148,"is_reserved":false,"is_disabled":true,"rental_uris":{"android":"levelo://app?vid=0e7f9e14-9c47-48f3-a02a-73e83fcc5b57","ios":"levelo://app?vid=0e7f9e14-9c47-48f3-a02a-73e83fcc5b57"},"vehicle_type_id":"4","last_reported":1736932184,"current_range_meters":2000,"station_id":"ce4bgnh2rcd13ifvqc0g","pricing_plan_id":"cebpf4jnsgd1na2vs0mg"},{"bike_id":"e28d6789-36cd-4de3-a701-b86ac5459d3c","system_id":"levelo_inurba_marseille","lat":43.25579,"lon":5.3823,"is_reserved":false,"is_disabled":false,"rental_uris":{"android":"levelo://app?vid=e28d6789-36cd-4de3-a701-b86ac5459d3c","ios":"levelo://app?vid=e28d6789-36cd-4de3-a701-b86ac5459d3c"},"vehicle_type_id":"4","last_reported":1736932184,"current_range_meters":11200,"station_id":"ce4bhih2rcd13ifvqfs0","pricing_plan_id":"cebpf4jnsgd1na2vs0mg"},{"bike_id":"2d7f3353-743b-41e1-85f2-e32181d4ae48","system_id":"levelo_inurba_marseille","lat":43.319975,"lon":5.38164,"is_reserved":false,"is_disabled":false,"rental_uris":{"android":"levelo://app?vid=2d7f3353-743b-41e1-85f2-e32181d4ae48","ios":"levelo://app?vid=2d7f3353-743b-41e1-85f2-e32181d4ae48"},"vehicle_type_id":"4","last_reported":1736932184,"current_range_meters":38000,"station_id":"ce4bhr12rcd13ifvqhpg","pricing_plan_id":"cebpf4jnsgd1na2vs0mg"},{"bike_id":"01e1bd3c-cc17-41e2-88ff-d228178374cd","system_id":"levelo_inurba_marseille","lat":43.28226,"lon":5.42713,"is_reserved":false,"is_disabled":false,"rental_uris":{"android":"levelo://app?vid=01e1bd3c-cc17-41e2-88ff-d228178374cd","ios":"levelo://app?vid=01e1bd3c-cc17-41e2-88ff-d228178374cd"},"vehicle_type_id":"4","last_reported":1736932184,"current_range_meters":36400,"station_id":"","pricing_plan_id":"cebpf4jnsgd1na2vs0mg"},{"bike_id":"10cf3f44-efc7-4ac0-9299-ce9e5eaff490","system_id":"levelo_inurba_marseille","lat":43.30289,"lon":5.37721,"is_reserved":false,"is_disabled":false,"rental_uris":{"android":"levelo://app?vid=10cf3f44-efc7-4ac0-9299-ce9e5eaff490","ios":"levelo://app?vid=10cf3f44-efc7-4ac0-9299-ce9e5eaff490"},"vehicle_type_id":"4","last_reported":1736932184,"current_range_meters":11600,"station_id":"ce4bguh2rcd13ifvqcj0","pricing_plan_id":"cebpf4jnsgd1na2vs0mg"},{"bike_id":"a2416806-79c7-43e5-806b-68ab3111f8b7","system_id":"levelo_inurba_marseille","lat":43.25929,"lon":5.40898,"is_reserved":false,"is_disabled":false,"rental_uris":{"android":"levelo://app?vid=a2416806-79c7-43e5-806b-68ab3111f8b7","ios":"levelo://app?vid=a2416806-79c7-43e5-806b-68ab3111f8b7"},"vehicle_type_id":"4","last_reported":1736932184,"current_range_meters":20800,"station_id":"ce4bhm92rcd13ifvqglg","pricing_plan_id":"cebpf4jnsgd1na2vs0mg"},{"bike_id":"e8791b23-1555-4a02-b085-d2254a7afa84","system_id":"levelo_inurba_marseille","lat":43.27996,"lon":5.40011,"is_reserved":false,"is_disabled":false,"rental_uris":{"android":"levelo://app?vid=e8791b23-1555-4a02-b085-d2254a7afa84","ios":"levelo://app?vid=e8791b23-1555-4a02-b085-d2254a7afa84"},"vehicle_type_id":"4","last_reported":1736932184,"current_range_meters":24000,"station_id":"ce4bho92rcd13ifvqh4g","pricing_plan_id":"cebpf4jnsgd1na2vs0mg"},{"bike_id":"711c4655-59f8-48d6-895f-e834e0049338","system_id":"levelo_inurba_marseille","lat":43.27913,"lon":5.39586,"is_reserved":false,"is_disabled":true,"rental_uris":{"android":"levelo://app?vid=711c4655-59f8-48d6-895f-e834e0049338","ios":"levelo://app?vid=711c4655-59f8-48d6-895f-e834e0049338"},"vehicle_type_id":"4","last_reported":1736932184,"current_range_meters":20000,"station_id":"ce4bhf92rcd13ifvqf40","pricing_plan_id":"cebpf4jnsgd1na2vs0mg"},{"bike_id":"4467d7f9-67af-4647-b1b3-f3a1d228515b","system_id":"levelo_inurba_marseille","lat":43.26945,"lon":5.38621,"is_reserved":false,"is_disabled":true,"rental_uris":{"android":"levelo://app?vid=4467d7f9-67af-4647-b1b3-f3a1d228515b","ios":"levelo://app?vid=4467d7f9-67af-4647-b1b3-f3a1d228515b"},"vehicle_type_id":"4","last_reported":1736932184,"current_range_meters":0,"station_id":"ce4bhh92rcd13ifvqfh0","pricing_plan_id":"cebpf4jnsgd1na2vs0mg"},{"bike_id":"42ad9691-4c6c-4318-adca-49de4591d0db","system_id":"levelo_inurba_marseille","lat":43.3027,"lon":5.37824,"is_reserved":false,"is_disabled":false,"rental_uris":{"android":"levelo://app?vid=42ad9691-4c6c-4318-adca-49de4591d0db","ios":"levelo://app?vid=42ad9691-4c6c-4318-adca-49de4591d0db"},"vehicle_type_id":"4","last_reported":1736932184,"current_range_meters":39200,"station_id":"ce4bguh2rcd13ifvqcj0","pricing_plan_id":"cebpf4jnsgd1na2vs0mg"},{"bike_id":"5b7d1c92-dc02-4f30-9ffe-85ba5225870b","system_id":"levelo_inurba_marseille","lat":43.28161,"lon":5.42689,"is_reserved":false,"is_disabled":false,"rental_uris":{"android":"levelo://app?vid=5b7d1c92-dc02-4f30-9ffe-85ba5225870b","ios":"levelo://app?vid=5b7d1c92-dc02-4f30-9ffe-85ba5225870b"},"vehicle_type_id":"4","last_reported":1736932184,"current_range_meters":36800,"station_id":"ce4bhnh2rcd13ifvqgug","pricing_plan_id":"cebpf4jnsgd1na2vs0mg"},{"bike_id":"b583689d-4b3b-4fec-a4c3-0358dd755494","system_id":"levelo_inurba_marseille","lat":43.26687,"lon":5.38299,"is_reserved":false,"is_disabled":false,"rental_uris":{"android":"levelo://app?vid=b583689d-4b3b-4fec-a4c3-0358dd755494","ios":"levelo://app?vid=b583689d-4b3b-4fec-a4c3-0358dd755494"},"vehicle_type_id":"4","last_reported":1736932184,"current_range_meters":27600,"station_id":"ce4bhg92rcd13ifvqf90","pricing_plan_id":"cebpf4jnsgd1na2vs0mg"},{"bike_id":"bdbd16f5-cde6-4c85-958e-8f9700189ae9","system_id":"levelo_inurba_marseille","lat":43.31325,"lon":5.36748,"is_reserved":false,"is_disabled":false,"rental_uris":{"android":"levelo://app?vid=bdbd16f5-cde6-4c85-958e-8f9700189ae9","ios":"levelo://app?vid=bdbd16f5-cde6-4c85-958e-8f9700189ae9"},"vehicle_type_id":"4","last_reported":1736932184,"current_range_meters":36000,"station_id":"ce4bgr92rcd13ifvqc6g","pricing_plan_id":"cebpf4jnsgd1na2vs0mg"},{"bike_id":"1f6b470d-baa0-403f-9f5e-cf2c4a414869","system_id":"levelo_inurba_marseille","lat":43.26943,"lon":5.38635,"is_reserved":false,"is_disabled":false,"rental_uris":{"android":"levelo://app?vid=1f6b470d-baa0-403f-9f5e-cf2c4a414869","ios":"levelo://app?vid=1f6b470d-baa0-403f-9f5e-cf2c4a414869"},"vehicle_type_id":"4","last_reported":1736932184,"current_range_meters":34000,"station_id":"ce4bhh92rcd13ifvqfh0","pricing_plan_id":"cebpf4jnsgd1na2vs0mg"},{"bike_id":"8534aaf4-535f-4db5-8998-0f97ef68ef36","system_id":"levelo_inurba_marseille","lat":43.24395,"lon":5.37066,"is_reserved":false,"is_disabled":false,"rental_uris":{"android":"levelo://app?vid=8534aaf4-535f-4db5-8998-0f97ef68ef36","ios":"levelo://app?vid=8534aaf4-535f-4db5-8998-0f97ef68ef36"},"vehicle_type_id":"4","last_reported":1736932184,"current_range_meters":16000,"station_id":"ce4bhhh2rcd13ifvqfk0","pricing_plan_id":"cebpf4jnsgd1na2vs0mg"},{"bike_id":"b2c33e7b-da8a-4cda-ab12-4bcf5000aca5","system_id":"levelo_inurba_marseille","lat":43.27617,"lon":5.36116,"is_reserved":false,"is_disabled":false,"rental_uris":{"android":"levelo://app?vid=b2c33e7b-da8a-4cda-ab12-4bcf5000aca5","ios":"levelo://app?vid=b2c33e7b-da8a-4cda-ab12-4bcf5000aca5"},"vehicle_type_id":"4","last_reported":1736932184,"current_range_meters":28800,"station_id":"ce4bgj92rcd13ifvqbe0","pricing_plan_id":"cebpf4jnsgd1na2vs0mg"},{"bike_id":"d752f7d2-eb3f-4c60-a25b-f81f5a6f4344","system_id":"levelo_inurba_marseille","lat":43.30535,"lon":5.36698,"is_reserved":false,"is_disabled":false,"rental_uris":{"android":"levelo://app?vid=d752f7d2-eb3f-4c60-a25b-f81f5a6f4344","ios":"levelo://app?vid=d752f7d2-eb3f-4c60-a25b-f81f5a6f4344"},"vehicle_type_id":"4","last_reported":1736932184,"current_range_meters":28400,"station_id":"ce4bgrp2rcd13ifvqc9g","pricing_plan_id":"cebpf4jnsgd1na2vs0mg"},{"bike_id":"6c02ae22-4e33-4b73-a0d5-7fa499611cc2","system_id":"levelo_inurba_marseille","lat":43.2316,"lon":5.43711,"is_reserved":false,"is_disabled":false,"rental_uris":{"android":"levelo://app?vid=6c02ae22-4e33-4b73-a0d5-7fa499611cc2","ios":"levelo://app?vid=6c02ae22-4e33-4b73-a0d5-7fa499611cc2"},"vehicle_type_id":"4","last_reported":1736932184,"current_range_meters":38000,"station_id":"ce4bhmp2rcd13ifvqgog","pricing_plan_id":"cebpf4jnsgd1na2vs0mg"},{"bike_id":"02908220-1c55-4c15-9a97-ca442f0ecb98","system_id":"levelo_inurba_marseille","lat":43.2314,"lon":5.43707,"is_reserved":false,"is_disabled":false,"rental_uris":{"android":"levelo://app?vid=02908220-1c55-4c15-9a97-ca442f0ecb98","ios":"levelo://app?vid=02908220-1c55-4c15-9a97-ca442f0ecb98"},"vehicle_type_id":"4","last_reported":1736932184,"current_range_meters":36400,"station_id":"ce4bhmp2rcd13ifvqgog","pricing_plan_id":"cebpf4jnsgd1na2vs0mg"},{"bike_id":"0335b373-0bf4-4881-b490-d237d5bb6bc8","system_id":"levelo_inurba_marseille","lat":43.24073,"lon":5.37769,"is_reserved":false,"is_disabled":false,"rental_uris":{"android":"levelo://app?vid=0335b373-0bf4-4881-b490-d237d5bb6bc8","ios":"levelo://app?vid=0335b373-0bf4-4881-b490-d237d5bb6bc8"},"vehicle_type_id":"4","last_reported":1736932184,"current_range_meters":38800,"station_id":"ce4bhnp2rcd13ifvqgvg","pricing_plan_id":"cebpf4jnsgd1na2vs0mg"},{"bike_id":"1ac66b2f-3713-43a8-bee1-1a7f413f5233","system_id":"levelo_inurba_marseille","lat":43.24178,"lon":5.39742,"is_reserved":false,"is_disabled":false,"rental_uris":{"android":"levelo://app?vid=1ac66b2f-3713-43a8-bee1-1a7f413f5233","ios":"levelo://app?vid=1ac66b2f-3713-43a8-bee1-1a7f413f5233"},"vehicle_type_id":"4","last_reported":1736932184,"current_range_meters":32800,"station_id":"ce4bhn12rcd13ifvqgpg","pricing_plan_id":"cebpf4jnsgd1na2vs0mg"},{"bike_id":"c15f24fd-270c-49ce-be5d-511315904b57","system_id":"levelo_inurba_marseille","lat":43.29911,"lon":5.43649,"is_reserved":false,"is_disabled":true,"rental_uris":{"android":"levelo://app?vid=c15f24fd-270c-49ce-be5d-511315904b57","ios":"levelo://app?vid=c15f24fd-270c-49ce-be5d-511315904b57"},"vehicle_type_id":"4","last_reported":1736932184,"current_range_meters":0,"station_id":"ce4bhpp2rcd13ifvqhfg","pricing_plan_id":"cebpf4jnsgd1na2vs0mg"},{"bike_id":"0a3d4dfc-a4b7-4922-9ef4-32b1386df5d7","system_id":"levelo_inurba_marseille","lat":43.30912,"lon":5.36854,"is_reserved":false,"is_disabled":false,"rental_uris":{"android":"levelo://app?vid=0a3d4dfc-a4b7-4922-9ef4-32b1386df5d7","ios":"levelo://app?vid=0a3d4dfc-a4b7-4922-9ef4-32b1386df5d7"},"vehicle_type_id":"4","last_reported":1736932184,"current_range_meters":38800,"station_id":"ce4bgn92rcd13ifvqbvg","pricing_plan_id":"cebpf4jnsgd1na2vs0mg"},{"bike_id":"2c6e7aa2-21a0-4d78-970a-23eccfa250c1","system_id":"levelo_inurba_marseille","lat":43.31345,"lon":5.36721,"is_reserved":false,"is_disabled":false,"rental_uris":{"android":"levelo://app?vid=2c6e7aa2-21a0-4d78-970a-23eccfa250c1","ios":"levelo://app?vid=2c6e7aa2-21a0-4d78-970a-23eccfa250c1"},"vehicle_type_id":"4","last_reported":1736932184,"current_range_meters":35600,"station_id":"ce4bgr92rcd13ifvqc6g","pricing_plan_id":"cebpf4jnsgd1na2vs0mg"},{"bike_id":"41922604-c7b8-4e93-9da5-3903771d7233","system_id":"levelo_inurba_marseille","lat":43.24816,"lon":5.37443,"is_reserved":false,"is_disabled":false,"rental_uris":{"android":"levelo://app?vid=41922604-c7b8-4e93-9da5-3903771d7233","ios":"levelo://app?vid=41922604-c7b8-4e93-9da5-3903771d7233"},"vehicle_type_id":"4","last_reported":1736932184,"current_range_meters":17600,"station_id":"ce4bhgh2rcd13ifvqfb0","pricing_plan_id":"cebpf4jnsgd1na2vs0mg"},{"bike_id":"8e104363-6e74-4918-b934-26ed7d57ca85","system_id":"levelo_inurba_marseille","lat":43.264425,"lon":5.396194,"is_reserved":false,"is_disabled":false,"rental_uris":{"android":"levelo://app?vid=8e104363-6e74-4918-b934-26ed7d57ca85","ios":"levelo://app?vid=8e104363-6e74-4918-b934-26ed7d57ca85"},"vehicle_type_id":"4","last_reported":1736932184,"current_range_meters":17600,"station_id":"ce4bhkp2rcd13ifvqgd0","pricing_plan_id":"cebpf4jnsgd1na2vs0mg"},{"bike_id":"f94df94d-bc8f-423a-851a-769fb61ed24d","system_id":"levelo_inurba_marseille","lat":43.26545,"lon":5.37293,"is_reserved":false,"is_disabled":true,"rental_uris":{"android":"levelo://app?vid=f94df94d-bc8f-423a-851a-769fb61ed24d","ios":"levelo://app?vid=f94df94d-bc8f-423a-851a-769fb61ed24d"},"vehicle_type_id":"4","last_reported":1736932184,"current_range_meters":25200,"station_id":"ce4bhg12rcd13ifvqf70","pricing_plan_id":"cebpf4jnsgd1na2vs0mg"},{"bike_id":"cd00a00c-ff06-437a-a737-456c3235295a","system_id":"levelo_inurba_marseille","lat":43.32535,"lon":5.41451,"is_reserved":false,"is_disabled":false,"rental_uris":{"android":"levelo://app?vid=cd00a00c-ff06-437a-a737-456c3235295a","ios":"levelo://app?vid=cd00a00c-ff06-437a-a737-456c3235295a"},"vehicle_type_id":"4","last_reported":1736932184,"current_range_meters":35600,"station_id":"ce4bhq12rcd13ifvqhhg","pricing_plan_id":"cebpf4jnsgd1na2vs0mg"},{"bike_id":"a453d14a-62a0-4422-a85b-bf35c65835ba","system_id":"levelo_inurba_marseille","lat":43.29383,"lon":5.37837,"is_reserved":false,"is_disabled":false,"rental_uris":{"android":"levelo://app?vid=a453d14a-62a0-4422-a85b-bf35c65835ba","ios":"levelo://app?vid=a453d14a-62a0-4422-a85b-bf35c65835ba"},"vehicle_type_id":"4","last_reported":1736932184,"current_range_meters":38800,"station_id":"ce4bgjh2rcd13ifvqbf0","pricing_plan_id":"cebpf4jnsgd1na2vs0mg"},{"bike_id":"b22d77c3-f37f-47b6-bfd3-17f35050e9db","system_id":"levelo_inurba_marseille","lat":43.27623,"lon":5.36109,"is_reserved":false,"is_disabled":false,"rental_uris":{"android":"levelo://app?vid=b22d77c3-f37f-47b6-bfd3-17f35050e9db","ios":"levelo://app?vid=b22d77c3-f37f-47b6-bfd3-17f35050e9db"},"vehicle_type_id":"4","last_reported":1736932184,"current_range_meters":3600,"station_id":"ce4bgj92rcd13ifvqbe0","pricing_plan_id":"cebpf4jnsgd1na2vs0mg"},{"bike_id":"c744ca31-159b-40e6-a6bf-a78cd1bd93f4","system_id":"levelo_inurba_marseille","lat":43.32539,"lon":5.41418,"is_reserved":false,"is_disabled":false,"rental_uris":{"android":"levelo://app?vid=c744ca31-159b-40e6-a6bf-a78cd1bd93f4","ios":"levelo://app?vid=c744ca31-159b-40e6-a6bf-a78cd1bd93f4"},"vehicle_type_id":"4","last_reported":1736932184,"current_range_meters":33200,"station_id":"ce4bhq12rcd13ifvqhhg","pricing_plan_id":"cebpf4jnsgd1na2vs0mg"},{"bike_id":"410660a6-7b58-4a66-aed6-9c9f5aae6817","system_id":"levelo_inurba_marseille","lat":43.24649,"lon":5.38891,"is_reserved":false,"is_disabled":false,"rental_uris":{"android":"levelo://app?vid=410660a6-7b58-4a66-aed6-9c9f5aae6817","ios":"levelo://app?vid=410660a6-7b58-4a66-aed6-9c9f5aae6817"},"vehicle_type_id":"4","last_reported":1736932184,"current_range_meters":35200,"station_id":"ce4bhg12rcd13ifvqf60","pricing_plan_id":"cebpf4jnsgd1na2vs0mg"},{"bike_id":"edcfc371-a2f9-4342-8bc8-f4d85c8844cd","system_id":"levelo_inurba_marseille","lat":43.29024,"lon":5.3813,"is_reserved":false,"is_disabled":false,"rental_uris":{"android":"levelo://app?vid=edcfc371-a2f9-4342-8bc8-f4d85c8844cd","ios":"levelo://app?vid=edcfc371-a2f9-4342-8bc8-f4d85c8844cd"},"vehicle_type_id":"4","last_reported":1736932184,"current_range_meters":22000,"station_id":"ce4bh4p2rcd13ifvqe1g","pricing_plan_id":"cebpf4jnsgd1na2vs0mg"},{"bike_id":"17fbe066-9bc9-4967-80bc-cbe70e18d732","system_id":"levelo_inurba_marseille","lat":43.23184,"lon":5.40009,"is_reserved":false,"is_disabled":false,"rental_uris":{"android":"levelo://app?vid=17fbe066-9bc9-4967-80bc-cbe70e18d732","ios":"levelo://app?vid=17fbe066-9bc9-4967-80bc-cbe70e18d732"},"vehicle_type_id":"4","last_reported":1736932184,"current_range_meters":34000,"station_id":"ce4bhn12rcd13ifvqgqg","pricing_plan_id":"cebpf4jnsgd1na2vs0mg"},{"bike_id":"50434e67-9533-4a76-b193-31fac01668f6","system_id":"levelo_inurba_marseille","lat":43.27315,"lon":5.39095,"is_reserved":false,"is_disabled":false,"rental_uris":{"android":"levelo://app?vid=50434e67-9533-4a76-b193-31fac01668f6","ios":"levelo://app?vid=50434e67-9533-4a76-b193-31fac01668f6"},"vehicle_type_id":"4","last_reported":1736932184,"current_range_meters":38800,"station_id":"ce4bhgp2rcd13ifvqfe0","pricing_plan_id":"cebpf4jnsgd1na2vs0mg"},{"bike_id":"8ee1990f-924a-4bd0-a1c5-4a2148732998","system_id":"levelo_inurba_marseille","lat":43.231293,"lon":5.436876,"is_reserved":false,"is_disabled":false,"rental_uris":{"android":"levelo://app?vid=8ee1990f-924a-4bd0-a1c5-4a2148732998","ios":"levelo://app?vid=8ee1990f-924a-4bd0-a1c5-4a2148732998"},"vehicle_type_id":"4","last_reported":1736932184,"current_range_meters":22400,"station_id":"ce4bhmp2rcd13ifvqgog","pricing_plan_id":"cebpf4jnsgd1na2vs0mg"},{"bike_id":"dc49e1db-bead-444a-bbf8-a19de758039b","system_id":"levelo_inurba_marseille","lat":43.33103,"lon":5.3823,"is_reserved":false,"is_disabled":false,"rental_uris":{"android":"levelo://app?vid=dc49e1db-bead-444a-bbf8-a19de758039b","ios":"levelo://app?vid=dc49e1db-bead-444a-bbf8-a19de758039b"},"vehicle_type_id":"4","last_reported":1736932184,"current_range_meters":24400,"station_id":"","pricing_plan_id":"cebpf4jnsgd1na2vs0mg"},{"bike_id":"53fbd4a9-b7ba-4cbd-9368-b31aaad79b93","system_id":"levelo_inurba_marseille","lat":43.3027,"lon":5.37704,"is_reserved":false,"is_disabled":false,"rental_uris":{"android":"levelo://app?vid=53fbd4a9-b7ba-4cbd-9368-b31aaad79b93","ios":"levelo://app?vid=53fbd4a9-b7ba-4cbd-9368-b31aaad79b93"},"vehicle_type_id":"4","last_reported":1736932184,"current_range_meters":36800,"station_id":"ce4bguh2rcd13ifvqcj0","pricing_plan_id":"cebpf4jnsgd1na2vs0mg"},{"bike_id":"7f8416e5-69f0-4f44-8e6f-adf37be7a45f","system_id":"levelo_inurba_marseille","lat":43.28467,"lon":5.38426,"is_reserved":false,"is_disabled":true,"rental_uris":{"android":"levelo://app?vid=7f8416e5-69f0-4f44-8e6f-adf37be7a45f","ios":"levelo://app?vid=7f8416e5-69f0-4f44-8e6f-adf37be7a45f"},"vehicle_type_id":"4","last_reported":1736932184,"current_range_meters":0,"station_id":"ce4bh512rcd13ifvqe3g","pricing_plan_id":"cebpf4jnsgd1na2vs0mg"},{"bike_id":"f15d55d3-6b0a-4ea3-b664-c2a77586c703","system_id":"levelo_inurba_marseille","lat":43.3122,"lon":5.36919,"is_reserved":false,"is_disabled":false,"rental_uris":{"android":"levelo://app?vid=f15d55d3-6b0a-4ea3-b664-c2a77586c703","ios":"levelo://app?vid=f15d55d3-6b0a-4ea3-b664-c2a77586c703"},"vehicle_type_id":"4","last_reported":1736932184,"current_range_meters":28000,"station_id":"ce4bgl92rcd13ifvqbq0","pricing_plan_id":"cebpf4jnsgd1na2vs0mg"},{"bike_id":"84d068aa-4e56-4b4b-adec-2f2d20f5e5ca","system_id":"levelo_inurba_marseille","lat":43.29848,"lon":5.36283,"is_reserved":false,"is_disabled":false,"rental_uris":{"android":"levelo://app?vid=84d068aa-4e56-4b4b-adec-2f2d20f5e5ca","ios":"levelo://app?vid=84d068aa-4e56-4b4b-adec-2f2d20f5e5ca"},"vehicle_type_id":"4","last_reported":1736932184,"current_range_meters":38800,"station_id":"ce4bgpp2rcd13ifvqc3g","pricing_plan_id":"cebpf4jnsgd1na2vs0mg"},{"bike_id":"c71089b0-1c8e-4542-86ef-931ca82d50dd","system_id":"levelo_inurba_marseille","lat":43.25581,"lon":5.38242,"is_reserved":false,"is_disabled":false,"rental_uris":{"android":"levelo://app?vid=c71089b0-1c8e-4542-86ef-931ca82d50dd","ios":"levelo://app?vid=c71089b0-1c8e-4542-86ef-931ca82d50dd"},"vehicle_type_id":"4","last_reported":1736932184,"current_range_meters":38800,"station_id":"ce4bhih2rcd13ifvqfs0","pricing_plan_id":"cebpf4jnsgd1na2vs0mg"},{"bike_id":"2a4aab5f-ceee-4d73-9083-caf6b8383bd5","system_id":"levelo_inurba_marseille","lat":43.27953,"lon":5.41046,"is_reserved":false,"is_disabled":false,"rental_uris":{"android":"levelo://app?vid=2a4aab5f-ceee-4d73-9083-caf6b8383bd5","ios":"levelo://app?vid=2a4aab5f-ceee-4d73-9083-caf6b8383bd5"},"vehicle_type_id":"4","last_reported":1736932184,"current_range_meters":32800,"station_id":"ce4bhnp2rcd13ifvqh0g","pricing_plan_id":"cebpf4jnsgd1na2vs0mg"},{"bike_id":"a2acbd59-835d-49a5-be65-bf1391599127","system_id":"levelo_inurba_marseille","lat":43.25953,"lon":5.40884,"is_reserved":false,"is_disabled":false,"rental_uris":{"android":"levelo://app?vid=a2acbd59-835d-49a5-be65-bf1391599127","ios":"levelo://app?vid=a2acbd59-835d-49a5-be65-bf1391599127"},"vehicle_type_id":"4","last_reported":1736932184,"current_range_meters":17600,"station_id":"ce4bhm92rcd13ifvqglg","pricing_plan_id":"cebpf4jnsgd1na2vs0mg"},{"bike_id":"c0fd2063-31ae-4171-af17-771dbb4fa212","system_id":"levelo_inurba_marseille","lat":43.22947,"lon":5.35384,"is_reserved":false,"is_disabled":false,"rental_uris":{"android":"levelo://app?vid=c0fd2063-31ae-4171-af17-771dbb4fa212","ios":"levelo://app?vid=c0fd2063-31ae-4171-af17-771dbb4fa212"},"vehicle_type_id":"4","last_reported":1736932184,"current_range_meters":38800,"station_id":"cpo3532slgdg3j2ikp40","pricing_plan_id":"cebpf4jnsgd1na2vs0mg"},{"bike_id":"7b2751da-c371-44e2-98c9-6eeeee6b9d45","system_id":"levelo_inurba_marseille","lat":43.25943,"lon":5.40941,"is_reserved":false,"is_disabled":false,"rental_uris":{"android":"levelo://app?vid=7b2751da-c371-44e2-98c9-6eeeee6b9d45","ios":"levelo://app?vid=7b2751da-c371-44e2-98c9-6eeeee6b9d45"},"vehicle_type_id":"4","last_reported":1736932184,"current_range_meters":32800,"station_id":"ce4bhm92rcd13ifvqglg","pricing_plan_id":"cebpf4jnsgd1na2vs0mg"},{"bike_id":"640e0385-52d2-431f-9ff3-3ee0c54b5a63","system_id":"levelo_inurba_marseille","lat":43.30106,"lon":5.39041,"is_reserved":false,"is_disabled":false,"rental_uris":{"android":"levelo://app?vid=640e0385-52d2-431f-9ff3-3ee0c54b5a63","ios":"levelo://app?vid=640e0385-52d2-431f-9ff3-3ee0c54b5a63"},"vehicle_type_id":"4","last_reported":1736932184,"current_range_meters":14400,"station_id":"ce4bh192rcd13ifvqdb0","pricing_plan_id":"cebpf4jnsgd1na2vs0mg"},{"bike_id":"49859924-9449-4404-b4e0-04b6ddce7f36","system_id":"levelo_inurba_marseille","lat":43.27382,"lon":5.36223,"is_reserved":false,"is_disabled":false,"rental_uris":{"android":"levelo://app?vid=49859924-9449-4404-b4e0-04b6ddce7f36","ios":"levelo://app?vid=49859924-9449-4404-b4e0-04b6ddce7f36"},"vehicle_type_id":"4","last_reported":1736932184,"current_range_meters":38800,"station_id":"ce4bhbh2rcd13ifvqeo0","pricing_plan_id":"cebpf4jnsgd1na2vs0mg"},{"bike_id":"73c49789-f682-4291-b183-cd469bff96fa","system_id":"levelo_inurba_marseille","lat":43.23151,"lon":5.43716,"is_reserved":false,"is_disabled":false,"rental_uris":{"android":"levelo://app?vid=73c49789-f682-4291-b183-cd469bff96fa","ios":"levelo://app?vid=73c49789-f682-4291-b183-cd469bff96fa"},"vehicle_type_id":"4","last_reported":1736932184,"current_range_meters":24000,"station_id":"ce4bhmp2rcd13ifvqgog","pricing_plan_id":"cebpf4jnsgd1na2vs0mg"},{"bike_id":"1ee4cfa5-4bb0-4d23-8a4a-5592b371ea00","system_id":"levelo_inurba_marseille","lat":43.27068,"lon":5.42278,"is_reserved":false,"is_disabled":false,"rental_uris":{"android":"levelo://app?vid=1ee4cfa5-4bb0-4d23-8a4a-5592b371ea00","ios":"levelo://app?vid=1ee4cfa5-4bb0-4d23-8a4a-5592b371ea00"},"vehicle_type_id":"4","last_reported":1736932184,"current_range_meters":9600,"station_id":"ce4bhk92rcd13ifvqgb0","pricing_plan_id":"cebpf4jnsgd1na2vs0mg"},{"bike_id":"1b22370e-68ef-49e7-8d36-f18a88671a32","system_id":"levelo_inurba_marseille","lat":43.31768,"lon":5.39016,"is_reserved":false,"is_disabled":false,"rental_uris":{"android":"levelo://app?vid=1b22370e-68ef-49e7-8d36-f18a88671a32","ios":"levelo://app?vid=1b22370e-68ef-49e7-8d36-f18a88671a32"},"vehicle_type_id":"4","last_reported":1736932184,"current_range_meters":14400,"station_id":"ce4bhqp2rcd13ifvqhng","pricing_plan_id":"cebpf4jnsgd1na2vs0mg"},{"bike_id":"66f4d1a8-bacd-47ee-bc10-fcbe4ea64cb9","system_id":"levelo_inurba_marseille","lat":43.29624,"lon":5.37165,"is_reserved":false,"is_disabled":false,"rental_uris":{"android":"levelo://app?vid=66f4d1a8-bacd-47ee-bc10-fcbe4ea64cb9","ios":"levelo://app?vid=66f4d1a8-bacd-47ee-bc10-fcbe4ea64cb9"},"vehicle_type_id":"4","last_reported":1736932184,"current_range_meters":32800,"station_id":"ce4bgnh2rcd13ifvqc0g","pricing_plan_id":"cebpf4jnsgd1na2vs0mg"},{"bike_id":"4fcc1908-dbb1-4637-a5c7-041abdcb6bdd","system_id":"levelo_inurba_marseille","lat":43.30547,"lon":5.36523,"is_reserved":false,"is_disabled":false,"rental_uris":{"android":"levelo://app?vid=4fcc1908-dbb1-4637-a5c7-041abdcb6bdd","ios":"levelo://app?vid=4fcc1908-dbb1-4637-a5c7-041abdcb6bdd"},"vehicle_type_id":"4","last_reported":1736932184,"current_range_meters":38000,"station_id":"ce4bgs12rcd13ifvqcag","pricing_plan_id":"cebpf4jnsgd1na2vs0mg"},{"bike_id":"8e1700e2-2825-47f3-9373-6fc227095b7d","system_id":"levelo_inurba_marseille","lat":43.24159,"lon":5.36393,"is_reserved":false,"is_disabled":false,"rental_uris":{"android":"levelo://app?vid=8e1700e2-2825-47f3-9373-6fc227095b7d","ios":"levelo://app?vid=8e1700e2-2825-47f3-9373-6fc227095b7d"},"vehicle_type_id":"4","last_reported":1736932184,"current_range_meters":36400,"station_id":"cpo36qri1sfpv3e86is0","pricing_plan_id":"cebpf4jnsgd1na2vs0mg"},{"bike_id":"7730b9cc-1f47-4fe1-9ce3-46d64e130888","system_id":"levelo_inurba_marseille","lat":43.29629,"lon":5.40595,"is_reserved":false,"is_disabled":false,"rental_uris":{"android":"levelo://app?vid=7730b9cc-1f47-4fe1-9ce3-46d64e130888","ios":"levelo://app?vid=7730b9cc-1f47-4fe1-9ce3-46d64e130888"},"vehicle_type_id":"4","last_reported":1736932184,"current_range_meters":38000,"station_id":"ce4bh0h2rcd13ifvqd60","pricing_plan_id":"cebpf4jnsgd1na2vs0mg"},{"bike_id":"f0a5246f-a04e-4913-a007-7b1de0fa333b","system_id":"levelo_inurba_marseille","lat":43.31226,"lon":5.36853,"is_reserved":false,"is_disabled":false,"rental_uris":{"android":"levelo://app?vid=f0a5246f-a04e-4913-a007-7b1de0fa333b","ios":"levelo://app?vid=f0a5246f-a04e-4913-a007-7b1de0fa333b"},"vehicle_type_id":"4","last_reported":1736932184,"current_range_meters":36800,"station_id":"ce4bgl92rcd13ifvqbq0","pricing_plan_id":"cebpf4jnsgd1na2vs0mg"},{"bike_id":"4227d04e-ee50-4c33-b4c5-f2ee5772724b","system_id":"levelo_inurba_marseille","lat":43.24803,"lon":5.3745,"is_reserved":false,"is_disabled":false,"rental_uris":{"android":"levelo://app?vid=4227d04e-ee50-4c33-b4c5-f2ee5772724b","ios":"levelo://app?vid=4227d04e-ee50-4c33-b4c5-f2ee5772724b"},"vehicle_type_id":"4","last_reported":1736932184,"current_range_meters":16800,"station_id":"ce4bhgh2rcd13ifvqfb0","pricing_plan_id":"cebpf4jnsgd1na2vs0mg"},{"bike_id":"5511bfab-2933-449b-8226-efdf625b9601","system_id":"levelo_inurba_marseille","lat":43.25108,"lon":5.40328,"is_reserved":false,"is_disabled":false,"rental_uris":{"android":"levelo://app?vid=5511bfab-2933-449b-8226-efdf625b9601","ios":"levelo://app?vid=5511bfab-2933-449b-8226-efdf625b9601"},"vehicle_type_id":"4","last_reported":1736932184,"current_range_meters":11200,"station_id":"","pricing_plan_id":"cebpf4jnsgd1na2vs0mg"},{"bike_id":"4a4d296c-e71a-4d73-8515-0b49a9079d8d","system_id":"levelo_inurba_marseille","lat":43.23186,"lon":5.39974,"is_reserved":false,"is_disabled":false,"rental_uris":{"android":"levelo://app?vid=4a4d296c-e71a-4d73-8515-0b49a9079d8d","ios":"levelo://app?vid=4a4d296c-e71a-4d73-8515-0b49a9079d8d"},"vehicle_type_id":"4","last_reported":1736932184,"current_range_meters":26800,"station_id":"ce4bhn12rcd13ifvqgqg","pricing_plan_id":"cebpf4jnsgd1na2vs0mg"},{"bike_id":"d28c64db-672d-4dc2-9aa8-36d7327fadae","system_id":"levelo_inurba_marseille","lat":43.31436,"lon":5.37439,"is_reserved":false,"is_disabled":false,"rental_uris":{"android":"levelo://app?vid=d28c64db-672d-4dc2-9aa8-36d7327fadae","ios":"levelo://app?vid=d28c64db-672d-4dc2-9aa8-36d7327fadae"},"vehicle_type_id":"4","last_reported":1736932184,"current_range_meters":8400,"station_id":"","pricing_plan_id":"cebpf4jnsgd1na2vs0mg"},{"bike_id":"b438a536-2826-455d-89c2-219747efc24e","system_id":"levelo_inurba_marseille","lat":43.27371,"lon":5.36266,"is_reserved":false,"is_disabled":false,"rental_uris":{"android":"levelo://app?vid=b438a536-2826-455d-89c2-219747efc24e","ios":"levelo://app?vid=b438a536-2826-455d-89c2-219747efc24e"},"vehicle_type_id":"4","last_reported":1736932184,"current_range_meters":28400,"station_id":"ce4bhbh2rcd13ifvqeo0","pricing_plan_id":"cebpf4jnsgd1na2vs0mg"},