{"last_updated":1716912551,"ttl":30,"version":"2.2","data":{"bikes":[{"bike_id":"991be2f0-73fe-4564-acb2-013440f959eb","system_id":"levelo_inurba_marseille","lat":43.31226,"lon":5.36852,"is_reserved":false,"is_disabled":false,"rental_uris":{"android":"levelo://app?vid=991be2f0-73fe-4564-acb2-013440f959eb","ios":"levelo://app?vid=991be2f0-73fe-4564-acb2-013440f959eb"},"vehicle_type_id":"4","last_reported":1716912551,"current_range_meters":8400,"station_id":"ce4bgl92rcd13ifvqbq0","pricing_plan_id":"cebpf4jnsgd1na2vs0mg"},{"bike_id":"a5aa3562-b8ce-4fc9-a53a-0c104f87f42f","system_id":"levelo_inurba_marseille","lat":43.31489,"lon":5.373045,"is_reserved":false,"is_disabled":false,"rental_uris":{"android":"levelo://app?vid=a5aa3562-b8ce-4fc9-a53a-0c104f87f42f","ios":"levelo://app?vid=a5aa3562-b8ce-4fc9-a53a-0c104f87f42f"},"vehicle_type_id":"4","last_reported":1716912551,"current_range_meters":28800,"station_id":"ce4bgt12rcd13ifvqcd0","pricing_plan_id":"cebpf4jnsgd1na2vs0mg"},{"bike_id":"119100a6-dc5b-4871-8067-d679284d3ec2","system_id":"levelo_inurba_marseille","lat":43.314942,"lon":5.373099,"is_reserved":false,"is_disabled":false,"rental_uris":{"android":"levelo://app?vid=119100a6-dc5b-4871-8067-d679284d3ec2","ios":"levelo://app?vid=119100a6-dc5b-4871-8067-d679284d3ec2"},"vehicle_type_id":"4","last_reported":1716912551,"current_range_meters":0,"station_id":"ce4bgt12rcd13ifvqcd0","pricing_plan_id":"cebpf4jnsgd1na2vs0mg"},{"bike_id":"54fe49eb-7c6a-4e50-aad6-af224098ab21","system_id":"levelo_inurba_marseille","lat":43.30776,"lon":5.36797,"is_reserved":false,"is_disabled":false,"rental_uris":{"android":"levelo://app?vid=54fe49eb-7c6a-4e50-aad6-af224098ab21","ios":"levelo://app?vid=54fe49eb-7c6a-4e50-aad6-af224098ab21"},"vehicle_type_id":"4","last_reported":1716912551,"current_range_meters":0,"station_id":"","pricing_plan_id":"cebpf4jnsgd1na2vs0mg"},{"bike_id":"5115e181-c7f2-4585-8a50-702ce20cd3cd","system_id":"levelo_inurba_marseille","lat":43.314811,"lon":5.373103,"is_reserved":false,"is_disabled":false,"rental_uris":{"android":"levelo://app?vid=5115e181-c7f2-4585-8a50-702ce20cd3cd","ios":"levelo://app?vid=5115e181-c7f2-4585-8a50-702ce20cd3cd"},"vehicle_type_id":"4","last_reported":1716912551,"current_range_meters":6000,"station_id":"ce4bgt12rcd13ifvqcd0","pricing_plan_id":"cebpf4jnsgd1na2vs0mg"},{"bike_id":"c44450ec-a21a-46e4-8727-126b756a1676","system_id":"levelo_inurba_marseille","lat":43.308974,"lon":5.371934,"is_reserved":false,"is_disabled":false,"rental_uris":{"android":"levelo://app?vid=c44450ec-a21a-46e4-8727-126b756a1676","ios":"levelo://app?vid=c44450ec-a21a-46e4-8727-126b756a1676"},"vehicle_type_id":"4","last_reported":1716912551,"current_range_meters":18400,"station_id":"","pricing_plan_id":"cebpf4jnsgd1na2vs0mg"},{"bike_id":"9cdcc764-0130-4087-bb5d-ce06f940ff6b","system_id":"levelo_inurba_marseille","lat":43.309039,"lon":5.371797,"is_reserved":false,"is_disabled":false,"rental_uris":{"android":"levelo://app?vid=9cdcc764-0130-4087-bb5d-ce06f940ff6b","ios":"levelo://app?vid=9cdcc764-0130-4087-bb5d-ce06f940ff6b"},"vehicle_type_id":"4","last_reported":1716912551,"current_range_meters":12800,"station_id":"ce4bguh2rcd13ifvqckg","pricing_plan_id":"cebpf4jnsgd1na2vs0mg"},{"bike_id":"523c6180-27db-4f91-8f2c-66c66e53e75a","system_id":"levelo_inurba_marseille","lat":43.309034,"lon":5.371783,"is_reserved":false,"is_disabled":false,"rental_uris":{"android":"levelo://app?vid=523c6180-27db-4f91-8f2c-66c66e53e75a","ios":"levelo://app?vid=523c6180-27db-4f91-8f2c-66c66e53e75a"},"vehicle_type_id":"4","last_reported":1716912551,"current_range_meters":4800,"station_id":"ce4bguh2rcd13ifvqckg","pricing_plan_id":"cebpf4jnsgd1na2vs0mg"},{"bike_id":"2d0c0958-b6ef-4251-8600-2b234d442a91","system_id":"levelo_inurba_marseille","lat":43.309039,"lon":5.371797,"is_reserved":false,"is_disabled":false,"rental_uris":{"android":"levelo://app?vid=2d0c0958-b6ef-4251-8600-2b234d442a91","ios":"levelo://app?vid=2d0c0958-b6ef-4251-8600-2b234d442a91"},"vehicle_type_id":"4","last_reported":1716912551,"current_range_meters":2000,"station_id":"ce4bguh2rcd13ifvqckg","pricing_plan_id":"cebpf4jnsgd1na2vs0mg"},{"bike_id":"b423bc94-608f-492d-89ac-924fbfdfbc93","system_id":"levelo_inurba_marseille","lat":43.305712,"lon":5.365641,"is_reserved":false,"is_disabled":false,"rental_uris":{"android":"levelo://app?vid=b423bc94-608f-492d-89ac-924fbfdfbc93","ios":"levelo://app?vid=b423bc94-608f-492d-89ac-924fbfdfbc93"},"vehicle_type_id":"4","last_reported":1716912551,"current_range_meters":14000,"station_id":"ce4bgs12rcd13ifvqcag","pricing_plan_id":"cebpf4jnsgd1na2vs0mg"},{"bike_id":"ec987720-c4d7-412a-ab2f-034045971bb6","system_id":"levelo_inurba_marseille","lat":43.305368,"lon":5.367343,"is_reserved":false,"is_disabled":false,"rental_uris":{"android":"levelo://app?vid=ec987720-c4d7-412a-ab2f-034045971bb6","ios":"levelo://app?vid=ec987720-c4d7-412a-ab2f-034045971bb6"},"vehicle_type_id":"4","last_reported":1716912551,"current_range_meters":5600,"station_id":"ce4bgrp2rcd13ifvqc9g","pricing_plan_id":"cebpf4jnsgd1na2vs0mg"},{"bike_id":"ccdfb265-1374-453a-b9e9-761650c0f9db","system_id":"levelo_inurba_marseille","lat":43.305395,"lon":5.366998,"is_reserved":false,"is_disabled":false,"rental_uris":{"android":"levelo://app?vid=ccdfb265-1374-453a-b9e9-761650c0f9db","ios":"levelo://app?vid=ccdfb265-1374-453a-b9e9-761650c0f9db"},"vehicle_type_id":"4","last_reported":1716912551,"current_range_meters":0,"station_id":"ce4bgrp2rcd13ifvqc9g","pricing_plan_id":"cebpf4jnsgd1na2vs0mg"},{"bike_id":"67952baa-a9fb-4bc1-a7e4-63733a3ee471","system_id":"levelo_inurba_marseille","lat":43.305368,"lon":5.367343,"is_reserved":false,"is_disabled":false,"rental_uris":{"android":"levelo://app?vid=67952baa-a9fb-4bc1-a7e4-63733a3ee471","ios":"levelo://app?vid=67952baa-a9fb-4bc1-a7e4-63733a3ee471"},"vehicle_type_id":"4","last_reported":1716912551,"current_range_meters":400,"station_id":"ce4bgrp2rcd13ifvqc9g","pricing_plan_id":"cebpf4jnsgd1na2vs0mg"},{"bike_id":"785e29b9-dda1-4e57-bdd2-fe5c20440efc","system_id":"levelo_inurba_marseille","lat":43.305714,"lon":5.365633,"is_reserved":false,"is_disabled":false,"rental_uris":{"android":"levelo://app?vid=785e29b9-dda1-4e57-bdd2-fe5c20440efc","ios":"levelo://app?vid=785e29b9-dda1-4e57-bdd2-fe5c20440efc"},"vehicle_type_id":"4","last_reported":1716912551,"current_range_meters":19200,"station_id":"ce4bgs12rcd13ifvqcag","pricing_plan_id":"cebpf4jnsgd1na2vs0mg"},{"bike_id":"8081ec8a-39fc-45d4-9a8a-ab04c950eb7b","system_id":"levelo_inurba_marseille","lat":43.305989,"lon":5.37225,"is_reserved":false,"is_disabled":false,"rental_uris":{"android":"levelo://app?vid=8081ec8a-39fc-45d4-9a8a-ab04c950eb7b","ios":"levelo://app?vid=8081ec8a-39fc-45d4-9a8a-ab04c950eb7b"},"vehicle_type_id":"4","last_reported":1716912551,"current_range_meters":0,"station_id":"ce4bgqh2rcd13ifvqc4g","pricing_plan_id":"cebpf4jnsgd1na2vs0mg"},{"bike_id":"347608a4-9ca2-4ab5-a9bc-f66f1ba0ca52","system_id":"levelo_inurba_marseille","lat":43.305989,"lon":5.37225,"is_reserved":false,"is_disabled":false,"rental_uris":{"android":"levelo://app?vid=347608a4-9ca2-4ab5-a9bc-f66f1ba0ca52","ios":"levelo://app?vid=347608a4-9ca2-4ab5-a9bc-f66f1ba0ca52"},"vehicle_type_id":"4","last_reported":1716912551,"current_range_meters":0,"station_id":"ce4bgqh2rcd13ifvqc4g","pricing_plan_id":"cebpf4jnsgd1na2vs0mg"},{"bike_id":"e39c590d-23c2-4bd1-a844-37ceda8764fc","system_id":"levelo_inurba_marseille","lat":43.305989,"lon":5.37225,"is_reserved":false,"is_disabled":false,"rental_uris":{"android":"levelo://app?vid=e39c590d-23c2-4bd1-a844-37ceda8764fc","ios":"levelo://app?vid=e39c590d-23c2-4bd1-a844-37ceda8764fc"},"vehicle_type_id":"4","last_reported":1716912551,"current_range_meters":23200,"station_id":"ce4bgqh2rcd13ifvqc4g","pricing_plan_id":"cebpf4jnsgd1na2vs0mg"},{"bike_id":"5b9d8959-abda-447c-8edf-e844a2a1a0a6","system_id":"levelo_inurba_marseille","lat":43.311209,"lon":5.377665,"is_reserved":false,"is_disabled":false,"rental_uris":{"android":"levelo://app?vid=5b9d8959-abda-447c-8edf-e844a2a1a0a6","ios":"levelo://app?vid=5b9d8959-abda-447c-8edf-e844a2a1a0a6"},"vehicle_type_id":"4","last_reported":1716912551,"current_range_meters":800,"station_id":"ce4bgt92rcd13ifvqcg0","pricing_plan_id":"cebpf4jnsgd1na2vs0mg"},{"bike_id":"8bc09ed6-c5c1-4dcd-bc2e-4ff79d1d7769","system_id":"levelo_inurba_marseille","lat":43.311125,"lon":5.377624,"is_reserved":false,"is_disabled":false,"rental_uris":{"android":"levelo://app?vid=8bc09ed6-c5c1-4dcd-bc2e-4ff79d1d7769","ios":"levelo://app?vid=8bc09ed6-c5c1-4dcd-bc2e-4ff79d1d7769"},"vehicle_type_id":"4","last_reported":1716912551,"current_range_meters":0,"station_id":"ce4bgt92rcd13ifvqcg0","pricing_plan_id":"cebpf4jnsgd1na2vs0mg"},{"bike_id":"41451d02-a915-4bc3-889f-87fc73344ecb","system_id":"levelo_inurba_marseille","lat":43.31119,"lon":5.37771,"is_reserved":false,"is_disabled":false,"rental_uris":{"android":"levelo://app?vid=41451d02-a915-4bc3-889f-87fc73344ecb","ios":"levelo://app?vid=41451d02-a915-4bc3-889f-87fc73344ecb"},"vehicle_type_id":"4","last_reported":1716912551,"current_range_meters":3600,"station_id":"ce4bgt92rcd13ifvqcg0","pricing_plan_id":"cebpf4jnsgd1na2vs0mg"},{"bike_id":"5c2dad9a-11eb-4e0d-8f16-d5f32955aa12","system_id":"levelo_inurba_marseille","lat":43.31116,"lon":5.37773,"is_reserved":false,"is_disabled":false,"rental_uris":{"android":"levelo://app?vid=5c2dad9a-11eb-4e0d-8f16-d5f32955aa12","ios":"levelo://app?vid=5c2dad9a-11eb-4e0d-8f16-d5f32955aa12"},"vehicle_type_id":"4","last_reported":1716912551,"current_range_meters":24400,"station_id":"ce4bgt92rcd13ifvqcg0","pricing_plan_id":"cebpf4jnsgd1na2vs0mg"},{"bike_id":"39658d1f-f74c-478d-9e32-d7490968fd5c","system_id":"levelo_inurba_marseille","lat":43.307945,"lon":5.376487,"is_reserved":false,"is_disabled":false,"rental_uris":{"android":"levelo://app?vid=39658d1f-f74c-478d-9e32-d7490968fd5c","ios":"levelo://app?vid=39658d1f-f74c-478d-9e32-d7490968fd5c"},"vehicle_type_id":"4","last_reported":1716912551,"current_range_meters":10400,"station_id":"ce4bgv92rcd13ifvqcq0","pricing_plan_id":"cebpf4jnsgd1na2vs0mg"},{"bike_id":"e066667d-c9f5-416b-8ce0-3bda2d2f4a5e","system_id":"levelo_inurba_marseille","lat":43.317075,"lon":5.377367,"is_reserved":false,"is_disabled":false,"rental_uris":{"android":"levelo://app?vid=e066667d-c9f5-416b-8ce0-3bda2d2f4a5e","ios":"levelo://app?vid=e066667d-c9f5-416b-8ce0-3bda2d2f4a5e"},"vehicle_type_id":"4","last_reported":1716912551,"current_range_meters":20000,"station_id":"ce4bgth2rcd13ifvqch0","pricing_plan_id":"cebpf4jnsgd1na2vs0mg"},{"bike_id":"2ec57ebe-d609-4e27-9513-a99d412c03df","system_id":"levelo_inurba_marseille","lat":43.317075,"lon":5.377367,"is_reserved":false,"is_disabled":false,"rental_uris":{"android":"levelo://app?vid=2ec57ebe-d609-4e27-9513-a99d412c03df","ios":"levelo://app?vid=2ec57ebe-d609-4e27-9513-a99d412c03df"},"vehicle_type_id":"4","last_reported":1716912551,"current_range_meters":26400,"station_id":"ce4bgth2rcd13ifvqch0","pricing_plan_id":"cebpf4jnsgd1na2vs0mg"},{"bike_id":"ef5e51de-35ae-47cd-831d-d7747aaf8e41","system_id":"levelo_inurba_marseille","lat":43.317075,"lon":5.377367,"is_reserved":false,"is_disabled":false,"rental_uris":{"android":"levelo://app?vid=ef5e51de-35ae-47cd-831d-d7747aaf8e41","ios":"levelo://app?vid=ef5e51de-35ae-47cd-831d-d7747aaf8e41"},"vehicle_type_id":"4","last_reported":1716912551,"current_range_meters":10400,"station_id":"ce4bgth2rcd13ifvqch0","pricing_plan_id":"cebpf4jnsgd1na2vs0mg"},{"bike_id":"3175aee2-89b7-4c6b-9ac2-a029a37fe122","system_id":"levelo_inurba_marseille","lat":43.317075,"lon":5.377367,"is_reserved":false,"is_disabled":false,"rental_uris":{"android":"levelo://app?vid=3175aee2-89b7-4c6b-9ac2-a029a37fe122","ios":"levelo://app?vid=3175aee2-89b7-4c6b-9ac2-a029a37fe122"},"vehicle_type_id":"4","last_reported":1716912551,"current_range_meters":27600,"station_id":"ce4bgth2rcd13ifvqch0","pricing_plan_id":"cebpf4jnsgd1na2vs0mg"},{"bike_id":"8cb65264-ee3f-4da4-8092-45fe39c0261b","system_id":"levelo_inurba_marseille","lat":43.317075,"lon":5.377367,"is_reserved":false,"is_disabled":false,"rental_uris":{"android":"levelo://app?vid=8cb65264-ee3f-4da4-8092-45fe39c0261b","ios":"levelo://app?vid=8cb65264-ee3f-4da4-8092-45fe39c0261b"},"vehicle_type_id":"4","last_reported":1716912551,"current_range_meters":29600,"station_id":"ce4bgth2rcd13ifvqch0","pricing_plan_id":"cebpf4jnsgd1na2vs0mg"},{"bike_id":"e55d33eb-2a6d-49c3-a0a3-a08e3114858b","system_id":"levelo_inurba_marseille","lat":43.317213,"lon":5.377543,"is_reserved":false,"is_disabled":false,"rental_uris":{"android":"levelo://app?vid=e55d33eb-2a6d-49c3-a0a3-a08e3114858b","ios":"levelo://app?vid=e55d33eb-2a6d-49c3-a0a3-a08e3114858b"},"vehicle_type_id":"4","last_reported":1716912551,"current_range_meters":2400,"station_id":"ce4bgth2rcd13ifvqch0","pricing_plan_id":"cebpf4jnsgd1na2vs0mg"},{"bike_id":"d4f0b558-0378-4fdd-9726-56a5e8956b19","system_id":"levelo_inurba_marseille","lat":43.307945,"lon":5.376487,"is_reserved":false,"is_disabled":false,"rental_uris":{"android":"levelo://app?vid=d4f0b558-0378-4fdd-9726-56a5e8956b19","ios":"levelo://app?vid=d4f0b558-0378-4fdd-9726-56a5e8956b19"},"vehicle_type_id":"4","last_reported":1716912551,"current_range_meters":14400,"station_id":"ce4bgv92rcd13ifvqcq0","pricing_plan_id":"cebpf4jnsgd1na2vs0mg"},{"bike_id":"dcb13f0a-0c9c-4e17-b89c-cfdb7d35827d","system_id":"levelo_inurba_marseille","lat":43.30304,"lon":5.368987,"is_reserved":false,"is_disabled":false,"rental_uris":{"android":"levelo://app?vid=dcb13f0a-0c9c-4e17-b89c-cfdb7d35827d","ios":"levelo://app?vid=dcb13f0a-0c9c-4e17-b89c-cfdb7d35827d"},"vehicle_type_id":"4","last_reported":1716912551,"current_range_meters":10400,"station_id":"ce4bgqh2rcd13ifvqc5g","pricing_plan_id":"cebpf4jnsgd1na2vs0mg"},{"bike_id":"9c98c2f9-a3ff-43c5-ac4a-70af4f5ae559","system_id":"levelo_inurba_marseille","lat":43.315289,"lon":5.380349,"is_reserved":false,"is_disabled":false,"rental_uris":{"android":"levelo://app?vid=9c98c2f9-a3ff-43c5-ac4a-70af4f5ae559","ios":"levelo://app?vid=9c98c2f9-a3ff-43c5-ac4a-70af4f5ae559"},"vehicle_type_id":"4","last_reported":1716912551,"current_range_meters":15600,"station_id":"ce4bhsp2rcd13ifvqi50","pricing_plan_id":"cebpf4jnsgd1na2vs0mg"},{"bike_id":"ebcdf13e-715a-48c3-800a-d19ae39b7ee2","system_id":"levelo_inurba_marseille","lat":43.315293,"lon":5.380349,"is_reserved":false,"is_disabled":false,"rental_uris":{"android":"levelo://app?vid=ebcdf13e-715a-48c3-800a-d19ae39b7ee2","ios":"levelo://app?vid=ebcdf13e-715a-48c3-800a-d19ae39b7ee2"},"vehicle_type_id":"4","last_reported":1716912551,"current_range_meters":7200,"station_id":"ce4bhsp2rcd13ifvqi50","pricing_plan_id":"cebpf4jnsgd1na2vs0mg"},{"bike_id":"1082ef8a-81f3-46e6-b98d-c3645feb9494","system_id":"levelo_inurba_marseille","lat":43.315289,"lon":5.380349,"is_reserved":false,"is_disabled":false,"rental_uris":{"android":"levelo://app?vid=1082ef8a-81f3-46e6-b98d-c3645feb9494","ios":"levelo://app?vid=1082ef8a-81f3-46e6-b98d-c3645feb9494"},"vehicle_type_id":"4","last_reported":1716912551,"current_range_meters":7600,"station_id":"ce4bhsp2rcd13ifvqi50","pricing_plan_id":"cebpf4jnsgd1na2vs0mg"},{"bike_id":"0a17457c-2d42-4f34-9b42-6e660174180f","system_id":"levelo_inurba_marseille","lat":43.315289,"lon":5.380349,"is_reserved":false,"is_disabled":false,"rental_uris":{"android":"levelo://app?vid=0a17457c-2d42-4f34-9b42-6e660174180f","ios":"levelo://app?vid=0a17457c-2d42-4f34-9b42-6e660174180f"},"vehicle_type_id":"4","last_reported":1716912551,"current_range_meters":12800,"station_id":"ce4bhsp2rcd13ifvqi50","pricing_plan_id":"cebpf4jnsgd1na2vs0mg"},{"bike_id":"f29704ef-38bb-4c12-b780-c3cdabf22205","system_id":"levelo_inurba_marseille","lat":43.301981,"lon":5.366099,"is_reserved":false,"is_disabled":false,"rental_uris":{"android":"levelo://app?vid=f29704ef-38bb-4c12-b780-c3cdabf22205","ios":"levelo://app?vid=f29704ef-38bb-4c12-b780-c3cdabf22205"},"vehicle_type_id":"4","last_reported":1716912551,"current_range_meters":30000,"station_id":"ce4bgrh2rcd13ifvqc8g","pricing_plan_id":"cebpf4jnsgd1na2vs0mg"},{"bike_id":"ef26bf10-87fe-4b49-855b-3442edaa7c5e","system_id":"levelo_inurba_marseille","lat":43.301858,"lon":5.366039,"is_reserved":false,"is_disabled":false,"rental_uris":{"android":"levelo://app?vid=ef26bf10-87fe-4b49-855b-3442edaa7c5e","ios":"levelo://app?vid=ef26bf10-87fe-4b49-855b-3442edaa7c5e"},"vehicle_type_id":"4","last_reported":1716912551,"current_range_meters":0,"station_id":"ce4bgrh2rcd13ifvqc8g","pricing_plan_id":"cebpf4jnsgd1na2vs0mg"},{"bike_id":"0de22407-a5af-4317-92f8-f810c42e8993","system_id":"levelo_inurba_marseille","lat":43.30817,"lon":5.3815,"is_reserved":false,"is_disabled":false,"rental_uris":{"android":"levelo://app?vid=0de22407-a5af-4317-92f8-f810c42e8993","ios":"levelo://app?vid=0de22407-a5af-4317-92f8-f810c42e8993"},"vehicle_type_id":"4","last_reported":1716912551,"current_range_meters":16400,"station_id":"ce4bgt12rcd13ifvqce0","pricing_plan_id":"cebpf4jnsgd1na2vs0mg"},{"bike_id":"c670c375-d5e5-4927-a23d-1b69d611482c","system_id":"levelo_inurba_marseille","lat":43.324423,"lon":5.365869,"is_reserved":false,"is_disabled":false,"rental_uris":{"android":"levelo://app?vid=c670c375-d5e5-4927-a23d-1b69d611482c","ios":"levelo://app?vid=c670c375-d5e5-4927-a23d-1b69d611482c"},"vehicle_type_id":"4","last_reported":1716912551,"current_range_meters":0,"station_id":"ce4bhs12rcd13ifvqhvg","pricing_plan_id":"cebpf4jnsgd1na2vs0mg"},{"bike_id":"85245dc5-0748-4689-8804-5d56f0f7e773","system_id":"levelo_inurba_marseille","lat":43.30476,"lon":5.379,"is_reserved":false,"is_disabled":false,"rental_uris":{"android":"levelo://app?vid=85245dc5-0748-4689-8804-5d56f0f7e773","ios":"levelo://app?vid=85245dc5-0748-4689-8804-5d56f0f7e773"},"vehicle_type_id":"4","last_reported":1716912551,"current_range_meters":0,"station_id":"ce4bgup2rcd13ifvqcn0","pricing_plan_id":"cebpf4jnsgd1na2vs0mg"},{"bike_id":"a110de59-f87f-45ba-9be8-73cef6eac67a","system_id":"levelo_inurba_marseille","lat":43.324771,"lon":5.36557,"is_reserved":false,"is_disabled":false,"rental_uris":{"android":"levelo://app?vid=a110de59-f87f-45ba-9be8-73cef6eac67a","ios":"levelo://app?vid=a110de59-f87f-45ba-9be8-73cef6eac67a"},"vehicle_type_id":"4","last_reported":1716912551,"current_range_meters":22000,"station_id":"ce4bhs12rcd13ifvqhvg","pricing_plan_id":"cebpf4jnsgd1na2vs0mg"},{"bike_id":"e102970e-75fe-43ec-8628-d8567e4267f2","system_id":"levelo_inurba_marseille","lat":43.324771,"lon":5.36557,"is_reserved":false,"is_disabled":false,"rental_uris":{"android":"levelo://app?vid=e102970e-75fe-43ec-8628-d8567e4267f2","ios":"levelo://app?vid=e102970e-75fe-43ec-8628-d8567e4267f2"},"vehicle_type_id":"4","last_reported":1716912551,"current_range_meters":4400,"station_id":"ce4bhs12rcd13ifvqhvg","pricing_plan_id":"cebpf4jnsgd1na2vs0mg"},{"bike_id":"de7738ed-0279-4d0a-8304-575d743186a4","system_id":"levelo_inurba_marseille","lat":43.30907,"lon":5.38278,"is_reserved":false,"is_disabled":false,"rental_uris":{"android":"levelo://app?vid=de7738ed-0279-4d0a-8304-575d743186a4","ios":"levelo://app?vid=de7738ed-0279-4d0a-8304-575d743186a4"},"vehicle_type_id":"4","last_reported":1716912551,"current_range_meters":23200,"station_id":"","pricing_plan_id":"cebpf4jnsgd1na2vs0mg"},{"bike_id":"69132c19-b175-4e9d-9215-6e7a4ce85aa4","system_id":"levelo_inurba_marseille","lat":43.324771,"lon":5.36557,"is_reserved":false,"is_disabled":false,"rental_uris":{"android":"levelo://app?vid=69132c19-b175-4e9d-9215-6e7a4ce85aa4","ios":"levelo://app?vid=69132c19-b175-4e9d-9215-6e7a4ce85aa4"},"vehicle_type_id":"4","last_reported":1716912551,"current_range_meters":4400,"station_id":"ce4bhs12rcd13ifvqhvg","pricing_plan_id":"cebpf4jnsgd1na2vs0mg"},{"bike_id":"c3a0db3a-d9c4-4587-9e8a-3e0b537bae30","system_id":"levelo_inurba_marseille","lat":43.32485,"lon":5.36566,"is_reserved":false,"is_disabled":false,"rental_uris":{"android":"levelo://app?vid=c3a0db3a-d9c4-4587-9e8a-3e0b537bae30","ios":"levelo://app?vid=c3a0db3a-d9c4-4587-9e8a-3e0b537bae30"},"vehicle_type_id":"4","last_reported":1716912551,"current_range_meters":400,"station_id":"ce4bhs12rcd13ifvqhvg","pricing_plan_id":"cebpf4jnsgd1na2vs0mg"},{"bike_id":"2373691f-b8e4-4c22-847c-af33e8dcd8f6","system_id":"levelo_inurba_marseille","lat":43.32486,"lon":5.36569,"is_reserved":false,"is_disabled":false,"rental_uris":{"android":"levelo://app?vid=2373691f-b8e4-4c22-847c-af33e8dcd8f6","ios":"levelo://app?vid=2373691f-b8e4-4c22-847c-af33e8dcd8f6"},"vehicle_type_id":"4","last_reported":1716912551,"current_range_meters":2000,"station_id":"ce4bhs12rcd13ifvqhvg","pricing_plan_id":"cebpf4jnsgd1na2vs0mg"},{"bike_id":"e3134e78-38b1-440e-be19-dec0893a6ac4","system_id":"levelo_inurba_marseille","lat":43.32486,"lon":5.365625,"is_reserved":false,"is_disabled":false,"rental_uris":{"android":"levelo://app?vid=e3134e78-38b1-440e-be19-dec0893a6ac4","ios":"levelo://app?vid=e3134e78-38b1-440e-be19-dec0893a6ac4"},"vehicle_type_id":"4","last_reported":1716912551,"current_range_meters":0,"station_id":"ce4bhs12rcd13ifvqhvg","pricing_plan_id":"cebpf4jnsgd1na2vs0mg"},{"bike_id":"b8d16424-9063-4884-bf6a-e51e3820a2ac","system_id":"levelo_inurba_marseille","lat":43.31073,"lon":5.38355,"is_reserved":false,"is_disabled":false,"rental_uris":{"android":"levelo://app?vid=b8d16424-9063-4884-bf6a-e51e3820a2ac","ios":"levelo://app?vid=b8d16424-9063-4884-bf6a-e51e3820a2ac"},"vehicle_type_id":"4","last_reported":1716912551,"current_range_meters":0,"station_id":"ce4bgv92rcd13ifvqcr0","pricing_plan_id":"cebpf4jnsgd1na2vs0mg"},{"bike_id":"4a7ef9b8-efa3-4863-941f-e433a314d934","system_id":"levelo_inurba_marseille","lat":43.302784,"lon":5.377158,"is_reserved":false,"is_disabled":false,"rental_uris":{"android":"levelo://app?vid=4a7ef9b8-efa3-4863-941f-e433a314d934","ios":"levelo://app?vid=4a7ef9b8-efa3-4863-941f-e433a314d934"},"vehicle_type_id":"4","last_reported":1716912551,"current_range_meters":3600,"station_id":"ce4bguh2rcd13ifvqcj0","pricing_plan_id":"cebpf4jnsgd1na2vs0mg"},{"bike_id":"a0f10c11-8d4d-47f5-a8c5-8a23d2546a52","system_id":"levelo_inurba_marseille","lat":43.319935,"lon":5.381699,"is_reserved":false,"is_disabled":false,"rental_uris":{"android":"levelo://app?vid=a0f10c11-8d4d-47f5-a8c5-8a23d2546a52","ios":"levelo://app?vid=a0f10c11-8d4d-47f5-a8c5-8a23d2546a52"},"vehicle_type_id":"4","last_reported":1716912551,"current_range_meters":19200,"station_id":"ce4bhr12rcd13ifvqhpg","pricing_plan_id":"cebpf4jnsgd1na2vs0mg"},{"bike_id":"4631d6bd-ae7e-4e3a-9bd7-c22f4d8c6ef1","system_id":"levelo_inurba_marseille","lat":43.319935,"lon":5.381699,"is_reserved":false,"is_disabled":false,"rental_uris":{"android":"levelo://app?vid=4631d6bd-ae7e-4e3a-9bd7-c22f4d8c6ef1","ios":"levelo://app?vid=4631d6bd-ae7e-4e3a-9bd7-c22f4d8c6ef1"},"vehicle_type_id":"4","last_reported":1716912551,"current_range_meters":5600,"station_id":"ce4bhr12rcd13ifvqhpg","pricing_plan_id":"cebpf4jnsgd1na2vs0mg"},{"bike_id":"738be29b-2003-41a1-83b0-7c3eda8ea3d2","system_id":"levelo_inurba_marseille","lat":43.319935,"lon":5.381699,"is_reserved":false,"is_disabled":false,"rental_uris":{"android":"levelo://app?vid=738be29b-2003-41a1-83b0-7c3eda8ea3d2","ios":"levelo://app?vid=738be29b-2003-41a1-83b0-7c3eda8ea3d2"},"vehicle_type_id":"4","last_reported":1716912551,"current_range_meters":4400,"station_id":"ce4bhr12rcd13ifvqhpg","pricing_plan_id":"cebpf4jnsgd1na2vs0mg"},{"bike_id":"075249ec-6f11-498d-b514-2091dcfe230f","system_id":"levelo_inurba_marseille","lat":43.319935,"lon":5.381699,"is_reserved":false,"is_disabled":false,"rental_uris":{"android":"levelo://app?vid=075249ec-6f11-498d-b514-2091dcfe230f","ios":"levelo://app?vid=075249ec-6f11-498d-b514-2091dcfe230f"},"vehicle_type_id":"4","last_reported":1716912551,"current_range_meters":12800,"station_id":"ce4bhr12rcd13ifvqhpg","pricing_plan_id":"cebpf4jnsgd1na2vs0mg"},{"bike_id":"7adf1cf0-6951-41e8-83d0-662a54e069ed","system_id":"levelo_inurba_marseille","lat":43.319935,"lon":5.381699,"is_reserved":false,"is_disabled":false,"rental_uris":{"android":"levelo://app?vid=7adf1cf0-6951-41e8-83d0-662a54e069ed","ios":"levelo://app?vid=7adf1cf0-6951-41e8-83d0-662a54e069ed"},"vehicle_type_id":"4","last_reported":1716912551,"current_range_meters":14800,"station_id":"ce4bhr12rcd13ifvqhpg","pricing_plan_id":"cebpf4jnsgd1na2vs0mg"},{"bike_id":"e407cee2-35e5-4a1f-8834-554b7e94f928","system_id":"levelo_inurba_marseille","lat":43.319935,"lon":5.381699,"is_reserved":false,"is_disabled":false,"rental_uris":{"android":"levelo://app?vid=e407cee2-35e5-4a1f-8834-554b7e94f928","ios":"levelo://app?vid=e407cee2-35e5-4a1f-8834-554b7e94f928"},"vehicle_type_id":"4","last_reported":1716912551,"current_range_meters":2800,"station_id":"ce4bhr12rcd13ifvqhpg","pricing_plan_id":"cebpf4jnsgd1na2vs0mg"},{"bike_id":"25c175b3-3693-4e66-8979-bd7bed9cee67","system_id":"levelo_inurba_marseille","lat":43.303296,"lon":5.379006,"is_reserved":false,"is_disabled":false,"rental_uris":{"android":"levelo://app?vid=25c175b3-3693-4e66-8979-bd7bed9cee67","ios":"levelo://app?vid=25c175b3-3693-4e66-8979-bd7bed9cee67"},"vehicle_type_id":"4","last_reported":1716912551,"current_range_meters":0,"station_id":"","pricing_plan_id":"cebpf4jnsgd1na2vs0mg"},{"bike_id":"38c2f953-6978-4799-bbf4-da7773914298","system_id":"levelo_inurba_marseille","lat":43.319935,"lon":5.381699,"is_reserved":false,"is_disabled":false,"rental_uris":{"android":"levelo://app?vid=38c2f953-6978-4799-bbf4-da7773914298","ios":"levelo://app?vid=38c2f953-6978-4799-bbf4-da7773914298"},"vehicle_type_id":"4","last_reported":1716912551,"current_range_meters":9200,"station_id":"ce4bhr12rcd13ifvqhpg","pricing_plan_id":"cebpf4jnsgd1na2vs0mg"},{"bike_id":"208b6443-1e18-4a20-bf86-77f5f1448857","system_id":"levelo_inurba_marseille","lat":43.313571,"lon":5.384829,"is_reserved":false,"is_disabled":false,"rental_uris":{"android":"levelo://app?vid=208b6443-1e18-4a20-bf86-77f5f1448857","ios":"levelo://app?vid=208b6443-1e18-4a20-bf86-77f5f1448857"},"vehicle_type_id":"4","last_reported":1716912551,"current_range_meters":0,"station_id":"ce4bgt92rcd13ifvqcf0","pricing_plan_id":"cebpf4jnsgd1na2vs0mg"},{"bike_id":"b1a16636-f7c4-4e50-a770-f39438cfdb20","system_id":"levelo_inurba_marseille","lat":43.313571,"lon":5.384829,"is_reserved":false,"is_disabled":false,"rental_uris":{"android":"levelo://app?vid=b1a16636-f7c4-4e50-a770-f39438cfdb20","ios":"levelo://app?vid=b1a16636-f7c4-4e50-a770-f39438cfdb20"},"vehicle_type_id":"4","last_reported":1716912551,"current_range_meters":30400,"station_id":"ce4bgt92rcd13ifvqcf0","pricing_plan_id":"cebpf4jnsgd1na2vs0mg"},{"bike_id":"6e5413e5-e092-41ad-8d03-6b2beab33674","system_id":"levelo_inurba_marseille","lat":43.313571,"lon":5.384829,"is_reserved":false,"is_disabled":false,"rental_uris":{"android":"levelo://app?vid=6e5413e5-e092-41ad-8d03-6b2beab33674","ios":"levelo://app?vid=6e5413e5-e092-41ad-8d03-6b2beab33674"},"vehicle_type_id":"4","last_reported":1716912551,"current_range_meters":5600,"station_id":"ce4bgt92rcd13ifvqcf0","pricing_plan_id":"cebpf4jnsgd1na2vs0mg"},{"bike_id":"f06126e5-69a0-4056-854b-a1b3caff9989","system_id":"levelo_inurba_marseille","lat":43.313571,"lon":5.384829,"is_reserved":false,"is_disabled":false,"rental_uris":{"android":"levelo://app?vid=f06126e5-69a0-4056-854b-a1b3caff9989","ios":"levelo://app?vid=f06126e5-69a0-4056-854b-a1b3caff9989"},"vehicle_type_id":"4","last_reported":1716912551,"current_range_meters":0,"station_id":"ce4bgt92rcd13ifvqcf0","pricing_plan_id":"cebpf4jnsgd1na2vs0mg"},{"bike_id":"7939fd11-0005-40bc-b622-9cf1db1adb70","system_id":"levelo_inurba_marseille","lat":43.313571,"lon":5.384829,"is_reserved":false,"is_disabled":false,"rental_uris":{"android":"levelo://app?vid=7939fd11-0005-40bc-b622-9cf1db1adb70","ios":"levelo://app?vid=7939fd11-0005-40bc-b622-9cf1db1adb70"},"vehicle_type_id":"4","last_reported":1716912551,"current_range_meters":9200,"station_id":"ce4bgt92rcd13ifvqcf0","pricing_plan_id":"cebpf4jnsgd1na2vs0mg"},{"bike_id":"4fecdf97-e588-475e-a17b-2428bbd6d544","system_id":"levelo_inurba_marseille","lat":43.313571,"lon":5.384829,"is_reserved":false,"is_disabled":false,"rental_uris":{"android":"levelo://app?vid=4fecdf97-e588-475e-a17b-2428bbd6d544","ios":"levelo://app?vid=4fecdf97-e588-475e-a17b-2428bbd6d544"},"vehicle_type_id":"4","last_reported":1716912551,"current_range_meters":28800,"station_id":"ce4bgt92rcd13ifvqcf0","pricing_plan_id":"cebpf4jnsgd1na2vs0mg"},{"bike_id":"7c0279c4-785e-41cc-9875-11b1aa5697b0","system_id":"levelo_inurba_marseille","lat":43.298433,"lon":5.362774,"is_reserved":false,"is_disabled":false,"rental_uris":{"android":"levelo://app?vid=7c0279c4-785e-41cc-9875-11b1aa5697b0","ios":"levelo://app?vid=7c0279c4-785e-41cc-9875-11b1aa5697b0"},"vehicle_type_id":"4","last_reported":1716912551,"current_range_meters":30800,"station_id":"ce4bgpp2rcd13ifvqc3g","pricing_plan_id":"cebpf4jnsgd1na2vs0mg"},{"bike_id":"afa6ba9f-16a1-469a-811c-023352837c5f","system_id":"levelo_inurba_marseille","lat":43.30533,"lon":5.38422,"is_reserved":false,"is_disabled":false,"rental_uris":{"android":"levelo://app?vid=afa6ba9f-16a1-469a-811c-023352837c5f","ios":"levelo://app?vid=afa6ba9f-16a1-469a-811c-023352837c5f"},"vehicle_type_id":"4","last_reported":1716912551,"current_range_meters":11600,"station_id":"ce4bgg92rcd13ifvqb30","pricing_plan_id":"cebpf4jnsgd1na2vs0mg"},{"bike_id":"1bfe52c0-f1a8-4aa1-948c-ca7685b20cb6","system_id":"levelo_inurba_marseille","lat":43.29922,"lon":5.3746,"is_reserved":false,"is_disabled":false,"rental_uris":{"android":"levelo://app?vid=1bfe52c0-f1a8-4aa1-948c-ca7685b20cb6","ios":"levelo://app?vid=1bfe52c0-f1a8-4aa1-948c-ca7685b20cb6"},"vehicle_type_id":"4","last_reported":1716912551,"current_range_meters":0,"station_id":"ce4bgjh2rcd13ifvqbg0","pricing_plan_id":"cebpf4jnsgd1na2vs0mg"},{"bike_id":"c0e212e6-11bb-4028-a24c-1c1383400007","system_id":"levelo_inurba_marseille","lat":43.311722,"lon":5.387247,"is_reserved":false,"is_disabled":false,"rental_uris":{"android":"levelo://app?vid=c0e212e6-11bb-4028-a24c-1c1383400007","ios":"levelo://app?vid=c0e212e6-11bb-4028-a24c-1c1383400007"},"vehicle_type_id":"4","last_reported":1716912551,"current_range_meters":2000,"station_id":"ce4bgv12rcd13ifvqcp0","pricing_plan_id":"cebpf4jnsgd1na2vs0mg"},{"bike_id":"10fb4334-c940-4455-979b-d3f1ca32e262","system_id":"levelo_inurba_marseille","lat":43.297774,"lon":5.370875,"is_reserved":false,"is_disabled":false,"rental_uris":{"android":"levelo://app?vid=10fb4334-c940-4455-979b-d3f1ca32e262","ios":"levelo://app?vid=10fb4334-c940-4455-979b-d3f1ca32e262"},"vehicle_type_id":"4","last_reported":1716912551,"current_range_meters":29200,"station_id":"ce4bgop2rcd13ifvqc1g","pricing_plan_id":"cebpf4jnsgd1na2vs0mg"},{"bike_id":"ea0aa6cd-74f3-4053-a212-05642e95cd9c","system_id":"levelo_inurba_marseille","lat":43.322892,"lon":5.382589,"is_reserved":false,"is_disabled":false,"rental_uris":{"android":"levelo://app?vid=ea0aa6cd-74f3-4053-a212-05642e95cd9c","ios":"levelo://app?vid=ea0aa6cd-74f3-4053-a212-05642e95cd9c"},"vehicle_type_id":"4","last_reported":1716912551,"current_range_meters":4000,"station_id":"ce4bhr12rcd13ifvqhqg","pricing_plan_id":"cebpf4jnsgd1na2vs0mg"},{"bike_id":"31e0cc16-ef5c-4d66-8efd-339b1daec56c","system_id":"levelo_inurba_marseille","lat":43.322878,"lon":5.382652,"is_reserved":false,"is_disabled":false,"rental_uris":{"android":"levelo://app?vid=31e0cc16-ef5c-4d66-8efd-339b1daec56c","ios":"levelo://app?vid=31e0cc16-ef5c-4d66-8efd-339b1daec56c"},"vehicle_type_id":"4","last_reported":1716912551,"current_range_meters":4400,"station_id":"ce4bhr12rcd13ifvqhqg","pricing_plan_id":"cebpf4jnsgd1na2vs0mg"},{"bike_id":"eb36f279-e269-4809-8ae0-a388eefeb02f","system_id":"levelo_inurba_marseille","lat":43.32292,"lon":5.38265,"is_reserved":false,"is_disabled":false,"rental_uris":{"android":"levelo://app?vid=eb36f279-e269-4809-8ae0-a388eefeb02f","ios":"levelo://app?vid=eb36f279-e269-4809-8ae0-a388eefeb02f"},"vehicle_type_id":"4","last_reported":1716912551,"current_range_meters":29600,"station_id":"ce4bhr12rcd13ifvqhqg","pricing_plan_id":"cebpf4jnsgd1na2vs0mg"},{"bike_id":"b9a10fb8-7cae-4077-bc53-d5615ec4cd92","system_id":"levelo_inurba_marseille","lat":43.322872,"lon":5.382756,"is_reserved":false,"is_disabled":false,"rental_uris":{"android":"levelo://app?vid=b9a10fb8-7cae-4077-bc53-d5615ec4cd92","ios":"levelo://app?vid=b9a10fb8-7cae-4077-bc53-d5615ec4cd92"},"vehicle_type_id":"4","last_reported":1716912551,"current_range_meters":24000,"station_id":"ce4bhr12rcd13ifvqhqg","pricing_plan_id":"cebpf4jnsgd1na2vs0mg"},{"bike_id":"a2ed0a57-945a-416c-a663-39d9b3420c3e","system_id":"levelo_inurba_marseille","lat":43.322872,"lon":5.382756,"is_reserved":false,"is_disabled":false,"rental_uris":{"android":"levelo://app?vid=a2ed0a57-945a-416c-a663-39d9b3420c3e","ios":"levelo://app?vid=a2ed0a57-945a-416c-a663-39d9b3420c3e"},"vehicle_type_id":"4","last_reported":1716912551,"current_range_meters":31200,"station_id":"ce4bhr12rcd13ifvqhqg","pricing_plan_id":"cebpf4jnsgd1na2vs0mg"},{"bike_id":"7c473a3a-2b85-4fa7-9e9a-9d09a4e17266","system_id":"levelo_inurba_marseille","lat":43.322872,"lon":5.382756,"is_reserved":false,"is_disabled":false,"rental_uris":{"android":"levelo://app?vid=7c473a3a-2b85-4fa7-9e9a-9d09a4e17266","ios":"levelo://app?vid=7c473a3a-2b85-4fa7-9e9a-9d09a4e17266"},"vehicle_type_id":"4","last_reported":1716912551,"current_range_meters":11600,"station_id":"ce4bhr12rcd13ifvqhqg","pricing_plan_id":"cebpf4jnsgd1na2vs0mg"},{"bike_id":"2d3af686-4189-42ca-8660-8e3f1d999664","system_id":"levelo_inurba_marseille","lat":43.322872,"lon":5.382756,"is_reserved":false,"is_disabled":false,"rental_uris":{"android":"levelo://app?vid=2d3af686-4189-42ca-8660-8e3f1d999664","ios":"levelo://app?vid=2d3af686-4189-42ca-8660-8e3f1d999664"},"vehicle_type_id":"4","last_reported":1716912551,"current_range_meters":14000,"station_id":"ce4bhr12rcd13ifvqhqg","pricing_plan_id":"cebpf4jnsgd1na2vs0mg"},{"bike_id":"4cbaa206-6276-450e-bff6-fa682497465e","system_id":"levelo_inurba_marseille","lat":43.322872,"lon":5.382756,"is_reserved":false,"is_disabled":false,"rental_uris":{"android":"levelo://app?vid=4cbaa206-6276-450e-bff6-fa682497465e","ios":"levelo://app?vid=4cbaa206-6276-450e-bff6-fa682497465e"},"vehicle_type_id":"4","last_reported":1716912551,"current_range_meters":27600,"station_id":"ce4bhr12rcd13ifvqhqg","pricing_plan_id":"cebpf4jnsgd1na2vs0mg"},{"bike_id":"aeb1718d-3113-4a0b-995a-121fc40f6cc3","system_id":"levelo_inurba_marseille","lat":43.322872,"lon":5.382756,"is_reserved":false,"is_disabled":false,"rental_uris":{"android":"levelo://app?vid=aeb1718d-3113-4a0b-995a-121fc40f6cc3","ios":"levelo://app?vid=aeb1718d-3113-4a0b-995a-121fc40f6cc3"},"vehicle_type_id":"4","last_reported":1716912551,"current_range_meters":31200,"station_id":"ce4bhr12rcd13ifvqhqg","pricing_plan_id":"cebpf4jnsgd1na2vs0mg"},{"bike_id":"3acfeea4-c709-4ee9-81b6-3d33ff9abf35","system_id":"levelo_inurba_marseille","lat":43.297163,"lon":5.365866,"is_reserved":false,"is_disabled":false,"rental_uris":{"android":"levelo://app?vid=3acfeea4-c709-4ee9-81b6-3d33ff9abf35","ios":"levelo://app?vid=3acfeea4-c709-4ee9-81b6-3d33ff9abf35"},"vehicle_type_id":"4","last_reported":1716912551,"current_range_meters":15600,"station_id":"ce4bgn12rcd13ifvqbt0","pricing_plan_id":"cebpf4jnsgd1na2vs0mg"},{"bike_id":"6eee7145-1a2c-4bf8-a61c-5cfb328b2ce1","system_id":"levelo_inurba_marseille","lat":43.297163,"lon":5.365866,"is_reserved":false,"is_disabled":false,"rental_uris":{"android":"levelo://app?vid=6eee7145-1a2c-4bf8-a61c-5cfb328b2ce1","ios":"levelo://app?vid=6eee7145-1a2c-4bf8-a61c-5cfb328b2ce1"},"vehicle_type_id":"4","last_reported":1716912551,"current_range_meters":22000,"station_id":"ce4bgn12rcd13ifvqbt0","pricing_plan_id":"cebpf4jnsgd1na2vs0mg"},{"bike_id":"1c4f236a-c269-4e75-86b1-82f004b9c1b9","system_id":"levelo_inurba_marseille","lat":43.297163,"lon":5.365866,"is_reserved":false,"is_disabled":false,"rental_uris":{"android":"levelo://app?vid=1c4f236a-c269-4e75-86b1-82f004b9c1b9","ios":"levelo://app?vid=1c4f236a-c269-4e75-86b1-82f004b9c1b9"},"vehicle_type_id":"4","last_reported":1716912551,"current_range_meters":12400,"station_id":"ce4bgn12rcd13ifvqbt0","pricing_plan_id":"cebpf4jnsgd1na2vs0mg"},{"bike_id":"dd4e1fab-760e-4185-925b-68f0e04eb00b","system_id":"levelo_inurba_marseille","lat":43.301784,"lon":5.3835,"is_reserved":false,"is_disabled":false,"rental_uris":{"android":"levelo://app?vid=dd4e1fab-760e-4185-925b-68f0e04eb00b","ios":"levelo://app?vid=dd4e1fab-760e-4185-925b-68f0e04eb00b"},"vehicle_type_id":"4","last_reported":1716912551,"current_range_meters":0,"station_id":"ce4bgrh2rcd13ifvqc8g","pricing_plan_id":"cebpf4jnsgd1na2vs0mg"},{"bike_id":"25cd9f5f-c666-4cc7-b5a9-8bfd7a55a4fc","system_id":"levelo_inurba_marseille","lat":43.2968,"lon":5.37291,"is_reserved":false,"is_disabled":false,"rental_uris":{"android":"levelo://app?vid=25cd9f5f-c666-4cc7-b5a9-8bfd7a55a4fc","ios":"levelo://app?vid=25cd9f5f-c666-4cc7-b5a9-8bfd7a55a4fc"},"vehicle_type_id":"4","last_reported":1716912551,"current_range_meters":30800,"station_id":"ce4bgk12rcd13ifvqbj0","pricing_plan_id":"cebpf4jnsgd1na2vs0mg"},{"bike_id":"05682845-71e2-4fed-8890-97cfeacfd8af","system_id":"levelo_inurba_marseille","lat":43.2968,"lon":5.37291,"is_reserved":false,"is_disabled":false,"rental_uris":{"android":"levelo://app?vid=05682845-71e2-4fed-8890-97cfeacfd8af","ios":"levelo://app?vid=05682845-71e2-4fed-8890-97cfeacfd8af"},"vehicle_type_id":"4","last_reported":1716912551,"current_range_meters":10800,"station_id":"ce4bgk12rcd13ifvqbj0","pricing_plan_id":"cebpf4jnsgd1na2vs0mg"},{"bike_id":"0abb32d3-4576-4e4b-9218-996f266c54e9","system_id":"levelo_inurba_marseille","lat":43.2968,"lon":5.37291,"is_reserved":false,"is_disabled":false,"rental_uris":{"android":"levelo://app?vid=0abb32d3-4576-4e4b-9218-996f266c54e9","ios":"levelo://app?vid=0abb32d3-4576-4e4b-9218-996f266c54e9"},"vehicle_type_id":"4","last_reported":1716912551,"current_range_meters":21200,"station_id":"ce4bgk12rcd13ifvqbj0","pricing_plan_id":"cebpf4jnsgd1na2vs0mg"},{"bike_id":"4678dd0e-a112-4604-9c65-521e6b2ac14a","system_id":"levelo_inurba_marseille","lat":43.2968,"lon":5.37291,"is_reserved":false,"is_disabled":false,"rental_uris":{"android":"levelo://app?vid=4678dd0e-a112-4604-9c65-521e6b2ac14a","ios":"levelo://app?vid=4678dd0e-a112-4604-9c65-521e6b2ac14a"},"vehicle_type_id":"4","last_reported":1716912551,"current_range_meters":31200,"station_id":"ce4bgk12rcd13ifvqbj0","pricing_plan_id":"cebpf4jnsgd1na2vs0mg"},{"bike_id":"62760afe-2236-4482-9cb6-0431dee1b589","system_id":"levelo_inurba_marseille","lat":43.2968,"lon":5.37291,"is_reserved":false,"is_disabled":false,"rental_uris":{"android":"levelo://app?vid=62760afe-2236-4482-9cb6-0431dee1b589","ios":"levelo://app?vid=62760afe-2236-4482-9cb6-0431dee1b589"},"vehicle_type_id":"4","last_reported":1716912551,"current_range_meters":30400,"station_id":"ce4bgk12rcd13ifvqbj0","pricing_plan_id":"cebpf4jnsgd1na2vs0mg"},{"bike_id":"19aa1002-acf9-410a-bbae-459077cd21aa","system_id":"levelo_inurba_marseille","lat":43.296129,"lon":5.370777,"is_reserved":false,"is_disabled":false,"rental_uris":{"android":"levelo://app?vid=19aa1002-acf9-410a-bbae-459077cd21aa","ios":"levelo://app?vid=19aa1002-acf9-410a-bbae-459077cd21aa"},"vehicle_type_id":"4","last_reported":1716912551,"current_range_meters":0,"station_id":"ce4bgnh2rcd13ifvqc0g","pricing_plan_id":"cebpf4jnsgd1na2vs0mg"},{"bike_id":"f503fae8-f32a-40d6-a0f5-93de414a1482","system_id":"levelo_inurba_marseille","lat":43.296131,"lon":5.370773,"is_reserved":false,"is_disabled":false,"rental_uris":{"android":"levelo://app?vid=f503fae8-f32a-40d6-a0f5-93de414a1482","ios":"levelo://app?vid=f503fae8-f32a-40d6-a0f5-93de414a1482"},"vehicle_type_id":"4","last_reported":1716912551,"current_range_meters":8400,"station_id":"ce4bgnh2rcd13ifvqc0g","pricing_plan_id":"cebpf4jnsgd1na2vs0mg"},{"bike_id":"4ce9b53f-a5ed-4cd1-b238-51edd155559f","system_id":"levelo_inurba_marseille","lat":43.296131,"lon":5.370791,"is_reserved":false,"is_disabled":false,"rental_uris":{"android":"levelo://app?vid=4ce9b53f-a5ed-4cd1-b238-51edd155559f","ios":"levelo://app?vid=4ce9b53f-a5ed-4cd1-b238-51edd155559f"},"vehicle_type_id":"4","last_reported":1716912551,"current_range_meters":25600,"station_id":"ce4bgnh2rcd13ifvqc0g","pricing_plan_id":"cebpf4jnsgd1na2vs0mg"},{"bike_id":"65d7202e-8669-4f19-b624-772cd369c42d","system_id":"levelo_inurba_marseille","lat":43.29573,"lon":5.367355,"is_reserved":false,"is_disabled":false,"rental_uris":{"android":"levelo://app?vid=65d7202e-8669-4f19-b624-772cd369c42d","ios":"levelo://app?vid=65d7202e-8669-4f19-b624-772cd369c42d"},"vehicle_type_id":"4","last_reported":1716912551,"current_range_meters":12400,"station_id":"ce4bgph2rcd13ifvqc2g","pricing_plan_id":"cebpf4jnsgd1na2vs0mg"},{"bike_id":"25036505-b633-46bb-9c51-1ffd4a4c9f12","system_id":"levelo_inurba_marseille","lat":43.29573,"lon":5.367355,"is_reserved":false,"is_disabled":false,"rental_uris":{"android":"levelo://app?vid=25036505-b633-46bb-9c51-1ffd4a4c9f12","ios":"levelo://app?vid=25036505-b633-46bb-9c51-1ffd4a4c9f12"},"vehicle_type_id":"4","last_reported":1716912551,"current_range_meters":8800,"station_id":"ce4bgph2rcd13ifvqc2g","pricing_plan_id":"cebpf4jnsgd1na2vs0mg"},{"bike_id":"75093aee-c58d-41e0-8043-6c0dd8b88302","system_id":"levelo_inurba_marseille","lat":43.296935,"lon":5.376544,"is_reserved":false,"is_disabled":false,"rental_uris":{"android":"levelo://app?vid=75093aee-c58d-41e0-8043-6c0dd8b88302","ios":"levelo://app?vid=75093aee-c58d-41e0-8043-6c0dd8b88302"},"vehicle_type_id":"4","last_reported":1716912551,"current_range_meters":0,"station_id":"ce4bgkh2rcd13ifvqbl0","pricing_plan_id":"cebpf4jnsgd1na2vs0mg"},{"bike_id":"8b12d428-53d0-4106-b128-8d542cb65dc9","system_id":"levelo_inurba_marseille","lat":43.296921,"lon":5.376579,"is_reserved":false,"is_disabled":false,"rental_uris":{"android":"levelo://app?vid=8b12d428-53d0-4106-b128-8d542cb65dc9","ios":"levelo://app?vid=8b12d428-53d0-4106-b128-8d542cb65dc9"},"vehicle_type_id":"4","last_reported":1716912551,"current_range_meters":0,"station_id":"ce4bgkh2rcd13ifvqbl0","pricing_plan_id":"cebpf4jnsgd1na2vs0mg"},{"bike_id":"92709a53-6563-48e7-b632-71fa7e161577","system_id":"levelo_inurba_marseille","lat":43.296921,"lon":5.376579,"is_reserved":false,"is_disabled":false,"rental_uris":{"android":"levelo://app?vid=92709a53-6563-48e7-b632-71fa7e161577","ios":"levelo://app?vid=92709a53-6563-48e7-b632-71fa7e161577"},"vehicle_type_id":"4","last_reported":1716912551,"current_range_meters":10000,"station_id":"ce4bgkh2rcd13ifvqbl0","pricing_plan_id":"cebpf4jnsgd1na2vs0mg"},{"bike_id":"118cd2c0-def1-4d82-9da9-601fc62d2aff","system_id":"levelo_inurba_marseille","lat":43.299028,"lon":5.381509,"is_reserved":false,"is_disabled":false,"rental_uris":{"android":"levelo://app?vid=118cd2c0-def1-4d82-9da9-601fc62d2aff","ios":"levelo://app?vid=118cd2c0-def1-4d82-9da9-601fc62d2aff"},"vehicle_type_id":"4","last_reported":1716912551,"current_range_meters":400,"station_id":"ce4bgj12rcd13ifvqbc0","pricing_plan_id":"cebpf4jnsgd1na2vs0mg"},{"bike_id":"8c259571-2dea-48e5-946f-1adf2acbc1a4","system_id":"levelo_inurba_marseille","lat":43.309589,"lon":5.390258,"is_reserved":false,"is_disabled":false,"rental_uris":{"android":"levelo://app?vid=8c259571-2dea-48e5-946f-1adf2acbc1a4","ios":"levelo://app?vid=8c259571-2dea-48e5-946f-1adf2acbc1a4"},"vehicle_type_id":"4","last_reported":1716912551,"current_range_meters":0,"station_id":"ce4bgup2rcd13ifvqco0","pricing_plan_id":"cebpf4jnsgd1na2vs0mg"},{"bike_id":"bdd98a7b-243a-4a46-980f-4b6c3dda31b6","system_id":"levelo_inurba_marseille","lat":43.296935,"lon":5.376544,"is_reserved":false,"is_disabled":false,"rental_uris":{"android":"levelo://app?vid=bdd98a7b-243a-4a46-980f-4b6c3dda31b6","ios":"levelo://app?vid=bdd98a7b-243a-4a46-980f-4b6c3dda31b6"},"vehicle_type_id":"4","last_reported":1716912551,"current_range_meters":3600,"station_id":"ce4bgkh2rcd13ifvqbl0","pricing_plan_id":"cebpf4jnsgd1na2vs0mg"},{"bike_id":"aa4760dd-23bf-4b94-8ea3-8e2108a1340c","system_id":"levelo_inurba_marseille","lat":43.317428,"lon":5.390175,"is_reserved":false,"is_disabled":false,"rental_uris":{"android":"levelo://app?vid=aa4760dd-23bf-4b94-8ea3-8e2108a1340c","ios":"levelo://app?vid=aa4760dd-23bf-4b94-8ea3-8e2108a1340c"},"vehicle_type_id":"4","last_reported":1716912551,"current_range_meters":14000,"station_id":"ce4bhqp2rcd13ifvqhng","pricing_plan_id":"cebpf4jnsgd1na2vs0mg"},{"bike_id":"79ed4a11-d690-4cd2-ba09-8a004c4fcfd5","system_id":"levelo_inurba_marseille","lat":43.31756,"lon":5.39013,"is_reserved":false,"is_disabled":false,"rental_uris":{"android":"levelo://app?vid=79ed4a11-d690-4cd2-ba09-8a004c4fcfd5","ios":"levelo://app?vid=79ed4a11-d690-4cd2-ba09-8a004c4fcfd5"},"vehicle_type_id":"4","last_reported":1716912551,"current_range_meters":2400,"station_id":"ce4bhqp2rcd13ifvqhng","pricing_plan_id":"cebpf4jnsgd1na2vs0mg"},{"bike_id":"ce073834-d2b3-43c7-9c44-1386f93ddde5","system_id":"levelo_inurba_marseille","lat":43.317557,"lon":5.390173,"is_reserved":false,"is_disabled":false,"rental_uris":{"android":"levelo://app?vid=ce073834-d2b3-43c7-9c44-1386f93ddde5","ios":"levelo://app?vid=ce073834-d2b3-43c7-9c44-1386f93ddde5"},"vehicle_type_id":"4","last_reported":1716912551,"current_range_meters":7200,"station_id":"ce4bhqp2rcd13ifvqhng","pricing_plan_id":"cebpf4jnsgd1na2vs0mg"},{"bike_id":"37b62173-e61f-4bba-9dde-8ae69e09a32f","system_id":"levelo_inurba_marseille","lat":43.31757,"lon":5.39015,"is_reserved":false,"is_disabled":false,"rental_uris":{"android":"levelo://app?vid=37b62173-e61f-4bba-9dde-8ae69e09a32f","ios":"levelo://app?vid=37b62173-e61f-4bba-9dde-8ae69e09a32f"},"vehicle_type_id":"4","last_reported":1716912551,"current_range_meters":2000,"station_id":"ce4bhqp2rcd13ifvqhng","pricing_plan_id":"cebpf4jnsgd1na2vs0mg"},{"bike_id":"e863afbb-19f8-4201-b251-2b7bb35539b0","system_id":"levelo_inurba_marseille","lat":43.317557,"lon":5.390173,"is_reserved":false,"is_disabled":false,"rental_uris":{"android":"levelo://app?vid=e863afbb-19f8-4201-b251-2b7bb35539b0","ios":"levelo://app?vid=e863afbb-19f8-4201-b251-2b7bb35539b0"},"vehicle_type_id":"4","last_reported":1716912551,"current_range_meters":9600,"station_id":"ce4bhqp2rcd13ifvqhng","pricing_plan_id":"cebpf4jnsgd1na2vs0mg"},{"bike_id":"cf4e8db7-cda4-4e0a-ae18-dc6cdc15ef28","system_id":"levelo_inurba_marseille","lat":43.317557,"lon":5.390173,"is_reserved":false,"is_disabled":false,"rental_uris":{"android":"levelo://app?vid=cf4e8db7-cda4-4e0a-ae18-dc6cdc15ef28","ios":"levelo://app?vid=cf4e8db7-cda4-4e0a-ae18-dc6cdc15ef28"},"vehicle_type_id":"4","last_reported":1716912551,"current_range_meters":14800,"station_id":"ce4bhqp2rcd13ifvqhng","pricing_plan_id":"cebpf4jnsgd1na2vs0mg"},{"bike_id":"e838efd1-3850-4175-9a28-2d94232a5056","system_id":"levelo_inurba_marseille","lat":43.29686,"lon":5.37769,"is_reserved":false,"is_disabled":false,"rental_uris":{"android":"levelo://app?vid=e838efd1-3850-4175-9a28-2d94232a5056","ios":"levelo://app?vid=e838efd1-3850-4175-9a28-2d94232a5056"},"vehicle_type_id":"4","last_reported":1716912551,"current_range_meters":6000,"station_id":"","pricing_plan_id":"cebpf4jnsgd1na2vs0mg"},{"bike_id":"0765cce4-b2b7-40b2-b469-712d591552c9","system_id":"levelo_inurba_marseille","lat":43.295748,"lon":5.37522,"is_reserved":false,"is_disabled":false,"rental_uris":{"android":"levelo://app?vid=0765cce4-b2b7-40b2-b469-712d591552c9","ios":"levelo://app?vid=0765cce4-b2b7-40b2-b469-712d591552c9"},"vehicle_type_id":"4","last_reported":1716912551,"current_range_meters":16800,"station_id":"ce4bgh92rcd13ifvqb50","pricing_plan_id":"cebpf4jnsgd1na2vs0mg"},{"bike_id":"e9ede9c7-7c4f-48c3-88b7-77b89dd8d2fd","system_id":"levelo_inurba_marseille","lat":43.295748,"lon":5.37522,"is_reserved":false,"is_disabled":false,"rental_uris":{"android":"levelo://app?vid=e9ede9c7-7c4f-48c3-88b7-77b89dd8d2fd","ios":"levelo://app?vid=e9ede9c7-7c4f-48c3-88b7-77b89dd8d2fd"},"vehicle_type_id":"4","last_reported":1716912551,"current_range_meters":14800,"station_id":"ce4bgh92rcd13ifvqb50","pricing_plan_id":"cebpf4jnsgd1na2vs0mg"},{"bike_id":"34255ddc-a5ad-41a3-8d08-4bbd3791a7f0","system_id":"levelo_inurba_marseille","lat":43.295748,"lon":5.37522,"is_reserved":false,"is_disabled":false,"rental_uris":{"android":"levelo://app?vid=34255ddc-a5ad-41a3-8d08-4bbd3791a7f0","ios":"levelo://app?vid=34255ddc-a5ad-41a3-8d08-4bbd3791a7f0"},"vehicle_type_id":"4","last_reported":1716912551,"current_range_meters":4800,"station_id":"ce4bgh92rcd13ifvqb50","pricing_plan_id":"cebpf4jnsgd1na2vs0mg"},{"bike_id":"18af5125-383a-4e2a-b84a-bd01891dceed","system_id":"levelo_inurba_marseille","lat":43.299724,"lon":5.384848,"is_reserved":false,"is_disabled":false,"rental_uris":{"android":"levelo://app?vid=18af5125-383a-4e2a-b84a-bd01891dceed","ios":"levelo://app?vid=18af5125-383a-4e2a-b84a-bd01891dceed"},"vehicle_type_id":"4","last_reported":1716912551,"current_range_meters":11200,"station_id":"ce4bgj92rcd13ifvqbd0","pricing_plan_id":"cebpf4jnsgd1na2vs0mg"},{"bike_id":"a700d0d9-5e35-4696-a592-bb98caca642f","system_id":"levelo_inurba_marseille","lat":43.295279,"lon":5.375048,"is_reserved":false,"is_disabled":false,"rental_uris":{"android":"levelo://app?vid=a700d0d9-5e35-4696-a592-bb98caca642f","ios":"levelo://app?vid=a700d0d9-5e35-4696-a592-bb98caca642f"},"vehicle_type_id":"4","last_reported":1716912551,"current_range_meters":9600,"station_id":"ce4bgkp2rcd13ifvqbmg","pricing_plan_id":"cebpf4jnsgd1na2vs0mg"},{"bike_id":"f85ad80b-5ab9-4e48-93e8-531afa94fb5b","system_id":"levelo_inurba_marseille","lat":43.299717,"lon":5.384845,"is_reserved":false,"is_disabled":false,"rental_uris":{"android":"levelo://app?vid=f85ad80b-5ab9-4e48-93e8-531afa94fb5b","ios":"levelo://app?vid=f85ad80b-5ab9-4e48-93e8-531afa94fb5b"},"vehicle_type_id":"4","last_reported":1716912551,"current_range_meters":0,"station_id":"ce4bgj92rcd13ifvqbd0","pricing_plan_id":"cebpf4jnsgd1na2vs0mg"},{"bike_id":"e01974ae-e2c2-4406-850b-427a9702bddc","system_id":"levelo_inurba_marseille","lat":43.295279,"lon":5.375048,"is_reserved":false,"is_disabled":false,"rental_uris":{"android":"levelo://app?vid=e01974ae-e2c2-4406-850b-427a9702bddc","ios":"levelo://app?vid=e01974ae-e2c2-4406-850b-427a9702bddc"},"vehicle_type_id":"4","last_reported":1716912551,"current_range_meters":15200,"station_id":"ce4bgkp2rcd13ifvqbmg","pricing_plan_id":"cebpf4jnsgd1na2vs0mg"},{"bike_id":"0d1433b6-54d6-47e6-83b1-1740d5a119c3","system_id":"levelo_inurba_marseille","lat":43.29969,"lon":5.38491,"is_reserved":false,"is_disabled":false,"rental_uris":{"android":"levelo://app?vid=0d1433b6-54d6-47e6-83b1-1740d5a119c3","ios":"levelo://app?vid=0d1433b6-54d6-47e6-83b1-1740d5a119c3"},"vehicle_type_id":"4","last_reported":1716912551,"current_range_meters":0,"station_id":"ce4bgj92rcd13ifvqbd0","pricing_plan_id":"cebpf4jnsgd1na2vs0mg"},{"bike_id":"8b825f0f-95c2-42e7-b0aa-269f4fd8955b","system_id":"levelo_inurba_marseille","lat":43.29963,"lon":5.385002,"is_reserved":false,"is_disabled":false,"rental_uris":{"android":"levelo://app?vid=8b825f0f-95c2-42e7-b0aa-269f4fd8955b","ios":"levelo://app?vid=8b825f0f-95c2-42e7-b0aa-269f4fd8955b"},"vehicle_type_id":"4","last_reported":1716912551,"current_range_meters":0,"station_id":"ce4bgj92rcd13ifvqbd0","pricing_plan_id":"cebpf4jnsgd1na2vs0mg"},{"bike_id":"386e5aa4-c9e1-4a27-9ef9-c95977b0631e","system_id":"levelo_inurba_marseille","lat":43.29511,"lon":5.37497,"is_reserved":false,"is_disabled":false,"rental_uris":{"android":"levelo://app?vid=386e5aa4-c9e1-4a27-9ef9-c95977b0631e","ios":"levelo://app?vid=386e5aa4-c9e1-4a27-9ef9-c95977b0631e"},"vehicle_type_id":"4","last_reported":1716912551,"current_range_meters":0,"station_id":"","pricing_plan_id":"cebpf4jnsgd1na2vs0mg"},{"bike_id":"39869f8b-907e-4e7a-8cf7-9c2a6b79cebf","system_id":"levelo_inurba_marseille","lat":43.32365,"lon":5.3888,"is_reserved":false,"is_disabled":false,"rental_uris":{"android":"levelo://app?vid=39869f8b-907e-4e7a-8cf7-9c2a6b79cebf","ios":"levelo://app?vid=39869f8b-907e-4e7a-8cf7-9c2a6b79cebf"},"vehicle_type_id":"4","last_reported":1716912551,"current_range_meters":0,"station_id":"ce4bhqp2rcd13ifvqhog","pricing_plan_id":"cebpf4jnsgd1na2vs0mg"},{"bike_id":"826e0bf9-96c9-430f-b51f-e9bf5cbccbc9","system_id":"levelo_inurba_marseille","lat":43.32367,"lon":5.388836,"is_reserved":false,"is_disabled":false,"rental_uris":{"android":"levelo://app?vid=826e0bf9-96c9-430f-b51f-e9bf5cbccbc9","ios":"levelo://app?vid=826e0bf9-96c9-430f-b51f-e9bf5cbccbc9"},"vehicle_type_id":"4","last_reported":1716912551,"current_range_meters":4400,"station_id":"ce4bhqp2rcd13ifvqhog","pricing_plan_id":"cebpf4jnsgd1na2vs0mg"},{"bike_id":"0e29490c-12db-469f-8624-a11e768cd968","system_id":"levelo_inurba_marseille","lat":43.32367,"lon":5.388836,"is_reserved":false,"is_disabled":false,"rental_uris":{"android":"levelo://app?vid=0e29490c-12db-469f-8624-a11e768cd968","ios":"levelo://app?vid=0e29490c-12db-469f-8624-a11e768cd968"},"vehicle_type_id":"4","last_reported":1716912551,"current_range_meters":8000,"station_id":"ce4bhqp2rcd13ifvqhog","pricing_plan_id":"cebpf4jnsgd1na2vs0mg"},{"bike_id":"0a5495a5-3ef5-4689-a71b-67b490980c05","system_id":"levelo_inurba_marseille","lat":43.32367,"lon":5.388836,"is_reserved":false,"is_disabled":false,"rental_uris":{"android":"levelo://app?vid=0a5495a5-3ef5-4689-a71b-67b490980c05","ios":"levelo://app?vid=0a5495a5-3ef5-4689-a71b-67b490980c05"},"vehicle_type_id":"4","last_reported":1716912551,"current_range_meters":14400,"station_id":"ce4bhqp2rcd13ifvqhog","pricing_plan_id":"cebpf4jnsgd1na2vs0mg"},{"bike_id":"0d6302ac-5143-4c9c-ab6d-d6131370b5eb","system_id":"levelo_inurba_marseille","lat":43.323677,"lon":5.388866,"is_reserved":false,"is_disabled":false,"rental_uris":{"android":"levelo://app?vid=0d6302ac-5143-4c9c-ab6d-d6131370b5eb","ios":"levelo://app?vid=0d6302ac-5143-4c9c-ab6d-d6131370b5eb"},"vehicle_type_id":"4","last_reported":1716912551,"current_range_meters":0,"station_id":"ce4bhqp2rcd13ifvqhog","pricing_plan_id":"cebpf4jnsgd1na2vs0mg"},{"bike_id":"746a5220-8b9a-4f20-8227-0e2e1b766740","system_id":"levelo_inurba_marseille","lat":43.32367,"lon":5.388836,"is_reserved":false,"is_disabled":false,"rental_uris":{"android":"levelo://app?vid=746a5220-8b9a-4f20-8227-0e2e1b766740","ios":"levelo://app?vid=746a5220-8b9a-4f20-8227-0e2e1b766740"},"vehicle_type_id":"4","last_reported":1716912551,"current_range_meters":18400,"station_id":"ce4bhqp2rcd13ifvqhog","pricing_plan_id":"cebpf4jnsgd1na2vs0mg"},{"bike_id":"2657bc71-fc6a-4494-86f9-4920c8fef9a6","system_id":"levelo_inurba_marseille","lat":43.32367,"lon":5.388836,"is_reserved":false,"is_disabled":false,"rental_uris":{"android":"levelo://app?vid=2657bc71-fc6a-4494-86f9-4920c8fef9a6","ios":"levelo://app?vid=2657bc71-fc6a-4494-86f9-4920c8fef9a6"},"vehicle_type_id":"4","last_reported":1716912551,"current_range_meters":26400,"station_id":"ce4bhqp2rcd13ifvqhog","pricing_plan_id":"cebpf4jnsgd1na2vs0mg"},{"bike_id":"e079e0f0-79b1-4cd6-966f-a47496c906dd","system_id":"levelo_inurba_marseille","lat":43.32367,"lon":5.38891,"is_reserved":false,"is_disabled":false,"rental_uris":{"android":"levelo://app?vid=e079e0f0-79b1-4cd6-966f-a47496c906dd","ios":"levelo://app?vid=e079e0f0-79b1-4cd6-966f-a47496c906dd"},"vehicle_type_id":"4","last_reported":1716912551,"current_range_meters":8400,"station_id":"ce4bhqp2rcd13ifvqhog","pricing_plan_id":"cebpf4jnsgd1na2vs0mg"},{"bike_id":"62c5caa7-901a-4627-8ca5-7e0d2a24df16","system_id":"levelo_inurba_marseille","lat":43.32367,"lon":5.388836,"is_reserved":false,"is_disabled":false,"rental_uris":{"android":"levelo://app?vid=62c5caa7-901a-4627-8ca5-7e0d2a24df16","ios":"levelo://app?vid=62c5caa7-901a-4627-8ca5-7e0d2a24df16"},"vehicle_type_id":"4","last_reported":1716912551,"current_range_meters":14400,"station_id":"ce4bhqp2rcd13ifvqhog","pricing_plan_id":"cebpf4jnsgd1na2vs0mg"},{"bike_id":"012dca54-8c96-479f-a6bf-d2e1c66e6a6e","system_id":"levelo_inurba_marseille","lat":43.29605,"lon":5.381119,"is_reserved":false,"is_disabled":false,"rental_uris":{"android":"levelo://app?vid=012dca54-8c96-479f-a6bf-d2e1c66e6a6e","ios":"levelo://app?vid=012dca54-8c96-479f-a6bf-d2e1c66e6a6e"},"vehicle_type_id":"4","last_reported":1716912551,"current_range_meters":0,"station_id":"ce4bgl12rcd13ifvqbo0","pricing_plan_id":"cebpf4jnsgd1na2vs0mg"},{"bike_id":"6f585855-f8fa-4ad9-b58a-5d04a49155e5","system_id":"levelo_inurba_marseille","lat":43.29595,"lon":5.38107,"is_reserved":false,"is_disabled":false,"rental_uris":{"android":"levelo://app?vid=6f585855-f8fa-4ad9-b58a-5d04a49155e5","ios":"levelo://app?vid=6f585855-f8fa-4ad9-b58a-5d04a49155e5"},"vehicle_type_id":"4","last_reported":1716912551,"current_range_meters":8400,"station_id":"ce4bgl12rcd13ifvqbo0","pricing_plan_id":"cebpf4jnsgd1na2vs0mg"},{"bike_id":"f6e0d592-07a0-4d39-b9ca-63d31e155bfe","system_id":"levelo_inurba_marseille","lat":43.292749,"lon":5.368398,"is_reserved":false,"is_disabled":false,"rental_uris":{"android":"levelo://app?vid=f6e0d592-07a0-4d39-b9ca-63d31e155bfe","ios":"levelo://app?vid=f6e0d592-07a0-4d39-b9ca-63d31e155bfe"},"vehicle_type_id":"4","last_reported":1716912551,"current_range_meters":8800,"station_id":"ce4bhbp2rcd13ifvqesg","pricing_plan_id":"cebpf4jnsgd1na2vs0mg"},{"bike_id":"b8a39b1f-158d-4352-9166-b565256de535","system_id":"levelo_inurba_marseille","lat":43.292749,"lon":5.368402,"is_reserved":false,"is_disabled":false,"rental_uris":{"android":"levelo://app?vid=b8a39b1f-158d-4352-9166-b565256de535","ios":"levelo://app?vid=b8a39b1f-158d-4352-9166-b565256de535"},"vehicle_type_id":"4","last_reported":1716912551,"current_range_meters":9200,"station_id":"ce4bhbp2rcd13ifvqesg","pricing_plan_id":"cebpf4jnsgd1na2vs0mg"},{"bike_id":"c83b56e6-7c5d-4e8b-a29f-c900e8454a64","system_id":"levelo_inurba_marseille","lat":43.292749,"lon":5.368398,"is_reserved":false,"is_disabled":false,"rental_uris":{"android":"levelo://app?vid=c83b56e6-7c5d-4e8b-a29f-c900e8454a64","ios":"levelo://app?vid=c83b56e6-7c5d-4e8b-a29f-c900e8454a64"},"vehicle_type_id":"4","last_reported":1716912551,"current_range_meters":17200,"station_id":"ce4bhbp2rcd13ifvqesg","pricing_plan_id":"cebpf4jnsgd1na2vs0mg"},{"bike_id":"f2046267-4bc6-4340-8776-2b83d2101e2b","system_id":"levelo_inurba_marseille","lat":43.293083,"lon":5.37173,"is_reserved":false,"is_disabled":false,"rental_uris":{"android":"levelo://app?vid=f2046267-4bc6-4340-8776-2b83d2101e2b","ios":"levelo://app?vid=f2046267-4bc6-4340-8776-2b83d2101e2b"},"vehicle_type_id":"4","last_reported":1716912551,"current_range_meters":0,"station_id":"ce4bgh92rcd13ifvqb40","pricing_plan_id":"cebpf4jnsgd1na2vs0mg"},{"bike_id":"6c7c7a7e-b020-4a01-af4c-c08f6ab4b4cd","system_id":"levelo_inurba_marseille","lat":43.293249,"lon":5.371578,"is_reserved":false,"is_disabled":false,"rental_uris":{"android":"levelo://app?vid=6c7c7a7e-b020-4a01-af4c-c08f6ab4b4cd","ios":"levelo://app?vid=6c7c7a7e-b020-4a01-af4c-c08f6ab4b4cd"},"vehicle_type_id":"4","last_reported":1716912551,"current_range_meters":6000,"station_id":"ce4bgh92rcd13ifvqb40","pricing_plan_id":"cebpf4jnsgd1na2vs0mg"},{"bike_id":"51ebe822-c3f8-42a8-97f6-c81003352123","system_id":"levelo_inurba_marseille","lat":43.292749,"lon":5.368402,"is_reserved":false,"is_disabled":false,"rental_uris":{"android":"levelo://app?vid=51ebe822-c3f8-42a8-97f6-c81003352123","ios":"levelo://app?vid=51ebe822-c3f8-42a8-97f6-c81003352123"},"vehicle_type_id":"4","last_reported":1716912551,"current_range_meters":0,"station_id":"ce4bhbp2rcd13ifvqesg","pricing_plan_id":"cebpf4jnsgd1na2vs0mg"},{"bike_id":"7d526b84-65ec-4f6c-bd73-fc7044997495","system_id":"levelo_inurba_marseille","lat":43.292749,"lon":5.368398,"is_reserved":false,"is_disabled":false,"rental_uris":{"android":"levelo://app?vid=7d526b84-65ec-4f6c-bd73-fc7044997495","ios":"levelo://app?vid=7d526b84-65ec-4f6c-bd73-fc7044997495"},"vehicle_type_id":"4","last_reported":1716912551,"current_range_meters":23600,"station_id":"ce4bhbp2rcd13ifvqesg","pricing_plan_id":"cebpf4jnsgd1na2vs0mg"},{"bike_id":"46d0b9c7-1d4d-443b-9c73-b73eaf326039","system_id":"levelo_inurba_marseille","lat":43.273609,"lon":5.362708,"is_reserved":false,"is_disabled":false,"rental_uris":{"android":"levelo://app?vid=46d0b9c7-1d4d-443b-9c73-b73eaf326039","ios":"levelo://app?vid=46d0b9c7-1d4d-443b-9c73-b73eaf326039"},"vehicle_type_id":"4","last_reported":1716912551,"current_range_meters":0,"station_id":"ce4bhbh2rcd13ifvqeo0","pricing_plan_id":"cebpf4jnsgd1na2vs0mg"},{"bike_id":"ca260304-85fa-4307-9fec-c80cca45f861","system_id":"levelo_inurba_marseille","lat":43.300201,"lon":5.388876,"is_reserved":false,"is_disabled":false,"rental_uris":{"android":"levelo://app?vid=ca260304-85fa-4307-9fec-c80cca45f861","ios":"levelo://app?vid=ca260304-85fa-4307-9fec-c80cca45f861"},"vehicle_type_id":"4","last_reported":1716912551,"current_range_meters":26000,"station_id":"","pricing_plan_id":"cebpf4jnsgd1na2vs0mg"},{"bike_id":"50fd0198-89e5-4cc7-8b71-9b2ac32c3fef","system_id":"levelo_inurba_marseille","lat":43.293009,"lon":5.374584,"is_reserved":false,"is_disabled":false,"rental_uris":{"android":"levelo://app?vid=50fd0198-89e5-4cc7-8b71-9b2ac32c3fef","ios":"levelo://app?vid=50fd0198-89e5-4cc7-8b71-9b2ac32c3fef"},"vehicle_type_id":"4","last_reported":1716912551,"current_range_meters":19600,"station_id":"ce4bgi12rcd13ifvqb70","pricing_plan_id":"cebpf4jnsgd1na2vs0mg"},{"bike_id":"347e4782-f375-425e-ad97-9d6de74e6748","system_id":"levelo_inurba_marseille","lat":43.293009,"lon":5.374584,"is_reserved":false,"is_disabled":false,"rental_uris":{"android":"levelo://app?vid=347e4782-f375-425e-ad97-9d6de74e6748","ios":"levelo://app?vid=347e4782-f375-425e-ad97-9d6de74e6748"},"vehicle_type_id":"4","last_reported":1716912551,"current_range_meters":4000,"station_id":"ce4bgi12rcd13ifvqb70","pricing_plan_id":"cebpf4jnsgd1na2vs0mg"},{"bike_id":"6f331d3d-b895-49e3-9f09-97446fc26cc5","system_id":"levelo_inurba_marseille","lat":43.302992,"lon":5.392136,"is_reserved":false,"is_disabled":false,"rental_uris":{"android":"levelo://app?vid=6f331d3d-b895-49e3-9f09-97446fc26cc5","ios":"levelo://app?vid=6f331d3d-b895-49e3-9f09-97446fc26cc5"},"vehicle_type_id":"4","last_reported":1716912551,"current_range_meters":0,"station_id":"ce4bgkh2rcd13ifvqbk0","pricing_plan_id":"cebpf4jnsgd1na2vs0mg"},{"bike_id":"5d7c9fcd-b9da-45a7-a824-69d81e6f1ff9","system_id":"levelo_inurba_marseille","lat":43.292311,"lon":5.360731,"is_reserved":false,"is_disabled":false,"rental_uris":{"android":"levelo://app?vid=5d7c9fcd-b9da-45a7-a824-69d81e6f1ff9","ios":"levelo://app?vid=5d7c9fcd-b9da-45a7-a824-69d81e6f1ff9"},"vehicle_type_id":"4","last_reported":1716912551,"current_range_meters":27200,"station_id":"ce4bhbh2rcd13ifvqeqg","pricing_plan_id":"cebpf4jnsgd1na2vs0mg"},{"bike_id":"cc37c5c8-68cc-44b3-aa51-49b625e75945","system_id":"levelo_inurba_marseille","lat":43.291994,"lon":5.357886,"is_reserved":false,"is_disabled":false,"rental_uris":{"android":"levelo://app?vid=cc37c5c8-68cc-44b3-aa51-49b625e75945","ios":"levelo://app?vid=cc37c5c8-68cc-44b3-aa51-49b625e75945"},"vehicle_type_id":"4","last_reported":1716912551,"current_range_meters":2800,"station_id":"ce4bhb12rcd13ifvqel0","pricing_plan_id":"cebpf4jnsgd1na2vs0mg"},{"bike_id":"a72b7eb0-3adc-4518-9ca0-83540ca94d06","system_id":"levelo_inurba_marseille","lat":43.291675,"lon":5.371583,"is_reserved":false,"is_disabled":false,"rental_uris":{"android":"levelo://app?vid=a72b7eb0-3adc-4518-9ca0-83540ca94d06","ios":"levelo://app?vid=a72b7eb0-3adc-4518-9ca0-83540ca94d06"},"vehicle_type_id":"4","last_reported":1716912551,"current_range_meters":12400,"station_id":"ce4bha92rcd13ifvqeh0","pricing_plan_id":"cebpf4jnsgd1na2vs0mg"},{"bike_id":"a8690313-2d56-4c0c-a6dc-c1d57d9b19ba","system_id":"levelo_inurba_marseille","lat":43.291675,"lon":5.371583,"is_reserved":false,"is_disabled":false,"rental_uris":{"android":"levelo://app?vid=a8690313-2d56-4c0c-a6dc-c1d57d9b19ba","ios":"levelo://app?vid=a8690313-2d56-4c0c-a6dc-c1d57d9b19ba"},"vehicle_type_id":"4","last_reported":1716912551,"current_range_meters":16400,"station_id":"ce4bha92rcd13ifvqeh0","pricing_plan_id":"cebpf4jnsgd1na2vs0mg"},{"bike_id":"bbbf0934-6ac1-41ca-aa2c-d8a1e3d531d0","system_id":"levelo_inurba_marseille","lat":43.291675,"lon":5.371583,"is_reserved":false,"is_disabled":false,"rental_uris":{"android":"levelo://app?vid=bbbf0934-6ac1-41ca-aa2c-d8a1e3d531d0","ios":"levelo://app?vid=bbbf0934-6ac1-41ca-aa2c-d8a1e3d531d0"},"vehicle_type_id":"4","last_reported":1716912551,"current_range_meters":30000,"station_id":"ce4bha92rcd13ifvqeh0","pricing_plan_id":"cebpf4jnsgd1na2vs0mg"},{"bike_id":"dc376ddc-7454-48e6-89be-aef052fb7900","system_id":"levelo_inurba_marseille","lat":43.340804,"lon":5.410219,"is_reserved":false,"is_disabled":false,"rental_uris":{"android":"levelo://app?vid=dc376ddc-7454-48e6-89be-aef052fb7900","ios":"levelo://app?vid=dc376ddc-7454-48e6-89be-aef052fb7900"},"vehicle_type_id":"4","last_reported":1716912551,"current_range_meters":14000,"station_id":"ce4bhqh2rcd13ifvqhlg","pricing_plan_id":"cebpf4jnsgd1na2vs0mg"},{"bike_id":"507b1ecb-3ed8-4344-b792-afacc6c2c143","system_id":"levelo_inurba_marseille","lat":43.292005,"lon":5.357875,"is_reserved":false,"is_disabled":false,"rental_uris":{"android":"levelo://app?vid=507b1ecb-3ed8-4344-b792-afacc6c2c143","ios":"levelo://app?vid=507b1ecb-3ed8-4344-b792-afacc6c2c143"},"vehicle_type_id":"4","last_reported":1716912551,"current_range_meters":25600,"station_id":"ce4bhb12rcd13ifvqel0","pricing_plan_id":"cebpf4jnsgd1na2vs0mg"},{"bike_id":"91b4362a-546a-4414-844f-b549feaf7fe8","system_id":"levelo_inurba_marseille","lat":43.291994,"lon":5.357886,"is_reserved":false,"is_disabled":false,"rental_uris":{"android":"levelo://app?vid=91b4362a-546a-4414-844f-b549feaf7fe8","ios":"levelo://app?vid=91b4362a-546a-4414-844f-b549feaf7fe8"},"vehicle_type_id":"4","last_reported":1716912551,"current_range_meters":3200,"station_id":"ce4bhb12rcd13ifvqel0","pricing_plan_id":"cebpf4jnsgd1na2vs0mg"},{"bike_id":"a8c5c9d9-8fdd-4e8b-a6f9-e3e57024aaa0","system_id":"levelo_inurba_marseille","lat":43.291994,"lon":5.357886,"is_reserved":false,"is_disabled":false,"rental_uris":{"android":"levelo://app?vid=a8c5c9d9-8fdd-4e8b-a6f9-e3e57024aaa0","ios":"levelo://app?vid=a8c5c9d9-8fdd-4e8b-a6f9-e3e57024aaa0"},"vehicle_type_id":"4","last_reported":1716912551,"current_range_meters":17600,"station_id":"ce4bhb12rcd13ifvqel0","pricing_plan_id":"cebpf4jnsgd1na2vs0mg"},{"bike_id":"567c0146-295f-4bb6-a8c9-3e616bb626c1","system_id":"levelo_inurba_marseille","lat":43.291994,"lon":5.357886,"is_reserved":false,"is_disabled":false,"rental_uris":{"android":"levelo://app?vid=567c0146-295f-4bb6-a8c9-3e616bb626c1","ios":"levelo://app?vid=567c0146-295f-4bb6-a8c9-3e616bb626c1"},"vehicle_type_id":"4","last_reported":1716912551,"current_range_meters":12800,"station_id":"ce4bhb12rcd13ifvqel0","pricing_plan_id":"cebpf4jnsgd1na2vs0mg"},{"bike_id":"7cfe6fb5-16bf-40c2-869e-072d2fe84610","system_id":"levelo_inurba_marseille","lat":43.313291,"lon":5.396838,"is_reserved":false,"is_disabled":false,"rental_uris":{"android":"levelo://app?vid=7cfe6fb5-16bf-40c2-869e-072d2fe84610","ios":"levelo://app?vid=7cfe6fb5-16bf-40c2-869e-072d2fe84610"},"vehicle_type_id":"4","last_reported":1716912551,"current_range_meters":400,"station_id":"ce4bgvp2rcd13ifvqcu0","pricing_plan_id":"cebpf4jnsgd1na2vs0mg"},{"bike_id":"19af203b-a80c-4df4-9739-67c11a37fb0a","system_id":"levelo_inurba_marseille","lat":43.313291,"lon":5.396838,"is_reserved":false,"is_disabled":false,"rental_uris":{"android":"levelo://app?vid=19af203b-a80c-4df4-9739-67c11a37fb0a","ios":"levelo://app?vid=19af203b-a80c-4df4-9739-67c11a37fb0a"},"vehicle_type_id":"4","last_reported":1716912551,"current_range_meters":21600,"station_id":"ce4bgvp2rcd13ifvqcu0","pricing_plan_id":"cebpf4jnsgd1na2vs0mg"},{"bike_id":"e83b965c-56e6-438d-abf4-3cc08b9f0d18","system_id":"levelo_inurba_marseille","lat":43.313291,"lon":5.396838,"is_reserved":false,"is_disabled":false,"rental_uris":{"android":"levelo://app?vid=e83b965c-56e6-438d-abf4-3cc08b9f0d18","ios":"levelo://app?vid=e83b965c-56e6-438d-abf4-3cc08b9f0d18"},"vehicle_type_id":"4","last_reported":1716912551,"current_range_meters":26000,"station_id":"ce4bgvp2rcd13ifvqcu0","pricing_plan_id":"cebpf4jnsgd1na2vs0mg"},{"bike_id":"53137406-f337-47db-9836-3a20d91d6da3","system_id":"levelo_inurba_marseille","lat":43.31327,"lon":5.39692,"is_reserved":false,"is_disabled":false,"rental_uris":{"android":"levelo://app?vid=53137406-f337-47db-9836-3a20d91d6da3","ios":"levelo://app?vid=53137406-f337-47db-9836-3a20d91d6da3"},"vehicle_type_id":"4","last_reported":1716912551,"current_range_meters":0,"station_id":"ce4bgvp2rcd13ifvqcu0","pricing_plan_id":"cebpf4jnsgd1na2vs0mg"},{"bike_id":"4d3c82a3-c6c6-4d5c-a61a-301f82f9bcdc","system_id":"levelo_inurba_marseille","lat":43.31321,"lon":5.39694,"is_reserved":false,"is_disabled":false,"rental_uris":{"android":"levelo://app?vid=4d3c82a3-c6c6-4d5c-a61a-301f82f9bcdc","ios":"levelo://app?vid=4d3c82a3-c6c6-4d5c-a61a-301f82f9bcdc"},"vehicle_type_id":"4","last_reported":1716912551,"current_range_meters":22000,"station_id":"ce4bgvp2rcd13ifvqcu0","pricing_plan_id":"cebpf4jnsgd1na2vs0mg"},{"bike_id":"23790904-4982-4cb7-bdc8-08d3a4fdcc13","system_id":"levelo_inurba_marseille","lat":43.31326,"lon":5.39694,"is_reserved":false,"is_disabled":false,"rental_uris":{"android":"levelo://app?vid=23790904-4982-4cb7-bdc8-08d3a4fdcc13","ios":"levelo://app?vid=23790904-4982-4cb7-bdc8-08d3a4fdcc13"},"vehicle_type_id":"4","last_reported":1716912551,"current_range_meters":18400,"station_id":"ce4bgvp2rcd13ifvqcu0","pricing_plan_id":"cebpf4jnsgd1na2vs0mg"},{"bike_id":"e93b5cc0-bd16-41e9-9449-149436b05a4b","system_id":"levelo_inurba_marseille","lat":43.313291,"lon":5.396838,"is_reserved":false,"is_disabled":false,"rental_uris":{"android":"levelo://app?vid=e93b5cc0-bd16-41e9-9449-149436b05a4b","ios":"levelo://app?vid=e93b5cc0-bd16-41e9-9449-149436b05a4b"},"vehicle_type_id":"4","last_reported":1716912551,"current_range_meters":6400,"station_id":"ce4bgvp2rcd13ifvqcu0","pricing_plan_id":"cebpf4jnsgd1na2vs0mg"},{"bike_id":"b7984d83-7084-460b-8709-3f9220d278ee","system_id":"levelo_inurba_marseille","lat":43.313291,"lon":5.396838,"is_reserved":false,"is_disabled":false,"rental_uris":{"android":"levelo://app?vid=b7984d83-7084-460b-8709-3f9220d278ee","ios":"levelo://app?vid=b7984d83-7084-460b-8709-3f9220d278ee"},"vehicle_type_id":"4","last_reported":1716912551,"current_range_meters":31600,"station_id":"ce4bgvp2rcd13ifvqcu0","pricing_plan_id":"cebpf4jnsgd1na2vs0mg"},{"bike_id":"3e3fa9f2-fb56-4839-8c8d-e6343474dd0b","system_id":"levelo_inurba_marseille","lat":43.313291,"lon":5.396838,"is_reserved":false,"is_disabled":false,"rental_uris":{"android":"levelo://app?vid=3e3fa9f2-fb56-4839-8c8d-e6343474dd0b","ios":"levelo://app?vid=3e3fa9f2-fb56-4839-8c8d-e6343474dd0b"},"vehicle_type_id":"4","last_reported":1716912551,"current_range_meters":21200,"station_id":"ce4bgvp2rcd13ifvqcu0","pricing_plan_id":"cebpf4jnsgd1na2vs0mg"},{"bike_id":"c2e7cf81-7c00-4ae8-a6e5-f9c5c62d181b","system_id":"levelo_inurba_marseille","lat":43.313291,"lon":5.396838,"is_reserved":false,"is_disabled":false,"rental_uris":{"android":"levelo://app?vid=c2e7cf81-7c00-4ae8-a6e5-f9c5c62d181b","ios":"levelo://app?vid=c2e7cf81-7c00-4ae8-a6e5-f9c5c62d181b"},"vehicle_type_id":"4","last_reported":1716912551,"current_range_meters":24000,"station_id":"ce4bgvp2rcd13ifvqcu0","pricing_plan_id":"cebpf4jnsgd1na2vs0mg"},{"bike_id":"f7fbb803-d1a1-45f8-8080-ff55d1f021ae","system_id":"levelo_inurba_marseille","lat":43.313291,"lon":5.396838,"is_reserved":false,"is_disabled":false,"rental_uris":{"android":"levelo://app?vid=f7fbb803-d1a1-45f8-8080-ff55d1f021ae","ios":"levelo://app?vid=f7fbb803-d1a1-45f8-8080-ff55d1f021ae"},"vehicle_type_id":"4","last_reported":1716912551,"current_range_meters":29600,"station_id":"ce4bgvp2rcd13ifvqcu0","pricing_plan_id":"cebpf4jnsgd1na2vs0mg"},{"bike_id":"63530b80-4016-4d87-8665-340c1b7a4873","system_id":"levelo_inurba_marseille","lat":43.313291,"lon":5.396838,"is_reserved":false,"is_disabled":false,"rental_uris":{"android":"levelo://app?vid=63530b80-4016-4d87-8665-340c1b7a4873","ios":"levelo://app?vid=63530b80-4016-4d87-8665-340c1b7a4873"},"vehicle_type_id":"4","last_reported":1716912551,"current_range_meters":16000,"station_id":"ce4bgvp2rcd13ifvqcu0","pricing_plan_id":"cebpf4jnsgd1na2vs0mg"},{"bike_id":"46a21c0f-6cc8-4156-a38a-f4d67ad72a3c","system_id":"levelo_inurba_marseille","lat":43.313291,"lon":5.396838,"is_reserved":false,"is_disabled":false,"rental_uris":{"android":"levelo://app?vid=46a21c0f-6cc8-4156-a38a-f4d67ad72a3c","ios":"levelo://app?vid=46a21c0f-6cc8-4156-a38a-f4d67ad72a3c"},"vehicle_type_id":"4","last_reported":1716912551,"current_range_meters":21600,"station_id":"ce4bgvp2rcd13ifvqcu0","pricing_plan_id":"cebpf4jnsgd1na2vs0mg"},{"bike_id":"fa8f6b97-609a-4320-8a31-a67e5c571370","system_id":"levelo_inurba_marseille","lat":43.29529,"lon":5.385581,"is_reserved":false,"is_disabled":false,"rental_uris":{"android":"levelo://app?vid=fa8f6b97-609a-4320-8a31-a67e5c571370","ios":"levelo://app?vid=fa8f6b97-609a-4320-8a31-a67e5c571370"},"vehicle_type_id":"4","last_reported":1716912551,"current_range_meters":28800,"station_id":"ce4bgih2rcd13ifvqba0","pricing_plan_id":"cebpf4jnsgd1na2vs0mg"},{"bike_id":"44494630-0991-4bf5-bf7c-7bfb526d25e6","system_id":"levelo_inurba_marseille","lat":43.309038,"lon":5.396546,"is_reserved":false,"is_disabled":false,"rental_uris":{"android":"levelo://app?vid=44494630-0991-4bf5-bf7c-7bfb526d25e6","ios":"levelo://app?vid=44494630-0991-4bf5-bf7c-7bfb526d25e6"},"vehicle_type_id":"4","last_reported":1716912551,"current_range_meters":8800,"station_id":"ce4bh012rcd13ifvqcv0","pricing_plan_id":"cebpf4jnsgd1na2vs0mg"},{"bike_id":"c28cd5aa-07ed-420a-ade7-f7aec2f6811a","system_id":"levelo_inurba_marseille","lat":43.29529,"lon":5.385581,"is_reserved":false,"is_disabled":false,"rental_uris":{"android":"levelo://app?vid=c28cd5aa-07ed-420a-ade7-f7aec2f6811a","ios":"levelo://app?vid=c28cd5aa-07ed-420a-ade7-f7aec2f6811a"},"vehicle_type_id":"4","last_reported":1716912551,"current_range_meters":19200,"station_id":"ce4bgih2rcd13ifvqba0","pricing_plan_id":"cebpf4jnsgd1na2vs0mg"},{"bike_id":"63f409c4-fb0d-49c1-8072-81872d0b837a","system_id":"levelo_inurba_marseille","lat":43.29529,"lon":5.385581,"is_reserved":false,"is_disabled":false,"rental_uris":{"android":"levelo://app?vid=63f409c4-fb0d-49c1-8072-81872d0b837a","ios":"levelo://app?vid=63f409c4-fb0d-49c1-8072-81872d0b837a"},"vehicle_type_id":"4","last_reported":1716912551,"current_range_meters":21600,"station_id":"ce4bgih2rcd13ifvqba0","pricing_plan_id":"cebpf4jnsgd1na2vs0mg"},{"bike_id":"710177e6-dca7-4aa6-9606-fe52d97754c2","system_id":"levelo_inurba_marseille","lat":43.29529,"lon":5.385581,"is_reserved":false,"is_disabled":false,"rental_uris":{"android":"levelo://app?vid=710177e6-dca7-4aa6-9606-fe52d97754c2","ios":"levelo://app?vid=710177e6-dca7-4aa6-9606-fe52d97754c2"},"vehicle_type_id":"4","last_reported":1716912551,"current_range_meters":18000,"station_id":"ce4bgih2rcd13ifvqba0","pricing_plan_id":"cebpf4jnsgd1na2vs0mg"},{"bike_id":"5a8a18e1-2ad4-44d2-898c-5a273218dee0","system_id":"levelo_inurba_marseille","lat":43.290779,"lon":5.371482,"is_reserved":false,"is_disabled":false,"rental_uris":{"android":"levelo://app?vid=5a8a18e1-2ad4-44d2-898c-5a273218dee0","ios":"levelo://app?vid=5a8a18e1-2ad4-44d2-898c-5a273218dee0"},"vehicle_type_id":"4","last_reported":1716912551,"current_range_meters":0,"station_id":"ce4bh5p2rcd13ifvqe4g","pricing_plan_id":"cebpf4jnsgd1na2vs0mg"},{"bike_id":"b3cc9a0c-ab5a-44ab-8bf5-fcbb2dbfdd07","system_id":"levelo_inurba_marseille","lat":43.29529,"lon":5.385581,"is_reserved":false,"is_disabled":false,"rental_uris":{"android":"levelo://app?vid=b3cc9a0c-ab5a-44ab-8bf5-fcbb2dbfdd07","ios":"levelo://app?vid=b3cc9a0c-ab5a-44ab-8bf5-fcbb2dbfdd07"},"vehicle_type_id":"4","last_reported":1716912551,"current_range_meters":26400,"station_id":"ce4bgih2rcd13ifvqba0","pricing_plan_id":"cebpf4jnsgd1na2vs0mg"},{"bike_id":"bd792ef6-402a-4b17-960a-71143e4d965e","system_id":"levelo_inurba_marseille","lat":43.29529,"lon":5.385581,"is_reserved":false,"is_disabled":false,"rental_uris":{"android":"levelo://app?vid=bd792ef6-402a-4b17-960a-71143e4d965e","ios":"levelo://app?vid=bd792ef6-402a-4b17-960a-71143e4d965e"},"vehicle_type_id":"4","last_reported":1716912551,"current_range_meters":17600,"station_id":"ce4bgih2rcd13ifvqba0","pricing_plan_id":"cebpf4jnsgd1na2vs0mg"},{"bike_id":"3809c419-6fc3-4783-93c5-3adb01e6738e","system_id":"levelo_inurba_marseille","lat":43.29529,"lon":5.385581,"is_reserved":false,"is_disabled":false,"rental_uris":{"android":"levelo://app?vid=3809c419-6fc3-4783-93c5-3adb01e6738e","ios":"levelo://app?vid=3809c419-6fc3-4783-93c5-3adb01e6738e"},"vehicle_type_id":"4","last_reported":1716912551,"current_range_meters":27600,"station_id":"ce4bgih2rcd13ifvqba0","pricing_plan_id":"cebpf4jnsgd1na2vs0mg"},{"bike_id":"a5255ab2-084c-4c05-8029-0dc3fa452fe9","system_id":"levelo_inurba_marseille","lat":43.29529,"lon":5.385581,"is_reserved":false,"is_disabled":false,"rental_uris":{"android":"levelo://app?vid=a5255ab2-084c-4c05-8029-0dc3fa452fe9","ios":"levelo://app?vid=a5255ab2-084c-4c05-8029-0dc3fa452fe9"},"vehicle_type_id":"4","last_reported":1716912551,"current_range_meters":31200,"station_id":"ce4bgih2rcd13ifvqba0","pricing_plan_id":"cebpf4jnsgd1na2vs0mg"},{"bike_id":"4873587b-865d-46fd-8e37-66ecbab7b9d6","system_id":"levelo_inurba_marseille","lat":43.29529,"lon":5.385581,"is_reserved":false,"is_disabled":false,"rental_uris":{"android":"levelo://app?vid=4873587b-865d-46fd-8e37-66ecbab7b9d6","ios":"levelo://app?vid=4873587b-865d-46fd-8e37-66ecbab7b9d6"},"vehicle_type_id":"4","last_reported":1716912551,"current_range_meters":28800,"station_id":"ce4bgih2rcd13ifvqba0","pricing_plan_id":"cebpf4jnsgd1na2vs0mg"},{"bike_id":"69cb12cc-0bcb-41c2-b3e4-d81e58cc1129","system_id":"levelo_inurba_marseille","lat":43.29529,"lon":5.385581,"is_reserved":false,"is_disabled":false,"rental_uris":{"android":"levelo://app?vid=69cb12cc-0bcb-41c2-b3e4-d81e58cc1129","ios":"levelo://app?vid=69cb12cc-0bcb-41c2-b3e4-d81e58cc1129"},"vehicle_type_id":"4","last_reported":1716912551,"current_range_meters":18400,"station_id":"ce4bgih2rcd13ifvqba0","pricing_plan_id":"cebpf4jnsgd1na2vs0mg"},{"bike_id":"15062da2-563b-4db8-b906-a51adb1357b3","system_id":"levelo_inurba_marseille","lat":43.29529,"lon":5.385581,"is_reserved":false,"is_disabled":false,"rental_uris":{"android":"levelo://app?vid=15062da2-563b-4db8-b906-a51adb1357b3","ios":"levelo://app?vid=15062da2-563b-4db8-b906-a51adb1357b3"},"vehicle_type_id":"4","last_reported":1716912551,"current_range_meters":28000,"station_id":"ce4bgih2rcd13ifvqba0","pricing_plan_id":"cebpf4jnsgd1na2vs0mg"},{"bike_id":"4fe2991b-5f32-4089-92c4-641c739379c1","system_id":"levelo_inurba_marseille","lat":43.29529,"lon":5.385581,"is_reserved":false,"is_disabled":false,"rental_uris":{"android":"levelo://app?vid=4fe2991b-5f32-4089-92c4-641c739379c1","ios":"levelo://app?vid=4fe2991b-5f32-4089-92c4-641c739379c1"},"vehicle_type_id":"4","last_reported":1716912551,"current_range_meters":16000,"station_id":"ce4bgih2rcd13ifvqba0","pricing_plan_id":"cebpf4jnsgd1na2vs0mg"},{"bike_id":"686249aa-f1b1-4115-a18c-5d07e02a6e29","system_id":"levelo_inurba_marseille","lat":43.29529,"lon":5.385581,"is_reserved":false,"is_disabled":false,"rental_uris":{"android":"levelo://app?vid=686249aa-f1b1-4115-a18c-5d07e02a6e29","ios":"levelo://app?vid=686249aa-f1b1-4115-a18c-5d07e02a6e29"},"vehicle_type_id":"4","last_reported":1716912551,"current_range_meters":22800,"station_id":"ce4bgih2rcd13ifvqba0","pricing_plan_id":"cebpf4jnsgd1na2vs0mg"},{"bike_id":"30e0bdbb-ed3a-4082-bd19-caefd01b2684","system_id":"levelo_inurba_marseille","lat":43.29529,"lon":5.385581,"is_reserved":false,"is_disabled":false,"rental_uris":{"android":"levelo://app?vid=30e0bdbb-ed3a-4082-bd19-caefd01b2684","ios":"levelo://app?vid=30e0bdbb-ed3a-4082-bd19-caefd01b2684"},"vehicle_type_id":"4","last_reported":1716912551,"current_range_meters":30400,"station_id":"ce4bgih2rcd13ifvqba0","pricing_plan_id":"cebpf4jnsgd1na2vs0mg"},{"bike_id":"cb947cc6-8596-4332-8d96-9b0e03fc0664","system_id":"levelo_inurba_marseille","lat":43.29529,"lon":5.385581,"is_reserved":false,"is_disabled":false,"rental_uris":{"android":"levelo://app?vid=cb947cc6-8596-4332-8d96-9b0e03fc0664","ios":"levelo://app?vid=cb947cc6-8596-4332-8d96-9b0e03fc0664"},"vehicle_type_id":"4","last_reported":1716912551,"current_range_meters":20000,"station_id":"ce4bgih2rcd13ifvqba0","pricing_plan_id":"cebpf4jnsgd1na2vs0mg"},{"bike_id":"32dd2a34-c0e1-4e18-9fc8-22024f8a3082","system_id":"levelo_inurba_marseille","lat":43.290779,"lon":5.371482,"is_reserved":false,"is_disabled":false,"rental_uris":{"android":"levelo://app?vid=32dd2a34-c0e1-4e18-9fc8-22024f8a3082","ios":"levelo://app?vid=32dd2a34-c0e1-4e18-9fc8-22024f8a3082"},"vehicle_type_id":"4","last_reported":1716912551,"current_range_meters":25600,"station_id":"ce4bh5p2rcd13ifvqe4g","pricing_plan_id":"cebpf4jnsgd1na2vs0mg"},{"bike_id":"b5f6d2d4-b995-47e3-a6e4-6d8c1fd477af","system_id":"levelo_inurba_marseille","lat":43.290779,"lon":5.371482,"is_reserved":false,"is_disabled":false,"rental_uris":{"android":"levelo://app?vid=b5f6d2d4-b995-47e3-a6e4-6d8c1fd477af","ios":"levelo://app?vid=b5f6d2d4-b995-47e3-a6e4-6d8c1fd477af"},"vehicle_type_id":"4","last_reported":1716912551,"current_range_meters":800,"station_id":"ce4bh5p2rcd13ifvqe4g","pricing_plan_id":"cebpf4jnsgd1na2vs0mg"},{"bike_id":"52096eb5-9333-464f-8b4e-f1573f51911a","system_id":"levelo_inurba_marseille","lat":43.302008,"lon":5.394694,"is_reserved":false,"is_disabled":false,"rental_uris":{"android":"levelo://app?vid=52096eb5-9333-464f-8b4e-f1573f51911a","ios":"levelo://app?vid=52096eb5-9333-464f-8b4e-f1573f51911a"},"vehicle_type_id":"4","last_reported":1716912551,"current_range_meters":16800,"station_id":"ce4bh0p2rcd13ifvqd70","pricing_plan_id":"cebpf4jnsgd1na2vs0mg"},{"bike_id":"395cc695-4ca8-4c6d-bdd3-7c4ba3f29425","system_id":"levelo_inurba_marseille","lat":43.290624,"lon":5.359245,"is_reserved":false,"is_disabled":false,"rental_uris":{"android":"levelo://app?vid=395cc695-4ca8-4c6d-bdd3-7c4ba3f29425","ios":"levelo://app?vid=395cc695-4ca8-4c6d-bdd3-7c4ba3f29425"},"vehicle_type_id":"4","last_reported":1716912551,"current_range_meters":1600,"station_id":"ce4bha92rcd13ifvqeg0","pricing_plan_id":"cebpf4jnsgd1na2vs0mg"},{"bike_id":"a9b057b5-8568-42f6-a794-80a390c92f02","system_id":"levelo_inurba_marseille","lat":43.290631,"lon":5.359244,"is_reserved":false,"is_disabled":false,"rental_uris":{"android":"levelo://app?vid=a9b057b5-8568-42f6-a794-80a390c92f02","ios":"levelo://app?vid=a9b057b5-8568-42f6-a794-80a390c92f02"},"vehicle_type_id":"4","last_reported":1716912551,"current_range_meters":3200,"station_id":"ce4bha92rcd13ifvqeg0","pricing_plan_id":"cebpf4jnsgd1na2vs0mg"},{"bike_id":"3b4004e9-262d-44c7-bfb0-d2167cfdbfe7","system_id":"levelo_inurba_marseille","lat":43.290624,"lon":5.359245,"is_reserved":false,"is_disabled":false,"rental_uris":{"android":"levelo://app?vid=3b4004e9-262d-44c7-bfb0-d2167cfdbfe7","ios":"levelo://app?vid=3b4004e9-262d-44c7-bfb0-d2167cfdbfe7"},"vehicle_type_id":"4","last_reported":1716912551,"current_range_meters":9200,"station_id":"ce4bha92rcd13ifvqeg0","pricing_plan_id":"cebpf4jnsgd1na2vs0mg"},{"bike_id":"91ca30ef-ab8e-42aa-b965-c2100e1aebf6","system_id":"levelo_inurba_marseille","lat":43.294558,"lon":5.386609,"is_reserved":false,"is_disabled":false,"rental_uris":{"android":"levelo://app?vid=91ca30ef-ab8e-42aa-b965-c2100e1aebf6","ios":"levelo://app?vid=91ca30ef-ab8e-42aa-b965-c2100e1aebf6"},"vehicle_type_id":"4","last_reported":1716912551,"current_range_meters":26800,"station_id":"ce4bh2h2rcd13ifvqdh0","pricing_plan_id":"cebpf4jnsgd1na2vs0mg"},{"bike_id":"1cacda41-8cb4-494f-a951-8adb0cbbb1b5","system_id":"levelo_inurba_marseille","lat":43.290319,"lon":5.375732,"is_reserved":false,"is_disabled":false,"rental_uris":{"android":"levelo://app?vid=1cacda41-8cb4-494f-a951-8adb0cbbb1b5","ios":"levelo://app?vid=1cacda41-8cb4-494f-a951-8adb0cbbb1b5"},"vehicle_type_id":"4","last_reported":1716912551,"current_range_meters":8400,"station_id":"ce4bh692rcd13ifvqe90","pricing_plan_id":"cebpf4jnsgd1na2vs0mg"},{"bike_id":"a3423a53-0149-4edb-a847-8afa5054d373","system_id":"levelo_inurba_marseille","lat":43.290327,"lon":5.375711,"is_reserved":false,"is_disabled":false,"rental_uris":{"android":"levelo://app?vid=a3423a53-0149-4edb-a847-8afa5054d373","ios":"levelo://app?vid=a3423a53-0149-4edb-a847-8afa5054d373"},"vehicle_type_id":"4","last_reported":1716912551,"current_range_meters":6000,"station_id":"ce4bh692rcd13ifvqe90","pricing_plan_id":"cebpf4jnsgd1na2vs0mg"},{"bike_id":"96505723-1450-4cd7-997f-826c2ee59e21","system_id":"levelo_inurba_marseille","lat":43.290327,"lon":5.375711,"is_reserved":false,"is_disabled":false,"rental_uris":{"android":"levelo://app?vid=96505723-1450-4cd7-997f-826c2ee59e21","ios":"levelo://app?vid=96505723-1450-4cd7-997f-826c2ee59e21"},"vehicle_type_id":"4","last_reported":1716912551,"current_range_meters":7200,"station_id":"ce4bh692rcd13ifvqe90","pricing_plan_id":"cebpf4jnsgd1na2vs0mg"},{"bike_id":"daf61398-bfa2-4038-bf94-01cb4facb8ea","system_id":"levelo_inurba_marseille","lat":43.29424,"lon":5.38621,"is_reserved":false,"is_disabled":false,"rental_uris":{"android":"levelo://app?vid=daf61398-bfa2-4038-bf94-01cb4facb8ea","ios":"levelo://app?vid=daf61398-bfa2-4038-bf94-01cb4facb8ea"},"vehicle_type_id":"4","last_reported":1716912551,"current_range_meters":10800,"station_id":"ce4bh2h2rcd13ifvqdh0","pricing_plan_id":"cebpf4jnsgd1na2vs0mg"},{"bike_id":"a604df62-361f-426f-a793-f9f5e5bbc877","system_id":"levelo_inurba_marseille","lat":43.2904,"lon":5.37563,"is_reserved":false,"is_disabled":false,"rental_uris":{"android":"levelo://app?vid=a604df62-361f-426f-a793-f9f5e5bbc877","ios":"levelo://app?vid=a604df62-361f-426f-a793-f9f5e5bbc877"},"vehicle_type_id":"4","last_reported":1716912551,"current_range_meters":23600,"station_id":"ce4bh692rcd13ifvqe90","pricing_plan_id":"cebpf4jnsgd1na2vs0mg"},{"bike_id":"13edf6e8-54f4-4521-b7ab-6e80c4e3df46","system_id":"levelo_inurba_marseille","lat":43.29037,"lon":5.37558,"is_reserved":false,"is_disabled":false,"rental_uris":{"android":"levelo://app?vid=13edf6e8-54f4-4521-b7ab-6e80c4e3df46","ios":"levelo://app?vid=13edf6e8-54f4-4521-b7ab-6e80c4e3df46"},"vehicle_type_id":"4","last_reported":1716912551,"current_range_meters":12400,"station_id":"ce4bh692rcd13ifvqe90","pricing_plan_id":"cebpf4jnsgd1na2vs0mg"},{"bike_id":"3d20c324-d6a8-4e65-8b39-287eaaf4fe3c","system_id":"levelo_inurba_marseille","lat":43.29037,"lon":5.37561,"is_reserved":false,"is_disabled":false,"rental_uris":{"android":"levelo://app?vid=3d20c324-d6a8-4e65-8b39-287eaaf4fe3c","ios":"levelo://app?vid=3d20c324-d6a8-4e65-8b39-287eaaf4fe3c"},"vehicle_type_id":"4","last_reported":1716912551,"current_range_meters":15600,"station_id":"ce4bh692rcd13ifvqe90","pricing_plan_id":"cebpf4jnsgd1na2vs0mg"},{"bike_id":"41e4c35b-9772-4090-a9d4-26a14ae45934","system_id":"levelo_inurba_marseille","lat":43.290327,"lon":5.375711,"is_reserved":false,"is_disabled":false,"rental_uris":{"android":"levelo://app?vid=41e4c35b-9772-4090-a9d4-26a14ae45934","ios":"levelo://app?vid=41e4c35b-9772-4090-a9d4-26a14ae45934"},"vehicle_type_id":"4","last_reported":1716912551,"current_range_meters":30400,"station_id":"ce4bh692rcd13ifvqe90","pricing_plan_id":"cebpf4jnsgd1na2vs0mg"},{"bike_id":"3604bd16-9b22-4cab-ba80-aa1fc2655870","system_id":"levelo_inurba_marseille","lat":43.290327,"lon":5.375711,"is_reserved":false,"is_disabled":false,"rental_uris":{"android":"levelo://app?vid=3604bd16-9b22-4cab-ba80-aa1fc2655870","ios":"levelo://app?vid=3604bd16-9b22-4cab-ba80-aa1fc2655870"},"vehicle_type_id":"4","last_reported":1716912551,"current_range_meters":7600,"station_id":"ce4bh692rcd13ifvqe90","pricing_plan_id":"cebpf4jnsgd1na2vs0mg"},{"bike_id":"e703ca82-feb8-4857-b453-a5f1445129e1","system_id":"levelo_inurba_marseille","lat":43.294162,"lon":5.386292,"is_reserved":false,"is_disabled":false,"rental_uris":{"android":"levelo://app?vid=e703ca82-feb8-4857-b453-a5f1445129e1","ios":"levelo://app?vid=e703ca82-feb8-4857-b453-a5f1445129e1"},"vehicle_type_id":"4","last_reported":1716912551,"current_range_meters":28000,"station_id":"ce4bh2h2rcd13ifvqdh0","pricing_plan_id":"cebpf4jnsgd1na2vs0mg"},{"bike_id":"ae290ae9-4e7e-419a-a595-c2b129969625","system_id":"levelo_inurba_marseille","lat":43.290319,"lon":5.375732,"is_reserved":false,"is_disabled":false,"rental_uris":{"android":"levelo://app?vid=ae290ae9-4e7e-419a-a595-c2b129969625","ios":"levelo://app?vid=ae290ae9-4e7e-419a-a595-c2b129969625"},"vehicle_type_id":"4","last_reported":1716912551,"current_range_meters":23600,"station_id":"ce4bh692rcd13ifvqe90","pricing_plan_id":"cebpf4jnsgd1na2vs0mg"},{"bike_id":"71fbaa1b-4808-4174-b23b-b6e2efe06565","system_id":"levelo_inurba_marseille","lat":43.294162,"lon":5.386292,"is_reserved":false,"is_disabled":false,"rental_uris":{"android":"levelo://app?vid=71fbaa1b-4808-4174-b23b-b6e2efe06565","ios":"levelo://app?vid=71fbaa1b-4808-4174-b23b-b6e2efe06565"},"vehicle_type_id":"4","last_reported":1716912551,"current_range_meters":20000,"station_id":"ce4bh2h2rcd13ifvqdh0","pricing_plan_id":"cebpf4jnsgd1na2vs0mg"},{"bike_id":"178e0737-62ae-46b3-b28a-2fad7745f2f1","system_id":"levelo_inurba_marseille","lat":43.29036,"lon":5.37562,"is_reserved":false,"is_disabled":false,"rental_uris":{"android":"levelo://app?vid=178e0737-62ae-46b3-b28a-2fad7745f2f1","ios":"levelo://app?vid=178e0737-62ae-46b3-b28a-2fad7745f2f1"},"vehicle_type_id":"4","last_reported":1716912551,"current_range_meters":27600,"station_id":"ce4bh692rcd13ifvqe90","pricing_plan_id":"cebpf4jnsgd1na2vs0mg"},{"bike_id":"b7c2182f-1857-47f4-b4b9-b03ece9ca00a","system_id":"levelo_inurba_marseille","lat":43.290319,"lon":5.375732,"is_reserved":false,"is_disabled":false,"rental_uris":{"android":"levelo://app?vid=b7c2182f-1857-47f4-b4b9-b03ece9ca00a","ios":"levelo://app?vid=b7c2182f-1857-47f4-b4b9-b03ece9ca00a"},"vehicle_type_id":"4","last_reported":1716912551,"current_range_meters":15200,"station_id":"ce4bh692rcd13ifvqe90","pricing_plan_id":"cebpf4jnsgd1na2vs0mg"},{"bike_id":"2c114a12-3e5c-4db2-aeeb-6a9f53fbaedc","system_id":"levelo_inurba_marseille","lat":43.290995,"lon":5.381361,"is_reserved":false,"is_disabled":false,"rental_uris":{"android":"levelo://app?vid=2c114a12-3e5c-4db2-aeeb-6a9f53fbaedc","ios":"levelo://app?vid=2c114a12-3e5c-4db2-aeeb-6a9f53fbaedc"},"vehicle_type_id":"4","last_reported":1716912551,"current_range_meters":0,"station_id":"ce4bh512rcd13ifvqe2g","pricing_plan_id":"cebpf4jnsgd1na2vs0mg"},{"bike_id":"06f7e79b-b55c-4953-86eb-00dba1ac3fc8","system_id":"levelo_inurba_marseille","lat":43.29423,"lon":5.38629,"is_reserved":false,"is_disabled":false,"rental_uris":{"android":"levelo://app?vid=06f7e79b-b55c-4953-86eb-00dba1ac3fc8","ios":"levelo://app?vid=06f7e79b-b55c-4953-86eb-00dba1ac3fc8"},"vehicle_type_id":"4","last_reported":1716912551,"current_range_meters":3600,"station_id":"ce4bh2h2rcd13ifvqdh0","pricing_plan_id":"cebpf4jnsgd1na2vs0mg"},{"bike_id":"9798ce64-55d1-424b-b2d7-3b126abdae9f","system_id":"levelo_inurba_marseille","lat":43.29034,"lon":5.37556,"is_reserved":false,"is_disabled":false,"rental_uris":{"android":"levelo://app?vid=9798ce64-55d1-424b-b2d7-3b126abdae9f","ios":"levelo://app?vid=9798ce64-55d1-424b-b2d7-3b126abdae9f"},"vehicle_type_id":"4","last_reported":1716912551,"current_range_meters":23600,"station_id":"ce4bh692rcd13ifvqe90","pricing_plan_id":"cebpf4jnsgd1na2vs0mg"},{"bike_id":"d89d71ce-a464-43bc-8c25-fbec2f1d1aea","system_id":"levelo_inurba_marseille","lat":43.290327,"lon":5.375711,"is_reserved":false,"is_disabled":false,"rental_uris":{"android":"levelo://app?vid=d89d71ce-a464-43bc-8c25-fbec2f1d1aea","ios":"levelo://app?vid=d89d71ce-a464-43bc-8c25-fbec2f1d1aea"},"vehicle_type_id":"4","last_reported":1716912551,"current_range_meters":7200,"station_id":"ce4bh692rcd13ifvqe90","pricing_plan_id":"cebpf4jnsgd1na2vs0mg"},{"bike_id":"ebf8199b-40ac-4f25-afeb-66e5fd2af1ab","system_id":"levelo_inurba_marseille","lat":43.290327,"lon":5.375711,"is_reserved":false,"is_disabled":false,"rental_uris":{"android":"levelo://app?vid=ebf8199b-40ac-4f25-afeb-66e5fd2af1ab","ios":"levelo://app?vid=ebf8199b-40ac-4f25-afeb-66e5fd2af1ab"},"vehicle_type_id":"4","last_reported":1716912551,"current_range_meters":3600,"station_id":"ce4bh692rcd13ifvqe90","pricing_plan_id":"cebpf4jnsgd1na2vs0mg"},{"bike_id":"c0de4007-980a-4ce8-9ed6-0ee53f26432f","system_id":"levelo_inurba_marseille","lat":43.290327,"lon":5.375711,"is_reserved":false,"is_disabled":false,"rental_uris":{"android":"levelo://app?vid=c0de4007-980a-4ce8-9ed6-0ee53f26432f","ios":"levelo://app?vid=c0de4007-980a-4ce8-9ed6-0ee53f26432f"},"vehicle_type_id":"4","last_reported":1716912551,"current_range_meters":24000,"station_id":"ce4bh692rcd13ifvqe90","pricing_plan_id":"cebpf4jnsgd1na2vs0mg"},{"bike_id":"f00c1167-c213-4d5e-91c9-783a1fcd7e5d","system_id":"levelo_inurba_marseille","lat":43.29036,"lon":5.3757,"is_reserved":false,"is_disabled":false,"rental_uris":{"android":"levelo://app?vid=f00c1167-c213-4d5e-91c9-783a1fcd7e5d","ios":"levelo://app?vid=f00c1167-c213-4d5e-91c9-783a1fcd7e5d"},"vehicle_type_id":"4","last_reported":1716912551,"current_range_meters":22800,"station_id":"ce4bh692rcd13ifvqe90","pricing_plan_id":"cebpf4jnsgd1na2vs0mg"},{"bike_id":"e78b7d70-5ced-4eb4-8f71-9bd983afbc62","system_id":"levelo_inurba_marseille","lat":43.290327,"lon":5.375711,"is_reserved":false,"is_disabled":false,"rental_uris":{"android":"levelo://app?vid=e78b7d70-5ced-4eb4-8f71-9bd983afbc62","ios":"levelo://app?vid=e78b7d70-5ced-4eb4-8f71-9bd983afbc62"},"vehicle_type_id":"4","last_reported":1716912551,"current_range_meters":0,"station_id":"ce4bh692rcd13ifvqe90","pricing_plan_id":"cebpf4jnsgd1na2vs0mg"},{"bike_id":"a2746889-3e7a-4f78-94b0-b31c56c8efc6","system_id":"levelo_inurba_marseille","lat":43.29416,"lon":5.38619,"is_reserved":false,"is_disabled":false,"rental_uris":{"android":"levelo://app?vid=a2746889-3e7a-4f78-94b0-b31c56c8efc6","ios":"levelo://app?vid=a2746889-3e7a-4f78-94b0-b31c56c8efc6"},"vehicle_type_id":"4","last_reported":1716912551,"current_range_meters":9200,"station_id":"ce4bh2h2rcd13ifvqdh0","pricing_plan_id":"cebpf4jnsgd1na2vs0mg"},{"bike_id":"a1f289b3-5265-484e-8cdc-0381b27f550d","system_id":"levelo_inurba_marseille","lat":43.29034,"lon":5.37564,"is_reserved":false,"is_disabled":false,"rental_uris":{"android":"levelo://app?vid=a1f289b3-5265-484e-8cdc-0381b27f550d","ios":"levelo://app?vid=a1f289b3-5265-484e-8cdc-0381b27f550d"},"vehicle_type_id":"4","last_reported":1716912551,"current_range_meters":17200,"station_id":"ce4bh692rcd13ifvqe90","pricing_plan_id":"cebpf4jnsgd1na2vs0mg"},{"bike_id":"3b490545-4a8e-407c-a509-1011991d1313","system_id":"levelo_inurba_marseille","lat":43.29419,"lon":5.38626,"is_reserved":false,"is_disabled":false,"rental_uris":{"android":"levelo://app?vid=3b490545-4a8e-407c-a509-1011991d1313","ios":"levelo://app?vid=3b490545-4a8e-407c-a509-1011991d1313"},"vehicle_type_id":"4","last_reported":1716912551,"current_range_meters":16800,"station_id":"ce4bh2h2rcd13ifvqdh0","pricing_plan_id":"cebpf4jnsgd1na2vs0mg"},{"bike_id":"a52bc3c1-530b-4905-9aa0-5ad11d67387c","system_id":"levelo_inurba_marseille","lat":43.290327,"lon":5.375711,"is_reserved":false,"is_disabled":false,"rental_uris":{"android":"levelo://app?vid=a52bc3c1-530b-4905-9aa0-5ad11d67387c","ios":"levelo://app?vid=a52bc3c1-530b-4905-9aa0-5ad11d67387c"},"vehicle_type_id":"4","last_reported":1716912551,"current_range_meters":14400,"station_id":"ce4bh692rcd13ifvqe90","pricing_plan_id":"cebpf4jnsgd1na2vs0mg"},{"bike_id":"f0b39054-d762-4dff-a098-ce47a47878ec","system_id":"levelo_inurba_marseille","lat":43.290327,"lon":5.375711,"is_reserved":false,"is_disabled":false,"rental_uris":{"android":"levelo://app?vid=f0b39054-d762-4dff-a098-ce47a47878ec","ios":"levelo://app?vid=f0b39054-d762-4dff-a098-ce47a47878ec"},"vehicle_type_id":"4","last_reported":1716912551,"current_range_meters":9600,"station_id":"ce4bh692rcd13ifvqe90","pricing_plan_id":"cebpf4jnsgd1na2vs0mg"},{"bike_id":"742f7629-c40e-44dc-8c31-64bdbc7eb089","system_id":"levelo_inurba_marseille","lat":43.29033,"lon":5.37563,"is_reserved":false,"is_disabled":false,"rental_uris":{"android":"levelo://app?vid=742f7629-c40e-44dc-8c31-64bdbc7eb089","ios":"levelo://app?vid=742f7629-c40e-44dc-8c31-64bdbc7eb089"},"vehicle_type_id":"4","last_reported":1716912551,"current_range_meters":24400,"station_id":"ce4bh692rcd13ifvqe90","pricing_plan_id":"cebpf4jnsgd1na2vs0mg"},{"bike_id":"cbdf24a5-6b82-46b4-acfd-231808652a0a","system_id":"levelo_inurba_marseille","lat":43.29033,"lon":5.37565,"is_reserved":false,"is_disabled":false,"rental_uris":{"android":"levelo://app?vid=cbdf24a5-6b82-46b4-acfd-231808652a0a","ios":"levelo://app?vid=cbdf24a5-6b82-46b4-acfd-231808652a0a"},"vehicle_type_id":"4","last_reported":1716912551,"current_range_meters":3600,"station_id":"ce4bh692rcd13ifvqe90","pricing_plan_id":"cebpf4jnsgd1na2vs0mg"},{"bike_id":"7c136d7e-fb0a-4dd2-ab9a-0536db02cc44","system_id":"levelo_inurba_marseille","lat":43.290327,"lon":5.375711,"is_reserved":false,"is_disabled":false,"rental_uris":{"android":"levelo://app?vid=7c136d7e-fb0a-4dd2-ab9a-0536db02cc44","ios":"levelo://app?vid=7c136d7e-fb0a-4dd2-ab9a-0536db02cc44"},"vehicle_type_id":"4","last_reported":1716912551,"current_range_meters":0,"station_id":"ce4bh692rcd13ifvqe90","pricing_plan_id":"cebpf4jnsgd1na2vs0mg"},{"bike_id":"7b35322c-b86f-4e13-a9cc-5f280f3882cc","system_id":"levelo_inurba_marseille","lat":43.290319,"lon":5.375732,"is_reserved":false,"is_disabled":false,"rental_uris":{"android":"levelo://app?vid=7b35322c-b86f-4e13-a9cc-5f280f3882cc","ios":"levelo://app?vid=7b35322c-b86f-4e13-a9cc-5f280f3882cc"},"vehicle_type_id":"4","last_reported":1716912551,"current_range_meters":30000,"station_id":"ce4bh692rcd13ifvqe90","pricing_plan_id":"cebpf4jnsgd1na2vs0mg"},{"bike_id":"cf491cfe-f81b-4e9e-8647-a7e7d63d92bc","system_id":"levelo_inurba_marseille","lat":43.294162,"lon":5.386292,"is_reserved":false,"is_disabled":false,"rental_uris":{"android":"levelo://app?vid=cf491cfe-f81b-4e9e-8647-a7e7d63d92bc","ios":"levelo://app?vid=cf491cfe-f81b-4e9e-8647-a7e7d63d92bc"},"vehicle_type_id":"4","last_reported":1716912551,"current_range_meters":4400,"station_id":"ce4bh2h2rcd13ifvqdh0","pricing_plan_id":"cebpf4jnsgd1na2vs0mg"},{"bike_id":"9bead7ce-ffa5-4be1-a944-9b932ca668e3","system_id":"levelo_inurba_marseille","lat":43.29034,"lon":5.37579,"is_reserved":false,"is_disabled":false,"rental_uris":{"android":"levelo://app?vid=9bead7ce-ffa5-4be1-a944-9b932ca668e3","ios":"levelo://app?vid=9bead7ce-ffa5-4be1-a944-9b932ca668e3"},"vehicle_type_id":"4","last_reported":1716912551,"current_range_meters":15200,"station_id":"ce4bh692rcd13ifvqe90","pricing_plan_id":"cebpf4jnsgd1na2vs0mg"},{"bike_id":"6d51db01-a5a9-4e10-a582-623478ac0f4c","system_id":"levelo_inurba_marseille","lat":43.29415,"lon":5.38626,"is_reserved":false,"is_disabled":false,"rental_uris":{"android":"levelo://app?vid=6d51db01-a5a9-4e10-a582-623478ac0f4c","ios":"levelo://app?vid=6d51db01-a5a9-4e10-a582-623478ac0f4c"},"vehicle_type_id":"4","last_reported":1716912551,"current_range_meters":0,"station_id":"ce4bh2h2rcd13ifvqdh0","pricing_plan_id":"cebpf4jnsgd1na2vs0mg"},{"bike_id":"f5f88dd3-37b5-4ad4-98f5-abc8ef317f07","system_id":"levelo_inurba_marseille","lat":43.2903,"lon":5.37563,"is_reserved":false,"is_disabled":false,"rental_uris":{"android":"levelo://app?vid=f5f88dd3-37b5-4ad4-98f5-abc8ef317f07","ios":"levelo://app?vid=f5f88dd3-37b5-4ad4-98f5-abc8ef317f07"},"vehicle_type_id":"4","last_reported":1716912551,"current_range_meters":12800,"station_id":"ce4bh692rcd13ifvqe90","pricing_plan_id":"cebpf4jnsgd1na2vs0mg"},{"bike_id":"c622e1ab-2bfe-4e34-97c3-7861aa4cb99e","system_id":"levelo_inurba_marseille","lat":43.29414,"lon":5.38625,"is_reserved":false,"is_disabled":false,"rental_uris":{"android":"levelo://app?vid=c622e1ab-2bfe-4e34-97c3-7861aa4cb99e","ios":"levelo://app?vid=c622e1ab-2bfe-4e34-97c3-7861aa4cb99e"},