{"last_updated":1690149957,"ttl":30,"version":"2.2","data":{"bikes":[{"bike_id":"cb8ec9cc-ad71-4b3a-ac08-a0d6bd9d15eb","system_id":"levelo_inurba_marseille","lat":43.31358,"lon":5.36709,"is_reserved":false,"is_disabled":false,"rental_uris":{"android":"levelo://app?vid=cb8ec9cc-ad71-4b3a-ac08-a0d6bd9d15eb","ios":"levelo://app?vid=cb8ec9cc-ad71-4b3a-ac08-a0d6bd9d15eb"},"vehicle_type_id":"4","last_reported":1690149957,"current_range_meters":26000,"station_id":"ce4bgr92rcd13ifvqc6g","pricing_plan_id":"free"},{"bike_id":"54b9405a-dfff-4ea1-bf7b-963954307c1f","system_id":"levelo_inurba_marseille","lat":43.31231,"lon":5.36855,"is_reserved":false,"is_disabled":false,"rental_uris":{"android":"levelo://app?vid=54b9405a-dfff-4ea1-bf7b-963954307c1f","ios":"levelo://app?vid=54b9405a-dfff-4ea1-bf7b-963954307c1f"},"vehicle_type_id":"4","last_reported":1690149957,"current_range_meters":8400,"station_id":"ce4bgl92rcd13ifvqbq0","pricing_plan_id":"free"},{"bike_id":"a69581b9-cc1b-434b-b690-c779ab0b2251","system_id":"levelo_inurba_marseille","lat":43.31223,"lon":5.36867,"is_reserved":false,"is_disabled":false,"rental_uris":{"android":"levelo://app?vid=a69581b9-cc1b-434b-b690-c779ab0b2251","ios":"levelo://app?vid=a69581b9-cc1b-434b-b690-c779ab0b2251"},"vehicle_type_id":"4","last_reported":1690149957,"current_range_meters":16000,"station_id":"ce4bgl92rcd13ifvqbq0","pricing_plan_id":"free"},{"bike_id":"f8d02349-dc0d-4ea8-95ff-68b6c85ec9bf","system_id":"levelo_inurba_marseille","lat":43.31245,"lon":5.3688,"is_reserved":false,"is_disabled":false,"rental_uris":{"android":"levelo://app?vid=f8d02349-dc0d-4ea8-95ff-68b6c85ec9bf","ios":"levelo://app?vid=f8d02349-dc0d-4ea8-95ff-68b6c85ec9bf"},"vehicle_type_id":"4","last_reported":1690149957,"current_range_meters":4000,"station_id":"ce4bgl92rcd13ifvqbq0","pricing_plan_id":"free"},{"bike_id":"cc8c60f0-aa84-42b5-a961-0c6e5412b9c4","system_id":"levelo_inurba_marseille","lat":43.31244,"lon":5.36884,"is_reserved":false,"is_disabled":false,"rental_uris":{"android":"levelo://app?vid=cc8c60f0-aa84-42b5-a961-0c6e5412b9c4","ios":"levelo://app?vid=cc8c60f0-aa84-42b5-a961-0c6e5412b9c4"},"vehicle_type_id":"4","last_reported":1690149957,"current_range_meters":31600,"station_id":"ce4bgl92rcd13ifvqbq0","pricing_plan_id":"free"},{"bike_id":"fc9a0bad-8b4c-408a-83f1-42e432224709","system_id":"levelo_inurba_marseille","lat":43.309076,"lon":5.368465,"is_reserved":false,"is_disabled":false,"rental_uris":{"android":"levelo://app?vid=fc9a0bad-8b4c-408a-83f1-42e432224709","ios":"levelo://app?vid=fc9a0bad-8b4c-408a-83f1-42e432224709"},"vehicle_type_id":"4","last_reported":1690149957,"current_range_meters":23600,"station_id":"ce4bgn92rcd13ifvqbvg","pricing_plan_id":"free"},{"bike_id":"3eb84449-286e-4233-a6b4-ec405f7470cf","system_id":"levelo_inurba_marseille","lat":43.30905,"lon":5.37188,"is_reserved":false,"is_disabled":false,"rental_uris":{"android":"levelo://app?vid=3eb84449-286e-4233-a6b4-ec405f7470cf","ios":"levelo://app?vid=3eb84449-286e-4233-a6b4-ec405f7470cf"},"vehicle_type_id":"4","last_reported":1690149957,"current_range_meters":13600,"station_id":"ce4bguh2rcd13ifvqckg","pricing_plan_id":"free"},{"bike_id":"a7c4e1f4-09a9-4eca-bb6f-70d5d26a7e6c","system_id":"levelo_inurba_marseille","lat":43.309039,"lon":5.371797,"is_reserved":false,"is_disabled":false,"rental_uris":{"android":"levelo://app?vid=a7c4e1f4-09a9-4eca-bb6f-70d5d26a7e6c","ios":"levelo://app?vid=a7c4e1f4-09a9-4eca-bb6f-70d5d26a7e6c"},"vehicle_type_id":"4","last_reported":1690149957,"current_range_meters":24400,"station_id":"ce4bguh2rcd13ifvqckg","pricing_plan_id":"free"},{"bike_id":"bebe9d3b-1cba-4e76-8712-fd9585688151","system_id":"levelo_inurba_marseille","lat":43.30892,"lon":5.37191,"is_reserved":false,"is_disabled":false,"rental_uris":{"android":"levelo://app?vid=bebe9d3b-1cba-4e76-8712-fd9585688151","ios":"levelo://app?vid=bebe9d3b-1cba-4e76-8712-fd9585688151"},"vehicle_type_id":"4","last_reported":1690149957,"current_range_meters":24000,"station_id":"ce4bguh2rcd13ifvqckg","pricing_plan_id":"free"},{"bike_id":"5124f9cc-a205-4815-906e-3fb00fa81f0d","system_id":"levelo_inurba_marseille","lat":43.309039,"lon":5.371797,"is_reserved":false,"is_disabled":false,"rental_uris":{"android":"levelo://app?vid=5124f9cc-a205-4815-906e-3fb00fa81f0d","ios":"levelo://app?vid=5124f9cc-a205-4815-906e-3fb00fa81f0d"},"vehicle_type_id":"4","last_reported":1690149957,"current_range_meters":1200,"station_id":"ce4bguh2rcd13ifvqckg","pricing_plan_id":"free"},{"bike_id":"bde1ed5c-c9fb-4597-a2e2-ade408e8fa7e","system_id":"levelo_inurba_marseille","lat":43.309034,"lon":5.371783,"is_reserved":false,"is_disabled":false,"rental_uris":{"android":"levelo://app?vid=bde1ed5c-c9fb-4597-a2e2-ade408e8fa7e","ios":"levelo://app?vid=bde1ed5c-c9fb-4597-a2e2-ade408e8fa7e"},"vehicle_type_id":"4","last_reported":1690149957,"current_range_meters":0,"station_id":"ce4bguh2rcd13ifvqckg","pricing_plan_id":"free"},{"bike_id":"9ebfdadf-eebb-4934-973d-55963c25c762","system_id":"levelo_inurba_marseille","lat":43.30695,"lon":5.37204,"is_reserved":false,"is_disabled":false,"rental_uris":{"android":"levelo://app?vid=9ebfdadf-eebb-4934-973d-55963c25c762","ios":"levelo://app?vid=9ebfdadf-eebb-4934-973d-55963c25c762"},"vehicle_type_id":"4","last_reported":1690149957,"current_range_meters":30400,"station_id":"","pricing_plan_id":"free"},{"bike_id":"4483b753-45dc-473c-973c-9142bf61947c","system_id":"levelo_inurba_marseille","lat":43.305989,"lon":5.37225,"is_reserved":false,"is_disabled":false,"rental_uris":{"android":"levelo://app?vid=4483b753-45dc-473c-973c-9142bf61947c","ios":"levelo://app?vid=4483b753-45dc-473c-973c-9142bf61947c"},"vehicle_type_id":"4","last_reported":1690149957,"current_range_meters":18000,"station_id":"ce4bgqh2rcd13ifvqc4g","pricing_plan_id":"free"},{"bike_id":"0dc8d2f4-6a92-4f7c-a4ae-ae8fbdebec40","system_id":"levelo_inurba_marseille","lat":43.30608,"lon":5.37221,"is_reserved":false,"is_disabled":false,"rental_uris":{"android":"levelo://app?vid=0dc8d2f4-6a92-4f7c-a4ae-ae8fbdebec40","ios":"levelo://app?vid=0dc8d2f4-6a92-4f7c-a4ae-ae8fbdebec40"},"vehicle_type_id":"4","last_reported":1690149957,"current_range_meters":16000,"station_id":"ce4bgqh2rcd13ifvqc4g","pricing_plan_id":"free"},{"bike_id":"a4265968-4e25-40c1-8021-1e84c9a764c9","system_id":"levelo_inurba_marseille","lat":43.305989,"lon":5.37225,"is_reserved":false,"is_disabled":false,"rental_uris":{"android":"levelo://app?vid=a4265968-4e25-40c1-8021-1e84c9a764c9","ios":"levelo://app?vid=a4265968-4e25-40c1-8021-1e84c9a764c9"},"vehicle_type_id":"4","last_reported":1690149957,"current_range_meters":31200,"station_id":"ce4bgqh2rcd13ifvqc4g","pricing_plan_id":"free"},{"bike_id":"e7fe891d-99cd-4561-8ab4-60a687552fb2","system_id":"levelo_inurba_marseille","lat":43.30596,"lon":5.37207,"is_reserved":false,"is_disabled":false,"rental_uris":{"android":"levelo://app?vid=e7fe891d-99cd-4561-8ab4-60a687552fb2","ios":"levelo://app?vid=e7fe891d-99cd-4561-8ab4-60a687552fb2"},"vehicle_type_id":"4","last_reported":1690149957,"current_range_meters":31200,"station_id":"ce4bgqh2rcd13ifvqc4g","pricing_plan_id":"free"},{"bike_id":"a44e50ba-20e9-433a-a0df-9459cba32955","system_id":"levelo_inurba_marseille","lat":43.31894,"lon":5.37339,"is_reserved":false,"is_disabled":false,"rental_uris":{"android":"levelo://app?vid=a44e50ba-20e9-433a-a0df-9459cba32955","ios":"levelo://app?vid=a44e50ba-20e9-433a-a0df-9459cba32955"},"vehicle_type_id":"4","last_reported":1690149957,"current_range_meters":22400,"station_id":"","pricing_plan_id":"free"},{"bike_id":"1a29b714-95e9-4b14-bc14-46bae59b629e","system_id":"levelo_inurba_marseille","lat":43.31121,"lon":5.37762,"is_reserved":false,"is_disabled":false,"rental_uris":{"android":"levelo://app?vid=1a29b714-95e9-4b14-bc14-46bae59b629e","ios":"levelo://app?vid=1a29b714-95e9-4b14-bc14-46bae59b629e"},"vehicle_type_id":"4","last_reported":1690149957,"current_range_meters":28000,"station_id":"ce4bgt92rcd13ifvqcg0","pricing_plan_id":"free"},{"bike_id":"5c48378c-ba36-4387-aedb-cf5b6eb75bda","system_id":"levelo_inurba_marseille","lat":43.311125,"lon":5.377624,"is_reserved":false,"is_disabled":false,"rental_uris":{"android":"levelo://app?vid=5c48378c-ba36-4387-aedb-cf5b6eb75bda","ios":"levelo://app?vid=5c48378c-ba36-4387-aedb-cf5b6eb75bda"},"vehicle_type_id":"4","last_reported":1690149957,"current_range_meters":5600,"station_id":"ce4bgt92rcd13ifvqcg0","pricing_plan_id":"free"},{"bike_id":"a258478e-4a3b-454f-acaf-f926c1419738","system_id":"levelo_inurba_marseille","lat":43.30319,"lon":5.36906,"is_reserved":false,"is_disabled":false,"rental_uris":{"android":"levelo://app?vid=a258478e-4a3b-454f-acaf-f926c1419738","ios":"levelo://app?vid=a258478e-4a3b-454f-acaf-f926c1419738"},"vehicle_type_id":"4","last_reported":1690149957,"current_range_meters":27600,"station_id":"ce4bgqh2rcd13ifvqc5g","pricing_plan_id":"free"},{"bike_id":"a2e136f1-c728-4018-88c2-a46aa30aa3c2","system_id":"levelo_inurba_marseille","lat":43.30318,"lon":5.36898,"is_reserved":false,"is_disabled":false,"rental_uris":{"android":"levelo://app?vid=a2e136f1-c728-4018-88c2-a46aa30aa3c2","ios":"levelo://app?vid=a2e136f1-c728-4018-88c2-a46aa30aa3c2"},"vehicle_type_id":"4","last_reported":1690149957,"current_range_meters":13200,"station_id":"ce4bgqh2rcd13ifvqc5g","pricing_plan_id":"free"},{"bike_id":"505e1a58-d053-4796-8bb0-977258137515","system_id":"levelo_inurba_marseille","lat":43.3153,"lon":5.38036,"is_reserved":false,"is_disabled":false,"rental_uris":{"android":"levelo://app?vid=505e1a58-d053-4796-8bb0-977258137515","ios":"levelo://app?vid=505e1a58-d053-4796-8bb0-977258137515"},"vehicle_type_id":"4","last_reported":1690149957,"current_range_meters":1600,"station_id":"ce4bhsp2rcd13ifvqi50","pricing_plan_id":"free"},{"bike_id":"088dc4df-3d97-448b-b148-5d97fd59d5d4","system_id":"levelo_inurba_marseille","lat":43.301939,"lon":5.366286,"is_reserved":false,"is_disabled":false,"rental_uris":{"android":"levelo://app?vid=088dc4df-3d97-448b-b148-5d97fd59d5d4","ios":"levelo://app?vid=088dc4df-3d97-448b-b148-5d97fd59d5d4"},"vehicle_type_id":"4","last_reported":1690149957,"current_range_meters":18400,"station_id":"ce4bgrh2rcd13ifvqc8g","pricing_plan_id":"free"},{"bike_id":"6cd78f34-596c-4f22-b027-5b5bd2e8f656","system_id":"levelo_inurba_marseille","lat":43.301939,"lon":5.366286,"is_reserved":false,"is_disabled":false,"rental_uris":{"android":"levelo://app?vid=6cd78f34-596c-4f22-b027-5b5bd2e8f656","ios":"levelo://app?vid=6cd78f34-596c-4f22-b027-5b5bd2e8f656"},"vehicle_type_id":"4","last_reported":1690149957,"current_range_meters":4800,"station_id":"ce4bgrh2rcd13ifvqc8g","pricing_plan_id":"free"},{"bike_id":"4a24aa72-1b04-4881-995a-9d7a05f35373","system_id":"levelo_inurba_marseille","lat":43.301939,"lon":5.366286,"is_reserved":false,"is_disabled":false,"rental_uris":{"android":"levelo://app?vid=4a24aa72-1b04-4881-995a-9d7a05f35373","ios":"levelo://app?vid=4a24aa72-1b04-4881-995a-9d7a05f35373"},"vehicle_type_id":"4","last_reported":1690149957,"current_range_meters":12400,"station_id":"ce4bgrh2rcd13ifvqc8g","pricing_plan_id":"free"},{"bike_id":"759c4b19-c74f-416d-90d4-a85e15538eeb","system_id":"levelo_inurba_marseille","lat":43.308012,"lon":5.381511,"is_reserved":false,"is_disabled":false,"rental_uris":{"android":"levelo://app?vid=759c4b19-c74f-416d-90d4-a85e15538eeb","ios":"levelo://app?vid=759c4b19-c74f-416d-90d4-a85e15538eeb"},"vehicle_type_id":"4","last_reported":1690149957,"current_range_meters":15600,"station_id":"ce4bgt12rcd13ifvqce0","pricing_plan_id":"free"},{"bike_id":"71364365-49b3-4cac-ba8d-26f0e9d59efa","system_id":"levelo_inurba_marseille","lat":43.30812,"lon":5.38159,"is_reserved":false,"is_disabled":false,"rental_uris":{"android":"levelo://app?vid=71364365-49b3-4cac-ba8d-26f0e9d59efa","ios":"levelo://app?vid=71364365-49b3-4cac-ba8d-26f0e9d59efa"},"vehicle_type_id":"4","last_reported":1690149957,"current_range_meters":5200,"station_id":"ce4bgt12rcd13ifvqce0","pricing_plan_id":"free"},{"bike_id":"3c0efa3e-f0eb-4e6a-ac6e-b57536aa5a07","system_id":"levelo_inurba_marseille","lat":43.30472,"lon":5.37906,"is_reserved":false,"is_disabled":false,"rental_uris":{"android":"levelo://app?vid=3c0efa3e-f0eb-4e6a-ac6e-b57536aa5a07","ios":"levelo://app?vid=3c0efa3e-f0eb-4e6a-ac6e-b57536aa5a07"},"vehicle_type_id":"4","last_reported":1690149957,"current_range_meters":14000,"station_id":"ce4bgup2rcd13ifvqcn0","pricing_plan_id":"free"},{"bike_id":"2e569ec2-0664-46a7-872d-bacd64620c37","system_id":"levelo_inurba_marseille","lat":43.30253,"lon":5.37722,"is_reserved":false,"is_disabled":false,"rental_uris":{"android":"levelo://app?vid=2e569ec2-0664-46a7-872d-bacd64620c37","ios":"levelo://app?vid=2e569ec2-0664-46a7-872d-bacd64620c37"},"vehicle_type_id":"4","last_reported":1690149957,"current_range_meters":20400,"station_id":"ce4bguh2rcd13ifvqcj0","pricing_plan_id":"free"},{"bike_id":"2a54389f-c81d-46cb-b1ad-53ed4ca814ae","system_id":"levelo_inurba_marseille","lat":43.2999,"lon":5.3679,"is_reserved":false,"is_disabled":false,"rental_uris":{"android":"levelo://app?vid=2a54389f-c81d-46cb-b1ad-53ed4ca814ae","ios":"levelo://app?vid=2a54389f-c81d-46cb-b1ad-53ed4ca814ae"},"vehicle_type_id":"4","last_reported":1690149957,"current_range_meters":20000,"station_id":"","pricing_plan_id":"free"},{"bike_id":"eeb8ab04-9d84-4732-8ba1-2a214e475d17","system_id":"levelo_inurba_marseille","lat":43.31998,"lon":5.38169,"is_reserved":false,"is_disabled":false,"rental_uris":{"android":"levelo://app?vid=eeb8ab04-9d84-4732-8ba1-2a214e475d17","ios":"levelo://app?vid=eeb8ab04-9d84-4732-8ba1-2a214e475d17"},"vehicle_type_id":"4","last_reported":1690149957,"current_range_meters":29200,"station_id":"ce4bhr12rcd13ifvqhpg","pricing_plan_id":"free"},{"bike_id":"8a9808f8-a8e6-4673-878f-19908add83b5","system_id":"levelo_inurba_marseille","lat":43.313571,"lon":5.384829,"is_reserved":false,"is_disabled":false,"rental_uris":{"android":"levelo://app?vid=8a9808f8-a8e6-4673-878f-19908add83b5","ios":"levelo://app?vid=8a9808f8-a8e6-4673-878f-19908add83b5"},"vehicle_type_id":"4","last_reported":1690149957,"current_range_meters":21200,"station_id":"ce4bgt92rcd13ifvqcf0","pricing_plan_id":"free"},{"bike_id":"d103a905-154e-4149-9ad8-bd598fe0e157","system_id":"levelo_inurba_marseille","lat":43.313571,"lon":5.384829,"is_reserved":false,"is_disabled":false,"rental_uris":{"android":"levelo://app?vid=d103a905-154e-4149-9ad8-bd598fe0e157","ios":"levelo://app?vid=d103a905-154e-4149-9ad8-bd598fe0e157"},"vehicle_type_id":"4","last_reported":1690149957,"current_range_meters":25200,"station_id":"ce4bgt92rcd13ifvqcf0","pricing_plan_id":"free"},{"bike_id":"f03b0d3f-f475-4de3-a0c6-325405a93b47","system_id":"levelo_inurba_marseille","lat":43.290336,"lon":5.386425,"is_reserved":false,"is_disabled":false,"rental_uris":{"android":"levelo://app?vid=f03b0d3f-f475-4de3-a0c6-325405a93b47","ios":"levelo://app?vid=f03b0d3f-f475-4de3-a0c6-325405a93b47"},"vehicle_type_id":"4","last_reported":1690149957,"current_range_meters":17600,"station_id":"ce4bh4p2rcd13ifvqe0g","pricing_plan_id":"free"},{"bike_id":"5067f024-e6a9-450c-9e42-10198606936f","system_id":"levelo_inurba_marseille","lat":43.3055,"lon":5.38427,"is_reserved":false,"is_disabled":false,"rental_uris":{"android":"levelo://app?vid=5067f024-e6a9-450c-9e42-10198606936f","ios":"levelo://app?vid=5067f024-e6a9-450c-9e42-10198606936f"},"vehicle_type_id":"4","last_reported":1690149957,"current_range_meters":19200,"station_id":"","pricing_plan_id":"free"},{"bike_id":"1ccf2adc-4fbc-4dc3-adac-8e1b1caf4cda","system_id":"levelo_inurba_marseille","lat":43.29846,"lon":5.36277,"is_reserved":false,"is_disabled":false,"rental_uris":{"android":"levelo://app?vid=1ccf2adc-4fbc-4dc3-adac-8e1b1caf4cda","ios":"levelo://app?vid=1ccf2adc-4fbc-4dc3-adac-8e1b1caf4cda"},"vehicle_type_id":"4","last_reported":1690149957,"current_range_meters":26400,"station_id":"ce4bgpp2rcd13ifvqc3g","pricing_plan_id":"free"},{"bike_id":"a468b4b0-4a67-4a1c-a73a-adcbc9f0d967","system_id":"levelo_inurba_marseille","lat":43.30548,"lon":5.38433,"is_reserved":false,"is_disabled":false,"rental_uris":{"android":"levelo://app?vid=a468b4b0-4a67-4a1c-a73a-adcbc9f0d967","ios":"levelo://app?vid=a468b4b0-4a67-4a1c-a73a-adcbc9f0d967"},"vehicle_type_id":"4","last_reported":1690149957,"current_range_meters":21600,"station_id":"ce4bgg92rcd13ifvqb30","pricing_plan_id":"free"},{"bike_id":"34b47923-aeed-438a-881d-be79c810e984","system_id":"levelo_inurba_marseille","lat":43.31174,"lon":5.38703,"is_reserved":false,"is_disabled":false,"rental_uris":{"android":"levelo://app?vid=34b47923-aeed-438a-881d-be79c810e984","ios":"levelo://app?vid=34b47923-aeed-438a-881d-be79c810e984"},"vehicle_type_id":"4","last_reported":1690149957,"current_range_meters":31600,"station_id":"ce4bgv12rcd13ifvqcp0","pricing_plan_id":"free"},{"bike_id":"9c2893fa-caea-40da-a40c-e881e0a007d3","system_id":"levelo_inurba_marseille","lat":43.31185,"lon":5.38707,"is_reserved":false,"is_disabled":false,"rental_uris":{"android":"levelo://app?vid=9c2893fa-caea-40da-a40c-e881e0a007d3","ios":"levelo://app?vid=9c2893fa-caea-40da-a40c-e881e0a007d3"},"vehicle_type_id":"4","last_reported":1690149957,"current_range_meters":10400,"station_id":"","pricing_plan_id":"free"},{"bike_id":"8e4b1020-0dc8-408b-ab0f-5805eac280a4","system_id":"levelo_inurba_marseille","lat":43.29919,"lon":5.37471,"is_reserved":false,"is_disabled":false,"rental_uris":{"android":"levelo://app?vid=8e4b1020-0dc8-408b-ab0f-5805eac280a4","ios":"levelo://app?vid=8e4b1020-0dc8-408b-ab0f-5805eac280a4"},"vehicle_type_id":"4","last_reported":1690149957,"current_range_meters":8000,"station_id":"ce4bgjh2rcd13ifvqbg0","pricing_plan_id":"free"},{"bike_id":"d4be7371-e26e-43c5-b865-2b53210f6750","system_id":"levelo_inurba_marseille","lat":43.311722,"lon":5.387247,"is_reserved":false,"is_disabled":false,"rental_uris":{"android":"levelo://app?vid=d4be7371-e26e-43c5-b865-2b53210f6750","ios":"levelo://app?vid=d4be7371-e26e-43c5-b865-2b53210f6750"},"vehicle_type_id":"4","last_reported":1690149957,"current_range_meters":16000,"station_id":"ce4bgv12rcd13ifvqcp0","pricing_plan_id":"free"},{"bike_id":"8ef6cc9b-a368-44b7-9cfb-a49ebc70fb20","system_id":"levelo_inurba_marseille","lat":43.311722,"lon":5.387247,"is_reserved":false,"is_disabled":false,"rental_uris":{"android":"levelo://app?vid=8ef6cc9b-a368-44b7-9cfb-a49ebc70fb20","ios":"levelo://app?vid=8ef6cc9b-a368-44b7-9cfb-a49ebc70fb20"},"vehicle_type_id":"4","last_reported":1690149957,"current_range_meters":12000,"station_id":"ce4bgv12rcd13ifvqcp0","pricing_plan_id":"free"},{"bike_id":"aa962a4c-ed15-4ed8-8268-ebfb16397dd0","system_id":"levelo_inurba_marseille","lat":43.29909,"lon":5.374664,"is_reserved":false,"is_disabled":false,"rental_uris":{"android":"levelo://app?vid=aa962a4c-ed15-4ed8-8268-ebfb16397dd0","ios":"levelo://app?vid=aa962a4c-ed15-4ed8-8268-ebfb16397dd0"},"vehicle_type_id":"4","last_reported":1690149957,"current_range_meters":0,"station_id":"ce4bgjh2rcd13ifvqbg0","pricing_plan_id":"free"},{"bike_id":"aa71e4e8-5fef-4a78-8321-c2897e6631ca","system_id":"levelo_inurba_marseille","lat":43.29909,"lon":5.37467,"is_reserved":false,"is_disabled":false,"rental_uris":{"android":"levelo://app?vid=aa71e4e8-5fef-4a78-8321-c2897e6631ca","ios":"levelo://app?vid=aa71e4e8-5fef-4a78-8321-c2897e6631ca"},"vehicle_type_id":"4","last_reported":1690149957,"current_range_meters":14000,"station_id":"ce4bgjh2rcd13ifvqbg0","pricing_plan_id":"free"},{"bike_id":"8d793ce4-127f-464b-943e-100ad6657e79","system_id":"levelo_inurba_marseille","lat":43.311722,"lon":5.387247,"is_reserved":false,"is_disabled":false,"rental_uris":{"android":"levelo://app?vid=8d793ce4-127f-464b-943e-100ad6657e79","ios":"levelo://app?vid=8d793ce4-127f-464b-943e-100ad6657e79"},"vehicle_type_id":"4","last_reported":1690149957,"current_range_meters":30000,"station_id":"ce4bgv12rcd13ifvqcp0","pricing_plan_id":"free"},{"bike_id":"44f40bba-6837-4cd8-90f0-7e3d2c6c648d","system_id":"levelo_inurba_marseille","lat":43.297774,"lon":5.370875,"is_reserved":false,"is_disabled":false,"rental_uris":{"android":"levelo://app?vid=44f40bba-6837-4cd8-90f0-7e3d2c6c648d","ios":"levelo://app?vid=44f40bba-6837-4cd8-90f0-7e3d2c6c648d"},"vehicle_type_id":"4","last_reported":1690149957,"current_range_meters":5200,"station_id":"ce4bgop2rcd13ifvqc1g","pricing_plan_id":"free"},{"bike_id":"21dee6f7-9e8f-4532-b917-455bfcb85ae3","system_id":"levelo_inurba_marseille","lat":43.297783,"lon":5.371019,"is_reserved":false,"is_disabled":false,"rental_uris":{"android":"levelo://app?vid=21dee6f7-9e8f-4532-b917-455bfcb85ae3","ios":"levelo://app?vid=21dee6f7-9e8f-4532-b917-455bfcb85ae3"},"vehicle_type_id":"4","last_reported":1690149957,"current_range_meters":16800,"station_id":"ce4bgop2rcd13ifvqc1g","pricing_plan_id":"free"},{"bike_id":"78f253a6-db2d-47ef-bafb-4a15f979ff89","system_id":"levelo_inurba_marseille","lat":43.322924,"lon":5.382581,"is_reserved":false,"is_disabled":false,"rental_uris":{"android":"levelo://app?vid=78f253a6-db2d-47ef-bafb-4a15f979ff89","ios":"levelo://app?vid=78f253a6-db2d-47ef-bafb-4a15f979ff89"},"vehicle_type_id":"4","last_reported":1690149957,"current_range_meters":3600,"station_id":"","pricing_plan_id":"free"},{"bike_id":"7c154cf1-be76-45ac-8f98-526cdbeb1a99","system_id":"levelo_inurba_marseille","lat":43.32291,"lon":5.38262,"is_reserved":false,"is_disabled":false,"rental_uris":{"android":"levelo://app?vid=7c154cf1-be76-45ac-8f98-526cdbeb1a99","ios":"levelo://app?vid=7c154cf1-be76-45ac-8f98-526cdbeb1a99"},"vehicle_type_id":"4","last_reported":1690149957,"current_range_meters":24800,"station_id":"ce4bhr12rcd13ifvqhqg","pricing_plan_id":"free"},{"bike_id":"ba0dbccf-e97a-43e5-9c99-2f16dfe6de7b","system_id":"levelo_inurba_marseille","lat":43.32822,"lon":5.36676,"is_reserved":false,"is_disabled":false,"rental_uris":{"android":"levelo://app?vid=ba0dbccf-e97a-43e5-9c99-2f16dfe6de7b","ios":"levelo://app?vid=ba0dbccf-e97a-43e5-9c99-2f16dfe6de7b"},"vehicle_type_id":"4","last_reported":1690149957,"current_range_meters":10000,"station_id":"ce4bhs92rcd13ifvqi0g","pricing_plan_id":"free"},{"bike_id":"3916e407-8c11-4a2b-8e00-1d25f7bfdca8","system_id":"levelo_inurba_marseille","lat":43.297163,"lon":5.365866,"is_reserved":false,"is_disabled":false,"rental_uris":{"android":"levelo://app?vid=3916e407-8c11-4a2b-8e00-1d25f7bfdca8","ios":"levelo://app?vid=3916e407-8c11-4a2b-8e00-1d25f7bfdca8"},"vehicle_type_id":"4","last_reported":1690149957,"current_range_meters":31200,"station_id":"ce4bgn12rcd13ifvqbt0","pricing_plan_id":"free"},{"bike_id":"b2af9a43-4738-4e1f-8b91-a001104ded0b","system_id":"levelo_inurba_marseille","lat":43.30951,"lon":5.38995,"is_reserved":false,"is_disabled":false,"rental_uris":{"android":"levelo://app?vid=b2af9a43-4738-4e1f-8b91-a001104ded0b","ios":"levelo://app?vid=b2af9a43-4738-4e1f-8b91-a001104ded0b"},"vehicle_type_id":"4","last_reported":1690149957,"current_range_meters":20800,"station_id":"ce4bgup2rcd13ifvqco0","pricing_plan_id":"free"},{"bike_id":"7ecad762-303d-4219-a779-c61b61c101ad","system_id":"levelo_inurba_marseille","lat":43.30951,"lon":5.39024,"is_reserved":false,"is_disabled":false,"rental_uris":{"android":"levelo://app?vid=7ecad762-303d-4219-a779-c61b61c101ad","ios":"levelo://app?vid=7ecad762-303d-4219-a779-c61b61c101ad"},"vehicle_type_id":"4","last_reported":1690149957,"current_range_meters":30400,"station_id":"ce4bgup2rcd13ifvqco0","pricing_plan_id":"free"},{"bike_id":"23ddd471-6bfa-4b7c-9890-ee8336b1f0a0","system_id":"levelo_inurba_marseille","lat":43.317557,"lon":5.390173,"is_reserved":false,"is_disabled":false,"rental_uris":{"android":"levelo://app?vid=23ddd471-6bfa-4b7c-9890-ee8336b1f0a0","ios":"levelo://app?vid=23ddd471-6bfa-4b7c-9890-ee8336b1f0a0"},"vehicle_type_id":"4","last_reported":1690149957,"current_range_meters":8800,"station_id":"ce4bhqp2rcd13ifvqhng","pricing_plan_id":"free"},{"bike_id":"06d2bb7f-364f-47d8-904c-edae3846701e","system_id":"levelo_inurba_marseille","lat":43.29792,"lon":5.38093,"is_reserved":false,"is_disabled":false,"rental_uris":{"android":"levelo://app?vid=06d2bb7f-364f-47d8-904c-edae3846701e","ios":"levelo://app?vid=06d2bb7f-364f-47d8-904c-edae3846701e"},"vehicle_type_id":"4","last_reported":1690149957,"current_range_meters":0,"station_id":"ce4bgip2rcd13ifvqbb0","pricing_plan_id":"free"},{"bike_id":"be934cb6-3940-4c7a-94c1-50b2b8b2fdc0","system_id":"levelo_inurba_marseille","lat":43.299724,"lon":5.384848,"is_reserved":false,"is_disabled":false,"rental_uris":{"android":"levelo://app?vid=be934cb6-3940-4c7a-94c1-50b2b8b2fdc0","ios":"levelo://app?vid=be934cb6-3940-4c7a-94c1-50b2b8b2fdc0"},"vehicle_type_id":"4","last_reported":1690149957,"current_range_meters":29600,"station_id":"ce4bgj92rcd13ifvqbd0","pricing_plan_id":"free"},{"bike_id":"5cf3486d-8f84-4d50-8d34-0c8db36f46be","system_id":"levelo_inurba_marseille","lat":43.29966,"lon":5.38495,"is_reserved":false,"is_disabled":false,"rental_uris":{"android":"levelo://app?vid=5cf3486d-8f84-4d50-8d34-0c8db36f46be","ios":"levelo://app?vid=5cf3486d-8f84-4d50-8d34-0c8db36f46be"},"vehicle_type_id":"4","last_reported":1690149957,"current_range_meters":18800,"station_id":"ce4bgj92rcd13ifvqbd0","pricing_plan_id":"free"},{"bike_id":"664312f5-4eca-4a36-b8f5-0513b4a394d3","system_id":"levelo_inurba_marseille","lat":43.32366,"lon":5.38875,"is_reserved":false,"is_disabled":false,"rental_uris":{"android":"levelo://app?vid=664312f5-4eca-4a36-b8f5-0513b4a394d3","ios":"levelo://app?vid=664312f5-4eca-4a36-b8f5-0513b4a394d3"},"vehicle_type_id":"4","last_reported":1690149957,"current_range_meters":5200,"station_id":"ce4bhqp2rcd13ifvqhog","pricing_plan_id":"free"},{"bike_id":"81e9db5a-c3ff-482b-98c8-f66bf4f56615","system_id":"levelo_inurba_marseille","lat":43.32367,"lon":5.388836,"is_reserved":false,"is_disabled":false,"rental_uris":{"android":"levelo://app?vid=81e9db5a-c3ff-482b-98c8-f66bf4f56615","ios":"levelo://app?vid=81e9db5a-c3ff-482b-98c8-f66bf4f56615"},"vehicle_type_id":"4","last_reported":1690149957,"current_range_meters":12800,"station_id":"ce4bhqp2rcd13ifvqhog","pricing_plan_id":"free"},{"bike_id":"f071330d-8e7d-441a-b0bf-26c5ea10e5d8","system_id":"levelo_inurba_marseille","lat":43.32364,"lon":5.38881,"is_reserved":false,"is_disabled":false,"rental_uris":{"android":"levelo://app?vid=f071330d-8e7d-441a-b0bf-26c5ea10e5d8","ios":"levelo://app?vid=f071330d-8e7d-441a-b0bf-26c5ea10e5d8"},"vehicle_type_id":"4","last_reported":1690149957,"current_range_meters":15600,"station_id":"ce4bhqp2rcd13ifvqhog","pricing_plan_id":"free"},{"bike_id":"8133a757-5bbf-4ee8-a250-3a1ab7219af6","system_id":"levelo_inurba_marseille","lat":43.31416,"lon":5.39364,"is_reserved":false,"is_disabled":false,"rental_uris":{"android":"levelo://app?vid=8133a757-5bbf-4ee8-a250-3a1ab7219af6","ios":"levelo://app?vid=8133a757-5bbf-4ee8-a250-3a1ab7219af6"},"vehicle_type_id":"4","last_reported":1690149957,"current_range_meters":0,"station_id":"","pricing_plan_id":"free"},{"bike_id":"7e27cebd-e457-49eb-8ed0-a74b7f2c6184","system_id":"levelo_inurba_marseille","lat":43.29601,"lon":5.381084,"is_reserved":false,"is_disabled":false,"rental_uris":{"android":"levelo://app?vid=7e27cebd-e457-49eb-8ed0-a74b7f2c6184","ios":"levelo://app?vid=7e27cebd-e457-49eb-8ed0-a74b7f2c6184"},"vehicle_type_id":"4","last_reported":1690149957,"current_range_meters":25600,"station_id":"ce4bgl12rcd13ifvqbo0","pricing_plan_id":"free"},{"bike_id":"cceb7f29-cc02-49ff-813c-e4dee0a6fdb3","system_id":"levelo_inurba_marseille","lat":43.29594,"lon":5.38089,"is_reserved":false,"is_disabled":false,"rental_uris":{"android":"levelo://app?vid=cceb7f29-cc02-49ff-813c-e4dee0a6fdb3","ios":"levelo://app?vid=cceb7f29-cc02-49ff-813c-e4dee0a6fdb3"},"vehicle_type_id":"4","last_reported":1690149957,"current_range_meters":28400,"station_id":"ce4bgl12rcd13ifvqbo0","pricing_plan_id":"free"},{"bike_id":"fb9925b7-24b6-4ccb-a3ba-c64f035c6775","system_id":"levelo_inurba_marseille","lat":43.29306,"lon":5.37179,"is_reserved":false,"is_disabled":false,"rental_uris":{"android":"levelo://app?vid=fb9925b7-24b6-4ccb-a3ba-c64f035c6775","ios":"levelo://app?vid=fb9925b7-24b6-4ccb-a3ba-c64f035c6775"},"vehicle_type_id":"4","last_reported":1690149957,"current_range_meters":12800,"station_id":"ce4bgh92rcd13ifvqb40","pricing_plan_id":"free"},{"bike_id":"6aca5498-76c6-4a77-8f20-f3f2755a7d25","system_id":"levelo_inurba_marseille","lat":43.292749,"lon":5.368402,"is_reserved":false,"is_disabled":false,"rental_uris":{"android":"levelo://app?vid=6aca5498-76c6-4a77-8f20-f3f2755a7d25","ios":"levelo://app?vid=6aca5498-76c6-4a77-8f20-f3f2755a7d25"},"vehicle_type_id":"4","last_reported":1690149957,"current_range_meters":400,"station_id":"ce4bhbp2rcd13ifvqesg","pricing_plan_id":"free"},{"bike_id":"13e44c31-c6c3-4887-8af8-bce620cb36b1","system_id":"levelo_inurba_marseille","lat":43.29275,"lon":5.36844,"is_reserved":false,"is_disabled":false,"rental_uris":{"android":"levelo://app?vid=13e44c31-c6c3-4887-8af8-bce620cb36b1","ios":"levelo://app?vid=13e44c31-c6c3-4887-8af8-bce620cb36b1"},"vehicle_type_id":"4","last_reported":1690149957,"current_range_meters":3600,"station_id":"ce4bhbp2rcd13ifvqesg","pricing_plan_id":"free"},{"bike_id":"c532803d-a183-4904-b7a5-643111e90210","system_id":"levelo_inurba_marseille","lat":43.29302,"lon":5.37171,"is_reserved":false,"is_disabled":false,"rental_uris":{"android":"levelo://app?vid=c532803d-a183-4904-b7a5-643111e90210","ios":"levelo://app?vid=c532803d-a183-4904-b7a5-643111e90210"},"vehicle_type_id":"4","last_reported":1690149957,"current_range_meters":16400,"station_id":"ce4bgh92rcd13ifvqb40","pricing_plan_id":"free"},{"bike_id":"fe025ac0-c82a-4ea7-b51b-26bcac235269","system_id":"levelo_inurba_marseille","lat":43.29265,"lon":5.36851,"is_reserved":false,"is_disabled":false,"rental_uris":{"android":"levelo://app?vid=fe025ac0-c82a-4ea7-b51b-26bcac235269","ios":"levelo://app?vid=fe025ac0-c82a-4ea7-b51b-26bcac235269"},"vehicle_type_id":"4","last_reported":1690149957,"current_range_meters":1600,"station_id":"ce4bhbp2rcd13ifvqesg","pricing_plan_id":"free"},{"bike_id":"a4b29549-e1c4-4a22-a239-34fb596b1717","system_id":"levelo_inurba_marseille","lat":43.30595,"lon":5.39351,"is_reserved":false,"is_disabled":false,"rental_uris":{"android":"levelo://app?vid=a4b29549-e1c4-4a22-a239-34fb596b1717","ios":"levelo://app?vid=a4b29549-e1c4-4a22-a239-34fb596b1717"},"vehicle_type_id":"4","last_reported":1690149957,"current_range_meters":23200,"station_id":"ce4bh0p2rcd13ifvqd80","pricing_plan_id":"free"},{"bike_id":"54d7387c-dadd-4700-907d-2e94250d2a8c","system_id":"levelo_inurba_marseille","lat":43.30587,"lon":5.39355,"is_reserved":false,"is_disabled":false,"rental_uris":{"android":"levelo://app?vid=54d7387c-dadd-4700-907d-2e94250d2a8c","ios":"levelo://app?vid=54d7387c-dadd-4700-907d-2e94250d2a8c"},"vehicle_type_id":"4","last_reported":1690149957,"current_range_meters":17200,"station_id":"ce4bh0p2rcd13ifvqd80","pricing_plan_id":"free"},{"bike_id":"74af6d43-2656-476e-8dd7-164c5759f6c5","system_id":"levelo_inurba_marseille","lat":43.30294,"lon":5.39186,"is_reserved":false,"is_disabled":false,"rental_uris":{"android":"levelo://app?vid=74af6d43-2656-476e-8dd7-164c5759f6c5","ios":"levelo://app?vid=74af6d43-2656-476e-8dd7-164c5759f6c5"},"vehicle_type_id":"4","last_reported":1690149957,"current_range_meters":24800,"station_id":"ce4bgkh2rcd13ifvqbk0","pricing_plan_id":"free"},{"bike_id":"5d4b391a-6641-44b1-91cb-7fe78cca3f50","system_id":"levelo_inurba_marseille","lat":43.30296,"lon":5.39195,"is_reserved":false,"is_disabled":false,"rental_uris":{"android":"levelo://app?vid=5d4b391a-6641-44b1-91cb-7fe78cca3f50","ios":"levelo://app?vid=5d4b391a-6641-44b1-91cb-7fe78cca3f50"},"vehicle_type_id":"4","last_reported":1690149957,"current_range_meters":3200,"station_id":"ce4bgkh2rcd13ifvqbk0","pricing_plan_id":"free"},{"bike_id":"43312aa2-1814-49e1-8ca2-d97a29b177b5","system_id":"levelo_inurba_marseille","lat":43.29377,"lon":5.37839,"is_reserved":false,"is_disabled":false,"rental_uris":{"android":"levelo://app?vid=43312aa2-1814-49e1-8ca2-d97a29b177b5","ios":"levelo://app?vid=43312aa2-1814-49e1-8ca2-d97a29b177b5"},"vehicle_type_id":"4","last_reported":1690149957,"current_range_meters":27600,"station_id":"ce4bgjh2rcd13ifvqbf0","pricing_plan_id":"free"},{"bike_id":"653ec60a-bead-4f0c-810d-339b7b02018e","system_id":"levelo_inurba_marseille","lat":43.2936,"lon":5.37835,"is_reserved":false,"is_disabled":false,"rental_uris":{"android":"levelo://app?vid=653ec60a-bead-4f0c-810d-339b7b02018e","ios":"levelo://app?vid=653ec60a-bead-4f0c-810d-339b7b02018e"},"vehicle_type_id":"4","last_reported":1690149957,"current_range_meters":31200,"station_id":"ce4bgjh2rcd13ifvqbf0","pricing_plan_id":"free"},{"bike_id":"e8710336-0a1a-467c-94f4-20611a6bddf9","system_id":"levelo_inurba_marseille","lat":43.292311,"lon":5.360731,"is_reserved":false,"is_disabled":false,"rental_uris":{"android":"levelo://app?vid=e8710336-0a1a-467c-94f4-20611a6bddf9","ios":"levelo://app?vid=e8710336-0a1a-467c-94f4-20611a6bddf9"},"vehicle_type_id":"4","last_reported":1690149957,"current_range_meters":4800,"station_id":"ce4bhbh2rcd13ifvqeqg","pricing_plan_id":"free"},{"bike_id":"b0b0c483-246e-47a7-adfb-d8d3e844d0d1","system_id":"levelo_inurba_marseille","lat":43.29217,"lon":5.36075,"is_reserved":false,"is_disabled":false,"rental_uris":{"android":"levelo://app?vid=b0b0c483-246e-47a7-adfb-d8d3e844d0d1","ios":"levelo://app?vid=b0b0c483-246e-47a7-adfb-d8d3e844d0d1"},"vehicle_type_id":"4","last_reported":1690149957,"current_range_meters":31200,"station_id":"ce4bhbh2rcd13ifvqeqg","pricing_plan_id":"free"},{"bike_id":"b877d3f8-6b56-43e4-b4a7-888b0e7ad59e","system_id":"levelo_inurba_marseille","lat":43.29893,"lon":5.38899,"is_reserved":false,"is_disabled":false,"rental_uris":{"android":"levelo://app?vid=b877d3f8-6b56-43e4-b4a7-888b0e7ad59e","ios":"levelo://app?vid=b877d3f8-6b56-43e4-b4a7-888b0e7ad59e"},"vehicle_type_id":"4","last_reported":1690149957,"current_range_meters":7200,"station_id":"ce4bh392rcd13ifvqdl0","pricing_plan_id":"free"},{"bike_id":"0c063eb9-cb69-406a-b52a-5e9464c85093","system_id":"levelo_inurba_marseille","lat":43.29889,"lon":5.38901,"is_reserved":false,"is_disabled":false,"rental_uris":{"android":"levelo://app?vid=0c063eb9-cb69-406a-b52a-5e9464c85093","ios":"levelo://app?vid=0c063eb9-cb69-406a-b52a-5e9464c85093"},"vehicle_type_id":"4","last_reported":1690149957,"current_range_meters":12400,"station_id":"ce4bh392rcd13ifvqdl0","pricing_plan_id":"free"},{"bike_id":"937387ac-5c8d-4da1-91e0-c270942c972c","system_id":"levelo_inurba_marseille","lat":43.2988,"lon":5.38903,"is_reserved":false,"is_disabled":false,"rental_uris":{"android":"levelo://app?vid=937387ac-5c8d-4da1-91e0-c270942c972c","ios":"levelo://app?vid=937387ac-5c8d-4da1-91e0-c270942c972c"},"vehicle_type_id":"4","last_reported":1690149957,"current_range_meters":29200,"station_id":"ce4bh392rcd13ifvqdl0","pricing_plan_id":"free"},{"bike_id":"67a1ed80-ef59-4692-a7a0-9f8b012c620b","system_id":"levelo_inurba_marseille","lat":43.29877,"lon":5.38903,"is_reserved":false,"is_disabled":false,"rental_uris":{"android":"levelo://app?vid=67a1ed80-ef59-4692-a7a0-9f8b012c620b","ios":"levelo://app?vid=67a1ed80-ef59-4692-a7a0-9f8b012c620b"},"vehicle_type_id":"4","last_reported":1690149957,"current_range_meters":18800,"station_id":"ce4bh392rcd13ifvqdl0","pricing_plan_id":"free"},{"bike_id":"77baf2f1-2208-4ab1-9b06-ca7e3059cf0f","system_id":"levelo_inurba_marseille","lat":43.30883,"lon":5.39641,"is_reserved":false,"is_disabled":false,"rental_uris":{"android":"levelo://app?vid=77baf2f1-2208-4ab1-9b06-ca7e3059cf0f","ios":"levelo://app?vid=77baf2f1-2208-4ab1-9b06-ca7e3059cf0f"},"vehicle_type_id":"4","last_reported":1690149957,"current_range_meters":9200,"station_id":"ce4bh012rcd13ifvqcv0","pricing_plan_id":"free"},{"bike_id":"cba6b209-2297-41cc-9e61-6a43edab1f68","system_id":"levelo_inurba_marseille","lat":43.31329,"lon":5.39694,"is_reserved":false,"is_disabled":false,"rental_uris":{"android":"levelo://app?vid=cba6b209-2297-41cc-9e61-6a43edab1f68","ios":"levelo://app?vid=cba6b209-2297-41cc-9e61-6a43edab1f68"},"vehicle_type_id":"4","last_reported":1690149957,"current_range_meters":23200,"station_id":"ce4bgvp2rcd13ifvqcu0","pricing_plan_id":"free"},{"bike_id":"f60b032b-9856-4c26-a012-0647e86400b9","system_id":"levelo_inurba_marseille","lat":43.309038,"lon":5.396546,"is_reserved":false,"is_disabled":false,"rental_uris":{"android":"levelo://app?vid=f60b032b-9856-4c26-a012-0647e86400b9","ios":"levelo://app?vid=f60b032b-9856-4c26-a012-0647e86400b9"},"vehicle_type_id":"4","last_reported":1690149957,"current_range_meters":13200,"station_id":"ce4bh012rcd13ifvqcv0","pricing_plan_id":"free"},{"bike_id":"da1f72e9-31bd-4eba-a86c-a30f2437ed88","system_id":"levelo_inurba_marseille","lat":43.313291,"lon":5.396838,"is_reserved":false,"is_disabled":false,"rental_uris":{"android":"levelo://app?vid=da1f72e9-31bd-4eba-a86c-a30f2437ed88","ios":"levelo://app?vid=da1f72e9-31bd-4eba-a86c-a30f2437ed88"},"vehicle_type_id":"4","last_reported":1690149957,"current_range_meters":21200,"station_id":"ce4bgvp2rcd13ifvqcu0","pricing_plan_id":"free"},{"bike_id":"5d8c2e02-8e11-4f9c-b64b-b203cf17801a","system_id":"levelo_inurba_marseille","lat":43.31326,"lon":5.39697,"is_reserved":false,"is_disabled":false,"rental_uris":{"android":"levelo://app?vid=5d8c2e02-8e11-4f9c-b64b-b203cf17801a","ios":"levelo://app?vid=5d8c2e02-8e11-4f9c-b64b-b203cf17801a"},"vehicle_type_id":"4","last_reported":1690149957,"current_range_meters":7200,"station_id":"ce4bgvp2rcd13ifvqcu0","pricing_plan_id":"free"},{"bike_id":"8868321c-bc39-46b8-8f4e-8326689ee7fa","system_id":"levelo_inurba_marseille","lat":43.2954,"lon":5.38535,"is_reserved":false,"is_disabled":false,"rental_uris":{"android":"levelo://app?vid=8868321c-bc39-46b8-8f4e-8326689ee7fa","ios":"levelo://app?vid=8868321c-bc39-46b8-8f4e-8326689ee7fa"},"vehicle_type_id":"4","last_reported":1690149957,"current_range_meters":9600,"station_id":"ce4bgih2rcd13ifvqba0","pricing_plan_id":"free"},{"bike_id":"d4bfb610-5f78-4377-bb38-1321259c32cc","system_id":"levelo_inurba_marseille","lat":43.29529,"lon":5.385581,"is_reserved":false,"is_disabled":false,"rental_uris":{"android":"levelo://app?vid=d4bfb610-5f78-4377-bb38-1321259c32cc","ios":"levelo://app?vid=d4bfb610-5f78-4377-bb38-1321259c32cc"},"vehicle_type_id":"4","last_reported":1690149957,"current_range_meters":22800,"station_id":"ce4bgih2rcd13ifvqba0","pricing_plan_id":"free"},{"bike_id":"a76a0d1b-c16b-4359-9cbe-5a5d94b66f34","system_id":"levelo_inurba_marseille","lat":43.29529,"lon":5.385581,"is_reserved":false,"is_disabled":false,"rental_uris":{"android":"levelo://app?vid=a76a0d1b-c16b-4359-9cbe-5a5d94b66f34","ios":"levelo://app?vid=a76a0d1b-c16b-4359-9cbe-5a5d94b66f34"},"vehicle_type_id":"4","last_reported":1690149957,"current_range_meters":18800,"station_id":"ce4bgih2rcd13ifvqba0","pricing_plan_id":"free"},{"bike_id":"367f1a30-ef81-4ff9-bdd8-dd431074c81d","system_id":"levelo_inurba_marseille","lat":43.30887,"lon":5.39662,"is_reserved":false,"is_disabled":false,"rental_uris":{"android":"levelo://app?vid=367f1a30-ef81-4ff9-bdd8-dd431074c81d","ios":"levelo://app?vid=367f1a30-ef81-4ff9-bdd8-dd431074c81d"},"vehicle_type_id":"4","last_reported":1690149957,"current_range_meters":1200,"station_id":"ce4bh012rcd13ifvqcv0","pricing_plan_id":"free"},{"bike_id":"cfdb1763-bea5-488c-b842-68f880c09510","system_id":"levelo_inurba_marseille","lat":43.30894,"lon":5.39664,"is_reserved":false,"is_disabled":false,"rental_uris":{"android":"levelo://app?vid=cfdb1763-bea5-488c-b842-68f880c09510","ios":"levelo://app?vid=cfdb1763-bea5-488c-b842-68f880c09510"},"vehicle_type_id":"4","last_reported":1690149957,"current_range_meters":4000,"station_id":"ce4bh012rcd13ifvqcv0","pricing_plan_id":"free"},{"bike_id":"f950828d-4d78-4588-a7b9-6a32ddbc5a7d","system_id":"levelo_inurba_marseille","lat":43.29529,"lon":5.385581,"is_reserved":false,"is_disabled":false,"rental_uris":{"android":"levelo://app?vid=f950828d-4d78-4588-a7b9-6a32ddbc5a7d","ios":"levelo://app?vid=f950828d-4d78-4588-a7b9-6a32ddbc5a7d"},"vehicle_type_id":"4","last_reported":1690149957,"current_range_meters":28800,"station_id":"ce4bgih2rcd13ifvqba0","pricing_plan_id":"free"},{"bike_id":"4fec375a-af2a-423c-b3f5-7af6e7dbaa0d","system_id":"levelo_inurba_marseille","lat":43.29529,"lon":5.385581,"is_reserved":false,"is_disabled":false,"rental_uris":{"android":"levelo://app?vid=4fec375a-af2a-423c-b3f5-7af6e7dbaa0d","ios":"levelo://app?vid=4fec375a-af2a-423c-b3f5-7af6e7dbaa0d"},"vehicle_type_id":"4","last_reported":1690149957,"current_range_meters":29200,"station_id":"ce4bgih2rcd13ifvqba0","pricing_plan_id":"free"},{"bike_id":"9b94b402-576f-4f51-8cd3-11570723deb0","system_id":"levelo_inurba_marseille","lat":43.29532,"lon":5.38533,"is_reserved":false,"is_disabled":false,"rental_uris":{"android":"levelo://app?vid=9b94b402-576f-4f51-8cd3-11570723deb0","ios":"levelo://app?vid=9b94b402-576f-4f51-8cd3-11570723deb0"},"vehicle_type_id":"4","last_reported":1690149957,"current_range_meters":6800,"station_id":"ce4bgih2rcd13ifvqba0","pricing_plan_id":"free"},{"bike_id":"97d8f2cf-f45d-42e3-a7ab-7537c81c9753","system_id":"levelo_inurba_marseille","lat":43.29529,"lon":5.385581,"is_reserved":false,"is_disabled":false,"rental_uris":{"android":"levelo://app?vid=97d8f2cf-f45d-42e3-a7ab-7537c81c9753","ios":"levelo://app?vid=97d8f2cf-f45d-42e3-a7ab-7537c81c9753"},"vehicle_type_id":"4","last_reported":1690149957,"current_range_meters":3600,"station_id":"ce4bgih2rcd13ifvqba0","pricing_plan_id":"free"},{"bike_id":"4178dcf1-8ca5-46c7-ba1f-670aa67d1f71","system_id":"levelo_inurba_marseille","lat":43.29529,"lon":5.38529,"is_reserved":false,"is_disabled":false,"rental_uris":{"android":"levelo://app?vid=4178dcf1-8ca5-46c7-ba1f-670aa67d1f71","ios":"levelo://app?vid=4178dcf1-8ca5-46c7-ba1f-670aa67d1f71"},"vehicle_type_id":"4","last_reported":1690149957,"current_range_meters":19200,"station_id":"ce4bgih2rcd13ifvqba0","pricing_plan_id":"free"},{"bike_id":"68858126-1e62-4bd5-8c69-03c29005ea4f","system_id":"levelo_inurba_marseille","lat":43.29536,"lon":5.38542,"is_reserved":false,"is_disabled":false,"rental_uris":{"android":"levelo://app?vid=68858126-1e62-4bd5-8c69-03c29005ea4f","ios":"levelo://app?vid=68858126-1e62-4bd5-8c69-03c29005ea4f"},"vehicle_type_id":"4","last_reported":1690149957,"current_range_meters":22000,"station_id":"ce4bgih2rcd13ifvqba0","pricing_plan_id":"free"},{"bike_id":"b5696a0e-b721-4f1a-8c61-d15515cfc7c9","system_id":"levelo_inurba_marseille","lat":43.29532,"lon":5.38535,"is_reserved":false,"is_disabled":false,"rental_uris":{"android":"levelo://app?vid=b5696a0e-b721-4f1a-8c61-d15515cfc7c9","ios":"levelo://app?vid=b5696a0e-b721-4f1a-8c61-d15515cfc7c9"},"vehicle_type_id":"4","last_reported":1690149957,"current_range_meters":16000,"station_id":"ce4bgih2rcd13ifvqba0","pricing_plan_id":"free"},{"bike_id":"8fd2885c-0ae5-4df5-bae1-8650f356f19a","system_id":"levelo_inurba_marseille","lat":43.29533,"lon":5.38538,"is_reserved":false,"is_disabled":false,"rental_uris":{"android":"levelo://app?vid=8fd2885c-0ae5-4df5-bae1-8650f356f19a","ios":"levelo://app?vid=8fd2885c-0ae5-4df5-bae1-8650f356f19a"},"vehicle_type_id":"4","last_reported":1690149957,"current_range_meters":27200,"station_id":"ce4bgih2rcd13ifvqba0","pricing_plan_id":"free"},{"bike_id":"8b3ea427-60da-4b3c-bfe6-414bc619faa9","system_id":"levelo_inurba_marseille","lat":43.29529,"lon":5.385581,"is_reserved":false,"is_disabled":false,"rental_uris":{"android":"levelo://app?vid=8b3ea427-60da-4b3c-bfe6-414bc619faa9","ios":"levelo://app?vid=8b3ea427-60da-4b3c-bfe6-414bc619faa9"},"vehicle_type_id":"4","last_reported":1690149957,"current_range_meters":2400,"station_id":"ce4bgih2rcd13ifvqba0","pricing_plan_id":"free"},{"bike_id":"b4f5033b-c455-4713-bdb3-a6ed1c5ff549","system_id":"levelo_inurba_marseille","lat":43.29537,"lon":5.38546,"is_reserved":false,"is_disabled":false,"rental_uris":{"android":"levelo://app?vid=b4f5033b-c455-4713-bdb3-a6ed1c5ff549","ios":"levelo://app?vid=b4f5033b-c455-4713-bdb3-a6ed1c5ff549"},"vehicle_type_id":"4","last_reported":1690149957,"current_range_meters":21600,"station_id":"ce4bgih2rcd13ifvqba0","pricing_plan_id":"free"},{"bike_id":"25a7034c-65c3-45ca-884e-15ab47ab0a1b","system_id":"levelo_inurba_marseille","lat":43.29535,"lon":5.38543,"is_reserved":false,"is_disabled":false,"rental_uris":{"android":"levelo://app?vid=25a7034c-65c3-45ca-884e-15ab47ab0a1b","ios":"levelo://app?vid=25a7034c-65c3-45ca-884e-15ab47ab0a1b"},"vehicle_type_id":"4","last_reported":1690149957,"current_range_meters":31200,"station_id":"ce4bgih2rcd13ifvqba0","pricing_plan_id":"free"},{"bike_id":"b2aaa9ce-19e4-4f4c-a541-a75fb3f4f97c","system_id":"levelo_inurba_marseille","lat":43.29525,"lon":5.38528,"is_reserved":false,"is_disabled":false,"rental_uris":{"android":"levelo://app?vid=b2aaa9ce-19e4-4f4c-a541-a75fb3f4f97c","ios":"levelo://app?vid=b2aaa9ce-19e4-4f4c-a541-a75fb3f4f97c"},"vehicle_type_id":"4","last_reported":1690149957,"current_range_meters":12400,"station_id":"ce4bgih2rcd13ifvqba0","pricing_plan_id":"free"},{"bike_id":"15abdee9-5b55-4012-8d88-712a714d9bb7","system_id":"levelo_inurba_marseille","lat":43.29529,"lon":5.38536,"is_reserved":false,"is_disabled":false,"rental_uris":{"android":"levelo://app?vid=15abdee9-5b55-4012-8d88-712a714d9bb7","ios":"levelo://app?vid=15abdee9-5b55-4012-8d88-712a714d9bb7"},"vehicle_type_id":"4","last_reported":1690149957,"current_range_meters":5600,"station_id":"ce4bgih2rcd13ifvqba0","pricing_plan_id":"free"},{"bike_id":"4b6b69c7-8418-4e42-902c-59af437b5480","system_id":"levelo_inurba_marseille","lat":43.29528,"lon":5.38536,"is_reserved":false,"is_disabled":false,"rental_uris":{"android":"levelo://app?vid=4b6b69c7-8418-4e42-902c-59af437b5480","ios":"levelo://app?vid=4b6b69c7-8418-4e42-902c-59af437b5480"},"vehicle_type_id":"4","last_reported":1690149957,"current_range_meters":25200,"station_id":"ce4bgih2rcd13ifvqba0","pricing_plan_id":"free"},{"bike_id":"748a07d4-d514-476d-92d3-2222192ef834","system_id":"levelo_inurba_marseille","lat":43.30877,"lon":5.39669,"is_reserved":false,"is_disabled":false,"rental_uris":{"android":"levelo://app?vid=748a07d4-d514-476d-92d3-2222192ef834","ios":"levelo://app?vid=748a07d4-d514-476d-92d3-2222192ef834"},"vehicle_type_id":"4","last_reported":1690149957,"current_range_meters":2000,"station_id":"ce4bh012rcd13ifvqcv0","pricing_plan_id":"free"},{"bike_id":"a5a3211a-a78b-4e1a-81a5-f74a6d2dbd02","system_id":"levelo_inurba_marseille","lat":43.29529,"lon":5.385581,"is_reserved":false,"is_disabled":false,"rental_uris":{"android":"levelo://app?vid=a5a3211a-a78b-4e1a-81a5-f74a6d2dbd02","ios":"levelo://app?vid=a5a3211a-a78b-4e1a-81a5-f74a6d2dbd02"},"vehicle_type_id":"4","last_reported":1690149957,"current_range_meters":28000,"station_id":"ce4bgih2rcd13ifvqba0","pricing_plan_id":"free"},{"bike_id":"fef05a79-d686-401a-8b3d-f3ffe7c1a424","system_id":"levelo_inurba_marseille","lat":43.29077,"lon":5.37165,"is_reserved":false,"is_disabled":false,"rental_uris":{"android":"levelo://app?vid=fef05a79-d686-401a-8b3d-f3ffe7c1a424","ios":"levelo://app?vid=fef05a79-d686-401a-8b3d-f3ffe7c1a424"},"vehicle_type_id":"4","last_reported":1690149957,"current_range_meters":31200,"station_id":"ce4bh5p2rcd13ifvqe4g","pricing_plan_id":"free"},{"bike_id":"a675b239-94b2-4d2d-a7a7-c8a45437d385","system_id":"levelo_inurba_marseille","lat":43.2912,"lon":5.35911,"is_reserved":false,"is_disabled":false,"rental_uris":{"android":"levelo://app?vid=a675b239-94b2-4d2d-a7a7-c8a45437d385","ios":"levelo://app?vid=a675b239-94b2-4d2d-a7a7-c8a45437d385"},"vehicle_type_id":"4","last_reported":1690149957,"current_range_meters":20400,"station_id":"","pricing_plan_id":"free"},{"bike_id":"4fcfc68e-090c-4438-9f4b-653f2c5aeb01","system_id":"levelo_inurba_marseille","lat":43.29066,"lon":5.37165,"is_reserved":false,"is_disabled":false,"rental_uris":{"android":"levelo://app?vid=4fcfc68e-090c-4438-9f4b-653f2c5aeb01","ios":"levelo://app?vid=4fcfc68e-090c-4438-9f4b-653f2c5aeb01"},"vehicle_type_id":"4","last_reported":1690149957,"current_range_meters":10000,"station_id":"ce4bh5p2rcd13ifvqe4g","pricing_plan_id":"free"},{"bike_id":"a746595e-0bb5-459d-983b-b7a896095911","system_id":"levelo_inurba_marseille","lat":43.302183,"lon":5.394662,"is_reserved":false,"is_disabled":false,"rental_uris":{"android":"levelo://app?vid=a746595e-0bb5-459d-983b-b7a896095911","ios":"levelo://app?vid=a746595e-0bb5-459d-983b-b7a896095911"},"vehicle_type_id":"4","last_reported":1690149957,"current_range_meters":2000,"station_id":"ce4bh0p2rcd13ifvqd70","pricing_plan_id":"free"},{"bike_id":"430b15be-4b67-4ef2-986a-e0f7b927157e","system_id":"levelo_inurba_marseille","lat":43.302008,"lon":5.394694,"is_reserved":false,"is_disabled":false,"rental_uris":{"android":"levelo://app?vid=430b15be-4b67-4ef2-986a-e0f7b927157e","ios":"levelo://app?vid=430b15be-4b67-4ef2-986a-e0f7b927157e"},"vehicle_type_id":"4","last_reported":1690149957,"current_range_meters":0,"station_id":"ce4bh0p2rcd13ifvqd70","pricing_plan_id":"free"},{"bike_id":"f8da7146-4164-4bd4-85ef-64877b3c3c91","system_id":"levelo_inurba_marseille","lat":43.3021,"lon":5.39465,"is_reserved":false,"is_disabled":false,"rental_uris":{"android":"levelo://app?vid=f8da7146-4164-4bd4-85ef-64877b3c3c91","ios":"levelo://app?vid=f8da7146-4164-4bd4-85ef-64877b3c3c91"},"vehicle_type_id":"4","last_reported":1690149957,"current_range_meters":24400,"station_id":"ce4bh0p2rcd13ifvqd70","pricing_plan_id":"free"},{"bike_id":"3a55056e-1410-4fe6-9977-f3c9a5671a3e","system_id":"levelo_inurba_marseille","lat":43.302008,"lon":5.394694,"is_reserved":false,"is_disabled":false,"rental_uris":{"android":"levelo://app?vid=3a55056e-1410-4fe6-9977-f3c9a5671a3e","ios":"levelo://app?vid=3a55056e-1410-4fe6-9977-f3c9a5671a3e"},"vehicle_type_id":"4","last_reported":1690149957,"current_range_meters":8400,"station_id":"ce4bh0p2rcd13ifvqd70","pricing_plan_id":"free"},{"bike_id":"ba063115-5f23-44d8-8e33-8710fee25a45","system_id":"levelo_inurba_marseille","lat":43.302008,"lon":5.394694,"is_reserved":false,"is_disabled":false,"rental_uris":{"android":"levelo://app?vid=ba063115-5f23-44d8-8e33-8710fee25a45","ios":"levelo://app?vid=ba063115-5f23-44d8-8e33-8710fee25a45"},"vehicle_type_id":"4","last_reported":1690149957,"current_range_meters":3600,"station_id":"ce4bh0p2rcd13ifvqd70","pricing_plan_id":"free"},{"bike_id":"11daf0ac-e605-4992-a2af-f5b41857e7b6","system_id":"levelo_inurba_marseille","lat":43.30211,"lon":5.39471,"is_reserved":false,"is_disabled":false,"rental_uris":{"android":"levelo://app?vid=11daf0ac-e605-4992-a2af-f5b41857e7b6","ios":"levelo://app?vid=11daf0ac-e605-4992-a2af-f5b41857e7b6"},"vehicle_type_id":"4","last_reported":1690149957,"current_range_meters":24400,"station_id":"ce4bh0p2rcd13ifvqd70","pricing_plan_id":"free"},{"bike_id":"0592bdd9-5479-4e3d-bd8e-fdac12eba186","system_id":"levelo_inurba_marseille","lat":43.2942,"lon":5.38621,"is_reserved":false,"is_disabled":false,"rental_uris":{"android":"levelo://app?vid=0592bdd9-5479-4e3d-bd8e-fdac12eba186","ios":"levelo://app?vid=0592bdd9-5479-4e3d-bd8e-fdac12eba186"},"vehicle_type_id":"4","last_reported":1690149957,"current_range_meters":31200,"station_id":"ce4bh2h2rcd13ifvqdh0","pricing_plan_id":"free"},{"bike_id":"643bff88-bfa6-4d8b-a67e-a074d21a9aad","system_id":"levelo_inurba_marseille","lat":43.29419,"lon":5.38621,"is_reserved":false,"is_disabled":false,"rental_uris":{"android":"levelo://app?vid=643bff88-bfa6-4d8b-a67e-a074d21a9aad","ios":"levelo://app?vid=643bff88-bfa6-4d8b-a67e-a074d21a9aad"},"vehicle_type_id":"4","last_reported":1690149957,"current_range_meters":20400,"station_id":"ce4bh2h2rcd13ifvqdh0","pricing_plan_id":"free"},{"bike_id":"173fade9-d7c7-4ded-b6de-5795680f661e","system_id":"levelo_inurba_marseille","lat":43.29418,"lon":5.38624,"is_reserved":false,"is_disabled":false,"rental_uris":{"android":"levelo://app?vid=173fade9-d7c7-4ded-b6de-5795680f661e","ios":"levelo://app?vid=173fade9-d7c7-4ded-b6de-5795680f661e"},"vehicle_type_id":"4","last_reported":1690149957,"current_range_meters":4400,"station_id":"ce4bh2h2rcd13ifvqdh0","pricing_plan_id":"free"},{"bike_id":"6baf675b-fa63-4ece-9f07-da2bb12526e9","system_id":"levelo_inurba_marseille","lat":43.28946,"lon":5.3664,"is_reserved":false,"is_disabled":false,"rental_uris":{"android":"levelo://app?vid=6baf675b-fa63-4ece-9f07-da2bb12526e9","ios":"levelo://app?vid=6baf675b-fa63-4ece-9f07-da2bb12526e9"},"vehicle_type_id":"4","last_reported":1690149957,"current_range_meters":1600,"station_id":"ce4bhap2rcd13ifvqek0","pricing_plan_id":"free"},{"bike_id":"c4fba84d-d959-4264-affc-0d4dadb8db1b","system_id":"levelo_inurba_marseille","lat":43.294153,"lon":5.386305,"is_reserved":false,"is_disabled":false,"rental_uris":{"android":"levelo://app?vid=c4fba84d-d959-4264-affc-0d4dadb8db1b","ios":"levelo://app?vid=c4fba84d-d959-4264-affc-0d4dadb8db1b"},"vehicle_type_id":"4","last_reported":1690149957,"current_range_meters":18400,"station_id":"ce4bh2h2rcd13ifvqdh0","pricing_plan_id":"free"},{"bike_id":"eb073779-4df9-44a2-be1c-92bf24c11f91","system_id":"levelo_inurba_marseille","lat":43.29415,"lon":5.38626,"is_reserved":false,"is_disabled":false,"rental_uris":{"android":"levelo://app?vid=eb073779-4df9-44a2-be1c-92bf24c11f91","ios":"levelo://app?vid=eb073779-4df9-44a2-be1c-92bf24c11f91"},"vehicle_type_id":"4","last_reported":1690149957,"current_range_meters":16000,"station_id":"ce4bh2h2rcd13ifvqdh0","pricing_plan_id":"free"},{"bike_id":"9b40bc76-1e22-4c59-bdae-2278bf46f9b8","system_id":"levelo_inurba_marseille","lat":43.2941,"lon":5.38625,"is_reserved":false,"is_disabled":false,"rental_uris":{"android":"levelo://app?vid=9b40bc76-1e22-4c59-bdae-2278bf46f9b8","ios":"levelo://app?vid=9b40bc76-1e22-4c59-bdae-2278bf46f9b8"},"vehicle_type_id":"4","last_reported":1690149957,"current_range_meters":20800,"station_id":"ce4bh2h2rcd13ifvqdh0","pricing_plan_id":"free"},{"bike_id":"42a0d3c8-5195-40b4-9922-c8ad71a3ed96","system_id":"levelo_inurba_marseille","lat":43.28936,"lon":5.36638,"is_reserved":false,"is_disabled":false,"rental_uris":{"android":"levelo://app?vid=42a0d3c8-5195-40b4-9922-c8ad71a3ed96","ios":"levelo://app?vid=42a0d3c8-5195-40b4-9922-c8ad71a3ed96"},"vehicle_type_id":"4","last_reported":1690149957,"current_range_meters":18800,"station_id":"ce4bhap2rcd13ifvqek0","pricing_plan_id":"free"},{"bike_id":"6ef76c29-30c4-46bd-b5b0-2f05ecc8fdd0","system_id":"levelo_inurba_marseille","lat":43.289184,"lon":5.366408,"is_reserved":false,"is_disabled":false,"rental_uris":{"android":"levelo://app?vid=6ef76c29-30c4-46bd-b5b0-2f05ecc8fdd0","ios":"levelo://app?vid=6ef76c29-30c4-46bd-b5b0-2f05ecc8fdd0"},"vehicle_type_id":"4","last_reported":1690149957,"current_range_meters":20800,"station_id":"ce4bhap2rcd13ifvqek0","pricing_plan_id":"free"},{"bike_id":"0cb99ff7-001b-4c36-a36b-ecc3efb0d2ca","system_id":"levelo_inurba_marseille","lat":43.29285,"lon":5.38445,"is_reserved":false,"is_disabled":false,"rental_uris":{"android":"levelo://app?vid=0cb99ff7-001b-4c36-a36b-ecc3efb0d2ca","ios":"levelo://app?vid=0cb99ff7-001b-4c36-a36b-ecc3efb0d2ca"},"vehicle_type_id":"4","last_reported":1690149957,"current_range_meters":24800,"station_id":"ce4bh692rcd13ifvqea0","pricing_plan_id":"free"},{"bike_id":"7cefd061-a88d-46f9-880c-281210e9e6e0","system_id":"levelo_inurba_marseille","lat":43.2928,"lon":5.38446,"is_reserved":false,"is_disabled":false,"rental_uris":{"android":"levelo://app?vid=7cefd061-a88d-46f9-880c-281210e9e6e0","ios":"levelo://app?vid=7cefd061-a88d-46f9-880c-281210e9e6e0"},"vehicle_type_id":"4","last_reported":1690149957,"current_range_meters":26400,"station_id":"ce4bh692rcd13ifvqea0","pricing_plan_id":"free"},{"bike_id":"17746312-082f-4c13-9ec1-2cd0e801be81","system_id":"levelo_inurba_marseille","lat":43.292644,"lon":5.384257,"is_reserved":false,"is_disabled":false,"rental_uris":{"android":"levelo://app?vid=17746312-082f-4c13-9ec1-2cd0e801be81","ios":"levelo://app?vid=17746312-082f-4c13-9ec1-2cd0e801be81"},"vehicle_type_id":"4","last_reported":1690149957,"current_range_meters":16400,"station_id":"ce4bh692rcd13ifvqea0","pricing_plan_id":"free"},{"bike_id":"b03a0114-1ea0-4fdd-b1d7-9d07cfcb4dcd","system_id":"levelo_inurba_marseille","lat":43.2927,"lon":5.38435,"is_reserved":false,"is_disabled":false,"rental_uris":{"android":"levelo://app?vid=b03a0114-1ea0-4fdd-b1d7-9d07cfcb4dcd","ios":"levelo://app?vid=b03a0114-1ea0-4fdd-b1d7-9d07cfcb4dcd"},"vehicle_type_id":"4","last_reported":1690149957,"current_range_meters":30800,"station_id":"ce4bh692rcd13ifvqea0","pricing_plan_id":"free"},{"bike_id":"42d8782f-7903-4ead-a245-663a205660c4","system_id":"levelo_inurba_marseille","lat":43.29276,"lon":5.38449,"is_reserved":false,"is_disabled":false,"rental_uris":{"android":"levelo://app?vid=42d8782f-7903-4ead-a245-663a205660c4","ios":"levelo://app?vid=42d8782f-7903-4ead-a245-663a205660c4"},"vehicle_type_id":"4","last_reported":1690149957,"current_range_meters":30400,"station_id":"ce4bh692rcd13ifvqea0","pricing_plan_id":"free"},{"bike_id":"d2d8a502-61cc-4ce3-ad7f-7e1e91d5f552","system_id":"levelo_inurba_marseille","lat":43.29272,"lon":5.38443,"is_reserved":false,"is_disabled":false,"rental_uris":{"android":"levelo://app?vid=d2d8a502-61cc-4ce3-ad7f-7e1e91d5f552","ios":"levelo://app?vid=d2d8a502-61cc-4ce3-ad7f-7e1e91d5f552"},"vehicle_type_id":"4","last_reported":1690149957,"current_range_meters":24800,"station_id":"ce4bh692rcd13ifvqea0","pricing_plan_id":"free"},{"bike_id":"ac1d323a-5cb5-47d0-ac3d-9b2f5c34347d","system_id":"levelo_inurba_marseille","lat":43.29276,"lon":5.38454,"is_reserved":false,"is_disabled":false,"rental_uris":{"android":"levelo://app?vid=ac1d323a-5cb5-47d0-ac3d-9b2f5c34347d","ios":"levelo://app?vid=ac1d323a-5cb5-47d0-ac3d-9b2f5c34347d"},"vehicle_type_id":"4","last_reported":1690149957,"current_range_meters":29200,"station_id":"ce4bh692rcd13ifvqea0","pricing_plan_id":"free"},{"bike_id":"ccf68aa4-8384-4341-91e5-d039f861b1b7","system_id":"levelo_inurba_marseille","lat":43.2926,"lon":5.3842,"is_reserved":false,"is_disabled":false,"rental_uris":{"android":"levelo://app?vid=ccf68aa4-8384-4341-91e5-d039f861b1b7","ios":"levelo://app?vid=ccf68aa4-8384-4341-91e5-d039f861b1b7"},"vehicle_type_id":"4","last_reported":1690149957,"current_range_meters":22800,"station_id":"ce4bh692rcd13ifvqea0","pricing_plan_id":"free"},{"bike_id":"34b9ae82-3ee3-459a-a4f7-812e5230d4c6","system_id":"levelo_inurba_marseille","lat":43.30424,"lon":5.3974,"is_reserved":false,"is_disabled":false,"rental_uris":{"android":"levelo://app?vid=34b9ae82-3ee3-459a-a4f7-812e5230d4c6","ios":"levelo://app?vid=34b9ae82-3ee3-459a-a4f7-812e5230d4c6"},"vehicle_type_id":"4","last_reported":1690149957,"current_range_meters":22800,"station_id":"ce4bh092rcd13ifvqd20","pricing_plan_id":"free"},{"bike_id":"42f9367e-1ab7-4605-98eb-79343ea7d4d8","system_id":"levelo_inurba_marseille","lat":43.29273,"lon":5.38451,"is_reserved":false,"is_disabled":false,"rental_uris":{"android":"levelo://app?vid=42f9367e-1ab7-4605-98eb-79343ea7d4d8","ios":"levelo://app?vid=42f9367e-1ab7-4605-98eb-79343ea7d4d8"},"vehicle_type_id":"4","last_reported":1690149957,"current_range_meters":22000,"station_id":"ce4bh692rcd13ifvqea0","pricing_plan_id":"free"},{"bike_id":"3071f5ba-a1a5-460a-ab44-2e93ae209327","system_id":"levelo_inurba_marseille","lat":43.304304,"lon":5.397444,"is_reserved":false,"is_disabled":false,"rental_uris":{"android":"levelo://app?vid=3071f5ba-a1a5-460a-ab44-2e93ae209327","ios":"levelo://app?vid=3071f5ba-a1a5-460a-ab44-2e93ae209327"},"vehicle_type_id":"4","last_reported":1690149957,"current_range_meters":20400,"station_id":"","pricing_plan_id":"free"},{"bike_id":"cb0e9881-e0c0-4225-bc0a-8185accc6b8b","system_id":"levelo_inurba_marseille","lat":43.292642,"lon":5.384254,"is_reserved":false,"is_disabled":false,"rental_uris":{"android":"levelo://app?vid=cb0e9881-e0c0-4225-bc0a-8185accc6b8b","ios":"levelo://app?vid=cb0e9881-e0c0-4225-bc0a-8185accc6b8b"},"vehicle_type_id":"4","last_reported":1690149957,"current_range_meters":31200,"station_id":"ce4bh692rcd13ifvqea0","pricing_plan_id":"free"},{"bike_id":"95093000-085f-4b10-a06e-485e346db34c","system_id":"levelo_inurba_marseille","lat":43.29268,"lon":5.38443,"is_reserved":false,"is_disabled":false,"rental_uris":{"android":"levelo://app?vid=95093000-085f-4b10-a06e-485e346db34c","ios":"levelo://app?vid=95093000-085f-4b10-a06e-485e346db34c"},"vehicle_type_id":"4","last_reported":1690149957,"current_range_meters":16400,"station_id":"ce4bh692rcd13ifvqea0","pricing_plan_id":"free"},{"bike_id":"073d5c19-46cc-4486-8a58-e7521a8ce032","system_id":"levelo_inurba_marseille","lat":43.292644,"lon":5.384257,"is_reserved":false,"is_disabled":false,"rental_uris":{"android":"levelo://app?vid=073d5c19-46cc-4486-8a58-e7521a8ce032","ios":"levelo://app?vid=073d5c19-46cc-4486-8a58-e7521a8ce032"},"vehicle_type_id":"4","last_reported":1690149957,"current_range_meters":20800,"station_id":"ce4bh692rcd13ifvqea0","pricing_plan_id":"free"},{"bike_id":"4d57f3a1-2607-4888-b6c8-30610de5cc2c","system_id":"levelo_inurba_marseille","lat":43.29268,"lon":5.38444,"is_reserved":false,"is_disabled":false,"rental_uris":{"android":"levelo://app?vid=4d57f3a1-2607-4888-b6c8-30610de5cc2c","ios":"levelo://app?vid=4d57f3a1-2607-4888-b6c8-30610de5cc2c"},"vehicle_type_id":"4","last_reported":1690149957,"current_range_meters":20400,"station_id":"ce4bh692rcd13ifvqea0","pricing_plan_id":"free"},{"bike_id":"e7652385-b43c-432d-b2aa-ce8bc79ce444","system_id":"levelo_inurba_marseille","lat":43.292629,"lon":5.384332,"is_reserved":false,"is_disabled":false,"rental_uris":{"android":"levelo://app?vid=e7652385-b43c-432d-b2aa-ce8bc79ce444","ios":"levelo://app?vid=e7652385-b43c-432d-b2aa-ce8bc79ce444"},"vehicle_type_id":"4","last_reported":1690149957,"current_range_meters":400,"station_id":"ce4bh692rcd13ifvqea0","pricing_plan_id":"free"},{"bike_id":"9dc8223e-7aa0-4098-8976-4b1eb81e5139","system_id":"levelo_inurba_marseille","lat":43.292642,"lon":5.384254,"is_reserved":false,"is_disabled":false,"rental_uris":{"android":"levelo://app?vid=9dc8223e-7aa0-4098-8976-4b1eb81e5139","ios":"levelo://app?vid=9dc8223e-7aa0-4098-8976-4b1eb81e5139"},"vehicle_type_id":"4","last_reported":1690149957,"current_range_meters":30400,"station_id":"ce4bh692rcd13ifvqea0","pricing_plan_id":"free"},{"bike_id":"9151ab88-c2a6-4111-b6c6-6b1be74cb10e","system_id":"levelo_inurba_marseille","lat":43.292644,"lon":5.384257,"is_reserved":false,"is_disabled":false,"rental_uris":{"android":"levelo://app?vid=9151ab88-c2a6-4111-b6c6-6b1be74cb10e","ios":"levelo://app?vid=9151ab88-c2a6-4111-b6c6-6b1be74cb10e"},"vehicle_type_id":"4","last_reported":1690149957,"current_range_meters":31600,"station_id":"ce4bh692rcd13ifvqea0","pricing_plan_id":"free"},{"bike_id":"116402b8-6667-4133-9696-f5c26e5aec32","system_id":"levelo_inurba_marseille","lat":43.292594,"lon":5.384307,"is_reserved":false,"is_disabled":false,"rental_uris":{"android":"levelo://app?vid=116402b8-6667-4133-9696-f5c26e5aec32","ios":"levelo://app?vid=116402b8-6667-4133-9696-f5c26e5aec32"},"vehicle_type_id":"4","last_reported":1690149957,"current_range_meters":31200,"station_id":"ce4bh692rcd13ifvqea0","pricing_plan_id":"free"},{"bike_id":"c4ba4855-c0f6-4e13-9530-e6357b0ed792","system_id":"levelo_inurba_marseille","lat":43.292642,"lon":5.384254,"is_reserved":false,"is_disabled":false,"rental_uris":{"android":"levelo://app?vid=c4ba4855-c0f6-4e13-9530-e6357b0ed792","ios":"levelo://app?vid=c4ba4855-c0f6-4e13-9530-e6357b0ed792"},"vehicle_type_id":"4","last_reported":1690149957,"current_range_meters":26000,"station_id":"ce4bh692rcd13ifvqea0","pricing_plan_id":"free"},{"bike_id":"7b732603-e694-4f02-bdaa-3116951373eb","system_id":"levelo_inurba_marseille","lat":43.29267,"lon":5.38452,"is_reserved":false,"is_disabled":false,"rental_uris":{"android":"levelo://app?vid=7b732603-e694-4f02-bdaa-3116951373eb","ios":"levelo://app?vid=7b732603-e694-4f02-bdaa-3116951373eb"},"vehicle_type_id":"4","last_reported":1690149957,"current_range_meters":31600,"station_id":"ce4bh692rcd13ifvqea0","pricing_plan_id":"free"},{"bike_id":"a9fb736b-b7d6-4654-b80c-9fba74f5c9bc","system_id":"levelo_inurba_marseille","lat":43.30419,"lon":5.39747,"is_reserved":false,"is_disabled":false,"rental_uris":{"android":"levelo://app?vid=a9fb736b-b7d6-4654-b80c-9fba74f5c9bc","ios":"levelo://app?vid=a9fb736b-b7d6-4654-b80c-9fba74f5c9bc"},"vehicle_type_id":"4","last_reported":1690149957,"current_range_meters":0,"station_id":"ce4bh092rcd13ifvqd20","pricing_plan_id":"free"},{"bike_id":"5bf6bdd0-5bd2-44f9-877a-d86a7214f35d","system_id":"levelo_inurba_marseille","lat":43.29262,"lon":5.38448,"is_reserved":false,"is_disabled":false,"rental_uris":{"android":"levelo://app?vid=5bf6bdd0-5bd2-44f9-877a-d86a7214f35d","ios":"levelo://app?vid=5bf6bdd0-5bd2-44f9-877a-d86a7214f35d"},"vehicle_type_id":"4","last_reported":1690149957,"current_range_meters":30000,"station_id":"ce4bh692rcd13ifvqea0","pricing_plan_id":"free"},{"bike_id":"c8287478-39fe-4954-b7d8-7f4a2cb99dc0","system_id":"levelo_inurba_marseille","lat":43.29255,"lon":5.38435,"is_reserved":false,"is_disabled":false,"rental_uris":{"android":"levelo://app?vid=c8287478-39fe-4954-b7d8-7f4a2cb99dc0","ios":"levelo://app?vid=c8287478-39fe-4954-b7d8-7f4a2cb99dc0"},"vehicle_type_id":"4","last_reported":1690149957,"current_range_meters":19200,"station_id":"ce4bh692rcd13ifvqea0","pricing_plan_id":"free"},{"bike_id":"17d7c406-5a27-4926-8d7f-4ba7b29c21fa","system_id":"levelo_inurba_marseille","lat":43.2926,"lon":5.38446,"is_reserved":false,"is_disabled":false,"rental_uris":{"android":"levelo://app?vid=17d7c406-5a27-4926-8d7f-4ba7b29c21fa","ios":"levelo://app?vid=17d7c406-5a27-4926-8d7f-4ba7b29c21fa"},"vehicle_type_id":"4","last_reported":1690149957,"current_range_meters":31200,"station_id":"ce4bh692rcd13ifvqea0","pricing_plan_id":"free"},{"bike_id":"1d38e6f1-732b-4ffe-8ef6-42eb07346d42","system_id":"levelo_inurba_marseille","lat":43.292642,"lon":5.384254,"is_reserved":false,"is_disabled":false,"rental_uris":{"android":"levelo://app?vid=1d38e6f1-732b-4ffe-8ef6-42eb07346d42","ios":"levelo://app?vid=1d38e6f1-732b-4ffe-8ef6-42eb07346d42"},"vehicle_type_id":"4","last_reported":1690149957,"current_range_meters":31200,"station_id":"ce4bh692rcd13ifvqea0","pricing_plan_id":"free"},{"bike_id":"20610e19-c2d4-42a2-95b6-8cc141039623","system_id":"levelo_inurba_marseille","lat":43.33047,"lon":5.38916,"is_reserved":false,"is_disabled":false,"rental_uris":{"android":"levelo://app?vid=20610e19-c2d4-42a2-95b6-8cc141039623","ios":"levelo://app?vid=20610e19-c2d4-42a2-95b6-8cc141039623"},"vehicle_type_id":"4","last_reported":1690149957,"current_range_meters":18800,"station_id":"ce4bhr92rcd13ifvqhrg","pricing_plan_id":"free"},{"bike_id":"83ff2074-6033-49d0-b549-81f347235fbf","system_id":"levelo_inurba_marseille","lat":43.33049,"lon":5.38913,"is_reserved":false,"is_disabled":false,"rental_uris":{"android":"levelo://app?vid=83ff2074-6033-49d0-b549-81f347235fbf","ios":"levelo://app?vid=83ff2074-6033-49d0-b549-81f347235fbf"},"vehicle_type_id":"4","last_reported":1690149957,"current_range_meters":16400,"station_id":"ce4bhr92rcd13ifvqhrg","pricing_plan_id":"free"},{"bike_id":"0dc2abf2-befb-4a28-b945-49f2ad51625e","system_id":"levelo_inurba_marseille","lat":43.33044,"lon":5.38922,"is_reserved":false,"is_disabled":false,"rental_uris":{"android":"levelo://app?vid=0dc2abf2-befb-4a28-b945-49f2ad51625e","ios":"levelo://app?vid=0dc2abf2-befb-4a28-b945-49f2ad51625e"},"vehicle_type_id":"4","last_reported":1690149957,"current_range_meters":400,"station_id":"ce4bhr92rcd13ifvqhrg","pricing_plan_id":"free"},{"bike_id":"8f69f85a-f4df-4a69-bf73-79c870ef073c","system_id":"levelo_inurba_marseille","lat":43.33045,"lon":5.38923,"is_reserved":false,"is_disabled":false,"rental_uris":{"android":"levelo://app?vid=8f69f85a-f4df-4a69-bf73-79c870ef073c","ios":"levelo://app?vid=8f69f85a-f4df-4a69-bf73-79c870ef073c"},"vehicle_type_id":"4","last_reported":1690149957,"current_range_meters":28400,"station_id":"ce4bhr92rcd13ifvqhrg","pricing_plan_id":"free"},{"bike_id":"a33a1349-a17b-4b0a-ac19-f25fe71f0470","system_id":"levelo_inurba_marseille","lat":43.29004,"lon":5.3561,"is_reserved":false,"is_disabled":false,"rental_uris":{"android":"levelo://app?vid=a33a1349-a17b-4b0a-ac19-f25fe71f0470","ios":"levelo://app?vid=a33a1349-a17b-4b0a-ac19-f25fe71f0470"},"vehicle_type_id":"4","last_reported":1690149957,"current_range_meters":22400,"station_id":"ce4bhb92rcd13ifvqen0","pricing_plan_id":"free"},{"bike_id":"35154f91-9c03-4e46-b49e-d7f030f09546","system_id":"levelo_inurba_marseille","lat":43.290995,"lon":5.381361,"is_reserved":false,"is_disabled":false,"rental_uris":{"android":"levelo://app?vid=35154f91-9c03-4e46-b49e-d7f030f09546","ios":"levelo://app?vid=35154f91-9c03-4e46-b49e-d7f030f09546"},"vehicle_type_id":"4","last_reported":1690149957,"current_range_meters":31200,"station_id":"ce4bh512rcd13ifvqe2g","pricing_plan_id":"free"},{"bike_id":"11dc7d96-ef07-4f32-98ab-862f6ff70716","system_id":"levelo_inurba_marseille","lat":43.29791,"lon":5.39334,"is_reserved":false,"is_disabled":false,"rental_uris":{"android":"levelo://app?vid=11dc7d96-ef07-4f32-98ab-862f6ff70716","ios":"levelo://app?vid=11dc7d96-ef07-4f32-98ab-862f6ff70716"},"vehicle_type_id":"4","last_reported":1690149957,"current_range_meters":11600,"station_id":"chh1huq6cuj3fo74tm60","pricing_plan_id":"free"},{"bike_id":"5aadd040-85db-4d43-a401-374369bef071","system_id":"levelo_inurba_marseille","lat":43.2979,"lon":5.39339,"is_reserved":false,"is_disabled":false,"rental_uris":{"android":"levelo://app?vid=5aadd040-85db-4d43-a401-374369bef071","ios":"levelo://app?vid=5aadd040-85db-4d43-a401-374369bef071"},"vehicle_type_id":"4","last_reported":1690149957,"current_range_meters":0,"station_id":"chh1huq6cuj3fo74tm60","pricing_plan_id":"free"},{"bike_id":"5b7c1887-a411-40ff-bbe9-fea1a8bf59e9","system_id":"levelo_inurba_marseille","lat":43.295169,"lon":5.390426,"is_reserved":false,"is_disabled":false,"rental_uris":{"android":"levelo://app?vid=5b7c1887-a411-40ff-bbe9-fea1a8bf59e9","ios":"levelo://app?vid=5b7c1887-a411-40ff-bbe9-fea1a8bf59e9"},"vehicle_type_id":"4","last_reported":1690149957,"current_range_meters":20800,"station_id":"ce4bh3p2rcd13ifvqdp0","pricing_plan_id":"free"},{"bike_id":"37e3afe9-dc2a-4310-b242-433982babd0d","system_id":"levelo_inurba_marseille","lat":43.295169,"lon":5.390426,"is_reserved":false,"is_disabled":false,"rental_uris":{"android":"levelo://app?vid=37e3afe9-dc2a-4310-b242-433982babd0d","ios":"levelo://app?vid=37e3afe9-dc2a-4310-b242-433982babd0d"},"vehicle_type_id":"4","last_reported":1690149957,"current_range_meters":27200,"station_id":"ce4bh3p2rcd13ifvqdp0","pricing_plan_id":"free"},{"bike_id":"3ccfb01a-25d4-47f3-b066-1b4a675d49ec","system_id":"levelo_inurba_marseille","lat":43.295169,"lon":5.390426,"is_reserved":false,"is_disabled":false,"rental_uris":{"android":"levelo://app?vid=3ccfb01a-25d4-47f3-b066-1b4a675d49ec","ios":"levelo://app?vid=3ccfb01a-25d4-47f3-b066-1b4a675d49ec"},"vehicle_type_id":"4","last_reported":1690149957,"current_range_meters":14400,"station_id":"ce4bh3p2rcd13ifvqdp0","pricing_plan_id":"free"},{"bike_id":"94f40e5a-a6e3-41d4-82ea-f6133a43702e","system_id":"levelo_inurba_marseille","lat":43.295169,"lon":5.390426,"is_reserved":false,"is_disabled":false,"rental_uris":{"android":"levelo://app?vid=94f40e5a-a6e3-41d4-82ea-f6133a43702e","ios":"levelo://app?vid=94f40e5a-a6e3-41d4-82ea-f6133a43702e"},"vehicle_type_id":"4","last_reported":1690149957,"current_range_meters":8000,"station_id":"ce4bh3p2rcd13ifvqdp0","pricing_plan_id":"free"},{"bike_id":"71f29281-47b0-4243-9b7c-2db334c1ea60","system_id":"levelo_inurba_marseille","lat":43.295169,"lon":5.390426,"is_reserved":false,"is_disabled":false,"rental_uris":{"android":"levelo://app?vid=71f29281-47b0-4243-9b7c-2db334c1ea60","ios":"levelo://app?vid=71f29281-47b0-4243-9b7c-2db334c1ea60"},"vehicle_type_id":"4","last_reported":1690149957,"current_range_meters":18000,"station_id":"ce4bh3p2rcd13ifvqdp0","pricing_plan_id":"free"},{"bike_id":"8fb01400-1799-43e9-a843-140216b26f34","system_id":"levelo_inurba_marseille","lat":43.295169,"lon":5.390426,"is_reserved":false,"is_disabled":false,"rental_uris":{"android":"levelo://app?vid=8fb01400-1799-43e9-a843-140216b26f34","ios":"levelo://app?vid=8fb01400-1799-43e9-a843-140216b26f34"},"vehicle_type_id":"4","last_reported":1690149957,"current_range_meters":22800,"station_id":"ce4bh3p2rcd13ifvqdp0","pricing_plan_id":"free"},{"bike_id":"8d2ab192-b651-408e-a580-f0f3cfb296cd","system_id":"levelo_inurba_marseille","lat":43.295169,"lon":5.390426,"is_reserved":false,"is_disabled":false,"rental_uris":{"android":"levelo://app?vid=8d2ab192-b651-408e-a580-f0f3cfb296cd","ios":"levelo://app?vid=8d2ab192-b651-408e-a580-f0f3cfb296cd"},"vehicle_type_id":"4","last_reported":1690149957,"current_range_meters":27600,"station_id":"ce4bh3p2rcd13ifvqdp0","pricing_plan_id":"free"},{"bike_id":"1b591720-652d-46e8-a7ba-bf98d2ce02f8","system_id":"levelo_inurba_marseille","lat":43.289741,"lon":5.378306,"is_reserved":false,"is_disabled":false,"rental_uris":{"android":"levelo://app?vid=1b591720-652d-46e8-a7ba-bf98d2ce02f8","ios":"levelo://app?vid=1b591720-652d-46e8-a7ba-bf98d2ce02f8"},"vehicle_type_id":"4","last_reported":1690149957,"current_range_meters":4000,"station_id":"ce4bh9p2rcd13ifvqed0","pricing_plan_id":"free"},{"bike_id":"d391c83a-ec61-4760-b8d5-25dec5d6fcd5","system_id":"levelo_inurba_marseille","lat":43.29027,"lon":5.38137,"is_reserved":false,"is_disabled":false,"rental_uris":{"android":"levelo://app?vid=d391c83a-ec61-4760-b8d5-25dec5d6fcd5","ios":"levelo://app?vid=d391c83a-ec61-4760-b8d5-25dec5d6fcd5"},"vehicle_type_id":"4","last_reported":1690149957,"current_range_meters":800,"station_id":"ce4bh4p2rcd13ifvqe1g","pricing_plan_id":"free"},{"bike_id":"713a1d4f-cb2c-4e29-ade3-76aacbdeb90c","system_id":"levelo_inurba_marseille","lat":43.29025,"lon":5.38135,"is_reserved":false,"is_disabled":false,"rental_uris":{"android":"levelo://app?vid=713a1d4f-cb2c-4e29-ade3-76aacbdeb90c","ios":"levelo://app?vid=713a1d4f-cb2c-4e29-ade3-76aacbdeb90c"},"vehicle_type_id":"4","last_reported":1690149957,"current_range_meters":19600,"station_id":"ce4bh4p2rcd13ifvqe1g","pricing_plan_id":"free"},{"bike_id":"683b172f-5859-4963-8436-b7e65a0e4cc4","system_id":"levelo_inurba_marseille","lat":43.2901,"lon":5.381269,"is_reserved":false,"is_disabled":false,"rental_uris":{"android":"levelo://app?vid=683b172f-5859-4963-8436-b7e65a0e4cc4","ios":"levelo://app?vid=683b172f-5859-4963-8436-b7e65a0e4cc4"},"vehicle_type_id":"4","last_reported":1690149957,"current_range_meters":4800,"station_id":"ce4bh4p2rcd13ifvqe1g","pricing_plan_id":"free"},{"bike_id":"7552f3d5-e305-4ac4-b886-f36d51c26772","system_id":"levelo_inurba_marseille","lat":43.28856,"lon":5.358371,"is_reserved":false,"is_disabled":false,"rental_uris":{"android":"levelo://app?vid=7552f3d5-e305-4ac4-b886-f36d51c26772","ios":"levelo://app?vid=7552f3d5-e305-4ac4-b886-f36d51c26772"},"vehicle_type_id":"4","last_reported":1690149957,"current_range_meters":29600,"station_id":"ce4bhb12rcd13ifvqem0","pricing_plan_id":"free"},{"bike_id":"65961f55-ead7-4e0a-98b0-fa208ca02c83","system_id":"levelo_inurba_marseille","lat":43.28856,"lon":5.358371,"is_reserved":false,"is_disabled":false,"rental_uris":{"android":"levelo://app?vid=65961f55-ead7-4e0a-98b0-fa208ca02c83","ios":"levelo://app?vid=65961f55-ead7-4e0a-98b0-fa208ca02c83"},"vehicle_type_id":"4","last_reported":1690149957,"current_range_meters":12800,"station_id":"ce4bhb12rcd13ifvqem0","pricing_plan_id":"free"},{"bike_id":"dfd2728c-b82f-4f0a-878e-8848d1c9f0d1","system_id":"levelo_inurba_marseille","lat":43.29009,"lon":5.38132,"is_reserved":false,"is_disabled":false,"rental_uris":{"android":"levelo://app?vid=dfd2728c-b82f-4f0a-878e-8848d1c9f0d1","ios":"levelo://app?vid=dfd2728c-b82f-4f0a-878e-8848d1c9f0d1"},"vehicle_type_id":"4","last_reported":1690149957,"current_range_meters":8800,"station_id":"ce4bh4p2rcd13ifvqe1g","pricing_plan_id":"free"},{"bike_id":"a0faec8d-c96b-46fb-b8fd-27d5169f28c1","system_id":"levelo_inurba_marseille","lat":43.312773,"lon":5.401692,"is_reserved":false,"is_disabled":false,"rental_uris":{"android":"levelo://app?vid=a0faec8d-c96b-46fb-b8fd-27d5169f28c1","ios":"levelo://app?vid=a0faec8d-c96b-46fb-b8fd-27d5169f28c1"},"vehicle_type_id":"4","last_reported":1690149957,"current_range_meters":10400,"station_id":"","pricing_plan_id":"free"},{"bike_id":"9d2ba6b2-920c-47d5-9316-be74727ab0ec","system_id":"levelo_inurba_marseille","lat":43.312609,"lon":5.401662,"is_reserved":false,"is_disabled":false,"rental_uris":{"android":"levelo://app?vid=9d2ba6b2-920c-47d5-9316-be74727ab0ec","ios":"levelo://app?vid=9d2ba6b2-920c-47d5-9316-be74727ab0ec"},"vehicle_type_id":"4","last_reported":1690149957,"current_range_meters":0,"station_id":"ce4bh092rcd13ifvqd30","pricing_plan_id":"free"},{"bike_id":"fbb4027d-cc53-4789-b9d1-53b118f4dff0","system_id":"levelo_inurba_marseille","lat":43.31286,"lon":5.40172,"is_reserved":false,"is_disabled":false,"rental_uris":{"android":"levelo://app?vid=fbb4027d-cc53-4789-b9d1-53b118f4dff0","ios":"levelo://app?vid=fbb4027d-cc53-4789-b9d1-53b118f4dff0"},"vehicle_type_id":"4","last_reported":1690149957,"current_range_meters":17200,"station_id":"ce4bh092rcd13ifvqd30","pricing_plan_id":"free"},{"bike_id":"0f22c89b-76ce-4bc5-a4f2-b733e2d287c5","system_id":"levelo_inurba_marseille","lat":43.30925,"lon":5.40144,"is_reserved":false,"is_disabled":false,"rental_uris":{"android":"levelo://app?vid=0f22c89b-76ce-4bc5-a4f2-b733e2d287c5","ios":"levelo://app?vid=0f22c89b-76ce-4bc5-a4f2-b733e2d287c5"},"vehicle_type_id":"4","last_reported":1690149957,"current_range_meters":23600,"station_id":"ce4bgvp2rcd13ifvqct0","pricing_plan_id":"free"},{"bike_id":"6d67db3a-a9d7-433b-b945-9191f3afc08a","system_id":"levelo_inurba_marseille","lat":43.30931,"lon":5.40146,"is_reserved":false,"is_disabled":false,"rental_uris":{"android":"levelo://app?vid=6d67db3a-a9d7-433b-b945-9191f3afc08a","ios":"levelo://app?vid=6d67db3a-a9d7-433b-b945-9191f3afc08a"},"vehicle_type_id":"4","last_reported":1690149957,"current_range_meters":13200,"station_id":"ce4bgvp2rcd13ifvqct0","pricing_plan_id":"free"},{"bike_id":"4867b63f-1a06-4f1f-9012-e31ab4c904b7","system_id":"levelo_inurba_marseille","lat":43.30644,"lon":5.40071,"is_reserved":false,"is_disabled":false,"rental_uris":{"android":"levelo://app?vid=4867b63f-1a06-4f1f-9012-e31ab4c904b7","ios":"levelo://app?vid=4867b63f-1a06-4f1f-9012-e31ab4c904b7"},"vehicle_type_id":"4","last_reported":1690149957,"current_range_meters":2400,"station_id":"ce4bh112rcd13ifvqda0","pricing_plan_id":"free"},{"bike_id":"81f6a433-3650-4484-bf0a-f3e3562c75ed","system_id":"levelo_inurba_marseille","lat":43.30642,"lon":5.401031,"is_reserved":false,"is_disabled":false,"rental_uris":{"android":"levelo://app?vid=81f6a433-3650-4484-bf0a-f3e3562c75ed","ios":"levelo://app?vid=81f6a433-3650-4484-bf0a-f3e3562c75ed"},"vehicle_type_id":"4","last_reported":1690149957,"current_range_meters":24800,"station_id":"ce4bh112rcd13ifvqda0","pricing_plan_id":"free"},{"bike_id":"fb511930-d4e0-429d-9c00-32613454ee50","system_id":"levelo_inurba_marseille","lat":43.33761,"lon":5.37482,"is_reserved":false,"is_disabled":false,"rental_uris":{"android":"levelo://app?vid=fb511930-d4e0-429d-9c00-32613454ee50","ios":"levelo://app?vid=fb511930-d4e0-429d-9c00-32613454ee50"},"vehicle_type_id":"4","last_reported":1690149957,"current_range_meters":20400,"station_id":"","pricing_plan_id":"free"},{"bike_id":"f437dca4-380b-4e0b-af2e-9f662258a860","system_id":"levelo_inurba_marseille","lat":43.33765,"lon":5.37478,"is_reserved":false,"is_disabled":false,"rental_uris":{"android":"levelo://app?vid=f437dca4-380b-4e0b-af2e-9f662258a860","ios":"levelo://app?vid=f437dca4-380b-4e0b-af2e-9f662258a860"},"vehicle_type_id":"4","last_reported":1690149957,"current_range_meters":25600,"station_id":"","pricing_plan_id":"free"},{"bike_id":"bd66e17b-f432-4384-8c39-0e7f663dbfd6","system_id":"levelo_inurba_marseille","lat":43.33781,"lon":5.3743,"is_reserved":false,"is_disabled":false,"rental_uris":{"android":"levelo://app?vid=bd66e17b-f432-4384-8c39-0e7f663dbfd6","ios":"levelo://app?vid=bd66e17b-f432-4384-8c39-0e7f663dbfd6"},"vehicle_type_id":"4","last_reported":1690149957,"current_range_meters":26000,"station_id":"","pricing_plan_id":"free"},{"bike_id":"c8084d20-8ef8-49bf-bf5b-a0a61fbdaa5e","system_id":"levelo_inurba_marseille","lat":43.298681,"lon":5.397225,"is_reserved":false,"is_disabled":false,"rental_uris":{"android":"levelo://app?vid=c8084d20-8ef8-49bf-bf5b-a0a61fbdaa5e","ios":"levelo://app?vid=c8084d20-8ef8-49bf-bf5b-a0a61fbdaa5e"},"vehicle_type_id":"4","last_reported":1690149957,"current_range_meters":23600,"station_id":"ce4bh0h2rcd13ifvqd50","pricing_plan_id":"free"},{"bike_id":"a44fb390-7b2e-47f9-b992-32bc4d1542f9","system_id":"levelo_inurba_marseille","lat":43.286961,"lon":5.373785,"is_reserved":false,"is_disabled":false,"rental_uris":{"android":"levelo://app?vid=a44fb390-7b2e-47f9-b992-32bc4d1542f9","ios":"levelo://app?vid=a44fb390-7b2e-47f9-b992-32bc4d1542f9"},"vehicle_type_id":"4","last_reported":1690149957,"current_range_meters":24400,"station_id":"ce4bh3p2rcd13ifvqdq0","pricing_plan_id":"free"},{"bike_id":"3329023b-72aa-4672-ae0a-e2aa12a43a23","system_id":"levelo_inurba_marseille","lat":43.286961,"lon":5.373785,"is_reserved":false,"is_disabled":false,"rental_uris":{"android":"levelo://app?vid=3329023b-72aa-4672-ae0a-e2aa12a43a23","ios":"levelo://app?vid=3329023b-72aa-4672-ae0a-e2aa12a43a23"},"vehicle_type_id":"4","last_reported":1690149957,"current_range_meters":31200,"station_id":"ce4bh3p2rcd13ifvqdq0","pricing_plan_id":"free"},{"bike_id":"4b646dd7-7cd3-4e48-8b8b-9728229f998c","system_id":"levelo_inurba_marseille","lat":43.286961,"lon":5.373785,"is_reserved":false,"is_disabled":false,"rental_uris":{"android":"levelo://app?vid=4b646dd7-7cd3-4e48-8b8b-9728229f998c","ios":"levelo://app?vid=4b646dd7-7cd3-4e48-8b8b-9728229f998c"},"vehicle_type_id":"4","last_reported":1690149957,"current_range_meters":31200,"station_id":"ce4bh3p2rcd13ifvqdq0","pricing_plan_id":"free"},{"bike_id":"b59f3cc3-63ce-4e4c-ab11-39c58184a7fd","system_id":"levelo_inurba_marseille","lat":43.287086,"lon":5.373872,"is_reserved":false,"is_disabled":false,"rental_uris":{"android":"levelo://app?vid=b59f3cc3-63ce-4e4c-ab11-39c58184a7fd","ios":"levelo://app?vid=b59f3cc3-63ce-4e4c-ab11-39c58184a7fd"},"vehicle_type_id":"4","last_reported":1690149957,"current_range_meters":31200,"station_id":"ce4bh3p2rcd13ifvqdq0","pricing_plan_id":"free"},{"bike_id":"c0ef2fa4-2dde-45cc-98a4-ec837243d47c","system_id":"levelo_inurba_marseille","lat":43.286961,"lon":5.373785,"is_reserved":false,"is_disabled":false,"rental_uris":{"android":"levelo://app?vid=c0ef2fa4-2dde-45cc-98a4-ec837243d47c","ios":"levelo://app?vid=c0ef2fa4-2dde-45cc-98a4-ec837243d47c"},"vehicle_type_id":"4","last_reported":1690149957,"current_range_meters":31200,"station_id":"ce4bh3p2rcd13ifvqdq0","pricing_plan_id":"free"},{"bike_id":"a890602d-3e3e-4b95-aee9-0b224adaf176","system_id":"levelo_inurba_marseille","lat":43.286961,"lon":5.373785,"is_reserved":false,"is_disabled":false,"rental_uris":{"android":"levelo://app?vid=a890602d-3e3e-4b95-aee9-0b224adaf176","ios":"levelo://app?vid=a890602d-3e3e-4b95-aee9-0b224adaf176"},"vehicle_type_id":"4","last_reported":1690149957,"current_range_meters":22000,"station_id":"ce4bh3p2rcd13ifvqdq0","pricing_plan_id":"free"},{"bike_id":"8b78a3e5-69cd-4678-b1bb-ecfe641e38d5","system_id":"levelo_inurba_marseille","lat":43.286961,"lon":5.373785,"is_reserved":false,"is_disabled":false,"rental_uris":{"android":"levelo://app?vid=8b78a3e5-69cd-4678-b1bb-ecfe641e38d5","ios":"levelo://app?vid=8b78a3e5-69cd-4678-b1bb-ecfe641e38d5"},"vehicle_type_id":"4","last_reported":1690149957,"current_range_meters":26800,"station_id":"ce4bh3p2rcd13ifvqdq0","pricing_plan_id":"free"},{"bike_id":"1bff84b8-a014-49a6-9d1f-a77c4e4b4147","system_id":"levelo_inurba_marseille","lat":43.28709,"lon":5.37398,"is_reserved":false,"is_disabled":false,"rental_uris":{"android":"levelo://app?vid=1bff84b8-a014-49a6-9d1f-a77c4e4b4147","ios":"levelo://app?vid=1bff84b8-a014-49a6-9d1f-a77c4e4b4147"},"vehicle_type_id":"4","last_reported":1690149957,"current_range_meters":26000,"station_id":"ce4bh3p2rcd13ifvqdq0","pricing_plan_id":"free"},{"bike_id":"16d95ea6-df51-41ce-9ac1-b08637ac0abb","system_id":"levelo_inurba_marseille","lat":43.28669,"lon":5.36354,"is_reserved":false,"is_disabled":false,"rental_uris":{"android":"levelo://app?vid=16d95ea6-df51-41ce-9ac1-b08637ac0abb","ios":"levelo://app?vid=16d95ea6-df51-41ce-9ac1-b08637ac0abb"},"vehicle_type_id":"4","last_reported":1690149957,"current_range_meters":9200,"station_id":"ce4bhah2rcd13ifvqej0","pricing_plan_id":"free"},{"bike_id":"b9e340bd-54fe-4621-b537-b72c77d65559","system_id":"levelo_inurba_marseille","lat":43.2987,"lon":5.39731,"is_reserved":false,"is_disabled":false,"rental_uris":{"android":"levelo://app?vid=b9e340bd-54fe-4621-b537-b72c77d65559","ios":"levelo://app?vid=b9e340bd-54fe-4621-b537-b72c77d65559"},"vehicle_type_id":"4","last_reported":1690149957,"current_range_meters":5600,"station_id":"ce4bh0h2rcd13ifvqd50","pricing_plan_id":"free"},{"bike_id":"2ecd97ee-b54c-4301-816f-82241b66f38c","system_id":"levelo_inurba_marseille","lat":43.298681,"lon":5.397225,"is_reserved":false,"is_disabled":false,"rental_uris":{"android":"levelo://app?vid=2ecd97ee-b54c-4301-816f-82241b66f38c","ios":"levelo://app?vid=2ecd97ee-b54c-4301-816f-82241b66f38c"},"vehicle_type_id":"4","last_reported":1690149957,"current_range_meters":29200,"station_id":"ce4bh0h2rcd13ifvqd50","pricing_plan_id":"free"},{"bike_id":"afb59fb5-f9bb-4ab2-9432-41b917c813e2","system_id":"levelo_inurba_marseille","lat":43.286591,"lon":5.363346,"is_reserved":false,"is_disabled":false,"rental_uris":{"android":"levelo://app?vid=afb59fb5-f9bb-4ab2-9432-41b917c813e2","ios":"levelo://app?vid=afb59fb5-f9bb-4ab2-9432-41b917c813e2"},"vehicle_type_id":"4","last_reported":1690149957,"current_range_meters":3600,"station_id":"ce4bhah2rcd13ifvqej0","pricing_plan_id":"free"},{"bike_id":"af1f6051-ece0-4a07-aca9-78928fd0b6b7","system_id":"levelo_inurba_marseille","lat":43.286591,"lon":5.363346,"is_reserved":false,"is_disabled":false,"rental_uris":{"android":"levelo://app?vid=af1f6051-ece0-4a07-aca9-78928fd0b6b7","ios":"levelo://app?vid=af1f6051-ece0-4a07-aca9-78928fd0b6b7"},"vehicle_type_id":"4","last_reported":1690149957,"current_range_meters":0,"station_id":"ce4bhah2rcd13ifvqej0","pricing_plan_id":"free"},{"bike_id":"a19c9070-74e6-4944-a527-8f05b7db2709","system_id":"levelo_inurba_marseille","lat":43.286961,"lon":5.373785,"is_reserved":false,"is_disabled":false,"rental_uris":{"android":"levelo://app?vid=a19c9070-74e6-4944-a527-8f05b7db2709","ios":"levelo://app?vid=a19c9070-74e6-4944-a527-8f05b7db2709"},"vehicle_type_id":"4","last_reported":1690149957,"current_range_meters":29200,"station_id":"ce4bh3p2rcd13ifvqdq0","pricing_plan_id":"free"},{"bike_id":"10026be1-c086-4b36-b285-0e2e8e4f2c13","system_id":"levelo_inurba_marseille","lat":43.286591,"lon":5.363346,"is_reserved":false,"is_disabled":false,"rental_uris":{"android":"levelo://app?vid=10026be1-c086-4b36-b285-0e2e8e4f2c13","ios":"levelo://app?vid=10026be1-c086-4b36-b285-0e2e8e4f2c13"},"vehicle_type_id":"4","last_reported":1690149957,"current_range_meters":23600,"station_id":"ce4bhah2rcd13ifvqej0","pricing_plan_id":"free"},{"bike_id":"54fdd39d-758c-4e25-8c33-c4a98d3d79e3","system_id":"levelo_inurba_marseille","lat":43.286593,"lon":5.363346,"is_reserved":false,"is_disabled":false,"rental_uris":{"android":"levelo://app?vid=54fdd39d-758c-4e25-8c33-c4a98d3d79e3","ios":"levelo://app?vid=54fdd39d-758c-4e25-8c33-c4a98d3d79e3"},"vehicle_type_id":"4","last_reported":1690149957,"current_range_meters":30800,"station_id":"ce4bhah2rcd13ifvqej0","pricing_plan_id":"free"},{"bike_id":"040cd3ab-2135-422c-a40e-5a957a3935dd","system_id":"levelo_inurba_marseille","lat":43.286591,"lon":5.363346,"is_reserved":false,"is_disabled":false,"rental_uris":{"android":"levelo://app?vid=040cd3ab-2135-422c-a40e-5a957a3935dd","ios":"levelo://app?vid=040cd3ab-2135-422c-a40e-5a957a3935dd"},"vehicle_type_id":"4","last_reported":1690149957,"current_range_meters":8400,"station_id":"ce4bhah2rcd13ifvqej0","pricing_plan_id":"free"},{"bike_id":"1518e1ad-cfc8-4c07-a7f6-8526b9ccd420","system_id":"levelo_inurba_marseille","lat":43.298681,"lon":5.397225,"is_reserved":false,"is_disabled":false,"rental_uris":{"android":"levelo://app?vid=1518e1ad-cfc8-4c07-a7f6-8526b9ccd420","ios":"levelo://app?vid=1518e1ad-cfc8-4c07-a7f6-8526b9ccd420"},"vehicle_type_id":"4","last_reported":1690149957,"current_range_meters":0,"station_id":"ce4bh0h2rcd13ifvqd50","pricing_plan_id":"free"},{"bike_id":"a5018485-e660-4992-87a8-2da1cb13cb31","system_id":"levelo_inurba_marseille","lat":43.298681,"lon":5.397225,"is_reserved":false,"is_disabled":false,"rental_uris":{"android":"levelo://app?vid=a5018485-e660-4992-87a8-2da1cb13cb31","ios":"levelo://app?vid=a5018485-e660-4992-87a8-2da1cb13cb31"},"vehicle_type_id":"4","last_reported":1690149957,"current_range_meters":31600,"station_id":"ce4bh0h2rcd13ifvqd50","pricing_plan_id":"free"},{"bike_id":"106e151b-2ad5-4f40-a238-6f6b98d3ed39","system_id":"levelo_inurba_marseille","lat":43.295196,"lon":5.39397,"is_reserved":false,"is_disabled":false,"rental_uris":{"android":"levelo://app?vid=106e151b-2ad5-4f40-a238-6f6b98d3ed39","ios":"levelo://app?vid=106e151b-2ad5-4f40-a238-6f6b98d3ed39"},"vehicle_type_id":"4","last_reported":1690149957,"current_range_meters":15600,"station_id":"ce4bh292rcd13ifvqdf0","pricing_plan_id":"free"},{"bike_id":"1e4dd615-56d5-4946-98a0-650266563dc5","system_id":"levelo_inurba_marseille","lat":43.29525,"lon":5.39405,"is_reserved":false,"is_disabled":false,"rental_uris":{"android":"levelo://app?vid=1e4dd615-56d5-4946-98a0-650266563dc5","ios":"levelo://app?vid=1e4dd615-56d5-4946-98a0-650266563dc5"},"vehicle_type_id":"4","last_reported":1690149957,"current_range_meters":1600,"station_id":"ce4bh292rcd13ifvqdf0","pricing_plan_id":"free"},{"bike_id":"1ce01036-33ab-40b8-b9be-9a14905c93a1","system_id":"levelo_inurba_marseille","lat":43.29519,"lon":5.39403,"is_reserved":false,"is_disabled":false,"rental_uris":{"android":"levelo://app?vid=1ce01036-33ab-40b8-b9be-9a14905c93a1","ios":"levelo://app?vid=1ce01036-33ab-40b8-b9be-9a14905c93a1"},"vehicle_type_id":"4","last_reported":1690149957,"current_range_meters":29200,"station_id":"ce4bh292rcd13ifvqdf0","pricing_plan_id":"free"},{"bike_id":"50adeb39-909b-40ac-a589-60d316933250","system_id":"levelo_inurba_marseille","lat":43.29519,"lon":5.39403,"is_reserved":false,"is_disabled":false,"rental_uris":{"android":"levelo://app?vid=50adeb39-909b-40ac-a589-60d316933250","ios":"levelo://app?vid=50adeb39-909b-40ac-a589-60d316933250"},"vehicle_type_id":"4","last_reported":1690149957,"current_range_meters":15600,"station_id":"ce4bh292rcd13ifvqdf0","pricing_plan_id":"free"},{"bike_id":"97a14e4b-5082-4328-b3b3-aa2312cf53a8","system_id":"levelo_inurba_marseille","lat":43.29515,"lon":5.39399,"is_reserved":false,"is_disabled":false,"rental_uris":{"android":"levelo://app?vid=97a14e4b-5082-4328-b3b3-aa2312cf53a8","ios":"levelo://app?vid=97a14e4b-5082-4328-b3b3-aa2312cf53a8"},"vehicle_type_id":"4","last_reported":1690149957,"current_range_meters":3200,"station_id":"ce4bh292rcd13ifvqdf0","pricing_plan_id":"free"},{"bike_id":"ce3ad051-6c4c-4ddb-ae29-fe8984d1d284","system_id":"levelo_inurba_marseille","lat":43.29026,"lon":5.3862,"is_reserved":false,"is_disabled":false,"rental_uris":{"android":"levelo://app?vid=ce3ad051-6c4c-4ddb-ae29-fe8984d1d284","ios":"levelo://app?vid=ce3ad051-6c4c-4ddb-ae29-fe8984d1d284"},"vehicle_type_id":"4","last_reported":1690149957,"current_range_meters":24000,"station_id":"ce4bh4p2rcd13ifvqe0g","pricing_plan_id":"free"},{"bike_id":"f7b64da0-c2be-4b34-87b2-5aadc359e970","system_id":"levelo_inurba_marseille","lat":43.290345,"lon":5.38646,"is_reserved":false,"is_disabled":false,"rental_uris":{"android":"levelo://app?vid=f7b64da0-c2be-4b34-87b2-5aadc359e970","ios":"levelo://app?vid=f7b64da0-c2be-4b34-87b2-5aadc359e970"},"vehicle_type_id":"4","last_reported":1690149957,"current_range_meters":31200,"station_id":"ce4bh4p2rcd13ifvqe0g","pricing_plan_id":"free"},{"bike_id":"fa6ed019-264d-4c16-9784-99843c84ab6e","system_id":"levelo_inurba_marseille","lat":43.2903,"lon":5.38636,"is_reserved":false,"is_disabled":false,"rental_uris":{"android":"levelo://app?vid=fa6ed019-264d-4c16-9784-99843c84ab6e","ios":"levelo://app?vid=fa6ed019-264d-4c16-9784-99843c84ab6e"},"vehicle_type_id":"4","last_reported":1690149957,"current_range_meters":0,"station_id":"ce4bh4p2rcd13ifvqe0g","pricing_plan_id":"free"},{"bike_id":"77dbdcfa-5a18-4593-9dd8-6a13d69b8c71","system_id":"levelo_inurba_marseille","lat":43.290345,"lon":5.38646,"is_reserved":false,"is_disabled":false,"rental_uris":{"android":"levelo://app?vid=77dbdcfa-5a18-4593-9dd8-6a13d69b8c71","ios":"levelo://app?vid=77dbdcfa-5a18-4593-9dd8-6a13d69b8c71"},"vehicle_type_id":"4","last_reported":1690149957,"current_range_meters":23200,"station_id":"ce4bh4p2rcd13ifvqe0g","pricing_plan_id":"free"},{"bike_id":"3f17112a-282f-4afb-b1ab-769da419e813","system_id":"levelo_inurba_marseille","lat":43.2903,"lon":5.38638,"is_reserved":false,"is_disabled":false,"rental_uris":{"android":"levelo://app?vid=3f17112a-282f-4afb-b1ab-769da419e813","ios":"levelo://app?vid=3f17112a-282f-4afb-b1ab-769da419e813"},"vehicle_type_id":"4","last_reported":1690149957,"current_range_meters":1200,"station_id":"ce4bh4p2rcd13ifvqe0g","pricing_plan_id":"free"},{"bike_id":"7249d053-12f3-49bf-a4e0-334df70de22f","system_id":"levelo_inurba_marseille","lat":43.29031,"lon":5.38641,"is_reserved":false,"is_disabled":false,"rental_uris":{"android":"levelo://app?vid=7249d053-12f3-49bf-a4e0-334df70de22f","ios":"levelo://app?vid=7249d053-12f3-49bf-a4e0-334df70de22f"},"vehicle_type_id":"4","last_reported":1690149957,"current_range_meters":26400,"station_id":"ce4bh4p2rcd13ifvqe0g","pricing_plan_id":"free"},{"bike_id":"add6dc9c-b2db-4e80-a1e4-a7ed3b29683b","system_id":"levelo_inurba_marseille","lat":43.302585,"lon":5.400617,"is_reserved":false,"is_disabled":false,"rental_uris":{"android":"levelo://app?vid=add6dc9c-b2db-4e80-a1e4-a7ed3b29683b","ios":"levelo://app?vid=add6dc9c-b2db-4e80-a1e4-a7ed3b29683b"},"vehicle_type_id":"4","last_reported":1690149957,"current_range_meters":12800,"station_id":"ce4bgvh2rcd13ifvqcs0","pricing_plan_id":"free"},{"bike_id":"d9bea01a-3b1a-4e4a-a188-49c3d7bba022","system_id":"levelo_inurba_marseille","lat":43.29028,"lon":5.38635,"is_reserved":false,"is_disabled":false,"rental_uris":{"android":"levelo://app?vid=d9bea01a-3b1a-4e4a-a188-49c3d7bba022","ios":"levelo://app?vid=d9bea01a-3b1a-4e4a-a188-49c3d7bba022"},"vehicle_type_id":"4","last_reported":1690149957,"current_range_meters":20400,"station_id":"ce4bh4p2rcd13ifvqe0g","pricing_plan_id":"free"},{"bike_id":"7a2addaa-e7c6-4222-b9fa-9ec6b7ddd1f1","system_id":"levelo_inurba_marseille","lat":43.290336,"lon":5.386425,"is_reserved":false,"is_disabled":false,"rental_uris":{"android":"levelo://app?vid=7a2addaa-e7c6-4222-b9fa-9ec6b7ddd1f1","ios":"levelo://app?vid=7a2addaa-e7c6-4222-b9fa-9ec6b7ddd1f1"},"vehicle_type_id":"4","last_reported":1690149957,"current_range_meters":3600,"station_id":"ce4bh4p2rcd13ifvqe0g","pricing_plan_id":"free"},{"bike_id":"eccfab34-1a30-41e5-ab12-1fb8a769fbfb","system_id":"levelo_inurba_marseille","lat":43.30251,"lon":5.40063,"is_reserved":false,"is_disabled":false,"rental_uris":{"android":"levelo://app?vid=eccfab34-1a30-41e5-ab12-1fb8a769fbfb","ios":"levelo://app?vid=eccfab34-1a30-41e5-ab12-1fb8a769fbfb"},"vehicle_type_id":"4","last_reported":1690149957,"current_range_meters":28800,"station_id":"ce4bgvh2rcd13ifvqcs0","pricing_plan_id":"free"},{"bike_id":"9e54c921-7d93-459f-9f2e-84aa2e500209","system_id":"levelo_inurba_marseille","lat":43.302759,"lon":5.400793,"is_reserved":false,"is_disabled":false,"rental_uris":{"android":"levelo://app?vid=9e54c921-7d93-459f-9f2e-84aa2e500209","ios":"levelo://app?vid=9e54c921-7d93-459f-9f2e-84aa2e500209"},"vehicle_type_id":"4","last_reported":1690149957,"current_range_meters":13200,"station_id":"ce4bgvh2rcd13ifvqcs0","pricing_plan_id":"free"},{"bike_id":"94f63bb0-0dc6-4ab6-8bf7-c243788270e6","system_id":"levelo_inurba_marseille","lat":43.2902,"lon":5.38641,"is_reserved":false,"is_disabled":false,"rental_uris":{"android":"levelo://app?vid=94f63bb0-0dc6-4ab6-8bf7-c243788270e6","ios":"levelo://app?vid=94f63bb0-0dc6-4ab6-8bf7-c243788270e6"},"vehicle_type_id":"4","last_reported":1690149957,"current_range_meters":14800,"station_id":"ce4bh4p2rcd13ifvqe0g","pricing_plan_id":"free"},{"bike_id":"cc1cd85c-38e7-446f-a574-df195cf2d017","system_id":"levelo_inurba_marseille","lat":43.290336,"lon":5.386425,"is_reserved":false,"is_disabled":false,"rental_uris":{"android":"levelo://app?vid=cc1cd85c-38e7-446f-a574-df195cf2d017","ios":"levelo://app?vid=cc1cd85c-38e7-446f-a574-df195cf2d017"},"vehicle_type_id":"4","last_reported":1690149957,"current_range_meters":0,"station_id":"ce4bh4p2rcd13ifvqe0g","pricing_plan_id":"free"},{"bike_id":"d9575263-7ebd-4ecb-8aa2-aeed3552f664","system_id":"levelo_inurba_marseille","lat":43.286039,"lon":5.370679,"is_reserved":false,"is_disabled":false,"rental_uris":{"android":"levelo://app?vid=d9575263-7ebd-4ecb-8aa2-aeed3552f664","ios":"levelo://app?vid=d9575263-7ebd-4ecb-8aa2-aeed3552f664"},"vehicle_type_id":"4","last_reported":1690149957,"current_range_meters":30800,"station_id":"ce4bht12rcd13ifvqi60","pricing_plan_id":"free"},{"bike_id":"caf572d7-f72e-4bee-a82b-932b7a4727fa","system_id":"levelo_inurba_marseille","lat":43.287184,"lon":5.37937,"is_reserved":false,"is_disabled":false,"rental_uris":{"android":"levelo://app?vid=caf572d7-f72e-4bee-a82b-932b7a4727fa","ios":"levelo://app?vid=caf572d7-f72e-4bee-a82b-932b7a4727fa"},"vehicle_type_id":"4","last_reported":1690149957,"current_range_meters":21200,"station_id":"ce4bh9p2rcd13ifvqec0","pricing_plan_id":"free"},{"bike_id":"45fd554b-6b58-4eb1-9d83-b3d4b105c1b6","system_id":"levelo_inurba_marseille","lat":43.28725,"lon":5.37929,"is_reserved":false,"is_disabled":false,"rental_uris":{"android":"levelo://app?vid=45fd554b-6b58-4eb1-9d83-b3d4b105c1b6","ios":"levelo://app?vid=45fd554b-6b58-4eb1-9d83-b3d4b105c1b6"},"vehicle_type_id":"4","last_reported":1690149957,"current_range_meters":31600,"station_id":"ce4bh9p2rcd13ifvqec0","pricing_plan_id":"free"},{"bike_id":"2e7ee303-1735-4a64-aeaa-09f1cc6a1089","system_id":"levelo_inurba_marseille","lat":43.287184,"lon":5.37937,"is_reserved":false,"is_disabled":false,"rental_uris":{"android":"levelo://app?vid=2e7ee303-1735-4a64-aeaa-09f1cc6a1089","ios":"levelo://app?vid=2e7ee303-1735-4a64-aeaa-09f1cc6a1089"},"vehicle_type_id":"4","last_reported":1690149957,"current_range_meters":31200,"station_id":"ce4bh9p2rcd13ifvqec0","pricing_plan_id":"free"},{"bike_id":"a58c91f0-7a0c-41db-ae02-4ac7c57eed24","system_id":"levelo_inurba_marseille","lat":43.287184,"lon":5.37937,"is_reserved":false,"is_disabled":false,"rental_uris":{"android":"levelo://app?vid=a58c91f0-7a0c-41db-ae02-4ac7c57eed24","ios":"levelo://app?vid=a58c91f0-7a0c-41db-ae02-4ac7c57eed24"},"vehicle_type_id":"4","last_reported":1690149957,"current_range_meters":27600,"station_id":"ce4bh9p2rcd13ifvqec0","pricing_plan_id":"free"},{"bike_id":"0ffc816c-10d6-4dde-bbfe-f4c70761fd4e","system_id":"levelo_inurba_marseille","lat":43.28726,"lon":5.37944,"is_reserved":false,"is_disabled":false,"rental_uris":{"android":"levelo://app?vid=0ffc816c-10d6-4dde-bbfe-f4c70761fd4e","ios":"levelo://app?vid=0ffc816c-10d6-4dde-bbfe-f4c70761fd4e"},"vehicle_type_id":"4","last_reported":1690149957,"current_range_meters":18000,"station_id":"ce4bh9p2rcd13ifvqec0","pricing_plan_id":"free"},{"bike_id":"bf8ab8f1-a443-495a-86f3-08ccd75fba36","system_id":"levelo_inurba_marseille","lat":43.287184,"lon":5.37937,"is_reserved":false,"is_disabled":false,"rental_uris":{"android":"levelo://app?vid=bf8ab8f1-a443-495a-86f3-08ccd75fba36","ios":"levelo://app?vid=bf8ab8f1-a443-495a-86f3-08ccd75fba36"},"vehicle_type_id":"4","last_reported":1690149957,"current_range_meters":25600,"station_id":"ce4bh9p2rcd13ifvqec0","pricing_plan_id":"free"},