{"last_updated":1745933167,"ttl":60,"version":"2.2","data":{"bikes":[{"bike_id":"2984873f-bec6-455b-8179-26a0ecc92cc9","system_id":"levelo_inurba_marseille","lat":43.30886,"lon":5.39651,"is_reserved":false,"is_disabled":false,"rental_uris":{"android":"levelo://app?vid=2984873f-bec6-455b-8179-26a0ecc92cc9","ios":"levelo://app?vid=2984873f-bec6-455b-8179-26a0ecc92cc9"},"vehicle_type_id":"4","last_reported":1745933168,"current_range_meters":2000,"station_id":"ce4bh012rcd13ifvqcv0","pricing_plan_id":"cebpf4jnsgd1na2vs0mg"},{"bike_id":"456e5613-211b-4854-8c60-467489bd6170","system_id":"levelo_inurba_marseille","lat":43.28703,"lon":5.39987,"is_reserved":false,"is_disabled":false,"rental_uris":{"android":"levelo://app?vid=456e5613-211b-4854-8c60-467489bd6170","ios":"levelo://app?vid=456e5613-211b-4854-8c60-467489bd6170"},"vehicle_type_id":"4","last_reported":1745933168,"current_range_meters":2800,"station_id":"ce4bho92rcd13ifvqh3g","pricing_plan_id":"cebpf4jnsgd1na2vs0mg"},{"bike_id":"be66160f-a07e-4110-a958-667ea0c6796a","system_id":"levelo_inurba_marseille","lat":43.27501,"lon":5.42446,"is_reserved":false,"is_disabled":false,"rental_uris":{"android":"levelo://app?vid=be66160f-a07e-4110-a958-667ea0c6796a","ios":"levelo://app?vid=be66160f-a07e-4110-a958-667ea0c6796a"},"vehicle_type_id":"4","last_reported":1745933168,"current_range_meters":2800,"station_id":"ce4bhn92rcd13ifvqgrg","pricing_plan_id":"cebpf4jnsgd1na2vs0mg"},{"bike_id":"d927d6d2-9671-45c3-978e-15e2a8d897e8","system_id":"levelo_inurba_marseille","lat":43.325403,"lon":5.414335,"is_reserved":false,"is_disabled":false,"rental_uris":{"android":"levelo://app?vid=d927d6d2-9671-45c3-978e-15e2a8d897e8","ios":"levelo://app?vid=d927d6d2-9671-45c3-978e-15e2a8d897e8"},"vehicle_type_id":"4","last_reported":1745933168,"current_range_meters":3200,"station_id":"ce4bhq12rcd13ifvqhhg","pricing_plan_id":"cebpf4jnsgd1na2vs0mg"},{"bike_id":"a95948fe-25e5-4f1b-a500-cdb7b3a351bf","system_id":"levelo_inurba_marseille","lat":43.284095,"lon":5.375105,"is_reserved":false,"is_disabled":false,"rental_uris":{"android":"levelo://app?vid=a95948fe-25e5-4f1b-a500-cdb7b3a351bf","ios":"levelo://app?vid=a95948fe-25e5-4f1b-a500-cdb7b3a351bf"},"vehicle_type_id":"4","last_reported":1745933168,"current_range_meters":3200,"station_id":"ce4bh412rcd13ifvqds0","pricing_plan_id":"cebpf4jnsgd1na2vs0mg"},{"bike_id":"b87eb737-b728-4806-b0c7-1775c950fed7","system_id":"levelo_inurba_marseille","lat":43.24663,"lon":5.38164,"is_reserved":false,"is_disabled":false,"rental_uris":{"android":"levelo://app?vid=b87eb737-b728-4806-b0c7-1775c950fed7","ios":"levelo://app?vid=b87eb737-b728-4806-b0c7-1775c950fed7"},"vehicle_type_id":"4","last_reported":1745933168,"current_range_meters":3600,"station_id":"ce4bhih2rcd13ifvqfr0","pricing_plan_id":"cebpf4jnsgd1na2vs0mg"},{"bike_id":"eb318a7a-8673-4d45-9d20-acac4dbf902d","system_id":"levelo_inurba_marseille","lat":43.3112,"lon":5.37761,"is_reserved":false,"is_disabled":false,"rental_uris":{"android":"levelo://app?vid=eb318a7a-8673-4d45-9d20-acac4dbf902d","ios":"levelo://app?vid=eb318a7a-8673-4d45-9d20-acac4dbf902d"},"vehicle_type_id":"4","last_reported":1745933168,"current_range_meters":3600,"station_id":"ce4bgt92rcd13ifvqcg0","pricing_plan_id":"cebpf4jnsgd1na2vs0mg"},{"bike_id":"a4c8a335-745b-4d95-97e0-7bac3cb18549","system_id":"levelo_inurba_marseille","lat":43.28108,"lon":5.39856,"is_reserved":false,"is_disabled":false,"rental_uris":{"android":"levelo://app?vid=a4c8a335-745b-4d95-97e0-7bac3cb18549","ios":"levelo://app?vid=a4c8a335-745b-4d95-97e0-7bac3cb18549"},"vehicle_type_id":"4","last_reported":1745933168,"current_range_meters":3600,"station_id":"","pricing_plan_id":"cebpf4jnsgd1na2vs0mg"},{"bike_id":"473e97ab-61b2-4b67-a45d-5e7f231867ae","system_id":"levelo_inurba_marseille","lat":43.3153,"lon":5.38041,"is_reserved":false,"is_disabled":false,"rental_uris":{"android":"levelo://app?vid=473e97ab-61b2-4b67-a45d-5e7f231867ae","ios":"levelo://app?vid=473e97ab-61b2-4b67-a45d-5e7f231867ae"},"vehicle_type_id":"4","last_reported":1745933168,"current_range_meters":3600,"station_id":"ce4bhsp2rcd13ifvqi50","pricing_plan_id":"cebpf4jnsgd1na2vs0mg"},{"bike_id":"86ab0af3-b351-49ab-bbe5-c9a7ac141512","system_id":"levelo_inurba_marseille","lat":43.3255,"lon":5.41438,"is_reserved":false,"is_disabled":false,"rental_uris":{"android":"levelo://app?vid=86ab0af3-b351-49ab-bbe5-c9a7ac141512","ios":"levelo://app?vid=86ab0af3-b351-49ab-bbe5-c9a7ac141512"},"vehicle_type_id":"4","last_reported":1745933168,"current_range_meters":4000,"station_id":"ce4bhq12rcd13ifvqhhg","pricing_plan_id":"cebpf4jnsgd1na2vs0mg"},{"bike_id":"4be13b73-a96a-484e-b6c3-49c968e45353","system_id":"levelo_inurba_marseille","lat":43.29276,"lon":5.38445,"is_reserved":false,"is_disabled":false,"rental_uris":{"android":"levelo://app?vid=4be13b73-a96a-484e-b6c3-49c968e45353","ios":"levelo://app?vid=4be13b73-a96a-484e-b6c3-49c968e45353"},"vehicle_type_id":"4","last_reported":1745933168,"current_range_meters":4000,"station_id":"ce4bh692rcd13ifvqea0","pricing_plan_id":"cebpf4jnsgd1na2vs0mg"},{"bike_id":"a1ad0b11-fe5c-47fe-adf9-07fef8e45298","system_id":"levelo_inurba_marseille","lat":43.27619,"lon":5.36119,"is_reserved":false,"is_disabled":false,"rental_uris":{"android":"levelo://app?vid=a1ad0b11-fe5c-47fe-adf9-07fef8e45298","ios":"levelo://app?vid=a1ad0b11-fe5c-47fe-adf9-07fef8e45298"},"vehicle_type_id":"4","last_reported":1745933168,"current_range_meters":4400,"station_id":"ce4bgj92rcd13ifvqbe0","pricing_plan_id":"cebpf4jnsgd1na2vs0mg"},{"bike_id":"175aa3c5-fad7-4c35-b892-13d9c139d829","system_id":"levelo_inurba_marseille","lat":43.24064,"lon":5.37755,"is_reserved":false,"is_disabled":false,"rental_uris":{"android":"levelo://app?vid=175aa3c5-fad7-4c35-b892-13d9c139d829","ios":"levelo://app?vid=175aa3c5-fad7-4c35-b892-13d9c139d829"},"vehicle_type_id":"4","last_reported":1745933168,"current_range_meters":4400,"station_id":"ce4bhnp2rcd13ifvqgvg","pricing_plan_id":"cebpf4jnsgd1na2vs0mg"},{"bike_id":"92d38be2-73e5-4b95-9ae5-bf6583485ac2","system_id":"levelo_inurba_marseille","lat":43.29189,"lon":5.35802,"is_reserved":false,"is_disabled":false,"rental_uris":{"android":"levelo://app?vid=92d38be2-73e5-4b95-9ae5-bf6583485ac2","ios":"levelo://app?vid=92d38be2-73e5-4b95-9ae5-bf6583485ac2"},"vehicle_type_id":"4","last_reported":1745933168,"current_range_meters":4400,"station_id":"ce4bhb12rcd13ifvqel0","pricing_plan_id":"cebpf4jnsgd1na2vs0mg"},{"bike_id":"b67a7f9c-25d1-49ac-9a1c-c2c54bb756f0","system_id":"levelo_inurba_marseille","lat":43.32479,"lon":5.36565,"is_reserved":false,"is_disabled":false,"rental_uris":{"android":"levelo://app?vid=b67a7f9c-25d1-49ac-9a1c-c2c54bb756f0","ios":"levelo://app?vid=b67a7f9c-25d1-49ac-9a1c-c2c54bb756f0"},"vehicle_type_id":"4","last_reported":1745933168,"current_range_meters":4800,"station_id":"ce4bhs12rcd13ifvqhvg","pricing_plan_id":"cebpf4jnsgd1na2vs0mg"},{"bike_id":"a591ff51-2642-4ba7-a8d2-609142b680c7","system_id":"levelo_inurba_marseille","lat":43.264941,"lon":5.395476,"is_reserved":false,"is_disabled":false,"rental_uris":{"android":"levelo://app?vid=a591ff51-2642-4ba7-a8d2-609142b680c7","ios":"levelo://app?vid=a591ff51-2642-4ba7-a8d2-609142b680c7"},"vehicle_type_id":"4","last_reported":1745933168,"current_range_meters":4800,"station_id":"ce4bhi12rcd13ifvqfq0","pricing_plan_id":"cebpf4jnsgd1na2vs0mg"},{"bike_id":"999977d0-ac1f-4549-a537-a5076dc8b1e8","system_id":"levelo_inurba_marseille","lat":43.23153,"lon":5.43713,"is_reserved":false,"is_disabled":false,"rental_uris":{"android":"levelo://app?vid=999977d0-ac1f-4549-a537-a5076dc8b1e8","ios":"levelo://app?vid=999977d0-ac1f-4549-a537-a5076dc8b1e8"},"vehicle_type_id":"4","last_reported":1745933168,"current_range_meters":4800,"station_id":"ce4bhmp2rcd13ifvqgog","pricing_plan_id":"cebpf4jnsgd1na2vs0mg"},{"bike_id":"d95412dd-bdd4-46fb-8d96-25b21a085d09","system_id":"levelo_inurba_marseille","lat":43.29191,"lon":5.35802,"is_reserved":false,"is_disabled":false,"rental_uris":{"android":"levelo://app?vid=d95412dd-bdd4-46fb-8d96-25b21a085d09","ios":"levelo://app?vid=d95412dd-bdd4-46fb-8d96-25b21a085d09"},"vehicle_type_id":"4","last_reported":1745933168,"current_range_meters":4800,"station_id":"ce4bhb12rcd13ifvqel0","pricing_plan_id":"cebpf4jnsgd1na2vs0mg"},{"bike_id":"95479e5e-3b25-440d-bd77-79467bee1ff6","system_id":"levelo_inurba_marseille","lat":43.29608,"lon":5.4057,"is_reserved":false,"is_disabled":true,"rental_uris":{"android":"levelo://app?vid=95479e5e-3b25-440d-bd77-79467bee1ff6","ios":"levelo://app?vid=95479e5e-3b25-440d-bd77-79467bee1ff6"},"vehicle_type_id":"4","last_reported":1745933168,"current_range_meters":5600,"station_id":"ce4bh0h2rcd13ifvqd60","pricing_plan_id":"cebpf4jnsgd1na2vs0mg"},{"bike_id":"26deac1f-c435-40bc-9469-9ae0b266bb77","system_id":"levelo_inurba_marseille","lat":43.30195,"lon":5.38431,"is_reserved":false,"is_disabled":false,"rental_uris":{"android":"levelo://app?vid=26deac1f-c435-40bc-9469-9ae0b266bb77","ios":"levelo://app?vid=26deac1f-c435-40bc-9469-9ae0b266bb77"},"vehicle_type_id":"4","last_reported":1745933168,"current_range_meters":5600,"station_id":"","pricing_plan_id":"cebpf4jnsgd1na2vs0mg"},{"bike_id":"62732c43-d272-4130-9afa-8ee383f7faf3","system_id":"levelo_inurba_marseille","lat":43.29203,"lon":5.35786,"is_reserved":false,"is_disabled":false,"rental_uris":{"android":"levelo://app?vid=62732c43-d272-4130-9afa-8ee383f7faf3","ios":"levelo://app?vid=62732c43-d272-4130-9afa-8ee383f7faf3"},"vehicle_type_id":"4","last_reported":1745933168,"current_range_meters":6000,"station_id":"ce4bhb12rcd13ifvqel0","pricing_plan_id":"cebpf4jnsgd1na2vs0mg"},{"bike_id":"22b0d904-9b92-453d-9f6c-328b457c92a1","system_id":"levelo_inurba_marseille","lat":43.30538,"lon":5.36534,"is_reserved":false,"is_disabled":false,"rental_uris":{"android":"levelo://app?vid=22b0d904-9b92-453d-9f6c-328b457c92a1","ios":"levelo://app?vid=22b0d904-9b92-453d-9f6c-328b457c92a1"},"vehicle_type_id":"4","last_reported":1745933168,"current_range_meters":6000,"station_id":"ce4bgs12rcd13ifvqcag","pricing_plan_id":"cebpf4jnsgd1na2vs0mg"},{"bike_id":"af4f0c69-e62d-4155-b1d1-a67b45271ae1","system_id":"levelo_inurba_marseille","lat":43.247629,"lon":5.412055,"is_reserved":false,"is_disabled":false,"rental_uris":{"android":"levelo://app?vid=af4f0c69-e62d-4155-b1d1-a67b45271ae1","ios":"levelo://app?vid=af4f0c69-e62d-4155-b1d1-a67b45271ae1"},"vehicle_type_id":"4","last_reported":1745933168,"current_range_meters":6400,"station_id":"","pricing_plan_id":"cebpf4jnsgd1na2vs0mg"},{"bike_id":"bf05d069-2ec5-4246-9d82-6d6f716d8264","system_id":"levelo_inurba_marseille","lat":43.24169,"lon":5.36396,"is_reserved":false,"is_disabled":false,"rental_uris":{"android":"levelo://app?vid=bf05d069-2ec5-4246-9d82-6d6f716d8264","ios":"levelo://app?vid=bf05d069-2ec5-4246-9d82-6d6f716d8264"},"vehicle_type_id":"4","last_reported":1745933168,"current_range_meters":6400,"station_id":"cpo36qri1sfpv3e86is0","pricing_plan_id":"cebpf4jnsgd1na2vs0mg"},{"bike_id":"385e9c98-69db-4cd1-b082-7e5d6269ba9f","system_id":"levelo_inurba_marseille","lat":43.32548,"lon":5.41479,"is_reserved":false,"is_disabled":false,"rental_uris":{"android":"levelo://app?vid=385e9c98-69db-4cd1-b082-7e5d6269ba9f","ios":"levelo://app?vid=385e9c98-69db-4cd1-b082-7e5d6269ba9f"},"vehicle_type_id":"4","last_reported":1745933168,"current_range_meters":6400,"station_id":"ce4bhq12rcd13ifvqhhg","pricing_plan_id":"cebpf4jnsgd1na2vs0mg"},{"bike_id":"a927ad15-b129-4085-9072-8cc54f2c8cf2","system_id":"levelo_inurba_marseille","lat":43.32105,"lon":5.36781,"is_reserved":false,"is_disabled":false,"rental_uris":{"android":"levelo://app?vid=a927ad15-b129-4085-9072-8cc54f2c8cf2","ios":"levelo://app?vid=a927ad15-b129-4085-9072-8cc54f2c8cf2"},"vehicle_type_id":"4","last_reported":1745933168,"current_range_meters":6400,"station_id":"","pricing_plan_id":"cebpf4jnsgd1na2vs0mg"},{"bike_id":"75da8a42-6a59-419d-befd-76b97b0e3bb0","system_id":"levelo_inurba_marseille","lat":43.24567,"lon":5.39543,"is_reserved":false,"is_disabled":false,"rental_uris":{"android":"levelo://app?vid=75da8a42-6a59-419d-befd-76b97b0e3bb0","ios":"levelo://app?vid=75da8a42-6a59-419d-befd-76b97b0e3bb0"},"vehicle_type_id":"4","last_reported":1745933168,"current_range_meters":6400,"station_id":"ce4bhlp2rcd13ifvqgjg","pricing_plan_id":"cebpf4jnsgd1na2vs0mg"},{"bike_id":"5640d235-8239-4a10-b9db-8ec1c38db12a","system_id":"levelo_inurba_marseille","lat":43.2551,"lon":5.3765,"is_reserved":false,"is_disabled":false,"rental_uris":{"android":"levelo://app?vid=5640d235-8239-4a10-b9db-8ec1c38db12a","ios":"levelo://app?vid=5640d235-8239-4a10-b9db-8ec1c38db12a"},"vehicle_type_id":"4","last_reported":1745933168,"current_range_meters":6800,"station_id":"ce4bhh12rcd13ifvqff0","pricing_plan_id":"cebpf4jnsgd1na2vs0mg"},{"bike_id":"06b9d8a1-cc18-4fda-a6e1-9f15898d47fe","system_id":"levelo_inurba_marseille","lat":43.24071,"lon":5.37741,"is_reserved":false,"is_disabled":false,"rental_uris":{"android":"levelo://app?vid=06b9d8a1-cc18-4fda-a6e1-9f15898d47fe","ios":"levelo://app?vid=06b9d8a1-cc18-4fda-a6e1-9f15898d47fe"},"vehicle_type_id":"4","last_reported":1745933168,"current_range_meters":6800,"station_id":"ce4bhnp2rcd13ifvqgvg","pricing_plan_id":"cebpf4jnsgd1na2vs0mg"},{"bike_id":"a8780b27-803d-4e95-b59d-f1c22363a0d6","system_id":"levelo_inurba_marseille","lat":43.25494,"lon":5.37648,"is_reserved":false,"is_disabled":false,"rental_uris":{"android":"levelo://app?vid=a8780b27-803d-4e95-b59d-f1c22363a0d6","ios":"levelo://app?vid=a8780b27-803d-4e95-b59d-f1c22363a0d6"},"vehicle_type_id":"4","last_reported":1745933168,"current_range_meters":7200,"station_id":"ce4bhh12rcd13ifvqff0","pricing_plan_id":"cebpf4jnsgd1na2vs0mg"},{"bike_id":"00aeaea4-c6b2-443a-b199-3a0376517c6a","system_id":"levelo_inurba_marseille","lat":43.2927,"lon":5.40899,"is_reserved":false,"is_disabled":false,"rental_uris":{"android":"levelo://app?vid=00aeaea4-c6b2-443a-b199-3a0376517c6a","ios":"levelo://app?vid=00aeaea4-c6b2-443a-b199-3a0376517c6a"},"vehicle_type_id":"4","last_reported":1745933168,"current_range_meters":6800,"station_id":"ce4bh192rcd13ifvqdc0","pricing_plan_id":"cebpf4jnsgd1na2vs0mg"},{"bike_id":"bfe5e868-dc1f-4494-83b7-7f05699ff13d","system_id":"levelo_inurba_marseille","lat":43.30152,"lon":5.38088,"is_reserved":false,"is_disabled":false,"rental_uris":{"android":"levelo://app?vid=bfe5e868-dc1f-4494-83b7-7f05699ff13d","ios":"levelo://app?vid=bfe5e868-dc1f-4494-83b7-7f05699ff13d"},"vehicle_type_id":"4","last_reported":1745933168,"current_range_meters":6800,"station_id":"ce4bgjp2rcd13ifvqbh0","pricing_plan_id":"cebpf4jnsgd1na2vs0mg"},{"bike_id":"931764a9-6475-4417-ab7e-f9ab889d3ea6","system_id":"levelo_inurba_marseille","lat":43.24171,"lon":5.36385,"is_reserved":false,"is_disabled":false,"rental_uris":{"android":"levelo://app?vid=931764a9-6475-4417-ab7e-f9ab889d3ea6","ios":"levelo://app?vid=931764a9-6475-4417-ab7e-f9ab889d3ea6"},"vehicle_type_id":"4","last_reported":1745933168,"current_range_meters":7200,"station_id":"cpo36qri1sfpv3e86is0","pricing_plan_id":"cebpf4jnsgd1na2vs0mg"},{"bike_id":"1d836429-fe6b-46f0-9e62-901854e48ff6","system_id":"levelo_inurba_marseille","lat":43.30423,"lon":5.41282,"is_reserved":false,"is_disabled":false,"rental_uris":{"android":"levelo://app?vid=1d836429-fe6b-46f0-9e62-901854e48ff6","ios":"levelo://app?vid=1d836429-fe6b-46f0-9e62-901854e48ff6"},"vehicle_type_id":"4","last_reported":1745933168,"current_range_meters":6800,"station_id":"ce4bhop2rcd13ifvqh8g","pricing_plan_id":"cebpf4jnsgd1na2vs0mg"},{"bike_id":"11beab31-c7c5-4dd2-a927-f48a7ff7bce4","system_id":"levelo_inurba_marseille","lat":43.32481,"lon":5.36557,"is_reserved":false,"is_disabled":false,"rental_uris":{"android":"levelo://app?vid=11beab31-c7c5-4dd2-a927-f48a7ff7bce4","ios":"levelo://app?vid=11beab31-c7c5-4dd2-a927-f48a7ff7bce4"},"vehicle_type_id":"4","last_reported":1745933168,"current_range_meters":8000,"station_id":"ce4bhs12rcd13ifvqhvg","pricing_plan_id":"cebpf4jnsgd1na2vs0mg"},{"bike_id":"9830ffbf-8059-40c0-8be0-b226b6661fe2","system_id":"levelo_inurba_marseille","lat":43.26216,"lon":5.37436,"is_reserved":false,"is_disabled":false,"rental_uris":{"android":"levelo://app?vid=9830ffbf-8059-40c0-8be0-b226b6661fe2","ios":"levelo://app?vid=9830ffbf-8059-40c0-8be0-b226b6661fe2"},"vehicle_type_id":"4","last_reported":1745933168,"current_range_meters":8000,"station_id":"ce4bhgp2rcd13ifvqfc0","pricing_plan_id":"cebpf4jnsgd1na2vs0mg"},{"bike_id":"4b926ed4-062a-42df-bc75-ec745e4c5bf2","system_id":"levelo_inurba_marseille","lat":43.30323,"lon":5.36893,"is_reserved":false,"is_disabled":false,"rental_uris":{"android":"levelo://app?vid=4b926ed4-062a-42df-bc75-ec745e4c5bf2","ios":"levelo://app?vid=4b926ed4-062a-42df-bc75-ec745e4c5bf2"},"vehicle_type_id":"4","last_reported":1745933168,"current_range_meters":8000,"station_id":"ce4bgqh2rcd13ifvqc5g","pricing_plan_id":"cebpf4jnsgd1na2vs0mg"},{"bike_id":"f4f42687-8cbd-4c97-b2ae-51e566cc19b1","system_id":"levelo_inurba_marseille","lat":43.24164,"lon":5.39719,"is_reserved":false,"is_disabled":false,"rental_uris":{"android":"levelo://app?vid=f4f42687-8cbd-4c97-b2ae-51e566cc19b1","ios":"levelo://app?vid=f4f42687-8cbd-4c97-b2ae-51e566cc19b1"},"vehicle_type_id":"4","last_reported":1745933168,"current_range_meters":8400,"station_id":"ce4bhn12rcd13ifvqgpg","pricing_plan_id":"cebpf4jnsgd1na2vs0mg"},{"bike_id":"e5b4b90d-e268-4de2-98f4-f6d0513f8801","system_id":"levelo_inurba_marseille","lat":43.26551,"lon":5.42215,"is_reserved":false,"is_disabled":false,"rental_uris":{"android":"levelo://app?vid=e5b4b90d-e268-4de2-98f4-f6d0513f8801","ios":"levelo://app?vid=e5b4b90d-e268-4de2-98f4-f6d0513f8801"},"vehicle_type_id":"4","last_reported":1745933168,"current_range_meters":8400,"station_id":"","pricing_plan_id":"cebpf4jnsgd1na2vs0mg"},{"bike_id":"875f31b7-2cfd-4402-b0cd-e9f3d40ae58b","system_id":"levelo_inurba_marseille","lat":43.26034,"lon":5.37547,"is_reserved":false,"is_disabled":false,"rental_uris":{"android":"levelo://app?vid=875f31b7-2cfd-4402-b0cd-e9f3d40ae58b","ios":"levelo://app?vid=875f31b7-2cfd-4402-b0cd-e9f3d40ae58b"},"vehicle_type_id":"4","last_reported":1745933168,"current_range_meters":8400,"station_id":"ce4bhgh2rcd13ifvqfa0","pricing_plan_id":"cebpf4jnsgd1na2vs0mg"},{"bike_id":"37332e27-3c0f-43b0-a78a-0eff23ffcebe","system_id":"levelo_inurba_marseille","lat":43.31696,"lon":5.40471,"is_reserved":false,"is_disabled":false,"rental_uris":{"android":"levelo://app?vid=37332e27-3c0f-43b0-a78a-0eff23ffcebe","ios":"levelo://app?vid=37332e27-3c0f-43b0-a78a-0eff23ffcebe"},"vehicle_type_id":"4","last_reported":1745933168,"current_range_meters":8400,"station_id":"ce4bh012rcd13ifvqd00","pricing_plan_id":"cebpf4jnsgd1na2vs0mg"},{"bike_id":"ccaa0073-2b3a-44f0-90da-72b7be7b8f28","system_id":"levelo_inurba_marseille","lat":43.29893,"lon":5.38899,"is_reserved":false,"is_disabled":false,"rental_uris":{"android":"levelo://app?vid=ccaa0073-2b3a-44f0-90da-72b7be7b8f28","ios":"levelo://app?vid=ccaa0073-2b3a-44f0-90da-72b7be7b8f28"},"vehicle_type_id":"4","last_reported":1745933168,"current_range_meters":8800,"station_id":"ce4bh392rcd13ifvqdl0","pricing_plan_id":"cebpf4jnsgd1na2vs0mg"},{"bike_id":"a0c6575d-c815-4069-9f15-8adbb0f205e9","system_id":"levelo_inurba_marseille","lat":43.28077,"lon":5.39656,"is_reserved":false,"is_disabled":false,"rental_uris":{"android":"levelo://app?vid=a0c6575d-c815-4069-9f15-8adbb0f205e9","ios":"levelo://app?vid=a0c6575d-c815-4069-9f15-8adbb0f205e9"},"vehicle_type_id":"4","last_reported":1745933168,"current_range_meters":8800,"station_id":"ce4bho12rcd13ifvqh2g","pricing_plan_id":"cebpf4jnsgd1na2vs0mg"},{"bike_id":"ceb37113-1b00-400d-844a-d0af513811c9","system_id":"levelo_inurba_marseille","lat":43.23154,"lon":5.43702,"is_reserved":false,"is_disabled":false,"rental_uris":{"android":"levelo://app?vid=ceb37113-1b00-400d-844a-d0af513811c9","ios":"levelo://app?vid=ceb37113-1b00-400d-844a-d0af513811c9"},"vehicle_type_id":"4","last_reported":1745933168,"current_range_meters":8800,"station_id":"ce4bhmp2rcd13ifvqgog","pricing_plan_id":"cebpf4jnsgd1na2vs0mg"},{"bike_id":"f06c2110-6c9b-41e6-a5ca-a74207204e85","system_id":"levelo_inurba_marseille","lat":43.31196,"lon":5.36825,"is_reserved":false,"is_disabled":false,"rental_uris":{"android":"levelo://app?vid=f06c2110-6c9b-41e6-a5ca-a74207204e85","ios":"levelo://app?vid=f06c2110-6c9b-41e6-a5ca-a74207204e85"},"vehicle_type_id":"4","last_reported":1745933168,"current_range_meters":9200,"station_id":"ce4bgl92rcd13ifvqbq0","pricing_plan_id":"cebpf4jnsgd1na2vs0mg"},{"bike_id":"a5c1d44a-4c19-4fce-895b-88b3cbf21a52","system_id":"levelo_inurba_marseille","lat":43.27372,"lon":5.36237,"is_reserved":false,"is_disabled":false,"rental_uris":{"android":"levelo://app?vid=a5c1d44a-4c19-4fce-895b-88b3cbf21a52","ios":"levelo://app?vid=a5c1d44a-4c19-4fce-895b-88b3cbf21a52"},"vehicle_type_id":"4","last_reported":1745933168,"current_range_meters":9200,"station_id":"ce4bhbh2rcd13ifvqeo0","pricing_plan_id":"cebpf4jnsgd1na2vs0mg"},{"bike_id":"39a46b10-b597-4ed3-86b8-c56cb837561c","system_id":"levelo_inurba_marseille","lat":43.25075,"lon":5.39513,"is_reserved":false,"is_disabled":false,"rental_uris":{"android":"levelo://app?vid=39a46b10-b597-4ed3-86b8-c56cb837561c","ios":"levelo://app?vid=39a46b10-b597-4ed3-86b8-c56cb837561c"},"vehicle_type_id":"4","last_reported":1745933168,"current_range_meters":9200,"station_id":"ce4bhm12rcd13ifvqgkg","pricing_plan_id":"cebpf4jnsgd1na2vs0mg"},{"bike_id":"b24d099b-c213-4d0e-8bed-0a6b1553f715","system_id":"levelo_inurba_marseille","lat":43.32479,"lon":5.3657,"is_reserved":false,"is_disabled":false,"rental_uris":{"android":"levelo://app?vid=b24d099b-c213-4d0e-8bed-0a6b1553f715","ios":"levelo://app?vid=b24d099b-c213-4d0e-8bed-0a6b1553f715"},"vehicle_type_id":"4","last_reported":1745933168,"current_range_meters":10000,"station_id":"ce4bhs12rcd13ifvqhvg","pricing_plan_id":"cebpf4jnsgd1na2vs0mg"},{"bike_id":"580a15a1-f12e-44d0-b0b7-a64aae2d7bd6","system_id":"levelo_inurba_marseille","lat":43.30303,"lon":5.36899,"is_reserved":false,"is_disabled":false,"rental_uris":{"android":"levelo://app?vid=580a15a1-f12e-44d0-b0b7-a64aae2d7bd6","ios":"levelo://app?vid=580a15a1-f12e-44d0-b0b7-a64aae2d7bd6"},"vehicle_type_id":"4","last_reported":1745933168,"current_range_meters":10000,"station_id":"ce4bgqh2rcd13ifvqc5g","pricing_plan_id":"cebpf4jnsgd1na2vs0mg"},{"bike_id":"899fda0a-bc21-4462-ac47-0f08c158ec91","system_id":"levelo_inurba_marseille","lat":43.29256,"lon":5.40908,"is_reserved":false,"is_disabled":false,"rental_uris":{"android":"levelo://app?vid=899fda0a-bc21-4462-ac47-0f08c158ec91","ios":"levelo://app?vid=899fda0a-bc21-4462-ac47-0f08c158ec91"},"vehicle_type_id":"4","last_reported":1745933168,"current_range_meters":10000,"station_id":"ce4bh192rcd13ifvqdc0","pricing_plan_id":"cebpf4jnsgd1na2vs0mg"},{"bike_id":"221baf4d-c602-4577-a05a-e2579ad3dcd8","system_id":"levelo_inurba_marseille","lat":43.30901,"lon":5.36861,"is_reserved":false,"is_disabled":false,"rental_uris":{"android":"levelo://app?vid=221baf4d-c602-4577-a05a-e2579ad3dcd8","ios":"levelo://app?vid=221baf4d-c602-4577-a05a-e2579ad3dcd8"},"vehicle_type_id":"4","last_reported":1745933168,"current_range_meters":10000,"station_id":"ce4bgn92rcd13ifvqbvg","pricing_plan_id":"cebpf4jnsgd1na2vs0mg"},{"bike_id":"15e21529-6419-422f-8ae8-a321bdc6c0f5","system_id":"levelo_inurba_marseille","lat":43.26212,"lon":5.37441,"is_reserved":false,"is_disabled":false,"rental_uris":{"android":"levelo://app?vid=15e21529-6419-422f-8ae8-a321bdc6c0f5","ios":"levelo://app?vid=15e21529-6419-422f-8ae8-a321bdc6c0f5"},"vehicle_type_id":"4","last_reported":1745933168,"current_range_meters":10000,"station_id":"ce4bhgp2rcd13ifvqfc0","pricing_plan_id":"cebpf4jnsgd1na2vs0mg"},{"bike_id":"62fb8b1b-66bf-4c4f-a528-75d120b7f126","system_id":"levelo_inurba_marseille","lat":43.26685,"lon":5.38271,"is_reserved":false,"is_disabled":false,"rental_uris":{"android":"levelo://app?vid=62fb8b1b-66bf-4c4f-a528-75d120b7f126","ios":"levelo://app?vid=62fb8b1b-66bf-4c4f-a528-75d120b7f126"},"vehicle_type_id":"4","last_reported":1745933168,"current_range_meters":10000,"station_id":"ce4bhg92rcd13ifvqf90","pricing_plan_id":"cebpf4jnsgd1na2vs0mg"},{"bike_id":"274de418-4901-4594-96ba-14adb2b508fe","system_id":"levelo_inurba_marseille","lat":43.25918,"lon":5.40879,"is_reserved":false,"is_disabled":false,"rental_uris":{"android":"levelo://app?vid=274de418-4901-4594-96ba-14adb2b508fe","ios":"levelo://app?vid=274de418-4901-4594-96ba-14adb2b508fe"},"vehicle_type_id":"4","last_reported":1745933168,"current_range_meters":10800,"station_id":"ce4bhm92rcd13ifvqglg","pricing_plan_id":"cebpf4jnsgd1na2vs0mg"},{"bike_id":"28894e81-ede6-4351-84e3-e6b48081a345","system_id":"levelo_inurba_marseille","lat":43.33465,"lon":5.400537,"is_reserved":false,"is_disabled":false,"rental_uris":{"android":"levelo://app?vid=28894e81-ede6-4351-84e3-e6b48081a345","ios":"levelo://app?vid=28894e81-ede6-4351-84e3-e6b48081a345"},"vehicle_type_id":"4","last_reported":1745933168,"current_range_meters":10800,"station_id":"","pricing_plan_id":"cebpf4jnsgd1na2vs0mg"},{"bike_id":"ec90f377-ef82-4427-9d40-93c406dd6fce","system_id":"levelo_inurba_marseille","lat":43.29847,"lon":5.36284,"is_reserved":false,"is_disabled":false,"rental_uris":{"android":"levelo://app?vid=ec90f377-ef82-4427-9d40-93c406dd6fce","ios":"levelo://app?vid=ec90f377-ef82-4427-9d40-93c406dd6fce"},"vehicle_type_id":"4","last_reported":1745933168,"current_range_meters":10800,"station_id":"ce4bgpp2rcd13ifvqc3g","pricing_plan_id":"cebpf4jnsgd1na2vs0mg"},{"bike_id":"b13f9913-27dd-4197-ba83-0d6b671b36d4","system_id":"levelo_inurba_marseille","lat":43.32495,"lon":5.36579,"is_reserved":false,"is_disabled":false,"rental_uris":{"android":"levelo://app?vid=b13f9913-27dd-4197-ba83-0d6b671b36d4","ios":"levelo://app?vid=b13f9913-27dd-4197-ba83-0d6b671b36d4"},"vehicle_type_id":"4","last_reported":1745933168,"current_range_meters":10800,"station_id":"ce4bhs12rcd13ifvqhvg","pricing_plan_id":"cebpf4jnsgd1na2vs0mg"},{"bike_id":"9e91ca18-407b-482d-8bb8-d92af7456a6e","system_id":"levelo_inurba_marseille","lat":43.28267,"lon":5.35073,"is_reserved":false,"is_disabled":false,"rental_uris":{"android":"levelo://app?vid=9e91ca18-407b-482d-8bb8-d92af7456a6e","ios":"levelo://app?vid=9e91ca18-407b-482d-8bb8-d92af7456a6e"},"vehicle_type_id":"4","last_reported":1745933168,"current_range_meters":10800,"station_id":"ce4bhbp2rcd13ifvqerg","pricing_plan_id":"cebpf4jnsgd1na2vs0mg"},{"bike_id":"4ceb84ba-5619-4961-84ca-871075b75cb9","system_id":"levelo_inurba_marseille","lat":43.26212,"lon":5.3744,"is_reserved":false,"is_disabled":false,"rental_uris":{"android":"levelo://app?vid=4ceb84ba-5619-4961-84ca-871075b75cb9","ios":"levelo://app?vid=4ceb84ba-5619-4961-84ca-871075b75cb9"},"vehicle_type_id":"4","last_reported":1745933168,"current_range_meters":10800,"station_id":"ce4bhgp2rcd13ifvqfc0","pricing_plan_id":"cebpf4jnsgd1na2vs0mg"},{"bike_id":"31302724-4882-40ff-a5b3-7820fdb0d979","system_id":"levelo_inurba_marseille","lat":43.274246,"lon":5.394176,"is_reserved":false,"is_disabled":false,"rental_uris":{"android":"levelo://app?vid=31302724-4882-40ff-a5b3-7820fdb0d979","ios":"levelo://app?vid=31302724-4882-40ff-a5b3-7820fdb0d979"},"vehicle_type_id":"4","last_reported":1745933168,"current_range_meters":10800,"station_id":"ce4bhdp2rcd13ifvqf20","pricing_plan_id":"cebpf4jnsgd1na2vs0mg"},{"bike_id":"f6bfa6d2-96ae-4d73-a5ef-8eec9e9bbcfb","system_id":"levelo_inurba_marseille","lat":43.28941,"lon":5.36636,"is_reserved":false,"is_disabled":false,"rental_uris":{"android":"levelo://app?vid=f6bfa6d2-96ae-4d73-a5ef-8eec9e9bbcfb","ios":"levelo://app?vid=f6bfa6d2-96ae-4d73-a5ef-8eec9e9bbcfb"},"vehicle_type_id":"4","last_reported":1745933168,"current_range_meters":11200,"station_id":"ce4bhap2rcd13ifvqek0","pricing_plan_id":"cebpf4jnsgd1na2vs0mg"},{"bike_id":"bfe8fa01-07dd-42a0-8b1f-3a15b6e8c350","system_id":"levelo_inurba_marseille","lat":43.29532,"lon":5.38536,"is_reserved":false,"is_disabled":false,"rental_uris":{"android":"levelo://app?vid=bfe8fa01-07dd-42a0-8b1f-3a15b6e8c350","ios":"levelo://app?vid=bfe8fa01-07dd-42a0-8b1f-3a15b6e8c350"},"vehicle_type_id":"4","last_reported":1745933168,"current_range_meters":14800,"station_id":"ce4bgih2rcd13ifvqba0","pricing_plan_id":"cebpf4jnsgd1na2vs0mg"},{"bike_id":"94047fbd-5312-40d9-96fe-11e2783bcc01","system_id":"levelo_inurba_marseille","lat":43.31707,"lon":5.40449,"is_reserved":false,"is_disabled":false,"rental_uris":{"android":"levelo://app?vid=94047fbd-5312-40d9-96fe-11e2783bcc01","ios":"levelo://app?vid=94047fbd-5312-40d9-96fe-11e2783bcc01"},"vehicle_type_id":"4","last_reported":1745933168,"current_range_meters":11600,"station_id":"ce4bh012rcd13ifvqd00","pricing_plan_id":"cebpf4jnsgd1na2vs0mg"},{"bike_id":"47c8e995-1286-4459-ac31-bcb1455ace8e","system_id":"levelo_inurba_marseille","lat":43.23143,"lon":5.43711,"is_reserved":false,"is_disabled":false,"rental_uris":{"android":"levelo://app?vid=47c8e995-1286-4459-ac31-bcb1455ace8e","ios":"levelo://app?vid=47c8e995-1286-4459-ac31-bcb1455ace8e"},"vehicle_type_id":"4","last_reported":1745933168,"current_range_meters":11600,"station_id":"ce4bhmp2rcd13ifvqgog","pricing_plan_id":"cebpf4jnsgd1na2vs0mg"},{"bike_id":"a6706a7a-9b2c-4126-b1fe-3604014fb539","system_id":"levelo_inurba_marseille","lat":43.282669,"lon":5.350639,"is_reserved":false,"is_disabled":false,"rental_uris":{"android":"levelo://app?vid=a6706a7a-9b2c-4126-b1fe-3604014fb539","ios":"levelo://app?vid=a6706a7a-9b2c-4126-b1fe-3604014fb539"},"vehicle_type_id":"4","last_reported":1745933168,"current_range_meters":11600,"station_id":"ce4bhbp2rcd13ifvqerg","pricing_plan_id":"cebpf4jnsgd1na2vs0mg"},{"bike_id":"a4e908cc-ce4b-4ed0-9d8d-022b2dd7de70","system_id":"levelo_inurba_marseille","lat":43.22937,"lon":5.35359,"is_reserved":false,"is_disabled":false,"rental_uris":{"android":"levelo://app?vid=a4e908cc-ce4b-4ed0-9d8d-022b2dd7de70","ios":"levelo://app?vid=a4e908cc-ce4b-4ed0-9d8d-022b2dd7de70"},"vehicle_type_id":"4","last_reported":1745933168,"current_range_meters":11600,"station_id":"cpo3532slgdg3j2ikp40","pricing_plan_id":"cebpf4jnsgd1na2vs0mg"},{"bike_id":"308a0858-7782-4816-8962-95080a2043e4","system_id":"levelo_inurba_marseille","lat":43.284083,"lon":5.375156,"is_reserved":false,"is_disabled":false,"rental_uris":{"android":"levelo://app?vid=308a0858-7782-4816-8962-95080a2043e4","ios":"levelo://app?vid=308a0858-7782-4816-8962-95080a2043e4"},"vehicle_type_id":"4","last_reported":1745933168,"current_range_meters":11600,"station_id":"ce4bh412rcd13ifvqds0","pricing_plan_id":"cebpf4jnsgd1na2vs0mg"},{"bike_id":"499c6d04-4f20-43c4-9ff2-3f4af15e0b40","system_id":"levelo_inurba_marseille","lat":43.34144,"lon":5.40897,"is_reserved":false,"is_disabled":false,"rental_uris":{"android":"levelo://app?vid=499c6d04-4f20-43c4-9ff2-3f4af15e0b40","ios":"levelo://app?vid=499c6d04-4f20-43c4-9ff2-3f4af15e0b40"},"vehicle_type_id":"4","last_reported":1745933168,"current_range_meters":11600,"station_id":"ce4bhqh2rcd13ifvqhlg","pricing_plan_id":"cebpf4jnsgd1na2vs0mg"},{"bike_id":"d5d5aca6-f06b-45b6-b88e-ea4d9696a691","system_id":"levelo_inurba_marseille","lat":43.280972,"lon":5.378298,"is_reserved":false,"is_disabled":false,"rental_uris":{"android":"levelo://app?vid=d5d5aca6-f06b-45b6-b88e-ea4d9696a691","ios":"levelo://app?vid=d5d5aca6-f06b-45b6-b88e-ea4d9696a691"},"vehicle_type_id":"4","last_reported":1745933168,"current_range_meters":12000,"station_id":"ce4bha12rcd13ifvqee0","pricing_plan_id":"cebpf4jnsgd1na2vs0mg"},{"bike_id":"c45c975c-eac0-440e-9430-ec99f4e7eaa5","system_id":"levelo_inurba_marseille","lat":43.27378,"lon":5.36241,"is_reserved":false,"is_disabled":false,"rental_uris":{"android":"levelo://app?vid=c45c975c-eac0-440e-9430-ec99f4e7eaa5","ios":"levelo://app?vid=c45c975c-eac0-440e-9430-ec99f4e7eaa5"},"vehicle_type_id":"4","last_reported":1745933168,"current_range_meters":12000,"station_id":"ce4bhbh2rcd13ifvqeo0","pricing_plan_id":"cebpf4jnsgd1na2vs0mg"},{"bike_id":"75e109bc-6703-4bdd-8ee3-8ca989726f2f","system_id":"levelo_inurba_marseille","lat":43.27619,"lon":5.36113,"is_reserved":false,"is_disabled":false,"rental_uris":{"android":"levelo://app?vid=75e109bc-6703-4bdd-8ee3-8ca989726f2f","ios":"levelo://app?vid=75e109bc-6703-4bdd-8ee3-8ca989726f2f"},"vehicle_type_id":"4","last_reported":1745933168,"current_range_meters":12000,"station_id":"ce4bgj92rcd13ifvqbe0","pricing_plan_id":"cebpf4jnsgd1na2vs0mg"},{"bike_id":"3b197627-d16b-4605-8fa5-1f6366478ff0","system_id":"levelo_inurba_marseille","lat":43.27386,"lon":5.3624,"is_reserved":false,"is_disabled":false,"rental_uris":{"android":"levelo://app?vid=3b197627-d16b-4605-8fa5-1f6366478ff0","ios":"levelo://app?vid=3b197627-d16b-4605-8fa5-1f6366478ff0"},"vehicle_type_id":"4","last_reported":1745933168,"current_range_meters":12000,"station_id":"ce4bhbh2rcd13ifvqeo0","pricing_plan_id":"cebpf4jnsgd1na2vs0mg"},{"bike_id":"243d06f1-185b-49d0-a762-63c34a276878","system_id":"levelo_inurba_marseille","lat":43.29531,"lon":5.39036,"is_reserved":false,"is_disabled":false,"rental_uris":{"android":"levelo://app?vid=243d06f1-185b-49d0-a762-63c34a276878","ios":"levelo://app?vid=243d06f1-185b-49d0-a762-63c34a276878"},"vehicle_type_id":"4","last_reported":1745933168,"current_range_meters":11600,"station_id":"ce4bh3p2rcd13ifvqdp0","pricing_plan_id":"cebpf4jnsgd1na2vs0mg"},{"bike_id":"c76a948a-e20e-4e8e-9127-6cb1268ba4cb","system_id":"levelo_inurba_marseille","lat":43.29446,"lon":5.39728,"is_reserved":false,"is_disabled":false,"rental_uris":{"android":"levelo://app?vid=c76a948a-e20e-4e8e-9127-6cb1268ba4cb","ios":"levelo://app?vid=c76a948a-e20e-4e8e-9127-6cb1268ba4cb"},"vehicle_type_id":"4","last_reported":1745933168,"current_range_meters":12400,"station_id":"ce4bh3h2rcd13ifvqdo0","pricing_plan_id":"cebpf4jnsgd1na2vs0mg"},{"bike_id":"4b49f04b-a54a-444f-a078-a07b0278c3dc","system_id":"levelo_inurba_marseille","lat":43.28269,"lon":5.35059,"is_reserved":false,"is_disabled":false,"rental_uris":{"android":"levelo://app?vid=4b49f04b-a54a-444f-a078-a07b0278c3dc","ios":"levelo://app?vid=4b49f04b-a54a-444f-a078-a07b0278c3dc"},"vehicle_type_id":"4","last_reported":1745933168,"current_range_meters":12400,"station_id":"ce4bhbp2rcd13ifvqerg","pricing_plan_id":"cebpf4jnsgd1na2vs0mg"},{"bike_id":"a299c2a5-2ef4-4120-9c76-0707816c5247","system_id":"levelo_inurba_marseille","lat":43.28282,"lon":5.35055,"is_reserved":false,"is_disabled":false,"rental_uris":{"android":"levelo://app?vid=a299c2a5-2ef4-4120-9c76-0707816c5247","ios":"levelo://app?vid=a299c2a5-2ef4-4120-9c76-0707816c5247"},"vehicle_type_id":"4","last_reported":1745933168,"current_range_meters":12400,"station_id":"ce4bhbp2rcd13ifvqerg","pricing_plan_id":"cebpf4jnsgd1na2vs0mg"},{"bike_id":"3143d293-7ae0-4ad4-ac9f-056ea6f9e961","system_id":"levelo_inurba_marseille","lat":43.29917,"lon":5.36511,"is_reserved":false,"is_disabled":false,"rental_uris":{"android":"levelo://app?vid=3143d293-7ae0-4ad4-ac9f-056ea6f9e961","ios":"levelo://app?vid=3143d293-7ae0-4ad4-ac9f-056ea6f9e961"},"vehicle_type_id":"4","last_reported":1745933168,"current_range_meters":12400,"station_id":"ce4bgm92rcd13ifvqbr0","pricing_plan_id":"cebpf4jnsgd1na2vs0mg"},{"bike_id":"340527a2-0f35-4a44-8a0b-05d17dfe443d","system_id":"levelo_inurba_marseille","lat":43.30788,"lon":5.36788,"is_reserved":false,"is_disabled":false,"rental_uris":{"android":"levelo://app?vid=340527a2-0f35-4a44-8a0b-05d17dfe443d","ios":"levelo://app?vid=340527a2-0f35-4a44-8a0b-05d17dfe443d"},"vehicle_type_id":"4","last_reported":1745933168,"current_range_meters":12400,"station_id":"","pricing_plan_id":"cebpf4jnsgd1na2vs0mg"},{"bike_id":"9d1c3bc8-50f6-4bfd-a2fd-009e9c2c2a14","system_id":"levelo_inurba_marseille","lat":43.28615,"lon":5.35104,"is_reserved":false,"is_disabled":false,"rental_uris":{"android":"levelo://app?vid=9d1c3bc8-50f6-4bfd-a2fd-009e9c2c2a14","ios":"levelo://app?vid=9d1c3bc8-50f6-4bfd-a2fd-009e9c2c2a14"},"vehicle_type_id":"4","last_reported":1745933168,"current_range_meters":12400,"station_id":"ce4bhch2rcd13ifvqeug","pricing_plan_id":"cebpf4jnsgd1na2vs0mg"},{"bike_id":"6a004e24-127b-4c82-843e-13f74352509a","system_id":"levelo_inurba_marseille","lat":43.2315,"lon":5.43719,"is_reserved":false,"is_disabled":false,"rental_uris":{"android":"levelo://app?vid=6a004e24-127b-4c82-843e-13f74352509a","ios":"levelo://app?vid=6a004e24-127b-4c82-843e-13f74352509a"},"vehicle_type_id":"4","last_reported":1745933168,"current_range_meters":12800,"station_id":"ce4bhmp2rcd13ifvqgog","pricing_plan_id":"cebpf4jnsgd1na2vs0mg"},{"bike_id":"b4c6cca8-2e10-4fc8-a0ad-ad89366af1a1","system_id":"levelo_inurba_marseille","lat":43.23067,"lon":5.35491,"is_reserved":false,"is_disabled":false,"rental_uris":{"android":"levelo://app?vid=b4c6cca8-2e10-4fc8-a0ad-ad89366af1a1","ios":"levelo://app?vid=b4c6cca8-2e10-4fc8-a0ad-ad89366af1a1"},"vehicle_type_id":"4","last_reported":1745933168,"current_range_meters":12800,"station_id":"cpo3342slgdg3j2ifvpg","pricing_plan_id":"cebpf4jnsgd1na2vs0mg"},{"bike_id":"204922d3-c22f-4c19-b2ba-339ff5e2148d","system_id":"levelo_inurba_marseille","lat":43.28164,"lon":5.42654,"is_reserved":false,"is_disabled":false,"rental_uris":{"android":"levelo://app?vid=204922d3-c22f-4c19-b2ba-339ff5e2148d","ios":"levelo://app?vid=204922d3-c22f-4c19-b2ba-339ff5e2148d"},"vehicle_type_id":"4","last_reported":1745933168,"current_range_meters":12800,"station_id":"ce4bhnh2rcd13ifvqgug","pricing_plan_id":"cebpf4jnsgd1na2vs0mg"},{"bike_id":"4411c18e-2f26-4e56-8519-7d7eab5dcf83","system_id":"levelo_inurba_marseille","lat":43.28079,"lon":5.39661,"is_reserved":false,"is_disabled":false,"rental_uris":{"android":"levelo://app?vid=4411c18e-2f26-4e56-8519-7d7eab5dcf83","ios":"levelo://app?vid=4411c18e-2f26-4e56-8519-7d7eab5dcf83"},"vehicle_type_id":"4","last_reported":1745933168,"current_range_meters":12800,"station_id":"ce4bho12rcd13ifvqh2g","pricing_plan_id":"cebpf4jnsgd1na2vs0mg"},{"bike_id":"489415b8-9254-45c1-b00c-e7554d56755c","system_id":"levelo_inurba_marseille","lat":43.245199,"lon":5.412192,"is_reserved":false,"is_disabled":false,"rental_uris":{"android":"levelo://app?vid=489415b8-9254-45c1-b00c-e7554d56755c","ios":"levelo://app?vid=489415b8-9254-45c1-b00c-e7554d56755c"},"vehicle_type_id":"4","last_reported":1745933168,"current_range_meters":13600,"station_id":"","pricing_plan_id":"cebpf4jnsgd1na2vs0mg"},{"bike_id":"385f44c8-d47a-40fc-8235-8720929e4041","system_id":"levelo_inurba_marseille","lat":43.23155,"lon":5.43701,"is_reserved":false,"is_disabled":false,"rental_uris":{"android":"levelo://app?vid=385f44c8-d47a-40fc-8235-8720929e4041","ios":"levelo://app?vid=385f44c8-d47a-40fc-8235-8720929e4041"},"vehicle_type_id":"4","last_reported":1745933168,"current_range_meters":12800,"station_id":"ce4bhmp2rcd13ifvqgog","pricing_plan_id":"cebpf4jnsgd1na2vs0mg"},{"bike_id":"8223ba7d-3bff-49f6-8ebe-b9527c27d522","system_id":"levelo_inurba_marseille","lat":43.28619,"lon":5.35104,"is_reserved":false,"is_disabled":false,"rental_uris":{"android":"levelo://app?vid=8223ba7d-3bff-49f6-8ebe-b9527c27d522","ios":"levelo://app?vid=8223ba7d-3bff-49f6-8ebe-b9527c27d522"},"vehicle_type_id":"4","last_reported":1745933168,"current_range_meters":13600,"station_id":"ce4bhch2rcd13ifvqeug","pricing_plan_id":"cebpf4jnsgd1na2vs0mg"},{"bike_id":"b565bcee-111f-4b61-8fa4-b90924b3d8a5","system_id":"levelo_inurba_marseille","lat":43.24659,"lon":5.38158,"is_reserved":false,"is_disabled":false,"rental_uris":{"android":"levelo://app?vid=b565bcee-111f-4b61-8fa4-b90924b3d8a5","ios":"levelo://app?vid=b565bcee-111f-4b61-8fa4-b90924b3d8a5"},"vehicle_type_id":"4","last_reported":1745933168,"current_range_meters":13600,"station_id":"ce4bhih2rcd13ifvqfr0","pricing_plan_id":"cebpf4jnsgd1na2vs0mg"},{"bike_id":"276802a1-c7b0-4135-aed7-dad55bb6b2c2","system_id":"levelo_inurba_marseille","lat":43.25499,"lon":5.37645,"is_reserved":false,"is_disabled":false,"rental_uris":{"android":"levelo://app?vid=276802a1-c7b0-4135-aed7-dad55bb6b2c2","ios":"levelo://app?vid=276802a1-c7b0-4135-aed7-dad55bb6b2c2"},"vehicle_type_id":"4","last_reported":1745933168,"current_range_meters":14000,"station_id":"ce4bhh12rcd13ifvqff0","pricing_plan_id":"cebpf4jnsgd1na2vs0mg"},{"bike_id":"2d303286-1748-405f-b5c7-c9d6c2ec111c","system_id":"levelo_inurba_marseille","lat":43.24406,"lon":5.37051,"is_reserved":false,"is_disabled":false,"rental_uris":{"android":"levelo://app?vid=2d303286-1748-405f-b5c7-c9d6c2ec111c","ios":"levelo://app?vid=2d303286-1748-405f-b5c7-c9d6c2ec111c"},"vehicle_type_id":"4","last_reported":1745933168,"current_range_meters":14000,"station_id":"ce4bhhh2rcd13ifvqfk0","pricing_plan_id":"cebpf4jnsgd1na2vs0mg"},{"bike_id":"e27c9434-7cad-426a-accf-7de8131c5123","system_id":"levelo_inurba_marseille","lat":43.28618,"lon":5.351033,"is_reserved":false,"is_disabled":false,"rental_uris":{"android":"levelo://app?vid=e27c9434-7cad-426a-accf-7de8131c5123","ios":"levelo://app?vid=e27c9434-7cad-426a-accf-7de8131c5123"},"vehicle_type_id":"4","last_reported":1745933168,"current_range_meters":14400,"station_id":"ce4bhch2rcd13ifvqeug","pricing_plan_id":"cebpf4jnsgd1na2vs0mg"},{"bike_id":"51b7e14d-37f0-427e-af99-243f845d9a7f","system_id":"levelo_inurba_marseille","lat":43.30899,"lon":5.36853,"is_reserved":false,"is_disabled":false,"rental_uris":{"android":"levelo://app?vid=51b7e14d-37f0-427e-af99-243f845d9a7f","ios":"levelo://app?vid=51b7e14d-37f0-427e-af99-243f845d9a7f"},"vehicle_type_id":"4","last_reported":1745933168,"current_range_meters":14000,"station_id":"ce4bgn92rcd13ifvqbvg","pricing_plan_id":"cebpf4jnsgd1na2vs0mg"},{"bike_id":"8748f5ad-0e5c-4dbd-977a-9cecbd49c739","system_id":"levelo_inurba_marseille","lat":43.266443,"lon":5.403056,"is_reserved":false,"is_disabled":false,"rental_uris":{"android":"levelo://app?vid=8748f5ad-0e5c-4dbd-977a-9cecbd49c739","ios":"levelo://app?vid=8748f5ad-0e5c-4dbd-977a-9cecbd49c739"},"vehicle_type_id":"4","last_reported":1745933168,"current_range_meters":14000,"station_id":"cjm6bp8fraef2m0cb0m0","pricing_plan_id":"cebpf4jnsgd1na2vs0mg"},{"bike_id":"486234e9-8e78-4700-8b11-6da09c4fbf46","system_id":"levelo_inurba_marseille","lat":43.284697,"lon":5.384165,"is_reserved":false,"is_disabled":false,"rental_uris":{"android":"levelo://app?vid=486234e9-8e78-4700-8b11-6da09c4fbf46","ios":"levelo://app?vid=486234e9-8e78-4700-8b11-6da09c4fbf46"},"vehicle_type_id":"4","last_reported":1745933168,"current_range_meters":14400,"station_id":"ce4bh512rcd13ifvqe3g","pricing_plan_id":"cebpf4jnsgd1na2vs0mg"},{"bike_id":"071a671b-fb53-468b-ba8f-96ef79b57233","system_id":"levelo_inurba_marseille","lat":43.3236,"lon":5.3676,"is_reserved":false,"is_disabled":false,"rental_uris":{"android":"levelo://app?vid=071a671b-fb53-468b-ba8f-96ef79b57233","ios":"levelo://app?vid=071a671b-fb53-468b-ba8f-96ef79b57233"},"vehicle_type_id":"4","last_reported":1745933168,"current_range_meters":14400,"station_id":"ce4bhsh2rcd13ifvqi2g","pricing_plan_id":"cebpf4jnsgd1na2vs0mg"},{"bike_id":"db0ffbff-b0c5-4e33-bc2f-1377fcf957f3","system_id":"levelo_inurba_marseille","lat":43.28674,"lon":5.36359,"is_reserved":false,"is_disabled":false,"rental_uris":{"android":"levelo://app?vid=db0ffbff-b0c5-4e33-bc2f-1377fcf957f3","ios":"levelo://app?vid=db0ffbff-b0c5-4e33-bc2f-1377fcf957f3"},"vehicle_type_id":"4","last_reported":1745933168,"current_range_meters":14400,"station_id":"ce4bhah2rcd13ifvqej0","pricing_plan_id":"cebpf4jnsgd1na2vs0mg"},{"bike_id":"33e7a23a-57e8-483b-b4d1-079995d73a66","system_id":"levelo_inurba_marseille","lat":43.30334,"lon":5.40428,"is_reserved":false,"is_disabled":false,"rental_uris":{"android":"levelo://app?vid=33e7a23a-57e8-483b-b4d1-079995d73a66","ios":"levelo://app?vid=33e7a23a-57e8-483b-b4d1-079995d73a66"},"vehicle_type_id":"4","last_reported":1745933168,"current_range_meters":14800,"station_id":"ce4bh012rcd13ifvqd10","pricing_plan_id":"cebpf4jnsgd1na2vs0mg"},{"bike_id":"3a9bd96a-1d84-454e-b55b-a4ef583e3749","system_id":"levelo_inurba_marseille","lat":43.266834,"lon":5.382661,"is_reserved":false,"is_disabled":true,"rental_uris":{"android":"levelo://app?vid=3a9bd96a-1d84-454e-b55b-a4ef583e3749","ios":"levelo://app?vid=3a9bd96a-1d84-454e-b55b-a4ef583e3749"},"vehicle_type_id":"4","last_reported":1745933168,"current_range_meters":14800,"station_id":"ce4bhg92rcd13ifvqf90","pricing_plan_id":"cebpf4jnsgd1na2vs0mg"},{"bike_id":"ff91aebc-8ac3-4227-9db4-e2bf37c884a9","system_id":"levelo_inurba_marseille","lat":43.26952,"lon":5.38634,"is_reserved":false,"is_disabled":false,"rental_uris":{"android":"levelo://app?vid=ff91aebc-8ac3-4227-9db4-e2bf37c884a9","ios":"levelo://app?vid=ff91aebc-8ac3-4227-9db4-e2bf37c884a9"},"vehicle_type_id":"4","last_reported":1745933168,"current_range_meters":14800,"station_id":"ce4bhh92rcd13ifvqfh0","pricing_plan_id":"cebpf4jnsgd1na2vs0mg"},{"bike_id":"45863e3c-c555-49a1-9842-43ecd03180d1","system_id":"levelo_inurba_marseille","lat":43.26041,"lon":5.37547,"is_reserved":false,"is_disabled":false,"rental_uris":{"android":"levelo://app?vid=45863e3c-c555-49a1-9842-43ecd03180d1","ios":"levelo://app?vid=45863e3c-c555-49a1-9842-43ecd03180d1"},"vehicle_type_id":"4","last_reported":1745933168,"current_range_meters":15200,"station_id":"ce4bhgh2rcd13ifvqfa0","pricing_plan_id":"cebpf4jnsgd1na2vs0mg"},{"bike_id":"db5a8e16-2966-42bb-b7ab-8ba5944a58c5","system_id":"levelo_inurba_marseille","lat":43.26931,"lon":5.38921,"is_reserved":false,"is_disabled":false,"rental_uris":{"android":"levelo://app?vid=db5a8e16-2966-42bb-b7ab-8ba5944a58c5","ios":"levelo://app?vid=db5a8e16-2966-42bb-b7ab-8ba5944a58c5"},"vehicle_type_id":"4","last_reported":1745933168,"current_range_meters":14800,"station_id":"ce4bhhh2rcd13ifvqfl0","pricing_plan_id":"cebpf4jnsgd1na2vs0mg"},{"bike_id":"53d7edb4-9483-4fbc-b352-875b28488569","system_id":"levelo_inurba_marseille","lat":43.2811,"lon":5.37857,"is_reserved":false,"is_disabled":false,"rental_uris":{"android":"levelo://app?vid=53d7edb4-9483-4fbc-b352-875b28488569","ios":"levelo://app?vid=53d7edb4-9483-4fbc-b352-875b28488569"},"vehicle_type_id":"4","last_reported":1745933168,"current_range_meters":15200,"station_id":"ce4bha12rcd13ifvqee0","pricing_plan_id":"cebpf4jnsgd1na2vs0mg"},{"bike_id":"5622801f-b58a-45eb-b7a4-43b082c1beaf","system_id":"levelo_inurba_marseille","lat":43.28106,"lon":5.37839,"is_reserved":false,"is_disabled":false,"rental_uris":{"android":"levelo://app?vid=5622801f-b58a-45eb-b7a4-43b082c1beaf","ios":"levelo://app?vid=5622801f-b58a-45eb-b7a4-43b082c1beaf"},"vehicle_type_id":"4","last_reported":1745933168,"current_range_meters":15200,"station_id":"ce4bha12rcd13ifvqee0","pricing_plan_id":"cebpf4jnsgd1na2vs0mg"},{"bike_id":"aded9c91-29f0-4b8b-82de-7869644499ba","system_id":"levelo_inurba_marseille","lat":43.28274,"lon":5.35071,"is_reserved":false,"is_disabled":false,"rental_uris":{"android":"levelo://app?vid=aded9c91-29f0-4b8b-82de-7869644499ba","ios":"levelo://app?vid=aded9c91-29f0-4b8b-82de-7869644499ba"},"vehicle_type_id":"4","last_reported":1745933168,"current_range_meters":15200,"station_id":"ce4bhbp2rcd13ifvqerg","pricing_plan_id":"cebpf4jnsgd1na2vs0mg"},{"bike_id":"22c2edad-5827-4db2-9baf-92d83a801ba8","system_id":"levelo_inurba_marseille","lat":43.295457,"lon":5.422851,"is_reserved":false,"is_disabled":false,"rental_uris":{"android":"levelo://app?vid=22c2edad-5827-4db2-9baf-92d83a801ba8","ios":"levelo://app?vid=22c2edad-5827-4db2-9baf-92d83a801ba8"},"vehicle_type_id":"4","last_reported":1745933168,"current_range_meters":15200,"station_id":"ce4bhph2rcd13ifvqhdg","pricing_plan_id":"cebpf4jnsgd1na2vs0mg"},{"bike_id":"d669cb91-aec5-42f7-ab66-a1eb60fa9404","system_id":"levelo_inurba_marseille","lat":43.28277,"lon":5.35079,"is_reserved":false,"is_disabled":false,"rental_uris":{"android":"levelo://app?vid=d669cb91-aec5-42f7-ab66-a1eb60fa9404","ios":"levelo://app?vid=d669cb91-aec5-42f7-ab66-a1eb60fa9404"},"vehicle_type_id":"4","last_reported":1745933168,"current_range_meters":16000,"station_id":"ce4bhbp2rcd13ifvqerg","pricing_plan_id":"cebpf4jnsgd1na2vs0mg"},{"bike_id":"3ab249f0-5e6a-4218-ad51-5486a6eeacbd","system_id":"levelo_inurba_marseille","lat":43.304408,"lon":5.397364,"is_reserved":false,"is_disabled":false,"rental_uris":{"android":"levelo://app?vid=3ab249f0-5e6a-4218-ad51-5486a6eeacbd","ios":"levelo://app?vid=3ab249f0-5e6a-4218-ad51-5486a6eeacbd"},"vehicle_type_id":"4","last_reported":1745933168,"current_range_meters":16000,"station_id":"ce4bh092rcd13ifvqd20","pricing_plan_id":"cebpf4jnsgd1na2vs0mg"},{"bike_id":"ddf42e2f-5ba3-456f-b6b9-71a4fb220f7c","system_id":"levelo_inurba_marseille","lat":43.21753,"lon":5.34599,"is_reserved":false,"is_disabled":false,"rental_uris":{"android":"levelo://app?vid=ddf42e2f-5ba3-456f-b6b9-71a4fb220f7c","ios":"levelo://app?vid=ddf42e2f-5ba3-456f-b6b9-71a4fb220f7c"},"vehicle_type_id":"4","last_reported":1745933168,"current_range_meters":16000,"station_id":"","pricing_plan_id":"cebpf4jnsgd1na2vs0mg"},{"bike_id":"91419b51-a87b-438c-9e3a-9cc8bd0db318","system_id":"levelo_inurba_marseille","lat":43.32092,"lon":5.36781,"is_reserved":false,"is_disabled":false,"rental_uris":{"android":"levelo://app?vid=91419b51-a87b-438c-9e3a-9cc8bd0db318","ios":"levelo://app?vid=91419b51-a87b-438c-9e3a-9cc8bd0db318"},"vehicle_type_id":"4","last_reported":1745933168,"current_range_meters":16000,"station_id":"ce4bhrh2rcd13ifvqhug","pricing_plan_id":"cebpf4jnsgd1na2vs0mg"},{"bike_id":"ed82ac77-2173-4cc9-92dc-1f2e66e3bd99","system_id":"levelo_inurba_marseille","lat":43.26677,"lon":5.38268,"is_reserved":false,"is_disabled":false,"rental_uris":{"android":"levelo://app?vid=ed82ac77-2173-4cc9-92dc-1f2e66e3bd99","ios":"levelo://app?vid=ed82ac77-2173-4cc9-92dc-1f2e66e3bd99"},"vehicle_type_id":"4","last_reported":1745933168,"current_range_meters":16000,"station_id":"ce4bhg92rcd13ifvqf90","pricing_plan_id":"cebpf4jnsgd1na2vs0mg"},{"bike_id":"6ee3670a-c0ab-4af8-b925-c763c37bc0f4","system_id":"levelo_inurba_marseille","lat":43.286072,"lon":5.370552,"is_reserved":false,"is_disabled":false,"rental_uris":{"android":"levelo://app?vid=6ee3670a-c0ab-4af8-b925-c763c37bc0f4","ios":"levelo://app?vid=6ee3670a-c0ab-4af8-b925-c763c37bc0f4"},"vehicle_type_id":"4","last_reported":1745933168,"current_range_meters":16000,"station_id":"ce4bht12rcd13ifvqi60","pricing_plan_id":"cebpf4jnsgd1na2vs0mg"},{"bike_id":"1cb3da76-f497-49e4-a8a6-5a0629444d60","system_id":"levelo_inurba_marseille","lat":43.29947,"lon":5.36706,"is_reserved":false,"is_disabled":false,"rental_uris":{"android":"levelo://app?vid=1cb3da76-f497-49e4-a8a6-5a0629444d60","ios":"levelo://app?vid=1cb3da76-f497-49e4-a8a6-5a0629444d60"},"vehicle_type_id":"4","last_reported":1745933168,"current_range_meters":16000,"station_id":"","pricing_plan_id":"cebpf4jnsgd1na2vs0mg"},{"bike_id":"3da905a4-929f-4bd4-9c8b-0d65eabf5e95","system_id":"levelo_inurba_marseille","lat":43.24394,"lon":5.37046,"is_reserved":false,"is_disabled":false,"rental_uris":{"android":"levelo://app?vid=3da905a4-929f-4bd4-9c8b-0d65eabf5e95","ios":"levelo://app?vid=3da905a4-929f-4bd4-9c8b-0d65eabf5e95"},"vehicle_type_id":"4","last_reported":1745933168,"current_range_meters":16000,"station_id":"ce4bhhh2rcd13ifvqfk0","pricing_plan_id":"cebpf4jnsgd1na2vs0mg"},{"bike_id":"11d5d43a-e812-47f7-b832-2e1a60e860f7","system_id":"levelo_inurba_marseille","lat":43.27384,"lon":5.36245,"is_reserved":false,"is_disabled":false,"rental_uris":{"android":"levelo://app?vid=11d5d43a-e812-47f7-b832-2e1a60e860f7","ios":"levelo://app?vid=11d5d43a-e812-47f7-b832-2e1a60e860f7"},"vehicle_type_id":"4","last_reported":1745933168,"current_range_meters":16000,"station_id":"ce4bhbh2rcd13ifvqeo0","pricing_plan_id":"cebpf4jnsgd1na2vs0mg"},{"bike_id":"fe8960e1-228f-4306-bc25-b57b60a713c0","system_id":"levelo_inurba_marseille","lat":43.21752,"lon":5.34606,"is_reserved":false,"is_disabled":false,"rental_uris":{"android":"levelo://app?vid=fe8960e1-228f-4306-bc25-b57b60a713c0","ios":"levelo://app?vid=fe8960e1-228f-4306-bc25-b57b60a713c0"},"vehicle_type_id":"4","last_reported":1745933168,"current_range_meters":16400,"station_id":"st_cvj6r9ubvosntc0bgbag","pricing_plan_id":"cebpf4jnsgd1na2vs0mg"},{"bike_id":"bd78c49a-5120-4bbc-8349-46364b4b566c","system_id":"levelo_inurba_marseille","lat":43.24061,"lon":5.3774,"is_reserved":false,"is_disabled":false,"rental_uris":{"android":"levelo://app?vid=bd78c49a-5120-4bbc-8349-46364b4b566c","ios":"levelo://app?vid=bd78c49a-5120-4bbc-8349-46364b4b566c"},"vehicle_type_id":"4","last_reported":1745933168,"current_range_meters":16400,"station_id":"ce4bhnp2rcd13ifvqgvg","pricing_plan_id":"cebpf4jnsgd1na2vs0mg"},{"bike_id":"82ee886b-8997-44a7-a17b-27a57a0f9d04","system_id":"levelo_inurba_marseille","lat":43.30299,"lon":5.3688,"is_reserved":false,"is_disabled":false,"rental_uris":{"android":"levelo://app?vid=82ee886b-8997-44a7-a17b-27a57a0f9d04","ios":"levelo://app?vid=82ee886b-8997-44a7-a17b-27a57a0f9d04"},"vehicle_type_id":"4","last_reported":1745933168,"current_range_meters":16400,"station_id":"ce4bgqh2rcd13ifvqc5g","pricing_plan_id":"cebpf4jnsgd1na2vs0mg"},{"bike_id":"9154f141-62f2-45f5-83e8-fb2bddcfbaf0","system_id":"levelo_inurba_marseille","lat":43.26196,"lon":5.37933,"is_reserved":false,"is_disabled":false,"rental_uris":{"android":"levelo://app?vid=9154f141-62f2-45f5-83e8-fb2bddcfbaf0","ios":"levelo://app?vid=9154f141-62f2-45f5-83e8-fb2bddcfbaf0"},"vehicle_type_id":"4","last_reported":1745933168,"current_range_meters":16800,"station_id":"ce4bhjp2rcd13ifvqg90","pricing_plan_id":"cebpf4jnsgd1na2vs0mg"},{"bike_id":"e612035f-2878-4bec-9959-6bbcd4614a2f","system_id":"levelo_inurba_marseille","lat":43.32479,"lon":5.36559,"is_reserved":false,"is_disabled":false,"rental_uris":{"android":"levelo://app?vid=e612035f-2878-4bec-9959-6bbcd4614a2f","ios":"levelo://app?vid=e612035f-2878-4bec-9959-6bbcd4614a2f"},"vehicle_type_id":"4","last_reported":1745933168,"current_range_meters":16800,"station_id":"ce4bhs12rcd13ifvqhvg","pricing_plan_id":"cebpf4jnsgd1na2vs0mg"},{"bike_id":"433e0f22-12d1-4fbf-ae40-6e5d5b85afaa","system_id":"levelo_inurba_marseille","lat":43.29531,"lon":5.38542,"is_reserved":false,"is_disabled":false,"rental_uris":{"android":"levelo://app?vid=433e0f22-12d1-4fbf-ae40-6e5d5b85afaa","ios":"levelo://app?vid=433e0f22-12d1-4fbf-ae40-6e5d5b85afaa"},"vehicle_type_id":"4","last_reported":1745933168,"current_range_meters":16800,"station_id":"ce4bgih2rcd13ifvqba0","pricing_plan_id":"cebpf4jnsgd1na2vs0mg"},{"bike_id":"64f1c2a7-6551-4ce9-a97e-2bd365688bfa","system_id":"levelo_inurba_marseille","lat":43.27495,"lon":5.42447,"is_reserved":false,"is_disabled":false,"rental_uris":{"android":"levelo://app?vid=64f1c2a7-6551-4ce9-a97e-2bd365688bfa","ios":"levelo://app?vid=64f1c2a7-6551-4ce9-a97e-2bd365688bfa"},"vehicle_type_id":"4","last_reported":1745933168,"current_range_meters":16800,"station_id":"ce4bhn92rcd13ifvqgrg","pricing_plan_id":"cebpf4jnsgd1na2vs0mg"},{"bike_id":"fd0a5d2b-09f6-46e1-a6a6-3661a2ef4771","system_id":"levelo_inurba_marseille","lat":43.25906,"lon":5.4088,"is_reserved":false,"is_disabled":false,"rental_uris":{"android":"levelo://app?vid=fd0a5d2b-09f6-46e1-a6a6-3661a2ef4771","ios":"levelo://app?vid=fd0a5d2b-09f6-46e1-a6a6-3661a2ef4771"},"vehicle_type_id":"4","last_reported":1745933168,"current_range_meters":16800,"station_id":"ce4bhm92rcd13ifvqglg","pricing_plan_id":"cebpf4jnsgd1na2vs0mg"},{"bike_id":"4a8a1acd-ccc4-480e-8578-07ce1a4eda97","system_id":"levelo_inurba_marseille","lat":43.3124,"lon":5.36855,"is_reserved":false,"is_disabled":false,"rental_uris":{"android":"levelo://app?vid=4a8a1acd-ccc4-480e-8578-07ce1a4eda97","ios":"levelo://app?vid=4a8a1acd-ccc4-480e-8578-07ce1a4eda97"},"vehicle_type_id":"4","last_reported":1745933168,"current_range_meters":16800,"station_id":"ce4bgl92rcd13ifvqbq0","pricing_plan_id":"cebpf4jnsgd1na2vs0mg"},{"bike_id":"1ff7221b-8e1e-4dce-9e57-4aed861ca4b9","system_id":"levelo_inurba_marseille","lat":43.33725,"lon":5.39191,"is_reserved":false,"is_disabled":false,"rental_uris":{"android":"levelo://app?vid=1ff7221b-8e1e-4dce-9e57-4aed861ca4b9","ios":"levelo://app?vid=1ff7221b-8e1e-4dce-9e57-4aed861ca4b9"},"vehicle_type_id":"4","last_reported":1745933168,"current_range_meters":16800,"station_id":"ce4bhr92rcd13ifvqhsg","pricing_plan_id":"cebpf4jnsgd1na2vs0mg"},{"bike_id":"22e68cd3-34a8-49e4-8e1b-ea907ab02bbd","system_id":"levelo_inurba_marseille","lat":43.28266,"lon":5.35066,"is_reserved":false,"is_disabled":false,"rental_uris":{"android":"levelo://app?vid=22e68cd3-34a8-49e4-8e1b-ea907ab02bbd","ios":"levelo://app?vid=22e68cd3-34a8-49e4-8e1b-ea907ab02bbd"},"vehicle_type_id":"4","last_reported":1745933168,"current_range_meters":17200,"station_id":"ce4bhbp2rcd13ifvqerg","pricing_plan_id":"cebpf4jnsgd1na2vs0mg"},{"bike_id":"4d16ccc8-ca1a-41cd-a528-cec906aeed0e","system_id":"levelo_inurba_marseille","lat":43.2862,"lon":5.35097,"is_reserved":false,"is_disabled":false,"rental_uris":{"android":"levelo://app?vid=4d16ccc8-ca1a-41cd-a528-cec906aeed0e","ios":"levelo://app?vid=4d16ccc8-ca1a-41cd-a528-cec906aeed0e"},"vehicle_type_id":"4","last_reported":1745933168,"current_range_meters":17200,"station_id":"ce4bhch2rcd13ifvqeug","pricing_plan_id":"cebpf4jnsgd1na2vs0mg"},{"bike_id":"780e1186-642d-4930-a3a8-2ca05ae13360","system_id":"levelo_inurba_marseille","lat":43.284749,"lon":5.38419,"is_reserved":false,"is_disabled":false,"rental_uris":{"android":"levelo://app?vid=780e1186-642d-4930-a3a8-2ca05ae13360","ios":"levelo://app?vid=780e1186-642d-4930-a3a8-2ca05ae13360"},"vehicle_type_id":"4","last_reported":1745933168,"current_range_meters":17600,"station_id":"ce4bh512rcd13ifvqe3g","pricing_plan_id":"cebpf4jnsgd1na2vs0mg"},{"bike_id":"19bc52c3-74db-454f-9839-b056878a7608","system_id":"levelo_inurba_marseille","lat":43.266895,"lon":5.382739,"is_reserved":false,"is_disabled":true,"rental_uris":{"android":"levelo://app?vid=19bc52c3-74db-454f-9839-b056878a7608","ios":"levelo://app?vid=19bc52c3-74db-454f-9839-b056878a7608"},"vehicle_type_id":"4","last_reported":1745933168,"current_range_meters":17200,"station_id":"ce4bhg92rcd13ifvqf90","pricing_plan_id":"cebpf4jnsgd1na2vs0mg"},{"bike_id":"4958d449-c7d8-4d41-b08d-ff11ddaaee41","system_id":"levelo_inurba_marseille","lat":43.28274,"lon":5.35072,"is_reserved":false,"is_disabled":false,"rental_uris":{"android":"levelo://app?vid=4958d449-c7d8-4d41-b08d-ff11ddaaee41","ios":"levelo://app?vid=4958d449-c7d8-4d41-b08d-ff11ddaaee41"},"vehicle_type_id":"4","last_reported":1745933168,"current_range_meters":17200,"station_id":"ce4bhbp2rcd13ifvqerg","pricing_plan_id":"cebpf4jnsgd1na2vs0mg"},{"bike_id":"d99bbe3b-2af1-4b73-8e26-c06f6faeba9b","system_id":"levelo_inurba_marseille","lat":43.32109,"lon":5.36771,"is_reserved":false,"is_disabled":false,"rental_uris":{"android":"levelo://app?vid=d99bbe3b-2af1-4b73-8e26-c06f6faeba9b","ios":"levelo://app?vid=d99bbe3b-2af1-4b73-8e26-c06f6faeba9b"},"vehicle_type_id":"4","last_reported":1745933168,"current_range_meters":17200,"station_id":"ce4bhrh2rcd13ifvqhug","pricing_plan_id":"cebpf4jnsgd1na2vs0mg"},{"bike_id":"90ec756e-7d75-44ae-9837-bcc6f8c453df","system_id":"levelo_inurba_marseille","lat":43.23198,"lon":5.35575,"is_reserved":false,"is_disabled":false,"rental_uris":{"android":"levelo://app?vid=90ec756e-7d75-44ae-9837-bcc6f8c453df","ios":"levelo://app?vid=90ec756e-7d75-44ae-9837-bcc6f8c453df"},"vehicle_type_id":"4","last_reported":1745933168,"current_range_meters":17200,"station_id":"ce4bhu92rcd13ifvqi70","pricing_plan_id":"cebpf4jnsgd1na2vs0mg"},{"bike_id":"a3d053db-9d0b-4e97-817b-6015252bd932","system_id":"levelo_inurba_marseille","lat":43.30903,"lon":5.36859,"is_reserved":false,"is_disabled":false,"rental_uris":{"android":"levelo://app?vid=a3d053db-9d0b-4e97-817b-6015252bd932","ios":"levelo://app?vid=a3d053db-9d0b-4e97-817b-6015252bd932"},"vehicle_type_id":"4","last_reported":1745933168,"current_range_meters":17200,"station_id":"ce4bgn92rcd13ifvqbvg","pricing_plan_id":"cebpf4jnsgd1na2vs0mg"},{"bike_id":"dee04607-f3fb-46ac-861b-4a8b9e886430","system_id":"levelo_inurba_marseille","lat":43.2827,"lon":5.35073,"is_reserved":false,"is_disabled":false,"rental_uris":{"android":"levelo://app?vid=dee04607-f3fb-46ac-861b-4a8b9e886430","ios":"levelo://app?vid=dee04607-f3fb-46ac-861b-4a8b9e886430"},"vehicle_type_id":"4","last_reported":1745933168,"current_range_meters":17200,"station_id":"ce4bhbp2rcd13ifvqerg","pricing_plan_id":"cebpf4jnsgd1na2vs0mg"},{"bike_id":"ee58d2d0-2375-47cc-8dde-0456162a3bd0","system_id":"levelo_inurba_marseille","lat":43.22935,"lon":5.35363,"is_reserved":false,"is_disabled":false,"rental_uris":{"android":"levelo://app?vid=ee58d2d0-2375-47cc-8dde-0456162a3bd0","ios":"levelo://app?vid=ee58d2d0-2375-47cc-8dde-0456162a3bd0"},"vehicle_type_id":"4","last_reported":1745933168,"current_range_meters":17200,"station_id":"cpo3532slgdg3j2ikp40","pricing_plan_id":"cebpf4jnsgd1na2vs0mg"},{"bike_id":"50ef3048-4fb3-4578-a8a6-219efe787dca","system_id":"levelo_inurba_marseille","lat":43.24548,"lon":5.39526,"is_reserved":false,"is_disabled":false,"rental_uris":{"android":"levelo://app?vid=50ef3048-4fb3-4578-a8a6-219efe787dca","ios":"levelo://app?vid=50ef3048-4fb3-4578-a8a6-219efe787dca"},"vehicle_type_id":"4","last_reported":1745933168,"current_range_meters":17200,"station_id":"ce4bhlp2rcd13ifvqgjg","pricing_plan_id":"cebpf4jnsgd1na2vs0mg"},{"bike_id":"b547e79a-2c60-4978-a2b8-aff463cb04a7","system_id":"levelo_inurba_marseille","lat":43.24084,"lon":5.3773,"is_reserved":false,"is_disabled":false,"rental_uris":{"android":"levelo://app?vid=b547e79a-2c60-4978-a2b8-aff463cb04a7","ios":"levelo://app?vid=b547e79a-2c60-4978-a2b8-aff463cb04a7"},"vehicle_type_id":"4","last_reported":1745933168,"current_range_meters":17600,"station_id":"ce4bhnp2rcd13ifvqgvg","pricing_plan_id":"cebpf4jnsgd1na2vs0mg"},{"bike_id":"216ab7a4-16be-4673-8874-de83fe9c21f1","system_id":"levelo_inurba_marseille","lat":43.31067,"lon":5.40093,"is_reserved":false,"is_disabled":false,"rental_uris":{"android":"levelo://app?vid=216ab7a4-16be-4673-8874-de83fe9c21f1","ios":"levelo://app?vid=216ab7a4-16be-4673-8874-de83fe9c21f1"},"vehicle_type_id":"4","last_reported":1745933168,"current_range_meters":17600,"station_id":"","pricing_plan_id":"cebpf4jnsgd1na2vs0mg"},{"bike_id":"d4efe8ef-416e-4644-9049-46241eae8ceb","system_id":"levelo_inurba_marseille","lat":43.30784,"lon":5.37635,"is_reserved":false,"is_disabled":false,"rental_uris":{"android":"levelo://app?vid=d4efe8ef-416e-4644-9049-46241eae8ceb","ios":"levelo://app?vid=d4efe8ef-416e-4644-9049-46241eae8ceb"},"vehicle_type_id":"4","last_reported":1745933168,"current_range_meters":17600,"station_id":"ce4bgv92rcd13ifvqcq0","pricing_plan_id":"cebpf4jnsgd1na2vs0mg"},{"bike_id":"6a169abf-1300-4de6-9df8-f0c244509f77","system_id":"levelo_inurba_marseille","lat":43.217493,"lon":5.346015,"is_reserved":false,"is_disabled":false,"rental_uris":{"android":"levelo://app?vid=6a169abf-1300-4de6-9df8-f0c244509f77","ios":"levelo://app?vid=6a169abf-1300-4de6-9df8-f0c244509f77"},"vehicle_type_id":"4","last_reported":1745933168,"current_range_meters":17600,"station_id":"","pricing_plan_id":"cebpf4jnsgd1na2vs0mg"},{"bike_id":"2ffcb5dc-6039-4018-8890-4d281a5d40f1","system_id":"levelo_inurba_marseille","lat":43.23162,"lon":5.43708,"is_reserved":false,"is_disabled":false,"rental_uris":{"android":"levelo://app?vid=2ffcb5dc-6039-4018-8890-4d281a5d40f1","ios":"levelo://app?vid=2ffcb5dc-6039-4018-8890-4d281a5d40f1"},"vehicle_type_id":"4","last_reported":1745933168,"current_range_meters":17600,"station_id":"ce4bhmp2rcd13ifvqgog","pricing_plan_id":"cebpf4jnsgd1na2vs0mg"},{"bike_id":"868d4b37-0c37-4c74-8ea4-347cad32c41a","system_id":"levelo_inurba_marseille","lat":43.24999,"lon":5.38932,"is_reserved":false,"is_disabled":false,"rental_uris":{"android":"levelo://app?vid=868d4b37-0c37-4c74-8ea4-347cad32c41a","ios":"levelo://app?vid=868d4b37-0c37-4c74-8ea4-347cad32c41a"},"vehicle_type_id":"4","last_reported":1745933168,"current_range_meters":17600,"station_id":"ce4bhgp2rcd13ifvqfd0","pricing_plan_id":"cebpf4jnsgd1na2vs0mg"},{"bike_id":"e5e92a64-e709-4b1a-a9b1-cbffe85789ca","system_id":"levelo_inurba_marseille","lat":43.2554,"lon":5.38143,"is_reserved":false,"is_disabled":false,"rental_uris":{"android":"levelo://app?vid=e5e92a64-e709-4b1a-a9b1-cbffe85789ca","ios":"levelo://app?vid=e5e92a64-e709-4b1a-a9b1-cbffe85789ca"},"vehicle_type_id":"4","last_reported":1745933168,"current_range_meters":17600,"station_id":"","pricing_plan_id":"cebpf4jnsgd1na2vs0mg"},{"bike_id":"ce2710b2-8aee-43d8-8ef3-2843f2527c66","system_id":"levelo_inurba_marseille","lat":43.2417,"lon":5.364012,"is_reserved":false,"is_disabled":false,"rental_uris":{"android":"levelo://app?vid=ce2710b2-8aee-43d8-8ef3-2843f2527c66","ios":"levelo://app?vid=ce2710b2-8aee-43d8-8ef3-2843f2527c66"},"vehicle_type_id":"4","last_reported":1745933168,"current_range_meters":17600,"station_id":"cpo36qri1sfpv3e86is0","pricing_plan_id":"cebpf4jnsgd1na2vs0mg"},{"bike_id":"c9baa2e7-f15a-4234-9eb4-64ff026427df","system_id":"levelo_inurba_marseille","lat":43.30806,"lon":5.38135,"is_reserved":false,"is_disabled":false,"rental_uris":{"android":"levelo://app?vid=c9baa2e7-f15a-4234-9eb4-64ff026427df","ios":"levelo://app?vid=c9baa2e7-f15a-4234-9eb4-64ff026427df"},"vehicle_type_id":"4","last_reported":1745933168,"current_range_meters":17600,"station_id":"ce4bgt12rcd13ifvqce0","pricing_plan_id":"cebpf4jnsgd1na2vs0mg"},{"bike_id":"455dfde0-ee00-4454-8173-fd4da0f209e8","system_id":"levelo_inurba_marseille","lat":43.2736,"lon":5.36253,"is_reserved":false,"is_disabled":false,"rental_uris":{"android":"levelo://app?vid=455dfde0-ee00-4454-8173-fd4da0f209e8","ios":"levelo://app?vid=455dfde0-ee00-4454-8173-fd4da0f209e8"},"vehicle_type_id":"4","last_reported":1745933168,"current_range_meters":18000,"station_id":"ce4bhbh2rcd13ifvqeo0","pricing_plan_id":"cebpf4jnsgd1na2vs0mg"},{"bike_id":"58505bbd-07de-4b77-afe6-6ed045b4c50b","system_id":"levelo_inurba_marseille","lat":43.28276,"lon":5.35055,"is_reserved":false,"is_disabled":false,"rental_uris":{"android":"levelo://app?vid=58505bbd-07de-4b77-afe6-6ed045b4c50b","ios":"levelo://app?vid=58505bbd-07de-4b77-afe6-6ed045b4c50b"},"vehicle_type_id":"4","last_reported":1745933168,"current_range_meters":18000,"station_id":"ce4bhbp2rcd13ifvqerg","pricing_plan_id":"cebpf4jnsgd1na2vs0mg"},{"bike_id":"4ea69884-a3bb-4872-9fa9-f0770c3eb6b6","system_id":"levelo_inurba_marseille","lat":43.24065,"lon":5.37749,"is_reserved":false,"is_disabled":false,"rental_uris":{"android":"levelo://app?vid=4ea69884-a3bb-4872-9fa9-f0770c3eb6b6","ios":"levelo://app?vid=4ea69884-a3bb-4872-9fa9-f0770c3eb6b6"},"vehicle_type_id":"4","last_reported":1745933168,"current_range_meters":18000,"station_id":"ce4bhnp2rcd13ifvqgvg","pricing_plan_id":"cebpf4jnsgd1na2vs0mg"},{"bike_id":"b75432a8-2a9b-419b-8893-7f0e3b2e1407","system_id":"levelo_inurba_marseille","lat":43.28274,"lon":5.35061,"is_reserved":false,"is_disabled":false,"rental_uris":{"android":"levelo://app?vid=b75432a8-2a9b-419b-8893-7f0e3b2e1407","ios":"levelo://app?vid=b75432a8-2a9b-419b-8893-7f0e3b2e1407"},"vehicle_type_id":"4","last_reported":1745933168,"current_range_meters":18000,"station_id":"ce4bhbp2rcd13ifvqerg","pricing_plan_id":"cebpf4jnsgd1na2vs0mg"},{"bike_id":"9f34a774-aaea-4e08-8d13-cc6a96aeb4c4","system_id":"levelo_inurba_marseille","lat":43.28409,"lon":5.37511,"is_reserved":false,"is_disabled":false,"rental_uris":{"android":"levelo://app?vid=9f34a774-aaea-4e08-8d13-cc6a96aeb4c4","ios":"levelo://app?vid=9f34a774-aaea-4e08-8d13-cc6a96aeb4c4"},"vehicle_type_id":"4","last_reported":1745933168,"current_range_meters":18000,"station_id":"ce4bh412rcd13ifvqds0","pricing_plan_id":"cebpf4jnsgd1na2vs0mg"},{"bike_id":"759eb48b-b951-4aaf-a183-5392024d1245","system_id":"levelo_inurba_marseille","lat":43.276212,"lon":5.36115,"is_reserved":false,"is_disabled":false,"rental_uris":{"android":"levelo://app?vid=759eb48b-b951-4aaf-a183-5392024d1245","ios":"levelo://app?vid=759eb48b-b951-4aaf-a183-5392024d1245"},"vehicle_type_id":"4","last_reported":1745933168,"current_range_meters":18000,"station_id":"ce4bgj92rcd13ifvqbe0","pricing_plan_id":"cebpf4jnsgd1na2vs0mg"},{"bike_id":"3da44d23-0e29-4488-bd4f-dc4b674aff05","system_id":"levelo_inurba_marseille","lat":43.28427,"lon":5.37517,"is_reserved":false,"is_disabled":false,"rental_uris":{"android":"levelo://app?vid=3da44d23-0e29-4488-bd4f-dc4b674aff05","ios":"levelo://app?vid=3da44d23-0e29-4488-bd4f-dc4b674aff05"},"vehicle_type_id":"4","last_reported":1745933168,"current_range_meters":18800,"station_id":"ce4bh412rcd13ifvqds0","pricing_plan_id":"cebpf4jnsgd1na2vs0mg"},{"bike_id":"c2c2df9a-1f5f-49a8-a3ca-b37ef81f0a19","system_id":"levelo_inurba_marseille","lat":43.28618,"lon":5.351,"is_reserved":false,"is_disabled":false,"rental_uris":{"android":"levelo://app?vid=c2c2df9a-1f5f-49a8-a3ca-b37ef81f0a19","ios":"levelo://app?vid=c2c2df9a-1f5f-49a8-a3ca-b37ef81f0a19"},"vehicle_type_id":"4","last_reported":1745933168,"current_range_meters":18800,"station_id":"ce4bhch2rcd13ifvqeug","pricing_plan_id":"cebpf4jnsgd1na2vs0mg"},{"bike_id":"942e1be8-0b4c-4b58-97b4-0482c4bdb7e4","system_id":"levelo_inurba_marseille","lat":43.30899,"lon":5.36847,"is_reserved":false,"is_disabled":false,"rental_uris":{"android":"levelo://app?vid=942e1be8-0b4c-4b58-97b4-0482c4bdb7e4","ios":"levelo://app?vid=942e1be8-0b4c-4b58-97b4-0482c4bdb7e4"},"vehicle_type_id":"4","last_reported":1745933168,"current_range_meters":18800,"station_id":"ce4bgn92rcd13ifvqbvg","pricing_plan_id":"cebpf4jnsgd1na2vs0mg"},{"bike_id":"4678f98c-9605-485e-9f52-d38650b7e3f9","system_id":"levelo_inurba_marseille","lat":43.32486,"lon":5.36559,"is_reserved":false,"is_disabled":false,"rental_uris":{"android":"levelo://app?vid=4678f98c-9605-485e-9f52-d38650b7e3f9","ios":"levelo://app?vid=4678f98c-9605-485e-9f52-d38650b7e3f9"},"vehicle_type_id":"4","last_reported":1745933168,"current_range_meters":18800,"station_id":"ce4bhs12rcd13ifvqhvg","pricing_plan_id":"cebpf4jnsgd1na2vs0mg"},{"bike_id":"ae2efabe-eef8-469f-9152-24e2791709f2","system_id":"levelo_inurba_marseille","lat":43.28279,"lon":5.35053,"is_reserved":false,"is_disabled":false,"rental_uris":{"android":"levelo://app?vid=ae2efabe-eef8-469f-9152-24e2791709f2","ios":"levelo://app?vid=ae2efabe-eef8-469f-9152-24e2791709f2"},"vehicle_type_id":"4","last_reported":1745933168,"current_range_meters":18800,"station_id":"ce4bhbp2rcd13ifvqerg","pricing_plan_id":"cebpf4jnsgd1na2vs0mg"},{"bike_id":"8179376d-d4e0-4616-b23d-8a06eae09f1a","system_id":"levelo_inurba_marseille","lat":43.341462,"lon":5.409118,"is_reserved":false,"is_disabled":false,"rental_uris":{"android":"levelo://app?vid=8179376d-d4e0-4616-b23d-8a06eae09f1a","ios":"levelo://app?vid=8179376d-d4e0-4616-b23d-8a06eae09f1a"},"vehicle_type_id":"4","last_reported":1745933168,"current_range_meters":18800,"station_id":"ce4bhqh2rcd13ifvqhlg","pricing_plan_id":"cebpf4jnsgd1na2vs0mg"},{"bike_id":"fb310173-ccca-4ac6-b600-ca40b2920513","system_id":"levelo_inurba_marseille","lat":43.28895,"lon":5.35841,"is_reserved":false,"is_disabled":false,"rental_uris":{"android":"levelo://app?vid=fb310173-ccca-4ac6-b600-ca40b2920513","ios":"levelo://app?vid=fb310173-ccca-4ac6-b600-ca40b2920513"},"vehicle_type_id":"4","last_reported":1745933168,"current_range_meters":19200,"station_id":"ce4bhb12rcd13ifvqem0","pricing_plan_id":"cebpf4jnsgd1na2vs0mg"},{"bike_id":"fd7c146b-9aeb-4c58-b847-e79e7839d117","system_id":"levelo_inurba_marseille","lat":43.2927,"lon":5.38439,"is_reserved":false,"is_disabled":false,"rental_uris":{"android":"levelo://app?vid=fd7c146b-9aeb-4c58-b847-e79e7839d117","ios":"levelo://app?vid=fd7c146b-9aeb-4c58-b847-e79e7839d117"},"vehicle_type_id":"4","last_reported":1745933168,"current_range_meters":19200,"station_id":"ce4bh692rcd13ifvqea0","pricing_plan_id":"cebpf4jnsgd1na2vs0mg"},{"bike_id":"d790bba5-0573-4c47-8999-23421e069bf8","system_id":"levelo_inurba_marseille","lat":43.23971,"lon":5.36632,"is_reserved":false,"is_disabled":false,"rental_uris":{"android":"levelo://app?vid=d790bba5-0573-4c47-8999-23421e069bf8","ios":"levelo://app?vid=d790bba5-0573-4c47-8999-23421e069bf8"},"vehicle_type_id":"4","last_reported":1745933168,"current_range_meters":19200,"station_id":"ce4bhi12rcd13ifvqfp0","pricing_plan_id":"cebpf4jnsgd1na2vs0mg"},{"bike_id":"3f2c8720-4262-4c4b-b203-35899e59c127","system_id":"levelo_inurba_marseille","lat":43.34153,"lon":5.40902,"is_reserved":false,"is_disabled":false,"rental_uris":{"android":"levelo://app?vid=3f2c8720-4262-4c4b-b203-35899e59c127","ios":"levelo://app?vid=3f2c8720-4262-4c4b-b203-35899e59c127"},"vehicle_type_id":"4","last_reported":1745933168,"current_range_meters":19200,"station_id":"ce4bhqh2rcd13ifvqhlg","pricing_plan_id":"cebpf4jnsgd1na2vs0mg"},{"bike_id":"42065952-572d-4841-a19e-a1b9cf9387c7","system_id":"levelo_inurba_marseille","lat":43.27813,"lon":5.40697,"is_reserved":false,"is_disabled":false,"rental_uris":{"android":"levelo://app?vid=42065952-572d-4841-a19e-a1b9cf9387c7","ios":"levelo://app?vid=42065952-572d-4841-a19e-a1b9cf9387c7"},"vehicle_type_id":"4","last_reported":1745933168,"current_range_meters":19200,"station_id":"ce4bhnh2rcd13ifvqgtg","pricing_plan_id":"cebpf4jnsgd1na2vs0mg"},{"bike_id":"d2989b9c-f0be-4d57-a4dd-988e148c71a7","system_id":"levelo_inurba_marseille","lat":43.29909,"lon":5.37469,"is_reserved":false,"is_disabled":false,"rental_uris":{"android":"levelo://app?vid=d2989b9c-f0be-4d57-a4dd-988e148c71a7","ios":"levelo://app?vid=d2989b9c-f0be-4d57-a4dd-988e148c71a7"},"vehicle_type_id":"4","last_reported":1745933168,"current_range_meters":19200,"station_id":"ce4bgjh2rcd13ifvqbg0","pricing_plan_id":"cebpf4jnsgd1na2vs0mg"},{"bike_id":"016073a1-ab6a-4efc-a1c0-8af3b4d2a596","system_id":"levelo_inurba_marseille","lat":43.29259,"lon":5.40901,"is_reserved":false,"is_disabled":false,"rental_uris":{"android":"levelo://app?vid=016073a1-ab6a-4efc-a1c0-8af3b4d2a596","ios":"levelo://app?vid=016073a1-ab6a-4efc-a1c0-8af3b4d2a596"},"vehicle_type_id":"4","last_reported":1745933168,"current_range_meters":19200,"station_id":"ce4bh192rcd13ifvqdc0","pricing_plan_id":"cebpf4jnsgd1na2vs0mg"},{"bike_id":"86c2979e-8cf6-48ed-bdb1-835ff11e3adc","system_id":"levelo_inurba_marseille","lat":43.25371,"lon":5.41833,"is_reserved":false,"is_disabled":false,"rental_uris":{"android":"levelo://app?vid=86c2979e-8cf6-48ed-bdb1-835ff11e3adc","ios":"levelo://app?vid=86c2979e-8cf6-48ed-bdb1-835ff11e3adc"},"vehicle_type_id":"4","last_reported":1745933168,"current_range_meters":19200,"station_id":"","pricing_plan_id":"cebpf4jnsgd1na2vs0mg"},{"bike_id":"fce2c520-92d3-4d18-810b-8d643fc15a1a","system_id":"levelo_inurba_marseille","lat":43.23061,"lon":5.35494,"is_reserved":false,"is_disabled":false,"rental_uris":{"android":"levelo://app?vid=fce2c520-92d3-4d18-810b-8d643fc15a1a","ios":"levelo://app?vid=fce2c520-92d3-4d18-810b-8d643fc15a1a"},"vehicle_type_id":"4","last_reported":1745933168,"current_range_meters":19200,"station_id":"cpo3342slgdg3j2ifvpg","pricing_plan_id":"cebpf4jnsgd1na2vs0mg"},{"bike_id":"9858d9d4-4e4a-4d04-84c5-3c2ea2c1da71","system_id":"levelo_inurba_marseille","lat":43.29196,"lon":5.35795,"is_reserved":false,"is_disabled":false,"rental_uris":{"android":"levelo://app?vid=9858d9d4-4e4a-4d04-84c5-3c2ea2c1da71","ios":"levelo://app?vid=9858d9d4-4e4a-4d04-84c5-3c2ea2c1da71"},"vehicle_type_id":"4","last_reported":1745933168,"current_range_meters":19200,"station_id":"ce4bhb12rcd13ifvqel0","pricing_plan_id":"cebpf4jnsgd1na2vs0mg"},{"bike_id":"8090aeaf-2933-45f6-99cf-4d338186ea2e","system_id":"levelo_inurba_marseille","lat":43.28424,"lon":5.34981,"is_reserved":false,"is_disabled":false,"rental_uris":{"android":"levelo://app?vid=8090aeaf-2933-45f6-99cf-4d338186ea2e","ios":"levelo://app?vid=8090aeaf-2933-45f6-99cf-4d338186ea2e"},"vehicle_type_id":"4","last_reported":1745933168,"current_range_meters":19200,"station_id":"ce4bhbh2rcd13ifvqepg","pricing_plan_id":"cebpf4jnsgd1na2vs0mg"},{"bike_id":"2b3d2297-dc94-4f65-82b4-e119322bda26","system_id":"levelo_inurba_marseille","lat":43.24386,"lon":5.37055,"is_reserved":false,"is_disabled":false,"rental_uris":{"android":"levelo://app?vid=2b3d2297-dc94-4f65-82b4-e119322bda26","ios":"levelo://app?vid=2b3d2297-dc94-4f65-82b4-e119322bda26"},"vehicle_type_id":"4","last_reported":1745933168,"current_range_meters":18800,"station_id":"ce4bhhh2rcd13ifvqfk0","pricing_plan_id":"cebpf4jnsgd1na2vs0mg"},{"bike_id":"404f8bb0-e61e-473d-84e3-ad9a44a44b05","system_id":"levelo_inurba_marseille","lat":43.2841,"lon":5.34976,"is_reserved":false,"is_disabled":false,"rental_uris":{"android":"levelo://app?vid=404f8bb0-e61e-473d-84e3-ad9a44a44b05","ios":"levelo://app?vid=404f8bb0-e61e-473d-84e3-ad9a44a44b05"},"vehicle_type_id":"4","last_reported":1745933168,"current_range_meters":19200,"station_id":"ce4bhbh2rcd13ifvqepg","pricing_plan_id":"cebpf4jnsgd1na2vs0mg"},{"bike_id":"08c5e459-37cf-4345-8eeb-c8cc8af7012e","system_id":"levelo_inurba_marseille","lat":43.297126,"lon":5.376812,"is_reserved":false,"is_disabled":false,"rental_uris":{"android":"levelo://app?vid=08c5e459-37cf-4345-8eeb-c8cc8af7012e","ios":"levelo://app?vid=08c5e459-37cf-4345-8eeb-c8cc8af7012e"},"vehicle_type_id":"4","last_reported":1745933168,"current_range_meters":19600,"station_id":"ce4bgkh2rcd13ifvqbl0","pricing_plan_id":"cebpf4jnsgd1na2vs0mg"},{"bike_id":"4d766133-e385-4cb8-a67e-8173ba418eb0","system_id":"levelo_inurba_marseille","lat":43.26958,"lon":5.38634,"is_reserved":false,"is_disabled":false,"rental_uris":{"android":"levelo://app?vid=4d766133-e385-4cb8-a67e-8173ba418eb0","ios":"levelo://app?vid=4d766133-e385-4cb8-a67e-8173ba418eb0"},"vehicle_type_id":"4","last_reported":1745933168,"current_range_meters":19200,"station_id":"ce4bhh92rcd13ifvqfh0","pricing_plan_id":"cebpf4jnsgd1na2vs0mg"},{"bike_id":"a6d0ce6a-843f-4729-9a07-a84d24e9d12a","system_id":"levelo_inurba_marseille","lat":43.24169,"lon":5.3638,"is_reserved":false,"is_disabled":false,"rental_uris":{"android":"levelo://app?vid=a6d0ce6a-843f-4729-9a07-a84d24e9d12a","ios":"levelo://app?vid=a6d0ce6a-843f-4729-9a07-a84d24e9d12a"},"vehicle_type_id":"4","last_reported":1745933168,"current_range_meters":19600,"station_id":"cpo36qri1sfpv3e86is0","pricing_plan_id":"cebpf4jnsgd1na2vs0mg"},{"bike_id":"d6665fb9-3c02-4097-a9a2-92f1b91726a2","system_id":"levelo_inurba_marseille","lat":43.29849,"lon":5.36259,"is_reserved":false,"is_disabled":false,"rental_uris":{"android":"levelo://app?vid=d6665fb9-3c02-4097-a9a2-92f1b91726a2","ios":"levelo://app?vid=d6665fb9-3c02-4097-a9a2-92f1b91726a2"},"vehicle_type_id":"4","last_reported":1745933168,"current_range_meters":19600,"station_id":"ce4bgpp2rcd13ifvqc3g","pricing_plan_id":"cebpf4jnsgd1na2vs0mg"},{"bike_id":"637f17b1-a980-4bc5-993d-9a9de04fb5bf","system_id":"levelo_inurba_marseille","lat":43.30702,"lon":5.36736,"is_reserved":false,"is_disabled":false,"rental_uris":{"android":"levelo://app?vid=637f17b1-a980-4bc5-993d-9a9de04fb5bf","ios":"levelo://app?vid=637f17b1-a980-4bc5-993d-9a9de04fb5bf"},"vehicle_type_id":"4","last_reported":1745933168,"current_range_meters":20000,"station_id":"","pricing_plan_id":"cebpf4jnsgd1na2vs0mg"},{"bike_id":"d1d133fe-cc4a-449f-883b-2365bae86f00","system_id":"levelo_inurba_marseille","lat":43.27894,"lon":5.37999,"is_reserved":false,"is_disabled":false,"rental_uris":{"android":"levelo://app?vid=d1d133fe-cc4a-449f-883b-2365bae86f00","ios":"levelo://app?vid=d1d133fe-cc4a-449f-883b-2365bae86f00"},"vehicle_type_id":"4","last_reported":1745933168,"current_range_meters":19600,"station_id":"ce4bhf92rcd13ifvqf50","pricing_plan_id":"cebpf4jnsgd1na2vs0mg"},{"bike_id":"b26a0b33-650f-4f7b-8536-58a942167ba4","system_id":"levelo_inurba_marseille","lat":43.23226,"lon":5.3557,"is_reserved":false,"is_disabled":false,"rental_uris":{"android":"levelo://app?vid=b26a0b33-650f-4f7b-8536-58a942167ba4","ios":"levelo://app?vid=b26a0b33-650f-4f7b-8536-58a942167ba4"},"vehicle_type_id":"4","last_reported":1745933168,"current_range_meters":20000,"station_id":"ce4bhu92rcd13ifvqi70","pricing_plan_id":"cebpf4jnsgd1na2vs0mg"},{"bike_id":"abefea8f-524f-4141-84fd-92767c68f350","system_id":"levelo_inurba_marseille","lat":43.28418,"lon":5.34978,"is_reserved":false,"is_disabled":false,"rental_uris":{"android":"levelo://app?vid=abefea8f-524f-4141-84fd-92767c68f350","ios":"levelo://app?vid=abefea8f-524f-4141-84fd-92767c68f350"},"vehicle_type_id":"4","last_reported":1745933168,"current_range_meters":20000,"station_id":"ce4bhbh2rcd13ifvqepg","pricing_plan_id":"cebpf4jnsgd1na2vs0mg"},{"bike_id":"a33a99f1-2499-4466-8a20-94e1db48d19e","system_id":"levelo_inurba_marseille","lat":43.28414,"lon":5.3499,"is_reserved":false,"is_disabled":false,"rental_uris":{"android":"levelo://app?vid=a33a99f1-2499-4466-8a20-94e1db48d19e","ios":"levelo://app?vid=a33a99f1-2499-4466-8a20-94e1db48d19e"},"vehicle_type_id":"4","last_reported":1745933168,"current_range_meters":20000,"station_id":"ce4bhbh2rcd13ifvqepg","pricing_plan_id":"cebpf4jnsgd1na2vs0mg"},{"bike_id":"da238281-dc76-4013-9cbc-c9dbb2795121","system_id":"levelo_inurba_marseille","lat":43.28252,"lon":5.35073,"is_reserved":false,"is_disabled":false,"rental_uris":{"android":"levelo://app?vid=da238281-dc76-4013-9cbc-c9dbb2795121","ios":"levelo://app?vid=da238281-dc76-4013-9cbc-c9dbb2795121"},"vehicle_type_id":"4","last_reported":1745933168,"current_range_meters":20000,"station_id":"ce4bhbp2rcd13ifvqerg","pricing_plan_id":"cebpf4jnsgd1na2vs0mg"},{"bike_id":"413870a0-84a9-4857-aee6-fde271b5d85e","system_id":"levelo_inurba_marseille","lat":43.30696,"lon":5.36834,"is_reserved":false,"is_disabled":false,"rental_uris":{"android":"levelo://app?vid=413870a0-84a9-4857-aee6-fde271b5d85e","ios":"levelo://app?vid=413870a0-84a9-4857-aee6-fde271b5d85e"},"vehicle_type_id":"4","last_reported":1745933168,"current_range_meters":20000,"station_id":"","pricing_plan_id":"cebpf4jnsgd1na2vs0mg"},{"bike_id":"4974ee8a-8937-46e6-aada-e77179cb74ac","system_id":"levelo_inurba_marseille","lat":43.21197,"lon":5.35069,"is_reserved":false,"is_disabled":false,"rental_uris":{"android":"levelo://app?vid=4974ee8a-8937-46e6-aada-e77179cb74ac","ios":"levelo://app?vid=4974ee8a-8937-46e6-aada-e77179cb74ac"},"vehicle_type_id":"4","last_reported":1745933168,"current_range_meters":20000,"station_id":"st_cvj6sg6p6f1abm77japg","pricing_plan_id":"cebpf4jnsgd1na2vs0mg"},{"bike_id":"26e3d542-a9ea-4373-8c07-54f12db05232","system_id":"levelo_inurba_marseille","lat":43.25074,"lon":5.3949,"is_reserved":false,"is_disabled":false,"rental_uris":{"android":"levelo://app?vid=26e3d542-a9ea-4373-8c07-54f12db05232","ios":"levelo://app?vid=26e3d542-a9ea-4373-8c07-54f12db05232"},"vehicle_type_id":"4","last_reported":1745933168,"current_range_meters":17200,"station_id":"ce4bhm12rcd13ifvqgkg","pricing_plan_id":"cebpf4jnsgd1na2vs0mg"},{"bike_id":"0426c00b-a21e-4de9-88ba-840da8ed8fde","system_id":"levelo_inurba_marseille","lat":43.28266,"lon":5.35064,"is_reserved":false,"is_disabled":false,"rental_uris":{"android":"levelo://app?vid=0426c00b-a21e-4de9-88ba-840da8ed8fde","ios":"levelo://app?vid=0426c00b-a21e-4de9-88ba-840da8ed8fde"},"vehicle_type_id":"4","last_reported":1745933168,"current_range_meters":20000,"station_id":"ce4bhbp2rcd13ifvqerg","pricing_plan_id":"cebpf4jnsgd1na2vs0mg"},{"bike_id":"3cbdcf8d-8403-42fa-95a4-02f03497e3ce","system_id":"levelo_inurba_marseille","lat":43.23163,"lon":5.43709,"is_reserved":false,"is_disabled":false,"rental_uris":{"android":"levelo://app?vid=3cbdcf8d-8403-42fa-95a4-02f03497e3ce","ios":"levelo://app?vid=3cbdcf8d-8403-42fa-95a4-02f03497e3ce"},"vehicle_type_id":"4","last_reported":1745933168,"current_range_meters":20400,"station_id":"ce4bhmp2rcd13ifvqgog","pricing_plan_id":"cebpf4jnsgd1na2vs0mg"},{"bike_id":"d9f1dcb0-1ef0-4f4d-9c2e-775fd1c3db18","system_id":"levelo_inurba_marseille","lat":43.27493,"lon":5.42456,"is_reserved":false,"is_disabled":false,"rental_uris":{"android":"levelo://app?vid=d9f1dcb0-1ef0-4f4d-9c2e-775fd1c3db18","ios":"levelo://app?vid=d9f1dcb0-1ef0-4f4d-9c2e-775fd1c3db18"},"vehicle_type_id":"4","last_reported":1745933168,"current_range_meters":20400,"station_id":"ce4bhn92rcd13ifvqgrg","pricing_plan_id":"cebpf4jnsgd1na2vs0mg"},{"bike_id":"7df73546-63c9-46b6-999d-02d89e550ecf","system_id":"levelo_inurba_marseille","lat":43.26031,"lon":5.37545,"is_reserved":false,"is_disabled":false,"rental_uris":{"android":"levelo://app?vid=7df73546-63c9-46b6-999d-02d89e550ecf","ios":"levelo://app?vid=7df73546-63c9-46b6-999d-02d89e550ecf"},"vehicle_type_id":"4","last_reported":1745933168,"current_range_meters":20400,"station_id":"ce4bhgh2rcd13ifvqfa0","pricing_plan_id":"cebpf4jnsgd1na2vs0mg"},{"bike_id":"9e29be5c-a332-41fe-aea0-d04c55b997d6","system_id":"levelo_inurba_marseille","lat":43.30349,"lon":5.41875,"is_reserved":false,"is_disabled":false,"rental_uris":{"android":"levelo://app?vid=9e29be5c-a332-41fe-aea0-d04c55b997d6","ios":"levelo://app?vid=9e29be5c-a332-41fe-aea0-d04c55b997d6"},"vehicle_type_id":"4","last_reported":1745933168,"current_range_meters":20400,"station_id":"ce4bhop2rcd13ifvqh7g","pricing_plan_id":"cebpf4jnsgd1na2vs0mg"},{"bike_id":"2372f7c6-1089-4c13-bafe-c3d7862aadcc","system_id":"levelo_inurba_marseille","lat":43.31711,"lon":5.43698,"is_reserved":false,"is_disabled":false,"rental_uris":{"android":"levelo://app?vid=2372f7c6-1089-4c13-bafe-c3d7862aadcc","ios":"levelo://app?vid=2372f7c6-1089-4c13-bafe-c3d7862aadcc"},"vehicle_type_id":"4","last_reported":1745933168,"current_range_meters":20800,"station_id":"ce4bhp92rcd13ifvqhcg","pricing_plan_id":"cebpf4jnsgd1na2vs0mg"},{"bike_id":"19de78b2-4af3-4737-b287-d20c125b22e1","system_id":"levelo_inurba_marseille","lat":43.28614,"lon":5.35105,"is_reserved":false,"is_disabled":false,"rental_uris":{"android":"levelo://app?vid=19de78b2-4af3-4737-b287-d20c125b22e1","ios":"levelo://app?vid=19de78b2-4af3-4737-b287-d20c125b22e1"},"vehicle_type_id":"4","last_reported":1745933168,"current_range_meters":20800,"station_id":"ce4bhch2rcd13ifvqeug","pricing_plan_id":"cebpf4jnsgd1na2vs0mg"},{"bike_id":"49e5d4b7-2f7f-4b9b-bf8c-21fbce8bc189","system_id":"levelo_inurba_marseille","lat":43.3014,"lon":5.37424,"is_reserved":false,"is_disabled":false,"rental_uris":{"android":"levelo://app?vid=49e5d4b7-2f7f-4b9b-bf8c-21fbce8bc189","ios":"levelo://app?vid=49e5d4b7-2f7f-4b9b-bf8c-21fbce8bc189"},"vehicle_type_id":"4","last_reported":1745933168,"current_range_meters":20800,"station_id":"ce4bgs92rcd13ifvqcc0","pricing_plan_id":"cebpf4jnsgd1na2vs0mg"},{"bike_id":"9bfe6821-b569-461d-b21b-20646d93475e","system_id":"levelo_inurba_marseille","lat":43.324922,"lon":5.365647,"is_reserved":false,"is_disabled":false,"rental_uris":{"android":"levelo://app?vid=9bfe6821-b569-461d-b21b-20646d93475e","ios":"levelo://app?vid=9bfe6821-b569-461d-b21b-20646d93475e"},"vehicle_type_id":"4","last_reported":1745933168,"current_range_meters":20800,"station_id":"ce4bhs12rcd13ifvqhvg","pricing_plan_id":"cebpf4jnsgd1na2vs0mg"},{"bike_id":"d2b40f7c-afd7-403b-be4e-8531ff4d93ea","system_id":"levelo_inurba_marseille","lat":43.28424,"lon":5.34981,"is_reserved":false,"is_disabled":false,"rental_uris":{"android":"levelo://app?vid=d2b40f7c-afd7-403b-be4e-8531ff4d93ea","ios":"levelo://app?vid=d2b40f7c-afd7-403b-be4e-8531ff4d93ea"},"vehicle_type_id":"4","last_reported":1745933168,"current_range_meters":20800,"station_id":"ce4bhbh2rcd13ifvqepg","pricing_plan_id":"cebpf4jnsgd1na2vs0mg"},{"bike_id":"38a5a22d-9811-4d50-a706-fc42be78732b","system_id":"levelo_inurba_marseille","lat":43.24999,"lon":5.38923,"is_reserved":false,"is_disabled":false,"rental_uris":{"android":"levelo://app?vid=38a5a22d-9811-4d50-a706-fc42be78732b","ios":"levelo://app?vid=38a5a22d-9811-4d50-a706-fc42be78732b"},"vehicle_type_id":"4","last_reported":1745933168,"current_range_meters":20800,"station_id":"ce4bhgp2rcd13ifvqfd0","pricing_plan_id":"cebpf4jnsgd1na2vs0mg"},{"bike_id":"971e6720-3cfa-4499-b63f-3a76a4acfaa1","system_id":"levelo_inurba_marseille","lat":43.28857,"lon":5.35834,"is_reserved":false,"is_disabled":false,"rental_uris":{"android":"levelo://app?vid=971e6720-3cfa-4499-b63f-3a76a4acfaa1","ios":"levelo://app?vid=971e6720-3cfa-4499-b63f-3a76a4acfaa1"},"vehicle_type_id":"4","last_reported":1745933168,"current_range_meters":20400,"station_id":"ce4bhb12rcd13ifvqem0","pricing_plan_id":"cebpf4jnsgd1na2vs0mg"},{"bike_id":"7940bc1b-eaa7-4f49-a435-46dc9391f6a1","system_id":"levelo_inurba_marseille","lat":43.21194,"lon":5.35072,"is_reserved":false,"is_disabled":false,"rental_uris":{"android":"levelo://app?vid=7940bc1b-eaa7-4f49-a435-46dc9391f6a1","ios":"levelo://app?vid=7940bc1b-eaa7-4f49-a435-46dc9391f6a1"},"vehicle_type_id":"4","last_reported":1745933168,"current_range_meters":20800,"station_id":"st_cvj6sg6p6f1abm77japg","pricing_plan_id":"cebpf4jnsgd1na2vs0mg"},{"bike_id":"39089e5b-adfa-4663-816f-59cf0daa187e","system_id":"levelo_inurba_marseille","lat":43.28298,"lon":5.35058,"is_reserved":false,"is_disabled":false,"rental_uris":{"android":"levelo://app?vid=39089e5b-adfa-4663-816f-59cf0daa187e","ios":"levelo://app?vid=39089e5b-adfa-4663-816f-59cf0daa187e"},"vehicle_type_id":"4","last_reported":1745933168,"current_range_meters":20800,"station_id":"ce4bhbp2rcd13ifvqerg","pricing_plan_id":"cebpf4jnsgd1na2vs0mg"},{"bike_id":"e2ecc505-213c-40f4-8010-0618725c6411","system_id":"levelo_inurba_marseille","lat":43.284748,"lon":5.384184,"is_reserved":false,"is_disabled":false,"rental_uris":{"android":"levelo://app?vid=e2ecc505-213c-40f4-8010-0618725c6411","ios":"levelo://app?vid=e2ecc505-213c-40f4-8010-0618725c6411"},"vehicle_type_id":"4","last_reported":1745933168,"current_range_meters":20800,"station_id":"ce4bh512rcd13ifvqe3g","pricing_plan_id":"cebpf4jnsgd1na2vs0mg"},{"bike_id":"00307e3d-0cc2-4509-8f3d-ee4965554bef","system_id":"levelo_inurba_marseille","lat":43.28263,"lon":5.35066,"is_reserved":false,"is_disabled":false,"rental_uris":{"android":"levelo://app?vid=00307e3d-0cc2-4509-8f3d-ee4965554bef","ios":"levelo://app?vid=00307e3d-0cc2-4509-8f3d-ee4965554bef"},"vehicle_type_id":"4","last_reported":1745933168,"current_range_meters":21600,"station_id":"ce4bhbp2rcd13ifvqerg","pricing_plan_id":"cebpf4jnsgd1na2vs0mg"},{"bike_id":"e5e8e39f-6ad3-4f3c-9e65-3448d5d757b2","system_id":"levelo_inurba_marseille","lat":43.248,"lon":5.37453,"is_reserved":false,"is_disabled":false,"rental_uris":{"android":"levelo://app?vid=e5e8e39f-6ad3-4f3c-9e65-3448d5d757b2","ios":"levelo://app?vid=e5e8e39f-6ad3-4f3c-9e65-3448d5d757b2"},"vehicle_type_id":"4","last_reported":1745933168,"current_range_meters":20800,"station_id":"ce4bhgh2rcd13ifvqfb0","pricing_plan_id":"cebpf4jnsgd1na2vs0mg"},{"bike_id":"c93432a4-2e9b-4431-af64-0d87a1311131","system_id":"levelo_inurba_marseille","lat":43.30603,"lon":5.372324,"is_reserved":false,"is_disabled":false,"rental_uris":{"android":"levelo://app?vid=c93432a4-2e9b-4431-af64-0d87a1311131","ios":"levelo://app?vid=c93432a4-2e9b-4431-af64-0d87a1311131"},"vehicle_type_id":"4","last_reported":1745933168,"current_range_meters":21600,"station_id":"ce4bgqh2rcd13ifvqc4g","pricing_plan_id":"cebpf4jnsgd1na2vs0mg"},{"bike_id":"9a6d1a0d-0520-4c44-b0a9-74ddbe754418","system_id":"levelo_inurba_marseille","lat":43.25715,"lon":5.41102,"is_reserved":false,"is_disabled":false,"rental_uris":{"android":"levelo://app?vid=9a6d1a0d-0520-4c44-b0a9-74ddbe754418","ios":"levelo://app?vid=9a6d1a0d-0520-4c44-b0a9-74ddbe754418"},"vehicle_type_id":"4","last_reported":1745933168,"current_range_meters":22000,"station_id":"ce4bhkp2rcd13ifvqgd0","pricing_plan_id":"cebpf4jnsgd1na2vs0mg"},{"bike_id":"8663b10c-1e24-428c-bec4-66fabeba84de","system_id":"levelo_inurba_marseille","lat":43.29504,"lon":5.37605,"is_reserved":false,"is_disabled":false,"rental_uris":{"android":"levelo://app?vid=8663b10c-1e24-428c-bec4-66fabeba84de","ios":"levelo://app?vid=8663b10c-1e24-428c-bec4-66fabeba84de"},"vehicle_type_id":"4","last_reported":1745933168,"current_range_meters":22000,"station_id":"","pricing_plan_id":"cebpf4jnsgd1na2vs0mg"},{"bike_id":"45414de3-bf8c-4d22-841c-57894de049d4","system_id":"levelo_inurba_marseille","lat":43.24807,"lon":5.37456,"is_reserved":false,"is_disabled":false,"rental_uris":{"android":"levelo://app?vid=45414de3-bf8c-4d22-841c-57894de049d4","ios":"levelo://app?vid=45414de3-bf8c-4d22-841c-57894de049d4"},"vehicle_type_id":"4","last_reported":1745933168,"current_range_meters":21600,"station_id":"ce4bhgh2rcd13ifvqfb0","pricing_plan_id":"cebpf4jnsgd1na2vs0mg"},{"bike_id":"a33a26cf-b103-4c1d-b4c8-78610a3df846","system_id":"levelo_inurba_marseille","lat":43.27385,"lon":5.36248,"is_reserved":false,"is_disabled":false,"rental_uris":{"android":"levelo://app?vid=a33a26cf-b103-4c1d-b4c8-78610a3df846","ios":"levelo://app?vid=a33a26cf-b103-4c1d-b4c8-78610a3df846"},"vehicle_type_id":"4","last_reported":1745933168,"current_range_meters":21600,"station_id":"ce4bhbh2rcd13ifvqeo0","pricing_plan_id":"cebpf4jnsgd1na2vs0mg"},{"bike_id":"c7ac3f4d-99da-4672-86a5-a20a296c8918","system_id":"levelo_inurba_marseille","lat":43.241795,"lon":5.397207,"is_reserved":false,"is_disabled":false,"rental_uris":{"android":"levelo://app?vid=c7ac3f4d-99da-4672-86a5-a20a296c8918","ios":"levelo://app?vid=c7ac3f4d-99da-4672-86a5-a20a296c8918"},"vehicle_type_id":"4","last_reported":1745933168,"current_range_meters":22400,"station_id":"ce4bhn12rcd13ifvqgpg","pricing_plan_id":"cebpf4jnsgd1na2vs0mg"},{"bike_id":"03a91deb-1c66-48f7-810b-a63a0266ca6b","system_id":"levelo_inurba_marseille","lat":43.278098,"lon":5.407123,"is_reserved":false,"is_disabled":false,"rental_uris":{"android":"levelo://app?vid=03a91deb-1c66-48f7-810b-a63a0266ca6b","ios":"levelo://app?vid=03a91deb-1c66-48f7-810b-a63a0266ca6b"},"vehicle_type_id":"4","last_reported":1745933168,"current_range_meters":22400,"station_id":"ce4bhnh2rcd13ifvqgtg","pricing_plan_id":"cebpf4jnsgd1na2vs0mg"},{"bike_id":"8f2899a3-6b11-479c-82b3-9b342cee3277","system_id":"levelo_inurba_marseille","lat":43.28265,"lon":5.35063,"is_reserved":false,"is_disabled":false,"rental_uris":{"android":"levelo://app?vid=8f2899a3-6b11-479c-82b3-9b342cee3277","ios":"levelo://app?vid=8f2899a3-6b11-479c-82b3-9b342cee3277"},"vehicle_type_id":"4","last_reported":1745933168,"current_range_meters":22400,"station_id":"ce4bhbp2rcd13ifvqerg","pricing_plan_id":"cebpf4jnsgd1na2vs0mg"},{"bike_id":"5ad0645b-4988-471b-819f-5c7784f1ac4b","system_id":"levelo_inurba_marseille","lat":43.23186,"lon":5.39988,"is_reserved":false,"is_disabled":false,"rental_uris":{"android":"levelo://app?vid=5ad0645b-4988-471b-819f-5c7784f1ac4b","ios":"levelo://app?vid=5ad0645b-4988-471b-819f-5c7784f1ac4b"},"vehicle_type_id":"4","last_reported":1745933168,"current_range_meters":22800,"station_id":"ce4bhn12rcd13ifvqgqg","pricing_plan_id":"cebpf4jnsgd1na2vs0mg"},{"bike_id":"a1691da3-02f5-40e1-a656-83ae78c703a8","system_id":"levelo_inurba_marseille","lat":43.26028,"lon":5.37547,"is_reserved":false,"is_disabled":false,"rental_uris":{"android":"levelo://app?vid=a1691da3-02f5-40e1-a656-83ae78c703a8","ios":"levelo://app?vid=a1691da3-02f5-40e1-a656-83ae78c703a8"},"vehicle_type_id":"4","last_reported":1745933168,"current_range_meters":22800,"station_id":"ce4bhgh2rcd13ifvqfa0","pricing_plan_id":"cebpf4jnsgd1na2vs0mg"},{"bike_id":"1e413da8-c6b7-44c0-b60b-acffc0b094ed","system_id":"levelo_inurba_marseille","lat":43.282782,"lon":5.351634,"is_reserved":false,"is_disabled":false,"rental_uris":{"android":"levelo://app?vid=1e413da8-c6b7-44c0-b60b-acffc0b094ed","ios":"levelo://app?vid=1e413da8-c6b7-44c0-b60b-acffc0b094ed"},"vehicle_type_id":"4","last_reported":1745933168,"current_range_meters":22800,"station_id":"ce4bhah2rcd13ifvqei0","pricing_plan_id":"cebpf4jnsgd1na2vs0mg"},{"bike_id":"01bbe0b0-0f60-4e3f-92d5-8f4ec380fa57","system_id":"levelo_inurba_marseille","lat":43.30912,"lon":5.3684,"is_reserved":false,"is_disabled":false,"rental_uris":{"android":"levelo://app?vid=01bbe0b0-0f60-4e3f-92d5-8f4ec380fa57","ios":"levelo://app?vid=01bbe0b0-0f60-4e3f-92d5-8f4ec380fa57"},"vehicle_type_id":"4","last_reported":1745933168,"current_range_meters":22800,"station_id":"ce4bgn92rcd13ifvqbvg","pricing_plan_id":"cebpf4jnsgd1na2vs0mg"},{"bike_id":"e4164340-bf7f-4fb4-b737-403e4b2172c3","system_id":"levelo_inurba_marseille","lat":43.29926,"lon":5.37468,"is_reserved":false,"is_disabled":false,"rental_uris":{"android":"levelo://app?vid=e4164340-bf7f-4fb4-b737-403e4b2172c3","ios":"levelo://app?vid=e4164340-bf7f-4fb4-b737-403e4b2172c3"},"vehicle_type_id":"4","last_reported":1745933168,"current_range_meters":22800,"station_id":"ce4bgjh2rcd13ifvqbg0","pricing_plan_id":"cebpf4jnsgd1na2vs0mg"},{"bike_id":"df8e9582-d47b-41fa-8902-54a4eb608510","system_id":"levelo_inurba_marseille","lat":43.29263,"lon":5.38454,"is_reserved":false,"is_disabled":false,"rental_uris":{"android":"levelo://app?vid=df8e9582-d47b-41fa-8902-54a4eb608510","ios":"levelo://app?vid=df8e9582-d47b-41fa-8902-54a4eb608510"},"vehicle_type_id":"4","last_reported":1745933168,"current_range_meters":22800,"station_id":"ce4bh692rcd13ifvqea0","pricing_plan_id":"cebpf4jnsgd1na2vs0mg"},{"bike_id":"45ad4e97-b4c7-41d6-a88d-ab173f432588","system_id":"levelo_inurba_marseille","lat":43.27568,"lon":5.36052,"is_reserved":false,"is_disabled":false,"rental_uris":{"android":"levelo://app?vid=45ad4e97-b4c7-41d6-a88d-ab173f432588","ios":"levelo://app?vid=45ad4e97-b4c7-41d6-a88d-ab173f432588"},"vehicle_type_id":"4","last_reported":1745933168,"current_range_meters":22800,"station_id":"ce4bgj92rcd13ifvqbe0","pricing_plan_id":"cebpf4jnsgd1na2vs0mg"},{"bike_id":"4bf6b69b-e08a-490c-9b07-d13072b37d89","system_id":"levelo_inurba_marseille","lat":43.24174,"lon":5.36369,"is_reserved":false,"is_disabled":false,"rental_uris":{"android":"levelo://app?vid=4bf6b69b-e08a-490c-9b07-d13072b37d89","ios":"levelo://app?vid=4bf6b69b-e08a-490c-9b07-d13072b37d89"},"vehicle_type_id":"4","last_reported":1745933168,"current_range_meters":23200,"station_id":"cpo36qri1sfpv3e86is0","pricing_plan_id":"cebpf4jnsgd1na2vs0mg"},{"bike_id":"7c9bd264-2074-41c1-9728-276cfab5d0d0","system_id":"levelo_inurba_marseille","lat":43.21753,"lon":5.34601,"is_reserved":false,"is_disabled":false,"rental_uris":{"android":"levelo://app?vid=7c9bd264-2074-41c1-9728-276cfab5d0d0","ios":"levelo://app?vid=7c9bd264-2074-41c1-9728-276cfab5d0d0"},"vehicle_type_id":"4","last_reported":1745933168,"current_range_meters":23200,"station_id":"st_cvj6r9ubvosntc0bgbag","pricing_plan_id":"cebpf4jnsgd1na2vs0mg"},{"bike_id":"ce35fe40-a8a0-47e1-8f61-b4c3c749a370","system_id":"levelo_inurba_marseille","lat":43.24176,"lon":5.3973,"is_reserved":false,"is_disabled":false,"rental_uris":{"android":"levelo://app?vid=ce35fe40-a8a0-47e1-8f61-b4c3c749a370","ios":"levelo://app?vid=ce35fe40-a8a0-47e1-8f61-b4c3c749a370"},"vehicle_type_id":"4","last_reported":1745933168,"current_range_meters":23200,"station_id":"ce4bhn12rcd13ifvqgpg","pricing_plan_id":"cebpf4jnsgd1na2vs0mg"},{"bike_id":"7745b017-ab6c-4871-82d6-314829dd3447","system_id":"levelo_inurba_marseille","lat":43.31253,"lon":5.3686,"is_reserved":false,"is_disabled":false,"rental_uris":{"android":"levelo://app?vid=7745b017-ab6c-4871-82d6-314829dd3447","ios":"levelo://app?vid=7745b017-ab6c-4871-82d6-314829dd3447"},"vehicle_type_id":"4","last_reported":1745933168,"current_range_meters":23200,"station_id":"ce4bgl92rcd13ifvqbq0","pricing_plan_id":"cebpf4jnsgd1na2vs0mg"},{"bike_id":"01efe7d6-3713-4c4a-9d0c-f1ce31f2ff5b","system_id":"levelo_inurba_marseille","lat":43.30542,"lon":5.36536,"is_reserved":false,"is_disabled":false,"rental_uris":{"android":"levelo://app?vid=01efe7d6-3713-4c4a-9d0c-f1ce31f2ff5b","ios":"levelo://app?vid=01efe7d6-3713-4c4a-9d0c-f1ce31f2ff5b"},"vehicle_type_id":"4","last_reported":1745933168,"current_range_meters":22800,"station_id":"ce4bgs12rcd13ifvqcag","pricing_plan_id":"cebpf4jnsgd1na2vs0mg"},{"bike_id":"948211fc-dd96-4808-b464-a24909d32fdd","system_id":"levelo_inurba_marseille","lat":43.25001,"lon":5.38924,"is_reserved":false,"is_disabled":false,"rental_uris":{"android":"levelo://app?vid=948211fc-dd96-4808-b464-a24909d32fdd","ios":"levelo://app?vid=948211fc-dd96-4808-b464-a24909d32fdd"},"vehicle_type_id":"4","last_reported":1745933168,"current_range_meters":23200,"station_id":"ce4bhgp2rcd13ifvqfd0","pricing_plan_id":"cebpf4jnsgd1na2vs0mg"},