{"last_updated":1747145456,"ttl":60,"version":"2.2","data":{"bikes":[{"bike_id":"c0b9fd4f-e181-46ce-b0bf-f5119973334f","system_id":"levelo_inurba_marseille","lat":43.33771,"lon":5.37424,"is_reserved":false,"is_disabled":false,"rental_uris":{"android":"levelo://app?vid=c0b9fd4f-e181-46ce-b0bf-f5119973334f","ios":"levelo://app?vid=c0b9fd4f-e181-46ce-b0bf-f5119973334f"},"vehicle_type_id":"4","last_reported":1747145456,"current_range_meters":23200,"station_id":"","pricing_plan_id":"cebpf4jnsgd1na2vs0mg"},{"bike_id":"d19ebaab-ef98-4efa-b952-7192b9b2f014","system_id":"levelo_inurba_marseille","lat":43.26146,"lon":5.39198,"is_reserved":false,"is_disabled":true,"rental_uris":{"android":"levelo://app?vid=d19ebaab-ef98-4efa-b952-7192b9b2f014","ios":"levelo://app?vid=d19ebaab-ef98-4efa-b952-7192b9b2f014"},"vehicle_type_id":"4","last_reported":1747145456,"current_range_meters":0,"station_id":"","pricing_plan_id":"cebpf4jnsgd1na2vs0mg"},{"bike_id":"792567c6-0442-4011-aff0-9c05e25deb48","system_id":"levelo_inurba_marseille","lat":43.28026,"lon":5.44373,"is_reserved":false,"is_disabled":true,"rental_uris":{"android":"levelo://app?vid=792567c6-0442-4011-aff0-9c05e25deb48","ios":"levelo://app?vid=792567c6-0442-4011-aff0-9c05e25deb48"},"vehicle_type_id":"4","last_reported":1747145456,"current_range_meters":0,"station_id":"","pricing_plan_id":"cebpf4jnsgd1na2vs0mg"},{"bike_id":"8404ab3c-95c5-433f-8696-6efa4d8d2503","system_id":"levelo_inurba_marseille","lat":43.29537,"lon":5.38544,"is_reserved":false,"is_disabled":true,"rental_uris":{"android":"levelo://app?vid=8404ab3c-95c5-433f-8696-6efa4d8d2503","ios":"levelo://app?vid=8404ab3c-95c5-433f-8696-6efa4d8d2503"},"vehicle_type_id":"4","last_reported":1747145456,"current_range_meters":0,"station_id":"ce4bgih2rcd13ifvqba0","pricing_plan_id":"cebpf4jnsgd1na2vs0mg"},{"bike_id":"37067287-2767-4620-9817-11186592d1e3","system_id":"levelo_inurba_marseille","lat":43.28104,"lon":5.37845,"is_reserved":false,"is_disabled":true,"rental_uris":{"android":"levelo://app?vid=37067287-2767-4620-9817-11186592d1e3","ios":"levelo://app?vid=37067287-2767-4620-9817-11186592d1e3"},"vehicle_type_id":"4","last_reported":1747145456,"current_range_meters":0,"station_id":"ce4bha12rcd13ifvqee0","pricing_plan_id":"cebpf4jnsgd1na2vs0mg"},{"bike_id":"7c621c28-704b-4408-98b8-66924e85975b","system_id":"levelo_inurba_marseille","lat":43.29279,"lon":5.3685,"is_reserved":false,"is_disabled":true,"rental_uris":{"android":"levelo://app?vid=7c621c28-704b-4408-98b8-66924e85975b","ios":"levelo://app?vid=7c621c28-704b-4408-98b8-66924e85975b"},"vehicle_type_id":"4","last_reported":1747145456,"current_range_meters":0,"station_id":"ce4bhbp2rcd13ifvqesg","pricing_plan_id":"cebpf4jnsgd1na2vs0mg"},{"bike_id":"c91c498b-4b3d-4a2b-96dd-881cec622c15","system_id":"levelo_inurba_marseille","lat":43.29275,"lon":5.36852,"is_reserved":false,"is_disabled":true,"rental_uris":{"android":"levelo://app?vid=c91c498b-4b3d-4a2b-96dd-881cec622c15","ios":"levelo://app?vid=c91c498b-4b3d-4a2b-96dd-881cec622c15"},"vehicle_type_id":"4","last_reported":1747145456,"current_range_meters":0,"station_id":"ce4bhbp2rcd13ifvqesg","pricing_plan_id":"cebpf4jnsgd1na2vs0mg"},{"bike_id":"7d648bb7-ab7e-409a-add7-d4a17f03de12","system_id":"levelo_inurba_marseille","lat":43.2316,"lon":5.43701,"is_reserved":false,"is_disabled":true,"rental_uris":{"android":"levelo://app?vid=7d648bb7-ab7e-409a-add7-d4a17f03de12","ios":"levelo://app?vid=7d648bb7-ab7e-409a-add7-d4a17f03de12"},"vehicle_type_id":"4","last_reported":1747145456,"current_range_meters":0,"station_id":"ce4bhmp2rcd13ifvqgog","pricing_plan_id":"cebpf4jnsgd1na2vs0mg"},{"bike_id":"6af03016-8529-41bf-a76c-959e0f94726e","system_id":"levelo_inurba_marseille","lat":43.26807,"lon":5.40264,"is_reserved":false,"is_disabled":true,"rental_uris":{"android":"levelo://app?vid=6af03016-8529-41bf-a76c-959e0f94726e","ios":"levelo://app?vid=6af03016-8529-41bf-a76c-959e0f94726e"},"vehicle_type_id":"4","last_reported":1747145456,"current_range_meters":0,"station_id":"ce501612rcd8frsf0b60","pricing_plan_id":"cebpf4jnsgd1na2vs0mg"},{"bike_id":"0fedde00-40eb-40d2-8fc2-e61ecce46b7b","system_id":"levelo_inurba_marseille","lat":43.28301,"lon":5.4326,"is_reserved":false,"is_disabled":true,"rental_uris":{"android":"levelo://app?vid=0fedde00-40eb-40d2-8fc2-e61ecce46b7b","ios":"levelo://app?vid=0fedde00-40eb-40d2-8fc2-e61ecce46b7b"},"vehicle_type_id":"4","last_reported":1747145456,"current_range_meters":400,"station_id":"","pricing_plan_id":"cebpf4jnsgd1na2vs0mg"},{"bike_id":"dac639e6-c6a0-4ccc-ab6a-6ad1b830b1db","system_id":"levelo_inurba_marseille","lat":43.30935,"lon":5.40142,"is_reserved":false,"is_disabled":true,"rental_uris":{"android":"levelo://app?vid=dac639e6-c6a0-4ccc-ab6a-6ad1b830b1db","ios":"levelo://app?vid=dac639e6-c6a0-4ccc-ab6a-6ad1b830b1db"},"vehicle_type_id":"4","last_reported":1747145456,"current_range_meters":400,"station_id":"ce4bgvp2rcd13ifvqct0","pricing_plan_id":"cebpf4jnsgd1na2vs0mg"},{"bike_id":"fc2577e7-1497-425b-9d4f-ab8d7dc843c6","system_id":"levelo_inurba_marseille","lat":43.33771,"lon":5.37485,"is_reserved":false,"is_disabled":true,"rental_uris":{"android":"levelo://app?vid=fc2577e7-1497-425b-9d4f-ab8d7dc843c6","ios":"levelo://app?vid=fc2577e7-1497-425b-9d4f-ab8d7dc843c6"},"vehicle_type_id":"4","last_reported":1747145456,"current_range_meters":800,"station_id":"","pricing_plan_id":"cebpf4jnsgd1na2vs0mg"},{"bike_id":"bd75f6c3-70ff-49d3-9919-75b50036c696","system_id":"levelo_inurba_marseille","lat":43.29978,"lon":5.38499,"is_reserved":false,"is_disabled":true,"rental_uris":{"android":"levelo://app?vid=bd75f6c3-70ff-49d3-9919-75b50036c696","ios":"levelo://app?vid=bd75f6c3-70ff-49d3-9919-75b50036c696"},"vehicle_type_id":"4","last_reported":1747145456,"current_range_meters":800,"station_id":"ce4bgj92rcd13ifvqbd0","pricing_plan_id":"cebpf4jnsgd1na2vs0mg"},{"bike_id":"c5dae5cf-c08e-4d5d-a759-a0f0ad45ad84","system_id":"levelo_inurba_marseille","lat":43.28856,"lon":5.35844,"is_reserved":false,"is_disabled":true,"rental_uris":{"android":"levelo://app?vid=c5dae5cf-c08e-4d5d-a759-a0f0ad45ad84","ios":"levelo://app?vid=c5dae5cf-c08e-4d5d-a759-a0f0ad45ad84"},"vehicle_type_id":"4","last_reported":1747145456,"current_range_meters":800,"station_id":"ce4bhb12rcd13ifvqem0","pricing_plan_id":"cebpf4jnsgd1na2vs0mg"},{"bike_id":"d41a859a-8cf8-427c-8e78-43af9c62053b","system_id":"levelo_inurba_marseille","lat":43.23965,"lon":5.36632,"is_reserved":false,"is_disabled":true,"rental_uris":{"android":"levelo://app?vid=d41a859a-8cf8-427c-8e78-43af9c62053b","ios":"levelo://app?vid=d41a859a-8cf8-427c-8e78-43af9c62053b"},"vehicle_type_id":"4","last_reported":1747145456,"current_range_meters":800,"station_id":"ce4bhi12rcd13ifvqfp0","pricing_plan_id":"cebpf4jnsgd1na2vs0mg"},{"bike_id":"b79a47e4-4932-4e0e-8938-e69736642c3c","system_id":"levelo_inurba_marseille","lat":43.31218,"lon":5.36853,"is_reserved":false,"is_disabled":true,"rental_uris":{"android":"levelo://app?vid=b79a47e4-4932-4e0e-8938-e69736642c3c","ios":"levelo://app?vid=b79a47e4-4932-4e0e-8938-e69736642c3c"},"vehicle_type_id":"4","last_reported":1747145456,"current_range_meters":1200,"station_id":"ce4bgl92rcd13ifvqbq0","pricing_plan_id":"cebpf4jnsgd1na2vs0mg"},{"bike_id":"b40f31d3-8172-41f8-89ed-cb6594f05afc","system_id":"levelo_inurba_marseille","lat":43.29204,"lon":5.39305,"is_reserved":false,"is_disabled":true,"rental_uris":{"android":"levelo://app?vid=b40f31d3-8172-41f8-89ed-cb6594f05afc","ios":"levelo://app?vid=b40f31d3-8172-41f8-89ed-cb6594f05afc"},"vehicle_type_id":"4","last_reported":1747145456,"current_range_meters":1200,"station_id":"ce4bh192rcd13ifvqdd0","pricing_plan_id":"cebpf4jnsgd1na2vs0mg"},{"bike_id":"3a77e15a-c64f-4aab-862d-742659d27365","system_id":"levelo_inurba_marseille","lat":43.29539,"lon":5.38513,"is_reserved":false,"is_disabled":true,"rental_uris":{"android":"levelo://app?vid=3a77e15a-c64f-4aab-862d-742659d27365","ios":"levelo://app?vid=3a77e15a-c64f-4aab-862d-742659d27365"},"vehicle_type_id":"4","last_reported":1747145456,"current_range_meters":1600,"station_id":"ce4bgih2rcd13ifvqba0","pricing_plan_id":"cebpf4jnsgd1na2vs0mg"},{"bike_id":"b4508206-ebcb-44aa-9ffe-82dbca2aef59","system_id":"levelo_inurba_marseille","lat":43.28472,"lon":5.38424,"is_reserved":false,"is_disabled":true,"rental_uris":{"android":"levelo://app?vid=b4508206-ebcb-44aa-9ffe-82dbca2aef59","ios":"levelo://app?vid=b4508206-ebcb-44aa-9ffe-82dbca2aef59"},"vehicle_type_id":"4","last_reported":1747145456,"current_range_meters":1600,"station_id":"ce4bh512rcd13ifvqe3g","pricing_plan_id":"cebpf4jnsgd1na2vs0mg"},{"bike_id":"a1368d0e-c2b0-40f8-9ec2-c8a228df80dc","system_id":"levelo_inurba_marseille","lat":43.28624,"lon":5.351,"is_reserved":false,"is_disabled":true,"rental_uris":{"android":"levelo://app?vid=a1368d0e-c2b0-40f8-9ec2-c8a228df80dc","ios":"levelo://app?vid=a1368d0e-c2b0-40f8-9ec2-c8a228df80dc"},"vehicle_type_id":"4","last_reported":1747145456,"current_range_meters":1600,"station_id":"ce4bhch2rcd13ifvqeug","pricing_plan_id":"cebpf4jnsgd1na2vs0mg"},{"bike_id":"7639fcb7-5841-47dd-b4bd-967be8900cc1","system_id":"levelo_inurba_marseille","lat":43.25858,"lon":5.39877,"is_reserved":false,"is_disabled":true,"rental_uris":{"android":"levelo://app?vid=7639fcb7-5841-47dd-b4bd-967be8900cc1","ios":"levelo://app?vid=7639fcb7-5841-47dd-b4bd-967be8900cc1"},"vehicle_type_id":"4","last_reported":1747145456,"current_range_meters":1600,"station_id":"ce4bhl92rcd13ifvqghg","pricing_plan_id":"cebpf4jnsgd1na2vs0mg"},{"bike_id":"07bad832-ad0d-4c02-8436-b71e9fca06c4","system_id":"levelo_inurba_marseille","lat":43.3028,"lon":5.3771,"is_reserved":false,"is_disabled":true,"rental_uris":{"android":"levelo://app?vid=07bad832-ad0d-4c02-8436-b71e9fca06c4","ios":"levelo://app?vid=07bad832-ad0d-4c02-8436-b71e9fca06c4"},"vehicle_type_id":"4","last_reported":1747145456,"current_range_meters":2000,"station_id":"ce4bguh2rcd13ifvqcj0","pricing_plan_id":"cebpf4jnsgd1na2vs0mg"},{"bike_id":"1b1c1a0d-afb8-4606-839d-c4bfb3b6a82d","system_id":"levelo_inurba_marseille","lat":43.29234,"lon":5.38452,"is_reserved":false,"is_disabled":true,"rental_uris":{"android":"levelo://app?vid=1b1c1a0d-afb8-4606-839d-c4bfb3b6a82d","ios":"levelo://app?vid=1b1c1a0d-afb8-4606-839d-c4bfb3b6a82d"},"vehicle_type_id":"4","last_reported":1747145456,"current_range_meters":2000,"station_id":"ce4bh692rcd13ifvqea0","pricing_plan_id":"cebpf4jnsgd1na2vs0mg"},{"bike_id":"bd75e140-f1a9-4f44-8dd3-f439e81f8a38","system_id":"levelo_inurba_marseille","lat":43.26228,"lon":5.40451,"is_reserved":false,"is_disabled":true,"rental_uris":{"android":"levelo://app?vid=bd75e140-f1a9-4f44-8dd3-f439e81f8a38","ios":"levelo://app?vid=bd75e140-f1a9-4f44-8dd3-f439e81f8a38"},"vehicle_type_id":"4","last_reported":1747145456,"current_range_meters":2000,"station_id":"ce4bhmh2rcd13ifvqgmg","pricing_plan_id":"cebpf4jnsgd1na2vs0mg"},{"bike_id":"a2700ebb-bf5a-40ca-a347-88d0a165d9da","system_id":"levelo_inurba_marseille","lat":43.34137,"lon":5.40914,"is_reserved":false,"is_disabled":true,"rental_uris":{"android":"levelo://app?vid=a2700ebb-bf5a-40ca-a347-88d0a165d9da","ios":"levelo://app?vid=a2700ebb-bf5a-40ca-a347-88d0a165d9da"},"vehicle_type_id":"4","last_reported":1747145456,"current_range_meters":2000,"station_id":"ce4bhqh2rcd13ifvqhlg","pricing_plan_id":"cebpf4jnsgd1na2vs0mg"},{"bike_id":"04d43387-e863-476b-ae17-b62953ab80e4","system_id":"levelo_inurba_marseille","lat":43.27374,"lon":5.36254,"is_reserved":false,"is_disabled":false,"rental_uris":{"android":"levelo://app?vid=04d43387-e863-476b-ae17-b62953ab80e4","ios":"levelo://app?vid=04d43387-e863-476b-ae17-b62953ab80e4"},"vehicle_type_id":"4","last_reported":1747145456,"current_range_meters":2800,"station_id":"ce4bhbh2rcd13ifvqeo0","pricing_plan_id":"cebpf4jnsgd1na2vs0mg"},{"bike_id":"039f3c80-f503-485b-b510-8ab71bc18d3a","system_id":"levelo_inurba_marseille","lat":43.2799,"lon":5.38773,"is_reserved":false,"is_disabled":false,"rental_uris":{"android":"levelo://app?vid=039f3c80-f503-485b-b510-8ab71bc18d3a","ios":"levelo://app?vid=039f3c80-f503-485b-b510-8ab71bc18d3a"},"vehicle_type_id":"4","last_reported":1747145456,"current_range_meters":2800,"station_id":"ce4bhg12rcd13ifvqf80","pricing_plan_id":"cebpf4jnsgd1na2vs0mg"},{"bike_id":"3b8df1ab-8554-428d-a796-e360991f7b14","system_id":"levelo_inurba_marseille","lat":43.28689,"lon":5.38659,"is_reserved":false,"is_disabled":false,"rental_uris":{"android":"levelo://app?vid=3b8df1ab-8554-428d-a796-e360991f7b14","ios":"levelo://app?vid=3b8df1ab-8554-428d-a796-e360991f7b14"},"vehicle_type_id":"4","last_reported":1747145456,"current_range_meters":3200,"station_id":"ce4bh492rcd13ifvqdug","pricing_plan_id":"cebpf4jnsgd1na2vs0mg"},{"bike_id":"ffd7947a-efac-427e-bdec-0e2d2051deba","system_id":"levelo_inurba_marseille","lat":43.26208,"lon":5.37439,"is_reserved":false,"is_disabled":false,"rental_uris":{"android":"levelo://app?vid=ffd7947a-efac-427e-bdec-0e2d2051deba","ios":"levelo://app?vid=ffd7947a-efac-427e-bdec-0e2d2051deba"},"vehicle_type_id":"4","last_reported":1747145456,"current_range_meters":3200,"station_id":"ce4bhgp2rcd13ifvqfc0","pricing_plan_id":"cebpf4jnsgd1na2vs0mg"},{"bike_id":"5cd37b26-ef88-4066-9823-470d34aa2481","system_id":"levelo_inurba_marseille","lat":43.24546,"lon":5.39533,"is_reserved":false,"is_disabled":false,"rental_uris":{"android":"levelo://app?vid=5cd37b26-ef88-4066-9823-470d34aa2481","ios":"levelo://app?vid=5cd37b26-ef88-4066-9823-470d34aa2481"},"vehicle_type_id":"4","last_reported":1747145456,"current_range_meters":3200,"station_id":"ce4bhlp2rcd13ifvqgjg","pricing_plan_id":"cebpf4jnsgd1na2vs0mg"},{"bike_id":"9f7b5da9-800a-4100-b557-c8284d57e295","system_id":"levelo_inurba_marseille","lat":43.286188,"lon":5.351101,"is_reserved":false,"is_disabled":false,"rental_uris":{"android":"levelo://app?vid=9f7b5da9-800a-4100-b557-c8284d57e295","ios":"levelo://app?vid=9f7b5da9-800a-4100-b557-c8284d57e295"},"vehicle_type_id":"4","last_reported":1747145456,"current_range_meters":3600,"station_id":"ce4bhch2rcd13ifvqeug","pricing_plan_id":"cebpf4jnsgd1na2vs0mg"},{"bike_id":"cd92550b-2fd9-47d8-85fc-daa526cb96ca","system_id":"levelo_inurba_marseille","lat":43.25726,"lon":5.41109,"is_reserved":false,"is_disabled":false,"rental_uris":{"android":"levelo://app?vid=cd92550b-2fd9-47d8-85fc-daa526cb96ca","ios":"levelo://app?vid=cd92550b-2fd9-47d8-85fc-daa526cb96ca"},"vehicle_type_id":"4","last_reported":1747145456,"current_range_meters":3600,"station_id":"ce4bhkp2rcd13ifvqgd0","pricing_plan_id":"cebpf4jnsgd1na2vs0mg"},{"bike_id":"62e07c2d-4312-47b2-a3ba-bf1a3538dbc0","system_id":"levelo_inurba_marseille","lat":43.29268,"lon":5.36855,"is_reserved":false,"is_disabled":false,"rental_uris":{"android":"levelo://app?vid=62e07c2d-4312-47b2-a3ba-bf1a3538dbc0","ios":"levelo://app?vid=62e07c2d-4312-47b2-a3ba-bf1a3538dbc0"},"vehicle_type_id":"4","last_reported":1747145456,"current_range_meters":4000,"station_id":"ce4bhbp2rcd13ifvqesg","pricing_plan_id":"cebpf4jnsgd1na2vs0mg"},{"bike_id":"038b0643-d865-4e19-9ba2-d3b6d882b50b","system_id":"levelo_inurba_marseille","lat":43.29606,"lon":5.38105,"is_reserved":false,"is_disabled":false,"rental_uris":{"android":"levelo://app?vid=038b0643-d865-4e19-9ba2-d3b6d882b50b","ios":"levelo://app?vid=038b0643-d865-4e19-9ba2-d3b6d882b50b"},"vehicle_type_id":"4","last_reported":1747145456,"current_range_meters":4400,"station_id":"ce4bgl12rcd13ifvqbo0","pricing_plan_id":"cebpf4jnsgd1na2vs0mg"},{"bike_id":"d14b6187-993e-4b56-9d8b-94e791e00380","system_id":"levelo_inurba_marseille","lat":43.30814,"lon":5.3816,"is_reserved":false,"is_disabled":false,"rental_uris":{"android":"levelo://app?vid=d14b6187-993e-4b56-9d8b-94e791e00380","ios":"levelo://app?vid=d14b6187-993e-4b56-9d8b-94e791e00380"},"vehicle_type_id":"4","last_reported":1747145456,"current_range_meters":4400,"station_id":"ce4bgt12rcd13ifvqce0","pricing_plan_id":"cebpf4jnsgd1na2vs0mg"},{"bike_id":"2f2808f9-72d5-4e29-a4a0-cbbaffbbe57a","system_id":"levelo_inurba_marseille","lat":43.27379,"lon":5.36257,"is_reserved":false,"is_disabled":false,"rental_uris":{"android":"levelo://app?vid=2f2808f9-72d5-4e29-a4a0-cbbaffbbe57a","ios":"levelo://app?vid=2f2808f9-72d5-4e29-a4a0-cbbaffbbe57a"},"vehicle_type_id":"4","last_reported":1747145456,"current_range_meters":4400,"station_id":"ce4bhbh2rcd13ifvqeo0","pricing_plan_id":"cebpf4jnsgd1na2vs0mg"},{"bike_id":"4c4ec8cd-9f2d-4382-8844-c7bfe94f1ec4","system_id":"levelo_inurba_marseille","lat":43.32483,"lon":5.36569,"is_reserved":false,"is_disabled":false,"rental_uris":{"android":"levelo://app?vid=4c4ec8cd-9f2d-4382-8844-c7bfe94f1ec4","ios":"levelo://app?vid=4c4ec8cd-9f2d-4382-8844-c7bfe94f1ec4"},"vehicle_type_id":"4","last_reported":1747145456,"current_range_meters":4400,"station_id":"ce4bhs12rcd13ifvqhvg","pricing_plan_id":"cebpf4jnsgd1na2vs0mg"},{"bike_id":"af3a3e53-4d5a-45b9-9355-bc523c2ddd74","system_id":"levelo_inurba_marseille","lat":43.29211,"lon":5.37501,"is_reserved":false,"is_disabled":false,"rental_uris":{"android":"levelo://app?vid=af3a3e53-4d5a-45b9-9355-bc523c2ddd74","ios":"levelo://app?vid=af3a3e53-4d5a-45b9-9355-bc523c2ddd74"},"vehicle_type_id":"4","last_reported":1747145456,"current_range_meters":4800,"station_id":"","pricing_plan_id":"cebpf4jnsgd1na2vs0mg"},{"bike_id":"ccc306bc-5ed5-428b-93d3-f6d33e810424","system_id":"levelo_inurba_marseille","lat":43.289722,"lon":5.37838,"is_reserved":false,"is_disabled":false,"rental_uris":{"android":"levelo://app?vid=ccc306bc-5ed5-428b-93d3-f6d33e810424","ios":"levelo://app?vid=ccc306bc-5ed5-428b-93d3-f6d33e810424"},"vehicle_type_id":"4","last_reported":1747145456,"current_range_meters":4800,"station_id":"ce4bh9p2rcd13ifvqed0","pricing_plan_id":"cebpf4jnsgd1na2vs0mg"},{"bike_id":"9265ddd2-c47b-4879-a099-86478bc6ffb3","system_id":"levelo_inurba_marseille","lat":43.2847,"lon":5.35882,"is_reserved":false,"is_disabled":false,"rental_uris":{"android":"levelo://app?vid=9265ddd2-c47b-4879-a099-86478bc6ffb3","ios":"levelo://app?vid=9265ddd2-c47b-4879-a099-86478bc6ffb3"},"vehicle_type_id":"4","last_reported":1747145456,"current_range_meters":4800,"station_id":"ce4bhah2rcd13ifvqei0","pricing_plan_id":"cebpf4jnsgd1na2vs0mg"},{"bike_id":"a215a12d-68af-419b-9220-bd2e8c6cb13a","system_id":"levelo_inurba_marseille","lat":43.25495,"lon":5.37654,"is_reserved":false,"is_disabled":false,"rental_uris":{"android":"levelo://app?vid=a215a12d-68af-419b-9220-bd2e8c6cb13a","ios":"levelo://app?vid=a215a12d-68af-419b-9220-bd2e8c6cb13a"},"vehicle_type_id":"4","last_reported":1747145456,"current_range_meters":4800,"station_id":"ce4bhh12rcd13ifvqff0","pricing_plan_id":"cebpf4jnsgd1na2vs0mg"},{"bike_id":"68c92bf4-5e01-4df5-879c-de3fe259e412","system_id":"levelo_inurba_marseille","lat":43.26226,"lon":5.40454,"is_reserved":false,"is_disabled":false,"rental_uris":{"android":"levelo://app?vid=68c92bf4-5e01-4df5-879c-de3fe259e412","ios":"levelo://app?vid=68c92bf4-5e01-4df5-879c-de3fe259e412"},"vehicle_type_id":"4","last_reported":1747145456,"current_range_meters":4800,"station_id":"ce4bhmh2rcd13ifvqgmg","pricing_plan_id":"cebpf4jnsgd1na2vs0mg"},{"bike_id":"269d831b-7232-4169-8305-a0f53422e065","system_id":"levelo_inurba_marseille","lat":43.22508,"lon":5.3478,"is_reserved":false,"is_disabled":false,"rental_uris":{"android":"levelo://app?vid=269d831b-7232-4169-8305-a0f53422e065","ios":"levelo://app?vid=269d831b-7232-4169-8305-a0f53422e065"},"vehicle_type_id":"4","last_reported":1747145456,"current_range_meters":4800,"station_id":"st_cvj5dfep6f1abm77gieg","pricing_plan_id":"cebpf4jnsgd1na2vs0mg"},{"bike_id":"5edaac88-7240-4b9c-bbf8-05da68cfe0c7","system_id":"levelo_inurba_marseille","lat":43.28475,"lon":5.38415,"is_reserved":false,"is_disabled":false,"rental_uris":{"android":"levelo://app?vid=5edaac88-7240-4b9c-bbf8-05da68cfe0c7","ios":"levelo://app?vid=5edaac88-7240-4b9c-bbf8-05da68cfe0c7"},"vehicle_type_id":"4","last_reported":1747145456,"current_range_meters":5600,"station_id":"","pricing_plan_id":"cebpf4jnsgd1na2vs0mg"},{"bike_id":"eecab19d-8df5-41b4-a1a6-a983d50063d8","system_id":"levelo_inurba_marseille","lat":43.29714,"lon":5.36589,"is_reserved":false,"is_disabled":false,"rental_uris":{"android":"levelo://app?vid=eecab19d-8df5-41b4-a1a6-a983d50063d8","ios":"levelo://app?vid=eecab19d-8df5-41b4-a1a6-a983d50063d8"},"vehicle_type_id":"4","last_reported":1747145456,"current_range_meters":5600,"station_id":"ce4bgn12rcd13ifvqbt0","pricing_plan_id":"cebpf4jnsgd1na2vs0mg"},{"bike_id":"9c5ed89c-c664-4ced-8657-b5eea3f186cc","system_id":"levelo_inurba_marseille","lat":43.29206,"lon":5.39325,"is_reserved":false,"is_disabled":false,"rental_uris":{"android":"levelo://app?vid=9c5ed89c-c664-4ced-8657-b5eea3f186cc","ios":"levelo://app?vid=9c5ed89c-c664-4ced-8657-b5eea3f186cc"},"vehicle_type_id":"4","last_reported":1747145456,"current_range_meters":5600,"station_id":"ce4bh192rcd13ifvqdd0","pricing_plan_id":"cebpf4jnsgd1na2vs0mg"},{"bike_id":"0a311f21-6c7f-4c36-ad5e-a11e85840176","system_id":"levelo_inurba_marseille","lat":43.284724,"lon":5.384177,"is_reserved":false,"is_disabled":false,"rental_uris":{"android":"levelo://app?vid=0a311f21-6c7f-4c36-ad5e-a11e85840176","ios":"levelo://app?vid=0a311f21-6c7f-4c36-ad5e-a11e85840176"},"vehicle_type_id":"4","last_reported":1747145456,"current_range_meters":5600,"station_id":"ce4bh512rcd13ifvqe3g","pricing_plan_id":"cebpf4jnsgd1na2vs0mg"},{"bike_id":"ddcbbddf-48c7-4e6c-b3c5-c36dbb8c7908","system_id":"levelo_inurba_marseille","lat":43.29271,"lon":5.36842,"is_reserved":false,"is_disabled":false,"rental_uris":{"android":"levelo://app?vid=ddcbbddf-48c7-4e6c-b3c5-c36dbb8c7908","ios":"levelo://app?vid=ddcbbddf-48c7-4e6c-b3c5-c36dbb8c7908"},"vehicle_type_id":"4","last_reported":1747145456,"current_range_meters":5600,"station_id":"ce4bhbp2rcd13ifvqesg","pricing_plan_id":"cebpf4jnsgd1na2vs0mg"},{"bike_id":"7c79f884-a5bd-46d4-b572-55a88d9c1bc9","system_id":"levelo_inurba_marseille","lat":43.28463,"lon":5.35895,"is_reserved":false,"is_disabled":false,"rental_uris":{"android":"levelo://app?vid=7c79f884-a5bd-46d4-b572-55a88d9c1bc9","ios":"levelo://app?vid=7c79f884-a5bd-46d4-b572-55a88d9c1bc9"},"vehicle_type_id":"4","last_reported":1747145456,"current_range_meters":6000,"station_id":"ce4bhah2rcd13ifvqei0","pricing_plan_id":"cebpf4jnsgd1na2vs0mg"},{"bike_id":"1440f02b-a660-46e8-87c4-4def5adcdb0b","system_id":"levelo_inurba_marseille","lat":43.28607,"lon":5.35123,"is_reserved":false,"is_disabled":false,"rental_uris":{"android":"levelo://app?vid=1440f02b-a660-46e8-87c4-4def5adcdb0b","ios":"levelo://app?vid=1440f02b-a660-46e8-87c4-4def5adcdb0b"},"vehicle_type_id":"4","last_reported":1747145456,"current_range_meters":6000,"station_id":"ce4bhch2rcd13ifvqeug","pricing_plan_id":"cebpf4jnsgd1na2vs0mg"},{"bike_id":"81232509-42a4-4110-9a03-451c40256bc8","system_id":"levelo_inurba_marseille","lat":43.25123,"lon":5.40313,"is_reserved":false,"is_disabled":false,"rental_uris":{"android":"levelo://app?vid=81232509-42a4-4110-9a03-451c40256bc8","ios":"levelo://app?vid=81232509-42a4-4110-9a03-451c40256bc8"},"vehicle_type_id":"4","last_reported":1747145456,"current_range_meters":6000,"station_id":"ce4bhlh2rcd13ifvqgig","pricing_plan_id":"cebpf4jnsgd1na2vs0mg"},{"bike_id":"161ea484-2766-4598-ab59-28d3fb1879d8","system_id":"levelo_inurba_marseille","lat":43.29795,"lon":5.38116,"is_reserved":false,"is_disabled":false,"rental_uris":{"android":"levelo://app?vid=161ea484-2766-4598-ab59-28d3fb1879d8","ios":"levelo://app?vid=161ea484-2766-4598-ab59-28d3fb1879d8"},"vehicle_type_id":"4","last_reported":1747145456,"current_range_meters":6400,"station_id":"ce4bgip2rcd13ifvqbb0","pricing_plan_id":"cebpf4jnsgd1na2vs0mg"},{"bike_id":"875d6232-14d3-4457-8a55-b5a57b3ab858","system_id":"levelo_inurba_marseille","lat":43.28995,"lon":5.35622,"is_reserved":false,"is_disabled":false,"rental_uris":{"android":"levelo://app?vid=875d6232-14d3-4457-8a55-b5a57b3ab858","ios":"levelo://app?vid=875d6232-14d3-4457-8a55-b5a57b3ab858"},"vehicle_type_id":"4","last_reported":1747145456,"current_range_meters":6400,"station_id":"ce4bhb92rcd13ifvqen0","pricing_plan_id":"cebpf4jnsgd1na2vs0mg"},{"bike_id":"831aa21e-7eed-48a7-8fee-11df5950f587","system_id":"levelo_inurba_marseille","lat":43.28414,"lon":5.34994,"is_reserved":false,"is_disabled":false,"rental_uris":{"android":"levelo://app?vid=831aa21e-7eed-48a7-8fee-11df5950f587","ios":"levelo://app?vid=831aa21e-7eed-48a7-8fee-11df5950f587"},"vehicle_type_id":"4","last_reported":1747145456,"current_range_meters":6400,"station_id":"ce4bhbh2rcd13ifvqepg","pricing_plan_id":"cebpf4jnsgd1na2vs0mg"},{"bike_id":"b0eb9e00-d45c-474d-baaf-89a7b8aefdf7","system_id":"levelo_inurba_marseille","lat":43.26792,"lon":5.39412,"is_reserved":false,"is_disabled":false,"rental_uris":{"android":"levelo://app?vid=b0eb9e00-d45c-474d-baaf-89a7b8aefdf7","ios":"levelo://app?vid=b0eb9e00-d45c-474d-baaf-89a7b8aefdf7"},"vehicle_type_id":"4","last_reported":1747145456,"current_range_meters":6400,"station_id":"ce4bhh12rcd13ifvqfg0","pricing_plan_id":"cebpf4jnsgd1na2vs0mg"},{"bike_id":"bdfe675a-cff3-4267-8d2e-0f3f3fd0bd22","system_id":"levelo_inurba_marseille","lat":43.29629,"lon":5.37713,"is_reserved":false,"is_disabled":false,"rental_uris":{"android":"levelo://app?vid=bdfe675a-cff3-4267-8d2e-0f3f3fd0bd22","ios":"levelo://app?vid=bdfe675a-cff3-4267-8d2e-0f3f3fd0bd22"},"vehicle_type_id":"4","last_reported":1747145456,"current_range_meters":6800,"station_id":"ce4bgi92rcd13ifvqb90","pricing_plan_id":"cebpf4jnsgd1na2vs0mg"},{"bike_id":"2bd7716c-190a-404c-9040-36b42247de5a","system_id":"levelo_inurba_marseille","lat":43.29422,"lon":5.3862,"is_reserved":false,"is_disabled":false,"rental_uris":{"android":"levelo://app?vid=2bd7716c-190a-404c-9040-36b42247de5a","ios":"levelo://app?vid=2bd7716c-190a-404c-9040-36b42247de5a"},"vehicle_type_id":"4","last_reported":1747145456,"current_range_meters":6800,"station_id":"ce4bh2h2rcd13ifvqdh0","pricing_plan_id":"cebpf4jnsgd1na2vs0mg"},{"bike_id":"01c28854-6c3e-4fe6-846d-e8723809c7f9","system_id":"levelo_inurba_marseille","lat":43.28159,"lon":5.42651,"is_reserved":false,"is_disabled":false,"rental_uris":{"android":"levelo://app?vid=01c28854-6c3e-4fe6-846d-e8723809c7f9","ios":"levelo://app?vid=01c28854-6c3e-4fe6-846d-e8723809c7f9"},"vehicle_type_id":"4","last_reported":1747145456,"current_range_meters":6800,"station_id":"ce4bhnh2rcd13ifvqgug","pricing_plan_id":"cebpf4jnsgd1na2vs0mg"},{"bike_id":"ff5be3ef-9ae9-4cd0-84ea-b9147d5db607","system_id":"levelo_inurba_marseille","lat":43.32831,"lon":5.41007,"is_reserved":false,"is_disabled":false,"rental_uris":{"android":"levelo://app?vid=ff5be3ef-9ae9-4cd0-84ea-b9147d5db607","ios":"levelo://app?vid=ff5be3ef-9ae9-4cd0-84ea-b9147d5db607"},"vehicle_type_id":"4","last_reported":1747145456,"current_range_meters":7200,"station_id":"","pricing_plan_id":"cebpf4jnsgd1na2vs0mg"},{"bike_id":"74795a7c-45fc-4b29-b5e3-e55edd562156","system_id":"levelo_inurba_marseille","lat":43.29624,"lon":5.37831,"is_reserved":false,"is_disabled":false,"rental_uris":{"android":"levelo://app?vid=74795a7c-45fc-4b29-b5e3-e55edd562156","ios":"levelo://app?vid=74795a7c-45fc-4b29-b5e3-e55edd562156"},"vehicle_type_id":"4","last_reported":1747145456,"current_range_meters":7200,"station_id":"","pricing_plan_id":"cebpf4jnsgd1na2vs0mg"},{"bike_id":"c19c65be-1edc-4c56-920a-0e49bf9bc3a2","system_id":"levelo_inurba_marseille","lat":43.29265,"lon":5.38442,"is_reserved":false,"is_disabled":false,"rental_uris":{"android":"levelo://app?vid=c19c65be-1edc-4c56-920a-0e49bf9bc3a2","ios":"levelo://app?vid=c19c65be-1edc-4c56-920a-0e49bf9bc3a2"},"vehicle_type_id":"4","last_reported":1747145456,"current_range_meters":7200,"station_id":"ce4bh692rcd13ifvqea0","pricing_plan_id":"cebpf4jnsgd1na2vs0mg"},{"bike_id":"cab6d1d0-ffe1-41cf-afc6-7bad496589c2","system_id":"levelo_inurba_marseille","lat":43.28665,"lon":5.36352,"is_reserved":false,"is_disabled":false,"rental_uris":{"android":"levelo://app?vid=cab6d1d0-ffe1-41cf-afc6-7bad496589c2","ios":"levelo://app?vid=cab6d1d0-ffe1-41cf-afc6-7bad496589c2"},"vehicle_type_id":"4","last_reported":1747145456,"current_range_meters":7200,"station_id":"ce4bhah2rcd13ifvqej0","pricing_plan_id":"cebpf4jnsgd1na2vs0mg"},{"bike_id":"153286bd-bc5e-407e-83fe-8e476f70784e","system_id":"levelo_inurba_marseille","lat":43.33027,"lon":5.39044,"is_reserved":false,"is_disabled":false,"rental_uris":{"android":"levelo://app?vid=153286bd-bc5e-407e-83fe-8e476f70784e","ios":"levelo://app?vid=153286bd-bc5e-407e-83fe-8e476f70784e"},"vehicle_type_id":"4","last_reported":1747145456,"current_range_meters":7200,"station_id":"ce4bhr92rcd13ifvqhrg","pricing_plan_id":"cebpf4jnsgd1na2vs0mg"},{"bike_id":"3a326375-d5b0-43a1-b16c-2ec192d405d3","system_id":"levelo_inurba_marseille","lat":43.29904,"lon":5.38139,"is_reserved":false,"is_disabled":false,"rental_uris":{"android":"levelo://app?vid=3a326375-d5b0-43a1-b16c-2ec192d405d3","ios":"levelo://app?vid=3a326375-d5b0-43a1-b16c-2ec192d405d3"},"vehicle_type_id":"4","last_reported":1747145456,"current_range_meters":8000,"station_id":"ce4bgj12rcd13ifvqbc0","pricing_plan_id":"cebpf4jnsgd1na2vs0mg"},{"bike_id":"d1b69818-1964-4d56-bb06-2d949d7e8deb","system_id":"levelo_inurba_marseille","lat":43.27618,"lon":5.361,"is_reserved":false,"is_disabled":false,"rental_uris":{"android":"levelo://app?vid=d1b69818-1964-4d56-bb06-2d949d7e8deb","ios":"levelo://app?vid=d1b69818-1964-4d56-bb06-2d949d7e8deb"},"vehicle_type_id":"4","last_reported":1747145456,"current_range_meters":8000,"station_id":"ce4bgj92rcd13ifvqbe0","pricing_plan_id":"cebpf4jnsgd1na2vs0mg"},{"bike_id":"c3f39e0a-7752-4160-98ca-218fc9f5b035","system_id":"levelo_inurba_marseille","lat":43.31172,"lon":5.38723,"is_reserved":false,"is_disabled":false,"rental_uris":{"android":"levelo://app?vid=c3f39e0a-7752-4160-98ca-218fc9f5b035","ios":"levelo://app?vid=c3f39e0a-7752-4160-98ca-218fc9f5b035"},"vehicle_type_id":"4","last_reported":1747145456,"current_range_meters":8000,"station_id":"ce4bgv12rcd13ifvqcp0","pricing_plan_id":"cebpf4jnsgd1na2vs0mg"},{"bike_id":"6290b503-c38d-4ab7-8522-3b9f001316c2","system_id":"levelo_inurba_marseille","lat":43.29199,"lon":5.35797,"is_reserved":false,"is_disabled":false,"rental_uris":{"android":"levelo://app?vid=6290b503-c38d-4ab7-8522-3b9f001316c2","ios":"levelo://app?vid=6290b503-c38d-4ab7-8522-3b9f001316c2"},"vehicle_type_id":"4","last_reported":1747145456,"current_range_meters":8000,"station_id":"ce4bhb12rcd13ifvqel0","pricing_plan_id":"cebpf4jnsgd1na2vs0mg"},{"bike_id":"37c439fc-ca6c-4983-9416-21791407e332","system_id":"levelo_inurba_marseille","lat":43.2558,"lon":5.38236,"is_reserved":false,"is_disabled":false,"rental_uris":{"android":"levelo://app?vid=37c439fc-ca6c-4983-9416-21791407e332","ios":"levelo://app?vid=37c439fc-ca6c-4983-9416-21791407e332"},"vehicle_type_id":"4","last_reported":1747145456,"current_range_meters":8000,"station_id":"ce4bhih2rcd13ifvqfs0","pricing_plan_id":"cebpf4jnsgd1na2vs0mg"},{"bike_id":"2ee4d910-0ee1-4bc5-86c8-c77afad12b4f","system_id":"levelo_inurba_marseille","lat":43.321044,"lon":5.367644,"is_reserved":false,"is_disabled":false,"rental_uris":{"android":"levelo://app?vid=2ee4d910-0ee1-4bc5-86c8-c77afad12b4f","ios":"levelo://app?vid=2ee4d910-0ee1-4bc5-86c8-c77afad12b4f"},"vehicle_type_id":"4","last_reported":1747145456,"current_range_meters":8000,"station_id":"ce4bhrh2rcd13ifvqhug","pricing_plan_id":"cebpf4jnsgd1na2vs0mg"},{"bike_id":"3ced5956-c945-4098-9407-87b33743c46d","system_id":"levelo_inurba_marseille","lat":43.23198,"lon":5.35543,"is_reserved":false,"is_disabled":false,"rental_uris":{"android":"levelo://app?vid=3ced5956-c945-4098-9407-87b33743c46d","ios":"levelo://app?vid=3ced5956-c945-4098-9407-87b33743c46d"},"vehicle_type_id":"4","last_reported":1747145456,"current_range_meters":8000,"station_id":"ce4bhu92rcd13ifvqi70","pricing_plan_id":"cebpf4jnsgd1na2vs0mg"},{"bike_id":"b695cc25-29cc-4978-b779-8188bfe80fec","system_id":"levelo_inurba_marseille","lat":43.30783,"lon":5.3764,"is_reserved":false,"is_disabled":false,"rental_uris":{"android":"levelo://app?vid=b695cc25-29cc-4978-b779-8188bfe80fec","ios":"levelo://app?vid=b695cc25-29cc-4978-b779-8188bfe80fec"},"vehicle_type_id":"4","last_reported":1747145456,"current_range_meters":8400,"station_id":"ce4bgv92rcd13ifvqcq0","pricing_plan_id":"cebpf4jnsgd1na2vs0mg"},{"bike_id":"203da97a-d5ca-4f6a-88d6-078ffeffd146","system_id":"levelo_inurba_marseille","lat":43.29526,"lon":5.39397,"is_reserved":false,"is_disabled":false,"rental_uris":{"android":"levelo://app?vid=203da97a-d5ca-4f6a-88d6-078ffeffd146","ios":"levelo://app?vid=203da97a-d5ca-4f6a-88d6-078ffeffd146"},"vehicle_type_id":"4","last_reported":1747145456,"current_range_meters":8400,"station_id":"ce4bh292rcd13ifvqdf0","pricing_plan_id":"cebpf4jnsgd1na2vs0mg"},{"bike_id":"0c9f3b61-b95a-4f86-901e-b68ef151395b","system_id":"levelo_inurba_marseille","lat":43.289684,"lon":5.382782,"is_reserved":false,"is_disabled":false,"rental_uris":{"android":"levelo://app?vid=0c9f3b61-b95a-4f86-901e-b68ef151395b","ios":"levelo://app?vid=0c9f3b61-b95a-4f86-901e-b68ef151395b"},"vehicle_type_id":"4","last_reported":1747145456,"current_range_meters":8400,"station_id":"ce4bh612rcd13ifvqe6g","pricing_plan_id":"cebpf4jnsgd1na2vs0mg"},{"bike_id":"0ab963bd-14e9-4fdc-8b69-2e53313bd5dd","system_id":"levelo_inurba_marseille","lat":43.28675,"lon":5.36351,"is_reserved":false,"is_disabled":false,"rental_uris":{"android":"levelo://app?vid=0ab963bd-14e9-4fdc-8b69-2e53313bd5dd","ios":"levelo://app?vid=0ab963bd-14e9-4fdc-8b69-2e53313bd5dd"},"vehicle_type_id":"4","last_reported":1747145456,"current_range_meters":8400,"station_id":"ce4bhah2rcd13ifvqej0","pricing_plan_id":"cebpf4jnsgd1na2vs0mg"},{"bike_id":"987104d3-46f6-4e83-9a71-cc45b4121ae1","system_id":"levelo_inurba_marseille","lat":43.25001,"lon":5.38933,"is_reserved":false,"is_disabled":false,"rental_uris":{"android":"levelo://app?vid=987104d3-46f6-4e83-9a71-cc45b4121ae1","ios":"levelo://app?vid=987104d3-46f6-4e83-9a71-cc45b4121ae1"},"vehicle_type_id":"4","last_reported":1747145456,"current_range_meters":8400,"station_id":"ce4bhgp2rcd13ifvqfd0","pricing_plan_id":"cebpf4jnsgd1na2vs0mg"},{"bike_id":"e3cfc206-cb9f-4573-9ccd-bf649f603590","system_id":"levelo_inurba_marseille","lat":43.26787,"lon":5.39417,"is_reserved":false,"is_disabled":false,"rental_uris":{"android":"levelo://app?vid=e3cfc206-cb9f-4573-9ccd-bf649f603590","ios":"levelo://app?vid=e3cfc206-cb9f-4573-9ccd-bf649f603590"},"vehicle_type_id":"4","last_reported":1747145456,"current_range_meters":8400,"station_id":"ce4bhh12rcd13ifvqfg0","pricing_plan_id":"cebpf4jnsgd1na2vs0mg"},{"bike_id":"095038c5-171b-47aa-b452-ea84e255eace","system_id":"levelo_inurba_marseille","lat":43.32492,"lon":5.3657,"is_reserved":false,"is_disabled":false,"rental_uris":{"android":"levelo://app?vid=095038c5-171b-47aa-b452-ea84e255eace","ios":"levelo://app?vid=095038c5-171b-47aa-b452-ea84e255eace"},"vehicle_type_id":"4","last_reported":1747145456,"current_range_meters":8400,"station_id":"ce4bhs12rcd13ifvqhvg","pricing_plan_id":"cebpf4jnsgd1na2vs0mg"},{"bike_id":"ff803671-7258-463a-beda-53a6c1d01120","system_id":"levelo_inurba_marseille","lat":43.24163,"lon":5.36398,"is_reserved":false,"is_disabled":false,"rental_uris":{"android":"levelo://app?vid=ff803671-7258-463a-beda-53a6c1d01120","ios":"levelo://app?vid=ff803671-7258-463a-beda-53a6c1d01120"},"vehicle_type_id":"4","last_reported":1747145456,"current_range_meters":8400,"station_id":"cpo36qri1sfpv3e86is0","pricing_plan_id":"cebpf4jnsgd1na2vs0mg"},{"bike_id":"03631696-2d7d-4ba7-b875-3391e098dcfe","system_id":"levelo_inurba_marseille","lat":43.30272,"lon":5.37702,"is_reserved":false,"is_disabled":false,"rental_uris":{"android":"levelo://app?vid=03631696-2d7d-4ba7-b875-3391e098dcfe","ios":"levelo://app?vid=03631696-2d7d-4ba7-b875-3391e098dcfe"},"vehicle_type_id":"4","last_reported":1747145456,"current_range_meters":9200,"station_id":"ce4bguh2rcd13ifvqcj0","pricing_plan_id":"cebpf4jnsgd1na2vs0mg"},{"bike_id":"50c0448c-fe42-483c-b17c-0f2d0530674c","system_id":"levelo_inurba_marseille","lat":43.2738,"lon":5.36257,"is_reserved":false,"is_disabled":false,"rental_uris":{"android":"levelo://app?vid=50c0448c-fe42-483c-b17c-0f2d0530674c","ios":"levelo://app?vid=50c0448c-fe42-483c-b17c-0f2d0530674c"},"vehicle_type_id":"4","last_reported":1747145456,"current_range_meters":9200,"station_id":"ce4bhbh2rcd13ifvqeo0","pricing_plan_id":"cebpf4jnsgd1na2vs0mg"},{"bike_id":"bb3eccac-ad03-403a-b9bc-a041db88dba3","system_id":"levelo_inurba_marseille","lat":43.24686,"lon":5.38143,"is_reserved":false,"is_disabled":false,"rental_uris":{"android":"levelo://app?vid=bb3eccac-ad03-403a-b9bc-a041db88dba3","ios":"levelo://app?vid=bb3eccac-ad03-403a-b9bc-a041db88dba3"},"vehicle_type_id":"4","last_reported":1747145456,"current_range_meters":9200,"station_id":"ce4bhih2rcd13ifvqfr0","pricing_plan_id":"cebpf4jnsgd1na2vs0mg"},{"bike_id":"346a1a96-8736-4fff-9eee-856823779434","system_id":"levelo_inurba_marseille","lat":43.27807,"lon":5.40718,"is_reserved":false,"is_disabled":false,"rental_uris":{"android":"levelo://app?vid=346a1a96-8736-4fff-9eee-856823779434","ios":"levelo://app?vid=346a1a96-8736-4fff-9eee-856823779434"},"vehicle_type_id":"4","last_reported":1747145456,"current_range_meters":9200,"station_id":"ce4bhnh2rcd13ifvqgtg","pricing_plan_id":"cebpf4jnsgd1na2vs0mg"},{"bike_id":"4d26d7df-1865-40ea-867a-0ac7041ccfa1","system_id":"levelo_inurba_marseille","lat":43.28942,"lon":5.36637,"is_reserved":false,"is_disabled":false,"rental_uris":{"android":"levelo://app?vid=4d26d7df-1865-40ea-867a-0ac7041ccfa1","ios":"levelo://app?vid=4d26d7df-1865-40ea-867a-0ac7041ccfa1"},"vehicle_type_id":"4","last_reported":1747145456,"current_range_meters":9600,"station_id":"ce4bhap2rcd13ifvqek0","pricing_plan_id":"cebpf4jnsgd1na2vs0mg"},{"bike_id":"407c5462-88a5-4e71-b102-b927bcbb7e70","system_id":"levelo_inurba_marseille","lat":43.25584,"lon":5.38232,"is_reserved":false,"is_disabled":false,"rental_uris":{"android":"levelo://app?vid=407c5462-88a5-4e71-b102-b927bcbb7e70","ios":"levelo://app?vid=407c5462-88a5-4e71-b102-b927bcbb7e70"},"vehicle_type_id":"4","last_reported":1747145456,"current_range_meters":9600,"station_id":"ce4bhih2rcd13ifvqfs0","pricing_plan_id":"cebpf4jnsgd1na2vs0mg"},{"bike_id":"0d819378-776a-472b-9e2a-c3ce0178baf1","system_id":"levelo_inurba_marseille","lat":43.25721,"lon":5.41116,"is_reserved":false,"is_disabled":false,"rental_uris":{"android":"levelo://app?vid=0d819378-776a-472b-9e2a-c3ce0178baf1","ios":"levelo://app?vid=0d819378-776a-472b-9e2a-c3ce0178baf1"},"vehicle_type_id":"4","last_reported":1747145456,"current_range_meters":9600,"station_id":"ce4bhkp2rcd13ifvqgd0","pricing_plan_id":"cebpf4jnsgd1na2vs0mg"},{"bike_id":"9da6a5e8-d3ae-4145-bcba-e63eafe29fe6","system_id":"levelo_inurba_marseille","lat":43.27815,"lon":5.4071,"is_reserved":false,"is_disabled":false,"rental_uris":{"android":"levelo://app?vid=9da6a5e8-d3ae-4145-bcba-e63eafe29fe6","ios":"levelo://app?vid=9da6a5e8-d3ae-4145-bcba-e63eafe29fe6"},"vehicle_type_id":"4","last_reported":1747145456,"current_range_meters":9600,"station_id":"ce4bhnh2rcd13ifvqgtg","pricing_plan_id":"cebpf4jnsgd1na2vs0mg"},{"bike_id":"0e89a721-196d-4572-b905-e39e1dafff7a","system_id":"levelo_inurba_marseille","lat":43.32123,"lon":5.36782,"is_reserved":false,"is_disabled":false,"rental_uris":{"android":"levelo://app?vid=0e89a721-196d-4572-b905-e39e1dafff7a","ios":"levelo://app?vid=0e89a721-196d-4572-b905-e39e1dafff7a"},"vehicle_type_id":"4","last_reported":1747145456,"current_range_meters":9600,"station_id":"ce4bhrh2rcd13ifvqhug","pricing_plan_id":"cebpf4jnsgd1na2vs0mg"},{"bike_id":"5c3eb281-6976-45b8-9526-7dac96f521d6","system_id":"levelo_inurba_marseille","lat":43.29008,"lon":5.35614,"is_reserved":false,"is_disabled":false,"rental_uris":{"android":"levelo://app?vid=5c3eb281-6976-45b8-9526-7dac96f521d6","ios":"levelo://app?vid=5c3eb281-6976-45b8-9526-7dac96f521d6"},"vehicle_type_id":"4","last_reported":1747145456,"current_range_meters":10000,"station_id":"ce4bhb92rcd13ifvqen0","pricing_plan_id":"cebpf4jnsgd1na2vs0mg"},{"bike_id":"27994014-45b8-4b29-9e0b-f874a482fc95","system_id":"levelo_inurba_marseille","lat":43.25577,"lon":5.38267,"is_reserved":false,"is_disabled":false,"rental_uris":{"android":"levelo://app?vid=27994014-45b8-4b29-9e0b-f874a482fc95","ios":"levelo://app?vid=27994014-45b8-4b29-9e0b-f874a482fc95"},"vehicle_type_id":"4","last_reported":1747145456,"current_range_meters":10000,"station_id":"ce4bhih2rcd13ifvqfs0","pricing_plan_id":"cebpf4jnsgd1na2vs0mg"},{"bike_id":"577dda86-ba61-4194-ab07-2a6b25ebdc6d","system_id":"levelo_inurba_marseille","lat":43.32376,"lon":5.38883,"is_reserved":false,"is_disabled":false,"rental_uris":{"android":"levelo://app?vid=577dda86-ba61-4194-ab07-2a6b25ebdc6d","ios":"levelo://app?vid=577dda86-ba61-4194-ab07-2a6b25ebdc6d"},"vehicle_type_id":"4","last_reported":1747145456,"current_range_meters":10000,"station_id":"ce4bhqp2rcd13ifvqhog","pricing_plan_id":"cebpf4jnsgd1na2vs0mg"},{"bike_id":"0de3bfff-29dc-451a-a268-a6148a6783fc","system_id":"levelo_inurba_marseille","lat":43.32357,"lon":5.36745,"is_reserved":false,"is_disabled":false,"rental_uris":{"android":"levelo://app?vid=0de3bfff-29dc-451a-a268-a6148a6783fc","ios":"levelo://app?vid=0de3bfff-29dc-451a-a268-a6148a6783fc"},"vehicle_type_id":"4","last_reported":1747145456,"current_range_meters":10000,"station_id":"ce4bhsh2rcd13ifvqi2g","pricing_plan_id":"cebpf4jnsgd1na2vs0mg"},{"bike_id":"28e90c5d-e29b-4bc2-bae6-984d42cc5f68","system_id":"levelo_inurba_marseille","lat":43.29917,"lon":5.38126,"is_reserved":false,"is_disabled":false,"rental_uris":{"android":"levelo://app?vid=28e90c5d-e29b-4bc2-bae6-984d42cc5f68","ios":"levelo://app?vid=28e90c5d-e29b-4bc2-bae6-984d42cc5f68"},"vehicle_type_id":"4","last_reported":1747145456,"current_range_meters":10800,"station_id":"ce4bgj12rcd13ifvqbc0","pricing_plan_id":"cebpf4jnsgd1na2vs0mg"},{"bike_id":"884448dd-bf25-4b9d-85f9-f20f998de0f5","system_id":"levelo_inurba_marseille","lat":43.29974,"lon":5.37179,"is_reserved":false,"is_disabled":false,"rental_uris":{"android":"levelo://app?vid=884448dd-bf25-4b9d-85f9-f20f998de0f5","ios":"levelo://app?vid=884448dd-bf25-4b9d-85f9-f20f998de0f5"},"vehicle_type_id":"4","last_reported":1747145456,"current_range_meters":10800,"station_id":"ce4bgr92rcd13ifvqc7g","pricing_plan_id":"cebpf4jnsgd1na2vs0mg"},{"bike_id":"0c7d0175-204c-44ab-8b88-6fea13071089","system_id":"levelo_inurba_marseille","lat":43.28263,"lon":5.35057,"is_reserved":false,"is_disabled":false,"rental_uris":{"android":"levelo://app?vid=0c7d0175-204c-44ab-8b88-6fea13071089","ios":"levelo://app?vid=0c7d0175-204c-44ab-8b88-6fea13071089"},"vehicle_type_id":"4","last_reported":1747145456,"current_range_meters":10800,"station_id":"ce4bhbp2rcd13ifvqerg","pricing_plan_id":"cebpf4jnsgd1na2vs0mg"},{"bike_id":"1a42d993-48e9-4496-ad89-573980ac9d57","system_id":"levelo_inurba_marseille","lat":43.29277,"lon":5.36848,"is_reserved":false,"is_disabled":false,"rental_uris":{"android":"levelo://app?vid=1a42d993-48e9-4496-ad89-573980ac9d57","ios":"levelo://app?vid=1a42d993-48e9-4496-ad89-573980ac9d57"},"vehicle_type_id":"4","last_reported":1747145456,"current_range_meters":10800,"station_id":"ce4bhbp2rcd13ifvqesg","pricing_plan_id":"cebpf4jnsgd1na2vs0mg"},{"bike_id":"b00cb470-2bb6-483e-bc59-8f54b7822511","system_id":"levelo_inurba_marseille","lat":43.28154,"lon":5.42647,"is_reserved":false,"is_disabled":false,"rental_uris":{"android":"levelo://app?vid=b00cb470-2bb6-483e-bc59-8f54b7822511","ios":"levelo://app?vid=b00cb470-2bb6-483e-bc59-8f54b7822511"},"vehicle_type_id":"4","last_reported":1747145456,"current_range_meters":10800,"station_id":"ce4bhnh2rcd13ifvqgug","pricing_plan_id":"cebpf4jnsgd1na2vs0mg"},{"bike_id":"ac5977c9-1ca0-40c1-a8b9-1fbf79594fb2","system_id":"levelo_inurba_marseille","lat":43.27053,"lon":5.39342,"is_reserved":false,"is_disabled":false,"rental_uris":{"android":"levelo://app?vid=ac5977c9-1ca0-40c1-a8b9-1fbf79594fb2","ios":"levelo://app?vid=ac5977c9-1ca0-40c1-a8b9-1fbf79594fb2"},"vehicle_type_id":"4","last_reported":1747145456,"current_range_meters":11200,"station_id":"","pricing_plan_id":"cebpf4jnsgd1na2vs0mg"},{"bike_id":"b196a7c2-ea26-4b9a-99fe-6e3562b7fc13","system_id":"levelo_inurba_marseille","lat":43.3057,"lon":5.36526,"is_reserved":false,"is_disabled":false,"rental_uris":{"android":"levelo://app?vid=b196a7c2-ea26-4b9a-99fe-6e3562b7fc13","ios":"levelo://app?vid=b196a7c2-ea26-4b9a-99fe-6e3562b7fc13"},"vehicle_type_id":"4","last_reported":1747145456,"current_range_meters":11200,"station_id":"ce4bgs12rcd13ifvqcag","pricing_plan_id":"cebpf4jnsgd1na2vs0mg"},{"bike_id":"0d1a8078-a83c-4b96-85d1-eba19dbb179a","system_id":"levelo_inurba_marseille","lat":43.31175,"lon":5.38713,"is_reserved":false,"is_disabled":false,"rental_uris":{"android":"levelo://app?vid=0d1a8078-a83c-4b96-85d1-eba19dbb179a","ios":"levelo://app?vid=0d1a8078-a83c-4b96-85d1-eba19dbb179a"},"vehicle_type_id":"4","last_reported":1747145456,"current_range_meters":11200,"station_id":"ce4bgv12rcd13ifvqcp0","pricing_plan_id":"cebpf4jnsgd1na2vs0mg"},{"bike_id":"2f09ecb5-f0d9-4b93-ab43-fefe32b781df","system_id":"levelo_inurba_marseille","lat":43.2621,"lon":5.37441,"is_reserved":false,"is_disabled":false,"rental_uris":{"android":"levelo://app?vid=2f09ecb5-f0d9-4b93-ab43-fefe32b781df","ios":"levelo://app?vid=2f09ecb5-f0d9-4b93-ab43-fefe32b781df"},"vehicle_type_id":"4","last_reported":1747145456,"current_range_meters":11200,"station_id":"ce4bhgp2rcd13ifvqfc0","pricing_plan_id":"cebpf4jnsgd1na2vs0mg"},{"bike_id":"03943135-224c-432c-afd6-15f9b3682ca0","system_id":"levelo_inurba_marseille","lat":43.26063,"lon":5.39402,"is_reserved":false,"is_disabled":false,"rental_uris":{"android":"levelo://app?vid=03943135-224c-432c-afd6-15f9b3682ca0","ios":"levelo://app?vid=03943135-224c-432c-afd6-15f9b3682ca0"},"vehicle_type_id":"4","last_reported":1747145456,"current_range_meters":11200,"station_id":"ce4bhh92rcd13ifvqfj0","pricing_plan_id":"cebpf4jnsgd1na2vs0mg"},{"bike_id":"90d302de-2010-41a9-b62f-3be66952b90a","system_id":"levelo_inurba_marseille","lat":43.28081,"lon":5.39661,"is_reserved":false,"is_disabled":false,"rental_uris":{"android":"levelo://app?vid=90d302de-2010-41a9-b62f-3be66952b90a","ios":"levelo://app?vid=90d302de-2010-41a9-b62f-3be66952b90a"},"vehicle_type_id":"4","last_reported":1747145456,"current_range_meters":11200,"station_id":"ce4bho12rcd13ifvqh2g","pricing_plan_id":"cebpf4jnsgd1na2vs0mg"},{"bike_id":"f0887018-fe65-4abe-b031-bab5e26c0969","system_id":"levelo_inurba_marseille","lat":43.31164,"lon":5.38712,"is_reserved":false,"is_disabled":false,"rental_uris":{"android":"levelo://app?vid=f0887018-fe65-4abe-b031-bab5e26c0969","ios":"levelo://app?vid=f0887018-fe65-4abe-b031-bab5e26c0969"},"vehicle_type_id":"4","last_reported":1747145456,"current_range_meters":11600,"station_id":"ce4bgv12rcd13ifvqcp0","pricing_plan_id":"cebpf4jnsgd1na2vs0mg"},{"bike_id":"ee82be86-c7ac-43b3-97a3-67c0c814a725","system_id":"levelo_inurba_marseille","lat":43.29197,"lon":5.35814,"is_reserved":false,"is_disabled":false,"rental_uris":{"android":"levelo://app?vid=ee82be86-c7ac-43b3-97a3-67c0c814a725","ios":"levelo://app?vid=ee82be86-c7ac-43b3-97a3-67c0c814a725"},"vehicle_type_id":"4","last_reported":1747145456,"current_range_meters":11600,"station_id":"ce4bhb12rcd13ifvqel0","pricing_plan_id":"cebpf4jnsgd1na2vs0mg"},{"bike_id":"7fb4cfbe-0176-48f8-8ffe-d4592a6c46ad","system_id":"levelo_inurba_marseille","lat":43.27555,"lon":5.3843,"is_reserved":false,"is_disabled":false,"rental_uris":{"android":"levelo://app?vid=7fb4cfbe-0176-48f8-8ffe-d4592a6c46ad","ios":"levelo://app?vid=7fb4cfbe-0176-48f8-8ffe-d4592a6c46ad"},"vehicle_type_id":"4","last_reported":1747145456,"current_range_meters":11600,"station_id":"ce4bhh92rcd13ifvqfi0","pricing_plan_id":"cebpf4jnsgd1na2vs0mg"},{"bike_id":"ae08f27a-32b1-4e7f-a529-521e99cda681","system_id":"levelo_inurba_marseille","lat":43.2175,"lon":5.346,"is_reserved":false,"is_disabled":false,"rental_uris":{"android":"levelo://app?vid=ae08f27a-32b1-4e7f-a529-521e99cda681","ios":"levelo://app?vid=ae08f27a-32b1-4e7f-a529-521e99cda681"},"vehicle_type_id":"4","last_reported":1747145456,"current_range_meters":11600,"station_id":"st_cvj6r9ubvosntc0bgbag","pricing_plan_id":"cebpf4jnsgd1na2vs0mg"},{"bike_id":"f9059630-6988-4b79-8733-763625e7c23c","system_id":"levelo_inurba_marseille","lat":43.297919,"lon":5.393515,"is_reserved":false,"is_disabled":false,"rental_uris":{"android":"levelo://app?vid=f9059630-6988-4b79-8733-763625e7c23c","ios":"levelo://app?vid=f9059630-6988-4b79-8733-763625e7c23c"},"vehicle_type_id":"4","last_reported":1747145456,"current_range_meters":12000,"station_id":"","pricing_plan_id":"cebpf4jnsgd1na2vs0mg"},{"bike_id":"7103d08c-c49f-4434-87fe-bb65e17f4457","system_id":"levelo_inurba_marseille","lat":43.29633,"lon":5.37727,"is_reserved":false,"is_disabled":false,"rental_uris":{"android":"levelo://app?vid=7103d08c-c49f-4434-87fe-bb65e17f4457","ios":"levelo://app?vid=7103d08c-c49f-4434-87fe-bb65e17f4457"},"vehicle_type_id":"4","last_reported":1747145456,"current_range_meters":12000,"station_id":"ce4bgi92rcd13ifvqb90","pricing_plan_id":"cebpf4jnsgd1na2vs0mg"},{"bike_id":"ca9f8983-af12-4d09-8abb-1afb552764ac","system_id":"levelo_inurba_marseille","lat":43.30312,"lon":5.36868,"is_reserved":false,"is_disabled":false,"rental_uris":{"android":"levelo://app?vid=ca9f8983-af12-4d09-8abb-1afb552764ac","ios":"levelo://app?vid=ca9f8983-af12-4d09-8abb-1afb552764ac"},"vehicle_type_id":"4","last_reported":1747145456,"current_range_meters":12000,"station_id":"ce4bgqh2rcd13ifvqc5g","pricing_plan_id":"cebpf4jnsgd1na2vs0mg"},{"bike_id":"de1ebfc2-bb52-4103-a3ba-b707b2d897c6","system_id":"levelo_inurba_marseille","lat":43.3053,"lon":5.36536,"is_reserved":false,"is_disabled":false,"rental_uris":{"android":"levelo://app?vid=de1ebfc2-bb52-4103-a3ba-b707b2d897c6","ios":"levelo://app?vid=de1ebfc2-bb52-4103-a3ba-b707b2d897c6"},"vehicle_type_id":"4","last_reported":1747145456,"current_range_meters":12000,"station_id":"ce4bgs12rcd13ifvqcag","pricing_plan_id":"cebpf4jnsgd1na2vs0mg"},{"bike_id":"85e25300-57a2-4bbb-8653-bfb5f0369c69","system_id":"levelo_inurba_marseille","lat":43.28263,"lon":5.35057,"is_reserved":false,"is_disabled":false,"rental_uris":{"android":"levelo://app?vid=85e25300-57a2-4bbb-8653-bfb5f0369c69","ios":"levelo://app?vid=85e25300-57a2-4bbb-8653-bfb5f0369c69"},"vehicle_type_id":"4","last_reported":1747145456,"current_range_meters":12000,"station_id":"ce4bhbp2rcd13ifvqerg","pricing_plan_id":"cebpf4jnsgd1na2vs0mg"},{"bike_id":"be03c842-7afb-4382-ad52-190546331032","system_id":"levelo_inurba_marseille","lat":43.24178,"lon":5.36371,"is_reserved":false,"is_disabled":false,"rental_uris":{"android":"levelo://app?vid=be03c842-7afb-4382-ad52-190546331032","ios":"levelo://app?vid=be03c842-7afb-4382-ad52-190546331032"},"vehicle_type_id":"4","last_reported":1747145456,"current_range_meters":12000,"station_id":"cpo36qri1sfpv3e86is0","pricing_plan_id":"cebpf4jnsgd1na2vs0mg"},{"bike_id":"bae0709b-c933-441a-ab47-3aad58f66d78","system_id":"levelo_inurba_marseille","lat":43.21754,"lon":5.34602,"is_reserved":false,"is_disabled":false,"rental_uris":{"android":"levelo://app?vid=bae0709b-c933-441a-ab47-3aad58f66d78","ios":"levelo://app?vid=bae0709b-c933-441a-ab47-3aad58f66d78"},"vehicle_type_id":"4","last_reported":1747145456,"current_range_meters":12000,"station_id":"st_cvj6r9ubvosntc0bgbag","pricing_plan_id":"cebpf4jnsgd1na2vs0mg"},{"bike_id":"987ebcdc-e752-4db2-93a6-bdc475212ce1","system_id":"levelo_inurba_marseille","lat":43.28054,"lon":5.36949,"is_reserved":false,"is_disabled":false,"rental_uris":{"android":"levelo://app?vid=987ebcdc-e752-4db2-93a6-bdc475212ce1","ios":"levelo://app?vid=987ebcdc-e752-4db2-93a6-bdc475212ce1"},"vehicle_type_id":"4","last_reported":1747145456,"current_range_meters":12400,"station_id":"ce4bha12rcd13ifvqef0","pricing_plan_id":"cebpf4jnsgd1na2vs0mg"},{"bike_id":"60fb0a13-caea-4fb0-86cf-66b58e6408b5","system_id":"levelo_inurba_marseille","lat":43.27379,"lon":5.36259,"is_reserved":false,"is_disabled":false,"rental_uris":{"android":"levelo://app?vid=60fb0a13-caea-4fb0-86cf-66b58e6408b5","ios":"levelo://app?vid=60fb0a13-caea-4fb0-86cf-66b58e6408b5"},"vehicle_type_id":"4","last_reported":1747145456,"current_range_meters":12400,"station_id":"ce4bhbh2rcd13ifvqeo0","pricing_plan_id":"cebpf4jnsgd1na2vs0mg"},{"bike_id":"1318786c-62a0-4989-8294-371625b5ec88","system_id":"levelo_inurba_marseille","lat":43.27972,"lon":5.38729,"is_reserved":false,"is_disabled":false,"rental_uris":{"android":"levelo://app?vid=1318786c-62a0-4989-8294-371625b5ec88","ios":"levelo://app?vid=1318786c-62a0-4989-8294-371625b5ec88"},"vehicle_type_id":"4","last_reported":1747145456,"current_range_meters":12400,"station_id":"ce4bhg12rcd13ifvqf80","pricing_plan_id":"cebpf4jnsgd1na2vs0mg"},{"bike_id":"8a6b3bda-210b-491e-a3f7-b82bac139fa2","system_id":"levelo_inurba_marseille","lat":43.27669,"lon":5.38875,"is_reserved":false,"is_disabled":false,"rental_uris":{"android":"levelo://app?vid=8a6b3bda-210b-491e-a3f7-b82bac139fa2","ios":"levelo://app?vid=8a6b3bda-210b-491e-a3f7-b82bac139fa2"},"vehicle_type_id":"4","last_reported":1747145456,"current_range_meters":12800,"station_id":"ce4bhi12rcd13ifvqfo0","pricing_plan_id":"cebpf4jnsgd1na2vs0mg"},{"bike_id":"df60fa94-36d1-445a-98cb-6b5ab31d594b","system_id":"levelo_inurba_marseille","lat":43.32368,"lon":5.38888,"is_reserved":false,"is_disabled":false,"rental_uris":{"android":"levelo://app?vid=df60fa94-36d1-445a-98cb-6b5ab31d594b","ios":"levelo://app?vid=df60fa94-36d1-445a-98cb-6b5ab31d594b"},"vehicle_type_id":"4","last_reported":1747145456,"current_range_meters":12800,"station_id":"ce4bhqp2rcd13ifvqhog","pricing_plan_id":"cebpf4jnsgd1na2vs0mg"},{"bike_id":"b7e85dc0-8241-4e04-9bb4-a89b7a625a0c","system_id":"levelo_inurba_marseille","lat":43.32483,"lon":5.36568,"is_reserved":false,"is_disabled":false,"rental_uris":{"android":"levelo://app?vid=b7e85dc0-8241-4e04-9bb4-a89b7a625a0c","ios":"levelo://app?vid=b7e85dc0-8241-4e04-9bb4-a89b7a625a0c"},"vehicle_type_id":"4","last_reported":1747145456,"current_range_meters":12800,"station_id":"ce4bhs12rcd13ifvqhvg","pricing_plan_id":"cebpf4jnsgd1na2vs0mg"},{"bike_id":"baaba670-7b32-404e-8aa7-73782522ced5","system_id":"levelo_inurba_marseille","lat":43.293707,"lon":5.378526,"is_reserved":false,"is_disabled":false,"rental_uris":{"android":"levelo://app?vid=baaba670-7b32-404e-8aa7-73782522ced5","ios":"levelo://app?vid=baaba670-7b32-404e-8aa7-73782522ced5"},"vehicle_type_id":"4","last_reported":1747145456,"current_range_meters":13600,"station_id":"","pricing_plan_id":"cebpf4jnsgd1na2vs0mg"},{"bike_id":"1abca8a8-02c1-4392-bdee-af9569166752","system_id":"levelo_inurba_marseille","lat":43.32292,"lon":5.382677,"is_reserved":false,"is_disabled":false,"rental_uris":{"android":"levelo://app?vid=1abca8a8-02c1-4392-bdee-af9569166752","ios":"levelo://app?vid=1abca8a8-02c1-4392-bdee-af9569166752"},"vehicle_type_id":"4","last_reported":1747145456,"current_range_meters":13600,"station_id":"ce4bhr12rcd13ifvqhqg","pricing_plan_id":"cebpf4jnsgd1na2vs0mg"},{"bike_id":"959f0d3f-2880-4940-a213-b5cee78f84e3","system_id":"levelo_inurba_marseille","lat":43.27618,"lon":5.36102,"is_reserved":false,"is_disabled":false,"rental_uris":{"android":"levelo://app?vid=959f0d3f-2880-4940-a213-b5cee78f84e3","ios":"levelo://app?vid=959f0d3f-2880-4940-a213-b5cee78f84e3"},"vehicle_type_id":"4","last_reported":1747145456,"current_range_meters":14000,"station_id":"ce4bgj92rcd13ifvqbe0","pricing_plan_id":"cebpf4jnsgd1na2vs0mg"},{"bike_id":"233fcc44-eba3-43df-b7c2-6ef09c4617de","system_id":"levelo_inurba_marseille","lat":43.30548,"lon":5.36555,"is_reserved":false,"is_disabled":false,"rental_uris":{"android":"levelo://app?vid=233fcc44-eba3-43df-b7c2-6ef09c4617de","ios":"levelo://app?vid=233fcc44-eba3-43df-b7c2-6ef09c4617de"},"vehicle_type_id":"4","last_reported":1747145456,"current_range_meters":14000,"station_id":"ce4bgs12rcd13ifvqcag","pricing_plan_id":"cebpf4jnsgd1na2vs0mg"},{"bike_id":"af482389-e24e-4d94-84c5-c14774258823","system_id":"levelo_inurba_marseille","lat":43.30538,"lon":5.36529,"is_reserved":false,"is_disabled":false,"rental_uris":{"android":"levelo://app?vid=af482389-e24e-4d94-84c5-c14774258823","ios":"levelo://app?vid=af482389-e24e-4d94-84c5-c14774258823"},"vehicle_type_id":"4","last_reported":1747145456,"current_range_meters":14000,"station_id":"ce4bgs12rcd13ifvqcag","pricing_plan_id":"cebpf4jnsgd1na2vs0mg"},{"bike_id":"4dbefd3f-d61e-4a06-8faf-789a4b1aefa3","system_id":"levelo_inurba_marseille","lat":43.30279,"lon":5.3769,"is_reserved":false,"is_disabled":false,"rental_uris":{"android":"levelo://app?vid=4dbefd3f-d61e-4a06-8faf-789a4b1aefa3","ios":"levelo://app?vid=4dbefd3f-d61e-4a06-8faf-789a4b1aefa3"},"vehicle_type_id":"4","last_reported":1747145456,"current_range_meters":14000,"station_id":"ce4bguh2rcd13ifvqcj0","pricing_plan_id":"cebpf4jnsgd1na2vs0mg"},{"bike_id":"4166d349-de1b-4b76-9456-a8d3a51606e5","system_id":"levelo_inurba_marseille","lat":43.24176,"lon":5.397359,"is_reserved":false,"is_disabled":false,"rental_uris":{"android":"levelo://app?vid=4166d349-de1b-4b76-9456-a8d3a51606e5","ios":"levelo://app?vid=4166d349-de1b-4b76-9456-a8d3a51606e5"},"vehicle_type_id":"4","last_reported":1747145456,"current_range_meters":14400,"station_id":"ce4bgj92rcd13ifvqbe0","pricing_plan_id":"cebpf4jnsgd1na2vs0mg"},{"bike_id":"eee49de0-41d6-4472-8a94-be0ef00d88d1","system_id":"levelo_inurba_marseille","lat":43.28038,"lon":5.36945,"is_reserved":false,"is_disabled":false,"rental_uris":{"android":"levelo://app?vid=eee49de0-41d6-4472-8a94-be0ef00d88d1","ios":"levelo://app?vid=eee49de0-41d6-4472-8a94-be0ef00d88d1"},"vehicle_type_id":"4","last_reported":1747145456,"current_range_meters":14400,"station_id":"ce4bha12rcd13ifvqef0","pricing_plan_id":"cebpf4jnsgd1na2vs0mg"},{"bike_id":"6849816a-14a2-4736-aae2-e7373738bc80","system_id":"levelo_inurba_marseille","lat":43.2594,"lon":5.4091,"is_reserved":false,"is_disabled":false,"rental_uris":{"android":"levelo://app?vid=6849816a-14a2-4736-aae2-e7373738bc80","ios":"levelo://app?vid=6849816a-14a2-4736-aae2-e7373738bc80"},"vehicle_type_id":"4","last_reported":1747145456,"current_range_meters":14400,"station_id":"ce4bhm92rcd13ifvqglg","pricing_plan_id":"cebpf4jnsgd1na2vs0mg"},{"bike_id":"94723562-2929-452f-9b0c-a4eb19f94d42","system_id":"levelo_inurba_marseille","lat":43.30282,"lon":5.37698,"is_reserved":false,"is_disabled":false,"rental_uris":{"android":"levelo://app?vid=94723562-2929-452f-9b0c-a4eb19f94d42","ios":"levelo://app?vid=94723562-2929-452f-9b0c-a4eb19f94d42"},"vehicle_type_id":"4","last_reported":1747145456,"current_range_meters":14800,"station_id":"ce4bguh2rcd13ifvqcj0","pricing_plan_id":"cebpf4jnsgd1na2vs0mg"},{"bike_id":"3c98b684-f55a-4ca2-80a7-112dd2a27da8","system_id":"levelo_inurba_marseille","lat":43.30275,"lon":5.37713,"is_reserved":false,"is_disabled":false,"rental_uris":{"android":"levelo://app?vid=3c98b684-f55a-4ca2-80a7-112dd2a27da8","ios":"levelo://app?vid=3c98b684-f55a-4ca2-80a7-112dd2a27da8"},"vehicle_type_id":"4","last_reported":1747145456,"current_range_meters":14800,"station_id":"ce4bguh2rcd13ifvqcj0","pricing_plan_id":"cebpf4jnsgd1na2vs0mg"},{"bike_id":"c8747c89-b35f-4348-87e6-c594a932c995","system_id":"levelo_inurba_marseille","lat":43.28414,"lon":5.34983,"is_reserved":false,"is_disabled":false,"rental_uris":{"android":"levelo://app?vid=c8747c89-b35f-4348-87e6-c594a932c995","ios":"levelo://app?vid=c8747c89-b35f-4348-87e6-c594a932c995"},"vehicle_type_id":"4","last_reported":1747145456,"current_range_meters":14800,"station_id":"ce4bhbh2rcd13ifvqepg","pricing_plan_id":"cebpf4jnsgd1na2vs0mg"},{"bike_id":"d99d0f6a-b8cd-427a-af97-32754dc10ef8","system_id":"levelo_inurba_marseille","lat":43.27178,"lon":5.41002,"is_reserved":false,"is_disabled":false,"rental_uris":{"android":"levelo://app?vid=d99d0f6a-b8cd-427a-af97-32754dc10ef8","ios":"levelo://app?vid=d99d0f6a-b8cd-427a-af97-32754dc10ef8"},"vehicle_type_id":"4","last_reported":1747145456,"current_range_meters":14800,"station_id":"ce4bhl12rcd13ifvqgf0","pricing_plan_id":"cebpf4jnsgd1na2vs0mg"},{"bike_id":"37307f12-2e72-4509-8295-02f2d9f75c6a","system_id":"levelo_inurba_marseille","lat":43.23194,"lon":5.35551,"is_reserved":false,"is_disabled":false,"rental_uris":{"android":"levelo://app?vid=37307f12-2e72-4509-8295-02f2d9f75c6a","ios":"levelo://app?vid=37307f12-2e72-4509-8295-02f2d9f75c6a"},"vehicle_type_id":"4","last_reported":1747145456,"current_range_meters":15200,"station_id":"ce4bhu92rcd13ifvqi70","pricing_plan_id":"cebpf4jnsgd1na2vs0mg"},{"bike_id":"fc0cbf8b-d25b-4fe7-a81f-0efc78e801ef","system_id":"levelo_inurba_marseille","lat":43.30787,"lon":5.37648,"is_reserved":false,"is_disabled":false,"rental_uris":{"android":"levelo://app?vid=fc0cbf8b-d25b-4fe7-a81f-0efc78e801ef","ios":"levelo://app?vid=fc0cbf8b-d25b-4fe7-a81f-0efc78e801ef"},"vehicle_type_id":"4","last_reported":1747145456,"current_range_meters":16000,"station_id":"ce4bgv92rcd13ifvqcq0","pricing_plan_id":"cebpf4jnsgd1na2vs0mg"},{"bike_id":"ee95d7b1-23aa-4ba2-8604-c3c7e16b2172","system_id":"levelo_inurba_marseille","lat":43.289149,"lon":5.366531,"is_reserved":false,"is_disabled":false,"rental_uris":{"android":"levelo://app?vid=ee95d7b1-23aa-4ba2-8604-c3c7e16b2172","ios":"levelo://app?vid=ee95d7b1-23aa-4ba2-8604-c3c7e16b2172"},"vehicle_type_id":"4","last_reported":1747145456,"current_range_meters":16000,"station_id":"ce4bhap2rcd13ifvqek0","pricing_plan_id":"cebpf4jnsgd1na2vs0mg"},{"bike_id":"c7df1b7f-8113-48a7-bf83-7a2771c60483","system_id":"levelo_inurba_marseille","lat":43.28267,"lon":5.35073,"is_reserved":false,"is_disabled":false,"rental_uris":{"android":"levelo://app?vid=c7df1b7f-8113-48a7-bf83-7a2771c60483","ios":"levelo://app?vid=c7df1b7f-8113-48a7-bf83-7a2771c60483"},"vehicle_type_id":"4","last_reported":1747145456,"current_range_meters":16000,"station_id":"ce4bhbp2rcd13ifvqerg","pricing_plan_id":"cebpf4jnsgd1na2vs0mg"},{"bike_id":"d47e0ef5-128e-4c82-8e08-c07c79e20732","system_id":"levelo_inurba_marseille","lat":43.32492,"lon":5.36561,"is_reserved":false,"is_disabled":false,"rental_uris":{"android":"levelo://app?vid=d47e0ef5-128e-4c82-8e08-c07c79e20732","ios":"levelo://app?vid=d47e0ef5-128e-4c82-8e08-c07c79e20732"},"vehicle_type_id":"4","last_reported":1747145456,"current_range_meters":16000,"station_id":"ce4bhs12rcd13ifvqhvg","pricing_plan_id":"cebpf4jnsgd1na2vs0mg"},{"bike_id":"af7378f2-5574-4580-8919-9220d94ad1cc","system_id":"levelo_inurba_marseille","lat":43.23198,"lon":5.35546,"is_reserved":false,"is_disabled":false,"rental_uris":{"android":"levelo://app?vid=af7378f2-5574-4580-8919-9220d94ad1cc","ios":"levelo://app?vid=af7378f2-5574-4580-8919-9220d94ad1cc"},"vehicle_type_id":"4","last_reported":1747145456,"current_range_meters":16000,"station_id":"ce4bhu92rcd13ifvqi70","pricing_plan_id":"cebpf4jnsgd1na2vs0mg"},{"bike_id":"9ac236a5-a1b9-4d55-8484-136112ed4b8a","system_id":"levelo_inurba_marseille","lat":43.30476,"lon":5.37281,"is_reserved":false,"is_disabled":false,"rental_uris":{"android":"levelo://app?vid=9ac236a5-a1b9-4d55-8484-136112ed4b8a","ios":"levelo://app?vid=9ac236a5-a1b9-4d55-8484-136112ed4b8a"},"vehicle_type_id":"4","last_reported":1747145456,"current_range_meters":16400,"station_id":"","pricing_plan_id":"cebpf4jnsgd1na2vs0mg"},{"bike_id":"4629e93c-925e-4830-acda-a87c25fd567e","system_id":"levelo_inurba_marseille","lat":43.27925,"lon":5.39571,"is_reserved":false,"is_disabled":false,"rental_uris":{"android":"levelo://app?vid=4629e93c-925e-4830-acda-a87c25fd567e","ios":"levelo://app?vid=4629e93c-925e-4830-acda-a87c25fd567e"},"vehicle_type_id":"4","last_reported":1747145456,"current_range_meters":16400,"station_id":"ce4bhf92rcd13ifvqf40","pricing_plan_id":"cebpf4jnsgd1na2vs0mg"},{"bike_id":"fc589396-266e-46a2-8a74-caa92b8ea1da","system_id":"levelo_inurba_marseille","lat":43.24386,"lon":5.37052,"is_reserved":false,"is_disabled":false,"rental_uris":{"android":"levelo://app?vid=fc589396-266e-46a2-8a74-caa92b8ea1da","ios":"levelo://app?vid=fc589396-266e-46a2-8a74-caa92b8ea1da"},"vehicle_type_id":"4","last_reported":1747145456,"current_range_meters":16400,"station_id":"ce4bhhh2rcd13ifvqfk0","pricing_plan_id":"cebpf4jnsgd1na2vs0mg"},{"bike_id":"2dde6395-d1f6-4afb-840e-8c30381f782f","system_id":"levelo_inurba_marseille","lat":43.246706,"lon":5.38236,"is_reserved":false,"is_disabled":false,"rental_uris":{"android":"levelo://app?vid=2dde6395-d1f6-4afb-840e-8c30381f782f","ios":"levelo://app?vid=2dde6395-d1f6-4afb-840e-8c30381f782f"},"vehicle_type_id":"4","last_reported":1747145456,"current_range_meters":16400,"station_id":"ce4bhn12rcd13ifvqgqg","pricing_plan_id":"cebpf4jnsgd1na2vs0mg"},{"bike_id":"3c3fe52a-5891-4920-ba4a-95c8a036a733","system_id":"levelo_inurba_marseille","lat":43.30426,"lon":5.41273,"is_reserved":false,"is_disabled":false,"rental_uris":{"android":"levelo://app?vid=3c3fe52a-5891-4920-ba4a-95c8a036a733","ios":"levelo://app?vid=3c3fe52a-5891-4920-ba4a-95c8a036a733"},"vehicle_type_id":"4","last_reported":1747145456,"current_range_meters":16400,"station_id":"ce4bhop2rcd13ifvqh8g","pricing_plan_id":"cebpf4jnsgd1na2vs0mg"},{"bike_id":"42cfaabc-d4d4-405c-ab84-52ce3ce3032a","system_id":"levelo_inurba_marseille","lat":43.31721,"lon":5.43606,"is_reserved":false,"is_disabled":false,"rental_uris":{"android":"levelo://app?vid=42cfaabc-d4d4-405c-ab84-52ce3ce3032a","ios":"levelo://app?vid=42cfaabc-d4d4-405c-ab84-52ce3ce3032a"},"vehicle_type_id":"4","last_reported":1747145456,"current_range_meters":16800,"station_id":"","pricing_plan_id":"cebpf4jnsgd1na2vs0mg"},{"bike_id":"89f0c42b-d73d-4280-b32c-6748cea1ff49","system_id":"levelo_inurba_marseille","lat":43.30326,"lon":5.40434,"is_reserved":false,"is_disabled":false,"rental_uris":{"android":"levelo://app?vid=89f0c42b-d73d-4280-b32c-6748cea1ff49","ios":"levelo://app?vid=89f0c42b-d73d-4280-b32c-6748cea1ff49"},"vehicle_type_id":"4","last_reported":1747145456,"current_range_meters":16800,"station_id":"ce4bh012rcd13ifvqd10","pricing_plan_id":"cebpf4jnsgd1na2vs0mg"},{"bike_id":"c8742d51-26c3-4dd1-aa7a-7e92aedabcbb","system_id":"levelo_inurba_marseille","lat":43.29059,"lon":5.35917,"is_reserved":false,"is_disabled":false,"rental_uris":{"android":"levelo://app?vid=c8742d51-26c3-4dd1-aa7a-7e92aedabcbb","ios":"levelo://app?vid=c8742d51-26c3-4dd1-aa7a-7e92aedabcbb"},"vehicle_type_id":"4","last_reported":1747145456,"current_range_meters":16800,"station_id":"ce4bha92rcd13ifvqeg0","pricing_plan_id":"cebpf4jnsgd1na2vs0mg"},{"bike_id":"0a937b37-2a73-4b79-bebe-c5952c78432f","system_id":"levelo_inurba_marseille","lat":43.28615,"lon":5.35094,"is_reserved":false,"is_disabled":false,"rental_uris":{"android":"levelo://app?vid=0a937b37-2a73-4b79-bebe-c5952c78432f","ios":"levelo://app?vid=0a937b37-2a73-4b79-bebe-c5952c78432f"},"vehicle_type_id":"4","last_reported":1747145456,"current_range_meters":16800,"station_id":"ce4bhch2rcd13ifvqeug","pricing_plan_id":"cebpf4jnsgd1na2vs0mg"},{"bike_id":"42226b9c-02c6-496c-bd67-f5962a6a380b","system_id":"levelo_inurba_marseille","lat":43.27053,"lon":5.40266,"is_reserved":false,"is_disabled":false,"rental_uris":{"android":"levelo://app?vid=42226b9c-02c6-496c-bd67-f5962a6a380b","ios":"levelo://app?vid=42226b9c-02c6-496c-bd67-f5962a6a380b"},"vehicle_type_id":"4","last_reported":1747145456,"current_range_meters":16800,"station_id":"ce4bhk92rcd13ifvqgc0","pricing_plan_id":"cebpf4jnsgd1na2vs0mg"},{"bike_id":"9d76660f-c284-49a2-8765-48337aa51471","system_id":"levelo_inurba_marseille","lat":43.32087,"lon":5.36857,"is_reserved":false,"is_disabled":false,"rental_uris":{"android":"levelo://app?vid=9d76660f-c284-49a2-8765-48337aa51471","ios":"levelo://app?vid=9d76660f-c284-49a2-8765-48337aa51471"},"vehicle_type_id":"4","last_reported":1747145456,"current_range_meters":17200,"station_id":"","pricing_plan_id":"cebpf4jnsgd1na2vs0mg"},{"bike_id":"fafe9230-73f3-4f82-9b35-135a8da5320c","system_id":"levelo_inurba_marseille","lat":43.30537,"lon":5.36543,"is_reserved":false,"is_disabled":false,"rental_uris":{"android":"levelo://app?vid=fafe9230-73f3-4f82-9b35-135a8da5320c","ios":"levelo://app?vid=fafe9230-73f3-4f82-9b35-135a8da5320c"},"vehicle_type_id":"4","last_reported":1747145456,"current_range_meters":17200,"station_id":"ce4bgs12rcd13ifvqcag","pricing_plan_id":"cebpf4jnsgd1na2vs0mg"},{"bike_id":"429d234d-172c-4638-8f27-5ef903102294","system_id":"levelo_inurba_marseille","lat":43.30788,"lon":5.37646,"is_reserved":false,"is_disabled":false,"rental_uris":{"android":"levelo://app?vid=429d234d-172c-4638-8f27-5ef903102294","ios":"levelo://app?vid=429d234d-172c-4638-8f27-5ef903102294"},"vehicle_type_id":"4","last_reported":1747145456,"current_range_meters":17200,"station_id":"ce4bgv92rcd13ifvqcq0","pricing_plan_id":"cebpf4jnsgd1na2vs0mg"},{"bike_id":"8f5f3553-258d-4ac5-95d9-0752638b8e9d","system_id":"levelo_inurba_marseille","lat":43.295849,"lon":5.402562,"is_reserved":false,"is_disabled":false,"rental_uris":{"android":"levelo://app?vid=8f5f3553-258d-4ac5-95d9-0752638b8e9d","ios":"levelo://app?vid=8f5f3553-258d-4ac5-95d9-0752638b8e9d"},"vehicle_type_id":"4","last_reported":1747145456,"current_range_meters":17200,"station_id":"ce4bh0h2rcd13ifvqd60","pricing_plan_id":"cebpf4jnsgd1na2vs0mg"},{"bike_id":"83e7d412-fdec-4d1c-92b5-2e1e4a13c914","system_id":"levelo_inurba_marseille","lat":43.26683,"lon":5.38281,"is_reserved":false,"is_disabled":false,"rental_uris":{"android":"levelo://app?vid=83e7d412-fdec-4d1c-92b5-2e1e4a13c914","ios":"levelo://app?vid=83e7d412-fdec-4d1c-92b5-2e1e4a13c914"},"vehicle_type_id":"4","last_reported":1747145456,"current_range_meters":17200,"station_id":"ce4bhg92rcd13ifvqf90","pricing_plan_id":"cebpf4jnsgd1na2vs0mg"},{"bike_id":"0c893fb7-8626-4706-85bf-f404b871dea5","system_id":"levelo_inurba_marseille","lat":43.28115,"lon":5.44607,"is_reserved":false,"is_disabled":false,"rental_uris":{"android":"levelo://app?vid=0c893fb7-8626-4706-85bf-f404b871dea5","ios":"levelo://app?vid=0c893fb7-8626-4706-85bf-f404b871dea5"},"vehicle_type_id":"4","last_reported":1747145456,"current_range_meters":17600,"station_id":"","pricing_plan_id":"cebpf4jnsgd1na2vs0mg"},{"bike_id":"1b6b7205-e6c4-4745-951d-7144dd070b63","system_id":"levelo_inurba_marseille","lat":43.29299,"lon":5.37465,"is_reserved":false,"is_disabled":false,"rental_uris":{"android":"levelo://app?vid=1b6b7205-e6c4-4745-951d-7144dd070b63","ios":"levelo://app?vid=1b6b7205-e6c4-4745-951d-7144dd070b63"},"vehicle_type_id":"4","last_reported":1747145456,"current_range_meters":17600,"station_id":"ce4bgi12rcd13ifvqb70","pricing_plan_id":"cebpf4jnsgd1na2vs0mg"},{"bike_id":"e1398d2e-b20a-4dd0-a762-35580e0632b4","system_id":"levelo_inurba_marseille","lat":43.31223,"lon":5.36868,"is_reserved":false,"is_disabled":false,"rental_uris":{"android":"levelo://app?vid=e1398d2e-b20a-4dd0-a762-35580e0632b4","ios":"levelo://app?vid=e1398d2e-b20a-4dd0-a762-35580e0632b4"},"vehicle_type_id":"4","last_reported":1747145456,"current_range_meters":17600,"station_id":"ce4bgl92rcd13ifvqbq0","pricing_plan_id":"cebpf4jnsgd1na2vs0mg"},{"bike_id":"ef5f7672-a7ee-42f2-a57b-797b4fb36521","system_id":"levelo_inurba_marseille","lat":43.30334,"lon":5.40431,"is_reserved":false,"is_disabled":false,"rental_uris":{"android":"levelo://app?vid=ef5f7672-a7ee-42f2-a57b-797b4fb36521","ios":"levelo://app?vid=ef5f7672-a7ee-42f2-a57b-797b4fb36521"},"vehicle_type_id":"4","last_reported":1747145456,"current_range_meters":17600,"station_id":"ce4bh012rcd13ifvqd10","pricing_plan_id":"cebpf4jnsgd1na2vs0mg"},{"bike_id":"bd88d41b-f29d-44c2-8d5d-19a0735af1da","system_id":"levelo_inurba_marseille","lat":43.25937,"lon":5.40929,"is_reserved":false,"is_disabled":false,"rental_uris":{"android":"levelo://app?vid=bd88d41b-f29d-44c2-8d5d-19a0735af1da","ios":"levelo://app?vid=bd88d41b-f29d-44c2-8d5d-19a0735af1da"},"vehicle_type_id":"4","last_reported":1747145456,"current_range_meters":17600,"station_id":"ce4bhm92rcd13ifvqglg","pricing_plan_id":"cebpf4jnsgd1na2vs0mg"},{"bike_id":"581a76c6-406f-436c-80cf-424046378536","system_id":"levelo_inurba_marseille","lat":43.23139,"lon":5.43743,"is_reserved":false,"is_disabled":false,"rental_uris":{"android":"levelo://app?vid=581a76c6-406f-436c-80cf-424046378536","ios":"levelo://app?vid=581a76c6-406f-436c-80cf-424046378536"},"vehicle_type_id":"4","last_reported":1747145456,"current_range_meters":17600,"station_id":"ce4bhmp2rcd13ifvqgog","pricing_plan_id":"cebpf4jnsgd1na2vs0mg"},{"bike_id":"1e297e0e-a907-489c-9a22-1dfb89bfb64f","system_id":"levelo_inurba_marseille","lat":43.29265,"lon":5.36407,"is_reserved":false,"is_disabled":false,"rental_uris":{"android":"levelo://app?vid=1e297e0e-a907-489c-9a22-1dfb89bfb64f","ios":"levelo://app?vid=1e297e0e-a907-489c-9a22-1dfb89bfb64f"},"vehicle_type_id":"4","last_reported":1747145456,"current_range_meters":18000,"station_id":"","pricing_plan_id":"cebpf4jnsgd1na2vs0mg"},{"bike_id":"eeb882a8-fe36-4d5c-a964-fc0d0f965523","system_id":"levelo_inurba_marseille","lat":43.306773,"lon":5.366821,"is_reserved":false,"is_disabled":false,"rental_uris":{"android":"levelo://app?vid=eeb882a8-fe36-4d5c-a964-fc0d0f965523","ios":"levelo://app?vid=eeb882a8-fe36-4d5c-a964-fc0d0f965523"},"vehicle_type_id":"4","last_reported":1747145456,"current_range_meters":18000,"station_id":"","pricing_plan_id":"cebpf4jnsgd1na2vs0mg"},{"bike_id":"5fe85995-ae04-439f-b169-6f869f90558e","system_id":"levelo_inurba_marseille","lat":43.30914,"lon":5.36847,"is_reserved":false,"is_disabled":false,"rental_uris":{"android":"levelo://app?vid=5fe85995-ae04-439f-b169-6f869f90558e","ios":"levelo://app?vid=5fe85995-ae04-439f-b169-6f869f90558e"},"vehicle_type_id":"4","last_reported":1747145456,"current_range_meters":18000,"station_id":"ce4bgn92rcd13ifvqbvg","pricing_plan_id":"cebpf4jnsgd1na2vs0mg"},{"bike_id":"473fbc4c-bed0-4bf0-ac22-bd7997abcf5f","system_id":"levelo_inurba_marseille","lat":43.30149,"lon":5.37405,"is_reserved":false,"is_disabled":false,"rental_uris":{"android":"levelo://app?vid=473fbc4c-bed0-4bf0-ac22-bd7997abcf5f","ios":"levelo://app?vid=473fbc4c-bed0-4bf0-ac22-bd7997abcf5f"},"vehicle_type_id":"4","last_reported":1747145456,"current_range_meters":18000,"station_id":"ce4bgs92rcd13ifvqcc0","pricing_plan_id":"cebpf4jnsgd1na2vs0mg"},{"bike_id":"060830cf-1895-4545-85bf-3fa621d57e11","system_id":"levelo_inurba_marseille","lat":43.30937,"lon":5.40143,"is_reserved":false,"is_disabled":false,"rental_uris":{"android":"levelo://app?vid=060830cf-1895-4545-85bf-3fa621d57e11","ios":"levelo://app?vid=060830cf-1895-4545-85bf-3fa621d57e11"},"vehicle_type_id":"4","last_reported":1747145456,"current_range_meters":18000,"station_id":"ce4bgvp2rcd13ifvqct0","pricing_plan_id":"cebpf4jnsgd1na2vs0mg"},{"bike_id":"20615a2b-4d41-4ccd-84f5-69a7a2f3f4ab","system_id":"levelo_inurba_marseille","lat":43.29006,"lon":5.35607,"is_reserved":false,"is_disabled":false,"rental_uris":{"android":"levelo://app?vid=20615a2b-4d41-4ccd-84f5-69a7a2f3f4ab","ios":"levelo://app?vid=20615a2b-4d41-4ccd-84f5-69a7a2f3f4ab"},"vehicle_type_id":"4","last_reported":1747145456,"current_range_meters":18000,"station_id":"ce4bhb92rcd13ifvqen0","pricing_plan_id":"cebpf4jnsgd1na2vs0mg"},{"bike_id":"20f3c93e-c238-47e2-8236-87c995ce85a6","system_id":"levelo_inurba_marseille","lat":43.28423,"lon":5.34999,"is_reserved":false,"is_disabled":false,"rental_uris":{"android":"levelo://app?vid=20f3c93e-c238-47e2-8236-87c995ce85a6","ios":"levelo://app?vid=20f3c93e-c238-47e2-8236-87c995ce85a6"},"vehicle_type_id":"4","last_reported":1747145456,"current_range_meters":18000,"station_id":"ce4bhbh2rcd13ifvqepg","pricing_plan_id":"cebpf4jnsgd1na2vs0mg"},{"bike_id":"9e7ebd91-af82-4549-976b-c088b359c00b","system_id":"levelo_inurba_marseille","lat":43.321086,"lon":5.367666,"is_reserved":false,"is_disabled":false,"rental_uris":{"android":"levelo://app?vid=9e7ebd91-af82-4549-976b-c088b359c00b","ios":"levelo://app?vid=9e7ebd91-af82-4549-976b-c088b359c00b"},"vehicle_type_id":"4","last_reported":1747145456,"current_range_meters":18000,"station_id":"ce4bhrh2rcd13ifvqhug","pricing_plan_id":"cebpf4jnsgd1na2vs0mg"},{"bike_id":"6cbe06ba-1912-4fb8-be5c-686318d02d68","system_id":"levelo_inurba_marseille","lat":43.2416,"lon":5.3642,"is_reserved":false,"is_disabled":false,"rental_uris":{"android":"levelo://app?vid=6cbe06ba-1912-4fb8-be5c-686318d02d68","ios":"levelo://app?vid=6cbe06ba-1912-4fb8-be5c-686318d02d68"},"vehicle_type_id":"4","last_reported":1747145456,"current_range_meters":18000,"station_id":"cpo36qri1sfpv3e86is0","pricing_plan_id":"cebpf4jnsgd1na2vs0mg"},{"bike_id":"75f8dca5-ebbb-4231-a4a7-da615667c2f2","system_id":"levelo_inurba_marseille","lat":43.30526,"lon":5.36508,"is_reserved":false,"is_disabled":false,"rental_uris":{"android":"levelo://app?vid=75f8dca5-ebbb-4231-a4a7-da615667c2f2","ios":"levelo://app?vid=75f8dca5-ebbb-4231-a4a7-da615667c2f2"},"vehicle_type_id":"4","last_reported":1747145456,"current_range_meters":18800,"station_id":"","pricing_plan_id":"cebpf4jnsgd1na2vs0mg"},{"bike_id":"39ae0e93-f6cc-4717-854b-587a9e58bdbb","system_id":"levelo_inurba_marseille","lat":43.30793,"lon":5.37653,"is_reserved":false,"is_disabled":false,"rental_uris":{"android":"levelo://app?vid=39ae0e93-f6cc-4717-854b-587a9e58bdbb","ios":"levelo://app?vid=39ae0e93-f6cc-4717-854b-587a9e58bdbb"},"vehicle_type_id":"4","last_reported":1747145456,"current_range_meters":18800,"station_id":"ce4bgv92rcd13ifvqcq0","pricing_plan_id":"cebpf4jnsgd1na2vs0mg"},{"bike_id":"40bf7cfe-6379-4136-85b8-058579cd2abf","system_id":"levelo_inurba_marseille","lat":43.27374,"lon":5.36261,"is_reserved":false,"is_disabled":false,"rental_uris":{"android":"levelo://app?vid=40bf7cfe-6379-4136-85b8-058579cd2abf","ios":"levelo://app?vid=40bf7cfe-6379-4136-85b8-058579cd2abf"},"vehicle_type_id":"4","last_reported":1747145456,"current_range_meters":18800,"station_id":"ce4bhbh2rcd13ifvqeo0","pricing_plan_id":"cebpf4jnsgd1na2vs0mg"},{"bike_id":"13e40b0e-8d43-469d-9950-d560df07a743","system_id":"levelo_inurba_marseille","lat":43.2826,"lon":5.35059,"is_reserved":false,"is_disabled":false,"rental_uris":{"android":"levelo://app?vid=13e40b0e-8d43-469d-9950-d560df07a743","ios":"levelo://app?vid=13e40b0e-8d43-469d-9950-d560df07a743"},"vehicle_type_id":"4","last_reported":1747145456,"current_range_meters":18800,"station_id":"ce4bhbp2rcd13ifvqerg","pricing_plan_id":"cebpf4jnsgd1na2vs0mg"},{"bike_id":"ee9cc488-6955-405e-a8e8-9b12ad6d08d4","system_id":"levelo_inurba_marseille","lat":43.28263,"lon":5.35059,"is_reserved":false,"is_disabled":false,"rental_uris":{"android":"levelo://app?vid=ee9cc488-6955-405e-a8e8-9b12ad6d08d4","ios":"levelo://app?vid=ee9cc488-6955-405e-a8e8-9b12ad6d08d4"},"vehicle_type_id":"4","last_reported":1747145456,"current_range_meters":18800,"station_id":"ce4bhbp2rcd13ifvqerg","pricing_plan_id":"cebpf4jnsgd1na2vs0mg"},{"bike_id":"e64ccb21-b07c-4dc1-a129-1e19c593a376","system_id":"levelo_inurba_marseille","lat":43.23155,"lon":5.43735,"is_reserved":false,"is_disabled":false,"rental_uris":{"android":"levelo://app?vid=e64ccb21-b07c-4dc1-a129-1e19c593a376","ios":"levelo://app?vid=e64ccb21-b07c-4dc1-a129-1e19c593a376"},"vehicle_type_id":"4","last_reported":1747145456,"current_range_meters":18800,"station_id":"ce4bhmp2rcd13ifvqgog","pricing_plan_id":"cebpf4jnsgd1na2vs0mg"},{"bike_id":"90a28b7f-461f-4e9c-a457-bbbd6c1126c9","system_id":"levelo_inurba_marseille","lat":43.32342,"lon":5.40621,"is_reserved":false,"is_disabled":false,"rental_uris":{"android":"levelo://app?vid=90a28b7f-461f-4e9c-a457-bbbd6c1126c9","ios":"levelo://app?vid=90a28b7f-461f-4e9c-a457-bbbd6c1126c9"},"vehicle_type_id":"4","last_reported":1747145456,"current_range_meters":18800,"station_id":"ce4bhq92rcd13ifvqhjg","pricing_plan_id":"cebpf4jnsgd1na2vs0mg"},{"bike_id":"6c8880d0-2bcf-478e-ac66-4952171afa4f","system_id":"levelo_inurba_marseille","lat":43.29593,"lon":5.38097,"is_reserved":false,"is_disabled":false,"rental_uris":{"android":"levelo://app?vid=6c8880d0-2bcf-478e-ac66-4952171afa4f","ios":"levelo://app?vid=6c8880d0-2bcf-478e-ac66-4952171afa4f"},"vehicle_type_id":"4","last_reported":1747145456,"current_range_meters":19200,"station_id":"ce4bgl12rcd13ifvqbo0","pricing_plan_id":"cebpf4jnsgd1na2vs0mg"},{"bike_id":"7471ae41-13b3-4cf7-ad07-5944ca16ee74","system_id":"levelo_inurba_marseille","lat":43.28454,"lon":5.34946,"is_reserved":false,"is_disabled":false,"rental_uris":{"android":"levelo://app?vid=7471ae41-13b3-4cf7-ad07-5944ca16ee74","ios":"levelo://app?vid=7471ae41-13b3-4cf7-ad07-5944ca16ee74"},"vehicle_type_id":"4","last_reported":1747145456,"current_range_meters":19200,"station_id":"ce4bhbh2rcd13ifvqepg","pricing_plan_id":"cebpf4jnsgd1na2vs0mg"},{"bike_id":"641e2294-047d-40a8-9c2b-d59b3784c21a","system_id":"levelo_inurba_marseille","lat":43.28429,"lon":5.34999,"is_reserved":false,"is_disabled":false,"rental_uris":{"android":"levelo://app?vid=641e2294-047d-40a8-9c2b-d59b3784c21a","ios":"levelo://app?vid=641e2294-047d-40a8-9c2b-d59b3784c21a"},"vehicle_type_id":"4","last_reported":1747145456,"current_range_meters":19200,"station_id":"ce4bhbh2rcd13ifvqepg","pricing_plan_id":"cebpf4jnsgd1na2vs0mg"},{"bike_id":"a5e11739-9f4e-4a5c-a67a-316bdd3705d0","system_id":"levelo_inurba_marseille","lat":43.26827,"lon":5.402937,"is_reserved":false,"is_disabled":false,"rental_uris":{"android":"levelo://app?vid=a5e11739-9f4e-4a5c-a67a-316bdd3705d0","ios":"levelo://app?vid=a5e11739-9f4e-4a5c-a67a-316bdd3705d0"},"vehicle_type_id":"4","last_reported":1747145456,"current_range_meters":19200,"station_id":"ce501612rcd8frsf0b60","pricing_plan_id":"cebpf4jnsgd1na2vs0mg"},{"bike_id":"6e3094ae-584b-4b23-8747-809792d486b5","system_id":"levelo_inurba_marseille","lat":43.21192,"lon":5.35086,"is_reserved":false,"is_disabled":false,"rental_uris":{"android":"levelo://app?vid=6e3094ae-584b-4b23-8747-809792d486b5","ios":"levelo://app?vid=6e3094ae-584b-4b23-8747-809792d486b5"},"vehicle_type_id":"4","last_reported":1747145456,"current_range_meters":19200,"station_id":"st_cvj6sg6p6f1abm77japg","pricing_plan_id":"cebpf4jnsgd1na2vs0mg"},{"bike_id":"995b6502-9a4f-4150-822f-178690fca4ba","system_id":"levelo_inurba_marseille","lat":43.211939,"lon":5.350769,"is_reserved":false,"is_disabled":false,"rental_uris":{"android":"levelo://app?vid=995b6502-9a4f-4150-822f-178690fca4ba","ios":"levelo://app?vid=995b6502-9a4f-4150-822f-178690fca4ba"},"vehicle_type_id":"4","last_reported":1747145456,"current_range_meters":19200,"station_id":"st_cvj6sg6p6f1abm77japg","pricing_plan_id":"cebpf4jnsgd1na2vs0mg"},{"bike_id":"a0737b21-2c0a-46bd-868d-397fe56ddd64","system_id":"levelo_inurba_marseille","lat":43.28268,"lon":5.35068,"is_reserved":false,"is_disabled":false,"rental_uris":{"android":"levelo://app?vid=a0737b21-2c0a-46bd-868d-397fe56ddd64","ios":"levelo://app?vid=a0737b21-2c0a-46bd-868d-397fe56ddd64"},"vehicle_type_id":"4","last_reported":1747145456,"current_range_meters":19600,"station_id":"ce4bhbp2rcd13ifvqerg","pricing_plan_id":"cebpf4jnsgd1na2vs0mg"},{"bike_id":"a32c060a-2f76-4e15-86c5-31ed59c2da25","system_id":"levelo_inurba_marseille","lat":43.25121,"lon":5.40316,"is_reserved":false,"is_disabled":false,"rental_uris":{"android":"levelo://app?vid=a32c060a-2f76-4e15-86c5-31ed59c2da25","ios":"levelo://app?vid=a32c060a-2f76-4e15-86c5-31ed59c2da25"},"vehicle_type_id":"4","last_reported":1747145456,"current_range_meters":19600,"station_id":"ce4bhlh2rcd13ifvqgig","pricing_plan_id":"cebpf4jnsgd1na2vs0mg"},{"bike_id":"4b6986ae-8487-4332-8a02-e84a9b1081bf","system_id":"levelo_inurba_marseille","lat":43.23186,"lon":5.39982,"is_reserved":false,"is_disabled":false,"rental_uris":{"android":"levelo://app?vid=4b6986ae-8487-4332-8a02-e84a9b1081bf","ios":"levelo://app?vid=4b6986ae-8487-4332-8a02-e84a9b1081bf"},"vehicle_type_id":"4","last_reported":1747145456,"current_range_meters":19600,"station_id":"ce4bhn12rcd13ifvqgqg","pricing_plan_id":"cebpf4jnsgd1na2vs0mg"},{"bike_id":"87292699-755c-455d-a269-ad0042d94c7b","system_id":"levelo_inurba_marseille","lat":43.21175,"lon":5.35104,"is_reserved":false,"is_disabled":false,"rental_uris":{"android":"levelo://app?vid=87292699-755c-455d-a269-ad0042d94c7b","ios":"levelo://app?vid=87292699-755c-455d-a269-ad0042d94c7b"},"vehicle_type_id":"4","last_reported":1747145456,"current_range_meters":19600,"station_id":"st_cvj6sg6p6f1abm77japg","pricing_plan_id":"cebpf4jnsgd1na2vs0mg"},{"bike_id":"38079793-4e59-4300-bb0d-a6c8a729a3b3","system_id":"levelo_inurba_marseille","lat":43.30608,"lon":5.37228,"is_reserved":false,"is_disabled":false,"rental_uris":{"android":"levelo://app?vid=38079793-4e59-4300-bb0d-a6c8a729a3b3","ios":"levelo://app?vid=38079793-4e59-4300-bb0d-a6c8a729a3b3"},"vehicle_type_id":"4","last_reported":1747145456,"current_range_meters":20000,"station_id":"ce4bgqh2rcd13ifvqc4g","pricing_plan_id":"cebpf4jnsgd1na2vs0mg"},{"bike_id":"fd31cc67-0d42-4421-a97a-f71f415b9c4b","system_id":"levelo_inurba_marseille","lat":43.26684,"lon":5.38275,"is_reserved":false,"is_disabled":false,"rental_uris":{"android":"levelo://app?vid=fd31cc67-0d42-4421-a97a-f71f415b9c4b","ios":"levelo://app?vid=fd31cc67-0d42-4421-a97a-f71f415b9c4b"},"vehicle_type_id":"4","last_reported":1747145456,"current_range_meters":20000,"station_id":"ce4bhg92rcd13ifvqf90","pricing_plan_id":"cebpf4jnsgd1na2vs0mg"},{"bike_id":"05669342-cb45-4c08-a397-74c64938fdba","system_id":"levelo_inurba_marseille","lat":43.25952,"lon":5.40926,"is_reserved":false,"is_disabled":false,"rental_uris":{"android":"levelo://app?vid=05669342-cb45-4c08-a397-74c64938fdba","ios":"levelo://app?vid=05669342-cb45-4c08-a397-74c64938fdba"},"vehicle_type_id":"4","last_reported":1747145456,"current_range_meters":20000,"station_id":"ce4bhm92rcd13ifvqglg","pricing_plan_id":"cebpf4jnsgd1na2vs0mg"},{"bike_id":"e15bd1ff-e0e9-4540-b0c2-15f6a8596be1","system_id":"levelo_inurba_marseille","lat":43.28159,"lon":5.42646,"is_reserved":false,"is_disabled":false,"rental_uris":{"android":"levelo://app?vid=e15bd1ff-e0e9-4540-b0c2-15f6a8596be1","ios":"levelo://app?vid=e15bd1ff-e0e9-4540-b0c2-15f6a8596be1"},"vehicle_type_id":"4","last_reported":1747145456,"current_range_meters":20000,"station_id":"ce4bhnh2rcd13ifvqgug","pricing_plan_id":"cebpf4jnsgd1na2vs0mg"},{"bike_id":"b334cba1-669b-4ba4-b288-ab14a40de0d1","system_id":"levelo_inurba_marseille","lat":43.23196,"lon":5.35559,"is_reserved":false,"is_disabled":false,"rental_uris":{"android":"levelo://app?vid=b334cba1-669b-4ba4-b288-ab14a40de0d1","ios":"levelo://app?vid=b334cba1-669b-4ba4-b288-ab14a40de0d1"},"vehicle_type_id":"4","last_reported":1747145456,"current_range_meters":20000,"station_id":"ce4bhu92rcd13ifvqi70","pricing_plan_id":"cebpf4jnsgd1na2vs0mg"},{"bike_id":"c5a6038e-e242-4c42-a6da-186787771b16","system_id":"levelo_inurba_marseille","lat":43.21788,"lon":5.34608,"is_reserved":false,"is_disabled":false,"rental_uris":{"android":"levelo://app?vid=c5a6038e-e242-4c42-a6da-186787771b16","ios":"levelo://app?vid=c5a6038e-e242-4c42-a6da-186787771b16"},"vehicle_type_id":"4","last_reported":1747145456,"current_range_meters":20000,"station_id":"st_cvj6r9ubvosntc0bgbag","pricing_plan_id":"cebpf4jnsgd1na2vs0mg"},{"bike_id":"51e4fa78-bc96-4136-9a13-c39ef13626d3","system_id":"levelo_inurba_marseille","lat":43.30893,"lon":5.37192,"is_reserved":false,"is_disabled":false,"rental_uris":{"android":"levelo://app?vid=51e4fa78-bc96-4136-9a13-c39ef13626d3","ios":"levelo://app?vid=51e4fa78-bc96-4136-9a13-c39ef13626d3"},"vehicle_type_id":"4","last_reported":1747145456,"current_range_meters":20400,"station_id":"ce4bguh2rcd13ifvqckg","pricing_plan_id":"cebpf4jnsgd1na2vs0mg"},{"bike_id":"e6f4bc3d-f508-495c-843b-746bc9f128fc","system_id":"levelo_inurba_marseille","lat":43.285856,"lon":5.350822,"is_reserved":false,"is_disabled":false,"rental_uris":{"android":"levelo://app?vid=e6f4bc3d-f508-495c-843b-746bc9f128fc","ios":"levelo://app?vid=e6f4bc3d-f508-495c-843b-746bc9f128fc"},"vehicle_type_id":"4","last_reported":1747145456,"current_range_meters":20400,"station_id":"ce4bhb92rcd13ifvqen0","pricing_plan_id":"cebpf4jnsgd1na2vs0mg"},{"bike_id":"1ba6a4f5-b5de-4475-aee3-6e0421e41fee","system_id":"levelo_inurba_marseille","lat":43.27177,"lon":5.41003,"is_reserved":false,"is_disabled":false,"rental_uris":{"android":"levelo://app?vid=1ba6a4f5-b5de-4475-aee3-6e0421e41fee","ios":"levelo://app?vid=1ba6a4f5-b5de-4475-aee3-6e0421e41fee"},"vehicle_type_id":"4","last_reported":1747145456,"current_range_meters":20400,"station_id":"ce4bhl12rcd13ifvqgf0","pricing_plan_id":"cebpf4jnsgd1na2vs0mg"},{"bike_id":"5f4689d8-17b2-41f4-8da2-8a6a1886f01a","system_id":"levelo_inurba_marseille","lat":43.25861,"lon":5.39914,"is_reserved":false,"is_disabled":false,"rental_uris":{"android":"levelo://app?vid=5f4689d8-17b2-41f4-8da2-8a6a1886f01a","ios":"levelo://app?vid=5f4689d8-17b2-41f4-8da2-8a6a1886f01a"},"vehicle_type_id":"4","last_reported":1747145456,"current_range_meters":20400,"station_id":"ce4bhl92rcd13ifvqghg","pricing_plan_id":"cebpf4jnsgd1na2vs0mg"},{"bike_id":"7308f2f5-1e8d-497e-a0a0-78d746383aac","system_id":"levelo_inurba_marseille","lat":43.23149,"lon":5.43719,"is_reserved":false,"is_disabled":false,"rental_uris":{"android":"levelo://app?vid=7308f2f5-1e8d-497e-a0a0-78d746383aac","ios":"levelo://app?vid=7308f2f5-1e8d-497e-a0a0-78d746383aac"},"vehicle_type_id":"4","last_reported":1747145456,"current_range_meters":20400,"station_id":"ce4bhmp2rcd13ifvqgog","pricing_plan_id":"cebpf4jnsgd1na2vs0mg"},{"bike_id":"bfb0ba93-f4cc-4494-b5cc-6824644415cf","system_id":"levelo_inurba_marseille","lat":43.309155,"lon":5.368455,"is_reserved":false,"is_disabled":false,"rental_uris":{"android":"levelo://app?vid=bfb0ba93-f4cc-4494-b5cc-6824644415cf","ios":"levelo://app?vid=bfb0ba93-f4cc-4494-b5cc-6824644415cf"},"vehicle_type_id":"4","last_reported":1747145456,"current_range_meters":20800,"station_id":"ce4bgn92rcd13ifvqbvg","pricing_plan_id":"cebpf4jnsgd1na2vs0mg"},{"bike_id":"3f53e62e-30aa-4cf2-89b6-967331f0f2c5","system_id":"levelo_inurba_marseille","lat":43.29071,"lon":5.37189,"is_reserved":false,"is_disabled":false,"rental_uris":{"android":"levelo://app?vid=3f53e62e-30aa-4cf2-89b6-967331f0f2c5","ios":"levelo://app?vid=3f53e62e-30aa-4cf2-89b6-967331f0f2c5"},"vehicle_type_id":"4","last_reported":1747145456,"current_range_meters":20800,"station_id":"ce4bh5p2rcd13ifvqe4g","pricing_plan_id":"cebpf4jnsgd1na2vs0mg"},{"bike_id":"38621f4d-89e1-48d9-b3ab-554c6d2588a1","system_id":"levelo_inurba_marseille","lat":43.24659,"lon":5.38162,"is_reserved":false,"is_disabled":false,"rental_uris":{"android":"levelo://app?vid=38621f4d-89e1-48d9-b3ab-554c6d2588a1","ios":"levelo://app?vid=38621f4d-89e1-48d9-b3ab-554c6d2588a1"},"vehicle_type_id":"4","last_reported":1747145456,"current_range_meters":20800,"station_id":"ce4bhih2rcd13ifvqfr0","pricing_plan_id":"cebpf4jnsgd1na2vs0mg"},{"bike_id":"4c3c7f8a-ccca-41ee-9956-af25a88eabf3","system_id":"levelo_inurba_marseille","lat":43.30543,"lon":5.36704,"is_reserved":false,"is_disabled":false,"rental_uris":{"android":"levelo://app?vid=4c3c7f8a-ccca-41ee-9956-af25a88eabf3","ios":"levelo://app?vid=4c3c7f8a-ccca-41ee-9956-af25a88eabf3"},"vehicle_type_id":"4","last_reported":1747145456,"current_range_meters":21600,"station_id":"ce4bgrp2rcd13ifvqc9g","pricing_plan_id":"cebpf4jnsgd1na2vs0mg"},{"bike_id":"c9ba9636-ea85-47bb-94cf-0c61973a3a10","system_id":"levelo_inurba_marseille","lat":43.2927,"lon":5.38433,"is_reserved":false,"is_disabled":false,"rental_uris":{"android":"levelo://app?vid=c9ba9636-ea85-47bb-94cf-0c61973a3a10","ios":"levelo://app?vid=c9ba9636-ea85-47bb-94cf-0c61973a3a10"},"vehicle_type_id":"4","last_reported":1747145456,"current_range_meters":21600,"station_id":"ce4bh692rcd13ifvqea0","pricing_plan_id":"cebpf4jnsgd1na2vs0mg"},{"bike_id":"90a50c1e-5b52-49a8-bf5a-5c9b75b0e433","system_id":"levelo_inurba_marseille","lat":43.28109,"lon":5.37841,"is_reserved":false,"is_disabled":false,"rental_uris":{"android":"levelo://app?vid=90a50c1e-5b52-49a8-bf5a-5c9b75b0e433","ios":"levelo://app?vid=90a50c1e-5b52-49a8-bf5a-5c9b75b0e433"},"vehicle_type_id":"4","last_reported":1747145456,"current_range_meters":21600,"station_id":"ce4bha12rcd13ifvqee0","pricing_plan_id":"cebpf4jnsgd1na2vs0mg"},{"bike_id":"7c24e3a9-dce6-45a4-946b-15e60c5a7421","system_id":"levelo_inurba_marseille","lat":43.28262,"lon":5.35065,"is_reserved":false,"is_disabled":false,"rental_uris":{"android":"levelo://app?vid=7c24e3a9-dce6-45a4-946b-15e60c5a7421","ios":"levelo://app?vid=7c24e3a9-dce6-45a4-946b-15e60c5a7421"},"vehicle_type_id":"4","last_reported":1747145456,"current_range_meters":21600,"station_id":"ce4bhbp2rcd13ifvqerg","pricing_plan_id":"cebpf4jnsgd1na2vs0mg"},{"bike_id":"1c66fe9b-af02-4632-9484-952652b322f6","system_id":"levelo_inurba_marseille","lat":43.239867,"lon":5.366613,"is_reserved":false,"is_disabled":false,"rental_uris":{"android":"levelo://app?vid=1c66fe9b-af02-4632-9484-952652b322f6","ios":"levelo://app?vid=1c66fe9b-af02-4632-9484-952652b322f6"},"vehicle_type_id":"4","last_reported":1747145456,"current_range_meters":21600,"station_id":"ce4bhi12rcd13ifvqfp0","pricing_plan_id":"cebpf4jnsgd1na2vs0mg"},{"bike_id":"81759df7-0b71-428c-bae4-4b87a68e03dd","system_id":"levelo_inurba_marseille","lat":43.23192,"lon":5.35556,"is_reserved":false,"is_disabled":false,"rental_uris":{"android":"levelo://app?vid=81759df7-0b71-428c-bae4-4b87a68e03dd","ios":"levelo://app?vid=81759df7-0b71-428c-bae4-4b87a68e03dd"},"vehicle_type_id":"4","last_reported":1747145456,"current_range_meters":21600,"station_id":"ce4bhu92rcd13ifvqi70","pricing_plan_id":"cebpf4jnsgd1na2vs0mg"},{"bike_id":"5647a91f-31a6-41fb-82bb-83893a94fc73","system_id":"levelo_inurba_marseille","lat":43.21193,"lon":5.35078,"is_reserved":false,"is_disabled":false,"rental_uris":{"android":"levelo://app?vid=5647a91f-31a6-41fb-82bb-83893a94fc73","ios":"levelo://app?vid=5647a91f-31a6-41fb-82bb-83893a94fc73"},"vehicle_type_id":"4","last_reported":1747145456,"current_range_meters":21600,"station_id":"st_cvj6sg6p6f1abm77japg","pricing_plan_id":"cebpf4jnsgd1na2vs0mg"},{"bike_id":"5017890c-f1d5-41ae-9a11-330b1b259701","system_id":"levelo_inurba_marseille","lat":43.29261,"lon":5.37613,"is_reserved":false,"is_disabled":false,"rental_uris":{"android":"levelo://app?vid=5017890c-f1d5-41ae-9a11-330b1b259701","ios":"levelo://app?vid=5017890c-f1d5-41ae-9a11-330b1b259701"},"vehicle_type_id":"4","last_reported":1747145456,"current_range_meters":22000,"station_id":"ce4bgi12rcd13ifvqb80","pricing_plan_id":"cebpf4jnsgd1na2vs0mg"},{"bike_id":"6ea22ac7-7535-4bf0-baa0-53917475ab0f","system_id":"levelo_inurba_marseille","lat":43.29984,"lon":5.37168,"is_reserved":false,"is_disabled":false,"rental_uris":{"android":"levelo://app?vid=6ea22ac7-7535-4bf0-baa0-53917475ab0f","ios":"levelo://app?vid=6ea22ac7-7535-4bf0-baa0-53917475ab0f"},"vehicle_type_id":"4","last_reported":1747145456,"current_range_meters":22000,"station_id":"ce4bgr92rcd13ifvqc7g","pricing_plan_id":"cebpf4jnsgd1na2vs0mg"},{"bike_id":"93c0b3ec-e31e-4412-859f-553f053b3b69","system_id":"levelo_inurba_marseille","lat":43.30267,"lon":5.37718,"is_reserved":false,"is_disabled":false,"rental_uris":{"android":"levelo://app?vid=93c0b3ec-e31e-4412-859f-553f053b3b69","ios":"levelo://app?vid=93c0b3ec-e31e-4412-859f-553f053b3b69"},"vehicle_type_id":"4","last_reported":1747145456,"current_range_meters":22000,"station_id":"ce4bguh2rcd13ifvqcj0","pricing_plan_id":"cebpf4jnsgd1na2vs0mg"},{"bike_id":"680aed07-f4e9-43e0-8d73-1a83022f5517","system_id":"levelo_inurba_marseille","lat":43.31075,"lon":5.38358,"is_reserved":false,"is_disabled":false,"rental_uris":{"android":"levelo://app?vid=680aed07-f4e9-43e0-8d73-1a83022f5517","ios":"levelo://app?vid=680aed07-f4e9-43e0-8d73-1a83022f5517"},"vehicle_type_id":"4","last_reported":1747145456,"current_range_meters":22000,"station_id":"ce4bgv92rcd13ifvqcr0","pricing_plan_id":"cebpf4jnsgd1na2vs0mg"},{"bike_id":"b19af031-3e9f-4a6d-b213-c5068d7c91a0","system_id":"levelo_inurba_marseille","lat":43.30253,"lon":5.40061,"is_reserved":false,"is_disabled":false,"rental_uris":{"android":"levelo://app?vid=b19af031-3e9f-4a6d-b213-c5068d7c91a0","ios":"levelo://app?vid=b19af031-3e9f-4a6d-b213-c5068d7c91a0"},"vehicle_type_id":"4","last_reported":1747145456,"current_range_meters":22000,"station_id":"ce4bgvh2rcd13ifvqcs0","pricing_plan_id":"cebpf4jnsgd1na2vs0mg"},{"bike_id":"2e1daa47-57df-4ca2-b228-8c804cb49675","system_id":"levelo_inurba_marseille","lat":43.287056,"lon":5.373822,"is_reserved":false,"is_disabled":false,"rental_uris":{"android":"levelo://app?vid=2e1daa47-57df-4ca2-b228-8c804cb49675","ios":"levelo://app?vid=2e1daa47-57df-4ca2-b228-8c804cb49675"},"vehicle_type_id":"4","last_reported":1747145456,"current_range_meters":22000,"station_id":"ce4bh3p2rcd13ifvqdq0","pricing_plan_id":"cebpf4jnsgd1na2vs0mg"},{"bike_id":"a5c4a1eb-676d-4d8d-a6aa-9432bb562fa8","system_id":"levelo_inurba_marseille","lat":43.28264,"lon":5.35059,"is_reserved":false,"is_disabled":false,"rental_uris":{"android":"levelo://app?vid=a5c4a1eb-676d-4d8d-a6aa-9432bb562fa8","ios":"levelo://app?vid=a5c4a1eb-676d-4d8d-a6aa-9432bb562fa8"},"vehicle_type_id":"4","last_reported":1747145456,"current_range_meters":22000,"station_id":"ce4bhbp2rcd13ifvqerg","pricing_plan_id":"cebpf4jnsgd1na2vs0mg"},{"bike_id":"ac0112c9-313e-422c-910b-a3523b05b0c9","system_id":"levelo_inurba_marseille","lat":43.23058,"lon":5.35483,"is_reserved":false,"is_disabled":false,"rental_uris":{"android":"levelo://app?vid=ac0112c9-313e-422c-910b-a3523b05b0c9","ios":"levelo://app?vid=ac0112c9-313e-422c-910b-a3523b05b0c9"},"vehicle_type_id":"4","last_reported":1747145456,"current_range_meters":22000,"station_id":"cpo3342slgdg3j2ifvpg","pricing_plan_id":"cebpf4jnsgd1na2vs0mg"},{"bike_id":"832d130e-a2a9-46ad-a5dd-4a207bfeeb9f","system_id":"levelo_inurba_marseille","lat":43.292139,"lon":5.390596,"is_reserved":false,"is_disabled":false,"rental_uris":{"android":"levelo://app?vid=832d130e-a2a9-46ad-a5dd-4a207bfeeb9f","ios":"levelo://app?vid=832d130e-a2a9-46ad-a5dd-4a207bfeeb9f"},"vehicle_type_id":"4","last_reported":1747145456,"current_range_meters":22400,"station_id":"","pricing_plan_id":"cebpf4jnsgd1na2vs0mg"},{"bike_id":"93138f09-adf4-45aa-a5a2-45ce0d69fea9","system_id":"levelo_inurba_marseille","lat":43.29918,"lon":5.38145,"is_reserved":false,"is_disabled":false,"rental_uris":{"android":"levelo://app?vid=93138f09-adf4-45aa-a5a2-45ce0d69fea9","ios":"levelo://app?vid=93138f09-adf4-45aa-a5a2-45ce0d69fea9"},"vehicle_type_id":"4","last_reported":1747145456,"current_range_meters":22400,"station_id":"ce4bgj12rcd13ifvqbc0","pricing_plan_id":"cebpf4jnsgd1na2vs0mg"},{"bike_id":"7c18d10a-9584-4d0f-8b77-56075d289425","system_id":"levelo_inurba_marseille","lat":43.287018,"lon":5.373803,"is_reserved":false,"is_disabled":false,"rental_uris":{"android":"levelo://app?vid=7c18d10a-9584-4d0f-8b77-56075d289425","ios":"levelo://app?vid=7c18d10a-9584-4d0f-8b77-56075d289425"},"vehicle_type_id":"4","last_reported":1747145456,"current_range_meters":22400,"station_id":"ce4bh3p2rcd13ifvqdq0","pricing_plan_id":"cebpf4jnsgd1na2vs0mg"},{"bike_id":"1311b7be-7448-4e46-8540-0cecbf3a9518","system_id":"levelo_inurba_marseille","lat":43.321047,"lon":5.367736,"is_reserved":false,"is_disabled":false,"rental_uris":{"android":"levelo://app?vid=1311b7be-7448-4e46-8540-0cecbf3a9518","ios":"levelo://app?vid=1311b7be-7448-4e46-8540-0cecbf3a9518"},"vehicle_type_id":"4","last_reported":1747145456,"current_range_meters":22400,"station_id":"ce4bhrh2rcd13ifvqhug","pricing_plan_id":"cebpf4jnsgd1na2vs0mg"},{"bike_id":"44ef9a53-fb8f-480b-96fc-1fb4c2f78b57","system_id":"levelo_inurba_marseille","lat":43.32826,"lon":5.41055,"is_reserved":false,"is_disabled":false,"rental_uris":{"android":"levelo://app?vid=44ef9a53-fb8f-480b-96fc-1fb4c2f78b57","ios":"levelo://app?vid=44ef9a53-fb8f-480b-96fc-1fb4c2f78b57"},"vehicle_type_id":"4","last_reported":1747145456,"current_range_meters":22800,"station_id":"","pricing_plan_id":"cebpf4jnsgd1na2vs0mg"},{"bike_id":"2e8ead0e-591e-4321-ba2b-0f109c3212f2","system_id":"levelo_inurba_marseille","lat":43.30797,"lon":5.37651,"is_reserved":false,"is_disabled":false,"rental_uris":{"android":"levelo://app?vid=2e8ead0e-591e-4321-ba2b-0f109c3212f2","ios":"levelo://app?vid=2e8ead0e-591e-4321-ba2b-0f109c3212f2"},