{"last_updated":1742137687,"ttl":60,"version":"2.2","data":{"bikes":[{"bike_id":"6a73dd39-cdec-4ba8-b6eb-fe4bb793d20d","system_id":"levelo_inurba_marseille","lat":43.23194,"lon":5.35558,"is_reserved":false,"is_disabled":false,"rental_uris":{"android":"levelo://app?vid=6a73dd39-cdec-4ba8-b6eb-fe4bb793d20d","ios":"levelo://app?vid=6a73dd39-cdec-4ba8-b6eb-fe4bb793d20d"},"vehicle_type_id":"4","last_reported":1742137687,"current_range_meters":2800,"station_id":"ce4bhu92rcd13ifvqi70","pricing_plan_id":"cebpf4jnsgd1na2vs0mg"},{"bike_id":"5aa850f8-2e18-47d4-bf49-4860c1018e94","system_id":"levelo_inurba_marseille","lat":43.27973,"lon":5.38752,"is_reserved":false,"is_disabled":false,"rental_uris":{"android":"levelo://app?vid=5aa850f8-2e18-47d4-bf49-4860c1018e94","ios":"levelo://app?vid=5aa850f8-2e18-47d4-bf49-4860c1018e94"},"vehicle_type_id":"4","last_reported":1742137687,"current_range_meters":2800,"station_id":"ce4bhg12rcd13ifvqf80","pricing_plan_id":"cebpf4jnsgd1na2vs0mg"},{"bike_id":"c2e5486b-f5f5-45af-973c-42198c00164d","system_id":"levelo_inurba_marseille","lat":43.32474,"lon":5.36554,"is_reserved":false,"is_disabled":false,"rental_uris":{"android":"levelo://app?vid=c2e5486b-f5f5-45af-973c-42198c00164d","ios":"levelo://app?vid=c2e5486b-f5f5-45af-973c-42198c00164d"},"vehicle_type_id":"4","last_reported":1742137687,"current_range_meters":2800,"station_id":"ce4bhs12rcd13ifvqhvg","pricing_plan_id":"cebpf4jnsgd1na2vs0mg"},{"bike_id":"3b01024c-1f9c-48c6-9c65-cc199122ac91","system_id":"levelo_inurba_marseille","lat":43.283459,"lon":5.381033,"is_reserved":false,"is_disabled":false,"rental_uris":{"android":"levelo://app?vid=3b01024c-1f9c-48c6-9c65-cc199122ac91","ios":"levelo://app?vid=3b01024c-1f9c-48c6-9c65-cc199122ac91"},"vehicle_type_id":"4","last_reported":1742137687,"current_range_meters":2800,"station_id":"ce4bh612rcd13ifvqe6g","pricing_plan_id":"cebpf4jnsgd1na2vs0mg"},{"bike_id":"e51b03c8-9ecc-425f-a822-9a5f9d834983","system_id":"levelo_inurba_marseille","lat":43.26571,"lon":5.39026,"is_reserved":false,"is_disabled":false,"rental_uris":{"android":"levelo://app?vid=e51b03c8-9ecc-425f-a822-9a5f9d834983","ios":"levelo://app?vid=e51b03c8-9ecc-425f-a822-9a5f9d834983"},"vehicle_type_id":"4","last_reported":1742137687,"current_range_meters":2800,"station_id":"ce4bhe12rcd13ifvqf30","pricing_plan_id":"cebpf4jnsgd1na2vs0mg"},{"bike_id":"ab0be800-1a5c-4307-bf23-3b50eb46aa2e","system_id":"levelo_inurba_marseille","lat":43.22927,"lon":5.35377,"is_reserved":false,"is_disabled":false,"rental_uris":{"android":"levelo://app?vid=ab0be800-1a5c-4307-bf23-3b50eb46aa2e","ios":"levelo://app?vid=ab0be800-1a5c-4307-bf23-3b50eb46aa2e"},"vehicle_type_id":"4","last_reported":1742137687,"current_range_meters":3200,"station_id":"cpo3532slgdg3j2ikp40","pricing_plan_id":"cebpf4jnsgd1na2vs0mg"},{"bike_id":"68b80d1c-1f04-4d40-86e4-33545ef1fe55","system_id":"levelo_inurba_marseille","lat":43.29895,"lon":5.43671,"is_reserved":false,"is_disabled":false,"rental_uris":{"android":"levelo://app?vid=68b80d1c-1f04-4d40-86e4-33545ef1fe55","ios":"levelo://app?vid=68b80d1c-1f04-4d40-86e4-33545ef1fe55"},"vehicle_type_id":"4","last_reported":1742137687,"current_range_meters":3200,"station_id":"ce4bhpp2rcd13ifvqhfg","pricing_plan_id":"cebpf4jnsgd1na2vs0mg"},{"bike_id":"c0f11789-d6e8-41e7-a9e2-4b4b74dfdebd","system_id":"levelo_inurba_marseille","lat":43.24807,"lon":5.3746,"is_reserved":false,"is_disabled":false,"rental_uris":{"android":"levelo://app?vid=c0f11789-d6e8-41e7-a9e2-4b4b74dfdebd","ios":"levelo://app?vid=c0f11789-d6e8-41e7-a9e2-4b4b74dfdebd"},"vehicle_type_id":"4","last_reported":1742137687,"current_range_meters":3200,"station_id":"ce4bhgh2rcd13ifvqfb0","pricing_plan_id":"cebpf4jnsgd1na2vs0mg"},{"bike_id":"ad59a9a4-da50-4260-bc07-0257078fda34","system_id":"levelo_inurba_marseille","lat":43.2315,"lon":5.43718,"is_reserved":false,"is_disabled":false,"rental_uris":{"android":"levelo://app?vid=ad59a9a4-da50-4260-bc07-0257078fda34","ios":"levelo://app?vid=ad59a9a4-da50-4260-bc07-0257078fda34"},"vehicle_type_id":"4","last_reported":1742137687,"current_range_meters":3200,"station_id":"ce4bhmp2rcd13ifvqgog","pricing_plan_id":"cebpf4jnsgd1na2vs0mg"},{"bike_id":"c94598b8-fe6d-437f-a5ea-4c6b7418c5b2","system_id":"levelo_inurba_marseille","lat":43.289357,"lon":5.366511,"is_reserved":false,"is_disabled":false,"rental_uris":{"android":"levelo://app?vid=c94598b8-fe6d-437f-a5ea-4c6b7418c5b2","ios":"levelo://app?vid=c94598b8-fe6d-437f-a5ea-4c6b7418c5b2"},"vehicle_type_id":"4","last_reported":1742137687,"current_range_meters":3200,"station_id":"ce4bhap2rcd13ifvqek0","pricing_plan_id":"cebpf4jnsgd1na2vs0mg"},{"bike_id":"589965d5-8cfc-403e-b3dc-f1bdd2a46d00","system_id":"levelo_inurba_marseille","lat":43.23194,"lon":5.40007,"is_reserved":false,"is_disabled":false,"rental_uris":{"android":"levelo://app?vid=589965d5-8cfc-403e-b3dc-f1bdd2a46d00","ios":"levelo://app?vid=589965d5-8cfc-403e-b3dc-f1bdd2a46d00"},"vehicle_type_id":"4","last_reported":1742137687,"current_range_meters":3200,"station_id":"ce4bhn12rcd13ifvqgqg","pricing_plan_id":"cebpf4jnsgd1na2vs0mg"},{"bike_id":"9aeee05b-3016-4176-939d-73ad58170fe9","system_id":"levelo_inurba_marseille","lat":43.27071,"lon":5.42278,"is_reserved":false,"is_disabled":false,"rental_uris":{"android":"levelo://app?vid=9aeee05b-3016-4176-939d-73ad58170fe9","ios":"levelo://app?vid=9aeee05b-3016-4176-939d-73ad58170fe9"},"vehicle_type_id":"4","last_reported":1742137687,"current_range_meters":3600,"station_id":"ce4bhk92rcd13ifvqgb0","pricing_plan_id":"cebpf4jnsgd1na2vs0mg"},{"bike_id":"e5fc0867-fa07-4896-a128-585f23372e75","system_id":"levelo_inurba_marseille","lat":43.30132,"lon":5.37569,"is_reserved":false,"is_disabled":false,"rental_uris":{"android":"levelo://app?vid=e5fc0867-fa07-4896-a128-585f23372e75","ios":"levelo://app?vid=e5fc0867-fa07-4896-a128-585f23372e75"},"vehicle_type_id":"4","last_reported":1742137687,"current_range_meters":3600,"station_id":"","pricing_plan_id":"cebpf4jnsgd1na2vs0mg"},{"bike_id":"88c2ec9c-c2ee-474d-a6aa-dbb7a53fc0ca","system_id":"levelo_inurba_marseille","lat":43.24183,"lon":5.39728,"is_reserved":false,"is_disabled":true,"rental_uris":{"android":"levelo://app?vid=88c2ec9c-c2ee-474d-a6aa-dbb7a53fc0ca","ios":"levelo://app?vid=88c2ec9c-c2ee-474d-a6aa-dbb7a53fc0ca"},"vehicle_type_id":"4","last_reported":1742137687,"current_range_meters":3600,"station_id":"ce4bhn12rcd13ifvqgpg","pricing_plan_id":"cebpf4jnsgd1na2vs0mg"},{"bike_id":"5d26dde0-9d33-427f-86fa-18f75d5dcd1c","system_id":"levelo_inurba_marseille","lat":43.28472,"lon":5.38428,"is_reserved":false,"is_disabled":false,"rental_uris":{"android":"levelo://app?vid=5d26dde0-9d33-427f-86fa-18f75d5dcd1c","ios":"levelo://app?vid=5d26dde0-9d33-427f-86fa-18f75d5dcd1c"},"vehicle_type_id":"4","last_reported":1742137687,"current_range_meters":3600,"station_id":"ce4bh512rcd13ifvqe3g","pricing_plan_id":"cebpf4jnsgd1na2vs0mg"},{"bike_id":"ef0420cd-62d9-46e6-bc23-a8b7c01978bb","system_id":"levelo_inurba_marseille","lat":43.29776,"lon":5.38101,"is_reserved":false,"is_disabled":true,"rental_uris":{"android":"levelo://app?vid=ef0420cd-62d9-46e6-bc23-a8b7c01978bb","ios":"levelo://app?vid=ef0420cd-62d9-46e6-bc23-a8b7c01978bb"},"vehicle_type_id":"4","last_reported":1742137687,"current_range_meters":3600,"station_id":"ce4bgip2rcd13ifvqbb0","pricing_plan_id":"cebpf4jnsgd1na2vs0mg"},{"bike_id":"6ac50434-d6a8-4212-8bff-a623b8895a53","system_id":"levelo_inurba_marseille","lat":43.30474,"lon":5.38215,"is_reserved":false,"is_disabled":false,"rental_uris":{"android":"levelo://app?vid=6ac50434-d6a8-4212-8bff-a623b8895a53","ios":"levelo://app?vid=6ac50434-d6a8-4212-8bff-a623b8895a53"},"vehicle_type_id":"4","last_reported":1742137687,"current_range_meters":3600,"station_id":"","pricing_plan_id":"cebpf4jnsgd1na2vs0mg"},{"bike_id":"12a08f6d-7c5a-41f6-b287-ac82657a6067","system_id":"levelo_inurba_marseille","lat":43.30129,"lon":5.38775,"is_reserved":false,"is_disabled":true,"rental_uris":{"android":"levelo://app?vid=12a08f6d-7c5a-41f6-b287-ac82657a6067","ios":"levelo://app?vid=12a08f6d-7c5a-41f6-b287-ac82657a6067"},"vehicle_type_id":"4","last_reported":1742137687,"current_range_meters":4000,"station_id":"ce4bghh2rcd13ifvqb60","pricing_plan_id":"cebpf4jnsgd1na2vs0mg"},{"bike_id":"bed563ae-dc43-466e-9f38-95f0cc4dd333","system_id":"levelo_inurba_marseille","lat":43.2293,"lon":5.35387,"is_reserved":false,"is_disabled":false,"rental_uris":{"android":"levelo://app?vid=bed563ae-dc43-466e-9f38-95f0cc4dd333","ios":"levelo://app?vid=bed563ae-dc43-466e-9f38-95f0cc4dd333"},"vehicle_type_id":"4","last_reported":1742137687,"current_range_meters":4000,"station_id":"cpo3532slgdg3j2ikp40","pricing_plan_id":"cebpf4jnsgd1na2vs0mg"},{"bike_id":"1ecbd4b8-fb03-4957-8f2c-b0b96263f708","system_id":"levelo_inurba_marseille","lat":43.27621,"lon":5.3612,"is_reserved":false,"is_disabled":false,"rental_uris":{"android":"levelo://app?vid=1ecbd4b8-fb03-4957-8f2c-b0b96263f708","ios":"levelo://app?vid=1ecbd4b8-fb03-4957-8f2c-b0b96263f708"},"vehicle_type_id":"4","last_reported":1742137687,"current_range_meters":4000,"station_id":"ce4bgj92rcd13ifvqbe0","pricing_plan_id":"cebpf4jnsgd1na2vs0mg"},{"bike_id":"c80a9ea1-0c86-4daa-8471-f90ef0839641","system_id":"levelo_inurba_marseille","lat":43.29228,"lon":5.36078,"is_reserved":false,"is_disabled":false,"rental_uris":{"android":"levelo://app?vid=c80a9ea1-0c86-4daa-8471-f90ef0839641","ios":"levelo://app?vid=c80a9ea1-0c86-4daa-8471-f90ef0839641"},"vehicle_type_id":"4","last_reported":1742137687,"current_range_meters":4000,"station_id":"ce4bhbh2rcd13ifvqeqg","pricing_plan_id":"cebpf4jnsgd1na2vs0mg"},{"bike_id":"1afeb3bb-c034-42f9-971a-305beab11645","system_id":"levelo_inurba_marseille","lat":43.28042,"lon":5.36944,"is_reserved":false,"is_disabled":false,"rental_uris":{"android":"levelo://app?vid=1afeb3bb-c034-42f9-971a-305beab11645","ios":"levelo://app?vid=1afeb3bb-c034-42f9-971a-305beab11645"},"vehicle_type_id":"4","last_reported":1742137687,"current_range_meters":4000,"station_id":"ce4bha12rcd13ifvqef0","pricing_plan_id":"cebpf4jnsgd1na2vs0mg"},{"bike_id":"69232c0f-e5ee-4237-86d4-411d8d68b8d7","system_id":"levelo_inurba_marseille","lat":43.25576,"lon":5.38248,"is_reserved":false,"is_disabled":false,"rental_uris":{"android":"levelo://app?vid=69232c0f-e5ee-4237-86d4-411d8d68b8d7","ios":"levelo://app?vid=69232c0f-e5ee-4237-86d4-411d8d68b8d7"},"vehicle_type_id":"4","last_reported":1742137687,"current_range_meters":4000,"station_id":"ce4bhih2rcd13ifvqfs0","pricing_plan_id":"cebpf4jnsgd1na2vs0mg"},{"bike_id":"b9c17100-5df6-4f3e-8f1e-72b9306a8def","system_id":"levelo_inurba_marseille","lat":43.296,"lon":5.38107,"is_reserved":false,"is_disabled":false,"rental_uris":{"android":"levelo://app?vid=b9c17100-5df6-4f3e-8f1e-72b9306a8def","ios":"levelo://app?vid=b9c17100-5df6-4f3e-8f1e-72b9306a8def"},"vehicle_type_id":"4","last_reported":1742137687,"current_range_meters":4400,"station_id":"ce4bgl12rcd13ifvqbo0","pricing_plan_id":"cebpf4jnsgd1na2vs0mg"},{"bike_id":"4fa869f0-6702-441b-97c7-412bfa613eec","system_id":"levelo_inurba_marseille","lat":43.27311,"lon":5.39106,"is_reserved":false,"is_disabled":false,"rental_uris":{"android":"levelo://app?vid=4fa869f0-6702-441b-97c7-412bfa613eec","ios":"levelo://app?vid=4fa869f0-6702-441b-97c7-412bfa613eec"},"vehicle_type_id":"4","last_reported":1742137687,"current_range_meters":4400,"station_id":"ce4bhgp2rcd13ifvqfe0","pricing_plan_id":"cebpf4jnsgd1na2vs0mg"},{"bike_id":"81e08eee-9562-4095-94b3-d6c4aba4e0b9","system_id":"levelo_inurba_marseille","lat":43.25871,"lon":5.39916,"is_reserved":false,"is_disabled":false,"rental_uris":{"android":"levelo://app?vid=81e08eee-9562-4095-94b3-d6c4aba4e0b9","ios":"levelo://app?vid=81e08eee-9562-4095-94b3-d6c4aba4e0b9"},"vehicle_type_id":"4","last_reported":1742137687,"current_range_meters":4400,"station_id":"ce4bhl92rcd13ifvqghg","pricing_plan_id":"cebpf4jnsgd1na2vs0mg"},{"bike_id":"e428ab23-7fe4-4066-9953-e6f96a4e6220","system_id":"levelo_inurba_marseille","lat":43.27996,"lon":5.40019,"is_reserved":false,"is_disabled":false,"rental_uris":{"android":"levelo://app?vid=e428ab23-7fe4-4066-9953-e6f96a4e6220","ios":"levelo://app?vid=e428ab23-7fe4-4066-9953-e6f96a4e6220"},"vehicle_type_id":"4","last_reported":1742137687,"current_range_meters":4400,"station_id":"ce4bho92rcd13ifvqh4g","pricing_plan_id":"cebpf4jnsgd1na2vs0mg"},{"bike_id":"76b415aa-d90d-4b4c-9954-2e46fdae4260","system_id":"levelo_inurba_marseille","lat":43.28984,"lon":5.35612,"is_reserved":false,"is_disabled":true,"rental_uris":{"android":"levelo://app?vid=76b415aa-d90d-4b4c-9954-2e46fdae4260","ios":"levelo://app?vid=76b415aa-d90d-4b4c-9954-2e46fdae4260"},"vehicle_type_id":"4","last_reported":1742137687,"current_range_meters":4800,"station_id":"ce4bhb92rcd13ifvqen0","pricing_plan_id":"cebpf4jnsgd1na2vs0mg"},{"bike_id":"21cfacd0-8fc8-454a-8a3f-d36bcdb61b05","system_id":"levelo_inurba_marseille","lat":43.27954,"lon":5.38735,"is_reserved":false,"is_disabled":true,"rental_uris":{"android":"levelo://app?vid=21cfacd0-8fc8-454a-8a3f-d36bcdb61b05","ios":"levelo://app?vid=21cfacd0-8fc8-454a-8a3f-d36bcdb61b05"},"vehicle_type_id":"4","last_reported":1742137687,"current_range_meters":4800,"station_id":"ce4bhg12rcd13ifvqf80","pricing_plan_id":"cebpf4jnsgd1na2vs0mg"},{"bike_id":"c9b70be3-e1be-4342-97a3-3c1c576b659b","system_id":"levelo_inurba_marseille","lat":43.27072,"lon":5.42279,"is_reserved":false,"is_disabled":false,"rental_uris":{"android":"levelo://app?vid=c9b70be3-e1be-4342-97a3-3c1c576b659b","ios":"levelo://app?vid=c9b70be3-e1be-4342-97a3-3c1c576b659b"},"vehicle_type_id":"4","last_reported":1742137687,"current_range_meters":4800,"station_id":"ce4bhk92rcd13ifvqgb0","pricing_plan_id":"cebpf4jnsgd1na2vs0mg"},{"bike_id":"b767eb03-3ef8-43b3-8134-61df1eb8bd24","system_id":"levelo_inurba_marseille","lat":43.27374,"lon":5.36261,"is_reserved":false,"is_disabled":false,"rental_uris":{"android":"levelo://app?vid=b767eb03-3ef8-43b3-8134-61df1eb8bd24","ios":"levelo://app?vid=b767eb03-3ef8-43b3-8134-61df1eb8bd24"},"vehicle_type_id":"4","last_reported":1742137687,"current_range_meters":4800,"station_id":"ce4bhbh2rcd13ifvqeo0","pricing_plan_id":"cebpf4jnsgd1na2vs0mg"},{"bike_id":"6e16cf40-e39e-4f7b-8028-3699b963a98a","system_id":"levelo_inurba_marseille","lat":43.2816,"lon":5.42648,"is_reserved":false,"is_disabled":false,"rental_uris":{"android":"levelo://app?vid=6e16cf40-e39e-4f7b-8028-3699b963a98a","ios":"levelo://app?vid=6e16cf40-e39e-4f7b-8028-3699b963a98a"},"vehicle_type_id":"4","last_reported":1742137687,"current_range_meters":4800,"station_id":"ce4bhnh2rcd13ifvqgug","pricing_plan_id":"cebpf4jnsgd1na2vs0mg"},{"bike_id":"832d4ee6-23fb-4c75-9bc5-6a2d919c8c55","system_id":"levelo_inurba_marseille","lat":43.25936,"lon":5.4093,"is_reserved":false,"is_disabled":false,"rental_uris":{"android":"levelo://app?vid=832d4ee6-23fb-4c75-9bc5-6a2d919c8c55","ios":"levelo://app?vid=832d4ee6-23fb-4c75-9bc5-6a2d919c8c55"},"vehicle_type_id":"4","last_reported":1742137687,"current_range_meters":4800,"station_id":"ce4bhm92rcd13ifvqglg","pricing_plan_id":"cebpf4jnsgd1na2vs0mg"},{"bike_id":"6f143c5b-933e-4a51-97d8-72a3705988b8","system_id":"levelo_inurba_marseille","lat":43.32234,"lon":5.37956,"is_reserved":false,"is_disabled":false,"rental_uris":{"android":"levelo://app?vid=6f143c5b-933e-4a51-97d8-72a3705988b8","ios":"levelo://app?vid=6f143c5b-933e-4a51-97d8-72a3705988b8"},"vehicle_type_id":"4","last_reported":1742137687,"current_range_meters":4800,"station_id":"","pricing_plan_id":"cebpf4jnsgd1na2vs0mg"},{"bike_id":"8360cc8b-c776-43b2-b878-8a3a53c2f140","system_id":"levelo_inurba_marseille","lat":43.27496,"lon":5.42451,"is_reserved":false,"is_disabled":false,"rental_uris":{"android":"levelo://app?vid=8360cc8b-c776-43b2-b878-8a3a53c2f140","ios":"levelo://app?vid=8360cc8b-c776-43b2-b878-8a3a53c2f140"},"vehicle_type_id":"4","last_reported":1742137687,"current_range_meters":4800,"station_id":"ce4bhn92rcd13ifvqgrg","pricing_plan_id":"cebpf4jnsgd1na2vs0mg"},{"bike_id":"ffcdbdf8-0bce-4e79-b4c0-5a5862533f26","system_id":"levelo_inurba_marseille","lat":43.27994,"lon":5.40015,"is_reserved":false,"is_disabled":false,"rental_uris":{"android":"levelo://app?vid=ffcdbdf8-0bce-4e79-b4c0-5a5862533f26","ios":"levelo://app?vid=ffcdbdf8-0bce-4e79-b4c0-5a5862533f26"},"vehicle_type_id":"4","last_reported":1742137687,"current_range_meters":4800,"station_id":"ce4bho92rcd13ifvqh4g","pricing_plan_id":"cebpf4jnsgd1na2vs0mg"},{"bike_id":"12349ae3-7409-45c1-bc76-a9002585bdeb","system_id":"levelo_inurba_marseille","lat":43.24054,"lon":5.37729,"is_reserved":false,"is_disabled":false,"rental_uris":{"android":"levelo://app?vid=12349ae3-7409-45c1-bc76-a9002585bdeb","ios":"levelo://app?vid=12349ae3-7409-45c1-bc76-a9002585bdeb"},"vehicle_type_id":"4","last_reported":1742137687,"current_range_meters":4800,"station_id":"ce4bhnp2rcd13ifvqgvg","pricing_plan_id":"cebpf4jnsgd1na2vs0mg"},{"bike_id":"673d1351-8e83-497d-b04e-20fa781d7b1f","system_id":"levelo_inurba_marseille","lat":43.28484,"lon":5.38564,"is_reserved":false,"is_disabled":false,"rental_uris":{"android":"levelo://app?vid=673d1351-8e83-497d-b04e-20fa781d7b1f","ios":"levelo://app?vid=673d1351-8e83-497d-b04e-20fa781d7b1f"},"vehicle_type_id":"4","last_reported":1742137687,"current_range_meters":5600,"station_id":"ce4bh8p2rcd13ifvqeb0","pricing_plan_id":"cebpf4jnsgd1na2vs0mg"},{"bike_id":"6a8f3695-d00b-45c3-8700-ba6e7341be04","system_id":"levelo_inurba_marseille","lat":43.2828,"lon":5.35075,"is_reserved":false,"is_disabled":true,"rental_uris":{"android":"levelo://app?vid=6a8f3695-d00b-45c3-8700-ba6e7341be04","ios":"levelo://app?vid=6a8f3695-d00b-45c3-8700-ba6e7341be04"},"vehicle_type_id":"4","last_reported":1742137687,"current_range_meters":5600,"station_id":"ce4bhbp2rcd13ifvqerg","pricing_plan_id":"cebpf4jnsgd1na2vs0mg"},{"bike_id":"aa795381-5174-4265-abe3-ddbff84516c8","system_id":"levelo_inurba_marseille","lat":43.3014,"lon":5.37408,"is_reserved":false,"is_disabled":true,"rental_uris":{"android":"levelo://app?vid=aa795381-5174-4265-abe3-ddbff84516c8","ios":"levelo://app?vid=aa795381-5174-4265-abe3-ddbff84516c8"},"vehicle_type_id":"4","last_reported":1742137687,"current_range_meters":5600,"station_id":"ce4bgs92rcd13ifvqcc0","pricing_plan_id":"cebpf4jnsgd1na2vs0mg"},{"bike_id":"11877a08-1209-410f-8a57-ef814c57a390","system_id":"levelo_inurba_marseille","lat":43.24169,"lon":5.36399,"is_reserved":false,"is_disabled":false,"rental_uris":{"android":"levelo://app?vid=11877a08-1209-410f-8a57-ef814c57a390","ios":"levelo://app?vid=11877a08-1209-410f-8a57-ef814c57a390"},"vehicle_type_id":"4","last_reported":1742137687,"current_range_meters":5600,"station_id":"cpo36qri1sfpv3e86is0","pricing_plan_id":"cebpf4jnsgd1na2vs0mg"},{"bike_id":"385ae15c-2c3c-4490-a507-5eb20fb883a5","system_id":"levelo_inurba_marseille","lat":43.25936,"lon":5.40925,"is_reserved":false,"is_disabled":false,"rental_uris":{"android":"levelo://app?vid=385ae15c-2c3c-4490-a507-5eb20fb883a5","ios":"levelo://app?vid=385ae15c-2c3c-4490-a507-5eb20fb883a5"},"vehicle_type_id":"4","last_reported":1742137687,"current_range_meters":5600,"station_id":"ce4bhm92rcd13ifvqglg","pricing_plan_id":"cebpf4jnsgd1na2vs0mg"},{"bike_id":"e238d91a-73cb-45c1-8c78-be27f3cd52a0","system_id":"levelo_inurba_marseille","lat":43.29518,"lon":5.39041,"is_reserved":false,"is_disabled":false,"rental_uris":{"android":"levelo://app?vid=e238d91a-73cb-45c1-8c78-be27f3cd52a0","ios":"levelo://app?vid=e238d91a-73cb-45c1-8c78-be27f3cd52a0"},"vehicle_type_id":"4","last_reported":1742137687,"current_range_meters":5600,"station_id":"ce4bh3p2rcd13ifvqdp0","pricing_plan_id":"cebpf4jnsgd1na2vs0mg"},{"bike_id":"ee05e5de-5d66-4f20-9ee8-2898a192573b","system_id":"levelo_inurba_marseille","lat":43.24389,"lon":5.37059,"is_reserved":false,"is_disabled":false,"rental_uris":{"android":"levelo://app?vid=ee05e5de-5d66-4f20-9ee8-2898a192573b","ios":"levelo://app?vid=ee05e5de-5d66-4f20-9ee8-2898a192573b"},"vehicle_type_id":"4","last_reported":1742137687,"current_range_meters":5600,"station_id":"ce4bhhh2rcd13ifvqfk0","pricing_plan_id":"cebpf4jnsgd1na2vs0mg"},{"bike_id":"a51e83ee-53b4-4965-b5bb-694ae883e860","system_id":"levelo_inurba_marseille","lat":43.26217,"lon":5.37445,"is_reserved":false,"is_disabled":true,"rental_uris":{"android":"levelo://app?vid=a51e83ee-53b4-4965-b5bb-694ae883e860","ios":"levelo://app?vid=a51e83ee-53b4-4965-b5bb-694ae883e860"},"vehicle_type_id":"4","last_reported":1742137687,"current_range_meters":6000,"station_id":"ce4bhgp2rcd13ifvqfc0","pricing_plan_id":"cebpf4jnsgd1na2vs0mg"},{"bike_id":"7d2a83be-1c4f-4c01-a53f-446a9031a9c9","system_id":"levelo_inurba_marseille","lat":43.2953,"lon":5.39047,"is_reserved":false,"is_disabled":false,"rental_uris":{"android":"levelo://app?vid=7d2a83be-1c4f-4c01-a53f-446a9031a9c9","ios":"levelo://app?vid=7d2a83be-1c4f-4c01-a53f-446a9031a9c9"},"vehicle_type_id":"4","last_reported":1742137687,"current_range_meters":6000,"station_id":"ce4bh3p2rcd13ifvqdp0","pricing_plan_id":"cebpf4jnsgd1na2vs0mg"},{"bike_id":"338cb63f-ecfc-4873-9ddf-21b902a7d379","system_id":"levelo_inurba_marseille","lat":43.26936,"lon":5.38649,"is_reserved":false,"is_disabled":false,"rental_uris":{"android":"levelo://app?vid=338cb63f-ecfc-4873-9ddf-21b902a7d379","ios":"levelo://app?vid=338cb63f-ecfc-4873-9ddf-21b902a7d379"},"vehicle_type_id":"4","last_reported":1742137687,"current_range_meters":6000,"station_id":"ce4bhh92rcd13ifvqfh0","pricing_plan_id":"cebpf4jnsgd1na2vs0mg"},{"bike_id":"0de10848-6f41-4fc6-bad5-f46248cc4701","system_id":"levelo_inurba_marseille","lat":43.29271,"lon":5.36846,"is_reserved":false,"is_disabled":false,"rental_uris":{"android":"levelo://app?vid=0de10848-6f41-4fc6-bad5-f46248cc4701","ios":"levelo://app?vid=0de10848-6f41-4fc6-bad5-f46248cc4701"},"vehicle_type_id":"4","last_reported":1742137687,"current_range_meters":6000,"station_id":"ce4bhbp2rcd13ifvqesg","pricing_plan_id":"cebpf4jnsgd1na2vs0mg"},{"bike_id":"22f1ff18-0132-4946-a97a-a47e6f70a6ed","system_id":"levelo_inurba_marseille","lat":43.22924,"lon":5.35375,"is_reserved":false,"is_disabled":false,"rental_uris":{"android":"levelo://app?vid=22f1ff18-0132-4946-a97a-a47e6f70a6ed","ios":"levelo://app?vid=22f1ff18-0132-4946-a97a-a47e6f70a6ed"},"vehicle_type_id":"4","last_reported":1742137687,"current_range_meters":6000,"station_id":"cpo3532slgdg3j2ikp40","pricing_plan_id":"cebpf4jnsgd1na2vs0mg"},{"bike_id":"bdb4bfb1-14a4-46ff-b216-5b3cb0ddf95f","system_id":"levelo_inurba_marseille","lat":43.29578,"lon":5.39966,"is_reserved":false,"is_disabled":true,"rental_uris":{"android":"levelo://app?vid=bdb4bfb1-14a4-46ff-b216-5b3cb0ddf95f","ios":"levelo://app?vid=bdb4bfb1-14a4-46ff-b216-5b3cb0ddf95f"},"vehicle_type_id":"4","last_reported":1742137687,"current_range_meters":6000,"station_id":"ce4bh312rcd13ifvqdj0","pricing_plan_id":"cebpf4jnsgd1na2vs0mg"},{"bike_id":"499b46c4-a5e6-49f4-993e-20cf2acf20cc","system_id":"levelo_inurba_marseille","lat":43.29198,"lon":5.39333,"is_reserved":false,"is_disabled":false,"rental_uris":{"android":"levelo://app?vid=499b46c4-a5e6-49f4-993e-20cf2acf20cc","ios":"levelo://app?vid=499b46c4-a5e6-49f4-993e-20cf2acf20cc"},"vehicle_type_id":"4","last_reported":1742137687,"current_range_meters":6000,"station_id":"ce4bh192rcd13ifvqdd0","pricing_plan_id":"cebpf4jnsgd1na2vs0mg"},{"bike_id":"1999cecf-f38c-4961-9580-ef6a50d3e0be","system_id":"levelo_inurba_marseille","lat":43.24171,"lon":5.3641,"is_reserved":false,"is_disabled":false,"rental_uris":{"android":"levelo://app?vid=1999cecf-f38c-4961-9580-ef6a50d3e0be","ios":"levelo://app?vid=1999cecf-f38c-4961-9580-ef6a50d3e0be"},"vehicle_type_id":"4","last_reported":1742137687,"current_range_meters":6000,"station_id":"cpo36qri1sfpv3e86is0","pricing_plan_id":"cebpf4jnsgd1na2vs0mg"},{"bike_id":"e6bdfdcf-cb31-4a48-bff0-d55b49175d33","system_id":"levelo_inurba_marseille","lat":43.29254,"lon":5.3763,"is_reserved":false,"is_disabled":false,"rental_uris":{"android":"levelo://app?vid=e6bdfdcf-cb31-4a48-bff0-d55b49175d33","ios":"levelo://app?vid=e6bdfdcf-cb31-4a48-bff0-d55b49175d33"},"vehicle_type_id":"4","last_reported":1742137687,"current_range_meters":6000,"station_id":"ce4bgi12rcd13ifvqb80","pricing_plan_id":"cebpf4jnsgd1na2vs0mg"},{"bike_id":"687ad70d-4c45-4688-9113-79e906918733","system_id":"levelo_inurba_marseille","lat":43.29787,"lon":5.38114,"is_reserved":false,"is_disabled":false,"rental_uris":{"android":"levelo://app?vid=687ad70d-4c45-4688-9113-79e906918733","ios":"levelo://app?vid=687ad70d-4c45-4688-9113-79e906918733"},"vehicle_type_id":"4","last_reported":1742137687,"current_range_meters":6000,"station_id":"ce4bgip2rcd13ifvqbb0","pricing_plan_id":"cebpf4jnsgd1na2vs0mg"},{"bike_id":"0ab69b64-2bc6-40ff-a351-b107bc084411","system_id":"levelo_inurba_marseille","lat":43.32423,"lon":5.3656,"is_reserved":false,"is_disabled":false,"rental_uris":{"android":"levelo://app?vid=0ab69b64-2bc6-40ff-a351-b107bc084411","ios":"levelo://app?vid=0ab69b64-2bc6-40ff-a351-b107bc084411"},"vehicle_type_id":"4","last_reported":1742137687,"current_range_meters":6400,"station_id":"","pricing_plan_id":"cebpf4jnsgd1na2vs0mg"},{"bike_id":"b7032d54-acb2-4146-a727-5663dbeb4009","system_id":"levelo_inurba_marseille","lat":43.23192,"lon":5.39995,"is_reserved":false,"is_disabled":false,"rental_uris":{"android":"levelo://app?vid=b7032d54-acb2-4146-a727-5663dbeb4009","ios":"levelo://app?vid=b7032d54-acb2-4146-a727-5663dbeb4009"},"vehicle_type_id":"4","last_reported":1742137687,"current_range_meters":6400,"station_id":"ce4bhn12rcd13ifvqgqg","pricing_plan_id":"cebpf4jnsgd1na2vs0mg"},{"bike_id":"1a00cc2b-dd90-4bec-b427-62293c4dbbe2","system_id":"levelo_inurba_marseille","lat":43.24074,"lon":5.37774,"is_reserved":false,"is_disabled":false,"rental_uris":{"android":"levelo://app?vid=1a00cc2b-dd90-4bec-b427-62293c4dbbe2","ios":"levelo://app?vid=1a00cc2b-dd90-4bec-b427-62293c4dbbe2"},"vehicle_type_id":"4","last_reported":1742137687,"current_range_meters":6400,"station_id":"ce4bhnp2rcd13ifvqgvg","pricing_plan_id":"cebpf4jnsgd1na2vs0mg"},{"bike_id":"6c001d2e-b208-4ff5-a256-643169f0701b","system_id":"levelo_inurba_marseille","lat":43.23079,"lon":5.35485,"is_reserved":false,"is_disabled":false,"rental_uris":{"android":"levelo://app?vid=6c001d2e-b208-4ff5-a256-643169f0701b","ios":"levelo://app?vid=6c001d2e-b208-4ff5-a256-643169f0701b"},"vehicle_type_id":"4","last_reported":1742137687,"current_range_meters":6400,"station_id":"cpo3342slgdg3j2ifvpg","pricing_plan_id":"cebpf4jnsgd1na2vs0mg"},{"bike_id":"e0834956-e6d7-4bc3-862d-e76e3f887cbb","system_id":"levelo_inurba_marseille","lat":43.23061,"lon":5.35505,"is_reserved":false,"is_disabled":false,"rental_uris":{"android":"levelo://app?vid=e0834956-e6d7-4bc3-862d-e76e3f887cbb","ios":"levelo://app?vid=e0834956-e6d7-4bc3-862d-e76e3f887cbb"},"vehicle_type_id":"4","last_reported":1742137687,"current_range_meters":6400,"station_id":"cpo3342slgdg3j2ifvpg","pricing_plan_id":"cebpf4jnsgd1na2vs0mg"},{"bike_id":"0a34a7df-9f4b-40a5-a851-24e6840b2c3c","system_id":"levelo_inurba_marseille","lat":43.29692,"lon":5.37363,"is_reserved":false,"is_disabled":false,"rental_uris":{"android":"levelo://app?vid=0a34a7df-9f4b-40a5-a851-24e6840b2c3c","ios":"levelo://app?vid=0a34a7df-9f4b-40a5-a851-24e6840b2c3c"},"vehicle_type_id":"4","last_reported":1742137687,"current_range_meters":6800,"station_id":"","pricing_plan_id":"cebpf4jnsgd1na2vs0mg"},{"bike_id":"df7c25e6-8ff1-4a64-af48-c0717e1e5527","system_id":"levelo_inurba_marseille","lat":43.23151,"lon":5.43726,"is_reserved":false,"is_disabled":false,"rental_uris":{"android":"levelo://app?vid=df7c25e6-8ff1-4a64-af48-c0717e1e5527","ios":"levelo://app?vid=df7c25e6-8ff1-4a64-af48-c0717e1e5527"},"vehicle_type_id":"4","last_reported":1742137687,"current_range_meters":6800,"station_id":"ce4bhmp2rcd13ifvqgog","pricing_plan_id":"cebpf4jnsgd1na2vs0mg"},{"bike_id":"c5f3baa5-071e-49c9-a279-6962d03083ac","system_id":"levelo_inurba_marseille","lat":43.3077,"lon":5.37377,"is_reserved":false,"is_disabled":false,"rental_uris":{"android":"levelo://app?vid=c5f3baa5-071e-49c9-a279-6962d03083ac","ios":"levelo://app?vid=c5f3baa5-071e-49c9-a279-6962d03083ac"},"vehicle_type_id":"4","last_reported":1742137687,"current_range_meters":6800,"station_id":"","pricing_plan_id":"cebpf4jnsgd1na2vs0mg"},{"bike_id":"1ac0ebad-6828-4242-99b2-14a9f8209f79","system_id":"levelo_inurba_marseille","lat":43.23193,"lon":5.35565,"is_reserved":false,"is_disabled":false,"rental_uris":{"android":"levelo://app?vid=1ac0ebad-6828-4242-99b2-14a9f8209f79","ios":"levelo://app?vid=1ac0ebad-6828-4242-99b2-14a9f8209f79"},"vehicle_type_id":"4","last_reported":1742137687,"current_range_meters":6800,"station_id":"ce4bhu92rcd13ifvqi70","pricing_plan_id":"cebpf4jnsgd1na2vs0mg"},{"bike_id":"676e66c6-8e50-404c-b512-5f94c7d6a8fc","system_id":"levelo_inurba_marseille","lat":43.2417,"lon":5.36412,"is_reserved":false,"is_disabled":false,"rental_uris":{"android":"levelo://app?vid=676e66c6-8e50-404c-b512-5f94c7d6a8fc","ios":"levelo://app?vid=676e66c6-8e50-404c-b512-5f94c7d6a8fc"},"vehicle_type_id":"4","last_reported":1742137687,"current_range_meters":6800,"station_id":"cpo36qri1sfpv3e86is0","pricing_plan_id":"cebpf4jnsgd1na2vs0mg"},{"bike_id":"a368ec29-4619-427b-b3cd-dd9e3edf5231","system_id":"levelo_inurba_marseille","lat":43.3416,"lon":5.40917,"is_reserved":false,"is_disabled":false,"rental_uris":{"android":"levelo://app?vid=a368ec29-4619-427b-b3cd-dd9e3edf5231","ios":"levelo://app?vid=a368ec29-4619-427b-b3cd-dd9e3edf5231"},"vehicle_type_id":"4","last_reported":1742137687,"current_range_meters":6800,"station_id":"ce4bhqh2rcd13ifvqhlg","pricing_plan_id":"cebpf4jnsgd1na2vs0mg"},{"bike_id":"6cca4881-ba8f-46ad-bbee-032262267520","system_id":"levelo_inurba_marseille","lat":43.272153,"lon":5.391899,"is_reserved":false,"is_disabled":false,"rental_uris":{"android":"levelo://app?vid=6cca4881-ba8f-46ad-bbee-032262267520","ios":"levelo://app?vid=6cca4881-ba8f-46ad-bbee-032262267520"},"vehicle_type_id":"4","last_reported":1742137687,"current_range_meters":6800,"station_id":"ce4bhhp2rcd13ifvqfm0","pricing_plan_id":"cebpf4jnsgd1na2vs0mg"},{"bike_id":"bdeeb519-20a8-4fd4-8fb7-d7dccf5efdc5","system_id":"levelo_inurba_marseille","lat":43.30411,"lon":5.41282,"is_reserved":false,"is_disabled":false,"rental_uris":{"android":"levelo://app?vid=bdeeb519-20a8-4fd4-8fb7-d7dccf5efdc5","ios":"levelo://app?vid=bdeeb519-20a8-4fd4-8fb7-d7dccf5efdc5"},"vehicle_type_id":"4","last_reported":1742137687,"current_range_meters":6800,"station_id":"ce4bhop2rcd13ifvqh8g","pricing_plan_id":"cebpf4jnsgd1na2vs0mg"},{"bike_id":"b614f100-11d7-4ef9-8f84-7c5dea0b786b","system_id":"levelo_inurba_marseille","lat":43.26955,"lon":5.40294,"is_reserved":false,"is_disabled":false,"rental_uris":{"android":"levelo://app?vid=b614f100-11d7-4ef9-8f84-7c5dea0b786b","ios":"levelo://app?vid=b614f100-11d7-4ef9-8f84-7c5dea0b786b"},"vehicle_type_id":"4","last_reported":1742137687,"current_range_meters":6800,"station_id":"cjm6bp8fraef2m0cb0m0","pricing_plan_id":"cebpf4jnsgd1na2vs0mg"},{"bike_id":"53766ffd-6d5e-4a6d-a820-02d09d6ad814","system_id":"levelo_inurba_marseille","lat":43.28612,"lon":5.37064,"is_reserved":false,"is_disabled":false,"rental_uris":{"android":"levelo://app?vid=53766ffd-6d5e-4a6d-a820-02d09d6ad814","ios":"levelo://app?vid=53766ffd-6d5e-4a6d-a820-02d09d6ad814"},"vehicle_type_id":"4","last_reported":1742137687,"current_range_meters":6800,"station_id":"ce4bht12rcd13ifvqi60","pricing_plan_id":"cebpf4jnsgd1na2vs0mg"},{"bike_id":"cfbcb81a-9c0c-4d3b-9fa7-e0983d2c9b83","system_id":"levelo_inurba_marseille","lat":43.24813,"lon":5.37465,"is_reserved":false,"is_disabled":false,"rental_uris":{"android":"levelo://app?vid=cfbcb81a-9c0c-4d3b-9fa7-e0983d2c9b83","ios":"levelo://app?vid=cfbcb81a-9c0c-4d3b-9fa7-e0983d2c9b83"},"vehicle_type_id":"4","last_reported":1742137687,"current_range_meters":6800,"station_id":"ce4bhgh2rcd13ifvqfb0","pricing_plan_id":"cebpf4jnsgd1na2vs0mg"},{"bike_id":"efb53dda-871b-483c-8dec-e716116f9234","system_id":"levelo_inurba_marseille","lat":43.31087,"lon":5.36793,"is_reserved":false,"is_disabled":false,"rental_uris":{"android":"levelo://app?vid=efb53dda-871b-483c-8dec-e716116f9234","ios":"levelo://app?vid=efb53dda-871b-483c-8dec-e716116f9234"},"vehicle_type_id":"4","last_reported":1742137687,"current_range_meters":6800,"station_id":"","pricing_plan_id":"cebpf4jnsgd1na2vs0mg"},{"bike_id":"7cabf44f-c360-4069-996c-0af74c70b0c0","system_id":"levelo_inurba_marseille","lat":43.292691,"lon":5.368504,"is_reserved":false,"is_disabled":false,"rental_uris":{"android":"levelo://app?vid=7cabf44f-c360-4069-996c-0af74c70b0c0","ios":"levelo://app?vid=7cabf44f-c360-4069-996c-0af74c70b0c0"},"vehicle_type_id":"4","last_reported":1742137687,"current_range_meters":6800,"station_id":"ce4bhbp2rcd13ifvqesg","pricing_plan_id":"cebpf4jnsgd1na2vs0mg"},{"bike_id":"16a348af-4f87-4574-b8dd-d95cf554e6a1","system_id":"levelo_inurba_marseille","lat":43.255812,"lon":5.382303,"is_reserved":false,"is_disabled":false,"rental_uris":{"android":"levelo://app?vid=16a348af-4f87-4574-b8dd-d95cf554e6a1","ios":"levelo://app?vid=16a348af-4f87-4574-b8dd-d95cf554e6a1"},"vehicle_type_id":"4","last_reported":1742137687,"current_range_meters":7200,"station_id":"ce4bhih2rcd13ifvqfs0","pricing_plan_id":"cebpf4jnsgd1na2vs0mg"},{"bike_id":"457851a0-fcba-485d-9727-230994d987ce","system_id":"levelo_inurba_marseille","lat":43.29518,"lon":5.39414,"is_reserved":false,"is_disabled":true,"rental_uris":{"android":"levelo://app?vid=457851a0-fcba-485d-9727-230994d987ce","ios":"levelo://app?vid=457851a0-fcba-485d-9727-230994d987ce"},"vehicle_type_id":"4","last_reported":1742137687,"current_range_meters":7200,"station_id":"ce4bh292rcd13ifvqdf0","pricing_plan_id":"cebpf4jnsgd1na2vs0mg"},{"bike_id":"0b7bfdb8-fd03-4687-9225-8085184f929c","system_id":"levelo_inurba_marseille","lat":43.32305,"lon":5.36774,"is_reserved":false,"is_disabled":false,"rental_uris":{"android":"levelo://app?vid=0b7bfdb8-fd03-4687-9225-8085184f929c","ios":"levelo://app?vid=0b7bfdb8-fd03-4687-9225-8085184f929c"},"vehicle_type_id":"4","last_reported":1742137687,"current_range_meters":7200,"station_id":"ce4bhsh2rcd13ifvqi2g","pricing_plan_id":"cebpf4jnsgd1na2vs0mg"},{"bike_id":"e52b41b5-52df-4c67-a85c-3cebb3bf7504","system_id":"levelo_inurba_marseille","lat":43.32361,"lon":5.36773,"is_reserved":false,"is_disabled":false,"rental_uris":{"android":"levelo://app?vid=e52b41b5-52df-4c67-a85c-3cebb3bf7504","ios":"levelo://app?vid=e52b41b5-52df-4c67-a85c-3cebb3bf7504"},"vehicle_type_id":"4","last_reported":1742137687,"current_range_meters":7200,"station_id":"ce4bhsh2rcd13ifvqi2g","pricing_plan_id":"cebpf4jnsgd1na2vs0mg"},{"bike_id":"09b66478-04cf-48d8-b314-6c9366086808","system_id":"levelo_inurba_marseille","lat":43.279919,"lon":5.400084,"is_reserved":false,"is_disabled":false,"rental_uris":{"android":"levelo://app?vid=09b66478-04cf-48d8-b314-6c9366086808","ios":"levelo://app?vid=09b66478-04cf-48d8-b314-6c9366086808"},"vehicle_type_id":"4","last_reported":1742137687,"current_range_meters":7200,"station_id":"ce4bho92rcd13ifvqh4g","pricing_plan_id":"cebpf4jnsgd1na2vs0mg"},{"bike_id":"cd599479-cb87-429c-83a1-742e20b1c9d7","system_id":"levelo_inurba_marseille","lat":43.23187,"lon":5.3999,"is_reserved":false,"is_disabled":false,"rental_uris":{"android":"levelo://app?vid=cd599479-cb87-429c-83a1-742e20b1c9d7","ios":"levelo://app?vid=cd599479-cb87-429c-83a1-742e20b1c9d7"},"vehicle_type_id":"4","last_reported":1742137687,"current_range_meters":7200,"station_id":"ce4bhn12rcd13ifvqgqg","pricing_plan_id":"cebpf4jnsgd1na2vs0mg"},{"bike_id":"9625f194-a853-4767-bda8-0eedb08b2cb3","system_id":"levelo_inurba_marseille","lat":43.28709,"lon":5.3999,"is_reserved":false,"is_disabled":true,"rental_uris":{"android":"levelo://app?vid=9625f194-a853-4767-bda8-0eedb08b2cb3","ios":"levelo://app?vid=9625f194-a853-4767-bda8-0eedb08b2cb3"},"vehicle_type_id":"4","last_reported":1742137687,"current_range_meters":7200,"station_id":"ce4bho92rcd13ifvqh3g","pricing_plan_id":"cebpf4jnsgd1na2vs0mg"},{"bike_id":"71d6b220-48b3-44b0-9feb-d7bbfca6b232","system_id":"levelo_inurba_marseille","lat":43.25494,"lon":5.37652,"is_reserved":false,"is_disabled":true,"rental_uris":{"android":"levelo://app?vid=71d6b220-48b3-44b0-9feb-d7bbfca6b232","ios":"levelo://app?vid=71d6b220-48b3-44b0-9feb-d7bbfca6b232"},"vehicle_type_id":"4","last_reported":1742137687,"current_range_meters":7200,"station_id":"ce4bhh12rcd13ifvqff0","pricing_plan_id":"cebpf4jnsgd1na2vs0mg"},{"bike_id":"5280ba4b-888f-4f56-9ae4-355009f22cee","system_id":"levelo_inurba_marseille","lat":43.30144,"lon":5.37433,"is_reserved":false,"is_disabled":false,"rental_uris":{"android":"levelo://app?vid=5280ba4b-888f-4f56-9ae4-355009f22cee","ios":"levelo://app?vid=5280ba4b-888f-4f56-9ae4-355009f22cee"},"vehicle_type_id":"4","last_reported":1742137687,"current_range_meters":7200,"station_id":"ce4bgs92rcd13ifvqcc0","pricing_plan_id":"cebpf4jnsgd1na2vs0mg"},{"bike_id":"44e8b906-8f1f-463c-a447-c71955bb9ad8","system_id":"levelo_inurba_marseille","lat":43.29275,"lon":5.36854,"is_reserved":false,"is_disabled":false,"rental_uris":{"android":"levelo://app?vid=44e8b906-8f1f-463c-a447-c71955bb9ad8","ios":"levelo://app?vid=44e8b906-8f1f-463c-a447-c71955bb9ad8"},"vehicle_type_id":"4","last_reported":1742137687,"current_range_meters":7200,"station_id":"ce4bhbp2rcd13ifvqesg","pricing_plan_id":"cebpf4jnsgd1na2vs0mg"},{"bike_id":"68f3bcfe-e20f-4ad8-9579-f569150feb8a","system_id":"levelo_inurba_marseille","lat":43.2762,"lon":5.36114,"is_reserved":false,"is_disabled":false,"rental_uris":{"android":"levelo://app?vid=68f3bcfe-e20f-4ad8-9579-f569150feb8a","ios":"levelo://app?vid=68f3bcfe-e20f-4ad8-9579-f569150feb8a"},"vehicle_type_id":"4","last_reported":1742137687,"current_range_meters":8000,"station_id":"ce4bgj92rcd13ifvqbe0","pricing_plan_id":"cebpf4jnsgd1na2vs0mg"},{"bike_id":"5f7f03a2-add7-44f0-9ebb-8428c5f0e58a","system_id":"levelo_inurba_marseille","lat":43.25959,"lon":5.40936,"is_reserved":false,"is_disabled":false,"rental_uris":{"android":"levelo://app?vid=5f7f03a2-add7-44f0-9ebb-8428c5f0e58a","ios":"levelo://app?vid=5f7f03a2-add7-44f0-9ebb-8428c5f0e58a"},"vehicle_type_id":"4","last_reported":1742137687,"current_range_meters":8000,"station_id":"ce4bhm92rcd13ifvqglg","pricing_plan_id":"cebpf4jnsgd1na2vs0mg"},{"bike_id":"edffd4ca-e145-45cd-b8dd-ebe8a5faba92","system_id":"levelo_inurba_marseille","lat":43.28072,"lon":5.39649,"is_reserved":false,"is_disabled":false,"rental_uris":{"android":"levelo://app?vid=edffd4ca-e145-45cd-b8dd-ebe8a5faba92","ios":"levelo://app?vid=edffd4ca-e145-45cd-b8dd-ebe8a5faba92"},"vehicle_type_id":"4","last_reported":1742137687,"current_range_meters":8000,"station_id":"ce4bho12rcd13ifvqh2g","pricing_plan_id":"cebpf4jnsgd1na2vs0mg"},{"bike_id":"bb279547-f6e6-43f8-b4c7-953f586181e1","system_id":"levelo_inurba_marseille","lat":43.29599,"lon":5.38096,"is_reserved":false,"is_disabled":false,"rental_uris":{"android":"levelo://app?vid=bb279547-f6e6-43f8-b4c7-953f586181e1","ios":"levelo://app?vid=bb279547-f6e6-43f8-b4c7-953f586181e1"},"vehicle_type_id":"4","last_reported":1742137687,"current_range_meters":8000,"station_id":"ce4bgl12rcd13ifvqbo0","pricing_plan_id":"cebpf4jnsgd1na2vs0mg"},{"bike_id":"94a933f5-2406-4565-88ce-308e5d7a269a","system_id":"levelo_inurba_marseille","lat":43.24401,"lon":5.37038,"is_reserved":false,"is_disabled":false,"rental_uris":{"android":"levelo://app?vid=94a933f5-2406-4565-88ce-308e5d7a269a","ios":"levelo://app?vid=94a933f5-2406-4565-88ce-308e5d7a269a"},"vehicle_type_id":"4","last_reported":1742137687,"current_range_meters":8000,"station_id":"ce4bhhh2rcd13ifvqfk0","pricing_plan_id":"cebpf4jnsgd1na2vs0mg"},{"bike_id":"1169077d-98d8-4d8a-b262-32b48eed3930","system_id":"levelo_inurba_marseille","lat":43.30314,"lon":5.369,"is_reserved":false,"is_disabled":false,"rental_uris":{"android":"levelo://app?vid=1169077d-98d8-4d8a-b262-32b48eed3930","ios":"levelo://app?vid=1169077d-98d8-4d8a-b262-32b48eed3930"},"vehicle_type_id":"4","last_reported":1742137687,"current_range_meters":8000,"station_id":"ce4bgqh2rcd13ifvqc5g","pricing_plan_id":"cebpf4jnsgd1na2vs0mg"},{"bike_id":"f2b7b04e-8089-4d6c-9db8-5e21bca75c26","system_id":"levelo_inurba_marseille","lat":43.27839,"lon":5.39216,"is_reserved":false,"is_disabled":true,"rental_uris":{"android":"levelo://app?vid=f2b7b04e-8089-4d6c-9db8-5e21bca75c26","ios":"levelo://app?vid=f2b7b04e-8089-4d6c-9db8-5e21bca75c26"},"vehicle_type_id":"4","last_reported":1742137687,"current_range_meters":8000,"station_id":"ce4bhjp2rcd13ifvqga0","pricing_plan_id":"cebpf4jnsgd1na2vs0mg"},{"bike_id":"0102a975-ca16-4d1e-8694-d919e87a2584","system_id":"levelo_inurba_marseille","lat":43.29554,"lon":5.42304,"is_reserved":false,"is_disabled":false,"rental_uris":{"android":"levelo://app?vid=0102a975-ca16-4d1e-8694-d919e87a2584","ios":"levelo://app?vid=0102a975-ca16-4d1e-8694-d919e87a2584"},"vehicle_type_id":"4","last_reported":1742137687,"current_range_meters":8400,"station_id":"ce4bhph2rcd13ifvqhdg","pricing_plan_id":"cebpf4jnsgd1na2vs0mg"},{"bike_id":"3ae4497e-0c99-4c12-bac7-6bf589241059","system_id":"levelo_inurba_marseille","lat":43.27991,"lon":5.41663,"is_reserved":false,"is_disabled":false,"rental_uris":{"android":"levelo://app?vid=3ae4497e-0c99-4c12-bac7-6bf589241059","ios":"levelo://app?vid=3ae4497e-0c99-4c12-bac7-6bf589241059"},"vehicle_type_id":"4","last_reported":1742137687,"current_range_meters":8400,"station_id":"ce4bho12rcd13ifvqh1g","pricing_plan_id":"cebpf4jnsgd1na2vs0mg"},{"bike_id":"0de9079a-4b4e-48f8-b0f6-55cb5bbcd772","system_id":"levelo_inurba_marseille","lat":43.288548,"lon":5.393148,"is_reserved":false,"is_disabled":false,"rental_uris":{"android":"levelo://app?vid=0de9079a-4b4e-48f8-b0f6-55cb5bbcd772","ios":"levelo://app?vid=0de9079a-4b4e-48f8-b0f6-55cb5bbcd772"},"vehicle_type_id":"4","last_reported":1742137687,"current_range_meters":8400,"station_id":"ce4bgjh2rcd13ifvqbg0","pricing_plan_id":"cebpf4jnsgd1na2vs0mg"},{"bike_id":"2127c283-3bf3-4081-9791-ba201cf5a542","system_id":"levelo_inurba_marseille","lat":43.30483,"lon":5.37347,"is_reserved":false,"is_disabled":true,"rental_uris":{"android":"levelo://app?vid=2127c283-3bf3-4081-9791-ba201cf5a542","ios":"levelo://app?vid=2127c283-3bf3-4081-9791-ba201cf5a542"},"vehicle_type_id":"4","last_reported":1742137687,"current_range_meters":8400,"station_id":"","pricing_plan_id":"cebpf4jnsgd1na2vs0mg"},{"bike_id":"2888920d-5337-4dad-b80c-b748fa94c0d3","system_id":"levelo_inurba_marseille","lat":43.24649,"lon":5.38899,"is_reserved":false,"is_disabled":false,"rental_uris":{"android":"levelo://app?vid=2888920d-5337-4dad-b80c-b748fa94c0d3","ios":"levelo://app?vid=2888920d-5337-4dad-b80c-b748fa94c0d3"},"vehicle_type_id":"4","last_reported":1742137687,"current_range_meters":8400,"station_id":"ce4bhg12rcd13ifvqf60","pricing_plan_id":"cebpf4jnsgd1na2vs0mg"},{"bike_id":"743c9fbf-42df-4986-bc8c-9b4a2bc386be","system_id":"levelo_inurba_marseille","lat":43.24053,"lon":5.37719,"is_reserved":false,"is_disabled":false,"rental_uris":{"android":"levelo://app?vid=743c9fbf-42df-4986-bc8c-9b4a2bc386be","ios":"levelo://app?vid=743c9fbf-42df-4986-bc8c-9b4a2bc386be"},"vehicle_type_id":"4","last_reported":1742137687,"current_range_meters":8400,"station_id":"ce4bhnp2rcd13ifvqgvg","pricing_plan_id":"cebpf4jnsgd1na2vs0mg"},{"bike_id":"82e4859a-e942-44b1-82e8-bca3ed8730b3","system_id":"levelo_inurba_marseille","lat":43.24812,"lon":5.37451,"is_reserved":false,"is_disabled":false,"rental_uris":{"android":"levelo://app?vid=82e4859a-e942-44b1-82e8-bca3ed8730b3","ios":"levelo://app?vid=82e4859a-e942-44b1-82e8-bca3ed8730b3"},"vehicle_type_id":"4","last_reported":1742137687,"current_range_meters":8400,"station_id":"ce4bhgh2rcd13ifvqfb0","pricing_plan_id":"cebpf4jnsgd1na2vs0mg"},{"bike_id":"3a766561-d5df-4bb1-accb-85c347f27a70","system_id":"levelo_inurba_marseille","lat":43.33733,"lon":5.39191,"is_reserved":false,"is_disabled":false,"rental_uris":{"android":"levelo://app?vid=3a766561-d5df-4bb1-accb-85c347f27a70","ios":"levelo://app?vid=3a766561-d5df-4bb1-accb-85c347f27a70"},"vehicle_type_id":"4","last_reported":1742137687,"current_range_meters":8400,"station_id":"ce4bhr92rcd13ifvqhsg","pricing_plan_id":"cebpf4jnsgd1na2vs0mg"},{"bike_id":"348ced9e-e9de-472c-b16f-11a89916048e","system_id":"levelo_inurba_marseille","lat":43.29625,"lon":5.37727,"is_reserved":false,"is_disabled":false,"rental_uris":{"android":"levelo://app?vid=348ced9e-e9de-472c-b16f-11a89916048e","ios":"levelo://app?vid=348ced9e-e9de-472c-b16f-11a89916048e"},"vehicle_type_id":"4","last_reported":1742137687,"current_range_meters":8400,"station_id":"ce4bgi92rcd13ifvqb90","pricing_plan_id":"cebpf4jnsgd1na2vs0mg"},{"bike_id":"c1ccf9ca-98f0-4eaf-9c83-bb7b5133d125","system_id":"levelo_inurba_marseille","lat":43.32106,"lon":5.36776,"is_reserved":false,"is_disabled":false,"rental_uris":{"android":"levelo://app?vid=c1ccf9ca-98f0-4eaf-9c83-bb7b5133d125","ios":"levelo://app?vid=c1ccf9ca-98f0-4eaf-9c83-bb7b5133d125"},"vehicle_type_id":"4","last_reported":1742137687,"current_range_meters":8400,"station_id":"ce4bhrh2rcd13ifvqhug","pricing_plan_id":"cebpf4jnsgd1na2vs0mg"},{"bike_id":"d3bd0ca2-58e0-4f19-bd33-980724ab7a39","system_id":"levelo_inurba_marseille","lat":43.30891,"lon":5.39624,"is_reserved":false,"is_disabled":true,"rental_uris":{"android":"levelo://app?vid=d3bd0ca2-58e0-4f19-bd33-980724ab7a39","ios":"levelo://app?vid=d3bd0ca2-58e0-4f19-bd33-980724ab7a39"},"vehicle_type_id":"4","last_reported":1742137687,"current_range_meters":8400,"station_id":"ce4bh012rcd13ifvqcv0","pricing_plan_id":"cebpf4jnsgd1na2vs0mg"},{"bike_id":"e78a8b7f-11b9-4401-988b-2141fd60cfd3","system_id":"levelo_inurba_marseille","lat":43.239687,"lon":5.36627,"is_reserved":false,"is_disabled":false,"rental_uris":{"android":"levelo://app?vid=e78a8b7f-11b9-4401-988b-2141fd60cfd3","ios":"levelo://app?vid=e78a8b7f-11b9-4401-988b-2141fd60cfd3"},"vehicle_type_id":"4","last_reported":1742137687,"current_range_meters":8400,"station_id":"ce4bhi12rcd13ifvqfp0","pricing_plan_id":"cebpf4jnsgd1na2vs0mg"},{"bike_id":"31710fca-ccfa-43a5-ac6f-5ec923018ebf","system_id":"levelo_inurba_marseille","lat":43.27397,"lon":5.42062,"is_reserved":false,"is_disabled":false,"rental_uris":{"android":"levelo://app?vid=31710fca-ccfa-43a5-ac6f-5ec923018ebf","ios":"levelo://app?vid=31710fca-ccfa-43a5-ac6f-5ec923018ebf"},"vehicle_type_id":"4","last_reported":1742137687,"current_range_meters":8400,"station_id":"","pricing_plan_id":"cebpf4jnsgd1na2vs0mg"},{"bike_id":"8679c83d-a5af-43b7-a9ef-774545e0741b","system_id":"levelo_inurba_marseille","lat":43.29111,"lon":5.38144,"is_reserved":false,"is_disabled":false,"rental_uris":{"android":"levelo://app?vid=8679c83d-a5af-43b7-a9ef-774545e0741b","ios":"levelo://app?vid=8679c83d-a5af-43b7-a9ef-774545e0741b"},"vehicle_type_id":"4","last_reported":1742137687,"current_range_meters":8800,"station_id":"ce4bh512rcd13ifvqe2g","pricing_plan_id":"cebpf4jnsgd1na2vs0mg"},{"bike_id":"eac77917-c333-47c2-b083-6222eefa4d38","system_id":"levelo_inurba_marseille","lat":43.27962,"lon":5.38719,"is_reserved":false,"is_disabled":false,"rental_uris":{"android":"levelo://app?vid=eac77917-c333-47c2-b083-6222eefa4d38","ios":"levelo://app?vid=eac77917-c333-47c2-b083-6222eefa4d38"},"vehicle_type_id":"4","last_reported":1742137687,"current_range_meters":8800,"station_id":"ce4bhg12rcd13ifvqf80","pricing_plan_id":"cebpf4jnsgd1na2vs0mg"},{"bike_id":"2651ec8b-950a-4a13-beb1-6ac7c8af1906","system_id":"levelo_inurba_marseille","lat":43.29619,"lon":5.40583,"is_reserved":false,"is_disabled":false,"rental_uris":{"android":"levelo://app?vid=2651ec8b-950a-4a13-beb1-6ac7c8af1906","ios":"levelo://app?vid=2651ec8b-950a-4a13-beb1-6ac7c8af1906"},"vehicle_type_id":"4","last_reported":1742137687,"current_range_meters":8800,"station_id":"ce4bh0h2rcd13ifvqd60","pricing_plan_id":"cebpf4jnsgd1na2vs0mg"},{"bike_id":"6582e7c2-5aa5-4e6a-abc5-fa241e74aeb6","system_id":"levelo_inurba_marseille","lat":43.29899,"lon":5.43645,"is_reserved":false,"is_disabled":false,"rental_uris":{"android":"levelo://app?vid=6582e7c2-5aa5-4e6a-abc5-fa241e74aeb6","ios":"levelo://app?vid=6582e7c2-5aa5-4e6a-abc5-fa241e74aeb6"},"vehicle_type_id":"4","last_reported":1742137687,"current_range_meters":8800,"station_id":"ce4bhpp2rcd13ifvqhfg","pricing_plan_id":"cebpf4jnsgd1na2vs0mg"},{"bike_id":"f4806f6b-90cc-4357-8538-1ba6d4b0b5e4","system_id":"levelo_inurba_marseille","lat":43.23184,"lon":5.35567,"is_reserved":false,"is_disabled":false,"rental_uris":{"android":"levelo://app?vid=f4806f6b-90cc-4357-8538-1ba6d4b0b5e4","ios":"levelo://app?vid=f4806f6b-90cc-4357-8538-1ba6d4b0b5e4"},"vehicle_type_id":"4","last_reported":1742137687,"current_range_meters":8800,"station_id":"ce4bhu92rcd13ifvqi70","pricing_plan_id":"cebpf4jnsgd1na2vs0mg"},{"bike_id":"28e461fd-2bf8-4605-b69a-36b01297816d","system_id":"levelo_inurba_marseille","lat":43.28491,"lon":5.38425,"is_reserved":false,"is_disabled":false,"rental_uris":{"android":"levelo://app?vid=28e461fd-2bf8-4605-b69a-36b01297816d","ios":"levelo://app?vid=28e461fd-2bf8-4605-b69a-36b01297816d"},"vehicle_type_id":"4","last_reported":1742137687,"current_range_meters":8800,"station_id":"ce4bh512rcd13ifvqe3g","pricing_plan_id":"cebpf4jnsgd1na2vs0mg"},{"bike_id":"6aa15d5a-f172-4394-a1ab-c8c551ec5c7b","system_id":"levelo_inurba_marseille","lat":43.29094,"lon":5.38156,"is_reserved":false,"is_disabled":false,"rental_uris":{"android":"levelo://app?vid=6aa15d5a-f172-4394-a1ab-c8c551ec5c7b","ios":"levelo://app?vid=6aa15d5a-f172-4394-a1ab-c8c551ec5c7b"},"vehicle_type_id":"4","last_reported":1742137687,"current_range_meters":8800,"station_id":"ce4bh512rcd13ifvqe2g","pricing_plan_id":"cebpf4jnsgd1na2vs0mg"},{"bike_id":"9c153339-ffc3-4e73-9dd4-5e83c5bb119e","system_id":"levelo_inurba_marseille","lat":43.23206,"lon":5.39973,"is_reserved":false,"is_disabled":false,"rental_uris":{"android":"levelo://app?vid=9c153339-ffc3-4e73-9dd4-5e83c5bb119e","ios":"levelo://app?vid=9c153339-ffc3-4e73-9dd4-5e83c5bb119e"},"vehicle_type_id":"4","last_reported":1742137687,"current_range_meters":8800,"station_id":"ce4bhn12rcd13ifvqgqg","pricing_plan_id":"cebpf4jnsgd1na2vs0mg"},{"bike_id":"a17866dc-3074-49fc-9a89-48869866e9d8","system_id":"levelo_inurba_marseille","lat":43.27209,"lon":5.39206,"is_reserved":false,"is_disabled":true,"rental_uris":{"android":"levelo://app?vid=a17866dc-3074-49fc-9a89-48869866e9d8","ios":"levelo://app?vid=a17866dc-3074-49fc-9a89-48869866e9d8"},"vehicle_type_id":"4","last_reported":1742137687,"current_range_meters":8800,"station_id":"ce4bhhp2rcd13ifvqfm0","pricing_plan_id":"cebpf4jnsgd1na2vs0mg"},{"bike_id":"42b8f684-055f-4e6c-adba-abe9c9f94495","system_id":"levelo_inurba_marseille","lat":43.28924,"lon":5.38394,"is_reserved":false,"is_disabled":false,"rental_uris":{"android":"levelo://app?vid=42b8f684-055f-4e6c-adba-abe9c9f94495","ios":"levelo://app?vid=42b8f684-055f-4e6c-adba-abe9c9f94495"},"vehicle_type_id":"4","last_reported":1742137687,"current_range_meters":8800,"station_id":"ce4bh612rcd13ifvqe6g","pricing_plan_id":"cebpf4jnsgd1na2vs0mg"},{"bike_id":"a48bc8af-c01f-4ca3-940f-922ee2bce468","system_id":"levelo_inurba_marseille","lat":43.29514,"lon":5.39043,"is_reserved":false,"is_disabled":false,"rental_uris":{"android":"levelo://app?vid=a48bc8af-c01f-4ca3-940f-922ee2bce468","ios":"levelo://app?vid=a48bc8af-c01f-4ca3-940f-922ee2bce468"},"vehicle_type_id":"4","last_reported":1742137687,"current_range_meters":8800,"station_id":"ce4bh3p2rcd13ifvqdp0","pricing_plan_id":"cebpf4jnsgd1na2vs0mg"},{"bike_id":"71b342b8-694b-40d5-99e8-310baf77a970","system_id":"levelo_inurba_marseille","lat":43.23074,"lon":5.35516,"is_reserved":false,"is_disabled":false,"rental_uris":{"android":"levelo://app?vid=71b342b8-694b-40d5-99e8-310baf77a970","ios":"levelo://app?vid=71b342b8-694b-40d5-99e8-310baf77a970"},"vehicle_type_id":"4","last_reported":1742137687,"current_range_meters":9200,"station_id":"cpo3342slgdg3j2ifvpg","pricing_plan_id":"cebpf4jnsgd1na2vs0mg"},{"bike_id":"fc071de1-2cc0-488a-a43e-f8037a5a9a49","system_id":"levelo_inurba_marseille","lat":43.23069,"lon":5.35494,"is_reserved":false,"is_disabled":false,"rental_uris":{"android":"levelo://app?vid=fc071de1-2cc0-488a-a43e-f8037a5a9a49","ios":"levelo://app?vid=fc071de1-2cc0-488a-a43e-f8037a5a9a49"},"vehicle_type_id":"4","last_reported":1742137687,"current_range_meters":9200,"station_id":"cpo3342slgdg3j2ifvpg","pricing_plan_id":"cebpf4jnsgd1na2vs0mg"},{"bike_id":"8cc5ad71-fd81-4f52-ae0c-17e8c3354a91","system_id":"levelo_inurba_marseille","lat":43.24169,"lon":5.36389,"is_reserved":false,"is_disabled":false,"rental_uris":{"android":"levelo://app?vid=8cc5ad71-fd81-4f52-ae0c-17e8c3354a91","ios":"levelo://app?vid=8cc5ad71-fd81-4f52-ae0c-17e8c3354a91"},"vehicle_type_id":"4","last_reported":1742137687,"current_range_meters":9200,"station_id":"cpo36qri1sfpv3e86is0","pricing_plan_id":"cebpf4jnsgd1na2vs0mg"},{"bike_id":"287c3618-6350-4f8e-b299-cab3717a93ea","system_id":"levelo_inurba_marseille","lat":43.24395,"lon":5.37052,"is_reserved":false,"is_disabled":false,"rental_uris":{"android":"levelo://app?vid=287c3618-6350-4f8e-b299-cab3717a93ea","ios":"levelo://app?vid=287c3618-6350-4f8e-b299-cab3717a93ea"},"vehicle_type_id":"4","last_reported":1742137687,"current_range_meters":9200,"station_id":"ce4bhhh2rcd13ifvqfk0","pricing_plan_id":"cebpf4jnsgd1na2vs0mg"},{"bike_id":"174c9c66-b172-484e-b7f9-5752aa18aabf","system_id":"levelo_inurba_marseille","lat":43.23068,"lon":5.35494,"is_reserved":false,"is_disabled":false,"rental_uris":{"android":"levelo://app?vid=174c9c66-b172-484e-b7f9-5752aa18aabf","ios":"levelo://app?vid=174c9c66-b172-484e-b7f9-5752aa18aabf"},"vehicle_type_id":"4","last_reported":1742137687,"current_range_meters":9200,"station_id":"cpo3342slgdg3j2ifvpg","pricing_plan_id":"cebpf4jnsgd1na2vs0mg"},{"bike_id":"27c59999-8775-41d3-aad8-b3fd3f7f892f","system_id":"levelo_inurba_marseille","lat":43.26026,"lon":5.37553,"is_reserved":false,"is_disabled":false,"rental_uris":{"android":"levelo://app?vid=27c59999-8775-41d3-aad8-b3fd3f7f892f","ios":"levelo://app?vid=27c59999-8775-41d3-aad8-b3fd3f7f892f"},"vehicle_type_id":"4","last_reported":1742137687,"current_range_meters":9200,"station_id":"ce4bhgh2rcd13ifvqfa0","pricing_plan_id":"cebpf4jnsgd1na2vs0mg"},{"bike_id":"dc45fdcf-1c41-488a-8454-ab53299edeac","system_id":"levelo_inurba_marseille","lat":43.29195,"lon":5.35794,"is_reserved":false,"is_disabled":true,"rental_uris":{"android":"levelo://app?vid=dc45fdcf-1c41-488a-8454-ab53299edeac","ios":"levelo://app?vid=dc45fdcf-1c41-488a-8454-ab53299edeac"},"vehicle_type_id":"4","last_reported":1742137687,"current_range_meters":9600,"station_id":"ce4bhb12rcd13ifvqel0","pricing_plan_id":"cebpf4jnsgd1na2vs0mg"},{"bike_id":"99d43d10-8f52-43f6-847c-54ffd82ec0b1","system_id":"levelo_inurba_marseille","lat":43.292693,"lon":5.368297,"is_reserved":false,"is_disabled":true,"rental_uris":{"android":"levelo://app?vid=99d43d10-8f52-43f6-847c-54ffd82ec0b1","ios":"levelo://app?vid=99d43d10-8f52-43f6-847c-54ffd82ec0b1"},"vehicle_type_id":"4","last_reported":1742137687,"current_range_meters":9600,"station_id":"ce4bhbp2rcd13ifvqesg","pricing_plan_id":"cebpf4jnsgd1na2vs0mg"},{"bike_id":"f876773a-fec2-4503-8f9a-c65b00603ae5","system_id":"levelo_inurba_marseille","lat":43.24088,"lon":5.37762,"is_reserved":false,"is_disabled":false,"rental_uris":{"android":"levelo://app?vid=f876773a-fec2-4503-8f9a-c65b00603ae5","ios":"levelo://app?vid=f876773a-fec2-4503-8f9a-c65b00603ae5"},"vehicle_type_id":"4","last_reported":1742137687,"current_range_meters":9600,"station_id":"ce4bhnp2rcd13ifvqgvg","pricing_plan_id":"cebpf4jnsgd1na2vs0mg"},{"bike_id":"30a3f5aa-8adb-417a-a2c9-dedb0fb285b3","system_id":"levelo_inurba_marseille","lat":43.28975,"lon":5.37829,"is_reserved":false,"is_disabled":true,"rental_uris":{"android":"levelo://app?vid=30a3f5aa-8adb-417a-a2c9-dedb0fb285b3","ios":"levelo://app?vid=30a3f5aa-8adb-417a-a2c9-dedb0fb285b3"},"vehicle_type_id":"4","last_reported":1742137687,"current_range_meters":9600,"station_id":"ce4bh9p2rcd13ifvqed0","pricing_plan_id":"cebpf4jnsgd1na2vs0mg"},{"bike_id":"d833f426-b66d-48bf-ae51-72b9b0c84c90","system_id":"levelo_inurba_marseille","lat":43.32372,"lon":5.38882,"is_reserved":false,"is_disabled":false,"rental_uris":{"android":"levelo://app?vid=d833f426-b66d-48bf-ae51-72b9b0c84c90","ios":"levelo://app?vid=d833f426-b66d-48bf-ae51-72b9b0c84c90"},"vehicle_type_id":"4","last_reported":1742137687,"current_range_meters":9600,"station_id":"ce4bhqp2rcd13ifvqhog","pricing_plan_id":"cebpf4jnsgd1na2vs0mg"},{"bike_id":"ec4c8fc9-399f-4f5a-b345-e19e03d811c3","system_id":"levelo_inurba_marseille","lat":43.27182,"lon":5.41009,"is_reserved":false,"is_disabled":true,"rental_uris":{"android":"levelo://app?vid=ec4c8fc9-399f-4f5a-b345-e19e03d811c3","ios":"levelo://app?vid=ec4c8fc9-399f-4f5a-b345-e19e03d811c3"},"vehicle_type_id":"4","last_reported":1742137687,"current_range_meters":9600,"station_id":"ce4bhl12rcd13ifvqgf0","pricing_plan_id":"cebpf4jnsgd1na2vs0mg"},{"bike_id":"63ccaa1b-7302-45e3-82a8-d904a69351b6","system_id":"levelo_inurba_marseille","lat":43.2395,"lon":5.36675,"is_reserved":false,"is_disabled":true,"rental_uris":{"android":"levelo://app?vid=63ccaa1b-7302-45e3-82a8-d904a69351b6","ios":"levelo://app?vid=63ccaa1b-7302-45e3-82a8-d904a69351b6"},"vehicle_type_id":"4","last_reported":1742137687,"current_range_meters":9600,"station_id":"ce4bhi12rcd13ifvqfp0","pricing_plan_id":"cebpf4jnsgd1na2vs0mg"},{"bike_id":"02903d83-44bb-40cf-a804-6798606e7bc6","system_id":"levelo_inurba_marseille","lat":43.24794,"lon":5.37477,"is_reserved":false,"is_disabled":false,"rental_uris":{"android":"levelo://app?vid=02903d83-44bb-40cf-a804-6798606e7bc6","ios":"levelo://app?vid=02903d83-44bb-40cf-a804-6798606e7bc6"},"vehicle_type_id":"4","last_reported":1742137687,"current_range_meters":9600,"station_id":"ce4bhgh2rcd13ifvqfb0","pricing_plan_id":"cebpf4jnsgd1na2vs0mg"},{"bike_id":"f933b60b-34a3-489e-bb32-cf261006f6ca","system_id":"levelo_inurba_marseille","lat":43.29216,"lon":5.39305,"is_reserved":false,"is_disabled":false,"rental_uris":{"android":"levelo://app?vid=f933b60b-34a3-489e-bb32-cf261006f6ca","ios":"levelo://app?vid=f933b60b-34a3-489e-bb32-cf261006f6ca"},"vehicle_type_id":"4","last_reported":1742137687,"current_range_meters":9600,"station_id":"ce4bh192rcd13ifvqdd0","pricing_plan_id":"cebpf4jnsgd1na2vs0mg"},{"bike_id":"fcdfecc0-d519-4864-984c-ddffbbfe2bd7","system_id":"levelo_inurba_marseille","lat":43.27215,"lon":5.41148,"is_reserved":false,"is_disabled":false,"rental_uris":{"android":"levelo://app?vid=fcdfecc0-d519-4864-984c-ddffbbfe2bd7","ios":"levelo://app?vid=fcdfecc0-d519-4864-984c-ddffbbfe2bd7"},"vehicle_type_id":"4","last_reported":1742137687,"current_range_meters":9600,"station_id":"","pricing_plan_id":"cebpf4jnsgd1na2vs0mg"},{"bike_id":"3f3e844d-8056-4826-a519-e24eec72528f","system_id":"levelo_inurba_marseille","lat":43.30659,"lon":5.36564,"is_reserved":false,"is_disabled":false,"rental_uris":{"android":"levelo://app?vid=3f3e844d-8056-4826-a519-e24eec72528f","ios":"levelo://app?vid=3f3e844d-8056-4826-a519-e24eec72528f"},"vehicle_type_id":"4","last_reported":1742137687,"current_range_meters":9600,"station_id":"","pricing_plan_id":"cebpf4jnsgd1na2vs0mg"},{"bike_id":"a73478c4-3e7b-4475-9e3e-bd107705883f","system_id":"levelo_inurba_marseille","lat":43.30637,"lon":5.40088,"is_reserved":false,"is_disabled":false,"rental_uris":{"android":"levelo://app?vid=a73478c4-3e7b-4475-9e3e-bd107705883f","ios":"levelo://app?vid=a73478c4-3e7b-4475-9e3e-bd107705883f"},"vehicle_type_id":"4","last_reported":1742137687,"current_range_meters":9600,"station_id":"ce4bh112rcd13ifvqda0","pricing_plan_id":"cebpf4jnsgd1na2vs0mg"},{"bike_id":"f25cdaa7-2099-4e07-8a11-fc8b1969826f","system_id":"levelo_inurba_marseille","lat":43.26563,"lon":5.37299,"is_reserved":false,"is_disabled":false,"rental_uris":{"android":"levelo://app?vid=f25cdaa7-2099-4e07-8a11-fc8b1969826f","ios":"levelo://app?vid=f25cdaa7-2099-4e07-8a11-fc8b1969826f"},"vehicle_type_id":"4","last_reported":1742137687,"current_range_meters":10000,"station_id":"ce4bhg12rcd13ifvqf70","pricing_plan_id":"cebpf4jnsgd1na2vs0mg"},{"bike_id":"49281dae-be58-40f1-bd73-1019ca6e7e37","system_id":"levelo_inurba_marseille","lat":43.29575,"lon":5.37506,"is_reserved":false,"is_disabled":false,"rental_uris":{"android":"levelo://app?vid=49281dae-be58-40f1-bd73-1019ca6e7e37","ios":"levelo://app?vid=49281dae-be58-40f1-bd73-1019ca6e7e37"},"vehicle_type_id":"4","last_reported":1742137687,"current_range_meters":10000,"station_id":"ce4bgh92rcd13ifvqb50","pricing_plan_id":"cebpf4jnsgd1na2vs0mg"},{"bike_id":"30e9b25b-aec7-4e6e-b1ac-ba1edff362f1","system_id":"levelo_inurba_marseille","lat":43.2305,"lon":5.35513,"is_reserved":false,"is_disabled":false,"rental_uris":{"android":"levelo://app?vid=30e9b25b-aec7-4e6e-b1ac-ba1edff362f1","ios":"levelo://app?vid=30e9b25b-aec7-4e6e-b1ac-ba1edff362f1"},"vehicle_type_id":"4","last_reported":1742137687,"current_range_meters":10000,"station_id":"cpo3342slgdg3j2ifvpg","pricing_plan_id":"cebpf4jnsgd1na2vs0mg"},{"bike_id":"9d51f642-4b05-49cc-adb1-80ff36d6b37d","system_id":"levelo_inurba_marseille","lat":43.25499,"lon":5.37651,"is_reserved":false,"is_disabled":false,"rental_uris":{"android":"levelo://app?vid=9d51f642-4b05-49cc-adb1-80ff36d6b37d","ios":"levelo://app?vid=9d51f642-4b05-49cc-adb1-80ff36d6b37d"},"vehicle_type_id":"4","last_reported":1742137687,"current_range_meters":10000,"station_id":"ce4bhh12rcd13ifvqff0","pricing_plan_id":"cebpf4jnsgd1na2vs0mg"},{"bike_id":"9d8efe52-4253-46af-b40f-bf8652412f63","system_id":"levelo_inurba_marseille","lat":43.295156,"lon":5.393944,"is_reserved":false,"is_disabled":true,"rental_uris":{"android":"levelo://app?vid=9d8efe52-4253-46af-b40f-bf8652412f63","ios":"levelo://app?vid=9d8efe52-4253-46af-b40f-bf8652412f63"},"vehicle_type_id":"4","last_reported":1742137687,"current_range_meters":10000,"station_id":"ce4bh292rcd13ifvqdf0","pricing_plan_id":"cebpf4jnsgd1na2vs0mg"},{"bike_id":"38de9398-607b-4e38-b181-28a0e85a0172","system_id":"levelo_inurba_marseille","lat":43.29039,"lon":5.38663,"is_reserved":false,"is_disabled":true,"rental_uris":{"android":"levelo://app?vid=38de9398-607b-4e38-b181-28a0e85a0172","ios":"levelo://app?vid=38de9398-607b-4e38-b181-28a0e85a0172"},"vehicle_type_id":"4","last_reported":1742137687,"current_range_meters":10000,"station_id":"ce4bh4p2rcd13ifvqe0g","pricing_plan_id":"cebpf4jnsgd1na2vs0mg"},{"bike_id":"7099c38a-2986-4dc9-9398-307b562f7d30","system_id":"levelo_inurba_marseille","lat":43.25934,"lon":5.40913,"is_reserved":false,"is_disabled":false,"rental_uris":{"android":"levelo://app?vid=7099c38a-2986-4dc9-9398-307b562f7d30","ios":"levelo://app?vid=7099c38a-2986-4dc9-9398-307b562f7d30"},"vehicle_type_id":"4","last_reported":1742137687,"current_range_meters":10000,"station_id":"ce4bhm92rcd13ifvqglg","pricing_plan_id":"cebpf4jnsgd1na2vs0mg"},{"bike_id":"9fbd07b4-f8ec-47c8-8b77-af3d624fa697","system_id":"levelo_inurba_marseille","lat":43.29891,"lon":5.43676,"is_reserved":false,"is_disabled":false,"rental_uris":{"android":"levelo://app?vid=9fbd07b4-f8ec-47c8-8b77-af3d624fa697","ios":"levelo://app?vid=9fbd07b4-f8ec-47c8-8b77-af3d624fa697"},"vehicle_type_id":"4","last_reported":1742137687,"current_range_meters":10000,"station_id":"ce4bhpp2rcd13ifvqhfg","pricing_plan_id":"cebpf4jnsgd1na2vs0mg"},{"bike_id":"c9cbc880-1fdc-487d-985a-476815bbd665","system_id":"levelo_inurba_marseille","lat":43.28974,"lon":5.37836,"is_reserved":false,"is_disabled":false,"rental_uris":{"android":"levelo://app?vid=c9cbc880-1fdc-487d-985a-476815bbd665","ios":"levelo://app?vid=c9cbc880-1fdc-487d-985a-476815bbd665"},"vehicle_type_id":"4","last_reported":1742137687,"current_range_meters":10000,"station_id":"ce4bh9p2rcd13ifvqed0","pricing_plan_id":"cebpf4jnsgd1na2vs0mg"},{"bike_id":"798e4424-938e-4a81-9e7c-4246567321c5","system_id":"levelo_inurba_marseille","lat":43.24731,"lon":5.41152,"is_reserved":false,"is_disabled":false,"rental_uris":{"android":"levelo://app?vid=798e4424-938e-4a81-9e7c-4246567321c5","ios":"levelo://app?vid=798e4424-938e-4a81-9e7c-4246567321c5"},"vehicle_type_id":"4","last_reported":1742137687,"current_range_meters":10000,"station_id":"","pricing_plan_id":"cebpf4jnsgd1na2vs0mg"},{"bike_id":"084e9cd0-ba7b-4410-911b-bd29122b16f6","system_id":"levelo_inurba_marseille","lat":43.24168,"lon":5.36412,"is_reserved":false,"is_disabled":false,"rental_uris":{"android":"levelo://app?vid=084e9cd0-ba7b-4410-911b-bd29122b16f6","ios":"levelo://app?vid=084e9cd0-ba7b-4410-911b-bd29122b16f6"},"vehicle_type_id":"4","last_reported":1742137687,"current_range_meters":10000,"station_id":"cpo36qri1sfpv3e86is0","pricing_plan_id":"cebpf4jnsgd1na2vs0mg"},{"bike_id":"1fc5d733-a614-4daa-9d22-081d58cc0532","system_id":"levelo_inurba_marseille","lat":43.31705,"lon":5.37744,"is_reserved":false,"is_disabled":false,"rental_uris":{"android":"levelo://app?vid=1fc5d733-a614-4daa-9d22-081d58cc0532","ios":"levelo://app?vid=1fc5d733-a614-4daa-9d22-081d58cc0532"},"vehicle_type_id":"4","last_reported":1742137687,"current_range_meters":10000,"station_id":"ce4bgth2rcd13ifvqch0","pricing_plan_id":"cebpf4jnsgd1na2vs0mg"},{"bike_id":"1e9f3f53-e48b-47c9-8a7a-3842fe9d86ab","system_id":"levelo_inurba_marseille","lat":43.2871,"lon":5.39997,"is_reserved":false,"is_disabled":true,"rental_uris":{"android":"levelo://app?vid=1e9f3f53-e48b-47c9-8a7a-3842fe9d86ab","ios":"levelo://app?vid=1e9f3f53-e48b-47c9-8a7a-3842fe9d86ab"},"vehicle_type_id":"4","last_reported":1742137687,"current_range_meters":10000,"station_id":"ce4bho92rcd13ifvqh3g","pricing_plan_id":"cebpf4jnsgd1na2vs0mg"},{"bike_id":"e020ed0c-3cf1-4b5a-831b-90e4c437697d","system_id":"levelo_inurba_marseille","lat":43.24811,"lon":5.3746,"is_reserved":false,"is_disabled":false,"rental_uris":{"android":"levelo://app?vid=e020ed0c-3cf1-4b5a-831b-90e4c437697d","ios":"levelo://app?vid=e020ed0c-3cf1-4b5a-831b-90e4c437697d"},"vehicle_type_id":"4","last_reported":1742137687,"current_range_meters":10000,"station_id":"ce4bhgh2rcd13ifvqfb0","pricing_plan_id":"cebpf4jnsgd1na2vs0mg"},{"bike_id":"fffb00c4-52da-40ad-84b8-98400db4fd69","system_id":"levelo_inurba_marseille","lat":43.29031,"lon":5.38651,"is_reserved":false,"is_disabled":false,"rental_uris":{"android":"levelo://app?vid=fffb00c4-52da-40ad-84b8-98400db4fd69","ios":"levelo://app?vid=fffb00c4-52da-40ad-84b8-98400db4fd69"},"vehicle_type_id":"4","last_reported":1742137687,"current_range_meters":10800,"station_id":"ce4bh4p2rcd13ifvqe0g","pricing_plan_id":"cebpf4jnsgd1na2vs0mg"},{"bike_id":"b881a216-a8e0-47ad-9c6d-ce879391627c","system_id":"levelo_inurba_marseille","lat":43.29954,"lon":5.36531,"is_reserved":false,"is_disabled":true,"rental_uris":{"android":"levelo://app?vid=b881a216-a8e0-47ad-9c6d-ce879391627c","ios":"levelo://app?vid=b881a216-a8e0-47ad-9c6d-ce879391627c"},"vehicle_type_id":"4","last_reported":1742137687,"current_range_meters":10800,"station_id":"ce4bgm92rcd13ifvqbr0","pricing_plan_id":"cebpf4jnsgd1na2vs0mg"},{"bike_id":"33ed3582-6124-4659-8866-f776798a51ff","system_id":"levelo_inurba_marseille","lat":43.27204,"lon":5.39194,"is_reserved":false,"is_disabled":false,"rental_uris":{"android":"levelo://app?vid=33ed3582-6124-4659-8866-f776798a51ff","ios":"levelo://app?vid=33ed3582-6124-4659-8866-f776798a51ff"},"vehicle_type_id":"4","last_reported":1742137687,"current_range_meters":10800,"station_id":"ce4bhhp2rcd13ifvqfm0","pricing_plan_id":"cebpf4jnsgd1na2vs0mg"},{"bike_id":"098d86fc-c5a2-4828-aa74-3e07d06ddbf5","system_id":"levelo_inurba_marseille","lat":43.2885,"lon":5.35833,"is_reserved":false,"is_disabled":true,"rental_uris":{"android":"levelo://app?vid=098d86fc-c5a2-4828-aa74-3e07d06ddbf5","ios":"levelo://app?vid=098d86fc-c5a2-4828-aa74-3e07d06ddbf5"},"vehicle_type_id":"4","last_reported":1742137687,"current_range_meters":10800,"station_id":"ce4bhb12rcd13ifvqem0","pricing_plan_id":"cebpf4jnsgd1na2vs0mg"},{"bike_id":"10a5dfbf-3aa3-4cf3-ac17-cd4d12fd6782","system_id":"levelo_inurba_marseille","lat":43.32357,"lon":5.36764,"is_reserved":false,"is_disabled":false,"rental_uris":{"android":"levelo://app?vid=10a5dfbf-3aa3-4cf3-ac17-cd4d12fd6782","ios":"levelo://app?vid=10a5dfbf-3aa3-4cf3-ac17-cd4d12fd6782"},"vehicle_type_id":"4","last_reported":1742137687,"current_range_meters":10800,"station_id":"ce4bhsh2rcd13ifvqi2g","pricing_plan_id":"cebpf4jnsgd1na2vs0mg"},{"bike_id":"f07d3688-725c-41a9-996a-4490c49d77e9","system_id":"levelo_inurba_marseille","lat":43.29561,"lon":5.42284,"is_reserved":false,"is_disabled":false,"rental_uris":{"android":"levelo://app?vid=f07d3688-725c-41a9-996a-4490c49d77e9","ios":"levelo://app?vid=f07d3688-725c-41a9-996a-4490c49d77e9"},"vehicle_type_id":"4","last_reported":1742137687,"current_range_meters":10800,"station_id":"ce4bhph2rcd13ifvqhdg","pricing_plan_id":"cebpf4jnsgd1na2vs0mg"},{"bike_id":"49d26dc5-229b-4201-9e6d-0fd27e446ca7","system_id":"levelo_inurba_marseille","lat":43.27899,"lon":5.38001,"is_reserved":false,"is_disabled":false,"rental_uris":{"android":"levelo://app?vid=49d26dc5-229b-4201-9e6d-0fd27e446ca7","ios":"levelo://app?vid=49d26dc5-229b-4201-9e6d-0fd27e446ca7"},"vehicle_type_id":"4","last_reported":1742137687,"current_range_meters":10800,"station_id":"ce4bhf92rcd13ifvqf50","pricing_plan_id":"cebpf4jnsgd1na2vs0mg"},{"bike_id":"df8f2914-9236-4079-b112-a30d91d60d96","system_id":"levelo_inurba_marseille","lat":43.29109,"lon":5.38146,"is_reserved":false,"is_disabled":false,"rental_uris":{"android":"levelo://app?vid=df8f2914-9236-4079-b112-a30d91d60d96","ios":"levelo://app?vid=df8f2914-9236-4079-b112-a30d91d60d96"},"vehicle_type_id":"4","last_reported":1742137687,"current_range_meters":10800,"station_id":"ce4bh512rcd13ifvqe2g","pricing_plan_id":"cebpf4jnsgd1na2vs0mg"},{"bike_id":"16fb6796-f8aa-431b-a7f1-25cacb991186","system_id":"levelo_inurba_marseille","lat":43.29097,"lon":5.38131,"is_reserved":false,"is_disabled":false,"rental_uris":{"android":"levelo://app?vid=16fb6796-f8aa-431b-a7f1-25cacb991186","ios":"levelo://app?vid=16fb6796-f8aa-431b-a7f1-25cacb991186"},"vehicle_type_id":"4","last_reported":1742137687,"current_range_meters":10800,"station_id":"ce4bh512rcd13ifvqe2g","pricing_plan_id":"cebpf4jnsgd1na2vs0mg"},{"bike_id":"1559ed1f-4039-425c-b3d7-1da981a02f75","system_id":"levelo_inurba_marseille","lat":43.23067,"lon":5.35498,"is_reserved":false,"is_disabled":false,"rental_uris":{"android":"levelo://app?vid=1559ed1f-4039-425c-b3d7-1da981a02f75","ios":"levelo://app?vid=1559ed1f-4039-425c-b3d7-1da981a02f75"},"vehicle_type_id":"4","last_reported":1742137687,"current_range_meters":10800,"station_id":"cpo3342slgdg3j2ifvpg","pricing_plan_id":"cebpf4jnsgd1na2vs0mg"},{"bike_id":"ec826ddf-94a7-4ce3-852a-98ffd7da591a","system_id":"levelo_inurba_marseille","lat":43.27127,"lon":5.39236,"is_reserved":false,"is_disabled":false,"rental_uris":{"android":"levelo://app?vid=ec826ddf-94a7-4ce3-852a-98ffd7da591a","ios":"levelo://app?vid=ec826ddf-94a7-4ce3-852a-98ffd7da591a"},"vehicle_type_id":"4","last_reported":1742137687,"current_range_meters":10800,"station_id":"ce4bhhp2rcd13ifvqfm0","pricing_plan_id":"cebpf4jnsgd1na2vs0mg"},{"bike_id":"a2df54e8-18e4-4021-8fec-e9c5b477e7ad","system_id":"levelo_inurba_marseille","lat":43.24629,"lon":5.38986,"is_reserved":false,"is_disabled":false,"rental_uris":{"android":"levelo://app?vid=a2df54e8-18e4-4021-8fec-e9c5b477e7ad","ios":"levelo://app?vid=a2df54e8-18e4-4021-8fec-e9c5b477e7ad"},"vehicle_type_id":"4","last_reported":1742137687,"current_range_meters":10800,"station_id":"","pricing_plan_id":"cebpf4jnsgd1na2vs0mg"},{"bike_id":"3794d117-8b60-4e97-860b-7eab8f7c16e4","system_id":"levelo_inurba_marseille","lat":43.28926,"lon":5.384,"is_reserved":false,"is_disabled":false,"rental_uris":{"android":"levelo://app?vid=3794d117-8b60-4e97-860b-7eab8f7c16e4","ios":"levelo://app?vid=3794d117-8b60-4e97-860b-7eab8f7c16e4"},"vehicle_type_id":"4","last_reported":1742137687,"current_range_meters":11200,"station_id":"ce4bh612rcd13ifvqe6g","pricing_plan_id":"cebpf4jnsgd1na2vs0mg"},{"bike_id":"f54b304c-233e-41fe-97aa-8c1994c6b28d","system_id":"levelo_inurba_marseille","lat":43.29522,"lon":5.39032,"is_reserved":false,"is_disabled":false,"rental_uris":{"android":"levelo://app?vid=f54b304c-233e-41fe-97aa-8c1994c6b28d","ios":"levelo://app?vid=f54b304c-233e-41fe-97aa-8c1994c6b28d"},"vehicle_type_id":"4","last_reported":1742137687,"current_range_meters":11200,"station_id":"ce4bh3p2rcd13ifvqdp0","pricing_plan_id":"cebpf4jnsgd1na2vs0mg"},{"bike_id":"093653c5-8880-47fd-a8a1-cce57c2ea8ed","system_id":"levelo_inurba_marseille","lat":43.28613,"lon":5.35105,"is_reserved":false,"is_disabled":false,"rental_uris":{"android":"levelo://app?vid=093653c5-8880-47fd-a8a1-cce57c2ea8ed","ios":"levelo://app?vid=093653c5-8880-47fd-a8a1-cce57c2ea8ed"},"vehicle_type_id":"4","last_reported":1742137687,"current_range_meters":11200,"station_id":"ce4bhch2rcd13ifvqeug","pricing_plan_id":"cebpf4jnsgd1na2vs0mg"},{"bike_id":"31a72433-81d1-4343-b310-0865f974cbbf","system_id":"levelo_inurba_marseille","lat":43.25495,"lon":5.37654,"is_reserved":false,"is_disabled":false,"rental_uris":{"android":"levelo://app?vid=31a72433-81d1-4343-b310-0865f974cbbf","ios":"levelo://app?vid=31a72433-81d1-4343-b310-0865f974cbbf"},"vehicle_type_id":"4","last_reported":1742137687,"current_range_meters":11200,"station_id":"ce4bhb92rcd13ifvqen0","pricing_plan_id":"cebpf4jnsgd1na2vs0mg"},{"bike_id":"25918a15-4b94-4c69-aaa3-b5f5e1c56790","system_id":"levelo_inurba_marseille","lat":43.25003,"lon":5.38929,"is_reserved":false,"is_disabled":false,"rental_uris":{"android":"levelo://app?vid=25918a15-4b94-4c69-aaa3-b5f5e1c56790","ios":"levelo://app?vid=25918a15-4b94-4c69-aaa3-b5f5e1c56790"},"vehicle_type_id":"4","last_reported":1742137687,"current_range_meters":11600,"station_id":"ce4bhgp2rcd13ifvqfd0","pricing_plan_id":"cebpf4jnsgd1na2vs0mg"},{"bike_id":"27648248-91ce-4da5-ba17-7513a5b90a71","system_id":"levelo_inurba_marseille","lat":43.29975,"lon":5.3849,"is_reserved":false,"is_disabled":false,"rental_uris":{"android":"levelo://app?vid=27648248-91ce-4da5-ba17-7513a5b90a71","ios":"levelo://app?vid=27648248-91ce-4da5-ba17-7513a5b90a71"},"vehicle_type_id":"4","last_reported":1742137687,"current_range_meters":11200,"station_id":"ce4bgj92rcd13ifvqbd0","pricing_plan_id":"cebpf4jnsgd1na2vs0mg"},{"bike_id":"6263e1aa-11e0-4382-ada4-3b535ae1034c","system_id":"levelo_inurba_marseille","lat":43.32287,"lon":5.38286,"is_reserved":false,"is_disabled":false,"rental_uris":{"android":"levelo://app?vid=6263e1aa-11e0-4382-ada4-3b535ae1034c","ios":"levelo://app?vid=6263e1aa-11e0-4382-ada4-3b535ae1034c"},"vehicle_type_id":"4","last_reported":1742137687,"current_range_meters":11600,"station_id":"ce4bhr12rcd13ifvqhqg","pricing_plan_id":"cebpf4jnsgd1na2vs0mg"},{"bike_id":"2f8e26ab-00f0-4010-bd45-ad1db8f9e90b","system_id":"levelo_inurba_marseille","lat":43.24388,"lon":5.37058,"is_reserved":false,"is_disabled":false,"rental_uris":{"android":"levelo://app?vid=2f8e26ab-00f0-4010-bd45-ad1db8f9e90b","ios":"levelo://app?vid=2f8e26ab-00f0-4010-bd45-ad1db8f9e90b"},"vehicle_type_id":"4","last_reported":1742137687,"current_range_meters":11600,"station_id":"ce4bhhh2rcd13ifvqfk0","pricing_plan_id":"cebpf4jnsgd1na2vs0mg"},{"bike_id":"d6cd0df4-ca0d-407c-ac60-8420479f0dd1","system_id":"levelo_inurba_marseille","lat":43.23063,"lon":5.35498,"is_reserved":false,"is_disabled":false,"rental_uris":{"android":"levelo://app?vid=d6cd0df4-ca0d-407c-ac60-8420479f0dd1","ios":"levelo://app?vid=d6cd0df4-ca0d-407c-ac60-8420479f0dd1"},"vehicle_type_id":"4","last_reported":1742137687,"current_range_meters":11600,"station_id":"cpo3342slgdg3j2ifvpg","pricing_plan_id":"cebpf4jnsgd1na2vs0mg"},{"bike_id":"c95eac8a-f2d8-47f2-98a9-ad1ab2b06b00","system_id":"levelo_inurba_marseille","lat":43.28857,"lon":5.39301,"is_reserved":false,"is_disabled":false,"rental_uris":{"android":"levelo://app?vid=c95eac8a-f2d8-47f2-98a9-ad1ab2b06b00","ios":"levelo://app?vid=c95eac8a-f2d8-47f2-98a9-ad1ab2b06b00"},"vehicle_type_id":"4","last_reported":1742137687,"current_range_meters":11200,"station_id":"ce4bh2p2rcd13ifvqdi0","pricing_plan_id":"cebpf4jnsgd1na2vs0mg"},{"bike_id":"5a61a616-683f-484d-83ae-d7f61143d634","system_id":"levelo_inurba_marseille","lat":43.29513,"lon":5.42494,"is_reserved":false,"is_disabled":false,"rental_uris":{"android":"levelo://app?vid=5a61a616-683f-484d-83ae-d7f61143d634","ios":"levelo://app?vid=5a61a616-683f-484d-83ae-d7f61143d634"},"vehicle_type_id":"4","last_reported":1742137687,"current_range_meters":11600,"station_id":"","pricing_plan_id":"cebpf4jnsgd1na2vs0mg"},{"bike_id":"659cfc6c-f2ba-4758-b6de-6943e7c2dc48","system_id":"levelo_inurba_marseille","lat":43.28705,"lon":5.37386,"is_reserved":false,"is_disabled":true,"rental_uris":{"android":"levelo://app?vid=659cfc6c-f2ba-4758-b6de-6943e7c2dc48","ios":"levelo://app?vid=659cfc6c-f2ba-4758-b6de-6943e7c2dc48"},"vehicle_type_id":"4","last_reported":1742137687,"current_range_meters":11600,"station_id":"ce4bh3p2rcd13ifvqdq0","pricing_plan_id":"cebpf4jnsgd1na2vs0mg"},{"bike_id":"d51c3d72-a018-4f19-9285-175fdb6feaaf","system_id":"levelo_inurba_marseille","lat":43.27496,"lon":5.42453,"is_reserved":false,"is_disabled":false,"rental_uris":{"android":"levelo://app?vid=d51c3d72-a018-4f19-9285-175fdb6feaaf","ios":"levelo://app?vid=d51c3d72-a018-4f19-9285-175fdb6feaaf"},"vehicle_type_id":"4","last_reported":1742137687,"current_range_meters":11600,"station_id":"ce4bhn92rcd13ifvqgrg","pricing_plan_id":"cebpf4jnsgd1na2vs0mg"},{"bike_id":"cab128a0-7197-4873-8843-5fca8ce77d02","system_id":"levelo_inurba_marseille","lat":43.29536,"lon":5.39402,"is_reserved":false,"is_disabled":false,"rental_uris":{"android":"levelo://app?vid=cab128a0-7197-4873-8843-5fca8ce77d02","ios":"levelo://app?vid=cab128a0-7197-4873-8843-5fca8ce77d02"},"vehicle_type_id":"4","last_reported":1742137687,"current_range_meters":11600,"station_id":"ce4bh292rcd13ifvqdf0","pricing_plan_id":"cebpf4jnsgd1na2vs0mg"},{"bike_id":"f734a5e5-0868-4152-bfe6-987027952a5e","system_id":"levelo_inurba_marseille","lat":43.28041,"lon":5.36947,"is_reserved":false,"is_disabled":false,"rental_uris":{"android":"levelo://app?vid=f734a5e5-0868-4152-bfe6-987027952a5e","ios":"levelo://app?vid=f734a5e5-0868-4152-bfe6-987027952a5e"},"vehicle_type_id":"4","last_reported":1742137687,"current_range_meters":11600,"station_id":"ce4bha12rcd13ifvqef0","pricing_plan_id":"cebpf4jnsgd1na2vs0mg"},{"bike_id":"1f9a9668-f20a-4b32-9dce-dfb024996834","system_id":"levelo_inurba_marseille","lat":43.29027,"lon":5.38644,"is_reserved":false,"is_disabled":true,"rental_uris":{"android":"levelo://app?vid=1f9a9668-f20a-4b32-9dce-dfb024996834","ios":"levelo://app?vid=1f9a9668-f20a-4b32-9dce-dfb024996834"},"vehicle_type_id":"4","last_reported":1742137687,"current_range_meters":11600,"station_id":"ce4bh4p2rcd13ifvqe0g","pricing_plan_id":"cebpf4jnsgd1na2vs0mg"},{"bike_id":"49fea2c2-9361-4fb5-954f-b44bbf354e43","system_id":"levelo_inurba_marseille","lat":43.32362,"lon":5.36766,"is_reserved":false,"is_disabled":false,"rental_uris":{"android":"levelo://app?vid=49fea2c2-9361-4fb5-954f-b44bbf354e43","ios":"levelo://app?vid=49fea2c2-9361-4fb5-954f-b44bbf354e43"},"vehicle_type_id":"4","last_reported":1742137687,"current_range_meters":11600,"station_id":"ce4bhsh2rcd13ifvqi2g","pricing_plan_id":"cebpf4jnsgd1na2vs0mg"},{"bike_id":"3cae7961-b811-49eb-9c08-ad7c40f46a9e","system_id":"levelo_inurba_marseille","lat":43.29712,"lon":5.37708,"is_reserved":false,"is_disabled":false,"rental_uris":{"android":"levelo://app?vid=3cae7961-b811-49eb-9c08-ad7c40f46a9e","ios":"levelo://app?vid=3cae7961-b811-49eb-9c08-ad7c40f46a9e"},"vehicle_type_id":"4","last_reported":1742137687,"current_range_meters":11600,"station_id":"ce4bgkh2rcd13ifvqbl0","pricing_plan_id":"cebpf4jnsgd1na2vs0mg"},{"bike_id":"ec5e31e2-9c84-4091-b656-01fe473797ba","system_id":"levelo_inurba_marseille","lat":43.28007,"lon":5.40009,"is_reserved":false,"is_disabled":false,"rental_uris":{"android":"levelo://app?vid=ec5e31e2-9c84-4091-b656-01fe473797ba","ios":"levelo://app?vid=ec5e31e2-9c84-4091-b656-01fe473797ba"},"vehicle_type_id":"4","last_reported":1742137687,"current_range_meters":12000,"station_id":"ce4bho92rcd13ifvqh4g","pricing_plan_id":"cebpf4jnsgd1na2vs0mg"},{"bike_id":"ce157c99-2b38-44c1-b6a5-db708ae225d5","system_id":"levelo_inurba_marseille","lat":43.24078,"lon":5.37739,"is_reserved":false,"is_disabled":false,"rental_uris":{"android":"levelo://app?vid=ce157c99-2b38-44c1-b6a5-db708ae225d5","ios":"levelo://app?vid=ce157c99-2b38-44c1-b6a5-db708ae225d5"},"vehicle_type_id":"4","last_reported":1742137687,"current_range_meters":12000,"station_id":"ce4bhnp2rcd13ifvqgvg","pricing_plan_id":"cebpf4jnsgd1na2vs0mg"},{"bike_id":"8fa7ea8d-156d-42f2-95b3-ae3567fc37ee","system_id":"levelo_inurba_marseille","lat":43.23196,"lon":5.39979,"is_reserved":false,"is_disabled":false,"rental_uris":{"android":"levelo://app?vid=8fa7ea8d-156d-42f2-95b3-ae3567fc37ee","ios":"levelo://app?vid=8fa7ea8d-156d-42f2-95b3-ae3567fc37ee"},"vehicle_type_id":"4","last_reported":1742137687,"current_range_meters":12000,"station_id":"ce4bhn12rcd13ifvqgqg","pricing_plan_id":"cebpf4jnsgd1na2vs0mg"},{"bike_id":"12ffb602-420b-4328-9049-813362478ab4","system_id":"levelo_inurba_marseille","lat":43.28837,"lon":5.39308,"is_reserved":false,"is_disabled":false,"rental_uris":{"android":"levelo://app?vid=12ffb602-420b-4328-9049-813362478ab4","ios":"levelo://app?vid=12ffb602-420b-4328-9049-813362478ab4"},"vehicle_type_id":"4","last_reported":1742137687,"current_range_meters":12000,"station_id":"ce4bh2p2rcd13ifvqdi0","pricing_plan_id":"cebpf4jnsgd1na2vs0mg"},{"bike_id":"760b38d2-79b4-4c3c-b4bb-02586e46e837","system_id":"levelo_inurba_marseille","lat":43.308004,"lon":5.381526,"is_reserved":false,"is_disabled":true,"rental_uris":{"android":"levelo://app?vid=760b38d2-79b4-4c3c-b4bb-02586e46e837","ios":"levelo://app?vid=760b38d2-79b4-4c3c-b4bb-02586e46e837"},"vehicle_type_id":"4","last_reported":1742137687,"current_range_meters":12000,"station_id":"ce4bgt12rcd13ifvqce0","pricing_plan_id":"cebpf4jnsgd1na2vs0mg"},{"bike_id":"ab42863f-c663-4243-9f0e-18a0505ad889","system_id":"levelo_inurba_marseille","lat":43.29908,"lon":5.38139,"is_reserved":false,"is_disabled":false,"rental_uris":{"android":"levelo://app?vid=ab42863f-c663-4243-9f0e-18a0505ad889","ios":"levelo://app?vid=ab42863f-c663-4243-9f0e-18a0505ad889"},"vehicle_type_id":"4","last_reported":1742137687,"current_range_meters":12400,"station_id":"ce4bgj12rcd13ifvqbc0","pricing_plan_id":"cebpf4jnsgd1na2vs0mg"},{"bike_id":"b2a9b540-5556-439b-ae8d-6d46b27b801c","system_id":"levelo_inurba_marseille","lat":43.28341,"lon":5.38115,"is_reserved":false,"is_disabled":true,"rental_uris":{"android":"levelo://app?vid=b2a9b540-5556-439b-ae8d-6d46b27b801c","ios":"levelo://app?vid=b2a9b540-5556-439b-ae8d-6d46b27b801c"},"vehicle_type_id":"4","last_reported":1742137687,"current_range_meters":12400,"station_id":"ce4bh412rcd13ifvqdr0","pricing_plan_id":"cebpf4jnsgd1na2vs0mg"},{"bike_id":"4437d7f4-2628-4251-ba53-9b637e6ff7ac","system_id":"levelo_inurba_marseille","lat":43.29597,"lon":5.38097,"is_reserved":false,"is_disabled":false,"rental_uris":{"android":"levelo://app?vid=4437d7f4-2628-4251-ba53-9b637e6ff7ac","ios":"levelo://app?vid=4437d7f4-2628-4251-ba53-9b637e6ff7ac"},"vehicle_type_id":"4","last_reported":1742137687,"current_range_meters":12400,"station_id":"ce4bgl12rcd13ifvqbo0","pricing_plan_id":"cebpf4jnsgd1na2vs0mg"},{"bike_id":"0e18b601-1d61-4f66-bf28-36345863193f","system_id":"levelo_inurba_marseille","lat":43.26492,"lon":5.3955,"is_reserved":false,"is_disabled":false,"rental_uris":{"android":"levelo://app?vid=0e18b601-1d61-4f66-bf28-36345863193f","ios":"levelo://app?vid=0e18b601-1d61-4f66-bf28-36345863193f"},"vehicle_type_id":"4","last_reported":1742137687,"current_range_meters":12400,"station_id":"ce4bhi12rcd13ifvqfq0","pricing_plan_id":"cebpf4jnsgd1na2vs0mg"},{"bike_id":"502a3b3e-8957-45c1-a4dd-1cb7cf5ee2e2","system_id":"levelo_inurba_marseille","lat":43.32114,"lon":5.36779,"is_reserved":false,"is_disabled":false,"rental_uris":{"android":"levelo://app?vid=502a3b3e-8957-45c1-a4dd-1cb7cf5ee2e2","ios":"levelo://app?vid=502a3b3e-8957-45c1-a4dd-1cb7cf5ee2e2"},"vehicle_type_id":"4","last_reported":1742137687,"current_range_meters":12400,"station_id":"ce4bhrh2rcd13ifvqhug","pricing_plan_id":"cebpf4jnsgd1na2vs0mg"},{"bike_id":"5c360faa-0955-4975-b556-d7ad18786321","system_id":"levelo_inurba_marseille","lat":43.29108,"lon":5.38132,"is_reserved":false,"is_disabled":false,"rental_uris":{"android":"levelo://app?vid=5c360faa-0955-4975-b556-d7ad18786321","ios":"levelo://app?vid=5c360faa-0955-4975-b556-d7ad18786321"},"vehicle_type_id":"4","last_reported":1742137687,"current_range_meters":12400,"station_id":"ce4bh512rcd13ifvqe2g","pricing_plan_id":"cebpf4jnsgd1na2vs0mg"},{"bike_id":"6e9c846c-c03a-4228-b313-ada4e2a041c7","system_id":"levelo_inurba_marseille","lat":43.26952,"lon":5.38638,"is_reserved":false,"is_disabled":false,"rental_uris":{"android":"levelo://app?vid=6e9c846c-c03a-4228-b313-ada4e2a041c7","ios":"levelo://app?vid=6e9c846c-c03a-4228-b313-ada4e2a041c7"},"vehicle_type_id":"4","last_reported":1742137687,"current_range_meters":12400,"station_id":"ce4bhh92rcd13ifvqfh0","pricing_plan_id":"cebpf4jnsgd1na2vs0mg"},{"bike_id":"5cad74c6-8fd9-43ea-87b0-6d1d6e76dcdb","system_id":"levelo_inurba_marseille","lat":43.28615,"lon":5.35104,"is_reserved":false,"is_disabled":false,"rental_uris":{"android":"levelo://app?vid=5cad74c6-8fd9-43ea-87b0-6d1d6e76dcdb","ios":"levelo://app?vid=5cad74c6-8fd9-43ea-87b0-6d1d6e76dcdb"},"vehicle_type_id":"4","last_reported":1742137687,"current_range_meters":12400,"station_id":"ce4bhch2rcd13ifvqeug","pricing_plan_id":"cebpf4jnsgd1na2vs0mg"},{"bike_id":"c0d14a55-0953-4c59-b0cd-c76953277ffe","system_id":"levelo_inurba_marseille","lat":43.29733,"lon":5.44751,"is_reserved":false,"is_disabled":false,"rental_uris":{"android":"levelo://app?vid=c0d14a55-0953-4c59-b0cd-c76953277ffe","ios":"levelo://app?vid=c0d14a55-0953-4c59-b0cd-c76953277ffe"},"vehicle_type_id":"4","last_reported":1742137687,"current_range_meters":12400,"station_id":"","pricing_plan_id":"cebpf4jnsgd1na2vs0mg"},{"bike_id":"ea3faa2e-2727-4cd3-a354-57574da4893b","system_id":"levelo_inurba_marseille","lat":43.24167,"lon":5.36402,"is_reserved":false,"is_disabled":false,"rental_uris":{"android":"levelo://app?vid=ea3faa2e-2727-4cd3-a354-57574da4893b","ios":"levelo://app?vid=ea3faa2e-2727-4cd3-a354-57574da4893b"},"vehicle_type_id":"4","last_reported":1742137687,"current_range_meters":12400,"station_id":"cpo36qri1sfpv3e86is0","pricing_plan_id":"cebpf4jnsgd1na2vs0mg"},{"bike_id":"1d9197fc-250d-4751-9d92-226ba51f37c5","system_id":"levelo_inurba_marseille","lat":43.26947,"lon":5.4025,"is_reserved":false,"is_disabled":false,"rental_uris":{"android":"levelo://app?vid=1d9197fc-250d-4751-9d92-226ba51f37c5","ios":"levelo://app?vid=1d9197fc-250d-4751-9d92-226ba51f37c5"},"vehicle_type_id":"4","last_reported":1742137687,"current_range_meters":12400,"station_id":"cjm6bp8fraef2m0cb0m0","pricing_plan_id":"cebpf4jnsgd1na2vs0mg"},{"bike_id":"ecac4490-38d9-49f7-9706-437eeaa50ba0","system_id":"levelo_inurba_marseille","lat":43.28614,"lon":5.37065,"is_reserved":false,"is_disabled":false,"rental_uris":{"android":"levelo://app?vid=ecac4490-38d9-49f7-9706-437eeaa50ba0","ios":"levelo://app?vid=ecac4490-38d9-49f7-9706-437eeaa50ba0"},"vehicle_type_id":"4","last_reported":1742137687,"current_range_meters":12800,"station_id":"ce4bht12rcd13ifvqi60","pricing_plan_id":"cebpf4jnsgd1na2vs0mg"},{"bike_id":"60c7d650-c672-4c5e-b56b-452fc0115d51","system_id":"levelo_inurba_marseille","lat":43.25074,"lon":5.39531,"is_reserved":false,"is_disabled":false,"rental_uris":{"android":"levelo://app?vid=60c7d650-c672-4c5e-b56b-452fc0115d51","ios":"levelo://app?vid=60c7d650-c672-4c5e-b56b-452fc0115d51"},"vehicle_type_id":"4","last_reported":1742137687,"current_range_meters":12800,"station_id":"ce4bhm12rcd13ifvqgkg","pricing_plan_id":"cebpf4jnsgd1na2vs0mg"},{"bike_id":"6bd3c503-1387-4d0b-a03e-029696491e47","system_id":"levelo_inurba_marseille","lat":43.313293,"lon":5.396931,"is_reserved":false,"is_disabled":false,"rental_uris":{"android":"levelo://app?vid=6bd3c503-1387-4d0b-a03e-029696491e47","ios":"levelo://app?vid=6bd3c503-1387-4d0b-a03e-029696491e47"},"vehicle_type_id":"4","last_reported":1742137687,"current_range_meters":12800,"station_id":"ce4bhq92rcd13ifvqhkg","pricing_plan_id":"cebpf4jnsgd1na2vs0mg"},{"bike_id":"a65f889b-4be7-480c-8e19-e0554878545d","system_id":"levelo_inurba_marseille","lat":43.2955,"lon":5.42289,"is_reserved":false,"is_disabled":false,"rental_uris":{"android":"levelo://app?vid=a65f889b-4be7-480c-8e19-e0554878545d","ios":"levelo://app?vid=a65f889b-4be7-480c-8e19-e0554878545d"},"vehicle_type_id":"4","last_reported":1742137687,"current_range_meters":12800,"station_id":"ce4bhph2rcd13ifvqhdg","pricing_plan_id":"cebpf4jnsgd1na2vs0mg"},{"bike_id":"0a023a0d-4454-457d-9382-e2742aba3531","system_id":"levelo_inurba_marseille","lat":43.23207,"lon":5.35551,"is_reserved":false,"is_disabled":false,"rental_uris":{"android":"levelo://app?vid=0a023a0d-4454-457d-9382-e2742aba3531","ios":"levelo://app?vid=0a023a0d-4454-457d-9382-e2742aba3531"},"vehicle_type_id":"4","last_reported":1742137687,"current_range_meters":12800,"station_id":"ce4bhu92rcd13ifvqi70","pricing_plan_id":"cebpf4jnsgd1na2vs0mg"},{"bike_id":"8cb12548-8028-406a-a4b9-1d52f0d4a9f7","system_id":"levelo_inurba_marseille","lat":43.24699,"lon":5.38117,"is_reserved":false,"is_disabled":false,"rental_uris":{"android":"levelo://app?vid=8cb12548-8028-406a-a4b9-1d52f0d4a9f7","ios":"levelo://app?vid=8cb12548-8028-406a-a4b9-1d52f0d4a9f7"},"vehicle_type_id":"4","last_reported":1742137687,"current_range_meters":12800,"station_id":"ce4bhih2rcd13ifvqfr0","pricing_plan_id":"cebpf4jnsgd1na2vs0mg"},{"bike_id":"c5c8ebd8-35de-43b8-aadf-5e7822692f81","system_id":"levelo_inurba_marseille","lat":43.28423,"lon":5.34998,"is_reserved":false,"is_disabled":false,"rental_uris":{"android":"levelo://app?vid=c5c8ebd8-35de-43b8-aadf-5e7822692f81","ios":"levelo://app?vid=c5c8ebd8-35de-43b8-aadf-5e7822692f81"},"vehicle_type_id":"4","last_reported":1742137687,"current_range_meters":12800,"station_id":"ce4bhbh2rcd13ifvqepg","pricing_plan_id":"cebpf4jnsgd1na2vs0mg"},{"bike_id":"5e51454b-32d6-4a8f-8218-119dbc0c9d4f","system_id":"levelo_inurba_marseille","lat":43.29598,"lon":5.3813,"is_reserved":false,"is_disabled":false,"rental_uris":{"android":"levelo://app?vid=5e51454b-32d6-4a8f-8218-119dbc0c9d4f","ios":"levelo://app?vid=5e51454b-32d6-4a8f-8218-119dbc0c9d4f"},"vehicle_type_id":"4","last_reported":1742137687,"current_range_meters":12800,"station_id":"ce4bgl12rcd13ifvqbo0","pricing_plan_id":"cebpf4jnsgd1na2vs0mg"},{"bike_id":"e39aff96-0142-46d0-807b-703830dfcf78","system_id":"levelo_inurba_marseille","lat":43.286136,"lon":5.35108,"is_reserved":false,"is_disabled":true,"rental_uris":{"android":"levelo://app?vid=e39aff96-0142-46d0-807b-703830dfcf78","ios":"levelo://app?vid=e39aff96-0142-46d0-807b-703830dfcf78"},"vehicle_type_id":"4","last_reported":1742137687,"current_range_meters":12800,"station_id":"","pricing_plan_id":"cebpf4jnsgd1na2vs0mg"},{"bike_id":"a5dad0f7-034e-4c9e-8c87-68bfa104bc5d","system_id":"levelo_inurba_marseille","lat":43.27212,"lon":5.39183,"is_reserved":false,"is_disabled":false,"rental_uris":{"android":"levelo://app?vid=a5dad0f7-034e-4c9e-8c87-68bfa104bc5d","ios":"levelo://app?vid=a5dad0f7-034e-4c9e-8c87-68bfa104bc5d"},"vehicle_type_id":"4","last_reported":1742137687,"current_range_meters":12800,"station_id":"ce4bhhp2rcd13ifvqfm0","pricing_plan_id":"cebpf4jnsgd1na2vs0mg"},{"bike_id":"41d856e8-014d-42b4-85e9-2a0a980f469f","system_id":"levelo_inurba_marseille","lat":43.23191,"lon":5.35589,"is_reserved":false,"is_disabled":false,"rental_uris":{"android":"levelo://app?vid=41d856e8-014d-42b4-85e9-2a0a980f469f","ios":"levelo://app?vid=41d856e8-014d-42b4-85e9-2a0a980f469f"},"vehicle_type_id":"4","last_reported":1742137687,"current_range_meters":13600,"station_id":"ce4bhu92rcd13ifvqi70","pricing_plan_id":"cebpf4jnsgd1na2vs0mg"},{"bike_id":"a5dca213-3a1f-4b46-ac6e-3485332d6cbb","system_id":"levelo_inurba_marseille","lat":43.28079,"lon":5.39616,"is_reserved":false,"is_disabled":false,"rental_uris":{"android":"levelo://app?vid=a5dca213-3a1f-4b46-ac6e-3485332d6cbb","ios":"levelo://app?vid=a5dca213-3a1f-4b46-ac6e-3485332d6cbb"},"vehicle_type_id":"4","last_reported":1742137687,"current_range_meters":13600,"station_id":"ce4bho12rcd13ifvqh2g","pricing_plan_id":"cebpf4jnsgd1na2vs0mg"},{"bike_id":"3ae72816-d79e-478b-bf03-948460815e96","system_id":"levelo_inurba_marseille","lat":43.2932,"lon":5.37196,"is_reserved":false,"is_disabled":false,"rental_uris":{"android":"levelo://app?vid=3ae72816-d79e-478b-bf03-948460815e96","ios":"levelo://app?vid=3ae72816-d79e-478b-bf03-948460815e96"},"vehicle_type_id":"4","last_reported":1742137687,"current_range_meters":13600,"station_id":"ce4bgh92rcd13ifvqb40","pricing_plan_id":"cebpf4jnsgd1na2vs0mg"},{"bike_id":"7fdaba83-9e71-4d79-962d-8e9bcb4ba61b","system_id":"levelo_inurba_marseille","lat":43.2319,"lon":5.35561,"is_reserved":false,"is_disabled":false,"rental_uris":{"android":"levelo://app?vid=7fdaba83-9e71-4d79-962d-8e9bcb4ba61b","ios":"levelo://app?vid=7fdaba83-9e71-4d79-962d-8e9bcb4ba61b"},"vehicle_type_id":"4","last_reported":1742137687,"current_range_meters":13600,"station_id":"ce4bhu92rcd13ifvqi70","pricing_plan_id":"cebpf4jnsgd1na2vs0mg"},{"bike_id":"6b79f7bf-d213-46f5-a111-4638f83cc6af","system_id":"levelo_inurba_marseille","lat":43.24795,"lon":5.37468,"is_reserved":false,"is_disabled":false,"rental_uris":{"android":"levelo://app?vid=6b79f7bf-d213-46f5-a111-4638f83cc6af","ios":"levelo://app?vid=6b79f7bf-d213-46f5-a111-4638f83cc6af"},"vehicle_type_id":"4","last_reported":1742137687,"current_range_meters":13600,"station_id":"ce4bhgh2rcd13ifvqfb0","pricing_plan_id":"cebpf4jnsgd1na2vs0mg"},{"bike_id":"4b396960-0c7c-4973-8ecb-3520a7356a60","system_id":"levelo_inurba_marseille","lat":43.26781,"lon":5.40286,"is_reserved":false,"is_disabled":false,"rental_uris":{"android":"levelo://app?vid=4b396960-0c7c-4973-8ecb-3520a7356a60","ios":"levelo://app?vid=4b396960-0c7c-4973-8ecb-3520a7356a60"},"vehicle_type_id":"4","last_reported":1742137687,"current_range_meters":13600,"station_id":"ce501612rcd8frsf0b60","pricing_plan_id":"cebpf4jnsgd1na2vs0mg"},{"bike_id":"de33da0d-754a-4fd7-8720-e8d640e8c5e7","system_id":"levelo_inurba_marseille","lat":43.28422,"lon":5.37527,"is_reserved":false,"is_disabled":false,"rental_uris":{"android":"levelo://app?vid=de33da0d-754a-4fd7-8720-e8d640e8c5e7","ios":"levelo://app?vid=de33da0d-754a-4fd7-8720-e8d640e8c5e7"},"vehicle_type_id":"4","last_reported":1742137687,"current_range_meters":13600,"station_id":"ce4bh412rcd13ifvqds0","pricing_plan_id":"cebpf4jnsgd1na2vs0mg"},{"bike_id":"db819791-27c1-48de-91ad-79208088cf91","system_id":"levelo_inurba_marseille","lat":43.23182,"lon":5.39997,"is_reserved":false,"is_disabled":false,"rental_uris":{"android":"levelo://app?vid=db819791-27c1-48de-91ad-79208088cf91","ios":"levelo://app?vid=db819791-27c1-48de-91ad-79208088cf91"},"vehicle_type_id":"4","last_reported":1742137687,"current_range_meters":13600,"station_id":"ce4bhn12rcd13ifvqgqg","pricing_plan_id":"cebpf4jnsgd1na2vs0mg"},{"bike_id":"15114da5-30fb-4fb1-9632-866a9f4be863","system_id":"levelo_inurba_marseille","lat":43.29652,"lon":5.36535,"is_reserved":false,"is_disabled":false,"rental_uris":{"android":"levelo://app?vid=15114da5-30fb-4fb1-9632-866a9f4be863","ios":"levelo://app?vid=15114da5-30fb-4fb1-9632-866a9f4be863"},"vehicle_type_id":"4","last_reported":1742137687,"current_range_meters":13600,"station_id":"","pricing_plan_id":"cebpf4jnsgd1na2vs0mg"},{"bike_id":"5347502d-92da-4d7b-94b1-1aa2f08ecf79","system_id":"levelo_inurba_marseille","lat":43.29031,"lon":5.38648,"is_reserved":false,"is_disabled":false,"rental_uris":{"android":"levelo://app?vid=5347502d-92da-4d7b-94b1-1aa2f08ecf79","ios":"levelo://app?vid=5347502d-92da-4d7b-94b1-1aa2f08ecf79"},"vehicle_type_id":"4","last_reported":1742137687,"current_range_meters":13600,"station_id":"ce4bh4p2rcd13ifvqe0g","pricing_plan_id":"cebpf4jnsgd1na2vs0mg"},{"bike_id":"13e278b3-c9cb-4550-ad8b-8b4c511558ae","system_id":"levelo_inurba_marseille","lat":43.27461,"lon":5.40897,"is_reserved":false,"is_disabled":false,"rental_uris":{"android":"levelo://app?vid=13e278b3-c9cb-4550-ad8b-8b4c511558ae","ios":"levelo://app?vid=13e278b3-c9cb-4550-ad8b-8b4c511558ae"},"vehicle_type_id":"4","last_reported":1742137687,"current_range_meters":14000,"station_id":"","pricing_plan_id":"cebpf4jnsgd1na2vs0mg"},{"bike_id":"7744a398-14ee-4b67-a148-5c9c6471def4","system_id":"levelo_inurba_marseille","lat":43.25491,"lon":5.3765,"is_reserved":false,"is_disabled":true,"rental_uris":{"android":"levelo://app?vid=7744a398-14ee-4b67-a148-5c9c6471def4","ios":"levelo://app?vid=7744a398-14ee-4b67-a148-5c9c6471def4"},"vehicle_type_id":"4","last_reported":1742137687,"current_range_meters":14000,"station_id":"ce4bhh12rcd13ifvqff0","pricing_plan_id":"cebpf4jnsgd1na2vs0mg"},{"bike_id":"a03e208e-94c1-4a5f-9d61-9150c74ebe8c","system_id":"levelo_inurba_marseille","lat":43.32359,"lon":5.36767,"is_reserved":false,"is_disabled":false,"rental_uris":{"android":"levelo://app?vid=a03e208e-94c1-4a5f-9d61-9150c74ebe8c","ios":"levelo://app?vid=a03e208e-94c1-4a5f-9d61-9150c74ebe8c"},"vehicle_type_id":"4","last_reported":1742137687,"current_range_meters":14000,"station_id":"ce4bhsh2rcd13ifvqi2g","pricing_plan_id":"cebpf4jnsgd1na2vs0mg"},{"bike_id":"5189287a-880a-46a1-bc5e-d4c1d9f06a31","system_id":"levelo_inurba_marseille","lat":43.24088,"lon":5.37572,"is_reserved":false,"is_disabled":false,"rental_uris":{"android":"levelo://app?vid=5189287a-880a-46a1-bc5e-d4c1d9f06a31","ios":"levelo://app?vid=5189287a-880a-46a1-bc5e-d4c1d9f06a31"},"vehicle_type_id":"4","last_reported":1742137687,"current_range_meters":14000,"station_id":"","pricing_plan_id":"cebpf4jnsgd1na2vs0mg"},{"bike_id":"be452307-65e7-455e-9ff5-7a84559782e5","system_id":"levelo_inurba_marseille","lat":43.24803,"lon":5.37455,"is_reserved":false,"is_disabled":false,"rental_uris":{"android":"levelo://app?vid=be452307-65e7-455e-9ff5-7a84559782e5","ios":"levelo://app?vid=be452307-65e7-455e-9ff5-7a84559782e5"},"vehicle_type_id":"4","last_reported":1742137687,"current_range_meters":14000,"station_id":"ce4bhgh2rcd13ifvqfb0","pricing_plan_id":"cebpf4jnsgd1na2vs0mg"},{"bike_id":"77cf483d-f56a-4f53-a0cc-ccd013179afd","system_id":"levelo_inurba_marseille","lat":43.321061,"lon":5.367841,"is_reserved":false,"is_disabled":false,"rental_uris":{"android":"levelo://app?vid=77cf483d-f56a-4f53-a0cc-ccd013179afd","ios":"levelo://app?vid=77cf483d-f56a-4f53-a0cc-ccd013179afd"},"vehicle_type_id":"4","last_reported":1742137687,"current_range_meters":14000,"station_id":"ce4bhrh2rcd13ifvqhug","pricing_plan_id":"cebpf4jnsgd1na2vs0mg"},{"bike_id":"ef73c0a8-9f79-486c-afc3-8c0a9b5935ab","system_id":"levelo_inurba_marseille","lat":43.29557,"lon":5.42277,"is_reserved":false,"is_disabled":false,"rental_uris":{"android":"levelo://app?vid=ef73c0a8-9f79-486c-afc3-8c0a9b5935ab","ios":"levelo://app?vid=ef73c0a8-9f79-486c-afc3-8c0a9b5935ab"},"vehicle_type_id":"4","last_reported":1742137687,"current_range_meters":14000,"station_id":"ce4bhph2rcd13ifvqhdg","pricing_plan_id":"cebpf4jnsgd1na2vs0mg"},{"bike_id":"a6d35157-f80d-4e51-8ec1-72ea36c1e6c4","system_id":"levelo_inurba_marseille","lat":43.23069,"lon":5.35494,"is_reserved":false,"is_disabled":false,"rental_uris":{"android":"levelo://app?vid=a6d35157-f80d-4e51-8ec1-72ea36c1e6c4","ios":"levelo://app?vid=a6d35157-f80d-4e51-8ec1-72ea36c1e6c4"},"vehicle_type_id":"4","last_reported":1742137687,"current_range_meters":14400,"station_id":"cpo3342slgdg3j2ifvpg","pricing_plan_id":"cebpf4jnsgd1na2vs0mg"},{"bike_id":"148966dd-bd16-49b1-89ad-ee45859972d4","system_id":"levelo_inurba_marseille","lat":43.27829,"lon":5.40725,"is_reserved":false,"is_disabled":false,"rental_uris":{"android":"levelo://app?vid=148966dd-bd16-49b1-89ad-ee45859972d4","ios":"levelo://app?vid=148966dd-bd16-49b1-89ad-ee45859972d4"},