{"last_updated":1784207911,"ttl":60,"version":"2.2","data":{"bikes":[{"bike_id":"ba0c28b1-8732-48e2-8079-f25b2b3fbc3c","system_id":"levelo_inurba_marseille","lat":43.337444,"lon":5.374475,"is_reserved":false,"is_disabled":false,"rental_uris":{"android":"levelo://app?vid=ba0c28b1-8732-48e2-8079-f25b2b3fbc3c","ios":"levelo://app?vid=ba0c28b1-8732-48e2-8079-f25b2b3fbc3c"},"vehicle_type_id":"4","last_reported":1784207912,"current_range_meters":0,"station_id":"","pricing_plan_id":"cebpf4jnsgd1na2vs0mg"},{"bike_id":"ac953eba-8b36-42a8-b2b0-1e3618a31ece","system_id":"levelo_inurba_marseille","lat":43.27199,"lon":5.39176,"is_reserved":false,"is_disabled":false,"rental_uris":{"android":"levelo://app?vid=ac953eba-8b36-42a8-b2b0-1e3618a31ece","ios":"levelo://app?vid=ac953eba-8b36-42a8-b2b0-1e3618a31ece"},"vehicle_type_id":"4","last_reported":1784207912,"current_range_meters":36000,"station_id":"ce4bhhp2rcd13ifvqfm0","pricing_plan_id":"cebpf4jnsgd1na2vs0mg"},{"bike_id":"31de24df-81f3-41c7-a8ce-7de881b782ff","system_id":"levelo_inurba_marseille","lat":43.27316,"lon":5.39096,"is_reserved":false,"is_disabled":false,"rental_uris":{"android":"levelo://app?vid=31de24df-81f3-41c7-a8ce-7de881b782ff","ios":"levelo://app?vid=31de24df-81f3-41c7-a8ce-7de881b782ff"},"vehicle_type_id":"4","last_reported":1784207912,"current_range_meters":12000,"station_id":"ce4bhgp2rcd13ifvqfe0","pricing_plan_id":"cebpf4jnsgd1na2vs0mg"},{"bike_id":"76b63993-96f7-484a-8343-5ea3ca2d69bf","system_id":"levelo_inurba_marseille","lat":43.27452,"lon":5.36131,"is_reserved":false,"is_disabled":false,"rental_uris":{"android":"levelo://app?vid=76b63993-96f7-484a-8343-5ea3ca2d69bf","ios":"levelo://app?vid=76b63993-96f7-484a-8343-5ea3ca2d69bf"},"vehicle_type_id":"4","last_reported":1784207912,"current_range_meters":31200,"station_id":"","pricing_plan_id":"cebpf4jnsgd1na2vs0mg"},{"bike_id":"3631541a-4963-4914-b39d-5dd1dfe19e96","system_id":"levelo_inurba_marseille","lat":43.26675,"lon":5.38262,"is_reserved":false,"is_disabled":false,"rental_uris":{"android":"levelo://app?vid=3631541a-4963-4914-b39d-5dd1dfe19e96","ios":"levelo://app?vid=3631541a-4963-4914-b39d-5dd1dfe19e96"},"vehicle_type_id":"4","last_reported":1784207912,"current_range_meters":32400,"station_id":"ce4bhg92rcd13ifvqf90","pricing_plan_id":"cebpf4jnsgd1na2vs0mg"},{"bike_id":"0355467a-4bf1-47dd-84f8-f9fae99cadaa","system_id":"levelo_inurba_marseille","lat":43.24081,"lon":5.37745,"is_reserved":false,"is_disabled":false,"rental_uris":{"android":"levelo://app?vid=0355467a-4bf1-47dd-84f8-f9fae99cadaa","ios":"levelo://app?vid=0355467a-4bf1-47dd-84f8-f9fae99cadaa"},"vehicle_type_id":"4","last_reported":1784207912,"current_range_meters":38400,"station_id":"ce4bhnp2rcd13ifvqgvg","pricing_plan_id":"cebpf4jnsgd1na2vs0mg"},{"bike_id":"b11daa28-49e7-4a13-8fae-a852f91c89cb","system_id":"levelo_inurba_marseille","lat":43.26199,"lon":5.3744,"is_reserved":false,"is_disabled":false,"rental_uris":{"android":"levelo://app?vid=b11daa28-49e7-4a13-8fae-a852f91c89cb","ios":"levelo://app?vid=b11daa28-49e7-4a13-8fae-a852f91c89cb"},"vehicle_type_id":"4","last_reported":1784207912,"current_range_meters":34800,"station_id":"ce4bhgp2rcd13ifvqfc0","pricing_plan_id":"cebpf4jnsgd1na2vs0mg"},{"bike_id":"b71cb193-3ff2-4137-bbb0-a3166d834714","system_id":"levelo_inurba_marseille","lat":43.30956,"lon":5.39053,"is_reserved":false,"is_disabled":false,"rental_uris":{"android":"levelo://app?vid=b71cb193-3ff2-4137-bbb0-a3166d834714","ios":"levelo://app?vid=b71cb193-3ff2-4137-bbb0-a3166d834714"},"vehicle_type_id":"4","last_reported":1784207912,"current_range_meters":39200,"station_id":"ce4bgup2rcd13ifvqco0","pricing_plan_id":"cebpf4jnsgd1na2vs0mg"},{"bike_id":"93f62aaf-97ab-422a-99e3-4c99e240ad11","system_id":"levelo_inurba_marseille","lat":43.26568,"lon":5.38984,"is_reserved":false,"is_disabled":true,"rental_uris":{"android":"levelo://app?vid=93f62aaf-97ab-422a-99e3-4c99e240ad11","ios":"levelo://app?vid=93f62aaf-97ab-422a-99e3-4c99e240ad11"},"vehicle_type_id":"4","last_reported":1784207912,"current_range_meters":39200,"station_id":"ce4bhe12rcd13ifvqf30","pricing_plan_id":"cebpf4jnsgd1na2vs0mg"},{"bike_id":"cef9f335-d3cb-476e-a882-38499e52d244","system_id":"levelo_inurba_marseille","lat":43.28859,"lon":5.39306,"is_reserved":false,"is_disabled":false,"rental_uris":{"android":"levelo://app?vid=cef9f335-d3cb-476e-a882-38499e52d244","ios":"levelo://app?vid=cef9f335-d3cb-476e-a882-38499e52d244"},"vehicle_type_id":"4","last_reported":1784207912,"current_range_meters":37600,"station_id":"ce4bh2p2rcd13ifvqdi0","pricing_plan_id":"cebpf4jnsgd1na2vs0mg"},{"bike_id":"168bbb48-b535-4ec7-a3d7-ae025c28f7cc","system_id":"levelo_inurba_marseille","lat":43.27187,"lon":5.40992,"is_reserved":false,"is_disabled":false,"rental_uris":{"android":"levelo://app?vid=168bbb48-b535-4ec7-a3d7-ae025c28f7cc","ios":"levelo://app?vid=168bbb48-b535-4ec7-a3d7-ae025c28f7cc"},"vehicle_type_id":"4","last_reported":1784207912,"current_range_meters":39200,"station_id":"ce4bhl12rcd13ifvqgf0","pricing_plan_id":"cebpf4jnsgd1na2vs0mg"},{"bike_id":"d749523d-f93c-49d0-8009-b305dd6d3874","system_id":"levelo_inurba_marseille","lat":43.25081,"lon":5.3953,"is_reserved":false,"is_disabled":false,"rental_uris":{"android":"levelo://app?vid=d749523d-f93c-49d0-8009-b305dd6d3874","ios":"levelo://app?vid=d749523d-f93c-49d0-8009-b305dd6d3874"},"vehicle_type_id":"4","last_reported":1784207912,"current_range_meters":24800,"station_id":"ce4bhm12rcd13ifvqgkg","pricing_plan_id":"cebpf4jnsgd1na2vs0mg"},{"bike_id":"d25cc7c1-b35c-40e8-95e1-17ff370eade9","system_id":"levelo_inurba_marseille","lat":43.24667,"lon":5.37858,"is_reserved":false,"is_disabled":false,"rental_uris":{"android":"levelo://app?vid=d25cc7c1-b35c-40e8-95e1-17ff370eade9","ios":"levelo://app?vid=d25cc7c1-b35c-40e8-95e1-17ff370eade9"},"vehicle_type_id":"4","last_reported":1784207912,"current_range_meters":18000,"station_id":"","pricing_plan_id":"cebpf4jnsgd1na2vs0mg"},{"bike_id":"1ca92ab6-dc16-48d3-9edf-e28ae5bfe10b","system_id":"levelo_inurba_marseille","lat":43.29993,"lon":5.37149,"is_reserved":false,"is_disabled":false,"rental_uris":{"android":"levelo://app?vid=1ca92ab6-dc16-48d3-9edf-e28ae5bfe10b","ios":"levelo://app?vid=1ca92ab6-dc16-48d3-9edf-e28ae5bfe10b"},"vehicle_type_id":"4","last_reported":1784207912,"current_range_meters":39200,"station_id":"ce4bgr92rcd13ifvqc7g","pricing_plan_id":"cebpf4jnsgd1na2vs0mg"},{"bike_id":"e71494cd-d4a8-436a-a5c6-260a2924500e","system_id":"levelo_inurba_marseille","lat":43.2623,"lon":5.38766,"is_reserved":false,"is_disabled":true,"rental_uris":{"android":"levelo://app?vid=e71494cd-d4a8-436a-a5c6-260a2924500e","ios":"levelo://app?vid=e71494cd-d4a8-436a-a5c6-260a2924500e"},"vehicle_type_id":"4","last_reported":1784207912,"current_range_meters":35200,"station_id":"st_d8gjfg747rts73coq3b0","pricing_plan_id":"cebpf4jnsgd1na2vs0mg"},{"bike_id":"4dd83e35-73dd-44b8-9d3c-9c21e3418d4e","system_id":"levelo_inurba_marseille","lat":43.27487,"lon":5.42552,"is_reserved":false,"is_disabled":false,"rental_uris":{"android":"levelo://app?vid=4dd83e35-73dd-44b8-9d3c-9c21e3418d4e","ios":"levelo://app?vid=4dd83e35-73dd-44b8-9d3c-9c21e3418d4e"},"vehicle_type_id":"4","last_reported":1784207912,"current_range_meters":17600,"station_id":"st_d8t4bh7nbrqs73arha60","pricing_plan_id":"cebpf4jnsgd1na2vs0mg"},{"bike_id":"013ea336-d828-44ac-a5f7-5f3385c8a12f","system_id":"levelo_inurba_marseille","lat":43.29211,"lon":5.38428,"is_reserved":false,"is_disabled":false,"rental_uris":{"android":"levelo://app?vid=013ea336-d828-44ac-a5f7-5f3385c8a12f","ios":"levelo://app?vid=013ea336-d828-44ac-a5f7-5f3385c8a12f"},"vehicle_type_id":"4","last_reported":1784207912,"current_range_meters":12800,"station_id":"","pricing_plan_id":"cebpf4jnsgd1na2vs0mg"},{"bike_id":"d6057eb2-9bb7-4bbb-9d1a-c165943bae0a","system_id":"levelo_inurba_marseille","lat":43.23964,"lon":5.36626,"is_reserved":false,"is_disabled":false,"rental_uris":{"android":"levelo://app?vid=d6057eb2-9bb7-4bbb-9d1a-c165943bae0a","ios":"levelo://app?vid=d6057eb2-9bb7-4bbb-9d1a-c165943bae0a"},"vehicle_type_id":"4","last_reported":1784207912,"current_range_meters":18800,"station_id":"ce4bhi12rcd13ifvqfp0","pricing_plan_id":"cebpf4jnsgd1na2vs0mg"},{"bike_id":"5369b032-dcc5-484a-9b18-671fceb20e9f","system_id":"levelo_inurba_marseille","lat":43.25012,"lon":5.38929,"is_reserved":false,"is_disabled":false,"rental_uris":{"android":"levelo://app?vid=5369b032-dcc5-484a-9b18-671fceb20e9f","ios":"levelo://app?vid=5369b032-dcc5-484a-9b18-671fceb20e9f"},"vehicle_type_id":"4","last_reported":1784207912,"current_range_meters":25200,"station_id":"ce4bhgp2rcd13ifvqfd0","pricing_plan_id":"cebpf4jnsgd1na2vs0mg"},{"bike_id":"daf11da9-09e4-45d4-814b-e16971bc59a4","system_id":"levelo_inurba_marseille","lat":43.27905,"lon":5.38744,"is_reserved":false,"is_disabled":true,"rental_uris":{"android":"levelo://app?vid=daf11da9-09e4-45d4-814b-e16971bc59a4","ios":"levelo://app?vid=daf11da9-09e4-45d4-814b-e16971bc59a4"},"vehicle_type_id":"4","last_reported":1784207912,"current_range_meters":28000,"station_id":"","pricing_plan_id":"cebpf4jnsgd1na2vs0mg"},{"bike_id":"a4d79a17-63b8-4c7f-b179-79ed9edf9240","system_id":"levelo_inurba_marseille","lat":43.33534,"lon":5.3747,"is_reserved":false,"is_disabled":false,"rental_uris":{"android":"levelo://app?vid=a4d79a17-63b8-4c7f-b179-79ed9edf9240","ios":"levelo://app?vid=a4d79a17-63b8-4c7f-b179-79ed9edf9240"},"vehicle_type_id":"4","last_reported":1784207912,"current_range_meters":36400,"station_id":"st_d46tts09ee8s73dlu43g","pricing_plan_id":"cebpf4jnsgd1na2vs0mg"},{"bike_id":"90f6d1b0-f982-4151-82d6-4e658e527ef7","system_id":"levelo_inurba_marseille","lat":43.25496,"lon":5.37641,"is_reserved":false,"is_disabled":false,"rental_uris":{"android":"levelo://app?vid=90f6d1b0-f982-4151-82d6-4e658e527ef7","ios":"levelo://app?vid=90f6d1b0-f982-4151-82d6-4e658e527ef7"},"vehicle_type_id":"4","last_reported":1784207912,"current_range_meters":39200,"station_id":"ce4bhh12rcd13ifvqff0","pricing_plan_id":"cebpf4jnsgd1na2vs0mg"},{"bike_id":"a67c06bc-a947-4bf2-a376-d76f28182aad","system_id":"levelo_inurba_marseille","lat":43.30005,"lon":5.37181,"is_reserved":false,"is_disabled":false,"rental_uris":{"android":"levelo://app?vid=a67c06bc-a947-4bf2-a376-d76f28182aad","ios":"levelo://app?vid=a67c06bc-a947-4bf2-a376-d76f28182aad"},"vehicle_type_id":"4","last_reported":1784207912,"current_range_meters":39200,"station_id":"ce4bgr92rcd13ifvqc7g","pricing_plan_id":"cebpf4jnsgd1na2vs0mg"},{"bike_id":"b0cd933b-bbe9-4ffc-9559-964b638a4754","system_id":"levelo_inurba_marseille","lat":43.29905,"lon":5.38146,"is_reserved":false,"is_disabled":false,"rental_uris":{"android":"levelo://app?vid=b0cd933b-bbe9-4ffc-9559-964b638a4754","ios":"levelo://app?vid=b0cd933b-bbe9-4ffc-9559-964b638a4754"},"vehicle_type_id":"4","last_reported":1784207912,"current_range_meters":18800,"station_id":"ce4bgj12rcd13ifvqbc0","pricing_plan_id":"cebpf4jnsgd1na2vs0mg"},{"bike_id":"b7b159b6-ba7d-4cd5-9705-b4bb03362319","system_id":"levelo_inurba_marseille","lat":43.28628,"lon":5.38376,"is_reserved":false,"is_disabled":false,"rental_uris":{"android":"levelo://app?vid=b7b159b6-ba7d-4cd5-9705-b4bb03362319","ios":"levelo://app?vid=b7b159b6-ba7d-4cd5-9705-b4bb03362319"},"vehicle_type_id":"4","last_reported":1784207912,"current_range_meters":15200,"station_id":"","pricing_plan_id":"cebpf4jnsgd1na2vs0mg"},{"bike_id":"80fb56c3-c297-4924-b0aa-a22c1dad003d","system_id":"levelo_inurba_marseille","lat":43.28871,"lon":5.42535,"is_reserved":false,"is_disabled":false,"rental_uris":{"android":"levelo://app?vid=80fb56c3-c297-4924-b0aa-a22c1dad003d","ios":"levelo://app?vid=80fb56c3-c297-4924-b0aa-a22c1dad003d"},"vehicle_type_id":"4","last_reported":1784207912,"current_range_meters":26000,"station_id":"st_d3b462108ojc7389ooeg","pricing_plan_id":"cebpf4jnsgd1na2vs0mg"},{"bike_id":"4d103531-dc76-4632-9ed6-3b8eae789ecc","system_id":"levelo_inurba_marseille","lat":43.32104,"lon":5.36784,"is_reserved":false,"is_disabled":false,"rental_uris":{"android":"levelo://app?vid=4d103531-dc76-4632-9ed6-3b8eae789ecc","ios":"levelo://app?vid=4d103531-dc76-4632-9ed6-3b8eae789ecc"},"vehicle_type_id":"4","last_reported":1784207912,"current_range_meters":19200,"station_id":"ce4bhrh2rcd13ifvqhug","pricing_plan_id":"cebpf4jnsgd1na2vs0mg"},{"bike_id":"16be90e9-43f9-4482-b73f-17dd0010f9f8","system_id":"levelo_inurba_marseille","lat":43.2679,"lon":5.39408,"is_reserved":false,"is_disabled":false,"rental_uris":{"android":"levelo://app?vid=16be90e9-43f9-4482-b73f-17dd0010f9f8","ios":"levelo://app?vid=16be90e9-43f9-4482-b73f-17dd0010f9f8"},"vehicle_type_id":"4","last_reported":1784207912,"current_range_meters":8000,"station_id":"ce4bhh12rcd13ifvqfg0","pricing_plan_id":"cebpf4jnsgd1na2vs0mg"},{"bike_id":"ef6880d0-6944-4f6a-8f40-6662368b8f75","system_id":"levelo_inurba_marseille","lat":43.31456,"lon":5.45408,"is_reserved":false,"is_disabled":false,"rental_uris":{"android":"levelo://app?vid=ef6880d0-6944-4f6a-8f40-6662368b8f75","ios":"levelo://app?vid=ef6880d0-6944-4f6a-8f40-6662368b8f75"},"vehicle_type_id":"4","last_reported":1784207912,"current_range_meters":18000,"station_id":"","pricing_plan_id":"cebpf4jnsgd1na2vs0mg"},{"bike_id":"520de34e-cad5-43e6-9d8d-25489f5f76d7","system_id":"levelo_inurba_marseille","lat":43.25581,"lon":5.38235,"is_reserved":false,"is_disabled":false,"rental_uris":{"android":"levelo://app?vid=520de34e-cad5-43e6-9d8d-25489f5f76d7","ios":"levelo://app?vid=520de34e-cad5-43e6-9d8d-25489f5f76d7"},"vehicle_type_id":"4","last_reported":1784207912,"current_range_meters":39200,"station_id":"ce4bhih2rcd13ifvqfs0","pricing_plan_id":"cebpf4jnsgd1na2vs0mg"},{"bike_id":"d62af5f0-7f8f-4a9a-a732-b93c66b9fb04","system_id":"levelo_inurba_marseille","lat":43.27983,"lon":5.41668,"is_reserved":false,"is_disabled":false,"rental_uris":{"android":"levelo://app?vid=d62af5f0-7f8f-4a9a-a732-b93c66b9fb04","ios":"levelo://app?vid=d62af5f0-7f8f-4a9a-a732-b93c66b9fb04"},"vehicle_type_id":"4","last_reported":1784207912,"current_range_meters":26800,"station_id":"ce4bho12rcd13ifvqh1g","pricing_plan_id":"cebpf4jnsgd1na2vs0mg"},{"bike_id":"d183c213-4177-4bf2-b9e0-24872be8a9c8","system_id":"levelo_inurba_marseille","lat":43.28475,"lon":5.48391,"is_reserved":false,"is_disabled":false,"rental_uris":{"android":"levelo://app?vid=d183c213-4177-4bf2-b9e0-24872be8a9c8","ios":"levelo://app?vid=d183c213-4177-4bf2-b9e0-24872be8a9c8"},"vehicle_type_id":"4","last_reported":1784207912,"current_range_meters":24000,"station_id":"st_d3svhcjqgbts73a3dn0g","pricing_plan_id":"cebpf4jnsgd1na2vs0mg"},{"bike_id":"2019d6d1-cb0d-4aa6-9cd9-0a5df7270fd1","system_id":"levelo_inurba_marseille","lat":43.26201,"lon":5.37428,"is_reserved":false,"is_disabled":false,"rental_uris":{"android":"levelo://app?vid=2019d6d1-cb0d-4aa6-9cd9-0a5df7270fd1","ios":"levelo://app?vid=2019d6d1-cb0d-4aa6-9cd9-0a5df7270fd1"},"vehicle_type_id":"4","last_reported":1784207912,"current_range_meters":39200,"station_id":"ce4bhgp2rcd13ifvqfc0","pricing_plan_id":"cebpf4jnsgd1na2vs0mg"},{"bike_id":"b0eee4fe-11fb-47a1-8f86-7ab257f96284","system_id":"levelo_inurba_marseille","lat":43.33145,"lon":5.37702,"is_reserved":false,"is_disabled":false,"rental_uris":{"android":"levelo://app?vid=b0eee4fe-11fb-47a1-8f86-7ab257f96284","ios":"levelo://app?vid=b0eee4fe-11fb-47a1-8f86-7ab257f96284"},"vehicle_type_id":"4","last_reported":1784207912,"current_range_meters":10800,"station_id":"st_d46cu089ee8s73dldbu0","pricing_plan_id":"cebpf4jnsgd1na2vs0mg"},{"bike_id":"77f0b611-8e54-40ee-804a-9a0ef852a88a","system_id":"levelo_inurba_marseille","lat":43.31199,"lon":5.3692,"is_reserved":false,"is_disabled":true,"rental_uris":{"android":"levelo://app?vid=77f0b611-8e54-40ee-804a-9a0ef852a88a","ios":"levelo://app?vid=77f0b611-8e54-40ee-804a-9a0ef852a88a"},"vehicle_type_id":"4","last_reported":1784207912,"current_range_meters":20400,"station_id":"","pricing_plan_id":"cebpf4jnsgd1na2vs0mg"},{"bike_id":"59d77890-465b-4fc5-a1fa-db3377c984c8","system_id":"levelo_inurba_marseille","lat":43.28288,"lon":5.3507,"is_reserved":false,"is_disabled":false,"rental_uris":{"android":"levelo://app?vid=59d77890-465b-4fc5-a1fa-db3377c984c8","ios":"levelo://app?vid=59d77890-465b-4fc5-a1fa-db3377c984c8"},"vehicle_type_id":"4","last_reported":1784207912,"current_range_meters":39200,"station_id":"ce4bhbp2rcd13ifvqerg","pricing_plan_id":"cebpf4jnsgd1na2vs0mg"},{"bike_id":"e4e2da61-31a3-435a-b1ec-9bb834559f2e","system_id":"levelo_inurba_marseille","lat":43.25007,"lon":5.38927,"is_reserved":false,"is_disabled":false,"rental_uris":{"android":"levelo://app?vid=e4e2da61-31a3-435a-b1ec-9bb834559f2e","ios":"levelo://app?vid=e4e2da61-31a3-435a-b1ec-9bb834559f2e"},"vehicle_type_id":"4","last_reported":1784207912,"current_range_meters":33600,"station_id":"ce4bhgp2rcd13ifvqfd0","pricing_plan_id":"cebpf4jnsgd1na2vs0mg"},{"bike_id":"e4b57b40-57f8-4ebb-9084-2876cf2f73ec","system_id":"levelo_inurba_marseille","lat":43.31302,"lon":5.36836,"is_reserved":false,"is_disabled":false,"rental_uris":{"android":"levelo://app?vid=e4b57b40-57f8-4ebb-9084-2876cf2f73ec","ios":"levelo://app?vid=e4b57b40-57f8-4ebb-9084-2876cf2f73ec"},"vehicle_type_id":"4","last_reported":1784207912,"current_range_meters":9200,"station_id":"","pricing_plan_id":"cebpf4jnsgd1na2vs0mg"},{"bike_id":"866aa9f7-ad6f-45bb-886c-f290137f6df3","system_id":"levelo_inurba_marseille","lat":43.26223,"lon":5.37403,"is_reserved":false,"is_disabled":false,"rental_uris":{"android":"levelo://app?vid=866aa9f7-ad6f-45bb-886c-f290137f6df3","ios":"levelo://app?vid=866aa9f7-ad6f-45bb-886c-f290137f6df3"},"vehicle_type_id":"4","last_reported":1784207912,"current_range_meters":19200,"station_id":"","pricing_plan_id":"cebpf4jnsgd1na2vs0mg"},{"bike_id":"3d9d15ce-5804-4209-b92a-723f598d0341","system_id":"levelo_inurba_marseille","lat":43.21158,"lon":5.3507,"is_reserved":false,"is_disabled":false,"rental_uris":{"android":"levelo://app?vid=3d9d15ce-5804-4209-b92a-723f598d0341","ios":"levelo://app?vid=3d9d15ce-5804-4209-b92a-723f598d0341"},"vehicle_type_id":"4","last_reported":1784207912,"current_range_meters":17600,"station_id":"st_cvj6sg6p6f1abm77japg","pricing_plan_id":"cebpf4jnsgd1na2vs0mg"},{"bike_id":"c25bb13f-78ac-46ad-85e2-c5fdfafeb5d8","system_id":"levelo_inurba_marseille","lat":43.30157,"lon":5.38088,"is_reserved":false,"is_disabled":false,"rental_uris":{"android":"levelo://app?vid=c25bb13f-78ac-46ad-85e2-c5fdfafeb5d8","ios":"levelo://app?vid=c25bb13f-78ac-46ad-85e2-c5fdfafeb5d8"},"vehicle_type_id":"4","last_reported":1784207912,"current_range_meters":16800,"station_id":"ce4bgjp2rcd13ifvqbh0","pricing_plan_id":"cebpf4jnsgd1na2vs0mg"},{"bike_id":"92f9377a-62ba-495b-8de9-1750140cdb94","system_id":"levelo_inurba_marseille","lat":43.29723,"lon":5.37126,"is_reserved":false,"is_disabled":false,"rental_uris":{"android":"levelo://app?vid=92f9377a-62ba-495b-8de9-1750140cdb94","ios":"levelo://app?vid=92f9377a-62ba-495b-8de9-1750140cdb94"},"vehicle_type_id":"4","last_reported":1784207912,"current_range_meters":38000,"station_id":"","pricing_plan_id":"cebpf4jnsgd1na2vs0mg"},{"bike_id":"6cd48a31-aaa8-4146-8aa2-c9360304ef60","system_id":"levelo_inurba_marseille","lat":43.27817,"lon":5.40711,"is_reserved":false,"is_disabled":false,"rental_uris":{"android":"levelo://app?vid=6cd48a31-aaa8-4146-8aa2-c9360304ef60","ios":"levelo://app?vid=6cd48a31-aaa8-4146-8aa2-c9360304ef60"},"vehicle_type_id":"4","last_reported":1784207912,"current_range_meters":13600,"station_id":"ce4bhnh2rcd13ifvqgtg","pricing_plan_id":"cebpf4jnsgd1na2vs0mg"},{"bike_id":"e1bb6861-ee59-438c-aa2a-2a553b2d6f43","system_id":"levelo_inurba_marseille","lat":43.27184,"lon":5.40991,"is_reserved":false,"is_disabled":true,"rental_uris":{"android":"levelo://app?vid=e1bb6861-ee59-438c-aa2a-2a553b2d6f43","ios":"levelo://app?vid=e1bb6861-ee59-438c-aa2a-2a553b2d6f43"},"vehicle_type_id":"4","last_reported":1784207912,"current_range_meters":37600,"station_id":"ce4bhl12rcd13ifvqgf0","pricing_plan_id":"cebpf4jnsgd1na2vs0mg"},{"bike_id":"d61f5f42-3266-4ab9-bc4e-5a83331a7ece","system_id":"levelo_inurba_marseille","lat":43.2558,"lon":5.38244,"is_reserved":false,"is_disabled":true,"rental_uris":{"android":"levelo://app?vid=d61f5f42-3266-4ab9-bc4e-5a83331a7ece","ios":"levelo://app?vid=d61f5f42-3266-4ab9-bc4e-5a83331a7ece"},"vehicle_type_id":"4","last_reported":1784207912,"current_range_meters":35600,"station_id":"ce4bhih2rcd13ifvqfs0","pricing_plan_id":"cebpf4jnsgd1na2vs0mg"},{"bike_id":"06097b1f-6886-48c9-a8e6-84f03d133de4","system_id":"levelo_inurba_marseille","lat":43.31344,"lon":5.43229,"is_reserved":false,"is_disabled":false,"rental_uris":{"android":"levelo://app?vid=06097b1f-6886-48c9-a8e6-84f03d133de4","ios":"levelo://app?vid=06097b1f-6886-48c9-a8e6-84f03d133de4"},"vehicle_type_id":"4","last_reported":1784207912,"current_range_meters":6400,"station_id":"","pricing_plan_id":"cebpf4jnsgd1na2vs0mg"},{"bike_id":"34c5b572-acfb-4138-9633-fe327799f420","system_id":"levelo_inurba_marseille","lat":43.29542,"lon":5.36126,"is_reserved":false,"is_disabled":true,"rental_uris":{"android":"levelo://app?vid=34c5b572-acfb-4138-9633-fe327799f420","ios":"levelo://app?vid=34c5b572-acfb-4138-9633-fe327799f420"},"vehicle_type_id":"4","last_reported":1784207912,"current_range_meters":35600,"station_id":"","pricing_plan_id":"cebpf4jnsgd1na2vs0mg"},{"bike_id":"c70a5a1a-1138-428e-9352-e5f388c6b2fe","system_id":"levelo_inurba_marseille","lat":43.33769,"lon":5.37452,"is_reserved":false,"is_disabled":false,"rental_uris":{"android":"levelo://app?vid=c70a5a1a-1138-428e-9352-e5f388c6b2fe","ios":"levelo://app?vid=c70a5a1a-1138-428e-9352-e5f388c6b2fe"},"vehicle_type_id":"4","last_reported":1784207912,"current_range_meters":30800,"station_id":"","pricing_plan_id":"cebpf4jnsgd1na2vs0mg"},{"bike_id":"448ab149-1e23-45d2-8d41-536c144b6b21","system_id":"levelo_inurba_marseille","lat":43.31758,"lon":5.39013,"is_reserved":false,"is_disabled":false,"rental_uris":{"android":"levelo://app?vid=448ab149-1e23-45d2-8d41-536c144b6b21","ios":"levelo://app?vid=448ab149-1e23-45d2-8d41-536c144b6b21"},"vehicle_type_id":"4","last_reported":1784207912,"current_range_meters":18800,"station_id":"ce4bhqp2rcd13ifvqhng","pricing_plan_id":"cebpf4jnsgd1na2vs0mg"},{"bike_id":"e4069052-09f3-4aad-a4cf-82efe46eca69","system_id":"levelo_inurba_marseille","lat":43.24393,"lon":5.37045,"is_reserved":false,"is_disabled":false,"rental_uris":{"android":"levelo://app?vid=e4069052-09f3-4aad-a4cf-82efe46eca69","ios":"levelo://app?vid=e4069052-09f3-4aad-a4cf-82efe46eca69"},"vehicle_type_id":"4","last_reported":1784207912,"current_range_meters":39200,"station_id":"ce4bhhh2rcd13ifvqfk0","pricing_plan_id":"cebpf4jnsgd1na2vs0mg"},{"bike_id":"2623e023-e953-40ac-8068-15d2169ca99d","system_id":"levelo_inurba_marseille","lat":43.28692,"lon":5.46694,"is_reserved":false,"is_disabled":false,"rental_uris":{"android":"levelo://app?vid=2623e023-e953-40ac-8068-15d2169ca99d","ios":"levelo://app?vid=2623e023-e953-40ac-8068-15d2169ca99d"},"vehicle_type_id":"4","last_reported":1784207912,"current_range_meters":9600,"station_id":"st_d6tc3vkotcvc738tfjhg","pricing_plan_id":"cebpf4jnsgd1na2vs0mg"},{"bike_id":"7a5203cf-b3c3-4680-afa1-0e3d4d1fb7e2","system_id":"levelo_inurba_marseille","lat":43.23887,"lon":5.37458,"is_reserved":false,"is_disabled":false,"rental_uris":{"android":"levelo://app?vid=7a5203cf-b3c3-4680-afa1-0e3d4d1fb7e2","ios":"levelo://app?vid=7a5203cf-b3c3-4680-afa1-0e3d4d1fb7e2"},"vehicle_type_id":"4","last_reported":1784207912,"current_range_meters":37600,"station_id":"st_d6sm7csbq4hs73f8fpjg","pricing_plan_id":"cebpf4jnsgd1na2vs0mg"},{"bike_id":"69b6ed8c-1f17-46c2-8d4a-815055a3a3c4","system_id":"levelo_inurba_marseille","lat":43.28995,"lon":5.35623,"is_reserved":false,"is_disabled":true,"rental_uris":{"android":"levelo://app?vid=69b6ed8c-1f17-46c2-8d4a-815055a3a3c4","ios":"levelo://app?vid=69b6ed8c-1f17-46c2-8d4a-815055a3a3c4"},"vehicle_type_id":"4","last_reported":1784207912,"current_range_meters":39200,"station_id":"ce4bhb92rcd13ifvqen0","pricing_plan_id":"cebpf4jnsgd1na2vs0mg"},{"bike_id":"a5b1dda6-7d08-4e06-9cec-2ce751bb0ae6","system_id":"levelo_inurba_marseille","lat":43.32058,"lon":5.4152,"is_reserved":false,"is_disabled":false,"rental_uris":{"android":"levelo://app?vid=a5b1dda6-7d08-4e06-9cec-2ce751bb0ae6","ios":"levelo://app?vid=a5b1dda6-7d08-4e06-9cec-2ce751bb0ae6"},"vehicle_type_id":"4","last_reported":1784207912,"current_range_meters":38000,"station_id":"ce4bhq92rcd13ifvqhkg","pricing_plan_id":"cebpf4jnsgd1na2vs0mg"},{"bike_id":"808d2ec1-3935-40a5-96bc-b4bf46a290f6","system_id":"levelo_inurba_marseille","lat":43.29253,"lon":5.40161,"is_reserved":false,"is_disabled":true,"rental_uris":{"android":"levelo://app?vid=808d2ec1-3935-40a5-96bc-b4bf46a290f6","ios":"levelo://app?vid=808d2ec1-3935-40a5-96bc-b4bf46a290f6"},"vehicle_type_id":"4","last_reported":1784207912,"current_range_meters":37600,"station_id":"","pricing_plan_id":"cebpf4jnsgd1na2vs0mg"},{"bike_id":"f9b04cff-0426-44bb-9440-4e9193de90d6","system_id":"levelo_inurba_marseille","lat":43.31281,"lon":5.36884,"is_reserved":false,"is_disabled":false,"rental_uris":{"android":"levelo://app?vid=f9b04cff-0426-44bb-9440-4e9193de90d6","ios":"levelo://app?vid=f9b04cff-0426-44bb-9440-4e9193de90d6"},"vehicle_type_id":"4","last_reported":1784207912,"current_range_meters":38800,"station_id":"","pricing_plan_id":"cebpf4jnsgd1na2vs0mg"},{"bike_id":"3053ec42-cb15-404e-a983-c810418476e1","system_id":"levelo_inurba_marseille","lat":43.27986,"lon":5.38279,"is_reserved":false,"is_disabled":false,"rental_uris":{"android":"levelo://app?vid=3053ec42-cb15-404e-a983-c810418476e1","ios":"levelo://app?vid=3053ec42-cb15-404e-a983-c810418476e1"},"vehicle_type_id":"4","last_reported":1784207912,"current_range_meters":28800,"station_id":"","pricing_plan_id":"cebpf4jnsgd1na2vs0mg"},{"bike_id":"bb488b4b-6882-405e-bce6-d6c947c7b189","system_id":"levelo_inurba_marseille","lat":43.29956,"lon":5.37142,"is_reserved":false,"is_disabled":false,"rental_uris":{"android":"levelo://app?vid=bb488b4b-6882-405e-bce6-d6c947c7b189","ios":"levelo://app?vid=bb488b4b-6882-405e-bce6-d6c947c7b189"},"vehicle_type_id":"4","last_reported":1784207912,"current_range_meters":34800,"station_id":"ce4bgr92rcd13ifvqc7g","pricing_plan_id":"cebpf4jnsgd1na2vs0mg"},{"bike_id":"10ef5bd0-f130-4452-b7f2-391aef329ae1","system_id":"levelo_inurba_marseille","lat":43.28175,"lon":5.42719,"is_reserved":false,"is_disabled":false,"rental_uris":{"android":"levelo://app?vid=10ef5bd0-f130-4452-b7f2-391aef329ae1","ios":"levelo://app?vid=10ef5bd0-f130-4452-b7f2-391aef329ae1"},"vehicle_type_id":"4","last_reported":1784207912,"current_range_meters":36400,"station_id":"","pricing_plan_id":"cebpf4jnsgd1na2vs0mg"},{"bike_id":"dc6c3e72-c6f7-41ad-a1e1-9713f0efd569","system_id":"levelo_inurba_marseille","lat":43.25909,"lon":5.40902,"is_reserved":false,"is_disabled":false,"rental_uris":{"android":"levelo://app?vid=dc6c3e72-c6f7-41ad-a1e1-9713f0efd569","ios":"levelo://app?vid=dc6c3e72-c6f7-41ad-a1e1-9713f0efd569"},"vehicle_type_id":"4","last_reported":1784207912,"current_range_meters":39200,"station_id":"ce4bhm92rcd13ifvqglg","pricing_plan_id":"cebpf4jnsgd1na2vs0mg"},{"bike_id":"8ba7f2d6-52d3-4c56-b19a-19a142e62779","system_id":"levelo_inurba_marseille","lat":43.24077,"lon":5.37761,"is_reserved":false,"is_disabled":false,"rental_uris":{"android":"levelo://app?vid=8ba7f2d6-52d3-4c56-b19a-19a142e62779","ios":"levelo://app?vid=8ba7f2d6-52d3-4c56-b19a-19a142e62779"},"vehicle_type_id":"4","last_reported":1784207912,"current_range_meters":19600,"station_id":"ce4bhnp2rcd13ifvqgvg","pricing_plan_id":"cebpf4jnsgd1na2vs0mg"},{"bike_id":"3df7b3ee-3083-4a49-a1f1-8ec2f9d7ba3b","system_id":"levelo_inurba_marseille","lat":43.26076,"lon":5.39392,"is_reserved":false,"is_disabled":false,"rental_uris":{"android":"levelo://app?vid=3df7b3ee-3083-4a49-a1f1-8ec2f9d7ba3b","ios":"levelo://app?vid=3df7b3ee-3083-4a49-a1f1-8ec2f9d7ba3b"},"vehicle_type_id":"4","last_reported":1784207912,"current_range_meters":31200,"station_id":"ce4bhh92rcd13ifvqfj0","pricing_plan_id":"cebpf4jnsgd1na2vs0mg"},{"bike_id":"692e39d8-285b-41d0-a15a-1de09e6388a5","system_id":"levelo_inurba_marseille","lat":43.24797,"lon":5.37449,"is_reserved":false,"is_disabled":false,"rental_uris":{"android":"levelo://app?vid=692e39d8-285b-41d0-a15a-1de09e6388a5","ios":"levelo://app?vid=692e39d8-285b-41d0-a15a-1de09e6388a5"},"vehicle_type_id":"4","last_reported":1784207912,"current_range_meters":38800,"station_id":"ce4bhgh2rcd13ifvqfb0","pricing_plan_id":"cebpf4jnsgd1na2vs0mg"},{"bike_id":"06673c14-94ed-4eb5-ac49-41767b0b5282","system_id":"levelo_inurba_marseille","lat":43.265481,"lon":5.372848,"is_reserved":false,"is_disabled":false,"rental_uris":{"android":"levelo://app?vid=06673c14-94ed-4eb5-ac49-41767b0b5282","ios":"levelo://app?vid=06673c14-94ed-4eb5-ac49-41767b0b5282"},"vehicle_type_id":"4","last_reported":1784207912,"current_range_meters":36000,"station_id":"ce4bhgh2rcd13ifvqfa0","pricing_plan_id":"cebpf4jnsgd1na2vs0mg"},{"bike_id":"95ca0487-d239-4a69-ad73-d33a3a40fd9b","system_id":"levelo_inurba_marseille","lat":43.30547,"lon":5.36761,"is_reserved":false,"is_disabled":false,"rental_uris":{"android":"levelo://app?vid=95ca0487-d239-4a69-ad73-d33a3a40fd9b","ios":"levelo://app?vid=95ca0487-d239-4a69-ad73-d33a3a40fd9b"},"vehicle_type_id":"4","last_reported":1784207912,"current_range_meters":14800,"station_id":"ce4bgrp2rcd13ifvqc9g","pricing_plan_id":"cebpf4jnsgd1na2vs0mg"},{"bike_id":"57091f55-05a7-48f3-b9de-2a363c338c85","system_id":"levelo_inurba_marseille","lat":43.23892,"lon":5.37451,"is_reserved":false,"is_disabled":false,"rental_uris":{"android":"levelo://app?vid=57091f55-05a7-48f3-b9de-2a363c338c85","ios":"levelo://app?vid=57091f55-05a7-48f3-b9de-2a363c338c85"},"vehicle_type_id":"4","last_reported":1784207912,"current_range_meters":40000,"station_id":"st_d6sm7csbq4hs73f8fpjg","pricing_plan_id":"cebpf4jnsgd1na2vs0mg"},{"bike_id":"5ee03f4b-159d-426a-a2ca-0b6a084e3698","system_id":"levelo_inurba_marseille","lat":43.23779,"lon":5.36626,"is_reserved":false,"is_disabled":false,"rental_uris":{"android":"levelo://app?vid=5ee03f4b-159d-426a-a2ca-0b6a084e3698","ios":"levelo://app?vid=5ee03f4b-159d-426a-a2ca-0b6a084e3698"},"vehicle_type_id":"4","last_reported":1784207912,"current_range_meters":32400,"station_id":"st_d3nk18o9ro0c73en2l3g","pricing_plan_id":"cebpf4jnsgd1na2vs0mg"},{"bike_id":"e9700518-bfab-4e19-9c8e-e3cb6414cf72","system_id":"levelo_inurba_marseille","lat":43.29187,"lon":5.35802,"is_reserved":false,"is_disabled":true,"rental_uris":{"android":"levelo://app?vid=e9700518-bfab-4e19-9c8e-e3cb6414cf72","ios":"levelo://app?vid=e9700518-bfab-4e19-9c8e-e3cb6414cf72"},"vehicle_type_id":"4","last_reported":1784207912,"current_range_meters":16000,"station_id":"ce4bhb12rcd13ifvqel0","pricing_plan_id":"cebpf4jnsgd1na2vs0mg"},{"bike_id":"4474154d-4ccb-41d1-b816-cd3782e9caee","system_id":"levelo_inurba_marseille","lat":43.24177,"lon":5.39733,"is_reserved":false,"is_disabled":false,"rental_uris":{"android":"levelo://app?vid=4474154d-4ccb-41d1-b816-cd3782e9caee","ios":"levelo://app?vid=4474154d-4ccb-41d1-b816-cd3782e9caee"},"vehicle_type_id":"4","last_reported":1784207912,"current_range_meters":12400,"station_id":"ce4bhn12rcd13ifvqgpg","pricing_plan_id":"cebpf4jnsgd1na2vs0mg"},{"bike_id":"be85f3c5-db5c-4ace-b7e4-24748fb3f4a4","system_id":"levelo_inurba_marseille","lat":43.28268,"lon":5.35079,"is_reserved":false,"is_disabled":false,"rental_uris":{"android":"levelo://app?vid=be85f3c5-db5c-4ace-b7e4-24748fb3f4a4","ios":"levelo://app?vid=be85f3c5-db5c-4ace-b7e4-24748fb3f4a4"},"vehicle_type_id":"4","last_reported":1784207912,"current_range_meters":38400,"station_id":"ce4bhbp2rcd13ifvqerg","pricing_plan_id":"cebpf4jnsgd1na2vs0mg"},{"bike_id":"ac84ea2b-27b9-42b3-9dda-35721fc128f1","system_id":"levelo_inurba_marseille","lat":43.29688,"lon":5.40091,"is_reserved":false,"is_disabled":false,"rental_uris":{"android":"levelo://app?vid=ac84ea2b-27b9-42b3-9dda-35721fc128f1","ios":"levelo://app?vid=ac84ea2b-27b9-42b3-9dda-35721fc128f1"},"vehicle_type_id":"4","last_reported":1784207912,"current_range_meters":27600,"station_id":"","pricing_plan_id":"cebpf4jnsgd1na2vs0mg"},{"bike_id":"37f24aa5-1057-468b-97f5-57f784dbd975","system_id":"levelo_inurba_marseille","lat":43.2886,"lon":5.35846,"is_reserved":false,"is_disabled":false,"rental_uris":{"android":"levelo://app?vid=37f24aa5-1057-468b-97f5-57f784dbd975","ios":"levelo://app?vid=37f24aa5-1057-468b-97f5-57f784dbd975"},"vehicle_type_id":"4","last_reported":1784207912,"current_range_meters":33600,"station_id":"ce4bhb12rcd13ifvqem0","pricing_plan_id":"cebpf4jnsgd1na2vs0mg"},{"bike_id":"e0803759-cfd9-40f6-9087-4b2836a17e9a","system_id":"levelo_inurba_marseille","lat":43.24173,"lon":5.36408,"is_reserved":false,"is_disabled":false,"rental_uris":{"android":"levelo://app?vid=e0803759-cfd9-40f6-9087-4b2836a17e9a","ios":"levelo://app?vid=e0803759-cfd9-40f6-9087-4b2836a17e9a"},"vehicle_type_id":"4","last_reported":1784207912,"current_range_meters":22400,"station_id":"cpo36qri1sfpv3e86is0","pricing_plan_id":"cebpf4jnsgd1na2vs0mg"},{"bike_id":"4a7eaf6c-ea42-4513-9dcf-f7f08fab0fdb","system_id":"levelo_inurba_marseille","lat":43.31368,"lon":5.38166,"is_reserved":false,"is_disabled":false,"rental_uris":{"android":"levelo://app?vid=4a7eaf6c-ea42-4513-9dcf-f7f08fab0fdb","ios":"levelo://app?vid=4a7eaf6c-ea42-4513-9dcf-f7f08fab0fdb"},"vehicle_type_id":"4","last_reported":1784207912,"current_range_meters":22800,"station_id":"","pricing_plan_id":"cebpf4jnsgd1na2vs0mg"},{"bike_id":"34b4978e-492d-4d36-a2d7-7a18159a1fee","system_id":"levelo_inurba_marseille","lat":43.24644,"lon":5.38161,"is_reserved":false,"is_disabled":false,"rental_uris":{"android":"levelo://app?vid=34b4978e-492d-4d36-a2d7-7a18159a1fee","ios":"levelo://app?vid=34b4978e-492d-4d36-a2d7-7a18159a1fee"},"vehicle_type_id":"4","last_reported":1784207912,"current_range_meters":24800,"station_id":"ce4bhih2rcd13ifvqfr0","pricing_plan_id":"cebpf4jnsgd1na2vs0mg"},{"bike_id":"48994d76-6212-4f50-b524-dc85f9f2007a","system_id":"levelo_inurba_marseille","lat":43.31686,"lon":5.40464,"is_reserved":false,"is_disabled":false,"rental_uris":{"android":"levelo://app?vid=48994d76-6212-4f50-b524-dc85f9f2007a","ios":"levelo://app?vid=48994d76-6212-4f50-b524-dc85f9f2007a"},"vehicle_type_id":"4","last_reported":1784207912,"current_range_meters":25200,"station_id":"ce4bh012rcd13ifvqd00","pricing_plan_id":"cebpf4jnsgd1na2vs0mg"},{"bike_id":"30aa77a3-d3f3-4a13-8baa-78f619385def","system_id":"levelo_inurba_marseille","lat":43.30154,"lon":5.38088,"is_reserved":false,"is_disabled":false,"rental_uris":{"android":"levelo://app?vid=30aa77a3-d3f3-4a13-8baa-78f619385def","ios":"levelo://app?vid=30aa77a3-d3f3-4a13-8baa-78f619385def"},"vehicle_type_id":"4","last_reported":1784207912,"current_range_meters":30800,"station_id":"ce4bgjp2rcd13ifvqbh0","pricing_plan_id":"cebpf4jnsgd1na2vs0mg"},{"bike_id":"faf68864-cf80-40f3-9cc5-49e0641de807","system_id":"levelo_inurba_marseille","lat":43.25082,"lon":5.39523,"is_reserved":false,"is_disabled":false,"rental_uris":{"android":"levelo://app?vid=faf68864-cf80-40f3-9cc5-49e0641de807","ios":"levelo://app?vid=faf68864-cf80-40f3-9cc5-49e0641de807"},"vehicle_type_id":"4","last_reported":1784207912,"current_range_meters":32000,"station_id":"ce4bhm12rcd13ifvqgkg","pricing_plan_id":"cebpf4jnsgd1na2vs0mg"},{"bike_id":"2a2b993b-81f0-401e-a094-df30ccdca63f","system_id":"levelo_inurba_marseille","lat":43.28862,"lon":5.4253,"is_reserved":false,"is_disabled":false,"rental_uris":{"android":"levelo://app?vid=2a2b993b-81f0-401e-a094-df30ccdca63f","ios":"levelo://app?vid=2a2b993b-81f0-401e-a094-df30ccdca63f"},"vehicle_type_id":"4","last_reported":1784207912,"current_range_meters":38400,"station_id":"st_d3b462108ojc7389ooeg","pricing_plan_id":"cebpf4jnsgd1na2vs0mg"},{"bike_id":"f28778c3-e442-4abf-b34f-181253a8e0be","system_id":"levelo_inurba_marseille","lat":43.28442,"lon":5.3921,"is_reserved":false,"is_disabled":false,"rental_uris":{"android":"levelo://app?vid=f28778c3-e442-4abf-b34f-181253a8e0be","ios":"levelo://app?vid=f28778c3-e442-4abf-b34f-181253a8e0be"},"vehicle_type_id":"4","last_reported":1784207912,"current_range_meters":23200,"station_id":"ce4bhoh2rcd13ifvqh5g","pricing_plan_id":"cebpf4jnsgd1na2vs0mg"},{"bike_id":"d0dca651-580c-4704-be18-23cce9e78d40","system_id":"levelo_inurba_marseille","lat":43.23966,"lon":5.36647,"is_reserved":false,"is_disabled":false,"rental_uris":{"android":"levelo://app?vid=d0dca651-580c-4704-be18-23cce9e78d40","ios":"levelo://app?vid=d0dca651-580c-4704-be18-23cce9e78d40"},"vehicle_type_id":"4","last_reported":1784207912,"current_range_meters":14000,"station_id":"ce4bhi12rcd13ifvqfp0","pricing_plan_id":"cebpf4jnsgd1na2vs0mg"},{"bike_id":"81587832-75ed-49cd-91c3-f57f9b8cec45","system_id":"levelo_inurba_marseille","lat":43.29036,"lon":5.35919,"is_reserved":false,"is_disabled":true,"rental_uris":{"android":"levelo://app?vid=81587832-75ed-49cd-91c3-f57f9b8cec45","ios":"levelo://app?vid=81587832-75ed-49cd-91c3-f57f9b8cec45"},"vehicle_type_id":"4","last_reported":1784207912,"current_range_meters":16000,"station_id":"ce4bha92rcd13ifvqeg0","pricing_plan_id":"cebpf4jnsgd1na2vs0mg"},{"bike_id":"8deb3600-2562-4b5b-8b48-f7ad78cdf8dc","system_id":"levelo_inurba_marseille","lat":43.29004,"lon":5.35625,"is_reserved":false,"is_disabled":false,"rental_uris":{"android":"levelo://app?vid=8deb3600-2562-4b5b-8b48-f7ad78cdf8dc","ios":"levelo://app?vid=8deb3600-2562-4b5b-8b48-f7ad78cdf8dc"},"vehicle_type_id":"4","last_reported":1784207912,"current_range_meters":38400,"station_id":"ce4bhgp2rcd13ifvqfc0","pricing_plan_id":"cebpf4jnsgd1na2vs0mg"},{"bike_id":"91e9874e-f69b-4033-bc2f-90b3c0abdfd7","system_id":"levelo_inurba_marseille","lat":43.30431,"lon":5.37788,"is_reserved":false,"is_disabled":false,"rental_uris":{"android":"levelo://app?vid=91e9874e-f69b-4033-bc2f-90b3c0abdfd7","ios":"levelo://app?vid=91e9874e-f69b-4033-bc2f-90b3c0abdfd7"},"vehicle_type_id":"4","last_reported":1784207912,"current_range_meters":25600,"station_id":"","pricing_plan_id":"cebpf4jnsgd1na2vs0mg"},{"bike_id":"c6ac626d-aef6-478f-8af0-d0de9fa8be85","system_id":"levelo_inurba_marseille","lat":43.22712,"lon":5.34834,"is_reserved":false,"is_disabled":false,"rental_uris":{"android":"levelo://app?vid=c6ac626d-aef6-478f-8af0-d0de9fa8be85","ios":"levelo://app?vid=c6ac626d-aef6-478f-8af0-d0de9fa8be85"},"vehicle_type_id":"4","last_reported":1784207912,"current_range_meters":8800,"station_id":"","pricing_plan_id":"cebpf4jnsgd1na2vs0mg"},{"bike_id":"c9da7c47-759b-4f0e-a2b7-3e4fe38d40ca","system_id":"levelo_inurba_marseille","lat":43.26734,"lon":5.39524,"is_reserved":false,"is_disabled":false,"rental_uris":{"android":"levelo://app?vid=c9da7c47-759b-4f0e-a2b7-3e4fe38d40ca","ios":"levelo://app?vid=c9da7c47-759b-4f0e-a2b7-3e4fe38d40ca"},"vehicle_type_id":"4","last_reported":1784207912,"current_range_meters":36000,"station_id":"","pricing_plan_id":"cebpf4jnsgd1na2vs0mg"},{"bike_id":"e8976180-d139-402b-b8a5-104a73f8a7c2","system_id":"levelo_inurba_marseille","lat":43.29926,"lon":5.43055,"is_reserved":false,"is_disabled":false,"rental_uris":{"android":"levelo://app?vid=e8976180-d139-402b-b8a5-104a73f8a7c2","ios":"levelo://app?vid=e8976180-d139-402b-b8a5-104a73f8a7c2"},"vehicle_type_id":"4","last_reported":1784207912,"current_range_meters":16800,"station_id":"","pricing_plan_id":"cebpf4jnsgd1na2vs0mg"},{"bike_id":"a10f3047-8a4f-4ff8-abec-fcc08107593c","system_id":"levelo_inurba_marseille","lat":43.29521,"lon":5.37533,"is_reserved":false,"is_disabled":false,"rental_uris":{"android":"levelo://app?vid=a10f3047-8a4f-4ff8-abec-fcc08107593c","ios":"levelo://app?vid=a10f3047-8a4f-4ff8-abec-fcc08107593c"},"vehicle_type_id":"4","last_reported":1784207912,"current_range_meters":24000,"station_id":"ce4bgkp2rcd13ifvqbmg","pricing_plan_id":"cebpf4jnsgd1na2vs0mg"},{"bike_id":"a8cbe85b-1195-443f-8f59-7d4769faf0a9","system_id":"levelo_inurba_marseille","lat":43.29693,"lon":5.37708,"is_reserved":false,"is_disabled":false,"rental_uris":{"android":"levelo://app?vid=a8cbe85b-1195-443f-8f59-7d4769faf0a9","ios":"levelo://app?vid=a8cbe85b-1195-443f-8f59-7d4769faf0a9"},"vehicle_type_id":"4","last_reported":1784207912,"current_range_meters":22400,"station_id":"ce4bgkh2rcd13ifvqbl0","pricing_plan_id":"cebpf4jnsgd1na2vs0mg"},{"bike_id":"0c964dab-40ec-49b5-8e4d-a4ff83f48bf2","system_id":"levelo_inurba_marseille","lat":43.27946,"lon":5.39107,"is_reserved":false,"is_disabled":false,"rental_uris":{"android":"levelo://app?vid=0c964dab-40ec-49b5-8e4d-a4ff83f48bf2","ios":"levelo://app?vid=0c964dab-40ec-49b5-8e4d-a4ff83f48bf2"},"vehicle_type_id":"4","last_reported":1784207912,"current_range_meters":28800,"station_id":"","pricing_plan_id":"cebpf4jnsgd1na2vs0mg"},{"bike_id":"c1690c5a-45f6-4c55-a9de-047ed94825fe","system_id":"levelo_inurba_marseille","lat":43.30061,"lon":5.38581,"is_reserved":false,"is_disabled":false,"rental_uris":{"android":"levelo://app?vid=c1690c5a-45f6-4c55-a9de-047ed94825fe","ios":"levelo://app?vid=c1690c5a-45f6-4c55-a9de-047ed94825fe"},"vehicle_type_id":"4","last_reported":1784207912,"current_range_meters":5600,"station_id":"","pricing_plan_id":"cebpf4jnsgd1na2vs0mg"},{"bike_id":"7ff8118f-6c81-4cdf-8a1d-4753d954065d","system_id":"levelo_inurba_marseille","lat":43.29582,"lon":5.38005,"is_reserved":false,"is_disabled":false,"rental_uris":{"android":"levelo://app?vid=7ff8118f-6c81-4cdf-8a1d-4753d954065d","ios":"levelo://app?vid=7ff8118f-6c81-4cdf-8a1d-4753d954065d"},"vehicle_type_id":"4","last_reported":1784207912,"current_range_meters":13600,"station_id":"","pricing_plan_id":"cebpf4jnsgd1na2vs0mg"},{"bike_id":"7d9aee17-e1b8-4f5e-bcad-64c7c24e1aaf","system_id":"levelo_inurba_marseille","lat":43.29255,"lon":5.40876,"is_reserved":false,"is_disabled":false,"rental_uris":{"android":"levelo://app?vid=7d9aee17-e1b8-4f5e-bcad-64c7c24e1aaf","ios":"levelo://app?vid=7d9aee17-e1b8-4f5e-bcad-64c7c24e1aaf"},"vehicle_type_id":"4","last_reported":1784207912,"current_range_meters":33600,"station_id":"ce4bh192rcd13ifvqdc0","pricing_plan_id":"cebpf4jnsgd1na2vs0mg"},{"bike_id":"de163011-6b02-44c4-8d7f-1c724f9579ae","system_id":"levelo_inurba_marseille","lat":43.28548,"lon":5.44106,"is_reserved":false,"is_disabled":false,"rental_uris":{"android":"levelo://app?vid=de163011-6b02-44c4-8d7f-1c724f9579ae","ios":"levelo://app?vid=de163011-6b02-44c4-8d7f-1c724f9579ae"},"vehicle_type_id":"4","last_reported":1784207912,"current_range_meters":39200,"station_id":"st_d3j3df2ikq2c7380ej80","pricing_plan_id":"cebpf4jnsgd1na2vs0mg"},{"bike_id":"4b1d31e0-35cd-49e1-a3b8-c714daf247d0","system_id":"levelo_inurba_marseille","lat":43.29914,"lon":5.38158,"is_reserved":false,"is_disabled":false,"rental_uris":{"android":"levelo://app?vid=4b1d31e0-35cd-49e1-a3b8-c714daf247d0","ios":"levelo://app?vid=4b1d31e0-35cd-49e1-a3b8-c714daf247d0"},"vehicle_type_id":"4","last_reported":1784207912,"current_range_meters":24000,"station_id":"ce4bgj12rcd13ifvqbc0","pricing_plan_id":"cebpf4jnsgd1na2vs0mg"},{"bike_id":"fc2a636f-f5ac-470d-96a8-c91135e5e893","system_id":"levelo_inurba_marseille","lat":43.3248,"lon":5.36575,"is_reserved":false,"is_disabled":false,"rental_uris":{"android":"levelo://app?vid=fc2a636f-f5ac-470d-96a8-c91135e5e893","ios":"levelo://app?vid=fc2a636f-f5ac-470d-96a8-c91135e5e893"},"vehicle_type_id":"4","last_reported":1784207912,"current_range_meters":38000,"station_id":"ce4bhs12rcd13ifvqhvg","pricing_plan_id":"cebpf4jnsgd1na2vs0mg"},{"bike_id":"85a4d53f-ecc2-4f90-92b3-b1377b3945e1","system_id":"levelo_inurba_marseille","lat":43.25828,"lon":5.39441,"is_reserved":false,"is_disabled":false,"rental_uris":{"android":"levelo://app?vid=85a4d53f-ecc2-4f90-92b3-b1377b3945e1","ios":"levelo://app?vid=85a4d53f-ecc2-4f90-92b3-b1377b3945e1"},"vehicle_type_id":"4","last_reported":1784207912,"current_range_meters":4800,"station_id":"ce4bhip2rcd13ifvqft0","pricing_plan_id":"cebpf4jnsgd1na2vs0mg"},{"bike_id":"e4ec1182-9638-464e-8e60-c34432d8b038","system_id":"levelo_inurba_marseille","lat":43.26567,"lon":5.37295,"is_reserved":false,"is_disabled":false,"rental_uris":{"android":"levelo://app?vid=e4ec1182-9638-464e-8e60-c34432d8b038","ios":"levelo://app?vid=e4ec1182-9638-464e-8e60-c34432d8b038"},"vehicle_type_id":"4","last_reported":1784207912,"current_range_meters":27200,"station_id":"ce4bhg12rcd13ifvqf70","pricing_plan_id":"cebpf4jnsgd1na2vs0mg"},{"bike_id":"a247da4a-95f5-41ab-b69a-31fd794dacd4","system_id":"levelo_inurba_marseille","lat":43.31489,"lon":5.37319,"is_reserved":false,"is_disabled":false,"rental_uris":{"android":"levelo://app?vid=a247da4a-95f5-41ab-b69a-31fd794dacd4","ios":"levelo://app?vid=a247da4a-95f5-41ab-b69a-31fd794dacd4"},"vehicle_type_id":"4","last_reported":1784207912,"current_range_meters":39200,"station_id":"ce4bgt12rcd13ifvqcd0","pricing_plan_id":"cebpf4jnsgd1na2vs0mg"},{"bike_id":"6b7bc794-a8b6-4b15-bdfb-b2fb240ae758","system_id":"levelo_inurba_marseille","lat":43.28427,"lon":5.34993,"is_reserved":false,"is_disabled":true,"rental_uris":{"android":"levelo://app?vid=6b7bc794-a8b6-4b15-bdfb-b2fb240ae758","ios":"levelo://app?vid=6b7bc794-a8b6-4b15-bdfb-b2fb240ae758"},"vehicle_type_id":"4","last_reported":1784207912,"current_range_meters":40000,"station_id":"ce4bhbh2rcd13ifvqepg","pricing_plan_id":"cebpf4jnsgd1na2vs0mg"},{"bike_id":"9a6436bd-a37a-4da9-9ee6-fc4ee1bfff26","system_id":"levelo_inurba_marseille","lat":43.30564,"lon":5.36577,"is_reserved":false,"is_disabled":false,"rental_uris":{"android":"levelo://app?vid=9a6436bd-a37a-4da9-9ee6-fc4ee1bfff26","ios":"levelo://app?vid=9a6436bd-a37a-4da9-9ee6-fc4ee1bfff26"},"vehicle_type_id":"4","last_reported":1784207912,"current_range_meters":32000,"station_id":"ce4bgs12rcd13ifvqcag","pricing_plan_id":"cebpf4jnsgd1na2vs0mg"},{"bike_id":"508a3c6c-6f94-4f13-a6bd-22d25eda6222","system_id":"levelo_inurba_marseille","lat":43.31481,"lon":5.37312,"is_reserved":false,"is_disabled":false,"rental_uris":{"android":"levelo://app?vid=508a3c6c-6f94-4f13-a6bd-22d25eda6222","ios":"levelo://app?vid=508a3c6c-6f94-4f13-a6bd-22d25eda6222"},"vehicle_type_id":"4","last_reported":1784207912,"current_range_meters":32000,"station_id":"ce4bgt12rcd13ifvqcd0","pricing_plan_id":"cebpf4jnsgd1na2vs0mg"},{"bike_id":"d6b0724d-3030-4e7b-8778-a4d582b3070a","system_id":"levelo_inurba_marseille","lat":43.28624,"lon":5.35087,"is_reserved":false,"is_disabled":true,"rental_uris":{"android":"levelo://app?vid=d6b0724d-3030-4e7b-8778-a4d582b3070a","ios":"levelo://app?vid=d6b0724d-3030-4e7b-8778-a4d582b3070a"},"vehicle_type_id":"4","last_reported":1784207912,"current_range_meters":28000,"station_id":"ce4bhch2rcd13ifvqeug","pricing_plan_id":"cebpf4jnsgd1na2vs0mg"},{"bike_id":"ac9c6366-8819-47b4-9f4d-cca067d8acc1","system_id":"levelo_inurba_marseille","lat":43.231532,"lon":5.438209,"is_reserved":false,"is_disabled":false,"rental_uris":{"android":"levelo://app?vid=ac9c6366-8819-47b4-9f4d-cca067d8acc1","ios":"levelo://app?vid=ac9c6366-8819-47b4-9f4d-cca067d8acc1"},"vehicle_type_id":"4","last_reported":1784207912,"current_range_meters":8000,"station_id":"","pricing_plan_id":"cebpf4jnsgd1na2vs0mg"},{"bike_id":"ce571f00-1ed6-4cd3-a4c6-a84cc69721f8","system_id":"levelo_inurba_marseille","lat":43.28862,"lon":5.3931,"is_reserved":false,"is_disabled":false,"rental_uris":{"android":"levelo://app?vid=ce571f00-1ed6-4cd3-a4c6-a84cc69721f8","ios":"levelo://app?vid=ce571f00-1ed6-4cd3-a4c6-a84cc69721f8"},"vehicle_type_id":"4","last_reported":1784207912,"current_range_meters":18800,"station_id":"ce4bh2p2rcd13ifvqdi0","pricing_plan_id":"cebpf4jnsgd1na2vs0mg"},{"bike_id":"0e616c17-0fd1-41b3-b775-a6e5c193aa79","system_id":"levelo_inurba_marseille","lat":43.30155,"lon":5.38082,"is_reserved":false,"is_disabled":false,"rental_uris":{"android":"levelo://app?vid=0e616c17-0fd1-41b3-b775-a6e5c193aa79","ios":"levelo://app?vid=0e616c17-0fd1-41b3-b775-a6e5c193aa79"},"vehicle_type_id":"4","last_reported":1784207912,"current_range_meters":33600,"station_id":"ce4bgjp2rcd13ifvqbh0","pricing_plan_id":"cebpf4jnsgd1na2vs0mg"},{"bike_id":"30285575-aee2-4891-b4b9-41bc77e11021","system_id":"levelo_inurba_marseille","lat":43.33611,"lon":5.41033,"is_reserved":false,"is_disabled":false,"rental_uris":{"android":"levelo://app?vid=30285575-aee2-4891-b4b9-41bc77e11021","ios":"levelo://app?vid=30285575-aee2-4891-b4b9-41bc77e11021"},"vehicle_type_id":"4","last_reported":1784207912,"current_range_meters":40000,"station_id":"ce4bhqh2rcd13ifvqhmg","pricing_plan_id":"cebpf4jnsgd1na2vs0mg"},{"bike_id":"1e628dec-3141-48e0-b510-1c285ab03f4c","system_id":"levelo_inurba_marseille","lat":43.26381,"lon":5.41039,"is_reserved":false,"is_disabled":true,"rental_uris":{"android":"levelo://app?vid=1e628dec-3141-48e0-b510-1c285ab03f4c","ios":"levelo://app?vid=1e628dec-3141-48e0-b510-1c285ab03f4c"},"vehicle_type_id":"4","last_reported":1784207912,"current_range_meters":3600,"station_id":"st_d4e5ca6na9uc73bfl5fg","pricing_plan_id":"cebpf4jnsgd1na2vs0mg"},{"bike_id":"8337f5b4-2806-4bc0-9f71-af183adb5db8","system_id":"levelo_inurba_marseille","lat":43.231359,"lon":5.437577,"is_reserved":false,"is_disabled":false,"rental_uris":{"android":"levelo://app?vid=8337f5b4-2806-4bc0-9f71-af183adb5db8","ios":"levelo://app?vid=8337f5b4-2806-4bc0-9f71-af183adb5db8"},"vehicle_type_id":"4","last_reported":1784207912,"current_range_meters":4000,"station_id":"","pricing_plan_id":"cebpf4jnsgd1na2vs0mg"},{"bike_id":"0e80f4be-aa62-4d4f-a88f-c49843efcd83","system_id":"levelo_inurba_marseille","lat":43.25088,"lon":5.41382,"is_reserved":false,"is_disabled":true,"rental_uris":{"android":"levelo://app?vid=0e80f4be-aa62-4d4f-a88f-c49843efcd83","ios":"levelo://app?vid=0e80f4be-aa62-4d4f-a88f-c49843efcd83"},"vehicle_type_id":"4","last_reported":1784207912,"current_range_meters":11200,"station_id":"","pricing_plan_id":"cebpf4jnsgd1na2vs0mg"},{"bike_id":"680aa81d-3b1d-4a9e-b1a6-60838d403fd1","system_id":"levelo_inurba_marseille","lat":43.28613,"lon":5.35109,"is_reserved":false,"is_disabled":false,"rental_uris":{"android":"levelo://app?vid=680aa81d-3b1d-4a9e-b1a6-60838d403fd1","ios":"levelo://app?vid=680aa81d-3b1d-4a9e-b1a6-60838d403fd1"},"vehicle_type_id":"4","last_reported":1784207912,"current_range_meters":30400,"station_id":"ce4bhch2rcd13ifvqeug","pricing_plan_id":"cebpf4jnsgd1na2vs0mg"},{"bike_id":"9816fcfb-fed5-46a5-a828-dec154df7717","system_id":"levelo_inurba_marseille","lat":43.2681,"lon":5.40247,"is_reserved":false,"is_disabled":true,"rental_uris":{"android":"levelo://app?vid=9816fcfb-fed5-46a5-a828-dec154df7717","ios":"levelo://app?vid=9816fcfb-fed5-46a5-a828-dec154df7717"},"vehicle_type_id":"4","last_reported":1784207912,"current_range_meters":30400,"station_id":"ce501612rcd8frsf0b60","pricing_plan_id":"cebpf4jnsgd1na2vs0mg"},{"bike_id":"314807e5-c7e5-4040-98f7-f5b3f656b526","system_id":"levelo_inurba_marseille","lat":43.311114,"lon":5.377829,"is_reserved":false,"is_disabled":false,"rental_uris":{"android":"levelo://app?vid=314807e5-c7e5-4040-98f7-f5b3f656b526","ios":"levelo://app?vid=314807e5-c7e5-4040-98f7-f5b3f656b526"},"vehicle_type_id":"4","last_reported":1784207912,"current_range_meters":6400,"station_id":"ce4bgt92rcd13ifvqcg0","pricing_plan_id":"cebpf4jnsgd1na2vs0mg"},{"bike_id":"d54a2f0e-a437-49cc-9bfe-a3b97e9c8b46","system_id":"levelo_inurba_marseille","lat":43.30912,"lon":5.36864,"is_reserved":false,"is_disabled":false,"rental_uris":{"android":"levelo://app?vid=d54a2f0e-a437-49cc-9bfe-a3b97e9c8b46","ios":"levelo://app?vid=d54a2f0e-a437-49cc-9bfe-a3b97e9c8b46"},"vehicle_type_id":"4","last_reported":1784207912,"current_range_meters":39200,"station_id":"ce4bgn92rcd13ifvqbvg","pricing_plan_id":"cebpf4jnsgd1na2vs0mg"},{"bike_id":"3038bc08-15a5-4f2c-978b-17d6976b7abc","system_id":"levelo_inurba_marseille","lat":43.30535,"lon":5.36546,"is_reserved":false,"is_disabled":false,"rental_uris":{"android":"levelo://app?vid=3038bc08-15a5-4f2c-978b-17d6976b7abc","ios":"levelo://app?vid=3038bc08-15a5-4f2c-978b-17d6976b7abc"},"vehicle_type_id":"4","last_reported":1784207912,"current_range_meters":35200,"station_id":"ce4bgs12rcd13ifvqcag","pricing_plan_id":"cebpf4jnsgd1na2vs0mg"},{"bike_id":"cf0d7808-b9f4-450e-9ac9-de3db44df819","system_id":"levelo_inurba_marseille","lat":43.25822,"lon":5.39438,"is_reserved":false,"is_disabled":false,"rental_uris":{"android":"levelo://app?vid=cf0d7808-b9f4-450e-9ac9-de3db44df819","ios":"levelo://app?vid=cf0d7808-b9f4-450e-9ac9-de3db44df819"},"vehicle_type_id":"4","last_reported":1784207912,"current_range_meters":31200,"station_id":"ce4bhip2rcd13ifvqft0","pricing_plan_id":"cebpf4jnsgd1na2vs0mg"},{"bike_id":"bd529bea-55e2-462e-96f2-84ef02ccf732","system_id":"levelo_inurba_marseille","lat":43.31358,"lon":5.38505,"is_reserved":false,"is_disabled":false,"rental_uris":{"android":"levelo://app?vid=bd529bea-55e2-462e-96f2-84ef02ccf732","ios":"levelo://app?vid=bd529bea-55e2-462e-96f2-84ef02ccf732"},"vehicle_type_id":"4","last_reported":1784207912,"current_range_meters":26000,"station_id":"ce4bgt92rcd13ifvqcf0","pricing_plan_id":"cebpf4jnsgd1na2vs0mg"},{"bike_id":"fcfa093f-41ae-4183-8e01-083024d1b782","system_id":"levelo_inurba_marseille","lat":43.27559,"lon":5.38437,"is_reserved":false,"is_disabled":false,"rental_uris":{"android":"levelo://app?vid=fcfa093f-41ae-4183-8e01-083024d1b782","ios":"levelo://app?vid=fcfa093f-41ae-4183-8e01-083024d1b782"},"vehicle_type_id":"4","last_reported":1784207912,"current_range_meters":28400,"station_id":"ce4bhh92rcd13ifvqfi0","pricing_plan_id":"cebpf4jnsgd1na2vs0mg"},{"bike_id":"80cf752a-d38f-456f-8e45-3b8fbbaba193","system_id":"levelo_inurba_marseille","lat":43.2954,"lon":5.37527,"is_reserved":false,"is_disabled":false,"rental_uris":{"android":"levelo://app?vid=80cf752a-d38f-456f-8e45-3b8fbbaba193","ios":"levelo://app?vid=80cf752a-d38f-456f-8e45-3b8fbbaba193"},"vehicle_type_id":"4","last_reported":1784207912,"current_range_meters":38400,"station_id":"ce4bgkp2rcd13ifvqbmg","pricing_plan_id":"cebpf4jnsgd1na2vs0mg"},{"bike_id":"942148f9-90f2-4171-8f05-98ba0ca85bcb","system_id":"levelo_inurba_marseille","lat":43.28499,"lon":5.48414,"is_reserved":false,"is_disabled":false,"rental_uris":{"android":"levelo://app?vid=942148f9-90f2-4171-8f05-98ba0ca85bcb","ios":"levelo://app?vid=942148f9-90f2-4171-8f05-98ba0ca85bcb"},"vehicle_type_id":"4","last_reported":1784207912,"current_range_meters":13600,"station_id":"st_d3svhcjqgbts73a3dn0g","pricing_plan_id":"cebpf4jnsgd1na2vs0mg"},{"bike_id":"a67029f3-315a-4391-ac1a-96b951ea9176","system_id":"levelo_inurba_marseille","lat":43.30801,"lon":5.38171,"is_reserved":false,"is_disabled":false,"rental_uris":{"android":"levelo://app?vid=a67029f3-315a-4391-ac1a-96b951ea9176","ios":"levelo://app?vid=a67029f3-315a-4391-ac1a-96b951ea9176"},"vehicle_type_id":"4","last_reported":1784207912,"current_range_meters":8400,"station_id":"ce4bgt12rcd13ifvqce0","pricing_plan_id":"cebpf4jnsgd1na2vs0mg"},{"bike_id":"b2b194ed-86a5-4dc8-b828-5b80e1681197","system_id":"levelo_inurba_marseille","lat":43.28526,"lon":5.44102,"is_reserved":false,"is_disabled":false,"rental_uris":{"android":"levelo://app?vid=b2b194ed-86a5-4dc8-b828-5b80e1681197","ios":"levelo://app?vid=b2b194ed-86a5-4dc8-b828-5b80e1681197"},"vehicle_type_id":"4","last_reported":1784207912,"current_range_meters":25600,"station_id":"st_d3j3df2ikq2c7380ej80","pricing_plan_id":"cebpf4jnsgd1na2vs0mg"},{"bike_id":"0527a6e6-96d3-4e15-a173-f34c876e1251","system_id":"levelo_inurba_marseille","lat":43.30414,"lon":5.37933,"is_reserved":false,"is_disabled":false,"rental_uris":{"android":"levelo://app?vid=0527a6e6-96d3-4e15-a173-f34c876e1251","ios":"levelo://app?vid=0527a6e6-96d3-4e15-a173-f34c876e1251"},"vehicle_type_id":"4","last_reported":1784207912,"current_range_meters":29600,"station_id":"","pricing_plan_id":"cebpf4jnsgd1na2vs0mg"},{"bike_id":"2a93def1-9840-4751-b465-b53bb0ce6123","system_id":"levelo_inurba_marseille","lat":43.22562,"lon":5.41636,"is_reserved":false,"is_disabled":false,"rental_uris":{"android":"levelo://app?vid=2a93def1-9840-4751-b465-b53bb0ce6123","ios":"levelo://app?vid=2a93def1-9840-4751-b465-b53bb0ce6123"},"vehicle_type_id":"4","last_reported":1784207912,"current_range_meters":20400,"station_id":"st_d2o4gvlbi1j2169b742g","pricing_plan_id":"cebpf4jnsgd1na2vs0mg"},{"bike_id":"4a704f50-eef6-4a9a-b6b7-28e63e5355dc","system_id":"levelo_inurba_marseille","lat":43.2508,"lon":5.39529,"is_reserved":false,"is_disabled":false,"rental_uris":{"android":"levelo://app?vid=4a704f50-eef6-4a9a-b6b7-28e63e5355dc","ios":"levelo://app?vid=4a704f50-eef6-4a9a-b6b7-28e63e5355dc"},"vehicle_type_id":"4","last_reported":1784207912,"current_range_meters":28800,"station_id":"ce4bhm12rcd13ifvqgkg","pricing_plan_id":"cebpf4jnsgd1na2vs0mg"},{"bike_id":"10592882-7bed-4bde-a924-b4cdb04c175f","system_id":"levelo_inurba_marseille","lat":43.28173,"lon":5.4261,"is_reserved":false,"is_disabled":false,"rental_uris":{"android":"levelo://app?vid=10592882-7bed-4bde-a924-b4cdb04c175f","ios":"levelo://app?vid=10592882-7bed-4bde-a924-b4cdb04c175f"},"vehicle_type_id":"4","last_reported":1784207912,"current_range_meters":38000,"station_id":"ce4bhnh2rcd13ifvqgug","pricing_plan_id":"cebpf4jnsgd1na2vs0mg"},{"bike_id":"b617c35b-7c51-4687-9948-30e5ef21086e","system_id":"levelo_inurba_marseille","lat":43.28704,"lon":5.46687,"is_reserved":false,"is_disabled":false,"rental_uris":{"android":"levelo://app?vid=b617c35b-7c51-4687-9948-30e5ef21086e","ios":"levelo://app?vid=b617c35b-7c51-4687-9948-30e5ef21086e"},"vehicle_type_id":"4","last_reported":1784207912,"current_range_meters":18800,"station_id":"st_d6tc3vkotcvc738tfjhg","pricing_plan_id":"cebpf4jnsgd1na2vs0mg"},{"bike_id":"ff59d84e-500e-4e36-a1ec-cced3c8820d5","system_id":"levelo_inurba_marseille","lat":43.28267,"lon":5.35086,"is_reserved":false,"is_disabled":false,"rental_uris":{"android":"levelo://app?vid=ff59d84e-500e-4e36-a1ec-cced3c8820d5","ios":"levelo://app?vid=ff59d84e-500e-4e36-a1ec-cced3c8820d5"},"vehicle_type_id":"4","last_reported":1784207912,"current_range_meters":38400,"station_id":"ce4bhbp2rcd13ifvqerg","pricing_plan_id":"cebpf4jnsgd1na2vs0mg"},{"bike_id":"abd28b51-9db3-4251-8023-1ab1c1cc68c9","system_id":"levelo_inurba_marseille","lat":43.27994,"lon":5.41656,"is_reserved":false,"is_disabled":true,"rental_uris":{"android":"levelo://app?vid=abd28b51-9db3-4251-8023-1ab1c1cc68c9","ios":"levelo://app?vid=abd28b51-9db3-4251-8023-1ab1c1cc68c9"},"vehicle_type_id":"4","last_reported":1784207912,"current_range_meters":27600,"station_id":"ce4bho12rcd13ifvqh1g","pricing_plan_id":"cebpf4jnsgd1na2vs0mg"},{"bike_id":"6d32b765-aa0d-46a8-942b-fd272d4b06e6","system_id":"levelo_inurba_marseille","lat":43.27616,"lon":5.36105,"is_reserved":false,"is_disabled":true,"rental_uris":{"android":"levelo://app?vid=6d32b765-aa0d-46a8-942b-fd272d4b06e6","ios":"levelo://app?vid=6d32b765-aa0d-46a8-942b-fd272d4b06e6"},"vehicle_type_id":"4","last_reported":1784207912,"current_range_meters":11600,"station_id":"ce4bgj92rcd13ifvqbe0","pricing_plan_id":"cebpf4jnsgd1na2vs0mg"},{"bike_id":"6565c5ef-861d-4526-b508-a57d82ebeb48","system_id":"levelo_inurba_marseille","lat":43.25894,"lon":5.4089,"is_reserved":false,"is_disabled":false,"rental_uris":{"android":"levelo://app?vid=6565c5ef-861d-4526-b508-a57d82ebeb48","ios":"levelo://app?vid=6565c5ef-861d-4526-b508-a57d82ebeb48"},"vehicle_type_id":"4","last_reported":1784207912,"current_range_meters":39200,"station_id":"ce4bhm92rcd13ifvqglg","pricing_plan_id":"cebpf4jnsgd1na2vs0mg"},{"bike_id":"57889d2e-37dd-4f8f-b3ab-1bc0a62b2215","system_id":"levelo_inurba_marseille","lat":43.30459,"lon":5.37908,"is_reserved":false,"is_disabled":true,"rental_uris":{"android":"levelo://app?vid=57889d2e-37dd-4f8f-b3ab-1bc0a62b2215","ios":"levelo://app?vid=57889d2e-37dd-4f8f-b3ab-1bc0a62b2215"},"vehicle_type_id":"4","last_reported":1784207912,"current_range_meters":28400,"station_id":"ce4bgup2rcd13ifvqcn0","pricing_plan_id":"cebpf4jnsgd1na2vs0mg"},{"bike_id":"adc24b3c-2430-4379-99ca-2af451d0f536","system_id":"levelo_inurba_marseille","lat":43.27961,"lon":5.38741,"is_reserved":false,"is_disabled":false,"rental_uris":{"android":"levelo://app?vid=adc24b3c-2430-4379-99ca-2af451d0f536","ios":"levelo://app?vid=adc24b3c-2430-4379-99ca-2af451d0f536"},"vehicle_type_id":"4","last_reported":1784207912,"current_range_meters":37600,"station_id":"","pricing_plan_id":"cebpf4jnsgd1na2vs0mg"},{"bike_id":"b45f0205-96d2-4bd2-8ac9-1d2877b8b6cb","system_id":"levelo_inurba_marseille","lat":43.30886,"lon":5.3962,"is_reserved":false,"is_disabled":false,"rental_uris":{"android":"levelo://app?vid=b45f0205-96d2-4bd2-8ac9-1d2877b8b6cb","ios":"levelo://app?vid=b45f0205-96d2-4bd2-8ac9-1d2877b8b6cb"},"vehicle_type_id":"4","last_reported":1784207912,"current_range_meters":19200,"station_id":"ce4bh012rcd13ifvqcv0","pricing_plan_id":"cebpf4jnsgd1na2vs0mg"},{"bike_id":"8946fedd-2e32-49ed-b51d-8d2209da3742","system_id":"levelo_inurba_marseille","lat":43.29425,"lon":5.3812,"is_reserved":false,"is_disabled":false,"rental_uris":{"android":"levelo://app?vid=8946fedd-2e32-49ed-b51d-8d2209da3742","ios":"levelo://app?vid=8946fedd-2e32-49ed-b51d-8d2209da3742"},"vehicle_type_id":"4","last_reported":1784207912,"current_range_meters":10800,"station_id":"","pricing_plan_id":"cebpf4jnsgd1na2vs0mg"},{"bike_id":"d8718c52-f51e-4dca-a499-07fae3fae8d4","system_id":"levelo_inurba_marseille","lat":43.29906,"lon":5.43652,"is_reserved":false,"is_disabled":false,"rental_uris":{"android":"levelo://app?vid=d8718c52-f51e-4dca-a499-07fae3fae8d4","ios":"levelo://app?vid=d8718c52-f51e-4dca-a499-07fae3fae8d4"},"vehicle_type_id":"4","last_reported":1784207912,"current_range_meters":13600,"station_id":"ce4bhpp2rcd13ifvqhfg","pricing_plan_id":"cebpf4jnsgd1na2vs0mg"},{"bike_id":"51905566-557d-413c-97fd-b84daf11e827","system_id":"levelo_inurba_marseille","lat":43.279189,"lon":5.395778,"is_reserved":false,"is_disabled":true,"rental_uris":{"android":"levelo://app?vid=51905566-557d-413c-97fd-b84daf11e827","ios":"levelo://app?vid=51905566-557d-413c-97fd-b84daf11e827"},"vehicle_type_id":"4","last_reported":1784207912,"current_range_meters":32800,"station_id":"ce4bhf92rcd13ifvqf40","pricing_plan_id":"cebpf4jnsgd1na2vs0mg"},{"bike_id":"62fd6a9c-2404-45bf-a735-0f6e7264c9dd","system_id":"levelo_inurba_marseille","lat":43.23788,"lon":5.36631,"is_reserved":false,"is_disabled":false,"rental_uris":{"android":"levelo://app?vid=62fd6a9c-2404-45bf-a735-0f6e7264c9dd","ios":"levelo://app?vid=62fd6a9c-2404-45bf-a735-0f6e7264c9dd"},"vehicle_type_id":"4","last_reported":1784207912,"current_range_meters":22400,"station_id":"st_d3nk18o9ro0c73en2l3g","pricing_plan_id":"cebpf4jnsgd1na2vs0mg"},{"bike_id":"cbd89872-d1a8-46fc-a9d9-10e0fbde500c","system_id":"levelo_inurba_marseille","lat":43.24443,"lon":5.3699,"is_reserved":false,"is_disabled":false,"rental_uris":{"android":"levelo://app?vid=cbd89872-d1a8-46fc-a9d9-10e0fbde500c","ios":"levelo://app?vid=cbd89872-d1a8-46fc-a9d9-10e0fbde500c"},"vehicle_type_id":"4","last_reported":1784207912,"current_range_meters":3600,"station_id":"","pricing_plan_id":"cebpf4jnsgd1na2vs0mg"},{"bike_id":"aea11bbc-2d6f-4be0-b121-dbc2d33dd165","system_id":"levelo_inurba_marseille","lat":43.3203,"lon":5.41571,"is_reserved":false,"is_disabled":false,"rental_uris":{"android":"levelo://app?vid=aea11bbc-2d6f-4be0-b121-dbc2d33dd165","ios":"levelo://app?vid=aea11bbc-2d6f-4be0-b121-dbc2d33dd165"},"vehicle_type_id":"4","last_reported":1784207912,"current_range_meters":39200,"station_id":"ce4bhq92rcd13ifvqhkg","pricing_plan_id":"cebpf4jnsgd1na2vs0mg"},{"bike_id":"42981eab-f3f8-440e-808a-65cae4c2222a","system_id":"levelo_inurba_marseille","lat":43.28422,"lon":5.3498,"is_reserved":false,"is_disabled":false,"rental_uris":{"android":"levelo://app?vid=42981eab-f3f8-440e-808a-65cae4c2222a","ios":"levelo://app?vid=42981eab-f3f8-440e-808a-65cae4c2222a"},"vehicle_type_id":"4","last_reported":1784207912,"current_range_meters":3200,"station_id":"ce4bhbh2rcd13ifvqepg","pricing_plan_id":"cebpf4jnsgd1na2vs0mg"},{"bike_id":"1ca98d4d-044e-429c-891b-6dae77125908","system_id":"levelo_inurba_marseille","lat":43.29977,"lon":5.38509,"is_reserved":false,"is_disabled":false,"rental_uris":{"android":"levelo://app?vid=1ca98d4d-044e-429c-891b-6dae77125908","ios":"levelo://app?vid=1ca98d4d-044e-429c-891b-6dae77125908"},"vehicle_type_id":"4","last_reported":1784207912,"current_range_meters":35200,"station_id":"ce4bgj92rcd13ifvqbd0","pricing_plan_id":"cebpf4jnsgd1na2vs0mg"},{"bike_id":"96825e0c-14e6-44a1-9638-22706c4a0540","system_id":"levelo_inurba_marseille","lat":43.2721,"lon":5.39193,"is_reserved":false,"is_disabled":true,"rental_uris":{"android":"levelo://app?vid=96825e0c-14e6-44a1-9638-22706c4a0540","ios":"levelo://app?vid=96825e0c-14e6-44a1-9638-22706c4a0540"},"vehicle_type_id":"4","last_reported":1784207912,"current_range_meters":11200,"station_id":"ce4bhhp2rcd13ifvqfm0","pricing_plan_id":"cebpf4jnsgd1na2vs0mg"},{"bike_id":"13c67d10-4be5-40a6-a763-47bbc79ea4b7","system_id":"levelo_inurba_marseille","lat":43.258259,"lon":5.394385,"is_reserved":false,"is_disabled":false,"rental_uris":{"android":"levelo://app?vid=13c67d10-4be5-40a6-a763-47bbc79ea4b7","ios":"levelo://app?vid=13c67d10-4be5-40a6-a763-47bbc79ea4b7"},"vehicle_type_id":"4","last_reported":1784207912,"current_range_meters":38000,"station_id":"ce4bhip2rcd13ifvqft0","pricing_plan_id":"cebpf4jnsgd1na2vs0mg"},{"bike_id":"172bc998-698c-49b0-a877-c63dee205523","system_id":"levelo_inurba_marseille","lat":43.31191,"lon":5.36842,"is_reserved":false,"is_disabled":false,"rental_uris":{"android":"levelo://app?vid=172bc998-698c-49b0-a877-c63dee205523","ios":"levelo://app?vid=172bc998-698c-49b0-a877-c63dee205523"},"vehicle_type_id":"4","last_reported":1784207912,"current_range_meters":33600,"station_id":"ce4bgl92rcd13ifvqbq0","pricing_plan_id":"cebpf4jnsgd1na2vs0mg"},{"bike_id":"3f80a8c3-c45c-4015-b585-1c7b9653acba","system_id":"levelo_inurba_marseille","lat":43.28414,"lon":5.34999,"is_reserved":false,"is_disabled":false,"rental_uris":{"android":"levelo://app?vid=3f80a8c3-c45c-4015-b585-1c7b9653acba","ios":"levelo://app?vid=3f80a8c3-c45c-4015-b585-1c7b9653acba"},"vehicle_type_id":"4","last_reported":1784207912,"current_range_meters":39200,"station_id":"ce4bhbh2rcd13ifvqepg","pricing_plan_id":"cebpf4jnsgd1na2vs0mg"},{"bike_id":"3897b37b-5ebf-4f3a-8458-0d1f0b06c771","system_id":"levelo_inurba_marseille","lat":43.30532,"lon":5.36706,"is_reserved":false,"is_disabled":false,"rental_uris":{"android":"levelo://app?vid=3897b37b-5ebf-4f3a-8458-0d1f0b06c771","ios":"levelo://app?vid=3897b37b-5ebf-4f3a-8458-0d1f0b06c771"},"vehicle_type_id":"4","last_reported":1784207912,"current_range_meters":38000,"station_id":"ce4bgrp2rcd13ifvqc9g","pricing_plan_id":"cebpf4jnsgd1na2vs0mg"},{"bike_id":"7a07b766-f68a-4cfb-b899-09ce7ecb6864","system_id":"levelo_inurba_marseille","lat":43.30596,"lon":5.37227,"is_reserved":false,"is_disabled":false,"rental_uris":{"android":"levelo://app?vid=7a07b766-f68a-4cfb-b899-09ce7ecb6864","ios":"levelo://app?vid=7a07b766-f68a-4cfb-b899-09ce7ecb6864"},"vehicle_type_id":"4","last_reported":1784207912,"current_range_meters":33600,"station_id":"ce4bgqh2rcd13ifvqc4g","pricing_plan_id":"cebpf4jnsgd1na2vs0mg"},{"bike_id":"a7cdfa6a-d49e-491c-a572-dca3386e1678","system_id":"levelo_inurba_marseille","lat":43.21193,"lon":5.35073,"is_reserved":false,"is_disabled":false,"rental_uris":{"android":"levelo://app?vid=a7cdfa6a-d49e-491c-a572-dca3386e1678","ios":"levelo://app?vid=a7cdfa6a-d49e-491c-a572-dca3386e1678"},"vehicle_type_id":"4","last_reported":1784207912,"current_range_meters":39200,"station_id":"st_cvj6sg6p6f1abm77japg","pricing_plan_id":"cebpf4jnsgd1na2vs0mg"},{"bike_id":"fad4d476-b565-4b81-9166-a20796df0b18","system_id":"levelo_inurba_marseille","lat":43.24798,"lon":5.37448,"is_reserved":false,"is_disabled":false,"rental_uris":{"android":"levelo://app?vid=fad4d476-b565-4b81-9166-a20796df0b18","ios":"levelo://app?vid=fad4d476-b565-4b81-9166-a20796df0b18"},"vehicle_type_id":"4","last_reported":1784207912,"current_range_meters":24400,"station_id":"","pricing_plan_id":"cebpf4jnsgd1na2vs0mg"},{"bike_id":"ae6ddc8f-117c-495a-afc6-8144f7bff5b3","system_id":"levelo_inurba_marseille","lat":43.2951,"lon":5.39581,"is_reserved":false,"is_disabled":true,"rental_uris":{"android":"levelo://app?vid=ae6ddc8f-117c-495a-afc6-8144f7bff5b3","ios":"levelo://app?vid=ae6ddc8f-117c-495a-afc6-8144f7bff5b3"},"vehicle_type_id":"4","last_reported":1784207912,"current_range_meters":0,"station_id":"","pricing_plan_id":"cebpf4jnsgd1na2vs0mg"},{"bike_id":"d389fdb6-71bf-474b-b80d-bec56e19226e","system_id":"levelo_inurba_marseille","lat":43.30462,"lon":5.37913,"is_reserved":false,"is_disabled":false,"rental_uris":{"android":"levelo://app?vid=d389fdb6-71bf-474b-b80d-bec56e19226e","ios":"levelo://app?vid=d389fdb6-71bf-474b-b80d-bec56e19226e"},"vehicle_type_id":"4","last_reported":1784207912,"current_range_meters":22400,"station_id":"ce4bgup2rcd13ifvqcn0","pricing_plan_id":"cebpf4jnsgd1na2vs0mg"},{"bike_id":"4587bf5e-e27c-4ca6-8cde-d3225ce81be6","system_id":"levelo_inurba_marseille","lat":43.30909,"lon":5.36868,"is_reserved":false,"is_disabled":false,"rental_uris":{"android":"levelo://app?vid=4587bf5e-e27c-4ca6-8cde-d3225ce81be6","ios":"levelo://app?vid=4587bf5e-e27c-4ca6-8cde-d3225ce81be6"},"vehicle_type_id":"4","last_reported":1784207912,"current_range_meters":32800,"station_id":"ce4bgn92rcd13ifvqbvg","pricing_plan_id":"cebpf4jnsgd1na2vs0mg"},{"bike_id":"93f173f0-b5e7-453c-b62d-5cea08429256","system_id":"levelo_inurba_marseille","lat":43.29185,"lon":5.35807,"is_reserved":false,"is_disabled":true,"rental_uris":{"android":"levelo://app?vid=93f173f0-b5e7-453c-b62d-5cea08429256","ios":"levelo://app?vid=93f173f0-b5e7-453c-b62d-5cea08429256"},"vehicle_type_id":"4","last_reported":1784207912,"current_range_meters":32400,"station_id":"ce4bhb12rcd13ifvqel0","pricing_plan_id":"cebpf4jnsgd1na2vs0mg"},{"bike_id":"0b9919a5-fde8-4b57-b268-a205f8c170a5","system_id":"levelo_inurba_marseille","lat":43.28074,"lon":5.3966,"is_reserved":false,"is_disabled":false,"rental_uris":{"android":"levelo://app?vid=0b9919a5-fde8-4b57-b268-a205f8c170a5","ios":"levelo://app?vid=0b9919a5-fde8-4b57-b268-a205f8c170a5"},"vehicle_type_id":"4","last_reported":1784207912,"current_range_meters":19600,"station_id":"ce4bho12rcd13ifvqh2g","pricing_plan_id":"cebpf4jnsgd1na2vs0mg"},{"bike_id":"c0c12634-da58-4425-89c7-83dd3f1069a6","system_id":"levelo_inurba_marseille","lat":43.32083,"lon":5.36768,"is_reserved":false,"is_disabled":false,"rental_uris":{"android":"levelo://app?vid=c0c12634-da58-4425-89c7-83dd3f1069a6","ios":"levelo://app?vid=c0c12634-da58-4425-89c7-83dd3f1069a6"},"vehicle_type_id":"4","last_reported":1784207912,"current_range_meters":4800,"station_id":"ce4bhrh2rcd13ifvqhug","pricing_plan_id":"cebpf4jnsgd1na2vs0mg"},{"bike_id":"2d7e075f-5ed8-41ed-9c3b-31af001f7a25","system_id":"levelo_inurba_marseille","lat":43.2696,"lon":5.3864,"is_reserved":false,"is_disabled":false,"rental_uris":{"android":"levelo://app?vid=2d7e075f-5ed8-41ed-9c3b-31af001f7a25","ios":"levelo://app?vid=2d7e075f-5ed8-41ed-9c3b-31af001f7a25"},"vehicle_type_id":"4","last_reported":1784207912,"current_range_meters":30000,"station_id":"ce4bhh92rcd13ifvqfh0","pricing_plan_id":"cebpf4jnsgd1na2vs0mg"},{"bike_id":"2db5c0a2-bdde-490c-aadc-893f892f4fc2","system_id":"levelo_inurba_marseille","lat":43.29963,"lon":5.38517,"is_reserved":false,"is_disabled":false,"rental_uris":{"android":"levelo://app?vid=2db5c0a2-bdde-490c-aadc-893f892f4fc2","ios":"levelo://app?vid=2db5c0a2-bdde-490c-aadc-893f892f4fc2"},"vehicle_type_id":"4","last_reported":1784207912,"current_range_meters":8400,"station_id":"ce4bgj92rcd13ifvqbd0","pricing_plan_id":"cebpf4jnsgd1na2vs0mg"},{"bike_id":"155ad902-f63e-43ff-89b3-5a8ae2de0ed9","system_id":"levelo_inurba_marseille","lat":43.24174,"lon":5.39728,"is_reserved":false,"is_disabled":false,"rental_uris":{"android":"levelo://app?vid=155ad902-f63e-43ff-89b3-5a8ae2de0ed9","ios":"levelo://app?vid=155ad902-f63e-43ff-89b3-5a8ae2de0ed9"},"vehicle_type_id":"4","last_reported":1784207912,"current_range_meters":38000,"station_id":"ce4bhn12rcd13ifvqgpg","pricing_plan_id":"cebpf4jnsgd1na2vs0mg"},{"bike_id":"9485be1f-c90e-4919-888f-8ea173824e12","system_id":"levelo_inurba_marseille","lat":43.22535,"lon":5.34835,"is_reserved":false,"is_disabled":false,"rental_uris":{"android":"levelo://app?vid=9485be1f-c90e-4919-888f-8ea173824e12","ios":"levelo://app?vid=9485be1f-c90e-4919-888f-8ea173824e12"},"vehicle_type_id":"4","last_reported":1784207912,"current_range_meters":27200,"station_id":"st_cvj5dfep6f1abm77gieg","pricing_plan_id":"cebpf4jnsgd1na2vs0mg"},{"bike_id":"83c7bb51-cb11-41ff-9266-19b383d83db4","system_id":"levelo_inurba_marseille","lat":43.31323,"lon":5.36705,"is_reserved":false,"is_disabled":false,"rental_uris":{"android":"levelo://app?vid=83c7bb51-cb11-41ff-9266-19b383d83db4","ios":"levelo://app?vid=83c7bb51-cb11-41ff-9266-19b383d83db4"},"vehicle_type_id":"4","last_reported":1784207912,"current_range_meters":40000,"station_id":"ce4bgr92rcd13ifvqc6g","pricing_plan_id":"cebpf4jnsgd1na2vs0mg"},{"bike_id":"f7414a1e-c680-40c6-b9b7-9f277e9e34da","system_id":"levelo_inurba_marseille","lat":43.28099,"lon":5.34771,"is_reserved":false,"is_disabled":false,"rental_uris":{"android":"levelo://app?vid=f7414a1e-c680-40c6-b9b7-9f277e9e34da","ios":"levelo://app?vid=f7414a1e-c680-40c6-b9b7-9f277e9e34da"},"vehicle_type_id":"4","last_reported":1784207912,"current_range_meters":20000,"station_id":"","pricing_plan_id":"cebpf4jnsgd1na2vs0mg"},{"bike_id":"eaa2f425-0b8e-4abc-aff5-1e5643ff75c3","system_id":"levelo_inurba_marseille","lat":43.26963,"lon":5.36642,"is_reserved":false,"is_disabled":true,"rental_uris":{"android":"levelo://app?vid=eaa2f425-0b8e-4abc-aff5-1e5643ff75c3","ios":"levelo://app?vid=eaa2f425-0b8e-4abc-aff5-1e5643ff75c3"},"vehicle_type_id":"4","last_reported":1784207912,"current_range_meters":0,"station_id":"","pricing_plan_id":"cebpf4jnsgd1na2vs0mg"},{"bike_id":"6ab806e5-1482-44b8-97b4-a9e54df097e1","system_id":"levelo_inurba_marseille","lat":43.29277,"lon":5.3684,"is_reserved":false,"is_disabled":false,"rental_uris":{"android":"levelo://app?vid=6ab806e5-1482-44b8-97b4-a9e54df097e1","ios":"levelo://app?vid=6ab806e5-1482-44b8-97b4-a9e54df097e1"},"vehicle_type_id":"4","last_reported":1784207912,"current_range_meters":19600,"station_id":"","pricing_plan_id":"cebpf4jnsgd1na2vs0mg"},{"bike_id":"819f0339-4695-4add-8828-1b8714adb586","system_id":"levelo_inurba_marseille","lat":43.23066,"lon":5.35487,"is_reserved":false,"is_disabled":false,"rental_uris":{"android":"levelo://app?vid=819f0339-4695-4add-8828-1b8714adb586","ios":"levelo://app?vid=819f0339-4695-4add-8828-1b8714adb586"},"vehicle_type_id":"4","last_reported":1784207912,"current_range_meters":39200,"station_id":"cpo3342slgdg3j2ifvpg","pricing_plan_id":"cebpf4jnsgd1na2vs0mg"},{"bike_id":"9832d285-3599-4a4a-8261-c12651b79182","system_id":"levelo_inurba_marseille","lat":43.275,"lon":5.38467,"is_reserved":false,"is_disabled":false,"rental_uris":{"android":"levelo://app?vid=9832d285-3599-4a4a-8261-c12651b79182","ios":"levelo://app?vid=9832d285-3599-4a4a-8261-c12651b79182"},"vehicle_type_id":"4","last_reported":1784207912,"current_range_meters":31200,"station_id":"","pricing_plan_id":"cebpf4jnsgd1na2vs0mg"},{"bike_id":"38c680a9-14d3-43e8-b718-5321a84ef021","system_id":"levelo_inurba_marseille","lat":43.28268,"lon":5.35069,"is_reserved":false,"is_disabled":false,"rental_uris":{"android":"levelo://app?vid=38c680a9-14d3-43e8-b718-5321a84ef021","ios":"levelo://app?vid=38c680a9-14d3-43e8-b718-5321a84ef021"},"vehicle_type_id":"4","last_reported":1784207912,"current_range_meters":18800,"station_id":"ce4bhbp2rcd13ifvqerg","pricing_plan_id":"cebpf4jnsgd1na2vs0mg"},{"bike_id":"15159f4d-6b2a-4430-955d-b063f2a287d0","system_id":"levelo_inurba_marseille","lat":43.26779,"lon":5.3941,"is_reserved":false,"is_disabled":false,"rental_uris":{"android":"levelo://app?vid=15159f4d-6b2a-4430-955d-b063f2a287d0","ios":"levelo://app?vid=15159f4d-6b2a-4430-955d-b063f2a287d0"},"vehicle_type_id":"4","last_reported":1784207912,"current_range_meters":38800,"station_id":"ce4bhh12rcd13ifvqfg0","pricing_plan_id":"cebpf4jnsgd1na2vs0mg"},{"bike_id":"a2ec49b4-899e-460e-9940-51f73683cac5","system_id":"levelo_inurba_marseille","lat":43.23187,"lon":5.3556,"is_reserved":false,"is_disabled":false,"rental_uris":{"android":"levelo://app?vid=a2ec49b4-899e-460e-9940-51f73683cac5","ios":"levelo://app?vid=a2ec49b4-899e-460e-9940-51f73683cac5"},"vehicle_type_id":"4","last_reported":1784207912,"current_range_meters":6000,"station_id":"ce4bhu92rcd13ifvqi70","pricing_plan_id":"cebpf4jnsgd1na2vs0mg"},{"bike_id":"429bd134-e626-4471-9eac-649735338ba4","system_id":"levelo_inurba_marseille","lat":43.28552,"lon":5.39503,"is_reserved":false,"is_disabled":false,"rental_uris":{"android":"levelo://app?vid=429bd134-e626-4471-9eac-649735338ba4","ios":"levelo://app?vid=429bd134-e626-4471-9eac-649735338ba4"},"vehicle_type_id":"4","last_reported":1784207912,"current_range_meters":40000,"station_id":"ce4bh292rcd13ifvqdg0","pricing_plan_id":"cebpf4jnsgd1na2vs0mg"},{"bike_id":"b0091300-9ddc-4952-95c0-b34e5e3957b3","system_id":"levelo_inurba_marseille","lat":43.29189,"lon":5.36812,"is_reserved":false,"is_disabled":false,"rental_uris":{"android":"levelo://app?vid=b0091300-9ddc-4952-95c0-b34e5e3957b3","ios":"levelo://app?vid=b0091300-9ddc-4952-95c0-b34e5e3957b3"},"vehicle_type_id":"4","last_reported":1784207912,"current_range_meters":29600,"station_id":"","pricing_plan_id":"cebpf4jnsgd1na2vs0mg"},{"bike_id":"797fb9c2-b17e-4392-a9af-96f719fe3873","system_id":"levelo_inurba_marseille","lat":43.24177,"lon":5.39738,"is_reserved":false,"is_disabled":false,"rental_uris":{"android":"levelo://app?vid=797fb9c2-b17e-4392-a9af-96f719fe3873","ios":"levelo://app?vid=797fb9c2-b17e-4392-a9af-96f719fe3873"},"vehicle_type_id":"4","last_reported":1784207912,"current_range_meters":30400,"station_id":"ce4bhn12rcd13ifvqgpg","pricing_plan_id":"cebpf4jnsgd1na2vs0mg"},{"bike_id":"40ddc588-2e12-4892-ac9e-0ea33b8447d3","system_id":"levelo_inurba_marseille","lat":43.265,"lon":5.39567,"is_reserved":false,"is_disabled":false,"rental_uris":{"android":"levelo://app?vid=40ddc588-2e12-4892-ac9e-0ea33b8447d3","ios":"levelo://app?vid=40ddc588-2e12-4892-ac9e-0ea33b8447d3"},"vehicle_type_id":"4","last_reported":1784207912,"current_range_meters":39200,"station_id":"ce4bhi12rcd13ifvqfq0","pricing_plan_id":"cebpf4jnsgd1na2vs0mg"},{"bike_id":"4c445abe-25ad-466b-a445-744bf62fbea8","system_id":"levelo_inurba_marseille","lat":43.24377,"lon":5.37033,"is_reserved":false,"is_disabled":false,"rental_uris":{"android":"levelo://app?vid=4c445abe-25ad-466b-a445-744bf62fbea8","ios":"levelo://app?vid=4c445abe-25ad-466b-a445-744bf62fbea8"},"vehicle_type_id":"4","last_reported":1784207912,"current_range_meters":39200,"station_id":"ce4bhhh2rcd13ifvqfk0","pricing_plan_id":"cebpf4jnsgd1na2vs0mg"},{"bike_id":"85aa1803-8127-4970-ad73-f8de39bdfbb8","system_id":"levelo_inurba_marseille","lat":43.32498,"lon":5.38303,"is_reserved":false,"is_disabled":false,"rental_uris":{"android":"levelo://app?vid=85aa1803-8127-4970-ad73-f8de39bdfbb8","ios":"levelo://app?vid=85aa1803-8127-4970-ad73-f8de39bdfbb8"},"vehicle_type_id":"4","last_reported":1784207912,"current_range_meters":15200,"station_id":"st_d4asgbiv49dc73anf9m0","pricing_plan_id":"cebpf4jnsgd1na2vs0mg"},{"bike_id":"b4ce9794-cffc-443c-92ab-12069f0893c3","system_id":"levelo_inurba_marseille","lat":43.31631,"lon":5.39491,"is_reserved":false,"is_disabled":false,"rental_uris":{"android":"levelo://app?vid=b4ce9794-cffc-443c-92ab-12069f0893c3","ios":"levelo://app?vid=b4ce9794-cffc-443c-92ab-12069f0893c3"},"vehicle_type_id":"4","last_reported":1784207912,"current_range_meters":35200,"station_id":"","pricing_plan_id":"cebpf4jnsgd1na2vs0mg"},{"bike_id":"7d0b05d9-d1b0-4c87-8557-ba9d94e1cb26","system_id":"levelo_inurba_marseille","lat":43.27839,"lon":5.39209,"is_reserved":false,"is_disabled":false,"rental_uris":{"android":"levelo://app?vid=7d0b05d9-d1b0-4c87-8557-ba9d94e1cb26","ios":"levelo://app?vid=7d0b05d9-d1b0-4c87-8557-ba9d94e1cb26"},"vehicle_type_id":"4","last_reported":1784207912,"current_range_meters":39200,"station_id":"ce4bhjp2rcd13ifvqga0","pricing_plan_id":"cebpf4jnsgd1na2vs0mg"},{"bike_id":"0d3e100f-48fe-47e1-bef7-0a1dcfcc4955","system_id":"levelo_inurba_marseille","lat":43.33704,"lon":5.39163,"is_reserved":false,"is_disabled":false,"rental_uris":{"android":"levelo://app?vid=0d3e100f-48fe-47e1-bef7-0a1dcfcc4955","ios":"levelo://app?vid=0d3e100f-48fe-47e1-bef7-0a1dcfcc4955"},"vehicle_type_id":"4","last_reported":1784207912,"current_range_meters":33200,"station_id":"ce4bhr92rcd13ifvqhsg","pricing_plan_id":"cebpf4jnsgd1na2vs0mg"},{"bike_id":"ddbfbc6e-9ea5-4164-b0a2-7cc31ec7c025","system_id":"levelo_inurba_marseille","lat":43.3211,"lon":5.36785,"is_reserved":false,"is_disabled":false,"rental_uris":{"android":"levelo://app?vid=ddbfbc6e-9ea5-4164-b0a2-7cc31ec7c025","ios":"levelo://app?vid=ddbfbc6e-9ea5-4164-b0a2-7cc31ec7c025"},"vehicle_type_id":"4","last_reported":1784207912,"current_range_meters":21600,"station_id":"ce4bhrh2rcd13ifvqhug","pricing_plan_id":"cebpf4jnsgd1na2vs0mg"},{"bike_id":"7c35e7b9-d6cd-4ca3-ac0d-8434252de34d","system_id":"levelo_inurba_marseille","lat":43.27197,"lon":5.39168,"is_reserved":false,"is_disabled":false,"rental_uris":{"android":"levelo://app?vid=7c35e7b9-d6cd-4ca3-ac0d-8434252de34d","ios":"levelo://app?vid=7c35e7b9-d6cd-4ca3-ac0d-8434252de34d"},"vehicle_type_id":"4","last_reported":1784207912,"current_range_meters":30800,"station_id":"ce4bhhp2rcd13ifvqfm0","pricing_plan_id":"cebpf4jnsgd1na2vs0mg"},{"bike_id":"3b7f7031-11b7-4d4b-9de7-3c23ec8137dc","system_id":"levelo_inurba_marseille","lat":43.25576,"lon":5.38237,"is_reserved":false,"is_disabled":false,"rental_uris":{"android":"levelo://app?vid=3b7f7031-11b7-4d4b-9de7-3c23ec8137dc","ios":"levelo://app?vid=3b7f7031-11b7-4d4b-9de7-3c23ec8137dc"},"vehicle_type_id":"4","last_reported":1784207912,"current_range_meters":14800,"station_id":"ce4bhih2rcd13ifvqfs0","pricing_plan_id":"cebpf4jnsgd1na2vs0mg"},{"bike_id":"c8f6e361-bd8d-40f9-8eed-08f9ed6d1ec8","system_id":"levelo_inurba_marseille","lat":43.28465,"lon":5.38415,"is_reserved":false,"is_disabled":false,"rental_uris":{"android":"levelo://app?vid=c8f6e361-bd8d-40f9-8eed-08f9ed6d1ec8","ios":"levelo://app?vid=c8f6e361-bd8d-40f9-8eed-08f9ed6d1ec8"},"vehicle_type_id":"4","last_reported":1784207912,"current_range_meters":35600,"station_id":"ce4bh512rcd13ifvqe3g","pricing_plan_id":"cebpf4jnsgd1na2vs0mg"},{"bike_id":"14cb60ff-218d-4242-b2f6-a19b80a91604","system_id":"levelo_inurba_marseille","lat":43.30949,"lon":5.39033,"is_reserved":false,"is_disabled":false,"rental_uris":{"android":"levelo://app?vid=14cb60ff-218d-4242-b2f6-a19b80a91604","ios":"levelo://app?vid=14cb60ff-218d-4242-b2f6-a19b80a91604"},"vehicle_type_id":"4","last_reported":1784207912,"current_range_meters":33600,"station_id":"ce4bgup2rcd13ifvqco0","pricing_plan_id":"cebpf4jnsgd1na2vs0mg"},{"bike_id":"b4b7cf45-857d-499f-903c-2153de8727c5","system_id":"levelo_inurba_marseille","lat":43.32492,"lon":5.3657,"is_reserved":false,"is_disabled":false,"rental_uris":{"android":"levelo://app?vid=b4b7cf45-857d-499f-903c-2153de8727c5","ios":"levelo://app?vid=b4b7cf45-857d-499f-903c-2153de8727c5"},"vehicle_type_id":"4","last_reported":1784207912,"current_range_meters":4800,"station_id":"ce4bhs12rcd13ifvqhvg","pricing_plan_id":"cebpf4jnsgd1na2vs0mg"},{"bike_id":"cf221891-28f4-4c61-aedf-5c04ffd24ec6","system_id":"levelo_inurba_marseille","lat":43.24402,"lon":5.37078,"is_reserved":false,"is_disabled":false,"rental_uris":{"android":"levelo://app?vid=cf221891-28f4-4c61-aedf-5c04ffd24ec6","ios":"levelo://app?vid=cf221891-28f4-4c61-aedf-5c04ffd24ec6"},"vehicle_type_id":"4","last_reported":1784207912,"current_range_meters":16800,"station_id":"ce4bhhh2rcd13ifvqfk0","pricing_plan_id":"cebpf4jnsgd1na2vs0mg"},{"bike_id":"e35a471f-4162-47db-b945-02d55802c4cc","system_id":"levelo_inurba_marseille","lat":43.28539,"lon":5.44104,"is_reserved":false,"is_disabled":false,"rental_uris":{"android":"levelo://app?vid=e35a471f-4162-47db-b945-02d55802c4cc","ios":"levelo://app?vid=e35a471f-4162-47db-b945-02d55802c4cc"},"vehicle_type_id":"4","last_reported":1784207912,"current_range_meters":38000,"station_id":"st_d3j3df2ikq2c7380ej80","pricing_plan_id":"cebpf4jnsgd1na2vs0mg"},{"bike_id":"de33586d-1ad6-43fb-abac-eff95af90a64","system_id":"levelo_inurba_marseille","lat":43.2602,"lon":5.3754,"is_reserved":false,"is_disabled":true,"rental_uris":{"android":"levelo://app?vid=de33586d-1ad6-43fb-abac-eff95af90a64","ios":"levelo://app?vid=de33586d-1ad6-43fb-abac-eff95af90a64"},"vehicle_type_id":"4","last_reported":1784207912,"current_range_meters":26000,"station_id":"ce4bhgh2rcd13ifvqfa0","pricing_plan_id":"cebpf4jnsgd1na2vs0mg"},{"bike_id":"05c29d56-6c44-4de6-93a8-ddd7db2f99c1","system_id":"levelo_inurba_marseille","lat":43.269268,"lon":5.389179,"is_reserved":false,"is_disabled":false,"rental_uris":{"android":"levelo://app?vid=05c29d56-6c44-4de6-93a8-ddd7db2f99c1","ios":"levelo://app?vid=05c29d56-6c44-4de6-93a8-ddd7db2f99c1"},"vehicle_type_id":"4","last_reported":1784207912,"current_range_meters":34000,"station_id":"ce4bhhh2rcd13ifvqfl0","pricing_plan_id":"cebpf4jnsgd1na2vs0mg"},{"bike_id":"13652050-b2e1-4225-9cf4-5b4af3b19551","system_id":"levelo_inurba_marseille","lat":43.3374,"lon":5.37486,"is_reserved":false,"is_disabled":false,"rental_uris":{"android":"levelo://app?vid=13652050-b2e1-4225-9cf4-5b4af3b19551","ios":"levelo://app?vid=13652050-b2e1-4225-9cf4-5b4af3b19551"},"vehicle_type_id":"4","last_reported":1784207912,"current_range_meters":12000,"station_id":"","pricing_plan_id":"cebpf4jnsgd1na2vs0mg"},{"bike_id":"24b5af5f-2d36-428d-8838-cf4253f7d6ba","system_id":"levelo_inurba_marseille","lat":43.27206,"lon":5.40959,"is_reserved":false,"is_disabled":false,"rental_uris":{"android":"levelo://app?vid=24b5af5f-2d36-428d-8838-cf4253f7d6ba","ios":"levelo://app?vid=24b5af5f-2d36-428d-8838-cf4253f7d6ba"},"vehicle_type_id":"4","last_reported":1784207912,"current_range_meters":38800,"station_id":"ce4bhl12rcd13ifvqgf0","pricing_plan_id":"cebpf4jnsgd1na2vs0mg"},{"bike_id":"e8f51142-8ed8-43c3-ac2d-e90167e464ec","system_id":"levelo_inurba_marseille","lat":43.24159,"lon":5.36408,"is_reserved":false,"is_disabled":false,"rental_uris":{"android":"levelo://app?vid=e8f51142-8ed8-43c3-ac2d-e90167e464ec","ios":"levelo://app?vid=e8f51142-8ed8-43c3-ac2d-e90167e464ec"},"vehicle_type_id":"4","last_reported":1784207912,"current_range_meters":14400,"station_id":"cpo36qri1sfpv3e86is0","pricing_plan_id":"cebpf4jnsgd1na2vs0mg"},{"bike_id":"eadbf5e7-6bfc-4e3a-b0e9-0f3c75f13d91","system_id":"levelo_inurba_marseille","lat":43.28137,"lon":5.37857,"is_reserved":false,"is_disabled":false,"rental_uris":{"android":"levelo://app?vid=eadbf5e7-6bfc-4e3a-b0e9-0f3c75f13d91","ios":"levelo://app?vid=eadbf5e7-6bfc-4e3a-b0e9-0f3c75f13d91"},"vehicle_type_id":"4","last_reported":1784207912,"current_range_meters":37600,"station_id":"ce4bha12rcd13ifvqee0","pricing_plan_id":"cebpf4jnsgd1na2vs0mg"},{"bike_id":"3c1f4e12-3940-433f-81ce-ffd240049ab9","system_id":"levelo_inurba_marseille","lat":43.29015,"lon":5.38149,"is_reserved":false,"is_disabled":false,"rental_uris":{"android":"levelo://app?vid=3c1f4e12-3940-433f-81ce-ffd240049ab9","ios":"levelo://app?vid=3c1f4e12-3940-433f-81ce-ffd240049ab9"},"vehicle_type_id":"4","last_reported":1784207912,"current_range_meters":30400,"station_id":"ce4bh4p2rcd13ifvqe1g","pricing_plan_id":"cebpf4jnsgd1na2vs0mg"},{"bike_id":"73251287-4e95-4b18-8e79-b655c97b37e5","system_id":"levelo_inurba_marseille","lat":43.28403,"lon":5.34996,"is_reserved":false,"is_disabled":false,"rental_uris":{"android":"levelo://app?vid=73251287-4e95-4b18-8e79-b655c97b37e5","ios":"levelo://app?vid=73251287-4e95-4b18-8e79-b655c97b37e5"},"vehicle_type_id":"4","last_reported":1784207912,"current_range_meters":39200,"station_id":"ce4bhbh2rcd13ifvqepg","pricing_plan_id":"cebpf4jnsgd1na2vs0mg"},{"bike_id":"9a206681-e829-4099-bae4-ea7cfb132a7b","system_id":"levelo_inurba_marseille","lat":43.29576,"lon":5.37521,"is_reserved":false,"is_disabled":false,"rental_uris":{"android":"levelo://app?vid=9a206681-e829-4099-bae4-ea7cfb132a7b","ios":"levelo://app?vid=9a206681-e829-4099-bae4-ea7cfb132a7b"},"vehicle_type_id":"4","last_reported":1784207912,"current_range_meters":39200,"station_id":"ce4bgh92rcd13ifvqb50","pricing_plan_id":"cebpf4jnsgd1na2vs0mg"},{"bike_id":"7604574c-06cb-407e-9e16-b7858411e1bc","system_id":"levelo_inurba_marseille","lat":43.27834,"lon":5.40715,"is_reserved":false,"is_disabled":true,"rental_uris":{"android":"levelo://app?vid=7604574c-06cb-407e-9e16-b7858411e1bc","ios":"levelo://app?vid=7604574c-06cb-407e-9e16-b7858411e1bc"},"vehicle_type_id":"4","last_reported":1784207912,"current_range_meters":24400,"station_id":"ce4bhnh2rcd13ifvqgtg","pricing_plan_id":"cebpf4jnsgd1na2vs0mg"},{"bike_id":"600d3649-4b6d-473c-a715-d27921e00684","system_id":"levelo_inurba_marseille","lat":43.23202,"lon":5.35552,"is_reserved":false,"is_disabled":false,"rental_uris":{"android":"levelo://app?vid=600d3649-4b6d-473c-a715-d27921e00684","ios":"levelo://app?vid=600d3649-4b6d-473c-a715-d27921e00684"},"vehicle_type_id":"4","last_reported":1784207912,"current_range_meters":28000,"station_id":"ce4bhu92rcd13ifvqi70","pricing_plan_id":"cebpf4jnsgd1na2vs0mg"},{"bike_id":"96df59d3-dc0f-40ec-aa57-9c523b0a9262","system_id":"levelo_inurba_marseille","lat":43.31355,"lon":5.38178,"is_reserved":false,"is_disabled":false,"rental_uris":{"android":"levelo://app?vid=96df59d3-dc0f-40ec-aa57-9c523b0a9262","ios":"levelo://app?vid=96df59d3-dc0f-40ec-aa57-9c523b0a9262"},"vehicle_type_id":"4","last_reported":1784207912,"current_range_meters":32000,"station_id":"","pricing_plan_id":"cebpf4jnsgd1na2vs0mg"},{"bike_id":"a5874282-4bf4-4bb8-957c-0c4b3e0b0d95","system_id":"levelo_inurba_marseille","lat":43.25069,"lon":5.39519,"is_reserved":false,"is_disabled":false,"rental_uris":{"android":"levelo://app?vid=a5874282-4bf4-4bb8-957c-0c4b3e0b0d95","ios":"levelo://app?vid=a5874282-4bf4-4bb8-957c-0c4b3e0b0d95"},"vehicle_type_id":"4","last_reported":1784207912,"current_range_meters":38000,"station_id":"ce4bhm12rcd13ifvqgkg","pricing_plan_id":"cebpf4jnsgd1na2vs0mg"},{"bike_id":"4114751a-3c44-46b0-979b-b9ba4f78ff44","system_id":"levelo_inurba_marseille","lat":43.2533,"lon":5.42166,"is_reserved":false,"is_disabled":false,"rental_uris":{"android":"levelo://app?vid=4114751a-3c44-46b0-979b-b9ba4f78ff44","ios":"levelo://app?vid=4114751a-3c44-46b0-979b-b9ba4f78ff44"},"vehicle_type_id":"4","last_reported":1784207912,"current_range_meters":20400,"station_id":"st_d2m65c5bi1j21697t3ng","pricing_plan_id":"cebpf4jnsgd1na2vs0mg"},{"bike_id":"ae8d07f8-d83f-4df5-8725-1125b8447f31","system_id":"levelo_inurba_marseille","lat":43.27556,"lon":5.38438,"is_reserved":false,"is_disabled":false,"rental_uris":{"android":"levelo://app?vid=ae8d07f8-d83f-4df5-8725-1125b8447f31","ios":"levelo://app?vid=ae8d07f8-d83f-4df5-8725-1125b8447f31"},"vehicle_type_id":"4","last_reported":1784207912,"current_range_meters":28800,"station_id":"ce4bhh92rcd13ifvqfi0","pricing_plan_id":"cebpf4jnsgd1na2vs0mg"},{"bike_id":"d1210815-3b6f-46d9-8562-5a9f90c2f696","system_id":"levelo_inurba_marseille","lat":43.2918,"lon":5.35795,"is_reserved":false,"is_disabled":true,"rental_uris":{"android":"levelo://app?vid=d1210815-3b6f-46d9-8562-5a9f90c2f696","ios":"levelo://app?vid=d1210815-3b6f-46d9-8562-5a9f90c2f696"},"vehicle_type_id":"4","last_reported":1784207912,"current_range_meters":13600,"station_id":"ce4bhb12rcd13ifvqel0","pricing_plan_id":"cebpf4jnsgd1na2vs0mg"},{"bike_id":"d93abc91-80ca-4c6f-ba7f-f1450dcee09f","system_id":"levelo_inurba_marseille","lat":43.30903,"lon":5.36859,"is_reserved":false,"is_disabled":false,"rental_uris":{"android":"levelo://app?vid=d93abc91-80ca-4c6f-ba7f-f1450dcee09f","ios":"levelo://app?vid=d93abc91-80ca-4c6f-ba7f-f1450dcee09f"},"vehicle_type_id":"4","last_reported":1784207912,"current_range_meters":23200,"station_id":"ce4bgn92rcd13ifvqbvg","pricing_plan_id":"cebpf4jnsgd1na2vs0mg"},{"bike_id":"bd3c0e56-a259-4b93-8100-5171a29360c5","system_id":"levelo_inurba_marseille","lat":43.29045,"lon":5.35908,"is_reserved":false,"is_disabled":true,"rental_uris":{"android":"levelo://app?vid=bd3c0e56-a259-4b93-8100-5171a29360c5","ios":"levelo://app?vid=bd3c0e56-a259-4b93-8100-5171a29360c5"},"vehicle_type_id":"4","last_reported":1784207912,"current_range_meters":23200,"station_id":"ce4bha92rcd13ifvqeg0","pricing_plan_id":"cebpf4jnsgd1na2vs0mg"},{"bike_id":"20372ad0-fd7b-46b8-bedf-802bd10d3a91","system_id":"levelo_inurba_marseille","lat":43.29964,"lon":5.38506,"is_reserved":false,"is_disabled":false,"rental_uris":{"android":"levelo://app?vid=20372ad0-fd7b-46b8-bedf-802bd10d3a91","ios":"levelo://app?vid=20372ad0-fd7b-46b8-bedf-802bd10d3a91"},"vehicle_type_id":"4","last_reported":1784207912,"current_range_meters":6800,"station_id":"ce4bgj92rcd13ifvqbd0","pricing_plan_id":"cebpf4jnsgd1na2vs0mg"},{"bike_id":"f4b80bb1-bca0-47c0-a91b-a2d8fb5647c2","system_id":"levelo_inurba_marseille","lat":43.28084,"lon":5.39658,"is_reserved":false,"is_disabled":false,"rental_uris":{"android":"levelo://app?vid=f4b80bb1-bca0-47c0-a91b-a2d8fb5647c2","ios":"levelo://app?vid=f4b80bb1-bca0-47c0-a91b-a2d8fb5647c2"},"vehicle_type_id":"4","last_reported":1784207912,"current_range_meters":34800,"station_id":"ce4bho12rcd13ifvqh2g","pricing_plan_id":"cebpf4jnsgd1na2vs0mg"},{"bike_id":"4f68d89f-2860-4fe4-aeef-ae7316f7c98e","system_id":"levelo_inurba_marseille","lat":43.28936,"lon":5.42777,"is_reserved":false,"is_disabled":false,"rental_uris":{"android":"levelo://app?vid=4f68d89f-2860-4fe4-aeef-ae7316f7c98e","ios":"levelo://app?vid=4f68d89f-2860-4fe4-aeef-ae7316f7c98e"},"vehicle_type_id":"4","last_reported":1784207912,"current_range_meters":29600,"station_id":"","pricing_plan_id":"cebpf4jnsgd1na2vs0mg"},{"bike_id":"bde0aa22-d321-4c29-8cb2-07aac41fd4d8","system_id":"levelo_inurba_marseille","lat":43.29211,"lon":5.36029,"is_reserved":false,"is_disabled":false,"rental_uris":{"android":"levelo://app?vid=bde0aa22-d321-4c29-8cb2-07aac41fd4d8","ios":"levelo://app?vid=bde0aa22-d321-4c29-8cb2-07aac41fd4d8"},"vehicle_type_id":"4","last_reported":1784207912,"current_range_meters":40000,"station_id":"","pricing_plan_id":"cebpf4jnsgd1na2vs0mg"},{"bike_id":"35bd0f1d-508e-41f7-83fa-f3e805aab35e","system_id":"levelo_inurba_marseille","lat":43.30312,"lon":5.37686,"is_reserved":false,"is_disabled":true,"rental_uris":{"android":"levelo://app?vid=35bd0f1d-508e-41f7-83fa-f3e805aab35e","ios":"levelo://app?vid=35bd0f1d-508e-41f7-83fa-f3e805aab35e"},"vehicle_type_id":"4","last_reported":1784207912,"current_range_meters":17200,"station_id":"ce4bguh2rcd13ifvqcj0","pricing_plan_id":"cebpf4jnsgd1na2vs0mg"},{"bike_id":"c9a0507e-542c-41f8-b33a-9f5eade0dcfc","system_id":"levelo_inurba_marseille","lat":43.30465,"lon":5.37927,"is_reserved":false,"is_disabled":false,"rental_uris":{"android":"levelo://app?vid=c9a0507e-542c-41f8-b33a-9f5eade0dcfc","ios":"levelo://app?vid=c9a0507e-542c-41f8-b33a-9f5eade0dcfc"},"vehicle_type_id":"4","last_reported":1784207912,"current_range_meters":28000,"station_id":"ce4bgup2rcd13ifvqcn0","pricing_plan_id":"cebpf4jnsgd1na2vs0mg"},{"bike_id":"02648ff2-b0bb-4387-8127-7b976815fa50","system_id":"levelo_inurba_marseille","lat":43.25929,"lon":5.40874,"is_reserved":false,"is_disabled":false,"rental_uris":{"android":"levelo://app?vid=02648ff2-b0bb-4387-8127-7b976815fa50","ios":"levelo://app?vid=02648ff2-b0bb-4387-8127-7b976815fa50"},"vehicle_type_id":"4","last_reported":1784207912,"current_range_meters":11200,"station_id":"ce4bhm92rcd13ifvqglg","pricing_plan_id":"cebpf4jnsgd1na2vs0mg"},{"bike_id":"25f76f9b-eb5b-409f-bc7a-91951db77f8a","system_id":"levelo_inurba_marseille","lat":43.26764,"lon":5.39438,"is_reserved":false,"is_disabled":false,"rental_uris":{"android":"levelo://app?vid=25f76f9b-eb5b-409f-bc7a-91951db77f8a","ios":"levelo://app?vid=25f76f9b-eb5b-409f-bc7a-91951db77f8a"},"vehicle_type_id":"4","last_reported":1784207912,"current_range_meters":34000,"station_id":"ce4bhh12rcd13ifvqfg0","pricing_plan_id":"cebpf4jnsgd1na2vs0mg"},{"bike_id":"0cf8bba0-0fda-4934-98aa-6f4695bd6551","system_id":"levelo_inurba_marseille","lat":43.22539,"lon":5.34842,"is_reserved":false,"is_disabled":true,"rental_uris":{"android":"levelo://app?vid=0cf8bba0-0fda-4934-98aa-6f4695bd6551","ios":"levelo://app?vid=0cf8bba0-0fda-4934-98aa-6f4695bd6551"},"vehicle_type_id":"4","last_reported":1784207912,"current_range_meters":0,"station_id":"st_cvj5dfep6f1abm77gieg","pricing_plan_id":"cebpf4jnsgd1na2vs0mg"},{"bike_id":"aa5d3c4c-9f33-4be5-be80-01a02d569199","system_id":"levelo_inurba_marseille","lat":43.26938,"lon":5.38928,"is_reserved":false,"is_disabled":true,"rental_uris":{"android":"levelo://app?vid=aa5d3c4c-9f33-4be5-be80-01a02d569199","ios":"levelo://app?vid=aa5d3c4c-9f33-4be5-be80-01a02d569199"},"vehicle_type_id":"4","last_reported":1784207912,"current_range_meters":39200,"station_id":"ce4bhhh2rcd13ifvqfl0","pricing_plan_id":"cebpf4jnsgd1na2vs0mg"},{"bike_id":"866086d3-1411-452e-bba5-6547ff2671ae","system_id":"levelo_inurba_marseille","lat":43.26337,"lon":5.37355,"is_reserved":false,"is_disabled":false,"rental_uris":{"android":"levelo://app?vid=866086d3-1411-452e-bba5-6547ff2671ae","ios":"levelo://app?vid=866086d3-1411-452e-bba5-6547ff2671ae"},"vehicle_type_id":"4","last_reported":1784207912,"current_range_meters":3200,"station_id":"","pricing_plan_id":"cebpf4jnsgd1na2vs0mg"},{"bike_id":"ccee8707-a345-4f2d-95ce-ae437a4056e2","system_id":"levelo_inurba_marseille","lat":43.28855,"lon":5.35865,"is_reserved":false,"is_disabled":false,"rental_uris":{"android":"levelo://app?vid=ccee8707-a345-4f2d-95ce-ae437a4056e2","ios":"levelo://app?vid=ccee8707-a345-4f2d-95ce-ae437a4056e2"},"vehicle_type_id":"4","last_reported":1784207912,"current_range_meters":29600,"station_id":"ce4bhb12rcd13ifvqem0","pricing_plan_id":"cebpf4jnsgd1na2vs0mg"},{"bike_id":"762bb233-b9d3-40b0-bcf6-eb29373a9982","system_id":"levelo_inurba_marseille","lat":43.30539,"lon":5.3841,"is_reserved":false,"is_disabled":false,"rental_uris":{"android":"levelo://app?vid=762bb233-b9d3-40b0-bcf6-eb29373a9982","ios":"levelo://app?vid=762bb233-b9d3-40b0-bcf6-eb29373a9982"},"vehicle_type_id":"4","last_reported":1784207912,"current_range_meters":24000,"station_id":"ce4bgg92rcd13ifvqb30","pricing_plan_id":"cebpf4jnsgd1na2vs0mg"},{"bike_id":"955a6699-20af-4ebc-8da6-998ca13ecd04","system_id":"levelo_inurba_marseille","lat":43.29457,"lon":5.40286,"is_reserved":false,"is_disabled":false,"rental_uris":{"android":"levelo://app?vid=955a6699-20af-4ebc-8da6-998ca13ecd04","ios":"levelo://app?vid=955a6699-20af-4ebc-8da6-998ca13ecd04"},"vehicle_type_id":"4","last_reported":1784207912,"current_range_meters":27200,"station_id":"","pricing_plan_id":"cebpf4jnsgd1na2vs0mg"},{"bike_id":"80df95a3-de61-4c2b-9fb5-0c32884ae613","system_id":"levelo_inurba_marseille","lat":43.32347,"lon":5.36734,"is_reserved":false,"is_disabled":false,"rental_uris":{"android":"levelo://app?vid=80df95a3-de61-4c2b-9fb5-0c32884ae613","ios":"levelo://app?vid=80df95a3-de61-4c2b-9fb5-0c32884ae613"},"vehicle_type_id":"4","last_reported":1784207912,"current_range_meters":38800,"station_id":"ce4bhsh2rcd13ifvqi2g","pricing_plan_id":"cebpf4jnsgd1na2vs0mg"},{"bike_id":"46b09e4f-39c7-4aa6-aa1f-993465cc57d9","system_id":"levelo_inurba_marseille","lat":43.26833,"lon":5.40336,"is_reserved":false,"is_disabled":false,"rental_uris":{"android":"levelo://app?vid=46b09e4f-39c7-4aa6-aa1f-993465cc57d9","ios":"levelo://app?vid=46b09e4f-39c7-4aa6-aa1f-993465cc57d9"},"vehicle_type_id":"4","last_reported":1784207912,"current_range_meters":38000,"station_id":"","pricing_plan_id":"cebpf4jnsgd1na2vs0mg"},{"bike_id":"7107958d-b1f9-4cf7-aad7-8c648f595b93","system_id":"levelo_inurba_marseille","lat":43.26559,"lon":5.37282,"is_reserved":false,"is_disabled":false,"rental_uris":{"android":"levelo://app?vid=7107958d-b1f9-4cf7-aad7-8c648f595b93","ios":"levelo://app?vid=7107958d-b1f9-4cf7-aad7-8c648f595b93"},