{"last_updated":1687115067,"ttl":30,"version":"2.2","data":{"bikes":[{"bike_id":"929be8de-8a59-44c1-a53d-c02a2aff227e","system_id":"levelo_inurba_marseille","lat":43.312239,"lon":5.368562,"is_reserved":false,"is_disabled":false,"rental_uris":{"android":"levelo://app?vid=929be8de-8a59-44c1-a53d-c02a2aff227e","ios":"levelo://app?vid=929be8de-8a59-44c1-a53d-c02a2aff227e"},"vehicle_type_id":"4","last_reported":1687115068,"current_range_meters":20800,"station_id":"ce4bgl92rcd13ifvqbq0","pricing_plan_id":"free"},{"bike_id":"595b09ae-ade1-4d40-83eb-548895143d38","system_id":"levelo_inurba_marseille","lat":43.314811,"lon":5.373103,"is_reserved":false,"is_disabled":false,"rental_uris":{"android":"levelo://app?vid=595b09ae-ade1-4d40-83eb-548895143d38","ios":"levelo://app?vid=595b09ae-ade1-4d40-83eb-548895143d38"},"vehicle_type_id":"4","last_reported":1687115068,"current_range_meters":30000,"station_id":"ce4bgt12rcd13ifvqcd0","pricing_plan_id":"free"},{"bike_id":"9c010ccd-71df-4eb6-916b-68947abfa074","system_id":"levelo_inurba_marseille","lat":43.314811,"lon":5.373103,"is_reserved":false,"is_disabled":false,"rental_uris":{"android":"levelo://app?vid=9c010ccd-71df-4eb6-916b-68947abfa074","ios":"levelo://app?vid=9c010ccd-71df-4eb6-916b-68947abfa074"},"vehicle_type_id":"4","last_reported":1687115068,"current_range_meters":30400,"station_id":"ce4bgt12rcd13ifvqcd0","pricing_plan_id":"free"},{"bike_id":"b719d87b-de85-43ed-8a13-975adba974e3","system_id":"levelo_inurba_marseille","lat":43.30537,"lon":5.367345,"is_reserved":false,"is_disabled":false,"rental_uris":{"android":"levelo://app?vid=b719d87b-de85-43ed-8a13-975adba974e3","ios":"levelo://app?vid=b719d87b-de85-43ed-8a13-975adba974e3"},"vehicle_type_id":"4","last_reported":1687115068,"current_range_meters":16400,"station_id":"ce4bgrp2rcd13ifvqc9g","pricing_plan_id":"free"},{"bike_id":"a7cab784-e69a-4e70-abd6-ed1049c9b6c2","system_id":"levelo_inurba_marseille","lat":43.305706,"lon":5.365654,"is_reserved":false,"is_disabled":false,"rental_uris":{"android":"levelo://app?vid=a7cab784-e69a-4e70-abd6-ed1049c9b6c2","ios":"levelo://app?vid=a7cab784-e69a-4e70-abd6-ed1049c9b6c2"},"vehicle_type_id":"4","last_reported":1687115068,"current_range_meters":5200,"station_id":"ce4bgs12rcd13ifvqcag","pricing_plan_id":"free"},{"bike_id":"3e276c88-69f7-4ce6-8ab9-1adc048d59fc","system_id":"levelo_inurba_marseille","lat":43.305368,"lon":5.367343,"is_reserved":false,"is_disabled":false,"rental_uris":{"android":"levelo://app?vid=3e276c88-69f7-4ce6-8ab9-1adc048d59fc","ios":"levelo://app?vid=3e276c88-69f7-4ce6-8ab9-1adc048d59fc"},"vehicle_type_id":"4","last_reported":1687115068,"current_range_meters":0,"station_id":"ce4bgrp2rcd13ifvqc9g","pricing_plan_id":"free"},{"bike_id":"7b4a62b4-7c89-4501-b5d9-de710692d642","system_id":"levelo_inurba_marseille","lat":43.305989,"lon":5.37225,"is_reserved":false,"is_disabled":false,"rental_uris":{"android":"levelo://app?vid=7b4a62b4-7c89-4501-b5d9-de710692d642","ios":"levelo://app?vid=7b4a62b4-7c89-4501-b5d9-de710692d642"},"vehicle_type_id":"4","last_reported":1687115068,"current_range_meters":24000,"station_id":"ce4bgqh2rcd13ifvqc4g","pricing_plan_id":"free"},{"bike_id":"929e5808-f580-4c02-ac93-0fea330f4095","system_id":"levelo_inurba_marseille","lat":43.305989,"lon":5.37225,"is_reserved":false,"is_disabled":false,"rental_uris":{"android":"levelo://app?vid=929e5808-f580-4c02-ac93-0fea330f4095","ios":"levelo://app?vid=929e5808-f580-4c02-ac93-0fea330f4095"},"vehicle_type_id":"4","last_reported":1687115068,"current_range_meters":8000,"station_id":"ce4bgqh2rcd13ifvqc4g","pricing_plan_id":"free"},{"bike_id":"612ae939-a332-4e78-8447-93e3e426d025","system_id":"levelo_inurba_marseille","lat":43.311125,"lon":5.377624,"is_reserved":false,"is_disabled":false,"rental_uris":{"android":"levelo://app?vid=612ae939-a332-4e78-8447-93e3e426d025","ios":"levelo://app?vid=612ae939-a332-4e78-8447-93e3e426d025"},"vehicle_type_id":"4","last_reported":1687115068,"current_range_meters":21600,"station_id":"ce4bgt92rcd13ifvqcg0","pricing_plan_id":"free"},{"bike_id":"d641abf7-d3cb-4aea-b4ff-7755ea2ba3e7","system_id":"levelo_inurba_marseille","lat":43.311125,"lon":5.377624,"is_reserved":false,"is_disabled":false,"rental_uris":{"android":"levelo://app?vid=d641abf7-d3cb-4aea-b4ff-7755ea2ba3e7","ios":"levelo://app?vid=d641abf7-d3cb-4aea-b4ff-7755ea2ba3e7"},"vehicle_type_id":"4","last_reported":1687115068,"current_range_meters":3600,"station_id":"ce4bgt92rcd13ifvqcg0","pricing_plan_id":"free"},{"bike_id":"2424216c-0462-4ad0-b127-d0366c91b61c","system_id":"levelo_inurba_marseille","lat":43.31695,"lon":5.37689,"is_reserved":false,"is_disabled":false,"rental_uris":{"android":"levelo://app?vid=2424216c-0462-4ad0-b127-d0366c91b61c","ios":"levelo://app?vid=2424216c-0462-4ad0-b127-d0366c91b61c"},"vehicle_type_id":"4","last_reported":1687115068,"current_range_meters":27200,"station_id":"","pricing_plan_id":"free"},{"bike_id":"b48459f9-b0d0-4408-a23f-f04fe16e41c6","system_id":"levelo_inurba_marseille","lat":43.317075,"lon":5.377367,"is_reserved":false,"is_disabled":false,"rental_uris":{"android":"levelo://app?vid=b48459f9-b0d0-4408-a23f-f04fe16e41c6","ios":"levelo://app?vid=b48459f9-b0d0-4408-a23f-f04fe16e41c6"},"vehicle_type_id":"4","last_reported":1687115068,"current_range_meters":31200,"station_id":"ce4bgth2rcd13ifvqch0","pricing_plan_id":"free"},{"bike_id":"8d51db3c-ddf0-4868-a42f-0868b9c8ed86","system_id":"levelo_inurba_marseille","lat":43.31534,"lon":5.38044,"is_reserved":false,"is_disabled":false,"rental_uris":{"android":"levelo://app?vid=8d51db3c-ddf0-4868-a42f-0868b9c8ed86","ios":"levelo://app?vid=8d51db3c-ddf0-4868-a42f-0868b9c8ed86"},"vehicle_type_id":"4","last_reported":1687115068,"current_range_meters":28800,"station_id":"ce4bhsp2rcd13ifvqi50","pricing_plan_id":"free"},{"bike_id":"cada2054-cd0b-4ffd-b35d-70e3683fc5a7","system_id":"levelo_inurba_marseille","lat":43.31531,"lon":5.38047,"is_reserved":false,"is_disabled":false,"rental_uris":{"android":"levelo://app?vid=cada2054-cd0b-4ffd-b35d-70e3683fc5a7","ios":"levelo://app?vid=cada2054-cd0b-4ffd-b35d-70e3683fc5a7"},"vehicle_type_id":"4","last_reported":1687115068,"current_range_meters":28000,"station_id":"ce4bhsp2rcd13ifvqi50","pricing_plan_id":"free"},{"bike_id":"7d30334c-f739-4073-9045-8cfd84323b88","system_id":"levelo_inurba_marseille","lat":43.308,"lon":5.38144,"is_reserved":false,"is_disabled":false,"rental_uris":{"android":"levelo://app?vid=7d30334c-f739-4073-9045-8cfd84323b88","ios":"levelo://app?vid=7d30334c-f739-4073-9045-8cfd84323b88"},"vehicle_type_id":"4","last_reported":1687115068,"current_range_meters":6800,"station_id":"ce4bgt12rcd13ifvqce0","pricing_plan_id":"free"},{"bike_id":"df7c50a5-8c26-4d1c-9490-b58af6ff26de","system_id":"levelo_inurba_marseille","lat":43.308012,"lon":5.381511,"is_reserved":false,"is_disabled":false,"rental_uris":{"android":"levelo://app?vid=df7c50a5-8c26-4d1c-9490-b58af6ff26de","ios":"levelo://app?vid=df7c50a5-8c26-4d1c-9490-b58af6ff26de"},"vehicle_type_id":"4","last_reported":1687115068,"current_range_meters":11600,"station_id":"ce4bgt12rcd13ifvqce0","pricing_plan_id":"free"},{"bike_id":"ae33307b-fcd5-479b-9ae1-9002ed226c6e","system_id":"levelo_inurba_marseille","lat":43.308012,"lon":5.381511,"is_reserved":false,"is_disabled":false,"rental_uris":{"android":"levelo://app?vid=ae33307b-fcd5-479b-9ae1-9002ed226c6e","ios":"levelo://app?vid=ae33307b-fcd5-479b-9ae1-9002ed226c6e"},"vehicle_type_id":"4","last_reported":1687115068,"current_range_meters":28800,"station_id":"ce4bgt12rcd13ifvqce0","pricing_plan_id":"free"},{"bike_id":"86ab7423-6c66-40dd-9cb0-82f1a7d44447","system_id":"levelo_inurba_marseille","lat":43.3046,"lon":5.37903,"is_reserved":false,"is_disabled":false,"rental_uris":{"android":"levelo://app?vid=86ab7423-6c66-40dd-9cb0-82f1a7d44447","ios":"levelo://app?vid=86ab7423-6c66-40dd-9cb0-82f1a7d44447"},"vehicle_type_id":"4","last_reported":1687115068,"current_range_meters":1200,"station_id":"ce4bgup2rcd13ifvqcn0","pricing_plan_id":"free"},{"bike_id":"43fc693e-f2a9-4aec-8fd9-d094bb02cb70","system_id":"levelo_inurba_marseille","lat":43.304606,"lon":5.379026,"is_reserved":false,"is_disabled":false,"rental_uris":{"android":"levelo://app?vid=43fc693e-f2a9-4aec-8fd9-d094bb02cb70","ios":"levelo://app?vid=43fc693e-f2a9-4aec-8fd9-d094bb02cb70"},"vehicle_type_id":"4","last_reported":1687115068,"current_range_meters":16400,"station_id":"ce4bgup2rcd13ifvqcn0","pricing_plan_id":"free"},{"bike_id":"f57c069b-cd1d-4c8d-80c2-a16d9f1ffb8e","system_id":"levelo_inurba_marseille","lat":43.301429,"lon":5.37413,"is_reserved":false,"is_disabled":false,"rental_uris":{"android":"levelo://app?vid=f57c069b-cd1d-4c8d-80c2-a16d9f1ffb8e","ios":"levelo://app?vid=f57c069b-cd1d-4c8d-80c2-a16d9f1ffb8e"},"vehicle_type_id":"4","last_reported":1687115068,"current_range_meters":4000,"station_id":"ce4bgs92rcd13ifvqcc0","pricing_plan_id":"free"},{"bike_id":"0f56daf5-8688-43b3-9f2b-3d2cd18aeb14","system_id":"levelo_inurba_marseille","lat":43.297794,"lon":5.370888,"is_reserved":false,"is_disabled":false,"rental_uris":{"android":"levelo://app?vid=0f56daf5-8688-43b3-9f2b-3d2cd18aeb14","ios":"levelo://app?vid=0f56daf5-8688-43b3-9f2b-3d2cd18aeb14"},"vehicle_type_id":"4","last_reported":1687115068,"current_range_meters":800,"station_id":"ce4bgop2rcd13ifvqc1g","pricing_plan_id":"free"},{"bike_id":"37d9b9e1-79d4-42b4-925e-88f8da124109","system_id":"levelo_inurba_marseille","lat":43.297794,"lon":5.370888,"is_reserved":false,"is_disabled":false,"rental_uris":{"android":"levelo://app?vid=37d9b9e1-79d4-42b4-925e-88f8da124109","ios":"levelo://app?vid=37d9b9e1-79d4-42b4-925e-88f8da124109"},"vehicle_type_id":"4","last_reported":1687115068,"current_range_meters":24400,"station_id":"ce4bgop2rcd13ifvqc1g","pricing_plan_id":"free"},{"bike_id":"a728e8fd-ba2d-44bb-af04-ede21f21149a","system_id":"levelo_inurba_marseille","lat":43.297794,"lon":5.370888,"is_reserved":false,"is_disabled":false,"rental_uris":{"android":"levelo://app?vid=a728e8fd-ba2d-44bb-af04-ede21f21149a","ios":"levelo://app?vid=a728e8fd-ba2d-44bb-af04-ede21f21149a"},"vehicle_type_id":"4","last_reported":1687115068,"current_range_meters":8400,"station_id":"ce4bgop2rcd13ifvqc1g","pricing_plan_id":"free"},{"bike_id":"8f0e027f-334f-43e2-9542-34a0360bc027","system_id":"levelo_inurba_marseille","lat":43.297794,"lon":5.370888,"is_reserved":false,"is_disabled":false,"rental_uris":{"android":"levelo://app?vid=8f0e027f-334f-43e2-9542-34a0360bc027","ios":"levelo://app?vid=8f0e027f-334f-43e2-9542-34a0360bc027"},"vehicle_type_id":"4","last_reported":1687115068,"current_range_meters":5600,"station_id":"ce4bgop2rcd13ifvqc1g","pricing_plan_id":"free"},{"bike_id":"6d5ccf33-759a-4c7a-af82-9f67388b4177","system_id":"levelo_inurba_marseille","lat":43.32825,"lon":5.36683,"is_reserved":false,"is_disabled":false,"rental_uris":{"android":"levelo://app?vid=6d5ccf33-759a-4c7a-af82-9f67388b4177","ios":"levelo://app?vid=6d5ccf33-759a-4c7a-af82-9f67388b4177"},"vehicle_type_id":"4","last_reported":1687115068,"current_range_meters":29600,"station_id":"ce4bhs92rcd13ifvqi0g","pricing_plan_id":"free"},{"bike_id":"c4c82479-60a6-4390-8970-3229e3eebb9c","system_id":"levelo_inurba_marseille","lat":43.32827,"lon":5.36686,"is_reserved":false,"is_disabled":false,"rental_uris":{"android":"levelo://app?vid=c4c82479-60a6-4390-8970-3229e3eebb9c","ios":"levelo://app?vid=c4c82479-60a6-4390-8970-3229e3eebb9c"},"vehicle_type_id":"4","last_reported":1687115068,"current_range_meters":18000,"station_id":"ce4bhs92rcd13ifvqi0g","pricing_plan_id":"free"},{"bike_id":"27e857a0-6074-435d-85c0-7fc3761f1cbb","system_id":"levelo_inurba_marseille","lat":43.32827,"lon":5.36677,"is_reserved":false,"is_disabled":false,"rental_uris":{"android":"levelo://app?vid=27e857a0-6074-435d-85c0-7fc3761f1cbb","ios":"levelo://app?vid=27e857a0-6074-435d-85c0-7fc3761f1cbb"},"vehicle_type_id":"4","last_reported":1687115068,"current_range_meters":29200,"station_id":"ce4bhs92rcd13ifvqi0g","pricing_plan_id":"free"},{"bike_id":"731cce5d-c725-402d-b941-54910a08f036","system_id":"levelo_inurba_marseille","lat":43.3283,"lon":5.36677,"is_reserved":false,"is_disabled":false,"rental_uris":{"android":"levelo://app?vid=731cce5d-c725-402d-b941-54910a08f036","ios":"levelo://app?vid=731cce5d-c725-402d-b941-54910a08f036"},"vehicle_type_id":"4","last_reported":1687115068,"current_range_meters":29200,"station_id":"ce4bhs92rcd13ifvqi0g","pricing_plan_id":"free"},{"bike_id":"eb463cab-b54c-4ed2-a710-d6d777606789","system_id":"levelo_inurba_marseille","lat":43.32832,"lon":5.36685,"is_reserved":false,"is_disabled":false,"rental_uris":{"android":"levelo://app?vid=eb463cab-b54c-4ed2-a710-d6d777606789","ios":"levelo://app?vid=eb463cab-b54c-4ed2-a710-d6d777606789"},"vehicle_type_id":"4","last_reported":1687115068,"current_range_meters":16800,"station_id":"ce4bhs92rcd13ifvqi0g","pricing_plan_id":"free"},{"bike_id":"69bf5c29-7e5d-45c7-b1b2-514d42707ee7","system_id":"levelo_inurba_marseille","lat":43.32833,"lon":5.36686,"is_reserved":false,"is_disabled":false,"rental_uris":{"android":"levelo://app?vid=69bf5c29-7e5d-45c7-b1b2-514d42707ee7","ios":"levelo://app?vid=69bf5c29-7e5d-45c7-b1b2-514d42707ee7"},"vehicle_type_id":"4","last_reported":1687115068,"current_range_meters":29600,"station_id":"ce4bhs92rcd13ifvqi0g","pricing_plan_id":"free"},{"bike_id":"78911849-321a-41c5-b67b-eefecdab885b","system_id":"levelo_inurba_marseille","lat":43.32833,"lon":5.3668,"is_reserved":false,"is_disabled":false,"rental_uris":{"android":"levelo://app?vid=78911849-321a-41c5-b67b-eefecdab885b","ios":"levelo://app?vid=78911849-321a-41c5-b67b-eefecdab885b"},"vehicle_type_id":"4","last_reported":1687115068,"current_range_meters":9600,"station_id":"ce4bhs92rcd13ifvqi0g","pricing_plan_id":"free"},{"bike_id":"176f4894-d7fc-460e-aa5d-7c8c1e206dc3","system_id":"levelo_inurba_marseille","lat":43.297163,"lon":5.365866,"is_reserved":false,"is_disabled":false,"rental_uris":{"android":"levelo://app?vid=176f4894-d7fc-460e-aa5d-7c8c1e206dc3","ios":"levelo://app?vid=176f4894-d7fc-460e-aa5d-7c8c1e206dc3"},"vehicle_type_id":"4","last_reported":1687115068,"current_range_meters":10000,"station_id":"ce4bgn12rcd13ifvqbt0","pricing_plan_id":"free"},{"bike_id":"9e60ff88-fe04-4b70-9af4-05a83fe316c7","system_id":"levelo_inurba_marseille","lat":43.32835,"lon":5.36685,"is_reserved":false,"is_disabled":false,"rental_uris":{"android":"levelo://app?vid=9e60ff88-fe04-4b70-9af4-05a83fe316c7","ios":"levelo://app?vid=9e60ff88-fe04-4b70-9af4-05a83fe316c7"},"vehicle_type_id":"4","last_reported":1687115068,"current_range_meters":28000,"station_id":"ce4bhs92rcd13ifvqi0g","pricing_plan_id":"free"},{"bike_id":"88d0330c-5bb0-4a19-9b65-d4683b42e015","system_id":"levelo_inurba_marseille","lat":43.29683,"lon":5.36046,"is_reserved":false,"is_disabled":false,"rental_uris":{"android":"levelo://app?vid=88d0330c-5bb0-4a19-9b65-d4683b42e015","ios":"levelo://app?vid=88d0330c-5bb0-4a19-9b65-d4683b42e015"},"vehicle_type_id":"4","last_reported":1687115068,"current_range_meters":1600,"station_id":"","pricing_plan_id":"free"},{"bike_id":"86b27436-6f21-4d59-80d7-c9e197f7c099","system_id":"levelo_inurba_marseille","lat":43.29573,"lon":5.367355,"is_reserved":false,"is_disabled":false,"rental_uris":{"android":"levelo://app?vid=86b27436-6f21-4d59-80d7-c9e197f7c099","ios":"levelo://app?vid=86b27436-6f21-4d59-80d7-c9e197f7c099"},"vehicle_type_id":"4","last_reported":1687115068,"current_range_meters":6400,"station_id":"ce4bgph2rcd13ifvqc2g","pricing_plan_id":"free"},{"bike_id":"a9d8887f-9a20-444c-a007-ef01315a79dc","system_id":"levelo_inurba_marseille","lat":43.29573,"lon":5.367355,"is_reserved":false,"is_disabled":false,"rental_uris":{"android":"levelo://app?vid=a9d8887f-9a20-444c-a007-ef01315a79dc","ios":"levelo://app?vid=a9d8887f-9a20-444c-a007-ef01315a79dc"},"vehicle_type_id":"4","last_reported":1687115068,"current_range_meters":7600,"station_id":"ce4bgph2rcd13ifvqc2g","pricing_plan_id":"free"},{"bike_id":"24f41ca5-b432-4feb-a0c8-a15026b97306","system_id":"levelo_inurba_marseille","lat":43.296131,"lon":5.370773,"is_reserved":false,"is_disabled":false,"rental_uris":{"android":"levelo://app?vid=24f41ca5-b432-4feb-a0c8-a15026b97306","ios":"levelo://app?vid=24f41ca5-b432-4feb-a0c8-a15026b97306"},"vehicle_type_id":"4","last_reported":1687115068,"current_range_meters":11200,"station_id":"ce4bgnh2rcd13ifvqc0g","pricing_plan_id":"free"},{"bike_id":"75e949d0-420c-41c8-af7e-846fe59e4837","system_id":"levelo_inurba_marseille","lat":43.29704,"lon":5.37698,"is_reserved":false,"is_disabled":false,"rental_uris":{"android":"levelo://app?vid=75e949d0-420c-41c8-af7e-846fe59e4837","ios":"levelo://app?vid=75e949d0-420c-41c8-af7e-846fe59e4837"},"vehicle_type_id":"4","last_reported":1687115068,"current_range_meters":18800,"station_id":"","pricing_plan_id":"free"},{"bike_id":"241539c4-4853-4239-b46f-bb04dcc16875","system_id":"levelo_inurba_marseille","lat":43.309589,"lon":5.390258,"is_reserved":false,"is_disabled":false,"rental_uris":{"android":"levelo://app?vid=241539c4-4853-4239-b46f-bb04dcc16875","ios":"levelo://app?vid=241539c4-4853-4239-b46f-bb04dcc16875"},"vehicle_type_id":"4","last_reported":1687115068,"current_range_meters":10000,"station_id":"ce4bgup2rcd13ifvqco0","pricing_plan_id":"free"},{"bike_id":"a525381f-6934-419d-8ce9-85bbc6e9c948","system_id":"levelo_inurba_marseille","lat":43.299028,"lon":5.381509,"is_reserved":false,"is_disabled":false,"rental_uris":{"android":"levelo://app?vid=a525381f-6934-419d-8ce9-85bbc6e9c948","ios":"levelo://app?vid=a525381f-6934-419d-8ce9-85bbc6e9c948"},"vehicle_type_id":"4","last_reported":1687115068,"current_range_meters":0,"station_id":"ce4bgj12rcd13ifvqbc0","pricing_plan_id":"free"},{"bike_id":"de772c62-1b79-40f6-91ff-c14c19e81d7a","system_id":"levelo_inurba_marseille","lat":43.299028,"lon":5.381509,"is_reserved":false,"is_disabled":false,"rental_uris":{"android":"levelo://app?vid=de772c62-1b79-40f6-91ff-c14c19e81d7a","ios":"levelo://app?vid=de772c62-1b79-40f6-91ff-c14c19e81d7a"},"vehicle_type_id":"4","last_reported":1687115068,"current_range_meters":1200,"station_id":"ce4bgj12rcd13ifvqbc0","pricing_plan_id":"free"},{"bike_id":"c7106016-3a0b-4030-80e0-b90f5a7bff06","system_id":"levelo_inurba_marseille","lat":43.298037,"lon":5.381066,"is_reserved":false,"is_disabled":false,"rental_uris":{"android":"levelo://app?vid=c7106016-3a0b-4030-80e0-b90f5a7bff06","ios":"levelo://app?vid=c7106016-3a0b-4030-80e0-b90f5a7bff06"},"vehicle_type_id":"4","last_reported":1687115068,"current_range_meters":400,"station_id":"ce4bgip2rcd13ifvqbb0","pricing_plan_id":"free"},{"bike_id":"b588f4bd-9806-405b-aa14-519c63a439ee","system_id":"levelo_inurba_marseille","lat":43.295748,"lon":5.37522,"is_reserved":false,"is_disabled":false,"rental_uris":{"android":"levelo://app?vid=b588f4bd-9806-405b-aa14-519c63a439ee","ios":"levelo://app?vid=b588f4bd-9806-405b-aa14-519c63a439ee"},"vehicle_type_id":"4","last_reported":1687115068,"current_range_meters":0,"station_id":"ce4bgh92rcd13ifvqb50","pricing_plan_id":"free"},{"bike_id":"250c8a96-8498-4211-b8f3-1b00a8d1fbaf","system_id":"levelo_inurba_marseille","lat":43.296477,"lon":5.37768,"is_reserved":false,"is_disabled":false,"rental_uris":{"android":"levelo://app?vid=250c8a96-8498-4211-b8f3-1b00a8d1fbaf","ios":"levelo://app?vid=250c8a96-8498-4211-b8f3-1b00a8d1fbaf"},"vehicle_type_id":"4","last_reported":1687115068,"current_range_meters":11600,"station_id":"","pricing_plan_id":"free"},{"bike_id":"c4f5fd95-e17c-4f45-96d8-1120cc939ce3","system_id":"levelo_inurba_marseille","lat":43.304274,"lon":5.388873,"is_reserved":false,"is_disabled":false,"rental_uris":{"android":"levelo://app?vid=c4f5fd95-e17c-4f45-96d8-1120cc939ce3","ios":"levelo://app?vid=c4f5fd95-e17c-4f45-96d8-1120cc939ce3"},"vehicle_type_id":"4","last_reported":1687115068,"current_range_meters":18000,"station_id":"ce4bgk12rcd13ifvqbi0","pricing_plan_id":"free"},{"bike_id":"b7f6eee8-706f-4430-a614-3415e84b5934","system_id":"levelo_inurba_marseille","lat":43.304274,"lon":5.388873,"is_reserved":false,"is_disabled":false,"rental_uris":{"android":"levelo://app?vid=b7f6eee8-706f-4430-a614-3415e84b5934","ios":"levelo://app?vid=b7f6eee8-706f-4430-a614-3415e84b5934"},"vehicle_type_id":"4","last_reported":1687115068,"current_range_meters":27200,"station_id":"ce4bgk12rcd13ifvqbi0","pricing_plan_id":"free"},{"bike_id":"dfefad96-1dd5-4198-aece-fcfe0f5b4aeb","system_id":"levelo_inurba_marseille","lat":43.295748,"lon":5.37522,"is_reserved":false,"is_disabled":false,"rental_uris":{"android":"levelo://app?vid=dfefad96-1dd5-4198-aece-fcfe0f5b4aeb","ios":"levelo://app?vid=dfefad96-1dd5-4198-aece-fcfe0f5b4aeb"},"vehicle_type_id":"4","last_reported":1687115068,"current_range_meters":10400,"station_id":"ce4bgh92rcd13ifvqb50","pricing_plan_id":"free"},{"bike_id":"aef27c84-baef-4fb8-84aa-e12b37616ad6","system_id":"levelo_inurba_marseille","lat":43.304364,"lon":5.389167,"is_reserved":false,"is_disabled":false,"rental_uris":{"android":"levelo://app?vid=aef27c84-baef-4fb8-84aa-e12b37616ad6","ios":"levelo://app?vid=aef27c84-baef-4fb8-84aa-e12b37616ad6"},"vehicle_type_id":"4","last_reported":1687115068,"current_range_meters":31600,"station_id":"ce4bgk12rcd13ifvqbi0","pricing_plan_id":"free"},{"bike_id":"eb56f040-d7e3-440c-9d05-82afe187dd21","system_id":"levelo_inurba_marseille","lat":43.299707,"lon":5.384859,"is_reserved":false,"is_disabled":false,"rental_uris":{"android":"levelo://app?vid=eb56f040-d7e3-440c-9d05-82afe187dd21","ios":"levelo://app?vid=eb56f040-d7e3-440c-9d05-82afe187dd21"},"vehicle_type_id":"4","last_reported":1687115068,"current_range_meters":28400,"station_id":"ce4bgj92rcd13ifvqbd0","pricing_plan_id":"free"},{"bike_id":"bb335696-9086-470f-9c5f-1244bc2e0b8f","system_id":"levelo_inurba_marseille","lat":43.299717,"lon":5.384845,"is_reserved":false,"is_disabled":false,"rental_uris":{"android":"levelo://app?vid=bb335696-9086-470f-9c5f-1244bc2e0b8f","ios":"levelo://app?vid=bb335696-9086-470f-9c5f-1244bc2e0b8f"},"vehicle_type_id":"4","last_reported":1687115068,"current_range_meters":28000,"station_id":"ce4bgj92rcd13ifvqbd0","pricing_plan_id":"free"},{"bike_id":"c25bbca6-334a-48c9-b2aa-c69eb97c9d81","system_id":"levelo_inurba_marseille","lat":43.32367,"lon":5.388836,"is_reserved":false,"is_disabled":false,"rental_uris":{"android":"levelo://app?vid=c25bbca6-334a-48c9-b2aa-c69eb97c9d81","ios":"levelo://app?vid=c25bbca6-334a-48c9-b2aa-c69eb97c9d81"},"vehicle_type_id":"4","last_reported":1687115068,"current_range_meters":28800,"station_id":"ce4bhqp2rcd13ifvqhog","pricing_plan_id":"free"},{"bike_id":"6d6ffaf2-f196-4adb-9cb4-e1871a7c87b9","system_id":"levelo_inurba_marseille","lat":43.29602,"lon":5.381084,"is_reserved":false,"is_disabled":false,"rental_uris":{"android":"levelo://app?vid=6d6ffaf2-f196-4adb-9cb4-e1871a7c87b9","ios":"levelo://app?vid=6d6ffaf2-f196-4adb-9cb4-e1871a7c87b9"},"vehicle_type_id":"4","last_reported":1687115068,"current_range_meters":1600,"station_id":"ce4bgl12rcd13ifvqbo0","pricing_plan_id":"free"},{"bike_id":"7ba2fef5-126c-4fb3-a47a-f1c6062791de","system_id":"levelo_inurba_marseille","lat":43.301374,"lon":5.3904,"is_reserved":false,"is_disabled":false,"rental_uris":{"android":"levelo://app?vid=7ba2fef5-126c-4fb3-a47a-f1c6062791de","ios":"levelo://app?vid=7ba2fef5-126c-4fb3-a47a-f1c6062791de"},"vehicle_type_id":"4","last_reported":1687115068,"current_range_meters":29600,"station_id":"","pricing_plan_id":"free"},{"bike_id":"484bbfbf-16f3-42b2-a55b-5bf61bae66ad","system_id":"levelo_inurba_marseille","lat":43.2936,"lon":5.37835,"is_reserved":false,"is_disabled":false,"rental_uris":{"android":"levelo://app?vid=484bbfbf-16f3-42b2-a55b-5bf61bae66ad","ios":"levelo://app?vid=484bbfbf-16f3-42b2-a55b-5bf61bae66ad"},"vehicle_type_id":"4","last_reported":1687115068,"current_range_meters":26000,"station_id":"ce4bgjh2rcd13ifvqbf0","pricing_plan_id":"free"},{"bike_id":"ad06cc4b-bb1d-4b06-9235-ccfc924d39ce","system_id":"levelo_inurba_marseille","lat":43.302992,"lon":5.392136,"is_reserved":false,"is_disabled":false,"rental_uris":{"android":"levelo://app?vid=ad06cc4b-bb1d-4b06-9235-ccfc924d39ce","ios":"levelo://app?vid=ad06cc4b-bb1d-4b06-9235-ccfc924d39ce"},"vehicle_type_id":"4","last_reported":1687115068,"current_range_meters":0,"station_id":"ce4bgkh2rcd13ifvqbk0","pricing_plan_id":"free"},{"bike_id":"c40d2f6a-9a3c-4d8d-ac76-4c297512856c","system_id":"levelo_inurba_marseille","lat":43.300852,"lon":5.390859,"is_reserved":false,"is_disabled":false,"rental_uris":{"android":"levelo://app?vid=c40d2f6a-9a3c-4d8d-ac76-4c297512856c","ios":"levelo://app?vid=c40d2f6a-9a3c-4d8d-ac76-4c297512856c"},"vehicle_type_id":"4","last_reported":1687115068,"current_range_meters":6000,"station_id":"ce4bh192rcd13ifvqdb0","pricing_plan_id":"free"},{"bike_id":"ab05f57f-e038-419b-a8da-f15ef419ee69","system_id":"levelo_inurba_marseille","lat":43.30085,"lon":5.390856,"is_reserved":false,"is_disabled":false,"rental_uris":{"android":"levelo://app?vid=ab05f57f-e038-419b-a8da-f15ef419ee69","ios":"levelo://app?vid=ab05f57f-e038-419b-a8da-f15ef419ee69"},"vehicle_type_id":"4","last_reported":1687115068,"current_range_meters":24400,"station_id":"ce4bh192rcd13ifvqdb0","pricing_plan_id":"free"},{"bike_id":"65a4098c-138e-4a95-a6b0-58d3ac06dbcb","system_id":"levelo_inurba_marseille","lat":43.291675,"lon":5.371583,"is_reserved":false,"is_disabled":false,"rental_uris":{"android":"levelo://app?vid=65a4098c-138e-4a95-a6b0-58d3ac06dbcb","ios":"levelo://app?vid=65a4098c-138e-4a95-a6b0-58d3ac06dbcb"},"vehicle_type_id":"4","last_reported":1687115068,"current_range_meters":5600,"station_id":"ce4bha92rcd13ifvqeh0","pricing_plan_id":"free"},{"bike_id":"9cbe08f3-19e4-4769-9116-9db090f169af","system_id":"levelo_inurba_marseille","lat":43.309038,"lon":5.396546,"is_reserved":false,"is_disabled":false,"rental_uris":{"android":"levelo://app?vid=9cbe08f3-19e4-4769-9116-9db090f169af","ios":"levelo://app?vid=9cbe08f3-19e4-4769-9116-9db090f169af"},"vehicle_type_id":"4","last_reported":1687115068,"current_range_meters":26400,"station_id":"ce4bh012rcd13ifvqcv0","pricing_plan_id":"free"},{"bike_id":"fdd77504-f1a4-4582-a79a-02f8eb76ebe3","system_id":"levelo_inurba_marseille","lat":43.313291,"lon":5.396838,"is_reserved":false,"is_disabled":false,"rental_uris":{"android":"levelo://app?vid=fdd77504-f1a4-4582-a79a-02f8eb76ebe3","ios":"levelo://app?vid=fdd77504-f1a4-4582-a79a-02f8eb76ebe3"},"vehicle_type_id":"4","last_reported":1687115068,"current_range_meters":25600,"station_id":"ce4bgvp2rcd13ifvqcu0","pricing_plan_id":"free"},{"bike_id":"7ba004d4-187d-4546-9b6d-96546f72fc52","system_id":"levelo_inurba_marseille","lat":43.313291,"lon":5.396838,"is_reserved":false,"is_disabled":false,"rental_uris":{"android":"levelo://app?vid=7ba004d4-187d-4546-9b6d-96546f72fc52","ios":"levelo://app?vid=7ba004d4-187d-4546-9b6d-96546f72fc52"},"vehicle_type_id":"4","last_reported":1687115068,"current_range_meters":11600,"station_id":"ce4bgvp2rcd13ifvqcu0","pricing_plan_id":"free"},{"bike_id":"f8fe4e56-0796-4fa5-add0-9fb8ee95ef5c","system_id":"levelo_inurba_marseille","lat":43.302008,"lon":5.394694,"is_reserved":false,"is_disabled":false,"rental_uris":{"android":"levelo://app?vid=f8fe4e56-0796-4fa5-add0-9fb8ee95ef5c","ios":"levelo://app?vid=f8fe4e56-0796-4fa5-add0-9fb8ee95ef5c"},"vehicle_type_id":"4","last_reported":1687115068,"current_range_meters":24400,"station_id":"ce4bh0p2rcd13ifvqd70","pricing_plan_id":"free"},{"bike_id":"b9386fbf-cb36-4b16-b6ac-0d5cd12452e0","system_id":"levelo_inurba_marseille","lat":43.29036,"lon":5.37565,"is_reserved":false,"is_disabled":false,"rental_uris":{"android":"levelo://app?vid=b9386fbf-cb36-4b16-b6ac-0d5cd12452e0","ios":"levelo://app?vid=b9386fbf-cb36-4b16-b6ac-0d5cd12452e0"},"vehicle_type_id":"4","last_reported":1687115068,"current_range_meters":5200,"station_id":"ce4bh692rcd13ifvqe90","pricing_plan_id":"free"},{"bike_id":"e252e5db-e26f-4af7-993b-0b75bfdc915c","system_id":"levelo_inurba_marseille","lat":43.294162,"lon":5.386292,"is_reserved":false,"is_disabled":false,"rental_uris":{"android":"levelo://app?vid=e252e5db-e26f-4af7-993b-0b75bfdc915c","ios":"levelo://app?vid=e252e5db-e26f-4af7-993b-0b75bfdc915c"},"vehicle_type_id":"4","last_reported":1687115068,"current_range_meters":7200,"station_id":"ce4bh2h2rcd13ifvqdh0","pricing_plan_id":"free"},{"bike_id":"1f40dab1-0b8f-4f80-84d2-bda9095fed7b","system_id":"levelo_inurba_marseille","lat":43.290327,"lon":5.375711,"is_reserved":false,"is_disabled":false,"rental_uris":{"android":"levelo://app?vid=1f40dab1-0b8f-4f80-84d2-bda9095fed7b","ios":"levelo://app?vid=1f40dab1-0b8f-4f80-84d2-bda9095fed7b"},"vehicle_type_id":"4","last_reported":1687115068,"current_range_meters":20400,"station_id":"ce4bh692rcd13ifvqe90","pricing_plan_id":"free"},{"bike_id":"3b86db9b-fe5b-40b7-b6b4-d2aedf108958","system_id":"levelo_inurba_marseille","lat":43.292642,"lon":5.384254,"is_reserved":false,"is_disabled":false,"rental_uris":{"android":"levelo://app?vid=3b86db9b-fe5b-40b7-b6b4-d2aedf108958","ios":"levelo://app?vid=3b86db9b-fe5b-40b7-b6b4-d2aedf108958"},"vehicle_type_id":"4","last_reported":1687115068,"current_range_meters":1200,"station_id":"ce4bh692rcd13ifvqea0","pricing_plan_id":"free"},{"bike_id":"15e7e12b-fbf9-4838-881e-0e07f5ce9014","system_id":"levelo_inurba_marseille","lat":43.292644,"lon":5.384257,"is_reserved":false,"is_disabled":false,"rental_uris":{"android":"levelo://app?vid=15e7e12b-fbf9-4838-881e-0e07f5ce9014","ios":"levelo://app?vid=15e7e12b-fbf9-4838-881e-0e07f5ce9014"},"vehicle_type_id":"4","last_reported":1687115068,"current_range_meters":12000,"station_id":"ce4bh692rcd13ifvqea0","pricing_plan_id":"free"},{"bike_id":"38eb09af-7166-42b9-865e-84246929498f","system_id":"levelo_inurba_marseille","lat":43.292644,"lon":5.384257,"is_reserved":false,"is_disabled":false,"rental_uris":{"android":"levelo://app?vid=38eb09af-7166-42b9-865e-84246929498f","ios":"levelo://app?vid=38eb09af-7166-42b9-865e-84246929498f"},"vehicle_type_id":"4","last_reported":1687115068,"current_range_meters":31600,"station_id":"ce4bh692rcd13ifvqea0","pricing_plan_id":"free"},{"bike_id":"1e9753c1-6636-4feb-bfd7-69d87c329cf9","system_id":"levelo_inurba_marseille","lat":43.29091,"lon":5.38106,"is_reserved":false,"is_disabled":false,"rental_uris":{"android":"levelo://app?vid=1e9753c1-6636-4feb-bfd7-69d87c329cf9","ios":"levelo://app?vid=1e9753c1-6636-4feb-bfd7-69d87c329cf9"},"vehicle_type_id":"4","last_reported":1687115068,"current_range_meters":27600,"station_id":"ce4bh512rcd13ifvqe2g","pricing_plan_id":"free"},{"bike_id":"a4180ae5-e1c6-46e9-bc74-16711db7e4a9","system_id":"levelo_inurba_marseille","lat":43.290995,"lon":5.381361,"is_reserved":false,"is_disabled":false,"rental_uris":{"android":"levelo://app?vid=a4180ae5-e1c6-46e9-bc74-16711db7e4a9","ios":"levelo://app?vid=a4180ae5-e1c6-46e9-bc74-16711db7e4a9"},"vehicle_type_id":"4","last_reported":1687115068,"current_range_meters":23200,"station_id":"ce4bh512rcd13ifvqe2g","pricing_plan_id":"free"},{"bike_id":"1d5b9c00-f08a-4cdb-8fb6-1a7aa41e556b","system_id":"levelo_inurba_marseille","lat":43.297815,"lon":5.393548,"is_reserved":false,"is_disabled":false,"rental_uris":{"android":"levelo://app?vid=1d5b9c00-f08a-4cdb-8fb6-1a7aa41e556b","ios":"levelo://app?vid=1d5b9c00-f08a-4cdb-8fb6-1a7aa41e556b"},"vehicle_type_id":"4","last_reported":1687115068,"current_range_meters":16400,"station_id":"chh1huq6cuj3fo74tm60","pricing_plan_id":"free"},{"bike_id":"a231ea72-8dfb-4c1f-b3bb-f071dfca8e41","system_id":"levelo_inurba_marseille","lat":43.28983,"lon":5.37837,"is_reserved":false,"is_disabled":false,"rental_uris":{"android":"levelo://app?vid=a231ea72-8dfb-4c1f-b3bb-f071dfca8e41","ios":"levelo://app?vid=a231ea72-8dfb-4c1f-b3bb-f071dfca8e41"},"vehicle_type_id":"4","last_reported":1687115068,"current_range_meters":30000,"station_id":"ce4bh9p2rcd13ifvqed0","pricing_plan_id":"free"},{"bike_id":"2845923e-fea1-4708-8c1a-4a9d53d24791","system_id":"levelo_inurba_marseille","lat":43.289741,"lon":5.378306,"is_reserved":false,"is_disabled":false,"rental_uris":{"android":"levelo://app?vid=2845923e-fea1-4708-8c1a-4a9d53d24791","ios":"levelo://app?vid=2845923e-fea1-4708-8c1a-4a9d53d24791"},"vehicle_type_id":"4","last_reported":1687115068,"current_range_meters":28400,"station_id":"ce4bh9p2rcd13ifvqed0","pricing_plan_id":"free"},{"bike_id":"b9b44b37-7edf-4ab6-8685-17eb58a26dbc","system_id":"levelo_inurba_marseille","lat":43.295169,"lon":5.390426,"is_reserved":false,"is_disabled":false,"rental_uris":{"android":"levelo://app?vid=b9b44b37-7edf-4ab6-8685-17eb58a26dbc","ios":"levelo://app?vid=b9b44b37-7edf-4ab6-8685-17eb58a26dbc"},"vehicle_type_id":"4","last_reported":1687115068,"current_range_meters":29600,"station_id":"ce4bh3p2rcd13ifvqdp0","pricing_plan_id":"free"},{"bike_id":"c0fb8083-e02d-4dec-b1b9-fa095e6c5b75","system_id":"levelo_inurba_marseille","lat":43.337396,"lon":5.374526,"is_reserved":false,"is_disabled":false,"rental_uris":{"android":"levelo://app?vid=c0fb8083-e02d-4dec-b1b9-fa095e6c5b75","ios":"levelo://app?vid=c0fb8083-e02d-4dec-b1b9-fa095e6c5b75"},"vehicle_type_id":"4","last_reported":1687115068,"current_range_meters":0,"station_id":"ce4bhp92rcd13ifvqhag","pricing_plan_id":"free"},{"bike_id":"79b315cd-4b9b-44c7-80ed-532e31cf47fb","system_id":"levelo_inurba_marseille","lat":43.309371,"lon":5.401449,"is_reserved":false,"is_disabled":false,"rental_uris":{"android":"levelo://app?vid=79b315cd-4b9b-44c7-80ed-532e31cf47fb","ios":"levelo://app?vid=79b315cd-4b9b-44c7-80ed-532e31cf47fb"},"vehicle_type_id":"4","last_reported":1687115068,"current_range_meters":14400,"station_id":"ce4bgvp2rcd13ifvqct0","pricing_plan_id":"free"},{"bike_id":"41a8749b-6d93-4d1b-8e52-c5f60f65ae7c","system_id":"levelo_inurba_marseille","lat":43.33752,"lon":5.37443,"is_reserved":false,"is_disabled":false,"rental_uris":{"android":"levelo://app?vid=41a8749b-6d93-4d1b-8e52-c5f60f65ae7c","ios":"levelo://app?vid=41a8749b-6d93-4d1b-8e52-c5f60f65ae7c"},"vehicle_type_id":"4","last_reported":1687115068,"current_range_meters":26000,"station_id":"","pricing_plan_id":"free"},{"bike_id":"6419555d-a5fa-4e58-8ffc-653801ae2719","system_id":"levelo_inurba_marseille","lat":43.28708,"lon":5.37384,"is_reserved":false,"is_disabled":false,"rental_uris":{"android":"levelo://app?vid=6419555d-a5fa-4e58-8ffc-653801ae2719","ios":"levelo://app?vid=6419555d-a5fa-4e58-8ffc-653801ae2719"},"vehicle_type_id":"4","last_reported":1687115068,"current_range_meters":5200,"station_id":"ce4bh3p2rcd13ifvqdq0","pricing_plan_id":"free"},{"bike_id":"6d2252fb-ae61-4dc1-a81d-9045f21498f7","system_id":"levelo_inurba_marseille","lat":43.28696,"lon":5.37406,"is_reserved":false,"is_disabled":false,"rental_uris":{"android":"levelo://app?vid=6d2252fb-ae61-4dc1-a81d-9045f21498f7","ios":"levelo://app?vid=6d2252fb-ae61-4dc1-a81d-9045f21498f7"},"vehicle_type_id":"4","last_reported":1687115068,"current_range_meters":7200,"station_id":"ce4bh3p2rcd13ifvqdq0","pricing_plan_id":"free"},{"bike_id":"06691f65-ee95-4780-8ad6-8a54617dd867","system_id":"levelo_inurba_marseille","lat":43.295194,"lon":5.39397,"is_reserved":false,"is_disabled":false,"rental_uris":{"android":"levelo://app?vid=06691f65-ee95-4780-8ad6-8a54617dd867","ios":"levelo://app?vid=06691f65-ee95-4780-8ad6-8a54617dd867"},"vehicle_type_id":"4","last_reported":1687115068,"current_range_meters":11200,"station_id":"ce4bh292rcd13ifvqdf0","pricing_plan_id":"free"},{"bike_id":"6e24f033-e19f-4a11-b84a-cd6773366c2c","system_id":"levelo_inurba_marseille","lat":43.290345,"lon":5.38646,"is_reserved":false,"is_disabled":false,"rental_uris":{"android":"levelo://app?vid=6e24f033-e19f-4a11-b84a-cd6773366c2c","ios":"levelo://app?vid=6e24f033-e19f-4a11-b84a-cd6773366c2c"},"vehicle_type_id":"4","last_reported":1687115068,"current_range_meters":4400,"station_id":"ce4bh4p2rcd13ifvqe0g","pricing_plan_id":"free"},{"bike_id":"24c3ae37-5c34-40f4-a604-f7675de9d2eb","system_id":"levelo_inurba_marseille","lat":43.30255,"lon":5.40078,"is_reserved":false,"is_disabled":false,"rental_uris":{"android":"levelo://app?vid=24c3ae37-5c34-40f4-a604-f7675de9d2eb","ios":"levelo://app?vid=24c3ae37-5c34-40f4-a604-f7675de9d2eb"},"vehicle_type_id":"4","last_reported":1687115068,"current_range_meters":0,"station_id":"ce4bgvh2rcd13ifvqcs0","pricing_plan_id":"free"},{"bike_id":"7fcc5a10-fa9f-42b8-873f-09cc8236c680","system_id":"levelo_inurba_marseille","lat":43.30258,"lon":5.4008,"is_reserved":false,"is_disabled":false,"rental_uris":{"android":"levelo://app?vid=7fcc5a10-fa9f-42b8-873f-09cc8236c680","ios":"levelo://app?vid=7fcc5a10-fa9f-42b8-873f-09cc8236c680"},"vehicle_type_id":"4","last_reported":1687115068,"current_range_meters":0,"station_id":"ce4bgvh2rcd13ifvqcs0","pricing_plan_id":"free"},{"bike_id":"43590704-e2da-4dd5-88cb-01501cfb6da3","system_id":"levelo_inurba_marseille","lat":43.302759,"lon":5.400793,"is_reserved":false,"is_disabled":false,"rental_uris":{"android":"levelo://app?vid=43590704-e2da-4dd5-88cb-01501cfb6da3","ios":"levelo://app?vid=43590704-e2da-4dd5-88cb-01501cfb6da3"},"vehicle_type_id":"4","last_reported":1687115068,"current_range_meters":18800,"station_id":"ce4bgvh2rcd13ifvqcs0","pricing_plan_id":"free"},{"bike_id":"82b1b2c0-f1e5-4eaa-9690-2215cbe5e1eb","system_id":"levelo_inurba_marseille","lat":43.302759,"lon":5.400793,"is_reserved":false,"is_disabled":false,"rental_uris":{"android":"levelo://app?vid=82b1b2c0-f1e5-4eaa-9690-2215cbe5e1eb","ios":"levelo://app?vid=82b1b2c0-f1e5-4eaa-9690-2215cbe5e1eb"},"vehicle_type_id":"4","last_reported":1687115068,"current_range_meters":26000,"station_id":"ce4bgvh2rcd13ifvqcs0","pricing_plan_id":"free"},{"bike_id":"ae03e8ce-e040-4aa3-99bd-6aa5692c29c6","system_id":"levelo_inurba_marseille","lat":43.30248,"lon":5.40083,"is_reserved":false,"is_disabled":false,"rental_uris":{"android":"levelo://app?vid=ae03e8ce-e040-4aa3-99bd-6aa5692c29c6","ios":"levelo://app?vid=ae03e8ce-e040-4aa3-99bd-6aa5692c29c6"},"vehicle_type_id":"4","last_reported":1687115068,"current_range_meters":12000,"station_id":"","pricing_plan_id":"free"},{"bike_id":"089b2ec8-b79f-4db9-8767-c4430b3d90b1","system_id":"levelo_inurba_marseille","lat":43.286039,"lon":5.370679,"is_reserved":false,"is_disabled":false,"rental_uris":{"android":"levelo://app?vid=089b2ec8-b79f-4db9-8767-c4430b3d90b1","ios":"levelo://app?vid=089b2ec8-b79f-4db9-8767-c4430b3d90b1"},"vehicle_type_id":"4","last_reported":1687115068,"current_range_meters":30000,"station_id":"ce4bht12rcd13ifvqi60","pricing_plan_id":"free"},{"bike_id":"ae3cfb17-ac07-4acf-8d45-c2a04670ee66","system_id":"levelo_inurba_marseille","lat":43.286039,"lon":5.370679,"is_reserved":false,"is_disabled":false,"rental_uris":{"android":"levelo://app?vid=ae3cfb17-ac07-4acf-8d45-c2a04670ee66","ios":"levelo://app?vid=ae3cfb17-ac07-4acf-8d45-c2a04670ee66"},"vehicle_type_id":"4","last_reported":1687115068,"current_range_meters":29600,"station_id":"ce4bht12rcd13ifvqi60","pricing_plan_id":"free"},{"bike_id":"42bf2253-7745-4447-b623-3c8c5e969bdc","system_id":"levelo_inurba_marseille","lat":43.287184,"lon":5.37937,"is_reserved":false,"is_disabled":false,"rental_uris":{"android":"levelo://app?vid=42bf2253-7745-4447-b623-3c8c5e969bdc","ios":"levelo://app?vid=42bf2253-7745-4447-b623-3c8c5e969bdc"},"vehicle_type_id":"4","last_reported":1687115068,"current_range_meters":7600,"station_id":"ce4bh9p2rcd13ifvqec0","pricing_plan_id":"free"},{"bike_id":"b5ae55e7-2b74-4dc9-9ce7-77a5da983c6d","system_id":"levelo_inurba_marseille","lat":43.287184,"lon":5.37937,"is_reserved":false,"is_disabled":false,"rental_uris":{"android":"levelo://app?vid=b5ae55e7-2b74-4dc9-9ce7-77a5da983c6d","ios":"levelo://app?vid=b5ae55e7-2b74-4dc9-9ce7-77a5da983c6d"},"vehicle_type_id":"4","last_reported":1687115068,"current_range_meters":22000,"station_id":"ce4bh9p2rcd13ifvqec0","pricing_plan_id":"free"},{"bike_id":"b31904b0-f7b4-4295-ab56-b3b0770e98aa","system_id":"levelo_inurba_marseille","lat":43.291994,"lon":5.392907,"is_reserved":false,"is_disabled":false,"rental_uris":{"android":"levelo://app?vid=b31904b0-f7b4-4295-ab56-b3b0770e98aa","ios":"levelo://app?vid=b31904b0-f7b4-4295-ab56-b3b0770e98aa"},"vehicle_type_id":"4","last_reported":1687115068,"current_range_meters":8000,"station_id":"ce4bh192rcd13ifvqdd0","pricing_plan_id":"free"},{"bike_id":"e7615f42-7a34-44aa-9c51-febd5cc2accc","system_id":"levelo_inurba_marseille","lat":43.28613,"lon":5.35107,"is_reserved":false,"is_disabled":false,"rental_uris":{"android":"levelo://app?vid=e7615f42-7a34-44aa-9c51-febd5cc2accc","ios":"levelo://app?vid=e7615f42-7a34-44aa-9c51-febd5cc2accc"},"vehicle_type_id":"4","last_reported":1687115068,"current_range_meters":3200,"station_id":"ce4bhch2rcd13ifvqeug","pricing_plan_id":"free"},{"bike_id":"286080dc-e999-4222-a97a-d9945f15f7be","system_id":"levelo_inurba_marseille","lat":43.28613,"lon":5.35104,"is_reserved":false,"is_disabled":false,"rental_uris":{"android":"levelo://app?vid=286080dc-e999-4222-a97a-d9945f15f7be","ios":"levelo://app?vid=286080dc-e999-4222-a97a-d9945f15f7be"},"vehicle_type_id":"4","last_reported":1687115068,"current_range_meters":2000,"station_id":"ce4bhch2rcd13ifvqeug","pricing_plan_id":"free"},{"bike_id":"fd3b84ec-be9f-4d50-bf43-58d44f8b5fbb","system_id":"levelo_inurba_marseille","lat":43.283998,"lon":5.375062,"is_reserved":false,"is_disabled":false,"rental_uris":{"android":"levelo://app?vid=fd3b84ec-be9f-4d50-bf43-58d44f8b5fbb","ios":"levelo://app?vid=fd3b84ec-be9f-4d50-bf43-58d44f8b5fbb"},"vehicle_type_id":"4","last_reported":1687115068,"current_range_meters":18400,"station_id":"ce4bh412rcd13ifvqds0","pricing_plan_id":"free"},{"bike_id":"151197d0-4e3b-4721-97c3-61bd8be7b14e","system_id":"levelo_inurba_marseille","lat":43.283998,"lon":5.375062,"is_reserved":false,"is_disabled":false,"rental_uris":{"android":"levelo://app?vid=151197d0-4e3b-4721-97c3-61bd8be7b14e","ios":"levelo://app?vid=151197d0-4e3b-4721-97c3-61bd8be7b14e"},"vehicle_type_id":"4","last_reported":1687115068,"current_range_meters":13600,"station_id":"ce4bh412rcd13ifvqds0","pricing_plan_id":"free"},{"bike_id":"0c622936-96bc-4b82-b074-36b20e288107","system_id":"levelo_inurba_marseille","lat":43.283998,"lon":5.375062,"is_reserved":false,"is_disabled":false,"rental_uris":{"android":"levelo://app?vid=0c622936-96bc-4b82-b074-36b20e288107","ios":"levelo://app?vid=0c622936-96bc-4b82-b074-36b20e288107"},"vehicle_type_id":"4","last_reported":1687115068,"current_range_meters":15600,"station_id":"ce4bh412rcd13ifvqds0","pricing_plan_id":"free"},{"bike_id":"899c7ee9-8c2f-47b9-b79b-ac02987e1d6a","system_id":"levelo_inurba_marseille","lat":43.283998,"lon":5.375062,"is_reserved":false,"is_disabled":false,"rental_uris":{"android":"levelo://app?vid=899c7ee9-8c2f-47b9-b79b-ac02987e1d6a","ios":"levelo://app?vid=899c7ee9-8c2f-47b9-b79b-ac02987e1d6a"},"vehicle_type_id":"4","last_reported":1687115068,"current_range_meters":5600,"station_id":"ce4bh412rcd13ifvqds0","pricing_plan_id":"free"},{"bike_id":"e646631c-49da-4cf2-9063-e6b9a3a70bcc","system_id":"levelo_inurba_marseille","lat":43.286595,"lon":5.386795,"is_reserved":false,"is_disabled":false,"rental_uris":{"android":"levelo://app?vid=e646631c-49da-4cf2-9063-e6b9a3a70bcc","ios":"levelo://app?vid=e646631c-49da-4cf2-9063-e6b9a3a70bcc"},"vehicle_type_id":"4","last_reported":1687115068,"current_range_meters":8800,"station_id":"ce4bh492rcd13ifvqdug","pricing_plan_id":"free"},{"bike_id":"8ccd7c34-8984-46c7-a9f8-1e799f46af09","system_id":"levelo_inurba_marseille","lat":43.28504,"lon":5.35094,"is_reserved":false,"is_disabled":false,"rental_uris":{"android":"levelo://app?vid=8ccd7c34-8984-46c7-a9f8-1e799f46af09","ios":"levelo://app?vid=8ccd7c34-8984-46c7-a9f8-1e799f46af09"},"vehicle_type_id":"4","last_reported":1687115068,"current_range_meters":4400,"station_id":"","pricing_plan_id":"free"},{"bike_id":"43275ef6-770c-4f0e-926c-1c3aecd7abec","system_id":"levelo_inurba_marseille","lat":43.287909,"lon":5.390554,"is_reserved":false,"is_disabled":false,"rental_uris":{"android":"levelo://app?vid=43275ef6-770c-4f0e-926c-1c3aecd7abec","ios":"levelo://app?vid=43275ef6-770c-4f0e-926c-1c3aecd7abec"},"vehicle_type_id":"4","last_reported":1687115068,"current_range_meters":11600,"station_id":"","pricing_plan_id":"free"},{"bike_id":"536b47a7-25f9-49cb-9608-1b3c49b68cf4","system_id":"levelo_inurba_marseille","lat":43.33718,"lon":5.39191,"is_reserved":false,"is_disabled":false,"rental_uris":{"android":"levelo://app?vid=536b47a7-25f9-49cb-9608-1b3c49b68cf4","ios":"levelo://app?vid=536b47a7-25f9-49cb-9608-1b3c49b68cf4"},"vehicle_type_id":"4","last_reported":1687115068,"current_range_meters":9200,"station_id":"","pricing_plan_id":"free"},{"bike_id":"8db5d0f0-ce73-4340-a31c-90dcfe30380a","system_id":"levelo_inurba_marseille","lat":43.323464,"lon":5.406297,"is_reserved":false,"is_disabled":false,"rental_uris":{"android":"levelo://app?vid=8db5d0f0-ce73-4340-a31c-90dcfe30380a","ios":"levelo://app?vid=8db5d0f0-ce73-4340-a31c-90dcfe30380a"},"vehicle_type_id":"4","last_reported":1687115068,"current_range_meters":24400,"station_id":"ce4bhq92rcd13ifvqhjg","pricing_plan_id":"free"},{"bike_id":"00b4d942-d645-4a17-a320-9c02b5ecca68","system_id":"levelo_inurba_marseille","lat":43.288501,"lon":5.393087,"is_reserved":false,"is_disabled":false,"rental_uris":{"android":"levelo://app?vid=00b4d942-d645-4a17-a320-9c02b5ecca68","ios":"levelo://app?vid=00b4d942-d645-4a17-a320-9c02b5ecca68"},"vehicle_type_id":"4","last_reported":1687115068,"current_range_meters":20800,"station_id":"ce4bh2p2rcd13ifvqdi0","pricing_plan_id":"free"},{"bike_id":"80ae9314-b195-4fdd-a25d-e14c1275fcf2","system_id":"levelo_inurba_marseille","lat":43.283498,"lon":5.380948,"is_reserved":false,"is_disabled":false,"rental_uris":{"android":"levelo://app?vid=80ae9314-b195-4fdd-a25d-e14c1275fcf2","ios":"levelo://app?vid=80ae9314-b195-4fdd-a25d-e14c1275fcf2"},"vehicle_type_id":"4","last_reported":1687115068,"current_range_meters":0,"station_id":"ce4bh412rcd13ifvqdr0","pricing_plan_id":"free"},{"bike_id":"16e5fedd-6e86-436a-a0a2-72c7cd60a6ea","system_id":"levelo_inurba_marseille","lat":43.32181,"lon":5.40806,"is_reserved":false,"is_disabled":false,"rental_uris":{"android":"levelo://app?vid=16e5fedd-6e86-436a-a0a2-72c7cd60a6ea","ios":"levelo://app?vid=16e5fedd-6e86-436a-a0a2-72c7cd60a6ea"},"vehicle_type_id":"4","last_reported":1687115068,"current_range_meters":31200,"station_id":"","pricing_plan_id":"free"},{"bike_id":"130598c9-ca24-4f99-b031-f56235a920a3","system_id":"levelo_inurba_marseille","lat":43.292724,"lon":5.401131,"is_reserved":false,"is_disabled":false,"rental_uris":{"android":"levelo://app?vid=130598c9-ca24-4f99-b031-f56235a920a3","ios":"levelo://app?vid=130598c9-ca24-4f99-b031-f56235a920a3"},"vehicle_type_id":"4","last_reported":1687115068,"current_range_meters":8400,"station_id":"ce4bh312rcd13ifvqdk0","pricing_plan_id":"free"},{"bike_id":"112902f1-ab3b-4e6c-886a-31323b4b6546","system_id":"levelo_inurba_marseille","lat":43.283502,"lon":5.386471,"is_reserved":false,"is_disabled":false,"rental_uris":{"android":"levelo://app?vid=112902f1-ab3b-4e6c-886a-31323b4b6546","ios":"levelo://app?vid=112902f1-ab3b-4e6c-886a-31323b4b6546"},"vehicle_type_id":"4","last_reported":1687115068,"current_range_meters":12400,"station_id":"ce4bh492rcd13ifvqdvg","pricing_plan_id":"free"},{"bike_id":"bb54f217-037b-48cf-b4bc-7febf3b21e2e","system_id":"levelo_inurba_marseille","lat":43.28039,"lon":5.369297,"is_reserved":false,"is_disabled":false,"rental_uris":{"android":"levelo://app?vid=bb54f217-037b-48cf-b4bc-7febf3b21e2e","ios":"levelo://app?vid=bb54f217-037b-48cf-b4bc-7febf3b21e2e"},"vehicle_type_id":"4","last_reported":1687115068,"current_range_meters":26800,"station_id":"ce4bha12rcd13ifvqef0","pricing_plan_id":"free"},{"bike_id":"46eb29ba-ab8d-492f-8f04-16415aa2c203","system_id":"levelo_inurba_marseille","lat":43.28036,"lon":5.36954,"is_reserved":false,"is_disabled":false,"rental_uris":{"android":"levelo://app?vid=46eb29ba-ab8d-492f-8f04-16415aa2c203","ios":"levelo://app?vid=46eb29ba-ab8d-492f-8f04-16415aa2c203"},"vehicle_type_id":"4","last_reported":1687115068,"current_range_meters":8800,"station_id":"ce4bha12rcd13ifvqef0","pricing_plan_id":"free"},{"bike_id":"ff518200-6c70-4322-ba2f-07ee1b6b69a2","system_id":"levelo_inurba_marseille","lat":43.280382,"lon":5.369291,"is_reserved":false,"is_disabled":false,"rental_uris":{"android":"levelo://app?vid=ff518200-6c70-4322-ba2f-07ee1b6b69a2","ios":"levelo://app?vid=ff518200-6c70-4322-ba2f-07ee1b6b69a2"},"vehicle_type_id":"4","last_reported":1687115068,"current_range_meters":1200,"station_id":"ce4bha12rcd13ifvqef0","pricing_plan_id":"free"},{"bike_id":"fd6e9984-cded-4c4f-be51-7d283ce0ed23","system_id":"levelo_inurba_marseille","lat":43.283502,"lon":5.386471,"is_reserved":false,"is_disabled":false,"rental_uris":{"android":"levelo://app?vid=fd6e9984-cded-4c4f-be51-7d283ce0ed23","ios":"levelo://app?vid=fd6e9984-cded-4c4f-be51-7d283ce0ed23"},"vehicle_type_id":"4","last_reported":1687115068,"current_range_meters":17600,"station_id":"ce4bh492rcd13ifvqdvg","pricing_plan_id":"free"},{"bike_id":"e158a977-fae2-48fa-b9b2-e1951d31705f","system_id":"levelo_inurba_marseille","lat":43.280382,"lon":5.369291,"is_reserved":false,"is_disabled":false,"rental_uris":{"android":"levelo://app?vid=e158a977-fae2-48fa-b9b2-e1951d31705f","ios":"levelo://app?vid=e158a977-fae2-48fa-b9b2-e1951d31705f"},"vehicle_type_id":"4","last_reported":1687115068,"current_range_meters":16000,"station_id":"ce4bha12rcd13ifvqef0","pricing_plan_id":"free"},{"bike_id":"0efde5b2-515d-455b-8c08-9062c8639f64","system_id":"levelo_inurba_marseille","lat":43.281044,"lon":5.378308,"is_reserved":false,"is_disabled":false,"rental_uris":{"android":"levelo://app?vid=0efde5b2-515d-455b-8c08-9062c8639f64","ios":"levelo://app?vid=0efde5b2-515d-455b-8c08-9062c8639f64"},"vehicle_type_id":"4","last_reported":1687115068,"current_range_meters":22000,"station_id":"ce4bha12rcd13ifvqee0","pricing_plan_id":"free"},{"bike_id":"3abb7fde-fe24-41f9-b52b-68e7cfd072d3","system_id":"levelo_inurba_marseille","lat":43.29041,"lon":5.399634,"is_reserved":false,"is_disabled":false,"rental_uris":{"android":"levelo://app?vid=3abb7fde-fe24-41f9-b52b-68e7cfd072d3","ios":"levelo://app?vid=3abb7fde-fe24-41f9-b52b-68e7cfd072d3"},"vehicle_type_id":"4","last_reported":1687115068,"current_range_meters":0,"station_id":"ce4bh392rcd13ifvqdm0","pricing_plan_id":"free"},{"bike_id":"57eef816-9f9e-4966-8dfb-c3d0fdc83c46","system_id":"levelo_inurba_marseille","lat":43.296263,"lon":5.40601,"is_reserved":false,"is_disabled":false,"rental_uris":{"android":"levelo://app?vid=57eef816-9f9e-4966-8dfb-c3d0fdc83c46","ios":"levelo://app?vid=57eef816-9f9e-4966-8dfb-c3d0fdc83c46"},"vehicle_type_id":"4","last_reported":1687115068,"current_range_meters":18800,"station_id":"ce4bh0h2rcd13ifvqd60","pricing_plan_id":"free"},{"bike_id":"c7e4199f-cf79-4df7-a5bf-1f4e146111bc","system_id":"levelo_inurba_marseille","lat":43.296263,"lon":5.40601,"is_reserved":false,"is_disabled":false,"rental_uris":{"android":"levelo://app?vid=c7e4199f-cf79-4df7-a5bf-1f4e146111bc","ios":"levelo://app?vid=c7e4199f-cf79-4df7-a5bf-1f4e146111bc"},"vehicle_type_id":"4","last_reported":1687115068,"current_range_meters":30000,"station_id":"ce4bh0h2rcd13ifvqd60","pricing_plan_id":"free"},{"bike_id":"80fca505-5c52-44c6-b98d-03f483e4567e","system_id":"levelo_inurba_marseille","lat":43.290412,"lon":5.399633,"is_reserved":false,"is_disabled":false,"rental_uris":{"android":"levelo://app?vid=80fca505-5c52-44c6-b98d-03f483e4567e","ios":"levelo://app?vid=80fca505-5c52-44c6-b98d-03f483e4567e"},"vehicle_type_id":"4","last_reported":1687115068,"current_range_meters":24800,"station_id":"ce4bh392rcd13ifvqdm0","pricing_plan_id":"free"},{"bike_id":"5411b4e5-2e76-4311-8b27-1c989335131e","system_id":"levelo_inurba_marseille","lat":43.284462,"lon":5.392121,"is_reserved":false,"is_disabled":false,"rental_uris":{"android":"levelo://app?vid=5411b4e5-2e76-4311-8b27-1c989335131e","ios":"levelo://app?vid=5411b4e5-2e76-4311-8b27-1c989335131e"},"vehicle_type_id":"4","last_reported":1687115068,"current_range_meters":8000,"station_id":"ce4bhoh2rcd13ifvqh5g","pricing_plan_id":"free"},{"bike_id":"459c5b99-15eb-4074-a238-cf4781d83532","system_id":"levelo_inurba_marseille","lat":43.284462,"lon":5.392121,"is_reserved":false,"is_disabled":false,"rental_uris":{"android":"levelo://app?vid=459c5b99-15eb-4074-a238-cf4781d83532","ios":"levelo://app?vid=459c5b99-15eb-4074-a238-cf4781d83532"},"vehicle_type_id":"4","last_reported":1687115068,"current_range_meters":7600,"station_id":"ce4bhoh2rcd13ifvqh5g","pricing_plan_id":"free"},{"bike_id":"a2a4a28d-939d-46d8-8351-d43a3ab01811","system_id":"levelo_inurba_marseille","lat":43.28582,"lon":5.39499,"is_reserved":false,"is_disabled":false,"rental_uris":{"android":"levelo://app?vid=a2a4a28d-939d-46d8-8351-d43a3ab01811","ios":"levelo://app?vid=a2a4a28d-939d-46d8-8351-d43a3ab01811"},"vehicle_type_id":"4","last_reported":1687115068,"current_range_meters":27600,"station_id":"ce4bh292rcd13ifvqdg0","pricing_plan_id":"free"},{"bike_id":"d5f50fab-c603-43a1-a119-2b2f0dc9e030","system_id":"levelo_inurba_marseille","lat":43.28573,"lon":5.394992,"is_reserved":false,"is_disabled":false,"rental_uris":{"android":"levelo://app?vid=d5f50fab-c603-43a1-a119-2b2f0dc9e030","ios":"levelo://app?vid=d5f50fab-c603-43a1-a119-2b2f0dc9e030"},"vehicle_type_id":"4","last_reported":1687115068,"current_range_meters":20800,"station_id":"ce4bh292rcd13ifvqdg0","pricing_plan_id":"free"},{"bike_id":"e7607c34-2658-48c5-8894-429c92362894","system_id":"levelo_inurba_marseille","lat":43.285742,"lon":5.395004,"is_reserved":false,"is_disabled":false,"rental_uris":{"android":"levelo://app?vid=e7607c34-2658-48c5-8894-429c92362894","ios":"levelo://app?vid=e7607c34-2658-48c5-8894-429c92362894"},"vehicle_type_id":"4","last_reported":1687115068,"current_range_meters":12800,"station_id":"ce4bh292rcd13ifvqdg0","pricing_plan_id":"free"},{"bike_id":"d2b3ecfe-0ae3-4066-b081-e363446d152c","system_id":"levelo_inurba_marseille","lat":43.28573,"lon":5.394992,"is_reserved":false,"is_disabled":false,"rental_uris":{"android":"levelo://app?vid=d2b3ecfe-0ae3-4066-b081-e363446d152c","ios":"levelo://app?vid=d2b3ecfe-0ae3-4066-b081-e363446d152c"},"vehicle_type_id":"4","last_reported":1687115068,"current_range_meters":16400,"station_id":"ce4bh292rcd13ifvqdg0","pricing_plan_id":"free"},{"bike_id":"d852f400-3f6d-410c-b0a0-e8cefa552d0b","system_id":"levelo_inurba_marseille","lat":43.2857,"lon":5.395,"is_reserved":false,"is_disabled":false,"rental_uris":{"android":"levelo://app?vid=d852f400-3f6d-410c-b0a0-e8cefa552d0b","ios":"levelo://app?vid=d852f400-3f6d-410c-b0a0-e8cefa552d0b"},"vehicle_type_id":"4","last_reported":1687115068,"current_range_meters":8000,"station_id":"","pricing_plan_id":"free"},{"bike_id":"25d8e6a4-3725-43fd-bdab-fcdddbe7689c","system_id":"levelo_inurba_marseille","lat":43.32658,"lon":5.40989,"is_reserved":false,"is_disabled":false,"rental_uris":{"android":"levelo://app?vid=25d8e6a4-3725-43fd-bdab-fcdddbe7689c","ios":"levelo://app?vid=25d8e6a4-3725-43fd-bdab-fcdddbe7689c"},"vehicle_type_id":"4","last_reported":1687115068,"current_range_meters":29200,"station_id":"ce4bhpp2rcd13ifvqhgg","pricing_plan_id":"free"},{"bike_id":"4fd3bc64-1463-4fb6-9691-1cb98eaeb054","system_id":"levelo_inurba_marseille","lat":43.3266,"lon":5.40989,"is_reserved":false,"is_disabled":false,"rental_uris":{"android":"levelo://app?vid=4fd3bc64-1463-4fb6-9691-1cb98eaeb054","ios":"levelo://app?vid=4fd3bc64-1463-4fb6-9691-1cb98eaeb054"},"vehicle_type_id":"4","last_reported":1687115068,"current_range_meters":26800,"station_id":"ce4bhpp2rcd13ifvqhgg","pricing_plan_id":"free"},{"bike_id":"0f1036b8-e561-4078-8678-2d094e6d0668","system_id":"levelo_inurba_marseille","lat":43.304188,"lon":5.412904,"is_reserved":false,"is_disabled":false,"rental_uris":{"android":"levelo://app?vid=0f1036b8-e561-4078-8678-2d094e6d0668","ios":"levelo://app?vid=0f1036b8-e561-4078-8678-2d094e6d0668"},"vehicle_type_id":"4","last_reported":1687115068,"current_range_meters":13600,"station_id":"ce4bhop2rcd13ifvqh8g","pricing_plan_id":"free"},{"bike_id":"84feadda-530c-41c8-b9ac-6e1cf93301a9","system_id":"levelo_inurba_marseille","lat":43.27908,"lon":5.38002,"is_reserved":false,"is_disabled":false,"rental_uris":{"android":"levelo://app?vid=84feadda-530c-41c8-b9ac-6e1cf93301a9","ios":"levelo://app?vid=84feadda-530c-41c8-b9ac-6e1cf93301a9"},"vehicle_type_id":"4","last_reported":1687115068,"current_range_meters":0,"station_id":"","pricing_plan_id":"free"},{"bike_id":"70b5b54f-5bd7-488d-9095-634547845e4a","system_id":"levelo_inurba_marseille","lat":43.27901,"lon":5.38006,"is_reserved":false,"is_disabled":false,"rental_uris":{"android":"levelo://app?vid=70b5b54f-5bd7-488d-9095-634547845e4a","ios":"levelo://app?vid=70b5b54f-5bd7-488d-9095-634547845e4a"},"vehicle_type_id":"4","last_reported":1687115068,"current_range_meters":0,"station_id":"","pricing_plan_id":"free"},{"bike_id":"1f8d1194-a291-4e32-aa9f-ef0f1020cfc3","system_id":"levelo_inurba_marseille","lat":43.279742,"lon":5.38744,"is_reserved":false,"is_disabled":false,"rental_uris":{"android":"levelo://app?vid=1f8d1194-a291-4e32-aa9f-ef0f1020cfc3","ios":"levelo://app?vid=1f8d1194-a291-4e32-aa9f-ef0f1020cfc3"},"vehicle_type_id":"4","last_reported":1687115068,"current_range_meters":23200,"station_id":"ce4bhg12rcd13ifvqf80","pricing_plan_id":"free"},{"bike_id":"5d21cfd9-d9e1-4702-8984-dc5bf20247d9","system_id":"levelo_inurba_marseille","lat":43.279742,"lon":5.38744,"is_reserved":false,"is_disabled":false,"rental_uris":{"android":"levelo://app?vid=5d21cfd9-d9e1-4702-8984-dc5bf20247d9","ios":"levelo://app?vid=5d21cfd9-d9e1-4702-8984-dc5bf20247d9"},"vehicle_type_id":"4","last_reported":1687115068,"current_range_meters":2800,"station_id":"ce4bhg12rcd13ifvqf80","pricing_plan_id":"free"},{"bike_id":"773bbf7c-b35e-4957-80c3-f5cd41e0db0e","system_id":"levelo_inurba_marseille","lat":43.279742,"lon":5.38744,"is_reserved":false,"is_disabled":false,"rental_uris":{"android":"levelo://app?vid=773bbf7c-b35e-4957-80c3-f5cd41e0db0e","ios":"levelo://app?vid=773bbf7c-b35e-4957-80c3-f5cd41e0db0e"},"vehicle_type_id":"4","last_reported":1687115068,"current_range_meters":16000,"station_id":"ce4bhg12rcd13ifvqf80","pricing_plan_id":"free"},{"bike_id":"d85230b4-aa8f-46d1-91f8-b72457777f24","system_id":"levelo_inurba_marseille","lat":43.279742,"lon":5.38744,"is_reserved":false,"is_disabled":false,"rental_uris":{"android":"levelo://app?vid=d85230b4-aa8f-46d1-91f8-b72457777f24","ios":"levelo://app?vid=d85230b4-aa8f-46d1-91f8-b72457777f24"},"vehicle_type_id":"4","last_reported":1687115068,"current_range_meters":2800,"station_id":"ce4bhg12rcd13ifvqf80","pricing_plan_id":"free"},{"bike_id":"24d3400b-0cbf-4513-8e62-481bc2c24d3d","system_id":"levelo_inurba_marseille","lat":43.292571,"lon":5.409107,"is_reserved":false,"is_disabled":false,"rental_uris":{"android":"levelo://app?vid=24d3400b-0cbf-4513-8e62-481bc2c24d3d","ios":"levelo://app?vid=24d3400b-0cbf-4513-8e62-481bc2c24d3d"},"vehicle_type_id":"4","last_reported":1687115068,"current_range_meters":1600,"station_id":"ce4bh192rcd13ifvqdc0","pricing_plan_id":"free"},{"bike_id":"f3c266f2-b110-4e76-afb8-70d063259de9","system_id":"levelo_inurba_marseille","lat":43.29256,"lon":5.40906,"is_reserved":false,"is_disabled":false,"rental_uris":{"android":"levelo://app?vid=f3c266f2-b110-4e76-afb8-70d063259de9","ios":"levelo://app?vid=f3c266f2-b110-4e76-afb8-70d063259de9"},"vehicle_type_id":"4","last_reported":1687115068,"current_range_meters":0,"station_id":"ce4bh192rcd13ifvqdc0","pricing_plan_id":"free"},{"bike_id":"d6ff23ef-5f51-41c3-be12-6a99cef30a64","system_id":"levelo_inurba_marseille","lat":43.292571,"lon":5.409107,"is_reserved":false,"is_disabled":false,"rental_uris":{"android":"levelo://app?vid=d6ff23ef-5f51-41c3-be12-6a99cef30a64","ios":"levelo://app?vid=d6ff23ef-5f51-41c3-be12-6a99cef30a64"},"vehicle_type_id":"4","last_reported":1687115068,"current_range_meters":4800,"station_id":"ce4bh192rcd13ifvqdc0","pricing_plan_id":"free"},{"bike_id":"ee58c7e6-f031-4e15-a6ee-b6ccdccfbce0","system_id":"levelo_inurba_marseille","lat":43.292571,"lon":5.409107,"is_reserved":false,"is_disabled":false,"rental_uris":{"android":"levelo://app?vid=ee58c7e6-f031-4e15-a6ee-b6ccdccfbce0","ios":"levelo://app?vid=ee58c7e6-f031-4e15-a6ee-b6ccdccfbce0"},"vehicle_type_id":"4","last_reported":1687115068,"current_range_meters":5200,"station_id":"ce4bh192rcd13ifvqdc0","pricing_plan_id":"free"},{"bike_id":"c5700ada-6505-4afb-9e19-1b128c240c5c","system_id":"levelo_inurba_marseille","lat":43.292571,"lon":5.409107,"is_reserved":false,"is_disabled":false,"rental_uris":{"android":"levelo://app?vid=c5700ada-6505-4afb-9e19-1b128c240c5c","ios":"levelo://app?vid=c5700ada-6505-4afb-9e19-1b128c240c5c"},"vehicle_type_id":"4","last_reported":1687115068,"current_range_meters":8000,"station_id":"ce4bh192rcd13ifvqdc0","pricing_plan_id":"free"},{"bike_id":"71922113-7a3f-4f21-a5f7-b744a9a78c58","system_id":"levelo_inurba_marseille","lat":43.280784,"lon":5.396622,"is_reserved":false,"is_disabled":false,"rental_uris":{"android":"levelo://app?vid=71922113-7a3f-4f21-a5f7-b744a9a78c58","ios":"levelo://app?vid=71922113-7a3f-4f21-a5f7-b744a9a78c58"},"vehicle_type_id":"4","last_reported":1687115068,"current_range_meters":4400,"station_id":"ce4bho12rcd13ifvqh2g","pricing_plan_id":"free"},{"bike_id":"3a2e1a00-5180-42ce-8009-33c532669596","system_id":"levelo_inurba_marseille","lat":43.30357,"lon":5.41884,"is_reserved":false,"is_disabled":false,"rental_uris":{"android":"levelo://app?vid=3a2e1a00-5180-42ce-8009-33c532669596","ios":"levelo://app?vid=3a2e1a00-5180-42ce-8009-33c532669596"},"vehicle_type_id":"4","last_reported":1687115068,"current_range_meters":400,"station_id":"","pricing_plan_id":"free"},{"bike_id":"6275aaca-a354-407f-be44-df40f2969d44","system_id":"levelo_inurba_marseille","lat":43.27373,"lon":5.3626,"is_reserved":false,"is_disabled":false,"rental_uris":{"android":"levelo://app?vid=6275aaca-a354-407f-be44-df40f2969d44","ios":"levelo://app?vid=6275aaca-a354-407f-be44-df40f2969d44"},"vehicle_type_id":"4","last_reported":1687115068,"current_range_meters":31200,"station_id":"ce4bhbh2rcd13ifvqeo0","pricing_plan_id":"free"},{"bike_id":"2bf17628-b294-4a80-ae61-c27e485be941","system_id":"levelo_inurba_marseille","lat":43.33612,"lon":5.410321,"is_reserved":false,"is_disabled":false,"rental_uris":{"android":"levelo://app?vid=2bf17628-b294-4a80-ae61-c27e485be941","ios":"levelo://app?vid=2bf17628-b294-4a80-ae61-c27e485be941"},"vehicle_type_id":"4","last_reported":1687115068,"current_range_meters":21600,"station_id":"ce4bhqh2rcd13ifvqhmg","pricing_plan_id":"free"},{"bike_id":"8dc4a047-e838-466f-9806-0385c3891656","system_id":"levelo_inurba_marseille","lat":43.276769,"lon":5.388787,"is_reserved":false,"is_disabled":false,"rental_uris":{"android":"levelo://app?vid=8dc4a047-e838-466f-9806-0385c3891656","ios":"levelo://app?vid=8dc4a047-e838-466f-9806-0385c3891656"},"vehicle_type_id":"4","last_reported":1687115068,"current_range_meters":4800,"station_id":"ce4bhi12rcd13ifvqfo0","pricing_plan_id":"free"},{"bike_id":"813cea3e-ab33-42bf-acb5-e4e9a30c73ae","system_id":"levelo_inurba_marseille","lat":43.31729,"lon":5.42402,"is_reserved":false,"is_disabled":false,"rental_uris":{"android":"levelo://app?vid=813cea3e-ab33-42bf-acb5-e4e9a30c73ae","ios":"levelo://app?vid=813cea3e-ab33-42bf-acb5-e4e9a30c73ae"},"vehicle_type_id":"4","last_reported":1687115068,"current_range_meters":29600,"station_id":"ce4bhp92rcd13ifvqhbg","pricing_plan_id":"free"},{"bike_id":"c9118ee2-e487-41b2-adb4-b8e2b83b57d2","system_id":"levelo_inurba_marseille","lat":43.310785,"lon":5.424305,"is_reserved":false,"is_disabled":false,"rental_uris":{"android":"levelo://app?vid=c9118ee2-e487-41b2-adb4-b8e2b83b57d2","ios":"levelo://app?vid=c9118ee2-e487-41b2-adb4-b8e2b83b57d2"},"vehicle_type_id":"4","last_reported":1687115068,"current_range_meters":31200,"station_id":"ce4bhp92rcd13ifvqhag","pricing_plan_id":"free"},{"bike_id":"a670ef55-fa28-46ef-be87-f2b252cb9a4f","system_id":"levelo_inurba_marseille","lat":43.2743,"lon":5.39413,"is_reserved":false,"is_disabled":false,"rental_uris":{"android":"levelo://app?vid=a670ef55-fa28-46ef-be87-f2b252cb9a4f","ios":"levelo://app?vid=a670ef55-fa28-46ef-be87-f2b252cb9a4f"},"vehicle_type_id":"4","last_reported":1687115068,"current_range_meters":2400,"station_id":"","pricing_plan_id":"free"},{"bike_id":"f82c4e0b-ce86-4de4-962b-f266d6ba506e","system_id":"levelo_inurba_marseille","lat":43.27304,"lon":5.3909,"is_reserved":false,"is_disabled":false,"rental_uris":{"android":"levelo://app?vid=f82c4e0b-ce86-4de4-962b-f266d6ba506e","ios":"levelo://app?vid=f82c4e0b-ce86-4de4-962b-f266d6ba506e"},"vehicle_type_id":"4","last_reported":1687115068,"current_range_meters":28400,"station_id":"ce4bhgp2rcd13ifvqfe0","pricing_plan_id":"free"},{"bike_id":"d5fd97ff-3adc-446c-9878-876cc19b66ce","system_id":"levelo_inurba_marseille","lat":43.30415,"lon":5.42536,"is_reserved":false,"is_disabled":false,"rental_uris":{"android":"levelo://app?vid=d5fd97ff-3adc-446c-9878-876cc19b66ce","ios":"levelo://app?vid=d5fd97ff-3adc-446c-9878-876cc19b66ce"},"vehicle_type_id":"4","last_reported":1687115068,"current_range_meters":0,"station_id":"ce4bhoh2rcd13ifvqh6g","pricing_plan_id":"free"},{"bike_id":"e76d87c2-2b9e-49fa-9da1-67a2f138a5b4","system_id":"levelo_inurba_marseille","lat":43.26685,"lon":5.38268,"is_reserved":false,"is_disabled":false,"rental_uris":{"android":"levelo://app?vid=e76d87c2-2b9e-49fa-9da1-67a2f138a5b4","ios":"levelo://app?vid=e76d87c2-2b9e-49fa-9da1-67a2f138a5b4"},"vehicle_type_id":"4","last_reported":1687115068,"current_range_meters":30000,"station_id":"ce4bhg92rcd13ifvqf90","pricing_plan_id":"free"},{"bike_id":"7621fa8b-e313-4a5e-8c10-742231d2e1af","system_id":"levelo_inurba_marseille","lat":43.26685,"lon":5.3827,"is_reserved":false,"is_disabled":false,"rental_uris":{"android":"levelo://app?vid=7621fa8b-e313-4a5e-8c10-742231d2e1af","ios":"levelo://app?vid=7621fa8b-e313-4a5e-8c10-742231d2e1af"},"vehicle_type_id":"4","last_reported":1687115068,"current_range_meters":31200,"station_id":"ce4bhg92rcd13ifvqf90","pricing_plan_id":"free"},{"bike_id":"c0eb1fd9-f42f-4c8b-ba57-ddf8a7ab4550","system_id":"levelo_inurba_marseille","lat":43.26681,"lon":5.382694,"is_reserved":false,"is_disabled":false,"rental_uris":{"android":"levelo://app?vid=c0eb1fd9-f42f-4c8b-ba57-ddf8a7ab4550","ios":"levelo://app?vid=c0eb1fd9-f42f-4c8b-ba57-ddf8a7ab4550"},"vehicle_type_id":"4","last_reported":1687115068,"current_range_meters":17600,"station_id":"ce4bhg92rcd13ifvqf90","pricing_plan_id":"free"},{"bike_id":"2cc79cf9-bec1-4444-9b4d-dd5c0ec59b62","system_id":"levelo_inurba_marseille","lat":43.26681,"lon":5.382694,"is_reserved":false,"is_disabled":false,"rental_uris":{"android":"levelo://app?vid=2cc79cf9-bec1-4444-9b4d-dd5c0ec59b62","ios":"levelo://app?vid=2cc79cf9-bec1-4444-9b4d-dd5c0ec59b62"},"vehicle_type_id":"4","last_reported":1687115068,"current_range_meters":5200,"station_id":"ce4bhg92rcd13ifvqf90","pricing_plan_id":"free"},{"bike_id":"ffb123f5-351a-4a2d-afb8-5f6ee5d19439","system_id":"levelo_inurba_marseille","lat":43.26681,"lon":5.382694,"is_reserved":false,"is_disabled":false,"rental_uris":{"android":"levelo://app?vid=ffb123f5-351a-4a2d-afb8-5f6ee5d19439","ios":"levelo://app?vid=ffb123f5-351a-4a2d-afb8-5f6ee5d19439"},"vehicle_type_id":"4","last_reported":1687115068,"current_range_meters":22400,"station_id":"ce4bhg92rcd13ifvqf90","pricing_plan_id":"free"},{"bike_id":"777f4b71-b492-4bc1-a6e9-1d4f74aa6180","system_id":"levelo_inurba_marseille","lat":43.26681,"lon":5.38268,"is_reserved":false,"is_disabled":false,"rental_uris":{"android":"levelo://app?vid=777f4b71-b492-4bc1-a6e9-1d4f74aa6180","ios":"levelo://app?vid=777f4b71-b492-4bc1-a6e9-1d4f74aa6180"},"vehicle_type_id":"4","last_reported":1687115068,"current_range_meters":22800,"station_id":"ce4bhg92rcd13ifvqf90","pricing_plan_id":"free"},{"bike_id":"ca89d469-9a2f-4288-8c41-cfb1443745bb","system_id":"levelo_inurba_marseille","lat":43.26681,"lon":5.382694,"is_reserved":false,"is_disabled":false,"rental_uris":{"android":"levelo://app?vid=ca89d469-9a2f-4288-8c41-cfb1443745bb","ios":"levelo://app?vid=ca89d469-9a2f-4288-8c41-cfb1443745bb"},"vehicle_type_id":"4","last_reported":1687115068,"current_range_meters":12800,"station_id":"ce4bhg92rcd13ifvqf90","pricing_plan_id":"free"},{"bike_id":"3fb25529-8b2f-4757-a92d-b51c6ebb175d","system_id":"levelo_inurba_marseille","lat":43.26432,"lon":5.37376,"is_reserved":false,"is_disabled":false,"rental_uris":{"android":"levelo://app?vid=3fb25529-8b2f-4757-a92d-b51c6ebb175d","ios":"levelo://app?vid=3fb25529-8b2f-4757-a92d-b51c6ebb175d"},"vehicle_type_id":"4","last_reported":1687115068,"current_range_meters":31200,"station_id":"","pricing_plan_id":"free"},{"bike_id":"cfba2fbe-9ed5-423f-b411-8d6c38451715","system_id":"levelo_inurba_marseille","lat":43.27996,"lon":5.41666,"is_reserved":false,"is_disabled":false,"rental_uris":{"android":"levelo://app?vid=cfba2fbe-9ed5-423f-b411-8d6c38451715","ios":"levelo://app?vid=cfba2fbe-9ed5-423f-b411-8d6c38451715"},"vehicle_type_id":"4","last_reported":1687115068,"current_range_meters":20800,"station_id":"ce4bho12rcd13ifvqh1g","pricing_plan_id":"free"},{"bike_id":"e76a986b-c69e-4b16-a618-8d08fa91920b","system_id":"levelo_inurba_marseille","lat":43.27996,"lon":5.416624,"is_reserved":false,"is_disabled":false,"rental_uris":{"android":"levelo://app?vid=e76a986b-c69e-4b16-a618-8d08fa91920b","ios":"levelo://app?vid=e76a986b-c69e-4b16-a618-8d08fa91920b"},"vehicle_type_id":"4","last_reported":1687115068,"current_range_meters":9600,"station_id":"ce4bho12rcd13ifvqh1g","pricing_plan_id":"free"},{"bike_id":"3987290e-fd4b-4f2b-81c0-57fca98f9cde","system_id":"levelo_inurba_marseille","lat":43.267966,"lon":5.393976,"is_reserved":false,"is_disabled":false,"rental_uris":{"android":"levelo://app?vid=3987290e-fd4b-4f2b-81c0-57fca98f9cde","ios":"levelo://app?vid=3987290e-fd4b-4f2b-81c0-57fca98f9cde"},"vehicle_type_id":"4","last_reported":1687115068,"current_range_meters":30400,"station_id":"ce4bhh12rcd13ifvqfg0","pricing_plan_id":"free"},{"bike_id":"e09ee2df-5eb5-400b-b4e8-a2efdba018fe","system_id":"levelo_inurba_marseille","lat":43.308,"lon":5.43518,"is_reserved":false,"is_disabled":false,"rental_uris":{"android":"levelo://app?vid=e09ee2df-5eb5-400b-b4e8-a2efdba018fe","ios":"levelo://app?vid=e09ee2df-5eb5-400b-b4e8-a2efdba018fe"},"vehicle_type_id":"4","last_reported":1687115068,"current_range_meters":2800,"station_id":"ce4bhph2rcd13ifvqheg","pricing_plan_id":"free"},{"bike_id":"935a4aec-1547-4073-a330-9bf4a8e0fb00","system_id":"levelo_inurba_marseille","lat":43.30807,"lon":5.43523,"is_reserved":false,"is_disabled":false,"rental_uris":{"android":"levelo://app?vid=935a4aec-1547-4073-a330-9bf4a8e0fb00","ios":"levelo://app?vid=935a4aec-1547-4073-a330-9bf4a8e0fb00"},"vehicle_type_id":"4","last_reported":1687115068,"current_range_meters":22400,"station_id":"ce4bhph2rcd13ifvqheg","pricing_plan_id":"free"},{"bike_id":"fd6743c7-af01-469c-8fdf-f5faafed5811","system_id":"levelo_inurba_marseille","lat":43.26567,"lon":5.3901,"is_reserved":false,"is_disabled":false,"rental_uris":{"android":"levelo://app?vid=fd6743c7-af01-469c-8fdf-f5faafed5811","ios":"levelo://app?vid=fd6743c7-af01-469c-8fdf-f5faafed5811"},"vehicle_type_id":"4","last_reported":1687115068,"current_range_meters":5600,"station_id":"ce4bhe12rcd13ifvqf30","pricing_plan_id":"free"},{"bike_id":"cda28a23-f977-444e-be81-0c35c0e3524a","system_id":"levelo_inurba_marseille","lat":43.30828,"lon":5.43556,"is_reserved":false,"is_disabled":false,"rental_uris":{"android":"levelo://app?vid=cda28a23-f977-444e-be81-0c35c0e3524a","ios":"levelo://app?vid=cda28a23-f977-444e-be81-0c35c0e3524a"},"vehicle_type_id":"4","last_reported":1687115068,"current_range_meters":0,"station_id":"","pricing_plan_id":"free"},{"bike_id":"eb9ee4cf-e194-4b35-8737-881041291f27","system_id":"levelo_inurba_marseille","lat":43.261782,"lon":5.374515,"is_reserved":false,"is_disabled":false,"rental_uris":{"android":"levelo://app?vid=eb9ee4cf-e194-4b35-8737-881041291f27","ios":"levelo://app?vid=eb9ee4cf-e194-4b35-8737-881041291f27"},"vehicle_type_id":"4","last_reported":1687115068,"current_range_meters":16400,"station_id":"ce4bhgp2rcd13ifvqfc0","pricing_plan_id":"free"},{"bike_id":"a22e5cdd-17c8-4f21-853c-03ca220d8771","system_id":"levelo_inurba_marseille","lat":43.26191,"lon":5.37445,"is_reserved":false,"is_disabled":false,"rental_uris":{"android":"levelo://app?vid=a22e5cdd-17c8-4f21-853c-03ca220d8771","ios":"levelo://app?vid=a22e5cdd-17c8-4f21-853c-03ca220d8771"},"vehicle_type_id":"4","last_reported":1687115068,"current_range_meters":31200,"station_id":"ce4bhgp2rcd13ifvqfc0","pricing_plan_id":"free"},{"bike_id":"a0d74ce8-7bf3-4eb9-9e75-19e0ac067ce2","system_id":"levelo_inurba_marseille","lat":43.261782,"lon":5.374515,"is_reserved":false,"is_disabled":false,"rental_uris":{"android":"levelo://app?vid=a0d74ce8-7bf3-4eb9-9e75-19e0ac067ce2","ios":"levelo://app?vid=a0d74ce8-7bf3-4eb9-9e75-19e0ac067ce2"},"vehicle_type_id":"4","last_reported":1687115068,"current_range_meters":12000,"station_id":"ce4bhgp2rcd13ifvqfc0","pricing_plan_id":"free"},{"bike_id":"3548173a-c6d6-4104-9d24-d210d754eae1","system_id":"levelo_inurba_marseille","lat":43.261782,"lon":5.374515,"is_reserved":false,"is_disabled":false,"rental_uris":{"android":"levelo://app?vid=3548173a-c6d6-4104-9d24-d210d754eae1","ios":"levelo://app?vid=3548173a-c6d6-4104-9d24-d210d754eae1"},"vehicle_type_id":"4","last_reported":1687115068,"current_range_meters":0,"station_id":"ce4bhgp2rcd13ifvqfc0","pricing_plan_id":"free"},{"bike_id":"72c93a2b-9eaf-4635-82fd-ea94f8300d5c","system_id":"levelo_inurba_marseille","lat":43.31713,"lon":5.43706,"is_reserved":false,"is_disabled":false,"rental_uris":{"android":"levelo://app?vid=72c93a2b-9eaf-4635-82fd-ea94f8300d5c","ios":"levelo://app?vid=72c93a2b-9eaf-4635-82fd-ea94f8300d5c"},"vehicle_type_id":"4","last_reported":1687115068,"current_range_meters":22400,"station_id":"ce4bhp92rcd13ifvqhcg","pricing_plan_id":"free"},{"bike_id":"9bf905c2-7b41-48ec-bfc6-155ec656c7ee","system_id":"levelo_inurba_marseille","lat":43.317104,"lon":5.436818,"is_reserved":false,"is_disabled":false,"rental_uris":{"android":"levelo://app?vid=9bf905c2-7b41-48ec-bfc6-155ec656c7ee","ios":"levelo://app?vid=9bf905c2-7b41-48ec-bfc6-155ec656c7ee"},"vehicle_type_id":"4","last_reported":1687115068,"current_range_meters":31200,"station_id":"ce4bhp92rcd13ifvqhcg","pricing_plan_id":"free"},{"bike_id":"df937aa2-e5ca-492d-b726-b96bea986152","system_id":"levelo_inurba_marseille","lat":43.26213,"lon":5.37922,"is_reserved":false,"is_disabled":false,"rental_uris":{"android":"levelo://app?vid=df937aa2-e5ca-492d-b726-b96bea986152","ios":"levelo://app?vid=df937aa2-e5ca-492d-b726-b96bea986152"},"vehicle_type_id":"4","last_reported":1687115068,"current_range_meters":12000,"station_id":"ce4bhjp2rcd13ifvqg90","pricing_plan_id":"free"},{"bike_id":"fc7bd63b-73f7-401f-8c62-5b0338652175","system_id":"levelo_inurba_marseille","lat":43.26213,"lon":5.37922,"is_reserved":false,"is_disabled":false,"rental_uris":{"android":"levelo://app?vid=fc7bd63b-73f7-401f-8c62-5b0338652175","ios":"levelo://app?vid=fc7bd63b-73f7-401f-8c62-5b0338652175"},"vehicle_type_id":"4","last_reported":1687115068,"current_range_meters":12800,"station_id":"ce4bhjp2rcd13ifvqg90","pricing_plan_id":"free"},{"bike_id":"7e62eef8-7ea4-42f8-87ba-4097c26363bb","system_id":"levelo_inurba_marseille","lat":43.26213,"lon":5.37929,"is_reserved":false,"is_disabled":false,"rental_uris":{"android":"levelo://app?vid=7e62eef8-7ea4-42f8-87ba-4097c26363bb","ios":"levelo://app?vid=7e62eef8-7ea4-42f8-87ba-4097c26363bb"},"vehicle_type_id":"4","last_reported":1687115068,"current_range_meters":7200,"station_id":"ce4bhjp2rcd13ifvqg90","pricing_plan_id":"free"},{"bike_id":"f1ab7711-710b-4353-8066-0674123a7482","system_id":"levelo_inurba_marseille","lat":43.26212,"lon":5.37924,"is_reserved":false,"is_disabled":false,"rental_uris":{"android":"levelo://app?vid=f1ab7711-710b-4353-8066-0674123a7482","ios":"levelo://app?vid=f1ab7711-710b-4353-8066-0674123a7482"},"vehicle_type_id":"4","last_reported":1687115068,"current_range_meters":20400,"station_id":"ce4bhjp2rcd13ifvqg90","pricing_plan_id":"free"},{"bike_id":"e96a64f3-07cb-45e5-a9e2-76966b0746f5","system_id":"levelo_inurba_marseille","lat":43.26211,"lon":5.37919,"is_reserved":false,"is_disabled":false,"rental_uris":{"android":"levelo://app?vid=e96a64f3-07cb-45e5-a9e2-76966b0746f5","ios":"levelo://app?vid=e96a64f3-07cb-45e5-a9e2-76966b0746f5"},"vehicle_type_id":"4","last_reported":1687115068,"current_range_meters":25600,"station_id":"ce4bhjp2rcd13ifvqg90","pricing_plan_id":"free"},{"bike_id":"d54b6070-f92d-46b7-9d8e-dd2a2c443c43","system_id":"levelo_inurba_marseille","lat":43.26212,"lon":5.37928,"is_reserved":false,"is_disabled":false,"rental_uris":{"android":"levelo://app?vid=d54b6070-f92d-46b7-9d8e-dd2a2c443c43","ios":"levelo://app?vid=d54b6070-f92d-46b7-9d8e-dd2a2c443c43"},"vehicle_type_id":"4","last_reported":1687115068,"current_range_meters":19600,"station_id":"ce4bhjp2rcd13ifvqg90","pricing_plan_id":"free"},{"bike_id":"0531736f-8d2d-4926-9ba0-8853709f3afa","system_id":"levelo_inurba_marseille","lat":43.26211,"lon":5.37927,"is_reserved":false,"is_disabled":false,"rental_uris":{"android":"levelo://app?vid=0531736f-8d2d-4926-9ba0-8853709f3afa","ios":"levelo://app?vid=0531736f-8d2d-4926-9ba0-8853709f3afa"},"vehicle_type_id":"4","last_reported":1687115068,"current_range_meters":9600,"station_id":"ce4bhjp2rcd13ifvqg90","pricing_plan_id":"free"},{"bike_id":"b353b798-e889-4861-a62e-7f8dce0c4b66","system_id":"levelo_inurba_marseille","lat":43.26211,"lon":5.37929,"is_reserved":false,"is_disabled":false,"rental_uris":{"android":"levelo://app?vid=b353b798-e889-4861-a62e-7f8dce0c4b66","ios":"levelo://app?vid=b353b798-e889-4861-a62e-7f8dce0c4b66"},"vehicle_type_id":"4","last_reported":1687115068,"current_range_meters":24000,"station_id":"ce4bhjp2rcd13ifvqg90","pricing_plan_id":"free"},{"bike_id":"051dc262-f782-4f3c-a536-9685bbaeac9c","system_id":"levelo_inurba_marseille","lat":43.2621,"lon":5.37924,"is_reserved":false,"is_disabled":false,"rental_uris":{"android":"levelo://app?vid=051dc262-f782-4f3c-a536-9685bbaeac9c","ios":"levelo://app?vid=051dc262-f782-4f3c-a536-9685bbaeac9c"},"vehicle_type_id":"4","last_reported":1687115068,"current_range_meters":8400,"station_id":"ce4bhjp2rcd13ifvqg90","pricing_plan_id":"free"},{"bike_id":"1b32d6aa-b30d-45ea-9285-88dc8a39ebcc","system_id":"levelo_inurba_marseille","lat":43.2621,"lon":5.37926,"is_reserved":false,"is_disabled":false,"rental_uris":{"android":"levelo://app?vid=1b32d6aa-b30d-45ea-9285-88dc8a39ebcc","ios":"levelo://app?vid=1b32d6aa-b30d-45ea-9285-88dc8a39ebcc"},"vehicle_type_id":"4","last_reported":1687115068,"current_range_meters":19200,"station_id":"ce4bhjp2rcd13ifvqg90","pricing_plan_id":"free"},{"bike_id":"7e3f11d8-2b2d-4027-b513-3b1fa7e427fb","system_id":"levelo_inurba_marseille","lat":43.262103,"lon":5.379291,"is_reserved":false,"is_disabled":false,"rental_uris":{"android":"levelo://app?vid=7e3f11d8-2b2d-4027-b513-3b1fa7e427fb","ios":"levelo://app?vid=7e3f11d8-2b2d-4027-b513-3b1fa7e427fb"},"vehicle_type_id":"4","last_reported":1687115068,"current_range_meters":22400,"station_id":"ce4bhjp2rcd13ifvqg90","pricing_plan_id":"free"},{"bike_id":"bfce0a8a-377b-40a8-b89b-d4d178818a55","system_id":"levelo_inurba_marseille","lat":43.2621,"lon":5.37928,"is_reserved":false,"is_disabled":false,"rental_uris":{"android":"levelo://app?vid=bfce0a8a-377b-40a8-b89b-d4d178818a55","ios":"levelo://app?vid=bfce0a8a-377b-40a8-b89b-d4d178818a55"},"vehicle_type_id":"4","last_reported":1687115068,"current_range_meters":400,"station_id":"ce4bhjp2rcd13ifvqg90","pricing_plan_id":"free"},{"bike_id":"3053fd1f-c758-4165-9477-50a7f61aa137","system_id":"levelo_inurba_marseille","lat":43.2621,"lon":5.379279,"is_reserved":false,"is_disabled":false,"rental_uris":{"android":"levelo://app?vid=3053fd1f-c758-4165-9477-50a7f61aa137","ios":"levelo://app?vid=3053fd1f-c758-4165-9477-50a7f61aa137"},"vehicle_type_id":"4","last_reported":1687115068,"current_range_meters":11600,"station_id":"ce4bhjp2rcd13ifvqg90","pricing_plan_id":"free"},{"bike_id":"ef5dbf20-3dc5-425a-b05b-6f6cdc409ba8","system_id":"levelo_inurba_marseille","lat":43.26209,"lon":5.37926,"is_reserved":false,"is_disabled":false,"rental_uris":{"android":"levelo://app?vid=ef5dbf20-3dc5-425a-b05b-6f6cdc409ba8","ios":"levelo://app?vid=ef5dbf20-3dc5-425a-b05b-6f6cdc409ba8"},"vehicle_type_id":"4","last_reported":1687115068,"current_range_meters":25200,"station_id":"ce4bhjp2rcd13ifvqg90","pricing_plan_id":"free"},{"bike_id":"5a5ec0d3-95f6-49f0-891b-57641d5e3e08","system_id":"levelo_inurba_marseille","lat":43.26209,"lon":5.37927,"is_reserved":false,"is_disabled":false,"rental_uris":{"android":"levelo://app?vid=5a5ec0d3-95f6-49f0-891b-57641d5e3e08","ios":"levelo://app?vid=5a5ec0d3-95f6-49f0-891b-57641d5e3e08"},"vehicle_type_id":"4","last_reported":1687115068,"current_range_meters":14000,"station_id":"ce4bhjp2rcd13ifvqg90","pricing_plan_id":"free"},{"bike_id":"5a12dbb4-e9b5-4d43-abdc-8fc43f29ddcd","system_id":"levelo_inurba_marseille","lat":43.26209,"lon":5.37928,"is_reserved":false,"is_disabled":false,"rental_uris":{"android":"levelo://app?vid=5a12dbb4-e9b5-4d43-abdc-8fc43f29ddcd","ios":"levelo://app?vid=5a12dbb4-e9b5-4d43-abdc-8fc43f29ddcd"},"vehicle_type_id":"4","last_reported":1687115068,"current_range_meters":17200,"station_id":"ce4bhjp2rcd13ifvqg90","pricing_plan_id":"free"},{"bike_id":"a2aa8dff-5710-427d-9c2f-054af99bcb4f","system_id":"levelo_inurba_marseille","lat":43.262096,"lon":5.379335,"is_reserved":false,"is_disabled":false,"rental_uris":{"android":"levelo://app?vid=a2aa8dff-5710-427d-9c2f-054af99bcb4f","ios":"levelo://app?vid=a2aa8dff-5710-427d-9c2f-054af99bcb4f"},"vehicle_type_id":"4","last_reported":1687115068,"current_range_meters":0,"station_id":"ce4bhjp2rcd13ifvqg90","pricing_plan_id":"free"},{"bike_id":"8081bf1c-8398-4271-bc8a-0c53b16bfae6","system_id":"levelo_inurba_marseille","lat":43.26208,"lon":5.37922,"is_reserved":false,"is_disabled":false,"rental_uris":{"android":"levelo://app?vid=8081bf1c-8398-4271-bc8a-0c53b16bfae6","ios":"levelo://app?vid=8081bf1c-8398-4271-bc8a-0c53b16bfae6"},"vehicle_type_id":"4","last_reported":1687115068,"current_range_meters":16400,"station_id":"ce4bhjp2rcd13ifvqg90","pricing_plan_id":"free"},{"bike_id":"2468fa3b-11a7-4887-9be2-f6e527838d7d","system_id":"levelo_inurba_marseille","lat":43.26208,"lon":5.37922,"is_reserved":false,"is_disabled":false,"rental_uris":{"android":"levelo://app?vid=2468fa3b-11a7-4887-9be2-f6e527838d7d","ios":"levelo://app?vid=2468fa3b-11a7-4887-9be2-f6e527838d7d"},"vehicle_type_id":"4","last_reported":1687115068,"current_range_meters":23200,"station_id":"ce4bhjp2rcd13ifvqg90","pricing_plan_id":"free"},{"bike_id":"8bd42547-bbd1-45e7-9d41-b4cc9c5b76b8","system_id":"levelo_inurba_marseille","lat":43.26208,"lon":5.37924,"is_reserved":false,"is_disabled":false,"rental_uris":{"android":"levelo://app?vid=8bd42547-bbd1-45e7-9d41-b4cc9c5b76b8","ios":"levelo://app?vid=8bd42547-bbd1-45e7-9d41-b4cc9c5b76b8"},"vehicle_type_id":"4","last_reported":1687115068,"current_range_meters":13200,"station_id":"ce4bhjp2rcd13ifvqg90","pricing_plan_id":"free"},{"bike_id":"b0935a74-0fe0-4b4a-8051-c179e2e05a72","system_id":"levelo_inurba_marseille","lat":43.26208,"lon":5.37925,"is_reserved":false,"is_disabled":false,"rental_uris":{"android":"levelo://app?vid=b0935a74-0fe0-4b4a-8051-c179e2e05a72","ios":"levelo://app?vid=b0935a74-0fe0-4b4a-8051-c179e2e05a72"},"vehicle_type_id":"4","last_reported":1687115068,"current_range_meters":0,"station_id":"ce4bhjp2rcd13ifvqg90","pricing_plan_id":"free"},{"bike_id":"df5d3469-5fc9-4609-8e68-89374d07e24a","system_id":"levelo_inurba_marseille","lat":43.26208,"lon":5.37926,"is_reserved":false,"is_disabled":false,"rental_uris":{"android":"levelo://app?vid=df5d3469-5fc9-4609-8e68-89374d07e24a","ios":"levelo://app?vid=df5d3469-5fc9-4609-8e68-89374d07e24a"},"vehicle_type_id":"4","last_reported":1687115068,"current_range_meters":0,"station_id":"ce4bhjp2rcd13ifvqg90","pricing_plan_id":"free"},{"bike_id":"c97c56e9-5352-4102-b685-b5690dd175eb","system_id":"levelo_inurba_marseille","lat":43.26208,"lon":5.37926,"is_reserved":false,"is_disabled":false,"rental_uris":{"android":"levelo://app?vid=c97c56e9-5352-4102-b685-b5690dd175eb","ios":"levelo://app?vid=c97c56e9-5352-4102-b685-b5690dd175eb"},"vehicle_type_id":"4","last_reported":1687115068,"current_range_meters":7200,"station_id":"ce4bhjp2rcd13ifvqg90","pricing_plan_id":"free"},{"bike_id":"ed5e28c6-83cc-4e00-89c6-acdeb57ef185","system_id":"levelo_inurba_marseille","lat":43.26208,"lon":5.37926,"is_reserved":false,"is_disabled":false,"rental_uris":{"android":"levelo://app?vid=ed5e28c6-83cc-4e00-89c6-acdeb57ef185","ios":"levelo://app?vid=ed5e28c6-83cc-4e00-89c6-acdeb57ef185"},"vehicle_type_id":"4","last_reported":1687115068,"current_range_meters":31200,"station_id":"ce4bhjp2rcd13ifvqg90","pricing_plan_id":"free"},{"bike_id":"c30fbcd2-2556-43fd-92fc-47b98954db22","system_id":"levelo_inurba_marseille","lat":43.262084,"lon":5.379297,"is_reserved":false,"is_disabled":false,"rental_uris":{"android":"levelo://app?vid=c30fbcd2-2556-43fd-92fc-47b98954db22","ios":"levelo://app?vid=c30fbcd2-2556-43fd-92fc-47b98954db22"},"vehicle_type_id":"4","last_reported":1687115068,"current_range_meters":23200,"station_id":"ce4bhjp2rcd13ifvqg90","pricing_plan_id":"free"},{"bike_id":"225d7332-cba1-4ddb-9cb0-9cd8ad5ce47a","system_id":"levelo_inurba_marseille","lat":43.26208,"lon":5.37927,"is_reserved":false,"is_disabled":false,"rental_uris":{"android":"levelo://app?vid=225d7332-cba1-4ddb-9cb0-9cd8ad5ce47a","ios":"levelo://app?vid=225d7332-cba1-4ddb-9cb0-9cd8ad5ce47a"},"vehicle_type_id":"4","last_reported":1687115068,"current_range_meters":13600,"station_id":"ce4bhjp2rcd13ifvqg90","pricing_plan_id":"free"},{"bike_id":"b565cc05-4131-442b-a318-fc0277dba6de","system_id":"levelo_inurba_marseille","lat":43.26208,"lon":5.3793,"is_reserved":false,"is_disabled":false,"rental_uris":{"android":"levelo://app?vid=b565cc05-4131-442b-a318-fc0277dba6de","ios":"levelo://app?vid=b565cc05-4131-442b-a318-fc0277dba6de"},"vehicle_type_id":"4","last_reported":1687115068,"current_range_meters":9600,"station_id":"ce4bhjp2rcd13ifvqg90","pricing_plan_id":"free"},{"bike_id":"01321b60-db16-4b5b-99c9-3f6c40fc557c","system_id":"levelo_inurba_marseille","lat":43.26207,"lon":5.37925,"is_reserved":false,"is_disabled":false,"rental_uris":{"android":"levelo://app?vid=01321b60-db16-4b5b-99c9-3f6c40fc557c","ios":"levelo://app?vid=01321b60-db16-4b5b-99c9-3f6c40fc557c"},"vehicle_type_id":"4","last_reported":1687115068,"current_range_meters":6800,"station_id":"ce4bhjp2rcd13ifvqg90","pricing_plan_id":"free"},{"bike_id":"a9092a4f-c201-496f-a723-08aae3eb2399","system_id":"levelo_inurba_marseille","lat":43.26208,"lon":5.37934,"is_reserved":false,"is_disabled":false,"rental_uris":{"android":"levelo://app?vid=a9092a4f-c201-496f-a723-08aae3eb2399","ios":"levelo://app?vid=a9092a4f-c201-496f-a723-08aae3eb2399"},"vehicle_type_id":"4","last_reported":1687115068,"current_range_meters":19600,"station_id":"ce4bhjp2rcd13ifvqg90","pricing_plan_id":"free"},{"bike_id":"6957e070-7462-40b4-ba7f-c41a028599e3","system_id":"levelo_inurba_marseille","lat":43.26207,"lon":5.37927,"is_reserved":false,"is_disabled":false,"rental_uris":{"android":"levelo://app?vid=6957e070-7462-40b4-ba7f-c41a028599e3","ios":"levelo://app?vid=6957e070-7462-40b4-ba7f-c41a028599e3"},"vehicle_type_id":"4","last_reported":1687115068,"current_range_meters":11200,"station_id":"ce4bhjp2rcd13ifvqg90","pricing_plan_id":"free"},{"bike_id":"c946daf2-5581-4b50-94b3-ad69d30f204d","system_id":"levelo_inurba_marseille","lat":43.26207,"lon":5.37927,"is_reserved":false,"is_disabled":false,"rental_uris":{"android":"levelo://app?vid=c946daf2-5581-4b50-94b3-ad69d30f204d","ios":"levelo://app?vid=c946daf2-5581-4b50-94b3-ad69d30f204d"},"vehicle_type_id":"4","last_reported":1687115068,"current_range_meters":12000,"station_id":"ce4bhjp2rcd13ifvqg90","pricing_plan_id":"free"},{"bike_id":"4e6f9afc-9701-4fa6-be84-70ff7aea75a1","system_id":"levelo_inurba_marseille","lat":43.26207,"lon":5.37928,"is_reserved":false,"is_disabled":false,"rental_uris":{"android":"levelo://app?vid=4e6f9afc-9701-4fa6-be84-70ff7aea75a1","ios":"levelo://app?vid=4e6f9afc-9701-4fa6-be84-70ff7aea75a1"},"vehicle_type_id":"4","last_reported":1687115068,"current_range_meters":30800,"station_id":"ce4bhjp2rcd13ifvqg90","pricing_plan_id":"free"},{"bike_id":"1998bd35-5e9a-42c4-b8f2-e32545ab72e1","system_id":"levelo_inurba_marseille","lat":43.26207,"lon":5.37928,"is_reserved":false,"is_disabled":false,"rental_uris":{"android":"levelo://app?vid=1998bd35-5e9a-42c4-b8f2-e32545ab72e1","ios":"levelo://app?vid=1998bd35-5e9a-42c4-b8f2-e32545ab72e1"},"vehicle_type_id":"4","last_reported":1687115068,"current_range_meters":14400,"station_id":"ce4bhjp2rcd13ifvqg90","pricing_plan_id":"free"},{"bike_id":"4f3865cb-5c93-4b02-af96-405243cc878a","system_id":"levelo_inurba_marseille","lat":43.26207,"lon":5.37929,"is_reserved":false,"is_disabled":false,"rental_uris":{"android":"levelo://app?vid=4f3865cb-5c93-4b02-af96-405243cc878a","ios":"levelo://app?vid=4f3865cb-5c93-4b02-af96-405243cc878a"},"vehicle_type_id":"4","last_reported":1687115068,"current_range_meters":25600,"station_id":"ce4bhjp2rcd13ifvqg90","pricing_plan_id":"free"},{"bike_id":"c4b425e8-72a1-4548-9a79-200f4348cd59","system_id":"levelo_inurba_marseille","lat":43.26206,"lon":5.37923,"is_reserved":false,"is_disabled":false,"rental_uris":{"android":"levelo://app?vid=c4b425e8-72a1-4548-9a79-200f4348cd59","ios":"levelo://app?vid=c4b425e8-72a1-4548-9a79-200f4348cd59"},"vehicle_type_id":"4","last_reported":1687115068,"current_range_meters":5600,"station_id":"ce4bhjp2rcd13ifvqg90","pricing_plan_id":"free"},{"bike_id":"cf861f45-a4df-4d03-8b9b-8ec50b197908","system_id":"levelo_inurba_marseille","lat":43.26202,"lon":5.379299,"is_reserved":false,"is_disabled":false,"rental_uris":{"android":"levelo://app?vid=cf861f45-a4df-4d03-8b9b-8ec50b197908","ios":"levelo://app?vid=cf861f45-a4df-4d03-8b9b-8ec50b197908"},"vehicle_type_id":"4","last_reported":1687115068,"current_range_meters":29200,"station_id":"ce4bhjp2rcd13ifvqg90","pricing_plan_id":"free"},{"bike_id":"a636d0ab-9f7f-40f1-b06c-4faa3b86e7f6","system_id":"levelo_inurba_marseille","lat":43.262065,"lon":5.379294,"is_reserved":false,"is_disabled":false,"rental_uris":{"android":"levelo://app?vid=a636d0ab-9f7f-40f1-b06c-4faa3b86e7f6","ios":"levelo://app?vid=a636d0ab-9f7f-40f1-b06c-4faa3b86e7f6"},"vehicle_type_id":"4","last_reported":1687115068,"current_range_meters":0,"station_id":"ce4bhjp2rcd13ifvqg90","pricing_plan_id":"free"},{"bike_id":"15bb09e9-0b6c-43c6-8361-785e91129286","system_id":"levelo_inurba_marseille","lat":43.26207,"lon":5.37934,"is_reserved":false,"is_disabled":false,"rental_uris":{"android":"levelo://app?vid=15bb09e9-0b6c-43c6-8361-785e91129286","ios":"levelo://app?vid=15bb09e9-0b6c-43c6-8361-785e91129286"},"vehicle_type_id":"4","last_reported":1687115068,"current_range_meters":1200,"station_id":"ce4bhjp2rcd13ifvqg90","pricing_plan_id":"free"},{"bike_id":"9242fce0-e2d6-4b22-a886-b74159888c34","system_id":"levelo_inurba_marseille","lat":43.26206,"lon":5.37927,"is_reserved":false,"is_disabled":false,"rental_uris":{"android":"levelo://app?vid=9242fce0-e2d6-4b22-a886-b74159888c34","ios":"levelo://app?vid=9242fce0-e2d6-4b22-a886-b74159888c34"},"vehicle_type_id":"4","last_reported":1687115068,"current_range_meters":19200,"station_id":"ce4bhjp2rcd13ifvqg90","pricing_plan_id":"free"},{"bike_id":"98ebd77c-56e3-4a4c-bc02-3016ce73cc07","system_id":"levelo_inurba_marseille","lat":43.26206,"lon":5.37927,"is_reserved":false,"is_disabled":false,"rental_uris":{"android":"levelo://app?vid=98ebd77c-56e3-4a4c-bc02-3016ce73cc07","ios":"levelo://app?vid=98ebd77c-56e3-4a4c-bc02-3016ce73cc07"},"vehicle_type_id":"4","last_reported":1687115068,"current_range_meters":20800,"station_id":"ce4bhjp2rcd13ifvqg90","pricing_plan_id":"free"},{"bike_id":"16784008-a3d3-454d-9ffe-5cd8b620a76b","system_id":"levelo_inurba_marseille","lat":43.26205,"lon":5.37926,"is_reserved":false,"is_disabled":false,"rental_uris":{"android":"levelo://app?vid=16784008-a3d3-454d-9ffe-5cd8b620a76b","ios":"levelo://app?vid=16784008-a3d3-454d-9ffe-5cd8b620a76b"},"vehicle_type_id":"4","last_reported":1687115068,"current_range_meters":8000,"station_id":"ce4bhjp2rcd13ifvqg90","pricing_plan_id":"free"},{"bike_id":"6ccac4a1-6ca6-4789-bfe7-b553907f46ef","system_id":"levelo_inurba_marseille","lat":43.26205,"lon":5.37927,"is_reserved":false,"is_disabled":false,"rental_uris":{"android":"levelo://app?vid=6ccac4a1-6ca6-4789-bfe7-b553907f46ef","ios":"levelo://app?vid=6ccac4a1-6ca6-4789-bfe7-b553907f46ef"},"vehicle_type_id":"4","last_reported":1687115068,"current_range_meters":0,"station_id":"ce4bhjp2rcd13ifvqg90","pricing_plan_id":"free"},{"bike_id":"627877b9-32b1-4898-82e0-c5c04fae9c2a","system_id":"levelo_inurba_marseille","lat":43.262054,"lon":5.379315,"is_reserved":false,"is_disabled":false,"rental_uris":{"android":"levelo://app?vid=627877b9-32b1-4898-82e0-c5c04fae9c2a","ios":"levelo://app?vid=627877b9-32b1-4898-82e0-c5c04fae9c2a"},"vehicle_type_id":"4","last_reported":1687115068,"current_range_meters":21200,"station_id":"ce4bhjp2rcd13ifvqg90","pricing_plan_id":"free"},{"bike_id":"5df8c538-dccf-496a-8562-cbed2b2120d4","system_id":"levelo_inurba_marseille","lat":43.26205,"lon":5.3793,"is_reserved":false,"is_disabled":false,"rental_uris":{"android":"levelo://app?vid=5df8c538-dccf-496a-8562-cbed2b2120d4","ios":"levelo://app?vid=5df8c538-dccf-496a-8562-cbed2b2120d4"},"vehicle_type_id":"4","last_reported":1687115068,"current_range_meters":9600,"station_id":"ce4bhjp2rcd13ifvqg90","pricing_plan_id":"free"},{"bike_id":"a9656abd-c999-4cca-856e-9f99b39b6bc4","system_id":"levelo_inurba_marseille","lat":43.26204,"lon":5.37923,"is_reserved":false,"is_disabled":false,"rental_uris":{"android":"levelo://app?vid=a9656abd-c999-4cca-856e-9f99b39b6bc4","ios":"levelo://app?vid=a9656abd-c999-4cca-856e-9f99b39b6bc4"},"vehicle_type_id":"4","last_reported":1687115068,"current_range_meters":31200,"station_id":"ce4bhjp2rcd13ifvqg90","pricing_plan_id":"free"},{"bike_id":"a5e999ca-5f3c-4ad6-a4ca-02aa81b8247f","system_id":"levelo_inurba_marseille","lat":43.26205,"lon":5.37931,"is_reserved":false,"is_disabled":false,"rental_uris":{"android":"levelo://app?vid=a5e999ca-5f3c-4ad6-a4ca-02aa81b8247f","ios":"levelo://app?vid=a5e999ca-5f3c-4ad6-a4ca-02aa81b8247f"},"vehicle_type_id":"4","last_reported":1687115068,"current_range_meters":15200,"station_id":"ce4bhjp2rcd13ifvqg90","pricing_plan_id":"free"},{"bike_id":"36099ba9-f8d2-4891-b793-74d6175c5f83","system_id":"levelo_inurba_marseille","lat":43.26205,"lon":5.37932,"is_reserved":false,"is_disabled":false,"rental_uris":{"android":"levelo://app?vid=36099ba9-f8d2-4891-b793-74d6175c5f83","ios":"levelo://app?vid=36099ba9-f8d2-4891-b793-74d6175c5f83"},"vehicle_type_id":"4","last_reported":1687115068,"current_range_meters":31200,"station_id":"ce4bhjp2rcd13ifvqg90","pricing_plan_id":"free"},{"bike_id":"63c3083a-a1ad-4e3f-9a6b-00ff3996911f","system_id":"levelo_inurba_marseille","lat":43.26205,"lon":5.37933,"is_reserved":false,"is_disabled":false,"rental_uris":{"android":"levelo://app?vid=63c3083a-a1ad-4e3f-9a6b-00ff3996911f","ios":"levelo://app?vid=63c3083a-a1ad-4e3f-9a6b-00ff3996911f"},"vehicle_type_id":"4","last_reported":1687115068,"current_range_meters":4800,"station_id":"ce4bhjp2rcd13ifvqg90","pricing_plan_id":"free"},{"bike_id":"ddf5275b-ae97-4120-9de2-5166c65ab873","system_id":"levelo_inurba_marseille","lat":43.26205,"lon":5.37933,"is_reserved":false,"is_disabled":false,"rental_uris":{"android":"levelo://app?vid=ddf5275b-ae97-4120-9de2-5166c65ab873","ios":"levelo://app?vid=ddf5275b-ae97-4120-9de2-5166c65ab873"},"vehicle_type_id":"4","last_reported":1687115068,"current_range_meters":0,"station_id":"ce4bhjp2rcd13ifvqg90","pricing_plan_id":"free"},{"bike_id":"eca9837a-da44-414b-bd58-7876449b6a4b","system_id":"levelo_inurba_marseille","lat":43.26204,"lon":5.37926,"is_reserved":false,"is_disabled":false,"rental_uris":{"android":"levelo://app?vid=eca9837a-da44-414b-bd58-7876449b6a4b","ios":"levelo://app?vid=eca9837a-da44-414b-bd58-7876449b6a4b"},"vehicle_type_id":"4","last_reported":1687115068,"current_range_meters":28000,"station_id":"ce4bhjp2rcd13ifvqg90","pricing_plan_id":"free"},{"bike_id":"76e1c873-036c-4884-b45e-02a107f007b1","system_id":"levelo_inurba_marseille","lat":43.26204,"lon":5.37929,"is_reserved":false,"is_disabled":false,"rental_uris":{"android":"levelo://app?vid=76e1c873-036c-4884-b45e-02a107f007b1","ios":"levelo://app?vid=76e1c873-036c-4884-b45e-02a107f007b1"},"vehicle_type_id":"4","last_reported":1687115068,"current_range_meters":2400,"station_id":"ce4bhjp2rcd13ifvqg90","pricing_plan_id":"free"},{"bike_id":"0a938d4c-4899-4f5a-bdc3-9246531bf0dc","system_id":"levelo_inurba_marseille","lat":43.26204,"lon":5.3793,"is_reserved":false,"is_disabled":false,"rental_uris":{"android":"levelo://app?vid=0a938d4c-4899-4f5a-bdc3-9246531bf0dc","ios":"levelo://app?vid=0a938d4c-4899-4f5a-bdc3-9246531bf0dc"},"vehicle_type_id":"4","last_reported":1687115068,"current_range_meters":11600,"station_id":"ce4bhjp2rcd13ifvqg90","pricing_plan_id":"free"},{"bike_id":"e89dc400-4e85-4b02-b53a-1128a777718d","system_id":"levelo_inurba_marseille","lat":43.26203,"lon":5.37923,"is_reserved":false,"is_disabled":false,"rental_uris":{"android":"levelo://app?vid=e89dc400-4e85-4b02-b53a-1128a777718d","ios":"levelo://app?vid=e89dc400-4e85-4b02-b53a-1128a777718d"},"vehicle_type_id":"4","last_reported":1687115068,"current_range_meters":11600,"station_id":"ce4bhjp2rcd13ifvqg90","pricing_plan_id":"free"},{"bike_id":"53f4b59d-fc7a-466c-8aab-848626dba241","system_id":"levelo_inurba_marseille","lat":43.26202,"lon":5.379299,"is_reserved":false,"is_disabled":false,"rental_uris":{"android":"levelo://app?vid=53f4b59d-fc7a-466c-8aab-848626dba241","ios":"levelo://app?vid=53f4b59d-fc7a-466c-8aab-848626dba241"},"vehicle_type_id":"4","last_reported":1687115068,"current_range_meters":5600,"station_id":"ce4bhjp2rcd13ifvqg90","pricing_plan_id":"free"},{"bike_id":"202763cc-76ec-4a5e-84bc-5d378695846b","system_id":"levelo_inurba_marseille","lat":43.26202,"lon":5.379299,"is_reserved":false,"is_disabled":false,"rental_uris":{"android":"levelo://app?vid=202763cc-76ec-4a5e-84bc-5d378695846b","ios":"levelo://app?vid=202763cc-76ec-4a5e-84bc-5d378695846b"},"vehicle_type_id":"4","last_reported":1687115068,"current_range_meters":30400,"station_id":"ce4bhjp2rcd13ifvqg90","pricing_plan_id":"free"},{"bike_id":"9fe2f556-b711-4aff-a541-a760419c2fb0","system_id":"levelo_inurba_marseille","lat":43.26202,"lon":5.379299,"is_reserved":false,"is_disabled":false,"rental_uris":{"android":"levelo://app?vid=9fe2f556-b711-4aff-a541-a760419c2fb0","ios":"levelo://app?vid=9fe2f556-b711-4aff-a541-a760419c2fb0"},"vehicle_type_id":"4","last_reported":1687115068,"current_range_meters":26000,"station_id":"ce4bhjp2rcd13ifvqg90","pricing_plan_id":"free"},{"bike_id":"7213ade1-abd2-4857-85cd-797e09e13f7a","system_id":"levelo_inurba_marseille","lat":43.26202,"lon":5.37922,"is_reserved":false,"is_disabled":false,"rental_uris":{"android":"levelo://app?vid=7213ade1-abd2-4857-85cd-797e09e13f7a","ios":"levelo://app?vid=7213ade1-abd2-4857-85cd-797e09e13f7a"},"vehicle_type_id":"4","last_reported":1687115068,"current_range_meters":22000,"station_id":"ce4bhjp2rcd13ifvqg90","pricing_plan_id":"free"},{"bike_id":"0deaae11-c264-4187-a71d-582596381a84","system_id":"levelo_inurba_marseille","lat":43.26202,"lon":5.379299,"is_reserved":false,"is_disabled":false,"rental_uris":{"android":"levelo://app?vid=0deaae11-c264-4187-a71d-582596381a84","ios":"levelo://app?vid=0deaae11-c264-4187-a71d-582596381a84"},"vehicle_type_id":"4","last_reported":1687115068,"current_range_meters":31200,"station_id":"ce4bhjp2rcd13ifvqg90","pricing_plan_id":"free"},