{"last_updated":1701382005,"ttl":30,"version":"2.2","data":{"bikes":[{"bike_id":"730859a1-58c9-4b92-bc93-841d72f6b4be","system_id":"levelo_inurba_marseille","lat":43.312239,"lon":5.368562,"is_reserved":false,"is_disabled":false,"rental_uris":{"android":"levelo://app?vid=730859a1-58c9-4b92-bc93-841d72f6b4be","ios":"levelo://app?vid=730859a1-58c9-4b92-bc93-841d72f6b4be"},"vehicle_type_id":"4","last_reported":1701382005,"current_range_meters":30000,"station_id":"ce4bgl92rcd13ifvqbq0","pricing_plan_id":"free"},{"bike_id":"9fcec804-3ed2-43f8-be93-4c9006c40559","system_id":"levelo_inurba_marseille","lat":43.312239,"lon":5.368562,"is_reserved":false,"is_disabled":false,"rental_uris":{"android":"levelo://app?vid=9fcec804-3ed2-43f8-be93-4c9006c40559","ios":"levelo://app?vid=9fcec804-3ed2-43f8-be93-4c9006c40559"},"vehicle_type_id":"4","last_reported":1701382005,"current_range_meters":26800,"station_id":"ce4bgl92rcd13ifvqbq0","pricing_plan_id":"free"},{"bike_id":"457c2f69-991a-46ca-8840-44cf2e07c783","system_id":"levelo_inurba_marseille","lat":43.312239,"lon":5.368562,"is_reserved":false,"is_disabled":false,"rental_uris":{"android":"levelo://app?vid=457c2f69-991a-46ca-8840-44cf2e07c783","ios":"levelo://app?vid=457c2f69-991a-46ca-8840-44cf2e07c783"},"vehicle_type_id":"4","last_reported":1701382005,"current_range_meters":13200,"station_id":"ce4bgl92rcd13ifvqbq0","pricing_plan_id":"free"},{"bike_id":"85ebfaaa-3017-45f3-906e-a6c2319c069c","system_id":"levelo_inurba_marseille","lat":43.308735,"lon":5.368559,"is_reserved":false,"is_disabled":false,"rental_uris":{"android":"levelo://app?vid=85ebfaaa-3017-45f3-906e-a6c2319c069c","ios":"levelo://app?vid=85ebfaaa-3017-45f3-906e-a6c2319c069c"},"vehicle_type_id":"4","last_reported":1701382005,"current_range_meters":13600,"station_id":"ce4bgn92rcd13ifvqbvg","pricing_plan_id":"free"},{"bike_id":"2893e31b-5001-4bef-9b7c-3297f37de010","system_id":"levelo_inurba_marseille","lat":43.309039,"lon":5.371797,"is_reserved":false,"is_disabled":false,"rental_uris":{"android":"levelo://app?vid=2893e31b-5001-4bef-9b7c-3297f37de010","ios":"levelo://app?vid=2893e31b-5001-4bef-9b7c-3297f37de010"},"vehicle_type_id":"4","last_reported":1701382005,"current_range_meters":27200,"station_id":"ce4bguh2rcd13ifvqckg","pricing_plan_id":"free"},{"bike_id":"024c1a4d-479d-42d1-bf28-866bab1795a4","system_id":"levelo_inurba_marseille","lat":43.309039,"lon":5.371797,"is_reserved":false,"is_disabled":false,"rental_uris":{"android":"levelo://app?vid=024c1a4d-479d-42d1-bf28-866bab1795a4","ios":"levelo://app?vid=024c1a4d-479d-42d1-bf28-866bab1795a4"},"vehicle_type_id":"4","last_reported":1701382005,"current_range_meters":10000,"station_id":"ce4bguh2rcd13ifvqckg","pricing_plan_id":"free"},{"bike_id":"3fc54c7f-1d40-42b0-b8c6-dba7b49e3345","system_id":"levelo_inurba_marseille","lat":43.305989,"lon":5.37225,"is_reserved":false,"is_disabled":false,"rental_uris":{"android":"levelo://app?vid=3fc54c7f-1d40-42b0-b8c6-dba7b49e3345","ios":"levelo://app?vid=3fc54c7f-1d40-42b0-b8c6-dba7b49e3345"},"vehicle_type_id":"4","last_reported":1701382005,"current_range_meters":29600,"station_id":"ce4bgqh2rcd13ifvqc4g","pricing_plan_id":"free"},{"bike_id":"d89fef82-9034-47ab-9e06-adf623087406","system_id":"levelo_inurba_marseille","lat":43.311131,"lon":5.377651,"is_reserved":false,"is_disabled":false,"rental_uris":{"android":"levelo://app?vid=d89fef82-9034-47ab-9e06-adf623087406","ios":"levelo://app?vid=d89fef82-9034-47ab-9e06-adf623087406"},"vehicle_type_id":"4","last_reported":1701382005,"current_range_meters":15200,"station_id":"ce4bgt92rcd13ifvqcg0","pricing_plan_id":"free"},{"bike_id":"1fa5b1d9-3d1d-45af-b062-e03bfddf52f4","system_id":"levelo_inurba_marseille","lat":43.311125,"lon":5.377624,"is_reserved":false,"is_disabled":false,"rental_uris":{"android":"levelo://app?vid=1fa5b1d9-3d1d-45af-b062-e03bfddf52f4","ios":"levelo://app?vid=1fa5b1d9-3d1d-45af-b062-e03bfddf52f4"},"vehicle_type_id":"4","last_reported":1701382005,"current_range_meters":9600,"station_id":"ce4bgt92rcd13ifvqcg0","pricing_plan_id":"free"},{"bike_id":"727d231a-d425-4d8f-ad3f-99b5a47572e8","system_id":"levelo_inurba_marseille","lat":43.30439,"lon":5.36753,"is_reserved":false,"is_disabled":false,"rental_uris":{"android":"levelo://app?vid=727d231a-d425-4d8f-ad3f-99b5a47572e8","ios":"levelo://app?vid=727d231a-d425-4d8f-ad3f-99b5a47572e8"},"vehicle_type_id":"4","last_reported":1701382005,"current_range_meters":30800,"station_id":"","pricing_plan_id":"free"},{"bike_id":"28b67163-d496-4d2f-a83c-ef6bda2c636e","system_id":"levelo_inurba_marseille","lat":43.308281,"lon":5.376649,"is_reserved":false,"is_disabled":false,"rental_uris":{"android":"levelo://app?vid=28b67163-d496-4d2f-a83c-ef6bda2c636e","ios":"levelo://app?vid=28b67163-d496-4d2f-a83c-ef6bda2c636e"},"vehicle_type_id":"4","last_reported":1701382005,"current_range_meters":4400,"station_id":"ce4bgv92rcd13ifvqcq0","pricing_plan_id":"free"},{"bike_id":"a1ed45aa-da85-4e6b-ab09-c52bf43c23ec","system_id":"levelo_inurba_marseille","lat":43.307945,"lon":5.376487,"is_reserved":false,"is_disabled":false,"rental_uris":{"android":"levelo://app?vid=a1ed45aa-da85-4e6b-ab09-c52bf43c23ec","ios":"levelo://app?vid=a1ed45aa-da85-4e6b-ab09-c52bf43c23ec"},"vehicle_type_id":"4","last_reported":1701382005,"current_range_meters":6800,"station_id":"ce4bgv92rcd13ifvqcq0","pricing_plan_id":"free"},{"bike_id":"f427a2c3-6e4a-446b-ae2f-9be8aa7f4122","system_id":"levelo_inurba_marseille","lat":43.31719,"lon":5.376813,"is_reserved":false,"is_disabled":false,"rental_uris":{"android":"levelo://app?vid=f427a2c3-6e4a-446b-ae2f-9be8aa7f4122","ios":"levelo://app?vid=f427a2c3-6e4a-446b-ae2f-9be8aa7f4122"},"vehicle_type_id":"4","last_reported":1701382005,"current_range_meters":4400,"station_id":"ce4bgth2rcd13ifvqch0","pricing_plan_id":"free"},{"bike_id":"e913f328-1e31-4c22-bd87-f809ea246de4","system_id":"levelo_inurba_marseille","lat":43.317168,"lon":5.376883,"is_reserved":false,"is_disabled":false,"rental_uris":{"android":"levelo://app?vid=e913f328-1e31-4c22-bd87-f809ea246de4","ios":"levelo://app?vid=e913f328-1e31-4c22-bd87-f809ea246de4"},"vehicle_type_id":"4","last_reported":1701382005,"current_range_meters":6400,"station_id":"ce4bgth2rcd13ifvqch0","pricing_plan_id":"free"},{"bike_id":"bef3c888-e26e-4daf-a279-528d05d9f20b","system_id":"levelo_inurba_marseille","lat":43.30143,"lon":5.37413,"is_reserved":false,"is_disabled":false,"rental_uris":{"android":"levelo://app?vid=bef3c888-e26e-4daf-a279-528d05d9f20b","ios":"levelo://app?vid=bef3c888-e26e-4daf-a279-528d05d9f20b"},"vehicle_type_id":"4","last_reported":1701382005,"current_range_meters":20400,"station_id":"ce4bgs92rcd13ifvqcc0","pricing_plan_id":"free"},{"bike_id":"7f6e6577-884c-4960-8414-2c2ec7eff0c9","system_id":"levelo_inurba_marseille","lat":43.315293,"lon":5.380349,"is_reserved":false,"is_disabled":false,"rental_uris":{"android":"levelo://app?vid=7f6e6577-884c-4960-8414-2c2ec7eff0c9","ios":"levelo://app?vid=7f6e6577-884c-4960-8414-2c2ec7eff0c9"},"vehicle_type_id":"4","last_reported":1701382005,"current_range_meters":16800,"station_id":"ce4bhsp2rcd13ifvqi50","pricing_plan_id":"free"},{"bike_id":"a353da53-2844-47b1-b7b8-563a86bb4f14","system_id":"levelo_inurba_marseille","lat":43.31541,"lon":5.38031,"is_reserved":false,"is_disabled":false,"rental_uris":{"android":"levelo://app?vid=a353da53-2844-47b1-b7b8-563a86bb4f14","ios":"levelo://app?vid=a353da53-2844-47b1-b7b8-563a86bb4f14"},"vehicle_type_id":"4","last_reported":1701382005,"current_range_meters":23200,"station_id":"ce4bhsp2rcd13ifvqi50","pricing_plan_id":"free"},{"bike_id":"63fcb97a-ded7-4085-8642-c1e321ff5db2","system_id":"levelo_inurba_marseille","lat":43.302784,"lon":5.377158,"is_reserved":false,"is_disabled":false,"rental_uris":{"android":"levelo://app?vid=63fcb97a-ded7-4085-8642-c1e321ff5db2","ios":"levelo://app?vid=63fcb97a-ded7-4085-8642-c1e321ff5db2"},"vehicle_type_id":"4","last_reported":1701382005,"current_range_meters":9200,"station_id":"ce4bguh2rcd13ifvqcj0","pricing_plan_id":"free"},{"bike_id":"1d9ba3e1-b4c6-49fc-96e6-cdf850b4804f","system_id":"levelo_inurba_marseille","lat":43.302784,"lon":5.377158,"is_reserved":false,"is_disabled":false,"rental_uris":{"android":"levelo://app?vid=1d9ba3e1-b4c6-49fc-96e6-cdf850b4804f","ios":"levelo://app?vid=1d9ba3e1-b4c6-49fc-96e6-cdf850b4804f"},"vehicle_type_id":"4","last_reported":1701382005,"current_range_meters":25600,"station_id":"ce4bguh2rcd13ifvqcj0","pricing_plan_id":"free"},{"bike_id":"c382b9e8-98f8-4741-99d5-4b19ac819ff2","system_id":"levelo_inurba_marseille","lat":43.302784,"lon":5.377158,"is_reserved":false,"is_disabled":false,"rental_uris":{"android":"levelo://app?vid=c382b9e8-98f8-4741-99d5-4b19ac819ff2","ios":"levelo://app?vid=c382b9e8-98f8-4741-99d5-4b19ac819ff2"},"vehicle_type_id":"4","last_reported":1701382005,"current_range_meters":21600,"station_id":"ce4bguh2rcd13ifvqcj0","pricing_plan_id":"free"},{"bike_id":"718ae525-2571-43d2-96e4-e90e60e9569f","system_id":"levelo_inurba_marseille","lat":43.319894,"lon":5.381421,"is_reserved":false,"is_disabled":false,"rental_uris":{"android":"levelo://app?vid=718ae525-2571-43d2-96e4-e90e60e9569f","ios":"levelo://app?vid=718ae525-2571-43d2-96e4-e90e60e9569f"},"vehicle_type_id":"4","last_reported":1701382005,"current_range_meters":0,"station_id":"ce4bhr12rcd13ifvqhpg","pricing_plan_id":"free"},{"bike_id":"a7ca3d4c-28e3-48b3-bafa-5cc2ba79900d","system_id":"levelo_inurba_marseille","lat":43.31992,"lon":5.38141,"is_reserved":false,"is_disabled":false,"rental_uris":{"android":"levelo://app?vid=a7ca3d4c-28e3-48b3-bafa-5cc2ba79900d","ios":"levelo://app?vid=a7ca3d4c-28e3-48b3-bafa-5cc2ba79900d"},"vehicle_type_id":"4","last_reported":1701382005,"current_range_meters":16400,"station_id":"ce4bhr12rcd13ifvqhpg","pricing_plan_id":"free"},{"bike_id":"9a8c326a-2956-42d0-9bce-9c1da7b272ea","system_id":"levelo_inurba_marseille","lat":43.319935,"lon":5.381699,"is_reserved":false,"is_disabled":false,"rental_uris":{"android":"levelo://app?vid=9a8c326a-2956-42d0-9bce-9c1da7b272ea","ios":"levelo://app?vid=9a8c326a-2956-42d0-9bce-9c1da7b272ea"},"vehicle_type_id":"4","last_reported":1701382005,"current_range_meters":21200,"station_id":"ce4bhr12rcd13ifvqhpg","pricing_plan_id":"free"},{"bike_id":"3c307197-3ac8-4287-b052-043de935fdd4","system_id":"levelo_inurba_marseille","lat":43.32,"lon":5.38153,"is_reserved":false,"is_disabled":false,"rental_uris":{"android":"levelo://app?vid=3c307197-3ac8-4287-b052-043de935fdd4","ios":"levelo://app?vid=3c307197-3ac8-4287-b052-043de935fdd4"},"vehicle_type_id":"4","last_reported":1701382005,"current_range_meters":7600,"station_id":"ce4bhr12rcd13ifvqhpg","pricing_plan_id":"free"},{"bike_id":"2275aca5-3158-4c2c-8022-ca5d2714bc86","system_id":"levelo_inurba_marseille","lat":43.319997,"lon":5.381594,"is_reserved":false,"is_disabled":false,"rental_uris":{"android":"levelo://app?vid=2275aca5-3158-4c2c-8022-ca5d2714bc86","ios":"levelo://app?vid=2275aca5-3158-4c2c-8022-ca5d2714bc86"},"vehicle_type_id":"4","last_reported":1701382005,"current_range_meters":21600,"station_id":"ce4bhr12rcd13ifvqhpg","pricing_plan_id":"free"},{"bike_id":"72dcacfb-91e1-4c51-81ed-e191326091e3","system_id":"levelo_inurba_marseille","lat":43.313571,"lon":5.384829,"is_reserved":false,"is_disabled":false,"rental_uris":{"android":"levelo://app?vid=72dcacfb-91e1-4c51-81ed-e191326091e3","ios":"levelo://app?vid=72dcacfb-91e1-4c51-81ed-e191326091e3"},"vehicle_type_id":"4","last_reported":1701382005,"current_range_meters":9600,"station_id":"ce4bgt92rcd13ifvqcf0","pricing_plan_id":"free"},{"bike_id":"f9685f73-dc9d-4367-8765-ae9818630f3d","system_id":"levelo_inurba_marseille","lat":43.313571,"lon":5.384829,"is_reserved":false,"is_disabled":false,"rental_uris":{"android":"levelo://app?vid=f9685f73-dc9d-4367-8765-ae9818630f3d","ios":"levelo://app?vid=f9685f73-dc9d-4367-8765-ae9818630f3d"},"vehicle_type_id":"4","last_reported":1701382005,"current_range_meters":11600,"station_id":"ce4bgt92rcd13ifvqcf0","pricing_plan_id":"free"},{"bike_id":"2a5124c6-6d8c-456e-9a72-4daa95a20d78","system_id":"levelo_inurba_marseille","lat":43.311722,"lon":5.387247,"is_reserved":false,"is_disabled":false,"rental_uris":{"android":"levelo://app?vid=2a5124c6-6d8c-456e-9a72-4daa95a20d78","ios":"levelo://app?vid=2a5124c6-6d8c-456e-9a72-4daa95a20d78"},"vehicle_type_id":"4","last_reported":1701382005,"current_range_meters":29200,"station_id":"ce4bgv12rcd13ifvqcp0","pricing_plan_id":"free"},{"bike_id":"16999fd4-5626-449b-9ef8-9c72b1db697f","system_id":"levelo_inurba_marseille","lat":43.311722,"lon":5.387247,"is_reserved":false,"is_disabled":false,"rental_uris":{"android":"levelo://app?vid=16999fd4-5626-449b-9ef8-9c72b1db697f","ios":"levelo://app?vid=16999fd4-5626-449b-9ef8-9c72b1db697f"},"vehicle_type_id":"4","last_reported":1701382005,"current_range_meters":11600,"station_id":"ce4bgv12rcd13ifvqcp0","pricing_plan_id":"free"},{"bike_id":"aebb5f1f-3a1e-4323-a4f0-ae83e0b78d14","system_id":"levelo_inurba_marseille","lat":43.327603,"lon":5.36705,"is_reserved":false,"is_disabled":false,"rental_uris":{"android":"levelo://app?vid=aebb5f1f-3a1e-4323-a4f0-ae83e0b78d14","ios":"levelo://app?vid=aebb5f1f-3a1e-4323-a4f0-ae83e0b78d14"},"vehicle_type_id":"4","last_reported":1701382005,"current_range_meters":23200,"station_id":"","pricing_plan_id":"free"},{"bike_id":"579c0d6e-e344-4bb5-afcc-7fca48f6fadd","system_id":"levelo_inurba_marseille","lat":43.297794,"lon":5.370888,"is_reserved":false,"is_disabled":false,"rental_uris":{"android":"levelo://app?vid=579c0d6e-e344-4bb5-afcc-7fca48f6fadd","ios":"levelo://app?vid=579c0d6e-e344-4bb5-afcc-7fca48f6fadd"},"vehicle_type_id":"4","last_reported":1701382005,"current_range_meters":28400,"station_id":"ce4bgop2rcd13ifvqc1g","pricing_plan_id":"free"},{"bike_id":"a857c4c0-ebec-45a9-b9f5-ea7765299a80","system_id":"levelo_inurba_marseille","lat":43.322872,"lon":5.382756,"is_reserved":false,"is_disabled":false,"rental_uris":{"android":"levelo://app?vid=a857c4c0-ebec-45a9-b9f5-ea7765299a80","ios":"levelo://app?vid=a857c4c0-ebec-45a9-b9f5-ea7765299a80"},"vehicle_type_id":"4","last_reported":1701382005,"current_range_meters":3200,"station_id":"ce4bhr12rcd13ifvqhqg","pricing_plan_id":"free"},{"bike_id":"11fbc002-5b4d-4629-a038-bbbaf88697c2","system_id":"levelo_inurba_marseille","lat":43.322872,"lon":5.382756,"is_reserved":false,"is_disabled":false,"rental_uris":{"android":"levelo://app?vid=11fbc002-5b4d-4629-a038-bbbaf88697c2","ios":"levelo://app?vid=11fbc002-5b4d-4629-a038-bbbaf88697c2"},"vehicle_type_id":"4","last_reported":1701382005,"current_range_meters":30800,"station_id":"ce4bhr12rcd13ifvqhqg","pricing_plan_id":"free"},{"bike_id":"28d27b23-216b-47ab-8ab8-d60760729cea","system_id":"levelo_inurba_marseille","lat":43.297163,"lon":5.365866,"is_reserved":false,"is_disabled":false,"rental_uris":{"android":"levelo://app?vid=28d27b23-216b-47ab-8ab8-d60760729cea","ios":"levelo://app?vid=28d27b23-216b-47ab-8ab8-d60760729cea"},"vehicle_type_id":"4","last_reported":1701382005,"current_range_meters":3600,"station_id":"ce4bgn12rcd13ifvqbt0","pricing_plan_id":"free"},{"bike_id":"5983625d-69f5-485f-a399-daec2999c965","system_id":"levelo_inurba_marseille","lat":43.321799,"lon":5.385559,"is_reserved":false,"is_disabled":false,"rental_uris":{"android":"levelo://app?vid=5983625d-69f5-485f-a399-daec2999c965","ios":"levelo://app?vid=5983625d-69f5-485f-a399-daec2999c965"},"vehicle_type_id":"4","last_reported":1701382005,"current_range_meters":8000,"station_id":"","pricing_plan_id":"free"},{"bike_id":"d068864e-3768-4cb7-8f2c-e01febcf4d60","system_id":"levelo_inurba_marseille","lat":43.296231,"lon":5.36516,"is_reserved":false,"is_disabled":false,"rental_uris":{"android":"levelo://app?vid=d068864e-3768-4cb7-8f2c-e01febcf4d60","ios":"levelo://app?vid=d068864e-3768-4cb7-8f2c-e01febcf4d60"},"vehicle_type_id":"4","last_reported":1701382005,"current_range_meters":11600,"station_id":"","pricing_plan_id":"free"},{"bike_id":"2b24c94c-382b-4740-b254-81573f20bbed","system_id":"levelo_inurba_marseille","lat":43.295997,"lon":5.367923,"is_reserved":false,"is_disabled":false,"rental_uris":{"android":"levelo://app?vid=2b24c94c-382b-4740-b254-81573f20bbed","ios":"levelo://app?vid=2b24c94c-382b-4740-b254-81573f20bbed"},"vehicle_type_id":"4","last_reported":1701382005,"current_range_meters":7200,"station_id":"","pricing_plan_id":"free"},{"bike_id":"5d0951e6-1219-48d8-a0eb-8be9281f7239","system_id":"levelo_inurba_marseille","lat":43.29573,"lon":5.367355,"is_reserved":false,"is_disabled":false,"rental_uris":{"android":"levelo://app?vid=5d0951e6-1219-48d8-a0eb-8be9281f7239","ios":"levelo://app?vid=5d0951e6-1219-48d8-a0eb-8be9281f7239"},"vehicle_type_id":"4","last_reported":1701382005,"current_range_meters":30000,"station_id":"ce4bgph2rcd13ifvqc2g","pricing_plan_id":"free"},{"bike_id":"46b755ed-dc65-4a8c-b9f0-9912da703cf6","system_id":"levelo_inurba_marseille","lat":43.299028,"lon":5.381509,"is_reserved":false,"is_disabled":false,"rental_uris":{"android":"levelo://app?vid=46b755ed-dc65-4a8c-b9f0-9912da703cf6","ios":"levelo://app?vid=46b755ed-dc65-4a8c-b9f0-9912da703cf6"},"vehicle_type_id":"4","last_reported":1701382005,"current_range_meters":9600,"station_id":"ce4bgj12rcd13ifvqbc0","pricing_plan_id":"free"},{"bike_id":"b4c3ec95-c572-46e0-9cbd-a280b900a39a","system_id":"levelo_inurba_marseille","lat":43.31764,"lon":5.39008,"is_reserved":false,"is_disabled":false,"rental_uris":{"android":"levelo://app?vid=b4c3ec95-c572-46e0-9cbd-a280b900a39a","ios":"levelo://app?vid=b4c3ec95-c572-46e0-9cbd-a280b900a39a"},"vehicle_type_id":"4","last_reported":1701382005,"current_range_meters":0,"station_id":"ce4bhqp2rcd13ifvqhng","pricing_plan_id":"free"},{"bike_id":"d2fdc27e-ec4b-4e9b-a5f1-7a7c785e4856","system_id":"levelo_inurba_marseille","lat":43.31753,"lon":5.39018,"is_reserved":false,"is_disabled":false,"rental_uris":{"android":"levelo://app?vid=d2fdc27e-ec4b-4e9b-a5f1-7a7c785e4856","ios":"levelo://app?vid=d2fdc27e-ec4b-4e9b-a5f1-7a7c785e4856"},"vehicle_type_id":"4","last_reported":1701382005,"current_range_meters":0,"station_id":"ce4bhqp2rcd13ifvqhng","pricing_plan_id":"free"},{"bike_id":"e3202dc3-a99c-455e-847c-fcd89cb86127","system_id":"levelo_inurba_marseille","lat":43.304274,"lon":5.388873,"is_reserved":false,"is_disabled":false,"rental_uris":{"android":"levelo://app?vid=e3202dc3-a99c-455e-847c-fcd89cb86127","ios":"levelo://app?vid=e3202dc3-a99c-455e-847c-fcd89cb86127"},"vehicle_type_id":"4","last_reported":1701382005,"current_range_meters":10400,"station_id":"ce4bgk12rcd13ifvqbi0","pricing_plan_id":"free"},{"bike_id":"1aa10014-ecc5-4038-b4f3-2022c2aad2da","system_id":"levelo_inurba_marseille","lat":43.30443,"lon":5.38892,"is_reserved":false,"is_disabled":false,"rental_uris":{"android":"levelo://app?vid=1aa10014-ecc5-4038-b4f3-2022c2aad2da","ios":"levelo://app?vid=1aa10014-ecc5-4038-b4f3-2022c2aad2da"},"vehicle_type_id":"4","last_reported":1701382005,"current_range_meters":0,"station_id":"ce4bgk12rcd13ifvqbi0","pricing_plan_id":"free"},{"bike_id":"6318908f-dd73-4780-a54a-6847584a0296","system_id":"levelo_inurba_marseille","lat":43.29899,"lon":5.38298,"is_reserved":false,"is_disabled":false,"rental_uris":{"android":"levelo://app?vid=6318908f-dd73-4780-a54a-6847584a0296","ios":"levelo://app?vid=6318908f-dd73-4780-a54a-6847584a0296"},"vehicle_type_id":"4","last_reported":1701382005,"current_range_meters":12400,"station_id":"","pricing_plan_id":"free"},{"bike_id":"746553e0-4085-457f-88a2-4d49e119ede6","system_id":"levelo_inurba_marseille","lat":43.296263,"lon":5.377094,"is_reserved":false,"is_disabled":false,"rental_uris":{"android":"levelo://app?vid=746553e0-4085-457f-88a2-4d49e119ede6","ios":"levelo://app?vid=746553e0-4085-457f-88a2-4d49e119ede6"},"vehicle_type_id":"4","last_reported":1701382005,"current_range_meters":0,"station_id":"ce4bgi92rcd13ifvqb90","pricing_plan_id":"free"},{"bike_id":"eaa0e7e7-2390-47fa-909b-7b240952cbef","system_id":"levelo_inurba_marseille","lat":43.31938,"lon":5.39207,"is_reserved":false,"is_disabled":false,"rental_uris":{"android":"levelo://app?vid=eaa0e7e7-2390-47fa-909b-7b240952cbef","ios":"levelo://app?vid=eaa0e7e7-2390-47fa-909b-7b240952cbef"},"vehicle_type_id":"4","last_reported":1701382005,"current_range_meters":20800,"station_id":"","pricing_plan_id":"free"},{"bike_id":"04757872-d364-409b-9b73-f7b75f2e936f","system_id":"levelo_inurba_marseille","lat":43.305994,"lon":5.393687,"is_reserved":false,"is_disabled":false,"rental_uris":{"android":"levelo://app?vid=04757872-d364-409b-9b73-f7b75f2e936f","ios":"levelo://app?vid=04757872-d364-409b-9b73-f7b75f2e936f"},"vehicle_type_id":"4","last_reported":1701382005,"current_range_meters":18800,"station_id":"ce4bh0p2rcd13ifvqd80","pricing_plan_id":"free"},{"bike_id":"fd15de87-6740-4b1e-9603-a6d6a3a3355d","system_id":"levelo_inurba_marseille","lat":43.29229,"lon":5.36149,"is_reserved":false,"is_disabled":false,"rental_uris":{"android":"levelo://app?vid=fd15de87-6740-4b1e-9603-a6d6a3a3355d","ios":"levelo://app?vid=fd15de87-6740-4b1e-9603-a6d6a3a3355d"},"vehicle_type_id":"4","last_reported":1701382005,"current_range_meters":26000,"station_id":"ce4bhb12rcd13ifvqel0","pricing_plan_id":"free"},{"bike_id":"6eec012e-54ce-476b-84c8-22480c6ecfa8","system_id":"levelo_inurba_marseille","lat":43.300852,"lon":5.390859,"is_reserved":false,"is_disabled":false,"rental_uris":{"android":"levelo://app?vid=6eec012e-54ce-476b-84c8-22480c6ecfa8","ios":"levelo://app?vid=6eec012e-54ce-476b-84c8-22480c6ecfa8"},"vehicle_type_id":"4","last_reported":1701382005,"current_range_meters":21200,"station_id":"ce4bh192rcd13ifvqdb0","pricing_plan_id":"free"},{"bike_id":"37146e50-546e-40c1-b4d3-b4968776dd60","system_id":"levelo_inurba_marseille","lat":43.30085,"lon":5.390856,"is_reserved":false,"is_disabled":false,"rental_uris":{"android":"levelo://app?vid=37146e50-546e-40c1-b4d3-b4968776dd60","ios":"levelo://app?vid=37146e50-546e-40c1-b4d3-b4968776dd60"},"vehicle_type_id":"4","last_reported":1701382005,"current_range_meters":29200,"station_id":"ce4bh192rcd13ifvqdb0","pricing_plan_id":"free"},{"bike_id":"ba1dc801-399e-406e-8c55-517596b96040","system_id":"levelo_inurba_marseille","lat":43.298764,"lon":5.388973,"is_reserved":false,"is_disabled":false,"rental_uris":{"android":"levelo://app?vid=ba1dc801-399e-406e-8c55-517596b96040","ios":"levelo://app?vid=ba1dc801-399e-406e-8c55-517596b96040"},"vehicle_type_id":"4","last_reported":1701382005,"current_range_meters":6400,"station_id":"ce4bh392rcd13ifvqdl0","pricing_plan_id":"free"},{"bike_id":"7d2eb4b9-f7c5-4e11-bf75-82de53347b6b","system_id":"levelo_inurba_marseille","lat":43.308767,"lon":5.396277,"is_reserved":false,"is_disabled":false,"rental_uris":{"android":"levelo://app?vid=7d2eb4b9-f7c5-4e11-bf75-82de53347b6b","ios":"levelo://app?vid=7d2eb4b9-f7c5-4e11-bf75-82de53347b6b"},"vehicle_type_id":"4","last_reported":1701382005,"current_range_meters":29200,"station_id":"ce4bh012rcd13ifvqcv0","pricing_plan_id":"free"},{"bike_id":"b0e4a12f-5454-4763-8901-0f49046fd84b","system_id":"levelo_inurba_marseille","lat":43.309038,"lon":5.396546,"is_reserved":false,"is_disabled":false,"rental_uris":{"android":"levelo://app?vid=b0e4a12f-5454-4763-8901-0f49046fd84b","ios":"levelo://app?vid=b0e4a12f-5454-4763-8901-0f49046fd84b"},"vehicle_type_id":"4","last_reported":1701382005,"current_range_meters":18800,"station_id":"ce4bh012rcd13ifvqcv0","pricing_plan_id":"free"},{"bike_id":"0116258c-2efa-449c-ac91-639c596b2bdb","system_id":"levelo_inurba_marseille","lat":43.309047,"lon":5.396551,"is_reserved":false,"is_disabled":false,"rental_uris":{"android":"levelo://app?vid=0116258c-2efa-449c-ac91-639c596b2bdb","ios":"levelo://app?vid=0116258c-2efa-449c-ac91-639c596b2bdb"},"vehicle_type_id":"4","last_reported":1701382005,"current_range_meters":3600,"station_id":"ce4bh012rcd13ifvqcv0","pricing_plan_id":"free"},{"bike_id":"6ce841e3-18c9-4cb5-8aa0-416805308a49","system_id":"levelo_inurba_marseille","lat":43.31323,"lon":5.39685,"is_reserved":false,"is_disabled":false,"rental_uris":{"android":"levelo://app?vid=6ce841e3-18c9-4cb5-8aa0-416805308a49","ios":"levelo://app?vid=6ce841e3-18c9-4cb5-8aa0-416805308a49"},"vehicle_type_id":"4","last_reported":1701382005,"current_range_meters":800,"station_id":"ce4bgvp2rcd13ifvqcu0","pricing_plan_id":"free"},{"bike_id":"29d7007a-c0f4-492a-98f2-ae8def1b524f","system_id":"levelo_inurba_marseille","lat":43.309047,"lon":5.396551,"is_reserved":false,"is_disabled":false,"rental_uris":{"android":"levelo://app?vid=29d7007a-c0f4-492a-98f2-ae8def1b524f","ios":"levelo://app?vid=29d7007a-c0f4-492a-98f2-ae8def1b524f"},"vehicle_type_id":"4","last_reported":1701382005,"current_range_meters":12400,"station_id":"ce4bh012rcd13ifvqcv0","pricing_plan_id":"free"},{"bike_id":"003e3848-9a2d-4a03-b685-53c7efbce624","system_id":"levelo_inurba_marseille","lat":43.31333,"lon":5.396926,"is_reserved":false,"is_disabled":false,"rental_uris":{"android":"levelo://app?vid=003e3848-9a2d-4a03-b685-53c7efbce624","ios":"levelo://app?vid=003e3848-9a2d-4a03-b685-53c7efbce624"},"vehicle_type_id":"4","last_reported":1701382005,"current_range_meters":29600,"station_id":"ce4bgvp2rcd13ifvqcu0","pricing_plan_id":"free"},{"bike_id":"21d8b618-ada3-4754-92f8-c91f26f200bb","system_id":"levelo_inurba_marseille","lat":43.309047,"lon":5.396551,"is_reserved":false,"is_disabled":false,"rental_uris":{"android":"levelo://app?vid=21d8b618-ada3-4754-92f8-c91f26f200bb","ios":"levelo://app?vid=21d8b618-ada3-4754-92f8-c91f26f200bb"},"vehicle_type_id":"4","last_reported":1701382005,"current_range_meters":21200,"station_id":"ce4bh012rcd13ifvqcv0","pricing_plan_id":"free"},{"bike_id":"e4640747-17b8-4b10-9bf0-8dbc490e496f","system_id":"levelo_inurba_marseille","lat":43.313291,"lon":5.396838,"is_reserved":false,"is_disabled":false,"rental_uris":{"android":"levelo://app?vid=e4640747-17b8-4b10-9bf0-8dbc490e496f","ios":"levelo://app?vid=e4640747-17b8-4b10-9bf0-8dbc490e496f"},"vehicle_type_id":"4","last_reported":1701382005,"current_range_meters":8800,"station_id":"ce4bgvp2rcd13ifvqcu0","pricing_plan_id":"free"},{"bike_id":"faf04e54-eb77-4f46-962f-a4a6a73efa06","system_id":"levelo_inurba_marseille","lat":43.309047,"lon":5.396551,"is_reserved":false,"is_disabled":false,"rental_uris":{"android":"levelo://app?vid=faf04e54-eb77-4f46-962f-a4a6a73efa06","ios":"levelo://app?vid=faf04e54-eb77-4f46-962f-a4a6a73efa06"},"vehicle_type_id":"4","last_reported":1701382005,"current_range_meters":21600,"station_id":"ce4bh012rcd13ifvqcv0","pricing_plan_id":"free"},{"bike_id":"27c491ea-8b42-4bf6-84c2-194b4ca54066","system_id":"levelo_inurba_marseille","lat":43.309038,"lon":5.396546,"is_reserved":false,"is_disabled":false,"rental_uris":{"android":"levelo://app?vid=27c491ea-8b42-4bf6-84c2-194b4ca54066","ios":"levelo://app?vid=27c491ea-8b42-4bf6-84c2-194b4ca54066"},"vehicle_type_id":"4","last_reported":1701382005,"current_range_meters":7600,"station_id":"ce4bh012rcd13ifvqcv0","pricing_plan_id":"free"},{"bike_id":"0a3287fd-4cf1-446d-97c0-3acad8b06599","system_id":"levelo_inurba_marseille","lat":43.290779,"lon":5.371482,"is_reserved":false,"is_disabled":false,"rental_uris":{"android":"levelo://app?vid=0a3287fd-4cf1-446d-97c0-3acad8b06599","ios":"levelo://app?vid=0a3287fd-4cf1-446d-97c0-3acad8b06599"},"vehicle_type_id":"4","last_reported":1701382005,"current_range_meters":28400,"station_id":"ce4bh5p2rcd13ifvqe4g","pricing_plan_id":"free"},{"bike_id":"6bead857-72f8-466c-8640-ff2cec348048","system_id":"levelo_inurba_marseille","lat":43.290075,"lon":5.3676,"is_reserved":false,"is_disabled":false,"rental_uris":{"android":"levelo://app?vid=6bead857-72f8-466c-8640-ff2cec348048","ios":"levelo://app?vid=6bead857-72f8-466c-8640-ff2cec348048"},"vehicle_type_id":"4","last_reported":1701382005,"current_range_meters":13600,"station_id":"","pricing_plan_id":"free"},{"bike_id":"a6b79269-4f70-4bca-8f67-8c369fd6787c","system_id":"levelo_inurba_marseille","lat":43.290624,"lon":5.359245,"is_reserved":false,"is_disabled":false,"rental_uris":{"android":"levelo://app?vid=a6b79269-4f70-4bca-8f67-8c369fd6787c","ios":"levelo://app?vid=a6b79269-4f70-4bca-8f67-8c369fd6787c"},"vehicle_type_id":"4","last_reported":1701382005,"current_range_meters":18400,"station_id":"ce4bha92rcd13ifvqeg0","pricing_plan_id":"free"},{"bike_id":"7fb91947-9a3e-42c6-8cd2-6a5f10615737","system_id":"levelo_inurba_marseille","lat":43.290631,"lon":5.359244,"is_reserved":false,"is_disabled":false,"rental_uris":{"android":"levelo://app?vid=7fb91947-9a3e-42c6-8cd2-6a5f10615737","ios":"levelo://app?vid=7fb91947-9a3e-42c6-8cd2-6a5f10615737"},"vehicle_type_id":"4","last_reported":1701382005,"current_range_meters":3600,"station_id":"ce4bha92rcd13ifvqeg0","pricing_plan_id":"free"},{"bike_id":"e6cf6b97-7205-4cf2-9ad3-3823e10650dc","system_id":"levelo_inurba_marseille","lat":43.289613,"lon":5.36405,"is_reserved":false,"is_disabled":false,"rental_uris":{"android":"levelo://app?vid=e6cf6b97-7205-4cf2-9ad3-3823e10650dc","ios":"levelo://app?vid=e6cf6b97-7205-4cf2-9ad3-3823e10650dc"},"vehicle_type_id":"4","last_reported":1701382005,"current_range_meters":30400,"station_id":"ce4bhc92rcd13ifvqetg","pricing_plan_id":"free"},{"bike_id":"6f56b45c-5766-4cd7-925f-9e47831600d6","system_id":"levelo_inurba_marseille","lat":43.289184,"lon":5.366408,"is_reserved":false,"is_disabled":false,"rental_uris":{"android":"levelo://app?vid=6f56b45c-5766-4cd7-925f-9e47831600d6","ios":"levelo://app?vid=6f56b45c-5766-4cd7-925f-9e47831600d6"},"vehicle_type_id":"4","last_reported":1701382005,"current_range_meters":13200,"station_id":"ce4bhap2rcd13ifvqek0","pricing_plan_id":"free"},{"bike_id":"319498c7-4622-480f-9537-a2363b5b030f","system_id":"levelo_inurba_marseille","lat":43.289184,"lon":5.366408,"is_reserved":false,"is_disabled":false,"rental_uris":{"android":"levelo://app?vid=319498c7-4622-480f-9537-a2363b5b030f","ios":"levelo://app?vid=319498c7-4622-480f-9537-a2363b5b030f"},"vehicle_type_id":"4","last_reported":1701382005,"current_range_meters":20400,"station_id":"ce4bhap2rcd13ifvqek0","pricing_plan_id":"free"},{"bike_id":"4dede63c-e7e9-47c4-951e-8fc3644a3c2d","system_id":"levelo_inurba_marseille","lat":43.289184,"lon":5.366408,"is_reserved":false,"is_disabled":false,"rental_uris":{"android":"levelo://app?vid=4dede63c-e7e9-47c4-951e-8fc3644a3c2d","ios":"levelo://app?vid=4dede63c-e7e9-47c4-951e-8fc3644a3c2d"},"vehicle_type_id":"4","last_reported":1701382005,"current_range_meters":1600,"station_id":"ce4bhap2rcd13ifvqek0","pricing_plan_id":"free"},{"bike_id":"ac61eb52-1ee6-49bd-a17d-bf2a1a3588d3","system_id":"levelo_inurba_marseille","lat":43.289475,"lon":5.363755,"is_reserved":false,"is_disabled":false,"rental_uris":{"android":"levelo://app?vid=ac61eb52-1ee6-49bd-a17d-bf2a1a3588d3","ios":"levelo://app?vid=ac61eb52-1ee6-49bd-a17d-bf2a1a3588d3"},"vehicle_type_id":"4","last_reported":1701382005,"current_range_meters":19600,"station_id":"ce4bhc92rcd13ifvqetg","pricing_plan_id":"free"},{"bike_id":"b0001738-67fc-4cc6-94ca-b466884dcb20","system_id":"levelo_inurba_marseille","lat":43.2891,"lon":5.36124,"is_reserved":false,"is_disabled":false,"rental_uris":{"android":"levelo://app?vid=b0001738-67fc-4cc6-94ca-b466884dcb20","ios":"levelo://app?vid=b0001738-67fc-4cc6-94ca-b466884dcb20"},"vehicle_type_id":"4","last_reported":1701382005,"current_range_meters":20400,"station_id":"","pricing_plan_id":"free"},{"bike_id":"433c11ae-8306-4bbf-850d-086e9b9b8b2e","system_id":"levelo_inurba_marseille","lat":43.2909,"lon":5.381212,"is_reserved":false,"is_disabled":false,"rental_uris":{"android":"levelo://app?vid=433c11ae-8306-4bbf-850d-086e9b9b8b2e","ios":"levelo://app?vid=433c11ae-8306-4bbf-850d-086e9b9b8b2e"},"vehicle_type_id":"4","last_reported":1701382005,"current_range_meters":18000,"station_id":"ce4bh512rcd13ifvqe2g","pricing_plan_id":"free"},{"bike_id":"016f19a2-bb6e-4303-897e-cc7027690b41","system_id":"levelo_inurba_marseille","lat":43.29795,"lon":5.39341,"is_reserved":false,"is_disabled":false,"rental_uris":{"android":"levelo://app?vid=016f19a2-bb6e-4303-897e-cc7027690b41","ios":"levelo://app?vid=016f19a2-bb6e-4303-897e-cc7027690b41"},"vehicle_type_id":"4","last_reported":1701382005,"current_range_meters":17200,"station_id":"chh1huq6cuj3fo74tm60","pricing_plan_id":"free"},{"bike_id":"e8716f4b-4cf2-49a3-a4e7-cacaf36bc332","system_id":"levelo_inurba_marseille","lat":43.28856,"lon":5.358371,"is_reserved":false,"is_disabled":false,"rental_uris":{"android":"levelo://app?vid=e8716f4b-4cf2-49a3-a4e7-cacaf36bc332","ios":"levelo://app?vid=e8716f4b-4cf2-49a3-a4e7-cacaf36bc332"},"vehicle_type_id":"4","last_reported":1701382005,"current_range_meters":7600,"station_id":"ce4bhb12rcd13ifvqem0","pricing_plan_id":"free"},{"bike_id":"76817642-31b8-4ce3-9290-e1f6661af761","system_id":"levelo_inurba_marseille","lat":43.30938,"lon":5.40137,"is_reserved":false,"is_disabled":false,"rental_uris":{"android":"levelo://app?vid=76817642-31b8-4ce3-9290-e1f6661af761","ios":"levelo://app?vid=76817642-31b8-4ce3-9290-e1f6661af761"},"vehicle_type_id":"4","last_reported":1701382005,"current_range_meters":8800,"station_id":"ce4bgvp2rcd13ifvqct0","pricing_plan_id":"free"},{"bike_id":"a2c112a6-58e1-4e8b-8be8-80d2c9d8d3d7","system_id":"levelo_inurba_marseille","lat":43.31265,"lon":5.401699,"is_reserved":false,"is_disabled":false,"rental_uris":{"android":"levelo://app?vid=a2c112a6-58e1-4e8b-8be8-80d2c9d8d3d7","ios":"levelo://app?vid=a2c112a6-58e1-4e8b-8be8-80d2c9d8d3d7"},"vehicle_type_id":"4","last_reported":1701382005,"current_range_meters":16800,"station_id":"","pricing_plan_id":"free"},{"bike_id":"7535eaed-f428-4465-83a1-90fbb47ae0ae","system_id":"levelo_inurba_marseille","lat":43.309371,"lon":5.401449,"is_reserved":false,"is_disabled":false,"rental_uris":{"android":"levelo://app?vid=7535eaed-f428-4465-83a1-90fbb47ae0ae","ios":"levelo://app?vid=7535eaed-f428-4465-83a1-90fbb47ae0ae"},"vehicle_type_id":"4","last_reported":1701382005,"current_range_meters":12000,"station_id":"ce4bgvp2rcd13ifvqct0","pricing_plan_id":"free"},{"bike_id":"f7ffccd8-897a-4795-9180-df8806730fc3","system_id":"levelo_inurba_marseille","lat":43.3092,"lon":5.40142,"is_reserved":false,"is_disabled":false,"rental_uris":{"android":"levelo://app?vid=f7ffccd8-897a-4795-9180-df8806730fc3","ios":"levelo://app?vid=f7ffccd8-897a-4795-9180-df8806730fc3"},"vehicle_type_id":"4","last_reported":1701382005,"current_range_meters":6400,"station_id":"ce4bgvp2rcd13ifvqct0","pricing_plan_id":"free"},{"bike_id":"de117050-8bd5-4e62-8beb-ea605b189848","system_id":"levelo_inurba_marseille","lat":43.30642,"lon":5.401031,"is_reserved":false,"is_disabled":false,"rental_uris":{"android":"levelo://app?vid=de117050-8bd5-4e62-8beb-ea605b189848","ios":"levelo://app?vid=de117050-8bd5-4e62-8beb-ea605b189848"},"vehicle_type_id":"4","last_reported":1701382005,"current_range_meters":19600,"station_id":"ce4bh112rcd13ifvqda0","pricing_plan_id":"free"},{"bike_id":"4a8cc3bd-2771-4300-879c-a3018715ac91","system_id":"levelo_inurba_marseille","lat":43.309321,"lon":5.401458,"is_reserved":false,"is_disabled":false,"rental_uris":{"android":"levelo://app?vid=4a8cc3bd-2771-4300-879c-a3018715ac91","ios":"levelo://app?vid=4a8cc3bd-2771-4300-879c-a3018715ac91"},"vehicle_type_id":"4","last_reported":1701382005,"current_range_meters":1200,"station_id":"ce4bgvp2rcd13ifvqct0","pricing_plan_id":"free"},{"bike_id":"fb938f3b-a0ef-4d82-9042-83727c5a5d0d","system_id":"levelo_inurba_marseille","lat":43.30642,"lon":5.401031,"is_reserved":false,"is_disabled":false,"rental_uris":{"android":"levelo://app?vid=fb938f3b-a0ef-4d82-9042-83727c5a5d0d","ios":"levelo://app?vid=fb938f3b-a0ef-4d82-9042-83727c5a5d0d"},"vehicle_type_id":"4","last_reported":1701382005,"current_range_meters":21200,"station_id":"ce4bh112rcd13ifvqda0","pricing_plan_id":"free"},{"bike_id":"88de979b-1386-4e7b-86ac-24ff8c9bf9f4","system_id":"levelo_inurba_marseille","lat":43.306486,"lon":5.400921,"is_reserved":false,"is_disabled":false,"rental_uris":{"android":"levelo://app?vid=88de979b-1386-4e7b-86ac-24ff8c9bf9f4","ios":"levelo://app?vid=88de979b-1386-4e7b-86ac-24ff8c9bf9f4"},"vehicle_type_id":"4","last_reported":1701382005,"current_range_meters":26400,"station_id":"ce4bh112rcd13ifvqda0","pricing_plan_id":"free"},{"bike_id":"bd1ce3d5-7834-496d-86e8-9f3cb105ba0a","system_id":"levelo_inurba_marseille","lat":43.30642,"lon":5.401031,"is_reserved":false,"is_disabled":false,"rental_uris":{"android":"levelo://app?vid=bd1ce3d5-7834-496d-86e8-9f3cb105ba0a","ios":"levelo://app?vid=bd1ce3d5-7834-496d-86e8-9f3cb105ba0a"},"vehicle_type_id":"4","last_reported":1701382005,"current_range_meters":16000,"station_id":"ce4bh112rcd13ifvqda0","pricing_plan_id":"free"},{"bike_id":"2cc5855a-7372-4a96-9135-b223ddba2701","system_id":"levelo_inurba_marseille","lat":43.30642,"lon":5.401031,"is_reserved":false,"is_disabled":false,"rental_uris":{"android":"levelo://app?vid=2cc5855a-7372-4a96-9135-b223ddba2701","ios":"levelo://app?vid=2cc5855a-7372-4a96-9135-b223ddba2701"},"vehicle_type_id":"4","last_reported":1701382005,"current_range_meters":4400,"station_id":"ce4bh112rcd13ifvqda0","pricing_plan_id":"free"},{"bike_id":"fd3d1981-b606-41f6-8603-56a8571b0bd5","system_id":"levelo_inurba_marseille","lat":43.30642,"lon":5.401031,"is_reserved":false,"is_disabled":false,"rental_uris":{"android":"levelo://app?vid=fd3d1981-b606-41f6-8603-56a8571b0bd5","ios":"levelo://app?vid=fd3d1981-b606-41f6-8603-56a8571b0bd5"},"vehicle_type_id":"4","last_reported":1701382005,"current_range_meters":9200,"station_id":"ce4bh112rcd13ifvqda0","pricing_plan_id":"free"},{"bike_id":"b930dc4e-3488-4b4b-b52b-1874865c3274","system_id":"levelo_inurba_marseille","lat":43.305239,"lon":5.400841,"is_reserved":false,"is_disabled":false,"rental_uris":{"android":"levelo://app?vid=b930dc4e-3488-4b4b-b52b-1874865c3274","ios":"levelo://app?vid=b930dc4e-3488-4b4b-b52b-1874865c3274"},"vehicle_type_id":"4","last_reported":1701382005,"current_range_meters":26000,"station_id":"","pricing_plan_id":"free"},{"bike_id":"f0b62317-80a8-4e72-a32b-c493ad8bd6c3","system_id":"levelo_inurba_marseille","lat":43.28727,"lon":5.36078,"is_reserved":false,"is_disabled":false,"rental_uris":{"android":"levelo://app?vid=f0b62317-80a8-4e72-a32b-c493ad8bd6c3","ios":"levelo://app?vid=f0b62317-80a8-4e72-a32b-c493ad8bd6c3"},"vehicle_type_id":"4","last_reported":1701382005,"current_range_meters":27600,"station_id":"cki0cbj6b192h4jlfktg","pricing_plan_id":"free"},{"bike_id":"246292a8-49c4-4e1d-913d-f78fdc8f52ea","system_id":"levelo_inurba_marseille","lat":43.28727,"lon":5.36078,"is_reserved":false,"is_disabled":false,"rental_uris":{"android":"levelo://app?vid=246292a8-49c4-4e1d-913d-f78fdc8f52ea","ios":"levelo://app?vid=246292a8-49c4-4e1d-913d-f78fdc8f52ea"},"vehicle_type_id":"4","last_reported":1701382005,"current_range_meters":19200,"station_id":"cki0cbj6b192h4jlfktg","pricing_plan_id":"free"},{"bike_id":"0fa16f52-71bf-4e79-8bbd-0e8fc01aded9","system_id":"levelo_inurba_marseille","lat":43.286591,"lon":5.363346,"is_reserved":false,"is_disabled":false,"rental_uris":{"android":"levelo://app?vid=0fa16f52-71bf-4e79-8bbd-0e8fc01aded9","ios":"levelo://app?vid=0fa16f52-71bf-4e79-8bbd-0e8fc01aded9"},"vehicle_type_id":"4","last_reported":1701382005,"current_range_meters":27600,"station_id":"ce4bhah2rcd13ifvqej0","pricing_plan_id":"free"},{"bike_id":"0fadd555-920b-4d63-be4f-83750afd505c","system_id":"levelo_inurba_marseille","lat":43.286591,"lon":5.363346,"is_reserved":false,"is_disabled":false,"rental_uris":{"android":"levelo://app?vid=0fadd555-920b-4d63-be4f-83750afd505c","ios":"levelo://app?vid=0fadd555-920b-4d63-be4f-83750afd505c"},"vehicle_type_id":"4","last_reported":1701382005,"current_range_meters":12400,"station_id":"ce4bhah2rcd13ifvqej0","pricing_plan_id":"free"},{"bike_id":"f5fdd69c-8ce5-4fa1-a48b-c0b8b1223ef0","system_id":"levelo_inurba_marseille","lat":43.286591,"lon":5.363346,"is_reserved":false,"is_disabled":false,"rental_uris":{"android":"levelo://app?vid=f5fdd69c-8ce5-4fa1-a48b-c0b8b1223ef0","ios":"levelo://app?vid=f5fdd69c-8ce5-4fa1-a48b-c0b8b1223ef0"},"vehicle_type_id":"4","last_reported":1701382005,"current_range_meters":5600,"station_id":"ce4bhah2rcd13ifvqej0","pricing_plan_id":"free"},{"bike_id":"bb7ece9f-5161-4cf3-a80d-bd1aa65f56f4","system_id":"levelo_inurba_marseille","lat":43.298681,"lon":5.397225,"is_reserved":false,"is_disabled":false,"rental_uris":{"android":"levelo://app?vid=bb7ece9f-5161-4cf3-a80d-bd1aa65f56f4","ios":"levelo://app?vid=bb7ece9f-5161-4cf3-a80d-bd1aa65f56f4"},"vehicle_type_id":"4","last_reported":1701382005,"current_range_meters":26000,"station_id":"ce4bh0h2rcd13ifvqd50","pricing_plan_id":"free"},{"bike_id":"2ab88e44-eb99-4e65-b98d-270d0f59333f","system_id":"levelo_inurba_marseille","lat":43.286591,"lon":5.363346,"is_reserved":false,"is_disabled":false,"rental_uris":{"android":"levelo://app?vid=2ab88e44-eb99-4e65-b98d-270d0f59333f","ios":"levelo://app?vid=2ab88e44-eb99-4e65-b98d-270d0f59333f"},"vehicle_type_id":"4","last_reported":1701382005,"current_range_meters":30800,"station_id":"ce4bhah2rcd13ifvqej0","pricing_plan_id":"free"},{"bike_id":"efc028e5-4a7e-4fec-bec3-4183e508bbb9","system_id":"levelo_inurba_marseille","lat":43.298681,"lon":5.397225,"is_reserved":false,"is_disabled":false,"rental_uris":{"android":"levelo://app?vid=efc028e5-4a7e-4fec-bec3-4183e508bbb9","ios":"levelo://app?vid=efc028e5-4a7e-4fec-bec3-4183e508bbb9"},"vehicle_type_id":"4","last_reported":1701382005,"current_range_meters":28800,"station_id":"ce4bh0h2rcd13ifvqd50","pricing_plan_id":"free"},{"bike_id":"30f8b7c0-80ae-498c-bf98-18395265695b","system_id":"levelo_inurba_marseille","lat":43.289307,"lon":5.38406,"is_reserved":false,"is_disabled":false,"rental_uris":{"android":"levelo://app?vid=30f8b7c0-80ae-498c-bf98-18395265695b","ios":"levelo://app?vid=30f8b7c0-80ae-498c-bf98-18395265695b"},"vehicle_type_id":"4","last_reported":1701382005,"current_range_meters":16000,"station_id":"ce4bh612rcd13ifvqe6g","pricing_plan_id":"free"},{"bike_id":"59478bbb-454c-47ef-b624-0be37854a9e4","system_id":"levelo_inurba_marseille","lat":43.307623,"lon":5.402774,"is_reserved":false,"is_disabled":false,"rental_uris":{"android":"levelo://app?vid=59478bbb-454c-47ef-b624-0be37854a9e4","ios":"levelo://app?vid=59478bbb-454c-47ef-b624-0be37854a9e4"},"vehicle_type_id":"4","last_reported":1701382005,"current_range_meters":20000,"station_id":"ce4bgvp2rcd13ifvqct0","pricing_plan_id":"free"},{"bike_id":"7c0f0972-659b-42b9-998d-4411f38291d9","system_id":"levelo_inurba_marseille","lat":43.28609,"lon":5.37058,"is_reserved":false,"is_disabled":false,"rental_uris":{"android":"levelo://app?vid=7c0f0972-659b-42b9-998d-4411f38291d9","ios":"levelo://app?vid=7c0f0972-659b-42b9-998d-4411f38291d9"},"vehicle_type_id":"4","last_reported":1701382005,"current_range_meters":4800,"station_id":"ce4bht12rcd13ifvqi60","pricing_plan_id":"free"},{"bike_id":"3b9eb502-a4b0-4696-82dd-048ee0da762b","system_id":"levelo_inurba_marseille","lat":43.286039,"lon":5.370679,"is_reserved":false,"is_disabled":false,"rental_uris":{"android":"levelo://app?vid=3b9eb502-a4b0-4696-82dd-048ee0da762b","ios":"levelo://app?vid=3b9eb502-a4b0-4696-82dd-048ee0da762b"},"vehicle_type_id":"4","last_reported":1701382005,"current_range_meters":28400,"station_id":"ce4bht12rcd13ifvqi60","pricing_plan_id":"free"},{"bike_id":"31b95479-0fab-477c-9de7-b994514514e3","system_id":"levelo_inurba_marseille","lat":43.286039,"lon":5.370681,"is_reserved":false,"is_disabled":false,"rental_uris":{"android":"levelo://app?vid=31b95479-0fab-477c-9de7-b994514514e3","ios":"levelo://app?vid=31b95479-0fab-477c-9de7-b994514514e3"},"vehicle_type_id":"4","last_reported":1701382005,"current_range_meters":2800,"station_id":"ce4bht12rcd13ifvqi60","pricing_plan_id":"free"},{"bike_id":"51e80092-f709-463a-96a2-8b25587b914d","system_id":"levelo_inurba_marseille","lat":43.286039,"lon":5.370681,"is_reserved":false,"is_disabled":false,"rental_uris":{"android":"levelo://app?vid=51e80092-f709-463a-96a2-8b25587b914d","ios":"levelo://app?vid=51e80092-f709-463a-96a2-8b25587b914d"},"vehicle_type_id":"4","last_reported":1701382005,"current_range_meters":8800,"station_id":"ce4bht12rcd13ifvqi60","pricing_plan_id":"free"},{"bike_id":"55fb18d1-3a66-44a9-a318-d960e4cd31be","system_id":"levelo_inurba_marseille","lat":43.286718,"lon":5.379509,"is_reserved":false,"is_disabled":false,"rental_uris":{"android":"levelo://app?vid=55fb18d1-3a66-44a9-a318-d960e4cd31be","ios":"levelo://app?vid=55fb18d1-3a66-44a9-a318-d960e4cd31be"},"vehicle_type_id":"4","last_reported":1701382005,"current_range_meters":29200,"station_id":"","pricing_plan_id":"free"},{"bike_id":"d8afdaf7-a980-4e89-9d7e-e47dccdeb5f1","system_id":"levelo_inurba_marseille","lat":43.284538,"lon":5.358657,"is_reserved":false,"is_disabled":false,"rental_uris":{"android":"levelo://app?vid=d8afdaf7-a980-4e89-9d7e-e47dccdeb5f1","ios":"levelo://app?vid=d8afdaf7-a980-4e89-9d7e-e47dccdeb5f1"},"vehicle_type_id":"4","last_reported":1701382005,"current_range_meters":3200,"station_id":"ce4bhah2rcd13ifvqei0","pricing_plan_id":"free"},{"bike_id":"fb9a3ba1-bd19-4ec5-9708-e57a8fcabc47","system_id":"levelo_inurba_marseille","lat":43.284538,"lon":5.358657,"is_reserved":false,"is_disabled":false,"rental_uris":{"android":"levelo://app?vid=fb9a3ba1-bd19-4ec5-9708-e57a8fcabc47","ios":"levelo://app?vid=fb9a3ba1-bd19-4ec5-9708-e57a8fcabc47"},"vehicle_type_id":"4","last_reported":1701382005,"current_range_meters":3600,"station_id":"ce4bhah2rcd13ifvqei0","pricing_plan_id":"free"},{"bike_id":"a3c8e6db-311f-44e5-ada6-33c3c19c390b","system_id":"levelo_inurba_marseille","lat":43.287537,"lon":5.385747,"is_reserved":false,"is_disabled":false,"rental_uris":{"android":"levelo://app?vid=a3c8e6db-311f-44e5-ada6-33c3c19c390b","ios":"levelo://app?vid=a3c8e6db-311f-44e5-ada6-33c3c19c390b"},"vehicle_type_id":"4","last_reported":1701382005,"current_range_meters":2400,"station_id":"","pricing_plan_id":"free"},{"bike_id":"d27c3822-c0f8-4b95-a49f-2375387b9290","system_id":"levelo_inurba_marseille","lat":43.284638,"lon":5.358975,"is_reserved":false,"is_disabled":false,"rental_uris":{"android":"levelo://app?vid=d27c3822-c0f8-4b95-a49f-2375387b9290","ios":"levelo://app?vid=d27c3822-c0f8-4b95-a49f-2375387b9290"},"vehicle_type_id":"4","last_reported":1701382005,"current_range_meters":18000,"station_id":"ce4bhah2rcd13ifvqei0","pricing_plan_id":"free"},{"bike_id":"f0af66be-b54e-441d-bca6-9912ae6f8e4c","system_id":"levelo_inurba_marseille","lat":43.284538,"lon":5.358657,"is_reserved":false,"is_disabled":false,"rental_uris":{"android":"levelo://app?vid=f0af66be-b54e-441d-bca6-9912ae6f8e4c","ios":"levelo://app?vid=f0af66be-b54e-441d-bca6-9912ae6f8e4c"},"vehicle_type_id":"4","last_reported":1701382005,"current_range_meters":3600,"station_id":"ce4bhah2rcd13ifvqei0","pricing_plan_id":"free"},{"bike_id":"21169003-7cd8-4dcc-90d2-c0b535fa7f98","system_id":"levelo_inurba_marseille","lat":43.284538,"lon":5.358657,"is_reserved":false,"is_disabled":false,"rental_uris":{"android":"levelo://app?vid=21169003-7cd8-4dcc-90d2-c0b535fa7f98","ios":"levelo://app?vid=21169003-7cd8-4dcc-90d2-c0b535fa7f98"},"vehicle_type_id":"4","last_reported":1701382005,"current_range_meters":15200,"station_id":"ce4bhah2rcd13ifvqei0","pricing_plan_id":"free"},{"bike_id":"17f9a08f-f653-4795-ab7f-1ff49e1b30ff","system_id":"levelo_inurba_marseille","lat":43.284538,"lon":5.358657,"is_reserved":false,"is_disabled":false,"rental_uris":{"android":"levelo://app?vid=17f9a08f-f653-4795-ab7f-1ff49e1b30ff","ios":"levelo://app?vid=17f9a08f-f653-4795-ab7f-1ff49e1b30ff"},"vehicle_type_id":"4","last_reported":1701382005,"current_range_meters":10800,"station_id":"ce4bhah2rcd13ifvqei0","pricing_plan_id":"free"},{"bike_id":"f9d4ec91-e3e8-4990-8594-b4e4e610432a","system_id":"levelo_inurba_marseille","lat":43.283998,"lon":5.375062,"is_reserved":false,"is_disabled":false,"rental_uris":{"android":"levelo://app?vid=f9d4ec91-e3e8-4990-8594-b4e4e610432a","ios":"levelo://app?vid=f9d4ec91-e3e8-4990-8594-b4e4e610432a"},"vehicle_type_id":"4","last_reported":1701382005,"current_range_meters":6400,"station_id":"ce4bh412rcd13ifvqds0","pricing_plan_id":"free"},{"bike_id":"37db4461-331c-4357-9f33-30987873c8e5","system_id":"levelo_inurba_marseille","lat":43.283998,"lon":5.375062,"is_reserved":false,"is_disabled":false,"rental_uris":{"android":"levelo://app?vid=37db4461-331c-4357-9f33-30987873c8e5","ios":"levelo://app?vid=37db4461-331c-4357-9f33-30987873c8e5"},"vehicle_type_id":"4","last_reported":1701382005,"current_range_meters":2000,"station_id":"ce4bh412rcd13ifvqds0","pricing_plan_id":"free"},{"bike_id":"0f4d5fee-cad2-4016-9715-d9367643112f","system_id":"levelo_inurba_marseille","lat":43.295713,"lon":5.399639,"is_reserved":false,"is_disabled":false,"rental_uris":{"android":"levelo://app?vid=0f4d5fee-cad2-4016-9715-d9367643112f","ios":"levelo://app?vid=0f4d5fee-cad2-4016-9715-d9367643112f"},"vehicle_type_id":"4","last_reported":1701382005,"current_range_meters":15600,"station_id":"ce4bh312rcd13ifvqdj0","pricing_plan_id":"free"},{"bike_id":"69628e16-e6a0-4616-ba60-fba43ecff9e8","system_id":"levelo_inurba_marseille","lat":43.283998,"lon":5.375062,"is_reserved":false,"is_disabled":false,"rental_uris":{"android":"levelo://app?vid=69628e16-e6a0-4616-ba60-fba43ecff9e8","ios":"levelo://app?vid=69628e16-e6a0-4616-ba60-fba43ecff9e8"},"vehicle_type_id":"4","last_reported":1701382005,"current_range_meters":5200,"station_id":"ce4bh412rcd13ifvqds0","pricing_plan_id":"free"},{"bike_id":"cc5018f9-3af6-4c13-b57b-31c9959b415a","system_id":"levelo_inurba_marseille","lat":43.283998,"lon":5.375062,"is_reserved":false,"is_disabled":false,"rental_uris":{"android":"levelo://app?vid=cc5018f9-3af6-4c13-b57b-31c9959b415a","ios":"levelo://app?vid=cc5018f9-3af6-4c13-b57b-31c9959b415a"},"vehicle_type_id":"4","last_reported":1701382005,"current_range_meters":21600,"station_id":"ce4bh412rcd13ifvqds0","pricing_plan_id":"free"},{"bike_id":"d147e0d7-0e39-41c3-9168-806b6269bef3","system_id":"levelo_inurba_marseille","lat":43.319179,"lon":5.407725,"is_reserved":false,"is_disabled":false,"rental_uris":{"android":"levelo://app?vid=d147e0d7-0e39-41c3-9168-806b6269bef3","ios":"levelo://app?vid=d147e0d7-0e39-41c3-9168-806b6269bef3"},"vehicle_type_id":"4","last_reported":1701382005,"current_range_meters":28400,"station_id":"ce4bhq12rcd13ifvqhig","pricing_plan_id":"free"},{"bike_id":"662fa6f8-2032-43e0-bf37-8abb696cda1d","system_id":"levelo_inurba_marseille","lat":43.33717,"lon":5.391857,"is_reserved":false,"is_disabled":false,"rental_uris":{"android":"levelo://app?vid=662fa6f8-2032-43e0-bf37-8abb696cda1d","ios":"levelo://app?vid=662fa6f8-2032-43e0-bf37-8abb696cda1d"},"vehicle_type_id":"4","last_reported":1701382005,"current_range_meters":27600,"station_id":"ce4bhr92rcd13ifvqhsg","pricing_plan_id":"free"},{"bike_id":"430fab3b-85ff-459e-b705-171d153ad923","system_id":"levelo_inurba_marseille","lat":43.323464,"lon":5.406297,"is_reserved":false,"is_disabled":false,"rental_uris":{"android":"levelo://app?vid=430fab3b-85ff-459e-b705-171d153ad923","ios":"levelo://app?vid=430fab3b-85ff-459e-b705-171d153ad923"},"vehicle_type_id":"4","last_reported":1701382005,"current_range_meters":19200,"station_id":"ce4bhq92rcd13ifvqhjg","pricing_plan_id":"free"},{"bike_id":"1933af5d-0268-487e-a8d4-ed432e3f7528","system_id":"levelo_inurba_marseille","lat":43.297946,"lon":5.404063,"is_reserved":false,"is_disabled":false,"rental_uris":{"android":"levelo://app?vid=1933af5d-0268-487e-a8d4-ed432e3f7528","ios":"levelo://app?vid=1933af5d-0268-487e-a8d4-ed432e3f7528"},"vehicle_type_id":"4","last_reported":1701382005,"current_range_meters":15600,"station_id":"ce4bh112rcd13ifvqd90","pricing_plan_id":"free"},{"bike_id":"a3e8a22f-49d4-4de4-ade9-0b2321976215","system_id":"levelo_inurba_marseille","lat":43.288501,"lon":5.393087,"is_reserved":false,"is_disabled":false,"rental_uris":{"android":"levelo://app?vid=a3e8a22f-49d4-4de4-ade9-0b2321976215","ios":"levelo://app?vid=a3e8a22f-49d4-4de4-ade9-0b2321976215"},"vehicle_type_id":"4","last_reported":1701382005,"current_range_meters":7600,"station_id":"ce4bh2p2rcd13ifvqdi0","pricing_plan_id":"free"},{"bike_id":"08878546-d611-4065-8488-44046c80ab7b","system_id":"levelo_inurba_marseille","lat":43.288501,"lon":5.393087,"is_reserved":false,"is_disabled":false,"rental_uris":{"android":"levelo://app?vid=08878546-d611-4065-8488-44046c80ab7b","ios":"levelo://app?vid=08878546-d611-4065-8488-44046c80ab7b"},"vehicle_type_id":"4","last_reported":1701382005,"current_range_meters":19200,"station_id":"ce4bh2p2rcd13ifvqdi0","pricing_plan_id":"free"},{"bike_id":"a50a8973-db02-4f5b-8fc6-e4d3d252f634","system_id":"levelo_inurba_marseille","lat":43.292724,"lon":5.401131,"is_reserved":false,"is_disabled":false,"rental_uris":{"android":"levelo://app?vid=a50a8973-db02-4f5b-8fc6-e4d3d252f634","ios":"levelo://app?vid=a50a8973-db02-4f5b-8fc6-e4d3d252f634"},"vehicle_type_id":"4","last_reported":1701382005,"current_range_meters":20000,"station_id":"ce4bh312rcd13ifvqdk0","pricing_plan_id":"free"},{"bike_id":"aca33337-8473-4b32-95e9-05a782cda663","system_id":"levelo_inurba_marseille","lat":43.282736,"lon":5.350784,"is_reserved":false,"is_disabled":false,"rental_uris":{"android":"levelo://app?vid=aca33337-8473-4b32-95e9-05a782cda663","ios":"levelo://app?vid=aca33337-8473-4b32-95e9-05a782cda663"},"vehicle_type_id":"4","last_reported":1701382005,"current_range_meters":27200,"station_id":"ce4bhbp2rcd13ifvqerg","pricing_plan_id":"free"},{"bike_id":"377a5e02-210c-44b1-b033-1c45596d94a3","system_id":"levelo_inurba_marseille","lat":43.282754,"lon":5.350519,"is_reserved":false,"is_disabled":false,"rental_uris":{"android":"levelo://app?vid=377a5e02-210c-44b1-b033-1c45596d94a3","ios":"levelo://app?vid=377a5e02-210c-44b1-b033-1c45596d94a3"},"vehicle_type_id":"4","last_reported":1701382005,"current_range_meters":28800,"station_id":"ce4bhbp2rcd13ifvqerg","pricing_plan_id":"free"},{"bike_id":"cbb6a846-2d9c-4c06-bc81-28eb9a40f7da","system_id":"levelo_inurba_marseille","lat":43.282648,"lon":5.350686,"is_reserved":false,"is_disabled":false,"rental_uris":{"android":"levelo://app?vid=cbb6a846-2d9c-4c06-bc81-28eb9a40f7da","ios":"levelo://app?vid=cbb6a846-2d9c-4c06-bc81-28eb9a40f7da"},"vehicle_type_id":"4","last_reported":1701382005,"current_range_meters":8800,"station_id":"ce4bhbp2rcd13ifvqerg","pricing_plan_id":"free"},{"bike_id":"97b2aa8f-6261-44d4-bce3-cd3d07431379","system_id":"levelo_inurba_marseille","lat":43.28039,"lon":5.369297,"is_reserved":false,"is_disabled":false,"rental_uris":{"android":"levelo://app?vid=97b2aa8f-6261-44d4-bce3-cd3d07431379","ios":"levelo://app?vid=97b2aa8f-6261-44d4-bce3-cd3d07431379"},"vehicle_type_id":"4","last_reported":1701382005,"current_range_meters":30000,"station_id":"ce4bha12rcd13ifvqef0","pricing_plan_id":"free"},{"bike_id":"b9024452-c23b-40f9-ada8-928108d6c09a","system_id":"levelo_inurba_marseille","lat":43.2904,"lon":5.39948,"is_reserved":false,"is_disabled":false,"rental_uris":{"android":"levelo://app?vid=b9024452-c23b-40f9-ada8-928108d6c09a","ios":"levelo://app?vid=b9024452-c23b-40f9-ada8-928108d6c09a"},"vehicle_type_id":"4","last_reported":1701382005,"current_range_meters":20800,"station_id":"ce4bh392rcd13ifvqdm0","pricing_plan_id":"free"},{"bike_id":"79620b11-22ab-4f9a-b412-a495124ea280","system_id":"levelo_inurba_marseille","lat":43.281044,"lon":5.378308,"is_reserved":false,"is_disabled":false,"rental_uris":{"android":"levelo://app?vid=79620b11-22ab-4f9a-b412-a495124ea280","ios":"levelo://app?vid=79620b11-22ab-4f9a-b412-a495124ea280"},"vehicle_type_id":"4","last_reported":1701382005,"current_range_meters":0,"station_id":"ce4bha12rcd13ifvqee0","pricing_plan_id":"free"},{"bike_id":"2e33386a-d2c9-4401-8c91-eea599e3a5aa","system_id":"levelo_inurba_marseille","lat":43.290307,"lon":5.399637,"is_reserved":false,"is_disabled":false,"rental_uris":{"android":"levelo://app?vid=2e33386a-d2c9-4401-8c91-eea599e3a5aa","ios":"levelo://app?vid=2e33386a-d2c9-4401-8c91-eea599e3a5aa"},"vehicle_type_id":"4","last_reported":1701382005,"current_range_meters":0,"station_id":"ce4bh392rcd13ifvqdm0","pricing_plan_id":"free"},{"bike_id":"9a5564d2-3e4b-45f4-9ff5-fdd9c54da2c4","system_id":"levelo_inurba_marseille","lat":43.281044,"lon":5.378308,"is_reserved":false,"is_disabled":false,"rental_uris":{"android":"levelo://app?vid=9a5564d2-3e4b-45f4-9ff5-fdd9c54da2c4","ios":"levelo://app?vid=9a5564d2-3e4b-45f4-9ff5-fdd9c54da2c4"},"vehicle_type_id":"4","last_reported":1701382005,"current_range_meters":13600,"station_id":"ce4bha12rcd13ifvqee0","pricing_plan_id":"free"},{"bike_id":"fdf76a37-9f90-4a96-ae15-fc6d4cbdb42b","system_id":"levelo_inurba_marseille","lat":43.296263,"lon":5.40601,"is_reserved":false,"is_disabled":false,"rental_uris":{"android":"levelo://app?vid=fdf76a37-9f90-4a96-ae15-fc6d4cbdb42b","ios":"levelo://app?vid=fdf76a37-9f90-4a96-ae15-fc6d4cbdb42b"},"vehicle_type_id":"4","last_reported":1701382005,"current_range_meters":0,"station_id":"ce4bh0h2rcd13ifvqd60","pricing_plan_id":"free"},{"bike_id":"c5c42056-e9e3-433b-91b7-ac30da3400f8","system_id":"levelo_inurba_marseille","lat":43.284317,"lon":5.391844,"is_reserved":false,"is_disabled":false,"rental_uris":{"android":"levelo://app?vid=c5c42056-e9e3-433b-91b7-ac30da3400f8","ios":"levelo://app?vid=c5c42056-e9e3-433b-91b7-ac30da3400f8"},"vehicle_type_id":"4","last_reported":1701382005,"current_range_meters":2000,"station_id":"ce4bhoh2rcd13ifvqh5g","pricing_plan_id":"free"},{"bike_id":"ae880c30-6342-4176-95c9-ddc02b6f33d4","system_id":"levelo_inurba_marseille","lat":43.284462,"lon":5.392121,"is_reserved":false,"is_disabled":false,"rental_uris":{"android":"levelo://app?vid=ae880c30-6342-4176-95c9-ddc02b6f33d4","ios":"levelo://app?vid=ae880c30-6342-4176-95c9-ddc02b6f33d4"},"vehicle_type_id":"4","last_reported":1701382005,"current_range_meters":3600,"station_id":"ce4bhoh2rcd13ifvqh5g","pricing_plan_id":"free"},{"bike_id":"863b1e4f-b16b-412a-99d2-7e90a85f7634","system_id":"levelo_inurba_marseille","lat":43.28573,"lon":5.394992,"is_reserved":false,"is_disabled":false,"rental_uris":{"android":"levelo://app?vid=863b1e4f-b16b-412a-99d2-7e90a85f7634","ios":"levelo://app?vid=863b1e4f-b16b-412a-99d2-7e90a85f7634"},"vehicle_type_id":"4","last_reported":1701382005,"current_range_meters":23600,"station_id":"ce4bh292rcd13ifvqdg0","pricing_plan_id":"free"},{"bike_id":"a4838a3b-0be1-46ff-9c53-dd9e0e8376aa","system_id":"levelo_inurba_marseille","lat":43.28573,"lon":5.394992,"is_reserved":false,"is_disabled":false,"rental_uris":{"android":"levelo://app?vid=a4838a3b-0be1-46ff-9c53-dd9e0e8376aa","ios":"levelo://app?vid=a4838a3b-0be1-46ff-9c53-dd9e0e8376aa"},"vehicle_type_id":"4","last_reported":1701382005,"current_range_meters":28400,"station_id":"ce4bh292rcd13ifvqdg0","pricing_plan_id":"free"},{"bike_id":"7b2c4bdb-b7d1-41b6-96ba-c0290a81bfab","system_id":"levelo_inurba_marseille","lat":43.326605,"lon":5.409903,"is_reserved":false,"is_disabled":false,"rental_uris":{"android":"levelo://app?vid=7b2c4bdb-b7d1-41b6-96ba-c0290a81bfab","ios":"levelo://app?vid=7b2c4bdb-b7d1-41b6-96ba-c0290a81bfab"},"vehicle_type_id":"4","last_reported":1701382005,"current_range_meters":23600,"station_id":"ce4bhpp2rcd13ifvqhgg","pricing_plan_id":"free"},{"bike_id":"6b7ef417-6657-4c19-98d8-e150659d83c2","system_id":"levelo_inurba_marseille","lat":43.304188,"lon":5.412904,"is_reserved":false,"is_disabled":false,"rental_uris":{"android":"levelo://app?vid=6b7ef417-6657-4c19-98d8-e150659d83c2","ios":"levelo://app?vid=6b7ef417-6657-4c19-98d8-e150659d83c2"},"vehicle_type_id":"4","last_reported":1701382005,"current_range_meters":28000,"station_id":"ce4bhop2rcd13ifvqh8g","pricing_plan_id":"free"},{"bike_id":"29563029-80e9-43d8-ba83-6fe1280de5d6","system_id":"levelo_inurba_marseille","lat":43.279087,"lon":5.380114,"is_reserved":false,"is_disabled":false,"rental_uris":{"android":"levelo://app?vid=29563029-80e9-43d8-ba83-6fe1280de5d6","ios":"levelo://app?vid=29563029-80e9-43d8-ba83-6fe1280de5d6"},"vehicle_type_id":"4","last_reported":1701382005,"current_range_meters":5200,"station_id":"ce4bhf92rcd13ifvqf50","pricing_plan_id":"free"},{"bike_id":"d03a352b-8e9a-45e0-94f9-5369ac9753dc","system_id":"levelo_inurba_marseille","lat":43.279087,"lon":5.380114,"is_reserved":false,"is_disabled":false,"rental_uris":{"android":"levelo://app?vid=d03a352b-8e9a-45e0-94f9-5369ac9753dc","ios":"levelo://app?vid=d03a352b-8e9a-45e0-94f9-5369ac9753dc"},"vehicle_type_id":"4","last_reported":1701382005,"current_range_meters":26800,"station_id":"ce4bhf92rcd13ifvqf50","pricing_plan_id":"free"},{"bike_id":"fec28234-0489-4de0-be51-e04a7766ea70","system_id":"levelo_inurba_marseille","lat":43.279087,"lon":5.380114,"is_reserved":false,"is_disabled":false,"rental_uris":{"android":"levelo://app?vid=fec28234-0489-4de0-be51-e04a7766ea70","ios":"levelo://app?vid=fec28234-0489-4de0-be51-e04a7766ea70"},"vehicle_type_id":"4","last_reported":1701382005,"current_range_meters":28400,"station_id":"ce4bhf92rcd13ifvqf50","pricing_plan_id":"free"},{"bike_id":"f51bbb39-26fa-493a-8217-3371e051ae9a","system_id":"levelo_inurba_marseille","lat":43.287154,"lon":5.399979,"is_reserved":false,"is_disabled":false,"rental_uris":{"android":"levelo://app?vid=f51bbb39-26fa-493a-8217-3371e051ae9a","ios":"levelo://app?vid=f51bbb39-26fa-493a-8217-3371e051ae9a"},"vehicle_type_id":"4","last_reported":1701382005,"current_range_meters":5600,"station_id":"ce4bho92rcd13ifvqh3g","pricing_plan_id":"free"},{"bike_id":"33766e06-89ff-4522-a846-4df7c5d55494","system_id":"levelo_inurba_marseille","lat":43.287154,"lon":5.399979,"is_reserved":false,"is_disabled":false,"rental_uris":{"android":"levelo://app?vid=33766e06-89ff-4522-a846-4df7c5d55494","ios":"levelo://app?vid=33766e06-89ff-4522-a846-4df7c5d55494"},"vehicle_type_id":"4","last_reported":1701382005,"current_range_meters":21600,"station_id":"ce4bho92rcd13ifvqh3g","pricing_plan_id":"free"},{"bike_id":"21cd37de-a444-4edd-ae4b-e823ddbe6765","system_id":"levelo_inurba_marseille","lat":43.287154,"lon":5.399979,"is_reserved":false,"is_disabled":false,"rental_uris":{"android":"levelo://app?vid=21cd37de-a444-4edd-ae4b-e823ddbe6765","ios":"levelo://app?vid=21cd37de-a444-4edd-ae4b-e823ddbe6765"},"vehicle_type_id":"4","last_reported":1701382005,"current_range_meters":5200,"station_id":"ce4bho92rcd13ifvqh3g","pricing_plan_id":"free"},{"bike_id":"d60509b1-850a-4bc9-a45b-dd460cc8cc62","system_id":"levelo_inurba_marseille","lat":43.287154,"lon":5.399979,"is_reserved":false,"is_disabled":false,"rental_uris":{"android":"levelo://app?vid=d60509b1-850a-4bc9-a45b-dd460cc8cc62","ios":"levelo://app?vid=d60509b1-850a-4bc9-a45b-dd460cc8cc62"},"vehicle_type_id":"4","last_reported":1701382005,"current_range_meters":22800,"station_id":"ce4bho92rcd13ifvqh3g","pricing_plan_id":"free"},{"bike_id":"0499de58-2863-44c4-8de6-9f43162d0881","system_id":"levelo_inurba_marseille","lat":43.279643,"lon":5.387268,"is_reserved":false,"is_disabled":false,"rental_uris":{"android":"levelo://app?vid=0499de58-2863-44c4-8de6-9f43162d0881","ios":"levelo://app?vid=0499de58-2863-44c4-8de6-9f43162d0881"},"vehicle_type_id":"4","last_reported":1701382005,"current_range_meters":0,"station_id":"ce4bhg12rcd13ifvqf80","pricing_plan_id":"free"},{"bike_id":"76290dae-f1e9-4270-b5e3-e1e5d6e9bf29","system_id":"levelo_inurba_marseille","lat":43.27618,"lon":5.361009,"is_reserved":false,"is_disabled":false,"rental_uris":{"android":"levelo://app?vid=76290dae-f1e9-4270-b5e3-e1e5d6e9bf29","ios":"levelo://app?vid=76290dae-f1e9-4270-b5e3-e1e5d6e9bf29"},"vehicle_type_id":"4","last_reported":1701382005,"current_range_meters":5600,"station_id":"ce4bgj92rcd13ifvqbe0","pricing_plan_id":"free"},{"bike_id":"37ca921a-856b-4e53-8c5d-c38278e10a7a","system_id":"levelo_inurba_marseille","lat":43.292569,"lon":5.409107,"is_reserved":false,"is_disabled":false,"rental_uris":{"android":"levelo://app?vid=37ca921a-856b-4e53-8c5d-c38278e10a7a","ios":"levelo://app?vid=37ca921a-856b-4e53-8c5d-c38278e10a7a"},"vehicle_type_id":"4","last_reported":1701382005,"current_range_meters":25200,"station_id":"ce4bh192rcd13ifvqdc0","pricing_plan_id":"free"},{"bike_id":"c374a1a2-cf74-4f36-9c11-0f9b44bab749","system_id":"levelo_inurba_marseille","lat":43.28074,"lon":5.39652,"is_reserved":false,"is_disabled":false,"rental_uris":{"android":"levelo://app?vid=c374a1a2-cf74-4f36-9c11-0f9b44bab749","ios":"levelo://app?vid=c374a1a2-cf74-4f36-9c11-0f9b44bab749"},"vehicle_type_id":"4","last_reported":1701382005,"current_range_meters":16400,"station_id":"ce4bho12rcd13ifvqh2g","pricing_plan_id":"free"},{"bike_id":"90ab5f6d-4208-4ac4-b0bc-f5315bd34e74","system_id":"levelo_inurba_marseille","lat":43.273609,"lon":5.362708,"is_reserved":false,"is_disabled":false,"rental_uris":{"android":"levelo://app?vid=90ab5f6d-4208-4ac4-b0bc-f5315bd34e74","ios":"levelo://app?vid=90ab5f6d-4208-4ac4-b0bc-f5315bd34e74"},"vehicle_type_id":"4","last_reported":1701382005,"current_range_meters":28000,"station_id":"ce4bhbh2rcd13ifvqeo0","pricing_plan_id":"free"},{"bike_id":"98469c71-d590-4911-b435-a24e24c7c18f","system_id":"levelo_inurba_marseille","lat":43.33612,"lon":5.410321,"is_reserved":false,"is_disabled":false,"rental_uris":{"android":"levelo://app?vid=98469c71-d590-4911-b435-a24e24c7c18f","ios":"levelo://app?vid=98469c71-d590-4911-b435-a24e24c7c18f"},"vehicle_type_id":"4","last_reported":1701382005,"current_range_meters":26000,"station_id":"ce4bhqh2rcd13ifvqhmg","pricing_plan_id":"free"},{"bike_id":"78e090e3-e349-4d75-b3f2-4d776196d800","system_id":"levelo_inurba_marseille","lat":43.27997,"lon":5.40005,"is_reserved":false,"is_disabled":false,"rental_uris":{"android":"levelo://app?vid=78e090e3-e349-4d75-b3f2-4d776196d800","ios":"levelo://app?vid=78e090e3-e349-4d75-b3f2-4d776196d800"},"vehicle_type_id":"4","last_reported":1701382005,"current_range_meters":0,"station_id":"ce4bho92rcd13ifvqh4g","pricing_plan_id":"free"},{"bike_id":"d6cd08ef-c934-44a0-a330-510b886d15f8","system_id":"levelo_inurba_marseille","lat":43.310785,"lon":5.424305,"is_reserved":false,"is_disabled":false,"rental_uris":{"android":"levelo://app?vid=d6cd08ef-c934-44a0-a330-510b886d15f8","ios":"levelo://app?vid=d6cd08ef-c934-44a0-a330-510b886d15f8"},"vehicle_type_id":"4","last_reported":1701382005,"current_range_meters":31200,"station_id":"ce4bhp92rcd13ifvqhag","pricing_plan_id":"free"},{"bike_id":"ec437b53-12f7-4895-a5fb-94c6845381b6","system_id":"levelo_inurba_marseille","lat":43.340804,"lon":5.410219,"is_reserved":false,"is_disabled":false,"rental_uris":{"android":"levelo://app?vid=ec437b53-12f7-4895-a5fb-94c6845381b6","ios":"levelo://app?vid=ec437b53-12f7-4895-a5fb-94c6845381b6"},"vehicle_type_id":"4","last_reported":1701382005,"current_range_meters":7200,"station_id":"ce4bhqh2rcd13ifvqhlg","pricing_plan_id":"free"},{"bike_id":"f6d38aff-a5fe-4ea8-b323-a05c3a6bb4a7","system_id":"levelo_inurba_marseille","lat":43.295511,"lon":5.422926,"is_reserved":false,"is_disabled":false,"rental_uris":{"android":"levelo://app?vid=f6d38aff-a5fe-4ea8-b323-a05c3a6bb4a7","ios":"levelo://app?vid=f6d38aff-a5fe-4ea8-b323-a05c3a6bb4a7"},"vehicle_type_id":"4","last_reported":1701382005,"current_range_meters":29600,"station_id":"ce4bhph2rcd13ifvqhdg","pricing_plan_id":"free"},{"bike_id":"ac30eb29-0c57-44c0-8e57-5eec2d829f17","system_id":"levelo_inurba_marseille","lat":43.278128,"lon":5.407195,"is_reserved":false,"is_disabled":false,"rental_uris":{"android":"levelo://app?vid=ac30eb29-0c57-44c0-8e57-5eec2d829f17","ios":"levelo://app?vid=ac30eb29-0c57-44c0-8e57-5eec2d829f17"},"vehicle_type_id":"4","last_reported":1701382005,"current_range_meters":23600,"station_id":"ce4bhnh2rcd13ifvqgtg","pricing_plan_id":"free"},{"bike_id":"5813aad2-6a48-4ba9-bbab-7e06ef73b62c","system_id":"levelo_inurba_marseille","lat":43.278128,"lon":5.407195,"is_reserved":false,"is_disabled":false,"rental_uris":{"android":"levelo://app?vid=5813aad2-6a48-4ba9-bbab-7e06ef73b62c","ios":"levelo://app?vid=5813aad2-6a48-4ba9-bbab-7e06ef73b62c"},"vehicle_type_id":"4","last_reported":1701382005,"current_range_meters":15200,"station_id":"ce4bhnh2rcd13ifvqgtg","pricing_plan_id":"free"},{"bike_id":"b05919f8-5525-46e8-b458-b9805bc57469","system_id":"levelo_inurba_marseille","lat":43.27945,"lon":5.41037,"is_reserved":false,"is_disabled":false,"rental_uris":{"android":"levelo://app?vid=b05919f8-5525-46e8-b458-b9805bc57469","ios":"levelo://app?vid=b05919f8-5525-46e8-b458-b9805bc57469"},"vehicle_type_id":"4","last_reported":1701382005,"current_range_meters":7200,"station_id":"ce4bhnp2rcd13ifvqh0g","pricing_plan_id":"free"},{"bike_id":"6117561f-b6fb-4a53-9327-ccc8588f0ea2","system_id":"levelo_inurba_marseille","lat":43.27944,"lon":5.41051,"is_reserved":false,"is_disabled":false,"rental_uris":{"android":"levelo://app?vid=6117561f-b6fb-4a53-9327-ccc8588f0ea2","ios":"levelo://app?vid=6117561f-b6fb-4a53-9327-ccc8588f0ea2"},"vehicle_type_id":"4","last_reported":1701382005,"current_range_meters":22800,"station_id":"ce4bhnp2rcd13ifvqh0g","pricing_plan_id":"free"},{"bike_id":"328d21c0-a0b1-4982-9d62-2cd26c6ce009","system_id":"levelo_inurba_marseille","lat":43.2656,"lon":5.37291,"is_reserved":false,"is_disabled":false,"rental_uris":{"android":"levelo://app?vid=328d21c0-a0b1-4982-9d62-2cd26c6ce009","ios":"levelo://app?vid=328d21c0-a0b1-4982-9d62-2cd26c6ce009"},"vehicle_type_id":"4","last_reported":1701382005,"current_range_meters":0,"station_id":"ce4bhg12rcd13ifvqf70","pricing_plan_id":"free"},{"bike_id":"c2b27acb-0e0a-48d2-8438-13e657c0153d","system_id":"levelo_inurba_marseille","lat":43.27545,"lon":5.40909,"is_reserved":false,"is_disabled":false,"rental_uris":{"android":"levelo://app?vid=c2b27acb-0e0a-48d2-8438-13e657c0153d","ios":"levelo://app?vid=c2b27acb-0e0a-48d2-8438-13e657c0153d"},"vehicle_type_id":"4","last_reported":1701382005,"current_range_meters":0,"station_id":"","pricing_plan_id":"free"},{"bike_id":"aa01e258-1091-43d5-8b89-fd25fa8df4dc","system_id":"levelo_inurba_marseille","lat":43.275388,"lon":5.409055,"is_reserved":false,"is_disabled":false,"rental_uris":{"android":"levelo://app?vid=aa01e258-1091-43d5-8b89-fd25fa8df4dc","ios":"levelo://app?vid=aa01e258-1091-43d5-8b89-fd25fa8df4dc"},"vehicle_type_id":"4","last_reported":1701382005,"current_range_meters":0,"station_id":"","pricing_plan_id":"free"},{"bike_id":"22ee340c-bd9a-40e4-b269-c11f5d5d2216","system_id":"levelo_inurba_marseille","lat":43.27996,"lon":5.416624,"is_reserved":false,"is_disabled":false,"rental_uris":{"android":"levelo://app?vid=22ee340c-bd9a-40e4-b269-c11f5d5d2216","ios":"levelo://app?vid=22ee340c-bd9a-40e4-b269-c11f5d5d2216"},"vehicle_type_id":"4","last_reported":1701382005,"current_range_meters":25200,"station_id":"ce4bho12rcd13ifvqh1g","pricing_plan_id":"free"},{"bike_id":"2a595ed3-532e-459c-93d4-255be74e8c44","system_id":"levelo_inurba_marseille","lat":43.27996,"lon":5.416624,"is_reserved":false,"is_disabled":false,"rental_uris":{"android":"levelo://app?vid=2a595ed3-532e-459c-93d4-255be74e8c44","ios":"levelo://app?vid=2a595ed3-532e-459c-93d4-255be74e8c44"},"vehicle_type_id":"4","last_reported":1701382005,"current_range_meters":14000,"station_id":"ce4bho12rcd13ifvqh1g","pricing_plan_id":"free"},{"bike_id":"cf0c3df9-4e41-4907-b5be-38fa5b6d9c92","system_id":"levelo_inurba_marseille","lat":43.279978,"lon":5.416696,"is_reserved":false,"is_disabled":false,"rental_uris":{"android":"levelo://app?vid=cf0c3df9-4e41-4907-b5be-38fa5b6d9c92","ios":"levelo://app?vid=cf0c3df9-4e41-4907-b5be-38fa5b6d9c92"},"vehicle_type_id":"4","last_reported":1701382005,"current_range_meters":21600,"station_id":"","pricing_plan_id":"free"},{"bike_id":"15f9d067-797e-4c09-86bb-e3859d8b3fd3","system_id":"levelo_inurba_marseille","lat":43.27996,"lon":5.416624,"is_reserved":false,"is_disabled":false,"rental_uris":{"android":"levelo://app?vid=15f9d067-797e-4c09-86bb-e3859d8b3fd3","ios":"levelo://app?vid=15f9d067-797e-4c09-86bb-e3859d8b3fd3"},"vehicle_type_id":"4","last_reported":1701382005,"current_range_meters":25200,"station_id":"ce4bho12rcd13ifvqh1g","pricing_plan_id":"free"},{"bike_id":"3a9e3de9-989d-49ef-baaf-f60698970372","system_id":"levelo_inurba_marseille","lat":43.279942,"lon":5.416662,"is_reserved":false,"is_disabled":false,"rental_uris":{"android":"levelo://app?vid=3a9e3de9-989d-49ef-baaf-f60698970372","ios":"levelo://app?vid=3a9e3de9-989d-49ef-baaf-f60698970372"},"vehicle_type_id":"4","last_reported":1701382005,"current_range_meters":25200,"station_id":"ce4bho12rcd13ifvqh1g","pricing_plan_id":"free"},{"bike_id":"160e183f-6a07-4a6e-936b-a51ca96c16bf","system_id":"levelo_inurba_marseille","lat":43.279918,"lon":5.416642,"is_reserved":false,"is_disabled":false,"rental_uris":{"android":"levelo://app?vid=160e183f-6a07-4a6e-936b-a51ca96c16bf","ios":"levelo://app?vid=160e183f-6a07-4a6e-936b-a51ca96c16bf"},"vehicle_type_id":"4","last_reported":1701382005,"current_range_meters":25200,"station_id":"ce4bho12rcd13ifvqh1g","pricing_plan_id":"free"},{"bike_id":"577a75b4-3dc3-4fd2-8d74-fdb209bce3cf","system_id":"levelo_inurba_marseille","lat":43.27991,"lon":5.416641,"is_reserved":false,"is_disabled":false,"rental_uris":{"android":"levelo://app?vid=577a75b4-3dc3-4fd2-8d74-fdb209bce3cf","ios":"levelo://app?vid=577a75b4-3dc3-4fd2-8d74-fdb209bce3cf"},"vehicle_type_id":"4","last_reported":1701382005,"current_range_meters":25200,"station_id":"","pricing_plan_id":"free"},{"bike_id":"c7f81e7f-054f-4e2f-82ee-e605f4015608","system_id":"levelo_inurba_marseille","lat":43.279947,"lon":5.416692,"is_reserved":false,"is_disabled":false,"rental_uris":{"android":"levelo://app?vid=c7f81e7f-054f-4e2f-82ee-e605f4015608","ios":"levelo://app?vid=c7f81e7f-054f-4e2f-82ee-e605f4015608"},"vehicle_type_id":"4","last_reported":1701382005,"current_range_meters":25200,"station_id":"","pricing_plan_id":"free"},{"bike_id":"11d579cd-d95c-4f27-b1d9-b6ec1b617449","system_id":"levelo_inurba_marseille","lat":43.279909,"lon":5.416648,"is_reserved":false,"is_disabled":false,"rental_uris":{"android":"levelo://app?vid=11d579cd-d95c-4f27-b1d9-b6ec1b617449","ios":"levelo://app?vid=11d579cd-d95c-4f27-b1d9-b6ec1b617449"},"vehicle_type_id":"4","last_reported":1701382005,"current_range_meters":25200,"station_id":"","pricing_plan_id":"free"},{"bike_id":"9aa6a01b-7a87-4263-87de-1b8d44f3a155","system_id":"levelo_inurba_marseille","lat":43.279925,"lon":5.416683,"is_reserved":false,"is_disabled":false,"rental_uris":{"android":"levelo://app?vid=9aa6a01b-7a87-4263-87de-1b8d44f3a155","ios":"levelo://app?vid=9aa6a01b-7a87-4263-87de-1b8d44f3a155"},"vehicle_type_id":"4","last_reported":1701382005,"current_range_meters":25200,"station_id":"","pricing_plan_id":"free"},{"bike_id":"8e8d349d-09ef-483a-8322-0fd5fbd7b38e","system_id":"levelo_inurba_marseille","lat":43.308051,"lon":5.43527,"is_reserved":false,"is_disabled":false,"rental_uris":{"android":"levelo://app?vid=8e8d349d-09ef-483a-8322-0fd5fbd7b38e","ios":"levelo://app?vid=8e8d349d-09ef-483a-8322-0fd5fbd7b38e"},"vehicle_type_id":"4","last_reported":1701382005,"current_range_meters":30400,"station_id":"ce4bhph2rcd13ifvqheg","pricing_plan_id":"free"},{"bike_id":"7ab63241-0bea-4919-80fc-6d8eef69395f","system_id":"levelo_inurba_marseille","lat":43.308051,"lon":5.43527,"is_reserved":false,"is_disabled":false,"rental_uris":{"android":"levelo://app?vid=7ab63241-0bea-4919-80fc-6d8eef69395f","ios":"levelo://app?vid=7ab63241-0bea-4919-80fc-6d8eef69395f"},"vehicle_type_id":"4","last_reported":1701382005,"current_range_meters":31200,"station_id":"ce4bhph2rcd13ifvqheg","pricing_plan_id":"free"},{"bike_id":"6d50931a-5553-495d-be31-bbcf7bdad9de","system_id":"levelo_inurba_marseille","lat":43.317104,"lon":5.436818,"is_reserved":false,"is_disabled":false,"rental_uris":{"android":"levelo://app?vid=6d50931a-5553-495d-be31-bbcf7bdad9de","ios":"levelo://app?vid=6d50931a-5553-495d-be31-bbcf7bdad9de"},"vehicle_type_id":"4","last_reported":1701382005,"current_range_meters":31200,"station_id":"ce4bhp92rcd13ifvqhcg","pricing_plan_id":"free"},{"bike_id":"44d51874-045e-4906-a2f9-909193d67e63","system_id":"levelo_inurba_marseille","lat":43.317104,"lon":5.436818,"is_reserved":false,"is_disabled":false,"rental_uris":{"android":"levelo://app?vid=44d51874-045e-4906-a2f9-909193d67e63","ios":"levelo://app?vid=44d51874-045e-4906-a2f9-909193d67e63"},"vehicle_type_id":"4","last_reported":1701382005,"current_range_meters":27600,"station_id":"ce4bhp92rcd13ifvqhcg","pricing_plan_id":"free"},{"bike_id":"7fe6820a-06e6-42d8-9e38-8e0428267591","system_id":"levelo_inurba_marseille","lat":43.317104,"lon":5.436818,"is_reserved":false,"is_disabled":false,"rental_uris":{"android":"levelo://app?vid=7fe6820a-06e6-42d8-9e38-8e0428267591","ios":"levelo://app?vid=7fe6820a-06e6-42d8-9e38-8e0428267591"},"vehicle_type_id":"4","last_reported":1701382005,"current_range_meters":28000,"station_id":"ce4bhp92rcd13ifvqhcg","pricing_plan_id":"free"},{"bike_id":"e24ba52a-2028-45be-9d72-9ab56dfb1f86","system_id":"levelo_inurba_marseille","lat":43.27194,"lon":5.41011,"is_reserved":false,"is_disabled":false,"rental_uris":{"android":"levelo://app?vid=e24ba52a-2028-45be-9d72-9ab56dfb1f86","ios":"levelo://app?vid=e24ba52a-2028-45be-9d72-9ab56dfb1f86"},"vehicle_type_id":"4","last_reported":1701382005,"current_range_meters":22000,"station_id":"ce4bhl12rcd13ifvqgf0","pricing_plan_id":"free"},{"bike_id":"3094bdfb-ad05-41e3-914e-8a8b6804a207","system_id":"levelo_inurba_marseille","lat":43.271368,"lon":5.40928,"is_reserved":false,"is_disabled":false,"rental_uris":{"android":"levelo://app?vid=3094bdfb-ad05-41e3-914e-8a8b6804a207","ios":"levelo://app?vid=3094bdfb-ad05-41e3-914e-8a8b6804a207"},"vehicle_type_id":"4","last_reported":1701382005,"current_range_meters":28400,"station_id":"ce4bhl12rcd13ifvqgf0","pricing_plan_id":"free"},{"bike_id":"7273224c-d24c-46bb-960b-6a215f54e2fc","system_id":"levelo_inurba_marseille","lat":43.271388,"lon":5.409269,"is_reserved":false,"is_disabled":false,"rental_uris":{"android":"levelo://app?vid=7273224c-d24c-46bb-960b-6a215f54e2fc","ios":"levelo://app?vid=7273224c-d24c-46bb-960b-6a215f54e2fc"},"vehicle_type_id":"4","last_reported":1701382005,"current_range_meters":31200,"station_id":"ce4bhl12rcd13ifvqgf0","pricing_plan_id":"free"},{"bike_id":"10c539a4-a499-4586-9718-9fd3d3f6ea17","system_id":"levelo_inurba_marseille","lat":43.262012,"lon":5.379307,"is_reserved":false,"is_disabled":false,"rental_uris":{"android":"levelo://app?vid=10c539a4-a499-4586-9718-9fd3d3f6ea17","ios":"levelo://app?vid=10c539a4-a499-4586-9718-9fd3d3f6ea17"},"vehicle_type_id":"4","last_reported":1701382005,"current_range_meters":28800,"station_id":"ce4bhjp2rcd13ifvqg90","pricing_plan_id":"free"},{"bike_id":"0a29c509-2d8f-49a8-a773-e3a165462f60","system_id":"levelo_inurba_marseille","lat":43.271388,"lon":5.409269,"is_reserved":false,"is_disabled":false,"rental_uris":{"android":"levelo://app?vid=0a29c509-2d8f-49a8-a773-e3a165462f60","ios":"levelo://app?vid=0a29c509-2d8f-49a8-a773-e3a165462f60"},"vehicle_type_id":"4","last_reported":1701382005,"current_range_meters":3200,"station_id":"ce4bhl12rcd13ifvqgf0","pricing_plan_id":"free"},{"bike_id":"75f2ae6b-703a-490e-b6ba-da3e9e6bb305","system_id":"levelo_inurba_marseille","lat":43.27176,"lon":5.40994,"is_reserved":false,"is_disabled":false,"rental_uris":{"android":"levelo://app?vid=75f2ae6b-703a-490e-b6ba-da3e9e6bb305","ios":"levelo://app?vid=75f2ae6b-703a-490e-b6ba-da3e9e6bb305"},"vehicle_type_id":"4","last_reported":1701382005,"current_range_meters":20000,"station_id":"ce4bhl12rcd13ifvqgf0","pricing_plan_id":"free"},{"bike_id":"8ca0c6ca-a7ce-4aa5-b688-877a71635599","system_id":"levelo_inurba_marseille","lat":43.267959,"lon":5.402685,"is_reserved":false,"is_disabled":false,"rental_uris":{"android":"levelo://app?vid=8ca0c6ca-a7ce-4aa5-b688-877a71635599","ios":"levelo://app?vid=8ca0c6ca-a7ce-4aa5-b688-877a71635599"},"vehicle_type_id":"4","last_reported":1701382005,"current_range_meters":0,"station_id":"ce501612rcd8frsf0b60","pricing_plan_id":"free"},{"bike_id":"4e3d13ae-3f43-4865-af20-3ed4394d391d","system_id":"levelo_inurba_marseille","lat":43.298768,"lon":5.43643,"is_reserved":false,"is_disabled":false,"rental_uris":{"android":"levelo://app?vid=4e3d13ae-3f43-4865-af20-3ed4394d391d","ios":"levelo://app?vid=4e3d13ae-3f43-4865-af20-3ed4394d391d"},"vehicle_type_id":"4","last_reported":1701382005,"current_range_meters":28000,"station_id":"ce4bhpp2rcd13ifvqhfg","pricing_plan_id":"free"},{"bike_id":"dbf57abf-b714-4688-8443-1b95bb0ea3d8","system_id":"levelo_inurba_marseille","lat":43.281548,"lon":5.42643,"is_reserved":false,"is_disabled":false,"rental_uris":{"android":"levelo://app?vid=dbf57abf-b714-4688-8443-1b95bb0ea3d8","ios":"levelo://app?vid=dbf57abf-b714-4688-8443-1b95bb0ea3d8"},"vehicle_type_id":"4","last_reported":1701382005,"current_range_meters":2800,"station_id":"ce4bhnh2rcd13ifvqgug","pricing_plan_id":"free"},{"bike_id":"08ee9831-e27a-4de6-b434-68bc147048ef","system_id":"levelo_inurba_marseille","lat":43.281548,"lon":5.42643,"is_reserved":false,"is_disabled":false,"rental_uris":{"android":"levelo://app?vid=08ee9831-e27a-4de6-b434-68bc147048ef","ios":"levelo://app?vid=08ee9831-e27a-4de6-b434-68bc147048ef"},"vehicle_type_id":"4","last_reported":1701382005,"current_range_meters":14000,"station_id":"ce4bhnh2rcd13ifvqgug","pricing_plan_id":"free"},{"bike_id":"3f2b1989-5b73-4cd5-aa40-2053eed33222","system_id":"levelo_inurba_marseille","lat":43.281548,"lon":5.42643,"is_reserved":false,"is_disabled":false,"rental_uris":{"android":"levelo://app?vid=3f2b1989-5b73-4cd5-aa40-2053eed33222","ios":"levelo://app?vid=3f2b1989-5b73-4cd5-aa40-2053eed33222"},"vehicle_type_id":"4","last_reported":1701382005,"current_range_meters":9200,"station_id":"ce4bhnh2rcd13ifvqgug","pricing_plan_id":"free"},{"bike_id":"3532a786-7312-4db1-88be-2e5e8a274941","system_id":"levelo_inurba_marseille","lat":43.281548,"lon":5.42643,"is_reserved":false,"is_disabled":false,"rental_uris":{"android":"levelo://app?vid=3532a786-7312-4db1-88be-2e5e8a274941","ios":"levelo://app?vid=3532a786-7312-4db1-88be-2e5e8a274941"},"vehicle_type_id":"4","last_reported":1701382005,"current_range_meters":17600,"station_id":"ce4bhnh2rcd13ifvqgug","pricing_plan_id":"free"},{"bike_id":"3e4fb47e-33e8-4ee2-bfc1-1bd948cfa529","system_id":"levelo_inurba_marseille","lat":43.281548,"lon":5.42643,"is_reserved":false,"is_disabled":false,"rental_uris":{"android":"levelo://app?vid=3e4fb47e-33e8-4ee2-bfc1-1bd948cfa529","ios":"levelo://app?vid=3e4fb47e-33e8-4ee2-bfc1-1bd948cfa529"},"vehicle_type_id":"4","last_reported":1701382005,"current_range_meters":31200,"station_id":"ce4bhnh2rcd13ifvqgug","pricing_plan_id":"free"},{"bike_id":"c3be5e57-b7df-4b6f-84f6-e0b7439e5774","system_id":"levelo_inurba_marseille","lat":43.27497,"lon":5.42437,"is_reserved":false,"is_disabled":false,"rental_uris":{"android":"levelo://app?vid=c3be5e57-b7df-4b6f-84f6-e0b7439e5774","ios":"levelo://app?vid=c3be5e57-b7df-4b6f-84f6-e0b7439e5774"},"vehicle_type_id":"4","last_reported":1701382005,"current_range_meters":29600,"station_id":"ce4bhn92rcd13ifvqgrg","pricing_plan_id":"free"},{"bike_id":"2439b834-5f68-4270-bc56-f53ff23adca1","system_id":"levelo_inurba_marseille","lat":43.27493,"lon":5.42437,"is_reserved":false,"is_disabled":false,"rental_uris":{"android":"levelo://app?vid=2439b834-5f68-4270-bc56-f53ff23adca1","ios":"levelo://app?vid=2439b834-5f68-4270-bc56-f53ff23adca1"},"vehicle_type_id":"4","last_reported":1701382005,"current_range_meters":20000,"station_id":"ce4bhn92rcd13ifvqgrg","pricing_plan_id":"free"},{"bike_id":"e81a91c7-d391-46fd-b9dd-02d40900cd35","system_id":"levelo_inurba_marseille","lat":43.255756,"lon":5.382303,"is_reserved":false,"is_disabled":false,"rental_uris":{"android":"levelo://app?vid=e81a91c7-d391-46fd-b9dd-02d40900cd35","ios":"levelo://app?vid=e81a91c7-d391-46fd-b9dd-02d40900cd35"},"vehicle_type_id":"4","last_reported":1701382005,"current_range_meters":1200,"station_id":"ce4bhih2rcd13ifvqfs0","pricing_plan_id":"free"},{"bike_id":"16a23900-1815-4b0c-9850-3e56a27f11d8","system_id":"levelo_inurba_marseille","lat":43.258224,"lon":5.394369,"is_reserved":false,"is_disabled":false,"rental_uris":{"android":"levelo://app?vid=16a23900-1815-4b0c-9850-3e56a27f11d8","ios":"levelo://app?vid=16a23900-1815-4b0c-9850-3e56a27f11d8"},"vehicle_type_id":"4","last_reported":1701382005,"current_range_meters":6000,"station_id":"ce4bhip2rcd13ifvqft0","pricing_plan_id":"free"},{"bike_id":"eb20d90d-f2bd-40fc-bb27-7b3a19cfce86","system_id":"levelo_inurba_marseille","lat":43.254947,"lon":5.376454,"is_reserved":false,"is_disabled":false,"rental_uris":{"android":"levelo://app?vid=eb20d90d-f2bd-40fc-bb27-7b3a19cfce86","ios":"levelo://app?vid=eb20d90d-f2bd-40fc-bb27-7b3a19cfce86"},"vehicle_type_id":"4","last_reported":1701382005,"current_range_meters":10400,"station_id":"ce4bhh12rcd13ifvqff0","pricing_plan_id":"free"},{"bike_id":"f8dc2911-8d05-4d2e-a014-1e8cbe0ea255","system_id":"levelo_inurba_marseille","lat":43.254947,"lon":5.376454,"is_reserved":false,"is_disabled":false,"rental_uris":{"android":"levelo://app?vid=f8dc2911-8d05-4d2e-a014-1e8cbe0ea255","ios":"levelo://app?vid=f8dc2911-8d05-4d2e-a014-1e8cbe0ea255"},"vehicle_type_id":"4","last_reported":1701382005,"current_range_meters":17200,"station_id":"ce4bhh12rcd13ifvqff0","pricing_plan_id":"free"},{"bike_id":"2c794cda-e1ba-4030-acff-649085b058d6","system_id":"levelo_inurba_marseille","lat":43.270721,"lon":5.422764,"is_reserved":false,"is_disabled":false,"rental_uris":{"android":"levelo://app?vid=2c794cda-e1ba-4030-acff-649085b058d6","ios":"levelo://app?vid=2c794cda-e1ba-4030-acff-649085b058d6"},"vehicle_type_id":"4","last_reported":1701382005,"current_range_meters":21600,"station_id":"ce4bhk92rcd13ifvqgb0","pricing_plan_id":"free"},{"bike_id":"c31d6f97-d623-4262-9b94-0580c155f5d1","system_id":"levelo_inurba_marseille","lat":43.27067,"lon":5.42273,"is_reserved":false,"is_disabled":false,"rental_uris":{"android":"levelo://app?vid=c31d6f97-d623-4262-9b94-0580c155f5d1","ios":"levelo://app?vid=c31d6f97-d623-4262-9b94-0580c155f5d1"},"vehicle_type_id":"4","last_reported":1701382005,"current_range_meters":10000,"station_id":"ce4bhk92rcd13ifvqgb0","pricing_plan_id":"free"},{"bike_id":"fac0e422-c37f-421d-8e1b-a25ffb37ce17","system_id":"levelo_inurba_marseille","lat":43.270721,"lon":5.422764,"is_reserved":false,"is_disabled":false,"rental_uris":{"android":"levelo://app?vid=fac0e422-c37f-421d-8e1b-a25ffb37ce17","ios":"levelo://app?vid=fac0e422-c37f-421d-8e1b-a25ffb37ce17"},"vehicle_type_id":"4","last_reported":1701382005,"current_range_meters":28800,"station_id":"ce4bhk92rcd13ifvqgb0","pricing_plan_id":"free"},{"bike_id":"39a41fc6-fb12-4304-b9bd-c12fd73ba948","system_id":"levelo_inurba_marseille","lat":43.270721,"lon":5.422764,"is_reserved":false,"is_disabled":false,"rental_uris":{"android":"levelo://app?vid=39a41fc6-fb12-4304-b9bd-c12fd73ba948","ios":"levelo://app?vid=39a41fc6-fb12-4304-b9bd-c12fd73ba948"},"vehicle_type_id":"4","last_reported":1701382005,"current_range_meters":31200,"station_id":"ce4bhk92rcd13ifvqgb0","pricing_plan_id":"free"},{"bike_id":"d28c2101-138c-4829-a4d2-de1aa91912ed","system_id":"levelo_inurba_marseille","lat":43.270721,"lon":5.422764,"is_reserved":false,"is_disabled":false,"rental_uris":{"android":"levelo://app?vid=d28c2101-138c-4829-a4d2-de1aa91912ed","ios":"levelo://app?vid=d28c2101-138c-4829-a4d2-de1aa91912ed"},"vehicle_type_id":"4","last_reported":1701382005,"current_range_meters":12400,"station_id":"ce4bhk92rcd13ifvqgb0","pricing_plan_id":"free"},{"bike_id":"347b382a-d10a-4145-a686-9bd5d19bc50c","system_id":"levelo_inurba_marseille","lat":43.258658,"lon":5.398935,"is_reserved":false,"is_disabled":false,"rental_uris":{"android":"levelo://app?vid=347b382a-d10a-4145-a686-9bd5d19bc50c","ios":"levelo://app?vid=347b382a-d10a-4145-a686-9bd5d19bc50c"},"vehicle_type_id":"4","last_reported":1701382005,"current_range_meters":26400,"station_id":"ce4bhl92rcd13ifvqghg","pricing_plan_id":"free"},{"bike_id":"cb0999ac-8ab2-44a1-8dbe-18c580402568","system_id":"levelo_inurba_marseille","lat":43.258658,"lon":5.398935,"is_reserved":false,"is_disabled":false,"rental_uris":{"android":"levelo://app?vid=cb0999ac-8ab2-44a1-8dbe-18c580402568","ios":"levelo://app?vid=cb0999ac-8ab2-44a1-8dbe-18c580402568"},"vehicle_type_id":"4","last_reported":1701382005,"current_range_meters":31200,"station_id":"ce4bhl92rcd13ifvqghg","pricing_plan_id":"free"},{"bike_id":"9a98f69b-0661-4a9f-a960-364046df64c8","system_id":"levelo_inurba_marseille","lat":43.258658,"lon":5.398935,"is_reserved":false,"is_disabled":false,"rental_uris":{"android":"levelo://app?vid=9a98f69b-0661-4a9f-a960-364046df64c8","ios":"levelo://app?vid=9a98f69b-0661-4a9f-a960-364046df64c8"},"vehicle_type_id":"4","last_reported":1701382005,"current_range_meters":31200,"station_id":"ce4bhl92rcd13ifvqghg","pricing_plan_id":"free"},{"bike_id":"2803d510-c937-4d3e-8827-ebf9df44d558","system_id":"levelo_inurba_marseille","lat":43.257079,"lon":5.411051,"is_reserved":false,"is_disabled":false,"rental_uris":{"android":"levelo://app?vid=2803d510-c937-4d3e-8827-ebf9df44d558","ios":"levelo://app?vid=2803d510-c937-4d3e-8827-ebf9df44d558"},"vehicle_type_id":"4","last_reported":1701382005,"current_range_meters":30800,"station_id":"ce4bhkp2rcd13ifvqgd0","pricing_plan_id":"free"},{"bike_id":"f345f034-33dc-4dad-aa5b-253e1b17ca25","system_id":"levelo_inurba_marseille","lat":43.250009,"lon":5.389195,"is_reserved":false,"is_disabled":false,"rental_uris":{"android":"levelo://app?vid=f345f034-33dc-4dad-aa5b-253e1b17ca25","ios":"levelo://app?vid=f345f034-33dc-4dad-aa5b-253e1b17ca25"},"vehicle_type_id":"4","last_reported":1701382005,"current_range_meters":30400,"station_id":"ce4bhgp2rcd13ifvqfd0","pricing_plan_id":"free"},{"bike_id":"c623af1c-6e67-43af-a253-e9ce06d48351","system_id":"levelo_inurba_marseille","lat":43.250009,"lon":5.389195,"is_reserved":false,"is_disabled":false,"rental_uris":{"android":"levelo://app?vid=c623af1c-6e67-43af-a253-e9ce06d48351","ios":"levelo://app?vid=c623af1c-6e67-43af-a253-e9ce06d48351"},"vehicle_type_id":"4","last_reported":1701382005,"current_range_meters":29200,"station_id":"ce4bhgp2rcd13ifvqfd0","pricing_plan_id":"free"},{"bike_id":"ce92fad5-db92-45e2-9fd5-07b92c8faaa1","system_id":"levelo_inurba_marseille","lat":43.250009,"lon":5.389195,"is_reserved":false,"is_disabled":false,"rental_uris":{"android":"levelo://app?vid=ce92fad5-db92-45e2-9fd5-07b92c8faaa1","ios":"levelo://app?vid=ce92fad5-db92-45e2-9fd5-07b92c8faaa1"},"vehicle_type_id":"4","last_reported":1701382005,"current_range_meters":30000,"station_id":"ce4bhgp2rcd13ifvqfd0","pricing_plan_id":"free"},{"bike_id":"612fb0a3-b5b7-4efa-868e-ea52d61d5408","system_id":"levelo_inurba_marseille","lat":43.24808,"lon":5.37454,"is_reserved":false,"is_disabled":false,"rental_uris":{"android":"levelo://app?vid=612fb0a3-b5b7-4efa-868e-ea52d61d5408","ios":"levelo://app?vid=612fb0a3-b5b7-4efa-868e-ea52d61d5408"},"vehicle_type_id":"4","last_reported":1701382005,"current_range_meters":20800,"station_id":"ce4bhgh2rcd13ifvqfb0","pricing_plan_id":"free"},{"bike_id":"a9da35ff-0406-49b8-9fdd-79df124c9328","system_id":"levelo_inurba_marseille","lat":43.2479,"lon":5.374457,"is_reserved":false,"is_disabled":false,"rental_uris":{"android":"levelo://app?vid=a9da35ff-0406-49b8-9fdd-79df124c9328","ios":"levelo://app?vid=a9da35ff-0406-49b8-9fdd-79df124c9328"},"vehicle_type_id":"4","last_reported":1701382005,"current_range_meters":10800,"station_id":"ce4bhgh2rcd13ifvqfb0","pricing_plan_id":"free"},{"bike_id":"3df300e6-5df1-4893-813b-d13f082ca465","system_id":"levelo_inurba_marseille","lat":43.2479,"lon":5.374457,"is_reserved":false,"is_disabled":false,"rental_uris":{"android":"levelo://app?vid=3df300e6-5df1-4893-813b-d13f082ca465","ios":"levelo://app?vid=3df300e6-5df1-4893-813b-d13f082ca465"},"vehicle_type_id":"4","last_reported":1701382005,"current_range_meters":27600,"station_id":"ce4bhgh2rcd13ifvqfb0","pricing_plan_id":"free"},{"bike_id":"60f88e46-114c-4d3b-b131-727ccd001a36","system_id":"levelo_inurba_marseille","lat":43.250966,"lon":5.395186,"is_reserved":false,"is_disabled":false,"rental_uris":{"android":"levelo://app?vid=60f88e46-114c-4d3b-b131-727ccd001a36","ios":"levelo://app?vid=60f88e46-114c-4d3b-b131-727ccd001a36"},"vehicle_type_id":"4","last_reported":1701382005,"current_range_meters":16400,"station_id":"ce4bhm12rcd13ifvqgkg","pricing_plan_id":"free"},{"bike_id":"e579f380-e6f0-430a-9715-3331fd3030fe","system_id":"levelo_inurba_marseille","lat":43.2479,"lon":5.374457,"is_reserved":false,"is_disabled":false,"rental_uris":{"android":"levelo://app?vid=e579f380-e6f0-430a-9715-3331fd3030fe","ios":"levelo://app?vid=e579f380-e6f0-430a-9715-3331fd3030fe"},"vehicle_type_id":"4","last_reported":1701382005,"current_range_meters":31600,"station_id":"ce4bhgh2rcd13ifvqfb0","pricing_plan_id":"free"},{"bike_id":"db6dd1e0-85ec-46e8-8d65-044233dc4acf","system_id":"levelo_inurba_marseille","lat":43.281161,"lon":5.445926,"is_reserved":false,"is_disabled":false,"rental_uris":{"android":"levelo://app?vid=db6dd1e0-85ec-46e8-8d65-044233dc4acf","ios":"levelo://app?vid=db6dd1e0-85ec-46e8-8d65-044233dc4acf"},"vehicle_type_id":"4","last_reported":1701382005,"current_range_meters":12400,"station_id":"","pricing_plan_id":"free"},{"bike_id":"c2a210d2-c2e5-441f-a1fb-c94c9bcd5684","system_id":"levelo_inurba_marseille","lat":43.24693,"lon":5.382096,"is_reserved":false,"is_disabled":false,"rental_uris":{"android":"levelo://app?vid=c2a210d2-c2e5-441f-a1fb-c94c9bcd5684","ios":"levelo://app?vid=c2a210d2-c2e5-441f-a1fb-c94c9bcd5684"},"vehicle_type_id":"4","last_reported":1701382005,"current_range_meters":21200,"station_id":"ce4bhih2rcd13ifvqfr0","pricing_plan_id":"free"},{"bike_id":"5a843d46-e3a2-48e0-9de2-5fbbf1bcf0f4","system_id":"levelo_inurba_marseille","lat":43.24693,"lon":5.382096,"is_reserved":false,"is_disabled":false,"rental_uris":{"android":"levelo://app?vid=5a843d46-e3a2-48e0-9de2-5fbbf1bcf0f4","ios":"levelo://app?vid=5a843d46-e3a2-48e0-9de2-5fbbf1bcf0f4"},"vehicle_type_id":"4","last_reported":1701382005,"current_range_meters":0,"station_id":"ce4bhih2rcd13ifvqfr0","pricing_plan_id":"free"},{"bike_id":"d751e4ae-608d-48da-8a14-c2e0d4fc296a","system_id":"levelo_inurba_marseille","lat":43.24693,"lon":5.382096,"is_reserved":false,"is_disabled":false,"rental_uris":{"android":"levelo://app?vid=d751e4ae-608d-48da-8a14-c2e0d4fc296a","ios":"levelo://app?vid=d751e4ae-608d-48da-8a14-c2e0d4fc296a"},"vehicle_type_id":"4","last_reported":1701382005,"current_range_meters":14800,"station_id":"ce4bhih2rcd13ifvqfr0","pricing_plan_id":"free"},{"bike_id":"60eab7a9-5dac-4b2e-9472-4507afb5bf34","system_id":"levelo_inurba_marseille","lat":43.25113,"lon":5.40321,"is_reserved":false,"is_disabled":false,"rental_uris":{"android":"levelo://app?vid=60eab7a9-5dac-4b2e-9472-4507afb5bf34","ios":"levelo://app?vid=60eab7a9-5dac-4b2e-9472-4507afb5bf34"},"vehicle_type_id":"4","last_reported":1701382005,"current_range_meters":1200,"station_id":"ce4bhlh2rcd13ifvqgig","pricing_plan_id":"free"},{"bike_id":"11e58ca0-2a69-4a5d-9e0a-289cde6a1803","system_id":"levelo_inurba_marseille","lat":43.25114,"lon":5.40326,"is_reserved":false,"is_disabled":false,"rental_uris":{"android":"levelo://app?vid=11e58ca0-2a69-4a5d-9e0a-289cde6a1803","ios":"levelo://app?vid=11e58ca0-2a69-4a5d-9e0a-289cde6a1803"},"vehicle_type_id":"4","last_reported":1701382005,"current_range_meters":22400,"station_id":"ce4bhlh2rcd13ifvqgig","pricing_plan_id":"free"},{"bike_id":"56de4042-8f8a-41c1-acb7-06389076bc1c","system_id":"levelo_inurba_marseille","lat":43.25111,"lon":5.4032,"is_reserved":false,"is_disabled":false,"rental_uris":{"android":"levelo://app?vid=56de4042-8f8a-41c1-acb7-06389076bc1c","ios":"levelo://app?vid=56de4042-8f8a-41c1-acb7-06389076bc1c"},"vehicle_type_id":"4","last_reported":1701382005,"current_range_meters":9600,"station_id":"ce4bhlh2rcd13ifvqgig","pricing_plan_id":"free"},{"bike_id":"85122194-f8bc-4b91-8c8d-6d0faf45b521","system_id":"levelo_inurba_marseille","lat":43.2511,"lon":5.40319,"is_reserved":false,"is_disabled":false,"rental_uris":{"android":"levelo://app?vid=85122194-f8bc-4b91-8c8d-6d0faf45b521","ios":"levelo://app?vid=85122194-f8bc-4b91-8c8d-6d0faf45b521"},"vehicle_type_id":"4","last_reported":1701382005,"current_range_meters":4400,"station_id":"ce4bhlh2rcd13ifvqgig","pricing_plan_id":"free"},{"bike_id":"b07d0e2b-aade-46c5-9874-3bc9fdaff042","system_id":"levelo_inurba_marseille","lat":43.2511,"lon":5.40324,"is_reserved":false,"is_disabled":false,"rental_uris":{"android":"levelo://app?vid=b07d0e2b-aade-46c5-9874-3bc9fdaff042","ios":"levelo://app?vid=b07d0e2b-aade-46c5-9874-3bc9fdaff042"},"vehicle_type_id":"4","last_reported":1701382005,"current_range_meters":800,"station_id":"ce4bhlh2rcd13ifvqgig","pricing_plan_id":"free"},{"bike_id":"f74c6e16-fc22-4227-8986-b81cca2fcb75","system_id":"levelo_inurba_marseille","lat":43.25102,"lon":5.403214,"is_reserved":false,"is_disabled":false,"rental_uris":{"android":"levelo://app?vid=f74c6e16-fc22-4227-8986-b81cca2fcb75","ios":"levelo://app?vid=f74c6e16-fc22-4227-8986-b81cca2fcb75"},"vehicle_type_id":"4","last_reported":1701382005,"current_range_meters":23600,"station_id":"ce4bhlh2rcd13ifvqgig","pricing_plan_id":"free"},{"bike_id":"4671570c-dbb6-4685-887b-f407ccd122ed","system_id":"levelo_inurba_marseille","lat":43.25102,"lon":5.403214,"is_reserved":false,"is_disabled":false,"rental_uris":{"android":"levelo://app?vid=4671570c-dbb6-4685-887b-f407ccd122ed","ios":"levelo://app?vid=4671570c-dbb6-4685-887b-f407ccd122ed"},"vehicle_type_id":"4","last_reported":1701382005,"current_range_meters":27200,"station_id":"ce4bhlh2rcd13ifvqgig","pricing_plan_id":"free"},{"bike_id":"344e2782-b01f-4304-a9bc-dc6e0c0e0d53","system_id":"levelo_inurba_marseille","lat":43.25102,"lon":5.403214,"is_reserved":false,"is_disabled":false,"rental_uris":{"android":"levelo://app?vid=344e2782-b01f-4304-a9bc-dc6e0c0e0d53","ios":"levelo://app?vid=344e2782-b01f-4304-a9bc-dc6e0c0e0d53"},"vehicle_type_id":"4","last_reported":1701382005,"current_range_meters":8800,"station_id":"ce4bhlh2rcd13ifvqgig","pricing_plan_id":"free"},{"bike_id":"99eb14d0-6bd9-4b92-bca0-46a174111690","system_id":"levelo_inurba_marseille","lat":43.25103,"lon":5.40326,"is_reserved":false,"is_disabled":false,"rental_uris":{"android":"levelo://app?vid=99eb14d0-6bd9-4b92-bca0-46a174111690","ios":"levelo://app?vid=99eb14d0-6bd9-4b92-bca0-46a174111690"},"vehicle_type_id":"4","last_reported":1701382005,"current_range_meters":19200,"station_id":"ce4bhlh2rcd13ifvqgig","pricing_plan_id":"free"},{"bike_id":"32f477be-3a6f-453d-b2ac-e0450422659f","system_id":"levelo_inurba_marseille","lat":43.243884,"lon":5.370736,"is_reserved":false,"is_disabled":false,"rental_uris":{"android":"levelo://app?vid=32f477be-3a6f-453d-b2ac-e0450422659f","ios":"levelo://app?vid=32f477be-3a6f-453d-b2ac-e0450422659f"},"vehicle_type_id":"4","last_reported":1701382005,"current_range_meters":10000,"station_id":"ce4bhhh2rcd13ifvqfk0","pricing_plan_id":"free"},{"bike_id":"2580a1ca-4ee7-4bd7-9541-a2f0c3d9253c","system_id":"levelo_inurba_marseille","lat":43.243884,"lon":5.370736,"is_reserved":false,"is_disabled":false,"rental_uris":{"android":"levelo://app?vid=2580a1ca-4ee7-4bd7-9541-a2f0c3d9253c","ios":"levelo://app?vid=2580a1ca-4ee7-4bd7-9541-a2f0c3d9253c"},"vehicle_type_id":"4","last_reported":1701382005,"current_range_meters":30000,"station_id":"ce4bhhh2rcd13ifvqfk0","pricing_plan_id":"free"},{"bike_id":"bd6d2b78-452c-4d24-a3b0-780134fbe566","system_id":"levelo_inurba_marseille","lat":43.245581,"lon":5.395069,"is_reserved":false,"is_disabled":false,"rental_uris":{"android":"levelo://app?vid=bd6d2b78-452c-4d24-a3b0-780134fbe566","ios":"levelo://app?vid=bd6d2b78-452c-4d24-a3b0-780134fbe566"},"vehicle_type_id":"4","last_reported":1701382005,"current_range_meters":31200,"station_id":"ce4bhlp2rcd13ifvqgjg","pricing_plan_id":"free"},{"bike_id":"cd0018b6-ee8b-489f-8af3-c1c2259160c3","system_id":"levelo_inurba_marseille","lat":43.240623,"lon":5.377642,"is_reserved":false,"is_disabled":false,"rental_uris":{"android":"levelo://app?vid=cd0018b6-ee8b-489f-8af3-c1c2259160c3","ios":"levelo://app?vid=cd0018b6-ee8b-489f-8af3-c1c2259160c3"},"vehicle_type_id":"4","last_reported":1701382005,"current_range_meters":28400,"station_id":"ce4bhnp2rcd13ifvqgvg","pricing_plan_id":"free"},